{"last_updated":1718658468,"ttl":30,"version":"2.2","data":{"bikes":[{"bike_id":"e0b45566-73f7-43a0-a390-4a47fcbabe3a","system_id":"levelo_inurba_marseille","lat":43.31345,"lon":5.3672,"is_reserved":false,"is_disabled":false,"rental_uris":{"android":"levelo://app?vid=e0b45566-73f7-43a0-a390-4a47fcbabe3a","ios":"levelo://app?vid=e0b45566-73f7-43a0-a390-4a47fcbabe3a"},"vehicle_type_id":"4","last_reported":1718658468,"current_range_meters":0,"station_id":"ce4bgr92rcd13ifvqc6g","pricing_plan_id":"cebpf4jnsgd1na2vs0mg"},{"bike_id":"8c0c2048-58d2-4ec7-aaf9-ec1140c82f2a","system_id":"levelo_inurba_marseille","lat":43.31368,"lon":5.3669,"is_reserved":false,"is_disabled":false,"rental_uris":{"android":"levelo://app?vid=8c0c2048-58d2-4ec7-aaf9-ec1140c82f2a","ios":"levelo://app?vid=8c0c2048-58d2-4ec7-aaf9-ec1140c82f2a"},"vehicle_type_id":"4","last_reported":1718658468,"current_range_meters":17600,"station_id":"ce4bgr92rcd13ifvqc6g","pricing_plan_id":"cebpf4jnsgd1na2vs0mg"},{"bike_id":"5278c218-71c4-4981-a7ce-b46944c4cd1c","system_id":"levelo_inurba_marseille","lat":43.312239,"lon":5.368562,"is_reserved":false,"is_disabled":false,"rental_uris":{"android":"levelo://app?vid=5278c218-71c4-4981-a7ce-b46944c4cd1c","ios":"levelo://app?vid=5278c218-71c4-4981-a7ce-b46944c4cd1c"},"vehicle_type_id":"4","last_reported":1718658468,"current_range_meters":0,"station_id":"ce4bgl92rcd13ifvqbq0","pricing_plan_id":"cebpf4jnsgd1na2vs0mg"},{"bike_id":"58bd27d3-21b7-434c-a671-10686eb73061","system_id":"levelo_inurba_marseille","lat":43.312239,"lon":5.368562,"is_reserved":false,"is_disabled":false,"rental_uris":{"android":"levelo://app?vid=58bd27d3-21b7-434c-a671-10686eb73061","ios":"levelo://app?vid=58bd27d3-21b7-434c-a671-10686eb73061"},"vehicle_type_id":"4","last_reported":1718658468,"current_range_meters":0,"station_id":"ce4bgl92rcd13ifvqbq0","pricing_plan_id":"cebpf4jnsgd1na2vs0mg"},{"bike_id":"a3ac5a79-b3b1-4f60-95cf-dd1f60c967c9","system_id":"levelo_inurba_marseille","lat":43.312223,"lon":5.368587,"is_reserved":false,"is_disabled":false,"rental_uris":{"android":"levelo://app?vid=a3ac5a79-b3b1-4f60-95cf-dd1f60c967c9","ios":"levelo://app?vid=a3ac5a79-b3b1-4f60-95cf-dd1f60c967c9"},"vehicle_type_id":"4","last_reported":1718658468,"current_range_meters":0,"station_id":"ce4bgl92rcd13ifvqbq0","pricing_plan_id":"cebpf4jnsgd1na2vs0mg"},{"bike_id":"cbde46fe-a28e-4ab7-9940-c3298b4a5eb7","system_id":"levelo_inurba_marseille","lat":43.312239,"lon":5.368562,"is_reserved":false,"is_disabled":false,"rental_uris":{"android":"levelo://app?vid=cbde46fe-a28e-4ab7-9940-c3298b4a5eb7","ios":"levelo://app?vid=cbde46fe-a28e-4ab7-9940-c3298b4a5eb7"},"vehicle_type_id":"4","last_reported":1718658468,"current_range_meters":31200,"station_id":"ce4bgl92rcd13ifvqbq0","pricing_plan_id":"cebpf4jnsgd1na2vs0mg"},{"bike_id":"e50b7e09-74f0-4452-8924-6c219c04f16c","system_id":"levelo_inurba_marseille","lat":43.30916,"lon":5.3685,"is_reserved":false,"is_disabled":false,"rental_uris":{"android":"levelo://app?vid=e50b7e09-74f0-4452-8924-6c219c04f16c","ios":"levelo://app?vid=e50b7e09-74f0-4452-8924-6c219c04f16c"},"vehicle_type_id":"4","last_reported":1718658468,"current_range_meters":5200,"station_id":"ce4bgn92rcd13ifvqbvg","pricing_plan_id":"cebpf4jnsgd1na2vs0mg"},{"bike_id":"3b1bf77f-94f5-4843-9c1f-f5be9db08193","system_id":"levelo_inurba_marseille","lat":43.315096,"lon":5.371219,"is_reserved":false,"is_disabled":false,"rental_uris":{"android":"levelo://app?vid=3b1bf77f-94f5-4843-9c1f-f5be9db08193","ios":"levelo://app?vid=3b1bf77f-94f5-4843-9c1f-f5be9db08193"},"vehicle_type_id":"4","last_reported":1718658468,"current_range_meters":20000,"station_id":"","pricing_plan_id":"cebpf4jnsgd1na2vs0mg"},{"bike_id":"e4aace69-0051-4f50-8ca9-dc406684945c","system_id":"levelo_inurba_marseille","lat":43.315116,"lon":5.371203,"is_reserved":false,"is_disabled":false,"rental_uris":{"android":"levelo://app?vid=e4aace69-0051-4f50-8ca9-dc406684945c","ios":"levelo://app?vid=e4aace69-0051-4f50-8ca9-dc406684945c"},"vehicle_type_id":"4","last_reported":1718658468,"current_range_meters":800,"station_id":"","pricing_plan_id":"cebpf4jnsgd1na2vs0mg"},{"bike_id":"6caa9020-94dc-4d75-8229-575cc014ca83","system_id":"levelo_inurba_marseille","lat":43.314811,"lon":5.373103,"is_reserved":false,"is_disabled":false,"rental_uris":{"android":"levelo://app?vid=6caa9020-94dc-4d75-8229-575cc014ca83","ios":"levelo://app?vid=6caa9020-94dc-4d75-8229-575cc014ca83"},"vehicle_type_id":"4","last_reported":1718658468,"current_range_meters":3200,"station_id":"ce4bgt12rcd13ifvqcd0","pricing_plan_id":"cebpf4jnsgd1na2vs0mg"},{"bike_id":"14aada7c-7aaf-4d0e-aaeb-2f165546d8e7","system_id":"levelo_inurba_marseille","lat":43.314811,"lon":5.373104,"is_reserved":false,"is_disabled":false,"rental_uris":{"android":"levelo://app?vid=14aada7c-7aaf-4d0e-aaeb-2f165546d8e7","ios":"levelo://app?vid=14aada7c-7aaf-4d0e-aaeb-2f165546d8e7"},"vehicle_type_id":"4","last_reported":1718658468,"current_range_meters":0,"station_id":"ce4bgt12rcd13ifvqcd0","pricing_plan_id":"cebpf4jnsgd1na2vs0mg"},{"bike_id":"dc0002b9-c31a-4fb2-85a3-e56b5a206ef5","system_id":"levelo_inurba_marseille","lat":43.314811,"lon":5.373103,"is_reserved":false,"is_disabled":false,"rental_uris":{"android":"levelo://app?vid=dc0002b9-c31a-4fb2-85a3-e56b5a206ef5","ios":"levelo://app?vid=dc0002b9-c31a-4fb2-85a3-e56b5a206ef5"},"vehicle_type_id":"4","last_reported":1718658468,"current_range_meters":11600,"station_id":"ce4bgt12rcd13ifvqcd0","pricing_plan_id":"cebpf4jnsgd1na2vs0mg"},{"bike_id":"19fbc8e3-e4c5-46ce-8ac7-41d0314da69e","system_id":"levelo_inurba_marseille","lat":43.314494,"lon":5.373708,"is_reserved":false,"is_disabled":false,"rental_uris":{"android":"levelo://app?vid=19fbc8e3-e4c5-46ce-8ac7-41d0314da69e","ios":"levelo://app?vid=19fbc8e3-e4c5-46ce-8ac7-41d0314da69e"},"vehicle_type_id":"4","last_reported":1718658468,"current_range_meters":28800,"station_id":"","pricing_plan_id":"cebpf4jnsgd1na2vs0mg"},{"bike_id":"270143d2-5b46-4379-861d-fec58bb798db","system_id":"levelo_inurba_marseille","lat":43.314532,"lon":5.373771,"is_reserved":false,"is_disabled":false,"rental_uris":{"android":"levelo://app?vid=270143d2-5b46-4379-861d-fec58bb798db","ios":"levelo://app?vid=270143d2-5b46-4379-861d-fec58bb798db"},"vehicle_type_id":"4","last_reported":1718658468,"current_range_meters":28000,"station_id":"","pricing_plan_id":"cebpf4jnsgd1na2vs0mg"},{"bike_id":"9cb49bee-4802-405c-9485-97a1bf847630","system_id":"levelo_inurba_marseille","lat":43.309034,"lon":5.371783,"is_reserved":false,"is_disabled":false,"rental_uris":{"android":"levelo://app?vid=9cb49bee-4802-405c-9485-97a1bf847630","ios":"levelo://app?vid=9cb49bee-4802-405c-9485-97a1bf847630"},"vehicle_type_id":"4","last_reported":1718658468,"current_range_meters":10000,"station_id":"ce4bguh2rcd13ifvqckg","pricing_plan_id":"cebpf4jnsgd1na2vs0mg"},{"bike_id":"180496eb-d7bf-4f37-a08e-7d6197c98646","system_id":"levelo_inurba_marseille","lat":43.309034,"lon":5.371783,"is_reserved":false,"is_disabled":false,"rental_uris":{"android":"levelo://app?vid=180496eb-d7bf-4f37-a08e-7d6197c98646","ios":"levelo://app?vid=180496eb-d7bf-4f37-a08e-7d6197c98646"},"vehicle_type_id":"4","last_reported":1718658468,"current_range_meters":13200,"station_id":"ce4bguh2rcd13ifvqckg","pricing_plan_id":"cebpf4jnsgd1na2vs0mg"},{"bike_id":"800411f3-e60a-42cd-88ae-ebb3c6f6a1f3","system_id":"levelo_inurba_marseille","lat":43.31663,"lon":5.37231,"is_reserved":false,"is_disabled":false,"rental_uris":{"android":"levelo://app?vid=800411f3-e60a-42cd-88ae-ebb3c6f6a1f3","ios":"levelo://app?vid=800411f3-e60a-42cd-88ae-ebb3c6f6a1f3"},"vehicle_type_id":"4","last_reported":1718658468,"current_range_meters":24800,"station_id":"","pricing_plan_id":"cebpf4jnsgd1na2vs0mg"},{"bike_id":"90599dcc-4dba-4c01-9d35-0e6f2e550c5b","system_id":"levelo_inurba_marseille","lat":43.313828,"lon":5.375386,"is_reserved":false,"is_disabled":false,"rental_uris":{"android":"levelo://app?vid=90599dcc-4dba-4c01-9d35-0e6f2e550c5b","ios":"levelo://app?vid=90599dcc-4dba-4c01-9d35-0e6f2e550c5b"},"vehicle_type_id":"4","last_reported":1718658468,"current_range_meters":4000,"station_id":"","pricing_plan_id":"cebpf4jnsgd1na2vs0mg"},{"bike_id":"0353dc12-018d-417f-90fc-f0a46dc0ed1f","system_id":"levelo_inurba_marseille","lat":43.305712,"lon":5.365641,"is_reserved":false,"is_disabled":false,"rental_uris":{"android":"levelo://app?vid=0353dc12-018d-417f-90fc-f0a46dc0ed1f","ios":"levelo://app?vid=0353dc12-018d-417f-90fc-f0a46dc0ed1f"},"vehicle_type_id":"4","last_reported":1718658468,"current_range_meters":28800,"station_id":"ce4bgs12rcd13ifvqcag","pricing_plan_id":"cebpf4jnsgd1na2vs0mg"},{"bike_id":"83e1c478-eb2b-40d0-ba6d-9bf2804b3c2a","system_id":"levelo_inurba_marseille","lat":43.305368,"lon":5.367343,"is_reserved":false,"is_disabled":false,"rental_uris":{"android":"levelo://app?vid=83e1c478-eb2b-40d0-ba6d-9bf2804b3c2a","ios":"levelo://app?vid=83e1c478-eb2b-40d0-ba6d-9bf2804b3c2a"},"vehicle_type_id":"4","last_reported":1718658468,"current_range_meters":25200,"station_id":"ce4bgrp2rcd13ifvqc9g","pricing_plan_id":"cebpf4jnsgd1na2vs0mg"},{"bike_id":"6e49d174-7e1e-4574-a5c1-a40f57c09df1","system_id":"levelo_inurba_marseille","lat":43.30534,"lon":5.366423,"is_reserved":false,"is_disabled":false,"rental_uris":{"android":"levelo://app?vid=6e49d174-7e1e-4574-a5c1-a40f57c09df1","ios":"levelo://app?vid=6e49d174-7e1e-4574-a5c1-a40f57c09df1"},"vehicle_type_id":"4","last_reported":1718658468,"current_range_meters":31200,"station_id":"","pricing_plan_id":"cebpf4jnsgd1na2vs0mg"},{"bike_id":"a51b319b-2743-452d-949a-cfdea5b410b5","system_id":"levelo_inurba_marseille","lat":43.3082,"lon":5.37519,"is_reserved":false,"is_disabled":false,"rental_uris":{"android":"levelo://app?vid=a51b319b-2743-452d-949a-cfdea5b410b5","ios":"levelo://app?vid=a51b319b-2743-452d-949a-cfdea5b410b5"},"vehicle_type_id":"4","last_reported":1718658468,"current_range_meters":7600,"station_id":"","pricing_plan_id":"cebpf4jnsgd1na2vs0mg"},{"bike_id":"046db675-7f70-4a7b-9230-8ef2c6cab97f","system_id":"levelo_inurba_marseille","lat":43.305989,"lon":5.37225,"is_reserved":false,"is_disabled":false,"rental_uris":{"android":"levelo://app?vid=046db675-7f70-4a7b-9230-8ef2c6cab97f","ios":"levelo://app?vid=046db675-7f70-4a7b-9230-8ef2c6cab97f"},"vehicle_type_id":"4","last_reported":1718658468,"current_range_meters":31600,"station_id":"ce4bgqh2rcd13ifvqc4g","pricing_plan_id":"cebpf4jnsgd1na2vs0mg"},{"bike_id":"6ec1edd7-2f03-4d4f-97a5-9b09eeaea47d","system_id":"levelo_inurba_marseille","lat":43.305989,"lon":5.37225,"is_reserved":false,"is_disabled":false,"rental_uris":{"android":"levelo://app?vid=6ec1edd7-2f03-4d4f-97a5-9b09eeaea47d","ios":"levelo://app?vid=6ec1edd7-2f03-4d4f-97a5-9b09eeaea47d"},"vehicle_type_id":"4","last_reported":1718658468,"current_range_meters":13200,"station_id":"ce4bgqh2rcd13ifvqc4g","pricing_plan_id":"cebpf4jnsgd1na2vs0mg"},{"bike_id":"33ecb594-20cf-4f8e-bba9-f1aac95351f3","system_id":"levelo_inurba_marseille","lat":43.305989,"lon":5.37225,"is_reserved":false,"is_disabled":false,"rental_uris":{"android":"levelo://app?vid=33ecb594-20cf-4f8e-bba9-f1aac95351f3","ios":"levelo://app?vid=33ecb594-20cf-4f8e-bba9-f1aac95351f3"},"vehicle_type_id":"4","last_reported":1718658468,"current_range_meters":13200,"station_id":"ce4bgqh2rcd13ifvqc4g","pricing_plan_id":"cebpf4jnsgd1na2vs0mg"},{"bike_id":"b7da7ff5-e32c-4309-b716-43a2de218bdb","system_id":"levelo_inurba_marseille","lat":43.305989,"lon":5.37225,"is_reserved":false,"is_disabled":false,"rental_uris":{"android":"levelo://app?vid=b7da7ff5-e32c-4309-b716-43a2de218bdb","ios":"levelo://app?vid=b7da7ff5-e32c-4309-b716-43a2de218bdb"},"vehicle_type_id":"4","last_reported":1718658468,"current_range_meters":24400,"station_id":"ce4bgqh2rcd13ifvqc4g","pricing_plan_id":"cebpf4jnsgd1na2vs0mg"},{"bike_id":"e390a17c-e3bc-418a-ae91-5eec8346c33a","system_id":"levelo_inurba_marseille","lat":43.305989,"lon":5.37225,"is_reserved":false,"is_disabled":false,"rental_uris":{"android":"levelo://app?vid=e390a17c-e3bc-418a-ae91-5eec8346c33a","ios":"levelo://app?vid=e390a17c-e3bc-418a-ae91-5eec8346c33a"},"vehicle_type_id":"4","last_reported":1718658468,"current_range_meters":29600,"station_id":"ce4bgqh2rcd13ifvqc4g","pricing_plan_id":"cebpf4jnsgd1na2vs0mg"},{"bike_id":"1975ce52-4d21-464d-959b-db5ef831307d","system_id":"levelo_inurba_marseille","lat":43.305989,"lon":5.37225,"is_reserved":false,"is_disabled":false,"rental_uris":{"android":"levelo://app?vid=1975ce52-4d21-464d-959b-db5ef831307d","ios":"levelo://app?vid=1975ce52-4d21-464d-959b-db5ef831307d"},"vehicle_type_id":"4","last_reported":1718658468,"current_range_meters":22400,"station_id":"ce4bgqh2rcd13ifvqc4g","pricing_plan_id":"cebpf4jnsgd1na2vs0mg"},{"bike_id":"35c01d17-3fce-4334-a690-e8976cb47bb2","system_id":"levelo_inurba_marseille","lat":43.3112,"lon":5.37771,"is_reserved":false,"is_disabled":false,"rental_uris":{"android":"levelo://app?vid=35c01d17-3fce-4334-a690-e8976cb47bb2","ios":"levelo://app?vid=35c01d17-3fce-4334-a690-e8976cb47bb2"},"vehicle_type_id":"4","last_reported":1718658468,"current_range_meters":24400,"station_id":"ce4bgt92rcd13ifvqcg0","pricing_plan_id":"cebpf4jnsgd1na2vs0mg"},{"bike_id":"f407628e-2123-4a69-a254-28536389030f","system_id":"levelo_inurba_marseille","lat":43.311125,"lon":5.377624,"is_reserved":false,"is_disabled":false,"rental_uris":{"android":"levelo://app?vid=f407628e-2123-4a69-a254-28536389030f","ios":"levelo://app?vid=f407628e-2123-4a69-a254-28536389030f"},"vehicle_type_id":"4","last_reported":1718658468,"current_range_meters":26000,"station_id":"ce4bgt92rcd13ifvqcg0","pricing_plan_id":"cebpf4jnsgd1na2vs0mg"},{"bike_id":"f750bfb4-2d70-46d6-a7ea-3fa2c0a1c25a","system_id":"levelo_inurba_marseille","lat":43.306404,"lon":5.374116,"is_reserved":false,"is_disabled":false,"rental_uris":{"android":"levelo://app?vid=f750bfb4-2d70-46d6-a7ea-3fa2c0a1c25a","ios":"levelo://app?vid=f750bfb4-2d70-46d6-a7ea-3fa2c0a1c25a"},"vehicle_type_id":"4","last_reported":1718658468,"current_range_meters":20000,"station_id":"","pricing_plan_id":"cebpf4jnsgd1na2vs0mg"},{"bike_id":"2c2780e0-44bd-4c75-a741-7d1105d102ae","system_id":"levelo_inurba_marseille","lat":43.30795,"lon":5.37635,"is_reserved":false,"is_disabled":false,"rental_uris":{"android":"levelo://app?vid=2c2780e0-44bd-4c75-a741-7d1105d102ae","ios":"levelo://app?vid=2c2780e0-44bd-4c75-a741-7d1105d102ae"},"vehicle_type_id":"4","last_reported":1718658468,"current_range_meters":17600,"station_id":"ce4bgv92rcd13ifvqcq0","pricing_plan_id":"cebpf4jnsgd1na2vs0mg"},{"bike_id":"eedf13a2-ddf1-41ce-ad84-670c9c93eb28","system_id":"levelo_inurba_marseille","lat":43.307945,"lon":5.376487,"is_reserved":false,"is_disabled":false,"rental_uris":{"android":"levelo://app?vid=eedf13a2-ddf1-41ce-ad84-670c9c93eb28","ios":"levelo://app?vid=eedf13a2-ddf1-41ce-ad84-670c9c93eb28"},"vehicle_type_id":"4","last_reported":1718658468,"current_range_meters":23200,"station_id":"ce4bgv92rcd13ifvqcq0","pricing_plan_id":"cebpf4jnsgd1na2vs0mg"},{"bike_id":"e23fcebe-79b0-4cb3-8048-f5abf535fc2a","system_id":"levelo_inurba_marseille","lat":43.307945,"lon":5.376487,"is_reserved":false,"is_disabled":false,"rental_uris":{"android":"levelo://app?vid=e23fcebe-79b0-4cb3-8048-f5abf535fc2a","ios":"levelo://app?vid=e23fcebe-79b0-4cb3-8048-f5abf535fc2a"},"vehicle_type_id":"4","last_reported":1718658468,"current_range_meters":24000,"station_id":"ce4bgv92rcd13ifvqcq0","pricing_plan_id":"cebpf4jnsgd1na2vs0mg"},{"bike_id":"c41667df-77ea-45d2-9638-14c3a0ad0ac8","system_id":"levelo_inurba_marseille","lat":43.307945,"lon":5.376487,"is_reserved":false,"is_disabled":false,"rental_uris":{"android":"levelo://app?vid=c41667df-77ea-45d2-9638-14c3a0ad0ac8","ios":"levelo://app?vid=c41667df-77ea-45d2-9638-14c3a0ad0ac8"},"vehicle_type_id":"4","last_reported":1718658468,"current_range_meters":26000,"station_id":"ce4bgv92rcd13ifvqcq0","pricing_plan_id":"cebpf4jnsgd1na2vs0mg"},{"bike_id":"2d9b1427-1cf0-467e-8df5-4a59bdabd8b0","system_id":"levelo_inurba_marseille","lat":43.307945,"lon":5.376487,"is_reserved":false,"is_disabled":false,"rental_uris":{"android":"levelo://app?vid=2d9b1427-1cf0-467e-8df5-4a59bdabd8b0","ios":"levelo://app?vid=2d9b1427-1cf0-467e-8df5-4a59bdabd8b0"},"vehicle_type_id":"4","last_reported":1718658468,"current_range_meters":24400,"station_id":"ce4bgv92rcd13ifvqcq0","pricing_plan_id":"cebpf4jnsgd1na2vs0mg"},{"bike_id":"0a500d59-6c01-405d-a53f-57ff22959de9","system_id":"levelo_inurba_marseille","lat":43.307945,"lon":5.376487,"is_reserved":false,"is_disabled":false,"rental_uris":{"android":"levelo://app?vid=0a500d59-6c01-405d-a53f-57ff22959de9","ios":"levelo://app?vid=0a500d59-6c01-405d-a53f-57ff22959de9"},"vehicle_type_id":"4","last_reported":1718658468,"current_range_meters":21200,"station_id":"ce4bgv92rcd13ifvqcq0","pricing_plan_id":"cebpf4jnsgd1na2vs0mg"},{"bike_id":"1d928960-b070-458b-a395-eb1b9692fd5d","system_id":"levelo_inurba_marseille","lat":43.307945,"lon":5.376487,"is_reserved":false,"is_disabled":false,"rental_uris":{"android":"levelo://app?vid=1d928960-b070-458b-a395-eb1b9692fd5d","ios":"levelo://app?vid=1d928960-b070-458b-a395-eb1b9692fd5d"},"vehicle_type_id":"4","last_reported":1718658468,"current_range_meters":26800,"station_id":"ce4bgv92rcd13ifvqcq0","pricing_plan_id":"cebpf4jnsgd1na2vs0mg"},{"bike_id":"bf06d0c4-fb49-48e5-b865-20cf04a451fb","system_id":"levelo_inurba_marseille","lat":43.317075,"lon":5.377367,"is_reserved":false,"is_disabled":false,"rental_uris":{"android":"levelo://app?vid=bf06d0c4-fb49-48e5-b865-20cf04a451fb","ios":"levelo://app?vid=bf06d0c4-fb49-48e5-b865-20cf04a451fb"},"vehicle_type_id":"4","last_reported":1718658468,"current_range_meters":12800,"station_id":"ce4bgth2rcd13ifvqch0","pricing_plan_id":"cebpf4jnsgd1na2vs0mg"},{"bike_id":"15ed287a-fffb-4162-87a2-751502357e19","system_id":"levelo_inurba_marseille","lat":43.317075,"lon":5.377367,"is_reserved":false,"is_disabled":false,"rental_uris":{"android":"levelo://app?vid=15ed287a-fffb-4162-87a2-751502357e19","ios":"levelo://app?vid=15ed287a-fffb-4162-87a2-751502357e19"},"vehicle_type_id":"4","last_reported":1718658468,"current_range_meters":30000,"station_id":"ce4bgth2rcd13ifvqch0","pricing_plan_id":"cebpf4jnsgd1na2vs0mg"},{"bike_id":"90bb50b3-d5be-4f90-a444-af3acf4563fa","system_id":"levelo_inurba_marseille","lat":43.317075,"lon":5.377367,"is_reserved":false,"is_disabled":false,"rental_uris":{"android":"levelo://app?vid=90bb50b3-d5be-4f90-a444-af3acf4563fa","ios":"levelo://app?vid=90bb50b3-d5be-4f90-a444-af3acf4563fa"},"vehicle_type_id":"4","last_reported":1718658468,"current_range_meters":23600,"station_id":"ce4bgth2rcd13ifvqch0","pricing_plan_id":"cebpf4jnsgd1na2vs0mg"},{"bike_id":"51c68953-1b14-4579-9107-5869311321f3","system_id":"levelo_inurba_marseille","lat":43.315289,"lon":5.380349,"is_reserved":false,"is_disabled":false,"rental_uris":{"android":"levelo://app?vid=51c68953-1b14-4579-9107-5869311321f3","ios":"levelo://app?vid=51c68953-1b14-4579-9107-5869311321f3"},"vehicle_type_id":"4","last_reported":1718658468,"current_range_meters":5200,"station_id":"ce4bhsp2rcd13ifvqi50","pricing_plan_id":"cebpf4jnsgd1na2vs0mg"},{"bike_id":"89d72690-12ba-4482-a146-164b8b03acfd","system_id":"levelo_inurba_marseille","lat":43.315289,"lon":5.380349,"is_reserved":false,"is_disabled":false,"rental_uris":{"android":"levelo://app?vid=89d72690-12ba-4482-a146-164b8b03acfd","ios":"levelo://app?vid=89d72690-12ba-4482-a146-164b8b03acfd"},"vehicle_type_id":"4","last_reported":1718658468,"current_range_meters":30000,"station_id":"ce4bhsp2rcd13ifvqi50","pricing_plan_id":"cebpf4jnsgd1na2vs0mg"},{"bike_id":"e54d6524-d778-4699-957a-940ca7079c60","system_id":"levelo_inurba_marseille","lat":43.315289,"lon":5.380349,"is_reserved":false,"is_disabled":false,"rental_uris":{"android":"levelo://app?vid=e54d6524-d778-4699-957a-940ca7079c60","ios":"levelo://app?vid=e54d6524-d778-4699-957a-940ca7079c60"},"vehicle_type_id":"4","last_reported":1718658468,"current_range_meters":18000,"station_id":"ce4bhsp2rcd13ifvqi50","pricing_plan_id":"cebpf4jnsgd1na2vs0mg"},{"bike_id":"540ab8c2-4cf9-4182-b4d6-66c67e0d23e6","system_id":"levelo_inurba_marseille","lat":43.31533,"lon":5.380218,"is_reserved":false,"is_disabled":false,"rental_uris":{"android":"levelo://app?vid=540ab8c2-4cf9-4182-b4d6-66c67e0d23e6","ios":"levelo://app?vid=540ab8c2-4cf9-4182-b4d6-66c67e0d23e6"},"vehicle_type_id":"4","last_reported":1718658468,"current_range_meters":12000,"station_id":"ce4bhsp2rcd13ifvqi50","pricing_plan_id":"cebpf4jnsgd1na2vs0mg"},{"bike_id":"0ffe3514-9843-4c21-beab-1e564d1ffcc1","system_id":"levelo_inurba_marseille","lat":43.315289,"lon":5.380349,"is_reserved":false,"is_disabled":false,"rental_uris":{"android":"levelo://app?vid=0ffe3514-9843-4c21-beab-1e564d1ffcc1","ios":"levelo://app?vid=0ffe3514-9843-4c21-beab-1e564d1ffcc1"},"vehicle_type_id":"4","last_reported":1718658468,"current_range_meters":19200,"station_id":"ce4bhsp2rcd13ifvqi50","pricing_plan_id":"cebpf4jnsgd1na2vs0mg"},{"bike_id":"7ca52314-38f4-4ce4-a595-7858c9ce673b","system_id":"levelo_inurba_marseille","lat":43.315289,"lon":5.380349,"is_reserved":false,"is_disabled":false,"rental_uris":{"android":"levelo://app?vid=7ca52314-38f4-4ce4-a595-7858c9ce673b","ios":"levelo://app?vid=7ca52314-38f4-4ce4-a595-7858c9ce673b"},"vehicle_type_id":"4","last_reported":1718658468,"current_range_meters":13600,"station_id":"ce4bhsp2rcd13ifvqi50","pricing_plan_id":"cebpf4jnsgd1na2vs0mg"},{"bike_id":"86708944-1deb-4dad-a14e-601cba09a086","system_id":"levelo_inurba_marseille","lat":43.31532,"lon":5.38031,"is_reserved":false,"is_disabled":false,"rental_uris":{"android":"levelo://app?vid=86708944-1deb-4dad-a14e-601cba09a086","ios":"levelo://app?vid=86708944-1deb-4dad-a14e-601cba09a086"},"vehicle_type_id":"4","last_reported":1718658468,"current_range_meters":0,"station_id":"ce4bhsp2rcd13ifvqi50","pricing_plan_id":"cebpf4jnsgd1na2vs0mg"},{"bike_id":"3094dfdf-b75c-4d88-bdc8-7cbff52753e1","system_id":"levelo_inurba_marseille","lat":43.315289,"lon":5.380349,"is_reserved":false,"is_disabled":false,"rental_uris":{"android":"levelo://app?vid=3094dfdf-b75c-4d88-bdc8-7cbff52753e1","ios":"levelo://app?vid=3094dfdf-b75c-4d88-bdc8-7cbff52753e1"},"vehicle_type_id":"4","last_reported":1718658468,"current_range_meters":3600,"station_id":"ce4bhsp2rcd13ifvqi50","pricing_plan_id":"cebpf4jnsgd1na2vs0mg"},{"bike_id":"510d3604-a9c9-4b44-b1de-773e0e0e3e47","system_id":"levelo_inurba_marseille","lat":43.315289,"lon":5.380349,"is_reserved":false,"is_disabled":false,"rental_uris":{"android":"levelo://app?vid=510d3604-a9c9-4b44-b1de-773e0e0e3e47","ios":"levelo://app?vid=510d3604-a9c9-4b44-b1de-773e0e0e3e47"},"vehicle_type_id":"4","last_reported":1718658468,"current_range_meters":28400,"station_id":"ce4bhsp2rcd13ifvqi50","pricing_plan_id":"cebpf4jnsgd1na2vs0mg"},{"bike_id":"7b7d14f8-7ab5-4d90-84bb-50c1d58ea6b6","system_id":"levelo_inurba_marseille","lat":43.301939,"lon":5.366286,"is_reserved":false,"is_disabled":false,"rental_uris":{"android":"levelo://app?vid=7b7d14f8-7ab5-4d90-84bb-50c1d58ea6b6","ios":"levelo://app?vid=7b7d14f8-7ab5-4d90-84bb-50c1d58ea6b6"},"vehicle_type_id":"4","last_reported":1718658468,"current_range_meters":28000,"station_id":"ce4bgrh2rcd13ifvqc8g","pricing_plan_id":"cebpf4jnsgd1na2vs0mg"},{"bike_id":"ece84f29-ac09-4ebb-99ef-e3b85fab2aa5","system_id":"levelo_inurba_marseille","lat":43.301939,"lon":5.366286,"is_reserved":false,"is_disabled":false,"rental_uris":{"android":"levelo://app?vid=ece84f29-ac09-4ebb-99ef-e3b85fab2aa5","ios":"levelo://app?vid=ece84f29-ac09-4ebb-99ef-e3b85fab2aa5"},"vehicle_type_id":"4","last_reported":1718658468,"current_range_meters":7600,"station_id":"ce4bgrh2rcd13ifvqc8g","pricing_plan_id":"cebpf4jnsgd1na2vs0mg"},{"bike_id":"530bff79-4786-4b69-9605-9b0eb4896ac1","system_id":"levelo_inurba_marseille","lat":43.302784,"lon":5.377158,"is_reserved":false,"is_disabled":false,"rental_uris":{"android":"levelo://app?vid=530bff79-4786-4b69-9605-9b0eb4896ac1","ios":"levelo://app?vid=530bff79-4786-4b69-9605-9b0eb4896ac1"},"vehicle_type_id":"4","last_reported":1718658468,"current_range_meters":23600,"station_id":"ce4bguh2rcd13ifvqcj0","pricing_plan_id":"cebpf4jnsgd1na2vs0mg"},{"bike_id":"0ce33560-8e5b-45a8-b49a-35293bc08a58","system_id":"levelo_inurba_marseille","lat":43.301939,"lon":5.366286,"is_reserved":false,"is_disabled":false,"rental_uris":{"android":"levelo://app?vid=0ce33560-8e5b-45a8-b49a-35293bc08a58","ios":"levelo://app?vid=0ce33560-8e5b-45a8-b49a-35293bc08a58"},"vehicle_type_id":"4","last_reported":1718658468,"current_range_meters":28400,"station_id":"ce4bgrh2rcd13ifvqc8g","pricing_plan_id":"cebpf4jnsgd1na2vs0mg"},{"bike_id":"d7dc7ab1-211c-409a-8a5e-bc6aeb683a6c","system_id":"levelo_inurba_marseille","lat":43.301939,"lon":5.366286,"is_reserved":false,"is_disabled":false,"rental_uris":{"android":"levelo://app?vid=d7dc7ab1-211c-409a-8a5e-bc6aeb683a6c","ios":"levelo://app?vid=d7dc7ab1-211c-409a-8a5e-bc6aeb683a6c"},"vehicle_type_id":"4","last_reported":1718658468,"current_range_meters":22400,"station_id":"ce4bgrh2rcd13ifvqc8g","pricing_plan_id":"cebpf4jnsgd1na2vs0mg"},{"bike_id":"987bfc7a-499d-4e15-b02e-cd2db3b3014f","system_id":"levelo_inurba_marseille","lat":43.315289,"lon":5.380349,"is_reserved":false,"is_disabled":false,"rental_uris":{"android":"levelo://app?vid=987bfc7a-499d-4e15-b02e-cd2db3b3014f","ios":"levelo://app?vid=987bfc7a-499d-4e15-b02e-cd2db3b3014f"},"vehicle_type_id":"4","last_reported":1718658468,"current_range_meters":17600,"station_id":"ce4bhsp2rcd13ifvqi50","pricing_plan_id":"cebpf4jnsgd1na2vs0mg"},{"bike_id":"85cfd616-5dcd-4d59-89d1-eda4d6ac796a","system_id":"levelo_inurba_marseille","lat":43.308012,"lon":5.381511,"is_reserved":false,"is_disabled":false,"rental_uris":{"android":"levelo://app?vid=85cfd616-5dcd-4d59-89d1-eda4d6ac796a","ios":"levelo://app?vid=85cfd616-5dcd-4d59-89d1-eda4d6ac796a"},"vehicle_type_id":"4","last_reported":1718658468,"current_range_meters":18800,"station_id":"ce4bgt12rcd13ifvqce0","pricing_plan_id":"cebpf4jnsgd1na2vs0mg"},{"bike_id":"6748a87e-c948-4bdd-b39a-ef6a238ce548","system_id":"levelo_inurba_marseille","lat":43.308012,"lon":5.381511,"is_reserved":false,"is_disabled":false,"rental_uris":{"android":"levelo://app?vid=6748a87e-c948-4bdd-b39a-ef6a238ce548","ios":"levelo://app?vid=6748a87e-c948-4bdd-b39a-ef6a238ce548"},"vehicle_type_id":"4","last_reported":1718658468,"current_range_meters":11200,"station_id":"ce4bgt12rcd13ifvqce0","pricing_plan_id":"cebpf4jnsgd1na2vs0mg"},{"bike_id":"b36e740f-c74d-401d-8e90-d40758213a84","system_id":"levelo_inurba_marseille","lat":43.308012,"lon":5.381511,"is_reserved":false,"is_disabled":false,"rental_uris":{"android":"levelo://app?vid=b36e740f-c74d-401d-8e90-d40758213a84","ios":"levelo://app?vid=b36e740f-c74d-401d-8e90-d40758213a84"},"vehicle_type_id":"4","last_reported":1718658468,"current_range_meters":29600,"station_id":"ce4bgt12rcd13ifvqce0","pricing_plan_id":"cebpf4jnsgd1na2vs0mg"},{"bike_id":"113a773c-5cff-474c-a7de-d33f77c7446a","system_id":"levelo_inurba_marseille","lat":43.308012,"lon":5.381511,"is_reserved":false,"is_disabled":false,"rental_uris":{"android":"levelo://app?vid=113a773c-5cff-474c-a7de-d33f77c7446a","ios":"levelo://app?vid=113a773c-5cff-474c-a7de-d33f77c7446a"},"vehicle_type_id":"4","last_reported":1718658468,"current_range_meters":28000,"station_id":"ce4bgt12rcd13ifvqce0","pricing_plan_id":"cebpf4jnsgd1na2vs0mg"},{"bike_id":"2f01d855-259c-4eec-bab4-da763680873d","system_id":"levelo_inurba_marseille","lat":43.308012,"lon":5.381511,"is_reserved":false,"is_disabled":false,"rental_uris":{"android":"levelo://app?vid=2f01d855-259c-4eec-bab4-da763680873d","ios":"levelo://app?vid=2f01d855-259c-4eec-bab4-da763680873d"},"vehicle_type_id":"4","last_reported":1718658468,"current_range_meters":20000,"station_id":"ce4bgt12rcd13ifvqce0","pricing_plan_id":"cebpf4jnsgd1na2vs0mg"},{"bike_id":"c51c8d34-bbe9-459f-ba07-76791e2f930b","system_id":"levelo_inurba_marseille","lat":43.308012,"lon":5.381511,"is_reserved":false,"is_disabled":false,"rental_uris":{"android":"levelo://app?vid=c51c8d34-bbe9-459f-ba07-76791e2f930b","ios":"levelo://app?vid=c51c8d34-bbe9-459f-ba07-76791e2f930b"},"vehicle_type_id":"4","last_reported":1718658468,"current_range_meters":25200,"station_id":"ce4bgt12rcd13ifvqce0","pricing_plan_id":"cebpf4jnsgd1na2vs0mg"},{"bike_id":"3c0c6b12-d005-4663-adeb-a203a68e74d5","system_id":"levelo_inurba_marseille","lat":43.313465,"lon":5.383025,"is_reserved":false,"is_disabled":false,"rental_uris":{"android":"levelo://app?vid=3c0c6b12-d005-4663-adeb-a203a68e74d5","ios":"levelo://app?vid=3c0c6b12-d005-4663-adeb-a203a68e74d5"},"vehicle_type_id":"4","last_reported":1718658468,"current_range_meters":2400,"station_id":"","pricing_plan_id":"cebpf4jnsgd1na2vs0mg"},{"bike_id":"f35f6c5e-1ab8-4095-8c8d-08f6b9b8ce05","system_id":"levelo_inurba_marseille","lat":43.324771,"lon":5.36557,"is_reserved":false,"is_disabled":false,"rental_uris":{"android":"levelo://app?vid=f35f6c5e-1ab8-4095-8c8d-08f6b9b8ce05","ios":"levelo://app?vid=f35f6c5e-1ab8-4095-8c8d-08f6b9b8ce05"},"vehicle_type_id":"4","last_reported":1718658468,"current_range_meters":6800,"station_id":"ce4bhs12rcd13ifvqhvg","pricing_plan_id":"cebpf4jnsgd1na2vs0mg"},{"bike_id":"055aea2e-ce91-41a7-af34-60bed5fe042d","system_id":"levelo_inurba_marseille","lat":43.324771,"lon":5.36557,"is_reserved":false,"is_disabled":false,"rental_uris":{"android":"levelo://app?vid=055aea2e-ce91-41a7-af34-60bed5fe042d","ios":"levelo://app?vid=055aea2e-ce91-41a7-af34-60bed5fe042d"},"vehicle_type_id":"4","last_reported":1718658468,"current_range_meters":1600,"station_id":"ce4bhs12rcd13ifvqhvg","pricing_plan_id":"cebpf4jnsgd1na2vs0mg"},{"bike_id":"fcb76340-20ab-4716-ae9c-f22d9f2affdc","system_id":"levelo_inurba_marseille","lat":43.324771,"lon":5.36557,"is_reserved":false,"is_disabled":false,"rental_uris":{"android":"levelo://app?vid=fcb76340-20ab-4716-ae9c-f22d9f2affdc","ios":"levelo://app?vid=fcb76340-20ab-4716-ae9c-f22d9f2affdc"},"vehicle_type_id":"4","last_reported":1718658468,"current_range_meters":4000,"station_id":"ce4bhs12rcd13ifvqhvg","pricing_plan_id":"cebpf4jnsgd1na2vs0mg"},{"bike_id":"8b5ad1ee-b923-4398-bbc8-57577c1395b9","system_id":"levelo_inurba_marseille","lat":43.30188,"lon":5.37435,"is_reserved":false,"is_disabled":false,"rental_uris":{"android":"levelo://app?vid=8b5ad1ee-b923-4398-bbc8-57577c1395b9","ios":"levelo://app?vid=8b5ad1ee-b923-4398-bbc8-57577c1395b9"},"vehicle_type_id":"4","last_reported":1718658468,"current_range_meters":12800,"station_id":"","pricing_plan_id":"cebpf4jnsgd1na2vs0mg"},{"bike_id":"48cb7ee6-fd3a-4d03-b109-577fdd7bc699","system_id":"levelo_inurba_marseille","lat":43.324771,"lon":5.36557,"is_reserved":false,"is_disabled":false,"rental_uris":{"android":"levelo://app?vid=48cb7ee6-fd3a-4d03-b109-577fdd7bc699","ios":"levelo://app?vid=48cb7ee6-fd3a-4d03-b109-577fdd7bc699"},"vehicle_type_id":"4","last_reported":1718658468,"current_range_meters":19200,"station_id":"ce4bhs12rcd13ifvqhvg","pricing_plan_id":"cebpf4jnsgd1na2vs0mg"},{"bike_id":"13096af2-ed75-4146-87a5-240d9b8d1156","system_id":"levelo_inurba_marseille","lat":43.324771,"lon":5.36557,"is_reserved":false,"is_disabled":false,"rental_uris":{"android":"levelo://app?vid=13096af2-ed75-4146-87a5-240d9b8d1156","ios":"levelo://app?vid=13096af2-ed75-4146-87a5-240d9b8d1156"},"vehicle_type_id":"4","last_reported":1718658468,"current_range_meters":18000,"station_id":"ce4bhs12rcd13ifvqhvg","pricing_plan_id":"cebpf4jnsgd1na2vs0mg"},{"bike_id":"0f979c18-9fe1-4011-8d1e-bdd697cb1c24","system_id":"levelo_inurba_marseille","lat":43.324771,"lon":5.36557,"is_reserved":false,"is_disabled":false,"rental_uris":{"android":"levelo://app?vid=0f979c18-9fe1-4011-8d1e-bdd697cb1c24","ios":"levelo://app?vid=0f979c18-9fe1-4011-8d1e-bdd697cb1c24"},"vehicle_type_id":"4","last_reported":1718658468,"current_range_meters":400,"station_id":"ce4bhs12rcd13ifvqhvg","pricing_plan_id":"cebpf4jnsgd1na2vs0mg"},{"bike_id":"0550c1fa-f998-4f7a-adca-773de989005c","system_id":"levelo_inurba_marseille","lat":43.324771,"lon":5.36557,"is_reserved":false,"is_disabled":false,"rental_uris":{"android":"levelo://app?vid=0550c1fa-f998-4f7a-adca-773de989005c","ios":"levelo://app?vid=0550c1fa-f998-4f7a-adca-773de989005c"},"vehicle_type_id":"4","last_reported":1718658468,"current_range_meters":12000,"station_id":"ce4bhs12rcd13ifvqhvg","pricing_plan_id":"cebpf4jnsgd1na2vs0mg"},{"bike_id":"a78c2676-6f2a-4677-8114-75915f11798c","system_id":"levelo_inurba_marseille","lat":43.324771,"lon":5.36557,"is_reserved":false,"is_disabled":false,"rental_uris":{"android":"levelo://app?vid=a78c2676-6f2a-4677-8114-75915f11798c","ios":"levelo://app?vid=a78c2676-6f2a-4677-8114-75915f11798c"},"vehicle_type_id":"4","last_reported":1718658468,"current_range_meters":5200,"station_id":"ce4bhs12rcd13ifvqhvg","pricing_plan_id":"cebpf4jnsgd1na2vs0mg"},{"bike_id":"313939de-f6c2-4604-bcae-e3a7bb3ba698","system_id":"levelo_inurba_marseille","lat":43.310804,"lon":5.38359,"is_reserved":false,"is_disabled":false,"rental_uris":{"android":"levelo://app?vid=313939de-f6c2-4604-bcae-e3a7bb3ba698","ios":"levelo://app?vid=313939de-f6c2-4604-bcae-e3a7bb3ba698"},"vehicle_type_id":"4","last_reported":1718658468,"current_range_meters":13200,"station_id":"ce4bgv92rcd13ifvqcr0","pricing_plan_id":"cebpf4jnsgd1na2vs0mg"},{"bike_id":"58fab560-aa3c-498d-be62-78e7ffd7b6b0","system_id":"levelo_inurba_marseille","lat":43.310687,"lon":5.383517,"is_reserved":false,"is_disabled":false,"rental_uris":{"android":"levelo://app?vid=58fab560-aa3c-498d-be62-78e7ffd7b6b0","ios":"levelo://app?vid=58fab560-aa3c-498d-be62-78e7ffd7b6b0"},"vehicle_type_id":"4","last_reported":1718658468,"current_range_meters":0,"station_id":"ce4bgv92rcd13ifvqcr0","pricing_plan_id":"cebpf4jnsgd1na2vs0mg"},{"bike_id":"a8aa0737-fa3e-4c78-8ea7-9e3f6f02d03e","system_id":"levelo_inurba_marseille","lat":43.310804,"lon":5.38359,"is_reserved":false,"is_disabled":false,"rental_uris":{"android":"levelo://app?vid=a8aa0737-fa3e-4c78-8ea7-9e3f6f02d03e","ios":"levelo://app?vid=a8aa0737-fa3e-4c78-8ea7-9e3f6f02d03e"},"vehicle_type_id":"4","last_reported":1718658468,"current_range_meters":0,"station_id":"ce4bgv92rcd13ifvqcr0","pricing_plan_id":"cebpf4jnsgd1na2vs0mg"},{"bike_id":"2691a631-0b06-49ea-92f4-920febe817b4","system_id":"levelo_inurba_marseille","lat":43.310804,"lon":5.38359,"is_reserved":false,"is_disabled":false,"rental_uris":{"android":"levelo://app?vid=2691a631-0b06-49ea-92f4-920febe817b4","ios":"levelo://app?vid=2691a631-0b06-49ea-92f4-920febe817b4"},"vehicle_type_id":"4","last_reported":1718658468,"current_range_meters":21200,"station_id":"ce4bgv92rcd13ifvqcr0","pricing_plan_id":"cebpf4jnsgd1na2vs0mg"},{"bike_id":"c0c818b7-f7c5-4512-9f60-2d1bd25b03dc","system_id":"levelo_inurba_marseille","lat":43.310804,"lon":5.38359,"is_reserved":false,"is_disabled":false,"rental_uris":{"android":"levelo://app?vid=c0c818b7-f7c5-4512-9f60-2d1bd25b03dc","ios":"levelo://app?vid=c0c818b7-f7c5-4512-9f60-2d1bd25b03dc"},"vehicle_type_id":"4","last_reported":1718658468,"current_range_meters":19200,"station_id":"ce4bgv92rcd13ifvqcr0","pricing_plan_id":"cebpf4jnsgd1na2vs0mg"},{"bike_id":"33a5c7ef-e499-48b3-b4fa-bc7ada4b4194","system_id":"levelo_inurba_marseille","lat":43.310804,"lon":5.38359,"is_reserved":false,"is_disabled":false,"rental_uris":{"android":"levelo://app?vid=33a5c7ef-e499-48b3-b4fa-bc7ada4b4194","ios":"levelo://app?vid=33a5c7ef-e499-48b3-b4fa-bc7ada4b4194"},"vehicle_type_id":"4","last_reported":1718658468,"current_range_meters":13200,"station_id":"ce4bgv92rcd13ifvqcr0","pricing_plan_id":"cebpf4jnsgd1na2vs0mg"},{"bike_id":"3b7aeada-dbb4-4ab4-b266-0b2a2657133a","system_id":"levelo_inurba_marseille","lat":43.302784,"lon":5.377158,"is_reserved":false,"is_disabled":false,"rental_uris":{"android":"levelo://app?vid=3b7aeada-dbb4-4ab4-b266-0b2a2657133a","ios":"levelo://app?vid=3b7aeada-dbb4-4ab4-b266-0b2a2657133a"},"vehicle_type_id":"4","last_reported":1718658468,"current_range_meters":28000,"station_id":"ce4bguh2rcd13ifvqcj0","pricing_plan_id":"cebpf4jnsgd1na2vs0mg"},{"bike_id":"608357e0-7b36-45e8-b304-2afc7f22c2ca","system_id":"levelo_inurba_marseille","lat":43.302784,"lon":5.377158,"is_reserved":false,"is_disabled":false,"rental_uris":{"android":"levelo://app?vid=608357e0-7b36-45e8-b304-2afc7f22c2ca","ios":"levelo://app?vid=608357e0-7b36-45e8-b304-2afc7f22c2ca"},"vehicle_type_id":"4","last_reported":1718658468,"current_range_meters":8000,"station_id":"ce4bguh2rcd13ifvqcj0","pricing_plan_id":"cebpf4jnsgd1na2vs0mg"},{"bike_id":"98f06bf8-b336-47c6-a98e-71966557f354","system_id":"levelo_inurba_marseille","lat":43.31979,"lon":5.38121,"is_reserved":false,"is_disabled":false,"rental_uris":{"android":"levelo://app?vid=98f06bf8-b336-47c6-a98e-71966557f354","ios":"levelo://app?vid=98f06bf8-b336-47c6-a98e-71966557f354"},"vehicle_type_id":"4","last_reported":1718658468,"current_range_meters":19200,"station_id":"ce4bhr12rcd13ifvqhpg","pricing_plan_id":"cebpf4jnsgd1na2vs0mg"},{"bike_id":"6361462c-d3a1-46e5-a4d9-9ccd6c272053","system_id":"levelo_inurba_marseille","lat":43.319935,"lon":5.381699,"is_reserved":false,"is_disabled":false,"rental_uris":{"android":"levelo://app?vid=6361462c-d3a1-46e5-a4d9-9ccd6c272053","ios":"levelo://app?vid=6361462c-d3a1-46e5-a4d9-9ccd6c272053"},"vehicle_type_id":"4","last_reported":1718658468,"current_range_meters":18400,"station_id":"ce4bhr12rcd13ifvqhpg","pricing_plan_id":"cebpf4jnsgd1na2vs0mg"},{"bike_id":"e395948c-d268-4eb4-8bee-ff721c828dab","system_id":"levelo_inurba_marseille","lat":43.319935,"lon":5.381699,"is_reserved":false,"is_disabled":false,"rental_uris":{"android":"levelo://app?vid=e395948c-d268-4eb4-8bee-ff721c828dab","ios":"levelo://app?vid=e395948c-d268-4eb4-8bee-ff721c828dab"},"vehicle_type_id":"4","last_reported":1718658468,"current_range_meters":21600,"station_id":"ce4bhr12rcd13ifvqhpg","pricing_plan_id":"cebpf4jnsgd1na2vs0mg"},{"bike_id":"f36f411a-1853-4619-93f8-af58acfd564d","system_id":"levelo_inurba_marseille","lat":43.319935,"lon":5.381699,"is_reserved":false,"is_disabled":false,"rental_uris":{"android":"levelo://app?vid=f36f411a-1853-4619-93f8-af58acfd564d","ios":"levelo://app?vid=f36f411a-1853-4619-93f8-af58acfd564d"},"vehicle_type_id":"4","last_reported":1718658468,"current_range_meters":11600,"station_id":"ce4bhr12rcd13ifvqhpg","pricing_plan_id":"cebpf4jnsgd1na2vs0mg"},{"bike_id":"5ec8a957-9296-4104-98ee-014e34d0ba98","system_id":"levelo_inurba_marseille","lat":43.319935,"lon":5.381699,"is_reserved":false,"is_disabled":false,"rental_uris":{"android":"levelo://app?vid=5ec8a957-9296-4104-98ee-014e34d0ba98","ios":"levelo://app?vid=5ec8a957-9296-4104-98ee-014e34d0ba98"},"vehicle_type_id":"4","last_reported":1718658468,"current_range_meters":26000,"station_id":"ce4bhr12rcd13ifvqhpg","pricing_plan_id":"cebpf4jnsgd1na2vs0mg"},{"bike_id":"51983f0b-2b6b-41ee-8c3e-474277ce95cd","system_id":"levelo_inurba_marseille","lat":43.319935,"lon":5.381699,"is_reserved":false,"is_disabled":false,"rental_uris":{"android":"levelo://app?vid=51983f0b-2b6b-41ee-8c3e-474277ce95cd","ios":"levelo://app?vid=51983f0b-2b6b-41ee-8c3e-474277ce95cd"},"vehicle_type_id":"4","last_reported":1718658468,"current_range_meters":20000,"station_id":"ce4bhr12rcd13ifvqhpg","pricing_plan_id":"cebpf4jnsgd1na2vs0mg"},{"bike_id":"5affd205-43bb-45c7-b1b1-eb0320e8c205","system_id":"levelo_inurba_marseille","lat":43.313571,"lon":5.384829,"is_reserved":false,"is_disabled":false,"rental_uris":{"android":"levelo://app?vid=5affd205-43bb-45c7-b1b1-eb0320e8c205","ios":"levelo://app?vid=5affd205-43bb-45c7-b1b1-eb0320e8c205"},"vehicle_type_id":"4","last_reported":1718658468,"current_range_meters":13600,"station_id":"ce4bgt92rcd13ifvqcf0","pricing_plan_id":"cebpf4jnsgd1na2vs0mg"},{"bike_id":"887b6c32-c8c8-4345-80da-033ebb5d2b07","system_id":"levelo_inurba_marseille","lat":43.313571,"lon":5.384829,"is_reserved":false,"is_disabled":false,"rental_uris":{"android":"levelo://app?vid=887b6c32-c8c8-4345-80da-033ebb5d2b07","ios":"levelo://app?vid=887b6c32-c8c8-4345-80da-033ebb5d2b07"},"vehicle_type_id":"4","last_reported":1718658468,"current_range_meters":25200,"station_id":"ce4bgt92rcd13ifvqcf0","pricing_plan_id":"cebpf4jnsgd1na2vs0mg"},{"bike_id":"49e32c55-54fc-4d65-afbc-3083103f4cbf","system_id":"levelo_inurba_marseille","lat":43.29983,"lon":5.37611,"is_reserved":false,"is_disabled":false,"rental_uris":{"android":"levelo://app?vid=49e32c55-54fc-4d65-afbc-3083103f4cbf","ios":"levelo://app?vid=49e32c55-54fc-4d65-afbc-3083103f4cbf"},"vehicle_type_id":"4","last_reported":1718658468,"current_range_meters":1200,"station_id":"","pricing_plan_id":"cebpf4jnsgd1na2vs0mg"},{"bike_id":"1cf6c530-e344-49ef-83d6-4a1350847676","system_id":"levelo_inurba_marseille","lat":43.305364,"lon":5.384119,"is_reserved":false,"is_disabled":false,"rental_uris":{"android":"levelo://app?vid=1cf6c530-e344-49ef-83d6-4a1350847676","ios":"levelo://app?vid=1cf6c530-e344-49ef-83d6-4a1350847676"},"vehicle_type_id":"4","last_reported":1718658468,"current_range_meters":23600,"station_id":"ce4bgg92rcd13ifvqb30","pricing_plan_id":"cebpf4jnsgd1na2vs0mg"},{"bike_id":"dda4a65a-4950-4bea-a76c-8ccd63c0b2a9","system_id":"levelo_inurba_marseille","lat":43.298467,"lon":5.362823,"is_reserved":false,"is_disabled":false,"rental_uris":{"android":"levelo://app?vid=dda4a65a-4950-4bea-a76c-8ccd63c0b2a9","ios":"levelo://app?vid=dda4a65a-4950-4bea-a76c-8ccd63c0b2a9"},"vehicle_type_id":"4","last_reported":1718658468,"current_range_meters":8000,"station_id":"ce4bgpp2rcd13ifvqc3g","pricing_plan_id":"cebpf4jnsgd1na2vs0mg"},{"bike_id":"a736565a-3975-40f7-8da8-e8a2a82993af","system_id":"levelo_inurba_marseille","lat":43.305364,"lon":5.384119,"is_reserved":false,"is_disabled":false,"rental_uris":{"android":"levelo://app?vid=a736565a-3975-40f7-8da8-e8a2a82993af","ios":"levelo://app?vid=a736565a-3975-40f7-8da8-e8a2a82993af"},"vehicle_type_id":"4","last_reported":1718658468,"current_range_meters":11600,"station_id":"ce4bgg92rcd13ifvqb30","pricing_plan_id":"cebpf4jnsgd1na2vs0mg"},{"bike_id":"58af4979-06c6-4294-b46c-2d43c92862fb","system_id":"levelo_inurba_marseille","lat":43.311722,"lon":5.387247,"is_reserved":false,"is_disabled":false,"rental_uris":{"android":"levelo://app?vid=58af4979-06c6-4294-b46c-2d43c92862fb","ios":"levelo://app?vid=58af4979-06c6-4294-b46c-2d43c92862fb"},"vehicle_type_id":"4","last_reported":1718658468,"current_range_meters":13200,"station_id":"ce4bgv12rcd13ifvqcp0","pricing_plan_id":"cebpf4jnsgd1na2vs0mg"},{"bike_id":"ff901bb4-251f-4920-a942-30ed73de3021","system_id":"levelo_inurba_marseille","lat":43.29844,"lon":5.36274,"is_reserved":false,"is_disabled":false,"rental_uris":{"android":"levelo://app?vid=ff901bb4-251f-4920-a942-30ed73de3021","ios":"levelo://app?vid=ff901bb4-251f-4920-a942-30ed73de3021"},"vehicle_type_id":"4","last_reported":1718658468,"current_range_meters":17600,"station_id":"ce4bgpp2rcd13ifvqc3g","pricing_plan_id":"cebpf4jnsgd1na2vs0mg"},{"bike_id":"23a3fcdc-5469-4f57-a98e-b7db7670bc67","system_id":"levelo_inurba_marseille","lat":43.29843,"lon":5.36276,"is_reserved":false,"is_disabled":false,"rental_uris":{"android":"levelo://app?vid=23a3fcdc-5469-4f57-a98e-b7db7670bc67","ios":"levelo://app?vid=23a3fcdc-5469-4f57-a98e-b7db7670bc67"},"vehicle_type_id":"4","last_reported":1718658468,"current_range_meters":12000,"station_id":"ce4bgpp2rcd13ifvqc3g","pricing_plan_id":"cebpf4jnsgd1na2vs0mg"},{"bike_id":"4d1e22d1-030c-4d7e-8b47-2eb598a5b080","system_id":"levelo_inurba_marseille","lat":43.29839,"lon":5.36271,"is_reserved":false,"is_disabled":false,"rental_uris":{"android":"levelo://app?vid=4d1e22d1-030c-4d7e-8b47-2eb598a5b080","ios":"levelo://app?vid=4d1e22d1-030c-4d7e-8b47-2eb598a5b080"},"vehicle_type_id":"4","last_reported":1718658468,"current_range_meters":26000,"station_id":"ce4bgpp2rcd13ifvqc3g","pricing_plan_id":"cebpf4jnsgd1na2vs0mg"},{"bike_id":"213e548c-678e-4321-9afe-34b9dba49788","system_id":"levelo_inurba_marseille","lat":43.298764,"lon":5.388973,"is_reserved":false,"is_disabled":false,"rental_uris":{"android":"levelo://app?vid=213e548c-678e-4321-9afe-34b9dba49788","ios":"levelo://app?vid=213e548c-678e-4321-9afe-34b9dba49788"},"vehicle_type_id":"4","last_reported":1718658468,"current_range_meters":0,"station_id":"ce4bh392rcd13ifvqdl0","pricing_plan_id":"cebpf4jnsgd1na2vs0mg"},{"bike_id":"cf6487fa-55bd-4294-81ec-de6debba4264","system_id":"levelo_inurba_marseille","lat":43.311722,"lon":5.387247,"is_reserved":false,"is_disabled":false,"rental_uris":{"android":"levelo://app?vid=cf6487fa-55bd-4294-81ec-de6debba4264","ios":"levelo://app?vid=cf6487fa-55bd-4294-81ec-de6debba4264"},"vehicle_type_id":"4","last_reported":1718658468,"current_range_meters":12800,"station_id":"ce4bgv12rcd13ifvqcp0","pricing_plan_id":"cebpf4jnsgd1na2vs0mg"},{"bike_id":"ea9055c4-f106-43b8-a486-4a59513e3281","system_id":"levelo_inurba_marseille","lat":43.305364,"lon":5.384119,"is_reserved":false,"is_disabled":false,"rental_uris":{"android":"levelo://app?vid=ea9055c4-f106-43b8-a486-4a59513e3281","ios":"levelo://app?vid=ea9055c4-f106-43b8-a486-4a59513e3281"},"vehicle_type_id":"4","last_reported":1718658468,"current_range_meters":800,"station_id":"ce4bgg92rcd13ifvqb30","pricing_plan_id":"cebpf4jnsgd1na2vs0mg"},{"bike_id":"4b76a129-9e7b-477e-aa02-1c12f4d1fa8d","system_id":"levelo_inurba_marseille","lat":43.311722,"lon":5.387247,"is_reserved":false,"is_disabled":false,"rental_uris":{"android":"levelo://app?vid=4b76a129-9e7b-477e-aa02-1c12f4d1fa8d","ios":"levelo://app?vid=4b76a129-9e7b-477e-aa02-1c12f4d1fa8d"},"vehicle_type_id":"4","last_reported":1718658468,"current_range_meters":25200,"station_id":"ce4bgv12rcd13ifvqcp0","pricing_plan_id":"cebpf4jnsgd1na2vs0mg"},{"bike_id":"a2a04452-faba-4dcb-920b-f0ae02e3b1a4","system_id":"levelo_inurba_marseille","lat":43.311722,"lon":5.387247,"is_reserved":false,"is_disabled":false,"rental_uris":{"android":"levelo://app?vid=a2a04452-faba-4dcb-920b-f0ae02e3b1a4","ios":"levelo://app?vid=a2a04452-faba-4dcb-920b-f0ae02e3b1a4"},"vehicle_type_id":"4","last_reported":1718658468,"current_range_meters":15200,"station_id":"ce4bgv12rcd13ifvqcp0","pricing_plan_id":"cebpf4jnsgd1na2vs0mg"},{"bike_id":"39be6465-5c6e-4a8f-875f-2d9a4559ae51","system_id":"levelo_inurba_marseille","lat":43.311722,"lon":5.387247,"is_reserved":false,"is_disabled":false,"rental_uris":{"android":"levelo://app?vid=39be6465-5c6e-4a8f-875f-2d9a4559ae51","ios":"levelo://app?vid=39be6465-5c6e-4a8f-875f-2d9a4559ae51"},"vehicle_type_id":"4","last_reported":1718658468,"current_range_meters":15200,"station_id":"ce4bgv12rcd13ifvqcp0","pricing_plan_id":"cebpf4jnsgd1na2vs0mg"},{"bike_id":"1193d5ee-75a9-4ec0-b78e-1ef866ba3a9d","system_id":"levelo_inurba_marseille","lat":43.311722,"lon":5.387247,"is_reserved":false,"is_disabled":false,"rental_uris":{"android":"levelo://app?vid=1193d5ee-75a9-4ec0-b78e-1ef866ba3a9d","ios":"levelo://app?vid=1193d5ee-75a9-4ec0-b78e-1ef866ba3a9d"},"vehicle_type_id":"4","last_reported":1718658468,"current_range_meters":16800,"station_id":"ce4bgv12rcd13ifvqcp0","pricing_plan_id":"cebpf4jnsgd1na2vs0mg"},{"bike_id":"8337260e-9d73-4465-a16f-cf34e02aa2f6","system_id":"levelo_inurba_marseille","lat":43.311722,"lon":5.387247,"is_reserved":false,"is_disabled":false,"rental_uris":{"android":"levelo://app?vid=8337260e-9d73-4465-a16f-cf34e02aa2f6","ios":"levelo://app?vid=8337260e-9d73-4465-a16f-cf34e02aa2f6"},"vehicle_type_id":"4","last_reported":1718658468,"current_range_meters":31200,"station_id":"ce4bgv12rcd13ifvqcp0","pricing_plan_id":"cebpf4jnsgd1na2vs0mg"},{"bike_id":"21760d43-722d-4e05-ac5f-8e6a066d6206","system_id":"levelo_inurba_marseille","lat":43.30068,"lon":5.3793,"is_reserved":false,"is_disabled":false,"rental_uris":{"android":"levelo://app?vid=21760d43-722d-4e05-ac5f-8e6a066d6206","ios":"levelo://app?vid=21760d43-722d-4e05-ac5f-8e6a066d6206"},"vehicle_type_id":"4","last_reported":1718658468,"current_range_meters":31200,"station_id":"","pricing_plan_id":"cebpf4jnsgd1na2vs0mg"},{"bike_id":"75695959-094a-44d8-9708-c42c6165ef33","system_id":"levelo_inurba_marseille","lat":43.29779,"lon":5.37105,"is_reserved":false,"is_disabled":false,"rental_uris":{"android":"levelo://app?vid=75695959-094a-44d8-9708-c42c6165ef33","ios":"levelo://app?vid=75695959-094a-44d8-9708-c42c6165ef33"},"vehicle_type_id":"4","last_reported":1718658468,"current_range_meters":0,"station_id":"ce4bgop2rcd13ifvqc1g","pricing_plan_id":"cebpf4jnsgd1na2vs0mg"},{"bike_id":"2410ce9c-5967-4db7-b411-46403507ad00","system_id":"levelo_inurba_marseille","lat":43.32294,"lon":5.38257,"is_reserved":false,"is_disabled":false,"rental_uris":{"android":"levelo://app?vid=2410ce9c-5967-4db7-b411-46403507ad00","ios":"levelo://app?vid=2410ce9c-5967-4db7-b411-46403507ad00"},"vehicle_type_id":"4","last_reported":1718658468,"current_range_meters":24000,"station_id":"ce4bhr12rcd13ifvqhqg","pricing_plan_id":"cebpf4jnsgd1na2vs0mg"},{"bike_id":"0f947d6b-6676-477c-bedf-19c37cf6832c","system_id":"levelo_inurba_marseille","lat":43.29772,"lon":5.37107,"is_reserved":false,"is_disabled":false,"rental_uris":{"android":"levelo://app?vid=0f947d6b-6676-477c-bedf-19c37cf6832c","ios":"levelo://app?vid=0f947d6b-6676-477c-bedf-19c37cf6832c"},"vehicle_type_id":"4","last_reported":1718658468,"current_range_meters":0,"station_id":"ce4bgop2rcd13ifvqc1g","pricing_plan_id":"cebpf4jnsgd1na2vs0mg"},{"bike_id":"2e0e70cd-1ece-41fa-b9eb-3296e51c45e3","system_id":"levelo_inurba_marseille","lat":43.297794,"lon":5.370888,"is_reserved":false,"is_disabled":false,"rental_uris":{"android":"levelo://app?vid=2e0e70cd-1ece-41fa-b9eb-3296e51c45e3","ios":"levelo://app?vid=2e0e70cd-1ece-41fa-b9eb-3296e51c45e3"},"vehicle_type_id":"4","last_reported":1718658468,"current_range_meters":0,"station_id":"ce4bgop2rcd13ifvqc1g","pricing_plan_id":"cebpf4jnsgd1na2vs0mg"},{"bike_id":"351dcc1c-aa00-45a1-ae52-8b3044c22886","system_id":"levelo_inurba_marseille","lat":43.322872,"lon":5.382756,"is_reserved":false,"is_disabled":false,"rental_uris":{"android":"levelo://app?vid=351dcc1c-aa00-45a1-ae52-8b3044c22886","ios":"levelo://app?vid=351dcc1c-aa00-45a1-ae52-8b3044c22886"},"vehicle_type_id":"4","last_reported":1718658468,"current_range_meters":27200,"station_id":"ce4bhr12rcd13ifvqhqg","pricing_plan_id":"cebpf4jnsgd1na2vs0mg"},{"bike_id":"2a42502e-4a26-4730-a36d-a07ad7c25a95","system_id":"levelo_inurba_marseille","lat":43.318433,"lon":5.387078,"is_reserved":false,"is_disabled":false,"rental_uris":{"android":"levelo://app?vid=2a42502e-4a26-4730-a36d-a07ad7c25a95","ios":"levelo://app?vid=2a42502e-4a26-4730-a36d-a07ad7c25a95"},"vehicle_type_id":"4","last_reported":1718658468,"current_range_meters":14000,"station_id":"","pricing_plan_id":"cebpf4jnsgd1na2vs0mg"},{"bike_id":"48237506-f9db-4b60-bbed-696c8240cdbb","system_id":"levelo_inurba_marseille","lat":43.311722,"lon":5.387247,"is_reserved":false,"is_disabled":false,"rental_uris":{"android":"levelo://app?vid=48237506-f9db-4b60-bbed-696c8240cdbb","ios":"levelo://app?vid=48237506-f9db-4b60-bbed-696c8240cdbb"},"vehicle_type_id":"4","last_reported":1718658468,"current_range_meters":4400,"station_id":"ce4bgv12rcd13ifvqcp0","pricing_plan_id":"cebpf4jnsgd1na2vs0mg"},{"bike_id":"475c5571-9a02-4102-aed8-0aeba4ccfd40","system_id":"levelo_inurba_marseille","lat":43.31622,"lon":5.389028,"is_reserved":false,"is_disabled":false,"rental_uris":{"android":"levelo://app?vid=475c5571-9a02-4102-aed8-0aeba4ccfd40","ios":"levelo://app?vid=475c5571-9a02-4102-aed8-0aeba4ccfd40"},"vehicle_type_id":"4","last_reported":1718658468,"current_range_meters":14400,"station_id":"","pricing_plan_id":"cebpf4jnsgd1na2vs0mg"},{"bike_id":"df7fab81-0116-4aed-80f8-d54c0ebce6c0","system_id":"levelo_inurba_marseille","lat":43.307945,"lon":5.376487,"is_reserved":false,"is_disabled":false,"rental_uris":{"android":"levelo://app?vid=df7fab81-0116-4aed-80f8-d54c0ebce6c0","ios":"levelo://app?vid=df7fab81-0116-4aed-80f8-d54c0ebce6c0"},"vehicle_type_id":"4","last_reported":1718658468,"current_range_meters":7200,"station_id":"ce4bgv92rcd13ifvqcq0","pricing_plan_id":"cebpf4jnsgd1na2vs0mg"},{"bike_id":"a6758192-08ea-4594-82e0-21adb687792d","system_id":"levelo_inurba_marseille","lat":43.2968,"lon":5.37291,"is_reserved":false,"is_disabled":false,"rental_uris":{"android":"levelo://app?vid=a6758192-08ea-4594-82e0-21adb687792d","ios":"levelo://app?vid=a6758192-08ea-4594-82e0-21adb687792d"},"vehicle_type_id":"4","last_reported":1718658468,"current_range_meters":26800,"station_id":"ce4bgk12rcd13ifvqbj0","pricing_plan_id":"cebpf4jnsgd1na2vs0mg"},{"bike_id":"49fabb64-a000-4fa1-922a-5ad4c077979c","system_id":"levelo_inurba_marseille","lat":43.296129,"lon":5.370777,"is_reserved":false,"is_disabled":false,"rental_uris":{"android":"levelo://app?vid=49fabb64-a000-4fa1-922a-5ad4c077979c","ios":"levelo://app?vid=49fabb64-a000-4fa1-922a-5ad4c077979c"},"vehicle_type_id":"4","last_reported":1718658468,"current_range_meters":0,"station_id":"ce4bgnh2rcd13ifvqc0g","pricing_plan_id":"cebpf4jnsgd1na2vs0mg"},{"bike_id":"874adc1d-67ba-42d8-8a77-1c9bdc2ac820","system_id":"levelo_inurba_marseille","lat":43.29568,"lon":5.36636,"is_reserved":false,"is_disabled":false,"rental_uris":{"android":"levelo://app?vid=874adc1d-67ba-42d8-8a77-1c9bdc2ac820","ios":"levelo://app?vid=874adc1d-67ba-42d8-8a77-1c9bdc2ac820"},"vehicle_type_id":"4","last_reported":1718658468,"current_range_meters":0,"station_id":"","pricing_plan_id":"cebpf4jnsgd1na2vs0mg"},{"bike_id":"b5625780-a137-4c0f-bc1c-357e0acd3bac","system_id":"levelo_inurba_marseille","lat":43.32053,"lon":5.387885,"is_reserved":false,"is_disabled":false,"rental_uris":{"android":"levelo://app?vid=b5625780-a137-4c0f-bc1c-357e0acd3bac","ios":"levelo://app?vid=b5625780-a137-4c0f-bc1c-357e0acd3bac"},"vehicle_type_id":"4","last_reported":1718658468,"current_range_meters":2800,"station_id":"","pricing_plan_id":"cebpf4jnsgd1na2vs0mg"},{"bike_id":"9060a30f-7a86-4d82-8a73-db55bc68e9ff","system_id":"levelo_inurba_marseille","lat":43.29904,"lon":5.38139,"is_reserved":false,"is_disabled":false,"rental_uris":{"android":"levelo://app?vid=9060a30f-7a86-4d82-8a73-db55bc68e9ff","ios":"levelo://app?vid=9060a30f-7a86-4d82-8a73-db55bc68e9ff"},"vehicle_type_id":"4","last_reported":1718658468,"current_range_meters":0,"station_id":"ce4bgj12rcd13ifvqbc0","pricing_plan_id":"cebpf4jnsgd1na2vs0mg"},{"bike_id":"d472c244-3131-456e-beb6-fa756c70677a","system_id":"levelo_inurba_marseille","lat":43.299028,"lon":5.381509,"is_reserved":false,"is_disabled":false,"rental_uris":{"android":"levelo://app?vid=d472c244-3131-456e-beb6-fa756c70677a","ios":"levelo://app?vid=d472c244-3131-456e-beb6-fa756c70677a"},"vehicle_type_id":"4","last_reported":1718658468,"current_range_meters":24800,"station_id":"ce4bgj12rcd13ifvqbc0","pricing_plan_id":"cebpf4jnsgd1na2vs0mg"},{"bike_id":"86aaf1a5-7691-4199-86a5-a368df1d1ed2","system_id":"levelo_inurba_marseille","lat":43.31757,"lon":5.39008,"is_reserved":false,"is_disabled":false,"rental_uris":{"android":"levelo://app?vid=86aaf1a5-7691-4199-86a5-a368df1d1ed2","ios":"levelo://app?vid=86aaf1a5-7691-4199-86a5-a368df1d1ed2"},"vehicle_type_id":"4","last_reported":1718658468,"current_range_meters":0,"station_id":"ce4bhqp2rcd13ifvqhng","pricing_plan_id":"cebpf4jnsgd1na2vs0mg"},{"bike_id":"97b7bff6-e7dc-4538-b5a0-2443f25490c3","system_id":"levelo_inurba_marseille","lat":43.31757,"lon":5.39008,"is_reserved":false,"is_disabled":false,"rental_uris":{"android":"levelo://app?vid=97b7bff6-e7dc-4538-b5a0-2443f25490c3","ios":"levelo://app?vid=97b7bff6-e7dc-4538-b5a0-2443f25490c3"},"vehicle_type_id":"4","last_reported":1718658468,"current_range_meters":18400,"station_id":"ce4bhqp2rcd13ifvqhng","pricing_plan_id":"cebpf4jnsgd1na2vs0mg"},{"bike_id":"c6329791-9ad3-47bd-8daf-b404dfbed09a","system_id":"levelo_inurba_marseille","lat":43.31758,"lon":5.39008,"is_reserved":false,"is_disabled":false,"rental_uris":{"android":"levelo://app?vid=c6329791-9ad3-47bd-8daf-b404dfbed09a","ios":"levelo://app?vid=c6329791-9ad3-47bd-8daf-b404dfbed09a"},"vehicle_type_id":"4","last_reported":1718658468,"current_range_meters":3600,"station_id":"ce4bhqp2rcd13ifvqhng","pricing_plan_id":"cebpf4jnsgd1na2vs0mg"},{"bike_id":"8d46fbd6-48ac-4213-aef9-46b49915de6d","system_id":"levelo_inurba_marseille","lat":43.317557,"lon":5.390173,"is_reserved":false,"is_disabled":false,"rental_uris":{"android":"levelo://app?vid=8d46fbd6-48ac-4213-aef9-46b49915de6d","ios":"levelo://app?vid=8d46fbd6-48ac-4213-aef9-46b49915de6d"},"vehicle_type_id":"4","last_reported":1718658468,"current_range_meters":28000,"station_id":"ce4bhqp2rcd13ifvqhng","pricing_plan_id":"cebpf4jnsgd1na2vs0mg"},{"bike_id":"789425bc-d378-4ba5-89a1-624f981b829d","system_id":"levelo_inurba_marseille","lat":43.31758,"lon":5.3901,"is_reserved":false,"is_disabled":false,"rental_uris":{"android":"levelo://app?vid=789425bc-d378-4ba5-89a1-624f981b829d","ios":"levelo://app?vid=789425bc-d378-4ba5-89a1-624f981b829d"},"vehicle_type_id":"4","last_reported":1718658468,"current_range_meters":0,"station_id":"ce4bhqp2rcd13ifvqhng","pricing_plan_id":"cebpf4jnsgd1na2vs0mg"},{"bike_id":"a3d1015b-64ee-43d2-845a-bb0a7f91d5b8","system_id":"levelo_inurba_marseille","lat":43.31759,"lon":5.3901,"is_reserved":false,"is_disabled":false,"rental_uris":{"android":"levelo://app?vid=a3d1015b-64ee-43d2-845a-bb0a7f91d5b8","ios":"levelo://app?vid=a3d1015b-64ee-43d2-845a-bb0a7f91d5b8"},"vehicle_type_id":"4","last_reported":1718658468,"current_range_meters":5200,"station_id":"ce4bhqp2rcd13ifvqhng","pricing_plan_id":"cebpf4jnsgd1na2vs0mg"},{"bike_id":"f1956ac1-27d4-409b-9b5f-3937bb9c55c2","system_id":"levelo_inurba_marseille","lat":43.317616,"lon":5.390189,"is_reserved":false,"is_disabled":false,"rental_uris":{"android":"levelo://app?vid=f1956ac1-27d4-409b-9b5f-3937bb9c55c2","ios":"levelo://app?vid=f1956ac1-27d4-409b-9b5f-3937bb9c55c2"},"vehicle_type_id":"4","last_reported":1718658468,"current_range_meters":0,"station_id":"ce4bhqp2rcd13ifvqhng","pricing_plan_id":"cebpf4jnsgd1na2vs0mg"},{"bike_id":"f167fa32-bb7f-47a5-8017-df8910e1447e","system_id":"levelo_inurba_marseille","lat":43.31761,"lon":5.39022,"is_reserved":false,"is_disabled":false,"rental_uris":{"android":"levelo://app?vid=f167fa32-bb7f-47a5-8017-df8910e1447e","ios":"levelo://app?vid=f167fa32-bb7f-47a5-8017-df8910e1447e"},"vehicle_type_id":"4","last_reported":1718658468,"current_range_meters":5600,"station_id":"ce4bhqp2rcd13ifvqhng","pricing_plan_id":"cebpf4jnsgd1na2vs0mg"},{"bike_id":"1dce3e4e-3f2a-441d-9267-2e0b3dd61919","system_id":"levelo_inurba_marseille","lat":43.31759,"lon":5.39027,"is_reserved":false,"is_disabled":false,"rental_uris":{"android":"levelo://app?vid=1dce3e4e-3f2a-441d-9267-2e0b3dd61919","ios":"levelo://app?vid=1dce3e4e-3f2a-441d-9267-2e0b3dd61919"},"vehicle_type_id":"4","last_reported":1718658468,"current_range_meters":10400,"station_id":"ce4bhqp2rcd13ifvqhng","pricing_plan_id":"cebpf4jnsgd1na2vs0mg"},{"bike_id":"9777fd5c-4c4d-4611-b617-1032498e576e","system_id":"levelo_inurba_marseille","lat":43.31873,"lon":5.390262,"is_reserved":false,"is_disabled":false,"rental_uris":{"android":"levelo://app?vid=9777fd5c-4c4d-4611-b617-1032498e576e","ios":"levelo://app?vid=9777fd5c-4c4d-4611-b617-1032498e576e"},"vehicle_type_id":"4","last_reported":1718658468,"current_range_meters":1200,"station_id":"","pricing_plan_id":"cebpf4jnsgd1na2vs0mg"},{"bike_id":"94c0fb22-3b13-4ffd-8721-86b4b1aeefca","system_id":"levelo_inurba_marseille","lat":43.29789,"lon":5.38109,"is_reserved":false,"is_disabled":false,"rental_uris":{"android":"levelo://app?vid=94c0fb22-3b13-4ffd-8721-86b4b1aeefca","ios":"levelo://app?vid=94c0fb22-3b13-4ffd-8721-86b4b1aeefca"},"vehicle_type_id":"4","last_reported":1718658468,"current_range_meters":0,"station_id":"ce4bgip2rcd13ifvqbb0","pricing_plan_id":"cebpf4jnsgd1na2vs0mg"},{"bike_id":"cb199fc7-4ddc-4277-bfe9-027ee2492978","system_id":"levelo_inurba_marseille","lat":43.30427,"lon":5.3889,"is_reserved":false,"is_disabled":false,"rental_uris":{"android":"levelo://app?vid=cb199fc7-4ddc-4277-bfe9-027ee2492978","ios":"levelo://app?vid=cb199fc7-4ddc-4277-bfe9-027ee2492978"},"vehicle_type_id":"4","last_reported":1718658468,"current_range_meters":20800,"station_id":"ce4bgk12rcd13ifvqbi0","pricing_plan_id":"cebpf4jnsgd1na2vs0mg"},{"bike_id":"aa0d7538-f092-4b31-88b4-835a89e4a40b","system_id":"levelo_inurba_marseille","lat":43.29777,"lon":5.38102,"is_reserved":false,"is_disabled":false,"rental_uris":{"android":"levelo://app?vid=aa0d7538-f092-4b31-88b4-835a89e4a40b","ios":"levelo://app?vid=aa0d7538-f092-4b31-88b4-835a89e4a40b"},"vehicle_type_id":"4","last_reported":1718658468,"current_range_meters":0,"station_id":"ce4bgip2rcd13ifvqbb0","pricing_plan_id":"cebpf4jnsgd1na2vs0mg"},{"bike_id":"398a09a4-9bd1-4141-b8e1-9a0f671a8e1a","system_id":"levelo_inurba_marseille","lat":43.304274,"lon":5.388873,"is_reserved":false,"is_disabled":false,"rental_uris":{"android":"levelo://app?vid=398a09a4-9bd1-4141-b8e1-9a0f671a8e1a","ios":"levelo://app?vid=398a09a4-9bd1-4141-b8e1-9a0f671a8e1a"},"vehicle_type_id":"4","last_reported":1718658468,"current_range_meters":2400,"station_id":"ce4bgk12rcd13ifvqbi0","pricing_plan_id":"cebpf4jnsgd1na2vs0mg"},{"bike_id":"5cff810f-d25b-4123-b242-934811ae5fd1","system_id":"levelo_inurba_marseille","lat":43.29975,"lon":5.38493,"is_reserved":false,"is_disabled":false,"rental_uris":{"android":"levelo://app?vid=5cff810f-d25b-4123-b242-934811ae5fd1","ios":"levelo://app?vid=5cff810f-d25b-4123-b242-934811ae5fd1"},"vehicle_type_id":"4","last_reported":1718658468,"current_range_meters":0,"station_id":"ce4bgj92rcd13ifvqbd0","pricing_plan_id":"cebpf4jnsgd1na2vs0mg"},{"bike_id":"e2338d2f-477e-442c-86c1-813731e02424","system_id":"levelo_inurba_marseille","lat":43.299222,"lon":5.365554,"is_reserved":false,"is_disabled":false,"rental_uris":{"android":"levelo://app?vid=e2338d2f-477e-442c-86c1-813731e02424","ios":"levelo://app?vid=e2338d2f-477e-442c-86c1-813731e02424"},"vehicle_type_id":"4","last_reported":1718658468,"current_range_meters":3600,"station_id":"ce4bgm92rcd13ifvqbr0","pricing_plan_id":"cebpf4jnsgd1na2vs0mg"},{"bike_id":"ce841a7a-8718-4134-b29e-cf888c74ae27","system_id":"levelo_inurba_marseille","lat":43.32367,"lon":5.388836,"is_reserved":false,"is_disabled":false,"rental_uris":{"android":"levelo://app?vid=ce841a7a-8718-4134-b29e-cf888c74ae27","ios":"levelo://app?vid=ce841a7a-8718-4134-b29e-cf888c74ae27"},"vehicle_type_id":"4","last_reported":1718658468,"current_range_meters":5200,"station_id":"ce4bhqp2rcd13ifvqhog","pricing_plan_id":"cebpf4jnsgd1na2vs0mg"},{"bike_id":"86e05cdf-4981-46f8-9c91-ba3c800619f8","system_id":"levelo_inurba_marseille","lat":43.32365,"lon":5.3888,"is_reserved":false,"is_disabled":false,"rental_uris":{"android":"levelo://app?vid=86e05cdf-4981-46f8-9c91-ba3c800619f8","ios":"levelo://app?vid=86e05cdf-4981-46f8-9c91-ba3c800619f8"},"vehicle_type_id":"4","last_reported":1718658468,"current_range_meters":3600,"station_id":"ce4bhqp2rcd13ifvqhog","pricing_plan_id":"cebpf4jnsgd1na2vs0mg"},{"bike_id":"d8768184-6248-418b-82a4-183995e6ccc8","system_id":"levelo_inurba_marseille","lat":43.32367,"lon":5.388836,"is_reserved":false,"is_disabled":false,"rental_uris":{"android":"levelo://app?vid=d8768184-6248-418b-82a4-183995e6ccc8","ios":"levelo://app?vid=d8768184-6248-418b-82a4-183995e6ccc8"},"vehicle_type_id":"4","last_reported":1718658468,"current_range_meters":8800,"station_id":"ce4bhqp2rcd13ifvqhog","pricing_plan_id":"cebpf4jnsgd1na2vs0mg"},{"bike_id":"40f6340c-65dc-4604-a24c-ef14f4597729","system_id":"levelo_inurba_marseille","lat":43.32367,"lon":5.388836,"is_reserved":false,"is_disabled":false,"rental_uris":{"android":"levelo://app?vid=40f6340c-65dc-4604-a24c-ef14f4597729","ios":"levelo://app?vid=40f6340c-65dc-4604-a24c-ef14f4597729"},"vehicle_type_id":"4","last_reported":1718658468,"current_range_meters":18800,"station_id":"ce4bhqp2rcd13ifvqhog","pricing_plan_id":"cebpf4jnsgd1na2vs0mg"},{"bike_id":"80cbc371-66d5-43d2-9e7d-a0b337f5e32d","system_id":"levelo_inurba_marseille","lat":43.32365,"lon":5.38886,"is_reserved":false,"is_disabled":false,"rental_uris":{"android":"levelo://app?vid=80cbc371-66d5-43d2-9e7d-a0b337f5e32d","ios":"levelo://app?vid=80cbc371-66d5-43d2-9e7d-a0b337f5e32d"},"vehicle_type_id":"4","last_reported":1718658468,"current_range_meters":3600,"station_id":"ce4bhqp2rcd13ifvqhog","pricing_plan_id":"cebpf4jnsgd1na2vs0mg"},{"bike_id":"ade2f0cc-59b0-4a8a-93a1-d1825c074fba","system_id":"levelo_inurba_marseille","lat":43.32367,"lon":5.388836,"is_reserved":false,"is_disabled":false,"rental_uris":{"android":"levelo://app?vid=ade2f0cc-59b0-4a8a-93a1-d1825c074fba","ios":"levelo://app?vid=ade2f0cc-59b0-4a8a-93a1-d1825c074fba"},"vehicle_type_id":"4","last_reported":1718658468,"current_range_meters":28000,"station_id":"ce4bhqp2rcd13ifvqhog","pricing_plan_id":"cebpf4jnsgd1na2vs0mg"},{"bike_id":"8e24327c-9894-45db-ac20-7a513857a270","system_id":"levelo_inurba_marseille","lat":43.32367,"lon":5.388836,"is_reserved":false,"is_disabled":false,"rental_uris":{"android":"levelo://app?vid=8e24327c-9894-45db-ac20-7a513857a270","ios":"levelo://app?vid=8e24327c-9894-45db-ac20-7a513857a270"},"vehicle_type_id":"4","last_reported":1718658468,"current_range_meters":7200,"station_id":"ce4bhqp2rcd13ifvqhog","pricing_plan_id":"cebpf4jnsgd1na2vs0mg"},{"bike_id":"819cb40a-b7ce-42c7-89af-a1e6b24cc9fc","system_id":"levelo_inurba_marseille","lat":43.29602,"lon":5.381084,"is_reserved":false,"is_disabled":false,"rental_uris":{"android":"levelo://app?vid=819cb40a-b7ce-42c7-89af-a1e6b24cc9fc","ios":"levelo://app?vid=819cb40a-b7ce-42c7-89af-a1e6b24cc9fc"},"vehicle_type_id":"4","last_reported":1718658468,"current_range_meters":0,"station_id":"ce4bgl12rcd13ifvqbo0","pricing_plan_id":"cebpf4jnsgd1na2vs0mg"},{"bike_id":"82b6b79c-13d2-43a4-945f-a1f820752d3f","system_id":"levelo_inurba_marseille","lat":43.293023,"lon":5.37157,"is_reserved":false,"is_disabled":false,"rental_uris":{"android":"levelo://app?vid=82b6b79c-13d2-43a4-945f-a1f820752d3f","ios":"levelo://app?vid=82b6b79c-13d2-43a4-945f-a1f820752d3f"},"vehicle_type_id":"4","last_reported":1718658468,"current_range_meters":0,"station_id":"ce4bgh92rcd13ifvqb40","pricing_plan_id":"cebpf4jnsgd1na2vs0mg"},{"bike_id":"7fed29f7-7971-4ca1-aed3-9bb9fb21711c","system_id":"levelo_inurba_marseille","lat":43.293259,"lon":5.371586,"is_reserved":false,"is_disabled":false,"rental_uris":{"android":"levelo://app?vid=7fed29f7-7971-4ca1-aed3-9bb9fb21711c","ios":"levelo://app?vid=7fed29f7-7971-4ca1-aed3-9bb9fb21711c"},"vehicle_type_id":"4","last_reported":1718658468,"current_range_meters":0,"station_id":"ce4bgh92rcd13ifvqb40","pricing_plan_id":"cebpf4jnsgd1na2vs0mg"},{"bike_id":"807c649c-7edd-4a61-af10-ec031b032102","system_id":"levelo_inurba_marseille","lat":43.29275,"lon":5.36836,"is_reserved":false,"is_disabled":false,"rental_uris":{"android":"levelo://app?vid=807c649c-7edd-4a61-af10-ec031b032102","ios":"levelo://app?vid=807c649c-7edd-4a61-af10-ec031b032102"},"vehicle_type_id":"4","last_reported":1718658468,"current_range_meters":0,"station_id":"ce4bhbp2rcd13ifvqesg","pricing_plan_id":"cebpf4jnsgd1na2vs0mg"},{"bike_id":"8cafcaf8-cc00-4892-ba9c-dd864eb7c1fe","system_id":"levelo_inurba_marseille","lat":43.29301,"lon":5.37453,"is_reserved":false,"is_disabled":false,"rental_uris":{"android":"levelo://app?vid=8cafcaf8-cc00-4892-ba9c-dd864eb7c1fe","ios":"levelo://app?vid=8cafcaf8-cc00-4892-ba9c-dd864eb7c1fe"},"vehicle_type_id":"4","last_reported":1718658468,"current_range_meters":0,"station_id":"ce4bgi12rcd13ifvqb70","pricing_plan_id":"cebpf4jnsgd1na2vs0mg"},{"bike_id":"e020ca67-f748-4733-b23c-fa3583e1ffc7","system_id":"levelo_inurba_marseille","lat":43.29296,"lon":5.37456,"is_reserved":false,"is_disabled":false,"rental_uris":{"android":"levelo://app?vid=e020ca67-f748-4733-b23c-fa3583e1ffc7","ios":"levelo://app?vid=e020ca67-f748-4733-b23c-fa3583e1ffc7"},"vehicle_type_id":"4","last_reported":1718658468,"current_range_meters":0,"station_id":"ce4bgi12rcd13ifvqb70","pricing_plan_id":"cebpf4jnsgd1na2vs0mg"},{"bike_id":"034def6c-022d-4c9b-ac62-d06f3882f155","system_id":"levelo_inurba_marseille","lat":43.305994,"lon":5.393687,"is_reserved":false,"is_disabled":false,"rental_uris":{"android":"levelo://app?vid=034def6c-022d-4c9b-ac62-d06f3882f155","ios":"levelo://app?vid=034def6c-022d-4c9b-ac62-d06f3882f155"},"vehicle_type_id":"4","last_reported":1718658468,"current_range_meters":18800,"station_id":"ce4bh0p2rcd13ifvqd80","pricing_plan_id":"cebpf4jnsgd1na2vs0mg"},{"bike_id":"8e0ac34c-092f-4974-ade4-6f5f381d855c","system_id":"levelo_inurba_marseille","lat":43.293009,"lon":5.374584,"is_reserved":false,"is_disabled":false,"rental_uris":{"android":"levelo://app?vid=8e0ac34c-092f-4974-ade4-6f5f381d855c","ios":"levelo://app?vid=8e0ac34c-092f-4974-ade4-6f5f381d855c"},"vehicle_type_id":"4","last_reported":1718658468,"current_range_meters":18400,"station_id":"ce4bgi12rcd13ifvqb70","pricing_plan_id":"cebpf4jnsgd1na2vs0mg"},{"bike_id":"a3f3b1c4-19d7-49c8-99ed-a7ab1d4b89d8","system_id":"levelo_inurba_marseille","lat":43.305994,"lon":5.393687,"is_reserved":false,"is_disabled":false,"rental_uris":{"android":"levelo://app?vid=a3f3b1c4-19d7-49c8-99ed-a7ab1d4b89d8","ios":"levelo://app?vid=a3f3b1c4-19d7-49c8-99ed-a7ab1d4b89d8"},"vehicle_type_id":"4","last_reported":1718658468,"current_range_meters":0,"station_id":"ce4bh0p2rcd13ifvqd80","pricing_plan_id":"cebpf4jnsgd1na2vs0mg"},{"bike_id":"930078c4-82a9-4619-81b9-bc1a4de52bc7","system_id":"levelo_inurba_marseille","lat":43.293009,"lon":5.374584,"is_reserved":false,"is_disabled":false,"rental_uris":{"android":"levelo://app?vid=930078c4-82a9-4619-81b9-bc1a4de52bc7","ios":"levelo://app?vid=930078c4-82a9-4619-81b9-bc1a4de52bc7"},"vehicle_type_id":"4","last_reported":1718658468,"current_range_meters":0,"station_id":"ce4bgi12rcd13ifvqb70","pricing_plan_id":"cebpf4jnsgd1na2vs0mg"},{"bike_id":"65109a74-cbf5-4ca3-a5db-8db93071793a","system_id":"levelo_inurba_marseille","lat":43.303138,"lon":5.392045,"is_reserved":false,"is_disabled":false,"rental_uris":{"android":"levelo://app?vid=65109a74-cbf5-4ca3-a5db-8db93071793a","ios":"levelo://app?vid=65109a74-cbf5-4ca3-a5db-8db93071793a"},"vehicle_type_id":"4","last_reported":1718658468,"current_range_meters":14000,"station_id":"ce4bgkh2rcd13ifvqbk0","pricing_plan_id":"cebpf4jnsgd1na2vs0mg"},{"bike_id":"a0065aef-22e8-4b87-9a30-8da806f73282","system_id":"levelo_inurba_marseille","lat":43.305994,"lon":5.393687,"is_reserved":false,"is_disabled":false,"rental_uris":{"android":"levelo://app?vid=a0065aef-22e8-4b87-9a30-8da806f73282","ios":"levelo://app?vid=a0065aef-22e8-4b87-9a30-8da806f73282"},"vehicle_type_id":"4","last_reported":1718658468,"current_range_meters":4800,"station_id":"ce4bh0p2rcd13ifvqd80","pricing_plan_id":"cebpf4jnsgd1na2vs0mg"},{"bike_id":"fb1d9a5f-ebe0-44ce-92c5-7eb8c4e8dda6","system_id":"levelo_inurba_marseille","lat":43.2936,"lon":5.37835,"is_reserved":false,"is_disabled":false,"rental_uris":{"android":"levelo://app?vid=fb1d9a5f-ebe0-44ce-92c5-7eb8c4e8dda6","ios":"levelo://app?vid=fb1d9a5f-ebe0-44ce-92c5-7eb8c4e8dda6"},"vehicle_type_id":"4","last_reported":1718658468,"current_range_meters":0,"station_id":"ce4bgjh2rcd13ifvqbf0","pricing_plan_id":"cebpf4jnsgd1na2vs0mg"},{"bike_id":"ee6b741f-096c-4283-9ba8-01da759d860b","system_id":"levelo_inurba_marseille","lat":43.30302,"lon":5.39209,"is_reserved":false,"is_disabled":false,"rental_uris":{"android":"levelo://app?vid=ee6b741f-096c-4283-9ba8-01da759d860b","ios":"levelo://app?vid=ee6b741f-096c-4283-9ba8-01da759d860b"},"vehicle_type_id":"4","last_reported":1718658468,"current_range_meters":18800,"station_id":"ce4bgkh2rcd13ifvqbk0","pricing_plan_id":"cebpf4jnsgd1na2vs0mg"},{"bike_id":"5af7ab76-3981-435f-b2d0-6e223d18eb48","system_id":"levelo_inurba_marseille","lat":43.30299,"lon":5.39208,"is_reserved":false,"is_disabled":false,"rental_uris":{"android":"levelo://app?vid=5af7ab76-3981-435f-b2d0-6e223d18eb48","ios":"levelo://app?vid=5af7ab76-3981-435f-b2d0-6e223d18eb48"},"vehicle_type_id":"4","last_reported":1718658468,"current_range_meters":14000,"station_id":"ce4bgkh2rcd13ifvqbk0","pricing_plan_id":"cebpf4jnsgd1na2vs0mg"},{"bike_id":"4aeab03b-c64a-46bf-a708-5cecfe8084d2","system_id":"levelo_inurba_marseille","lat":43.302992,"lon":5.392136,"is_reserved":false,"is_disabled":false,"rental_uris":{"android":"levelo://app?vid=4aeab03b-c64a-46bf-a708-5cecfe8084d2","ios":"levelo://app?vid=4aeab03b-c64a-46bf-a708-5cecfe8084d2"},"vehicle_type_id":"4","last_reported":1718658468,"current_range_meters":27200,"station_id":"ce4bgkh2rcd13ifvqbk0","pricing_plan_id":"cebpf4jnsgd1na2vs0mg"},{"bike_id":"2f4ae05f-624a-48f2-ad22-228f8252b8f6","system_id":"levelo_inurba_marseille","lat":43.30295,"lon":5.3921,"is_reserved":false,"is_disabled":false,"rental_uris":{"android":"levelo://app?vid=2f4ae05f-624a-48f2-ad22-228f8252b8f6","ios":"levelo://app?vid=2f4ae05f-624a-48f2-ad22-228f8252b8f6"},"vehicle_type_id":"4","last_reported":1718658468,"current_range_meters":1200,"station_id":"ce4bgkh2rcd13ifvqbk0","pricing_plan_id":"cebpf4jnsgd1na2vs0mg"},{"bike_id":"09290b97-d032-4346-b2ad-9462a49016a5","system_id":"levelo_inurba_marseille","lat":43.302992,"lon":5.392136,"is_reserved":false,"is_disabled":false,"rental_uris":{"android":"levelo://app?vid=09290b97-d032-4346-b2ad-9462a49016a5","ios":"levelo://app?vid=09290b97-d032-4346-b2ad-9462a49016a5"},"vehicle_type_id":"4","last_reported":1718658468,"current_range_meters":2000,"station_id":"ce4bgkh2rcd13ifvqbk0","pricing_plan_id":"cebpf4jnsgd1na2vs0mg"},{"bike_id":"40a33180-3a08-4124-af1b-d7a79f246360","system_id":"levelo_inurba_marseille","lat":43.303002,"lon":5.392142,"is_reserved":false,"is_disabled":false,"rental_uris":{"android":"levelo://app?vid=40a33180-3a08-4124-af1b-d7a79f246360","ios":"levelo://app?vid=40a33180-3a08-4124-af1b-d7a79f246360"},"vehicle_type_id":"4","last_reported":1718658468,"current_range_meters":1600,"station_id":"ce4bgkh2rcd13ifvqbk0","pricing_plan_id":"cebpf4jnsgd1na2vs0mg"},{"bike_id":"3eafb2c5-41c5-470c-8634-65d42957b53f","system_id":"levelo_inurba_marseille","lat":43.302992,"lon":5.392136,"is_reserved":false,"is_disabled":false,"rental_uris":{"android":"levelo://app?vid=3eafb2c5-41c5-470c-8634-65d42957b53f","ios":"levelo://app?vid=3eafb2c5-41c5-470c-8634-65d42957b53f"},"vehicle_type_id":"4","last_reported":1718658468,"current_range_meters":20400,"station_id":"ce4bgkh2rcd13ifvqbk0","pricing_plan_id":"cebpf4jnsgd1na2vs0mg"},{"bike_id":"e9d92ce8-51f4-4f12-ac5d-c2be7c61c41a","system_id":"levelo_inurba_marseille","lat":43.30085,"lon":5.390856,"is_reserved":false,"is_disabled":false,"rental_uris":{"android":"levelo://app?vid=e9d92ce8-51f4-4f12-ac5d-c2be7c61c41a","ios":"levelo://app?vid=e9d92ce8-51f4-4f12-ac5d-c2be7c61c41a"},"vehicle_type_id":"4","last_reported":1718658468,"current_range_meters":20400,"station_id":"ce4bh192rcd13ifvqdb0","pricing_plan_id":"cebpf4jnsgd1na2vs0mg"},{"bike_id":"54f49def-ec03-4698-a74c-975b6132c0b7","system_id":"levelo_inurba_marseille","lat":43.30085,"lon":5.390856,"is_reserved":false,"is_disabled":false,"rental_uris":{"android":"levelo://app?vid=54f49def-ec03-4698-a74c-975b6132c0b7","ios":"levelo://app?vid=54f49def-ec03-4698-a74c-975b6132c0b7"},"vehicle_type_id":"4","last_reported":1718658468,"current_range_meters":15200,"station_id":"ce4bh192rcd13ifvqdb0","pricing_plan_id":"cebpf4jnsgd1na2vs0mg"},{"bike_id":"442f019b-4638-4db0-828e-340ffdb370d2","system_id":"levelo_inurba_marseille","lat":43.29223,"lon":5.36054,"is_reserved":false,"is_disabled":false,"rental_uris":{"android":"levelo://app?vid=442f019b-4638-4db0-828e-340ffdb370d2","ios":"levelo://app?vid=442f019b-4638-4db0-828e-340ffdb370d2"},"vehicle_type_id":"4","last_reported":1718658468,"current_range_meters":0,"station_id":"ce4bhbh2rcd13ifvqeqg","pricing_plan_id":"cebpf4jnsgd1na2vs0mg"},{"bike_id":"2d3fedd7-3a0b-43bf-8aab-31effee40650","system_id":"levelo_inurba_marseille","lat":43.30085,"lon":5.390856,"is_reserved":false,"is_disabled":false,"rental_uris":{"android":"levelo://app?vid=2d3fedd7-3a0b-43bf-8aab-31effee40650","ios":"levelo://app?vid=2d3fedd7-3a0b-43bf-8aab-31effee40650"},"vehicle_type_id":"4","last_reported":1718658468,"current_range_meters":1200,"station_id":"ce4bh192rcd13ifvqdb0","pricing_plan_id":"cebpf4jnsgd1na2vs0mg"},{"bike_id":"c1c76e2d-a18d-4bcb-abe6-ab1107a1f12b","system_id":"levelo_inurba_marseille","lat":43.291675,"lon":5.371583,"is_reserved":false,"is_disabled":false,"rental_uris":{"android":"levelo://app?vid=c1c76e2d-a18d-4bcb-abe6-ab1107a1f12b","ios":"levelo://app?vid=c1c76e2d-a18d-4bcb-abe6-ab1107a1f12b"},"vehicle_type_id":"4","last_reported":1718658468,"current_range_meters":17200,"station_id":"ce4bha92rcd13ifvqeh0","pricing_plan_id":"cebpf4jnsgd1na2vs0mg"},{"bike_id":"7eb4e927-7a08-46ef-b004-2f3468476d54","system_id":"levelo_inurba_marseille","lat":43.298764,"lon":5.388973,"is_reserved":false,"is_disabled":false,"rental_uris":{"android":"levelo://app?vid=7eb4e927-7a08-46ef-b004-2f3468476d54","ios":"levelo://app?vid=7eb4e927-7a08-46ef-b004-2f3468476d54"},"vehicle_type_id":"4","last_reported":1718658468,"current_range_meters":30000,"station_id":"ce4bh392rcd13ifvqdl0","pricing_plan_id":"cebpf4jnsgd1na2vs0mg"},{"bike_id":"70b0a607-b970-4127-b383-db9b27990b4a","system_id":"levelo_inurba_marseille","lat":43.298764,"lon":5.388973,"is_reserved":false,"is_disabled":false,"rental_uris":{"android":"levelo://app?vid=70b0a607-b970-4127-b383-db9b27990b4a","ios":"levelo://app?vid=70b0a607-b970-4127-b383-db9b27990b4a"},"vehicle_type_id":"4","last_reported":1718658468,"current_range_meters":24000,"station_id":"ce4bh392rcd13ifvqdl0","pricing_plan_id":"cebpf4jnsgd1na2vs0mg"},{"bike_id":"75435f64-78ea-42cd-a680-653f2e6ffbfd","system_id":"levelo_inurba_marseille","lat":43.292005,"lon":5.357875,"is_reserved":false,"is_disabled":false,"rental_uris":{"android":"levelo://app?vid=75435f64-78ea-42cd-a680-653f2e6ffbfd","ios":"levelo://app?vid=75435f64-78ea-42cd-a680-653f2e6ffbfd"},"vehicle_type_id":"4","last_reported":1718658468,"current_range_meters":20800,"station_id":"ce4bhb12rcd13ifvqel0","pricing_plan_id":"cebpf4jnsgd1na2vs0mg"},{"bike_id":"0641ed59-e26a-4b42-b219-36f02266e271","system_id":"levelo_inurba_marseille","lat":43.30891,"lon":5.39632,"is_reserved":false,"is_disabled":false,"rental_uris":{"android":"levelo://app?vid=0641ed59-e26a-4b42-b219-36f02266e271","ios":"levelo://app?vid=0641ed59-e26a-4b42-b219-36f02266e271"},"vehicle_type_id":"4","last_reported":1718658468,"current_range_meters":0,"station_id":"ce4bh012rcd13ifvqcv0","pricing_plan_id":"cebpf4jnsgd1na2vs0mg"},{"bike_id":"05147513-06e9-4e0b-800f-f7feb696796e","system_id":"levelo_inurba_marseille","lat":43.309038,"lon":5.396546,"is_reserved":false,"is_disabled":false,"rental_uris":{"android":"levelo://app?vid=05147513-06e9-4e0b-800f-f7feb696796e","ios":"levelo://app?vid=05147513-06e9-4e0b-800f-f7feb696796e"},"vehicle_type_id":"4","last_reported":1718658468,"current_range_meters":11200,"station_id":"ce4bh012rcd13ifvqcv0","pricing_plan_id":"cebpf4jnsgd1na2vs0mg"},{"bike_id":"3a936cf7-f86f-49ab-95cc-e387fb6b91b7","system_id":"levelo_inurba_marseille","lat":43.29193,"lon":5.35803,"is_reserved":false,"is_disabled":false,"rental_uris":{"android":"levelo://app?vid=3a936cf7-f86f-49ab-95cc-e387fb6b91b7","ios":"levelo://app?vid=3a936cf7-f86f-49ab-95cc-e387fb6b91b7"},"vehicle_type_id":"4","last_reported":1718658468,"current_range_meters":0,"station_id":"ce4bhb12rcd13ifvqel0","pricing_plan_id":"cebpf4jnsgd1na2vs0mg"},{"bike_id":"a1f861b3-1691-4022-9f32-55fd016e8e6d","system_id":"levelo_inurba_marseille","lat":43.309038,"lon":5.396546,"is_reserved":false,"is_disabled":false,"rental_uris":{"android":"levelo://app?vid=a1f861b3-1691-4022-9f32-55fd016e8e6d","ios":"levelo://app?vid=a1f861b3-1691-4022-9f32-55fd016e8e6d"},"vehicle_type_id":"4","last_reported":1718658468,"current_range_meters":16800,"station_id":"ce4bh012rcd13ifvqcv0","pricing_plan_id":"cebpf4jnsgd1na2vs0mg"},{"bike_id":"40709db7-e65d-46ae-b6a2-0e651941456f","system_id":"levelo_inurba_marseille","lat":43.309047,"lon":5.396551,"is_reserved":false,"is_disabled":false,"rental_uris":{"android":"levelo://app?vid=40709db7-e65d-46ae-b6a2-0e651941456f","ios":"levelo://app?vid=40709db7-e65d-46ae-b6a2-0e651941456f"},"vehicle_type_id":"4","last_reported":1718658468,"current_range_meters":27200,"station_id":"ce4bh012rcd13ifvqcv0","pricing_plan_id":"cebpf4jnsgd1na2vs0mg"},{"bike_id":"f9305d8e-e990-4af9-b3bb-45696aa82d0a","system_id":"levelo_inurba_marseille","lat":43.313291,"lon":5.396838,"is_reserved":false,"is_disabled":false,"rental_uris":{"android":"levelo://app?vid=f9305d8e-e990-4af9-b3bb-45696aa82d0a","ios":"levelo://app?vid=f9305d8e-e990-4af9-b3bb-45696aa82d0a"},"vehicle_type_id":"4","last_reported":1718658468,"current_range_meters":2800,"station_id":"ce4bgvp2rcd13ifvqcu0","pricing_plan_id":"cebpf4jnsgd1na2vs0mg"},{"bike_id":"afbe6b38-6949-4241-be4a-26f610a433fc","system_id":"levelo_inurba_marseille","lat":43.309047,"lon":5.396551,"is_reserved":false,"is_disabled":false,"rental_uris":{"android":"levelo://app?vid=afbe6b38-6949-4241-be4a-26f610a433fc","ios":"levelo://app?vid=afbe6b38-6949-4241-be4a-26f610a433fc"},"vehicle_type_id":"4","last_reported":1718658468,"current_range_meters":30000,"station_id":"ce4bh012rcd13ifvqcv0","pricing_plan_id":"cebpf4jnsgd1na2vs0mg"},{"bike_id":"14b78c03-8e57-4a44-ac23-4d17af921c40","system_id":"levelo_inurba_marseille","lat":43.31328,"lon":5.39694,"is_reserved":false,"is_disabled":false,"rental_uris":{"android":"levelo://app?vid=14b78c03-8e57-4a44-ac23-4d17af921c40","ios":"levelo://app?vid=14b78c03-8e57-4a44-ac23-4d17af921c40"},"vehicle_type_id":"4","last_reported":1718658468,"current_range_meters":0,"station_id":"ce4bgvp2rcd13ifvqcu0","pricing_plan_id":"cebpf4jnsgd1na2vs0mg"},{"bike_id":"0bb4c479-98c6-470d-ba52-8177bc9b8480","system_id":"levelo_inurba_marseille","lat":43.309038,"lon":5.396546,"is_reserved":false,"is_disabled":false,"rental_uris":{"android":"levelo://app?vid=0bb4c479-98c6-470d-ba52-8177bc9b8480","ios":"levelo://app?vid=0bb4c479-98c6-470d-ba52-8177bc9b8480"},"vehicle_type_id":"4","last_reported":1718658468,"current_range_meters":24400,"station_id":"ce4bh012rcd13ifvqcv0","pricing_plan_id":"cebpf4jnsgd1na2vs0mg"},{"bike_id":"10b7d95b-0a59-48b8-b18e-283b460fb3b8","system_id":"levelo_inurba_marseille","lat":43.32211,"lon":5.39409,"is_reserved":false,"is_disabled":false,"rental_uris":{"android":"levelo://app?vid=10b7d95b-0a59-48b8-b18e-283b460fb3b8","ios":"levelo://app?vid=10b7d95b-0a59-48b8-b18e-283b460fb3b8"},"vehicle_type_id":"4","last_reported":1718658468,"current_range_meters":27200,"station_id":"","pricing_plan_id":"cebpf4jnsgd1na2vs0mg"},{"bike_id":"f565c058-5384-40ba-86fe-9e6558880fa8","system_id":"levelo_inurba_marseille","lat":43.313291,"lon":5.396838,"is_reserved":false,"is_disabled":false,"rental_uris":{"android":"levelo://app?vid=f565c058-5384-40ba-86fe-9e6558880fa8","ios":"levelo://app?vid=f565c058-5384-40ba-86fe-9e6558880fa8"},"vehicle_type_id":"4","last_reported":1718658468,"current_range_meters":17200,"station_id":"ce4bgvp2rcd13ifvqcu0","pricing_plan_id":"cebpf4jnsgd1na2vs0mg"},{"bike_id":"0c3fbd26-cba8-4c64-9a5f-571a029fc57f","system_id":"levelo_inurba_marseille","lat":43.309038,"lon":5.396546,"is_reserved":false,"is_disabled":false,"rental_uris":{"android":"levelo://app?vid=0c3fbd26-cba8-4c64-9a5f-571a029fc57f","ios":"levelo://app?vid=0c3fbd26-cba8-4c64-9a5f-571a029fc57f"},"vehicle_type_id":"4","last_reported":1718658468,"current_range_meters":22800,"station_id":"ce4bh012rcd13ifvqcv0","pricing_plan_id":"cebpf4jnsgd1na2vs0mg"},{"bike_id":"411abde3-ce22-49cf-9d0d-fa700ae2ea2c","system_id":"levelo_inurba_marseille","lat":43.29529,"lon":5.385581,"is_reserved":false,"is_disabled":false,"rental_uris":{"android":"levelo://app?vid=411abde3-ce22-49cf-9d0d-fa700ae2ea2c","ios":"levelo://app?vid=411abde3-ce22-49cf-9d0d-fa700ae2ea2c"},"vehicle_type_id":"4","last_reported":1718658468,"current_range_meters":19600,"station_id":"ce4bgih2rcd13ifvqba0","pricing_plan_id":"cebpf4jnsgd1na2vs0mg"},{"bike_id":"440fd8e1-09c1-4828-a4b7-ac51f2144425","system_id":"levelo_inurba_marseille","lat":43.29535,"lon":5.38534,"is_reserved":false,"is_disabled":false,"rental_uris":{"android":"levelo://app?vid=440fd8e1-09c1-4828-a4b7-ac51f2144425","ios":"levelo://app?vid=440fd8e1-09c1-4828-a4b7-ac51f2144425"},"vehicle_type_id":"4","last_reported":1718658468,"current_range_meters":2800,"station_id":"ce4bgih2rcd13ifvqba0","pricing_plan_id":"cebpf4jnsgd1na2vs0mg"},{"bike_id":"1e9de9a9-9d87-4070-83e3-651c81a9a3c6","system_id":"levelo_inurba_marseille","lat":43.29529,"lon":5.385581,"is_reserved":false,"is_disabled":false,"rental_uris":{"android":"levelo://app?vid=1e9de9a9-9d87-4070-83e3-651c81a9a3c6","ios":"levelo://app?vid=1e9de9a9-9d87-4070-83e3-651c81a9a3c6"},"vehicle_type_id":"4","last_reported":1718658468,"current_range_meters":29200,"station_id":"ce4bgih2rcd13ifvqba0","pricing_plan_id":"cebpf4jnsgd1na2vs0mg"},{"bike_id":"4a62406b-4f5d-4a50-a5e3-670f21509b8d","system_id":"levelo_inurba_marseille","lat":43.295317,"lon":5.385423,"is_reserved":false,"is_disabled":false,"rental_uris":{"android":"levelo://app?vid=4a62406b-4f5d-4a50-a5e3-670f21509b8d","ios":"levelo://app?vid=4a62406b-4f5d-4a50-a5e3-670f21509b8d"},"vehicle_type_id":"4","last_reported":1718658468,"current_range_meters":31200,"station_id":"ce4bgih2rcd13ifvqba0","pricing_plan_id":"cebpf4jnsgd1na2vs0mg"},{"bike_id":"b3d8af1d-5d5f-4393-bdce-ee29266b1acd","system_id":"levelo_inurba_marseille","lat":43.29529,"lon":5.385581,"is_reserved":false,"is_disabled":false,"rental_uris":{"android":"levelo://app?vid=b3d8af1d-5d5f-4393-bdce-ee29266b1acd","ios":"levelo://app?vid=b3d8af1d-5d5f-4393-bdce-ee29266b1acd"},"vehicle_type_id":"4","last_reported":1718658468,"current_range_meters":22800,"station_id":"ce4bgih2rcd13ifvqba0","pricing_plan_id":"cebpf4jnsgd1na2vs0mg"},{"bike_id":"f2417bd1-0406-44ff-aebf-956d00c56415","system_id":"levelo_inurba_marseille","lat":43.29529,"lon":5.38539,"is_reserved":false,"is_disabled":false,"rental_uris":{"android":"levelo://app?vid=f2417bd1-0406-44ff-aebf-956d00c56415","ios":"levelo://app?vid=f2417bd1-0406-44ff-aebf-956d00c56415"},"vehicle_type_id":"4","last_reported":1718658468,"current_range_meters":24400,"station_id":"ce4bgih2rcd13ifvqba0","pricing_plan_id":"cebpf4jnsgd1na2vs0mg"},{"bike_id":"745ea65b-d8cc-4704-a828-c956e5be7ffb","system_id":"levelo_inurba_marseille","lat":43.2953,"lon":5.38541,"is_reserved":false,"is_disabled":false,"rental_uris":{"android":"levelo://app?vid=745ea65b-d8cc-4704-a828-c956e5be7ffb","ios":"levelo://app?vid=745ea65b-d8cc-4704-a828-c956e5be7ffb"},"vehicle_type_id":"4","last_reported":1718658468,"current_range_meters":31200,"station_id":"ce4bgih2rcd13ifvqba0","pricing_plan_id":"cebpf4jnsgd1na2vs0mg"},{"bike_id":"f7d3155d-b12e-44f4-bf17-aba0516816e6","system_id":"levelo_inurba_marseille","lat":43.29537,"lon":5.38554,"is_reserved":false,"is_disabled":false,"rental_uris":{"android":"levelo://app?vid=f7d3155d-b12e-44f4-bf17-aba0516816e6","ios":"levelo://app?vid=f7d3155d-b12e-44f4-bf17-aba0516816e6"},"vehicle_type_id":"4","last_reported":1718658468,"current_range_meters":30400,"station_id":"ce4bgih2rcd13ifvqba0","pricing_plan_id":"cebpf4jnsgd1na2vs0mg"},{"bike_id":"56aed2a8-75fd-4a0f-b220-c7b2b75247f8","system_id":"levelo_inurba_marseille","lat":43.29531,"lon":5.38544,"is_reserved":false,"is_disabled":false,"rental_uris":{"android":"levelo://app?vid=56aed2a8-75fd-4a0f-b220-c7b2b75247f8","ios":"levelo://app?vid=56aed2a8-75fd-4a0f-b220-c7b2b75247f8"},"vehicle_type_id":"4","last_reported":1718658468,"current_range_meters":12400,"station_id":"ce4bgih2rcd13ifvqba0","pricing_plan_id":"cebpf4jnsgd1na2vs0mg"},{"bike_id":"a8b31814-bd2f-4f57-bc79-40e54d2c3074","system_id":"levelo_inurba_marseille","lat":43.295317,"lon":5.385463,"is_reserved":false,"is_disabled":false,"rental_uris":{"android":"levelo://app?vid=a8b31814-bd2f-4f57-bc79-40e54d2c3074","ios":"levelo://app?vid=a8b31814-bd2f-4f57-bc79-40e54d2c3074"},"vehicle_type_id":"4","last_reported":1718658468,"current_range_meters":11200,"station_id":"ce4bgih2rcd13ifvqba0","pricing_plan_id":"cebpf4jnsgd1na2vs0mg"},{"bike_id":"3bfcea7f-5fa1-415f-9b5a-6e50154f37bb","system_id":"levelo_inurba_marseille","lat":43.29535,"lon":5.38554,"is_reserved":false,"is_disabled":false,"rental_uris":{"android":"levelo://app?vid=3bfcea7f-5fa1-415f-9b5a-6e50154f37bb","ios":"levelo://app?vid=3bfcea7f-5fa1-415f-9b5a-6e50154f37bb"},"vehicle_type_id":"4","last_reported":1718658468,"current_range_meters":14400,"station_id":"ce4bgih2rcd13ifvqba0","pricing_plan_id":"cebpf4jnsgd1na2vs0mg"},{"bike_id":"0d7c1aab-eaaf-4ada-b123-c6a7f038295f","system_id":"levelo_inurba_marseille","lat":43.29525,"lon":5.3854,"is_reserved":false,"is_disabled":false,"rental_uris":{"android":"levelo://app?vid=0d7c1aab-eaaf-4ada-b123-c6a7f038295f","ios":"levelo://app?vid=0d7c1aab-eaaf-4ada-b123-c6a7f038295f"},"vehicle_type_id":"4","last_reported":1718658468,"current_range_meters":20000,"station_id":"ce4bgih2rcd13ifvqba0","pricing_plan_id":"cebpf4jnsgd1na2vs0mg"},{"bike_id":"ad9405f3-2479-4178-a516-96b0439e1d7e","system_id":"levelo_inurba_marseille","lat":43.29528,"lon":5.38548,"is_reserved":false,"is_disabled":false,"rental_uris":{"android":"levelo://app?vid=ad9405f3-2479-4178-a516-96b0439e1d7e","ios":"levelo://app?vid=ad9405f3-2479-4178-a516-96b0439e1d7e"},"vehicle_type_id":"4","last_reported":1718658468,"current_range_meters":10800,"station_id":"ce4bgih2rcd13ifvqba0","pricing_plan_id":"cebpf4jnsgd1na2vs0mg"},{"bike_id":"7bbc1f06-821e-4af4-b037-bb8a4b1b3292","system_id":"levelo_inurba_marseille","lat":43.29497,"lon":5.38624,"is_reserved":false,"is_disabled":false,"rental_uris":{"android":"levelo://app?vid=7bbc1f06-821e-4af4-b037-bb8a4b1b3292","ios":"levelo://app?vid=7bbc1f06-821e-4af4-b037-bb8a4b1b3292"},"vehicle_type_id":"4","last_reported":1718658468,"current_range_meters":7200,"station_id":"","pricing_plan_id":"cebpf4jnsgd1na2vs0mg"},{"bike_id":"b2e848d2-e7dd-422f-b3a6-62a753f7bbc6","system_id":"levelo_inurba_marseille","lat":43.302008,"lon":5.394694,"is_reserved":false,"is_disabled":false,"rental_uris":{"android":"levelo://app?vid=b2e848d2-e7dd-422f-b3a6-62a753f7bbc6","ios":"levelo://app?vid=b2e848d2-e7dd-422f-b3a6-62a753f7bbc6"},"vehicle_type_id":"4","last_reported":1718658468,"current_range_meters":24400,"station_id":"ce4bh0p2rcd13ifvqd70","pricing_plan_id":"cebpf4jnsgd1na2vs0mg"},{"bike_id":"193eb9bb-4b13-48c0-8176-a97b0b46bb4b","system_id":"levelo_inurba_marseille","lat":43.302008,"lon":5.394694,"is_reserved":false,"is_disabled":false,"rental_uris":{"android":"levelo://app?vid=193eb9bb-4b13-48c0-8176-a97b0b46bb4b","ios":"levelo://app?vid=193eb9bb-4b13-48c0-8176-a97b0b46bb4b"},"vehicle_type_id":"4","last_reported":1718658468,"current_range_meters":18000,"station_id":"ce4bh0p2rcd13ifvqd70","pricing_plan_id":"cebpf4jnsgd1na2vs0mg"},{"bike_id":"2b908598-e42a-404a-a0ac-2716386e56ae","system_id":"levelo_inurba_marseille","lat":43.302008,"lon":5.394694,"is_reserved":false,"is_disabled":false,"rental_uris":{"android":"levelo://app?vid=2b908598-e42a-404a-a0ac-2716386e56ae","ios":"levelo://app?vid=2b908598-e42a-404a-a0ac-2716386e56ae"},"vehicle_type_id":"4","last_reported":1718658468,"current_range_meters":9200,"station_id":"ce4bh0p2rcd13ifvqd70","pricing_plan_id":"cebpf4jnsgd1na2vs0mg"},{"bike_id":"31053bf8-7ce8-4238-b256-e1ae5fe1eb5d","system_id":"levelo_inurba_marseille","lat":43.29393,"lon":5.38494,"is_reserved":false,"is_disabled":false,"rental_uris":{"android":"levelo://app?vid=31053bf8-7ce8-4238-b256-e1ae5fe1eb5d","ios":"levelo://app?vid=31053bf8-7ce8-4238-b256-e1ae5fe1eb5d"},"vehicle_type_id":"4","last_reported":1718658468,"current_range_meters":13200,"station_id":"","pricing_plan_id":"cebpf4jnsgd1na2vs0mg"},{"bike_id":"6a20500c-6cf1-43c1-bf67-fc9fb8301830","system_id":"levelo_inurba_marseille","lat":43.29442,"lon":5.38627,"is_reserved":false,"is_disabled":false,"rental_uris":{"android":"levelo://app?vid=6a20500c-6cf1-43c1-bf67-fc9fb8301830","ios":"levelo://app?vid=6a20500c-6cf1-43c1-bf67-fc9fb8301830"},"vehicle_type_id":"4","last_reported":1718658468,"current_range_meters":10800,"station_id":"ce4bh2h2rcd13ifvqdh0","pricing_plan_id":"cebpf4jnsgd1na2vs0mg"},{"bike_id":"46c6ad68-1ca0-42eb-8867-b2f28d8fc1c2","system_id":"levelo_inurba_marseille","lat":43.29421,"lon":5.3863,"is_reserved":false,"is_disabled":false,"rental_uris":{"android":"levelo://app?vid=46c6ad68-1ca0-42eb-8867-b2f28d8fc1c2","ios":"levelo://app?vid=46c6ad68-1ca0-42eb-8867-b2f28d8fc1c2"},"vehicle_type_id":"4","last_reported":1718658468,"current_range_meters":4400,"station_id":"ce4bh2h2rcd13ifvqdh0","pricing_plan_id":"cebpf4jnsgd1na2vs0mg"},{"bike_id":"ab9c7335-2ddf-4ba8-b00c-845fc7948372","system_id":"levelo_inurba_marseille","lat":43.289184,"lon":5.366408,"is_reserved":false,"is_disabled":false,"rental_uris":{"android":"levelo://app?vid=ab9c7335-2ddf-4ba8-b00c-845fc7948372","ios":"levelo://app?vid=ab9c7335-2ddf-4ba8-b00c-845fc7948372"},"vehicle_type_id":"4","last_reported":1718658468,"current_range_meters":0,"station_id":"ce4bhap2rcd13ifvqek0","pricing_plan_id":"cebpf4jnsgd1na2vs0mg"},{"bike_id":"9342b9ee-b363-4cbf-8b31-8a52dc7fe10d","system_id":"levelo_inurba_marseille","lat":43.289184,"lon":5.366408,"is_reserved":false,"is_disabled":false,"rental_uris":{"android":"levelo://app?vid=9342b9ee-b363-4cbf-8b31-8a52dc7fe10d","ios":"levelo://app?vid=9342b9ee-b363-4cbf-8b31-8a52dc7fe10d"},"vehicle_type_id":"4","last_reported":1718658468,"current_range_meters":1200,"station_id":"ce4bhap2rcd13ifvqek0","pricing_plan_id":"cebpf4jnsgd1na2vs0mg"},{"bike_id":"7f51a534-2a57-479d-b10d-c0794798c23c","system_id":"levelo_inurba_marseille","lat":43.304274,"lon":5.397513,"is_reserved":false,"is_disabled":false,"rental_uris":{"android":"levelo://app?vid=7f51a534-2a57-479d-b10d-c0794798c23c","ios":"levelo://app?vid=7f51a534-2a57-479d-b10d-c0794798c23c"},"vehicle_type_id":"4","last_reported":1718658468,"current_range_meters":27600,"station_id":"ce4bh092rcd13ifvqd20","pricing_plan_id":"cebpf4jnsgd1na2vs0mg"},{"bike_id":"df2ab22f-95bd-4a93-822c-3c4afbf9a1df","system_id":"levelo_inurba_marseille","lat":43.290183,"lon":5.375587,"is_reserved":false,"is_disabled":false,"rental_uris":{"android":"levelo://app?vid=df2ab22f-95bd-4a93-822c-3c4afbf9a1df","ios":"levelo://app?vid=df2ab22f-95bd-4a93-822c-3c4afbf9a1df"},"vehicle_type_id":"4","last_reported":1718658468,"current_range_meters":26000,"station_id":"ce4bh692rcd13ifvqe90","pricing_plan_id":"cebpf4jnsgd1na2vs0mg"},{"bike_id":"0b128fdb-1dab-4f7b-bb4f-8b3fd907d494","system_id":"levelo_inurba_marseille","lat":43.289468,"lon":5.363719,"is_reserved":false,"is_disabled":false,"rental_uris":{"android":"levelo://app?vid=0b128fdb-1dab-4f7b-bb4f-8b3fd907d494","ios":"levelo://app?vid=0b128fdb-1dab-4f7b-bb4f-8b3fd907d494"},"vehicle_type_id":"4","last_reported":1718658468,"current_range_meters":21600,"station_id":"ce4bhc92rcd13ifvqetg","pricing_plan_id":"cebpf4jnsgd1na2vs0mg"},{"bike_id":"30fdcc30-875f-4196-9ca1-d213ba4df105","system_id":"levelo_inurba_marseille","lat":43.28939,"lon":5.364052,"is_reserved":false,"is_disabled":false,"rental_uris":{"android":"levelo://app?vid=30fdcc30-875f-4196-9ca1-d213ba4df105","ios":"levelo://app?vid=30fdcc30-875f-4196-9ca1-d213ba4df105"},"vehicle_type_id":"4","last_reported":1718658468,"current_range_meters":0,"station_id":"ce4bhc92rcd13ifvqetg","pricing_plan_id":"cebpf4jnsgd1na2vs0mg"},{"bike_id":"68896fe6-48fb-43b6-91ed-2f4e72c2dd87","system_id":"levelo_inurba_marseille","lat":43.304274,"lon":5.397513,"is_reserved":false,"is_disabled":false,"rental_uris":{"android":"levelo://app?vid=68896fe6-48fb-43b6-91ed-2f4e72c2dd87","ios":"levelo://app?vid=68896fe6-48fb-43b6-91ed-2f4e72c2dd87"},"vehicle_type_id":"4","last_reported":1718658468,"current_range_meters":13600,"station_id":"ce4bh092rcd13ifvqd20","pricing_plan_id":"cebpf4jnsgd1na2vs0mg"},{"bike_id":"a3bfcda9-2c64-40b7-8bbf-bed56c48f25c","system_id":"levelo_inurba_marseille","lat":43.29386,"lon":5.38659,"is_reserved":false,"is_disabled":false,"rental_uris":{"android":"levelo://app?vid=a3bfcda9-2c64-40b7-8bbf-bed56c48f25c","ios":"levelo://app?vid=a3bfcda9-2c64-40b7-8bbf-bed56c48f25c"},"vehicle_type_id":"4","last_reported":1718658468,"current_range_meters":1200,"station_id":"ce4bh2h2rcd13ifvqdh0","pricing_plan_id":"cebpf4jnsgd1na2vs0mg"},{"bike_id":"b9c4a5b1-91a4-457e-aa14-682800bf57c2","system_id":"levelo_inurba_marseille","lat":43.304296,"lon":5.397513,"is_reserved":false,"is_disabled":false,"rental_uris":{"android":"levelo://app?vid=b9c4a5b1-91a4-457e-aa14-682800bf57c2","ios":"levelo://app?vid=b9c4a5b1-91a4-457e-aa14-682800bf57c2"},"vehicle_type_id":"4","last_reported":1718658468,"current_range_meters":19600,"station_id":"ce4bh092rcd13ifvqd20","pricing_plan_id":"cebpf4jnsgd1na2vs0mg"},{"bike_id":"e3372000-72a8-41e4-b158-1dbb5489bb0f","system_id":"levelo_inurba_marseille","lat":43.304274,"lon":5.397513,"is_reserved":false,"is_disabled":false,"rental_uris":{"android":"levelo://app?vid=e3372000-72a8-41e4-b158-1dbb5489bb0f","ios":"levelo://app?vid=e3372000-72a8-41e4-b158-1dbb5489bb0f"},"vehicle_type_id":"4","last_reported":1718658468,"current_range_meters":21600,"station_id":"ce4bh092rcd13ifvqd20","pricing_plan_id":"cebpf4jnsgd1na2vs0mg"},{"bike_id":"8092ebfe-e4c6-42be-8631-16ca2e35a957","system_id":"levelo_inurba_marseille","lat":43.304296,"lon":5.397513,"is_reserved":false,"is_disabled":false,"rental_uris":{"android":"levelo://app?vid=8092ebfe-e4c6-42be-8631-16ca2e35a957","ios":"levelo://app?vid=8092ebfe-e4c6-42be-8631-16ca2e35a957"},"vehicle_type_id":"4","last_reported":1718658468,"current_range_meters":8800,"station_id":"ce4bh092rcd13ifvqd20","pricing_plan_id":"cebpf4jnsgd1na2vs0mg"},{"bike_id":"7314fa87-3745-4eec-8694-add6aeff1f8b","system_id":"levelo_inurba_marseille","lat":43.304274,"lon":5.397513,"is_reserved":false,"is_disabled":false,"rental_uris":{"android":"levelo://app?vid=7314fa87-3745-4eec-8694-add6aeff1f8b","ios":"levelo://app?vid=7314fa87-3745-4eec-8694-add6aeff1f8b"},"vehicle_type_id":"4","last_reported":1718658468,"current_range_meters":27200,"station_id":"ce4bh092rcd13ifvqd20","pricing_plan_id":"cebpf4jnsgd1na2vs0mg"},{"bike_id":"81d1672c-4225-4f0a-8e7d-6748f79f4229","system_id":"levelo_inurba_marseille","lat":43.290104,"lon":5.356111,"is_reserved":false,"is_disabled":false,"rental_uris":{"android":"levelo://app?vid=81d1672c-4225-4f0a-8e7d-6748f79f4229","ios":"levelo://app?vid=81d1672c-4225-4f0a-8e7d-6748f79f4229"},"vehicle_type_id":"4","last_reported":1718658468,"current_range_meters":23200,"station_id":"ce4bhb92rcd13ifvqen0","pricing_plan_id":"cebpf4jnsgd1na2vs0mg"},{"bike_id":"a9b38055-7b1a-490d-bc89-2e08ccbf471a","system_id":"levelo_inurba_marseille","lat":43.290181,"lon":5.355494,"is_reserved":false,"is_disabled":false,"rental_uris":{"android":"levelo://app?vid=a9b38055-7b1a-490d-bc89-2e08ccbf471a","ios":"levelo://app?vid=a9b38055-7b1a-490d-bc89-2e08ccbf471a"},"vehicle_type_id":"4","last_reported":1718658468,"current_range_meters":0,"station_id":"","pricing_plan_id":"cebpf4jnsgd1na2vs0mg"},{"bike_id":"f1550edf-f870-4e15-ac2b-9e82357b1336","system_id":"levelo_inurba_marseille","lat":43.29788,"lon":5.39336,"is_reserved":false,"is_disabled":false,"rental_uris":{"android":"levelo://app?vid=f1550edf-f870-4e15-ac2b-9e82357b1336","ios":"levelo://app?vid=f1550edf-f870-4e15-ac2b-9e82357b1336"},"vehicle_type_id":"4","last_reported":1718658468,"current_range_meters":12400,"station_id":"chh1huq6cuj3fo74tm60","pricing_plan_id":"cebpf4jnsgd1na2vs0mg"},{"bike_id":"1231bb5d-9884-4ed3-ab4a-7ce7cad9986a","system_id":"levelo_inurba_marseille","lat":43.297815,"lon":5.393548,"is_reserved":false,"is_disabled":false,"rental_uris":{"android":"levelo://app?vid=1231bb5d-9884-4ed3-ab4a-7ce7cad9986a","ios":"levelo://app?vid=1231bb5d-9884-4ed3-ab4a-7ce7cad9986a"},"vehicle_type_id":"4","last_reported":1718658468,"current_range_meters":8400,"station_id":"chh1huq6cuj3fo74tm60","pricing_plan_id":"cebpf4jnsgd1na2vs0mg"},