{"last_updated":1735996420,"ttl":60,"version":"2.2","data":{"bikes":[{"bike_id":"7e37bb78-6df8-4065-a33a-785e0d2acb31","system_id":"levelo_inurba_marseille","lat":43.29193,"lon":5.35823,"is_reserved":false,"is_disabled":false,"rental_uris":{"android":"levelo://app?vid=7e37bb78-6df8-4065-a33a-785e0d2acb31","ios":"levelo://app?vid=7e37bb78-6df8-4065-a33a-785e0d2acb31"},"vehicle_type_id":"4","last_reported":1735996420,"current_range_meters":38800,"station_id":"ce4bhb12rcd13ifvqel0","pricing_plan_id":"cebpf4jnsgd1na2vs0mg"},{"bike_id":"e31c27df-6f3a-4b2c-b023-4e9240962a67","system_id":"levelo_inurba_marseille","lat":43.27319,"lon":5.39099,"is_reserved":false,"is_disabled":false,"rental_uris":{"android":"levelo://app?vid=e31c27df-6f3a-4b2c-b023-4e9240962a67","ios":"levelo://app?vid=e31c27df-6f3a-4b2c-b023-4e9240962a67"},"vehicle_type_id":"4","last_reported":1735996420,"current_range_meters":39200,"station_id":"ce4bhgp2rcd13ifvqfe0","pricing_plan_id":"cebpf4jnsgd1na2vs0mg"},{"bike_id":"1fa46a1d-7c26-4d99-8050-eaa1f995a6bb","system_id":"levelo_inurba_marseille","lat":43.30119,"lon":5.39847,"is_reserved":false,"is_disabled":false,"rental_uris":{"android":"levelo://app?vid=1fa46a1d-7c26-4d99-8050-eaa1f995a6bb","ios":"levelo://app?vid=1fa46a1d-7c26-4d99-8050-eaa1f995a6bb"},"vehicle_type_id":"4","last_reported":1735996420,"current_range_meters":26800,"station_id":"ce4bh0h2rcd13ifvqd40","pricing_plan_id":"cebpf4jnsgd1na2vs0mg"},{"bike_id":"8a1c8515-1ea6-4df4-8053-9c02da774842","system_id":"levelo_inurba_marseille","lat":43.30661,"lon":5.40112,"is_reserved":false,"is_disabled":false,"rental_uris":{"android":"levelo://app?vid=8a1c8515-1ea6-4df4-8053-9c02da774842","ios":"levelo://app?vid=8a1c8515-1ea6-4df4-8053-9c02da774842"},"vehicle_type_id":"4","last_reported":1735996420,"current_range_meters":38800,"station_id":"ce4bh112rcd13ifvqda0","pricing_plan_id":"cebpf4jnsgd1na2vs0mg"},{"bike_id":"f6e2be4b-fa77-4b38-bd45-618bcfa7f100","system_id":"levelo_inurba_marseille","lat":43.30318,"lon":5.36924,"is_reserved":false,"is_disabled":false,"rental_uris":{"android":"levelo://app?vid=f6e2be4b-fa77-4b38-bd45-618bcfa7f100","ios":"levelo://app?vid=f6e2be4b-fa77-4b38-bd45-618bcfa7f100"},"vehicle_type_id":"4","last_reported":1735996420,"current_range_meters":9600,"station_id":"ce4bgqh2rcd13ifvqc5g","pricing_plan_id":"cebpf4jnsgd1na2vs0mg"},{"bike_id":"25bc056f-6168-4a4c-8539-4f5b06414dad","system_id":"levelo_inurba_marseille","lat":43.26777,"lon":5.39419,"is_reserved":false,"is_disabled":false,"rental_uris":{"android":"levelo://app?vid=25bc056f-6168-4a4c-8539-4f5b06414dad","ios":"levelo://app?vid=25bc056f-6168-4a4c-8539-4f5b06414dad"},"vehicle_type_id":"4","last_reported":1735996420,"current_range_meters":27600,"station_id":"ce4bhh12rcd13ifvqfg0","pricing_plan_id":"cebpf4jnsgd1na2vs0mg"},{"bike_id":"482a7293-22d4-4b2b-b2bb-8899c2510e29","system_id":"levelo_inurba_marseille","lat":43.27337,"lon":5.39086,"is_reserved":false,"is_disabled":false,"rental_uris":{"android":"levelo://app?vid=482a7293-22d4-4b2b-b2bb-8899c2510e29","ios":"levelo://app?vid=482a7293-22d4-4b2b-b2bb-8899c2510e29"},"vehicle_type_id":"4","last_reported":1735996420,"current_range_meters":19600,"station_id":"ce4bhgp2rcd13ifvqfe0","pricing_plan_id":"cebpf4jnsgd1na2vs0mg"},{"bike_id":"bc0d6048-27c0-4ff9-97d0-92485c13da66","system_id":"levelo_inurba_marseille","lat":43.30297,"lon":5.36908,"is_reserved":false,"is_disabled":false,"rental_uris":{"android":"levelo://app?vid=bc0d6048-27c0-4ff9-97d0-92485c13da66","ios":"levelo://app?vid=bc0d6048-27c0-4ff9-97d0-92485c13da66"},"vehicle_type_id":"4","last_reported":1735996420,"current_range_meters":35200,"station_id":"ce4bgqh2rcd13ifvqc5g","pricing_plan_id":"cebpf4jnsgd1na2vs0mg"},{"bike_id":"00cd3d34-7ba7-4cb3-9716-1d6e1734ddd2","system_id":"levelo_inurba_marseille","lat":43.30464,"lon":5.37911,"is_reserved":false,"is_disabled":false,"rental_uris":{"android":"levelo://app?vid=00cd3d34-7ba7-4cb3-9716-1d6e1734ddd2","ios":"levelo://app?vid=00cd3d34-7ba7-4cb3-9716-1d6e1734ddd2"},"vehicle_type_id":"4","last_reported":1735996420,"current_range_meters":23200,"station_id":"ce4bgup2rcd13ifvqcn0","pricing_plan_id":"cebpf4jnsgd1na2vs0mg"},{"bike_id":"34fbb0a9-09e0-4b1a-8db1-746958f01236","system_id":"levelo_inurba_marseille","lat":43.24807,"lon":5.37456,"is_reserved":false,"is_disabled":false,"rental_uris":{"android":"levelo://app?vid=34fbb0a9-09e0-4b1a-8db1-746958f01236","ios":"levelo://app?vid=34fbb0a9-09e0-4b1a-8db1-746958f01236"},"vehicle_type_id":"4","last_reported":1735996420,"current_range_meters":27600,"station_id":"ce4bhgh2rcd13ifvqfb0","pricing_plan_id":"cebpf4jnsgd1na2vs0mg"},{"bike_id":"36d0910b-d540-4d75-b065-f044cb5b6555","system_id":"levelo_inurba_marseille","lat":43.29555,"lon":5.36744,"is_reserved":false,"is_disabled":false,"rental_uris":{"android":"levelo://app?vid=36d0910b-d540-4d75-b065-f044cb5b6555","ios":"levelo://app?vid=36d0910b-d540-4d75-b065-f044cb5b6555"},"vehicle_type_id":"4","last_reported":1735996420,"current_range_meters":38800,"station_id":"ce4bgph2rcd13ifvqc2g","pricing_plan_id":"cebpf4jnsgd1na2vs0mg"},{"bike_id":"f7a3215a-be68-4dc5-8ac2-1c3e9caadab1","system_id":"levelo_inurba_marseille","lat":43.26774,"lon":5.39478,"is_reserved":false,"is_disabled":false,"rental_uris":{"android":"levelo://app?vid=f7a3215a-be68-4dc5-8ac2-1c3e9caadab1","ios":"levelo://app?vid=f7a3215a-be68-4dc5-8ac2-1c3e9caadab1"},"vehicle_type_id":"4","last_reported":1735996420,"current_range_meters":30000,"station_id":"","pricing_plan_id":"cebpf4jnsgd1na2vs0mg"},{"bike_id":"21c9cfe7-c4d1-4420-8702-1da7ed3c9257","system_id":"levelo_inurba_marseille","lat":43.29748,"lon":5.38007,"is_reserved":false,"is_disabled":false,"rental_uris":{"android":"levelo://app?vid=21c9cfe7-c4d1-4420-8702-1da7ed3c9257","ios":"levelo://app?vid=21c9cfe7-c4d1-4420-8702-1da7ed3c9257"},"vehicle_type_id":"4","last_reported":1735996420,"current_range_meters":36400,"station_id":"","pricing_plan_id":"cebpf4jnsgd1na2vs0mg"},{"bike_id":"fe3aafb8-a6b4-4a18-a86a-13b013e22a76","system_id":"levelo_inurba_marseille","lat":43.31496,"lon":5.373,"is_reserved":false,"is_disabled":false,"rental_uris":{"android":"levelo://app?vid=fe3aafb8-a6b4-4a18-a86a-13b013e22a76","ios":"levelo://app?vid=fe3aafb8-a6b4-4a18-a86a-13b013e22a76"},"vehicle_type_id":"4","last_reported":1735996420,"current_range_meters":36400,"station_id":"ce4bgt12rcd13ifvqcd0","pricing_plan_id":"cebpf4jnsgd1na2vs0mg"},{"bike_id":"116f92ae-65b4-4f7c-a23b-1117c0a69b33","system_id":"levelo_inurba_marseille","lat":43.28625,"lon":5.35108,"is_reserved":false,"is_disabled":false,"rental_uris":{"android":"levelo://app?vid=116f92ae-65b4-4f7c-a23b-1117c0a69b33","ios":"levelo://app?vid=116f92ae-65b4-4f7c-a23b-1117c0a69b33"},"vehicle_type_id":"4","last_reported":1735996420,"current_range_meters":23200,"station_id":"ce4bhch2rcd13ifvqeug","pricing_plan_id":"cebpf4jnsgd1na2vs0mg"},{"bike_id":"efe82dc4-c15f-4046-9226-91dca361e6bd","system_id":"levelo_inurba_marseille","lat":43.25592,"lon":5.38214,"is_reserved":false,"is_disabled":false,"rental_uris":{"android":"levelo://app?vid=efe82dc4-c15f-4046-9226-91dca361e6bd","ios":"levelo://app?vid=efe82dc4-c15f-4046-9226-91dca361e6bd"},"vehicle_type_id":"4","last_reported":1735996420,"current_range_meters":38800,"station_id":"ce4bhih2rcd13ifvqfs0","pricing_plan_id":"cebpf4jnsgd1na2vs0mg"},{"bike_id":"0a72fabb-c385-470f-8026-c60effe2f3f0","system_id":"levelo_inurba_marseille","lat":43.29712,"lon":5.36005,"is_reserved":false,"is_disabled":false,"rental_uris":{"android":"levelo://app?vid=0a72fabb-c385-470f-8026-c60effe2f3f0","ios":"levelo://app?vid=0a72fabb-c385-470f-8026-c60effe2f3f0"},"vehicle_type_id":"4","last_reported":1735996420,"current_range_meters":20800,"station_id":"","pricing_plan_id":"cebpf4jnsgd1na2vs0mg"},{"bike_id":"76d392c8-6dd4-4fbf-b626-27c2990c047b","system_id":"levelo_inurba_marseille","lat":43.28158,"lon":5.42791,"is_reserved":false,"is_disabled":false,"rental_uris":{"android":"levelo://app?vid=76d392c8-6dd4-4fbf-b626-27c2990c047b","ios":"levelo://app?vid=76d392c8-6dd4-4fbf-b626-27c2990c047b"},"vehicle_type_id":"4","last_reported":1735996420,"current_range_meters":11200,"station_id":"","pricing_plan_id":"cebpf4jnsgd1na2vs0mg"},{"bike_id":"f8f4f70e-bd63-4d69-af5a-346b9f9f1df1","system_id":"levelo_inurba_marseille","lat":43.29886,"lon":5.38912,"is_reserved":false,"is_disabled":false,"rental_uris":{"android":"levelo://app?vid=f8f4f70e-bd63-4d69-af5a-346b9f9f1df1","ios":"levelo://app?vid=f8f4f70e-bd63-4d69-af5a-346b9f9f1df1"},"vehicle_type_id":"4","last_reported":1735996420,"current_range_meters":38800,"station_id":"ce4bh392rcd13ifvqdl0","pricing_plan_id":"cebpf4jnsgd1na2vs0mg"},{"bike_id":"8d3c0f78-e962-4e13-b73d-d1069bc6cb91","system_id":"levelo_inurba_marseille","lat":43.2732,"lon":5.39073,"is_reserved":false,"is_disabled":true,"rental_uris":{"android":"levelo://app?vid=8d3c0f78-e962-4e13-b73d-d1069bc6cb91","ios":"levelo://app?vid=8d3c0f78-e962-4e13-b73d-d1069bc6cb91"},"vehicle_type_id":"4","last_reported":1735996420,"current_range_meters":0,"station_id":"ce4bhgp2rcd13ifvqfe0","pricing_plan_id":"cebpf4jnsgd1na2vs0mg"},{"bike_id":"46681a0e-77c7-4e8c-9bb0-8038ae70f7ff","system_id":"levelo_inurba_marseille","lat":43.30323,"lon":5.36889,"is_reserved":false,"is_disabled":false,"rental_uris":{"android":"levelo://app?vid=46681a0e-77c7-4e8c-9bb0-8038ae70f7ff","ios":"levelo://app?vid=46681a0e-77c7-4e8c-9bb0-8038ae70f7ff"},"vehicle_type_id":"4","last_reported":1735996420,"current_range_meters":39200,"station_id":"ce4bgqh2rcd13ifvqc5g","pricing_plan_id":"cebpf4jnsgd1na2vs0mg"},{"bike_id":"593d8424-f565-422e-8480-e0f50e2c043e","system_id":"levelo_inurba_marseille","lat":43.279524,"lon":5.387087,"is_reserved":false,"is_disabled":true,"rental_uris":{"android":"levelo://app?vid=593d8424-f565-422e-8480-e0f50e2c043e","ios":"levelo://app?vid=593d8424-f565-422e-8480-e0f50e2c043e"},"vehicle_type_id":"4","last_reported":1735996420,"current_range_meters":37600,"station_id":"ce4bhg12rcd13ifvqf80","pricing_plan_id":"cebpf4jnsgd1na2vs0mg"},{"bike_id":"a944f865-f260-4d6e-8bfb-34b22d4c0ecd","system_id":"levelo_inurba_marseille","lat":43.30205,"lon":5.36627,"is_reserved":false,"is_disabled":true,"rental_uris":{"android":"levelo://app?vid=a944f865-f260-4d6e-8bfb-34b22d4c0ecd","ios":"levelo://app?vid=a944f865-f260-4d6e-8bfb-34b22d4c0ecd"},"vehicle_type_id":"4","last_reported":1735996420,"current_range_meters":32400,"station_id":"ce4bgrh2rcd13ifvqc8g","pricing_plan_id":"cebpf4jnsgd1na2vs0mg"},{"bike_id":"b2aa002a-204a-4b80-9d0b-d9f09c9d5fa1","system_id":"levelo_inurba_marseille","lat":43.33607,"lon":5.41044,"is_reserved":false,"is_disabled":false,"rental_uris":{"android":"levelo://app?vid=b2aa002a-204a-4b80-9d0b-d9f09c9d5fa1","ios":"levelo://app?vid=b2aa002a-204a-4b80-9d0b-d9f09c9d5fa1"},"vehicle_type_id":"4","last_reported":1735996420,"current_range_meters":24800,"station_id":"ce4bhqh2rcd13ifvqhmg","pricing_plan_id":"cebpf4jnsgd1na2vs0mg"},{"bike_id":"7e04d0e4-5edd-404f-8e6c-7ab2e3b3f057","system_id":"levelo_inurba_marseille","lat":43.24993,"lon":5.38935,"is_reserved":false,"is_disabled":false,"rental_uris":{"android":"levelo://app?vid=7e04d0e4-5edd-404f-8e6c-7ab2e3b3f057","ios":"levelo://app?vid=7e04d0e4-5edd-404f-8e6c-7ab2e3b3f057"},"vehicle_type_id":"4","last_reported":1735996420,"current_range_meters":22400,"station_id":"ce4bhgp2rcd13ifvqfd0","pricing_plan_id":"cebpf4jnsgd1na2vs0mg"},{"bike_id":"b323dbc6-a3b4-4535-9e08-f10cde71a0f5","system_id":"levelo_inurba_marseille","lat":43.27209,"lon":5.39194,"is_reserved":false,"is_disabled":false,"rental_uris":{"android":"levelo://app?vid=b323dbc6-a3b4-4535-9e08-f10cde71a0f5","ios":"levelo://app?vid=b323dbc6-a3b4-4535-9e08-f10cde71a0f5"},"vehicle_type_id":"4","last_reported":1735996420,"current_range_meters":39200,"station_id":"ce4bhhp2rcd13ifvqfm0","pricing_plan_id":"cebpf4jnsgd1na2vs0mg"},{"bike_id":"9d281a53-6992-4392-9438-72ec394ec5a5","system_id":"levelo_inurba_marseille","lat":43.24391,"lon":5.37071,"is_reserved":false,"is_disabled":false,"rental_uris":{"android":"levelo://app?vid=9d281a53-6992-4392-9438-72ec394ec5a5","ios":"levelo://app?vid=9d281a53-6992-4392-9438-72ec394ec5a5"},"vehicle_type_id":"4","last_reported":1735996420,"current_range_meters":6400,"station_id":"ce4bhhh2rcd13ifvqfk0","pricing_plan_id":"cebpf4jnsgd1na2vs0mg"},{"bike_id":"f2d3f7f8-e094-44ef-93a8-20330cb628ea","system_id":"levelo_inurba_marseille","lat":43.28032,"lon":5.36935,"is_reserved":false,"is_disabled":true,"rental_uris":{"android":"levelo://app?vid=f2d3f7f8-e094-44ef-93a8-20330cb628ea","ios":"levelo://app?vid=f2d3f7f8-e094-44ef-93a8-20330cb628ea"},"vehicle_type_id":"4","last_reported":1735996420,"current_range_meters":0,"station_id":"ce4bha12rcd13ifvqef0","pricing_plan_id":"cebpf4jnsgd1na2vs0mg"},{"bike_id":"6c92faae-448f-4fcd-b837-c7db2ff4caee","system_id":"levelo_inurba_marseille","lat":43.30669,"lon":5.401,"is_reserved":false,"is_disabled":false,"rental_uris":{"android":"levelo://app?vid=6c92faae-448f-4fcd-b837-c7db2ff4caee","ios":"levelo://app?vid=6c92faae-448f-4fcd-b837-c7db2ff4caee"},"vehicle_type_id":"4","last_reported":1735996420,"current_range_meters":37600,"station_id":"ce4bh112rcd13ifvqda0","pricing_plan_id":"cebpf4jnsgd1na2vs0mg"},{"bike_id":"11bab6b1-8f19-4376-9cab-a89cad5be186","system_id":"levelo_inurba_marseille","lat":43.32464,"lon":5.36586,"is_reserved":false,"is_disabled":false,"rental_uris":{"android":"levelo://app?vid=11bab6b1-8f19-4376-9cab-a89cad5be186","ios":"levelo://app?vid=11bab6b1-8f19-4376-9cab-a89cad5be186"},"vehicle_type_id":"4","last_reported":1735996420,"current_range_meters":38000,"station_id":"ce4bhs12rcd13ifvqhvg","pricing_plan_id":"cebpf4jnsgd1na2vs0mg"},{"bike_id":"cbe9daa8-e97f-46a3-b355-e73504f71d00","system_id":"levelo_inurba_marseille","lat":43.27378,"lon":5.36247,"is_reserved":false,"is_disabled":false,"rental_uris":{"android":"levelo://app?vid=cbe9daa8-e97f-46a3-b355-e73504f71d00","ios":"levelo://app?vid=cbe9daa8-e97f-46a3-b355-e73504f71d00"},"vehicle_type_id":"4","last_reported":1735996420,"current_range_meters":38000,"station_id":"ce4bhbh2rcd13ifvqeo0","pricing_plan_id":"cebpf4jnsgd1na2vs0mg"},{"bike_id":"db175aad-77d1-437e-a62b-ce2288e7de60","system_id":"levelo_inurba_marseille","lat":43.28341,"lon":5.38109,"is_reserved":false,"is_disabled":false,"rental_uris":{"android":"levelo://app?vid=db175aad-77d1-437e-a62b-ce2288e7de60","ios":"levelo://app?vid=db175aad-77d1-437e-a62b-ce2288e7de60"},"vehicle_type_id":"4","last_reported":1735996420,"current_range_meters":24400,"station_id":"ce4bh412rcd13ifvqdr0","pricing_plan_id":"cebpf4jnsgd1na2vs0mg"},{"bike_id":"d4223c1c-b96f-4c7a-ae54-6541976bb608","system_id":"levelo_inurba_marseille","lat":43.27203,"lon":5.3914,"is_reserved":false,"is_disabled":false,"rental_uris":{"android":"levelo://app?vid=d4223c1c-b96f-4c7a-ae54-6541976bb608","ios":"levelo://app?vid=d4223c1c-b96f-4c7a-ae54-6541976bb608"},"vehicle_type_id":"4","last_reported":1735996420,"current_range_meters":38000,"station_id":"ce4bhhp2rcd13ifvqfm0","pricing_plan_id":"cebpf4jnsgd1na2vs0mg"},{"bike_id":"9f697b48-7c91-4567-b24d-c0ddf692b71f","system_id":"levelo_inurba_marseille","lat":43.33007,"lon":5.39063,"is_reserved":false,"is_disabled":false,"rental_uris":{"android":"levelo://app?vid=9f697b48-7c91-4567-b24d-c0ddf692b71f","ios":"levelo://app?vid=9f697b48-7c91-4567-b24d-c0ddf692b71f"},"vehicle_type_id":"4","last_reported":1735996420,"current_range_meters":29600,"station_id":"ce4bhr92rcd13ifvqhrg","pricing_plan_id":"cebpf4jnsgd1na2vs0mg"},{"bike_id":"fcf78adb-ae59-4441-a1a0-6c1a3a866f3e","system_id":"levelo_inurba_marseille","lat":43.30402,"lon":5.39761,"is_reserved":false,"is_disabled":false,"rental_uris":{"android":"levelo://app?vid=fcf78adb-ae59-4441-a1a0-6c1a3a866f3e","ios":"levelo://app?vid=fcf78adb-ae59-4441-a1a0-6c1a3a866f3e"},"vehicle_type_id":"4","last_reported":1735996420,"current_range_meters":36400,"station_id":"ce4bh092rcd13ifvqd20","pricing_plan_id":"cebpf4jnsgd1na2vs0mg"},{"bike_id":"fb0d5d50-2cba-4668-8a68-53b559a0ffc7","system_id":"levelo_inurba_marseille","lat":43.246649,"lon":5.381686,"is_reserved":false,"is_disabled":false,"rental_uris":{"android":"levelo://app?vid=fb0d5d50-2cba-4668-8a68-53b559a0ffc7","ios":"levelo://app?vid=fb0d5d50-2cba-4668-8a68-53b559a0ffc7"},"vehicle_type_id":"4","last_reported":1735996420,"current_range_meters":30400,"station_id":"ce4bhih2rcd13ifvqfr0","pricing_plan_id":"cebpf4jnsgd1na2vs0mg"},{"bike_id":"0c3b96ff-9de9-4b06-a81b-acb466115de3","system_id":"levelo_inurba_marseille","lat":43.25498,"lon":5.3767,"is_reserved":false,"is_disabled":false,"rental_uris":{"android":"levelo://app?vid=0c3b96ff-9de9-4b06-a81b-acb466115de3","ios":"levelo://app?vid=0c3b96ff-9de9-4b06-a81b-acb466115de3"},"vehicle_type_id":"4","last_reported":1735996420,"current_range_meters":38000,"station_id":"ce4bhh12rcd13ifvqff0","pricing_plan_id":"cebpf4jnsgd1na2vs0mg"},{"bike_id":"7f19a19c-d1b3-49ca-8538-1dc8022ef981","system_id":"levelo_inurba_marseille","lat":43.32102,"lon":5.36806,"is_reserved":false,"is_disabled":false,"rental_uris":{"android":"levelo://app?vid=7f19a19c-d1b3-49ca-8538-1dc8022ef981","ios":"levelo://app?vid=7f19a19c-d1b3-49ca-8538-1dc8022ef981"},"vehicle_type_id":"4","last_reported":1735996420,"current_range_meters":20000,"station_id":"ce4bhrh2rcd13ifvqhug","pricing_plan_id":"cebpf4jnsgd1na2vs0mg"},{"bike_id":"0560a89b-60c9-41a1-8088-dfe3b6fd7149","system_id":"levelo_inurba_marseille","lat":43.29585,"lon":5.3753,"is_reserved":false,"is_disabled":false,"rental_uris":{"android":"levelo://app?vid=0560a89b-60c9-41a1-8088-dfe3b6fd7149","ios":"levelo://app?vid=0560a89b-60c9-41a1-8088-dfe3b6fd7149"},"vehicle_type_id":"4","last_reported":1735996420,"current_range_meters":36400,"station_id":"ce4bgh92rcd13ifvqb50","pricing_plan_id":"cebpf4jnsgd1na2vs0mg"},{"bike_id":"7b8829d7-1e14-4eeb-a440-279490140959","system_id":"levelo_inurba_marseille","lat":43.3044,"lon":5.39761,"is_reserved":false,"is_disabled":false,"rental_uris":{"android":"levelo://app?vid=7b8829d7-1e14-4eeb-a440-279490140959","ios":"levelo://app?vid=7b8829d7-1e14-4eeb-a440-279490140959"},"vehicle_type_id":"4","last_reported":1735996420,"current_range_meters":38800,"station_id":"ce4bh092rcd13ifvqd20","pricing_plan_id":"cebpf4jnsgd1na2vs0mg"},{"bike_id":"c3c61bf7-9299-4ebb-88ea-a1e3d8f16e15","system_id":"levelo_inurba_marseille","lat":43.298,"lon":5.40405,"is_reserved":false,"is_disabled":false,"rental_uris":{"android":"levelo://app?vid=c3c61bf7-9299-4ebb-88ea-a1e3d8f16e15","ios":"levelo://app?vid=c3c61bf7-9299-4ebb-88ea-a1e3d8f16e15"},"vehicle_type_id":"4","last_reported":1735996420,"current_range_meters":38800,"station_id":"ce4bh112rcd13ifvqd90","pricing_plan_id":"cebpf4jnsgd1na2vs0mg"},{"bike_id":"3a4aa061-53dd-47ea-8f50-0b8e9eee71f6","system_id":"levelo_inurba_marseille","lat":43.30094,"lon":5.39074,"is_reserved":false,"is_disabled":false,"rental_uris":{"android":"levelo://app?vid=3a4aa061-53dd-47ea-8f50-0b8e9eee71f6","ios":"levelo://app?vid=3a4aa061-53dd-47ea-8f50-0b8e9eee71f6"},"vehicle_type_id":"4","last_reported":1735996420,"current_range_meters":32400,"station_id":"ce4bh192rcd13ifvqdb0","pricing_plan_id":"cebpf4jnsgd1na2vs0mg"},{"bike_id":"b84b83d9-7cbb-48dc-86f1-84b36f329557","system_id":"levelo_inurba_marseille","lat":43.30211,"lon":5.39471,"is_reserved":false,"is_disabled":false,"rental_uris":{"android":"levelo://app?vid=b84b83d9-7cbb-48dc-86f1-84b36f329557","ios":"levelo://app?vid=b84b83d9-7cbb-48dc-86f1-84b36f329557"},"vehicle_type_id":"4","last_reported":1735996420,"current_range_meters":29600,"station_id":"ce4bh0p2rcd13ifvqd70","pricing_plan_id":"cebpf4jnsgd1na2vs0mg"},{"bike_id":"3c7472a4-a45c-4f46-a692-aa44ebf92f21","system_id":"levelo_inurba_marseille","lat":43.274,"lon":5.394084,"is_reserved":false,"is_disabled":false,"rental_uris":{"android":"levelo://app?vid=3c7472a4-a45c-4f46-a692-aa44ebf92f21","ios":"levelo://app?vid=3c7472a4-a45c-4f46-a692-aa44ebf92f21"},"vehicle_type_id":"4","last_reported":1735996420,"current_range_meters":27600,"station_id":"ce4bhdp2rcd13ifvqf20","pricing_plan_id":"cebpf4jnsgd1na2vs0mg"},{"bike_id":"c6ed48e3-5390-4241-9d68-268aa0438efd","system_id":"levelo_inurba_marseille","lat":43.30148,"lon":5.37417,"is_reserved":false,"is_disabled":false,"rental_uris":{"android":"levelo://app?vid=c6ed48e3-5390-4241-9d68-268aa0438efd","ios":"levelo://app?vid=c6ed48e3-5390-4241-9d68-268aa0438efd"},"vehicle_type_id":"4","last_reported":1735996420,"current_range_meters":32800,"station_id":"ce4bgs92rcd13ifvqcc0","pricing_plan_id":"cebpf4jnsgd1na2vs0mg"},{"bike_id":"f0ead5dd-c086-40ba-b637-5a58405b88b0","system_id":"levelo_inurba_marseille","lat":43.25117,"lon":5.40328,"is_reserved":false,"is_disabled":true,"rental_uris":{"android":"levelo://app?vid=f0ead5dd-c086-40ba-b637-5a58405b88b0","ios":"levelo://app?vid=f0ead5dd-c086-40ba-b637-5a58405b88b0"},"vehicle_type_id":"4","last_reported":1735996420,"current_range_meters":800,"station_id":"ce4bhlh2rcd13ifvqgig","pricing_plan_id":"cebpf4jnsgd1na2vs0mg"},{"bike_id":"1ea369b9-72ed-4a40-b86b-1b67b0817215","system_id":"levelo_inurba_marseille","lat":43.3149,"lon":5.37308,"is_reserved":false,"is_disabled":false,"rental_uris":{"android":"levelo://app?vid=1ea369b9-72ed-4a40-b86b-1b67b0817215","ios":"levelo://app?vid=1ea369b9-72ed-4a40-b86b-1b67b0817215"},"vehicle_type_id":"4","last_reported":1735996420,"current_range_meters":38800,"station_id":"ce4bgt12rcd13ifvqcd0","pricing_plan_id":"cebpf4jnsgd1na2vs0mg"},{"bike_id":"2386fb3a-f921-48e1-8693-11f00e849b3a","system_id":"levelo_inurba_marseille","lat":43.32283,"lon":5.38274,"is_reserved":false,"is_disabled":false,"rental_uris":{"android":"levelo://app?vid=2386fb3a-f921-48e1-8693-11f00e849b3a","ios":"levelo://app?vid=2386fb3a-f921-48e1-8693-11f00e849b3a"},"vehicle_type_id":"4","last_reported":1735996420,"current_range_meters":24000,"station_id":"ce4bhr12rcd13ifvqhqg","pricing_plan_id":"cebpf4jnsgd1na2vs0mg"},{"bike_id":"ea7050ff-7aa9-43ba-b203-b876f0962480","system_id":"levelo_inurba_marseille","lat":43.280053,"lon":5.400137,"is_reserved":false,"is_disabled":true,"rental_uris":{"android":"levelo://app?vid=ea7050ff-7aa9-43ba-b203-b876f0962480","ios":"levelo://app?vid=ea7050ff-7aa9-43ba-b203-b876f0962480"},"vehicle_type_id":"4","last_reported":1735996420,"current_range_meters":0,"station_id":"ce4bho92rcd13ifvqh4g","pricing_plan_id":"cebpf4jnsgd1na2vs0mg"},{"bike_id":"6c799ef9-b2e4-4559-9a97-5460144e1b8b","system_id":"levelo_inurba_marseille","lat":43.30142,"lon":5.37417,"is_reserved":false,"is_disabled":false,"rental_uris":{"android":"levelo://app?vid=6c799ef9-b2e4-4559-9a97-5460144e1b8b","ios":"levelo://app?vid=6c799ef9-b2e4-4559-9a97-5460144e1b8b"},"vehicle_type_id":"4","last_reported":1735996420,"current_range_meters":22000,"station_id":"ce4bgs92rcd13ifvqcc0","pricing_plan_id":"cebpf4jnsgd1na2vs0mg"},{"bike_id":"3b7e94f6-cbd6-4674-8821-2e30ba11b095","system_id":"levelo_inurba_marseille","lat":43.29806,"lon":5.38097,"is_reserved":false,"is_disabled":false,"rental_uris":{"android":"levelo://app?vid=3b7e94f6-cbd6-4674-8821-2e30ba11b095","ios":"levelo://app?vid=3b7e94f6-cbd6-4674-8821-2e30ba11b095"},"vehicle_type_id":"4","last_reported":1735996420,"current_range_meters":36000,"station_id":"ce4bgip2rcd13ifvqbb0","pricing_plan_id":"cebpf4jnsgd1na2vs0mg"},{"bike_id":"013a03d3-efe2-4f14-ab94-9d9f117fe332","system_id":"levelo_inurba_marseille","lat":43.26578,"lon":5.37322,"is_reserved":false,"is_disabled":true,"rental_uris":{"android":"levelo://app?vid=013a03d3-efe2-4f14-ab94-9d9f117fe332","ios":"levelo://app?vid=013a03d3-efe2-4f14-ab94-9d9f117fe332"},"vehicle_type_id":"4","last_reported":1735996420,"current_range_meters":0,"station_id":"ce4bhg12rcd13ifvqf70","pricing_plan_id":"cebpf4jnsgd1na2vs0mg"},{"bike_id":"2332862a-3884-4317-af82-ee9793e9b62c","system_id":"levelo_inurba_marseille","lat":43.24066,"lon":5.3772,"is_reserved":false,"is_disabled":false,"rental_uris":{"android":"levelo://app?vid=2332862a-3884-4317-af82-ee9793e9b62c","ios":"levelo://app?vid=2332862a-3884-4317-af82-ee9793e9b62c"},"vehicle_type_id":"4","last_reported":1735996420,"current_range_meters":16400,"station_id":"ce4bhnp2rcd13ifvqgvg","pricing_plan_id":"cebpf4jnsgd1na2vs0mg"},{"bike_id":"9f003ca2-15ee-4e83-8275-3ea9eb768442","system_id":"levelo_inurba_marseille","lat":43.23197,"lon":5.4,"is_reserved":false,"is_disabled":false,"rental_uris":{"android":"levelo://app?vid=9f003ca2-15ee-4e83-8275-3ea9eb768442","ios":"levelo://app?vid=9f003ca2-15ee-4e83-8275-3ea9eb768442"},"vehicle_type_id":"4","last_reported":1735996420,"current_range_meters":13600,"station_id":"ce4bhn12rcd13ifvqgqg","pricing_plan_id":"cebpf4jnsgd1na2vs0mg"},{"bike_id":"065e15fa-7fcf-47e7-bf49-de94cdc8d7c4","system_id":"levelo_inurba_marseille","lat":43.28402,"lon":5.37515,"is_reserved":false,"is_disabled":false,"rental_uris":{"android":"levelo://app?vid=065e15fa-7fcf-47e7-bf49-de94cdc8d7c4","ios":"levelo://app?vid=065e15fa-7fcf-47e7-bf49-de94cdc8d7c4"},"vehicle_type_id":"4","last_reported":1735996420,"current_range_meters":13600,"station_id":"ce4bh412rcd13ifvqds0","pricing_plan_id":"cebpf4jnsgd1na2vs0mg"},{"bike_id":"988e5514-5dae-459d-a3c0-310e7eb2e911","system_id":"levelo_inurba_marseille","lat":43.26501,"lon":5.39555,"is_reserved":false,"is_disabled":false,"rental_uris":{"android":"levelo://app?vid=988e5514-5dae-459d-a3c0-310e7eb2e911","ios":"levelo://app?vid=988e5514-5dae-459d-a3c0-310e7eb2e911"},"vehicle_type_id":"4","last_reported":1735996420,"current_range_meters":25600,"station_id":"ce4bhi12rcd13ifvqfq0","pricing_plan_id":"cebpf4jnsgd1na2vs0mg"},{"bike_id":"3a269826-99f7-4419-932c-0eb0bed13f31","system_id":"levelo_inurba_marseille","lat":43.23952,"lon":5.36635,"is_reserved":false,"is_disabled":false,"rental_uris":{"android":"levelo://app?vid=3a269826-99f7-4419-932c-0eb0bed13f31","ios":"levelo://app?vid=3a269826-99f7-4419-932c-0eb0bed13f31"},"vehicle_type_id":"4","last_reported":1735996420,"current_range_meters":25200,"station_id":"ce4bhi12rcd13ifvqfp0","pricing_plan_id":"cebpf4jnsgd1na2vs0mg"},{"bike_id":"a7973b12-e414-4ed9-be14-85978b8636dd","system_id":"levelo_inurba_marseille","lat":43.25871,"lon":5.39912,"is_reserved":false,"is_disabled":false,"rental_uris":{"android":"levelo://app?vid=a7973b12-e414-4ed9-be14-85978b8636dd","ios":"levelo://app?vid=a7973b12-e414-4ed9-be14-85978b8636dd"},"vehicle_type_id":"4","last_reported":1735996420,"current_range_meters":25600,"station_id":"ce4bhl92rcd13ifvqghg","pricing_plan_id":"cebpf4jnsgd1na2vs0mg"},{"bike_id":"b607b8c0-c9ee-495b-924e-9ed75b199960","system_id":"levelo_inurba_marseille","lat":43.3169,"lon":5.40478,"is_reserved":false,"is_disabled":false,"rental_uris":{"android":"levelo://app?vid=b607b8c0-c9ee-495b-924e-9ed75b199960","ios":"levelo://app?vid=b607b8c0-c9ee-495b-924e-9ed75b199960"},"vehicle_type_id":"4","last_reported":1735996420,"current_range_meters":27200,"station_id":"ce4bh012rcd13ifvqd00","pricing_plan_id":"cebpf4jnsgd1na2vs0mg"},{"bike_id":"9a483109-5bce-4e89-a527-a3ced035742c","system_id":"levelo_inurba_marseille","lat":43.23436,"lon":5.35926,"is_reserved":false,"is_disabled":false,"rental_uris":{"android":"levelo://app?vid=9a483109-5bce-4e89-a527-a3ced035742c","ios":"levelo://app?vid=9a483109-5bce-4e89-a527-a3ced035742c"},"vehicle_type_id":"4","last_reported":1735996420,"current_range_meters":16800,"station_id":"","pricing_plan_id":"cebpf4jnsgd1na2vs0mg"},{"bike_id":"6d8f76fa-52d6-4d1e-9306-88012198670c","system_id":"levelo_inurba_marseille","lat":43.30639,"lon":5.40094,"is_reserved":false,"is_disabled":false,"rental_uris":{"android":"levelo://app?vid=6d8f76fa-52d6-4d1e-9306-88012198670c","ios":"levelo://app?vid=6d8f76fa-52d6-4d1e-9306-88012198670c"},"vehicle_type_id":"4","last_reported":1735996420,"current_range_meters":18800,"station_id":"ce4bh112rcd13ifvqda0","pricing_plan_id":"cebpf4jnsgd1na2vs0mg"},{"bike_id":"926a84e8-b853-4c7f-aec5-021538c117c4","system_id":"levelo_inurba_marseille","lat":43.31366,"lon":5.38504,"is_reserved":false,"is_disabled":false,"rental_uris":{"android":"levelo://app?vid=926a84e8-b853-4c7f-aec5-021538c117c4","ios":"levelo://app?vid=926a84e8-b853-4c7f-aec5-021538c117c4"},"vehicle_type_id":"4","last_reported":1735996420,"current_range_meters":27600,"station_id":"ce4bgt92rcd13ifvqcf0","pricing_plan_id":"cebpf4jnsgd1na2vs0mg"},{"bike_id":"435c2fef-ce1e-45cf-a3f2-3fdc486bf392","system_id":"levelo_inurba_marseille","lat":43.2827,"lon":5.3507,"is_reserved":false,"is_disabled":false,"rental_uris":{"android":"levelo://app?vid=435c2fef-ce1e-45cf-a3f2-3fdc486bf392","ios":"levelo://app?vid=435c2fef-ce1e-45cf-a3f2-3fdc486bf392"},"vehicle_type_id":"4","last_reported":1735996420,"current_range_meters":38400,"station_id":"ce4bhbp2rcd13ifvqerg","pricing_plan_id":"cebpf4jnsgd1na2vs0mg"},{"bike_id":"c38119df-a0cc-4d53-851b-aebce98309d3","system_id":"levelo_inurba_marseille","lat":43.25001,"lon":5.38937,"is_reserved":false,"is_disabled":false,"rental_uris":{"android":"levelo://app?vid=c38119df-a0cc-4d53-851b-aebce98309d3","ios":"levelo://app?vid=c38119df-a0cc-4d53-851b-aebce98309d3"},"vehicle_type_id":"4","last_reported":1735996420,"current_range_meters":4400,"station_id":"ce4bhgp2rcd13ifvqfd0","pricing_plan_id":"cebpf4jnsgd1na2vs0mg"},{"bike_id":"969c8a84-cf60-4395-8c81-a1d2e7dc81af","system_id":"levelo_inurba_marseille","lat":43.25858,"lon":5.39904,"is_reserved":false,"is_disabled":false,"rental_uris":{"android":"levelo://app?vid=969c8a84-cf60-4395-8c81-a1d2e7dc81af","ios":"levelo://app?vid=969c8a84-cf60-4395-8c81-a1d2e7dc81af"},"vehicle_type_id":"4","last_reported":1735996420,"current_range_meters":20800,"station_id":"ce4bhl92rcd13ifvqghg","pricing_plan_id":"cebpf4jnsgd1na2vs0mg"},{"bike_id":"83d8f140-e8bc-40d0-a354-52db760307d2","system_id":"levelo_inurba_marseille","lat":43.29623,"lon":5.37513,"is_reserved":false,"is_disabled":false,"rental_uris":{"android":"levelo://app?vid=83d8f140-e8bc-40d0-a354-52db760307d2","ios":"levelo://app?vid=83d8f140-e8bc-40d0-a354-52db760307d2"},"vehicle_type_id":"4","last_reported":1735996420,"current_range_meters":37600,"station_id":"","pricing_plan_id":"cebpf4jnsgd1na2vs0mg"},{"bike_id":"9d2065c5-e801-47c6-a32c-5834d37e9dab","system_id":"levelo_inurba_marseille","lat":43.32366,"lon":5.38889,"is_reserved":false,"is_disabled":false,"rental_uris":{"android":"levelo://app?vid=9d2065c5-e801-47c6-a32c-5834d37e9dab","ios":"levelo://app?vid=9d2065c5-e801-47c6-a32c-5834d37e9dab"},"vehicle_type_id":"4","last_reported":1735996420,"current_range_meters":38400,"station_id":"ce4bhqp2rcd13ifvqhog","pricing_plan_id":"cebpf4jnsgd1na2vs0mg"},{"bike_id":"8452ac70-b36f-4236-9954-dfaf1a87fa71","system_id":"levelo_inurba_marseille","lat":43.26805,"lon":5.40267,"is_reserved":false,"is_disabled":false,"rental_uris":{"android":"levelo://app?vid=8452ac70-b36f-4236-9954-dfaf1a87fa71","ios":"levelo://app?vid=8452ac70-b36f-4236-9954-dfaf1a87fa71"},"vehicle_type_id":"4","last_reported":1735996420,"current_range_meters":37600,"station_id":"ce501612rcd8frsf0b60","pricing_plan_id":"cebpf4jnsgd1na2vs0mg"},{"bike_id":"e62a9961-12fa-4314-af24-7ed97deb9ffe","system_id":"levelo_inurba_marseille","lat":43.313627,"lon":5.384807,"is_reserved":false,"is_disabled":false,"rental_uris":{"android":"levelo://app?vid=e62a9961-12fa-4314-af24-7ed97deb9ffe","ios":"levelo://app?vid=e62a9961-12fa-4314-af24-7ed97deb9ffe"},"vehicle_type_id":"4","last_reported":1735996420,"current_range_meters":12800,"station_id":"ce4bgt92rcd13ifvqcf0","pricing_plan_id":"cebpf4jnsgd1na2vs0mg"},{"bike_id":"f3d41f41-839d-41a5-aa6d-f2ba87ff18f0","system_id":"levelo_inurba_marseille","lat":43.24078,"lon":5.37761,"is_reserved":false,"is_disabled":true,"rental_uris":{"android":"levelo://app?vid=f3d41f41-839d-41a5-aa6d-f2ba87ff18f0","ios":"levelo://app?vid=f3d41f41-839d-41a5-aa6d-f2ba87ff18f0"},"vehicle_type_id":"4","last_reported":1735996420,"current_range_meters":0,"station_id":"ce4bhnp2rcd13ifvqgvg","pricing_plan_id":"cebpf4jnsgd1na2vs0mg"},{"bike_id":"6d14468d-d4fe-4fb2-b1d6-ebb52c384fb6","system_id":"levelo_inurba_marseille","lat":43.31987,"lon":5.38164,"is_reserved":false,"is_disabled":false,"rental_uris":{"android":"levelo://app?vid=6d14468d-d4fe-4fb2-b1d6-ebb52c384fb6","ios":"levelo://app?vid=6d14468d-d4fe-4fb2-b1d6-ebb52c384fb6"},"vehicle_type_id":"4","last_reported":1735996420,"current_range_meters":38000,"station_id":"ce4bhr12rcd13ifvqhpg","pricing_plan_id":"cebpf4jnsgd1na2vs0mg"},{"bike_id":"61012598-1d43-4335-8ddb-d11aacbad558","system_id":"levelo_inurba_marseille","lat":43.29719,"lon":5.36622,"is_reserved":false,"is_disabled":false,"rental_uris":{"android":"levelo://app?vid=61012598-1d43-4335-8ddb-d11aacbad558","ios":"levelo://app?vid=61012598-1d43-4335-8ddb-d11aacbad558"},"vehicle_type_id":"4","last_reported":1735996420,"current_range_meters":34800,"station_id":"ce4bgn12rcd13ifvqbt0","pricing_plan_id":"cebpf4jnsgd1na2vs0mg"},{"bike_id":"2f857458-45ae-4306-9ffb-5d94252d59a5","system_id":"levelo_inurba_marseille","lat":43.24649,"lon":5.3893,"is_reserved":false,"is_disabled":false,"rental_uris":{"android":"levelo://app?vid=2f857458-45ae-4306-9ffb-5d94252d59a5","ios":"levelo://app?vid=2f857458-45ae-4306-9ffb-5d94252d59a5"},"vehicle_type_id":"4","last_reported":1735996420,"current_range_meters":38400,"station_id":"ce4bhg12rcd13ifvqf60","pricing_plan_id":"cebpf4jnsgd1na2vs0mg"},{"bike_id":"1bc3f17f-3a03-40ea-93bc-69b7882c5876","system_id":"levelo_inurba_marseille","lat":43.33732,"lon":5.39183,"is_reserved":false,"is_disabled":false,"rental_uris":{"android":"levelo://app?vid=1bc3f17f-3a03-40ea-93bc-69b7882c5876","ios":"levelo://app?vid=1bc3f17f-3a03-40ea-93bc-69b7882c5876"},"vehicle_type_id":"4","last_reported":1735996420,"current_range_meters":38800,"station_id":"ce4bhr92rcd13ifvqhsg","pricing_plan_id":"cebpf4jnsgd1na2vs0mg"},{"bike_id":"7b78d5e2-5142-402d-a4f8-0f3037a6c533","system_id":"levelo_inurba_marseille","lat":43.26935,"lon":5.38632,"is_reserved":false,"is_disabled":true,"rental_uris":{"android":"levelo://app?vid=7b78d5e2-5142-402d-a4f8-0f3037a6c533","ios":"levelo://app?vid=7b78d5e2-5142-402d-a4f8-0f3037a6c533"},"vehicle_type_id":"4","last_reported":1735996420,"current_range_meters":12400,"station_id":"ce4bhh92rcd13ifvqfh0","pricing_plan_id":"cebpf4jnsgd1na2vs0mg"},{"bike_id":"00b0c897-4e8f-453d-8e9d-6135317dff3d","system_id":"levelo_inurba_marseille","lat":43.2955,"lon":5.42302,"is_reserved":false,"is_disabled":false,"rental_uris":{"android":"levelo://app?vid=00b0c897-4e8f-453d-8e9d-6135317dff3d","ios":"levelo://app?vid=00b0c897-4e8f-453d-8e9d-6135317dff3d"},"vehicle_type_id":"4","last_reported":1735996420,"current_range_meters":37600,"station_id":"ce4bhph2rcd13ifvqhdg","pricing_plan_id":"cebpf4jnsgd1na2vs0mg"},{"bike_id":"d0d21930-fe1d-478b-8251-bcf89564599d","system_id":"levelo_inurba_marseille","lat":43.29555,"lon":5.42286,"is_reserved":false,"is_disabled":false,"rental_uris":{"android":"levelo://app?vid=d0d21930-fe1d-478b-8251-bcf89564599d","ios":"levelo://app?vid=d0d21930-fe1d-478b-8251-bcf89564599d"},"vehicle_type_id":"4","last_reported":1735996420,"current_range_meters":29600,"station_id":"ce4bhph2rcd13ifvqhdg","pricing_plan_id":"cebpf4jnsgd1na2vs0mg"},{"bike_id":"08c4a974-c0c2-43d8-97a4-37f1bb19340f","system_id":"levelo_inurba_marseille","lat":43.29956,"lon":5.37195,"is_reserved":false,"is_disabled":false,"rental_uris":{"android":"levelo://app?vid=08c4a974-c0c2-43d8-97a4-37f1bb19340f","ios":"levelo://app?vid=08c4a974-c0c2-43d8-97a4-37f1bb19340f"},"vehicle_type_id":"4","last_reported":1735996420,"current_range_meters":39200,"station_id":"ce4bgr92rcd13ifvqc7g","pricing_plan_id":"cebpf4jnsgd1na2vs0mg"},{"bike_id":"ca097f70-8976-4699-b173-05723d0647b2","system_id":"levelo_inurba_marseille","lat":43.28149,"lon":5.42654,"is_reserved":false,"is_disabled":false,"rental_uris":{"android":"levelo://app?vid=ca097f70-8976-4699-b173-05723d0647b2","ios":"levelo://app?vid=ca097f70-8976-4699-b173-05723d0647b2"},"vehicle_type_id":"4","last_reported":1735996420,"current_range_meters":16000,"station_id":"ce4bhnh2rcd13ifvqgug","pricing_plan_id":"cebpf4jnsgd1na2vs0mg"},{"bike_id":"858926da-3826-4316-b905-83021bfb4c7c","system_id":"levelo_inurba_marseille","lat":43.3016,"lon":5.38092,"is_reserved":false,"is_disabled":false,"rental_uris":{"android":"levelo://app?vid=858926da-3826-4316-b905-83021bfb4c7c","ios":"levelo://app?vid=858926da-3826-4316-b905-83021bfb4c7c"},"vehicle_type_id":"4","last_reported":1735996420,"current_range_meters":28000,"station_id":"ce4bgjp2rcd13ifvqbh0","pricing_plan_id":"cebpf4jnsgd1na2vs0mg"},{"bike_id":"1237c156-cfa6-45ec-9298-949dcdbd11b6","system_id":"levelo_inurba_marseille","lat":43.27373,"lon":5.36243,"is_reserved":false,"is_disabled":false,"rental_uris":{"android":"levelo://app?vid=1237c156-cfa6-45ec-9298-949dcdbd11b6","ios":"levelo://app?vid=1237c156-cfa6-45ec-9298-949dcdbd11b6"},"vehicle_type_id":"4","last_reported":1735996420,"current_range_meters":36400,"station_id":"ce4bhbh2rcd13ifvqeo0","pricing_plan_id":"cebpf4jnsgd1na2vs0mg"},{"bike_id":"cb9ddef6-e3ca-4d83-8257-6a73eb8266c6","system_id":"levelo_inurba_marseille","lat":43.30201,"lon":5.3949,"is_reserved":false,"is_disabled":false,"rental_uris":{"android":"levelo://app?vid=cb9ddef6-e3ca-4d83-8257-6a73eb8266c6","ios":"levelo://app?vid=cb9ddef6-e3ca-4d83-8257-6a73eb8266c6"},"vehicle_type_id":"4","last_reported":1735996420,"current_range_meters":38800,"station_id":"ce4bh0p2rcd13ifvqd70","pricing_plan_id":"cebpf4jnsgd1na2vs0mg"},{"bike_id":"7b9e134f-1d5b-46f5-87f8-6cc312c5778f","system_id":"levelo_inurba_marseille","lat":43.2292,"lon":5.35377,"is_reserved":false,"is_disabled":false,"rental_uris":{"android":"levelo://app?vid=7b9e134f-1d5b-46f5-87f8-6cc312c5778f","ios":"levelo://app?vid=7b9e134f-1d5b-46f5-87f8-6cc312c5778f"},"vehicle_type_id":"4","last_reported":1735996420,"current_range_meters":37600,"station_id":"cpo3532slgdg3j2ikp40","pricing_plan_id":"cebpf4jnsgd1na2vs0mg"},{"bike_id":"563224fd-451c-462c-872f-0d790702bb1f","system_id":"levelo_inurba_marseille","lat":43.29718,"lon":5.37696,"is_reserved":false,"is_disabled":false,"rental_uris":{"android":"levelo://app?vid=563224fd-451c-462c-872f-0d790702bb1f","ios":"levelo://app?vid=563224fd-451c-462c-872f-0d790702bb1f"},"vehicle_type_id":"4","last_reported":1735996420,"current_range_meters":24800,"station_id":"ce4bgkh2rcd13ifvqbl0","pricing_plan_id":"cebpf4jnsgd1na2vs0mg"},{"bike_id":"7d2e0d05-7ab3-455c-a664-00e17370d396","system_id":"levelo_inurba_marseille","lat":43.29222,"lon":5.36038,"is_reserved":false,"is_disabled":false,"rental_uris":{"android":"levelo://app?vid=7d2e0d05-7ab3-455c-a664-00e17370d396","ios":"levelo://app?vid=7d2e0d05-7ab3-455c-a664-00e17370d396"},"vehicle_type_id":"4","last_reported":1735996420,"current_range_meters":38000,"station_id":"ce4bhbh2rcd13ifvqeqg","pricing_plan_id":"cebpf4jnsgd1na2vs0mg"},{"bike_id":"14d8b028-db21-40ec-8ed2-b6e437c7c8c1","system_id":"levelo_inurba_marseille","lat":43.30134,"lon":5.39861,"is_reserved":false,"is_disabled":false,"rental_uris":{"android":"levelo://app?vid=14d8b028-db21-40ec-8ed2-b6e437c7c8c1","ios":"levelo://app?vid=14d8b028-db21-40ec-8ed2-b6e437c7c8c1"},"vehicle_type_id":"4","last_reported":1735996420,"current_range_meters":9600,"station_id":"ce4bh0h2rcd13ifvqd40","pricing_plan_id":"cebpf4jnsgd1na2vs0mg"},{"bike_id":"b6bb9f04-4321-49e9-99be-1ec01f122623","system_id":"levelo_inurba_marseille","lat":43.2744,"lon":5.3942,"is_reserved":false,"is_disabled":false,"rental_uris":{"android":"levelo://app?vid=b6bb9f04-4321-49e9-99be-1ec01f122623","ios":"levelo://app?vid=b6bb9f04-4321-49e9-99be-1ec01f122623"},"vehicle_type_id":"4","last_reported":1735996420,"current_range_meters":38400,"station_id":"ce4bhdp2rcd13ifvqf20","pricing_plan_id":"cebpf4jnsgd1na2vs0mg"},{"bike_id":"355d1ec4-9762-4bb1-82af-c7509bdaef00","system_id":"levelo_inurba_marseille","lat":43.29042,"lon":5.39928,"is_reserved":false,"is_disabled":false,"rental_uris":{"android":"levelo://app?vid=355d1ec4-9762-4bb1-82af-c7509bdaef00","ios":"levelo://app?vid=355d1ec4-9762-4bb1-82af-c7509bdaef00"},"vehicle_type_id":"4","last_reported":1735996420,"current_range_meters":37600,"station_id":"ce4bh392rcd13ifvqdm0","pricing_plan_id":"cebpf4jnsgd1na2vs0mg"},{"bike_id":"5f72c7ef-21c7-4297-93a2-f8c60f86c881","system_id":"levelo_inurba_marseille","lat":43.29897,"lon":5.37477,"is_reserved":false,"is_disabled":false,"rental_uris":{"android":"levelo://app?vid=5f72c7ef-21c7-4297-93a2-f8c60f86c881","ios":"levelo://app?vid=5f72c7ef-21c7-4297-93a2-f8c60f86c881"},"vehicle_type_id":"4","last_reported":1735996420,"current_range_meters":36000,"station_id":"ce4bgjh2rcd13ifvqbg0","pricing_plan_id":"cebpf4jnsgd1na2vs0mg"},{"bike_id":"9085f317-eea3-445b-8bdd-28ff00ca8048","system_id":"levelo_inurba_marseille","lat":43.266846,"lon":5.382637,"is_reserved":false,"is_disabled":false,"rental_uris":{"android":"levelo://app?vid=9085f317-eea3-445b-8bdd-28ff00ca8048","ios":"levelo://app?vid=9085f317-eea3-445b-8bdd-28ff00ca8048"},"vehicle_type_id":"4","last_reported":1735996420,"current_range_meters":31200,"station_id":"ce4bhg92rcd13ifvqf90","pricing_plan_id":"cebpf4jnsgd1na2vs0mg"},{"bike_id":"a6f828f1-5f97-4da7-bf33-7d48a155db3e","system_id":"levelo_inurba_marseille","lat":43.2783,"lon":5.39212,"is_reserved":false,"is_disabled":false,"rental_uris":{"android":"levelo://app?vid=a6f828f1-5f97-4da7-bf33-7d48a155db3e","ios":"levelo://app?vid=a6f828f1-5f97-4da7-bf33-7d48a155db3e"},"vehicle_type_id":"4","last_reported":1735996420,"current_range_meters":27200,"station_id":"ce4bhjp2rcd13ifvqga0","pricing_plan_id":"cebpf4jnsgd1na2vs0mg"},{"bike_id":"eb10e00d-fcb8-4bd9-a535-87ae22048a5d","system_id":"levelo_inurba_marseille","lat":43.24994,"lon":5.38943,"is_reserved":false,"is_disabled":false,"rental_uris":{"android":"levelo://app?vid=eb10e00d-fcb8-4bd9-a535-87ae22048a5d","ios":"levelo://app?vid=eb10e00d-fcb8-4bd9-a535-87ae22048a5d"},"vehicle_type_id":"4","last_reported":1735996420,"current_range_meters":5600,"station_id":"ce4bhgp2rcd13ifvqfd0","pricing_plan_id":"cebpf4jnsgd1na2vs0mg"},{"bike_id":"bf1eb2db-2d21-4ce7-802b-a09d0018c6f2","system_id":"levelo_inurba_marseille","lat":43.26198,"lon":5.37454,"is_reserved":false,"is_disabled":false,"rental_uris":{"android":"levelo://app?vid=bf1eb2db-2d21-4ce7-802b-a09d0018c6f2","ios":"levelo://app?vid=bf1eb2db-2d21-4ce7-802b-a09d0018c6f2"},"vehicle_type_id":"4","last_reported":1735996420,"current_range_meters":5600,"station_id":"ce4bhgp2rcd13ifvqfc0","pricing_plan_id":"cebpf4jnsgd1na2vs0mg"},{"bike_id":"2bb365b9-b0ab-4842-8b8c-e8de6374870a","system_id":"levelo_inurba_marseille","lat":43.24649,"lon":5.38898,"is_reserved":false,"is_disabled":false,"rental_uris":{"android":"levelo://app?vid=2bb365b9-b0ab-4842-8b8c-e8de6374870a","ios":"levelo://app?vid=2bb365b9-b0ab-4842-8b8c-e8de6374870a"},"vehicle_type_id":"4","last_reported":1735996420,"current_range_meters":13600,"station_id":"ce4bhg12rcd13ifvqf60","pricing_plan_id":"cebpf4jnsgd1na2vs0mg"},{"bike_id":"c2ce101b-950e-408c-b604-c25a309cddd3","system_id":"levelo_inurba_marseille","lat":43.28666,"lon":5.38665,"is_reserved":false,"is_disabled":false,"rental_uris":{"android":"levelo://app?vid=c2ce101b-950e-408c-b604-c25a309cddd3","ios":"levelo://app?vid=c2ce101b-950e-408c-b604-c25a309cddd3"},"vehicle_type_id":"4","last_reported":1735996420,"current_range_meters":33200,"station_id":"ce4bh492rcd13ifvqdug","pricing_plan_id":"cebpf4jnsgd1na2vs0mg"},{"bike_id":"01cf00db-a635-4cab-a7ce-b7d1d3ddffac","system_id":"levelo_inurba_marseille","lat":43.29915,"lon":5.37479,"is_reserved":false,"is_disabled":false,"rental_uris":{"android":"levelo://app?vid=01cf00db-a635-4cab-a7ce-b7d1d3ddffac","ios":"levelo://app?vid=01cf00db-a635-4cab-a7ce-b7d1d3ddffac"},"vehicle_type_id":"4","last_reported":1735996420,"current_range_meters":34800,"station_id":"ce4bgjh2rcd13ifvqbg0","pricing_plan_id":"cebpf4jnsgd1na2vs0mg"},{"bike_id":"accc800c-b134-4d76-a4ce-1dbdd8eb6265","system_id":"levelo_inurba_marseille","lat":43.323634,"lon":5.388816,"is_reserved":false,"is_disabled":false,"rental_uris":{"android":"levelo://app?vid=accc800c-b134-4d76-a4ce-1dbdd8eb6265","ios":"levelo://app?vid=accc800c-b134-4d76-a4ce-1dbdd8eb6265"},"vehicle_type_id":"4","last_reported":1735996420,"current_range_meters":38800,"station_id":"ce4bhqp2rcd13ifvqhog","pricing_plan_id":"cebpf4jnsgd1na2vs0mg"},{"bike_id":"37b7d8de-7cec-49cf-8527-82e8b4cc4c67","system_id":"levelo_inurba_marseille","lat":43.27091,"lon":5.41524,"is_reserved":false,"is_disabled":false,"rental_uris":{"android":"levelo://app?vid=37b7d8de-7cec-49cf-8527-82e8b4cc4c67","ios":"levelo://app?vid=37b7d8de-7cec-49cf-8527-82e8b4cc4c67"},"vehicle_type_id":"4","last_reported":1735996420,"current_range_meters":27600,"station_id":"","pricing_plan_id":"cebpf4jnsgd1na2vs0mg"},{"bike_id":"6c0950ff-ad32-4545-a3b0-d009b8de7beb","system_id":"levelo_inurba_marseille","lat":43.26601,"lon":5.39504,"is_reserved":false,"is_disabled":false,"rental_uris":{"android":"levelo://app?vid=6c0950ff-ad32-4545-a3b0-d009b8de7beb","ios":"levelo://app?vid=6c0950ff-ad32-4545-a3b0-d009b8de7beb"},"vehicle_type_id":"4","last_reported":1735996420,"current_range_meters":38800,"station_id":"","pricing_plan_id":"cebpf4jnsgd1na2vs0mg"},{"bike_id":"641d8acc-50b2-4173-ab23-c70f2a11d28e","system_id":"levelo_inurba_marseille","lat":43.28144,"lon":5.42656,"is_reserved":false,"is_disabled":true,"rental_uris":{"android":"levelo://app?vid=641d8acc-50b2-4173-ab23-c70f2a11d28e","ios":"levelo://app?vid=641d8acc-50b2-4173-ab23-c70f2a11d28e"},"vehicle_type_id":"4","last_reported":1735996420,"current_range_meters":36800,"station_id":"ce4bhnh2rcd13ifvqgug","pricing_plan_id":"cebpf4jnsgd1na2vs0mg"},{"bike_id":"0a903dd4-aa5a-4030-b502-395f71036d16","system_id":"levelo_inurba_marseille","lat":43.24665,"lon":5.38154,"is_reserved":false,"is_disabled":false,"rental_uris":{"android":"levelo://app?vid=0a903dd4-aa5a-4030-b502-395f71036d16","ios":"levelo://app?vid=0a903dd4-aa5a-4030-b502-395f71036d16"},"vehicle_type_id":"4","last_reported":1735996420,"current_range_meters":27200,"station_id":"ce4bhih2rcd13ifvqfr0","pricing_plan_id":"cebpf4jnsgd1na2vs0mg"},{"bike_id":"8e936699-fb94-4c05-a18e-6a31521ab968","system_id":"levelo_inurba_marseille","lat":43.28457,"lon":5.35901,"is_reserved":false,"is_disabled":false,"rental_uris":{"android":"levelo://app?vid=8e936699-fb94-4c05-a18e-6a31521ab968","ios":"levelo://app?vid=8e936699-fb94-4c05-a18e-6a31521ab968"},"vehicle_type_id":"4","last_reported":1735996420,"current_range_meters":30400,"station_id":"ce4bhah2rcd13ifvqei0","pricing_plan_id":"cebpf4jnsgd1na2vs0mg"},{"bike_id":"be9e1d18-8727-4f8c-9eed-b793cba74353","system_id":"levelo_inurba_marseille","lat":43.29534,"lon":5.38544,"is_reserved":false,"is_disabled":false,"rental_uris":{"android":"levelo://app?vid=be9e1d18-8727-4f8c-9eed-b793cba74353","ios":"levelo://app?vid=be9e1d18-8727-4f8c-9eed-b793cba74353"},"vehicle_type_id":"4","last_reported":1735996420,"current_range_meters":24400,"station_id":"ce4bgih2rcd13ifvqba0","pricing_plan_id":"cebpf4jnsgd1na2vs0mg"},{"bike_id":"ff50585c-8814-445e-8839-ad23299bdb4b","system_id":"levelo_inurba_marseille","lat":43.2466,"lon":5.38169,"is_reserved":false,"is_disabled":false,"rental_uris":{"android":"levelo://app?vid=ff50585c-8814-445e-8839-ad23299bdb4b","ios":"levelo://app?vid=ff50585c-8814-445e-8839-ad23299bdb4b"},"vehicle_type_id":"4","last_reported":1735996420,"current_range_meters":20000,"station_id":"ce4bhih2rcd13ifvqfr0","pricing_plan_id":"cebpf4jnsgd1na2vs0mg"},{"bike_id":"939d444f-90af-4242-b314-80106977b85f","system_id":"levelo_inurba_marseille","lat":43.28148,"lon":5.42642,"is_reserved":false,"is_disabled":false,"rental_uris":{"android":"levelo://app?vid=939d444f-90af-4242-b314-80106977b85f","ios":"levelo://app?vid=939d444f-90af-4242-b314-80106977b85f"},"vehicle_type_id":"4","last_reported":1735996420,"current_range_meters":36800,"station_id":"ce4bhnh2rcd13ifvqgug","pricing_plan_id":"cebpf4jnsgd1na2vs0mg"},{"bike_id":"bd609247-c05b-4bfd-8224-3974e4956916","system_id":"levelo_inurba_marseille","lat":43.30856,"lon":5.36885,"is_reserved":false,"is_disabled":true,"rental_uris":{"android":"levelo://app?vid=bd609247-c05b-4bfd-8224-3974e4956916","ios":"levelo://app?vid=bd609247-c05b-4bfd-8224-3974e4956916"},"vehicle_type_id":"4","last_reported":1735996420,"current_range_meters":36800,"station_id":"ce4bgn92rcd13ifvqbvg","pricing_plan_id":"cebpf4jnsgd1na2vs0mg"},{"bike_id":"26e09790-3c41-401e-8559-07b9778c335c","system_id":"levelo_inurba_marseille","lat":43.2965,"lon":5.37299,"is_reserved":false,"is_disabled":false,"rental_uris":{"android":"levelo://app?vid=26e09790-3c41-401e-8559-07b9778c335c","ios":"levelo://app?vid=26e09790-3c41-401e-8559-07b9778c335c"},"vehicle_type_id":"4","last_reported":1735996420,"current_range_meters":36000,"station_id":"ce4bgk12rcd13ifvqbj0","pricing_plan_id":"cebpf4jnsgd1na2vs0mg"},{"bike_id":"0a3ae262-e4e9-456e-b2b6-83dd5ef5dc3a","system_id":"levelo_inurba_marseille","lat":43.30519,"lon":5.36538,"is_reserved":false,"is_disabled":false,"rental_uris":{"android":"levelo://app?vid=0a3ae262-e4e9-456e-b2b6-83dd5ef5dc3a","ios":"levelo://app?vid=0a3ae262-e4e9-456e-b2b6-83dd5ef5dc3a"},"vehicle_type_id":"4","last_reported":1735996420,"current_range_meters":38800,"station_id":"ce4bgs12rcd13ifvqcag","pricing_plan_id":"cebpf4jnsgd1na2vs0mg"},{"bike_id":"b50c1e04-9c20-4daa-ad06-7d854e9beedd","system_id":"levelo_inurba_marseille","lat":43.26171,"lon":5.37457,"is_reserved":false,"is_disabled":false,"rental_uris":{"android":"levelo://app?vid=b50c1e04-9c20-4daa-ad06-7d854e9beedd","ios":"levelo://app?vid=b50c1e04-9c20-4daa-ad06-7d854e9beedd"},"vehicle_type_id":"4","last_reported":1735996420,"current_range_meters":33200,"station_id":"ce4bhgp2rcd13ifvqfc0","pricing_plan_id":"cebpf4jnsgd1na2vs0mg"},{"bike_id":"6072a47d-013b-4750-94cc-06b5f4e2ad66","system_id":"levelo_inurba_marseille","lat":43.29569,"lon":5.42265,"is_reserved":false,"is_disabled":false,"rental_uris":{"android":"levelo://app?vid=6072a47d-013b-4750-94cc-06b5f4e2ad66","ios":"levelo://app?vid=6072a47d-013b-4750-94cc-06b5f4e2ad66"},"vehicle_type_id":"4","last_reported":1735996420,"current_range_meters":33600,"station_id":"ce4bhph2rcd13ifvqhdg","pricing_plan_id":"cebpf4jnsgd1na2vs0mg"},{"bike_id":"161063fe-a823-4001-8a21-44eff19fcc31","system_id":"levelo_inurba_marseille","lat":43.27051,"lon":5.40263,"is_reserved":false,"is_disabled":false,"rental_uris":{"android":"levelo://app?vid=161063fe-a823-4001-8a21-44eff19fcc31","ios":"levelo://app?vid=161063fe-a823-4001-8a21-44eff19fcc31"},"vehicle_type_id":"4","last_reported":1735996420,"current_range_meters":6800,"station_id":"ce4bhk92rcd13ifvqgc0","pricing_plan_id":"cebpf4jnsgd1na2vs0mg"},{"bike_id":"1d0ee6fa-7e84-4bad-a513-32569bfb99a6","system_id":"levelo_inurba_marseille","lat":43.274155,"lon":5.394146,"is_reserved":false,"is_disabled":false,"rental_uris":{"android":"levelo://app?vid=1d0ee6fa-7e84-4bad-a513-32569bfb99a6","ios":"levelo://app?vid=1d0ee6fa-7e84-4bad-a513-32569bfb99a6"},"vehicle_type_id":"4","last_reported":1735996420,"current_range_meters":38800,"station_id":"ce4bhdp2rcd13ifvqf20","pricing_plan_id":"cebpf4jnsgd1na2vs0mg"},{"bike_id":"d1bd4f0e-c325-415d-9d63-e6cf1bffab21","system_id":"levelo_inurba_marseille","lat":43.32012,"lon":5.4158,"is_reserved":false,"is_disabled":false,"rental_uris":{"android":"levelo://app?vid=d1bd4f0e-c325-415d-9d63-e6cf1bffab21","ios":"levelo://app?vid=d1bd4f0e-c325-415d-9d63-e6cf1bffab21"},"vehicle_type_id":"4","last_reported":1735996420,"current_range_meters":38800,"station_id":"ce4bhq92rcd13ifvqhkg","pricing_plan_id":"cebpf4jnsgd1na2vs0mg"},{"bike_id":"0a1b40ac-db24-4869-b876-511e9b87d5d0","system_id":"levelo_inurba_marseille","lat":43.2963,"lon":5.37745,"is_reserved":false,"is_disabled":false,"rental_uris":{"android":"levelo://app?vid=0a1b40ac-db24-4869-b876-511e9b87d5d0","ios":"levelo://app?vid=0a1b40ac-db24-4869-b876-511e9b87d5d0"},"vehicle_type_id":"4","last_reported":1735996420,"current_range_meters":38400,"station_id":"ce4bgi92rcd13ifvqb90","pricing_plan_id":"cebpf4jnsgd1na2vs0mg"},{"bike_id":"983a939f-0c90-4b41-8e07-1ba37a328643","system_id":"levelo_inurba_marseille","lat":43.241683,"lon":5.363993,"is_reserved":false,"is_disabled":false,"rental_uris":{"android":"levelo://app?vid=983a939f-0c90-4b41-8e07-1ba37a328643","ios":"levelo://app?vid=983a939f-0c90-4b41-8e07-1ba37a328643"},"vehicle_type_id":"4","last_reported":1735996420,"current_range_meters":24800,"station_id":"cpo36qri1sfpv3e86is0","pricing_plan_id":"cebpf4jnsgd1na2vs0mg"},{"bike_id":"0d36baca-b4e4-4eb6-85e9-d02c7038df15","system_id":"levelo_inurba_marseille","lat":43.30523,"lon":5.36589,"is_reserved":false,"is_disabled":true,"rental_uris":{"android":"levelo://app?vid=0d36baca-b4e4-4eb6-85e9-d02c7038df15","ios":"levelo://app?vid=0d36baca-b4e4-4eb6-85e9-d02c7038df15"},"vehicle_type_id":"4","last_reported":1735996420,"current_range_meters":27600,"station_id":"ce4bgs12rcd13ifvqcag","pricing_plan_id":"cebpf4jnsgd1na2vs0mg"},{"bike_id":"f0849c63-231a-4c40-84c9-6fa23e7b19c3","system_id":"levelo_inurba_marseille","lat":43.29898,"lon":5.38146,"is_reserved":false,"is_disabled":false,"rental_uris":{"android":"levelo://app?vid=f0849c63-231a-4c40-84c9-6fa23e7b19c3","ios":"levelo://app?vid=f0849c63-231a-4c40-84c9-6fa23e7b19c3"},"vehicle_type_id":"4","last_reported":1735996420,"current_range_meters":35600,"station_id":"ce4bgj12rcd13ifvqbc0","pricing_plan_id":"cebpf4jnsgd1na2vs0mg"},{"bike_id":"db9cee29-8ffe-411b-b32f-cae1be0fe457","system_id":"levelo_inurba_marseille","lat":43.29379,"lon":5.37834,"is_reserved":false,"is_disabled":false,"rental_uris":{"android":"levelo://app?vid=db9cee29-8ffe-411b-b32f-cae1be0fe457","ios":"levelo://app?vid=db9cee29-8ffe-411b-b32f-cae1be0fe457"},"vehicle_type_id":"4","last_reported":1735996420,"current_range_meters":26800,"station_id":"ce4bgjh2rcd13ifvqbf0","pricing_plan_id":"cebpf4jnsgd1na2vs0mg"},{"bike_id":"ff7a9622-1da0-4e49-b6f5-81182770c92a","system_id":"levelo_inurba_marseille","lat":43.32364,"lon":5.38881,"is_reserved":false,"is_disabled":false,"rental_uris":{"android":"levelo://app?vid=ff7a9622-1da0-4e49-b6f5-81182770c92a","ios":"levelo://app?vid=ff7a9622-1da0-4e49-b6f5-81182770c92a"},"vehicle_type_id":"4","last_reported":1735996420,"current_range_meters":36800,"station_id":"ce4bhqp2rcd13ifvqhog","pricing_plan_id":"cebpf4jnsgd1na2vs0mg"},{"bike_id":"349a4ab8-6f13-4948-be71-abaadb9466ee","system_id":"levelo_inurba_marseille","lat":43.24061,"lon":5.37744,"is_reserved":false,"is_disabled":false,"rental_uris":{"android":"levelo://app?vid=349a4ab8-6f13-4948-be71-abaadb9466ee","ios":"levelo://app?vid=349a4ab8-6f13-4948-be71-abaadb9466ee"},"vehicle_type_id":"4","last_reported":1735996420,"current_range_meters":38000,"station_id":"ce4bhnp2rcd13ifvqgvg","pricing_plan_id":"cebpf4jnsgd1na2vs0mg"},{"bike_id":"c820bd62-18cb-4bc2-b5bb-e4d0b7276320","system_id":"levelo_inurba_marseille","lat":43.30135,"lon":5.37421,"is_reserved":false,"is_disabled":false,"rental_uris":{"android":"levelo://app?vid=c820bd62-18cb-4bc2-b5bb-e4d0b7276320","ios":"levelo://app?vid=c820bd62-18cb-4bc2-b5bb-e4d0b7276320"},"vehicle_type_id":"4","last_reported":1735996420,"current_range_meters":36000,"station_id":"ce4bgs92rcd13ifvqcc0","pricing_plan_id":"cebpf4jnsgd1na2vs0mg"},{"bike_id":"65ac3048-33e1-41aa-81f5-a58ffe909868","system_id":"levelo_inurba_marseille","lat":43.27991,"lon":5.40036,"is_reserved":false,"is_disabled":false,"rental_uris":{"android":"levelo://app?vid=65ac3048-33e1-41aa-81f5-a58ffe909868","ios":"levelo://app?vid=65ac3048-33e1-41aa-81f5-a58ffe909868"},"vehicle_type_id":"4","last_reported":1735996420,"current_range_meters":38000,"station_id":"ce4bho92rcd13ifvqh4g","pricing_plan_id":"cebpf4jnsgd1na2vs0mg"},{"bike_id":"a5857756-0478-41f2-bfa4-405eeda359bc","system_id":"levelo_inurba_marseille","lat":43.26698,"lon":5.38248,"is_reserved":false,"is_disabled":false,"rental_uris":{"android":"levelo://app?vid=a5857756-0478-41f2-bfa4-405eeda359bc","ios":"levelo://app?vid=a5857756-0478-41f2-bfa4-405eeda359bc"},"vehicle_type_id":"4","last_reported":1735996420,"current_range_meters":38800,"station_id":"ce4bhg92rcd13ifvqf90","pricing_plan_id":"cebpf4jnsgd1na2vs0mg"},{"bike_id":"e9c9ac99-6db0-4a19-9854-52585a709e6e","system_id":"levelo_inurba_marseille","lat":43.29602,"lon":5.3674,"is_reserved":false,"is_disabled":false,"rental_uris":{"android":"levelo://app?vid=e9c9ac99-6db0-4a19-9854-52585a709e6e","ios":"levelo://app?vid=e9c9ac99-6db0-4a19-9854-52585a709e6e"},"vehicle_type_id":"4","last_reported":1735996420,"current_range_meters":34800,"station_id":"ce4bgph2rcd13ifvqc2g","pricing_plan_id":"cebpf4jnsgd1na2vs0mg"},{"bike_id":"cd7e8ac3-1dc5-42c5-81f3-d095d2efc35c","system_id":"levelo_inurba_marseille","lat":43.23198,"lon":5.35558,"is_reserved":false,"is_disabled":false,"rental_uris":{"android":"levelo://app?vid=cd7e8ac3-1dc5-42c5-81f3-d095d2efc35c","ios":"levelo://app?vid=cd7e8ac3-1dc5-42c5-81f3-d095d2efc35c"},"vehicle_type_id":"4","last_reported":1735996420,"current_range_meters":24800,"station_id":"ce4bhu92rcd13ifvqi70","pricing_plan_id":"cebpf4jnsgd1na2vs0mg"},{"bike_id":"8cb60ee5-163d-4842-8e26-a6b0b6e581d8","system_id":"levelo_inurba_marseille","lat":43.28483,"lon":5.3855,"is_reserved":false,"is_disabled":false,"rental_uris":{"android":"levelo://app?vid=8cb60ee5-163d-4842-8e26-a6b0b6e581d8","ios":"levelo://app?vid=8cb60ee5-163d-4842-8e26-a6b0b6e581d8"},"vehicle_type_id":"4","last_reported":1735996420,"current_range_meters":19600,"station_id":"ce4bh8p2rcd13ifvqeb0","pricing_plan_id":"cebpf4jnsgd1na2vs0mg"},{"bike_id":"a7bb63bd-2236-4c9a-b3ab-757ddfd808f2","system_id":"levelo_inurba_marseille","lat":43.29648,"lon":5.37195,"is_reserved":false,"is_disabled":false,"rental_uris":{"android":"levelo://app?vid=a7bb63bd-2236-4c9a-b3ab-757ddfd808f2","ios":"levelo://app?vid=a7bb63bd-2236-4c9a-b3ab-757ddfd808f2"},"vehicle_type_id":"4","last_reported":1735996420,"current_range_meters":39200,"station_id":"ce4bgnh2rcd13ifvqc0g","pricing_plan_id":"cebpf4jnsgd1na2vs0mg"},{"bike_id":"f3435332-11c4-4ce2-9f7e-083072d5319f","system_id":"levelo_inurba_marseille","lat":43.25509,"lon":5.37694,"is_reserved":false,"is_disabled":false,"rental_uris":{"android":"levelo://app?vid=f3435332-11c4-4ce2-9f7e-083072d5319f","ios":"levelo://app?vid=f3435332-11c4-4ce2-9f7e-083072d5319f"},"vehicle_type_id":"4","last_reported":1735996420,"current_range_meters":17600,"station_id":"ce4bhh12rcd13ifvqff0","pricing_plan_id":"cebpf4jnsgd1na2vs0mg"},{"bike_id":"ae269516-63cb-416b-964a-217904f9d7b3","system_id":"levelo_inurba_marseille","lat":43.23176,"lon":5.40005,"is_reserved":false,"is_disabled":false,"rental_uris":{"android":"levelo://app?vid=ae269516-63cb-416b-964a-217904f9d7b3","ios":"levelo://app?vid=ae269516-63cb-416b-964a-217904f9d7b3"},"vehicle_type_id":"4","last_reported":1735996420,"current_range_meters":9200,"station_id":"ce4bhn12rcd13ifvqgqg","pricing_plan_id":"cebpf4jnsgd1na2vs0mg"},{"bike_id":"8eaddbb8-2f97-4567-9dec-1039feb1c239","system_id":"levelo_inurba_marseille","lat":43.28224,"lon":5.39937,"is_reserved":false,"is_disabled":false,"rental_uris":{"android":"levelo://app?vid=8eaddbb8-2f97-4567-9dec-1039feb1c239","ios":"levelo://app?vid=8eaddbb8-2f97-4567-9dec-1039feb1c239"},"vehicle_type_id":"4","last_reported":1735996420,"current_range_meters":38400,"station_id":"ce4bho12rcd13ifvqh2g","pricing_plan_id":"cebpf4jnsgd1na2vs0mg"},{"bike_id":"80015150-ed7a-4567-92b6-885b195b502e","system_id":"levelo_inurba_marseille","lat":43.30157,"lon":5.38079,"is_reserved":false,"is_disabled":false,"rental_uris":{"android":"levelo://app?vid=80015150-ed7a-4567-92b6-885b195b502e","ios":"levelo://app?vid=80015150-ed7a-4567-92b6-885b195b502e"},"vehicle_type_id":"4","last_reported":1735996420,"current_range_meters":38000,"station_id":"ce4bgjp2rcd13ifvqbh0","pricing_plan_id":"cebpf4jnsgd1na2vs0mg"},{"bike_id":"eaecfcca-aa89-4e9a-8d17-c5be1539665b","system_id":"levelo_inurba_marseille","lat":43.2828,"lon":5.35066,"is_reserved":false,"is_disabled":true,"rental_uris":{"android":"levelo://app?vid=eaecfcca-aa89-4e9a-8d17-c5be1539665b","ios":"levelo://app?vid=eaecfcca-aa89-4e9a-8d17-c5be1539665b"},"vehicle_type_id":"4","last_reported":1735996420,"current_range_meters":6400,"station_id":"ce4bhbp2rcd13ifvqerg","pricing_plan_id":"cebpf4jnsgd1na2vs0mg"},{"bike_id":"896797d5-e48c-435a-a4ff-c7d0b4682116","system_id":"levelo_inurba_marseille","lat":43.27818,"lon":5.40739,"is_reserved":false,"is_disabled":false,"rental_uris":{"android":"levelo://app?vid=896797d5-e48c-435a-a4ff-c7d0b4682116","ios":"levelo://app?vid=896797d5-e48c-435a-a4ff-c7d0b4682116"},"vehicle_type_id":"4","last_reported":1735996420,"current_range_meters":27200,"station_id":"ce4bhnh2rcd13ifvqgtg","pricing_plan_id":"cebpf4jnsgd1na2vs0mg"},{"bike_id":"95d72f09-8fe9-4bd6-bc4c-6b92b241e395","system_id":"levelo_inurba_marseille","lat":43.28361,"lon":5.38634,"is_reserved":false,"is_disabled":false,"rental_uris":{"android":"levelo://app?vid=95d72f09-8fe9-4bd6-bc4c-6b92b241e395","ios":"levelo://app?vid=95d72f09-8fe9-4bd6-bc4c-6b92b241e395"},"vehicle_type_id":"4","last_reported":1735996420,"current_range_meters":38800,"station_id":"ce4bh492rcd13ifvqdvg","pricing_plan_id":"cebpf4jnsgd1na2vs0mg"},{"bike_id":"13ef7d4c-1aac-463f-b78f-283376e4de16","system_id":"levelo_inurba_marseille","lat":43.22922,"lon":5.35382,"is_reserved":false,"is_disabled":false,"rental_uris":{"android":"levelo://app?vid=13ef7d4c-1aac-463f-b78f-283376e4de16","ios":"levelo://app?vid=13ef7d4c-1aac-463f-b78f-283376e4de16"},"vehicle_type_id":"4","last_reported":1735996420,"current_range_meters":37600,"station_id":"cpo3532slgdg3j2ikp40","pricing_plan_id":"cebpf4jnsgd1na2vs0mg"},{"bike_id":"0d707ffc-f707-4ef1-b382-12ca6e4a0156","system_id":"levelo_inurba_marseille","lat":43.26795,"lon":5.39411,"is_reserved":false,"is_disabled":false,"rental_uris":{"android":"levelo://app?vid=0d707ffc-f707-4ef1-b382-12ca6e4a0156","ios":"levelo://app?vid=0d707ffc-f707-4ef1-b382-12ca6e4a0156"},"vehicle_type_id":"4","last_reported":1735996420,"current_range_meters":37600,"station_id":"ce4bhh12rcd13ifvqfg0","pricing_plan_id":"cebpf4jnsgd1na2vs0mg"},{"bike_id":"8a9dc88a-8d90-44ec-8e47-b42813f9101d","system_id":"levelo_inurba_marseille","lat":43.29338,"lon":5.41177,"is_reserved":false,"is_disabled":false,"rental_uris":{"android":"levelo://app?vid=8a9dc88a-8d90-44ec-8e47-b42813f9101d","ios":"levelo://app?vid=8a9dc88a-8d90-44ec-8e47-b42813f9101d"},"vehicle_type_id":"4","last_reported":1735996420,"current_range_meters":16800,"station_id":"","pricing_plan_id":"cebpf4jnsgd1na2vs0mg"},{"bike_id":"7b7b303a-a0b7-4a31-b23c-f8fd5396854f","system_id":"levelo_inurba_marseille","lat":43.27699,"lon":5.38904,"is_reserved":false,"is_disabled":false,"rental_uris":{"android":"levelo://app?vid=7b7b303a-a0b7-4a31-b23c-f8fd5396854f","ios":"levelo://app?vid=7b7b303a-a0b7-4a31-b23c-f8fd5396854f"},"vehicle_type_id":"4","last_reported":1735996420,"current_range_meters":36400,"station_id":"ce4bhi12rcd13ifvqfo0","pricing_plan_id":"cebpf4jnsgd1na2vs0mg"},{"bike_id":"b6831d8b-8c04-4976-917f-4b802eaacada","system_id":"levelo_inurba_marseille","lat":43.24996,"lon":5.38934,"is_reserved":false,"is_disabled":false,"rental_uris":{"android":"levelo://app?vid=b6831d8b-8c04-4976-917f-4b802eaacada","ios":"levelo://app?vid=b6831d8b-8c04-4976-917f-4b802eaacada"},"vehicle_type_id":"4","last_reported":1735996420,"current_range_meters":32800,"station_id":"ce4bhgp2rcd13ifvqfd0","pricing_plan_id":"cebpf4jnsgd1na2vs0mg"},{"bike_id":"d6ffb7e5-f3ee-45fd-86b7-d7642d09152c","system_id":"levelo_inurba_marseille","lat":43.249974,"lon":5.38928,"is_reserved":false,"is_disabled":false,"rental_uris":{"android":"levelo://app?vid=d6ffb7e5-f3ee-45fd-86b7-d7642d09152c","ios":"levelo://app?vid=d6ffb7e5-f3ee-45fd-86b7-d7642d09152c"},"vehicle_type_id":"4","last_reported":1735996420,"current_range_meters":27600,"station_id":"ce4bhgp2rcd13ifvqfd0","pricing_plan_id":"cebpf4jnsgd1na2vs0mg"},{"bike_id":"c023bde9-ffda-4fe0-b15d-b0ad0e628af2","system_id":"levelo_inurba_marseille","lat":43.25511,"lon":5.37645,"is_reserved":false,"is_disabled":false,"rental_uris":{"android":"levelo://app?vid=c023bde9-ffda-4fe0-b15d-b0ad0e628af2","ios":"levelo://app?vid=c023bde9-ffda-4fe0-b15d-b0ad0e628af2"},"vehicle_type_id":"4","last_reported":1735996420,"current_range_meters":34800,"station_id":"ce4bhh12rcd13ifvqff0","pricing_plan_id":"cebpf4jnsgd1na2vs0mg"},{"bike_id":"68ef66f0-dd96-424a-ba29-3c004929578e","system_id":"levelo_inurba_marseille","lat":43.23179,"lon":5.39993,"is_reserved":false,"is_disabled":false,"rental_uris":{"android":"levelo://app?vid=68ef66f0-dd96-424a-ba29-3c004929578e","ios":"levelo://app?vid=68ef66f0-dd96-424a-ba29-3c004929578e"},"vehicle_type_id":"4","last_reported":1735996420,"current_range_meters":39200,"station_id":"ce4bhn12rcd13ifvqgqg","pricing_plan_id":"cebpf4jnsgd1na2vs0mg"},{"bike_id":"266b391b-9978-4801-ac47-0bd5ed16b604","system_id":"levelo_inurba_marseille","lat":43.30129,"lon":5.37421,"is_reserved":false,"is_disabled":false,"rental_uris":{"android":"levelo://app?vid=266b391b-9978-4801-ac47-0bd5ed16b604","ios":"levelo://app?vid=266b391b-9978-4801-ac47-0bd5ed16b604"},"vehicle_type_id":"4","last_reported":1735996420,"current_range_meters":38800,"station_id":"ce4bgs92rcd13ifvqcc0","pricing_plan_id":"cebpf4jnsgd1na2vs0mg"},{"bike_id":"eae11c21-0e68-4841-b456-38f5bd6f851c","system_id":"levelo_inurba_marseille","lat":43.26797,"lon":5.39417,"is_reserved":false,"is_disabled":false,"rental_uris":{"android":"levelo://app?vid=eae11c21-0e68-4841-b456-38f5bd6f851c","ios":"levelo://app?vid=eae11c21-0e68-4841-b456-38f5bd6f851c"},"vehicle_type_id":"4","last_reported":1735996420,"current_range_meters":14000,"station_id":"ce4bhh12rcd13ifvqfg0","pricing_plan_id":"cebpf4jnsgd1na2vs0mg"},{"bike_id":"270f72ca-6ff0-4006-b955-8701cfe72efd","system_id":"levelo_inurba_marseille","lat":43.29252,"lon":5.40124,"is_reserved":false,"is_disabled":true,"rental_uris":{"android":"levelo://app?vid=270f72ca-6ff0-4006-b955-8701cfe72efd","ios":"levelo://app?vid=270f72ca-6ff0-4006-b955-8701cfe72efd"},"vehicle_type_id":"4","last_reported":1735996420,"current_range_meters":6800,"station_id":"ce4bh312rcd13ifvqdk0","pricing_plan_id":"cebpf4jnsgd1na2vs0mg"},{"bike_id":"8b82a2a6-a12b-4bcf-bcb4-910b83eb8036","system_id":"levelo_inurba_marseille","lat":43.31328,"lon":5.39694,"is_reserved":false,"is_disabled":false,"rental_uris":{"android":"levelo://app?vid=8b82a2a6-a12b-4bcf-bcb4-910b83eb8036","ios":"levelo://app?vid=8b82a2a6-a12b-4bcf-bcb4-910b83eb8036"},"vehicle_type_id":"4","last_reported":1735996420,"current_range_meters":30400,"station_id":"ce4bgvp2rcd13ifvqcu0","pricing_plan_id":"cebpf4jnsgd1na2vs0mg"},{"bike_id":"16ef519c-c129-4a25-869c-377cd2829023","system_id":"levelo_inurba_marseille","lat":43.319928,"lon":5.381448,"is_reserved":false,"is_disabled":false,"rental_uris":{"android":"levelo://app?vid=16ef519c-c129-4a25-869c-377cd2829023","ios":"levelo://app?vid=16ef519c-c129-4a25-869c-377cd2829023"},"vehicle_type_id":"4","last_reported":1735996420,"current_range_meters":24400,"station_id":"ce4bhr12rcd13ifvqhpg","pricing_plan_id":"cebpf4jnsgd1na2vs0mg"},{"bike_id":"40585e89-8480-4511-a157-1e8766e5bf28","system_id":"levelo_inurba_marseille","lat":43.26208,"lon":5.37444,"is_reserved":false,"is_disabled":false,"rental_uris":{"android":"levelo://app?vid=40585e89-8480-4511-a157-1e8766e5bf28","ios":"levelo://app?vid=40585e89-8480-4511-a157-1e8766e5bf28"},"vehicle_type_id":"4","last_reported":1735996420,"current_range_meters":29600,"station_id":"ce4bhgp2rcd13ifvqfc0","pricing_plan_id":"cebpf4jnsgd1na2vs0mg"},{"bike_id":"dcbbbac4-6615-48d1-aecd-87a0c7ad19b6","system_id":"levelo_inurba_marseille","lat":43.32465,"lon":5.36537,"is_reserved":false,"is_disabled":false,"rental_uris":{"android":"levelo://app?vid=dcbbbac4-6615-48d1-aecd-87a0c7ad19b6","ios":"levelo://app?vid=dcbbbac4-6615-48d1-aecd-87a0c7ad19b6"},"vehicle_type_id":"4","last_reported":1735996420,"current_range_meters":39200,"station_id":"ce4bhs12rcd13ifvqhvg","pricing_plan_id":"cebpf4jnsgd1na2vs0mg"},{"bike_id":"b5de95e0-8f34-41aa-a5fc-c4e76e03a994","system_id":"levelo_inurba_marseille","lat":43.28099,"lon":5.39662,"is_reserved":false,"is_disabled":true,"rental_uris":{"android":"levelo://app?vid=b5de95e0-8f34-41aa-a5fc-c4e76e03a994","ios":"levelo://app?vid=b5de95e0-8f34-41aa-a5fc-c4e76e03a994"},"vehicle_type_id":"4","last_reported":1735996420,"current_range_meters":36000,"station_id":"ce4bho12rcd13ifvqh2g","pricing_plan_id":"cebpf4jnsgd1na2vs0mg"},{"bike_id":"aa33a53e-f806-43a8-ad7e-8e2bd9644426","system_id":"levelo_inurba_marseille","lat":43.32345,"lon":5.40625,"is_reserved":false,"is_disabled":true,"rental_uris":{"android":"levelo://app?vid=aa33a53e-f806-43a8-ad7e-8e2bd9644426","ios":"levelo://app?vid=aa33a53e-f806-43a8-ad7e-8e2bd9644426"},"vehicle_type_id":"4","last_reported":1735996420,"current_range_meters":400,"station_id":"ce4bhq92rcd13ifvqhjg","pricing_plan_id":"cebpf4jnsgd1na2vs0mg"},{"bike_id":"b9dc4ae5-8ee5-4a0e-8a96-a2e835ae7769","system_id":"levelo_inurba_marseille","lat":43.24383,"lon":5.37059,"is_reserved":false,"is_disabled":false,"rental_uris":{"android":"levelo://app?vid=b9dc4ae5-8ee5-4a0e-8a96-a2e835ae7769","ios":"levelo://app?vid=b9dc4ae5-8ee5-4a0e-8a96-a2e835ae7769"},"vehicle_type_id":"4","last_reported":1735996420,"current_range_meters":17600,"station_id":"ce4bhhh2rcd13ifvqfk0","pricing_plan_id":"cebpf4jnsgd1na2vs0mg"},{"bike_id":"a1beec46-84dd-45c7-8796-e5eec84786db","system_id":"levelo_inurba_marseille","lat":43.29523,"lon":5.39044,"is_reserved":false,"is_disabled":false,"rental_uris":{"android":"levelo://app?vid=a1beec46-84dd-45c7-8796-e5eec84786db","ios":"levelo://app?vid=a1beec46-84dd-45c7-8796-e5eec84786db"},"vehicle_type_id":"4","last_reported":1735996420,"current_range_meters":33200,"station_id":"ce4bh3p2rcd13ifvqdp0","pricing_plan_id":"cebpf4jnsgd1na2vs0mg"},{"bike_id":"4e2e926a-cc62-4529-8b24-3abbcf0f0be2","system_id":"levelo_inurba_marseille","lat":43.23199,"lon":5.35552,"is_reserved":false,"is_disabled":false,"rental_uris":{"android":"levelo://app?vid=4e2e926a-cc62-4529-8b24-3abbcf0f0be2","ios":"levelo://app?vid=4e2e926a-cc62-4529-8b24-3abbcf0f0be2"},"vehicle_type_id":"4","last_reported":1735996420,"current_range_meters":28400,"station_id":"ce4bhu92rcd13ifvqi70","pricing_plan_id":"cebpf4jnsgd1na2vs0mg"},{"bike_id":"850b95e6-12d0-4732-b733-07be326ac3bd","system_id":"levelo_inurba_marseille","lat":43.29647,"lon":5.40605,"is_reserved":false,"is_disabled":false,"rental_uris":{"android":"levelo://app?vid=850b95e6-12d0-4732-b733-07be326ac3bd","ios":"levelo://app?vid=850b95e6-12d0-4732-b733-07be326ac3bd"},"vehicle_type_id":"4","last_reported":1735996420,"current_range_meters":39200,"station_id":"ce4bh0h2rcd13ifvqd60","pricing_plan_id":"cebpf4jnsgd1na2vs0mg"},{"bike_id":"a5e75efe-b721-47e3-9066-a4728b10322a","system_id":"levelo_inurba_marseille","lat":43.29918,"lon":5.36516,"is_reserved":false,"is_disabled":false,"rental_uris":{"android":"levelo://app?vid=a5e75efe-b721-47e3-9066-a4728b10322a","ios":"levelo://app?vid=a5e75efe-b721-47e3-9066-a4728b10322a"},"vehicle_type_id":"4","last_reported":1735996420,"current_range_meters":36000,"station_id":"ce4bgm92rcd13ifvqbr0","pricing_plan_id":"cebpf4jnsgd1na2vs0mg"},{"bike_id":"5e584ae4-fb04-4605-b8fd-532b0218e039","system_id":"levelo_inurba_marseille","lat":43.33603,"lon":5.41032,"is_reserved":false,"is_disabled":false,"rental_uris":{"android":"levelo://app?vid=5e584ae4-fb04-4605-b8fd-532b0218e039","ios":"levelo://app?vid=5e584ae4-fb04-4605-b8fd-532b0218e039"},"vehicle_type_id":"4","last_reported":1735996420,"current_range_meters":14800,"station_id":"ce4bhqh2rcd13ifvqhmg","pricing_plan_id":"cebpf4jnsgd1na2vs0mg"},{"bike_id":"e14fc727-e110-4847-a3c5-e82ea6a6fcb8","system_id":"levelo_inurba_marseille","lat":43.28934,"lon":5.39642,"is_reserved":false,"is_disabled":true,"rental_uris":{"android":"levelo://app?vid=e14fc727-e110-4847-a3c5-e82ea6a6fcb8","ios":"levelo://app?vid=e14fc727-e110-4847-a3c5-e82ea6a6fcb8"},"vehicle_type_id":"4","last_reported":1735996420,"current_range_meters":38800,"station_id":"ce4bh3h2rcd13ifvqdn0","pricing_plan_id":"cebpf4jnsgd1na2vs0mg"},{"bike_id":"15522665-131b-4da3-b344-2c01d1e40adb","system_id":"levelo_inurba_marseille","lat":43.262,"lon":5.37925,"is_reserved":false,"is_disabled":false,"rental_uris":{"android":"levelo://app?vid=15522665-131b-4da3-b344-2c01d1e40adb","ios":"levelo://app?vid=15522665-131b-4da3-b344-2c01d1e40adb"},"vehicle_type_id":"4","last_reported":1735996420,"current_range_meters":20400,"station_id":"ce4bhjp2rcd13ifvqg90","pricing_plan_id":"cebpf4jnsgd1na2vs0mg"},{"bike_id":"77cf10df-8d3e-4740-bb0d-cc701d5ed79f","system_id":"levelo_inurba_marseille","lat":43.3054,"lon":5.36529,"is_reserved":false,"is_disabled":false,"rental_uris":{"android":"levelo://app?vid=77cf10df-8d3e-4740-bb0d-cc701d5ed79f","ios":"levelo://app?vid=77cf10df-8d3e-4740-bb0d-cc701d5ed79f"},"vehicle_type_id":"4","last_reported":1735996420,"current_range_meters":38800,"station_id":"ce4bgs12rcd13ifvqcag","pricing_plan_id":"cebpf4jnsgd1na2vs0mg"},{"bike_id":"f4ba9850-ad59-4e64-85be-faa1e88890c0","system_id":"levelo_inurba_marseille","lat":43.29803,"lon":5.38104,"is_reserved":false,"is_disabled":false,"rental_uris":{"android":"levelo://app?vid=f4ba9850-ad59-4e64-85be-faa1e88890c0","ios":"levelo://app?vid=f4ba9850-ad59-4e64-85be-faa1e88890c0"},"vehicle_type_id":"4","last_reported":1735996420,"current_range_meters":39200,"station_id":"ce4bgip2rcd13ifvqbb0","pricing_plan_id":"cebpf4jnsgd1na2vs0mg"},{"bike_id":"84e50acd-39e7-4784-817a-f262db7ec074","system_id":"levelo_inurba_marseille","lat":43.28708,"lon":5.39992,"is_reserved":false,"is_disabled":false,"rental_uris":{"android":"levelo://app?vid=84e50acd-39e7-4784-817a-f262db7ec074","ios":"levelo://app?vid=84e50acd-39e7-4784-817a-f262db7ec074"},"vehicle_type_id":"4","last_reported":1735996420,"current_range_meters":12400,"station_id":"ce4bho92rcd13ifvqh3g","pricing_plan_id":"cebpf4jnsgd1na2vs0mg"},{"bike_id":"223a4990-4e05-4395-8830-aea2c89ecd7a","system_id":"levelo_inurba_marseille","lat":43.2903,"lon":5.38637,"is_reserved":false,"is_disabled":true,"rental_uris":{"android":"levelo://app?vid=223a4990-4e05-4395-8830-aea2c89ecd7a","ios":"levelo://app?vid=223a4990-4e05-4395-8830-aea2c89ecd7a"},"vehicle_type_id":"4","last_reported":1735996420,"current_range_meters":33600,"station_id":"ce4bh4p2rcd13ifvqe0g","pricing_plan_id":"cebpf4jnsgd1na2vs0mg"},{"bike_id":"debba70b-db29-4acb-8a1d-9313279b2a98","system_id":"levelo_inurba_marseille","lat":43.29191,"lon":5.35803,"is_reserved":false,"is_disabled":false,"rental_uris":{"android":"levelo://app?vid=debba70b-db29-4acb-8a1d-9313279b2a98","ios":"levelo://app?vid=debba70b-db29-4acb-8a1d-9313279b2a98"},"vehicle_type_id":"4","last_reported":1735996420,"current_range_meters":8000,"station_id":"ce4bhb12rcd13ifvqel0","pricing_plan_id":"cebpf4jnsgd1na2vs0mg"},{"bike_id":"d9676b1a-df49-429f-b317-1de61bb96597","system_id":"levelo_inurba_marseille","lat":43.28619,"lon":5.35098,"is_reserved":false,"is_disabled":false,"rental_uris":{"android":"levelo://app?vid=d9676b1a-df49-429f-b317-1de61bb96597","ios":"levelo://app?vid=d9676b1a-df49-429f-b317-1de61bb96597"},"vehicle_type_id":"4","last_reported":1735996420,"current_range_meters":30400,"station_id":"ce4bhch2rcd13ifvqeug","pricing_plan_id":"cebpf4jnsgd1na2vs0mg"},{"bike_id":"e40b8873-a7cf-4e56-b106-d515344f64c4","system_id":"levelo_inurba_marseille","lat":43.23192,"lon":5.3558,"is_reserved":false,"is_disabled":false,"rental_uris":{"android":"levelo://app?vid=e40b8873-a7cf-4e56-b106-d515344f64c4","ios":"levelo://app?vid=e40b8873-a7cf-4e56-b106-d515344f64c4"},"vehicle_type_id":"4","last_reported":1735996420,"current_range_meters":38800,"station_id":"ce4bhu92rcd13ifvqi70","pricing_plan_id":"cebpf4jnsgd1na2vs0mg"},{"bike_id":"bbf998ea-d252-4590-8711-16d78ff4b07c","system_id":"levelo_inurba_marseille","lat":43.24644,"lon":5.38898,"is_reserved":false,"is_disabled":false,"rental_uris":{"android":"levelo://app?vid=bbf998ea-d252-4590-8711-16d78ff4b07c","ios":"levelo://app?vid=bbf998ea-d252-4590-8711-16d78ff4b07c"},"vehicle_type_id":"4","last_reported":1735996420,"current_range_meters":38000,"station_id":"ce4bhg12rcd13ifvqf60","pricing_plan_id":"cebpf4jnsgd1na2vs0mg"},{"bike_id":"389bdb1e-ea49-4895-badb-508b5f5844e3","system_id":"levelo_inurba_marseille","lat":43.3015,"lon":5.38101,"is_reserved":false,"is_disabled":false,"rental_uris":{"android":"levelo://app?vid=389bdb1e-ea49-4895-badb-508b5f5844e3","ios":"levelo://app?vid=389bdb1e-ea49-4895-badb-508b5f5844e3"},"vehicle_type_id":"4","last_reported":1735996420,"current_range_meters":38400,"station_id":"ce4bgjp2rcd13ifvqbh0","pricing_plan_id":"cebpf4jnsgd1na2vs0mg"},{"bike_id":"c76f010e-8b23-4840-a7a5-a9a5d3648fa3","system_id":"levelo_inurba_marseille","lat":43.30879,"lon":5.37208,"is_reserved":false,"is_disabled":true,"rental_uris":{"android":"levelo://app?vid=c76f010e-8b23-4840-a7a5-a9a5d3648fa3","ios":"levelo://app?vid=c76f010e-8b23-4840-a7a5-a9a5d3648fa3"},"vehicle_type_id":"4","last_reported":1735996420,"current_range_meters":8400,"station_id":"ce4bguh2rcd13ifvqckg","pricing_plan_id":"cebpf4jnsgd1na2vs0mg"},{"bike_id":"6f21fba1-6f8e-47c4-a476-286cca5f9cc6","system_id":"levelo_inurba_marseille","lat":43.28269,"lon":5.35071,"is_reserved":false,"is_disabled":true,"rental_uris":{"android":"levelo://app?vid=6f21fba1-6f8e-47c4-a476-286cca5f9cc6","ios":"levelo://app?vid=6f21fba1-6f8e-47c4-a476-286cca5f9cc6"},"vehicle_type_id":"4","last_reported":1735996420,"current_range_meters":3200,"station_id":"ce4bhbp2rcd13ifvqerg","pricing_plan_id":"cebpf4jnsgd1na2vs0mg"},{"bike_id":"09e64385-2ecb-4bb9-b546-a98347585cb3","system_id":"levelo_inurba_marseille","lat":43.30591,"lon":5.37211,"is_reserved":false,"is_disabled":false,"rental_uris":{"android":"levelo://app?vid=09e64385-2ecb-4bb9-b546-a98347585cb3","ios":"levelo://app?vid=09e64385-2ecb-4bb9-b546-a98347585cb3"},"vehicle_type_id":"4","last_reported":1735996420,"current_range_meters":39200,"station_id":"ce4bgqh2rcd13ifvqc4g","pricing_plan_id":"cebpf4jnsgd1na2vs0mg"},{"bike_id":"0551a54c-86ed-4446-876c-1d05de92f21f","system_id":"levelo_inurba_marseille","lat":43.33729,"lon":5.37414,"is_reserved":false,"is_disabled":false,"rental_uris":{"android":"levelo://app?vid=0551a54c-86ed-4446-876c-1d05de92f21f","ios":"levelo://app?vid=0551a54c-86ed-4446-876c-1d05de92f21f"},"vehicle_type_id":"4","last_reported":1735996420,"current_range_meters":34800,"station_id":"","pricing_plan_id":"cebpf4jnsgd1na2vs0mg"},{"bike_id":"8a2871f5-9447-484d-9926-098aa750c257","system_id":"levelo_inurba_marseille","lat":43.28394,"lon":5.37531,"is_reserved":false,"is_disabled":false,"rental_uris":{"android":"levelo://app?vid=8a2871f5-9447-484d-9926-098aa750c257","ios":"levelo://app?vid=8a2871f5-9447-484d-9926-098aa750c257"},"vehicle_type_id":"4","last_reported":1735996420,"current_range_meters":20400,"station_id":"ce4bh412rcd13ifvqds0","pricing_plan_id":"cebpf4jnsgd1na2vs0mg"},{"bike_id":"1c02ae40-e43c-4632-b75b-2df9308dc3fe","system_id":"levelo_inurba_marseille","lat":43.33784,"lon":5.3746,"is_reserved":false,"is_disabled":false,"rental_uris":{"android":"levelo://app?vid=1c02ae40-e43c-4632-b75b-2df9308dc3fe","ios":"levelo://app?vid=1c02ae40-e43c-4632-b75b-2df9308dc3fe"},"vehicle_type_id":"4","last_reported":1735996420,"current_range_meters":15200,"station_id":"","pricing_plan_id":"cebpf4jnsgd1na2vs0mg"},{"bike_id":"a6b7101f-e04b-40af-9e04-99a5baa621ab","system_id":"levelo_inurba_marseille","lat":43.29806,"lon":5.38082,"is_reserved":false,"is_disabled":false,"rental_uris":{"android":"levelo://app?vid=a6b7101f-e04b-40af-9e04-99a5baa621ab","ios":"levelo://app?vid=a6b7101f-e04b-40af-9e04-99a5baa621ab"},"vehicle_type_id":"4","last_reported":1735996420,"current_range_meters":39200,"station_id":"ce4bgip2rcd13ifvqbb0","pricing_plan_id":"cebpf4jnsgd1na2vs0mg"},{"bike_id":"c83acc39-efd1-43b4-be21-92eec644289f","system_id":"levelo_inurba_marseille","lat":43.2745,"lon":5.39399,"is_reserved":false,"is_disabled":false,"rental_uris":{"android":"levelo://app?vid=c83acc39-efd1-43b4-be21-92eec644289f","ios":"levelo://app?vid=c83acc39-efd1-43b4-be21-92eec644289f"},"vehicle_type_id":"4","last_reported":1735996420,"current_range_meters":36800,"station_id":"ce4bhdp2rcd13ifvqf20","pricing_plan_id":"cebpf4jnsgd1na2vs0mg"},{"bike_id":"e6464149-b68b-48d7-9417-ac28b0f59970","system_id":"levelo_inurba_marseille","lat":43.30131,"lon":5.37419,"is_reserved":false,"is_disabled":false,"rental_uris":{"android":"levelo://app?vid=e6464149-b68b-48d7-9417-ac28b0f59970","ios":"levelo://app?vid=e6464149-b68b-48d7-9417-ac28b0f59970"},"vehicle_type_id":"4","last_reported":1735996420,"current_range_meters":18800,"station_id":"ce4bgs92rcd13ifvqcc0","pricing_plan_id":"cebpf4jnsgd1na2vs0mg"},{"bike_id":"262b0d7a-b83b-40f1-bc54-810a9a289441","system_id":"levelo_inurba_marseille","lat":43.29194,"lon":5.35816,"is_reserved":false,"is_disabled":false,"rental_uris":{"android":"levelo://app?vid=262b0d7a-b83b-40f1-bc54-810a9a289441","ios":"levelo://app?vid=262b0d7a-b83b-40f1-bc54-810a9a289441"},"vehicle_type_id":"4","last_reported":1735996420,"current_range_meters":39200,"station_id":"ce4bhb12rcd13ifvqel0","pricing_plan_id":"cebpf4jnsgd1na2vs0mg"},{"bike_id":"85cba0a3-d6ec-4723-83bf-95316674cece","system_id":"levelo_inurba_marseille","lat":43.27552,"lon":5.38429,"is_reserved":false,"is_disabled":true,"rental_uris":{"android":"levelo://app?vid=85cba0a3-d6ec-4723-83bf-95316674cece","ios":"levelo://app?vid=85cba0a3-d6ec-4723-83bf-95316674cece"},"vehicle_type_id":"4","last_reported":1735996420,"current_range_meters":6400,"station_id":"ce4bhh92rcd13ifvqfi0","pricing_plan_id":"cebpf4jnsgd1na2vs0mg"},{"bike_id":"d5355d3d-6620-4d8e-801e-d620f116c682","system_id":"levelo_inurba_marseille","lat":43.23055,"lon":5.35497,"is_reserved":false,"is_disabled":false,"rental_uris":{"android":"levelo://app?vid=d5355d3d-6620-4d8e-801e-d620f116c682","ios":"levelo://app?vid=d5355d3d-6620-4d8e-801e-d620f116c682"},"vehicle_type_id":"4","last_reported":1735996420,"current_range_meters":19200,"station_id":"cpo3342slgdg3j2ifvpg","pricing_plan_id":"cebpf4jnsgd1na2vs0mg"},{"bike_id":"ad35291b-d7c6-4ad4-b02c-5969e2327226","system_id":"levelo_inurba_marseille","lat":43.2306,"lon":5.35493,"is_reserved":false,"is_disabled":false,"rental_uris":{"android":"levelo://app?vid=ad35291b-d7c6-4ad4-b02c-5969e2327226","ios":"levelo://app?vid=ad35291b-d7c6-4ad4-b02c-5969e2327226"},"vehicle_type_id":"4","last_reported":1735996420,"current_range_meters":20400,"station_id":"cpo3342slgdg3j2ifvpg","pricing_plan_id":"cebpf4jnsgd1na2vs0mg"},{"bike_id":"266d97a0-8b6a-4815-8e1e-a29e516886ab","system_id":"levelo_inurba_marseille","lat":43.32371,"lon":5.36762,"is_reserved":false,"is_disabled":false,"rental_uris":{"android":"levelo://app?vid=266d97a0-8b6a-4815-8e1e-a29e516886ab","ios":"levelo://app?vid=266d97a0-8b6a-4815-8e1e-a29e516886ab"},"vehicle_type_id":"4","last_reported":1735996420,"current_range_meters":36800,"station_id":"ce4bhsh2rcd13ifvqi2g","pricing_plan_id":"cebpf4jnsgd1na2vs0mg"},{"bike_id":"c0b78921-4f27-4b02-94ac-84aeb68ca5f0","system_id":"levelo_inurba_marseille","lat":43.2621,"lon":5.37444,"is_reserved":false,"is_disabled":false,"rental_uris":{"android":"levelo://app?vid=c0b78921-4f27-4b02-94ac-84aeb68ca5f0","ios":"levelo://app?vid=c0b78921-4f27-4b02-94ac-84aeb68ca5f0"},"vehicle_type_id":"4","last_reported":1735996420,"current_range_meters":32000,"station_id":"ce4bhgp2rcd13ifvqfc0","pricing_plan_id":"cebpf4jnsgd1na2vs0mg"},{"bike_id":"9106d3ff-fc86-4d68-9c8d-6412f9d842de","system_id":"levelo_inurba_marseille","lat":43.25496,"lon":5.37697,"is_reserved":false,"is_disabled":false,"rental_uris":{"android":"levelo://app?vid=9106d3ff-fc86-4d68-9c8d-6412f9d842de","ios":"levelo://app?vid=9106d3ff-fc86-4d68-9c8d-6412f9d842de"},"vehicle_type_id":"4","last_reported":1735996420,"current_range_meters":38800,"station_id":"ce4bhh12rcd13ifvqff0","pricing_plan_id":"cebpf4jnsgd1na2vs0mg"},{"bike_id":"63f0a3a1-eb88-45b1-a23a-b8808f049994","system_id":"levelo_inurba_marseille","lat":43.30164,"lon":5.38093,"is_reserved":false,"is_disabled":false,"rental_uris":{"android":"levelo://app?vid=63f0a3a1-eb88-45b1-a23a-b8808f049994","ios":"levelo://app?vid=63f0a3a1-eb88-45b1-a23a-b8808f049994"},"vehicle_type_id":"4","last_reported":1735996420,"current_range_meters":12800,"station_id":"ce4bgjp2rcd13ifvqbh0","pricing_plan_id":"cebpf4jnsgd1na2vs0mg"},{"bike_id":"ca8e58db-b6e8-4692-b85e-375da7a32dc2","system_id":"levelo_inurba_marseille","lat":43.29556,"lon":5.37497,"is_reserved":false,"is_disabled":false,"rental_uris":{"android":"levelo://app?vid=ca8e58db-b6e8-4692-b85e-375da7a32dc2","ios":"levelo://app?vid=ca8e58db-b6e8-4692-b85e-375da7a32dc2"},"vehicle_type_id":"4","last_reported":1735996420,"current_range_meters":38000,"station_id":"ce4bgh92rcd13ifvqb50","pricing_plan_id":"cebpf4jnsgd1na2vs0mg"},{"bike_id":"b4964721-27e8-4bed-95f3-5caa9102436e","system_id":"levelo_inurba_marseille","lat":43.29895,"lon":5.43664,"is_reserved":false,"is_disabled":false,"rental_uris":{"android":"levelo://app?vid=b4964721-27e8-4bed-95f3-5caa9102436e","ios":"levelo://app?vid=b4964721-27e8-4bed-95f3-5caa9102436e"},"vehicle_type_id":"4","last_reported":1735996420,"current_range_meters":33600,"station_id":"ce4bhpp2rcd13ifvqhfg","pricing_plan_id":"cebpf4jnsgd1na2vs0mg"},{"bike_id":"ebd980d5-1c46-4437-8d53-e77aaca60142","system_id":"levelo_inurba_marseille","lat":43.27815,"lon":5.4072,"is_reserved":false,"is_disabled":false,"rental_uris":{"android":"levelo://app?vid=ebd980d5-1c46-4437-8d53-e77aaca60142","ios":"levelo://app?vid=ebd980d5-1c46-4437-8d53-e77aaca60142"},"vehicle_type_id":"4","last_reported":1735996420,"current_range_meters":4000,"station_id":"ce4bhnh2rcd13ifvqgtg","pricing_plan_id":"cebpf4jnsgd1na2vs0mg"},{"bike_id":"48dab017-3f42-472f-871a-513ce2bb3aac","system_id":"levelo_inurba_marseille","lat":43.23154,"lon":5.43704,"is_reserved":false,"is_disabled":false,"rental_uris":{"android":"levelo://app?vid=48dab017-3f42-472f-871a-513ce2bb3aac","ios":"levelo://app?vid=48dab017-3f42-472f-871a-513ce2bb3aac"},"vehicle_type_id":"4","last_reported":1735996420,"current_range_meters":38800,"station_id":"ce4bhmp2rcd13ifvqgog","pricing_plan_id":"cebpf4jnsgd1na2vs0mg"},{"bike_id":"4933aa85-174f-4619-b884-90d047cff55f","system_id":"levelo_inurba_marseille","lat":43.28016,"lon":5.40025,"is_reserved":false,"is_disabled":false,"rental_uris":{"android":"levelo://app?vid=4933aa85-174f-4619-b884-90d047cff55f","ios":"levelo://app?vid=4933aa85-174f-4619-b884-90d047cff55f"},"vehicle_type_id":"4","last_reported":1735996420,"current_range_meters":28800,"station_id":"ce4bho92rcd13ifvqh4g","pricing_plan_id":"cebpf4jnsgd1na2vs0mg"},{"bike_id":"c419512d-089a-4e3a-8724-1b15f68ece37","system_id":"levelo_inurba_marseille","lat":43.29761,"lon":5.37091,"is_reserved":false,"is_disabled":false,"rental_uris":{"android":"levelo://app?vid=c419512d-089a-4e3a-8724-1b15f68ece37","ios":"levelo://app?vid=c419512d-089a-4e3a-8724-1b15f68ece37"},"vehicle_type_id":"4","last_reported":1735996420,"current_range_meters":39200,"station_id":"ce4bgop2rcd13ifvqc1g","pricing_plan_id":"cebpf4jnsgd1na2vs0mg"},{"bike_id":"d014f699-d84d-436b-b3bf-8c059d18ea89","system_id":"levelo_inurba_marseille","lat":43.22936,"lon":5.35385,"is_reserved":false,"is_disabled":false,"rental_uris":{"android":"levelo://app?vid=d014f699-d84d-436b-b3bf-8c059d18ea89","ios":"levelo://app?vid=d014f699-d84d-436b-b3bf-8c059d18ea89"},"vehicle_type_id":"4","last_reported":1735996420,"current_range_meters":22800,"station_id":"cpo3532slgdg3j2ikp40","pricing_plan_id":"cebpf4jnsgd1na2vs0mg"},{"bike_id":"ed220ff8-6336-4701-9cea-83bb43e779f8","system_id":"levelo_inurba_marseille","lat":43.30155,"lon":5.37425,"is_reserved":false,"is_disabled":false,"rental_uris":{"android":"levelo://app?vid=ed220ff8-6336-4701-9cea-83bb43e779f8","ios":"levelo://app?vid=ed220ff8-6336-4701-9cea-83bb43e779f8"},"vehicle_type_id":"4","last_reported":1735996420,"current_range_meters":39200,"station_id":"ce4bgs92rcd13ifvqcc0","pricing_plan_id":"cebpf4jnsgd1na2vs0mg"},{"bike_id":"7b35b2a8-3878-4ec8-b9c2-66dde2137aeb","system_id":"levelo_inurba_marseille","lat":43.25116,"lon":5.40317,"is_reserved":false,"is_disabled":false,"rental_uris":{"android":"levelo://app?vid=7b35b2a8-3878-4ec8-b9c2-66dde2137aeb","ios":"levelo://app?vid=7b35b2a8-3878-4ec8-b9c2-66dde2137aeb"},"vehicle_type_id":"4","last_reported":1735996420,"current_range_meters":19200,"station_id":"ce4bhlh2rcd13ifvqgig","pricing_plan_id":"cebpf4jnsgd1na2vs0mg"},{"bike_id":"6e3b5ef2-e422-4e08-a06f-b762de751b01","system_id":"levelo_inurba_marseille","lat":43.337444,"lon":5.374475,"is_reserved":false,"is_disabled":false,"rental_uris":{"android":"levelo://app?vid=6e3b5ef2-e422-4e08-a06f-b762de751b01","ios":"levelo://app?vid=6e3b5ef2-e422-4e08-a06f-b762de751b01"},"vehicle_type_id":"4","last_reported":1735996420,"current_range_meters":37600,"station_id":"ce4bh3p2rcd13ifvqdp0","pricing_plan_id":"cebpf4jnsgd1na2vs0mg"},{"bike_id":"c14d1989-a72f-4241-a582-39661d0bcfcf","system_id":"levelo_inurba_marseille","lat":43.23207,"lon":5.3557,"is_reserved":false,"is_disabled":false,"rental_uris":{"android":"levelo://app?vid=c14d1989-a72f-4241-a582-39661d0bcfcf","ios":"levelo://app?vid=c14d1989-a72f-4241-a582-39661d0bcfcf"},"vehicle_type_id":"4","last_reported":1735996420,"current_range_meters":38800,"station_id":"ce4bhu92rcd13ifvqi70","pricing_plan_id":"cebpf4jnsgd1na2vs0mg"},{"bike_id":"ef72cdb4-465d-4178-b952-49906f159c48","system_id":"levelo_inurba_marseille","lat":43.28141,"lon":5.42639,"is_reserved":false,"is_disabled":false,"rental_uris":{"android":"levelo://app?vid=ef72cdb4-465d-4178-b952-49906f159c48","ios":"levelo://app?vid=ef72cdb4-465d-4178-b952-49906f159c48"},"vehicle_type_id":"4","last_reported":1735996420,"current_range_meters":16400,"station_id":"ce4bhnh2rcd13ifvqgug","pricing_plan_id":"cebpf4jnsgd1na2vs0mg"},{"bike_id":"140e5586-d5e1-42aa-ae6a-327044094fda","system_id":"levelo_inurba_marseille","lat":43.33737,"lon":5.39207,"is_reserved":false,"is_disabled":false,"rental_uris":{"android":"levelo://app?vid=140e5586-d5e1-42aa-ae6a-327044094fda","ios":"levelo://app?vid=140e5586-d5e1-42aa-ae6a-327044094fda"},"vehicle_type_id":"4","last_reported":1735996420,"current_range_meters":38800,"station_id":"ce4bhr92rcd13ifvqhsg","pricing_plan_id":"cebpf4jnsgd1na2vs0mg"},{"bike_id":"a2fd8310-05b2-4353-a822-b449cc0178c4","system_id":"levelo_inurba_marseille","lat":43.25493,"lon":5.37656,"is_reserved":false,"is_disabled":false,"rental_uris":{"android":"levelo://app?vid=a2fd8310-05b2-4353-a822-b449cc0178c4","ios":"levelo://app?vid=a2fd8310-05b2-4353-a822-b449cc0178c4"},"vehicle_type_id":"4","last_reported":1735996420,"current_range_meters":7200,"station_id":"ce4bhh12rcd13ifvqff0","pricing_plan_id":"cebpf4jnsgd1na2vs0mg"},{"bike_id":"4bc33b47-a63c-4f25-a0fe-24c64b43deee","system_id":"levelo_inurba_marseille","lat":43.309209,"lon":5.368593,"is_reserved":false,"is_disabled":false,"rental_uris":{"android":"levelo://app?vid=4bc33b47-a63c-4f25-a0fe-24c64b43deee","ios":"levelo://app?vid=4bc33b47-a63c-4f25-a0fe-24c64b43deee"},"vehicle_type_id":"4","last_reported":1735996420,"current_range_meters":39200,"station_id":"ce4bgn92rcd13ifvqbvg","pricing_plan_id":"cebpf4jnsgd1na2vs0mg"},{"bike_id":"7bbed7be-28f4-4cc7-81bb-977c0d79552f","system_id":"levelo_inurba_marseille","lat":43.23062,"lon":5.35499,"is_reserved":false,"is_disabled":false,"rental_uris":{"android":"levelo://app?vid=7bbed7be-28f4-4cc7-81bb-977c0d79552f","ios":"levelo://app?vid=7bbed7be-28f4-4cc7-81bb-977c0d79552f"},"vehicle_type_id":"4","last_reported":1735996420,"current_range_meters":18000,"station_id":"cpo3342slgdg3j2ifvpg","pricing_plan_id":"cebpf4jnsgd1na2vs0mg"},{"bike_id":"e2233560-fb3a-4a9b-af59-d8a2e34abf16","system_id":"levelo_inurba_marseille","lat":43.29288,"lon":5.37437,"is_reserved":false,"is_disabled":false,"rental_uris":{"android":"levelo://app?vid=e2233560-fb3a-4a9b-af59-d8a2e34abf16","ios":"levelo://app?vid=e2233560-fb3a-4a9b-af59-d8a2e34abf16"},"vehicle_type_id":"4","last_reported":1735996420,"current_range_meters":38800,"station_id":"ce4bgi12rcd13ifvqb70","pricing_plan_id":"cebpf4jnsgd1na2vs0mg"},{"bike_id":"78e5852e-eb6c-4077-a653-d1c1899f54bd","system_id":"levelo_inurba_marseille","lat":43.27972,"lon":5.38702,"is_reserved":false,"is_disabled":false,"rental_uris":{"android":"levelo://app?vid=78e5852e-eb6c-4077-a653-d1c1899f54bd","ios":"levelo://app?vid=78e5852e-eb6c-4077-a653-d1c1899f54bd"},"vehicle_type_id":"4","last_reported":1735996420,"current_range_meters":38800,"station_id":"ce4bhg12rcd13ifvqf80","pricing_plan_id":"cebpf4jnsgd1na2vs0mg"},{"bike_id":"2bb35dbb-6b8f-4c69-9e3e-b28d7c30ca54","system_id":"levelo_inurba_marseille","lat":43.24394,"lon":5.37107,"is_reserved":false,"is_disabled":false,"rental_uris":{"android":"levelo://app?vid=2bb35dbb-6b8f-4c69-9e3e-b28d7c30ca54","ios":"levelo://app?vid=2bb35dbb-6b8f-4c69-9e3e-b28d7c30ca54"},"vehicle_type_id":"4","last_reported":1735996420,"current_range_meters":25600,"station_id":"ce4bhhh2rcd13ifvqfk0","pricing_plan_id":"cebpf4jnsgd1na2vs0mg"},{"bike_id":"c29f2178-f6c3-449c-a3c8-a6d81051291a","system_id":"levelo_inurba_marseille","lat":43.24999,"lon":5.38933,"is_reserved":false,"is_disabled":false,"rental_uris":{"android":"levelo://app?vid=c29f2178-f6c3-449c-a3c8-a6d81051291a","ios":"levelo://app?vid=c29f2178-f6c3-449c-a3c8-a6d81051291a"},"vehicle_type_id":"4","last_reported":1735996420,"current_range_meters":10800,"station_id":"ce4bhgp2rcd13ifvqfd0","pricing_plan_id":"cebpf4jnsgd1na2vs0mg"},{"bike_id":"b910d036-4f36-43f2-97ee-b97d117e01b7","system_id":"levelo_inurba_marseille","lat":43.29929,"lon":5.36562,"is_reserved":false,"is_disabled":false,"rental_uris":{"android":"levelo://app?vid=b910d036-4f36-43f2-97ee-b97d117e01b7","ios":"levelo://app?vid=b910d036-4f36-43f2-97ee-b97d117e01b7"},"vehicle_type_id":"4","last_reported":1735996420,"current_range_meters":28800,"station_id":"ce4bgm92rcd13ifvqbr0","pricing_plan_id":"cebpf4jnsgd1na2vs0mg"},{"bike_id":"f1d87bf5-3985-43c2-9fde-b818f1e41c2b","system_id":"levelo_inurba_marseille","lat":43.26045,"lon":5.37566,"is_reserved":false,"is_disabled":false,"rental_uris":{"android":"levelo://app?vid=f1d87bf5-3985-43c2-9fde-b818f1e41c2b","ios":"levelo://app?vid=f1d87bf5-3985-43c2-9fde-b818f1e41c2b"},"vehicle_type_id":"4","last_reported":1735996420,"current_range_meters":38800,"station_id":"ce4bhgh2rcd13ifvqfa0","pricing_plan_id":"cebpf4jnsgd1na2vs0mg"},{"bike_id":"52192e7c-15e3-40ac-a07e-3f0a57bd2f00","system_id":"levelo_inurba_marseille","lat":43.24996,"lon":5.38935,"is_reserved":false,"is_disabled":false,"rental_uris":{"android":"levelo://app?vid=52192e7c-15e3-40ac-a07e-3f0a57bd2f00","ios":"levelo://app?vid=52192e7c-15e3-40ac-a07e-3f0a57bd2f00"},"vehicle_type_id":"4","last_reported":1735996420,"current_range_meters":35600,"station_id":"ce4bhgp2rcd13ifvqfd0","pricing_plan_id":"cebpf4jnsgd1na2vs0mg"},{"bike_id":"19e64d61-594a-4f4f-8e1f-99a0cf29c1cf","system_id":"levelo_inurba_marseille","lat":43.30583,"lon":5.3935,"is_reserved":false,"is_disabled":false,"rental_uris":{"android":"levelo://app?vid=19e64d61-594a-4f4f-8e1f-99a0cf29c1cf","ios":"levelo://app?vid=19e64d61-594a-4f4f-8e1f-99a0cf29c1cf"},"vehicle_type_id":"4","last_reported":1735996420,"current_range_meters":9600,"station_id":"ce4bh0p2rcd13ifvqd80","pricing_plan_id":"cebpf4jnsgd1na2vs0mg"},{"bike_id":"72fb818d-6104-474f-9ad4-c7c0ee29d3b9","system_id":"levelo_inurba_marseille","lat":43.29567,"lon":5.3751,"is_reserved":false,"is_disabled":false,"rental_uris":{"android":"levelo://app?vid=72fb818d-6104-474f-9ad4-c7c0ee29d3b9","ios":"levelo://app?vid=72fb818d-6104-474f-9ad4-c7c0ee29d3b9"},"vehicle_type_id":"4","last_reported":1735996420,"current_range_meters":22000,"station_id":"ce4bgh92rcd13ifvqb50","pricing_plan_id":"cebpf4jnsgd1na2vs0mg"},{"bike_id":"aa8e5f9d-acf7-48fa-83a1-28e496381ebe","system_id":"levelo_inurba_marseille","lat":43.28398,"lon":5.37521,"is_reserved":false,"is_disabled":false,"rental_uris":{"android":"levelo://app?vid=aa8e5f9d-acf7-48fa-83a1-28e496381ebe","ios":"levelo://app?vid=aa8e5f9d-acf7-48fa-83a1-28e496381ebe"},"vehicle_type_id":"4","last_reported":1735996420,"current_range_meters":31200,"station_id":"ce4bh412rcd13ifvqds0","pricing_plan_id":"cebpf4jnsgd1na2vs0mg"},{"bike_id":"54cdfad9-fb97-4ed4-b18c-ee9c5a689655","system_id":"levelo_inurba_marseille","lat":43.29304,"lon":5.37434,"is_reserved":false,"is_disabled":false,"rental_uris":{"android":"levelo://app?vid=54cdfad9-fb97-4ed4-b18c-ee9c5a689655","ios":"levelo://app?vid=54cdfad9-fb97-4ed4-b18c-ee9c5a689655"},"vehicle_type_id":"4","last_reported":1735996420,"current_range_meters":23200,"station_id":"ce4bgi12rcd13ifvqb70","pricing_plan_id":"cebpf4jnsgd1na2vs0mg"},{"bike_id":"0da846be-cff0-45fd-927a-35db178c95b2","system_id":"levelo_inurba_marseille","lat":43.32018,"lon":5.41557,"is_reserved":false,"is_disabled":false,"rental_uris":{"android":"levelo://app?vid=0da846be-cff0-45fd-927a-35db178c95b2","ios":"levelo://app?vid=0da846be-cff0-45fd-927a-35db178c95b2"},"vehicle_type_id":"4","last_reported":1735996420,"current_range_meters":36000,"station_id":"ce4bhq92rcd13ifvqhkg","pricing_plan_id":"cebpf4jnsgd1na2vs0mg"},{"bike_id":"b5670096-b65d-4f07-b35d-eabc880a3a7c","system_id":"levelo_inurba_marseille","lat":43.24644,"lon":5.38899,"is_reserved":false,"is_disabled":false,"rental_uris":{"android":"levelo://app?vid=b5670096-b65d-4f07-b35d-eabc880a3a7c","ios":"levelo://app?vid=b5670096-b65d-4f07-b35d-eabc880a3a7c"},"vehicle_type_id":"4","last_reported":1735996420,"current_range_meters":11600,"station_id":"ce4bhg12rcd13ifvqf60","pricing_plan_id":"cebpf4jnsgd1na2vs0mg"},{"bike_id":"14d94d77-d6b9-46f7-af1a-f06b38a0539a","system_id":"levelo_inurba_marseille","lat":43.26558,"lon":5.3901,"is_reserved":false,"is_disabled":false,"rental_uris":{"android":"levelo://app?vid=14d94d77-d6b9-46f7-af1a-f06b38a0539a","ios":"levelo://app?vid=14d94d77-d6b9-46f7-af1a-f06b38a0539a"},"vehicle_type_id":"4","last_reported":1735996420,"current_range_meters":22800,"station_id":"ce4bhe12rcd13ifvqf30","pricing_plan_id":"cebpf4jnsgd1na2vs0mg"},{"bike_id":"f94b7bd2-f6c9-40e1-aed0-fa17d1493a86","system_id":"levelo_inurba_marseille","lat":43.28412,"lon":5.37526,"is_reserved":false,"is_disabled":false,"rental_uris":{"android":"levelo://app?vid=f94b7bd2-f6c9-40e1-aed0-fa17d1493a86","ios":"levelo://app?vid=f94b7bd2-f6c9-40e1-aed0-fa17d1493a86"},"vehicle_type_id":"4","last_reported":1735996420,"current_range_meters":38400,"station_id":"ce4bh412rcd13ifvqds0","pricing_plan_id":"cebpf4jnsgd1na2vs0mg"},{"bike_id":"a3568aab-1d34-4bdf-8c0c-ec81886f6177","system_id":"levelo_inurba_marseille","lat":43.33752,"lon":5.37413,"is_reserved":false,"is_disabled":true,"rental_uris":{"android":"levelo://app?vid=a3568aab-1d34-4bdf-8c0c-ec81886f6177","ios":"levelo://app?vid=a3568aab-1d34-4bdf-8c0c-ec81886f6177"},"vehicle_type_id":"4","last_reported":1735996420,"current_range_meters":14800,"station_id":"","pricing_plan_id":"cebpf4jnsgd1na2vs0mg"},{"bike_id":"32e5156a-5826-4ab4-83b1-e6619161b1c8","system_id":"levelo_inurba_marseille","lat":43.337444,"lon":5.374475,"is_reserved":false,"is_disabled":true,"rental_uris":{"android":"levelo://app?vid=32e5156a-5826-4ab4-83b1-e6619161b1c8","ios":"levelo://app?vid=32e5156a-5826-4ab4-83b1-e6619161b1c8"},"vehicle_type_id":"4","last_reported":1735996420,"current_range_meters":24800,"station_id":"","pricing_plan_id":"cebpf4jnsgd1na2vs0mg"},{"bike_id":"5d6b64e1-40bd-4161-bb28-e201e3844c1e","system_id":"levelo_inurba_marseille","lat":43.28483,"lon":5.39194,"is_reserved":false,"is_disabled":false,"rental_uris":{"android":"levelo://app?vid=5d6b64e1-40bd-4161-bb28-e201e3844c1e","ios":"levelo://app?vid=5d6b64e1-40bd-4161-bb28-e201e3844c1e"},"vehicle_type_id":"4","last_reported":1735996420,"current_range_meters":38800,"station_id":"ce4bhoh2rcd13ifvqh5g","pricing_plan_id":"cebpf4jnsgd1na2vs0mg"},