{"last_updated":1717538892,"ttl":30,"version":"2.2","data":{"bikes":[{"bike_id":"12dab067-2da1-4141-9db8-ea6a86beb111","system_id":"levelo_inurba_marseille","lat":43.31341,"lon":5.367098,"is_reserved":false,"is_disabled":false,"rental_uris":{"android":"levelo://app?vid=12dab067-2da1-4141-9db8-ea6a86beb111","ios":"levelo://app?vid=12dab067-2da1-4141-9db8-ea6a86beb111"},"vehicle_type_id":"4","last_reported":1717538892,"current_range_meters":6400,"station_id":"ce4bgr92rcd13ifvqc6g","pricing_plan_id":"cebpf4jnsgd1na2vs0mg"},{"bike_id":"8505eafe-8e99-447f-8421-7260ef0a26e1","system_id":"levelo_inurba_marseille","lat":43.314811,"lon":5.373104,"is_reserved":false,"is_disabled":false,"rental_uris":{"android":"levelo://app?vid=8505eafe-8e99-447f-8421-7260ef0a26e1","ios":"levelo://app?vid=8505eafe-8e99-447f-8421-7260ef0a26e1"},"vehicle_type_id":"4","last_reported":1717538892,"current_range_meters":6000,"station_id":"ce4bgt12rcd13ifvqcd0","pricing_plan_id":"cebpf4jnsgd1na2vs0mg"},{"bike_id":"69c9d741-8a8a-4b9f-acc3-c51539a6dd77","system_id":"levelo_inurba_marseille","lat":43.314811,"lon":5.373104,"is_reserved":false,"is_disabled":false,"rental_uris":{"android":"levelo://app?vid=69c9d741-8a8a-4b9f-acc3-c51539a6dd77","ios":"levelo://app?vid=69c9d741-8a8a-4b9f-acc3-c51539a6dd77"},"vehicle_type_id":"4","last_reported":1717538892,"current_range_meters":2400,"station_id":"ce4bgt12rcd13ifvqcd0","pricing_plan_id":"cebpf4jnsgd1na2vs0mg"},{"bike_id":"0bb14ad3-0d70-4914-a9ce-2bc77db5fd6b","system_id":"levelo_inurba_marseille","lat":43.31496,"lon":5.37311,"is_reserved":false,"is_disabled":false,"rental_uris":{"android":"levelo://app?vid=0bb14ad3-0d70-4914-a9ce-2bc77db5fd6b","ios":"levelo://app?vid=0bb14ad3-0d70-4914-a9ce-2bc77db5fd6b"},"vehicle_type_id":"4","last_reported":1717538892,"current_range_meters":0,"station_id":"ce4bgt12rcd13ifvqcd0","pricing_plan_id":"cebpf4jnsgd1na2vs0mg"},{"bike_id":"ce1c14e1-38b3-4640-947f-8d25b35b4f4a","system_id":"levelo_inurba_marseille","lat":43.309039,"lon":5.371797,"is_reserved":false,"is_disabled":false,"rental_uris":{"android":"levelo://app?vid=ce1c14e1-38b3-4640-947f-8d25b35b4f4a","ios":"levelo://app?vid=ce1c14e1-38b3-4640-947f-8d25b35b4f4a"},"vehicle_type_id":"4","last_reported":1717538892,"current_range_meters":6000,"station_id":"ce4bguh2rcd13ifvqckg","pricing_plan_id":"cebpf4jnsgd1na2vs0mg"},{"bike_id":"ea7c724d-7f9e-476f-add9-f7b08780e3be","system_id":"levelo_inurba_marseille","lat":43.309039,"lon":5.371797,"is_reserved":false,"is_disabled":false,"rental_uris":{"android":"levelo://app?vid=ea7c724d-7f9e-476f-add9-f7b08780e3be","ios":"levelo://app?vid=ea7c724d-7f9e-476f-add9-f7b08780e3be"},"vehicle_type_id":"4","last_reported":1717538892,"current_range_meters":3200,"station_id":"ce4bguh2rcd13ifvqckg","pricing_plan_id":"cebpf4jnsgd1na2vs0mg"},{"bike_id":"42f72df4-22f7-4490-8716-ac2dad97f9c2","system_id":"levelo_inurba_marseille","lat":43.309039,"lon":5.371797,"is_reserved":false,"is_disabled":false,"rental_uris":{"android":"levelo://app?vid=42f72df4-22f7-4490-8716-ac2dad97f9c2","ios":"levelo://app?vid=42f72df4-22f7-4490-8716-ac2dad97f9c2"},"vehicle_type_id":"4","last_reported":1717538892,"current_range_meters":7600,"station_id":"ce4bguh2rcd13ifvqckg","pricing_plan_id":"cebpf4jnsgd1na2vs0mg"},{"bike_id":"fc9b4fe2-31d6-4741-a5b6-c99925fd61cc","system_id":"levelo_inurba_marseille","lat":43.309039,"lon":5.371797,"is_reserved":false,"is_disabled":false,"rental_uris":{"android":"levelo://app?vid=fc9b4fe2-31d6-4741-a5b6-c99925fd61cc","ios":"levelo://app?vid=fc9b4fe2-31d6-4741-a5b6-c99925fd61cc"},"vehicle_type_id":"4","last_reported":1717538892,"current_range_meters":11200,"station_id":"ce4bguh2rcd13ifvqckg","pricing_plan_id":"cebpf4jnsgd1na2vs0mg"},{"bike_id":"277fbd8e-64ea-49d0-9425-e5557e6e366b","system_id":"levelo_inurba_marseille","lat":43.309034,"lon":5.371783,"is_reserved":false,"is_disabled":false,"rental_uris":{"android":"levelo://app?vid=277fbd8e-64ea-49d0-9425-e5557e6e366b","ios":"levelo://app?vid=277fbd8e-64ea-49d0-9425-e5557e6e366b"},"vehicle_type_id":"4","last_reported":1717538892,"current_range_meters":4800,"station_id":"ce4bguh2rcd13ifvqckg","pricing_plan_id":"cebpf4jnsgd1na2vs0mg"},{"bike_id":"23efc7ec-6b9c-451e-b905-18c5facc5b8e","system_id":"levelo_inurba_marseille","lat":43.309039,"lon":5.371797,"is_reserved":false,"is_disabled":false,"rental_uris":{"android":"levelo://app?vid=23efc7ec-6b9c-451e-b905-18c5facc5b8e","ios":"levelo://app?vid=23efc7ec-6b9c-451e-b905-18c5facc5b8e"},"vehicle_type_id":"4","last_reported":1717538892,"current_range_meters":27600,"station_id":"ce4bguh2rcd13ifvqckg","pricing_plan_id":"cebpf4jnsgd1na2vs0mg"},{"bike_id":"73450418-c13f-462d-8393-614020d7e7c3","system_id":"levelo_inurba_marseille","lat":43.305706,"lon":5.365654,"is_reserved":false,"is_disabled":false,"rental_uris":{"android":"levelo://app?vid=73450418-c13f-462d-8393-614020d7e7c3","ios":"levelo://app?vid=73450418-c13f-462d-8393-614020d7e7c3"},"vehicle_type_id":"4","last_reported":1717538892,"current_range_meters":19600,"station_id":"ce4bgs12rcd13ifvqcag","pricing_plan_id":"cebpf4jnsgd1na2vs0mg"},{"bike_id":"d0eec622-a5c4-4aa7-b10f-6d97856316bc","system_id":"levelo_inurba_marseille","lat":43.31153,"lon":5.37755,"is_reserved":false,"is_disabled":false,"rental_uris":{"android":"levelo://app?vid=d0eec622-a5c4-4aa7-b10f-6d97856316bc","ios":"levelo://app?vid=d0eec622-a5c4-4aa7-b10f-6d97856316bc"},"vehicle_type_id":"4","last_reported":1717538892,"current_range_meters":0,"station_id":"ce4bgt92rcd13ifvqcg0","pricing_plan_id":"cebpf4jnsgd1na2vs0mg"},{"bike_id":"efde3d50-fa7b-4190-be50-428ec4d0e52b","system_id":"levelo_inurba_marseille","lat":43.311125,"lon":5.377624,"is_reserved":false,"is_disabled":false,"rental_uris":{"android":"levelo://app?vid=efde3d50-fa7b-4190-be50-428ec4d0e52b","ios":"levelo://app?vid=efde3d50-fa7b-4190-be50-428ec4d0e52b"},"vehicle_type_id":"4","last_reported":1717538892,"current_range_meters":0,"station_id":"ce4bgt92rcd13ifvqcg0","pricing_plan_id":"cebpf4jnsgd1na2vs0mg"},{"bike_id":"f2552761-7bbe-451e-a0f7-7c582162645a","system_id":"levelo_inurba_marseille","lat":43.311125,"lon":5.377624,"is_reserved":false,"is_disabled":false,"rental_uris":{"android":"levelo://app?vid=f2552761-7bbe-451e-a0f7-7c582162645a","ios":"levelo://app?vid=f2552761-7bbe-451e-a0f7-7c582162645a"},"vehicle_type_id":"4","last_reported":1717538892,"current_range_meters":23600,"station_id":"ce4bgt92rcd13ifvqcg0","pricing_plan_id":"cebpf4jnsgd1na2vs0mg"},{"bike_id":"0ef91681-183f-41f5-a67f-2f170fc52aad","system_id":"levelo_inurba_marseille","lat":43.31122,"lon":5.3776,"is_reserved":false,"is_disabled":false,"rental_uris":{"android":"levelo://app?vid=0ef91681-183f-41f5-a67f-2f170fc52aad","ios":"levelo://app?vid=0ef91681-183f-41f5-a67f-2f170fc52aad"},"vehicle_type_id":"4","last_reported":1717538892,"current_range_meters":17200,"station_id":"ce4bgt92rcd13ifvqcg0","pricing_plan_id":"cebpf4jnsgd1na2vs0mg"},{"bike_id":"bad943a0-be2b-40ab-846e-100e301e6242","system_id":"levelo_inurba_marseille","lat":43.311125,"lon":5.377624,"is_reserved":false,"is_disabled":false,"rental_uris":{"android":"levelo://app?vid=bad943a0-be2b-40ab-846e-100e301e6242","ios":"levelo://app?vid=bad943a0-be2b-40ab-846e-100e301e6242"},"vehicle_type_id":"4","last_reported":1717538892,"current_range_meters":13200,"station_id":"ce4bgt92rcd13ifvqcg0","pricing_plan_id":"cebpf4jnsgd1na2vs0mg"},{"bike_id":"daa80987-9524-4768-8fe0-8d53bcddf43f","system_id":"levelo_inurba_marseille","lat":43.305989,"lon":5.37225,"is_reserved":false,"is_disabled":false,"rental_uris":{"android":"levelo://app?vid=daa80987-9524-4768-8fe0-8d53bcddf43f","ios":"levelo://app?vid=daa80987-9524-4768-8fe0-8d53bcddf43f"},"vehicle_type_id":"4","last_reported":1717538892,"current_range_meters":10000,"station_id":"ce4bgqh2rcd13ifvqc4g","pricing_plan_id":"cebpf4jnsgd1na2vs0mg"},{"bike_id":"679e4370-412d-45f8-91f4-adf36202a239","system_id":"levelo_inurba_marseille","lat":43.307945,"lon":5.376487,"is_reserved":false,"is_disabled":false,"rental_uris":{"android":"levelo://app?vid=679e4370-412d-45f8-91f4-adf36202a239","ios":"levelo://app?vid=679e4370-412d-45f8-91f4-adf36202a239"},"vehicle_type_id":"4","last_reported":1717538892,"current_range_meters":22400,"station_id":"ce4bgv92rcd13ifvqcq0","pricing_plan_id":"cebpf4jnsgd1na2vs0mg"},{"bike_id":"1093948e-8c1c-4c3b-8fcf-e965445030fe","system_id":"levelo_inurba_marseille","lat":43.307945,"lon":5.376487,"is_reserved":false,"is_disabled":false,"rental_uris":{"android":"levelo://app?vid=1093948e-8c1c-4c3b-8fcf-e965445030fe","ios":"levelo://app?vid=1093948e-8c1c-4c3b-8fcf-e965445030fe"},"vehicle_type_id":"4","last_reported":1717538892,"current_range_meters":16800,"station_id":"ce4bgv92rcd13ifvqcq0","pricing_plan_id":"cebpf4jnsgd1na2vs0mg"},{"bike_id":"a52bcbb3-ef9b-44fb-a0bd-b055b0631a3f","system_id":"levelo_inurba_marseille","lat":43.307945,"lon":5.376487,"is_reserved":false,"is_disabled":false,"rental_uris":{"android":"levelo://app?vid=a52bcbb3-ef9b-44fb-a0bd-b055b0631a3f","ios":"levelo://app?vid=a52bcbb3-ef9b-44fb-a0bd-b055b0631a3f"},"vehicle_type_id":"4","last_reported":1717538892,"current_range_meters":20000,"station_id":"ce4bgv92rcd13ifvqcq0","pricing_plan_id":"cebpf4jnsgd1na2vs0mg"},{"bike_id":"a7260bcf-17ae-4b0c-b0e4-d6fe99891a06","system_id":"levelo_inurba_marseille","lat":43.307945,"lon":5.376487,"is_reserved":false,"is_disabled":false,"rental_uris":{"android":"levelo://app?vid=a7260bcf-17ae-4b0c-b0e4-d6fe99891a06","ios":"levelo://app?vid=a7260bcf-17ae-4b0c-b0e4-d6fe99891a06"},"vehicle_type_id":"4","last_reported":1717538892,"current_range_meters":6400,"station_id":"ce4bgv92rcd13ifvqcq0","pricing_plan_id":"cebpf4jnsgd1na2vs0mg"},{"bike_id":"3ee6e546-79df-4ca6-ae1b-17cf5087be95","system_id":"levelo_inurba_marseille","lat":43.317075,"lon":5.377367,"is_reserved":false,"is_disabled":false,"rental_uris":{"android":"levelo://app?vid=3ee6e546-79df-4ca6-ae1b-17cf5087be95","ios":"levelo://app?vid=3ee6e546-79df-4ca6-ae1b-17cf5087be95"},"vehicle_type_id":"4","last_reported":1717538892,"current_range_meters":31200,"station_id":"ce4bgth2rcd13ifvqch0","pricing_plan_id":"cebpf4jnsgd1na2vs0mg"},{"bike_id":"3fe63276-bf6d-49c9-af26-6fb5734daf8f","system_id":"levelo_inurba_marseille","lat":43.30304,"lon":5.368987,"is_reserved":false,"is_disabled":false,"rental_uris":{"android":"levelo://app?vid=3fe63276-bf6d-49c9-af26-6fb5734daf8f","ios":"levelo://app?vid=3fe63276-bf6d-49c9-af26-6fb5734daf8f"},"vehicle_type_id":"4","last_reported":1717538892,"current_range_meters":31200,"station_id":"ce4bgqh2rcd13ifvqc5g","pricing_plan_id":"cebpf4jnsgd1na2vs0mg"},{"bike_id":"08809f29-0bf1-48d0-8036-de46975a6f22","system_id":"levelo_inurba_marseille","lat":43.3154,"lon":5.3802,"is_reserved":false,"is_disabled":false,"rental_uris":{"android":"levelo://app?vid=08809f29-0bf1-48d0-8036-de46975a6f22","ios":"levelo://app?vid=08809f29-0bf1-48d0-8036-de46975a6f22"},"vehicle_type_id":"4","last_reported":1717538892,"current_range_meters":0,"station_id":"ce4bhsp2rcd13ifvqi50","pricing_plan_id":"cebpf4jnsgd1na2vs0mg"},{"bike_id":"377f1e95-dc1f-43b4-af29-ddf0d841a6eb","system_id":"levelo_inurba_marseille","lat":43.315289,"lon":5.380349,"is_reserved":false,"is_disabled":false,"rental_uris":{"android":"levelo://app?vid=377f1e95-dc1f-43b4-af29-ddf0d841a6eb","ios":"levelo://app?vid=377f1e95-dc1f-43b4-af29-ddf0d841a6eb"},"vehicle_type_id":"4","last_reported":1717538892,"current_range_meters":18000,"station_id":"ce4bhsp2rcd13ifvqi50","pricing_plan_id":"cebpf4jnsgd1na2vs0mg"},{"bike_id":"5401ff84-06c4-4c94-b76e-411da2f5ffe9","system_id":"levelo_inurba_marseille","lat":43.322327,"lon":5.371251,"is_reserved":false,"is_disabled":false,"rental_uris":{"android":"levelo://app?vid=5401ff84-06c4-4c94-b76e-411da2f5ffe9","ios":"levelo://app?vid=5401ff84-06c4-4c94-b76e-411da2f5ffe9"},"vehicle_type_id":"4","last_reported":1717538892,"current_range_meters":10000,"station_id":"","pricing_plan_id":"cebpf4jnsgd1na2vs0mg"},{"bike_id":"3e6f7258-1559-4b98-a4fb-e078651044a1","system_id":"levelo_inurba_marseille","lat":43.315293,"lon":5.380349,"is_reserved":false,"is_disabled":false,"rental_uris":{"android":"levelo://app?vid=3e6f7258-1559-4b98-a4fb-e078651044a1","ios":"levelo://app?vid=3e6f7258-1559-4b98-a4fb-e078651044a1"},"vehicle_type_id":"4","last_reported":1717538892,"current_range_meters":2800,"station_id":"ce4bhsp2rcd13ifvqi50","pricing_plan_id":"cebpf4jnsgd1na2vs0mg"},{"bike_id":"2ff0a5b8-74b0-4598-b3dd-536f0b268e6a","system_id":"levelo_inurba_marseille","lat":43.301939,"lon":5.366286,"is_reserved":false,"is_disabled":false,"rental_uris":{"android":"levelo://app?vid=2ff0a5b8-74b0-4598-b3dd-536f0b268e6a","ios":"levelo://app?vid=2ff0a5b8-74b0-4598-b3dd-536f0b268e6a"},"vehicle_type_id":"4","last_reported":1717538892,"current_range_meters":4000,"station_id":"ce4bgrh2rcd13ifvqc8g","pricing_plan_id":"cebpf4jnsgd1na2vs0mg"},{"bike_id":"fa146755-3b6b-4933-8271-a43acd50d997","system_id":"levelo_inurba_marseille","lat":43.308012,"lon":5.381511,"is_reserved":false,"is_disabled":false,"rental_uris":{"android":"levelo://app?vid=fa146755-3b6b-4933-8271-a43acd50d997","ios":"levelo://app?vid=fa146755-3b6b-4933-8271-a43acd50d997"},"vehicle_type_id":"4","last_reported":1717538892,"current_range_meters":4400,"station_id":"ce4bgt12rcd13ifvqce0","pricing_plan_id":"cebpf4jnsgd1na2vs0mg"},{"bike_id":"de5153a4-5af6-4522-b317-dff19f06bfe8","system_id":"levelo_inurba_marseille","lat":43.308012,"lon":5.381511,"is_reserved":false,"is_disabled":false,"rental_uris":{"android":"levelo://app?vid=de5153a4-5af6-4522-b317-dff19f06bfe8","ios":"levelo://app?vid=de5153a4-5af6-4522-b317-dff19f06bfe8"},"vehicle_type_id":"4","last_reported":1717538892,"current_range_meters":29200,"station_id":"ce4bgt12rcd13ifvqce0","pricing_plan_id":"cebpf4jnsgd1na2vs0mg"},{"bike_id":"4b210674-f5c6-4a9c-b4fb-9c0d0111fa87","system_id":"levelo_inurba_marseille","lat":43.308012,"lon":5.381511,"is_reserved":false,"is_disabled":false,"rental_uris":{"android":"levelo://app?vid=4b210674-f5c6-4a9c-b4fb-9c0d0111fa87","ios":"levelo://app?vid=4b210674-f5c6-4a9c-b4fb-9c0d0111fa87"},"vehicle_type_id":"4","last_reported":1717538892,"current_range_meters":22400,"station_id":"ce4bgt12rcd13ifvqce0","pricing_plan_id":"cebpf4jnsgd1na2vs0mg"},{"bike_id":"8321ffb9-c481-4ae0-894c-5253101d4dd8","system_id":"levelo_inurba_marseille","lat":43.308012,"lon":5.381511,"is_reserved":false,"is_disabled":false,"rental_uris":{"android":"levelo://app?vid=8321ffb9-c481-4ae0-894c-5253101d4dd8","ios":"levelo://app?vid=8321ffb9-c481-4ae0-894c-5253101d4dd8"},"vehicle_type_id":"4","last_reported":1717538892,"current_range_meters":26400,"station_id":"ce4bgt12rcd13ifvqce0","pricing_plan_id":"cebpf4jnsgd1na2vs0mg"},{"bike_id":"d83d7d91-5e86-4fe4-ae40-d59b2d802437","system_id":"levelo_inurba_marseille","lat":43.308012,"lon":5.381511,"is_reserved":false,"is_disabled":false,"rental_uris":{"android":"levelo://app?vid=d83d7d91-5e86-4fe4-ae40-d59b2d802437","ios":"levelo://app?vid=d83d7d91-5e86-4fe4-ae40-d59b2d802437"},"vehicle_type_id":"4","last_reported":1717538892,"current_range_meters":25600,"station_id":"ce4bgt12rcd13ifvqce0","pricing_plan_id":"cebpf4jnsgd1na2vs0mg"},{"bike_id":"6ba0755c-b4e4-4e96-ae2f-3582546ab4be","system_id":"levelo_inurba_marseille","lat":43.308012,"lon":5.381511,"is_reserved":false,"is_disabled":false,"rental_uris":{"android":"levelo://app?vid=6ba0755c-b4e4-4e96-ae2f-3582546ab4be","ios":"levelo://app?vid=6ba0755c-b4e4-4e96-ae2f-3582546ab4be"},"vehicle_type_id":"4","last_reported":1717538892,"current_range_meters":0,"station_id":"ce4bgt12rcd13ifvqce0","pricing_plan_id":"cebpf4jnsgd1na2vs0mg"},{"bike_id":"0f7e333c-7aae-401d-9096-5b6787bdfdba","system_id":"levelo_inurba_marseille","lat":43.308012,"lon":5.381511,"is_reserved":false,"is_disabled":false,"rental_uris":{"android":"levelo://app?vid=0f7e333c-7aae-401d-9096-5b6787bdfdba","ios":"levelo://app?vid=0f7e333c-7aae-401d-9096-5b6787bdfdba"},"vehicle_type_id":"4","last_reported":1717538892,"current_range_meters":5600,"station_id":"ce4bgt12rcd13ifvqce0","pricing_plan_id":"cebpf4jnsgd1na2vs0mg"},{"bike_id":"b19564d1-c65f-4301-b2eb-bbed74c96bd2","system_id":"levelo_inurba_marseille","lat":43.304606,"lon":5.379026,"is_reserved":false,"is_disabled":false,"rental_uris":{"android":"levelo://app?vid=b19564d1-c65f-4301-b2eb-bbed74c96bd2","ios":"levelo://app?vid=b19564d1-c65f-4301-b2eb-bbed74c96bd2"},"vehicle_type_id":"4","last_reported":1717538892,"current_range_meters":21600,"station_id":"ce4bgup2rcd13ifvqcn0","pricing_plan_id":"cebpf4jnsgd1na2vs0mg"},{"bike_id":"98ab4e14-dc00-4b88-a177-38cde948e165","system_id":"levelo_inurba_marseille","lat":43.30756,"lon":5.38175,"is_reserved":false,"is_disabled":false,"rental_uris":{"android":"levelo://app?vid=98ab4e14-dc00-4b88-a177-38cde948e165","ios":"levelo://app?vid=98ab4e14-dc00-4b88-a177-38cde948e165"},"vehicle_type_id":"4","last_reported":1717538892,"current_range_meters":27200,"station_id":"","pricing_plan_id":"cebpf4jnsgd1na2vs0mg"},{"bike_id":"a0dfd5ff-8947-4b43-9f30-11f0b6b76cb2","system_id":"levelo_inurba_marseille","lat":43.304606,"lon":5.379026,"is_reserved":false,"is_disabled":false,"rental_uris":{"android":"levelo://app?vid=a0dfd5ff-8947-4b43-9f30-11f0b6b76cb2","ios":"levelo://app?vid=a0dfd5ff-8947-4b43-9f30-11f0b6b76cb2"},"vehicle_type_id":"4","last_reported":1717538892,"current_range_meters":26400,"station_id":"ce4bgup2rcd13ifvqcn0","pricing_plan_id":"cebpf4jnsgd1na2vs0mg"},{"bike_id":"648d3974-b2e5-4a2d-bcf1-772f32159125","system_id":"levelo_inurba_marseille","lat":43.324771,"lon":5.36557,"is_reserved":false,"is_disabled":false,"rental_uris":{"android":"levelo://app?vid=648d3974-b2e5-4a2d-bcf1-772f32159125","ios":"levelo://app?vid=648d3974-b2e5-4a2d-bcf1-772f32159125"},"vehicle_type_id":"4","last_reported":1717538892,"current_range_meters":15600,"station_id":"ce4bhs12rcd13ifvqhvg","pricing_plan_id":"cebpf4jnsgd1na2vs0mg"},{"bike_id":"234bcd77-7965-4d52-9dc6-537a89ecfb30","system_id":"levelo_inurba_marseille","lat":43.324771,"lon":5.36557,"is_reserved":false,"is_disabled":false,"rental_uris":{"android":"levelo://app?vid=234bcd77-7965-4d52-9dc6-537a89ecfb30","ios":"levelo://app?vid=234bcd77-7965-4d52-9dc6-537a89ecfb30"},"vehicle_type_id":"4","last_reported":1717538892,"current_range_meters":0,"station_id":"ce4bhs12rcd13ifvqhvg","pricing_plan_id":"cebpf4jnsgd1na2vs0mg"},{"bike_id":"8a8c92fa-cdad-4bcc-a2b8-6cddccbe52e8","system_id":"levelo_inurba_marseille","lat":43.324771,"lon":5.36557,"is_reserved":false,"is_disabled":false,"rental_uris":{"android":"levelo://app?vid=8a8c92fa-cdad-4bcc-a2b8-6cddccbe52e8","ios":"levelo://app?vid=8a8c92fa-cdad-4bcc-a2b8-6cddccbe52e8"},"vehicle_type_id":"4","last_reported":1717538892,"current_range_meters":24000,"station_id":"ce4bhs12rcd13ifvqhvg","pricing_plan_id":"cebpf4jnsgd1na2vs0mg"},{"bike_id":"92e1deed-3c96-44e2-844f-59bd781fffad","system_id":"levelo_inurba_marseille","lat":43.324771,"lon":5.36557,"is_reserved":false,"is_disabled":false,"rental_uris":{"android":"levelo://app?vid=92e1deed-3c96-44e2-844f-59bd781fffad","ios":"levelo://app?vid=92e1deed-3c96-44e2-844f-59bd781fffad"},"vehicle_type_id":"4","last_reported":1717538892,"current_range_meters":0,"station_id":"ce4bhs12rcd13ifvqhvg","pricing_plan_id":"cebpf4jnsgd1na2vs0mg"},{"bike_id":"6684eeb3-5493-4f1d-8607-892d6309f8e7","system_id":"levelo_inurba_marseille","lat":43.31076,"lon":5.3835,"is_reserved":false,"is_disabled":false,"rental_uris":{"android":"levelo://app?vid=6684eeb3-5493-4f1d-8607-892d6309f8e7","ios":"levelo://app?vid=6684eeb3-5493-4f1d-8607-892d6309f8e7"},"vehicle_type_id":"4","last_reported":1717538892,"current_range_meters":22800,"station_id":"ce4bgv92rcd13ifvqcr0","pricing_plan_id":"cebpf4jnsgd1na2vs0mg"},{"bike_id":"12cd3a79-074a-4405-a619-b21ff405ec60","system_id":"levelo_inurba_marseille","lat":43.31064,"lon":5.3835,"is_reserved":false,"is_disabled":false,"rental_uris":{"android":"levelo://app?vid=12cd3a79-074a-4405-a619-b21ff405ec60","ios":"levelo://app?vid=12cd3a79-074a-4405-a619-b21ff405ec60"},"vehicle_type_id":"4","last_reported":1717538892,"current_range_meters":12000,"station_id":"ce4bgv92rcd13ifvqcr0","pricing_plan_id":"cebpf4jnsgd1na2vs0mg"},{"bike_id":"75c1b715-bd35-4bb6-a668-507f2f839eb1","system_id":"levelo_inurba_marseille","lat":43.310804,"lon":5.38359,"is_reserved":false,"is_disabled":false,"rental_uris":{"android":"levelo://app?vid=75c1b715-bd35-4bb6-a668-507f2f839eb1","ios":"levelo://app?vid=75c1b715-bd35-4bb6-a668-507f2f839eb1"},"vehicle_type_id":"4","last_reported":1717538892,"current_range_meters":25600,"station_id":"ce4bgv92rcd13ifvqcr0","pricing_plan_id":"cebpf4jnsgd1na2vs0mg"},{"bike_id":"10aa95df-e38f-45cc-8ac1-5f3e4405a23f","system_id":"levelo_inurba_marseille","lat":43.310804,"lon":5.38359,"is_reserved":false,"is_disabled":false,"rental_uris":{"android":"levelo://app?vid=10aa95df-e38f-45cc-8ac1-5f3e4405a23f","ios":"levelo://app?vid=10aa95df-e38f-45cc-8ac1-5f3e4405a23f"},"vehicle_type_id":"4","last_reported":1717538892,"current_range_meters":5200,"station_id":"ce4bgv92rcd13ifvqcr0","pricing_plan_id":"cebpf4jnsgd1na2vs0mg"},{"bike_id":"7313b88a-1bb3-4158-83be-55051e81cdfc","system_id":"levelo_inurba_marseille","lat":43.31071,"lon":5.38356,"is_reserved":false,"is_disabled":false,"rental_uris":{"android":"levelo://app?vid=7313b88a-1bb3-4158-83be-55051e81cdfc","ios":"levelo://app?vid=7313b88a-1bb3-4158-83be-55051e81cdfc"},"vehicle_type_id":"4","last_reported":1717538892,"current_range_meters":0,"station_id":"ce4bgv92rcd13ifvqcr0","pricing_plan_id":"cebpf4jnsgd1na2vs0mg"},{"bike_id":"6d4155b3-0400-48ad-a7b2-19caa2402317","system_id":"levelo_inurba_marseille","lat":43.302784,"lon":5.377158,"is_reserved":false,"is_disabled":false,"rental_uris":{"android":"levelo://app?vid=6d4155b3-0400-48ad-a7b2-19caa2402317","ios":"levelo://app?vid=6d4155b3-0400-48ad-a7b2-19caa2402317"},"vehicle_type_id":"4","last_reported":1717538892,"current_range_meters":28800,"station_id":"ce4bguh2rcd13ifvqcj0","pricing_plan_id":"cebpf4jnsgd1na2vs0mg"},{"bike_id":"aedfb486-a1d0-457c-ba30-9294b4d780a9","system_id":"levelo_inurba_marseille","lat":43.302784,"lon":5.377158,"is_reserved":false,"is_disabled":false,"rental_uris":{"android":"levelo://app?vid=aedfb486-a1d0-457c-ba30-9294b4d780a9","ios":"levelo://app?vid=aedfb486-a1d0-457c-ba30-9294b4d780a9"},"vehicle_type_id":"4","last_reported":1717538892,"current_range_meters":20800,"station_id":"ce4bguh2rcd13ifvqcj0","pricing_plan_id":"cebpf4jnsgd1na2vs0mg"},{"bike_id":"9f88959b-8f54-4a0b-b665-cdaaa6402727","system_id":"levelo_inurba_marseille","lat":43.319935,"lon":5.381699,"is_reserved":false,"is_disabled":false,"rental_uris":{"android":"levelo://app?vid=9f88959b-8f54-4a0b-b665-cdaaa6402727","ios":"levelo://app?vid=9f88959b-8f54-4a0b-b665-cdaaa6402727"},"vehicle_type_id":"4","last_reported":1717538892,"current_range_meters":14800,"station_id":"ce4bhr12rcd13ifvqhpg","pricing_plan_id":"cebpf4jnsgd1na2vs0mg"},{"bike_id":"816bf89a-24c7-4580-a48b-7cd2170fe034","system_id":"levelo_inurba_marseille","lat":43.319935,"lon":5.381699,"is_reserved":false,"is_disabled":false,"rental_uris":{"android":"levelo://app?vid=816bf89a-24c7-4580-a48b-7cd2170fe034","ios":"levelo://app?vid=816bf89a-24c7-4580-a48b-7cd2170fe034"},"vehicle_type_id":"4","last_reported":1717538892,"current_range_meters":2400,"station_id":"ce4bhr12rcd13ifvqhpg","pricing_plan_id":"cebpf4jnsgd1na2vs0mg"},{"bike_id":"ef064d45-e9a3-440f-81e3-2b1bbb56d9e6","system_id":"levelo_inurba_marseille","lat":43.319935,"lon":5.381699,"is_reserved":false,"is_disabled":false,"rental_uris":{"android":"levelo://app?vid=ef064d45-e9a3-440f-81e3-2b1bbb56d9e6","ios":"levelo://app?vid=ef064d45-e9a3-440f-81e3-2b1bbb56d9e6"},"vehicle_type_id":"4","last_reported":1717538892,"current_range_meters":0,"station_id":"ce4bhr12rcd13ifvqhpg","pricing_plan_id":"cebpf4jnsgd1na2vs0mg"},{"bike_id":"2d17fa2e-55cb-40df-8eed-88ca99ae2dd3","system_id":"levelo_inurba_marseille","lat":43.319935,"lon":5.381699,"is_reserved":false,"is_disabled":false,"rental_uris":{"android":"levelo://app?vid=2d17fa2e-55cb-40df-8eed-88ca99ae2dd3","ios":"levelo://app?vid=2d17fa2e-55cb-40df-8eed-88ca99ae2dd3"},"vehicle_type_id":"4","last_reported":1717538892,"current_range_meters":0,"station_id":"ce4bhr12rcd13ifvqhpg","pricing_plan_id":"cebpf4jnsgd1na2vs0mg"},{"bike_id":"86983e4b-c117-4fa9-b8f6-2aa523203287","system_id":"levelo_inurba_marseille","lat":43.319935,"lon":5.381699,"is_reserved":false,"is_disabled":false,"rental_uris":{"android":"levelo://app?vid=86983e4b-c117-4fa9-b8f6-2aa523203287","ios":"levelo://app?vid=86983e4b-c117-4fa9-b8f6-2aa523203287"},"vehicle_type_id":"4","last_reported":1717538892,"current_range_meters":2400,"station_id":"ce4bhr12rcd13ifvqhpg","pricing_plan_id":"cebpf4jnsgd1na2vs0mg"},{"bike_id":"0de36e3d-89d6-428f-a00b-30b749a5bf5c","system_id":"levelo_inurba_marseille","lat":43.300309,"lon":5.372034,"is_reserved":false,"is_disabled":false,"rental_uris":{"android":"levelo://app?vid=0de36e3d-89d6-428f-a00b-30b749a5bf5c","ios":"levelo://app?vid=0de36e3d-89d6-428f-a00b-30b749a5bf5c"},"vehicle_type_id":"4","last_reported":1717538892,"current_range_meters":14800,"station_id":"","pricing_plan_id":"cebpf4jnsgd1na2vs0mg"},{"bike_id":"58e3a153-43cd-4c5e-b872-54014667f880","system_id":"levelo_inurba_marseille","lat":43.313571,"lon":5.384829,"is_reserved":false,"is_disabled":false,"rental_uris":{"android":"levelo://app?vid=58e3a153-43cd-4c5e-b872-54014667f880","ios":"levelo://app?vid=58e3a153-43cd-4c5e-b872-54014667f880"},"vehicle_type_id":"4","last_reported":1717538892,"current_range_meters":12000,"station_id":"ce4bgt92rcd13ifvqcf0","pricing_plan_id":"cebpf4jnsgd1na2vs0mg"},{"bike_id":"b288b801-c085-464e-8c9b-579fb8f8d7db","system_id":"levelo_inurba_marseille","lat":43.313571,"lon":5.384829,"is_reserved":false,"is_disabled":false,"rental_uris":{"android":"levelo://app?vid=b288b801-c085-464e-8c9b-579fb8f8d7db","ios":"levelo://app?vid=b288b801-c085-464e-8c9b-579fb8f8d7db"},"vehicle_type_id":"4","last_reported":1717538892,"current_range_meters":8000,"station_id":"ce4bgt92rcd13ifvqcf0","pricing_plan_id":"cebpf4jnsgd1na2vs0mg"},{"bike_id":"41d02340-9582-4ed2-bc9a-2a0ea48034ac","system_id":"levelo_inurba_marseille","lat":43.313571,"lon":5.384829,"is_reserved":false,"is_disabled":false,"rental_uris":{"android":"levelo://app?vid=41d02340-9582-4ed2-bc9a-2a0ea48034ac","ios":"levelo://app?vid=41d02340-9582-4ed2-bc9a-2a0ea48034ac"},"vehicle_type_id":"4","last_reported":1717538892,"current_range_meters":11600,"station_id":"ce4bgt92rcd13ifvqcf0","pricing_plan_id":"cebpf4jnsgd1na2vs0mg"},{"bike_id":"2bd5f1f5-de29-42a2-a365-4fa8e0940aa7","system_id":"levelo_inurba_marseille","lat":43.313571,"lon":5.384829,"is_reserved":false,"is_disabled":false,"rental_uris":{"android":"levelo://app?vid=2bd5f1f5-de29-42a2-a365-4fa8e0940aa7","ios":"levelo://app?vid=2bd5f1f5-de29-42a2-a365-4fa8e0940aa7"},"vehicle_type_id":"4","last_reported":1717538892,"current_range_meters":28000,"station_id":"ce4bgt92rcd13ifvqcf0","pricing_plan_id":"cebpf4jnsgd1na2vs0mg"},{"bike_id":"10d250e9-7385-46ad-b29f-db7e8bc4a6bd","system_id":"levelo_inurba_marseille","lat":43.313571,"lon":5.384829,"is_reserved":false,"is_disabled":false,"rental_uris":{"android":"levelo://app?vid=10d250e9-7385-46ad-b29f-db7e8bc4a6bd","ios":"levelo://app?vid=10d250e9-7385-46ad-b29f-db7e8bc4a6bd"},"vehicle_type_id":"4","last_reported":1717538892,"current_range_meters":8800,"station_id":"ce4bgt92rcd13ifvqcf0","pricing_plan_id":"cebpf4jnsgd1na2vs0mg"},{"bike_id":"b9585097-4848-478e-89fa-5c58fcfe6e4a","system_id":"levelo_inurba_marseille","lat":43.29988,"lon":5.37177,"is_reserved":false,"is_disabled":false,"rental_uris":{"android":"levelo://app?vid=b9585097-4848-478e-89fa-5c58fcfe6e4a","ios":"levelo://app?vid=b9585097-4848-478e-89fa-5c58fcfe6e4a"},"vehicle_type_id":"4","last_reported":1717538892,"current_range_meters":0,"station_id":"ce4bgr92rcd13ifvqc7g","pricing_plan_id":"cebpf4jnsgd1na2vs0mg"},{"bike_id":"0260b559-2f6a-4e2f-9ff5-8d947e185593","system_id":"levelo_inurba_marseille","lat":43.299724,"lon":5.371829,"is_reserved":false,"is_disabled":false,"rental_uris":{"android":"levelo://app?vid=0260b559-2f6a-4e2f-9ff5-8d947e185593","ios":"levelo://app?vid=0260b559-2f6a-4e2f-9ff5-8d947e185593"},"vehicle_type_id":"4","last_reported":1717538892,"current_range_meters":16400,"station_id":"ce4bgr92rcd13ifvqc7g","pricing_plan_id":"cebpf4jnsgd1na2vs0mg"},{"bike_id":"b65717a0-bf11-42d1-99c7-8bfc172e6ed1","system_id":"levelo_inurba_marseille","lat":43.299222,"lon":5.365554,"is_reserved":false,"is_disabled":false,"rental_uris":{"android":"levelo://app?vid=b65717a0-bf11-42d1-99c7-8bfc172e6ed1","ios":"levelo://app?vid=b65717a0-bf11-42d1-99c7-8bfc172e6ed1"},"vehicle_type_id":"4","last_reported":1717538892,"current_range_meters":22000,"station_id":"ce4bgm92rcd13ifvqbr0","pricing_plan_id":"cebpf4jnsgd1na2vs0mg"},{"bike_id":"b9967163-286c-42c7-a653-e43379b9122e","system_id":"levelo_inurba_marseille","lat":43.299724,"lon":5.371829,"is_reserved":false,"is_disabled":false,"rental_uris":{"android":"levelo://app?vid=b9967163-286c-42c7-a653-e43379b9122e","ios":"levelo://app?vid=b9967163-286c-42c7-a653-e43379b9122e"},"vehicle_type_id":"4","last_reported":1717538892,"current_range_meters":16800,"station_id":"ce4bgr92rcd13ifvqc7g","pricing_plan_id":"cebpf4jnsgd1na2vs0mg"},{"bike_id":"73215087-cbea-487c-a419-3cd581a926f0","system_id":"levelo_inurba_marseille","lat":43.299222,"lon":5.365554,"is_reserved":false,"is_disabled":false,"rental_uris":{"android":"levelo://app?vid=73215087-cbea-487c-a419-3cd581a926f0","ios":"levelo://app?vid=73215087-cbea-487c-a419-3cd581a926f0"},"vehicle_type_id":"4","last_reported":1717538892,"current_range_meters":12800,"station_id":"ce4bgm92rcd13ifvqbr0","pricing_plan_id":"cebpf4jnsgd1na2vs0mg"},{"bike_id":"b9c0a081-d2ea-4368-8016-6a90469f0e3b","system_id":"levelo_inurba_marseille","lat":43.299222,"lon":5.365554,"is_reserved":false,"is_disabled":false,"rental_uris":{"android":"levelo://app?vid=b9c0a081-d2ea-4368-8016-6a90469f0e3b","ios":"levelo://app?vid=b9c0a081-d2ea-4368-8016-6a90469f0e3b"},"vehicle_type_id":"4","last_reported":1717538892,"current_range_meters":12400,"station_id":"ce4bgm92rcd13ifvqbr0","pricing_plan_id":"cebpf4jnsgd1na2vs0mg"},{"bike_id":"e79eedef-ce82-4d25-b109-65d284f4bf39","system_id":"levelo_inurba_marseille","lat":43.305364,"lon":5.384119,"is_reserved":false,"is_disabled":false,"rental_uris":{"android":"levelo://app?vid=e79eedef-ce82-4d25-b109-65d284f4bf39","ios":"levelo://app?vid=e79eedef-ce82-4d25-b109-65d284f4bf39"},"vehicle_type_id":"4","last_reported":1717538892,"current_range_meters":20400,"station_id":"ce4bgg92rcd13ifvqb30","pricing_plan_id":"cebpf4jnsgd1na2vs0mg"},{"bike_id":"216cc263-6c69-4260-8fe4-b9b46dbd205b","system_id":"levelo_inurba_marseille","lat":43.305364,"lon":5.384119,"is_reserved":false,"is_disabled":false,"rental_uris":{"android":"levelo://app?vid=216cc263-6c69-4260-8fe4-b9b46dbd205b","ios":"levelo://app?vid=216cc263-6c69-4260-8fe4-b9b46dbd205b"},"vehicle_type_id":"4","last_reported":1717538892,"current_range_meters":18800,"station_id":"ce4bgg92rcd13ifvqb30","pricing_plan_id":"cebpf4jnsgd1na2vs0mg"},{"bike_id":"76b12708-9964-41be-8ab0-f753297de583","system_id":"levelo_inurba_marseille","lat":43.305364,"lon":5.384119,"is_reserved":false,"is_disabled":false,"rental_uris":{"android":"levelo://app?vid=76b12708-9964-41be-8ab0-f753297de583","ios":"levelo://app?vid=76b12708-9964-41be-8ab0-f753297de583"},"vehicle_type_id":"4","last_reported":1717538892,"current_range_meters":22800,"station_id":"ce4bgg92rcd13ifvqb30","pricing_plan_id":"cebpf4jnsgd1na2vs0mg"},{"bike_id":"8d0e2712-e390-4ed4-afb9-2d114ec3d2e9","system_id":"levelo_inurba_marseille","lat":43.305364,"lon":5.384119,"is_reserved":false,"is_disabled":false,"rental_uris":{"android":"levelo://app?vid=8d0e2712-e390-4ed4-afb9-2d114ec3d2e9","ios":"levelo://app?vid=8d0e2712-e390-4ed4-afb9-2d114ec3d2e9"},"vehicle_type_id":"4","last_reported":1717538892,"current_range_meters":6400,"station_id":"ce4bgg92rcd13ifvqb30","pricing_plan_id":"cebpf4jnsgd1na2vs0mg"},{"bike_id":"bad90912-9266-4208-b50a-a6e52e826060","system_id":"levelo_inurba_marseille","lat":43.305364,"lon":5.384119,"is_reserved":false,"is_disabled":false,"rental_uris":{"android":"levelo://app?vid=bad90912-9266-4208-b50a-a6e52e826060","ios":"levelo://app?vid=bad90912-9266-4208-b50a-a6e52e826060"},"vehicle_type_id":"4","last_reported":1717538892,"current_range_meters":5600,"station_id":"ce4bgg92rcd13ifvqb30","pricing_plan_id":"cebpf4jnsgd1na2vs0mg"},{"bike_id":"c2a4a298-f3c0-4c9c-8ba7-dc1ac66f2148","system_id":"levelo_inurba_marseille","lat":43.299243,"lon":5.37481,"is_reserved":false,"is_disabled":false,"rental_uris":{"android":"levelo://app?vid=c2a4a298-f3c0-4c9c-8ba7-dc1ac66f2148","ios":"levelo://app?vid=c2a4a298-f3c0-4c9c-8ba7-dc1ac66f2148"},"vehicle_type_id":"4","last_reported":1717538892,"current_range_meters":19600,"station_id":"ce4bgjh2rcd13ifvqbg0","pricing_plan_id":"cebpf4jnsgd1na2vs0mg"},{"bike_id":"7c0279c4-785e-41cc-9875-11b1aa5697b0","system_id":"levelo_inurba_marseille","lat":43.298433,"lon":5.362774,"is_reserved":false,"is_disabled":false,"rental_uris":{"android":"levelo://app?vid=7c0279c4-785e-41cc-9875-11b1aa5697b0","ios":"levelo://app?vid=7c0279c4-785e-41cc-9875-11b1aa5697b0"},"vehicle_type_id":"4","last_reported":1717538892,"current_range_meters":28000,"station_id":"ce4bgpp2rcd13ifvqc3g","pricing_plan_id":"cebpf4jnsgd1na2vs0mg"},{"bike_id":"351d3303-a27a-4330-b3cf-12d64ce87b73","system_id":"levelo_inurba_marseille","lat":43.305364,"lon":5.384119,"is_reserved":false,"is_disabled":false,"rental_uris":{"android":"levelo://app?vid=351d3303-a27a-4330-b3cf-12d64ce87b73","ios":"levelo://app?vid=351d3303-a27a-4330-b3cf-12d64ce87b73"},"vehicle_type_id":"4","last_reported":1717538892,"current_range_meters":13600,"station_id":"ce4bgg92rcd13ifvqb30","pricing_plan_id":"cebpf4jnsgd1na2vs0mg"},{"bike_id":"e389718f-4828-480b-a860-128feed62e76","system_id":"levelo_inurba_marseille","lat":43.305364,"lon":5.384119,"is_reserved":false,"is_disabled":false,"rental_uris":{"android":"levelo://app?vid=e389718f-4828-480b-a860-128feed62e76","ios":"levelo://app?vid=e389718f-4828-480b-a860-128feed62e76"},"vehicle_type_id":"4","last_reported":1717538892,"current_range_meters":11600,"station_id":"ce4bgg92rcd13ifvqb30","pricing_plan_id":"cebpf4jnsgd1na2vs0mg"},{"bike_id":"e886654e-d646-4419-9abb-bc50efa4dfaa","system_id":"levelo_inurba_marseille","lat":43.299243,"lon":5.374807,"is_reserved":false,"is_disabled":false,"rental_uris":{"android":"levelo://app?vid=e886654e-d646-4419-9abb-bc50efa4dfaa","ios":"levelo://app?vid=e886654e-d646-4419-9abb-bc50efa4dfaa"},"vehicle_type_id":"4","last_reported":1717538892,"current_range_meters":800,"station_id":"ce4bgjh2rcd13ifvqbg0","pricing_plan_id":"cebpf4jnsgd1na2vs0mg"},{"bike_id":"36826924-ec5d-4b6d-adaa-ca60444cb7fb","system_id":"levelo_inurba_marseille","lat":43.311722,"lon":5.387247,"is_reserved":false,"is_disabled":false,"rental_uris":{"android":"levelo://app?vid=36826924-ec5d-4b6d-adaa-ca60444cb7fb","ios":"levelo://app?vid=36826924-ec5d-4b6d-adaa-ca60444cb7fb"},"vehicle_type_id":"4","last_reported":1717538892,"current_range_meters":20400,"station_id":"ce4bgv12rcd13ifvqcp0","pricing_plan_id":"cebpf4jnsgd1na2vs0mg"},{"bike_id":"a024f8e3-2392-4e71-a7f7-0493542b2626","system_id":"levelo_inurba_marseille","lat":43.311722,"lon":5.387247,"is_reserved":false,"is_disabled":false,"rental_uris":{"android":"levelo://app?vid=a024f8e3-2392-4e71-a7f7-0493542b2626","ios":"levelo://app?vid=a024f8e3-2392-4e71-a7f7-0493542b2626"},"vehicle_type_id":"4","last_reported":1717538892,"current_range_meters":400,"station_id":"ce4bgv12rcd13ifvqcp0","pricing_plan_id":"cebpf4jnsgd1na2vs0mg"},{"bike_id":"f7551218-9d4d-41e9-8eaf-d1071608f100","system_id":"levelo_inurba_marseille","lat":43.31182,"lon":5.38704,"is_reserved":false,"is_disabled":false,"rental_uris":{"android":"levelo://app?vid=f7551218-9d4d-41e9-8eaf-d1071608f100","ios":"levelo://app?vid=f7551218-9d4d-41e9-8eaf-d1071608f100"},"vehicle_type_id":"4","last_reported":1717538892,"current_range_meters":8000,"station_id":"ce4bgv12rcd13ifvqcp0","pricing_plan_id":"cebpf4jnsgd1na2vs0mg"},{"bike_id":"93d34ab9-1d50-4539-8d74-2f8f83c75239","system_id":"levelo_inurba_marseille","lat":43.311722,"lon":5.387247,"is_reserved":false,"is_disabled":false,"rental_uris":{"android":"levelo://app?vid=93d34ab9-1d50-4539-8d74-2f8f83c75239","ios":"levelo://app?vid=93d34ab9-1d50-4539-8d74-2f8f83c75239"},"vehicle_type_id":"4","last_reported":1717538892,"current_range_meters":19200,"station_id":"ce4bgv12rcd13ifvqcp0","pricing_plan_id":"cebpf4jnsgd1na2vs0mg"},{"bike_id":"c8b4f769-bfaf-46d6-b397-83d4b05b3423","system_id":"levelo_inurba_marseille","lat":43.311722,"lon":5.387247,"is_reserved":false,"is_disabled":false,"rental_uris":{"android":"levelo://app?vid=c8b4f769-bfaf-46d6-b397-83d4b05b3423","ios":"levelo://app?vid=c8b4f769-bfaf-46d6-b397-83d4b05b3423"},"vehicle_type_id":"4","last_reported":1717538892,"current_range_meters":15200,"station_id":"ce4bgv12rcd13ifvqcp0","pricing_plan_id":"cebpf4jnsgd1na2vs0mg"},{"bike_id":"43772c5d-71fd-40d6-b214-375793a0aa40","system_id":"levelo_inurba_marseille","lat":43.299243,"lon":5.37481,"is_reserved":false,"is_disabled":false,"rental_uris":{"android":"levelo://app?vid=43772c5d-71fd-40d6-b214-375793a0aa40","ios":"levelo://app?vid=43772c5d-71fd-40d6-b214-375793a0aa40"},"vehicle_type_id":"4","last_reported":1717538892,"current_range_meters":22800,"station_id":"ce4bgjh2rcd13ifvqbg0","pricing_plan_id":"cebpf4jnsgd1na2vs0mg"},{"bike_id":"d9717b59-862c-48f1-969c-6393f40ae63a","system_id":"levelo_inurba_marseille","lat":43.311722,"lon":5.387247,"is_reserved":false,"is_disabled":false,"rental_uris":{"android":"levelo://app?vid=d9717b59-862c-48f1-969c-6393f40ae63a","ios":"levelo://app?vid=d9717b59-862c-48f1-969c-6393f40ae63a"},"vehicle_type_id":"4","last_reported":1717538892,"current_range_meters":16400,"station_id":"ce4bgv12rcd13ifvqcp0","pricing_plan_id":"cebpf4jnsgd1na2vs0mg"},{"bike_id":"a43eb98c-012f-4ee2-a7a3-e09448ee1ffa","system_id":"levelo_inurba_marseille","lat":43.311722,"lon":5.387247,"is_reserved":false,"is_disabled":false,"rental_uris":{"android":"levelo://app?vid=a43eb98c-012f-4ee2-a7a3-e09448ee1ffa","ios":"levelo://app?vid=a43eb98c-012f-4ee2-a7a3-e09448ee1ffa"},"vehicle_type_id":"4","last_reported":1717538892,"current_range_meters":9600,"station_id":"ce4bgv12rcd13ifvqcp0","pricing_plan_id":"cebpf4jnsgd1na2vs0mg"},{"bike_id":"6c0d3956-077f-475f-b0b5-f599df3d3a24","system_id":"levelo_inurba_marseille","lat":43.311722,"lon":5.387247,"is_reserved":false,"is_disabled":false,"rental_uris":{"android":"levelo://app?vid=6c0d3956-077f-475f-b0b5-f599df3d3a24","ios":"levelo://app?vid=6c0d3956-077f-475f-b0b5-f599df3d3a24"},"vehicle_type_id":"4","last_reported":1717538892,"current_range_meters":7600,"station_id":"ce4bgv12rcd13ifvqcp0","pricing_plan_id":"cebpf4jnsgd1na2vs0mg"},{"bike_id":"439492d0-21c3-4bae-865d-208ee6437c69","system_id":"levelo_inurba_marseille","lat":43.311722,"lon":5.387247,"is_reserved":false,"is_disabled":false,"rental_uris":{"android":"levelo://app?vid=439492d0-21c3-4bae-865d-208ee6437c69","ios":"levelo://app?vid=439492d0-21c3-4bae-865d-208ee6437c69"},"vehicle_type_id":"4","last_reported":1717538892,"current_range_meters":20800,"station_id":"ce4bgv12rcd13ifvqcp0","pricing_plan_id":"cebpf4jnsgd1na2vs0mg"},{"bike_id":"82255cf4-1512-4ca1-9423-41561211d483","system_id":"levelo_inurba_marseille","lat":43.297774,"lon":5.370875,"is_reserved":false,"is_disabled":false,"rental_uris":{"android":"levelo://app?vid=82255cf4-1512-4ca1-9423-41561211d483","ios":"levelo://app?vid=82255cf4-1512-4ca1-9423-41561211d483"},"vehicle_type_id":"4","last_reported":1717538892,"current_range_meters":23200,"station_id":"ce4bgop2rcd13ifvqc1g","pricing_plan_id":"cebpf4jnsgd1na2vs0mg"},{"bike_id":"e26e5737-c3ee-472d-8e5b-cc7d88d06764","system_id":"levelo_inurba_marseille","lat":43.322872,"lon":5.382756,"is_reserved":false,"is_disabled":false,"rental_uris":{"android":"levelo://app?vid=e26e5737-c3ee-472d-8e5b-cc7d88d06764","ios":"levelo://app?vid=e26e5737-c3ee-472d-8e5b-cc7d88d06764"},"vehicle_type_id":"4","last_reported":1717538892,"current_range_meters":27600,"station_id":"ce4bhr12rcd13ifvqhqg","pricing_plan_id":"cebpf4jnsgd1na2vs0mg"},{"bike_id":"0054c602-7ec4-4031-8a05-26d945fa72aa","system_id":"levelo_inurba_marseille","lat":43.322872,"lon":5.382756,"is_reserved":false,"is_disabled":false,"rental_uris":{"android":"levelo://app?vid=0054c602-7ec4-4031-8a05-26d945fa72aa","ios":"levelo://app?vid=0054c602-7ec4-4031-8a05-26d945fa72aa"},"vehicle_type_id":"4","last_reported":1717538892,"current_range_meters":13600,"station_id":"ce4bhr12rcd13ifvqhqg","pricing_plan_id":"cebpf4jnsgd1na2vs0mg"},{"bike_id":"3dc00644-78e6-4290-8d77-8552cdceed18","system_id":"levelo_inurba_marseille","lat":43.297163,"lon":5.365866,"is_reserved":false,"is_disabled":false,"rental_uris":{"android":"levelo://app?vid=3dc00644-78e6-4290-8d77-8552cdceed18","ios":"levelo://app?vid=3dc00644-78e6-4290-8d77-8552cdceed18"},"vehicle_type_id":"4","last_reported":1717538892,"current_range_meters":27200,"station_id":"ce4bgn12rcd13ifvqbt0","pricing_plan_id":"cebpf4jnsgd1na2vs0mg"},{"bike_id":"af854c68-a8c4-47aa-86aa-d9cf3fc420cb","system_id":"levelo_inurba_marseille","lat":43.297163,"lon":5.365866,"is_reserved":false,"is_disabled":false,"rental_uris":{"android":"levelo://app?vid=af854c68-a8c4-47aa-86aa-d9cf3fc420cb","ios":"levelo://app?vid=af854c68-a8c4-47aa-86aa-d9cf3fc420cb"},"vehicle_type_id":"4","last_reported":1717538892,"current_range_meters":30400,"station_id":"ce4bgn12rcd13ifvqbt0","pricing_plan_id":"cebpf4jnsgd1na2vs0mg"},{"bike_id":"e80a2155-a811-4812-b47a-b0941fddf54b","system_id":"levelo_inurba_marseille","lat":43.2968,"lon":5.37291,"is_reserved":false,"is_disabled":false,"rental_uris":{"android":"levelo://app?vid=e80a2155-a811-4812-b47a-b0941fddf54b","ios":"levelo://app?vid=e80a2155-a811-4812-b47a-b0941fddf54b"},"vehicle_type_id":"4","last_reported":1717538892,"current_range_meters":14000,"station_id":"ce4bgk12rcd13ifvqbj0","pricing_plan_id":"cebpf4jnsgd1na2vs0mg"},{"bike_id":"2e2d3361-ed4b-43e7-ab93-892388ea7293","system_id":"levelo_inurba_marseille","lat":43.2968,"lon":5.37291,"is_reserved":false,"is_disabled":false,"rental_uris":{"android":"levelo://app?vid=2e2d3361-ed4b-43e7-ab93-892388ea7293","ios":"levelo://app?vid=2e2d3361-ed4b-43e7-ab93-892388ea7293"},"vehicle_type_id":"4","last_reported":1717538892,"current_range_meters":2000,"station_id":"ce4bgk12rcd13ifvqbj0","pricing_plan_id":"cebpf4jnsgd1na2vs0mg"},{"bike_id":"4f87365e-8e43-4d54-a988-cdefc62c1098","system_id":"levelo_inurba_marseille","lat":43.296921,"lon":5.376579,"is_reserved":false,"is_disabled":false,"rental_uris":{"android":"levelo://app?vid=4f87365e-8e43-4d54-a988-cdefc62c1098","ios":"levelo://app?vid=4f87365e-8e43-4d54-a988-cdefc62c1098"},"vehicle_type_id":"4","last_reported":1717538892,"current_range_meters":0,"station_id":"ce4bgkh2rcd13ifvqbl0","pricing_plan_id":"cebpf4jnsgd1na2vs0mg"},{"bike_id":"6a94371a-3a0b-46af-8008-177b82ee6a71","system_id":"levelo_inurba_marseille","lat":43.309589,"lon":5.390258,"is_reserved":false,"is_disabled":false,"rental_uris":{"android":"levelo://app?vid=6a94371a-3a0b-46af-8008-177b82ee6a71","ios":"levelo://app?vid=6a94371a-3a0b-46af-8008-177b82ee6a71"},"vehicle_type_id":"4","last_reported":1717538892,"current_range_meters":28400,"station_id":"ce4bgup2rcd13ifvqco0","pricing_plan_id":"cebpf4jnsgd1na2vs0mg"},{"bike_id":"54e361ad-2570-4a3b-81f6-b93bf60c2ce1","system_id":"levelo_inurba_marseille","lat":43.296935,"lon":5.376544,"is_reserved":false,"is_disabled":false,"rental_uris":{"android":"levelo://app?vid=54e361ad-2570-4a3b-81f6-b93bf60c2ce1","ios":"levelo://app?vid=54e361ad-2570-4a3b-81f6-b93bf60c2ce1"},"vehicle_type_id":"4","last_reported":1717538892,"current_range_meters":22800,"station_id":"ce4bgkh2rcd13ifvqbl0","pricing_plan_id":"cebpf4jnsgd1na2vs0mg"},{"bike_id":"8b5f8c71-aaa0-49c1-9834-80f1d7b2ac73","system_id":"levelo_inurba_marseille","lat":43.309371,"lon":5.401449,"is_reserved":false,"is_disabled":false,"rental_uris":{"android":"levelo://app?vid=8b5f8c71-aaa0-49c1-9834-80f1d7b2ac73","ios":"levelo://app?vid=8b5f8c71-aaa0-49c1-9834-80f1d7b2ac73"},"vehicle_type_id":"4","last_reported":1717538892,"current_range_meters":25200,"station_id":"ce4bgvp2rcd13ifvqct0","pricing_plan_id":"cebpf4jnsgd1na2vs0mg"},{"bike_id":"882d9fb5-fd40-48c3-b37f-ebca9bb7b3dc","system_id":"levelo_inurba_marseille","lat":43.30441,"lon":5.38802,"is_reserved":false,"is_disabled":false,"rental_uris":{"android":"levelo://app?vid=882d9fb5-fd40-48c3-b37f-ebca9bb7b3dc","ios":"levelo://app?vid=882d9fb5-fd40-48c3-b37f-ebca9bb7b3dc"},"vehicle_type_id":"4","last_reported":1717538892,"current_range_meters":16800,"station_id":"","pricing_plan_id":"cebpf4jnsgd1na2vs0mg"},{"bike_id":"e24d6f76-0d17-4eac-9f3f-5fd650d8e62f","system_id":"levelo_inurba_marseille","lat":43.317557,"lon":5.390173,"is_reserved":false,"is_disabled":false,"rental_uris":{"android":"levelo://app?vid=e24d6f76-0d17-4eac-9f3f-5fd650d8e62f","ios":"levelo://app?vid=e24d6f76-0d17-4eac-9f3f-5fd650d8e62f"},"vehicle_type_id":"4","last_reported":1717538892,"current_range_meters":8400,"station_id":"ce4bhqp2rcd13ifvqhng","pricing_plan_id":"cebpf4jnsgd1na2vs0mg"},{"bike_id":"03afd5c5-18a3-4e9a-aaa0-c083d39604af","system_id":"levelo_inurba_marseille","lat":43.317557,"lon":5.390173,"is_reserved":false,"is_disabled":false,"rental_uris":{"android":"levelo://app?vid=03afd5c5-18a3-4e9a-aaa0-c083d39604af","ios":"levelo://app?vid=03afd5c5-18a3-4e9a-aaa0-c083d39604af"},"vehicle_type_id":"4","last_reported":1717538892,"current_range_meters":24000,"station_id":"ce4bhqp2rcd13ifvqhng","pricing_plan_id":"cebpf4jnsgd1na2vs0mg"},{"bike_id":"20018a4d-5576-470a-9fb4-730e180e6ba1","system_id":"levelo_inurba_marseille","lat":43.317557,"lon":5.390173,"is_reserved":false,"is_disabled":false,"rental_uris":{"android":"levelo://app?vid=20018a4d-5576-470a-9fb4-730e180e6ba1","ios":"levelo://app?vid=20018a4d-5576-470a-9fb4-730e180e6ba1"},"vehicle_type_id":"4","last_reported":1717538892,"current_range_meters":27200,"station_id":"ce4bhqp2rcd13ifvqhng","pricing_plan_id":"cebpf4jnsgd1na2vs0mg"},{"bike_id":"f8f51f43-829a-4025-b930-bc684756852b","system_id":"levelo_inurba_marseille","lat":43.317557,"lon":5.390173,"is_reserved":false,"is_disabled":false,"rental_uris":{"android":"levelo://app?vid=f8f51f43-829a-4025-b930-bc684756852b","ios":"levelo://app?vid=f8f51f43-829a-4025-b930-bc684756852b"},"vehicle_type_id":"4","last_reported":1717538892,"current_range_meters":19200,"station_id":"ce4bhqp2rcd13ifvqhng","pricing_plan_id":"cebpf4jnsgd1na2vs0mg"},{"bike_id":"23fb9ca1-02a2-4697-ac18-943f17d26bcd","system_id":"levelo_inurba_marseille","lat":43.304278,"lon":5.388868,"is_reserved":false,"is_disabled":false,"rental_uris":{"android":"levelo://app?vid=23fb9ca1-02a2-4697-ac18-943f17d26bcd","ios":"levelo://app?vid=23fb9ca1-02a2-4697-ac18-943f17d26bcd"},"vehicle_type_id":"4","last_reported":1717538892,"current_range_meters":22000,"station_id":"ce4bgk12rcd13ifvqbi0","pricing_plan_id":"cebpf4jnsgd1na2vs0mg"},{"bike_id":"7c14a504-d440-402b-9945-19e8253440bd","system_id":"levelo_inurba_marseille","lat":43.304274,"lon":5.388873,"is_reserved":false,"is_disabled":false,"rental_uris":{"android":"levelo://app?vid=7c14a504-d440-402b-9945-19e8253440bd","ios":"levelo://app?vid=7c14a504-d440-402b-9945-19e8253440bd"},"vehicle_type_id":"4","last_reported":1717538892,"current_range_meters":8400,"station_id":"ce4bgk12rcd13ifvqbi0","pricing_plan_id":"cebpf4jnsgd1na2vs0mg"},{"bike_id":"1841bf29-a5ce-49c9-b1b0-c4146abd91e4","system_id":"levelo_inurba_marseille","lat":43.304278,"lon":5.388868,"is_reserved":false,"is_disabled":false,"rental_uris":{"android":"levelo://app?vid=1841bf29-a5ce-49c9-b1b0-c4146abd91e4","ios":"levelo://app?vid=1841bf29-a5ce-49c9-b1b0-c4146abd91e4"},"vehicle_type_id":"4","last_reported":1717538892,"current_range_meters":20400,"station_id":"ce4bgk12rcd13ifvqbi0","pricing_plan_id":"cebpf4jnsgd1na2vs0mg"},{"bike_id":"97b2bd40-f91b-4fc9-a658-9839b7bece73","system_id":"levelo_inurba_marseille","lat":43.304274,"lon":5.388873,"is_reserved":false,"is_disabled":false,"rental_uris":{"android":"levelo://app?vid=97b2bd40-f91b-4fc9-a658-9839b7bece73","ios":"levelo://app?vid=97b2bd40-f91b-4fc9-a658-9839b7bece73"},"vehicle_type_id":"4","last_reported":1717538892,"current_range_meters":27200,"station_id":"ce4bgk12rcd13ifvqbi0","pricing_plan_id":"cebpf4jnsgd1na2vs0mg"},{"bike_id":"0b3784cd-c8df-4c0a-b7e3-eac5c8ea96b8","system_id":"levelo_inurba_marseille","lat":43.295206,"lon":5.375063,"is_reserved":false,"is_disabled":false,"rental_uris":{"android":"levelo://app?vid=0b3784cd-c8df-4c0a-b7e3-eac5c8ea96b8","ios":"levelo://app?vid=0b3784cd-c8df-4c0a-b7e3-eac5c8ea96b8"},"vehicle_type_id":"4","last_reported":1717538892,"current_range_meters":4000,"station_id":"ce4bgkp2rcd13ifvqbmg","pricing_plan_id":"cebpf4jnsgd1na2vs0mg"},{"bike_id":"632909ea-7b23-4379-ab47-fad01720ebef","system_id":"levelo_inurba_marseille","lat":43.299724,"lon":5.384848,"is_reserved":false,"is_disabled":false,"rental_uris":{"android":"levelo://app?vid=632909ea-7b23-4379-ab47-fad01720ebef","ios":"levelo://app?vid=632909ea-7b23-4379-ab47-fad01720ebef"},"vehicle_type_id":"4","last_reported":1717538892,"current_range_meters":2400,"station_id":"ce4bgj92rcd13ifvqbd0","pricing_plan_id":"cebpf4jnsgd1na2vs0mg"},{"bike_id":"befc21f9-71b4-425c-b76f-0d3590918e1e","system_id":"levelo_inurba_marseille","lat":43.32377,"lon":5.38819,"is_reserved":false,"is_disabled":false,"rental_uris":{"android":"levelo://app?vid=befc21f9-71b4-425c-b76f-0d3590918e1e","ios":"levelo://app?vid=befc21f9-71b4-425c-b76f-0d3590918e1e"},"vehicle_type_id":"4","last_reported":1717538892,"current_range_meters":0,"station_id":"","pricing_plan_id":"cebpf4jnsgd1na2vs0mg"},{"bike_id":"c35ae7a4-4230-42a3-bc47-5452c303d78d","system_id":"levelo_inurba_marseille","lat":43.32367,"lon":5.388836,"is_reserved":false,"is_disabled":false,"rental_uris":{"android":"levelo://app?vid=c35ae7a4-4230-42a3-bc47-5452c303d78d","ios":"levelo://app?vid=c35ae7a4-4230-42a3-bc47-5452c303d78d"},"vehicle_type_id":"4","last_reported":1717538892,"current_range_meters":0,"station_id":"ce4bhqp2rcd13ifvqhog","pricing_plan_id":"cebpf4jnsgd1na2vs0mg"},{"bike_id":"83ba5484-b65d-483d-b5c4-e052050462c5","system_id":"levelo_inurba_marseille","lat":43.32375,"lon":5.38869,"is_reserved":false,"is_disabled":false,"rental_uris":{"android":"levelo://app?vid=83ba5484-b65d-483d-b5c4-e052050462c5","ios":"levelo://app?vid=83ba5484-b65d-483d-b5c4-e052050462c5"},"vehicle_type_id":"4","last_reported":1717538892,"current_range_meters":13200,"station_id":"ce4bhqp2rcd13ifvqhog","pricing_plan_id":"cebpf4jnsgd1na2vs0mg"},{"bike_id":"a8579ed8-8799-45f6-8a9a-356b65054625","system_id":"levelo_inurba_marseille","lat":43.32367,"lon":5.388836,"is_reserved":false,"is_disabled":false,"rental_uris":{"android":"levelo://app?vid=a8579ed8-8799-45f6-8a9a-356b65054625","ios":"levelo://app?vid=a8579ed8-8799-45f6-8a9a-356b65054625"},"vehicle_type_id":"4","last_reported":1717538892,"current_range_meters":17600,"station_id":"ce4bhqp2rcd13ifvqhog","pricing_plan_id":"cebpf4jnsgd1na2vs0mg"},{"bike_id":"76757ff2-06cf-4dea-9385-d08a50ccfbe4","system_id":"levelo_inurba_marseille","lat":43.32367,"lon":5.388836,"is_reserved":false,"is_disabled":false,"rental_uris":{"android":"levelo://app?vid=76757ff2-06cf-4dea-9385-d08a50ccfbe4","ios":"levelo://app?vid=76757ff2-06cf-4dea-9385-d08a50ccfbe4"},"vehicle_type_id":"4","last_reported":1717538892,"current_range_meters":12800,"station_id":"ce4bhqp2rcd13ifvqhog","pricing_plan_id":"cebpf4jnsgd1na2vs0mg"},{"bike_id":"cb550ffb-1665-4fde-b855-ae61a14af00f","system_id":"levelo_inurba_marseille","lat":43.32367,"lon":5.388836,"is_reserved":false,"is_disabled":false,"rental_uris":{"android":"levelo://app?vid=cb550ffb-1665-4fde-b855-ae61a14af00f","ios":"levelo://app?vid=cb550ffb-1665-4fde-b855-ae61a14af00f"},"vehicle_type_id":"4","last_reported":1717538892,"current_range_meters":13200,"station_id":"ce4bhqp2rcd13ifvqhog","pricing_plan_id":"cebpf4jnsgd1na2vs0mg"},{"bike_id":"b19d58dd-5fd2-413b-bc8b-fa505bbff639","system_id":"levelo_inurba_marseille","lat":43.32367,"lon":5.388836,"is_reserved":false,"is_disabled":false,"rental_uris":{"android":"levelo://app?vid=b19d58dd-5fd2-413b-bc8b-fa505bbff639","ios":"levelo://app?vid=b19d58dd-5fd2-413b-bc8b-fa505bbff639"},"vehicle_type_id":"4","last_reported":1717538892,"current_range_meters":0,"station_id":"ce4bhqp2rcd13ifvqhog","pricing_plan_id":"cebpf4jnsgd1na2vs0mg"},{"bike_id":"29a8d735-cacc-45e9-817a-f2f3248b9803","system_id":"levelo_inurba_marseille","lat":43.32367,"lon":5.388836,"is_reserved":false,"is_disabled":false,"rental_uris":{"android":"levelo://app?vid=29a8d735-cacc-45e9-817a-f2f3248b9803","ios":"levelo://app?vid=29a8d735-cacc-45e9-817a-f2f3248b9803"},"vehicle_type_id":"4","last_reported":1717538892,"current_range_meters":14800,"station_id":"ce4bhqp2rcd13ifvqhog","pricing_plan_id":"cebpf4jnsgd1na2vs0mg"},{"bike_id":"cbe100e3-50ea-4af8-b603-3e3745a260f8","system_id":"levelo_inurba_marseille","lat":43.30718,"lon":5.39238,"is_reserved":false,"is_disabled":false,"rental_uris":{"android":"levelo://app?vid=cbe100e3-50ea-4af8-b603-3e3745a260f8","ios":"levelo://app?vid=cbe100e3-50ea-4af8-b603-3e3745a260f8"},"vehicle_type_id":"4","last_reported":1717538892,"current_range_meters":13200,"station_id":"","pricing_plan_id":"cebpf4jnsgd1na2vs0mg"},{"bike_id":"f4243104-a71d-4fd7-9426-9931c224acda","system_id":"levelo_inurba_marseille","lat":43.323727,"lon":5.388842,"is_reserved":false,"is_disabled":false,"rental_uris":{"android":"levelo://app?vid=f4243104-a71d-4fd7-9426-9931c224acda","ios":"levelo://app?vid=f4243104-a71d-4fd7-9426-9931c224acda"},"vehicle_type_id":"4","last_reported":1717538892,"current_range_meters":7200,"station_id":"","pricing_plan_id":"cebpf4jnsgd1na2vs0mg"},{"bike_id":"3fb5f890-21d5-4f32-aa92-88b32a1389ed","system_id":"levelo_inurba_marseille","lat":43.32368,"lon":5.3889,"is_reserved":false,"is_disabled":false,"rental_uris":{"android":"levelo://app?vid=3fb5f890-21d5-4f32-aa92-88b32a1389ed","ios":"levelo://app?vid=3fb5f890-21d5-4f32-aa92-88b32a1389ed"},"vehicle_type_id":"4","last_reported":1717538892,"current_range_meters":20000,"station_id":"ce4bhqp2rcd13ifvqhog","pricing_plan_id":"cebpf4jnsgd1na2vs0mg"},{"bike_id":"a677a0f8-2d48-4227-989a-2ae4853e4f6a","system_id":"levelo_inurba_marseille","lat":43.29602,"lon":5.38104,"is_reserved":false,"is_disabled":false,"rental_uris":{"android":"levelo://app?vid=a677a0f8-2d48-4227-989a-2ae4853e4f6a","ios":"levelo://app?vid=a677a0f8-2d48-4227-989a-2ae4853e4f6a"},"vehicle_type_id":"4","last_reported":1717538892,"current_range_meters":11600,"station_id":"ce4bgl12rcd13ifvqbo0","pricing_plan_id":"cebpf4jnsgd1na2vs0mg"},{"bike_id":"58fbb038-1a65-41b9-85d3-6d288b9e6a01","system_id":"levelo_inurba_marseille","lat":43.292749,"lon":5.368402,"is_reserved":false,"is_disabled":false,"rental_uris":{"android":"levelo://app?vid=58fbb038-1a65-41b9-85d3-6d288b9e6a01","ios":"levelo://app?vid=58fbb038-1a65-41b9-85d3-6d288b9e6a01"},"vehicle_type_id":"4","last_reported":1717538892,"current_range_meters":26400,"station_id":"ce4bhbp2rcd13ifvqesg","pricing_plan_id":"cebpf4jnsgd1na2vs0mg"},{"bike_id":"80556155-143d-44ad-acee-ebef1523453f","system_id":"levelo_inurba_marseille","lat":43.292749,"lon":5.368398,"is_reserved":false,"is_disabled":false,"rental_uris":{"android":"levelo://app?vid=80556155-143d-44ad-acee-ebef1523453f","ios":"levelo://app?vid=80556155-143d-44ad-acee-ebef1523453f"},"vehicle_type_id":"4","last_reported":1717538892,"current_range_meters":20400,"station_id":"ce4bhbp2rcd13ifvqesg","pricing_plan_id":"cebpf4jnsgd1na2vs0mg"},{"bike_id":"0cc044ec-0b1f-45c3-bf88-7542bbe27dd7","system_id":"levelo_inurba_marseille","lat":43.293009,"lon":5.374584,"is_reserved":false,"is_disabled":false,"rental_uris":{"android":"levelo://app?vid=0cc044ec-0b1f-45c3-bf88-7542bbe27dd7","ios":"levelo://app?vid=0cc044ec-0b1f-45c3-bf88-7542bbe27dd7"},"vehicle_type_id":"4","last_reported":1717538892,"current_range_meters":13200,"station_id":"ce4bgi12rcd13ifvqb70","pricing_plan_id":"cebpf4jnsgd1na2vs0mg"},{"bike_id":"88a78a04-eebb-497a-b202-4a29e059b9d0","system_id":"levelo_inurba_marseille","lat":43.305994,"lon":5.393687,"is_reserved":false,"is_disabled":false,"rental_uris":{"android":"levelo://app?vid=88a78a04-eebb-497a-b202-4a29e059b9d0","ios":"levelo://app?vid=88a78a04-eebb-497a-b202-4a29e059b9d0"},"vehicle_type_id":"4","last_reported":1717538892,"current_range_meters":31200,"station_id":"ce4bh0p2rcd13ifvqd80","pricing_plan_id":"cebpf4jnsgd1na2vs0mg"},{"bike_id":"c8b4ab5b-86c4-47d6-8e9e-16aef8e24636","system_id":"levelo_inurba_marseille","lat":43.303002,"lon":5.392142,"is_reserved":false,"is_disabled":false,"rental_uris":{"android":"levelo://app?vid=c8b4ab5b-86c4-47d6-8e9e-16aef8e24636","ios":"levelo://app?vid=c8b4ab5b-86c4-47d6-8e9e-16aef8e24636"},"vehicle_type_id":"4","last_reported":1717538892,"current_range_meters":29600,"station_id":"ce4bgkh2rcd13ifvqbk0","pricing_plan_id":"cebpf4jnsgd1na2vs0mg"},{"bike_id":"4c9f6d0a-3b68-4897-a034-f094fab02ab1","system_id":"levelo_inurba_marseille","lat":43.302992,"lon":5.392136,"is_reserved":false,"is_disabled":false,"rental_uris":{"android":"levelo://app?vid=4c9f6d0a-3b68-4897-a034-f094fab02ab1","ios":"levelo://app?vid=4c9f6d0a-3b68-4897-a034-f094fab02ab1"},"vehicle_type_id":"4","last_reported":1717538892,"current_range_meters":6800,"station_id":"ce4bgkh2rcd13ifvqbk0","pricing_plan_id":"cebpf4jnsgd1na2vs0mg"},{"bike_id":"2341db84-7a8b-41b8-aad6-9b0180458a18","system_id":"levelo_inurba_marseille","lat":43.30085,"lon":5.390856,"is_reserved":false,"is_disabled":false,"rental_uris":{"android":"levelo://app?vid=2341db84-7a8b-41b8-aad6-9b0180458a18","ios":"levelo://app?vid=2341db84-7a8b-41b8-aad6-9b0180458a18"},"vehicle_type_id":"4","last_reported":1717538892,"current_range_meters":24000,"station_id":"ce4bh192rcd13ifvqdb0","pricing_plan_id":"cebpf4jnsgd1na2vs0mg"},{"bike_id":"75ca926d-98af-425e-987c-61386da6df38","system_id":"levelo_inurba_marseille","lat":43.30456,"lon":5.39321,"is_reserved":false,"is_disabled":false,"rental_uris":{"android":"levelo://app?vid=75ca926d-98af-425e-987c-61386da6df38","ios":"levelo://app?vid=75ca926d-98af-425e-987c-61386da6df38"},"vehicle_type_id":"4","last_reported":1717538892,"current_range_meters":17600,"station_id":"","pricing_plan_id":"cebpf4jnsgd1na2vs0mg"},{"bike_id":"fd96fef2-3f3f-4aae-91e6-cb5e5c684ad4","system_id":"levelo_inurba_marseille","lat":43.30337,"lon":5.39252,"is_reserved":false,"is_disabled":false,"rental_uris":{"android":"levelo://app?vid=fd96fef2-3f3f-4aae-91e6-cb5e5c684ad4","ios":"levelo://app?vid=fd96fef2-3f3f-4aae-91e6-cb5e5c684ad4"},"vehicle_type_id":"4","last_reported":1717538892,"current_range_meters":4000,"station_id":"","pricing_plan_id":"cebpf4jnsgd1na2vs0mg"},{"bike_id":"661f66d8-6c28-4f32-b919-e3fbd1be1d96","system_id":"levelo_inurba_marseille","lat":43.2936,"lon":5.37835,"is_reserved":false,"is_disabled":false,"rental_uris":{"android":"levelo://app?vid=661f66d8-6c28-4f32-b919-e3fbd1be1d96","ios":"levelo://app?vid=661f66d8-6c28-4f32-b919-e3fbd1be1d96"},"vehicle_type_id":"4","last_reported":1717538892,"current_range_meters":2800,"station_id":"ce4bgjh2rcd13ifvqbf0","pricing_plan_id":"cebpf4jnsgd1na2vs0mg"},{"bike_id":"8c1b3c78-55c1-43ce-a0ba-b32eb2af3b75","system_id":"levelo_inurba_marseille","lat":43.30092,"lon":5.39079,"is_reserved":false,"is_disabled":false,"rental_uris":{"android":"levelo://app?vid=8c1b3c78-55c1-43ce-a0ba-b32eb2af3b75","ios":"levelo://app?vid=8c1b3c78-55c1-43ce-a0ba-b32eb2af3b75"},"vehicle_type_id":"4","last_reported":1717538892,"current_range_meters":10000,"station_id":"ce4bh192rcd13ifvqdb0","pricing_plan_id":"cebpf4jnsgd1na2vs0mg"},{"bike_id":"d9ca85ff-af1a-45f9-b98f-15a4fbe4e49e","system_id":"levelo_inurba_marseille","lat":43.292311,"lon":5.360731,"is_reserved":false,"is_disabled":false,"rental_uris":{"android":"levelo://app?vid=d9ca85ff-af1a-45f9-b98f-15a4fbe4e49e","ios":"levelo://app?vid=d9ca85ff-af1a-45f9-b98f-15a4fbe4e49e"},"vehicle_type_id":"4","last_reported":1717538892,"current_range_meters":22400,"station_id":"ce4bhbh2rcd13ifvqeqg","pricing_plan_id":"cebpf4jnsgd1na2vs0mg"},{"bike_id":"07cf9eeb-4d71-4ff4-b3a0-6856acf92017","system_id":"levelo_inurba_marseille","lat":43.291671,"lon":5.371575,"is_reserved":false,"is_disabled":false,"rental_uris":{"android":"levelo://app?vid=07cf9eeb-4d71-4ff4-b3a0-6856acf92017","ios":"levelo://app?vid=07cf9eeb-4d71-4ff4-b3a0-6856acf92017"},"vehicle_type_id":"4","last_reported":1717538892,"current_range_meters":28000,"station_id":"ce4bha92rcd13ifvqeh0","pricing_plan_id":"cebpf4jnsgd1na2vs0mg"},{"bike_id":"996e9a43-869b-48c3-b3fa-c8f18cd5dd29","system_id":"levelo_inurba_marseille","lat":43.298764,"lon":5.388973,"is_reserved":false,"is_disabled":false,"rental_uris":{"android":"levelo://app?vid=996e9a43-869b-48c3-b3fa-c8f18cd5dd29","ios":"levelo://app?vid=996e9a43-869b-48c3-b3fa-c8f18cd5dd29"},"vehicle_type_id":"4","last_reported":1717538892,"current_range_meters":20800,"station_id":"ce4bh392rcd13ifvqdl0","pricing_plan_id":"cebpf4jnsgd1na2vs0mg"},{"bike_id":"242cd110-5774-4816-86be-8c20143e9a29","system_id":"levelo_inurba_marseille","lat":43.298764,"lon":5.388973,"is_reserved":false,"is_disabled":false,"rental_uris":{"android":"levelo://app?vid=242cd110-5774-4816-86be-8c20143e9a29","ios":"levelo://app?vid=242cd110-5774-4816-86be-8c20143e9a29"},"vehicle_type_id":"4","last_reported":1717538892,"current_range_meters":0,"station_id":"ce4bh392rcd13ifvqdl0","pricing_plan_id":"cebpf4jnsgd1na2vs0mg"},{"bike_id":"de9c26f9-034e-465e-8c07-666a3f2042ab","system_id":"levelo_inurba_marseille","lat":43.309047,"lon":5.396551,"is_reserved":false,"is_disabled":false,"rental_uris":{"android":"levelo://app?vid=de9c26f9-034e-465e-8c07-666a3f2042ab","ios":"levelo://app?vid=de9c26f9-034e-465e-8c07-666a3f2042ab"},"vehicle_type_id":"4","last_reported":1717538892,"current_range_meters":21200,"station_id":"ce4bh012rcd13ifvqcv0","pricing_plan_id":"cebpf4jnsgd1na2vs0mg"},{"bike_id":"62ff205b-ab5f-49c1-8fa8-2d9e11b890b2","system_id":"levelo_inurba_marseille","lat":43.309047,"lon":5.396551,"is_reserved":false,"is_disabled":false,"rental_uris":{"android":"levelo://app?vid=62ff205b-ab5f-49c1-8fa8-2d9e11b890b2","ios":"levelo://app?vid=62ff205b-ab5f-49c1-8fa8-2d9e11b890b2"},"vehicle_type_id":"4","last_reported":1717538892,"current_range_meters":24000,"station_id":"ce4bh012rcd13ifvqcv0","pricing_plan_id":"cebpf4jnsgd1na2vs0mg"},{"bike_id":"e324fa56-45a2-4d6d-bfc5-e57f9ad478ac","system_id":"levelo_inurba_marseille","lat":43.309038,"lon":5.396546,"is_reserved":false,"is_disabled":false,"rental_uris":{"android":"levelo://app?vid=e324fa56-45a2-4d6d-bfc5-e57f9ad478ac","ios":"levelo://app?vid=e324fa56-45a2-4d6d-bfc5-e57f9ad478ac"},"vehicle_type_id":"4","last_reported":1717538892,"current_range_meters":10800,"station_id":"ce4bh012rcd13ifvqcv0","pricing_plan_id":"cebpf4jnsgd1na2vs0mg"},{"bike_id":"049f7bbe-8130-4d70-ba18-f2c83a3622f9","system_id":"levelo_inurba_marseille","lat":43.309038,"lon":5.396546,"is_reserved":false,"is_disabled":false,"rental_uris":{"android":"levelo://app?vid=049f7bbe-8130-4d70-ba18-f2c83a3622f9","ios":"levelo://app?vid=049f7bbe-8130-4d70-ba18-f2c83a3622f9"},"vehicle_type_id":"4","last_reported":1717538892,"current_range_meters":0,"station_id":"ce4bh012rcd13ifvqcv0","pricing_plan_id":"cebpf4jnsgd1na2vs0mg"},{"bike_id":"89b16663-d170-424f-94ae-179f51cf1116","system_id":"levelo_inurba_marseille","lat":43.309038,"lon":5.396546,"is_reserved":false,"is_disabled":false,"rental_uris":{"android":"levelo://app?vid=89b16663-d170-424f-94ae-179f51cf1116","ios":"levelo://app?vid=89b16663-d170-424f-94ae-179f51cf1116"},"vehicle_type_id":"4","last_reported":1717538892,"current_range_meters":23200,"station_id":"ce4bh012rcd13ifvqcv0","pricing_plan_id":"cebpf4jnsgd1na2vs0mg"},{"bike_id":"ac15f4b5-d2cc-4cba-88e9-607805cfe057","system_id":"levelo_inurba_marseille","lat":43.309038,"lon":5.396546,"is_reserved":false,"is_disabled":false,"rental_uris":{"android":"levelo://app?vid=ac15f4b5-d2cc-4cba-88e9-607805cfe057","ios":"levelo://app?vid=ac15f4b5-d2cc-4cba-88e9-607805cfe057"},"vehicle_type_id":"4","last_reported":1717538892,"current_range_meters":12400,"station_id":"ce4bh012rcd13ifvqcv0","pricing_plan_id":"cebpf4jnsgd1na2vs0mg"},{"bike_id":"d90ae59f-2333-4913-9a8e-984ecba2e5e9","system_id":"levelo_inurba_marseille","lat":43.309038,"lon":5.396546,"is_reserved":false,"is_disabled":false,"rental_uris":{"android":"levelo://app?vid=d90ae59f-2333-4913-9a8e-984ecba2e5e9","ios":"levelo://app?vid=d90ae59f-2333-4913-9a8e-984ecba2e5e9"},"vehicle_type_id":"4","last_reported":1717538892,"current_range_meters":8800,"station_id":"ce4bh012rcd13ifvqcv0","pricing_plan_id":"cebpf4jnsgd1na2vs0mg"},{"bike_id":"021f397c-e8e5-4a86-ad34-c3b22daa6f8a","system_id":"levelo_inurba_marseille","lat":43.309047,"lon":5.396551,"is_reserved":false,"is_disabled":false,"rental_uris":{"android":"levelo://app?vid=021f397c-e8e5-4a86-ad34-c3b22daa6f8a","ios":"levelo://app?vid=021f397c-e8e5-4a86-ad34-c3b22daa6f8a"},"vehicle_type_id":"4","last_reported":1717538892,"current_range_meters":19600,"station_id":"ce4bh012rcd13ifvqcv0","pricing_plan_id":"cebpf4jnsgd1na2vs0mg"},{"bike_id":"e6aecef7-2c10-4032-bb7b-b417e60801b2","system_id":"levelo_inurba_marseille","lat":43.31324,"lon":5.39685,"is_reserved":false,"is_disabled":false,"rental_uris":{"android":"levelo://app?vid=e6aecef7-2c10-4032-bb7b-b417e60801b2","ios":"levelo://app?vid=e6aecef7-2c10-4032-bb7b-b417e60801b2"},"vehicle_type_id":"4","last_reported":1717538892,"current_range_meters":6400,"station_id":"ce4bgvp2rcd13ifvqcu0","pricing_plan_id":"cebpf4jnsgd1na2vs0mg"},{"bike_id":"bb51e1d9-d9c2-4e0a-9e32-7382b0a17290","system_id":"levelo_inurba_marseille","lat":43.313291,"lon":5.396838,"is_reserved":false,"is_disabled":false,"rental_uris":{"android":"levelo://app?vid=bb51e1d9-d9c2-4e0a-9e32-7382b0a17290","ios":"levelo://app?vid=bb51e1d9-d9c2-4e0a-9e32-7382b0a17290"},"vehicle_type_id":"4","last_reported":1717538892,"current_range_meters":23200,"station_id":"ce4bgvp2rcd13ifvqcu0","pricing_plan_id":"cebpf4jnsgd1na2vs0mg"},{"bike_id":"e2d3f3a8-a377-4f5a-aabe-b0d0aaf66d1f","system_id":"levelo_inurba_marseille","lat":43.29195,"lon":5.35788,"is_reserved":false,"is_disabled":false,"rental_uris":{"android":"levelo://app?vid=e2d3f3a8-a377-4f5a-aabe-b0d0aaf66d1f","ios":"levelo://app?vid=e2d3f3a8-a377-4f5a-aabe-b0d0aaf66d1f"},"vehicle_type_id":"4","last_reported":1717538892,"current_range_meters":15600,"station_id":"ce4bhb12rcd13ifvqel0","pricing_plan_id":"cebpf4jnsgd1na2vs0mg"},{"bike_id":"43fda8d5-b874-49b3-97f6-94cd2b50b5f5","system_id":"levelo_inurba_marseille","lat":43.31327,"lon":5.3969,"is_reserved":false,"is_disabled":false,"rental_uris":{"android":"levelo://app?vid=43fda8d5-b874-49b3-97f6-94cd2b50b5f5","ios":"levelo://app?vid=43fda8d5-b874-49b3-97f6-94cd2b50b5f5"},"vehicle_type_id":"4","last_reported":1717538892,"current_range_meters":28400,"station_id":"ce4bgvp2rcd13ifvqcu0","pricing_plan_id":"cebpf4jnsgd1na2vs0mg"},{"bike_id":"faf58db9-f460-4d3c-af56-69d4dbae3001","system_id":"levelo_inurba_marseille","lat":43.313291,"lon":5.396838,"is_reserved":false,"is_disabled":false,"rental_uris":{"android":"levelo://app?vid=faf58db9-f460-4d3c-af56-69d4dbae3001","ios":"levelo://app?vid=faf58db9-f460-4d3c-af56-69d4dbae3001"},"vehicle_type_id":"4","last_reported":1717538892,"current_range_meters":12800,"station_id":"ce4bgvp2rcd13ifvqcu0","pricing_plan_id":"cebpf4jnsgd1na2vs0mg"},{"bike_id":"1498370f-2b37-4ae7-810f-68823433963d","system_id":"levelo_inurba_marseille","lat":43.30897,"lon":5.39646,"is_reserved":false,"is_disabled":false,"rental_uris":{"android":"levelo://app?vid=1498370f-2b37-4ae7-810f-68823433963d","ios":"levelo://app?vid=1498370f-2b37-4ae7-810f-68823433963d"},"vehicle_type_id":"4","last_reported":1717538892,"current_range_meters":400,"station_id":"ce4bh012rcd13ifvqcv0","pricing_plan_id":"cebpf4jnsgd1na2vs0mg"},{"bike_id":"31891aed-970e-462b-b097-ba38e79c44b5","system_id":"levelo_inurba_marseille","lat":43.31329,"lon":5.39691,"is_reserved":false,"is_disabled":false,"rental_uris":{"android":"levelo://app?vid=31891aed-970e-462b-b097-ba38e79c44b5","ios":"levelo://app?vid=31891aed-970e-462b-b097-ba38e79c44b5"},"vehicle_type_id":"4","last_reported":1717538892,"current_range_meters":19600,"station_id":"ce4bgvp2rcd13ifvqcu0","pricing_plan_id":"cebpf4jnsgd1na2vs0mg"},{"bike_id":"91202ba7-e721-4b91-ae9c-1a277a54a7e4","system_id":"levelo_inurba_marseille","lat":43.313291,"lon":5.396838,"is_reserved":false,"is_disabled":false,"rental_uris":{"android":"levelo://app?vid=91202ba7-e721-4b91-ae9c-1a277a54a7e4","ios":"levelo://app?vid=91202ba7-e721-4b91-ae9c-1a277a54a7e4"},"vehicle_type_id":"4","last_reported":1717538892,"current_range_meters":0,"station_id":"ce4bgvp2rcd13ifvqcu0","pricing_plan_id":"cebpf4jnsgd1na2vs0mg"},{"bike_id":"02ff65cc-6ce4-4877-8cb7-f5acd8cca3a0","system_id":"levelo_inurba_marseille","lat":43.313291,"lon":5.396838,"is_reserved":false,"is_disabled":false,"rental_uris":{"android":"levelo://app?vid=02ff65cc-6ce4-4877-8cb7-f5acd8cca3a0","ios":"levelo://app?vid=02ff65cc-6ce4-4877-8cb7-f5acd8cca3a0"},"vehicle_type_id":"4","last_reported":1717538892,"current_range_meters":18800,"station_id":"ce4bgvp2rcd13ifvqcu0","pricing_plan_id":"cebpf4jnsgd1na2vs0mg"},{"bike_id":"07e696ca-4a83-463e-83f3-fffac8f2bd7c","system_id":"levelo_inurba_marseille","lat":43.313291,"lon":5.396838,"is_reserved":false,"is_disabled":false,"rental_uris":{"android":"levelo://app?vid=07e696ca-4a83-463e-83f3-fffac8f2bd7c","ios":"levelo://app?vid=07e696ca-4a83-463e-83f3-fffac8f2bd7c"},"vehicle_type_id":"4","last_reported":1717538892,"current_range_meters":0,"station_id":"ce4bgvp2rcd13ifvqcu0","pricing_plan_id":"cebpf4jnsgd1na2vs0mg"},{"bike_id":"4d3c82a3-c6c6-4d5c-a61a-301f82f9bcdc","system_id":"levelo_inurba_marseille","lat":43.313291,"lon":5.396838,"is_reserved":false,"is_disabled":false,"rental_uris":{"android":"levelo://app?vid=4d3c82a3-c6c6-4d5c-a61a-301f82f9bcdc","ios":"levelo://app?vid=4d3c82a3-c6c6-4d5c-a61a-301f82f9bcdc"},"vehicle_type_id":"4","last_reported":1717538892,"current_range_meters":28400,"station_id":"ce4bgvp2rcd13ifvqcu0","pricing_plan_id":"cebpf4jnsgd1na2vs0mg"},{"bike_id":"6952dfc4-94c4-4bb8-99e4-87d90cb058ad","system_id":"levelo_inurba_marseille","lat":43.309047,"lon":5.396551,"is_reserved":false,"is_disabled":false,"rental_uris":{"android":"levelo://app?vid=6952dfc4-94c4-4bb8-99e4-87d90cb058ad","ios":"levelo://app?vid=6952dfc4-94c4-4bb8-99e4-87d90cb058ad"},"vehicle_type_id":"4","last_reported":1717538892,"current_range_meters":22000,"station_id":"ce4bh012rcd13ifvqcv0","pricing_plan_id":"cebpf4jnsgd1na2vs0mg"},{"bike_id":"71ada0bb-0bca-4425-84de-90234437e414","system_id":"levelo_inurba_marseille","lat":43.292005,"lon":5.357875,"is_reserved":false,"is_disabled":false,"rental_uris":{"android":"levelo://app?vid=71ada0bb-0bca-4425-84de-90234437e414","ios":"levelo://app?vid=71ada0bb-0bca-4425-84de-90234437e414"},"vehicle_type_id":"4","last_reported":1717538892,"current_range_meters":23600,"station_id":"ce4bhb12rcd13ifvqel0","pricing_plan_id":"cebpf4jnsgd1na2vs0mg"},{"bike_id":"bf14d355-dfdc-4526-93f8-71f027fe1ef2","system_id":"levelo_inurba_marseille","lat":43.309047,"lon":5.396551,"is_reserved":false,"is_disabled":false,"rental_uris":{"android":"levelo://app?vid=bf14d355-dfdc-4526-93f8-71f027fe1ef2","ios":"levelo://app?vid=bf14d355-dfdc-4526-93f8-71f027fe1ef2"},"vehicle_type_id":"4","last_reported":1717538892,"current_range_meters":2000,"station_id":"ce4bh012rcd13ifvqcv0","pricing_plan_id":"cebpf4jnsgd1na2vs0mg"},{"bike_id":"4cc73d21-1ff0-48d4-8901-c87efcd5bf5f","system_id":"levelo_inurba_marseille","lat":43.309038,"lon":5.396546,"is_reserved":false,"is_disabled":false,"rental_uris":{"android":"levelo://app?vid=4cc73d21-1ff0-48d4-8901-c87efcd5bf5f","ios":"levelo://app?vid=4cc73d21-1ff0-48d4-8901-c87efcd5bf5f"},"vehicle_type_id":"4","last_reported":1717538892,"current_range_meters":20800,"station_id":"ce4bh012rcd13ifvqcv0","pricing_plan_id":"cebpf4jnsgd1na2vs0mg"},{"bike_id":"3e80a9a7-d8e5-466b-b545-ee8b6e4c0b55","system_id":"levelo_inurba_marseille","lat":43.31326,"lon":5.397,"is_reserved":false,"is_disabled":false,"rental_uris":{"android":"levelo://app?vid=3e80a9a7-d8e5-466b-b545-ee8b6e4c0b55","ios":"levelo://app?vid=3e80a9a7-d8e5-466b-b545-ee8b6e4c0b55"},"vehicle_type_id":"4","last_reported":1717538892,"current_range_meters":17200,"station_id":"ce4bgvp2rcd13ifvqcu0","pricing_plan_id":"cebpf4jnsgd1na2vs0mg"},{"bike_id":"5dfcde32-001f-4706-8a4a-0594d90da2ca","system_id":"levelo_inurba_marseille","lat":43.309047,"lon":5.396551,"is_reserved":false,"is_disabled":false,"rental_uris":{"android":"levelo://app?vid=5dfcde32-001f-4706-8a4a-0594d90da2ca","ios":"levelo://app?vid=5dfcde32-001f-4706-8a4a-0594d90da2ca"},"vehicle_type_id":"4","last_reported":1717538892,"current_range_meters":11600,"station_id":"ce4bh012rcd13ifvqcv0","pricing_plan_id":"cebpf4jnsgd1na2vs0mg"},{"bike_id":"b1288145-7b59-4d37-8142-88ed4b49ec02","system_id":"levelo_inurba_marseille","lat":43.29541,"lon":5.38544,"is_reserved":false,"is_disabled":false,"rental_uris":{"android":"levelo://app?vid=b1288145-7b59-4d37-8142-88ed4b49ec02","ios":"levelo://app?vid=b1288145-7b59-4d37-8142-88ed4b49ec02"},"vehicle_type_id":"4","last_reported":1717538892,"current_range_meters":0,"station_id":"ce4bgih2rcd13ifvqba0","pricing_plan_id":"cebpf4jnsgd1na2vs0mg"},{"bike_id":"aaea1176-8350-4b45-a9a6-023e4fd92a55","system_id":"levelo_inurba_marseille","lat":43.29082,"lon":5.37153,"is_reserved":false,"is_disabled":false,"rental_uris":{"android":"levelo://app?vid=aaea1176-8350-4b45-a9a6-023e4fd92a55","ios":"levelo://app?vid=aaea1176-8350-4b45-a9a6-023e4fd92a55"},"vehicle_type_id":"4","last_reported":1717538892,"current_range_meters":0,"station_id":"ce4bh5p2rcd13ifvqe4g","pricing_plan_id":"cebpf4jnsgd1na2vs0mg"},{"bike_id":"bc179952-7dbd-4314-baf5-e2e8b1a7a09e","system_id":"levelo_inurba_marseille","lat":43.290779,"lon":5.371482,"is_reserved":false,"is_disabled":false,"rental_uris":{"android":"levelo://app?vid=bc179952-7dbd-4314-baf5-e2e8b1a7a09e","ios":"levelo://app?vid=bc179952-7dbd-4314-baf5-e2e8b1a7a09e"},"vehicle_type_id":"4","last_reported":1717538892,"current_range_meters":0,"station_id":"ce4bh5p2rcd13ifvqe4g","pricing_plan_id":"cebpf4jnsgd1na2vs0mg"},{"bike_id":"c6088122-6428-44ba-bc6f-0882f088a478","system_id":"levelo_inurba_marseille","lat":43.302008,"lon":5.394694,"is_reserved":false,"is_disabled":false,"rental_uris":{"android":"levelo://app?vid=c6088122-6428-44ba-bc6f-0882f088a478","ios":"levelo://app?vid=c6088122-6428-44ba-bc6f-0882f088a478"},"vehicle_type_id":"4","last_reported":1717538892,"current_range_meters":4000,"station_id":"ce4bh0p2rcd13ifvqd70","pricing_plan_id":"cebpf4jnsgd1na2vs0mg"},{"bike_id":"d30d3b16-8f64-40a4-b79c-0f1bf221ddb9","system_id":"levelo_inurba_marseille","lat":43.302008,"lon":5.394694,"is_reserved":false,"is_disabled":false,"rental_uris":{"android":"levelo://app?vid=d30d3b16-8f64-40a4-b79c-0f1bf221ddb9","ios":"levelo://app?vid=d30d3b16-8f64-40a4-b79c-0f1bf221ddb9"},"vehicle_type_id":"4","last_reported":1717538892,"current_range_meters":21600,"station_id":"ce4bh0p2rcd13ifvqd70","pricing_plan_id":"cebpf4jnsgd1na2vs0mg"},{"bike_id":"4c7a2927-264b-4ace-8ec8-bce479afff8b","system_id":"levelo_inurba_marseille","lat":43.290631,"lon":5.359244,"is_reserved":false,"is_disabled":false,"rental_uris":{"android":"levelo://app?vid=4c7a2927-264b-4ace-8ec8-bce479afff8b","ios":"levelo://app?vid=4c7a2927-264b-4ace-8ec8-bce479afff8b"},"vehicle_type_id":"4","last_reported":1717538892,"current_range_meters":29200,"station_id":"ce4bha92rcd13ifvqeg0","pricing_plan_id":"cebpf4jnsgd1na2vs0mg"},{"bike_id":"3c4c9aa2-51d8-4a3e-9e50-91e2851df90f","system_id":"levelo_inurba_marseille","lat":43.289184,"lon":5.366408,"is_reserved":false,"is_disabled":false,"rental_uris":{"android":"levelo://app?vid=3c4c9aa2-51d8-4a3e-9e50-91e2851df90f","ios":"levelo://app?vid=3c4c9aa2-51d8-4a3e-9e50-91e2851df90f"},"vehicle_type_id":"4","last_reported":1717538892,"current_range_meters":17600,"station_id":"ce4bhap2rcd13ifvqek0","pricing_plan_id":"cebpf4jnsgd1na2vs0mg"},{"bike_id":"b6e126b0-8252-4abc-9abf-2a96efbff12f","system_id":"levelo_inurba_marseille","lat":43.289468,"lon":5.363719,"is_reserved":false,"is_disabled":false,"rental_uris":{"android":"levelo://app?vid=b6e126b0-8252-4abc-9abf-2a96efbff12f","ios":"levelo://app?vid=b6e126b0-8252-4abc-9abf-2a96efbff12f"},"vehicle_type_id":"4","last_reported":1717538892,"current_range_meters":10800,"station_id":"ce4bhc92rcd13ifvqetg","pricing_plan_id":"cebpf4jnsgd1na2vs0mg"},{"bike_id":"00e65308-ec91-42d9-815d-f4180bfde6b6","system_id":"levelo_inurba_marseille","lat":43.289468,"lon":5.363719,"is_reserved":false,"is_disabled":false,"rental_uris":{"android":"levelo://app?vid=00e65308-ec91-42d9-815d-f4180bfde6b6","ios":"levelo://app?vid=00e65308-ec91-42d9-815d-f4180bfde6b6"},"vehicle_type_id":"4","last_reported":1717538892,"current_range_meters":20800,"station_id":"ce4bhc92rcd13ifvqetg","pricing_plan_id":"cebpf4jnsgd1na2vs0mg"},{"bike_id":"3571874c-e3fa-41b9-a096-4ca4a24cae25","system_id":"levelo_inurba_marseille","lat":43.30429,"lon":5.39731,"is_reserved":false,"is_disabled":false,"rental_uris":{"android":"levelo://app?vid=3571874c-e3fa-41b9-a096-4ca4a24cae25","ios":"levelo://app?vid=3571874c-e3fa-41b9-a096-4ca4a24cae25"},"vehicle_type_id":"4","last_reported":1717538892,"current_range_meters":13200,"station_id":"","pricing_plan_id":"cebpf4jnsgd1na2vs0mg"},{"bike_id":"01b5c751-8aa0-46b4-af58-a0e7c8c8145c","system_id":"levelo_inurba_marseille","lat":43.304274,"lon":5.397513,"is_reserved":false,"is_disabled":false,"rental_uris":{"android":"levelo://app?vid=01b5c751-8aa0-46b4-af58-a0e7c8c8145c","ios":"levelo://app?vid=01b5c751-8aa0-46b4-af58-a0e7c8c8145c"},"vehicle_type_id":"4","last_reported":1717538892,"current_range_meters":3200,"station_id":"ce4bh092rcd13ifvqd20","pricing_plan_id":"cebpf4jnsgd1na2vs0mg"},{"bike_id":"c2c4d84e-b944-41c1-a54c-21526cc0c97f","system_id":"levelo_inurba_marseille","lat":43.304296,"lon":5.397513,"is_reserved":false,"is_disabled":false,"rental_uris":{"android":"levelo://app?vid=c2c4d84e-b944-41c1-a54c-21526cc0c97f","ios":"levelo://app?vid=c2c4d84e-b944-41c1-a54c-21526cc0c97f"},"vehicle_type_id":"4","last_reported":1717538892,"current_range_meters":31200,"station_id":"ce4bh092rcd13ifvqd20","pricing_plan_id":"cebpf4jnsgd1na2vs0mg"},{"bike_id":"ad5f9db5-e4eb-4741-b2bc-aff4c6bdaba4","system_id":"levelo_inurba_marseille","lat":43.304274,"lon":5.397513,"is_reserved":false,"is_disabled":false,"rental_uris":{"android":"levelo://app?vid=ad5f9db5-e4eb-4741-b2bc-aff4c6bdaba4","ios":"levelo://app?vid=ad5f9db5-e4eb-4741-b2bc-aff4c6bdaba4"},"vehicle_type_id":"4","last_reported":1717538892,"current_range_meters":16000,"station_id":"ce4bh092rcd13ifvqd20","pricing_plan_id":"cebpf4jnsgd1na2vs0mg"},{"bike_id":"45105908-4500-4e87-a86c-a8692dccce6f","system_id":"levelo_inurba_marseille","lat":43.290104,"lon":5.356111,"is_reserved":false,"is_disabled":false,"rental_uris":{"android":"levelo://app?vid=45105908-4500-4e87-a86c-a8692dccce6f","ios":"levelo://app?vid=45105908-4500-4e87-a86c-a8692dccce6f"},"vehicle_type_id":"4","last_reported":1717538892,"current_range_meters":18400,"station_id":"ce4bhb92rcd13ifvqen0","pricing_plan_id":"cebpf4jnsgd1na2vs0mg"},{"bike_id":"9ce82ece-ea6a-464e-993a-e09908352813","system_id":"levelo_inurba_marseille","lat":43.290995,"lon":5.381361,"is_reserved":false,"is_disabled":false,"rental_uris":{"android":"levelo://app?vid=9ce82ece-ea6a-464e-993a-e09908352813","ios":"levelo://app?vid=9ce82ece-ea6a-464e-993a-e09908352813"},"vehicle_type_id":"4","last_reported":1717538892,"current_range_meters":11600,"station_id":"ce4bh512rcd13ifvqe2g","pricing_plan_id":"cebpf4jnsgd1na2vs0mg"},{"bike_id":"ced47a8d-34be-455f-94ab-65faf95b0b70","system_id":"levelo_inurba_marseille","lat":43.290995,"lon":5.381361,"is_reserved":false,"is_disabled":false,"rental_uris":{"android":"levelo://app?vid=ced47a8d-34be-455f-94ab-65faf95b0b70","ios":"levelo://app?vid=ced47a8d-34be-455f-94ab-65faf95b0b70"},"vehicle_type_id":"4","last_reported":1717538892,"current_range_meters":1200,"station_id":"ce4bh512rcd13ifvqe2g","pricing_plan_id":"cebpf4jnsgd1na2vs0mg"},{"bike_id":"4f1f43a7-4a81-4278-8315-01940586b7e7","system_id":"levelo_inurba_marseille","lat":43.290995,"lon":5.381361,"is_reserved":false,"is_disabled":false,"rental_uris":{"android":"levelo://app?vid=4f1f43a7-4a81-4278-8315-01940586b7e7","ios":"levelo://app?vid=4f1f43a7-4a81-4278-8315-01940586b7e7"},"vehicle_type_id":"4","last_reported":1717538892,"current_range_meters":23200,"station_id":"ce4bh512rcd13ifvqe2g","pricing_plan_id":"cebpf4jnsgd1na2vs0mg"},{"bike_id":"6e80c515-4eb3-47a1-a8e9-e52f5fafc2a1","system_id":"levelo_inurba_marseille","lat":43.290946,"lon":5.381528,"is_reserved":false,"is_disabled":false,"rental_uris":{"android":"levelo://app?vid=6e80c515-4eb3-47a1-a8e9-e52f5fafc2a1","ios":"levelo://app?vid=6e80c515-4eb3-47a1-a8e9-e52f5fafc2a1"},"vehicle_type_id":"4","last_reported":1717538892,"current_range_meters":0,"station_id":"ce4bh512rcd13ifvqe2g","pricing_plan_id":"cebpf4jnsgd1na2vs0mg"},{"bike_id":"9380b4d2-26de-43ed-82b0-68649301383c","system_id":"levelo_inurba_marseille","lat":43.29789,"lon":5.39334,"is_reserved":false,"is_disabled":false,"rental_uris":{"android":"levelo://app?vid=9380b4d2-26de-43ed-82b0-68649301383c","ios":"levelo://app?vid=9380b4d2-26de-43ed-82b0-68649301383c"},"vehicle_type_id":"4","last_reported":1717538892,"current_range_meters":9200,"station_id":"chh1huq6cuj3fo74tm60","pricing_plan_id":"cebpf4jnsgd1na2vs0mg"},{"bike_id":"fcd15743-6571-415d-820c-15ace2b63673","system_id":"levelo_inurba_marseille","lat":43.297815,"lon":5.393548,"is_reserved":false,"is_disabled":false,"rental_uris":{"android":"levelo://app?vid=fcd15743-6571-415d-820c-15ace2b63673","ios":"levelo://app?vid=fcd15743-6571-415d-820c-15ace2b63673"},"vehicle_type_id":"4","last_reported":1717538892,"current_range_meters":24000,"station_id":"chh1huq6cuj3fo74tm60","pricing_plan_id":"cebpf4jnsgd1na2vs0mg"},{"bike_id":"0beb7888-2e89-4ef9-8a87-b39fbfa2c062","system_id":"levelo_inurba_marseille","lat":43.330228,"lon":5.390273,"is_reserved":false,"is_disabled":false,"rental_uris":{"android":"levelo://app?vid=0beb7888-2e89-4ef9-8a87-b39fbfa2c062","ios":"levelo://app?vid=0beb7888-2e89-4ef9-8a87-b39fbfa2c062"},"vehicle_type_id":"4","last_reported":1717538892,"current_range_meters":11600,"station_id":"ce4bhr92rcd13ifvqhrg","pricing_plan_id":"cebpf4jnsgd1na2vs0mg"},{"bike_id":"3c89943f-109d-469c-b53a-a61212ff7a9d","system_id":"levelo_inurba_marseille","lat":43.33021,"lon":5.39033,"is_reserved":false,"is_disabled":false,"rental_uris":{"android":"levelo://app?vid=3c89943f-109d-469c-b53a-a61212ff7a9d","ios":"levelo://app?vid=3c89943f-109d-469c-b53a-a61212ff7a9d"},"vehicle_type_id":"4","last_reported":1717538892,"current_range_meters":0,"station_id":"ce4bhr92rcd13ifvqhrg","pricing_plan_id":"cebpf4jnsgd1na2vs0mg"},{"bike_id":"f9aa627e-3620-4096-ae76-0c38b21b39f5","system_id":"levelo_inurba_marseille","lat":43.33021,"lon":5.390395,"is_reserved":false,"is_disabled":false,"rental_uris":{"android":"levelo://app?vid=f9aa627e-3620-4096-ae76-0c38b21b39f5","ios":"levelo://app?vid=f9aa627e-3620-4096-ae76-0c38b21b39f5"},"vehicle_type_id":"4","last_reported":1717538892,"current_range_meters":16400,"station_id":"ce4bhr92rcd13ifvqhrg","pricing_plan_id":"cebpf4jnsgd1na2vs0mg"},{"bike_id":"bbe4c5f5-ff83-40ae-8615-ca0fe4d73e68","system_id":"levelo_inurba_marseille","lat":43.33025,"lon":5.39034,"is_reserved":false,"is_disabled":false,"rental_uris":{"android":"levelo://app?vid=bbe4c5f5-ff83-40ae-8615-ca0fe4d73e68","ios":"levelo://app?vid=bbe4c5f5-ff83-40ae-8615-ca0fe4d73e68"},"vehicle_type_id":"4","last_reported":1717538892,"current_range_meters":6400,"station_id":"ce4bhr92rcd13ifvqhrg","pricing_plan_id":"cebpf4jnsgd1na2vs0mg"},{"bike_id":"c60aee77-e9a6-4bc7-bea1-a813c6eb207f","system_id":"levelo_inurba_marseille","lat":43.33023,"lon":5.39039,"is_reserved":false,"is_disabled":false,"rental_uris":{"android":"levelo://app?vid=c60aee77-e9a6-4bc7-bea1-a813c6eb207f","ios":"levelo://app?vid=c60aee77-e9a6-4bc7-bea1-a813c6eb207f"},"vehicle_type_id":"4","last_reported":1717538892,"current_range_meters":4800,"station_id":"ce4bhr92rcd13ifvqhrg","pricing_plan_id":"cebpf4jnsgd1na2vs0mg"},{"bike_id":"4775a8d1-0d5a-49df-b41a-7b403726af33","system_id":"levelo_inurba_marseille","lat":43.33027,"lon":5.39034,"is_reserved":false,"is_disabled":false,"rental_uris":{"android":"levelo://app?vid=4775a8d1-0d5a-49df-b41a-7b403726af33","ios":"levelo://app?vid=4775a8d1-0d5a-49df-b41a-7b403726af33"},"vehicle_type_id":"4","last_reported":1717538892,"current_range_meters":16800,"station_id":"ce4bhr92rcd13ifvqhrg","pricing_plan_id":"cebpf4jnsgd1na2vs0mg"},{"bike_id":"73c3779c-fe69-4827-b866-ff06be227dbf","system_id":"levelo_inurba_marseille","lat":43.33025,"lon":5.39038,"is_reserved":false,"is_disabled":false,"rental_uris":{"android":"levelo://app?vid=73c3779c-fe69-4827-b866-ff06be227dbf","ios":"levelo://app?vid=73c3779c-fe69-4827-b866-ff06be227dbf"},"vehicle_type_id":"4","last_reported":1717538892,"current_range_meters":0,"station_id":"ce4bhr92rcd13ifvqhrg","pricing_plan_id":"cebpf4jnsgd1na2vs0mg"},{"bike_id":"46748d6b-03d8-4bba-beac-11c01eea3d4d","system_id":"levelo_inurba_marseille","lat":43.33026,"lon":5.39039,"is_reserved":false,"is_disabled":false,"rental_uris":{"android":"levelo://app?vid=46748d6b-03d8-4bba-beac-11c01eea3d4d","ios":"levelo://app?vid=46748d6b-03d8-4bba-beac-11c01eea3d4d"},"vehicle_type_id":"4","last_reported":1717538892,"current_range_meters":9600,"station_id":"ce4bhr92rcd13ifvqhrg","pricing_plan_id":"cebpf4jnsgd1na2vs0mg"},{"bike_id":"52082711-f349-40c9-8350-827066808b06","system_id":"levelo_inurba_marseille","lat":43.330246,"lon":5.390442,"is_reserved":false,"is_disabled":false,"rental_uris":{"android":"levelo://app?vid=52082711-f349-40c9-8350-827066808b06","ios":"levelo://app?vid=52082711-f349-40c9-8350-827066808b06"},"vehicle_type_id":"4","last_reported":1717538892,"current_range_meters":15200,"station_id":"ce4bhr92rcd13ifvqhrg","pricing_plan_id":"cebpf4jnsgd1na2vs0mg"},{"bike_id":"dc37b1be-67b7-4423-ba4f-52260a48674f","system_id":"levelo_inurba_marseille","lat":43.33028,"lon":5.39041,"is_reserved":false,"is_disabled":false,"rental_uris":{"android":"levelo://app?vid=dc37b1be-67b7-4423-ba4f-52260a48674f","ios":"levelo://app?vid=dc37b1be-67b7-4423-ba4f-52260a48674f"},"vehicle_type_id":"4","last_reported":1717538892,"current_range_meters":12000,"station_id":"ce4bhr92rcd13ifvqhrg","pricing_plan_id":"cebpf4jnsgd1na2vs0mg"},{"bike_id":"200758cc-a980-439e-9a29-a167aae7a4a0","system_id":"levelo_inurba_marseille","lat":43.33028,"lon":5.39042,"is_reserved":false,"is_disabled":false,"rental_uris":{"android":"levelo://app?vid=200758cc-a980-439e-9a29-a167aae7a4a0","ios":"levelo://app?vid=200758cc-a980-439e-9a29-a167aae7a4a0"},"vehicle_type_id":"4","last_reported":1717538892,"current_range_meters":24000,"station_id":"ce4bhr92rcd13ifvqhrg","pricing_plan_id":"cebpf4jnsgd1na2vs0mg"},{"bike_id":"6ea25449-2305-4161-9a48-52a8290c60f2","system_id":"levelo_inurba_marseille","lat":43.33026,"lon":5.39045,"is_reserved":false,"is_disabled":false,"rental_uris":{"android":"levelo://app?vid=6ea25449-2305-4161-9a48-52a8290c60f2","ios":"levelo://app?vid=6ea25449-2305-4161-9a48-52a8290c60f2"},"vehicle_type_id":"4","last_reported":1717538892,"current_range_meters":22000,"station_id":"ce4bhr92rcd13ifvqhrg","pricing_plan_id":"cebpf4jnsgd1na2vs0mg"},{"bike_id":"47c7927e-81e4-453b-8eed-6b52232ec34c","system_id":"levelo_inurba_marseille","lat":43.330276,"lon":5.390433,"is_reserved":false,"is_disabled":false,"rental_uris":{"android":"levelo://app?vid=47c7927e-81e4-453b-8eed-6b52232ec34c","ios":"levelo://app?vid=47c7927e-81e4-453b-8eed-6b52232ec34c"},"vehicle_type_id":"4","last_reported":1717538892,"current_range_meters":31200,"station_id":"ce4bhr92rcd13ifvqhrg","pricing_plan_id":"cebpf4jnsgd1na2vs0mg"},{"bike_id":"8e808393-7b8c-4935-9a85-9c14b9ba930c","system_id":"levelo_inurba_marseille","lat":43.2901,"lon":5.381269,"is_reserved":false,"is_disabled":false,"rental_uris":{"android":"levelo://app?vid=8e808393-7b8c-4935-9a85-9c14b9ba930c","ios":"levelo://app?vid=8e808393-7b8c-4935-9a85-9c14b9ba930c"},"vehicle_type_id":"4","last_reported":1717538892,"current_range_meters":21200,"station_id":"ce4bh4p2rcd13ifvqe1g","pricing_plan_id":"cebpf4jnsgd1na2vs0mg"},{"bike_id":"ede9993e-7d0b-4fc4-8c4a-beb77d5d7acc","system_id":"levelo_inurba_marseille","lat":43.2901,"lon":5.381269,"is_reserved":false,"is_disabled":false,"rental_uris":{"android":"levelo://app?vid=ede9993e-7d0b-4fc4-8c4a-beb77d5d7acc","ios":"levelo://app?vid=ede9993e-7d0b-4fc4-8c4a-beb77d5d7acc"},"vehicle_type_id":"4","last_reported":1717538892,"current_range_meters":27200,"station_id":"ce4bh4p2rcd13ifvqe1g","pricing_plan_id":"cebpf4jnsgd1na2vs0mg"},{"bike_id":"156b2da1-e4c6-48fd-b618-8436ca6f42f6","system_id":"levelo_inurba_marseille","lat":43.2901,"lon":5.381269,"is_reserved":false,"is_disabled":false,"rental_uris":{"android":"levelo://app?vid=156b2da1-e4c6-48fd-b618-8436ca6f42f6","ios":"levelo://app?vid=156b2da1-e4c6-48fd-b618-8436ca6f42f6"},"vehicle_type_id":"4","last_reported":1717538892,"current_range_meters":22000,"station_id":"ce4bh4p2rcd13ifvqe1g","pricing_plan_id":"cebpf4jnsgd1na2vs0mg"},{"bike_id":"7a03ddb6-7813-4d4b-93d9-7cf70684adb3","system_id":"levelo_inurba_marseille","lat":43.290094,"lon":5.381264,"is_reserved":false,"is_disabled":false,"rental_uris":{"android":"levelo://app?vid=7a03ddb6-7813-4d4b-93d9-7cf70684adb3","ios":"levelo://app?vid=7a03ddb6-7813-4d4b-93d9-7cf70684adb3"},"vehicle_type_id":"4","last_reported":1717538892,"current_range_meters":5600,"station_id":"ce4bh4p2rcd13ifvqe1g","pricing_plan_id":"cebpf4jnsgd1na2vs0mg"},{"bike_id":"b99010f9-4a11-4d0c-a623-dc252481ae28","system_id":"levelo_inurba_marseille","lat":43.28856,"lon":5.358371,"is_reserved":false,"is_disabled":false,"rental_uris":{"android":"levelo://app?vid=b99010f9-4a11-4d0c-a623-dc252481ae28","ios":"levelo://app?vid=b99010f9-4a11-4d0c-a623-dc252481ae28"},"vehicle_type_id":"4","last_reported":1717538892,"current_range_meters":8800,"station_id":"ce4bhb12rcd13ifvqem0","pricing_plan_id":"cebpf4jnsgd1na2vs0mg"},{"bike_id":"35053d2a-1667-487c-8702-3ee9268bf84d","system_id":"levelo_inurba_marseille","lat":43.2901,"lon":5.381269,"is_reserved":false,"is_disabled":false,"rental_uris":{"android":"levelo://app?vid=35053d2a-1667-487c-8702-3ee9268bf84d","ios":"levelo://app?vid=35053d2a-1667-487c-8702-3ee9268bf84d"},"vehicle_type_id":"4","last_reported":1717538892,"current_range_meters":0,"station_id":"ce4bh4p2rcd13ifvqe1g","pricing_plan_id":"cebpf4jnsgd1na2vs0mg"},{"bike_id":"13b04a22-8549-4a91-aa4d-c2a9c0862aa2","system_id":"levelo_inurba_marseille","lat":43.2901,"lon":5.381269,"is_reserved":false,"is_disabled":false,"rental_uris":{"android":"levelo://app?vid=13b04a22-8549-4a91-aa4d-c2a9c0862aa2","ios":"levelo://app?vid=13b04a22-8549-4a91-aa4d-c2a9c0862aa2"},"vehicle_type_id":"4","last_reported":1717538892,"current_range_meters":0,"station_id":"ce4bh4p2rcd13ifvqe1g","pricing_plan_id":"cebpf4jnsgd1na2vs0mg"},{"bike_id":"1c41a7b1-2c1b-44d0-8dfe-6ce62cadeac5","system_id":"levelo_inurba_marseille","lat":43.28856,"lon":5.358371,"is_reserved":false,"is_disabled":false,"rental_uris":{"android":"levelo://app?vid=1c41a7b1-2c1b-44d0-8dfe-6ce62cadeac5","ios":"levelo://app?vid=1c41a7b1-2c1b-44d0-8dfe-6ce62cadeac5"},"vehicle_type_id":"4","last_reported":1717538892,"current_range_meters":22000,"station_id":"ce4bhb12rcd13ifvqem0","pricing_plan_id":"cebpf4jnsgd1na2vs0mg"},{"bike_id":"1ca58b8c-253a-4c81-8b19-b92ed60575c4","system_id":"levelo_inurba_marseille","lat":43.288537,"lon":5.358423,"is_reserved":false,"is_disabled":false,"rental_uris":{"android":"levelo://app?vid=1ca58b8c-253a-4c81-8b19-b92ed60575c4","ios":"levelo://app?vid=1ca58b8c-253a-4c81-8b19-b92ed60575c4"},"vehicle_type_id":"4","last_reported":1717538892,"current_range_meters":0,"station_id":"ce4bhb12rcd13ifvqem0","pricing_plan_id":"cebpf4jnsgd1na2vs0mg"},{"bike_id":"91899dda-f24c-46ee-b535-08b87f908a08","system_id":"levelo_inurba_marseille","lat":43.28856,"lon":5.358371,"is_reserved":false,"is_disabled":false,"rental_uris":{"android":"levelo://app?vid=91899dda-f24c-46ee-b535-08b87f908a08","ios":"levelo://app?vid=91899dda-f24c-46ee-b535-08b87f908a08"},"vehicle_type_id":"4","last_reported":1717538892,"current_range_meters":0,"station_id":"ce4bhb12rcd13ifvqem0","pricing_plan_id":"cebpf4jnsgd1na2vs0mg"},{"bike_id":"a0ca4f09-c7ed-4aab-a38b-915d15c3be97","system_id":"levelo_inurba_marseille","lat":43.307797,"lon":5.40074,"is_reserved":false,"is_disabled":false,"rental_uris":{"android":"levelo://app?vid=a0ca4f09-c7ed-4aab-a38b-915d15c3be97","ios":"levelo://app?vid=a0ca4f09-c7ed-4aab-a38b-915d15c3be97"},"vehicle_type_id":"4","last_reported":1717538892,"current_range_meters":24000,"station_id":"","pricing_plan_id":"cebpf4jnsgd1na2vs0mg"},{"bike_id":"ab521a06-8d29-4188-8b06-2ac6c642269b","system_id":"levelo_inurba_marseille","lat":43.291797,"lon":5.386012,"is_reserved":false,"is_disabled":false,"rental_uris":{"android":"levelo://app?vid=ab521a06-8d29-4188-8b06-2ac6c642269b","ios":"levelo://app?vid=ab521a06-8d29-4188-8b06-2ac6c642269b"},"vehicle_type_id":"4","last_reported":1717538892,"current_range_meters":13600,"station_id":"","pricing_plan_id":"cebpf4jnsgd1na2vs0mg"},{"bike_id":"0a79ec17-1c6f-4ef3-b3f5-553a5e56d5f6","system_id":"levelo_inurba_marseille","lat":43.312609,"lon":5.401662,"is_reserved":false,"is_disabled":false,"rental_uris":{"android":"levelo://app?vid=0a79ec17-1c6f-4ef3-b3f5-553a5e56d5f6","ios":"levelo://app?vid=0a79ec17-1c6f-4ef3-b3f5-553a5e56d5f6"},"vehicle_type_id":"4","last_reported":1717538892,"current_range_meters":26400,"station_id":"ce4bh092rcd13ifvqd30","pricing_plan_id":"cebpf4jnsgd1na2vs0mg"},{"bike_id":"4cd1330a-0938-402e-b9be-7c20a9854b2b","system_id":"levelo_inurba_marseille","lat":43.312609,"lon":5.401662,"is_reserved":false,"is_disabled":false,"rental_uris":{"android":"levelo://app?vid=4cd1330a-0938-402e-b9be-7c20a9854b2b","ios":"levelo://app?vid=4cd1330a-0938-402e-b9be-7c20a9854b2b"},"vehicle_type_id":"4","last_reported":1717538892,"current_range_meters":0,"station_id":"ce4bh092rcd13ifvqd30","pricing_plan_id":"cebpf4jnsgd1na2vs0mg"},{"bike_id":"bbd81421-b23c-494f-b8c3-1301ae72dcc3","system_id":"levelo_inurba_marseille","lat":43.312609,"lon":5.401662,"is_reserved":false,"is_disabled":false,"rental_uris":{"android":"levelo://app?vid=bbd81421-b23c-494f-b8c3-1301ae72dcc3","ios":"levelo://app?vid=bbd81421-b23c-494f-b8c3-1301ae72dcc3"},"vehicle_type_id":"4","last_reported":1717538892,"current_range_meters":30000,"station_id":"ce4bh092rcd13ifvqd30","pricing_plan_id":"cebpf4jnsgd1na2vs0mg"},{"bike_id":"06275de1-3516-4389-b796-20ab22df8db1","system_id":"levelo_inurba_marseille","lat":43.309371,"lon":5.401449,"is_reserved":false,"is_disabled":false,"rental_uris":{"android":"levelo://app?vid=06275de1-3516-4389-b796-20ab22df8db1","ios":"levelo://app?vid=06275de1-3516-4389-b796-20ab22df8db1"},"vehicle_type_id":"4","last_reported":1717538892,"current_range_meters":400,"station_id":"ce4bgvp2rcd13ifvqct0","pricing_plan_id":"cebpf4jnsgd1na2vs0mg"},{"bike_id":"724fc08a-3fcf-4c4c-b2ca-7fb3e0fe0a57","system_id":"levelo_inurba_marseille","lat":43.30632,"lon":5.40059,"is_reserved":false,"is_disabled":false,"rental_uris":{"android":"levelo://app?vid=724fc08a-3fcf-4c4c-b2ca-7fb3e0fe0a57","ios":"levelo://app?vid=724fc08a-3fcf-4c4c-b2ca-7fb3e0fe0a57"},"vehicle_type_id":"4","last_reported":1717538892,"current_range_meters":24400,"station_id":"ce4bh112rcd13ifvqda0","pricing_plan_id":"cebpf4jnsgd1na2vs0mg"},{"bike_id":"183ffdf9-8453-4461-a357-1a45eace258e","system_id":"levelo_inurba_marseille","lat":43.309371,"lon":5.401449,"is_reserved":false,"is_disabled":false,"rental_uris":{"android":"levelo://app?vid=183ffdf9-8453-4461-a357-1a45eace258e","ios":"levelo://app?vid=183ffdf9-8453-4461-a357-1a45eace258e"},"vehicle_type_id":"4","last_reported":1717538892,"current_range_meters":13600,"station_id":"ce4bgvp2rcd13ifvqct0","pricing_plan_id":"cebpf4jnsgd1na2vs0mg"},{"bike_id":"26e88c15-1ebf-4978-814d-f8bc280f73dc","system_id":"levelo_inurba_marseille","lat":43.337446,"lon":5.37483,"is_reserved":false,"is_disabled":false,"rental_uris":{"android":"levelo://app?vid=26e88c15-1ebf-4978-814d-f8bc280f73dc","ios":"levelo://app?vid=26e88c15-1ebf-4978-814d-f8bc280f73dc"},"vehicle_type_id":"4","last_reported":1717538892,"current_range_meters":21600,"station_id":"","pricing_plan_id":"cebpf4jnsgd1na2vs0mg"},{"bike_id":"ed10c4e4-d3ba-48d3-9097-538e65a623f5","system_id":"levelo_inurba_marseille","lat":43.33753,"lon":5.3745,"is_reserved":false,"is_disabled":false,"rental_uris":{"android":"levelo://app?vid=ed10c4e4-d3ba-48d3-9097-538e65a623f5","ios":"levelo://app?vid=ed10c4e4-d3ba-48d3-9097-538e65a623f5"},"vehicle_type_id":"4","last_reported":1717538892,"current_range_meters":26400,"station_id":"","pricing_plan_id":"cebpf4jnsgd1na2vs0mg"},{"bike_id":"4ce3473b-5af9-4f55-b45a-c3490d35a544","system_id":"levelo_inurba_marseille","lat":43.309371,"lon":5.401449,"is_reserved":false,"is_disabled":false,"rental_uris":{"android":"levelo://app?vid=4ce3473b-5af9-4f55-b45a-c3490d35a544","ios":"levelo://app?vid=4ce3473b-5af9-4f55-b45a-c3490d35a544"},"vehicle_type_id":"4","last_reported":1717538892,"current_range_meters":24000,"station_id":"ce4bgvp2rcd13ifvqct0","pricing_plan_id":"cebpf4jnsgd1na2vs0mg"},{"bike_id":"30e48e4b-d941-46b1-a77a-66f2bd972ab7","system_id":"levelo_inurba_marseille","lat":43.306468,"lon":5.40078,"is_reserved":false,"is_disabled":false,"rental_uris":{"android":"levelo://app?vid=30e48e4b-d941-46b1-a77a-66f2bd972ab7","ios":"levelo://app?vid=30e48e4b-d941-46b1-a77a-66f2bd972ab7"},"vehicle_type_id":"4","last_reported":1717538892,"current_range_meters":0,"station_id":"ce4bh112rcd13ifvqda0","pricing_plan_id":"cebpf4jnsgd1na2vs0mg"},{"bike_id":"17cc580c-c2e9-4ce9-a280-039d18a91f38","system_id":"levelo_inurba_marseille","lat":43.30642,"lon":5.401031,"is_reserved":false,"is_disabled":false,"rental_uris":{"android":"levelo://app?vid=17cc580c-c2e9-4ce9-a280-039d18a91f38","ios":"levelo://app?vid=17cc580c-c2e9-4ce9-a280-039d18a91f38"},"vehicle_type_id":"4","last_reported":1717538892,"current_range_meters":6000,"station_id":"ce4bh112rcd13ifvqda0","pricing_plan_id":"cebpf4jnsgd1na2vs0mg"},{"bike_id":"ee02765b-925e-45c9-ba6d-d742818e0438","system_id":"levelo_inurba_marseille","lat":43.306412,"lon":5.401035,"is_reserved":false,"is_disabled":false,"rental_uris":{"android":"levelo://app?vid=ee02765b-925e-45c9-ba6d-d742818e0438","ios":"levelo://app?vid=ee02765b-925e-45c9-ba6d-d742818e0438"},"vehicle_type_id":"4","last_reported":1717538892,"current_range_meters":23600,"station_id":"ce4bh112rcd13ifvqda0","pricing_plan_id":"cebpf4jnsgd1na2vs0mg"},{"bike_id":"0073d5d8-ce93-4543-b8ab-c1b23288983b","system_id":"levelo_inurba_marseille","lat":43.306412,"lon":5.401035,"is_reserved":false,"is_disabled":false,"rental_uris":{"android":"levelo://app?vid=0073d5d8-ce93-4543-b8ab-c1b23288983b","ios":"levelo://app?vid=0073d5d8-ce93-4543-b8ab-c1b23288983b"},"vehicle_type_id":"4","last_reported":1717538892,"current_range_meters":12000,"station_id":"ce4bh112rcd13ifvqda0","pricing_plan_id":"cebpf4jnsgd1na2vs0mg"},{"bike_id":"855b5755-3c37-40a9-82f4-fd50739aa186","system_id":"levelo_inurba_marseille","lat":43.306373,"lon":5.400937,"is_reserved":false,"is_disabled":false,"rental_uris":{"android":"levelo://app?vid=855b5755-3c37-40a9-82f4-fd50739aa186","ios":"levelo://app?vid=855b5755-3c37-40a9-82f4-fd50739aa186"},"vehicle_type_id":"4","last_reported":1717538892,"current_range_meters":1200,"station_id":"ce4bh112rcd13ifvqda0","pricing_plan_id":"cebpf4jnsgd1na2vs0mg"},