{"last_updated":1743797413,"ttl":60,"version":"2.2","data":{"bikes":[{"bike_id":"8cdb02c0-97e2-49b7-9984-3ec99b6ac0da","system_id":"levelo_inurba_marseille","lat":43.2439,"lon":5.37062,"is_reserved":false,"is_disabled":true,"rental_uris":{"android":"levelo://app?vid=8cdb02c0-97e2-49b7-9984-3ec99b6ac0da","ios":"levelo://app?vid=8cdb02c0-97e2-49b7-9984-3ec99b6ac0da"},"vehicle_type_id":"4","last_reported":1743797413,"current_range_meters":2800,"station_id":"ce4bhhh2rcd13ifvqfk0","pricing_plan_id":"cebpf4jnsgd1na2vs0mg"},{"bike_id":"ec291039-958f-42a5-b524-987cefc1c12c","system_id":"levelo_inurba_marseille","lat":43.32102,"lon":5.36788,"is_reserved":false,"is_disabled":false,"rental_uris":{"android":"levelo://app?vid=ec291039-958f-42a5-b524-987cefc1c12c","ios":"levelo://app?vid=ec291039-958f-42a5-b524-987cefc1c12c"},"vehicle_type_id":"4","last_reported":1743797413,"current_range_meters":2800,"station_id":"ce4bhrh2rcd13ifvqhug","pricing_plan_id":"cebpf4jnsgd1na2vs0mg"},{"bike_id":"de13fb99-b8ef-487f-ac34-020a6fbf7f15","system_id":"levelo_inurba_marseille","lat":43.29801,"lon":5.38099,"is_reserved":false,"is_disabled":false,"rental_uris":{"android":"levelo://app?vid=de13fb99-b8ef-487f-ac34-020a6fbf7f15","ios":"levelo://app?vid=de13fb99-b8ef-487f-ac34-020a6fbf7f15"},"vehicle_type_id":"4","last_reported":1743797413,"current_range_meters":3200,"station_id":"ce4bgip2rcd13ifvqbb0","pricing_plan_id":"cebpf4jnsgd1na2vs0mg"},{"bike_id":"91227471-25b2-4219-a256-9fdb6f527d29","system_id":"levelo_inurba_marseille","lat":43.30799,"lon":5.43523,"is_reserved":false,"is_disabled":false,"rental_uris":{"android":"levelo://app?vid=91227471-25b2-4219-a256-9fdb6f527d29","ios":"levelo://app?vid=91227471-25b2-4219-a256-9fdb6f527d29"},"vehicle_type_id":"4","last_reported":1743797413,"current_range_meters":3200,"station_id":"ce4bhph2rcd13ifvqheg","pricing_plan_id":"cebpf4jnsgd1na2vs0mg"},{"bike_id":"83870a65-cd55-4d20-8867-ed982ba1eb2a","system_id":"levelo_inurba_marseille","lat":43.31359,"lon":5.36691,"is_reserved":false,"is_disabled":false,"rental_uris":{"android":"levelo://app?vid=83870a65-cd55-4d20-8867-ed982ba1eb2a","ios":"levelo://app?vid=83870a65-cd55-4d20-8867-ed982ba1eb2a"},"vehicle_type_id":"4","last_reported":1743797413,"current_range_meters":2800,"station_id":"ce4bgr92rcd13ifvqc6g","pricing_plan_id":"cebpf4jnsgd1na2vs0mg"},{"bike_id":"efc4c3b2-4275-4114-b61a-232caa115864","system_id":"levelo_inurba_marseille","lat":43.30592,"lon":5.39353,"is_reserved":false,"is_disabled":false,"rental_uris":{"android":"levelo://app?vid=efc4c3b2-4275-4114-b61a-232caa115864","ios":"levelo://app?vid=efc4c3b2-4275-4114-b61a-232caa115864"},"vehicle_type_id":"4","last_reported":1743797413,"current_range_meters":3200,"station_id":"ce4bh0p2rcd13ifvqd80","pricing_plan_id":"cebpf4jnsgd1na2vs0mg"},{"bike_id":"010da739-2aa2-4f13-bc01-37ee668aae26","system_id":"levelo_inurba_marseille","lat":43.281723,"lon":5.426673,"is_reserved":false,"is_disabled":true,"rental_uris":{"android":"levelo://app?vid=010da739-2aa2-4f13-bc01-37ee668aae26","ios":"levelo://app?vid=010da739-2aa2-4f13-bc01-37ee668aae26"},"vehicle_type_id":"4","last_reported":1743797413,"current_range_meters":3200,"station_id":"ce4bhnh2rcd13ifvqgug","pricing_plan_id":"cebpf4jnsgd1na2vs0mg"},{"bike_id":"c6713aa0-6eb6-4827-bbe9-0243563aac9d","system_id":"levelo_inurba_marseille","lat":43.310028,"lon":5.38045,"is_reserved":false,"is_disabled":false,"rental_uris":{"android":"levelo://app?vid=c6713aa0-6eb6-4827-bbe9-0243563aac9d","ios":"levelo://app?vid=c6713aa0-6eb6-4827-bbe9-0243563aac9d"},"vehicle_type_id":"4","last_reported":1743797413,"current_range_meters":3200,"station_id":"ce4bgt92rcd13ifvqcf0","pricing_plan_id":"cebpf4jnsgd1na2vs0mg"},{"bike_id":"53d75380-8638-4768-85b6-f042881abee1","system_id":"levelo_inurba_marseille","lat":43.30919,"lon":5.40144,"is_reserved":false,"is_disabled":false,"rental_uris":{"android":"levelo://app?vid=53d75380-8638-4768-85b6-f042881abee1","ios":"levelo://app?vid=53d75380-8638-4768-85b6-f042881abee1"},"vehicle_type_id":"4","last_reported":1743797413,"current_range_meters":3600,"station_id":"ce4bgvp2rcd13ifvqct0","pricing_plan_id":"cebpf4jnsgd1na2vs0mg"},{"bike_id":"cd83c8ac-ed09-4369-9279-b6f36f2bbd3c","system_id":"levelo_inurba_marseille","lat":43.30822,"lon":5.38216,"is_reserved":false,"is_disabled":false,"rental_uris":{"android":"levelo://app?vid=cd83c8ac-ed09-4369-9279-b6f36f2bbd3c","ios":"levelo://app?vid=cd83c8ac-ed09-4369-9279-b6f36f2bbd3c"},"vehicle_type_id":"4","last_reported":1743797413,"current_range_meters":3600,"station_id":"","pricing_plan_id":"cebpf4jnsgd1na2vs0mg"},{"bike_id":"39606d5b-abe7-4518-a6ad-e56d43dfef4f","system_id":"levelo_inurba_marseille","lat":43.2918,"lon":5.358,"is_reserved":false,"is_disabled":false,"rental_uris":{"android":"levelo://app?vid=39606d5b-abe7-4518-a6ad-e56d43dfef4f","ios":"levelo://app?vid=39606d5b-abe7-4518-a6ad-e56d43dfef4f"},"vehicle_type_id":"4","last_reported":1743797413,"current_range_meters":3600,"station_id":"ce4bhb12rcd13ifvqel0","pricing_plan_id":"cebpf4jnsgd1na2vs0mg"},{"bike_id":"adbee414-ef90-44a6-a56b-402a64879f53","system_id":"levelo_inurba_marseille","lat":43.29846,"lon":5.36279,"is_reserved":false,"is_disabled":false,"rental_uris":{"android":"levelo://app?vid=adbee414-ef90-44a6-a56b-402a64879f53","ios":"levelo://app?vid=adbee414-ef90-44a6-a56b-402a64879f53"},"vehicle_type_id":"4","last_reported":1743797413,"current_range_meters":3600,"station_id":"ce4bgpp2rcd13ifvqc3g","pricing_plan_id":"cebpf4jnsgd1na2vs0mg"},{"bike_id":"28122322-cfa0-44d1-8284-d34b791c8a5e","system_id":"levelo_inurba_marseille","lat":43.307324,"lon":5.424473,"is_reserved":false,"is_disabled":false,"rental_uris":{"android":"levelo://app?vid=28122322-cfa0-44d1-8284-d34b791c8a5e","ios":"levelo://app?vid=28122322-cfa0-44d1-8284-d34b791c8a5e"},"vehicle_type_id":"4","last_reported":1743797413,"current_range_meters":3600,"station_id":"st_cvj6ca6bvosntc0bfgr0","pricing_plan_id":"cebpf4jnsgd1na2vs0mg"},{"bike_id":"20efdaef-5259-48b6-9a61-e094dc8459d1","system_id":"levelo_inurba_marseille","lat":43.2903,"lon":5.38634,"is_reserved":false,"is_disabled":false,"rental_uris":{"android":"levelo://app?vid=20efdaef-5259-48b6-9a61-e094dc8459d1","ios":"levelo://app?vid=20efdaef-5259-48b6-9a61-e094dc8459d1"},"vehicle_type_id":"4","last_reported":1743797413,"current_range_meters":3600,"station_id":"ce4bh4p2rcd13ifvqe0g","pricing_plan_id":"cebpf4jnsgd1na2vs0mg"},{"bike_id":"72211047-1029-41ad-a478-6f5ab1004e04","system_id":"levelo_inurba_marseille","lat":43.31474,"lon":5.37308,"is_reserved":false,"is_disabled":false,"rental_uris":{"android":"levelo://app?vid=72211047-1029-41ad-a478-6f5ab1004e04","ios":"levelo://app?vid=72211047-1029-41ad-a478-6f5ab1004e04"},"vehicle_type_id":"4","last_reported":1743797413,"current_range_meters":4000,"station_id":"ce4bgt12rcd13ifvqcd0","pricing_plan_id":"cebpf4jnsgd1na2vs0mg"},{"bike_id":"d6fcfa9c-ceda-4b37-9561-91a831644caf","system_id":"levelo_inurba_marseille","lat":43.29906,"lon":5.38136,"is_reserved":false,"is_disabled":false,"rental_uris":{"android":"levelo://app?vid=d6fcfa9c-ceda-4b37-9561-91a831644caf","ios":"levelo://app?vid=d6fcfa9c-ceda-4b37-9561-91a831644caf"},"vehicle_type_id":"4","last_reported":1743797413,"current_range_meters":4000,"station_id":"ce4bgj12rcd13ifvqbc0","pricing_plan_id":"cebpf4jnsgd1na2vs0mg"},{"bike_id":"036f3044-256d-4aaa-b72b-30b226e18e41","system_id":"levelo_inurba_marseille","lat":43.28082,"lon":5.39941,"is_reserved":false,"is_disabled":false,"rental_uris":{"android":"levelo://app?vid=036f3044-256d-4aaa-b72b-30b226e18e41","ios":"levelo://app?vid=036f3044-256d-4aaa-b72b-30b226e18e41"},"vehicle_type_id":"4","last_reported":1743797413,"current_range_meters":4400,"station_id":"","pricing_plan_id":"cebpf4jnsgd1na2vs0mg"},{"bike_id":"a848eab8-c216-49d4-a987-409d915ffa16","system_id":"levelo_inurba_marseille","lat":43.29277,"lon":5.36836,"is_reserved":false,"is_disabled":false,"rental_uris":{"android":"levelo://app?vid=a848eab8-c216-49d4-a987-409d915ffa16","ios":"levelo://app?vid=a848eab8-c216-49d4-a987-409d915ffa16"},"vehicle_type_id":"4","last_reported":1743797413,"current_range_meters":4400,"station_id":"ce4bhbp2rcd13ifvqesg","pricing_plan_id":"cebpf4jnsgd1na2vs0mg"},{"bike_id":"6b311584-09b9-4ac0-83c1-0b9f076ffe33","system_id":"levelo_inurba_marseille","lat":43.29029,"lon":5.3813,"is_reserved":false,"is_disabled":false,"rental_uris":{"android":"levelo://app?vid=6b311584-09b9-4ac0-83c1-0b9f076ffe33","ios":"levelo://app?vid=6b311584-09b9-4ac0-83c1-0b9f076ffe33"},"vehicle_type_id":"4","last_reported":1743797413,"current_range_meters":4800,"station_id":"ce4bh4p2rcd13ifvqe1g","pricing_plan_id":"cebpf4jnsgd1na2vs0mg"},{"bike_id":"33d000d3-31fe-4430-9fe9-c2ea66dabf55","system_id":"levelo_inurba_marseille","lat":43.2895,"lon":5.36383,"is_reserved":false,"is_disabled":false,"rental_uris":{"android":"levelo://app?vid=33d000d3-31fe-4430-9fe9-c2ea66dabf55","ios":"levelo://app?vid=33d000d3-31fe-4430-9fe9-c2ea66dabf55"},"vehicle_type_id":"4","last_reported":1743797413,"current_range_meters":4800,"station_id":"ce4bhc92rcd13ifvqetg","pricing_plan_id":"cebpf4jnsgd1na2vs0mg"},{"bike_id":"9b33541f-e853-4f9d-bbc2-c1f6b0a10edc","system_id":"levelo_inurba_marseille","lat":43.32114,"lon":5.36745,"is_reserved":false,"is_disabled":false,"rental_uris":{"android":"levelo://app?vid=9b33541f-e853-4f9d-bbc2-c1f6b0a10edc","ios":"levelo://app?vid=9b33541f-e853-4f9d-bbc2-c1f6b0a10edc"},"vehicle_type_id":"4","last_reported":1743797413,"current_range_meters":4800,"station_id":"","pricing_plan_id":"cebpf4jnsgd1na2vs0mg"},{"bike_id":"154073e5-e69b-4056-accd-304ea2501517","system_id":"levelo_inurba_marseille","lat":43.29784,"lon":5.38118,"is_reserved":false,"is_disabled":false,"rental_uris":{"android":"levelo://app?vid=154073e5-e69b-4056-accd-304ea2501517","ios":"levelo://app?vid=154073e5-e69b-4056-accd-304ea2501517"},"vehicle_type_id":"4","last_reported":1743797413,"current_range_meters":5600,"station_id":"ce4bgip2rcd13ifvqbb0","pricing_plan_id":"cebpf4jnsgd1na2vs0mg"},{"bike_id":"4ac978b8-637b-4053-959f-c5f647210ff9","system_id":"levelo_inurba_marseille","lat":43.23178,"lon":5.39987,"is_reserved":false,"is_disabled":false,"rental_uris":{"android":"levelo://app?vid=4ac978b8-637b-4053-959f-c5f647210ff9","ios":"levelo://app?vid=4ac978b8-637b-4053-959f-c5f647210ff9"},"vehicle_type_id":"4","last_reported":1743797413,"current_range_meters":5600,"station_id":"ce4bhn12rcd13ifvqgqg","pricing_plan_id":"cebpf4jnsgd1na2vs0mg"},{"bike_id":"2e9d652b-0674-43c5-b667-fa379bed10f3","system_id":"levelo_inurba_marseille","lat":43.29792,"lon":5.38093,"is_reserved":false,"is_disabled":false,"rental_uris":{"android":"levelo://app?vid=2e9d652b-0674-43c5-b667-fa379bed10f3","ios":"levelo://app?vid=2e9d652b-0674-43c5-b667-fa379bed10f3"},"vehicle_type_id":"4","last_reported":1743797413,"current_range_meters":5600,"station_id":"ce4bgip2rcd13ifvqbb0","pricing_plan_id":"cebpf4jnsgd1na2vs0mg"},{"bike_id":"9ab8b16b-9f71-4abb-a498-fbf5542b0810","system_id":"levelo_inurba_marseille","lat":43.28078,"lon":5.39647,"is_reserved":false,"is_disabled":true,"rental_uris":{"android":"levelo://app?vid=9ab8b16b-9f71-4abb-a498-fbf5542b0810","ios":"levelo://app?vid=9ab8b16b-9f71-4abb-a498-fbf5542b0810"},"vehicle_type_id":"4","last_reported":1743797413,"current_range_meters":5600,"station_id":"ce4bho12rcd13ifvqh2g","pricing_plan_id":"cebpf4jnsgd1na2vs0mg"},{"bike_id":"c13336a2-47ce-488c-b5b6-77c01a3ac1d1","system_id":"levelo_inurba_marseille","lat":43.31899,"lon":5.40732,"is_reserved":false,"is_disabled":true,"rental_uris":{"android":"levelo://app?vid=c13336a2-47ce-488c-b5b6-77c01a3ac1d1","ios":"levelo://app?vid=c13336a2-47ce-488c-b5b6-77c01a3ac1d1"},"vehicle_type_id":"4","last_reported":1743797413,"current_range_meters":5600,"station_id":"ce4bhq12rcd13ifvqhig","pricing_plan_id":"cebpf4jnsgd1na2vs0mg"},{"bike_id":"a07f78be-1be1-4b91-8eea-8070d41c51fd","system_id":"levelo_inurba_marseille","lat":43.29879,"lon":5.38898,"is_reserved":false,"is_disabled":false,"rental_uris":{"android":"levelo://app?vid=a07f78be-1be1-4b91-8eea-8070d41c51fd","ios":"levelo://app?vid=a07f78be-1be1-4b91-8eea-8070d41c51fd"},"vehicle_type_id":"4","last_reported":1743797413,"current_range_meters":6000,"station_id":"ce4bh392rcd13ifvqdl0","pricing_plan_id":"cebpf4jnsgd1na2vs0mg"},{"bike_id":"16aa3ad7-bf85-4d4b-ad5b-a965d4038764","system_id":"levelo_inurba_marseille","lat":43.31235,"lon":5.3746,"is_reserved":false,"is_disabled":false,"rental_uris":{"android":"levelo://app?vid=16aa3ad7-bf85-4d4b-ad5b-a965d4038764","ios":"levelo://app?vid=16aa3ad7-bf85-4d4b-ad5b-a965d4038764"},"vehicle_type_id":"4","last_reported":1743797413,"current_range_meters":6000,"station_id":"","pricing_plan_id":"cebpf4jnsgd1na2vs0mg"},{"bike_id":"33b053d7-cc9a-48a0-a9c2-94ca01a7d17d","system_id":"levelo_inurba_marseille","lat":43.2481,"lon":5.37453,"is_reserved":false,"is_disabled":false,"rental_uris":{"android":"levelo://app?vid=33b053d7-cc9a-48a0-a9c2-94ca01a7d17d","ios":"levelo://app?vid=33b053d7-cc9a-48a0-a9c2-94ca01a7d17d"},"vehicle_type_id":"4","last_reported":1743797413,"current_range_meters":6000,"station_id":"ce4bhgh2rcd13ifvqfb0","pricing_plan_id":"cebpf4jnsgd1na2vs0mg"},{"bike_id":"715eff50-001a-413a-8e2d-3344911b1ca7","system_id":"levelo_inurba_marseille","lat":43.33338,"lon":5.39857,"is_reserved":false,"is_disabled":false,"rental_uris":{"android":"levelo://app?vid=715eff50-001a-413a-8e2d-3344911b1ca7","ios":"levelo://app?vid=715eff50-001a-413a-8e2d-3344911b1ca7"},"vehicle_type_id":"4","last_reported":1743797413,"current_range_meters":6000,"station_id":"","pricing_plan_id":"cebpf4jnsgd1na2vs0mg"},{"bike_id":"3d4f404b-31af-4623-a40c-c13856c34f1c","system_id":"levelo_inurba_marseille","lat":43.28417,"lon":5.37515,"is_reserved":false,"is_disabled":false,"rental_uris":{"android":"levelo://app?vid=3d4f404b-31af-4623-a40c-c13856c34f1c","ios":"levelo://app?vid=3d4f404b-31af-4623-a40c-c13856c34f1c"},"vehicle_type_id":"4","last_reported":1743797413,"current_range_meters":6400,"station_id":"ce4bh412rcd13ifvqds0","pricing_plan_id":"cebpf4jnsgd1na2vs0mg"},{"bike_id":"ef296296-b0cf-4248-b5e0-4a4a6cd7d3af","system_id":"levelo_inurba_marseille","lat":43.28849,"lon":5.39305,"is_reserved":false,"is_disabled":false,"rental_uris":{"android":"levelo://app?vid=ef296296-b0cf-4248-b5e0-4a4a6cd7d3af","ios":"levelo://app?vid=ef296296-b0cf-4248-b5e0-4a4a6cd7d3af"},"vehicle_type_id":"4","last_reported":1743797413,"current_range_meters":6400,"station_id":"ce4bh2p2rcd13ifvqdi0","pricing_plan_id":"cebpf4jnsgd1na2vs0mg"},{"bike_id":"e3a29d38-a611-4b12-87ef-2fb8a21c41d5","system_id":"levelo_inurba_marseille","lat":43.22902,"lon":5.35399,"is_reserved":false,"is_disabled":false,"rental_uris":{"android":"levelo://app?vid=e3a29d38-a611-4b12-87ef-2fb8a21c41d5","ios":"levelo://app?vid=e3a29d38-a611-4b12-87ef-2fb8a21c41d5"},"vehicle_type_id":"4","last_reported":1743797413,"current_range_meters":6400,"station_id":"cpo3532slgdg3j2ikp40","pricing_plan_id":"cebpf4jnsgd1na2vs0mg"},{"bike_id":"d43eadae-2d8d-434c-bb04-4ef14e40a738","system_id":"levelo_inurba_marseille","lat":43.29019,"lon":5.38144,"is_reserved":false,"is_disabled":false,"rental_uris":{"android":"levelo://app?vid=d43eadae-2d8d-434c-bb04-4ef14e40a738","ios":"levelo://app?vid=d43eadae-2d8d-434c-bb04-4ef14e40a738"},"vehicle_type_id":"4","last_reported":1743797413,"current_range_meters":6400,"station_id":"ce4bh4p2rcd13ifvqe1g","pricing_plan_id":"cebpf4jnsgd1na2vs0mg"},{"bike_id":"41f837aa-ae05-485a-87f5-fa3987815f2d","system_id":"levelo_inurba_marseille","lat":43.28354,"lon":5.38105,"is_reserved":false,"is_disabled":false,"rental_uris":{"android":"levelo://app?vid=41f837aa-ae05-485a-87f5-fa3987815f2d","ios":"levelo://app?vid=41f837aa-ae05-485a-87f5-fa3987815f2d"},"vehicle_type_id":"4","last_reported":1743797413,"current_range_meters":6400,"station_id":"ce4bh412rcd13ifvqdr0","pricing_plan_id":"cebpf4jnsgd1na2vs0mg"},{"bike_id":"78632750-4df5-480e-bca7-58d4c5e5808f","system_id":"levelo_inurba_marseille","lat":43.30932,"lon":5.40143,"is_reserved":false,"is_disabled":false,"rental_uris":{"android":"levelo://app?vid=78632750-4df5-480e-bca7-58d4c5e5808f","ios":"levelo://app?vid=78632750-4df5-480e-bca7-58d4c5e5808f"},"vehicle_type_id":"4","last_reported":1743797413,"current_range_meters":6400,"station_id":"ce4bgvp2rcd13ifvqct0","pricing_plan_id":"cebpf4jnsgd1na2vs0mg"},{"bike_id":"13a8a5dc-54a2-4219-a266-8faac89558e1","system_id":"levelo_inurba_marseille","lat":43.31508,"lon":5.3727,"is_reserved":false,"is_disabled":false,"rental_uris":{"android":"levelo://app?vid=13a8a5dc-54a2-4219-a266-8faac89558e1","ios":"levelo://app?vid=13a8a5dc-54a2-4219-a266-8faac89558e1"},"vehicle_type_id":"4","last_reported":1743797413,"current_range_meters":6400,"station_id":"ce4bgt12rcd13ifvqcd0","pricing_plan_id":"cebpf4jnsgd1na2vs0mg"},{"bike_id":"0e88f134-2423-4b08-bc3c-5f7a38937552","system_id":"levelo_inurba_marseille","lat":43.23185,"lon":5.39966,"is_reserved":false,"is_disabled":false,"rental_uris":{"android":"levelo://app?vid=0e88f134-2423-4b08-bc3c-5f7a38937552","ios":"levelo://app?vid=0e88f134-2423-4b08-bc3c-5f7a38937552"},"vehicle_type_id":"4","last_reported":1743797413,"current_range_meters":6800,"station_id":"ce4bhn12rcd13ifvqgqg","pricing_plan_id":"cebpf4jnsgd1na2vs0mg"},{"bike_id":"ff83ed64-0add-44f1-9481-ca270874a7c4","system_id":"levelo_inurba_marseille","lat":43.29527,"lon":5.39014,"is_reserved":false,"is_disabled":false,"rental_uris":{"android":"levelo://app?vid=ff83ed64-0add-44f1-9481-ca270874a7c4","ios":"levelo://app?vid=ff83ed64-0add-44f1-9481-ca270874a7c4"},"vehicle_type_id":"4","last_reported":1743797413,"current_range_meters":6800,"station_id":"ce4bh3p2rcd13ifvqdp0","pricing_plan_id":"cebpf4jnsgd1na2vs0mg"},{"bike_id":"51739445-c9ec-4329-96eb-56a2dc06292f","system_id":"levelo_inurba_marseille","lat":43.29411,"lon":5.3861,"is_reserved":false,"is_disabled":false,"rental_uris":{"android":"levelo://app?vid=51739445-c9ec-4329-96eb-56a2dc06292f","ios":"levelo://app?vid=51739445-c9ec-4329-96eb-56a2dc06292f"},"vehicle_type_id":"4","last_reported":1743797413,"current_range_meters":6800,"station_id":"ce4bh2h2rcd13ifvqdh0","pricing_plan_id":"cebpf4jnsgd1na2vs0mg"},{"bike_id":"d76832c4-3604-4de9-b7a5-182f7c6e995c","system_id":"levelo_inurba_marseille","lat":43.31361,"lon":5.38514,"is_reserved":false,"is_disabled":true,"rental_uris":{"android":"levelo://app?vid=d76832c4-3604-4de9-b7a5-182f7c6e995c","ios":"levelo://app?vid=d76832c4-3604-4de9-b7a5-182f7c6e995c"},"vehicle_type_id":"4","last_reported":1743797413,"current_range_meters":6800,"station_id":"ce4bgt92rcd13ifvqcf0","pricing_plan_id":"cebpf4jnsgd1na2vs0mg"},{"bike_id":"e9823df9-8cf8-4889-8040-c8d41386f09c","system_id":"levelo_inurba_marseille","lat":43.29257,"lon":5.36855,"is_reserved":false,"is_disabled":false,"rental_uris":{"android":"levelo://app?vid=e9823df9-8cf8-4889-8040-c8d41386f09c","ios":"levelo://app?vid=e9823df9-8cf8-4889-8040-c8d41386f09c"},"vehicle_type_id":"4","last_reported":1743797413,"current_range_meters":6800,"station_id":"ce4bhbp2rcd13ifvqesg","pricing_plan_id":"cebpf4jnsgd1na2vs0mg"},{"bike_id":"6e7e8bd0-971a-4bf5-a521-0d1053f36753","system_id":"levelo_inurba_marseille","lat":43.310795,"lon":5.424381,"is_reserved":false,"is_disabled":true,"rental_uris":{"android":"levelo://app?vid=6e7e8bd0-971a-4bf5-a521-0d1053f36753","ios":"levelo://app?vid=6e7e8bd0-971a-4bf5-a521-0d1053f36753"},"vehicle_type_id":"4","last_reported":1743797413,"current_range_meters":6800,"station_id":"ce4bhp92rcd13ifvqhag","pricing_plan_id":"cebpf4jnsgd1na2vs0mg"},{"bike_id":"6a8946ee-f7af-48f8-8aa0-eb2777dffbef","system_id":"levelo_inurba_marseille","lat":43.34133,"lon":5.40912,"is_reserved":false,"is_disabled":false,"rental_uris":{"android":"levelo://app?vid=6a8946ee-f7af-48f8-8aa0-eb2777dffbef","ios":"levelo://app?vid=6a8946ee-f7af-48f8-8aa0-eb2777dffbef"},"vehicle_type_id":"4","last_reported":1743797413,"current_range_meters":7200,"station_id":"ce4bhqh2rcd13ifvqhlg","pricing_plan_id":"cebpf4jnsgd1na2vs0mg"},{"bike_id":"26a9400e-71cd-45c6-9211-9781e64f8fa6","system_id":"levelo_inurba_marseille","lat":43.28609,"lon":5.37062,"is_reserved":false,"is_disabled":false,"rental_uris":{"android":"levelo://app?vid=26a9400e-71cd-45c6-9211-9781e64f8fa6","ios":"levelo://app?vid=26a9400e-71cd-45c6-9211-9781e64f8fa6"},"vehicle_type_id":"4","last_reported":1743797413,"current_range_meters":7200,"station_id":"ce4bht12rcd13ifvqi60","pricing_plan_id":"cebpf4jnsgd1na2vs0mg"},{"bike_id":"1049ba71-fb41-4dc5-8c5a-67fbc6fe8421","system_id":"levelo_inurba_marseille","lat":43.2551,"lon":5.37644,"is_reserved":false,"is_disabled":true,"rental_uris":{"android":"levelo://app?vid=1049ba71-fb41-4dc5-8c5a-67fbc6fe8421","ios":"levelo://app?vid=1049ba71-fb41-4dc5-8c5a-67fbc6fe8421"},"vehicle_type_id":"4","last_reported":1743797413,"current_range_meters":7200,"station_id":"ce4bhh12rcd13ifvqff0","pricing_plan_id":"cebpf4jnsgd1na2vs0mg"},{"bike_id":"c55a0c46-58c0-4499-b21b-ecc280024e5d","system_id":"levelo_inurba_marseille","lat":43.24165,"lon":5.36401,"is_reserved":false,"is_disabled":false,"rental_uris":{"android":"levelo://app?vid=c55a0c46-58c0-4499-b21b-ecc280024e5d","ios":"levelo://app?vid=c55a0c46-58c0-4499-b21b-ecc280024e5d"},"vehicle_type_id":"4","last_reported":1743797413,"current_range_meters":7200,"station_id":"cpo36qri1sfpv3e86is0","pricing_plan_id":"cebpf4jnsgd1na2vs0mg"},{"bike_id":"fafffd16-8d3f-4952-9910-016855f73c8a","system_id":"levelo_inurba_marseille","lat":43.30814,"lon":5.4354,"is_reserved":false,"is_disabled":false,"rental_uris":{"android":"levelo://app?vid=fafffd16-8d3f-4952-9910-016855f73c8a","ios":"levelo://app?vid=fafffd16-8d3f-4952-9910-016855f73c8a"},"vehicle_type_id":"4","last_reported":1743797413,"current_range_meters":7200,"station_id":"ce4bhph2rcd13ifvqheg","pricing_plan_id":"cebpf4jnsgd1na2vs0mg"},{"bike_id":"5f46717b-05d1-4f34-a220-8087932d755b","system_id":"levelo_inurba_marseille","lat":43.30114,"lon":5.36957,"is_reserved":false,"is_disabled":false,"rental_uris":{"android":"levelo://app?vid=5f46717b-05d1-4f34-a220-8087932d755b","ios":"levelo://app?vid=5f46717b-05d1-4f34-a220-8087932d755b"},"vehicle_type_id":"4","last_reported":1743797413,"current_range_meters":7200,"station_id":"","pricing_plan_id":"cebpf4jnsgd1na2vs0mg"},{"bike_id":"aec7620d-7b4d-45ae-9307-348c991636c5","system_id":"levelo_inurba_marseille","lat":43.27197,"lon":5.40982,"is_reserved":false,"is_disabled":false,"rental_uris":{"android":"levelo://app?vid=aec7620d-7b4d-45ae-9307-348c991636c5","ios":"levelo://app?vid=aec7620d-7b4d-45ae-9307-348c991636c5"},"vehicle_type_id":"4","last_reported":1743797413,"current_range_meters":8000,"station_id":"ce4bhl12rcd13ifvqgf0","pricing_plan_id":"cebpf4jnsgd1na2vs0mg"},{"bike_id":"8a6c6f3e-a0ca-426b-926a-9bac537f3981","system_id":"levelo_inurba_marseille","lat":43.31479,"lon":5.37311,"is_reserved":false,"is_disabled":false,"rental_uris":{"android":"levelo://app?vid=8a6c6f3e-a0ca-426b-926a-9bac537f3981","ios":"levelo://app?vid=8a6c6f3e-a0ca-426b-926a-9bac537f3981"},"vehicle_type_id":"4","last_reported":1743797413,"current_range_meters":8000,"station_id":"ce4bgt12rcd13ifvqcd0","pricing_plan_id":"cebpf4jnsgd1na2vs0mg"},{"bike_id":"308d8bc9-db48-47e2-8794-2a13d449bd1c","system_id":"levelo_inurba_marseille","lat":43.27906,"lon":5.38021,"is_reserved":false,"is_disabled":false,"rental_uris":{"android":"levelo://app?vid=308d8bc9-db48-47e2-8794-2a13d449bd1c","ios":"levelo://app?vid=308d8bc9-db48-47e2-8794-2a13d449bd1c"},"vehicle_type_id":"4","last_reported":1743797413,"current_range_meters":8000,"station_id":"ce4bhf92rcd13ifvqf50","pricing_plan_id":"cebpf4jnsgd1na2vs0mg"},{"bike_id":"b5f78918-561f-4c07-9bb4-6c89db4fbd73","system_id":"levelo_inurba_marseille","lat":43.29308,"lon":5.37164,"is_reserved":false,"is_disabled":false,"rental_uris":{"android":"levelo://app?vid=b5f78918-561f-4c07-9bb4-6c89db4fbd73","ios":"levelo://app?vid=b5f78918-561f-4c07-9bb4-6c89db4fbd73"},"vehicle_type_id":"4","last_reported":1743797413,"current_range_meters":8000,"station_id":"ce4bgh92rcd13ifvqb40","pricing_plan_id":"cebpf4jnsgd1na2vs0mg"},{"bike_id":"e6926fd0-6a5b-403e-9a20-62eead5fe8d3","system_id":"levelo_inurba_marseille","lat":43.29612,"lon":5.37703,"is_reserved":false,"is_disabled":false,"rental_uris":{"android":"levelo://app?vid=e6926fd0-6a5b-403e-9a20-62eead5fe8d3","ios":"levelo://app?vid=e6926fd0-6a5b-403e-9a20-62eead5fe8d3"},"vehicle_type_id":"4","last_reported":1743797413,"current_range_meters":8000,"station_id":"ce4bgi92rcd13ifvqb90","pricing_plan_id":"cebpf4jnsgd1na2vs0mg"},{"bike_id":"45892e29-abab-4ab1-b951-0e12a876cdd5","system_id":"levelo_inurba_marseille","lat":43.275712,"lon":5.384133,"is_reserved":false,"is_disabled":false,"rental_uris":{"android":"levelo://app?vid=45892e29-abab-4ab1-b951-0e12a876cdd5","ios":"levelo://app?vid=45892e29-abab-4ab1-b951-0e12a876cdd5"},"vehicle_type_id":"4","last_reported":1743797413,"current_range_meters":8000,"station_id":"ce4bhh92rcd13ifvqfi0","pricing_plan_id":"cebpf4jnsgd1na2vs0mg"},{"bike_id":"229a4587-a3df-4a83-ac7c-2d538a878c52","system_id":"levelo_inurba_marseille","lat":43.321024,"lon":5.368396,"is_reserved":false,"is_disabled":false,"rental_uris":{"android":"levelo://app?vid=229a4587-a3df-4a83-ac7c-2d538a878c52","ios":"levelo://app?vid=229a4587-a3df-4a83-ac7c-2d538a878c52"},"vehicle_type_id":"4","last_reported":1743797413,"current_range_meters":8000,"station_id":"","pricing_plan_id":"cebpf4jnsgd1na2vs0mg"},{"bike_id":"68349669-008b-4219-8bbb-def8fae77ab0","system_id":"levelo_inurba_marseille","lat":43.28401,"lon":5.3751,"is_reserved":false,"is_disabled":false,"rental_uris":{"android":"levelo://app?vid=68349669-008b-4219-8bbb-def8fae77ab0","ios":"levelo://app?vid=68349669-008b-4219-8bbb-def8fae77ab0"},"vehicle_type_id":"4","last_reported":1743797413,"current_range_meters":8000,"station_id":"ce4bh412rcd13ifvqds0","pricing_plan_id":"cebpf4jnsgd1na2vs0mg"},{"bike_id":"9b4e5b3d-6f7d-4e3a-ae6c-3ea7a308685d","system_id":"levelo_inurba_marseille","lat":43.29538,"lon":5.38537,"is_reserved":false,"is_disabled":false,"rental_uris":{"android":"levelo://app?vid=9b4e5b3d-6f7d-4e3a-ae6c-3ea7a308685d","ios":"levelo://app?vid=9b4e5b3d-6f7d-4e3a-ae6c-3ea7a308685d"},"vehicle_type_id":"4","last_reported":1743797413,"current_range_meters":8400,"station_id":"ce4bgih2rcd13ifvqba0","pricing_plan_id":"cebpf4jnsgd1na2vs0mg"},{"bike_id":"36d996d1-147d-4367-84e7-9ff54765b37a","system_id":"levelo_inurba_marseille","lat":43.23198,"lon":5.3555,"is_reserved":false,"is_disabled":false,"rental_uris":{"android":"levelo://app?vid=36d996d1-147d-4367-84e7-9ff54765b37a","ios":"levelo://app?vid=36d996d1-147d-4367-84e7-9ff54765b37a"},"vehicle_type_id":"4","last_reported":1743797413,"current_range_meters":8400,"station_id":"ce4bhu92rcd13ifvqi70","pricing_plan_id":"cebpf4jnsgd1na2vs0mg"},{"bike_id":"61cac26c-62d7-419b-b778-ba2a4be6fb05","system_id":"levelo_inurba_marseille","lat":43.31472,"lon":5.46228,"is_reserved":false,"is_disabled":false,"rental_uris":{"android":"levelo://app?vid=61cac26c-62d7-419b-b778-ba2a4be6fb05","ios":"levelo://app?vid=61cac26c-62d7-419b-b778-ba2a4be6fb05"},"vehicle_type_id":"4","last_reported":1743797413,"current_range_meters":12800,"station_id":"","pricing_plan_id":"cebpf4jnsgd1na2vs0mg"},{"bike_id":"05505314-b2b7-49ba-b9b0-90b89e44ca61","system_id":"levelo_inurba_marseille","lat":43.29242,"lon":5.38466,"is_reserved":false,"is_disabled":false,"rental_uris":{"android":"levelo://app?vid=05505314-b2b7-49ba-b9b0-90b89e44ca61","ios":"levelo://app?vid=05505314-b2b7-49ba-b9b0-90b89e44ca61"},"vehicle_type_id":"4","last_reported":1743797413,"current_range_meters":8400,"station_id":"ce4bh692rcd13ifvqea0","pricing_plan_id":"cebpf4jnsgd1na2vs0mg"},{"bike_id":"ead8fb85-2ed4-4b6a-bfa6-b10b2549cc84","system_id":"levelo_inurba_marseille","lat":43.26224,"lon":5.40452,"is_reserved":false,"is_disabled":false,"rental_uris":{"android":"levelo://app?vid=ead8fb85-2ed4-4b6a-bfa6-b10b2549cc84","ios":"levelo://app?vid=ead8fb85-2ed4-4b6a-bfa6-b10b2549cc84"},"vehicle_type_id":"4","last_reported":1743797413,"current_range_meters":8400,"station_id":"ce4bhmh2rcd13ifvqgmg","pricing_plan_id":"cebpf4jnsgd1na2vs0mg"},{"bike_id":"a59c88b4-0eb9-4083-a0ac-55350562e34c","system_id":"levelo_inurba_marseille","lat":43.29528,"lon":5.38542,"is_reserved":false,"is_disabled":false,"rental_uris":{"android":"levelo://app?vid=a59c88b4-0eb9-4083-a0ac-55350562e34c","ios":"levelo://app?vid=a59c88b4-0eb9-4083-a0ac-55350562e34c"},"vehicle_type_id":"4","last_reported":1743797413,"current_range_meters":8400,"station_id":"ce4bgih2rcd13ifvqba0","pricing_plan_id":"cebpf4jnsgd1na2vs0mg"},{"bike_id":"58d24f42-17aa-40a2-ac62-60f84e384385","system_id":"levelo_inurba_marseille","lat":43.24813,"lon":5.37453,"is_reserved":false,"is_disabled":false,"rental_uris":{"android":"levelo://app?vid=58d24f42-17aa-40a2-ac62-60f84e384385","ios":"levelo://app?vid=58d24f42-17aa-40a2-ac62-60f84e384385"},"vehicle_type_id":"4","last_reported":1743797413,"current_range_meters":8400,"station_id":"ce4bhgh2rcd13ifvqfb0","pricing_plan_id":"cebpf4jnsgd1na2vs0mg"},{"bike_id":"d1a8e8dd-a5f7-48fd-bed2-eeb2440a93f9","system_id":"levelo_inurba_marseille","lat":43.28941,"lon":5.36628,"is_reserved":false,"is_disabled":false,"rental_uris":{"android":"levelo://app?vid=d1a8e8dd-a5f7-48fd-bed2-eeb2440a93f9","ios":"levelo://app?vid=d1a8e8dd-a5f7-48fd-bed2-eeb2440a93f9"},"vehicle_type_id":"4","last_reported":1743797413,"current_range_meters":8400,"station_id":"ce4bhap2rcd13ifvqek0","pricing_plan_id":"cebpf4jnsgd1na2vs0mg"},{"bike_id":"820c1965-ecb8-4574-8ddb-2df09330c1da","system_id":"levelo_inurba_marseille","lat":43.27041,"lon":5.39152,"is_reserved":false,"is_disabled":false,"rental_uris":{"android":"levelo://app?vid=820c1965-ecb8-4574-8ddb-2df09330c1da","ios":"levelo://app?vid=820c1965-ecb8-4574-8ddb-2df09330c1da"},"vehicle_type_id":"4","last_reported":1743797413,"current_range_meters":8400,"station_id":"","pricing_plan_id":"cebpf4jnsgd1na2vs0mg"},{"bike_id":"a41da53e-0b50-4bb8-9b51-2769965e3785","system_id":"levelo_inurba_marseille","lat":43.29419,"lon":5.38638,"is_reserved":false,"is_disabled":false,"rental_uris":{"android":"levelo://app?vid=a41da53e-0b50-4bb8-9b51-2769965e3785","ios":"levelo://app?vid=a41da53e-0b50-4bb8-9b51-2769965e3785"},"vehicle_type_id":"4","last_reported":1743797413,"current_range_meters":8400,"station_id":"ce4bh2h2rcd13ifvqdh0","pricing_plan_id":"cebpf4jnsgd1na2vs0mg"},{"bike_id":"9a599789-be3e-4a84-b95b-70b90c9fbc6f","system_id":"levelo_inurba_marseille","lat":43.30145,"lon":5.38075,"is_reserved":false,"is_disabled":false,"rental_uris":{"android":"levelo://app?vid=9a599789-be3e-4a84-b95b-70b90c9fbc6f","ios":"levelo://app?vid=9a599789-be3e-4a84-b95b-70b90c9fbc6f"},"vehicle_type_id":"4","last_reported":1743797413,"current_range_meters":8400,"station_id":"ce4bgjp2rcd13ifvqbh0","pricing_plan_id":"cebpf4jnsgd1na2vs0mg"},{"bike_id":"ba9de816-41c3-44fb-a67b-d8bc2c1f6bcb","system_id":"levelo_inurba_marseille","lat":43.3015,"lon":5.38076,"is_reserved":false,"is_disabled":false,"rental_uris":{"android":"levelo://app?vid=ba9de816-41c3-44fb-a67b-d8bc2c1f6bcb","ios":"levelo://app?vid=ba9de816-41c3-44fb-a67b-d8bc2c1f6bcb"},"vehicle_type_id":"4","last_reported":1743797413,"current_range_meters":8400,"station_id":"ce4bgjp2rcd13ifvqbh0","pricing_plan_id":"cebpf4jnsgd1na2vs0mg"},{"bike_id":"0d9cbb90-603c-4d0b-9a7a-90e2b8b328ae","system_id":"levelo_inurba_marseille","lat":43.29275,"lon":5.38427,"is_reserved":false,"is_disabled":false,"rental_uris":{"android":"levelo://app?vid=0d9cbb90-603c-4d0b-9a7a-90e2b8b328ae","ios":"levelo://app?vid=0d9cbb90-603c-4d0b-9a7a-90e2b8b328ae"},"vehicle_type_id":"4","last_reported":1743797413,"current_range_meters":8400,"station_id":"ce4bh692rcd13ifvqea0","pricing_plan_id":"cebpf4jnsgd1na2vs0mg"},{"bike_id":"69c0db05-6ded-4dc6-9720-2452c83c1020","system_id":"levelo_inurba_marseille","lat":43.22952,"lon":5.35396,"is_reserved":false,"is_disabled":false,"rental_uris":{"android":"levelo://app?vid=69c0db05-6ded-4dc6-9720-2452c83c1020","ios":"levelo://app?vid=69c0db05-6ded-4dc6-9720-2452c83c1020"},"vehicle_type_id":"4","last_reported":1743797413,"current_range_meters":8400,"station_id":"cpo3532slgdg3j2ikp40","pricing_plan_id":"cebpf4jnsgd1na2vs0mg"},{"bike_id":"e581bec6-a3c7-4670-b7ef-df6fcdbd8cef","system_id":"levelo_inurba_marseille","lat":43.29272,"lon":5.36849,"is_reserved":false,"is_disabled":false,"rental_uris":{"android":"levelo://app?vid=e581bec6-a3c7-4670-b7ef-df6fcdbd8cef","ios":"levelo://app?vid=e581bec6-a3c7-4670-b7ef-df6fcdbd8cef"},"vehicle_type_id":"4","last_reported":1743797413,"current_range_meters":8400,"station_id":"ce4bhbp2rcd13ifvqesg","pricing_plan_id":"cebpf4jnsgd1na2vs0mg"},{"bike_id":"69296f73-0190-4fd5-936e-70b698a0e4f7","system_id":"levelo_inurba_marseille","lat":43.30178,"lon":5.36629,"is_reserved":false,"is_disabled":false,"rental_uris":{"android":"levelo://app?vid=69296f73-0190-4fd5-936e-70b698a0e4f7","ios":"levelo://app?vid=69296f73-0190-4fd5-936e-70b698a0e4f7"},"vehicle_type_id":"4","last_reported":1743797413,"current_range_meters":8400,"station_id":"ce4bgrh2rcd13ifvqc8g","pricing_plan_id":"cebpf4jnsgd1na2vs0mg"},{"bike_id":"a00a7591-c100-440b-b90f-e80aa1fd6922","system_id":"levelo_inurba_marseille","lat":43.293658,"lon":5.378366,"is_reserved":false,"is_disabled":false,"rental_uris":{"android":"levelo://app?vid=a00a7591-c100-440b-b90f-e80aa1fd6922","ios":"levelo://app?vid=a00a7591-c100-440b-b90f-e80aa1fd6922"},"vehicle_type_id":"4","last_reported":1743797413,"current_range_meters":8000,"station_id":"ce4bhh92rcd13ifvqfi0","pricing_plan_id":"cebpf4jnsgd1na2vs0mg"},{"bike_id":"22891a30-d343-4133-9696-3b96badd42e9","system_id":"levelo_inurba_marseille","lat":43.302917,"lon":5.396775,"is_reserved":false,"is_disabled":false,"rental_uris":{"android":"levelo://app?vid=22891a30-d343-4133-9696-3b96badd42e9","ios":"levelo://app?vid=22891a30-d343-4133-9696-3b96badd42e9"},"vehicle_type_id":"4","last_reported":1743797413,"current_range_meters":8000,"station_id":"ce4bh612rcd13ifvqe6g","pricing_plan_id":"cebpf4jnsgd1na2vs0mg"},{"bike_id":"d0d83fc2-1e42-4d50-8b76-8e513f433b89","system_id":"levelo_inurba_marseille","lat":43.293,"lon":5.3717,"is_reserved":false,"is_disabled":false,"rental_uris":{"android":"levelo://app?vid=d0d83fc2-1e42-4d50-8b76-8e513f433b89","ios":"levelo://app?vid=d0d83fc2-1e42-4d50-8b76-8e513f433b89"},"vehicle_type_id":"4","last_reported":1743797413,"current_range_meters":8800,"station_id":"ce4bgh92rcd13ifvqb40","pricing_plan_id":"cebpf4jnsgd1na2vs0mg"},{"bike_id":"2cdcf2d6-73d8-4c50-a767-e993491d20e7","system_id":"levelo_inurba_marseille","lat":43.28967,"lon":5.37845,"is_reserved":false,"is_disabled":false,"rental_uris":{"android":"levelo://app?vid=2cdcf2d6-73d8-4c50-a767-e993491d20e7","ios":"levelo://app?vid=2cdcf2d6-73d8-4c50-a767-e993491d20e7"},"vehicle_type_id":"4","last_reported":1743797413,"current_range_meters":8800,"station_id":"ce4bh9p2rcd13ifvqed0","pricing_plan_id":"cebpf4jnsgd1na2vs0mg"},{"bike_id":"e96084ca-be96-4a25-95a5-8534af60297e","system_id":"levelo_inurba_marseille","lat":43.29264,"lon":5.38434,"is_reserved":false,"is_disabled":false,"rental_uris":{"android":"levelo://app?vid=e96084ca-be96-4a25-95a5-8534af60297e","ios":"levelo://app?vid=e96084ca-be96-4a25-95a5-8534af60297e"},"vehicle_type_id":"4","last_reported":1743797413,"current_range_meters":8800,"station_id":"ce4bh692rcd13ifvqea0","pricing_plan_id":"cebpf4jnsgd1na2vs0mg"},{"bike_id":"78fa92e4-3aaf-4739-9911-52c6ad98e1c3","system_id":"levelo_inurba_marseille","lat":43.26063,"lon":5.39398,"is_reserved":false,"is_disabled":false,"rental_uris":{"android":"levelo://app?vid=78fa92e4-3aaf-4739-9911-52c6ad98e1c3","ios":"levelo://app?vid=78fa92e4-3aaf-4739-9911-52c6ad98e1c3"},"vehicle_type_id":"4","last_reported":1743797413,"current_range_meters":8800,"station_id":"ce4bhh92rcd13ifvqfj0","pricing_plan_id":"cebpf4jnsgd1na2vs0mg"},{"bike_id":"331db363-f7e4-4b55-b4fe-73dbfbc303f6","system_id":"levelo_inurba_marseille","lat":43.26053,"lon":5.39389,"is_reserved":false,"is_disabled":false,"rental_uris":{"android":"levelo://app?vid=331db363-f7e4-4b55-b4fe-73dbfbc303f6","ios":"levelo://app?vid=331db363-f7e4-4b55-b4fe-73dbfbc303f6"},"vehicle_type_id":"4","last_reported":1743797413,"current_range_meters":8800,"station_id":"ce4bhh92rcd13ifvqfj0","pricing_plan_id":"cebpf4jnsgd1na2vs0mg"},{"bike_id":"16a8cb59-d388-403f-89fe-102dea8f4aff","system_id":"levelo_inurba_marseille","lat":43.311496,"lon":5.387323,"is_reserved":false,"is_disabled":false,"rental_uris":{"android":"levelo://app?vid=16a8cb59-d388-403f-89fe-102dea8f4aff","ios":"levelo://app?vid=16a8cb59-d388-403f-89fe-102dea8f4aff"},"vehicle_type_id":"4","last_reported":1743797413,"current_range_meters":8800,"station_id":"ce4bgv12rcd13ifvqcp0","pricing_plan_id":"cebpf4jnsgd1na2vs0mg"},{"bike_id":"758c2355-846a-4f3d-bcd8-eac4b3145cd6","system_id":"levelo_inurba_marseille","lat":43.23187,"lon":5.3556,"is_reserved":false,"is_disabled":false,"rental_uris":{"android":"levelo://app?vid=758c2355-846a-4f3d-bcd8-eac4b3145cd6","ios":"levelo://app?vid=758c2355-846a-4f3d-bcd8-eac4b3145cd6"},"vehicle_type_id":"4","last_reported":1743797413,"current_range_meters":8800,"station_id":"ce4bhu92rcd13ifvqi70","pricing_plan_id":"cebpf4jnsgd1na2vs0mg"},{"bike_id":"6356cdc5-d1ca-4103-a174-a9558dd259da","system_id":"levelo_inurba_marseille","lat":43.28724,"lon":5.3608,"is_reserved":false,"is_disabled":false,"rental_uris":{"android":"levelo://app?vid=6356cdc5-d1ca-4103-a174-a9558dd259da","ios":"levelo://app?vid=6356cdc5-d1ca-4103-a174-a9558dd259da"},"vehicle_type_id":"4","last_reported":1743797413,"current_range_meters":8400,"station_id":"cki0cbj6b192h4jlfktg","pricing_plan_id":"cebpf4jnsgd1na2vs0mg"},{"bike_id":"ed034283-1492-4da7-9409-35bdead80f30","system_id":"levelo_inurba_marseille","lat":43.30151,"lon":5.38793,"is_reserved":false,"is_disabled":true,"rental_uris":{"android":"levelo://app?vid=ed034283-1492-4da7-9409-35bdead80f30","ios":"levelo://app?vid=ed034283-1492-4da7-9409-35bdead80f30"},"vehicle_type_id":"4","last_reported":1743797413,"current_range_meters":8800,"station_id":"ce4bghh2rcd13ifvqb60","pricing_plan_id":"cebpf4jnsgd1na2vs0mg"},{"bike_id":"774070ed-a7ea-4f05-9131-def34751ba8c","system_id":"levelo_inurba_marseille","lat":43.30777,"lon":5.37653,"is_reserved":false,"is_disabled":false,"rental_uris":{"android":"levelo://app?vid=774070ed-a7ea-4f05-9131-def34751ba8c","ios":"levelo://app?vid=774070ed-a7ea-4f05-9131-def34751ba8c"},"vehicle_type_id":"4","last_reported":1743797413,"current_range_meters":8800,"station_id":"ce4bgv92rcd13ifvqcq0","pricing_plan_id":"cebpf4jnsgd1na2vs0mg"},{"bike_id":"50297066-959d-45c5-a71e-b062cc3724ec","system_id":"levelo_inurba_marseille","lat":43.308,"lon":5.37312,"is_reserved":false,"is_disabled":false,"rental_uris":{"android":"levelo://app?vid=50297066-959d-45c5-a71e-b062cc3724ec","ios":"levelo://app?vid=50297066-959d-45c5-a71e-b062cc3724ec"},"vehicle_type_id":"4","last_reported":1743797413,"current_range_meters":8800,"station_id":"","pricing_plan_id":"cebpf4jnsgd1na2vs0mg"},{"bike_id":"cdb7e4b1-8ea1-4a1d-91f3-73a8b3b493a5","system_id":"levelo_inurba_marseille","lat":43.31086,"lon":5.42425,"is_reserved":false,"is_disabled":false,"rental_uris":{"android":"levelo://app?vid=cdb7e4b1-8ea1-4a1d-91f3-73a8b3b493a5","ios":"levelo://app?vid=cdb7e4b1-8ea1-4a1d-91f3-73a8b3b493a5"},"vehicle_type_id":"4","last_reported":1743797413,"current_range_meters":8800,"station_id":"ce4bhp92rcd13ifvqhag","pricing_plan_id":"cebpf4jnsgd1na2vs0mg"},{"bike_id":"74a13a18-430a-4f50-ba26-e7dfbad23482","system_id":"levelo_inurba_marseille","lat":43.23068,"lon":5.35491,"is_reserved":false,"is_disabled":false,"rental_uris":{"android":"levelo://app?vid=74a13a18-430a-4f50-ba26-e7dfbad23482","ios":"levelo://app?vid=74a13a18-430a-4f50-ba26-e7dfbad23482"},"vehicle_type_id":"4","last_reported":1743797413,"current_range_meters":8800,"station_id":"cpo3342slgdg3j2ifvpg","pricing_plan_id":"cebpf4jnsgd1na2vs0mg"},{"bike_id":"9cacf06c-547e-4680-9f29-2c8204246f1b","system_id":"levelo_inurba_marseille","lat":43.28924,"lon":5.36636,"is_reserved":false,"is_disabled":false,"rental_uris":{"android":"levelo://app?vid=9cacf06c-547e-4680-9f29-2c8204246f1b","ios":"levelo://app?vid=9cacf06c-547e-4680-9f29-2c8204246f1b"},"vehicle_type_id":"4","last_reported":1743797413,"current_range_meters":8800,"station_id":"ce4bhap2rcd13ifvqek0","pricing_plan_id":"cebpf4jnsgd1na2vs0mg"},{"bike_id":"0aa3549d-68f2-4f17-bf6e-41fe71d74d64","system_id":"levelo_inurba_marseille","lat":43.29263,"lon":5.38495,"is_reserved":false,"is_disabled":false,"rental_uris":{"android":"levelo://app?vid=0aa3549d-68f2-4f17-bf6e-41fe71d74d64","ios":"levelo://app?vid=0aa3549d-68f2-4f17-bf6e-41fe71d74d64"},"vehicle_type_id":"4","last_reported":1743797413,"current_range_meters":9200,"station_id":"","pricing_plan_id":"cebpf4jnsgd1na2vs0mg"},{"bike_id":"3a673a01-13fc-4ed6-b9b1-08a0faf2fd75","system_id":"levelo_inurba_marseille","lat":43.23187,"lon":5.39976,"is_reserved":false,"is_disabled":false,"rental_uris":{"android":"levelo://app?vid=3a673a01-13fc-4ed6-b9b1-08a0faf2fd75","ios":"levelo://app?vid=3a673a01-13fc-4ed6-b9b1-08a0faf2fd75"},"vehicle_type_id":"4","last_reported":1743797413,"current_range_meters":9200,"station_id":"ce4bhn12rcd13ifvqgqg","pricing_plan_id":"cebpf4jnsgd1na2vs0mg"},{"bike_id":"d5a3cef5-472c-4e1e-8fc2-f818276798de","system_id":"levelo_inurba_marseille","lat":43.255806,"lon":5.382361,"is_reserved":false,"is_disabled":false,"rental_uris":{"android":"levelo://app?vid=d5a3cef5-472c-4e1e-8fc2-f818276798de","ios":"levelo://app?vid=d5a3cef5-472c-4e1e-8fc2-f818276798de"},"vehicle_type_id":"4","last_reported":1743797413,"current_range_meters":9600,"station_id":"ce4bhih2rcd13ifvqfs0","pricing_plan_id":"cebpf4jnsgd1na2vs0mg"},{"bike_id":"8a5f937e-de3b-42f1-a874-f6ee1de659f4","system_id":"levelo_inurba_marseille","lat":43.30273,"lon":5.3771,"is_reserved":false,"is_disabled":false,"rental_uris":{"android":"levelo://app?vid=8a5f937e-de3b-42f1-a874-f6ee1de659f4","ios":"levelo://app?vid=8a5f937e-de3b-42f1-a874-f6ee1de659f4"},"vehicle_type_id":"4","last_reported":1743797413,"current_range_meters":9600,"station_id":"ce4bguh2rcd13ifvqcj0","pricing_plan_id":"cebpf4jnsgd1na2vs0mg"},{"bike_id":"a5e15fc0-995d-46a2-aed4-c90c15c414bf","system_id":"levelo_inurba_marseille","lat":43.29263,"lon":5.38431,"is_reserved":false,"is_disabled":false,"rental_uris":{"android":"levelo://app?vid=a5e15fc0-995d-46a2-aed4-c90c15c414bf","ios":"levelo://app?vid=a5e15fc0-995d-46a2-aed4-c90c15c414bf"},"vehicle_type_id":"4","last_reported":1743797413,"current_range_meters":9600,"station_id":"ce4bh692rcd13ifvqea0","pricing_plan_id":"cebpf4jnsgd1na2vs0mg"},{"bike_id":"fb348b09-6abb-47a4-a266-91f2eeaee291","system_id":"levelo_inurba_marseille","lat":43.32082,"lon":5.3679,"is_reserved":false,"is_disabled":false,"rental_uris":{"android":"levelo://app?vid=fb348b09-6abb-47a4-a266-91f2eeaee291","ios":"levelo://app?vid=fb348b09-6abb-47a4-a266-91f2eeaee291"},"vehicle_type_id":"4","last_reported":1743797413,"current_range_meters":9600,"station_id":"ce4bhrh2rcd13ifvqhug","pricing_plan_id":"cebpf4jnsgd1na2vs0mg"},{"bike_id":"ed562682-b9c4-45a5-a5d9-628992c2c17c","system_id":"levelo_inurba_marseille","lat":43.33026,"lon":5.39038,"is_reserved":false,"is_disabled":false,"rental_uris":{"android":"levelo://app?vid=ed562682-b9c4-45a5-a5d9-628992c2c17c","ios":"levelo://app?vid=ed562682-b9c4-45a5-a5d9-628992c2c17c"},"vehicle_type_id":"4","last_reported":1743797413,"current_range_meters":9600,"station_id":"ce4bhr92rcd13ifvqhrg","pricing_plan_id":"cebpf4jnsgd1na2vs0mg"},{"bike_id":"f3e47ec8-5455-4076-a2e3-6479a7e329fd","system_id":"levelo_inurba_marseille","lat":43.29418,"lon":5.38627,"is_reserved":false,"is_disabled":false,"rental_uris":{"android":"levelo://app?vid=f3e47ec8-5455-4076-a2e3-6479a7e329fd","ios":"levelo://app?vid=f3e47ec8-5455-4076-a2e3-6479a7e329fd"},"vehicle_type_id":"4","last_reported":1743797413,"current_range_meters":9600,"station_id":"ce4bh2h2rcd13ifvqdh0","pricing_plan_id":"cebpf4jnsgd1na2vs0mg"},{"bike_id":"9b02f742-f038-4739-9c1b-418a3e5904eb","system_id":"levelo_inurba_marseille","lat":43.313526,"lon":5.366912,"is_reserved":false,"is_disabled":true,"rental_uris":{"android":"levelo://app?vid=9b02f742-f038-4739-9c1b-418a3e5904eb","ios":"levelo://app?vid=9b02f742-f038-4739-9c1b-418a3e5904eb"},"vehicle_type_id":"4","last_reported":1743797413,"current_range_meters":9600,"station_id":"ce4bgr92rcd13ifvqc6g","pricing_plan_id":"cebpf4jnsgd1na2vs0mg"},{"bike_id":"6fa32b03-1383-41a0-ace5-b6d820f673c5","system_id":"levelo_inurba_marseille","lat":43.29261,"lon":5.38434,"is_reserved":false,"is_disabled":false,"rental_uris":{"android":"levelo://app?vid=6fa32b03-1383-41a0-ace5-b6d820f673c5","ios":"levelo://app?vid=6fa32b03-1383-41a0-ace5-b6d820f673c5"},"vehicle_type_id":"4","last_reported":1743797413,"current_range_meters":9600,"station_id":"ce4bh692rcd13ifvqea0","pricing_plan_id":"cebpf4jnsgd1na2vs0mg"},{"bike_id":"cc019844-4292-4830-a99e-3c9a719e6306","system_id":"levelo_inurba_marseille","lat":43.2923,"lon":5.36058,"is_reserved":false,"is_disabled":false,"rental_uris":{"android":"levelo://app?vid=cc019844-4292-4830-a99e-3c9a719e6306","ios":"levelo://app?vid=cc019844-4292-4830-a99e-3c9a719e6306"},"vehicle_type_id":"4","last_reported":1743797413,"current_range_meters":9600,"station_id":"ce4bhbh2rcd13ifvqeqg","pricing_plan_id":"cebpf4jnsgd1na2vs0mg"},{"bike_id":"d0aae37b-8c71-4ebe-bb22-7bc9174bb75d","system_id":"levelo_inurba_marseille","lat":43.28925,"lon":5.3663,"is_reserved":false,"is_disabled":false,"rental_uris":{"android":"levelo://app?vid=d0aae37b-8c71-4ebe-bb22-7bc9174bb75d","ios":"levelo://app?vid=d0aae37b-8c71-4ebe-bb22-7bc9174bb75d"},"vehicle_type_id":"4","last_reported":1743797413,"current_range_meters":9600,"station_id":"ce4bhap2rcd13ifvqek0","pricing_plan_id":"cebpf4jnsgd1na2vs0mg"},{"bike_id":"0bde1ee5-8be5-406f-b5e1-8e2cb61aa9d4","system_id":"levelo_inurba_marseille","lat":43.29199,"lon":5.39316,"is_reserved":false,"is_disabled":false,"rental_uris":{"android":"levelo://app?vid=0bde1ee5-8be5-406f-b5e1-8e2cb61aa9d4","ios":"levelo://app?vid=0bde1ee5-8be5-406f-b5e1-8e2cb61aa9d4"},"vehicle_type_id":"4","last_reported":1743797413,"current_range_meters":9600,"station_id":"ce4bh192rcd13ifvqdd0","pricing_plan_id":"cebpf4jnsgd1na2vs0mg"},{"bike_id":"2ee3a78d-3d43-4848-a90f-dec1781d5c45","system_id":"levelo_inurba_marseille","lat":43.29068,"lon":5.37176,"is_reserved":false,"is_disabled":false,"rental_uris":{"android":"levelo://app?vid=2ee3a78d-3d43-4848-a90f-dec1781d5c45","ios":"levelo://app?vid=2ee3a78d-3d43-4848-a90f-dec1781d5c45"},"vehicle_type_id":"4","last_reported":1743797413,"current_range_meters":9600,"station_id":"ce4bh5p2rcd13ifvqe4g","pricing_plan_id":"cebpf4jnsgd1na2vs0mg"},{"bike_id":"0318628e-ab49-4885-8703-0d738f06e394","system_id":"levelo_inurba_marseille","lat":43.32357,"lon":5.3888,"is_reserved":false,"is_disabled":false,"rental_uris":{"android":"levelo://app?vid=0318628e-ab49-4885-8703-0d738f06e394","ios":"levelo://app?vid=0318628e-ab49-4885-8703-0d738f06e394"},"vehicle_type_id":"4","last_reported":1743797413,"current_range_meters":9600,"station_id":"ce4bhqp2rcd13ifvqhog","pricing_plan_id":"cebpf4jnsgd1na2vs0mg"},{"bike_id":"db526bca-5447-4ac0-922d-45ecb017eb78","system_id":"levelo_inurba_marseille","lat":43.30795,"lon":5.43544,"is_reserved":false,"is_disabled":false,"rental_uris":{"android":"levelo://app?vid=db526bca-5447-4ac0-922d-45ecb017eb78","ios":"levelo://app?vid=db526bca-5447-4ac0-922d-45ecb017eb78"},"vehicle_type_id":"4","last_reported":1743797413,"current_range_meters":9600,"station_id":"ce4bhph2rcd13ifvqheg","pricing_plan_id":"cebpf4jnsgd1na2vs0mg"},{"bike_id":"ad707a01-b942-4cbb-8387-1610aa262357","system_id":"levelo_inurba_marseille","lat":43.24808,"lon":5.37449,"is_reserved":false,"is_disabled":false,"rental_uris":{"android":"levelo://app?vid=ad707a01-b942-4cbb-8387-1610aa262357","ios":"levelo://app?vid=ad707a01-b942-4cbb-8387-1610aa262357"},"vehicle_type_id":"4","last_reported":1743797413,"current_range_meters":10000,"station_id":"ce4bhgh2rcd13ifvqfb0","pricing_plan_id":"cebpf4jnsgd1na2vs0mg"},{"bike_id":"ef076cc9-b478-41aa-802a-ed7212300556","system_id":"levelo_inurba_marseille","lat":43.2294,"lon":5.35371,"is_reserved":false,"is_disabled":false,"rental_uris":{"android":"levelo://app?vid=ef076cc9-b478-41aa-802a-ed7212300556","ios":"levelo://app?vid=ef076cc9-b478-41aa-802a-ed7212300556"},"vehicle_type_id":"4","last_reported":1743797413,"current_range_meters":10000,"station_id":"cpo3532slgdg3j2ikp40","pricing_plan_id":"cebpf4jnsgd1na2vs0mg"},{"bike_id":"25d3c4ab-55c6-4a56-bffd-907414ef2b74","system_id":"levelo_inurba_marseille","lat":43.28664,"lon":5.36351,"is_reserved":false,"is_disabled":false,"rental_uris":{"android":"levelo://app?vid=25d3c4ab-55c6-4a56-bffd-907414ef2b74","ios":"levelo://app?vid=25d3c4ab-55c6-4a56-bffd-907414ef2b74"},"vehicle_type_id":"4","last_reported":1743797413,"current_range_meters":10000,"station_id":"ce4bhah2rcd13ifvqej0","pricing_plan_id":"cebpf4jnsgd1na2vs0mg"},{"bike_id":"4f5f3b82-dc6b-4d71-9425-8bd28e0259fc","system_id":"levelo_inurba_marseille","lat":43.29305,"lon":5.37184,"is_reserved":false,"is_disabled":false,"rental_uris":{"android":"levelo://app?vid=4f5f3b82-dc6b-4d71-9425-8bd28e0259fc","ios":"levelo://app?vid=4f5f3b82-dc6b-4d71-9425-8bd28e0259fc"},"vehicle_type_id":"4","last_reported":1743797413,"current_range_meters":10000,"station_id":"ce4bgh92rcd13ifvqb40","pricing_plan_id":"cebpf4jnsgd1na2vs0mg"},{"bike_id":"0a21aa20-0c21-4088-b21b-d881f94fe3dc","system_id":"levelo_inurba_marseille","lat":43.29191,"lon":5.36047,"is_reserved":false,"is_disabled":false,"rental_uris":{"android":"levelo://app?vid=0a21aa20-0c21-4088-b21b-d881f94fe3dc","ios":"levelo://app?vid=0a21aa20-0c21-4088-b21b-d881f94fe3dc"},"vehicle_type_id":"4","last_reported":1743797413,"current_range_meters":10000,"station_id":"ce4bhbh2rcd13ifvqeqg","pricing_plan_id":"cebpf4jnsgd1na2vs0mg"},{"bike_id":"908c0033-ebf3-400a-acb3-0a621b83539f","system_id":"levelo_inurba_marseille","lat":43.23187,"lon":5.39976,"is_reserved":false,"is_disabled":false,"rental_uris":{"android":"levelo://app?vid=908c0033-ebf3-400a-acb3-0a621b83539f","ios":"levelo://app?vid=908c0033-ebf3-400a-acb3-0a621b83539f"},"vehicle_type_id":"4","last_reported":1743797413,"current_range_meters":10000,"station_id":"ce4bhn12rcd13ifvqgqg","pricing_plan_id":"cebpf4jnsgd1na2vs0mg"},{"bike_id":"e84b581f-4fb0-4f6f-887e-2c6322a7a9dd","system_id":"levelo_inurba_marseille","lat":43.28432,"lon":5.39206,"is_reserved":false,"is_disabled":false,"rental_uris":{"android":"levelo://app?vid=e84b581f-4fb0-4f6f-887e-2c6322a7a9dd","ios":"levelo://app?vid=e84b581f-4fb0-4f6f-887e-2c6322a7a9dd"},"vehicle_type_id":"4","last_reported":1743797413,"current_range_meters":10000,"station_id":"ce4bhoh2rcd13ifvqh5g","pricing_plan_id":"cebpf4jnsgd1na2vs0mg"},{"bike_id":"f1c94e73-6d75-46c1-a24a-f82d52996508","system_id":"levelo_inurba_marseille","lat":43.30926,"lon":5.40153,"is_reserved":false,"is_disabled":false,"rental_uris":{"android":"levelo://app?vid=f1c94e73-6d75-46c1-a24a-f82d52996508","ios":"levelo://app?vid=f1c94e73-6d75-46c1-a24a-f82d52996508"},"vehicle_type_id":"4","last_reported":1743797413,"current_range_meters":10000,"station_id":"ce4bgvp2rcd13ifvqct0","pricing_plan_id":"cebpf4jnsgd1na2vs0mg"},{"bike_id":"f820121a-6527-4fda-8df2-ff2b3162f49f","system_id":"levelo_inurba_marseille","lat":43.28956,"lon":5.36633,"is_reserved":false,"is_disabled":false,"rental_uris":{"android":"levelo://app?vid=f820121a-6527-4fda-8df2-ff2b3162f49f","ios":"levelo://app?vid=f820121a-6527-4fda-8df2-ff2b3162f49f"},"vehicle_type_id":"4","last_reported":1743797413,"current_range_meters":10000,"station_id":"ce4bhap2rcd13ifvqek0","pricing_plan_id":"cebpf4jnsgd1na2vs0mg"},{"bike_id":"c91a6301-d46d-458e-a0a6-5762e813d6dd","system_id":"levelo_inurba_marseille","lat":43.29539,"lon":5.38549,"is_reserved":false,"is_disabled":true,"rental_uris":{"android":"levelo://app?vid=c91a6301-d46d-458e-a0a6-5762e813d6dd","ios":"levelo://app?vid=c91a6301-d46d-458e-a0a6-5762e813d6dd"},"vehicle_type_id":"4","last_reported":1743797413,"current_range_meters":10800,"station_id":"ce4bgih2rcd13ifvqba0","pricing_plan_id":"cebpf4jnsgd1na2vs0mg"},{"bike_id":"c9ab5bfd-fa91-4b45-8fa2-52813c43fa45","system_id":"levelo_inurba_marseille","lat":43.230666,"lon":5.35505,"is_reserved":false,"is_disabled":false,"rental_uris":{"android":"levelo://app?vid=c9ab5bfd-fa91-4b45-8fa2-52813c43fa45","ios":"levelo://app?vid=c9ab5bfd-fa91-4b45-8fa2-52813c43fa45"},"vehicle_type_id":"4","last_reported":1743797413,"current_range_meters":10800,"station_id":"cpo3342slgdg3j2ifvpg","pricing_plan_id":"cebpf4jnsgd1na2vs0mg"},{"bike_id":"09b6c191-10d2-4563-ad61-e18b4ec6ced8","system_id":"levelo_inurba_marseille","lat":43.29812,"lon":5.38097,"is_reserved":false,"is_disabled":false,"rental_uris":{"android":"levelo://app?vid=09b6c191-10d2-4563-ad61-e18b4ec6ced8","ios":"levelo://app?vid=09b6c191-10d2-4563-ad61-e18b4ec6ced8"},"vehicle_type_id":"4","last_reported":1743797413,"current_range_meters":10800,"station_id":"ce4bgip2rcd13ifvqbb0","pricing_plan_id":"cebpf4jnsgd1na2vs0mg"},{"bike_id":"2f9de47d-5d8b-434f-a349-907871768984","system_id":"levelo_inurba_marseille","lat":43.29273,"lon":5.38423,"is_reserved":false,"is_disabled":false,"rental_uris":{"android":"levelo://app?vid=2f9de47d-5d8b-434f-a349-907871768984","ios":"levelo://app?vid=2f9de47d-5d8b-434f-a349-907871768984"},"vehicle_type_id":"4","last_reported":1743797413,"current_range_meters":10800,"station_id":"ce4bh692rcd13ifvqea0","pricing_plan_id":"cebpf4jnsgd1na2vs0mg"},{"bike_id":"d7a77506-e751-4787-901c-2ab08ae031f7","system_id":"levelo_inurba_marseille","lat":43.31152,"lon":5.3873,"is_reserved":false,"is_disabled":false,"rental_uris":{"android":"levelo://app?vid=d7a77506-e751-4787-901c-2ab08ae031f7","ios":"levelo://app?vid=d7a77506-e751-4787-901c-2ab08ae031f7"},"vehicle_type_id":"4","last_reported":1743797413,"current_range_meters":10800,"station_id":"ce4bgv12rcd13ifvqcp0","pricing_plan_id":"cebpf4jnsgd1na2vs0mg"},{"bike_id":"3d3487a6-30e9-47ae-b56a-cff02ca0eb8a","system_id":"levelo_inurba_marseille","lat":43.27677,"lon":5.38866,"is_reserved":false,"is_disabled":false,"rental_uris":{"android":"levelo://app?vid=3d3487a6-30e9-47ae-b56a-cff02ca0eb8a","ios":"levelo://app?vid=3d3487a6-30e9-47ae-b56a-cff02ca0eb8a"},"vehicle_type_id":"4","last_reported":1743797413,"current_range_meters":10800,"station_id":"ce4bhi12rcd13ifvqfo0","pricing_plan_id":"cebpf4jnsgd1na2vs0mg"},{"bike_id":"b243a966-3110-4899-b82f-3313e11f599d","system_id":"levelo_inurba_marseille","lat":43.29261,"lon":5.36843,"is_reserved":false,"is_disabled":false,"rental_uris":{"android":"levelo://app?vid=b243a966-3110-4899-b82f-3313e11f599d","ios":"levelo://app?vid=b243a966-3110-4899-b82f-3313e11f599d"},"vehicle_type_id":"4","last_reported":1743797413,"current_range_meters":10800,"station_id":"ce4bhbp2rcd13ifvqesg","pricing_plan_id":"cebpf4jnsgd1na2vs0mg"},{"bike_id":"495a5936-22f2-451e-ab15-52e9d0402042","system_id":"levelo_inurba_marseille","lat":43.29412,"lon":5.38643,"is_reserved":false,"is_disabled":false,"rental_uris":{"android":"levelo://app?vid=495a5936-22f2-451e-ab15-52e9d0402042","ios":"levelo://app?vid=495a5936-22f2-451e-ab15-52e9d0402042"},"vehicle_type_id":"4","last_reported":1743797413,"current_range_meters":10800,"station_id":"ce4bh2h2rcd13ifvqdh0","pricing_plan_id":"cebpf4jnsgd1na2vs0mg"},{"bike_id":"bd59c2c3-8b0b-42de-b49c-20b981410335","system_id":"levelo_inurba_marseille","lat":43.29414,"lon":5.38633,"is_reserved":false,"is_disabled":false,"rental_uris":{"android":"levelo://app?vid=bd59c2c3-8b0b-42de-b49c-20b981410335","ios":"levelo://app?vid=bd59c2c3-8b0b-42de-b49c-20b981410335"},"vehicle_type_id":"4","last_reported":1743797413,"current_range_meters":10800,"station_id":"ce4bh2h2rcd13ifvqdh0","pricing_plan_id":"cebpf4jnsgd1na2vs0mg"},{"bike_id":"9acd8593-7de6-48f1-b31d-99a1cf23cb69","system_id":"levelo_inurba_marseille","lat":43.24065,"lon":5.37772,"is_reserved":false,"is_disabled":false,"rental_uris":{"android":"levelo://app?vid=9acd8593-7de6-48f1-b31d-99a1cf23cb69","ios":"levelo://app?vid=9acd8593-7de6-48f1-b31d-99a1cf23cb69"},"vehicle_type_id":"4","last_reported":1743797413,"current_range_meters":10800,"station_id":"ce4bhnp2rcd13ifvqgvg","pricing_plan_id":"cebpf4jnsgd1na2vs0mg"},{"bike_id":"afa71022-a7ad-44fe-91c3-bc7a42f710cf","system_id":"levelo_inurba_marseille","lat":43.29424,"lon":5.38603,"is_reserved":false,"is_disabled":false,"rental_uris":{"android":"levelo://app?vid=afa71022-a7ad-44fe-91c3-bc7a42f710cf","ios":"levelo://app?vid=afa71022-a7ad-44fe-91c3-bc7a42f710cf"},"vehicle_type_id":"4","last_reported":1743797413,"current_range_meters":11200,"station_id":"ce4bh2h2rcd13ifvqdh0","pricing_plan_id":"cebpf4jnsgd1na2vs0mg"},{"bike_id":"69765911-a657-4873-ab71-1b6674378393","system_id":"levelo_inurba_marseille","lat":43.292988,"lon":5.374422,"is_reserved":false,"is_disabled":true,"rental_uris":{"android":"levelo://app?vid=69765911-a657-4873-ab71-1b6674378393","ios":"levelo://app?vid=69765911-a657-4873-ab71-1b6674378393"},"vehicle_type_id":"4","last_reported":1743797413,"current_range_meters":11200,"station_id":"ce4bgi12rcd13ifvqb70","pricing_plan_id":"cebpf4jnsgd1na2vs0mg"},{"bike_id":"b5a88808-888b-4609-b0c8-f153b51d1dd2","system_id":"levelo_inurba_marseille","lat":43.29264,"lon":5.38438,"is_reserved":false,"is_disabled":false,"rental_uris":{"android":"levelo://app?vid=b5a88808-888b-4609-b0c8-f153b51d1dd2","ios":"levelo://app?vid=b5a88808-888b-4609-b0c8-f153b51d1dd2"},"vehicle_type_id":"4","last_reported":1743797413,"current_range_meters":11200,"station_id":"ce4bh692rcd13ifvqea0","pricing_plan_id":"cebpf4jnsgd1na2vs0mg"},{"bike_id":"f40fc4e8-cfdd-40aa-8507-3bd8857476a8","system_id":"levelo_inurba_marseille","lat":43.30236,"lon":5.40065,"is_reserved":false,"is_disabled":true,"rental_uris":{"android":"levelo://app?vid=f40fc4e8-cfdd-40aa-8507-3bd8857476a8","ios":"levelo://app?vid=f40fc4e8-cfdd-40aa-8507-3bd8857476a8"},"vehicle_type_id":"4","last_reported":1743797413,"current_range_meters":11200,"station_id":"ce4bgvh2rcd13ifvqcs0","pricing_plan_id":"cebpf4jnsgd1na2vs0mg"},{"bike_id":"829acafc-221e-41d2-b87e-1eaa511b3313","system_id":"levelo_inurba_marseille","lat":43.290496,"lon":5.399768,"is_reserved":false,"is_disabled":true,"rental_uris":{"android":"levelo://app?vid=829acafc-221e-41d2-b87e-1eaa511b3313","ios":"levelo://app?vid=829acafc-221e-41d2-b87e-1eaa511b3313"},"vehicle_type_id":"4","last_reported":1743797413,"current_range_meters":11200,"station_id":"","pricing_plan_id":"cebpf4jnsgd1na2vs0mg"},{"bike_id":"ccbaad60-ee1e-4837-a1f8-1af8e79dfa40","system_id":"levelo_inurba_marseille","lat":43.306,"lon":5.39335,"is_reserved":false,"is_disabled":true,"rental_uris":{"android":"levelo://app?vid=ccbaad60-ee1e-4837-a1f8-1af8e79dfa40","ios":"levelo://app?vid=ccbaad60-ee1e-4837-a1f8-1af8e79dfa40"},"vehicle_type_id":"4","last_reported":1743797413,"current_range_meters":11200,"station_id":"ce4bh0p2rcd13ifvqd80","pricing_plan_id":"cebpf4jnsgd1na2vs0mg"},{"bike_id":"ec1efc42-6b50-45b4-9b36-065198ebc403","system_id":"levelo_inurba_marseille","lat":43.29266,"lon":5.38437,"is_reserved":false,"is_disabled":false,"rental_uris":{"android":"levelo://app?vid=ec1efc42-6b50-45b4-9b36-065198ebc403","ios":"levelo://app?vid=ec1efc42-6b50-45b4-9b36-065198ebc403"},"vehicle_type_id":"4","last_reported":1743797413,"current_range_meters":11200,"station_id":"ce4bh692rcd13ifvqea0","pricing_plan_id":"cebpf4jnsgd1na2vs0mg"},{"bike_id":"706fc506-2aa0-4db5-833c-3cdac573bb9a","system_id":"levelo_inurba_marseille","lat":43.29027,"lon":5.38617,"is_reserved":false,"is_disabled":true,"rental_uris":{"android":"levelo://app?vid=706fc506-2aa0-4db5-833c-3cdac573bb9a","ios":"levelo://app?vid=706fc506-2aa0-4db5-833c-3cdac573bb9a"},"vehicle_type_id":"4","last_reported":1743797413,"current_range_meters":11200,"station_id":"ce4bh4p2rcd13ifvqe0g","pricing_plan_id":"cebpf4jnsgd1na2vs0mg"},{"bike_id":"ae85a7a4-7c38-4e25-9e50-a9a925b58789","system_id":"levelo_inurba_marseille","lat":43.31082,"lon":5.42435,"is_reserved":false,"is_disabled":false,"rental_uris":{"android":"levelo://app?vid=ae85a7a4-7c38-4e25-9e50-a9a925b58789","ios":"levelo://app?vid=ae85a7a4-7c38-4e25-9e50-a9a925b58789"},"vehicle_type_id":"4","last_reported":1743797413,"current_range_meters":11200,"station_id":"ce4bhp92rcd13ifvqhag","pricing_plan_id":"cebpf4jnsgd1na2vs0mg"},{"bike_id":"b2b03e5d-3e2f-45b1-8744-075dca8e435a","system_id":"levelo_inurba_marseille","lat":43.284512,"lon":5.392024,"is_reserved":false,"is_disabled":false,"rental_uris":{"android":"levelo://app?vid=b2b03e5d-3e2f-45b1-8744-075dca8e435a","ios":"levelo://app?vid=b2b03e5d-3e2f-45b1-8744-075dca8e435a"},"vehicle_type_id":"4","last_reported":1743797413,"current_range_meters":11200,"station_id":"ce4bhoh2rcd13ifvqh5g","pricing_plan_id":"cebpf4jnsgd1na2vs0mg"},{"bike_id":"1edc9b8f-069c-4a73-b056-332d912ad4c7","system_id":"levelo_inurba_marseille","lat":43.29423,"lon":5.38611,"is_reserved":false,"is_disabled":false,"rental_uris":{"android":"levelo://app?vid=1edc9b8f-069c-4a73-b056-332d912ad4c7","ios":"levelo://app?vid=1edc9b8f-069c-4a73-b056-332d912ad4c7"},"vehicle_type_id":"4","last_reported":1743797413,"current_range_meters":11600,"station_id":"ce4bh2h2rcd13ifvqdh0","pricing_plan_id":"cebpf4jnsgd1na2vs0mg"},{"bike_id":"3b4ad8c6-6244-4378-90d7-dac703d1508d","system_id":"levelo_inurba_marseille","lat":43.23189,"lon":5.35558,"is_reserved":false,"is_disabled":false,"rental_uris":{"android":"levelo://app?vid=3b4ad8c6-6244-4378-90d7-dac703d1508d","ios":"levelo://app?vid=3b4ad8c6-6244-4378-90d7-dac703d1508d"},"vehicle_type_id":"4","last_reported":1743797413,"current_range_meters":11600,"station_id":"ce4bhu92rcd13ifvqi70","pricing_plan_id":"cebpf4jnsgd1na2vs0mg"},{"bike_id":"203176fb-52f7-45ec-88b4-caa4115f7b7b","system_id":"levelo_inurba_marseille","lat":43.2962,"lon":5.400257,"is_reserved":false,"is_disabled":false,"rental_uris":{"android":"levelo://app?vid=203176fb-52f7-45ec-88b4-caa4115f7b7b","ios":"levelo://app?vid=203176fb-52f7-45ec-88b4-caa4115f7b7b"},"vehicle_type_id":"4","last_reported":1743797413,"current_range_meters":11600,"station_id":"","pricing_plan_id":"cebpf4jnsgd1na2vs0mg"},{"bike_id":"cb2aad6d-61e8-4de9-9f75-4e440e9fa1e5","system_id":"levelo_inurba_marseille","lat":43.29303,"lon":5.37171,"is_reserved":false,"is_disabled":false,"rental_uris":{"android":"levelo://app?vid=cb2aad6d-61e8-4de9-9f75-4e440e9fa1e5","ios":"levelo://app?vid=cb2aad6d-61e8-4de9-9f75-4e440e9fa1e5"},"vehicle_type_id":"4","last_reported":1743797413,"current_range_meters":11600,"station_id":"ce4bgh92rcd13ifvqb40","pricing_plan_id":"cebpf4jnsgd1na2vs0mg"},{"bike_id":"568811bf-100a-4ff7-9269-761359d59687","system_id":"levelo_inurba_marseille","lat":43.29419,"lon":5.38634,"is_reserved":false,"is_disabled":false,"rental_uris":{"android":"levelo://app?vid=568811bf-100a-4ff7-9269-761359d59687","ios":"levelo://app?vid=568811bf-100a-4ff7-9269-761359d59687"},"vehicle_type_id":"4","last_reported":1743797413,"current_range_meters":11600,"station_id":"ce4bh2h2rcd13ifvqdh0","pricing_plan_id":"cebpf4jnsgd1na2vs0mg"},{"bike_id":"783ef245-163c-4c81-b038-df23059b7c57","system_id":"levelo_inurba_marseille","lat":43.310755,"lon":5.383546,"is_reserved":false,"is_disabled":false,"rental_uris":{"android":"levelo://app?vid=783ef245-163c-4c81-b038-df23059b7c57","ios":"levelo://app?vid=783ef245-163c-4c81-b038-df23059b7c57"},"vehicle_type_id":"4","last_reported":1743797413,"current_range_meters":11600,"station_id":"","pricing_plan_id":"cebpf4jnsgd1na2vs0mg"},{"bike_id":"90cbdb86-9b61-497f-b876-39307b2b9f64","system_id":"levelo_inurba_marseille","lat":43.289263,"lon":5.384067,"is_reserved":false,"is_disabled":false,"rental_uris":{"android":"levelo://app?vid=90cbdb86-9b61-497f-b876-39307b2b9f64","ios":"levelo://app?vid=90cbdb86-9b61-497f-b876-39307b2b9f64"},"vehicle_type_id":"4","last_reported":1743797413,"current_range_meters":11600,"station_id":"ce4bh612rcd13ifvqe6g","pricing_plan_id":"cebpf4jnsgd1na2vs0mg"},{"bike_id":"82094fca-82b5-45b4-81a5-df2e6ffd6728","system_id":"levelo_inurba_marseille","lat":43.32333,"lon":5.4063,"is_reserved":false,"is_disabled":false,"rental_uris":{"android":"levelo://app?vid=82094fca-82b5-45b4-81a5-df2e6ffd6728","ios":"levelo://app?vid=82094fca-82b5-45b4-81a5-df2e6ffd6728"},"vehicle_type_id":"4","last_reported":1743797413,"current_range_meters":11600,"station_id":"ce4bhq92rcd13ifvqhjg","pricing_plan_id":"cebpf4jnsgd1na2vs0mg"},{"bike_id":"3c1a997f-7332-40e8-9dea-ce4bca240a0a","system_id":"levelo_inurba_marseille","lat":43.29529,"lon":5.38539,"is_reserved":false,"is_disabled":false,"rental_uris":{"android":"levelo://app?vid=3c1a997f-7332-40e8-9dea-ce4bca240a0a","ios":"levelo://app?vid=3c1a997f-7332-40e8-9dea-ce4bca240a0a"},"vehicle_type_id":"4","last_reported":1743797413,"current_range_meters":12400,"station_id":"ce4bgih2rcd13ifvqba0","pricing_plan_id":"cebpf4jnsgd1na2vs0mg"},{"bike_id":"60a0de10-42b7-4752-a2e4-89daa6ffc4d6","system_id":"levelo_inurba_marseille","lat":43.23964,"lon":5.36631,"is_reserved":false,"is_disabled":false,"rental_uris":{"android":"levelo://app?vid=60a0de10-42b7-4752-a2e4-89daa6ffc4d6","ios":"levelo://app?vid=60a0de10-42b7-4752-a2e4-89daa6ffc4d6"},"vehicle_type_id":"4","last_reported":1743797413,"current_range_meters":11200,"station_id":"ce4bhi12rcd13ifvqfp0","pricing_plan_id":"cebpf4jnsgd1na2vs0mg"},{"bike_id":"0eb30f16-826e-404e-9494-cbd59d704ab7","system_id":"levelo_inurba_marseille","lat":43.29029,"lon":5.38584,"is_reserved":false,"is_disabled":true,"rental_uris":{"android":"levelo://app?vid=0eb30f16-826e-404e-9494-cbd59d704ab7","ios":"levelo://app?vid=0eb30f16-826e-404e-9494-cbd59d704ab7"},"vehicle_type_id":"4","last_reported":1743797413,"current_range_meters":11600,"station_id":"ce4bh4p2rcd13ifvqe0g","pricing_plan_id":"cebpf4jnsgd1na2vs0mg"},{"bike_id":"c2055a2a-1cff-4f19-a52d-9b52baeaa63f","system_id":"levelo_inurba_marseille","lat":43.32039,"lon":5.38109,"is_reserved":false,"is_disabled":true,"rental_uris":{"android":"levelo://app?vid=c2055a2a-1cff-4f19-a52d-9b52baeaa63f","ios":"levelo://app?vid=c2055a2a-1cff-4f19-a52d-9b52baeaa63f"},"vehicle_type_id":"4","last_reported":1743797413,"current_range_meters":11600,"station_id":"","pricing_plan_id":"cebpf4jnsgd1na2vs0mg"},{"bike_id":"a07480da-f5a9-4597-b3e6-cc405effeae7","system_id":"levelo_inurba_marseille","lat":43.2895,"lon":5.39658,"is_reserved":false,"is_disabled":true,"rental_uris":{"android":"levelo://app?vid=a07480da-f5a9-4597-b3e6-cc405effeae7","ios":"levelo://app?vid=a07480da-f5a9-4597-b3e6-cc405effeae7"},"vehicle_type_id":"4","last_reported":1743797413,"current_range_meters":12000,"station_id":"ce4bh3h2rcd13ifvqdn0","pricing_plan_id":"cebpf4jnsgd1na2vs0mg"},{"bike_id":"9a75cc6a-a7fd-40a9-971e-a445f22b1875","system_id":"levelo_inurba_marseille","lat":43.29416,"lon":5.3863,"is_reserved":false,"is_disabled":false,"rental_uris":{"android":"levelo://app?vid=9a75cc6a-a7fd-40a9-971e-a445f22b1875","ios":"levelo://app?vid=9a75cc6a-a7fd-40a9-971e-a445f22b1875"},"vehicle_type_id":"4","last_reported":1743797413,"current_range_meters":12000,"station_id":"ce4bh2h2rcd13ifvqdh0","pricing_plan_id":"cebpf4jnsgd1na2vs0mg"},{"bike_id":"6b8df6c6-e69f-416d-869f-6c58b572d426","system_id":"levelo_inurba_marseille","lat":43.23187,"lon":5.39979,"is_reserved":false,"is_disabled":false,"rental_uris":{"android":"levelo://app?vid=6b8df6c6-e69f-416d-869f-6c58b572d426","ios":"levelo://app?vid=6b8df6c6-e69f-416d-869f-6c58b572d426"},"vehicle_type_id":"4","last_reported":1743797413,"current_range_meters":12000,"station_id":"ce4bhn12rcd13ifvqgqg","pricing_plan_id":"cebpf4jnsgd1na2vs0mg"},{"bike_id":"496d9c3e-d4cc-4d91-b2f9-1e3766be7e3f","system_id":"levelo_inurba_marseille","lat":43.30645,"lon":5.4009,"is_reserved":false,"is_disabled":false,"rental_uris":{"android":"levelo://app?vid=496d9c3e-d4cc-4d91-b2f9-1e3766be7e3f","ios":"levelo://app?vid=496d9c3e-d4cc-4d91-b2f9-1e3766be7e3f"},"vehicle_type_id":"4","last_reported":1743797413,"current_range_meters":12000,"station_id":"ce4bh112rcd13ifvqda0","pricing_plan_id":"cebpf4jnsgd1na2vs0mg"},{"bike_id":"fb0d4993-67fa-4314-9525-ef2ba9197c72","system_id":"levelo_inurba_marseille","lat":43.30264,"lon":5.4063,"is_reserved":false,"is_disabled":false,"rental_uris":{"android":"levelo://app?vid=fb0d4993-67fa-4314-9525-ef2ba9197c72","ios":"levelo://app?vid=fb0d4993-67fa-4314-9525-ef2ba9197c72"},"vehicle_type_id":"4","last_reported":1743797413,"current_range_meters":12000,"station_id":"","pricing_plan_id":"cebpf4jnsgd1na2vs0mg"},{"bike_id":"574504fc-905a-4974-8a24-e5664f92ac49","system_id":"levelo_inurba_marseille","lat":43.29621,"lon":5.37718,"is_reserved":false,"is_disabled":false,"rental_uris":{"android":"levelo://app?vid=574504fc-905a-4974-8a24-e5664f92ac49","ios":"levelo://app?vid=574504fc-905a-4974-8a24-e5664f92ac49"},"vehicle_type_id":"4","last_reported":1743797413,"current_range_meters":12000,"station_id":"ce4bgi92rcd13ifvqb90","pricing_plan_id":"cebpf4jnsgd1na2vs0mg"},{"bike_id":"251d636f-3ef3-48ab-b44e-563cb9477ac3","system_id":"levelo_inurba_marseille","lat":43.28029,"lon":5.41651,"is_reserved":false,"is_disabled":false,"rental_uris":{"android":"levelo://app?vid=251d636f-3ef3-48ab-b44e-563cb9477ac3","ios":"levelo://app?vid=251d636f-3ef3-48ab-b44e-563cb9477ac3"},"vehicle_type_id":"4","last_reported":1743797413,"current_range_meters":11600,"station_id":"ce4bho12rcd13ifvqh1g","pricing_plan_id":"cebpf4jnsgd1na2vs0mg"},{"bike_id":"d0764e00-ddd2-47df-8a98-0f2793651d61","system_id":"levelo_inurba_marseille","lat":43.29243,"lon":5.38441,"is_reserved":false,"is_disabled":false,"rental_uris":{"android":"levelo://app?vid=d0764e00-ddd2-47df-8a98-0f2793651d61","ios":"levelo://app?vid=d0764e00-ddd2-47df-8a98-0f2793651d61"},"vehicle_type_id":"4","last_reported":1743797413,"current_range_meters":12000,"station_id":"ce4bh692rcd13ifvqea0","pricing_plan_id":"cebpf4jnsgd1na2vs0mg"},{"bike_id":"5f41ca62-0672-4f47-acb5-d7d9a76a4fd1","system_id":"levelo_inurba_marseille","lat":43.30649,"lon":5.40089,"is_reserved":false,"is_disabled":false,"rental_uris":{"android":"levelo://app?vid=5f41ca62-0672-4f47-acb5-d7d9a76a4fd1","ios":"levelo://app?vid=5f41ca62-0672-4f47-acb5-d7d9a76a4fd1"},"vehicle_type_id":"4","last_reported":1743797413,"current_range_meters":12000,"station_id":"ce4bh112rcd13ifvqda0","pricing_plan_id":"cebpf4jnsgd1na2vs0mg"},{"bike_id":"6e1c9c66-c456-4a0c-9f32-8624123a9ee0","system_id":"levelo_inurba_marseille","lat":43.30812,"lon":5.43523,"is_reserved":false,"is_disabled":false,"rental_uris":{"android":"levelo://app?vid=6e1c9c66-c456-4a0c-9f32-8624123a9ee0","ios":"levelo://app?vid=6e1c9c66-c456-4a0c-9f32-8624123a9ee0"},"vehicle_type_id":"4","last_reported":1743797413,"current_range_meters":12000,"station_id":"ce4bhph2rcd13ifvqheg","pricing_plan_id":"cebpf4jnsgd1na2vs0mg"},{"bike_id":"d68bb49e-ae67-46b9-9113-2f1b9eefff70","system_id":"levelo_inurba_marseille","lat":43.3199,"lon":5.38158,"is_reserved":false,"is_disabled":true,"rental_uris":{"android":"levelo://app?vid=d68bb49e-ae67-46b9-9113-2f1b9eefff70","ios":"levelo://app?vid=d68bb49e-ae67-46b9-9113-2f1b9eefff70"},"vehicle_type_id":"4","last_reported":1743797413,"current_range_meters":12000,"station_id":"ce4bhr12rcd13ifvqhpg","pricing_plan_id":"cebpf4jnsgd1na2vs0mg"},{"bike_id":"2ac6a623-063c-4fc4-8bde-f17112b0788e","system_id":"levelo_inurba_marseille","lat":43.23429,"lon":5.40612,"is_reserved":false,"is_disabled":false,"rental_uris":{"android":"levelo://app?vid=2ac6a623-063c-4fc4-8bde-f17112b0788e","ios":"levelo://app?vid=2ac6a623-063c-4fc4-8bde-f17112b0788e"},"vehicle_type_id":"4","last_reported":1743797413,"current_range_meters":12400,"station_id":"","pricing_plan_id":"cebpf4jnsgd1na2vs0mg"},{"bike_id":"48ec1fe3-fdf4-49a5-977a-526829b4e2e3","system_id":"levelo_inurba_marseille","lat":43.23063,"lon":5.35499,"is_reserved":false,"is_disabled":false,"rental_uris":{"android":"levelo://app?vid=48ec1fe3-fdf4-49a5-977a-526829b4e2e3","ios":"levelo://app?vid=48ec1fe3-fdf4-49a5-977a-526829b4e2e3"},"vehicle_type_id":"4","last_reported":1743797413,"current_range_meters":12400,"station_id":"cpo3342slgdg3j2ifvpg","pricing_plan_id":"cebpf4jnsgd1na2vs0mg"},{"bike_id":"fdad6e5e-1467-4616-9d72-68b29d343e00","system_id":"levelo_inurba_marseille","lat":43.32283,"lon":5.38287,"is_reserved":false,"is_disabled":false,"rental_uris":{"android":"levelo://app?vid=fdad6e5e-1467-4616-9d72-68b29d343e00","ios":"levelo://app?vid=fdad6e5e-1467-4616-9d72-68b29d343e00"},"vehicle_type_id":"4","last_reported":1743797413,"current_range_meters":12400,"station_id":"ce4bhr12rcd13ifvqhqg","pricing_plan_id":"cebpf4jnsgd1na2vs0mg"},{"bike_id":"41296888-352e-4ce3-b582-026d48019870","system_id":"levelo_inurba_marseille","lat":43.29136,"lon":5.37926,"is_reserved":false,"is_disabled":false,"rental_uris":{"android":"levelo://app?vid=41296888-352e-4ce3-b582-026d48019870","ios":"levelo://app?vid=41296888-352e-4ce3-b582-026d48019870"},"vehicle_type_id":"4","last_reported":1743797413,"current_range_meters":12400,"station_id":"","pricing_plan_id":"cebpf4jnsgd1na2vs0mg"},{"bike_id":"b2dd4286-e2a1-4bf6-9558-757f944c9aeb","system_id":"levelo_inurba_marseille","lat":43.2925,"lon":5.38447,"is_reserved":false,"is_disabled":false,"rental_uris":{"android":"levelo://app?vid=b2dd4286-e2a1-4bf6-9558-757f944c9aeb","ios":"levelo://app?vid=b2dd4286-e2a1-4bf6-9558-757f944c9aeb"},"vehicle_type_id":"4","last_reported":1743797413,"current_range_meters":12400,"station_id":"ce4bh692rcd13ifvqea0","pricing_plan_id":"cebpf4jnsgd1na2vs0mg"},{"bike_id":"cb695195-0405-4992-a66d-b75633509984","system_id":"levelo_inurba_marseille","lat":43.2721,"lon":5.39176,"is_reserved":false,"is_disabled":false,"rental_uris":{"android":"levelo://app?vid=cb695195-0405-4992-a66d-b75633509984","ios":"levelo://app?vid=cb695195-0405-4992-a66d-b75633509984"},"vehicle_type_id":"4","last_reported":1743797413,"current_range_meters":12400,"station_id":"ce4bhhp2rcd13ifvqfm0","pricing_plan_id":"cebpf4jnsgd1na2vs0mg"},{"bike_id":"1b5d84f5-147e-4a1f-a4a0-1b9d23b8db6c","system_id":"levelo_inurba_marseille","lat":43.24806,"lon":5.37456,"is_reserved":false,"is_disabled":false,"rental_uris":{"android":"levelo://app?vid=1b5d84f5-147e-4a1f-a4a0-1b9d23b8db6c","ios":"levelo://app?vid=1b5d84f5-147e-4a1f-a4a0-1b9d23b8db6c"},"vehicle_type_id":"4","last_reported":1743797413,"current_range_meters":12400,"station_id":"ce4bhgh2rcd13ifvqfb0","pricing_plan_id":"cebpf4jnsgd1na2vs0mg"},{"bike_id":"1d5ef6d0-a413-45b3-8100-7222d11689f2","system_id":"levelo_inurba_marseille","lat":43.28902,"lon":5.38415,"is_reserved":false,"is_disabled":true,"rental_uris":{"android":"levelo://app?vid=1d5ef6d0-a413-45b3-8100-7222d11689f2","ios":"levelo://app?vid=1d5ef6d0-a413-45b3-8100-7222d11689f2"},"vehicle_type_id":"4","last_reported":1743797413,"current_range_meters":12400,"station_id":"ce4bh612rcd13ifvqe6g","pricing_plan_id":"cebpf4jnsgd1na2vs0mg"},{"bike_id":"eb79d1f9-7c91-4ea2-b5f8-796189743e1a","system_id":"levelo_inurba_marseille","lat":43.33749,"lon":5.39197,"is_reserved":false,"is_disabled":false,"rental_uris":{"android":"levelo://app?vid=eb79d1f9-7c91-4ea2-b5f8-796189743e1a","ios":"levelo://app?vid=eb79d1f9-7c91-4ea2-b5f8-796189743e1a"},"vehicle_type_id":"4","last_reported":1743797413,"current_range_meters":12800,"station_id":"ce4bhr92rcd13ifvqhsg","pricing_plan_id":"cebpf4jnsgd1na2vs0mg"},{"bike_id":"183f9b94-038b-4968-a9e5-5349fdafb5e2","system_id":"levelo_inurba_marseille","lat":43.26223,"lon":5.40454,"is_reserved":false,"is_disabled":false,"rental_uris":{"android":"levelo://app?vid=183f9b94-038b-4968-a9e5-5349fdafb5e2","ios":"levelo://app?vid=183f9b94-038b-4968-a9e5-5349fdafb5e2"},"vehicle_type_id":"4","last_reported":1743797413,"current_range_meters":12800,"station_id":"ce4bhmh2rcd13ifvqgmg","pricing_plan_id":"cebpf4jnsgd1na2vs0mg"},{"bike_id":"0030b574-680c-425b-8e09-a16d46745da3","system_id":"levelo_inurba_marseille","lat":43.294218,"lon":5.386268,"is_reserved":false,"is_disabled":false,"rental_uris":{"android":"levelo://app?vid=0030b574-680c-425b-8e09-a16d46745da3","ios":"levelo://app?vid=0030b574-680c-425b-8e09-a16d46745da3"},"vehicle_type_id":"4","last_reported":1743797413,"current_range_meters":12800,"station_id":"ce4bh2h2rcd13ifvqdh0","pricing_plan_id":"cebpf4jnsgd1na2vs0mg"},{"bike_id":"6fba5829-4652-4b53-b689-437d3d3459b3","system_id":"levelo_inurba_marseille","lat":43.32321,"lon":5.40621,"is_reserved":false,"is_disabled":false,"rental_uris":{"android":"levelo://app?vid=6fba5829-4652-4b53-b689-437d3d3459b3","ios":"levelo://app?vid=6fba5829-4652-4b53-b689-437d3d3459b3"},"vehicle_type_id":"4","last_reported":1743797413,"current_range_meters":12800,"station_id":"ce4bhq92rcd13ifvqhjg","pricing_plan_id":"cebpf4jnsgd1na2vs0mg"},{"bike_id":"ad4df31d-ab22-4c21-923e-406efd2dcbc7","system_id":"levelo_inurba_marseille","lat":43.26061,"lon":5.39394,"is_reserved":false,"is_disabled":false,"rental_uris":{"android":"levelo://app?vid=ad4df31d-ab22-4c21-923e-406efd2dcbc7","ios":"levelo://app?vid=ad4df31d-ab22-4c21-923e-406efd2dcbc7"},"vehicle_type_id":"4","last_reported":1743797413,"current_range_meters":12800,"station_id":"ce4bhh92rcd13ifvqfj0","pricing_plan_id":"cebpf4jnsgd1na2vs0mg"},{"bike_id":"77eedc5f-2102-42e3-a149-d0c0d9ad1c09","system_id":"levelo_inurba_marseille","lat":43.26061,"lon":5.39393,"is_reserved":false,"is_disabled":false,"rental_uris":{"android":"levelo://app?vid=77eedc5f-2102-42e3-a149-d0c0d9ad1c09","ios":"levelo://app?vid=77eedc5f-2102-42e3-a149-d0c0d9ad1c09"},"vehicle_type_id":"4","last_reported":1743797413,"current_range_meters":12800,"station_id":"ce4bhh92rcd13ifvqfj0","pricing_plan_id":"cebpf4jnsgd1na2vs0mg"},{"bike_id":"6d9715e6-045f-417b-844a-144b6e5c1132","system_id":"levelo_inurba_marseille","lat":43.29184,"lon":5.35743,"is_reserved":false,"is_disabled":false,"rental_uris":{"android":"levelo://app?vid=6d9715e6-045f-417b-844a-144b6e5c1132","ios":"levelo://app?vid=6d9715e6-045f-417b-844a-144b6e5c1132"},"vehicle_type_id":"4","last_reported":1743797413,"current_range_meters":12800,"station_id":"ce4bhb12rcd13ifvqel0","pricing_plan_id":"cebpf4jnsgd1na2vs0mg"},{"bike_id":"63081022-824b-4b5a-b713-5936340173df","system_id":"levelo_inurba_marseille","lat":43.29425,"lon":5.38603,"is_reserved":false,"is_disabled":false,"rental_uris":{"android":"levelo://app?vid=63081022-824b-4b5a-b713-5936340173df","ios":"levelo://app?vid=63081022-824b-4b5a-b713-5936340173df"},"vehicle_type_id":"4","last_reported":1743797413,"current_range_meters":12800,"station_id":"ce4bh2h2rcd13ifvqdh0","pricing_plan_id":"cebpf4jnsgd1na2vs0mg"},{"bike_id":"dafb0e47-46be-4d27-baed-b7490a64e9e2","system_id":"levelo_inurba_marseille","lat":43.32336,"lon":5.40615,"is_reserved":false,"is_disabled":false,"rental_uris":{"android":"levelo://app?vid=dafb0e47-46be-4d27-baed-b7490a64e9e2","ios":"levelo://app?vid=dafb0e47-46be-4d27-baed-b7490a64e9e2"},"vehicle_type_id":"4","last_reported":1743797413,"current_range_meters":13600,"station_id":"ce4bhq92rcd13ifvqhjg","pricing_plan_id":"cebpf4jnsgd1na2vs0mg"},{"bike_id":"c1e7edcd-ef39-4a27-acf1-7537827f1daf","system_id":"levelo_inurba_marseille","lat":43.27985,"lon":5.41654,"is_reserved":false,"is_disabled":false,"rental_uris":{"android":"levelo://app?vid=c1e7edcd-ef39-4a27-acf1-7537827f1daf","ios":"levelo://app?vid=c1e7edcd-ef39-4a27-acf1-7537827f1daf"},"vehicle_type_id":"4","last_reported":1743797413,"current_range_meters":12800,"station_id":"ce4bho12rcd13ifvqh1g","pricing_plan_id":"cebpf4jnsgd1na2vs0mg"},{"bike_id":"d89bb348-a2b2-475f-b66f-22fe74c882fd","system_id":"levelo_inurba_marseille","lat":43.23191,"lon":5.39973,"is_reserved":false,"is_disabled":false,"rental_uris":{"android":"levelo://app?vid=d89bb348-a2b2-475f-b66f-22fe74c882fd","ios":"levelo://app?vid=d89bb348-a2b2-475f-b66f-22fe74c882fd"},"vehicle_type_id":"4","last_reported":1743797413,"current_range_meters":13600,"station_id":"ce4bhn12rcd13ifvqgqg","pricing_plan_id":"cebpf4jnsgd1na2vs0mg"},{"bike_id":"d938a0c5-96c4-4bac-b791-d50f7dc891cd","system_id":"levelo_inurba_marseille","lat":43.30592,"lon":5.37244,"is_reserved":false,"is_disabled":false,"rental_uris":{"android":"levelo://app?vid=d938a0c5-96c4-4bac-b791-d50f7dc891cd","ios":"levelo://app?vid=d938a0c5-96c4-4bac-b791-d50f7dc891cd"},"vehicle_type_id":"4","last_reported":1743797413,"current_range_meters":12800,"station_id":"ce4bgqh2rcd13ifvqc4g","pricing_plan_id":"cebpf4jnsgd1na2vs0mg"},{"bike_id":"37113a9e-4281-4c46-8e06-a223354b452a","system_id":"levelo_inurba_marseille","lat":43.2844,"lon":5.3919,"is_reserved":false,"is_disabled":false,"rental_uris":{"android":"levelo://app?vid=37113a9e-4281-4c46-8e06-a223354b452a","ios":"levelo://app?vid=37113a9e-4281-4c46-8e06-a223354b452a"},"vehicle_type_id":"4","last_reported":1743797413,"current_range_meters":13600,"station_id":"ce4bhoh2rcd13ifvqh5g","pricing_plan_id":"cebpf4jnsgd1na2vs0mg"},{"bike_id":"f6ec27da-4e4d-41dc-a5c4-9512cea588d7","system_id":"levelo_inurba_marseille","lat":43.25491,"lon":5.37648,"is_reserved":false,"is_disabled":false,"rental_uris":{"android":"levelo://app?vid=f6ec27da-4e4d-41dc-a5c4-9512cea588d7","ios":"levelo://app?vid=f6ec27da-4e4d-41dc-a5c4-9512cea588d7"},"vehicle_type_id":"4","last_reported":1743797413,"current_range_meters":13600,"station_id":"ce4bhh12rcd13ifvqff0","pricing_plan_id":"cebpf4jnsgd1na2vs0mg"},{"bike_id":"4c68cb09-0a6c-4dd0-b34e-df90686a222d","system_id":"levelo_inurba_marseille","lat":43.31162,"lon":5.3872,"is_reserved":false,"is_disabled":false,"rental_uris":{"android":"levelo://app?vid=4c68cb09-0a6c-4dd0-b34e-df90686a222d","ios":"levelo://app?vid=4c68cb09-0a6c-4dd0-b34e-df90686a222d"},"vehicle_type_id":"4","last_reported":1743797413,"current_range_meters":13600,"station_id":"ce4bgv12rcd13ifvqcp0","pricing_plan_id":"cebpf4jnsgd1na2vs0mg"},{"bike_id":"ad5ba5ed-cd38-4b09-b5c1-56e41805904c","system_id":"levelo_inurba_marseille","lat":43.2927,"lon":5.36852,"is_reserved":false,"is_disabled":false,"rental_uris":{"android":"levelo://app?vid=ad5ba5ed-cd38-4b09-b5c1-56e41805904c","ios":"levelo://app?vid=ad5ba5ed-cd38-4b09-b5c1-56e41805904c"},"vehicle_type_id":"4","last_reported":1743797413,"current_range_meters":13600,"station_id":"ce4bhbp2rcd13ifvqesg","pricing_plan_id":"cebpf4jnsgd1na2vs0mg"},{"bike_id":"2041165c-6c3a-4753-801b-59893d6048bd","system_id":"levelo_inurba_marseille","lat":43.28714,"lon":5.37942,"is_reserved":false,"is_disabled":false,"rental_uris":{"android":"levelo://app?vid=2041165c-6c3a-4753-801b-59893d6048bd","ios":"levelo://app?vid=2041165c-6c3a-4753-801b-59893d6048bd"},"vehicle_type_id":"4","last_reported":1743797413,"current_range_meters":13600,"station_id":"ce4bh9p2rcd13ifvqec0","pricing_plan_id":"cebpf4jnsgd1na2vs0mg"},{"bike_id":"dceb5704-96f9-448f-9847-4aee053fdb03","system_id":"levelo_inurba_marseille","lat":43.29515,"lon":5.39026,"is_reserved":false,"is_disabled":false,"rental_uris":{"android":"levelo://app?vid=dceb5704-96f9-448f-9847-4aee053fdb03","ios":"levelo://app?vid=dceb5704-96f9-448f-9847-4aee053fdb03"},"vehicle_type_id":"4","last_reported":1743797413,"current_range_meters":14000,"station_id":"ce4bh3p2rcd13ifvqdp0","pricing_plan_id":"cebpf4jnsgd1na2vs0mg"},{"bike_id":"3719d63c-6535-40a3-9206-8644906174c4","system_id":"levelo_inurba_marseille","lat":43.29894,"lon":5.43668,"is_reserved":false,"is_disabled":false,"rental_uris":{"android":"levelo://app?vid=3719d63c-6535-40a3-9206-8644906174c4","ios":"levelo://app?vid=3719d63c-6535-40a3-9206-8644906174c4"},"vehicle_type_id":"4","last_reported":1743797413,"current_range_meters":14000,"station_id":"ce4bhpp2rcd13ifvqhfg","pricing_plan_id":"cebpf4jnsgd1na2vs0mg"},{"bike_id":"5c00189c-f110-42c6-96e5-8519b476bf9d","system_id":"levelo_inurba_marseille","lat":43.29255,"lon":5.38434,"is_reserved":false,"is_disabled":false,"rental_uris":{"android":"levelo://app?vid=5c00189c-f110-42c6-96e5-8519b476bf9d","ios":"levelo://app?vid=5c00189c-f110-42c6-96e5-8519b476bf9d"},"vehicle_type_id":"4","last_reported":1743797413,"current_range_meters":14000,"station_id":"ce4bh692rcd13ifvqea0","pricing_plan_id":"cebpf4jnsgd1na2vs0mg"},{"bike_id":"e9da2769-3c75-41d4-8a35-84fcdbca2fe8","system_id":"levelo_inurba_marseille","lat":43.28917,"lon":5.38405,"is_reserved":false,"is_disabled":false,"rental_uris":{"android":"levelo://app?vid=e9da2769-3c75-41d4-8a35-84fcdbca2fe8","ios":"levelo://app?vid=e9da2769-3c75-41d4-8a35-84fcdbca2fe8"},"vehicle_type_id":"4","last_reported":1743797413,"current_range_meters":14000,"station_id":"ce4bh612rcd13ifvqe6g","pricing_plan_id":"cebpf4jnsgd1na2vs0mg"},{"bike_id":"921ba7f4-82a5-49c2-b0c0-a5e606ce0136","system_id":"levelo_inurba_marseille","lat":43.29257,"lon":5.38432,"is_reserved":false,"is_disabled":false,"rental_uris":{"android":"levelo://app?vid=921ba7f4-82a5-49c2-b0c0-a5e606ce0136","ios":"levelo://app?vid=921ba7f4-82a5-49c2-b0c0-a5e606ce0136"},"vehicle_type_id":"4","last_reported":1743797413,"current_range_meters":14000,"station_id":"ce4bh692rcd13ifvqea0","pricing_plan_id":"cebpf4jnsgd1na2vs0mg"},{"bike_id":"22db6b45-3c2c-40eb-a4f0-12673c2d03e3","system_id":"levelo_inurba_marseille","lat":43.29095,"lon":5.38145,"is_reserved":false,"is_disabled":false,"rental_uris":{"android":"levelo://app?vid=22db6b45-3c2c-40eb-a4f0-12673c2d03e3","ios":"levelo://app?vid=22db6b45-3c2c-40eb-a4f0-12673c2d03e3"},"vehicle_type_id":"4","last_reported":1743797413,"current_range_meters":14000,"station_id":"ce4bh512rcd13ifvqe2g","pricing_plan_id":"cebpf4jnsgd1na2vs0mg"},{"bike_id":"5b38bcec-7253-4a5b-8c43-b511041b484e","system_id":"levelo_inurba_marseille","lat":43.294159,"lon":5.386363,"is_reserved":false,"is_disabled":false,"rental_uris":{"android":"levelo://app?vid=5b38bcec-7253-4a5b-8c43-b511041b484e","ios":"levelo://app?vid=5b38bcec-7253-4a5b-8c43-b511041b484e"},"vehicle_type_id":"4","last_reported":1743797413,"current_range_meters":14000,"station_id":"ce4bh2h2rcd13ifvqdh0","pricing_plan_id":"cebpf4jnsgd1na2vs0mg"},{"bike_id":"1314e27e-2011-45ad-b8e0-a3faba718da1","system_id":"levelo_inurba_marseille","lat":43.31229,"lon":5.46405,"is_reserved":false,"is_disabled":false,"rental_uris":{"android":"levelo://app?vid=1314e27e-2011-45ad-b8e0-a3faba718da1","ios":"levelo://app?vid=1314e27e-2011-45ad-b8e0-a3faba718da1"},"vehicle_type_id":"4","last_reported":1743797413,"current_range_meters":14000,"station_id":"","pricing_plan_id":"cebpf4jnsgd1na2vs0mg"},{"bike_id":"2231814d-9cee-4023-853f-deb5697a539c","system_id":"levelo_inurba_marseille","lat":43.29599,"lon":5.381,"is_reserved":false,"is_disabled":false,"rental_uris":{"android":"levelo://app?vid=2231814d-9cee-4023-853f-deb5697a539c","ios":"levelo://app?vid=2231814d-9cee-4023-853f-deb5697a539c"},"vehicle_type_id":"4","last_reported":1743797413,"current_range_meters":14000,"station_id":"ce4bgl12rcd13ifvqbo0","pricing_plan_id":"cebpf4jnsgd1na2vs0mg"},{"bike_id":"e0025ce5-fe29-4293-8000-c88ee2bac657","system_id":"levelo_inurba_marseille","lat":43.31464,"lon":5.39206,"is_reserved":false,"is_disabled":false,"rental_uris":{"android":"levelo://app?vid=e0025ce5-fe29-4293-8000-c88ee2bac657","ios":"levelo://app?vid=e0025ce5-fe29-4293-8000-c88ee2bac657"},"vehicle_type_id":"4","last_reported":1743797413,"current_range_meters":14000,"station_id":"","pricing_plan_id":"cebpf4jnsgd1na2vs0mg"},{"bike_id":"855ab7a3-7dab-43bf-ba3b-fd657d6bdcfd","system_id":"levelo_inurba_marseille","lat":43.31284,"lon":5.40161,"is_reserved":false,"is_disabled":false,"rental_uris":{"android":"levelo://app?vid=855ab7a3-7dab-43bf-ba3b-fd657d6bdcfd","ios":"levelo://app?vid=855ab7a3-7dab-43bf-ba3b-fd657d6bdcfd"},"vehicle_type_id":"4","last_reported":1743797413,"current_range_meters":14400,"station_id":"ce4bh092rcd13ifvqd30","pricing_plan_id":"cebpf4jnsgd1na2vs0mg"},{"bike_id":"eaf859a6-ff3d-4281-be3e-7de787fa533a","system_id":"levelo_inurba_marseille","lat":43.30312,"lon":5.39209,"is_reserved":false,"is_disabled":true,"rental_uris":{"android":"levelo://app?vid=eaf859a6-ff3d-4281-be3e-7de787fa533a","ios":"levelo://app?vid=eaf859a6-ff3d-4281-be3e-7de787fa533a"},"vehicle_type_id":"4","last_reported":1743797413,"current_range_meters":14400,"station_id":"ce4bgkh2rcd13ifvqbk0","pricing_plan_id":"cebpf4jnsgd1na2vs0mg"},{"bike_id":"9d145968-2f89-452e-8631-c28042b745c5","system_id":"levelo_inurba_marseille","lat":43.31266,"lon":5.40178,"is_reserved":false,"is_disabled":false,"rental_uris":{"android":"levelo://app?vid=9d145968-2f89-452e-8631-c28042b745c5","ios":"levelo://app?vid=9d145968-2f89-452e-8631-c28042b745c5"},"vehicle_type_id":"4","last_reported":1743797413,"current_range_meters":14400,"station_id":"ce4bh092rcd13ifvqd30","pricing_plan_id":"cebpf4jnsgd1na2vs0mg"},{"bike_id":"52ba6eca-2f92-481b-b786-1ae6fa447317","system_id":"levelo_inurba_marseille","lat":43.30951,"lon":5.39038,"is_reserved":false,"is_disabled":false,"rental_uris":{"android":"levelo://app?vid=52ba6eca-2f92-481b-b786-1ae6fa447317","ios":"levelo://app?vid=52ba6eca-2f92-481b-b786-1ae6fa447317"},"vehicle_type_id":"4","last_reported":1743797413,"current_range_meters":14400,"station_id":"ce4bgup2rcd13ifvqco0","pricing_plan_id":"cebpf4jnsgd1na2vs0mg"},{"bike_id":"01f8cea9-30d5-4815-8fb0-96316eb2b6fa","system_id":"levelo_inurba_marseille","lat":43.2766,"lon":5.38939,"is_reserved":false,"is_disabled":false,"rental_uris":{"android":"levelo://app?vid=01f8cea9-30d5-4815-8fb0-96316eb2b6fa","ios":"levelo://app?vid=01f8cea9-30d5-4815-8fb0-96316eb2b6fa"},"vehicle_type_id":"4","last_reported":1743797413,"current_range_meters":14000,"station_id":"ce4bhi12rcd13ifvqfo0","pricing_plan_id":"cebpf4jnsgd1na2vs0mg"},{"bike_id":"472b9d92-ab75-4647-a1c8-feef744c63b0","system_id":"levelo_inurba_marseille","lat":43.2903,"lon":5.3865,"is_reserved":false,"is_disabled":false,"rental_uris":{"android":"levelo://app?vid=472b9d92-ab75-4647-a1c8-feef744c63b0","ios":"levelo://app?vid=472b9d92-ab75-4647-a1c8-feef744c63b0"},"vehicle_type_id":"4","last_reported":1743797413,"current_range_meters":14400,"station_id":"ce4bh4p2rcd13ifvqe0g","pricing_plan_id":"cebpf4jnsgd1na2vs0mg"},{"bike_id":"4c364a14-a14f-4fad-ae4a-d1fa8696b548","system_id":"levelo_inurba_marseille","lat":43.25117,"lon":5.4032,"is_reserved":false,"is_disabled":true,"rental_uris":{"android":"levelo://app?vid=4c364a14-a14f-4fad-ae4a-d1fa8696b548","ios":"levelo://app?vid=4c364a14-a14f-4fad-ae4a-d1fa8696b548"},"vehicle_type_id":"4","last_reported":1743797413,"current_range_meters":14400,"station_id":"ce4bhlh2rcd13ifvqgig","pricing_plan_id":"cebpf4jnsgd1na2vs0mg"},{"bike_id":"7a05c36a-d459-4d51-b1ce-6f0763ebf5fe","system_id":"levelo_inurba_marseille","lat":43.29249,"lon":5.38435,"is_reserved":false,"is_disabled":false,"rental_uris":{"android":"levelo://app?vid=7a05c36a-d459-4d51-b1ce-6f0763ebf5fe","ios":"levelo://app?vid=7a05c36a-d459-4d51-b1ce-6f0763ebf5fe"},"vehicle_type_id":"4","last_reported":1743797413,"current_range_meters":14800,"station_id":"ce4bh692rcd13ifvqea0","pricing_plan_id":"cebpf4jnsgd1na2vs0mg"},{"bike_id":"c1455179-4c5c-4d9c-8781-8f3455d0ab97","system_id":"levelo_inurba_marseille","lat":43.3091,"lon":5.36854,"is_reserved":false,"is_disabled":false,"rental_uris":{"android":"levelo://app?vid=c1455179-4c5c-4d9c-8781-8f3455d0ab97","ios":"levelo://app?vid=c1455179-4c5c-4d9c-8781-8f3455d0ab97"},"vehicle_type_id":"4","last_reported":1743797413,"current_range_meters":14800,"station_id":"ce4bgn92rcd13ifvqbvg","pricing_plan_id":"cebpf4jnsgd1na2vs0mg"},{"bike_id":"30b57730-cb66-4122-bd93-7dabcaba84e7","system_id":"levelo_inurba_marseille","lat":43.24957,"lon":5.40661,"is_reserved":false,"is_disabled":false,"rental_uris":{"android":"levelo://app?vid=30b57730-cb66-4122-bd93-7dabcaba84e7","ios":"levelo://app?vid=30b57730-cb66-4122-bd93-7dabcaba84e7"},"vehicle_type_id":"4","last_reported":1743797413,"current_range_meters":14800,"station_id":"","pricing_plan_id":"cebpf4jnsgd1na2vs0mg"},{"bike_id":"2ba69920-a890-40bd-af20-0d1d415822a8","system_id":"levelo_inurba_marseille","lat":43.31276,"lon":5.40164,"is_reserved":false,"is_disabled":false,"rental_uris":{"android":"levelo://app?vid=2ba69920-a890-40bd-af20-0d1d415822a8","ios":"levelo://app?vid=2ba69920-a890-40bd-af20-0d1d415822a8"},"vehicle_type_id":"4","last_reported":1743797413,"current_range_meters":14800,"station_id":"ce4bh092rcd13ifvqd30","pricing_plan_id":"cebpf4jnsgd1na2vs0mg"},{"bike_id":"54a9c35d-1779-42e3-8045-1a7ede8cd295","system_id":"levelo_inurba_marseille","lat":43.28927,"lon":5.38395,"is_reserved":false,"is_disabled":false,"rental_uris":{"android":"levelo://app?vid=54a9c35d-1779-42e3-8045-1a7ede8cd295","ios":"levelo://app?vid=54a9c35d-1779-42e3-8045-1a7ede8cd295"},"vehicle_type_id":"4","last_reported":1743797413,"current_range_meters":15200,"station_id":"ce4bh612rcd13ifvqe6g","pricing_plan_id":"cebpf4jnsgd1na2vs0mg"},{"bike_id":"eb445ca1-9662-440d-86db-cf6b64f7a0c4","system_id":"levelo_inurba_marseille","lat":43.2942,"lon":5.38627,"is_reserved":false,"is_disabled":false,"rental_uris":{"android":"levelo://app?vid=eb445ca1-9662-440d-86db-cf6b64f7a0c4","ios":"levelo://app?vid=eb445ca1-9662-440d-86db-cf6b64f7a0c4"},"vehicle_type_id":"4","last_reported":1743797413,"current_range_meters":15200,"station_id":"ce4bh2h2rcd13ifvqdh0","pricing_plan_id":"cebpf4jnsgd1na2vs0mg"},{"bike_id":"d314ddb1-ff62-4601-8e47-b5d5fbd0cec2","system_id":"levelo_inurba_marseille","lat":43.295333,"lon":5.3855,"is_reserved":false,"is_disabled":false,"rental_uris":{"android":"levelo://app?vid=d314ddb1-ff62-4601-8e47-b5d5fbd0cec2","ios":"levelo://app?vid=d314ddb1-ff62-4601-8e47-b5d5fbd0cec2"},"vehicle_type_id":"4","last_reported":1743797413,"current_range_meters":15200,"station_id":"ce4bgih2rcd13ifvqba0","pricing_plan_id":"cebpf4jnsgd1na2vs0mg"},{"bike_id":"a00dd55f-0720-4756-80ff-22da93fee71b","system_id":"levelo_inurba_marseille","lat":43.286789,"lon":5.386685,"is_reserved":false,"is_disabled":false,"rental_uris":{"android":"levelo://app?vid=a00dd55f-0720-4756-80ff-22da93fee71b","ios":"levelo://app?vid=a00dd55f-0720-4756-80ff-22da93fee71b"},"vehicle_type_id":"4","last_reported":1743797413,"current_range_meters":15200,"station_id":"ce4bhbp2rcd13ifvqerg","pricing_plan_id":"cebpf4jnsgd1na2vs0mg"},{"bike_id":"a6303451-5b45-435c-bf0e-748f94cc010d","system_id":"levelo_inurba_marseille","lat":43.23175,"lon":5.35581,"is_reserved":false,"is_disabled":false,"rental_uris":{"android":"levelo://app?vid=a6303451-5b45-435c-bf0e-748f94cc010d","ios":"levelo://app?vid=a6303451-5b45-435c-bf0e-748f94cc010d"},"vehicle_type_id":"4","last_reported":1743797413,"current_range_meters":15200,"station_id":"ce4bhu92rcd13ifvqi70","pricing_plan_id":"cebpf4jnsgd1na2vs0mg"},{"bike_id":"da576ef3-aa62-4e87-89dc-c76d2b779fd8","system_id":"levelo_inurba_marseille","lat":43.29032,"lon":5.3865,"is_reserved":false,"is_disabled":false,"rental_uris":{"android":"levelo://app?vid=da576ef3-aa62-4e87-89dc-c76d2b779fd8","ios":"levelo://app?vid=da576ef3-aa62-4e87-89dc-c76d2b779fd8"},"vehicle_type_id":"4","last_reported":1743797413,"current_range_meters":15200,"station_id":"ce4bh4p2rcd13ifvqe0g","pricing_plan_id":"cebpf4jnsgd1na2vs0mg"},{"bike_id":"aa3e1d15-61dc-425b-945c-c6fd4bf6822a","system_id":"levelo_inurba_marseille","lat":43.29277,"lon":5.38436,"is_reserved":false,"is_disabled":false,"rental_uris":{"android":"levelo://app?vid=aa3e1d15-61dc-425b-945c-c6fd4bf6822a","ios":"levelo://app?vid=aa3e1d15-61dc-425b-945c-c6fd4bf6822a"},"vehicle_type_id":"4","last_reported":1743797413,"current_range_meters":15200,"station_id":"ce4bh692rcd13ifvqea0","pricing_plan_id":"cebpf4jnsgd1na2vs0mg"},{"bike_id":"7b68e5ef-135e-4c6b-a9de-8c7d136ebc75","system_id":"levelo_inurba_marseille","lat":43.29412,"lon":5.38635,"is_reserved":false,"is_disabled":false,"rental_uris":{"android":"levelo://app?vid=7b68e5ef-135e-4c6b-a9de-8c7d136ebc75","ios":"levelo://app?vid=7b68e5ef-135e-4c6b-a9de-8c7d136ebc75"},"vehicle_type_id":"4","last_reported":1743797413,"current_range_meters":15200,"station_id":"ce4bh2h2rcd13ifvqdh0","pricing_plan_id":"cebpf4jnsgd1na2vs0mg"},{"bike_id":"efb52c62-ce6b-4329-aab4-d2130f242a54","system_id":"levelo_inurba_marseille","lat":43.29027,"lon":5.38649,"is_reserved":false,"is_disabled":false,"rental_uris":{"android":"levelo://app?vid=efb52c62-ce6b-4329-aab4-d2130f242a54","ios":"levelo://app?vid=efb52c62-ce6b-4329-aab4-d2130f242a54"},"vehicle_type_id":"4","last_reported":1743797413,"current_range_meters":15200,"station_id":"ce4bh4p2rcd13ifvqe0g","pricing_plan_id":"cebpf4jnsgd1na2vs0mg"},{"bike_id":"a058f5d4-511f-4c92-a3e5-742831067ae0","system_id":"levelo_inurba_marseille","lat":43.30125,"lon":5.37636,"is_reserved":false,"is_disabled":false,"rental_uris":{"android":"levelo://app?vid=a058f5d4-511f-4c92-a3e5-742831067ae0","ios":"levelo://app?vid=a058f5d4-511f-4c92-a3e5-742831067ae0"},"vehicle_type_id":"4","last_reported":1743797413,"current_range_meters":16000,"station_id":"","pricing_plan_id":"cebpf4jnsgd1na2vs0mg"},{"bike_id":"0c4552bb-fa52-4f28-a31e-0c43b6f6fa47","system_id":"levelo_inurba_marseille","lat":43.29963,"lon":5.38497,"is_reserved":false,"is_disabled":false,"rental_uris":{"android":"levelo://app?vid=0c4552bb-fa52-4f28-a31e-0c43b6f6fa47","ios":"levelo://app?vid=0c4552bb-fa52-4f28-a31e-0c43b6f6fa47"},"vehicle_type_id":"4","last_reported":1743797413,"current_range_meters":16000,"station_id":"ce4bgj92rcd13ifvqbd0","pricing_plan_id":"cebpf4jnsgd1na2vs0mg"},{"bike_id":"852ae433-cc4e-4f80-9afa-60b2796b15fb","system_id":"levelo_inurba_marseille","lat":43.32377,"lon":5.39313,"is_reserved":false,"is_disabled":false,"rental_uris":{"android":"levelo://app?vid=852ae433-cc4e-4f80-9afa-60b2796b15fb","ios":"levelo://app?vid=852ae433-cc4e-4f80-9afa-60b2796b15fb"},"vehicle_type_id":"4","last_reported":1743797413,"current_range_meters":16000,"station_id":"","pricing_plan_id":"cebpf4jnsgd1na2vs0mg"},{"bike_id":"5827acd2-19b0-45a4-977e-251b81b3da50","system_id":"levelo_inurba_marseille","lat":43.29432,"lon":5.38627,"is_reserved":false,"is_disabled":false,"rental_uris":{"android":"levelo://app?vid=5827acd2-19b0-45a4-977e-251b81b3da50","ios":"levelo://app?vid=5827acd2-19b0-45a4-977e-251b81b3da50"},"vehicle_type_id":"4","last_reported":1743797413,"current_range_meters":16000,"station_id":"ce4bh2h2rcd13ifvqdh0","pricing_plan_id":"cebpf4jnsgd1na2vs0mg"},{"bike_id":"d7a517f1-3e43-4714-a602-4fc74d3e1dab","system_id":"levelo_inurba_marseille","lat":43.29184,"lon":5.358,"is_reserved":false,"is_disabled":false,"rental_uris":{"android":"levelo://app?vid=d7a517f1-3e43-4714-a602-4fc74d3e1dab","ios":"levelo://app?vid=d7a517f1-3e43-4714-a602-4fc74d3e1dab"},"vehicle_type_id":"4","last_reported":1743797413,"current_range_meters":16000,"station_id":"ce4bhb12rcd13ifvqel0","pricing_plan_id":"cebpf4jnsgd1na2vs0mg"},{"bike_id":"68e6a3e3-19ca-457b-baef-a7a456e3f3f2","system_id":"levelo_inurba_marseille","lat":43.29307,"lon":5.3717,"is_reserved":false,"is_disabled":false,"rental_uris":{"android":"levelo://app?vid=68e6a3e3-19ca-457b-baef-a7a456e3f3f2","ios":"levelo://app?vid=68e6a3e3-19ca-457b-baef-a7a456e3f3f2"},"vehicle_type_id":"4","last_reported":1743797413,"current_range_meters":16000,"station_id":"ce4bgh92rcd13ifvqb40","pricing_plan_id":"cebpf4jnsgd1na2vs0mg"},{"bike_id":"7a3cd935-e309-44d8-a3c4-a75980111808","system_id":"levelo_inurba_marseille","lat":43.29366,"lon":5.37862,"is_reserved":false,"is_disabled":true,"rental_uris":{"android":"levelo://app?vid=7a3cd935-e309-44d8-a3c4-a75980111808","ios":"levelo://app?vid=7a3cd935-e309-44d8-a3c4-a75980111808"},"vehicle_type_id":"4","last_reported":1743797413,"current_range_meters":16000,"station_id":"ce4bgjh2rcd13ifvqbf0","pricing_plan_id":"cebpf4jnsgd1na2vs0mg"},{"bike_id":"b646ace8-08b7-485e-abcd-2b6b162d14dc","system_id":"levelo_inurba_marseille","lat":43.29905,"lon":5.43656,"is_reserved":false,"is_disabled":false,"rental_uris":{"android":"levelo://app?vid=b646ace8-08b7-485e-abcd-2b6b162d14dc","ios":"levelo://app?vid=b646ace8-08b7-485e-abcd-2b6b162d14dc"},