{"last_updated":1730210920,"ttl":60,"version":"2.2","data":{"bikes":[{"bike_id":"a94955f0-4de2-417e-ad9d-a22e945ce6f2","system_id":"levelo_inurba_marseille","lat":43.29029,"lon":5.37578,"is_reserved":false,"is_disabled":false,"rental_uris":{"android":"levelo://app?vid=a94955f0-4de2-417e-ad9d-a22e945ce6f2","ios":"levelo://app?vid=a94955f0-4de2-417e-ad9d-a22e945ce6f2"},"vehicle_type_id":"4","last_reported":1730210920,"current_range_meters":20400,"station_id":"ce4bh692rcd13ifvqe90","pricing_plan_id":"cebpf4jnsgd1na2vs0mg"},{"bike_id":"83f70195-f8b1-4e93-98d8-9611ecdea234","system_id":"levelo_inurba_marseille","lat":43.25725,"lon":5.41106,"is_reserved":false,"is_disabled":false,"rental_uris":{"android":"levelo://app?vid=83f70195-f8b1-4e93-98d8-9611ecdea234","ios":"levelo://app?vid=83f70195-f8b1-4e93-98d8-9611ecdea234"},"vehicle_type_id":"4","last_reported":1730210920,"current_range_meters":4000,"station_id":"ce4bhkp2rcd13ifvqgd0","pricing_plan_id":"cebpf4jnsgd1na2vs0mg"},{"bike_id":"6daefb7d-890b-4927-bca4-1e9b57c2727d","system_id":"levelo_inurba_marseille","lat":43.27179,"lon":5.40996,"is_reserved":false,"is_disabled":false,"rental_uris":{"android":"levelo://app?vid=6daefb7d-890b-4927-bca4-1e9b57c2727d","ios":"levelo://app?vid=6daefb7d-890b-4927-bca4-1e9b57c2727d"},"vehicle_type_id":"4","last_reported":1730210920,"current_range_meters":7200,"station_id":"ce4bhl12rcd13ifvqgf0","pricing_plan_id":"cebpf4jnsgd1na2vs0mg"},{"bike_id":"7728c6cd-92bf-48f0-9848-309e67c38641","system_id":"levelo_inurba_marseille","lat":43.322924,"lon":5.382789,"is_reserved":false,"is_disabled":false,"rental_uris":{"android":"levelo://app?vid=7728c6cd-92bf-48f0-9848-309e67c38641","ios":"levelo://app?vid=7728c6cd-92bf-48f0-9848-309e67c38641"},"vehicle_type_id":"4","last_reported":1730210920,"current_range_meters":38800,"station_id":"ce4bhr12rcd13ifvqhqg","pricing_plan_id":"cebpf4jnsgd1na2vs0mg"},{"bike_id":"89146a8e-4b67-409d-b7c9-de2fbe50837a","system_id":"levelo_inurba_marseille","lat":43.24178,"lon":5.39724,"is_reserved":false,"is_disabled":false,"rental_uris":{"android":"levelo://app?vid=89146a8e-4b67-409d-b7c9-de2fbe50837a","ios":"levelo://app?vid=89146a8e-4b67-409d-b7c9-de2fbe50837a"},"vehicle_type_id":"4","last_reported":1730210920,"current_range_meters":30000,"station_id":"ce4bhn12rcd13ifvqgpg","pricing_plan_id":"cebpf4jnsgd1na2vs0mg"},{"bike_id":"d1b203f0-a3df-42f5-9646-a4f42f3f895b","system_id":"levelo_inurba_marseille","lat":43.29431,"lon":5.39756,"is_reserved":false,"is_disabled":false,"rental_uris":{"android":"levelo://app?vid=d1b203f0-a3df-42f5-9646-a4f42f3f895b","ios":"levelo://app?vid=d1b203f0-a3df-42f5-9646-a4f42f3f895b"},"vehicle_type_id":"4","last_reported":1730210920,"current_range_meters":12400,"station_id":"ce4bh3h2rcd13ifvqdo0","pricing_plan_id":"cebpf4jnsgd1na2vs0mg"},{"bike_id":"7019b8ca-f923-42f4-b767-30d6c2983305","system_id":"levelo_inurba_marseille","lat":43.25106,"lon":5.40319,"is_reserved":false,"is_disabled":false,"rental_uris":{"android":"levelo://app?vid=7019b8ca-f923-42f4-b767-30d6c2983305","ios":"levelo://app?vid=7019b8ca-f923-42f4-b767-30d6c2983305"},"vehicle_type_id":"4","last_reported":1730210920,"current_range_meters":38800,"station_id":"ce4bhlh2rcd13ifvqgig","pricing_plan_id":"cebpf4jnsgd1na2vs0mg"},{"bike_id":"9cd28ed1-51d4-469f-80b1-db1aa7224fd9","system_id":"levelo_inurba_marseille","lat":43.31895,"lon":5.40746,"is_reserved":false,"is_disabled":false,"rental_uris":{"android":"levelo://app?vid=9cd28ed1-51d4-469f-80b1-db1aa7224fd9","ios":"levelo://app?vid=9cd28ed1-51d4-469f-80b1-db1aa7224fd9"},"vehicle_type_id":"4","last_reported":1730210920,"current_range_meters":35200,"station_id":"ce4bhq12rcd13ifvqhig","pricing_plan_id":"cebpf4jnsgd1na2vs0mg"},{"bike_id":"78b93657-f3fd-41fb-9fc6-e2701c8ef189","system_id":"levelo_inurba_marseille","lat":43.31174,"lon":5.38706,"is_reserved":false,"is_disabled":false,"rental_uris":{"android":"levelo://app?vid=78b93657-f3fd-41fb-9fc6-e2701c8ef189","ios":"levelo://app?vid=78b93657-f3fd-41fb-9fc6-e2701c8ef189"},"vehicle_type_id":"4","last_reported":1730210920,"current_range_meters":39200,"station_id":"ce4bgv12rcd13ifvqcp0","pricing_plan_id":"cebpf4jnsgd1na2vs0mg"},{"bike_id":"61e48d5b-8738-4698-84d5-5eec348f8969","system_id":"levelo_inurba_marseille","lat":43.29069,"lon":5.37173,"is_reserved":false,"is_disabled":false,"rental_uris":{"android":"levelo://app?vid=61e48d5b-8738-4698-84d5-5eec348f8969","ios":"levelo://app?vid=61e48d5b-8738-4698-84d5-5eec348f8969"},"vehicle_type_id":"4","last_reported":1730210920,"current_range_meters":9200,"station_id":"ce4bh5p2rcd13ifvqe4g","pricing_plan_id":"cebpf4jnsgd1na2vs0mg"},{"bike_id":"62c7e5a0-66c0-47ee-b181-1ce7d8b0d22b","system_id":"levelo_inurba_marseille","lat":43.31355,"lon":5.36719,"is_reserved":false,"is_disabled":false,"rental_uris":{"android":"levelo://app?vid=62c7e5a0-66c0-47ee-b181-1ce7d8b0d22b","ios":"levelo://app?vid=62c7e5a0-66c0-47ee-b181-1ce7d8b0d22b"},"vehicle_type_id":"4","last_reported":1730210920,"current_range_meters":39200,"station_id":"ce4bgr92rcd13ifvqc6g","pricing_plan_id":"cebpf4jnsgd1na2vs0mg"},{"bike_id":"ba31cdb4-0f44-47f4-845a-716c5be1da50","system_id":"levelo_inurba_marseille","lat":43.292,"lon":5.35803,"is_reserved":false,"is_disabled":false,"rental_uris":{"android":"levelo://app?vid=ba31cdb4-0f44-47f4-845a-716c5be1da50","ios":"levelo://app?vid=ba31cdb4-0f44-47f4-845a-716c5be1da50"},"vehicle_type_id":"4","last_reported":1730210920,"current_range_meters":22800,"station_id":"ce4bhb12rcd13ifvqel0","pricing_plan_id":"cebpf4jnsgd1na2vs0mg"},{"bike_id":"16ecdc07-c46c-47b7-a13c-4d2bcb536f23","system_id":"levelo_inurba_marseille","lat":43.31328,"lon":5.39695,"is_reserved":false,"is_disabled":false,"rental_uris":{"android":"levelo://app?vid=16ecdc07-c46c-47b7-a13c-4d2bcb536f23","ios":"levelo://app?vid=16ecdc07-c46c-47b7-a13c-4d2bcb536f23"},"vehicle_type_id":"4","last_reported":1730210920,"current_range_meters":3200,"station_id":"ce4bgvp2rcd13ifvqcu0","pricing_plan_id":"cebpf4jnsgd1na2vs0mg"},{"bike_id":"4efc610e-02b4-467c-acf9-9ee68f6b7bf5","system_id":"levelo_inurba_marseille","lat":43.23194,"lon":5.35549,"is_reserved":false,"is_disabled":false,"rental_uris":{"android":"levelo://app?vid=4efc610e-02b4-467c-acf9-9ee68f6b7bf5","ios":"levelo://app?vid=4efc610e-02b4-467c-acf9-9ee68f6b7bf5"},"vehicle_type_id":"4","last_reported":1730210920,"current_range_meters":38800,"station_id":"ce4bhu92rcd13ifvqi70","pricing_plan_id":"cebpf4jnsgd1na2vs0mg"},{"bike_id":"c72ff262-543a-4aca-bbd2-80c0e3c40717","system_id":"levelo_inurba_marseille","lat":43.30607,"lon":5.37232,"is_reserved":false,"is_disabled":false,"rental_uris":{"android":"levelo://app?vid=c72ff262-543a-4aca-bbd2-80c0e3c40717","ios":"levelo://app?vid=c72ff262-543a-4aca-bbd2-80c0e3c40717"},"vehicle_type_id":"4","last_reported":1730210920,"current_range_meters":20400,"station_id":"ce4bgqh2rcd13ifvqc4g","pricing_plan_id":"cebpf4jnsgd1na2vs0mg"},{"bike_id":"a9c9c0ec-609c-4d46-8c6d-ecde47d13b53","system_id":"levelo_inurba_marseille","lat":43.29792,"lon":5.39359,"is_reserved":false,"is_disabled":false,"rental_uris":{"android":"levelo://app?vid=a9c9c0ec-609c-4d46-8c6d-ecde47d13b53","ios":"levelo://app?vid=a9c9c0ec-609c-4d46-8c6d-ecde47d13b53"},"vehicle_type_id":"4","last_reported":1730210920,"current_range_meters":37600,"station_id":"chh1huq6cuj3fo74tm60","pricing_plan_id":"cebpf4jnsgd1na2vs0mg"},{"bike_id":"960d455d-56ea-41f6-9c69-d1294353e87b","system_id":"levelo_inurba_marseille","lat":43.32479,"lon":5.36558,"is_reserved":false,"is_disabled":false,"rental_uris":{"android":"levelo://app?vid=960d455d-56ea-41f6-9c69-d1294353e87b","ios":"levelo://app?vid=960d455d-56ea-41f6-9c69-d1294353e87b"},"vehicle_type_id":"4","last_reported":1730210920,"current_range_meters":28400,"station_id":"ce4bhs12rcd13ifvqhvg","pricing_plan_id":"cebpf4jnsgd1na2vs0mg"},{"bike_id":"703412b6-5bff-4812-8759-8a99beeb3031","system_id":"levelo_inurba_marseille","lat":43.30911,"lon":5.36844,"is_reserved":false,"is_disabled":false,"rental_uris":{"android":"levelo://app?vid=703412b6-5bff-4812-8759-8a99beeb3031","ios":"levelo://app?vid=703412b6-5bff-4812-8759-8a99beeb3031"},"vehicle_type_id":"4","last_reported":1730210920,"current_range_meters":36800,"station_id":"ce4bgn92rcd13ifvqbvg","pricing_plan_id":"cebpf4jnsgd1na2vs0mg"},{"bike_id":"1c830960-054f-4440-88ae-7d7a35907471","system_id":"levelo_inurba_marseille","lat":43.290009,"lon":5.356154,"is_reserved":false,"is_disabled":false,"rental_uris":{"android":"levelo://app?vid=1c830960-054f-4440-88ae-7d7a35907471","ios":"levelo://app?vid=1c830960-054f-4440-88ae-7d7a35907471"},"vehicle_type_id":"4","last_reported":1730210920,"current_range_meters":28800,"station_id":"ce4bhb92rcd13ifvqen0","pricing_plan_id":"cebpf4jnsgd1na2vs0mg"},{"bike_id":"804cc615-a02d-4c64-a1df-0bd9971d6ffe","system_id":"levelo_inurba_marseille","lat":43.2827,"lon":5.35061,"is_reserved":false,"is_disabled":false,"rental_uris":{"android":"levelo://app?vid=804cc615-a02d-4c64-a1df-0bd9971d6ffe","ios":"levelo://app?vid=804cc615-a02d-4c64-a1df-0bd9971d6ffe"},"vehicle_type_id":"4","last_reported":1730210920,"current_range_meters":36000,"station_id":"ce4bhbp2rcd13ifvqerg","pricing_plan_id":"cebpf4jnsgd1na2vs0mg"},{"bike_id":"14f5f195-09a8-4d63-9e89-720e4754fc70","system_id":"levelo_inurba_marseille","lat":43.330211,"lon":5.390579,"is_reserved":false,"is_disabled":false,"rental_uris":{"android":"levelo://app?vid=14f5f195-09a8-4d63-9e89-720e4754fc70","ios":"levelo://app?vid=14f5f195-09a8-4d63-9e89-720e4754fc70"},"vehicle_type_id":"4","last_reported":1730210920,"current_range_meters":39200,"station_id":"ce4bhr92rcd13ifvqhrg","pricing_plan_id":"cebpf4jnsgd1na2vs0mg"},{"bike_id":"32575b86-9b07-4257-b684-9bcb660d5c42","system_id":"levelo_inurba_marseille","lat":43.22932,"lon":5.35372,"is_reserved":false,"is_disabled":false,"rental_uris":{"android":"levelo://app?vid=32575b86-9b07-4257-b684-9bcb660d5c42","ios":"levelo://app?vid=32575b86-9b07-4257-b684-9bcb660d5c42"},"vehicle_type_id":"4","last_reported":1730210920,"current_range_meters":6000,"station_id":"cpo3532slgdg3j2ikp40","pricing_plan_id":"cebpf4jnsgd1na2vs0mg"},{"bike_id":"9c86e309-3b17-444f-8b2b-5c9c6c69dfb8","system_id":"levelo_inurba_marseille","lat":43.28445,"lon":5.39193,"is_reserved":false,"is_disabled":false,"rental_uris":{"android":"levelo://app?vid=9c86e309-3b17-444f-8b2b-5c9c6c69dfb8","ios":"levelo://app?vid=9c86e309-3b17-444f-8b2b-5c9c6c69dfb8"},"vehicle_type_id":"4","last_reported":1730210920,"current_range_meters":38000,"station_id":"ce4bhoh2rcd13ifvqh5g","pricing_plan_id":"cebpf4jnsgd1na2vs0mg"},{"bike_id":"302cca77-58ed-4f78-8ea9-685a9217995c","system_id":"levelo_inurba_marseille","lat":43.24997,"lon":5.38929,"is_reserved":false,"is_disabled":false,"rental_uris":{"android":"levelo://app?vid=302cca77-58ed-4f78-8ea9-685a9217995c","ios":"levelo://app?vid=302cca77-58ed-4f78-8ea9-685a9217995c"},"vehicle_type_id":"4","last_reported":1730210920,"current_range_meters":12800,"station_id":"ce4bhgp2rcd13ifvqfd0","pricing_plan_id":"cebpf4jnsgd1na2vs0mg"},{"bike_id":"d8345d1e-36d0-463c-aadb-d17da6d61802","system_id":"levelo_inurba_marseille","lat":43.26574,"lon":5.38999,"is_reserved":false,"is_disabled":false,"rental_uris":{"android":"levelo://app?vid=d8345d1e-36d0-463c-aadb-d17da6d61802","ios":"levelo://app?vid=d8345d1e-36d0-463c-aadb-d17da6d61802"},"vehicle_type_id":"4","last_reported":1730210920,"current_range_meters":35600,"station_id":"ce4bhe12rcd13ifvqf30","pricing_plan_id":"cebpf4jnsgd1na2vs0mg"},{"bike_id":"a6317471-4c65-41d4-93a8-d19ee91e0105","system_id":"levelo_inurba_marseille","lat":43.27372,"lon":5.3626,"is_reserved":false,"is_disabled":false,"rental_uris":{"android":"levelo://app?vid=a6317471-4c65-41d4-93a8-d19ee91e0105","ios":"levelo://app?vid=a6317471-4c65-41d4-93a8-d19ee91e0105"},"vehicle_type_id":"4","last_reported":1730210920,"current_range_meters":29600,"station_id":"ce4bhbh2rcd13ifvqeo0","pricing_plan_id":"cebpf4jnsgd1na2vs0mg"},{"bike_id":"302022bf-08af-4193-b5d5-afe2b4d26977","system_id":"levelo_inurba_marseille","lat":43.25105,"lon":5.40324,"is_reserved":false,"is_disabled":false,"rental_uris":{"android":"levelo://app?vid=302022bf-08af-4193-b5d5-afe2b4d26977","ios":"levelo://app?vid=302022bf-08af-4193-b5d5-afe2b4d26977"},"vehicle_type_id":"4","last_reported":1730210920,"current_range_meters":37600,"station_id":"ce4bhlh2rcd13ifvqgig","pricing_plan_id":"cebpf4jnsgd1na2vs0mg"},{"bike_id":"5f21ece6-e72f-4d13-84af-bde0371399e7","system_id":"levelo_inurba_marseille","lat":43.27212,"lon":5.39183,"is_reserved":false,"is_disabled":false,"rental_uris":{"android":"levelo://app?vid=5f21ece6-e72f-4d13-84af-bde0371399e7","ios":"levelo://app?vid=5f21ece6-e72f-4d13-84af-bde0371399e7"},"vehicle_type_id":"4","last_reported":1730210920,"current_range_meters":28000,"station_id":"ce4bhhp2rcd13ifvqfm0","pricing_plan_id":"cebpf4jnsgd1na2vs0mg"},{"bike_id":"3da962cf-d5a5-4928-9dd3-6dee9bd916c1","system_id":"levelo_inurba_marseille","lat":43.2656,"lon":5.3901,"is_reserved":false,"is_disabled":false,"rental_uris":{"android":"levelo://app?vid=3da962cf-d5a5-4928-9dd3-6dee9bd916c1","ios":"levelo://app?vid=3da962cf-d5a5-4928-9dd3-6dee9bd916c1"},"vehicle_type_id":"4","last_reported":1730210920,"current_range_meters":17200,"station_id":"ce4bhe12rcd13ifvqf30","pricing_plan_id":"cebpf4jnsgd1na2vs0mg"},{"bike_id":"02aa412b-09e7-4ddc-bfd7-a14b3c434344","system_id":"levelo_inurba_marseille","lat":43.27663,"lon":5.38883,"is_reserved":false,"is_disabled":false,"rental_uris":{"android":"levelo://app?vid=02aa412b-09e7-4ddc-bfd7-a14b3c434344","ios":"levelo://app?vid=02aa412b-09e7-4ddc-bfd7-a14b3c434344"},"vehicle_type_id":"4","last_reported":1730210920,"current_range_meters":20000,"station_id":"ce4bhi12rcd13ifvqfo0","pricing_plan_id":"cebpf4jnsgd1na2vs0mg"},{"bike_id":"4f3281e8-1a78-4c1e-b83a-b01b042e91bc","system_id":"levelo_inurba_marseille","lat":43.27052,"lon":5.40271,"is_reserved":false,"is_disabled":false,"rental_uris":{"android":"levelo://app?vid=4f3281e8-1a78-4c1e-b83a-b01b042e91bc","ios":"levelo://app?vid=4f3281e8-1a78-4c1e-b83a-b01b042e91bc"},"vehicle_type_id":"4","last_reported":1730210920,"current_range_meters":36400,"station_id":"ce4bhk92rcd13ifvqgc0","pricing_plan_id":"cebpf4jnsgd1na2vs0mg"},{"bike_id":"db396ee3-a2f5-480e-90e2-d74aadcdd899","system_id":"levelo_inurba_marseille","lat":43.29201,"lon":5.3932,"is_reserved":false,"is_disabled":false,"rental_uris":{"android":"levelo://app?vid=db396ee3-a2f5-480e-90e2-d74aadcdd899","ios":"levelo://app?vid=db396ee3-a2f5-480e-90e2-d74aadcdd899"},"vehicle_type_id":"4","last_reported":1730210920,"current_range_meters":28800,"station_id":"ce4bh192rcd13ifvqdd0","pricing_plan_id":"cebpf4jnsgd1na2vs0mg"},{"bike_id":"bdf63b9f-8930-45e7-8177-b607568d23e7","system_id":"levelo_inurba_marseille","lat":43.30528,"lon":5.36698,"is_reserved":false,"is_disabled":false,"rental_uris":{"android":"levelo://app?vid=bdf63b9f-8930-45e7-8177-b607568d23e7","ios":"levelo://app?vid=bdf63b9f-8930-45e7-8177-b607568d23e7"},"vehicle_type_id":"4","last_reported":1730210920,"current_range_meters":38000,"station_id":"ce4bgrp2rcd13ifvqc9g","pricing_plan_id":"cebpf4jnsgd1na2vs0mg"},{"bike_id":"8897d205-66a5-4afc-b22b-cefc8ff949a9","system_id":"levelo_inurba_marseille","lat":43.28417,"lon":5.34993,"is_reserved":false,"is_disabled":false,"rental_uris":{"android":"levelo://app?vid=8897d205-66a5-4afc-b22b-cefc8ff949a9","ios":"levelo://app?vid=8897d205-66a5-4afc-b22b-cefc8ff949a9"},"vehicle_type_id":"4","last_reported":1730210920,"current_range_meters":29600,"station_id":"ce4bhbh2rcd13ifvqepg","pricing_plan_id":"cebpf4jnsgd1na2vs0mg"},{"bike_id":"dec2c50c-2856-430d-bdf4-0539b8d63c6a","system_id":"levelo_inurba_marseille","lat":43.30388,"lon":5.40758,"is_reserved":false,"is_disabled":false,"rental_uris":{"android":"levelo://app?vid=dec2c50c-2856-430d-bdf4-0539b8d63c6a","ios":"levelo://app?vid=dec2c50c-2856-430d-bdf4-0539b8d63c6a"},"vehicle_type_id":"4","last_reported":1730210920,"current_range_meters":24800,"station_id":"","pricing_plan_id":"cebpf4jnsgd1na2vs0mg"},{"bike_id":"d4275363-54ce-4b54-b962-c24a45945807","system_id":"levelo_inurba_marseille","lat":43.22926,"lon":5.35374,"is_reserved":false,"is_disabled":false,"rental_uris":{"android":"levelo://app?vid=d4275363-54ce-4b54-b962-c24a45945807","ios":"levelo://app?vid=d4275363-54ce-4b54-b962-c24a45945807"},"vehicle_type_id":"4","last_reported":1730210920,"current_range_meters":32800,"station_id":"cpo3532slgdg3j2ikp40","pricing_plan_id":"cebpf4jnsgd1na2vs0mg"},{"bike_id":"f84ac1e1-fab8-47e6-9ac4-c3586a96a2ac","system_id":"levelo_inurba_marseille","lat":43.311753,"lon":5.387187,"is_reserved":false,"is_disabled":false,"rental_uris":{"android":"levelo://app?vid=f84ac1e1-fab8-47e6-9ac4-c3586a96a2ac","ios":"levelo://app?vid=f84ac1e1-fab8-47e6-9ac4-c3586a96a2ac"},"vehicle_type_id":"4","last_reported":1730210920,"current_range_meters":34000,"station_id":"ce4bgv12rcd13ifvqcp0","pricing_plan_id":"cebpf4jnsgd1na2vs0mg"},{"bike_id":"cac7292f-f4f8-49cb-b39c-8247a38f984a","system_id":"levelo_inurba_marseille","lat":43.30887,"lon":5.39653,"is_reserved":false,"is_disabled":false,"rental_uris":{"android":"levelo://app?vid=cac7292f-f4f8-49cb-b39c-8247a38f984a","ios":"levelo://app?vid=cac7292f-f4f8-49cb-b39c-8247a38f984a"},"vehicle_type_id":"4","last_reported":1730210920,"current_range_meters":38400,"station_id":"ce4bh012rcd13ifvqcv0","pricing_plan_id":"cebpf4jnsgd1na2vs0mg"},{"bike_id":"2dec6767-de9d-4f2f-a633-8a4d56c593a2","system_id":"levelo_inurba_marseille","lat":43.31712,"lon":5.43711,"is_reserved":false,"is_disabled":false,"rental_uris":{"android":"levelo://app?vid=2dec6767-de9d-4f2f-a633-8a4d56c593a2","ios":"levelo://app?vid=2dec6767-de9d-4f2f-a633-8a4d56c593a2"},"vehicle_type_id":"4","last_reported":1730210920,"current_range_meters":24000,"station_id":"ce4bhp92rcd13ifvqhcg","pricing_plan_id":"cebpf4jnsgd1na2vs0mg"},{"bike_id":"1a01e51f-80b9-45b2-8546-6f6668da116a","system_id":"levelo_inurba_marseille","lat":43.25937,"lon":5.40896,"is_reserved":false,"is_disabled":false,"rental_uris":{"android":"levelo://app?vid=1a01e51f-80b9-45b2-8546-6f6668da116a","ios":"levelo://app?vid=1a01e51f-80b9-45b2-8546-6f6668da116a"},"vehicle_type_id":"4","last_reported":1730210920,"current_range_meters":34000,"station_id":"ce4bhm92rcd13ifvqglg","pricing_plan_id":"cebpf4jnsgd1na2vs0mg"},{"bike_id":"70bb78fe-4bef-4d56-a833-affc0bdfc9f3","system_id":"levelo_inurba_marseille","lat":43.23191,"lon":5.35551,"is_reserved":false,"is_disabled":false,"rental_uris":{"android":"levelo://app?vid=70bb78fe-4bef-4d56-a833-affc0bdfc9f3","ios":"levelo://app?vid=70bb78fe-4bef-4d56-a833-affc0bdfc9f3"},"vehicle_type_id":"4","last_reported":1730210920,"current_range_meters":38800,"station_id":"ce4bhu92rcd13ifvqi70","pricing_plan_id":"cebpf4jnsgd1na2vs0mg"},{"bike_id":"71ccd0c3-1db2-495c-82d7-78d91361ecd2","system_id":"levelo_inurba_marseille","lat":43.27949,"lon":5.41054,"is_reserved":false,"is_disabled":false,"rental_uris":{"android":"levelo://app?vid=71ccd0c3-1db2-495c-82d7-78d91361ecd2","ios":"levelo://app?vid=71ccd0c3-1db2-495c-82d7-78d91361ecd2"},"vehicle_type_id":"4","last_reported":1730210920,"current_range_meters":22400,"station_id":"ce4bhnp2rcd13ifvqh0g","pricing_plan_id":"cebpf4jnsgd1na2vs0mg"},{"bike_id":"7d059a43-bb3c-4555-9e51-db21365b796b","system_id":"levelo_inurba_marseille","lat":43.25935,"lon":5.40903,"is_reserved":false,"is_disabled":false,"rental_uris":{"android":"levelo://app?vid=7d059a43-bb3c-4555-9e51-db21365b796b","ios":"levelo://app?vid=7d059a43-bb3c-4555-9e51-db21365b796b"},"vehicle_type_id":"4","last_reported":1730210920,"current_range_meters":32400,"station_id":"ce4bhm92rcd13ifvqglg","pricing_plan_id":"cebpf4jnsgd1na2vs0mg"},{"bike_id":"2c74a299-c8e2-44ae-b398-31b48aa44e5e","system_id":"levelo_inurba_marseille","lat":43.28419,"lon":5.3498,"is_reserved":false,"is_disabled":false,"rental_uris":{"android":"levelo://app?vid=2c74a299-c8e2-44ae-b398-31b48aa44e5e","ios":"levelo://app?vid=2c74a299-c8e2-44ae-b398-31b48aa44e5e"},"vehicle_type_id":"4","last_reported":1730210920,"current_range_meters":22000,"station_id":"ce4bhbh2rcd13ifvqepg","pricing_plan_id":"cebpf4jnsgd1na2vs0mg"},{"bike_id":"c5202c93-fa7d-440a-98a5-2daa5726ee19","system_id":"levelo_inurba_marseille","lat":43.28153,"lon":5.42648,"is_reserved":false,"is_disabled":false,"rental_uris":{"android":"levelo://app?vid=c5202c93-fa7d-440a-98a5-2daa5726ee19","ios":"levelo://app?vid=c5202c93-fa7d-440a-98a5-2daa5726ee19"},"vehicle_type_id":"4","last_reported":1730210920,"current_range_meters":34800,"station_id":"ce4bhnh2rcd13ifvqgug","pricing_plan_id":"cebpf4jnsgd1na2vs0mg"},{"bike_id":"a8cfd832-75f2-4eb7-b2f2-5940c1d98d0f","system_id":"levelo_inurba_marseille","lat":43.29923,"lon":5.37467,"is_reserved":false,"is_disabled":false,"rental_uris":{"android":"levelo://app?vid=a8cfd832-75f2-4eb7-b2f2-5940c1d98d0f","ios":"levelo://app?vid=a8cfd832-75f2-4eb7-b2f2-5940c1d98d0f"},"vehicle_type_id":"4","last_reported":1730210920,"current_range_meters":23200,"station_id":"ce4bgjh2rcd13ifvqbg0","pricing_plan_id":"cebpf4jnsgd1na2vs0mg"},{"bike_id":"2e828a1a-7200-48c5-9195-a82ce087efad","system_id":"levelo_inurba_marseille","lat":43.33755,"lon":5.37441,"is_reserved":false,"is_disabled":false,"rental_uris":{"android":"levelo://app?vid=2e828a1a-7200-48c5-9195-a82ce087efad","ios":"levelo://app?vid=2e828a1a-7200-48c5-9195-a82ce087efad"},"vehicle_type_id":"4","last_reported":1730210920,"current_range_meters":36400,"station_id":"","pricing_plan_id":"cebpf4jnsgd1na2vs0mg"},{"bike_id":"34511cff-6a95-445f-95e5-4acfbce38192","system_id":"levelo_inurba_marseille","lat":43.2953,"lon":5.3855,"is_reserved":false,"is_disabled":false,"rental_uris":{"android":"levelo://app?vid=34511cff-6a95-445f-95e5-4acfbce38192","ios":"levelo://app?vid=34511cff-6a95-445f-95e5-4acfbce38192"},"vehicle_type_id":"4","last_reported":1730210920,"current_range_meters":37600,"station_id":"ce4bgih2rcd13ifvqba0","pricing_plan_id":"cebpf4jnsgd1na2vs0mg"},{"bike_id":"3973ceb5-1b1a-46aa-be50-65b822965aae","system_id":"levelo_inurba_marseille","lat":43.25931,"lon":5.40907,"is_reserved":false,"is_disabled":false,"rental_uris":{"android":"levelo://app?vid=3973ceb5-1b1a-46aa-be50-65b822965aae","ios":"levelo://app?vid=3973ceb5-1b1a-46aa-be50-65b822965aae"},"vehicle_type_id":"4","last_reported":1730210920,"current_range_meters":19600,"station_id":"ce4bhm92rcd13ifvqglg","pricing_plan_id":"cebpf4jnsgd1na2vs0mg"},{"bike_id":"f60f43c3-95be-4b5d-8049-b32838c49f23","system_id":"levelo_inurba_marseille","lat":43.28929,"lon":5.38387,"is_reserved":false,"is_disabled":false,"rental_uris":{"android":"levelo://app?vid=f60f43c3-95be-4b5d-8049-b32838c49f23","ios":"levelo://app?vid=f60f43c3-95be-4b5d-8049-b32838c49f23"},"vehicle_type_id":"4","last_reported":1730210920,"current_range_meters":33200,"station_id":"ce4bh612rcd13ifvqe6g","pricing_plan_id":"cebpf4jnsgd1na2vs0mg"},{"bike_id":"d6e16803-aee4-4948-94bd-e604d894a16c","system_id":"levelo_inurba_marseille","lat":43.2991,"lon":5.37466,"is_reserved":false,"is_disabled":false,"rental_uris":{"android":"levelo://app?vid=d6e16803-aee4-4948-94bd-e604d894a16c","ios":"levelo://app?vid=d6e16803-aee4-4948-94bd-e604d894a16c"},"vehicle_type_id":"4","last_reported":1730210920,"current_range_meters":25600,"station_id":"ce4bgjh2rcd13ifvqbg0","pricing_plan_id":"cebpf4jnsgd1na2vs0mg"},{"bike_id":"13b146d8-3734-4cce-b5cd-62c338a5776b","system_id":"levelo_inurba_marseille","lat":43.26679,"lon":5.38263,"is_reserved":false,"is_disabled":false,"rental_uris":{"android":"levelo://app?vid=13b146d8-3734-4cce-b5cd-62c338a5776b","ios":"levelo://app?vid=13b146d8-3734-4cce-b5cd-62c338a5776b"},"vehicle_type_id":"4","last_reported":1730210920,"current_range_meters":26000,"station_id":"ce4bhg92rcd13ifvqf90","pricing_plan_id":"cebpf4jnsgd1na2vs0mg"},{"bike_id":"1c36e968-b9ec-4e4e-a73e-52f85b4ded24","system_id":"levelo_inurba_marseille","lat":43.27178,"lon":5.40989,"is_reserved":false,"is_disabled":false,"rental_uris":{"android":"levelo://app?vid=1c36e968-b9ec-4e4e-a73e-52f85b4ded24","ios":"levelo://app?vid=1c36e968-b9ec-4e4e-a73e-52f85b4ded24"},"vehicle_type_id":"4","last_reported":1730210920,"current_range_meters":15200,"station_id":"ce4bhl12rcd13ifvqgf0","pricing_plan_id":"cebpf4jnsgd1na2vs0mg"},{"bike_id":"080c662f-8e31-4d70-bca9-cd0b943f9b15","system_id":"levelo_inurba_marseille","lat":43.33758,"lon":5.37441,"is_reserved":false,"is_disabled":false,"rental_uris":{"android":"levelo://app?vid=080c662f-8e31-4d70-bca9-cd0b943f9b15","ios":"levelo://app?vid=080c662f-8e31-4d70-bca9-cd0b943f9b15"},"vehicle_type_id":"4","last_reported":1730210920,"current_range_meters":39200,"station_id":"","pricing_plan_id":"cebpf4jnsgd1na2vs0mg"},{"bike_id":"e625ddd5-61d5-441a-98c0-2154f83f35ae","system_id":"levelo_inurba_marseille","lat":43.23063,"lon":5.35502,"is_reserved":false,"is_disabled":false,"rental_uris":{"android":"levelo://app?vid=e625ddd5-61d5-441a-98c0-2154f83f35ae","ios":"levelo://app?vid=e625ddd5-61d5-441a-98c0-2154f83f35ae"},"vehicle_type_id":"4","last_reported":1730210920,"current_range_meters":20000,"station_id":"cpo3342slgdg3j2ifvpg","pricing_plan_id":"cebpf4jnsgd1na2vs0mg"},{"bike_id":"6f544d1a-9b5f-4ccb-9e0e-067277a2a766","system_id":"levelo_inurba_marseille","lat":43.28268,"lon":5.35064,"is_reserved":false,"is_disabled":false,"rental_uris":{"android":"levelo://app?vid=6f544d1a-9b5f-4ccb-9e0e-067277a2a766","ios":"levelo://app?vid=6f544d1a-9b5f-4ccb-9e0e-067277a2a766"},"vehicle_type_id":"4","last_reported":1730210920,"current_range_meters":38000,"station_id":"ce4bhbp2rcd13ifvqerg","pricing_plan_id":"cebpf4jnsgd1na2vs0mg"},{"bike_id":"92adf987-4779-4b78-ad9c-8e29ab9175f3","system_id":"levelo_inurba_marseille","lat":43.23196,"lon":5.35557,"is_reserved":false,"is_disabled":false,"rental_uris":{"android":"levelo://app?vid=92adf987-4779-4b78-ad9c-8e29ab9175f3","ios":"levelo://app?vid=92adf987-4779-4b78-ad9c-8e29ab9175f3"},"vehicle_type_id":"4","last_reported":1730210920,"current_range_meters":18800,"station_id":"ce4bhu92rcd13ifvqi70","pricing_plan_id":"cebpf4jnsgd1na2vs0mg"},{"bike_id":"4fa1f8b0-152a-415b-8dfc-9055bb99d345","system_id":"levelo_inurba_marseille","lat":43.31363,"lon":5.38491,"is_reserved":false,"is_disabled":false,"rental_uris":{"android":"levelo://app?vid=4fa1f8b0-152a-415b-8dfc-9055bb99d345","ios":"levelo://app?vid=4fa1f8b0-152a-415b-8dfc-9055bb99d345"},"vehicle_type_id":"4","last_reported":1730210920,"current_range_meters":8400,"station_id":"ce4bgs12rcd13ifvqcag","pricing_plan_id":"cebpf4jnsgd1na2vs0mg"},{"bike_id":"7d3c6db3-1ba0-4ae9-a27e-ea15295eb0b3","system_id":"levelo_inurba_marseille","lat":43.306487,"lon":5.4009,"is_reserved":false,"is_disabled":false,"rental_uris":{"android":"levelo://app?vid=7d3c6db3-1ba0-4ae9-a27e-ea15295eb0b3","ios":"levelo://app?vid=7d3c6db3-1ba0-4ae9-a27e-ea15295eb0b3"},"vehicle_type_id":"4","last_reported":1730210920,"current_range_meters":24000,"station_id":"ce4bh112rcd13ifvqda0","pricing_plan_id":"cebpf4jnsgd1na2vs0mg"},{"bike_id":"d1ef263a-d9a8-4b8b-b3a7-cb8ca46bc41b","system_id":"levelo_inurba_marseille","lat":43.27565,"lon":5.38431,"is_reserved":false,"is_disabled":false,"rental_uris":{"android":"levelo://app?vid=d1ef263a-d9a8-4b8b-b3a7-cb8ca46bc41b","ios":"levelo://app?vid=d1ef263a-d9a8-4b8b-b3a7-cb8ca46bc41b"},"vehicle_type_id":"4","last_reported":1730210920,"current_range_meters":35600,"station_id":"ce4bhh92rcd13ifvqfi0","pricing_plan_id":"cebpf4jnsgd1na2vs0mg"},{"bike_id":"bdd4b560-7456-474a-8d43-7d179515bc00","system_id":"levelo_inurba_marseille","lat":43.33751,"lon":5.37471,"is_reserved":false,"is_disabled":false,"rental_uris":{"android":"levelo://app?vid=bdd4b560-7456-474a-8d43-7d179515bc00","ios":"levelo://app?vid=bdd4b560-7456-474a-8d43-7d179515bc00"},"vehicle_type_id":"4","last_reported":1730210920,"current_range_meters":38400,"station_id":"","pricing_plan_id":"cebpf4jnsgd1na2vs0mg"},{"bike_id":"8d4f7822-0722-481a-b9a5-b8b33ca89429","system_id":"levelo_inurba_marseille","lat":43.23151,"lon":5.43713,"is_reserved":false,"is_disabled":false,"rental_uris":{"android":"levelo://app?vid=8d4f7822-0722-481a-b9a5-b8b33ca89429","ios":"levelo://app?vid=8d4f7822-0722-481a-b9a5-b8b33ca89429"},"vehicle_type_id":"4","last_reported":1730210920,"current_range_meters":7200,"station_id":"ce4bhmp2rcd13ifvqgog","pricing_plan_id":"cebpf4jnsgd1na2vs0mg"},{"bike_id":"eab9ecc7-9085-459c-a4cf-9ae2ae1a387d","system_id":"levelo_inurba_marseille","lat":43.28264,"lon":5.35075,"is_reserved":false,"is_disabled":false,"rental_uris":{"android":"levelo://app?vid=eab9ecc7-9085-459c-a4cf-9ae2ae1a387d","ios":"levelo://app?vid=eab9ecc7-9085-459c-a4cf-9ae2ae1a387d"},"vehicle_type_id":"4","last_reported":1730210920,"current_range_meters":30000,"station_id":"ce4bhbp2rcd13ifvqerg","pricing_plan_id":"cebpf4jnsgd1na2vs0mg"},{"bike_id":"264069c5-ba70-4e3d-8658-48314bb03c53","system_id":"levelo_inurba_marseille","lat":43.298523,"lon":5.385076,"is_reserved":false,"is_disabled":false,"rental_uris":{"android":"levelo://app?vid=264069c5-ba70-4e3d-8658-48314bb03c53","ios":"levelo://app?vid=264069c5-ba70-4e3d-8658-48314bb03c53"},"vehicle_type_id":"4","last_reported":1730210920,"current_range_meters":13600,"station_id":"ce4bgj92rcd13ifvqbd0","pricing_plan_id":"cebpf4jnsgd1na2vs0mg"},{"bike_id":"54405162-83a2-4b8c-9e22-4eff64357737","system_id":"levelo_inurba_marseille","lat":43.30591,"lon":5.39358,"is_reserved":false,"is_disabled":false,"rental_uris":{"android":"levelo://app?vid=54405162-83a2-4b8c-9e22-4eff64357737","ios":"levelo://app?vid=54405162-83a2-4b8c-9e22-4eff64357737"},"vehicle_type_id":"4","last_reported":1730210920,"current_range_meters":38400,"station_id":"ce4bh0p2rcd13ifvqd80","pricing_plan_id":"cebpf4jnsgd1na2vs0mg"},{"bike_id":"49e72066-76aa-41a8-ab79-822dd32d022a","system_id":"levelo_inurba_marseille","lat":43.28441,"lon":5.39204,"is_reserved":false,"is_disabled":false,"rental_uris":{"android":"levelo://app?vid=49e72066-76aa-41a8-ab79-822dd32d022a","ios":"levelo://app?vid=49e72066-76aa-41a8-ab79-822dd32d022a"},"vehicle_type_id":"4","last_reported":1730210920,"current_range_meters":8400,"station_id":"ce4bhoh2rcd13ifvqh5g","pricing_plan_id":"cebpf4jnsgd1na2vs0mg"},{"bike_id":"3eacef56-e200-4054-9b0c-156c6ef1c7f9","system_id":"levelo_inurba_marseille","lat":43.32108,"lon":5.36777,"is_reserved":false,"is_disabled":false,"rental_uris":{"android":"levelo://app?vid=3eacef56-e200-4054-9b0c-156c6ef1c7f9","ios":"levelo://app?vid=3eacef56-e200-4054-9b0c-156c6ef1c7f9"},"vehicle_type_id":"4","last_reported":1730210920,"current_range_meters":36400,"station_id":"ce4bhrh2rcd13ifvqhug","pricing_plan_id":"cebpf4jnsgd1na2vs0mg"},{"bike_id":"0e6f47ea-ffaf-48d0-907a-7a28dc2c146f","system_id":"levelo_inurba_marseille","lat":43.2593,"lon":5.40915,"is_reserved":false,"is_disabled":false,"rental_uris":{"android":"levelo://app?vid=0e6f47ea-ffaf-48d0-907a-7a28dc2c146f","ios":"levelo://app?vid=0e6f47ea-ffaf-48d0-907a-7a28dc2c146f"},"vehicle_type_id":"4","last_reported":1730210920,"current_range_meters":32400,"station_id":"ce4bhm92rcd13ifvqglg","pricing_plan_id":"cebpf4jnsgd1na2vs0mg"},{"bike_id":"6512d322-bfe7-4845-9682-9d39ba63d6dd","system_id":"levelo_inurba_marseille","lat":43.28459,"lon":5.35896,"is_reserved":false,"is_disabled":false,"rental_uris":{"android":"levelo://app?vid=6512d322-bfe7-4845-9682-9d39ba63d6dd","ios":"levelo://app?vid=6512d322-bfe7-4845-9682-9d39ba63d6dd"},"vehicle_type_id":"4","last_reported":1730210920,"current_range_meters":25200,"station_id":"ce4bhah2rcd13ifvqei0","pricing_plan_id":"cebpf4jnsgd1na2vs0mg"},{"bike_id":"121a4a25-a998-4843-aaf4-57968c884a89","system_id":"levelo_inurba_marseille","lat":43.30328,"lon":5.4043,"is_reserved":false,"is_disabled":false,"rental_uris":{"android":"levelo://app?vid=121a4a25-a998-4843-aaf4-57968c884a89","ios":"levelo://app?vid=121a4a25-a998-4843-aaf4-57968c884a89"},"vehicle_type_id":"4","last_reported":1730210920,"current_range_meters":38400,"station_id":"ce4bh012rcd13ifvqd10","pricing_plan_id":"cebpf4jnsgd1na2vs0mg"},{"bike_id":"451822ca-24a8-47a9-b9ef-5af09da8b310","system_id":"levelo_inurba_marseille","lat":43.23154,"lon":5.43703,"is_reserved":false,"is_disabled":false,"rental_uris":{"android":"levelo://app?vid=451822ca-24a8-47a9-b9ef-5af09da8b310","ios":"levelo://app?vid=451822ca-24a8-47a9-b9ef-5af09da8b310"},"vehicle_type_id":"4","last_reported":1730210920,"current_range_meters":6400,"station_id":"ce4bhmp2rcd13ifvqgog","pricing_plan_id":"cebpf4jnsgd1na2vs0mg"},{"bike_id":"86b8222b-fabd-447a-bba1-fa7cb533ac4f","system_id":"levelo_inurba_marseille","lat":43.297,"lon":5.36621,"is_reserved":false,"is_disabled":false,"rental_uris":{"android":"levelo://app?vid=86b8222b-fabd-447a-bba1-fa7cb533ac4f","ios":"levelo://app?vid=86b8222b-fabd-447a-bba1-fa7cb533ac4f"},"vehicle_type_id":"4","last_reported":1730210920,"current_range_meters":37600,"station_id":"ce4bgn12rcd13ifvqbt0","pricing_plan_id":"cebpf4jnsgd1na2vs0mg"},{"bike_id":"49865895-9d7f-41f5-b4ef-cb92d20871eb","system_id":"levelo_inurba_marseille","lat":43.26204,"lon":5.37441,"is_reserved":false,"is_disabled":false,"rental_uris":{"android":"levelo://app?vid=49865895-9d7f-41f5-b4ef-cb92d20871eb","ios":"levelo://app?vid=49865895-9d7f-41f5-b4ef-cb92d20871eb"},"vehicle_type_id":"4","last_reported":1730210920,"current_range_meters":28000,"station_id":"ce4bhgp2rcd13ifvqfc0","pricing_plan_id":"cebpf4jnsgd1na2vs0mg"},{"bike_id":"ae844abd-5f49-4e6c-8086-3880c1d44cf6","system_id":"levelo_inurba_marseille","lat":43.3266,"lon":5.40984,"is_reserved":false,"is_disabled":false,"rental_uris":{"android":"levelo://app?vid=ae844abd-5f49-4e6c-8086-3880c1d44cf6","ios":"levelo://app?vid=ae844abd-5f49-4e6c-8086-3880c1d44cf6"},"vehicle_type_id":"4","last_reported":1730210920,"current_range_meters":24400,"station_id":"ce4bhpp2rcd13ifvqhgg","pricing_plan_id":"cebpf4jnsgd1na2vs0mg"},{"bike_id":"7e700bcc-4f8e-4e3a-920a-5e247fc93a67","system_id":"levelo_inurba_marseille","lat":43.29936,"lon":5.36535,"is_reserved":false,"is_disabled":false,"rental_uris":{"android":"levelo://app?vid=7e700bcc-4f8e-4e3a-920a-5e247fc93a67","ios":"levelo://app?vid=7e700bcc-4f8e-4e3a-920a-5e247fc93a67"},"vehicle_type_id":"4","last_reported":1730210920,"current_range_meters":28400,"station_id":"ce4bgm92rcd13ifvqbr0","pricing_plan_id":"cebpf4jnsgd1na2vs0mg"},{"bike_id":"d5eaf885-faba-49a9-9c64-bb30ea80c5a4","system_id":"levelo_inurba_marseille","lat":43.27841,"lon":5.3921,"is_reserved":false,"is_disabled":false,"rental_uris":{"android":"levelo://app?vid=d5eaf885-faba-49a9-9c64-bb30ea80c5a4","ios":"levelo://app?vid=d5eaf885-faba-49a9-9c64-bb30ea80c5a4"},"vehicle_type_id":"4","last_reported":1730210920,"current_range_meters":19600,"station_id":"ce4bhjp2rcd13ifvqga0","pricing_plan_id":"cebpf4jnsgd1na2vs0mg"},{"bike_id":"0249e3c7-0ee6-43ae-aea1-a5a682acfe38","system_id":"levelo_inurba_marseille","lat":43.26939,"lon":5.40253,"is_reserved":false,"is_disabled":false,"rental_uris":{"android":"levelo://app?vid=0249e3c7-0ee6-43ae-aea1-a5a682acfe38","ios":"levelo://app?vid=0249e3c7-0ee6-43ae-aea1-a5a682acfe38"},"vehicle_type_id":"4","last_reported":1730210920,"current_range_meters":38800,"station_id":"cjm6bp8fraef2m0cb0m0","pricing_plan_id":"cebpf4jnsgd1na2vs0mg"},{"bike_id":"978d1646-454c-477b-8175-68e128d570a5","system_id":"levelo_inurba_marseille","lat":43.31329,"lon":5.397,"is_reserved":false,"is_disabled":false,"rental_uris":{"android":"levelo://app?vid=978d1646-454c-477b-8175-68e128d570a5","ios":"levelo://app?vid=978d1646-454c-477b-8175-68e128d570a5"},"vehicle_type_id":"4","last_reported":1730210920,"current_range_meters":38800,"station_id":"ce4bgvp2rcd13ifvqcu0","pricing_plan_id":"cebpf4jnsgd1na2vs0mg"},{"bike_id":"4bd3dc7a-cd73-4bb6-8f68-66aa73a42057","system_id":"levelo_inurba_marseille","lat":43.27058,"lon":5.40258,"is_reserved":false,"is_disabled":false,"rental_uris":{"android":"levelo://app?vid=4bd3dc7a-cd73-4bb6-8f68-66aa73a42057","ios":"levelo://app?vid=4bd3dc7a-cd73-4bb6-8f68-66aa73a42057"},"vehicle_type_id":"4","last_reported":1730210920,"current_range_meters":30800,"station_id":"ce4bhk92rcd13ifvqgc0","pricing_plan_id":"cebpf4jnsgd1na2vs0mg"},{"bike_id":"dd239484-15bf-4c15-aeca-5d5f57879f53","system_id":"levelo_inurba_marseille","lat":43.28473,"lon":5.38414,"is_reserved":false,"is_disabled":false,"rental_uris":{"android":"levelo://app?vid=dd239484-15bf-4c15-aeca-5d5f57879f53","ios":"levelo://app?vid=dd239484-15bf-4c15-aeca-5d5f57879f53"},"vehicle_type_id":"4","last_reported":1730210920,"current_range_meters":24400,"station_id":"ce4bh512rcd13ifvqe3g","pricing_plan_id":"cebpf4jnsgd1na2vs0mg"},{"bike_id":"48913daf-4b9b-47dc-a975-7bc5234a2cc0","system_id":"levelo_inurba_marseille","lat":43.26209,"lon":5.37453,"is_reserved":false,"is_disabled":false,"rental_uris":{"android":"levelo://app?vid=48913daf-4b9b-47dc-a975-7bc5234a2cc0","ios":"levelo://app?vid=48913daf-4b9b-47dc-a975-7bc5234a2cc0"},"vehicle_type_id":"4","last_reported":1730210920,"current_range_meters":18000,"station_id":"ce4bhgp2rcd13ifvqfc0","pricing_plan_id":"cebpf4jnsgd1na2vs0mg"},{"bike_id":"e58711fa-10f6-45dd-92af-ca00402b7e53","system_id":"levelo_inurba_marseille","lat":43.30909,"lon":5.36853,"is_reserved":false,"is_disabled":false,"rental_uris":{"android":"levelo://app?vid=e58711fa-10f6-45dd-92af-ca00402b7e53","ios":"levelo://app?vid=e58711fa-10f6-45dd-92af-ca00402b7e53"},"vehicle_type_id":"4","last_reported":1730210920,"current_range_meters":29600,"station_id":"ce4bgn92rcd13ifvqbvg","pricing_plan_id":"cebpf4jnsgd1na2vs0mg"},{"bike_id":"52d98c45-dfb8-4966-af33-f96a7bc4c82c","system_id":"levelo_inurba_marseille","lat":43.272657,"lon":5.362772,"is_reserved":false,"is_disabled":false,"rental_uris":{"android":"levelo://app?vid=52d98c45-dfb8-4966-af33-f96a7bc4c82c","ios":"levelo://app?vid=52d98c45-dfb8-4966-af33-f96a7bc4c82c"},"vehicle_type_id":"4","last_reported":1730210920,"current_range_meters":29600,"station_id":"ce4bhbh2rcd13ifvqeo0","pricing_plan_id":"cebpf4jnsgd1na2vs0mg"},{"bike_id":"985b952c-8248-43e7-9539-c9d760e3a64e","system_id":"levelo_inurba_marseille","lat":43.29627,"lon":5.37159,"is_reserved":false,"is_disabled":false,"rental_uris":{"android":"levelo://app?vid=985b952c-8248-43e7-9539-c9d760e3a64e","ios":"levelo://app?vid=985b952c-8248-43e7-9539-c9d760e3a64e"},"vehicle_type_id":"4","last_reported":1730210920,"current_range_meters":22400,"station_id":"ce4bgnh2rcd13ifvqc0g","pricing_plan_id":"cebpf4jnsgd1na2vs0mg"},{"bike_id":"f573c98c-27a7-41f0-8917-4e93dc4cb7d1","system_id":"levelo_inurba_marseille","lat":43.2967,"lon":5.37298,"is_reserved":false,"is_disabled":false,"rental_uris":{"android":"levelo://app?vid=f573c98c-27a7-41f0-8917-4e93dc4cb7d1","ios":"levelo://app?vid=f573c98c-27a7-41f0-8917-4e93dc4cb7d1"},"vehicle_type_id":"4","last_reported":1730210920,"current_range_meters":37600,"station_id":"ce4bgk12rcd13ifvqbj0","pricing_plan_id":"cebpf4jnsgd1na2vs0mg"},{"bike_id":"e40111e4-4deb-41a5-ac02-7465c5223951","system_id":"levelo_inurba_marseille","lat":43.28626,"lon":5.38339,"is_reserved":false,"is_disabled":false,"rental_uris":{"android":"levelo://app?vid=e40111e4-4deb-41a5-ac02-7465c5223951","ios":"levelo://app?vid=e40111e4-4deb-41a5-ac02-7465c5223951"},"vehicle_type_id":"4","last_reported":1730210920,"current_range_meters":16400,"station_id":"ce4bh4p2rcd13ifvqe1g","pricing_plan_id":"cebpf4jnsgd1na2vs0mg"},{"bike_id":"f274d9e8-1689-4183-b0e4-6ebbece185ac","system_id":"levelo_inurba_marseille","lat":43.26802,"lon":5.40262,"is_reserved":false,"is_disabled":false,"rental_uris":{"android":"levelo://app?vid=f274d9e8-1689-4183-b0e4-6ebbece185ac","ios":"levelo://app?vid=f274d9e8-1689-4183-b0e4-6ebbece185ac"},"vehicle_type_id":"4","last_reported":1730210920,"current_range_meters":38800,"station_id":"ce501612rcd8frsf0b60","pricing_plan_id":"cebpf4jnsgd1na2vs0mg"},{"bike_id":"c497513d-9d1d-4320-a1e3-875a8b21d4c5","system_id":"levelo_inurba_marseille","lat":43.27181,"lon":5.40996,"is_reserved":false,"is_disabled":false,"rental_uris":{"android":"levelo://app?vid=c497513d-9d1d-4320-a1e3-875a8b21d4c5","ios":"levelo://app?vid=c497513d-9d1d-4320-a1e3-875a8b21d4c5"},"vehicle_type_id":"4","last_reported":1730210920,"current_range_meters":36800,"station_id":"ce4bhl12rcd13ifvqgf0","pricing_plan_id":"cebpf4jnsgd1na2vs0mg"},{"bike_id":"f09b6f98-8f70-4e17-9b24-58d678c3f39f","system_id":"levelo_inurba_marseille","lat":43.3248,"lon":5.3657,"is_reserved":false,"is_disabled":false,"rental_uris":{"android":"levelo://app?vid=f09b6f98-8f70-4e17-9b24-58d678c3f39f","ios":"levelo://app?vid=f09b6f98-8f70-4e17-9b24-58d678c3f39f"},"vehicle_type_id":"4","last_reported":1730210920,"current_range_meters":11200,"station_id":"ce4bhs12rcd13ifvqhvg","pricing_plan_id":"cebpf4jnsgd1na2vs0mg"},{"bike_id":"4aa9ec8e-8a2f-4bf2-b664-653d737532aa","system_id":"levelo_inurba_marseille","lat":43.29553,"lon":5.42283,"is_reserved":false,"is_disabled":false,"rental_uris":{"android":"levelo://app?vid=4aa9ec8e-8a2f-4bf2-b664-653d737532aa","ios":"levelo://app?vid=4aa9ec8e-8a2f-4bf2-b664-653d737532aa"},"vehicle_type_id":"4","last_reported":1730210920,"current_range_meters":38800,"station_id":"ce4bhph2rcd13ifvqhdg","pricing_plan_id":"cebpf4jnsgd1na2vs0mg"},{"bike_id":"e1b8f9fb-e491-40ed-a82e-b7180152c511","system_id":"levelo_inurba_marseille","lat":43.239655,"lon":5.366309,"is_reserved":false,"is_disabled":false,"rental_uris":{"android":"levelo://app?vid=e1b8f9fb-e491-40ed-a82e-b7180152c511","ios":"levelo://app?vid=e1b8f9fb-e491-40ed-a82e-b7180152c511"},"vehicle_type_id":"4","last_reported":1730210920,"current_range_meters":38000,"station_id":"ce4bhi12rcd13ifvqfp0","pricing_plan_id":"cebpf4jnsgd1na2vs0mg"},{"bike_id":"eff6c5ad-dea6-4ce2-b40f-e81d26d61f17","system_id":"levelo_inurba_marseille","lat":43.28267,"lon":5.35091,"is_reserved":false,"is_disabled":false,"rental_uris":{"android":"levelo://app?vid=eff6c5ad-dea6-4ce2-b40f-e81d26d61f17","ios":"levelo://app?vid=eff6c5ad-dea6-4ce2-b40f-e81d26d61f17"},"vehicle_type_id":"4","last_reported":1730210920,"current_range_meters":38800,"station_id":"ce4bhbp2rcd13ifvqerg","pricing_plan_id":"cebpf4jnsgd1na2vs0mg"},{"bike_id":"5c47bb43-6228-4307-9a49-86d0f08f22d3","system_id":"levelo_inurba_marseille","lat":43.29771,"lon":5.37098,"is_reserved":false,"is_disabled":false,"rental_uris":{"android":"levelo://app?vid=5c47bb43-6228-4307-9a49-86d0f08f22d3","ios":"levelo://app?vid=5c47bb43-6228-4307-9a49-86d0f08f22d3"},"vehicle_type_id":"4","last_reported":1730210920,"current_range_meters":27200,"station_id":"ce4bgop2rcd13ifvqc1g","pricing_plan_id":"cebpf4jnsgd1na2vs0mg"},{"bike_id":"d5c8fa42-2467-4cbe-a884-69b7df559269","system_id":"levelo_inurba_marseille","lat":43.28004,"lon":5.40017,"is_reserved":false,"is_disabled":false,"rental_uris":{"android":"levelo://app?vid=d5c8fa42-2467-4cbe-a884-69b7df559269","ios":"levelo://app?vid=d5c8fa42-2467-4cbe-a884-69b7df559269"},"vehicle_type_id":"4","last_reported":1730210920,"current_range_meters":38800,"station_id":"ce4bho92rcd13ifvqh4g","pricing_plan_id":"cebpf4jnsgd1na2vs0mg"},{"bike_id":"49e62e5b-a744-4960-b578-e2e1ed1f4e39","system_id":"levelo_inurba_marseille","lat":43.299,"lon":5.43674,"is_reserved":false,"is_disabled":false,"rental_uris":{"android":"levelo://app?vid=49e62e5b-a744-4960-b578-e2e1ed1f4e39","ios":"levelo://app?vid=49e62e5b-a744-4960-b578-e2e1ed1f4e39"},"vehicle_type_id":"4","last_reported":1730210920,"current_range_meters":9200,"station_id":"ce4bhpp2rcd13ifvqhfg","pricing_plan_id":"cebpf4jnsgd1na2vs0mg"},{"bike_id":"91719b84-3555-44cf-84a9-d000a52c71eb","system_id":"levelo_inurba_marseille","lat":43.30538,"lon":5.3671,"is_reserved":false,"is_disabled":false,"rental_uris":{"android":"levelo://app?vid=91719b84-3555-44cf-84a9-d000a52c71eb","ios":"levelo://app?vid=91719b84-3555-44cf-84a9-d000a52c71eb"},"vehicle_type_id":"4","last_reported":1730210920,"current_range_meters":38800,"station_id":"ce4bgrp2rcd13ifvqc9g","pricing_plan_id":"cebpf4jnsgd1na2vs0mg"},{"bike_id":"1e4476f3-15fc-4fb9-8231-99b512b22599","system_id":"levelo_inurba_marseille","lat":43.31322,"lon":5.39701,"is_reserved":false,"is_disabled":false,"rental_uris":{"android":"levelo://app?vid=1e4476f3-15fc-4fb9-8231-99b512b22599","ios":"levelo://app?vid=1e4476f3-15fc-4fb9-8231-99b512b22599"},"vehicle_type_id":"4","last_reported":1730210920,"current_range_meters":38800,"station_id":"ce4bgvp2rcd13ifvqcu0","pricing_plan_id":"cebpf4jnsgd1na2vs0mg"},{"bike_id":"be383dfd-f6e4-4514-be85-96c9b0d78716","system_id":"levelo_inurba_marseille","lat":43.23057,"lon":5.35495,"is_reserved":false,"is_disabled":false,"rental_uris":{"android":"levelo://app?vid=be383dfd-f6e4-4514-be85-96c9b0d78716","ios":"levelo://app?vid=be383dfd-f6e4-4514-be85-96c9b0d78716"},"vehicle_type_id":"4","last_reported":1730210920,"current_range_meters":32000,"station_id":"cpo3342slgdg3j2ifvpg","pricing_plan_id":"cebpf4jnsgd1na2vs0mg"},{"bike_id":"b12425a9-456b-4240-9101-c3b9f8f5a488","system_id":"levelo_inurba_marseille","lat":43.32485,"lon":5.36561,"is_reserved":false,"is_disabled":false,"rental_uris":{"android":"levelo://app?vid=b12425a9-456b-4240-9101-c3b9f8f5a488","ios":"levelo://app?vid=b12425a9-456b-4240-9101-c3b9f8f5a488"},"vehicle_type_id":"4","last_reported":1730210920,"current_range_meters":39200,"station_id":"ce4bhs12rcd13ifvqhvg","pricing_plan_id":"cebpf4jnsgd1na2vs0mg"},{"bike_id":"9afc8807-f832-4417-bd03-3c2b914835d8","system_id":"levelo_inurba_marseille","lat":43.30599,"lon":5.37216,"is_reserved":false,"is_disabled":false,"rental_uris":{"android":"levelo://app?vid=9afc8807-f832-4417-bd03-3c2b914835d8","ios":"levelo://app?vid=9afc8807-f832-4417-bd03-3c2b914835d8"},"vehicle_type_id":"4","last_reported":1730210920,"current_range_meters":38800,"station_id":"ce4bgqh2rcd13ifvqc4g","pricing_plan_id":"cebpf4jnsgd1na2vs0mg"},{"bike_id":"0efb9783-4923-465e-aca8-c14d4c33d493","system_id":"levelo_inurba_marseille","lat":43.29227,"lon":5.36064,"is_reserved":false,"is_disabled":false,"rental_uris":{"android":"levelo://app?vid=0efb9783-4923-465e-aca8-c14d4c33d493","ios":"levelo://app?vid=0efb9783-4923-465e-aca8-c14d4c33d493"},"vehicle_type_id":"4","last_reported":1730210920,"current_range_meters":38800,"station_id":"ce4bhbh2rcd13ifvqeqg","pricing_plan_id":"cebpf4jnsgd1na2vs0mg"},{"bike_id":"69f13f65-e907-45ab-b818-215067975644","system_id":"levelo_inurba_marseille","lat":43.2885,"lon":5.3932,"is_reserved":false,"is_disabled":false,"rental_uris":{"android":"levelo://app?vid=69f13f65-e907-45ab-b818-215067975644","ios":"levelo://app?vid=69f13f65-e907-45ab-b818-215067975644"},"vehicle_type_id":"4","last_reported":1730210920,"current_range_meters":36000,"station_id":"ce4bh2p2rcd13ifvqdi0","pricing_plan_id":"cebpf4jnsgd1na2vs0mg"},{"bike_id":"3af184b2-4379-45ff-9c65-73bc96690fa2","system_id":"levelo_inurba_marseille","lat":43.32482,"lon":5.36567,"is_reserved":false,"is_disabled":false,"rental_uris":{"android":"levelo://app?vid=3af184b2-4379-45ff-9c65-73bc96690fa2","ios":"levelo://app?vid=3af184b2-4379-45ff-9c65-73bc96690fa2"},"vehicle_type_id":"4","last_reported":1730210920,"current_range_meters":30400,"station_id":"ce4bhs12rcd13ifvqhvg","pricing_plan_id":"cebpf4jnsgd1na2vs0mg"},{"bike_id":"eaee8ab2-76f5-4b37-b465-9eb26268ad5d","system_id":"levelo_inurba_marseille","lat":43.25938,"lon":5.40903,"is_reserved":false,"is_disabled":false,"rental_uris":{"android":"levelo://app?vid=eaee8ab2-76f5-4b37-b465-9eb26268ad5d","ios":"levelo://app?vid=eaee8ab2-76f5-4b37-b465-9eb26268ad5d"},"vehicle_type_id":"4","last_reported":1730210920,"current_range_meters":32800,"station_id":"ce4bhm92rcd13ifvqglg","pricing_plan_id":"cebpf4jnsgd1na2vs0mg"},{"bike_id":"4fee7be1-0719-4b25-ae13-bebe6acb9f1c","system_id":"levelo_inurba_marseille","lat":43.28468,"lon":5.38412,"is_reserved":false,"is_disabled":false,"rental_uris":{"android":"levelo://app?vid=4fee7be1-0719-4b25-ae13-bebe6acb9f1c","ios":"levelo://app?vid=4fee7be1-0719-4b25-ae13-bebe6acb9f1c"},"vehicle_type_id":"4","last_reported":1730210920,"current_range_meters":22400,"station_id":"ce4bh512rcd13ifvqe3g","pricing_plan_id":"cebpf4jnsgd1na2vs0mg"},{"bike_id":"17a685b1-57c3-4cfe-b093-2bd72a7d95f1","system_id":"levelo_inurba_marseille","lat":43.26784,"lon":5.39413,"is_reserved":false,"is_disabled":false,"rental_uris":{"android":"levelo://app?vid=17a685b1-57c3-4cfe-b093-2bd72a7d95f1","ios":"levelo://app?vid=17a685b1-57c3-4cfe-b093-2bd72a7d95f1"},"vehicle_type_id":"4","last_reported":1730210920,"current_range_meters":22800,"station_id":"ce4bhh12rcd13ifvqfg0","pricing_plan_id":"cebpf4jnsgd1na2vs0mg"},{"bike_id":"4cc9b611-227a-4675-8219-8592dde41f3f","system_id":"levelo_inurba_marseille","lat":43.28268,"lon":5.35082,"is_reserved":false,"is_disabled":false,"rental_uris":{"android":"levelo://app?vid=4cc9b611-227a-4675-8219-8592dde41f3f","ios":"levelo://app?vid=4cc9b611-227a-4675-8219-8592dde41f3f"},"vehicle_type_id":"4","last_reported":1730210920,"current_range_meters":15200,"station_id":"ce4bhbp2rcd13ifvqerg","pricing_plan_id":"cebpf4jnsgd1na2vs0mg"},{"bike_id":"1ad22c01-81fa-4f58-9a14-74883e4cb310","system_id":"levelo_inurba_marseille","lat":43.29849,"lon":5.36271,"is_reserved":false,"is_disabled":false,"rental_uris":{"android":"levelo://app?vid=1ad22c01-81fa-4f58-9a14-74883e4cb310","ios":"levelo://app?vid=1ad22c01-81fa-4f58-9a14-74883e4cb310"},"vehicle_type_id":"4","last_reported":1730210920,"current_range_meters":27600,"station_id":"ce4bgpp2rcd13ifvqc3g","pricing_plan_id":"cebpf4jnsgd1na2vs0mg"},{"bike_id":"f28b4ff5-536b-40af-9f77-18db00493e8a","system_id":"levelo_inurba_marseille","lat":43.26934,"lon":5.38921,"is_reserved":false,"is_disabled":false,"rental_uris":{"android":"levelo://app?vid=f28b4ff5-536b-40af-9f77-18db00493e8a","ios":"levelo://app?vid=f28b4ff5-536b-40af-9f77-18db00493e8a"},"vehicle_type_id":"4","last_reported":1730210920,"current_range_meters":24000,"station_id":"ce4bhhh2rcd13ifvqfl0","pricing_plan_id":"cebpf4jnsgd1na2vs0mg"},{"bike_id":"5031ebc2-ac53-4458-b7f5-b5d614efc69f","system_id":"levelo_inurba_marseille","lat":43.2993,"lon":5.36535,"is_reserved":false,"is_disabled":false,"rental_uris":{"android":"levelo://app?vid=5031ebc2-ac53-4458-b7f5-b5d614efc69f","ios":"levelo://app?vid=5031ebc2-ac53-4458-b7f5-b5d614efc69f"},"vehicle_type_id":"4","last_reported":1730210920,"current_range_meters":36800,"station_id":"ce4bgm92rcd13ifvqbr0","pricing_plan_id":"cebpf4jnsgd1na2vs0mg"},{"bike_id":"0093b878-a738-4182-9740-b724eb693205","system_id":"levelo_inurba_marseille","lat":43.31362,"lon":5.36711,"is_reserved":false,"is_disabled":false,"rental_uris":{"android":"levelo://app?vid=0093b878-a738-4182-9740-b724eb693205","ios":"levelo://app?vid=0093b878-a738-4182-9740-b724eb693205"},"vehicle_type_id":"4","last_reported":1730210920,"current_range_meters":9600,"station_id":"ce4bgr92rcd13ifvqc6g","pricing_plan_id":"cebpf4jnsgd1na2vs0mg"},{"bike_id":"c66a681e-9dac-4b91-98f7-d26b22d6ab86","system_id":"levelo_inurba_marseille","lat":43.30103,"lon":5.39836,"is_reserved":false,"is_disabled":false,"rental_uris":{"android":"levelo://app?vid=c66a681e-9dac-4b91-98f7-d26b22d6ab86","ios":"levelo://app?vid=c66a681e-9dac-4b91-98f7-d26b22d6ab86"},"vehicle_type_id":"4","last_reported":1730210920,"current_range_meters":16400,"station_id":"ce4bh0h2rcd13ifvqd40","pricing_plan_id":"cebpf4jnsgd1na2vs0mg"},{"bike_id":"8936e54f-6419-4c4d-9666-8255bea7a277","system_id":"levelo_inurba_marseille","lat":43.28938,"lon":5.36639,"is_reserved":false,"is_disabled":false,"rental_uris":{"android":"levelo://app?vid=8936e54f-6419-4c4d-9666-8255bea7a277","ios":"levelo://app?vid=8936e54f-6419-4c4d-9666-8255bea7a277"},"vehicle_type_id":"4","last_reported":1730210920,"current_range_meters":36400,"station_id":"ce4bhap2rcd13ifvqek0","pricing_plan_id":"cebpf4jnsgd1na2vs0mg"},{"bike_id":"a2f91a54-aabc-467a-bd1d-2399ad58ea1c","system_id":"levelo_inurba_marseille","lat":43.27207,"lon":5.3918,"is_reserved":false,"is_disabled":false,"rental_uris":{"android":"levelo://app?vid=a2f91a54-aabc-467a-bd1d-2399ad58ea1c","ios":"levelo://app?vid=a2f91a54-aabc-467a-bd1d-2399ad58ea1c"},"vehicle_type_id":"4","last_reported":1730210920,"current_range_meters":31200,"station_id":"ce4bhhp2rcd13ifvqfm0","pricing_plan_id":"cebpf4jnsgd1na2vs0mg"},{"bike_id":"3ad44b20-10e6-420b-8fbb-80b94b1336c9","system_id":"levelo_inurba_marseille","lat":43.29202,"lon":5.35817,"is_reserved":false,"is_disabled":false,"rental_uris":{"android":"levelo://app?vid=3ad44b20-10e6-420b-8fbb-80b94b1336c9","ios":"levelo://app?vid=3ad44b20-10e6-420b-8fbb-80b94b1336c9"},"vehicle_type_id":"4","last_reported":1730210920,"current_range_meters":36400,"station_id":"ce4bhb12rcd13ifvqel0","pricing_plan_id":"cebpf4jnsgd1na2vs0mg"},{"bike_id":"2d112996-c7d2-4209-aa87-682cf98c81e1","system_id":"levelo_inurba_marseille","lat":43.3266,"lon":5.40992,"is_reserved":false,"is_disabled":false,"rental_uris":{"android":"levelo://app?vid=2d112996-c7d2-4209-aa87-682cf98c81e1","ios":"levelo://app?vid=2d112996-c7d2-4209-aa87-682cf98c81e1"},"vehicle_type_id":"4","last_reported":1730210920,"current_range_meters":27200,"station_id":"ce4bhpp2rcd13ifvqhgg","pricing_plan_id":"cebpf4jnsgd1na2vs0mg"},{"bike_id":"1488cb5b-ba01-4856-b5ef-dc4c1f7247e9","system_id":"levelo_inurba_marseille","lat":43.23953,"lon":5.36637,"is_reserved":false,"is_disabled":false,"rental_uris":{"android":"levelo://app?vid=1488cb5b-ba01-4856-b5ef-dc4c1f7247e9","ios":"levelo://app?vid=1488cb5b-ba01-4856-b5ef-dc4c1f7247e9"},"vehicle_type_id":"4","last_reported":1730210920,"current_range_meters":17200,"station_id":"ce4bhi12rcd13ifvqfp0","pricing_plan_id":"cebpf4jnsgd1na2vs0mg"},{"bike_id":"b3a17be4-337a-4f19-be27-db37599ae6aa","system_id":"levelo_inurba_marseille","lat":43.27053,"lon":5.40264,"is_reserved":false,"is_disabled":false,"rental_uris":{"android":"levelo://app?vid=b3a17be4-337a-4f19-be27-db37599ae6aa","ios":"levelo://app?vid=b3a17be4-337a-4f19-be27-db37599ae6aa"},"vehicle_type_id":"4","last_reported":1730210920,"current_range_meters":34800,"station_id":"ce4bhk92rcd13ifvqgc0","pricing_plan_id":"cebpf4jnsgd1na2vs0mg"},{"bike_id":"be02173d-872e-408c-adb5-0ec6cf6b7544","system_id":"levelo_inurba_marseille","lat":43.29188,"lon":5.35811,"is_reserved":false,"is_disabled":false,"rental_uris":{"android":"levelo://app?vid=be02173d-872e-408c-adb5-0ec6cf6b7544","ios":"levelo://app?vid=be02173d-872e-408c-adb5-0ec6cf6b7544"},"vehicle_type_id":"4","last_reported":1730210920,"current_range_meters":38800,"station_id":"ce4bhb12rcd13ifvqel0","pricing_plan_id":"cebpf4jnsgd1na2vs0mg"},{"bike_id":"2428d0d4-0189-4b00-85c9-81366524f657","system_id":"levelo_inurba_marseille","lat":43.25932,"lon":5.40904,"is_reserved":false,"is_disabled":false,"rental_uris":{"android":"levelo://app?vid=2428d0d4-0189-4b00-85c9-81366524f657","ios":"levelo://app?vid=2428d0d4-0189-4b00-85c9-81366524f657"},"vehicle_type_id":"4","last_reported":1730210920,"current_range_meters":28400,"station_id":"ce4bhm92rcd13ifvqglg","pricing_plan_id":"cebpf4jnsgd1na2vs0mg"},{"bike_id":"f84af8d2-2ca2-4426-98b9-a818a62cd343","system_id":"levelo_inurba_marseille","lat":43.30597,"lon":5.3721,"is_reserved":false,"is_disabled":false,"rental_uris":{"android":"levelo://app?vid=f84af8d2-2ca2-4426-98b9-a818a62cd343","ios":"levelo://app?vid=f84af8d2-2ca2-4426-98b9-a818a62cd343"},"vehicle_type_id":"4","last_reported":1730210920,"current_range_meters":38800,"station_id":"ce4bgqh2rcd13ifvqc4g","pricing_plan_id":"cebpf4jnsgd1na2vs0mg"},{"bike_id":"66569125-ecb1-43c8-a535-8a5b9baeafc9","system_id":"levelo_inurba_marseille","lat":43.24547,"lon":5.39524,"is_reserved":false,"is_disabled":false,"rental_uris":{"android":"levelo://app?vid=66569125-ecb1-43c8-a535-8a5b9baeafc9","ios":"levelo://app?vid=66569125-ecb1-43c8-a535-8a5b9baeafc9"},"vehicle_type_id":"4","last_reported":1730210920,"current_range_meters":39200,"station_id":"ce4bhlp2rcd13ifvqgjg","pricing_plan_id":"cebpf4jnsgd1na2vs0mg"},{"bike_id":"cb5f3e92-6c8c-403c-bb5d-3dfa1a3f84f5","system_id":"levelo_inurba_marseille","lat":43.30271,"lon":5.37719,"is_reserved":false,"is_disabled":false,"rental_uris":{"android":"levelo://app?vid=cb5f3e92-6c8c-403c-bb5d-3dfa1a3f84f5","ios":"levelo://app?vid=cb5f3e92-6c8c-403c-bb5d-3dfa1a3f84f5"},"vehicle_type_id":"4","last_reported":1730210920,"current_range_meters":28400,"station_id":"ce4bguh2rcd13ifvqcj0","pricing_plan_id":"cebpf4jnsgd1na2vs0mg"},{"bike_id":"d451966f-9a13-4708-9dff-99520abd1e77","system_id":"levelo_inurba_marseille","lat":43.32487,"lon":5.36567,"is_reserved":false,"is_disabled":false,"rental_uris":{"android":"levelo://app?vid=d451966f-9a13-4708-9dff-99520abd1e77","ios":"levelo://app?vid=d451966f-9a13-4708-9dff-99520abd1e77"},"vehicle_type_id":"4","last_reported":1730210920,"current_range_meters":30400,"station_id":"ce4bhs12rcd13ifvqhvg","pricing_plan_id":"cebpf4jnsgd1na2vs0mg"},{"bike_id":"dbda7efb-410d-4a2b-a65e-9bcd0c2c113c","system_id":"levelo_inurba_marseille","lat":43.25105,"lon":5.40327,"is_reserved":false,"is_disabled":false,"rental_uris":{"android":"levelo://app?vid=dbda7efb-410d-4a2b-a65e-9bcd0c2c113c","ios":"levelo://app?vid=dbda7efb-410d-4a2b-a65e-9bcd0c2c113c"},"vehicle_type_id":"4","last_reported":1730210920,"current_range_meters":14800,"station_id":"ce4bhlh2rcd13ifvqgig","pricing_plan_id":"cebpf4jnsgd1na2vs0mg"},{"bike_id":"95265bec-26f9-4f16-b355-5858fb17ea28","system_id":"levelo_inurba_marseille","lat":43.26561,"lon":5.39005,"is_reserved":false,"is_disabled":false,"rental_uris":{"android":"levelo://app?vid=95265bec-26f9-4f16-b355-5858fb17ea28","ios":"levelo://app?vid=95265bec-26f9-4f16-b355-5858fb17ea28"},"vehicle_type_id":"4","last_reported":1730210920,"current_range_meters":10800,"station_id":"ce4bhe12rcd13ifvqf30","pricing_plan_id":"cebpf4jnsgd1na2vs0mg"},{"bike_id":"33e9769c-619f-45e6-9722-ab6d1f11af27","system_id":"levelo_inurba_marseille","lat":43.26212,"lon":5.37439,"is_reserved":false,"is_disabled":false,"rental_uris":{"android":"levelo://app?vid=33e9769c-619f-45e6-9722-ab6d1f11af27","ios":"levelo://app?vid=33e9769c-619f-45e6-9722-ab6d1f11af27"},"vehicle_type_id":"4","last_reported":1730210920,"current_range_meters":10800,"station_id":"ce4bhgp2rcd13ifvqfc0","pricing_plan_id":"cebpf4jnsgd1na2vs0mg"},{"bike_id":"53f40179-1243-4e83-8f7a-432c3bf8a957","system_id":"levelo_inurba_marseille","lat":43.29931,"lon":5.36528,"is_reserved":false,"is_disabled":false,"rental_uris":{"android":"levelo://app?vid=53f40179-1243-4e83-8f7a-432c3bf8a957","ios":"levelo://app?vid=53f40179-1243-4e83-8f7a-432c3bf8a957"},"vehicle_type_id":"4","last_reported":1730210920,"current_range_meters":36000,"station_id":"ce4bgm92rcd13ifvqbr0","pricing_plan_id":"cebpf4jnsgd1na2vs0mg"},{"bike_id":"197f0b0e-43b9-42a5-a608-d6f64b2221b5","system_id":"levelo_inurba_marseille","lat":43.2979,"lon":5.381176,"is_reserved":false,"is_disabled":false,"rental_uris":{"android":"levelo://app?vid=197f0b0e-43b9-42a5-a608-d6f64b2221b5","ios":"levelo://app?vid=197f0b0e-43b9-42a5-a608-d6f64b2221b5"},"vehicle_type_id":"4","last_reported":1730210920,"current_range_meters":19200,"station_id":"ce4bgip2rcd13ifvqbb0","pricing_plan_id":"cebpf4jnsgd1na2vs0mg"},{"bike_id":"73a6dbdf-5b97-47ea-9ac6-76cd2302f7cd","system_id":"levelo_inurba_marseille","lat":43.30905,"lon":5.36853,"is_reserved":false,"is_disabled":false,"rental_uris":{"android":"levelo://app?vid=73a6dbdf-5b97-47ea-9ac6-76cd2302f7cd","ios":"levelo://app?vid=73a6dbdf-5b97-47ea-9ac6-76cd2302f7cd"},"vehicle_type_id":"4","last_reported":1730210920,"current_range_meters":38800,"station_id":"ce4bgn92rcd13ifvqbvg","pricing_plan_id":"cebpf4jnsgd1na2vs0mg"},{"bike_id":"a1f83bf3-eed6-45ed-a98a-d29a1a4fe512","system_id":"levelo_inurba_marseille","lat":43.29958,"lon":5.41315,"is_reserved":false,"is_disabled":false,"rental_uris":{"android":"levelo://app?vid=a1f83bf3-eed6-45ed-a98a-d29a1a4fe512","ios":"levelo://app?vid=a1f83bf3-eed6-45ed-a98a-d29a1a4fe512"},"vehicle_type_id":"4","last_reported":1730210920,"current_range_meters":28400,"station_id":"ce4bhp12rcd13ifvqh9g","pricing_plan_id":"cebpf4jnsgd1na2vs0mg"},{"bike_id":"6c5c2d65-9bb4-4292-a94e-19dacaca1c03","system_id":"levelo_inurba_marseille","lat":43.29896,"lon":5.43666,"is_reserved":false,"is_disabled":false,"rental_uris":{"android":"levelo://app?vid=6c5c2d65-9bb4-4292-a94e-19dacaca1c03","ios":"levelo://app?vid=6c5c2d65-9bb4-4292-a94e-19dacaca1c03"},"vehicle_type_id":"4","last_reported":1730210920,"current_range_meters":38800,"station_id":"ce4bhpp2rcd13ifvqhfg","pricing_plan_id":"cebpf4jnsgd1na2vs0mg"},{"bike_id":"8dc45790-f1cd-4e6c-992f-5876bb4584e0","system_id":"levelo_inurba_marseille","lat":43.26778,"lon":5.3942,"is_reserved":false,"is_disabled":false,"rental_uris":{"android":"levelo://app?vid=8dc45790-f1cd-4e6c-992f-5876bb4584e0","ios":"levelo://app?vid=8dc45790-f1cd-4e6c-992f-5876bb4584e0"},"vehicle_type_id":"4","last_reported":1730210920,"current_range_meters":38000,"station_id":"ce4bhh12rcd13ifvqfg0","pricing_plan_id":"cebpf4jnsgd1na2vs0mg"},{"bike_id":"23d4c90d-1d1a-4da2-889e-c33aace8fa22","system_id":"levelo_inurba_marseille","lat":43.31493,"lon":5.37314,"is_reserved":false,"is_disabled":false,"rental_uris":{"android":"levelo://app?vid=23d4c90d-1d1a-4da2-889e-c33aace8fa22","ios":"levelo://app?vid=23d4c90d-1d1a-4da2-889e-c33aace8fa22"},"vehicle_type_id":"4","last_reported":1730210920,"current_range_meters":17600,"station_id":"ce4bgt12rcd13ifvqcd0","pricing_plan_id":"cebpf4jnsgd1na2vs0mg"},{"bike_id":"abd96c42-999e-41f3-97ab-2a8d6f7a96ce","system_id":"levelo_inurba_marseille","lat":43.28466,"lon":5.38561,"is_reserved":false,"is_disabled":false,"rental_uris":{"android":"levelo://app?vid=abd96c42-999e-41f3-97ab-2a8d6f7a96ce","ios":"levelo://app?vid=abd96c42-999e-41f3-97ab-2a8d6f7a96ce"},"vehicle_type_id":"4","last_reported":1730210920,"current_range_meters":25200,"station_id":"ce4bh8p2rcd13ifvqeb0","pricing_plan_id":"cebpf4jnsgd1na2vs0mg"},{"bike_id":"766801a5-7dbd-464a-bc56-398e14b9cf78","system_id":"levelo_inurba_marseille","lat":43.29805,"lon":5.37136,"is_reserved":false,"is_disabled":false,"rental_uris":{"android":"levelo://app?vid=766801a5-7dbd-464a-bc56-398e14b9cf78","ios":"levelo://app?vid=766801a5-7dbd-464a-bc56-398e14b9cf78"},"vehicle_type_id":"4","last_reported":1730210920,"current_range_meters":10800,"station_id":"","pricing_plan_id":"cebpf4jnsgd1na2vs0mg"},{"bike_id":"afc8a59e-718c-432c-b226-d6be0903e5fb","system_id":"levelo_inurba_marseille","lat":43.24392,"lon":5.3706,"is_reserved":false,"is_disabled":false,"rental_uris":{"android":"levelo://app?vid=afc8a59e-718c-432c-b226-d6be0903e5fb","ios":"levelo://app?vid=afc8a59e-718c-432c-b226-d6be0903e5fb"},"vehicle_type_id":"4","last_reported":1730210920,"current_range_meters":37600,"station_id":"ce4bhhh2rcd13ifvqfk0","pricing_plan_id":"cebpf4jnsgd1na2vs0mg"},{"bike_id":"0564197b-791d-4046-8188-3ce4682f35cb","system_id":"levelo_inurba_marseille","lat":43.2826,"lon":5.35061,"is_reserved":false,"is_disabled":false,"rental_uris":{"android":"levelo://app?vid=0564197b-791d-4046-8188-3ce4682f35cb","ios":"levelo://app?vid=0564197b-791d-4046-8188-3ce4682f35cb"},"vehicle_type_id":"4","last_reported":1730210920,"current_range_meters":4000,"station_id":"ce4bhbp2rcd13ifvqerg","pricing_plan_id":"cebpf4jnsgd1na2vs0mg"},{"bike_id":"91c8268a-a0ca-4ef2-94e2-d39bf3d78173","system_id":"levelo_inurba_marseille","lat":43.284058,"lon":5.375175,"is_reserved":false,"is_disabled":false,"rental_uris":{"android":"levelo://app?vid=91c8268a-a0ca-4ef2-94e2-d39bf3d78173","ios":"levelo://app?vid=91c8268a-a0ca-4ef2-94e2-d39bf3d78173"},"vehicle_type_id":"4","last_reported":1730210920,"current_range_meters":8000,"station_id":"ce4bh412rcd13ifvqds0","pricing_plan_id":"cebpf4jnsgd1na2vs0mg"},{"bike_id":"4f42ae93-ebcd-465c-90e8-f8ab43b5d67e","system_id":"levelo_inurba_marseille","lat":43.24079,"lon":5.37749,"is_reserved":false,"is_disabled":false,"rental_uris":{"android":"levelo://app?vid=4f42ae93-ebcd-465c-90e8-f8ab43b5d67e","ios":"levelo://app?vid=4f42ae93-ebcd-465c-90e8-f8ab43b5d67e"},"vehicle_type_id":"4","last_reported":1730210920,"current_range_meters":30400,"station_id":"ce4bhnp2rcd13ifvqgvg","pricing_plan_id":"cebpf4jnsgd1na2vs0mg"},{"bike_id":"4ff9ff98-c9e0-44c4-ba8c-f2ebb3990daa","system_id":"levelo_inurba_marseille","lat":43.32484,"lon":5.36562,"is_reserved":false,"is_disabled":false,"rental_uris":{"android":"levelo://app?vid=4ff9ff98-c9e0-44c4-ba8c-f2ebb3990daa","ios":"levelo://app?vid=4ff9ff98-c9e0-44c4-ba8c-f2ebb3990daa"},"vehicle_type_id":"4","last_reported":1730210920,"current_range_meters":8000,"station_id":"ce4bhs12rcd13ifvqhvg","pricing_plan_id":"cebpf4jnsgd1na2vs0mg"},{"bike_id":"701652a3-98e8-4b48-b460-8cc91e13658a","system_id":"levelo_inurba_marseille","lat":43.30281,"lon":5.37709,"is_reserved":false,"is_disabled":false,"rental_uris":{"android":"levelo://app?vid=701652a3-98e8-4b48-b460-8cc91e13658a","ios":"levelo://app?vid=701652a3-98e8-4b48-b460-8cc91e13658a"},"vehicle_type_id":"4","last_reported":1730210920,"current_range_meters":28800,"station_id":"ce4bguh2rcd13ifvqcj0","pricing_plan_id":"cebpf4jnsgd1na2vs0mg"},{"bike_id":"b4b3bc0b-74b8-409f-9ece-3114f5d1fd66","system_id":"levelo_inurba_marseille","lat":43.29889,"lon":5.38897,"is_reserved":false,"is_disabled":false,"rental_uris":{"android":"levelo://app?vid=b4b3bc0b-74b8-409f-9ece-3114f5d1fd66","ios":"levelo://app?vid=b4b3bc0b-74b8-409f-9ece-3114f5d1fd66"},"vehicle_type_id":"4","last_reported":1730210920,"current_range_meters":36000,"station_id":"ce4bh392rcd13ifvqdl0","pricing_plan_id":"cebpf4jnsgd1na2vs0mg"},{"bike_id":"84a34f64-d710-4f7b-8f16-f367a9f930e0","system_id":"levelo_inurba_marseille","lat":43.26065,"lon":5.39393,"is_reserved":false,"is_disabled":false,"rental_uris":{"android":"levelo://app?vid=84a34f64-d710-4f7b-8f16-f367a9f930e0","ios":"levelo://app?vid=84a34f64-d710-4f7b-8f16-f367a9f930e0"},"vehicle_type_id":"4","last_reported":1730210920,"current_range_meters":30000,"station_id":"ce4bhh92rcd13ifvqfj0","pricing_plan_id":"cebpf4jnsgd1na2vs0mg"},{"bike_id":"3fc1ba2c-846b-4f4c-b167-b0f019e6b69b","system_id":"levelo_inurba_marseille","lat":43.29167,"lon":5.37162,"is_reserved":false,"is_disabled":false,"rental_uris":{"android":"levelo://app?vid=3fc1ba2c-846b-4f4c-b167-b0f019e6b69b","ios":"levelo://app?vid=3fc1ba2c-846b-4f4c-b167-b0f019e6b69b"},"vehicle_type_id":"4","last_reported":1730210920,"current_range_meters":38800,"station_id":"ce4bha92rcd13ifvqeh0","pricing_plan_id":"cebpf4jnsgd1na2vs0mg"},{"bike_id":"75cb1cc6-d5d2-4dcd-ae25-28283e0b065b","system_id":"levelo_inurba_marseille","lat":43.29603,"lon":5.37708,"is_reserved":false,"is_disabled":false,"rental_uris":{"android":"levelo://app?vid=75cb1cc6-d5d2-4dcd-ae25-28283e0b065b","ios":"levelo://app?vid=75cb1cc6-d5d2-4dcd-ae25-28283e0b065b"},"vehicle_type_id":"4","last_reported":1730210920,"current_range_meters":18800,"station_id":"ce4bgi92rcd13ifvqb90","pricing_plan_id":"cebpf4jnsgd1na2vs0mg"},{"bike_id":"0cf98f82-d723-46b9-abff-bfb8fb1ee7c6","system_id":"levelo_inurba_marseille","lat":43.27916,"lon":5.39579,"is_reserved":false,"is_disabled":false,"rental_uris":{"android":"levelo://app?vid=0cf98f82-d723-46b9-abff-bfb8fb1ee7c6","ios":"levelo://app?vid=0cf98f82-d723-46b9-abff-bfb8fb1ee7c6"},"vehicle_type_id":"4","last_reported":1730210920,"current_range_meters":12800,"station_id":"ce4bhf92rcd13ifvqf40","pricing_plan_id":"cebpf4jnsgd1na2vs0mg"},{"bike_id":"181bef3f-1485-40bb-83af-377fe61dde0b","system_id":"levelo_inurba_marseille","lat":43.32481,"lon":5.36563,"is_reserved":false,"is_disabled":false,"rental_uris":{"android":"levelo://app?vid=181bef3f-1485-40bb-83af-377fe61dde0b","ios":"levelo://app?vid=181bef3f-1485-40bb-83af-377fe61dde0b"},"vehicle_type_id":"4","last_reported":1730210920,"current_range_meters":28000,"station_id":"ce4bhs12rcd13ifvqhvg","pricing_plan_id":"cebpf4jnsgd1na2vs0mg"},{"bike_id":"42a572ee-4cf3-46b6-b8f0-0a0e16109200","system_id":"levelo_inurba_marseille","lat":43.27208,"lon":5.39185,"is_reserved":false,"is_disabled":false,"rental_uris":{"android":"levelo://app?vid=42a572ee-4cf3-46b6-b8f0-0a0e16109200","ios":"levelo://app?vid=42a572ee-4cf3-46b6-b8f0-0a0e16109200"},"vehicle_type_id":"4","last_reported":1730210920,"current_range_meters":38800,"station_id":"ce4bhhp2rcd13ifvqfm0","pricing_plan_id":"cebpf4jnsgd1na2vs0mg"},{"bike_id":"c7757bea-4296-44dc-b490-1ebf01a3caf0","system_id":"levelo_inurba_marseille","lat":43.32477,"lon":5.3657,"is_reserved":false,"is_disabled":false,"rental_uris":{"android":"levelo://app?vid=c7757bea-4296-44dc-b490-1ebf01a3caf0","ios":"levelo://app?vid=c7757bea-4296-44dc-b490-1ebf01a3caf0"},"vehicle_type_id":"4","last_reported":1730210920,"current_range_meters":35200,"station_id":"ce4bhs12rcd13ifvqhvg","pricing_plan_id":"cebpf4jnsgd1na2vs0mg"},{"bike_id":"82938b73-db78-491a-8e6b-de7ae6d59fe5","system_id":"levelo_inurba_marseille","lat":43.33751,"lon":5.37451,"is_reserved":false,"is_disabled":false,"rental_uris":{"android":"levelo://app?vid=82938b73-db78-491a-8e6b-de7ae6d59fe5","ios":"levelo://app?vid=82938b73-db78-491a-8e6b-de7ae6d59fe5"},"vehicle_type_id":"4","last_reported":1730210920,"current_range_meters":36400,"station_id":"","pricing_plan_id":"cebpf4jnsgd1na2vs0mg"},{"bike_id":"9849ea7b-4c4d-4e7c-9589-e7fd87a12308","system_id":"levelo_inurba_marseille","lat":43.2694,"lon":5.40251,"is_reserved":false,"is_disabled":false,"rental_uris":{"android":"levelo://app?vid=9849ea7b-4c4d-4e7c-9589-e7fd87a12308","ios":"levelo://app?vid=9849ea7b-4c4d-4e7c-9589-e7fd87a12308"},"vehicle_type_id":"4","last_reported":1730210920,"current_range_meters":8400,"station_id":"cjm6bp8fraef2m0cb0m0","pricing_plan_id":"cebpf4jnsgd1na2vs0mg"},{"bike_id":"6950f461-348d-4d8b-924e-796dff108d67","system_id":"levelo_inurba_marseille","lat":43.27062,"lon":5.40258,"is_reserved":false,"is_disabled":false,"rental_uris":{"android":"levelo://app?vid=6950f461-348d-4d8b-924e-796dff108d67","ios":"levelo://app?vid=6950f461-348d-4d8b-924e-796dff108d67"},"vehicle_type_id":"4","last_reported":1730210920,"current_range_meters":15200,"station_id":"ce4bhk92rcd13ifvqgc0","pricing_plan_id":"cebpf4jnsgd1na2vs0mg"},{"bike_id":"19571e7e-e7ac-4aa1-b20b-ebd9dd67ba15","system_id":"levelo_inurba_marseille","lat":43.2958,"lon":5.36746,"is_reserved":false,"is_disabled":false,"rental_uris":{"android":"levelo://app?vid=19571e7e-e7ac-4aa1-b20b-ebd9dd67ba15","ios":"levelo://app?vid=19571e7e-e7ac-4aa1-b20b-ebd9dd67ba15"},"vehicle_type_id":"4","last_reported":1730210920,"current_range_meters":18800,"station_id":"ce4bgph2rcd13ifvqc2g","pricing_plan_id":"cebpf4jnsgd1na2vs0mg"},{"bike_id":"a06aaa3a-469c-4c08-9a71-0d7e5c362262","system_id":"levelo_inurba_marseille","lat":43.33715,"lon":5.39181,"is_reserved":false,"is_disabled":false,"rental_uris":{"android":"levelo://app?vid=a06aaa3a-469c-4c08-9a71-0d7e5c362262","ios":"levelo://app?vid=a06aaa3a-469c-4c08-9a71-0d7e5c362262"},"vehicle_type_id":"4","last_reported":1730210920,"current_range_meters":32000,"station_id":"ce4bhr92rcd13ifvqhsg","pricing_plan_id":"cebpf4jnsgd1na2vs0mg"},{"bike_id":"ce540e81-7361-4047-bbd5-3a85b0972108","system_id":"levelo_inurba_marseille","lat":43.27371,"lon":5.36258,"is_reserved":false,"is_disabled":false,"rental_uris":{"android":"levelo://app?vid=ce540e81-7361-4047-bbd5-3a85b0972108","ios":"levelo://app?vid=ce540e81-7361-4047-bbd5-3a85b0972108"},"vehicle_type_id":"4","last_reported":1730210920,"current_range_meters":10800,"station_id":"ce4bhbh2rcd13ifvqeo0","pricing_plan_id":"cebpf4jnsgd1na2vs0mg"},{"bike_id":"2a1108cc-c9a1-43a8-b7c9-9dbd6de6f771","system_id":"levelo_inurba_marseille","lat":43.2842,"lon":5.34979,"is_reserved":false,"is_disabled":false,"rental_uris":{"android":"levelo://app?vid=2a1108cc-c9a1-43a8-b7c9-9dbd6de6f771","ios":"levelo://app?vid=2a1108cc-c9a1-43a8-b7c9-9dbd6de6f771"},"vehicle_type_id":"4","last_reported":1730210920,"current_range_meters":36800,"station_id":"ce4bhbh2rcd13ifvqepg","pricing_plan_id":"cebpf4jnsgd1na2vs0mg"},{"bike_id":"d5c33c2a-e98a-4d53-95a8-526daefb5965","system_id":"levelo_inurba_marseille","lat":43.25938,"lon":5.40905,"is_reserved":false,"is_disabled":false,"rental_uris":{"android":"levelo://app?vid=d5c33c2a-e98a-4d53-95a8-526daefb5965","ios":"levelo://app?vid=d5c33c2a-e98a-4d53-95a8-526daefb5965"},"vehicle_type_id":"4","last_reported":1730210920,"current_range_meters":24000,"station_id":"ce4bhm92rcd13ifvqglg","pricing_plan_id":"cebpf4jnsgd1na2vs0mg"},{"bike_id":"f6b14166-5cd0-4cb4-84b2-c28ae5c2c613","system_id":"levelo_inurba_marseille","lat":43.2315,"lon":5.43718,"is_reserved":false,"is_disabled":false,"rental_uris":{"android":"levelo://app?vid=f6b14166-5cd0-4cb4-84b2-c28ae5c2c613","ios":"levelo://app?vid=f6b14166-5cd0-4cb4-84b2-c28ae5c2c613"},"vehicle_type_id":"4","last_reported":1730210920,"current_range_meters":39200,"station_id":"ce4bhmp2rcd13ifvqgog","pricing_plan_id":"cebpf4jnsgd1na2vs0mg"},{"bike_id":"58924c0a-c1f8-420b-a3d7-4d0be4c0640f","system_id":"levelo_inurba_marseille","lat":43.29715,"lon":5.37711,"is_reserved":false,"is_disabled":false,"rental_uris":{"android":"levelo://app?vid=58924c0a-c1f8-420b-a3d7-4d0be4c0640f","ios":"levelo://app?vid=58924c0a-c1f8-420b-a3d7-4d0be4c0640f"},"vehicle_type_id":"4","last_reported":1730210920,"current_range_meters":27600,"station_id":"ce4bgkh2rcd13ifvqbl0","pricing_plan_id":"cebpf4jnsgd1na2vs0mg"},{"bike_id":"a404248e-6987-4d99-b20a-9cc9dfe309cc","system_id":"levelo_inurba_marseille","lat":43.24075,"lon":5.37756,"is_reserved":false,"is_disabled":false,"rental_uris":{"android":"levelo://app?vid=a404248e-6987-4d99-b20a-9cc9dfe309cc","ios":"levelo://app?vid=a404248e-6987-4d99-b20a-9cc9dfe309cc"},"vehicle_type_id":"4","last_reported":1730210920,"current_range_meters":10000,"station_id":"ce4bhnp2rcd13ifvqgvg","pricing_plan_id":"cebpf4jnsgd1na2vs0mg"},{"bike_id":"3a34f523-fd33-4017-abfc-c0136c191a3d","system_id":"levelo_inurba_marseille","lat":43.30592,"lon":5.39363,"is_reserved":false,"is_disabled":false,"rental_uris":{"android":"levelo://app?vid=3a34f523-fd33-4017-abfc-c0136c191a3d","ios":"levelo://app?vid=3a34f523-fd33-4017-abfc-c0136c191a3d"},"vehicle_type_id":"4","last_reported":1730210920,"current_range_meters":27200,"station_id":"ce4bh0p2rcd13ifvqd80","pricing_plan_id":"cebpf4jnsgd1na2vs0mg"},{"bike_id":"0cd26747-29ac-4cb4-9c90-4d17125f6f67","system_id":"levelo_inurba_marseille","lat":43.3053,"lon":5.38431,"is_reserved":false,"is_disabled":false,"rental_uris":{"android":"levelo://app?vid=0cd26747-29ac-4cb4-9c90-4d17125f6f67","ios":"levelo://app?vid=0cd26747-29ac-4cb4-9c90-4d17125f6f67"},"vehicle_type_id":"4","last_reported":1730210920,"current_range_meters":27200,"station_id":"ce4bgg92rcd13ifvqb30","pricing_plan_id":"cebpf4jnsgd1na2vs0mg"},{"bike_id":"df6183f9-1193-4065-b594-67efe096c432","system_id":"levelo_inurba_marseille","lat":43.23963,"lon":5.36634,"is_reserved":false,"is_disabled":false,"rental_uris":{"android":"levelo://app?vid=df6183f9-1193-4065-b594-67efe096c432","ios":"levelo://app?vid=df6183f9-1193-4065-b594-67efe096c432"},"vehicle_type_id":"4","last_reported":1730210920,"current_range_meters":38000,"station_id":"ce4bhi12rcd13ifvqfp0","pricing_plan_id":"cebpf4jnsgd1na2vs0mg"},{"bike_id":"9e2f6203-1213-4734-a274-b602ba87aa46","system_id":"levelo_inurba_marseille","lat":43.32656,"lon":5.40999,"is_reserved":false,"is_disabled":false,"rental_uris":{"android":"levelo://app?vid=9e2f6203-1213-4734-a274-b602ba87aa46","ios":"levelo://app?vid=9e2f6203-1213-4734-a274-b602ba87aa46"},"vehicle_type_id":"4","last_reported":1730210920,"current_range_meters":27600,"station_id":"ce4bhpp2rcd13ifvqhgg","pricing_plan_id":"cebpf4jnsgd1na2vs0mg"},{"bike_id":"5b0caea7-b0e5-4da2-a359-403550b56cfa","system_id":"levelo_inurba_marseille","lat":43.24165,"lon":5.36399,"is_reserved":false,"is_disabled":false,"rental_uris":{"android":"levelo://app?vid=5b0caea7-b0e5-4da2-a359-403550b56cfa","ios":"levelo://app?vid=5b0caea7-b0e5-4da2-a359-403550b56cfa"},"vehicle_type_id":"4","last_reported":1730210920,"current_range_meters":28000,"station_id":"cpo36qri1sfpv3e86is0","pricing_plan_id":"cebpf4jnsgd1na2vs0mg"},{"bike_id":"8cebbd3b-c409-482d-995a-e50323e46a38","system_id":"levelo_inurba_marseille","lat":43.23146,"lon":5.43724,"is_reserved":false,"is_disabled":false,"rental_uris":{"android":"levelo://app?vid=8cebbd3b-c409-482d-995a-e50323e46a38","ios":"levelo://app?vid=8cebbd3b-c409-482d-995a-e50323e46a38"},"vehicle_type_id":"4","last_reported":1730210920,"current_range_meters":22400,"station_id":"ce4bhmp2rcd13ifvqgog","pricing_plan_id":"cebpf4jnsgd1na2vs0mg"},{"bike_id":"ec3df831-6e1d-470b-aef9-d81f7e39cdc3","system_id":"levelo_inurba_marseille","lat":43.29007,"lon":5.35614,"is_reserved":false,"is_disabled":false,"rental_uris":{"android":"levelo://app?vid=ec3df831-6e1d-470b-aef9-d81f7e39cdc3","ios":"levelo://app?vid=ec3df831-6e1d-470b-aef9-d81f7e39cdc3"},"vehicle_type_id":"4","last_reported":1730210920,"current_range_meters":18000,"station_id":"ce4bhb92rcd13ifvqen0","pricing_plan_id":"cebpf4jnsgd1na2vs0mg"},{"bike_id":"50e03f8d-f15b-4b74-be1f-7a714435fb83","system_id":"levelo_inurba_marseille","lat":43.31353,"lon":5.36718,"is_reserved":false,"is_disabled":false,"rental_uris":{"android":"levelo://app?vid=50e03f8d-f15b-4b74-be1f-7a714435fb83","ios":"levelo://app?vid=50e03f8d-f15b-4b74-be1f-7a714435fb83"},"vehicle_type_id":"4","last_reported":1730210920,"current_range_meters":33200,"station_id":"ce4bgr92rcd13ifvqc6g","pricing_plan_id":"cebpf4jnsgd1na2vs0mg"},{"bike_id":"f9753b62-4435-4c45-975a-33f5e46f6316","system_id":"levelo_inurba_marseille","lat":43.27831,"lon":5.39213,"is_reserved":false,"is_disabled":false,"rental_uris":{"android":"levelo://app?vid=f9753b62-4435-4c45-975a-33f5e46f6316","ios":"levelo://app?vid=f9753b62-4435-4c45-975a-33f5e46f6316"},"vehicle_type_id":"4","last_reported":1730210920,"current_range_meters":25200,"station_id":"ce4bhjp2rcd13ifvqga0","pricing_plan_id":"cebpf4jnsgd1na2vs0mg"},{"bike_id":"827677f8-aa8c-4588-b0d3-0f610519f80a","system_id":"levelo_inurba_marseille","lat":43.29359,"lon":5.37837,"is_reserved":false,"is_disabled":false,"rental_uris":{"android":"levelo://app?vid=827677f8-aa8c-4588-b0d3-0f610519f80a","ios":"levelo://app?vid=827677f8-aa8c-4588-b0d3-0f610519f80a"},"vehicle_type_id":"4","last_reported":1730210920,"current_range_meters":26000,"station_id":"ce4bgjh2rcd13ifvqbf0","pricing_plan_id":"cebpf4jnsgd1na2vs0mg"},{"bike_id":"889b21df-fcfd-4fc2-8975-9ed5904bc736","system_id":"levelo_inurba_marseille","lat":43.30528,"lon":5.36694,"is_reserved":false,"is_disabled":false,"rental_uris":{"android":"levelo://app?vid=889b21df-fcfd-4fc2-8975-9ed5904bc736","ios":"levelo://app?vid=889b21df-fcfd-4fc2-8975-9ed5904bc736"},"vehicle_type_id":"4","last_reported":1730210920,"current_range_meters":28000,"station_id":"ce4bgrp2rcd13ifvqc9g","pricing_plan_id":"cebpf4jnsgd1na2vs0mg"},{"bike_id":"9f254f08-db72-4bea-857a-10584a7a6082","system_id":"levelo_inurba_marseille","lat":43.26495,"lon":5.39545,"is_reserved":false,"is_disabled":false,"rental_uris":{"android":"levelo://app?vid=9f254f08-db72-4bea-857a-10584a7a6082","ios":"levelo://app?vid=9f254f08-db72-4bea-857a-10584a7a6082"},"vehicle_type_id":"4","last_reported":1730210920,"current_range_meters":37600,"station_id":"ce4bhi12rcd13ifvqfq0","pricing_plan_id":"cebpf4jnsgd1na2vs0mg"},{"bike_id":"6d535ca1-ff3a-40d6-b7f0-6895af51c976","system_id":"levelo_inurba_marseille","lat":43.32285,"lon":5.38274,"is_reserved":false,"is_disabled":false,"rental_uris":{"android":"levelo://app?vid=6d535ca1-ff3a-40d6-b7f0-6895af51c976","ios":"levelo://app?vid=6d535ca1-ff3a-40d6-b7f0-6895af51c976"},"vehicle_type_id":"4","last_reported":1730210920,"current_range_meters":32800,"station_id":"ce4bhr12rcd13ifvqhqg","pricing_plan_id":"cebpf4jnsgd1na2vs0mg"},{"bike_id":"bd1d0c81-a505-473b-97ed-c2b8dcfa3ede","system_id":"levelo_inurba_marseille","lat":43.28423,"lon":5.34986,"is_reserved":false,"is_disabled":false,"rental_uris":{"android":"levelo://app?vid=bd1d0c81-a505-473b-97ed-c2b8dcfa3ede","ios":"levelo://app?vid=bd1d0c81-a505-473b-97ed-c2b8dcfa3ede"},"vehicle_type_id":"4","last_reported":1730210920,"current_range_meters":38800,"station_id":"ce4bhbh2rcd13ifvqepg","pricing_plan_id":"cebpf4jnsgd1na2vs0mg"},{"bike_id":"98d8ad1f-cce5-41a7-9713-584cc85a31c9","system_id":"levelo_inurba_marseille","lat":43.28151,"lon":5.42638,"is_reserved":false,"is_disabled":false,"rental_uris":{"android":"levelo://app?vid=98d8ad1f-cce5-41a7-9713-584cc85a31c9","ios":"levelo://app?vid=98d8ad1f-cce5-41a7-9713-584cc85a31c9"},"vehicle_type_id":"4","last_reported":1730210920,"current_range_meters":38000,"station_id":"ce4bhnh2rcd13ifvqgug","pricing_plan_id":"cebpf4jnsgd1na2vs0mg"},{"bike_id":"16f111de-a79b-40ec-8fb1-b22363ac8a4e","system_id":"levelo_inurba_marseille","lat":43.30146,"lon":5.3808,"is_reserved":false,"is_disabled":false,"rental_uris":{"android":"levelo://app?vid=16f111de-a79b-40ec-8fb1-b22363ac8a4e","ios":"levelo://app?vid=16f111de-a79b-40ec-8fb1-b22363ac8a4e"},"vehicle_type_id":"4","last_reported":1730210920,"current_range_meters":35600,"station_id":"ce4bgjp2rcd13ifvqbh0","pricing_plan_id":"cebpf4jnsgd1na2vs0mg"},{"bike_id":"aec282c3-324d-487a-8850-842dfff52168","system_id":"levelo_inurba_marseille","lat":43.23146,"lon":5.43711,"is_reserved":false,"is_disabled":false,"rental_uris":{"android":"levelo://app?vid=aec282c3-324d-487a-8850-842dfff52168","ios":"levelo://app?vid=aec282c3-324d-487a-8850-842dfff52168"},"vehicle_type_id":"4","last_reported":1730210920,"current_range_meters":24400,"station_id":"ce4bhmp2rcd13ifvqgog","pricing_plan_id":"cebpf4jnsgd1na2vs0mg"},{"bike_id":"5a802b0d-3cc3-4234-92aa-6bf67e1be7b9","system_id":"levelo_inurba_marseille","lat":43.26799,"lon":5.40254,"is_reserved":false,"is_disabled":false,"rental_uris":{"android":"levelo://app?vid=5a802b0d-3cc3-4234-92aa-6bf67e1be7b9","ios":"levelo://app?vid=5a802b0d-3cc3-4234-92aa-6bf67e1be7b9"},"vehicle_type_id":"4","last_reported":1730210920,"current_range_meters":24000,"station_id":"ce501612rcd8frsf0b60","pricing_plan_id":"cebpf4jnsgd1na2vs0mg"},{"bike_id":"71ca1ef6-5725-460f-9bb5-daec8bfd3521","system_id":"levelo_inurba_marseille","lat":43.33024,"lon":5.39037,"is_reserved":false,"is_disabled":false,"rental_uris":{"android":"levelo://app?vid=71ca1ef6-5725-460f-9bb5-daec8bfd3521","ios":"levelo://app?vid=71ca1ef6-5725-460f-9bb5-daec8bfd3521"},"vehicle_type_id":"4","last_reported":1730210920,"current_range_meters":26800,"station_id":"ce4bhr92rcd13ifvqhrg","pricing_plan_id":"cebpf4jnsgd1na2vs0mg"},{"bike_id":"c996a419-5cab-4ef8-a47d-7a90ae3493c3","system_id":"levelo_inurba_marseille","lat":43.29813,"lon":5.37741,"is_reserved":false,"is_disabled":false,"rental_uris":{"android":"levelo://app?vid=c996a419-5cab-4ef8-a47d-7a90ae3493c3","ios":"levelo://app?vid=c996a419-5cab-4ef8-a47d-7a90ae3493c3"},"vehicle_type_id":"4","last_reported":1730210920,"current_range_meters":9600,"station_id":"ce4bh192rcd13ifvqdb0","pricing_plan_id":"cebpf4jnsgd1na2vs0mg"},{"bike_id":"160c3125-d109-49e3-a687-ede78b99dea2","system_id":"levelo_inurba_marseille","lat":43.23193,"lon":5.35543,"is_reserved":false,"is_disabled":false,"rental_uris":{"android":"levelo://app?vid=160c3125-d109-49e3-a687-ede78b99dea2","ios":"levelo://app?vid=160c3125-d109-49e3-a687-ede78b99dea2"},"vehicle_type_id":"4","last_reported":1730210920,"current_range_meters":16800,"station_id":"ce4bhu92rcd13ifvqi70","pricing_plan_id":"cebpf4jnsgd1na2vs0mg"},{"bike_id":"27edc2bb-9c3f-48e5-b1e5-ca1fd7b23862","system_id":"levelo_inurba_marseille","lat":43.2721,"lon":5.39175,"is_reserved":false,"is_disabled":false,"rental_uris":{"android":"levelo://app?vid=27edc2bb-9c3f-48e5-b1e5-ca1fd7b23862","ios":"levelo://app?vid=27edc2bb-9c3f-48e5-b1e5-ca1fd7b23862"},"vehicle_type_id":"4","last_reported":1730210920,"current_range_meters":39200,"station_id":"ce4bhhp2rcd13ifvqfm0","pricing_plan_id":"cebpf4jnsgd1na2vs0mg"},{"bike_id":"7a3f60d6-5589-44b2-bea7-8a929e9b6b4e","system_id":"levelo_inurba_marseille","lat":43.29899,"lon":5.43667,"is_reserved":false,"is_disabled":false,"rental_uris":{"android":"levelo://app?vid=7a3f60d6-5589-44b2-bea7-8a929e9b6b4e","ios":"levelo://app?vid=7a3f60d6-5589-44b2-bea7-8a929e9b6b4e"},"vehicle_type_id":"4","last_reported":1730210920,"current_range_meters":17200,"station_id":"ce4bhpp2rcd13ifvqhfg","pricing_plan_id":"cebpf4jnsgd1na2vs0mg"},{"bike_id":"58c76d7e-ede0-49b4-adb5-3e66ee6972dd","system_id":"levelo_inurba_marseille","lat":43.25937,"lon":5.40893,"is_reserved":false,"is_disabled":false,"rental_uris":{"android":"levelo://app?vid=58c76d7e-ede0-49b4-adb5-3e66ee6972dd","ios":"levelo://app?vid=58c76d7e-ede0-49b4-adb5-3e66ee6972dd"},"vehicle_type_id":"4","last_reported":1730210920,"current_range_meters":28800,"station_id":"ce4bhm92rcd13ifvqglg","pricing_plan_id":"cebpf4jnsgd1na2vs0mg"},{"bike_id":"a2da0a84-5d53-4491-9013-020a20bb2a6a","system_id":"levelo_inurba_marseille","lat":43.27211,"lon":5.39181,"is_reserved":false,"is_disabled":false,"rental_uris":{"android":"levelo://app?vid=a2da0a84-5d53-4491-9013-020a20bb2a6a","ios":"levelo://app?vid=a2da0a84-5d53-4491-9013-020a20bb2a6a"},"vehicle_type_id":"4","last_reported":1730210920,"current_range_meters":24400,"station_id":"ce4bhhp2rcd13ifvqfm0","pricing_plan_id":"cebpf4jnsgd1na2vs0mg"},{"bike_id":"3e3940e9-deee-4cfe-820b-3775e217e316","system_id":"levelo_inurba_marseille","lat":43.30272,"lon":5.37695,"is_reserved":false,"is_disabled":false,"rental_uris":{"android":"levelo://app?vid=3e3940e9-deee-4cfe-820b-3775e217e316","ios":"levelo://app?vid=3e3940e9-deee-4cfe-820b-3775e217e316"},"vehicle_type_id":"4","last_reported":1730210920,"current_range_meters":30400,"station_id":"ce4bguh2rcd13ifvqcj0","pricing_plan_id":"cebpf4jnsgd1na2vs0mg"},{"bike_id":"92fcbc51-0f76-4d28-bf76-87d86ca2c96d","system_id":"levelo_inurba_marseille","lat":43.2962,"lon":5.37155,"is_reserved":false,"is_disabled":false,"rental_uris":{"android":"levelo://app?vid=92fcbc51-0f76-4d28-bf76-87d86ca2c96d","ios":"levelo://app?vid=92fcbc51-0f76-4d28-bf76-87d86ca2c96d"},"vehicle_type_id":"4","last_reported":1730210920,"current_range_meters":38800,"station_id":"ce4bgnh2rcd13ifvqc0g","pricing_plan_id":"cebpf4jnsgd1na2vs0mg"},{"bike_id":"5bea59cc-abcf-4783-9dbe-6095c4a88acd","system_id":"levelo_inurba_marseille","lat":43.27203,"lon":5.39178,"is_reserved":false,"is_disabled":false,"rental_uris":{"android":"levelo://app?vid=5bea59cc-abcf-4783-9dbe-6095c4a88acd","ios":"levelo://app?vid=5bea59cc-abcf-4783-9dbe-6095c4a88acd"},"vehicle_type_id":"4","last_reported":1730210920,"current_range_meters":14400,"station_id":"ce4bhhp2rcd13ifvqfm0","pricing_plan_id":"cebpf4jnsgd1na2vs0mg"},{"bike_id":"65fe9e28-0526-4b4d-8cb6-579b041ed280","system_id":"levelo_inurba_marseille","lat":43.29846,"lon":5.36264,"is_reserved":false,"is_disabled":false,"rental_uris":{"android":"levelo://app?vid=65fe9e28-0526-4b4d-8cb6-579b041ed280","ios":"levelo://app?vid=65fe9e28-0526-4b4d-8cb6-579b041ed280"},"vehicle_type_id":"4","last_reported":1730210920,"current_range_meters":38800,"station_id":"ce4bgpp2rcd13ifvqc3g","pricing_plan_id":"cebpf4jnsgd1na2vs0mg"},{"bike_id":"ee266df2-50e3-45c3-b945-4875218dad91","system_id":"levelo_inurba_marseille","lat":43.27833,"lon":5.3921,"is_reserved":false,"is_disabled":false,"rental_uris":{"android":"levelo://app?vid=ee266df2-50e3-45c3-b945-4875218dad91","ios":"levelo://app?vid=ee266df2-50e3-45c3-b945-4875218dad91"},"vehicle_type_id":"4","last_reported":1730210920,"current_range_meters":30800,"station_id":"ce4bhjp2rcd13ifvqga0","pricing_plan_id":"cebpf4jnsgd1na2vs0mg"},{"bike_id":"10bc2545-cad2-43d1-b3cc-6a56d2b134c2","system_id":"levelo_inurba_marseille","lat":43.28669,"lon":5.38675,"is_reserved":false,"is_disabled":false,"rental_uris":{"android":"levelo://app?vid=10bc2545-cad2-43d1-b3cc-6a56d2b134c2","ios":"levelo://app?vid=10bc2545-cad2-43d1-b3cc-6a56d2b134c2"},"vehicle_type_id":"4","last_reported":1730210920,"current_range_meters":13600,"station_id":"ce4bh492rcd13ifvqdug","pricing_plan_id":"cebpf4jnsgd1na2vs0mg"},{"bike_id":"f4f3782c-df46-4eb5-95d0-c9d684c4f9b7","system_id":"levelo_inurba_marseille","lat":43.27995,"lon":5.40016,"is_reserved":false,"is_disabled":false,"rental_uris":{"android":"levelo://app?vid=f4f3782c-df46-4eb5-95d0-c9d684c4f9b7","ios":"levelo://app?vid=f4f3782c-df46-4eb5-95d0-c9d684c4f9b7"},"vehicle_type_id":"4","last_reported":1730210920,"current_range_meters":36800,"station_id":"ce4bho92rcd13ifvqh4g","pricing_plan_id":"cebpf4jnsgd1na2vs0mg"},{"bike_id":"236b6802-9c55-4b02-ac01-96d90f0ba14e","system_id":"levelo_inurba_marseille","lat":43.26803,"lon":5.4027,"is_reserved":false,"is_disabled":false,"rental_uris":{"android":"levelo://app?vid=236b6802-9c55-4b02-ac01-96d90f0ba14e","ios":"levelo://app?vid=236b6802-9c55-4b02-ac01-96d90f0ba14e"},"vehicle_type_id":"4","last_reported":1730210920,"current_range_meters":36400,"station_id":"ce501612rcd8frsf0b60","pricing_plan_id":"cebpf4jnsgd1na2vs0mg"},{"bike_id":"d3e057b4-c7c0-455e-918e-6a5b577f9496","system_id":"levelo_inurba_marseille","lat":43.24388,"lon":5.3706,"is_reserved":false,"is_disabled":false,"rental_uris":{"android":"levelo://app?vid=d3e057b4-c7c0-455e-918e-6a5b577f9496","ios":"levelo://app?vid=d3e057b4-c7c0-455e-918e-6a5b577f9496"},"vehicle_type_id":"4","last_reported":1730210920,"current_range_meters":18000,"station_id":"ce4bhhh2rcd13ifvqfk0","pricing_plan_id":"cebpf4jnsgd1na2vs0mg"},{"bike_id":"2234cf29-4f85-494d-828d-28b9e7ad84f4","system_id":"levelo_inurba_marseille","lat":43.30471,"lon":5.37903,"is_reserved":false,"is_disabled":false,"rental_uris":{"android":"levelo://app?vid=2234cf29-4f85-494d-828d-28b9e7ad84f4","ios":"levelo://app?vid=2234cf29-4f85-494d-828d-28b9e7ad84f4"},"vehicle_type_id":"4","last_reported":1730210920,"current_range_meters":39200,"station_id":"ce4bgup2rcd13ifvqcn0","pricing_plan_id":"cebpf4jnsgd1na2vs0mg"},{"bike_id":"7d7d7671-25c9-4d48-a159-a18ef62856bc","system_id":"levelo_inurba_marseille","lat":43.30216,"lon":5.39469,"is_reserved":false,"is_disabled":false,"rental_uris":{"android":"levelo://app?vid=7d7d7671-25c9-4d48-a159-a18ef62856bc","ios":"levelo://app?vid=7d7d7671-25c9-4d48-a159-a18ef62856bc"},"vehicle_type_id":"4","last_reported":1730210920,"current_range_meters":38000,"station_id":"ce4bh0p2rcd13ifvqd70","pricing_plan_id":"cebpf4jnsgd1na2vs0mg"},{"bike_id":"a2607a3b-7f87-4d3d-9011-392592e05208","system_id":"levelo_inurba_marseille","lat":43.29613,"lon":5.37159,"is_reserved":false,"is_disabled":false,"rental_uris":{"android":"levelo://app?vid=a2607a3b-7f87-4d3d-9011-392592e05208","ios":"levelo://app?vid=a2607a3b-7f87-4d3d-9011-392592e05208"},"vehicle_type_id":"4","last_reported":1730210920,"current_range_meters":36000,"station_id":"ce4bgnh2rcd13ifvqc0g","pricing_plan_id":"cebpf4jnsgd1na2vs0mg"},{"bike_id":"e24765a5-e631-4950-85a7-d50d4da7738d","system_id":"levelo_inurba_marseille","lat":43.24269,"lon":5.36818,"is_reserved":false,"is_disabled":false,"rental_uris":{"android":"levelo://app?vid=e24765a5-e631-4950-85a7-d50d4da7738d","ios":"levelo://app?vid=e24765a5-e631-4950-85a7-d50d4da7738d"},"vehicle_type_id":"4","last_reported":1730210920,"current_range_meters":8400,"station_id":"cpo3532slgdg3j2ikp40","pricing_plan_id":"cebpf4jnsgd1na2vs0mg"},{"bike_id":"4cf55402-2c59-4fb9-b918-792de268859d","system_id":"levelo_inurba_marseille","lat":43.297,"lon":5.37754,"is_reserved":false,"is_disabled":false,"rental_uris":{"android":"levelo://app?vid=4cf55402-2c59-4fb9-b918-792de268859d","ios":"levelo://app?vid=4cf55402-2c59-4fb9-b918-792de268859d"},"vehicle_type_id":"4","last_reported":1730210920,"current_range_meters":20000,"station_id":"ce4bhap2rcd13ifvqek0","pricing_plan_id":"cebpf4jnsgd1na2vs0mg"},{"bike_id":"de5d3061-81fa-4f0a-a5c2-58da8bcb124e","system_id":"levelo_inurba_marseille","lat":43.2656,"lon":5.37281,"is_reserved":false,"is_disabled":false,"rental_uris":{"android":"levelo://app?vid=de5d3061-81fa-4f0a-a5c2-58da8bcb124e","ios":"levelo://app?vid=de5d3061-81fa-4f0a-a5c2-58da8bcb124e"},"vehicle_type_id":"4","last_reported":1730210920,"current_range_meters":30000,"station_id":"ce4bhg12rcd13ifvqf70","pricing_plan_id":"cebpf4jnsgd1na2vs0mg"},{"bike_id":"90510ecb-e5e7-483b-b1f9-81eefd48ae03","system_id":"levelo_inurba_marseille","lat":43.29689,"lon":5.36594,"is_reserved":false,"is_disabled":false,"rental_uris":{"android":"levelo://app?vid=90510ecb-e5e7-483b-b1f9-81eefd48ae03","ios":"levelo://app?vid=90510ecb-e5e7-483b-b1f9-81eefd48ae03"},"vehicle_type_id":"4","last_reported":1730210920,"current_range_meters":28000,"station_id":"ce4bgn12rcd13ifvqbt0","pricing_plan_id":"cebpf4jnsgd1na2vs0mg"},{"bike_id":"4424f7a5-be0a-4f9f-a25b-867d6291f2c1","system_id":"levelo_inurba_marseille","lat":43.2857,"lon":5.39499,"is_reserved":false,"is_disabled":false,"rental_uris":{"android":"levelo://app?vid=4424f7a5-be0a-4f9f-a25b-867d6291f2c1","ios":"levelo://app?vid=4424f7a5-be0a-4f9f-a25b-867d6291f2c1"},"vehicle_type_id":"4","last_reported":1730210920,"current_range_meters":20000,"station_id":"ce4bh292rcd13ifvqdg0","pricing_plan_id":"cebpf4jnsgd1na2vs0mg"},{"bike_id":"4ea48b03-e1a0-4ceb-9b62-d6b948a876b8","system_id":"levelo_inurba_marseille","lat":43.28424,"lon":5.34994,"is_reserved":false,"is_disabled":false,"rental_uris":{"android":"levelo://app?vid=4ea48b03-e1a0-4ceb-9b62-d6b948a876b8","ios":"levelo://app?vid=4ea48b03-e1a0-4ceb-9b62-d6b948a876b8"},"vehicle_type_id":"4","last_reported":1730210920,"current_range_meters":27600,"station_id":"ce4bhbh2rcd13ifvqepg","pricing_plan_id":"cebpf4jnsgd1na2vs0mg"},{"bike_id":"990ebcc9-fc93-4989-877a-955daacbb11e","system_id":"levelo_inurba_marseille","lat":43.31266,"lon":5.40174,"is_reserved":false,"is_disabled":false,"rental_uris":{"android":"levelo://app?vid=990ebcc9-fc93-4989-877a-955daacbb11e","ios":"levelo://app?vid=990ebcc9-fc93-4989-877a-955daacbb11e"},"vehicle_type_id":"4","last_reported":1730210920,"current_range_meters":9600,"station_id":"ce4bh092rcd13ifvqd30","pricing_plan_id":"cebpf4jnsgd1na2vs0mg"},{"bike_id":"65910cd3-cb4c-48c8-9f4c-1ca1f2116d82","system_id":"levelo_inurba_marseille","lat":43.29935,"lon":5.36543,"is_reserved":false,"is_disabled":false,"rental_uris":{"android":"levelo://app?vid=65910cd3-cb4c-48c8-9f4c-1ca1f2116d82","ios":"levelo://app?vid=65910cd3-cb4c-48c8-9f4c-1ca1f2116d82"},"vehicle_type_id":"4","last_reported":1730210920,"current_range_meters":32800,"station_id":"ce4bgm92rcd13ifvqbr0","pricing_plan_id":"cebpf4jnsgd1na2vs0mg"},{"bike_id":"2fda6181-03f5-40ed-b158-4bcd6908625f","system_id":"levelo_inurba_marseille","lat":43.31675,"lon":5.43558,"is_reserved":false,"is_disabled":false,"rental_uris":{"android":"levelo://app?vid=2fda6181-03f5-40ed-b158-4bcd6908625f","ios":"levelo://app?vid=2fda6181-03f5-40ed-b158-4bcd6908625f"},"vehicle_type_id":"4","last_reported":1730210920,"current_range_meters":24000,"station_id":"","pricing_plan_id":"cebpf4jnsgd1na2vs0mg"},{"bike_id":"44cd9cf6-a34d-4cc0-b49d-7b380604d16f","system_id":"levelo_inurba_marseille","lat":43.30127,"lon":5.3986,"is_reserved":false,"is_disabled":false,"rental_uris":{"android":"levelo://app?vid=44cd9cf6-a34d-4cc0-b49d-7b380604d16f","ios":"levelo://app?vid=44cd9cf6-a34d-4cc0-b49d-7b380604d16f"},"vehicle_type_id":"4","last_reported":1730210920,"current_range_meters":34000,"station_id":"ce4bh0h2rcd13ifvqd40","pricing_plan_id":"cebpf4jnsgd1na2vs0mg"},{"bike_id":"42f33d93-d869-423b-8263-d4fe286325ee","system_id":"levelo_inurba_marseille","lat":43.24071,"lon":5.37755,"is_reserved":false,"is_disabled":false,"rental_uris":{"android":"levelo://app?vid=42f33d93-d869-423b-8263-d4fe286325ee","ios":"levelo://app?vid=42f33d93-d869-423b-8263-d4fe286325ee"},"vehicle_type_id":"4","last_reported":1730210920,"current_range_meters":4800,"station_id":"ce4bhnp2rcd13ifvqgvg","pricing_plan_id":"cebpf4jnsgd1na2vs0mg"},{"bike_id":"08fe1ba6-ff20-4387-a37e-f1c9cb573a12","system_id":"levelo_inurba_marseille","lat":43.32104,"lon":5.36774,"is_reserved":false,"is_disabled":false,"rental_uris":{"android":"levelo://app?vid=08fe1ba6-ff20-4387-a37e-f1c9cb573a12","ios":"levelo://app?vid=08fe1ba6-ff20-4387-a37e-f1c9cb573a12"},"vehicle_type_id":"4","last_reported":1730210920,"current_range_meters":30000,"station_id":"ce4bhrh2rcd13ifvqhug","pricing_plan_id":"cebpf4jnsgd1na2vs0mg"},{"bike_id":"2f51a2de-6211-461c-973e-ade122d87f76","system_id":"levelo_inurba_marseille","lat":43.3124,"lon":5.36985,"is_reserved":false,"is_disabled":false,"rental_uris":{"android":"levelo://app?vid=2f51a2de-6211-461c-973e-ade122d87f76","ios":"levelo://app?vid=2f51a2de-6211-461c-973e-ade122d87f76"},"vehicle_type_id":"4","last_reported":1730210920,"current_range_meters":36400,"station_id":"","pricing_plan_id":"cebpf4jnsgd1na2vs0mg"},{"bike_id":"757d3989-cb44-4967-a812-071383f3cd4c","system_id":"levelo_inurba_marseille","lat":43.299077,"lon":5.374758,"is_reserved":false,"is_disabled":false,"rental_uris":{"android":"levelo://app?vid=757d3989-cb44-4967-a812-071383f3cd4c","ios":"levelo://app?vid=757d3989-cb44-4967-a812-071383f3cd4c"},"vehicle_type_id":"4","last_reported":1730210920,"current_range_meters":38800,"station_id":"ce4bgjh2rcd13ifvqbg0","pricing_plan_id":"cebpf4jnsgd1na2vs0mg"},{"bike_id":"0fc203e1-b484-4a56-b81f-05ba0d1760b6","system_id":"levelo_inurba_marseille","lat":43.3123,"lon":5.36862,"is_reserved":false,"is_disabled":false,"rental_uris":{"android":"levelo://app?vid=0fc203e1-b484-4a56-b81f-05ba0d1760b6","ios":"levelo://app?vid=0fc203e1-b484-4a56-b81f-05ba0d1760b6"},"vehicle_type_id":"4","last_reported":1730210920,"current_range_meters":10800,"station_id":"ce4bgl92rcd13ifvqbq0","pricing_plan_id":"cebpf4jnsgd1na2vs0mg"},{"bike_id":"f0ef9769-4678-4dae-b10d-9a5f29e7bd8a","system_id":"levelo_inurba_marseille","lat":43.26926,"lon":5.38912,"is_reserved":false,"is_disabled":false,"rental_uris":{"android":"levelo://app?vid=f0ef9769-4678-4dae-b10d-9a5f29e7bd8a","ios":"levelo://app?vid=f0ef9769-4678-4dae-b10d-9a5f29e7bd8a"},"vehicle_type_id":"4","last_reported":1730210920,"current_range_meters":29600,"station_id":"ce4bhhh2rcd13ifvqfl0","pricing_plan_id":"cebpf4jnsgd1na2vs0mg"},{"bike_id":"74d25184-2b78-4fbb-84d0-fa855a62717b","system_id":"levelo_inurba_marseille","lat":43.3133,"lon":5.39682,"is_reserved":false,"is_disabled":false,"rental_uris":{"android":"levelo://app?vid=74d25184-2b78-4fbb-84d0-fa855a62717b","ios":"levelo://app?vid=74d25184-2b78-4fbb-84d0-fa855a62717b"},"vehicle_type_id":"4","last_reported":1730210920,"current_range_meters":36400,"station_id":"ce4bgvp2rcd13ifvqcu0","pricing_plan_id":"cebpf4jnsgd1na2vs0mg"},{"bike_id":"8fc88485-cf37-4214-89dc-c48e86af7c09","system_id":"levelo_inurba_marseille","lat":43.28941,"lon":5.39626,"is_reserved":false,"is_disabled":false,"rental_uris":{"android":"levelo://app?vid=8fc88485-cf37-4214-89dc-c48e86af7c09","ios":"levelo://app?vid=8fc88485-cf37-4214-89dc-c48e86af7c09"},"vehicle_type_id":"4","last_reported":1730210920,"current_range_meters":10800,"station_id":"ce4bh3h2rcd13ifvqdn0","pricing_plan_id":"cebpf4jnsgd1na2vs0mg"},{"bike_id":"42c5b94d-a6e1-4c0e-b3fa-74ef5f2ef0d2","system_id":"levelo_inurba_marseille","lat":43.23958,"lon":5.36639,"is_reserved":false,"is_disabled":false,"rental_uris":{"android":"levelo://app?vid=42c5b94d-a6e1-4c0e-b3fa-74ef5f2ef0d2","ios":"levelo://app?vid=42c5b94d-a6e1-4c0e-b3fa-74ef5f2ef0d2"},"vehicle_type_id":"4","last_reported":1730210920,"current_range_meters":22000,"station_id":"ce4bhi12rcd13ifvqfp0","pricing_plan_id":"cebpf4jnsgd1na2vs0mg"},{"bike_id":"f7735c4f-23f4-4496-b933-3b1e0b2b8627","system_id":"levelo_inurba_marseille","lat":43.27047,"lon":5.38814,"is_reserved":false,"is_disabled":false,"rental_uris":{"android":"levelo://app?vid=f7735c4f-23f4-4496-b933-3b1e0b2b8627","ios":"levelo://app?vid=f7735c4f-23f4-4496-b933-3b1e0b2b8627"},"vehicle_type_id":"4","last_reported":1730210920,"current_range_meters":8400,"station_id":"","pricing_plan_id":"cebpf4jnsgd1na2vs0mg"},{"bike_id":"5c05b1ca-d5f7-4c21-b56e-5f90337e7f82","system_id":"levelo_inurba_marseille","lat":43.29704,"lon":5.3659,"is_reserved":false,"is_disabled":false,"rental_uris":{"android":"levelo://app?vid=5c05b1ca-d5f7-4c21-b56e-5f90337e7f82","ios":"levelo://app?vid=5c05b1ca-d5f7-4c21-b56e-5f90337e7f82"},"vehicle_type_id":"4","last_reported":1730210920,"current_range_meters":36000,"station_id":"ce4bgn12rcd13ifvqbt0","pricing_plan_id":"cebpf4jnsgd1na2vs0mg"},