{"last_updated":1747712186,"ttl":60,"version":"2.2","data":{"bikes":[{"bike_id":"b4f56d4c-f7f8-4599-b9ea-466ef63e50b3","system_id":"levelo_inurba_marseille","lat":43.305935,"lon":5.372372,"is_reserved":false,"is_disabled":false,"rental_uris":{"android":"levelo://app?vid=b4f56d4c-f7f8-4599-b9ea-466ef63e50b3","ios":"levelo://app?vid=b4f56d4c-f7f8-4599-b9ea-466ef63e50b3"},"vehicle_type_id":"4","last_reported":1747712187,"current_range_meters":2800,"station_id":"ce4bgqh2rcd13ifvqc4g","pricing_plan_id":"cebpf4jnsgd1na2vs0mg"},{"bike_id":"f3b8cdd5-26a7-4bea-a9e4-a32323dd8d3c","system_id":"levelo_inurba_marseille","lat":43.27815,"lon":5.40722,"is_reserved":false,"is_disabled":false,"rental_uris":{"android":"levelo://app?vid=f3b8cdd5-26a7-4bea-a9e4-a32323dd8d3c","ios":"levelo://app?vid=f3b8cdd5-26a7-4bea-a9e4-a32323dd8d3c"},"vehicle_type_id":"4","last_reported":1747712187,"current_range_meters":2800,"station_id":"ce4bhnh2rcd13ifvqgtg","pricing_plan_id":"cebpf4jnsgd1na2vs0mg"},{"bike_id":"c3bc69c8-bebe-484b-9076-d7f1c7fe780c","system_id":"levelo_inurba_marseille","lat":43.24173,"lon":5.3973,"is_reserved":false,"is_disabled":false,"rental_uris":{"android":"levelo://app?vid=c3bc69c8-bebe-484b-9076-d7f1c7fe780c","ios":"levelo://app?vid=c3bc69c8-bebe-484b-9076-d7f1c7fe780c"},"vehicle_type_id":"4","last_reported":1747712187,"current_range_meters":2800,"station_id":"ce4bhn12rcd13ifvqgpg","pricing_plan_id":"cebpf4jnsgd1na2vs0mg"},{"bike_id":"9d2fd260-accb-4169-b46a-79fa91fbece8","system_id":"levelo_inurba_marseille","lat":43.309141,"lon":5.368567,"is_reserved":false,"is_disabled":true,"rental_uris":{"android":"levelo://app?vid=9d2fd260-accb-4169-b46a-79fa91fbece8","ios":"levelo://app?vid=9d2fd260-accb-4169-b46a-79fa91fbece8"},"vehicle_type_id":"4","last_reported":1747712187,"current_range_meters":2800,"station_id":"ce4bgn92rcd13ifvqbvg","pricing_plan_id":"cebpf4jnsgd1na2vs0mg"},{"bike_id":"14603e41-b2dd-4757-a53c-2e366aa4f983","system_id":"levelo_inurba_marseille","lat":43.269955,"lon":5.42824,"is_reserved":false,"is_disabled":false,"rental_uris":{"android":"levelo://app?vid=14603e41-b2dd-4757-a53c-2e366aa4f983","ios":"levelo://app?vid=14603e41-b2dd-4757-a53c-2e366aa4f983"},"vehicle_type_id":"4","last_reported":1747712187,"current_range_meters":2800,"station_id":"","pricing_plan_id":"cebpf4jnsgd1na2vs0mg"},{"bike_id":"2eab994d-a378-4391-894b-b62d11a34041","system_id":"levelo_inurba_marseille","lat":43.23159,"lon":5.4373,"is_reserved":false,"is_disabled":true,"rental_uris":{"android":"levelo://app?vid=2eab994d-a378-4391-894b-b62d11a34041","ios":"levelo://app?vid=2eab994d-a378-4391-894b-b62d11a34041"},"vehicle_type_id":"4","last_reported":1747712187,"current_range_meters":3200,"station_id":"ce4bhmp2rcd13ifvqgog","pricing_plan_id":"cebpf4jnsgd1na2vs0mg"},{"bike_id":"afb6a1c2-854e-4666-ab58-f3fec34dd7a4","system_id":"levelo_inurba_marseille","lat":43.265581,"lon":5.373082,"is_reserved":false,"is_disabled":false,"rental_uris":{"android":"levelo://app?vid=afb6a1c2-854e-4666-ab58-f3fec34dd7a4","ios":"levelo://app?vid=afb6a1c2-854e-4666-ab58-f3fec34dd7a4"},"vehicle_type_id":"4","last_reported":1747712187,"current_range_meters":3600,"station_id":"ce4bhg12rcd13ifvqf70","pricing_plan_id":"cebpf4jnsgd1na2vs0mg"},{"bike_id":"001329da-21fb-4914-83a1-8f2b8ac66828","system_id":"levelo_inurba_marseille","lat":43.31115,"lon":5.37781,"is_reserved":false,"is_disabled":true,"rental_uris":{"android":"levelo://app?vid=001329da-21fb-4914-83a1-8f2b8ac66828","ios":"levelo://app?vid=001329da-21fb-4914-83a1-8f2b8ac66828"},"vehicle_type_id":"4","last_reported":1747712187,"current_range_meters":3600,"station_id":"ce4bgt92rcd13ifvqcg0","pricing_plan_id":"cebpf4jnsgd1na2vs0mg"},{"bike_id":"0eb7f958-813c-4599-a947-cc188a070eb3","system_id":"levelo_inurba_marseille","lat":43.251143,"lon":5.403249,"is_reserved":false,"is_disabled":false,"rental_uris":{"android":"levelo://app?vid=0eb7f958-813c-4599-a947-cc188a070eb3","ios":"levelo://app?vid=0eb7f958-813c-4599-a947-cc188a070eb3"},"vehicle_type_id":"4","last_reported":1747712187,"current_range_meters":4000,"station_id":"ce4bhlh2rcd13ifvqgig","pricing_plan_id":"cebpf4jnsgd1na2vs0mg"},{"bike_id":"1b136d29-9e9c-4723-8b83-b409e818f7bf","system_id":"levelo_inurba_marseille","lat":43.21189,"lon":5.35085,"is_reserved":false,"is_disabled":false,"rental_uris":{"android":"levelo://app?vid=1b136d29-9e9c-4723-8b83-b409e818f7bf","ios":"levelo://app?vid=1b136d29-9e9c-4723-8b83-b409e818f7bf"},"vehicle_type_id":"4","last_reported":1747712187,"current_range_meters":4400,"station_id":"st_cvj6sg6p6f1abm77japg","pricing_plan_id":"cebpf4jnsgd1na2vs0mg"},{"bike_id":"c2abbae2-2df0-4f41-a37b-7dfff83e6e10","system_id":"levelo_inurba_marseille","lat":43.293147,"lon":5.371565,"is_reserved":false,"is_disabled":true,"rental_uris":{"android":"levelo://app?vid=c2abbae2-2df0-4f41-a37b-7dfff83e6e10","ios":"levelo://app?vid=c2abbae2-2df0-4f41-a37b-7dfff83e6e10"},"vehicle_type_id":"4","last_reported":1747712187,"current_range_meters":4400,"station_id":"ce4bgh92rcd13ifvqb40","pricing_plan_id":"cebpf4jnsgd1na2vs0mg"},{"bike_id":"9098acce-4a9e-40d8-ba71-76f7509c9d2b","system_id":"levelo_inurba_marseille","lat":43.265579,"lon":5.372832,"is_reserved":false,"is_disabled":false,"rental_uris":{"android":"levelo://app?vid=9098acce-4a9e-40d8-ba71-76f7509c9d2b","ios":"levelo://app?vid=9098acce-4a9e-40d8-ba71-76f7509c9d2b"},"vehicle_type_id":"4","last_reported":1747712187,"current_range_meters":4400,"station_id":"ce4bhg12rcd13ifvqf70","pricing_plan_id":"cebpf4jnsgd1na2vs0mg"},{"bike_id":"9250ce71-3739-42ad-93fa-af55164b7c3f","system_id":"levelo_inurba_marseille","lat":43.30583,"lon":5.37203,"is_reserved":false,"is_disabled":false,"rental_uris":{"android":"levelo://app?vid=9250ce71-3739-42ad-93fa-af55164b7c3f","ios":"levelo://app?vid=9250ce71-3739-42ad-93fa-af55164b7c3f"},"vehicle_type_id":"4","last_reported":1747712187,"current_range_meters":4400,"station_id":"ce4bgqh2rcd13ifvqc4g","pricing_plan_id":"cebpf4jnsgd1na2vs0mg"},{"bike_id":"a44c52bb-9719-4976-b55f-bff181471d4b","system_id":"levelo_inurba_marseille","lat":43.27055,"lon":5.402793,"is_reserved":false,"is_disabled":false,"rental_uris":{"android":"levelo://app?vid=a44c52bb-9719-4976-b55f-bff181471d4b","ios":"levelo://app?vid=a44c52bb-9719-4976-b55f-bff181471d4b"},"vehicle_type_id":"4","last_reported":1747712187,"current_range_meters":4400,"station_id":"ce4bhk92rcd13ifvqgc0","pricing_plan_id":"cebpf4jnsgd1na2vs0mg"},{"bike_id":"b9e0fde5-77d3-4d2b-95fb-da45d8e7bd62","system_id":"levelo_inurba_marseille","lat":43.251159,"lon":5.403233,"is_reserved":false,"is_disabled":false,"rental_uris":{"android":"levelo://app?vid=b9e0fde5-77d3-4d2b-95fb-da45d8e7bd62","ios":"levelo://app?vid=b9e0fde5-77d3-4d2b-95fb-da45d8e7bd62"},"vehicle_type_id":"4","last_reported":1747712187,"current_range_meters":4400,"station_id":"ce4bhlh2rcd13ifvqgig","pricing_plan_id":"cebpf4jnsgd1na2vs0mg"},{"bike_id":"b549a689-cfc7-4eb6-9417-b317b40e3807","system_id":"levelo_inurba_marseille","lat":43.30252,"lon":5.40032,"is_reserved":false,"is_disabled":false,"rental_uris":{"android":"levelo://app?vid=b549a689-cfc7-4eb6-9417-b317b40e3807","ios":"levelo://app?vid=b549a689-cfc7-4eb6-9417-b317b40e3807"},"vehicle_type_id":"4","last_reported":1747712187,"current_range_meters":4400,"station_id":"ce4bgvh2rcd13ifvqcs0","pricing_plan_id":"cebpf4jnsgd1na2vs0mg"},{"bike_id":"0959ff5e-5955-4215-8723-80a097bacc26","system_id":"levelo_inurba_marseille","lat":43.27831,"lon":5.40753,"is_reserved":false,"is_disabled":false,"rental_uris":{"android":"levelo://app?vid=0959ff5e-5955-4215-8723-80a097bacc26","ios":"levelo://app?vid=0959ff5e-5955-4215-8723-80a097bacc26"},"vehicle_type_id":"4","last_reported":1747712187,"current_range_meters":4800,"station_id":"ce4bhnh2rcd13ifvqgtg","pricing_plan_id":"cebpf4jnsgd1na2vs0mg"},{"bike_id":"f40652e2-30a0-431e-b1f1-4d9fe84a8149","system_id":"levelo_inurba_marseille","lat":43.273744,"lon":5.362607,"is_reserved":false,"is_disabled":true,"rental_uris":{"android":"levelo://app?vid=f40652e2-30a0-431e-b1f1-4d9fe84a8149","ios":"levelo://app?vid=f40652e2-30a0-431e-b1f1-4d9fe84a8149"},"vehicle_type_id":"4","last_reported":1747712187,"current_range_meters":5600,"station_id":"ce4bhbh2rcd13ifvqeo0","pricing_plan_id":"cebpf4jnsgd1na2vs0mg"},{"bike_id":"fefa3ad1-29a6-4d50-af49-b905b6a48898","system_id":"levelo_inurba_marseille","lat":43.281563,"lon":5.426414,"is_reserved":false,"is_disabled":false,"rental_uris":{"android":"levelo://app?vid=fefa3ad1-29a6-4d50-af49-b905b6a48898","ios":"levelo://app?vid=fefa3ad1-29a6-4d50-af49-b905b6a48898"},"vehicle_type_id":"4","last_reported":1747712187,"current_range_meters":5600,"station_id":"ce4bhnh2rcd13ifvqgug","pricing_plan_id":"cebpf4jnsgd1na2vs0mg"},{"bike_id":"0814fc28-7c82-4444-bf57-b7589c01a901","system_id":"levelo_inurba_marseille","lat":43.250016,"lon":5.389374,"is_reserved":false,"is_disabled":false,"rental_uris":{"android":"levelo://app?vid=0814fc28-7c82-4444-bf57-b7589c01a901","ios":"levelo://app?vid=0814fc28-7c82-4444-bf57-b7589c01a901"},"vehicle_type_id":"4","last_reported":1747712187,"current_range_meters":6000,"station_id":"ce4bhgp2rcd13ifvqfd0","pricing_plan_id":"cebpf4jnsgd1na2vs0mg"},{"bike_id":"92a6af25-c13e-41f1-9234-7144ec89b7a9","system_id":"levelo_inurba_marseille","lat":43.23167,"lon":5.39983,"is_reserved":false,"is_disabled":false,"rental_uris":{"android":"levelo://app?vid=92a6af25-c13e-41f1-9234-7144ec89b7a9","ios":"levelo://app?vid=92a6af25-c13e-41f1-9234-7144ec89b7a9"},"vehicle_type_id":"4","last_reported":1747712187,"current_range_meters":6000,"station_id":"ce4bhn12rcd13ifvqgqg","pricing_plan_id":"cebpf4jnsgd1na2vs0mg"},{"bike_id":"e111fb48-6c9b-41ea-aa49-b2df8dd08e29","system_id":"levelo_inurba_marseille","lat":43.268088,"lon":5.402628,"is_reserved":false,"is_disabled":true,"rental_uris":{"android":"levelo://app?vid=e111fb48-6c9b-41ea-aa49-b2df8dd08e29","ios":"levelo://app?vid=e111fb48-6c9b-41ea-aa49-b2df8dd08e29"},"vehicle_type_id":"4","last_reported":1747712187,"current_range_meters":6000,"station_id":"ce501612rcd8frsf0b60","pricing_plan_id":"cebpf4jnsgd1na2vs0mg"},{"bike_id":"f00e4c85-4b74-4b78-914c-e4ecaf8cbdf9","system_id":"levelo_inurba_marseille","lat":43.274984,"lon":5.424578,"is_reserved":false,"is_disabled":false,"rental_uris":{"android":"levelo://app?vid=f00e4c85-4b74-4b78-914c-e4ecaf8cbdf9","ios":"levelo://app?vid=f00e4c85-4b74-4b78-914c-e4ecaf8cbdf9"},"vehicle_type_id":"4","last_reported":1747712187,"current_range_meters":6000,"station_id":"ce4bhn92rcd13ifvqgrg","pricing_plan_id":"cebpf4jnsgd1na2vs0mg"},{"bike_id":"4bcd3c85-985d-4635-8b3f-f52695ad721b","system_id":"levelo_inurba_marseille","lat":43.336006,"lon":5.410243,"is_reserved":false,"is_disabled":false,"rental_uris":{"android":"levelo://app?vid=4bcd3c85-985d-4635-8b3f-f52695ad721b","ios":"levelo://app?vid=4bcd3c85-985d-4635-8b3f-f52695ad721b"},"vehicle_type_id":"4","last_reported":1747712187,"current_range_meters":6400,"station_id":"ce4bhqh2rcd13ifvqhmg","pricing_plan_id":"cebpf4jnsgd1na2vs0mg"},{"bike_id":"9ae48e25-eddd-4760-b976-a176149d9bad","system_id":"levelo_inurba_marseille","lat":43.286965,"lon":5.374045,"is_reserved":false,"is_disabled":true,"rental_uris":{"android":"levelo://app?vid=9ae48e25-eddd-4760-b976-a176149d9bad","ios":"levelo://app?vid=9ae48e25-eddd-4760-b976-a176149d9bad"},"vehicle_type_id":"4","last_reported":1747712187,"current_range_meters":6400,"station_id":"ce4bh3p2rcd13ifvqdq0","pricing_plan_id":"cebpf4jnsgd1na2vs0mg"},{"bike_id":"68b34ffe-9bbd-46e3-8f84-884d479cc97f","system_id":"levelo_inurba_marseille","lat":43.30588,"lon":5.393432,"is_reserved":false,"is_disabled":false,"rental_uris":{"android":"levelo://app?vid=68b34ffe-9bbd-46e3-8f84-884d479cc97f","ios":"levelo://app?vid=68b34ffe-9bbd-46e3-8f84-884d479cc97f"},"vehicle_type_id":"4","last_reported":1747712187,"current_range_meters":6400,"station_id":"ce4bh0p2rcd13ifvqd80","pricing_plan_id":"cebpf4jnsgd1na2vs0mg"},{"bike_id":"76caf76f-35af-4880-9ce7-82b37a8d8974","system_id":"levelo_inurba_marseille","lat":43.29915,"lon":5.36523,"is_reserved":false,"is_disabled":false,"rental_uris":{"android":"levelo://app?vid=76caf76f-35af-4880-9ce7-82b37a8d8974","ios":"levelo://app?vid=76caf76f-35af-4880-9ce7-82b37a8d8974"},"vehicle_type_id":"4","last_reported":1747712187,"current_range_meters":6400,"station_id":"ce4bgm92rcd13ifvqbr0","pricing_plan_id":"cebpf4jnsgd1na2vs0mg"},{"bike_id":"7e57c655-a436-4f6a-b2f3-b4b39d87eb80","system_id":"levelo_inurba_marseille","lat":43.243871,"lon":5.370674,"is_reserved":false,"is_disabled":false,"rental_uris":{"android":"levelo://app?vid=7e57c655-a436-4f6a-b2f3-b4b39d87eb80","ios":"levelo://app?vid=7e57c655-a436-4f6a-b2f3-b4b39d87eb80"},"vehicle_type_id":"4","last_reported":1747712187,"current_range_meters":6400,"station_id":"ce4bhhh2rcd13ifvqfk0","pricing_plan_id":"cebpf4jnsgd1na2vs0mg"},{"bike_id":"9ca139b4-aea4-45bd-ba34-3886dcd82266","system_id":"levelo_inurba_marseille","lat":43.292571,"lon":5.409165,"is_reserved":false,"is_disabled":false,"rental_uris":{"android":"levelo://app?vid=9ca139b4-aea4-45bd-ba34-3886dcd82266","ios":"levelo://app?vid=9ca139b4-aea4-45bd-ba34-3886dcd82266"},"vehicle_type_id":"4","last_reported":1747712187,"current_range_meters":6400,"station_id":"ce4bh192rcd13ifvqdc0","pricing_plan_id":"cebpf4jnsgd1na2vs0mg"},{"bike_id":"9e19f469-85ed-4588-aee0-093b8e855259","system_id":"levelo_inurba_marseille","lat":43.28397,"lon":5.37512,"is_reserved":false,"is_disabled":false,"rental_uris":{"android":"levelo://app?vid=9e19f469-85ed-4588-aee0-093b8e855259","ios":"levelo://app?vid=9e19f469-85ed-4588-aee0-093b8e855259"},"vehicle_type_id":"4","last_reported":1747712187,"current_range_meters":6800,"station_id":"ce4bh412rcd13ifvqds0","pricing_plan_id":"cebpf4jnsgd1na2vs0mg"},{"bike_id":"3532affc-a16c-4c55-aef2-438c57750ba1","system_id":"levelo_inurba_marseille","lat":43.28939,"lon":5.363953,"is_reserved":false,"is_disabled":false,"rental_uris":{"android":"levelo://app?vid=3532affc-a16c-4c55-aef2-438c57750ba1","ios":"levelo://app?vid=3532affc-a16c-4c55-aef2-438c57750ba1"},"vehicle_type_id":"4","last_reported":1747712187,"current_range_meters":6800,"station_id":"ce4bhc92rcd13ifvqetg","pricing_plan_id":"cebpf4jnsgd1na2vs0mg"},{"bike_id":"1f7dea22-24a3-45e9-b0c2-bb2b4d863d65","system_id":"levelo_inurba_marseille","lat":43.2317,"lon":5.40007,"is_reserved":false,"is_disabled":false,"rental_uris":{"android":"levelo://app?vid=1f7dea22-24a3-45e9-b0c2-bb2b4d863d65","ios":"levelo://app?vid=1f7dea22-24a3-45e9-b0c2-bb2b4d863d65"},"vehicle_type_id":"4","last_reported":1747712187,"current_range_meters":6800,"station_id":"ce4bhn12rcd13ifvqgqg","pricing_plan_id":"cebpf4jnsgd1na2vs0mg"},{"bike_id":"f61eb94e-1e62-4ef6-ad8b-232d3e5c7942","system_id":"levelo_inurba_marseille","lat":43.278121,"lon":5.407229,"is_reserved":false,"is_disabled":false,"rental_uris":{"android":"levelo://app?vid=f61eb94e-1e62-4ef6-ad8b-232d3e5c7942","ios":"levelo://app?vid=f61eb94e-1e62-4ef6-ad8b-232d3e5c7942"},"vehicle_type_id":"4","last_reported":1747712187,"current_range_meters":6800,"station_id":"ce4bhnh2rcd13ifvqgtg","pricing_plan_id":"cebpf4jnsgd1na2vs0mg"},{"bike_id":"cf2e5c45-aac0-4784-a8f5-2a28a2e32c91","system_id":"levelo_inurba_marseille","lat":43.27169,"lon":5.40995,"is_reserved":false,"is_disabled":false,"rental_uris":{"android":"levelo://app?vid=cf2e5c45-aac0-4784-a8f5-2a28a2e32c91","ios":"levelo://app?vid=cf2e5c45-aac0-4784-a8f5-2a28a2e32c91"},"vehicle_type_id":"4","last_reported":1747712187,"current_range_meters":6800,"station_id":"ce4bhl12rcd13ifvqgf0","pricing_plan_id":"cebpf4jnsgd1na2vs0mg"},{"bike_id":"d58894d7-0839-4402-827f-71fc925bf23a","system_id":"levelo_inurba_marseille","lat":43.259263,"lon":5.408995,"is_reserved":false,"is_disabled":false,"rental_uris":{"android":"levelo://app?vid=d58894d7-0839-4402-827f-71fc925bf23a","ios":"levelo://app?vid=d58894d7-0839-4402-827f-71fc925bf23a"},"vehicle_type_id":"4","last_reported":1747712187,"current_range_meters":6800,"station_id":"ce4bhm92rcd13ifvqglg","pricing_plan_id":"cebpf4jnsgd1na2vs0mg"},{"bike_id":"9058608d-adf5-45da-b283-4068c6dc0fe2","system_id":"levelo_inurba_marseille","lat":43.27905,"lon":5.38003,"is_reserved":false,"is_disabled":false,"rental_uris":{"android":"levelo://app?vid=9058608d-adf5-45da-b283-4068c6dc0fe2","ios":"levelo://app?vid=9058608d-adf5-45da-b283-4068c6dc0fe2"},"vehicle_type_id":"4","last_reported":1747712187,"current_range_meters":6800,"station_id":"ce4bhf92rcd13ifvqf50","pricing_plan_id":"cebpf4jnsgd1na2vs0mg"},{"bike_id":"aa4025ad-c9e6-43d3-9ac3-f995a13af386","system_id":"levelo_inurba_marseille","lat":43.30933,"lon":5.40135,"is_reserved":false,"is_disabled":false,"rental_uris":{"android":"levelo://app?vid=aa4025ad-c9e6-43d3-9ac3-f995a13af386","ios":"levelo://app?vid=aa4025ad-c9e6-43d3-9ac3-f995a13af386"},"vehicle_type_id":"4","last_reported":1747712187,"current_range_meters":7200,"station_id":"ce4bgvp2rcd13ifvqct0","pricing_plan_id":"cebpf4jnsgd1na2vs0mg"},{"bike_id":"5a585b4e-47a9-416c-a173-084754acffd0","system_id":"levelo_inurba_marseille","lat":43.2466,"lon":5.38143,"is_reserved":false,"is_disabled":false,"rental_uris":{"android":"levelo://app?vid=5a585b4e-47a9-416c-a173-084754acffd0","ios":"levelo://app?vid=5a585b4e-47a9-416c-a173-084754acffd0"},"vehicle_type_id":"4","last_reported":1747712187,"current_range_meters":7200,"station_id":"ce4bhih2rcd13ifvqfr0","pricing_plan_id":"cebpf4jnsgd1na2vs0mg"},{"bike_id":"71b34e5b-9627-4ecb-8580-7ab8e076d7c9","system_id":"levelo_inurba_marseille","lat":43.31105,"lon":5.37762,"is_reserved":false,"is_disabled":false,"rental_uris":{"android":"levelo://app?vid=71b34e5b-9627-4ecb-8580-7ab8e076d7c9","ios":"levelo://app?vid=71b34e5b-9627-4ecb-8580-7ab8e076d7c9"},"vehicle_type_id":"4","last_reported":1747712187,"current_range_meters":7200,"station_id":"ce4bgt92rcd13ifvqcg0","pricing_plan_id":"cebpf4jnsgd1na2vs0mg"},{"bike_id":"606f724a-1c53-443b-9378-c589b2767e9c","system_id":"levelo_inurba_marseille","lat":43.265,"lon":5.39553,"is_reserved":false,"is_disabled":false,"rental_uris":{"android":"levelo://app?vid=606f724a-1c53-443b-9378-c589b2767e9c","ios":"levelo://app?vid=606f724a-1c53-443b-9378-c589b2767e9c"},"vehicle_type_id":"4","last_reported":1747712187,"current_range_meters":7200,"station_id":"ce4bhi12rcd13ifvqfq0","pricing_plan_id":"cebpf4jnsgd1na2vs0mg"},{"bike_id":"814e2930-a412-47af-849d-26da2abc07f6","system_id":"levelo_inurba_marseille","lat":43.278119,"lon":5.407153,"is_reserved":false,"is_disabled":true,"rental_uris":{"android":"levelo://app?vid=814e2930-a412-47af-849d-26da2abc07f6","ios":"levelo://app?vid=814e2930-a412-47af-849d-26da2abc07f6"},"vehicle_type_id":"4","last_reported":1747712187,"current_range_meters":7200,"station_id":"ce4bhnh2rcd13ifvqgtg","pricing_plan_id":"cebpf4jnsgd1na2vs0mg"},{"bike_id":"fdbcb080-de86-408c-b4a8-7300b93393a6","system_id":"levelo_inurba_marseille","lat":43.23189,"lon":5.399992,"is_reserved":false,"is_disabled":false,"rental_uris":{"android":"levelo://app?vid=fdbcb080-de86-408c-b4a8-7300b93393a6","ios":"levelo://app?vid=fdbcb080-de86-408c-b4a8-7300b93393a6"},"vehicle_type_id":"4","last_reported":1747712187,"current_range_meters":8000,"station_id":"ce4bhn12rcd13ifvqgqg","pricing_plan_id":"cebpf4jnsgd1na2vs0mg"},{"bike_id":"06e452b4-00bd-4194-8cf0-97e51cbae02e","system_id":"levelo_inurba_marseille","lat":43.231912,"lon":5.399867,"is_reserved":false,"is_disabled":false,"rental_uris":{"android":"levelo://app?vid=06e452b4-00bd-4194-8cf0-97e51cbae02e","ios":"levelo://app?vid=06e452b4-00bd-4194-8cf0-97e51cbae02e"},"vehicle_type_id":"4","last_reported":1747712187,"current_range_meters":8000,"station_id":"ce4bhn12rcd13ifvqgqg","pricing_plan_id":"cebpf4jnsgd1na2vs0mg"},{"bike_id":"7ee33e9f-36db-4d30-81ce-551b9004a8a6","system_id":"levelo_inurba_marseille","lat":43.30002,"lon":5.37124,"is_reserved":false,"is_disabled":false,"rental_uris":{"android":"levelo://app?vid=7ee33e9f-36db-4d30-81ce-551b9004a8a6","ios":"levelo://app?vid=7ee33e9f-36db-4d30-81ce-551b9004a8a6"},"vehicle_type_id":"4","last_reported":1747712187,"current_range_meters":8000,"station_id":"ce4bgr92rcd13ifvqc7g","pricing_plan_id":"cebpf4jnsgd1na2vs0mg"},{"bike_id":"e64e36d1-c3e7-4427-9260-70ac75fa0a1c","system_id":"levelo_inurba_marseille","lat":43.299234,"lon":5.401939,"is_reserved":false,"is_disabled":false,"rental_uris":{"android":"levelo://app?vid=e64e36d1-c3e7-4427-9260-70ac75fa0a1c","ios":"levelo://app?vid=e64e36d1-c3e7-4427-9260-70ac75fa0a1c"},"vehicle_type_id":"4","last_reported":1747712187,"current_range_meters":8000,"station_id":"","pricing_plan_id":"cebpf4jnsgd1na2vs0mg"},{"bike_id":"64366d8d-3020-466a-9cf8-d38ef48e57f9","system_id":"levelo_inurba_marseille","lat":43.255793,"lon":5.382339,"is_reserved":false,"is_disabled":false,"rental_uris":{"android":"levelo://app?vid=64366d8d-3020-466a-9cf8-d38ef48e57f9","ios":"levelo://app?vid=64366d8d-3020-466a-9cf8-d38ef48e57f9"},"vehicle_type_id":"4","last_reported":1747712187,"current_range_meters":8000,"station_id":"ce4bhih2rcd13ifvqfs0","pricing_plan_id":"cebpf4jnsgd1na2vs0mg"},{"bike_id":"8018deb1-33f3-4a74-9b79-63ac400dc93e","system_id":"levelo_inurba_marseille","lat":43.27904,"lon":5.3801,"is_reserved":false,"is_disabled":false,"rental_uris":{"android":"levelo://app?vid=8018deb1-33f3-4a74-9b79-63ac400dc93e","ios":"levelo://app?vid=8018deb1-33f3-4a74-9b79-63ac400dc93e"},"vehicle_type_id":"4","last_reported":1747712187,"current_range_meters":8000,"station_id":"ce4bhf92rcd13ifvqf50","pricing_plan_id":"cebpf4jnsgd1na2vs0mg"},{"bike_id":"20bee342-4a3f-4f34-940d-bb6cf00d52ae","system_id":"levelo_inurba_marseille","lat":43.26641,"lon":5.38694,"is_reserved":false,"is_disabled":false,"rental_uris":{"android":"levelo://app?vid=20bee342-4a3f-4f34-940d-bb6cf00d52ae","ios":"levelo://app?vid=20bee342-4a3f-4f34-940d-bb6cf00d52ae"},"vehicle_type_id":"4","last_reported":1747712187,"current_range_meters":8000,"station_id":"","pricing_plan_id":"cebpf4jnsgd1na2vs0mg"},{"bike_id":"f227df4d-9824-4803-8938-da373e985d05","system_id":"levelo_inurba_marseille","lat":43.261909,"lon":5.374556,"is_reserved":false,"is_disabled":true,"rental_uris":{"android":"levelo://app?vid=f227df4d-9824-4803-8938-da373e985d05","ios":"levelo://app?vid=f227df4d-9824-4803-8938-da373e985d05"},"vehicle_type_id":"4","last_reported":1747712187,"current_range_meters":8000,"station_id":"ce4bhgp2rcd13ifvqfc0","pricing_plan_id":"cebpf4jnsgd1na2vs0mg"},{"bike_id":"1492affc-5f7d-4a41-bc51-a000c24075e6","system_id":"levelo_inurba_marseille","lat":43.30257,"lon":5.400757,"is_reserved":false,"is_disabled":false,"rental_uris":{"android":"levelo://app?vid=1492affc-5f7d-4a41-bc51-a000c24075e6","ios":"levelo://app?vid=1492affc-5f7d-4a41-bc51-a000c24075e6"},"vehicle_type_id":"4","last_reported":1747712187,"current_range_meters":8400,"station_id":"ce4bgvh2rcd13ifvqcs0","pricing_plan_id":"cebpf4jnsgd1na2vs0mg"},{"bike_id":"a283b2fd-ff3f-48d1-abab-7a3c52921152","system_id":"levelo_inurba_marseille","lat":43.281536,"lon":5.426597,"is_reserved":false,"is_disabled":false,"rental_uris":{"android":"levelo://app?vid=a283b2fd-ff3f-48d1-abab-7a3c52921152","ios":"levelo://app?vid=a283b2fd-ff3f-48d1-abab-7a3c52921152"},"vehicle_type_id":"4","last_reported":1747712187,"current_range_meters":8400,"station_id":"ce4bhnh2rcd13ifvqgug","pricing_plan_id":"cebpf4jnsgd1na2vs0mg"},{"bike_id":"ece1ade1-74a1-4510-9756-1459f9cff1be","system_id":"levelo_inurba_marseille","lat":43.22514,"lon":5.34816,"is_reserved":false,"is_disabled":true,"rental_uris":{"android":"levelo://app?vid=ece1ade1-74a1-4510-9756-1459f9cff1be","ios":"levelo://app?vid=ece1ade1-74a1-4510-9756-1459f9cff1be"},"vehicle_type_id":"4","last_reported":1747712187,"current_range_meters":8400,"station_id":"st_cvj5dfep6f1abm77gieg","pricing_plan_id":"cebpf4jnsgd1na2vs0mg"},{"bike_id":"0ed934a5-f846-4226-a605-82f12f967b47","system_id":"levelo_inurba_marseille","lat":43.2513,"lon":5.40353,"is_reserved":false,"is_disabled":false,"rental_uris":{"android":"levelo://app?vid=0ed934a5-f846-4226-a605-82f12f967b47","ios":"levelo://app?vid=0ed934a5-f846-4226-a605-82f12f967b47"},"vehicle_type_id":"4","last_reported":1747712187,"current_range_meters":8400,"station_id":"ce4bhlh2rcd13ifvqgig","pricing_plan_id":"cebpf4jnsgd1na2vs0mg"},{"bike_id":"ffe6d238-6026-4e0e-a599-949c46ef6d5a","system_id":"levelo_inurba_marseille","lat":43.25113,"lon":5.40334,"is_reserved":false,"is_disabled":false,"rental_uris":{"android":"levelo://app?vid=ffe6d238-6026-4e0e-a599-949c46ef6d5a","ios":"levelo://app?vid=ffe6d238-6026-4e0e-a599-949c46ef6d5a"},"vehicle_type_id":"4","last_reported":1747712187,"current_range_meters":8400,"station_id":"ce4bhlh2rcd13ifvqgig","pricing_plan_id":"cebpf4jnsgd1na2vs0mg"},{"bike_id":"6889e011-c4a7-4b40-b6d7-e1fde3581e3d","system_id":"levelo_inurba_marseille","lat":43.292784,"lon":5.401462,"is_reserved":false,"is_disabled":false,"rental_uris":{"android":"levelo://app?vid=6889e011-c4a7-4b40-b6d7-e1fde3581e3d","ios":"levelo://app?vid=6889e011-c4a7-4b40-b6d7-e1fde3581e3d"},"vehicle_type_id":"4","last_reported":1747712187,"current_range_meters":8400,"station_id":"ce4bh312rcd13ifvqdk0","pricing_plan_id":"cebpf4jnsgd1na2vs0mg"},{"bike_id":"bcbdbd69-7be8-42f8-a855-a4358565de8f","system_id":"levelo_inurba_marseille","lat":43.277262,"lon":5.413984,"is_reserved":false,"is_disabled":false,"rental_uris":{"android":"levelo://app?vid=bcbdbd69-7be8-42f8-a855-a4358565de8f","ios":"levelo://app?vid=bcbdbd69-7be8-42f8-a855-a4358565de8f"},"vehicle_type_id":"4","last_reported":1747712187,"current_range_meters":8800,"station_id":"","pricing_plan_id":"cebpf4jnsgd1na2vs0mg"},{"bike_id":"41dae116-84ff-4341-b36c-e7cfa5865e2b","system_id":"levelo_inurba_marseille","lat":43.309287,"lon":5.401449,"is_reserved":false,"is_disabled":false,"rental_uris":{"android":"levelo://app?vid=41dae116-84ff-4341-b36c-e7cfa5865e2b","ios":"levelo://app?vid=41dae116-84ff-4341-b36c-e7cfa5865e2b"},"vehicle_type_id":"4","last_reported":1747712187,"current_range_meters":8800,"station_id":"ce4bgvp2rcd13ifvqct0","pricing_plan_id":"cebpf4jnsgd1na2vs0mg"},{"bike_id":"f748f67e-63a6-4231-857a-d614a764d1c5","system_id":"levelo_inurba_marseille","lat":43.323651,"lon":5.388589,"is_reserved":false,"is_disabled":false,"rental_uris":{"android":"levelo://app?vid=f748f67e-63a6-4231-857a-d614a764d1c5","ios":"levelo://app?vid=f748f67e-63a6-4231-857a-d614a764d1c5"},"vehicle_type_id":"4","last_reported":1747712187,"current_range_meters":8800,"station_id":"","pricing_plan_id":"cebpf4jnsgd1na2vs0mg"},{"bike_id":"0bee8310-e3c6-4566-aecb-00d86829bb71","system_id":"levelo_inurba_marseille","lat":43.28156,"lon":5.42657,"is_reserved":false,"is_disabled":false,"rental_uris":{"android":"levelo://app?vid=0bee8310-e3c6-4566-aecb-00d86829bb71","ios":"levelo://app?vid=0bee8310-e3c6-4566-aecb-00d86829bb71"},"vehicle_type_id":"4","last_reported":1747712187,"current_range_meters":8800,"station_id":"ce4bhnh2rcd13ifvqgug","pricing_plan_id":"cebpf4jnsgd1na2vs0mg"},{"bike_id":"f3845397-11cf-4eb8-a5a1-edc4116ff2ea","system_id":"levelo_inurba_marseille","lat":43.2441,"lon":5.37083,"is_reserved":false,"is_disabled":false,"rental_uris":{"android":"levelo://app?vid=f3845397-11cf-4eb8-a5a1-edc4116ff2ea","ios":"levelo://app?vid=f3845397-11cf-4eb8-a5a1-edc4116ff2ea"},"vehicle_type_id":"4","last_reported":1747712187,"current_range_meters":8800,"station_id":"ce4bhhh2rcd13ifvqfk0","pricing_plan_id":"cebpf4jnsgd1na2vs0mg"},{"bike_id":"b2a8a085-4afe-4995-b62f-39dc8b761b89","system_id":"levelo_inurba_marseille","lat":43.211931,"lon":5.350738,"is_reserved":false,"is_disabled":false,"rental_uris":{"android":"levelo://app?vid=b2a8a085-4afe-4995-b62f-39dc8b761b89","ios":"levelo://app?vid=b2a8a085-4afe-4995-b62f-39dc8b761b89"},"vehicle_type_id":"4","last_reported":1747712187,"current_range_meters":8800,"station_id":"st_cvj6sg6p6f1abm77japg","pricing_plan_id":"cebpf4jnsgd1na2vs0mg"},{"bike_id":"21ea8fd1-7094-4cf9-b12a-80bc90604330","system_id":"levelo_inurba_marseille","lat":43.292531,"lon":5.376308,"is_reserved":false,"is_disabled":true,"rental_uris":{"android":"levelo://app?vid=21ea8fd1-7094-4cf9-b12a-80bc90604330","ios":"levelo://app?vid=21ea8fd1-7094-4cf9-b12a-80bc90604330"},"vehicle_type_id":"4","last_reported":1747712187,"current_range_meters":8800,"station_id":"ce4bgi12rcd13ifvqb80","pricing_plan_id":"cebpf4jnsgd1na2vs0mg"},{"bike_id":"651570cd-1c9c-4c26-aa09-efa639f2a006","system_id":"levelo_inurba_marseille","lat":43.28859,"lon":5.39335,"is_reserved":false,"is_disabled":false,"rental_uris":{"android":"levelo://app?vid=651570cd-1c9c-4c26-aa09-efa639f2a006","ios":"levelo://app?vid=651570cd-1c9c-4c26-aa09-efa639f2a006"},"vehicle_type_id":"4","last_reported":1747712187,"current_range_meters":8800,"station_id":"ce4bh2p2rcd13ifvqdi0","pricing_plan_id":"cebpf4jnsgd1na2vs0mg"},{"bike_id":"1562e712-dfff-4fb6-a90a-e3524ac5d767","system_id":"levelo_inurba_marseille","lat":43.261968,"lon":5.374605,"is_reserved":false,"is_disabled":true,"rental_uris":{"android":"levelo://app?vid=1562e712-dfff-4fb6-a90a-e3524ac5d767","ios":"levelo://app?vid=1562e712-dfff-4fb6-a90a-e3524ac5d767"},"vehicle_type_id":"4","last_reported":1747712187,"current_range_meters":8800,"station_id":"ce4bhgp2rcd13ifvqfc0","pricing_plan_id":"cebpf4jnsgd1na2vs0mg"},{"bike_id":"67abd4ca-2cde-4910-b9ac-9f166a4696ae","system_id":"levelo_inurba_marseille","lat":43.280801,"lon":5.396591,"is_reserved":false,"is_disabled":false,"rental_uris":{"android":"levelo://app?vid=67abd4ca-2cde-4910-b9ac-9f166a4696ae","ios":"levelo://app?vid=67abd4ca-2cde-4910-b9ac-9f166a4696ae"},"vehicle_type_id":"4","last_reported":1747712187,"current_range_meters":8800,"station_id":"ce4bho12rcd13ifvqh2g","pricing_plan_id":"cebpf4jnsgd1na2vs0mg"},{"bike_id":"3fdeef47-b532-4e82-b7eb-ca3f0554a6e9","system_id":"levelo_inurba_marseille","lat":43.266854,"lon":5.382865,"is_reserved":false,"is_disabled":true,"rental_uris":{"android":"levelo://app?vid=3fdeef47-b532-4e82-b7eb-ca3f0554a6e9","ios":"levelo://app?vid=3fdeef47-b532-4e82-b7eb-ca3f0554a6e9"},"vehicle_type_id":"4","last_reported":1747712187,"current_range_meters":9200,"station_id":"ce4bhg92rcd13ifvqf90","pricing_plan_id":"cebpf4jnsgd1na2vs0mg"},{"bike_id":"82b7f009-bd5b-4d9b-a74a-f4d218e30cc4","system_id":"levelo_inurba_marseille","lat":43.29339,"lon":5.40142,"is_reserved":false,"is_disabled":false,"rental_uris":{"android":"levelo://app?vid=82b7f009-bd5b-4d9b-a74a-f4d218e30cc4","ios":"levelo://app?vid=82b7f009-bd5b-4d9b-a74a-f4d218e30cc4"},"vehicle_type_id":"4","last_reported":1747712187,"current_range_meters":9200,"station_id":"ce4bh312rcd13ifvqdk0","pricing_plan_id":"cebpf4jnsgd1na2vs0mg"},{"bike_id":"8f0f531d-6a65-4647-8a6f-baa3d982f42f","system_id":"levelo_inurba_marseille","lat":43.28089,"lon":5.42574,"is_reserved":false,"is_disabled":false,"rental_uris":{"android":"levelo://app?vid=8f0f531d-6a65-4647-8a6f-baa3d982f42f","ios":"levelo://app?vid=8f0f531d-6a65-4647-8a6f-baa3d982f42f"},"vehicle_type_id":"4","last_reported":1747712187,"current_range_meters":9200,"station_id":"","pricing_plan_id":"cebpf4jnsgd1na2vs0mg"},{"bike_id":"a5bcf3ab-5daa-4dec-898b-27b2e944e103","system_id":"levelo_inurba_marseille","lat":43.2728,"lon":5.41045,"is_reserved":false,"is_disabled":false,"rental_uris":{"android":"levelo://app?vid=a5bcf3ab-5daa-4dec-898b-27b2e944e103","ios":"levelo://app?vid=a5bcf3ab-5daa-4dec-898b-27b2e944e103"},"vehicle_type_id":"4","last_reported":1747712187,"current_range_meters":9200,"station_id":"","pricing_plan_id":"cebpf4jnsgd1na2vs0mg"},{"bike_id":"42acf94d-5999-40a3-ad8f-9eda9b980b02","system_id":"levelo_inurba_marseille","lat":43.31751,"lon":5.390386,"is_reserved":false,"is_disabled":false,"rental_uris":{"android":"levelo://app?vid=42acf94d-5999-40a3-ad8f-9eda9b980b02","ios":"levelo://app?vid=42acf94d-5999-40a3-ad8f-9eda9b980b02"},"vehicle_type_id":"4","last_reported":1747712187,"current_range_meters":9200,"station_id":"ce4bhqp2rcd13ifvqhng","pricing_plan_id":"cebpf4jnsgd1na2vs0mg"},{"bike_id":"46b8d967-5e1d-4884-8a0b-5ddff9a90472","system_id":"levelo_inurba_marseille","lat":43.33,"lon":5.43854,"is_reserved":false,"is_disabled":false,"rental_uris":{"android":"levelo://app?vid=46b8d967-5e1d-4884-8a0b-5ddff9a90472","ios":"levelo://app?vid=46b8d967-5e1d-4884-8a0b-5ddff9a90472"},"vehicle_type_id":"4","last_reported":1747712187,"current_range_meters":9200,"station_id":"","pricing_plan_id":"cebpf4jnsgd1na2vs0mg"},{"bike_id":"ae92f61d-1120-4f68-9f8d-d0db94492c15","system_id":"levelo_inurba_marseille","lat":43.27189,"lon":5.40987,"is_reserved":false,"is_disabled":false,"rental_uris":{"android":"levelo://app?vid=ae92f61d-1120-4f68-9f8d-d0db94492c15","ios":"levelo://app?vid=ae92f61d-1120-4f68-9f8d-d0db94492c15"},"vehicle_type_id":"4","last_reported":1747712187,"current_range_meters":9200,"station_id":"ce4bhl12rcd13ifvqgf0","pricing_plan_id":"cebpf4jnsgd1na2vs0mg"},{"bike_id":"60393716-8180-42eb-a367-cc5098e8bc92","system_id":"levelo_inurba_marseille","lat":43.27996,"lon":5.40001,"is_reserved":false,"is_disabled":false,"rental_uris":{"android":"levelo://app?vid=60393716-8180-42eb-a367-cc5098e8bc92","ios":"levelo://app?vid=60393716-8180-42eb-a367-cc5098e8bc92"},"vehicle_type_id":"4","last_reported":1747712187,"current_range_meters":9200,"station_id":"ce4bho92rcd13ifvqh4g","pricing_plan_id":"cebpf4jnsgd1na2vs0mg"},{"bike_id":"b69e9525-f9fe-475a-a8d8-418ab1b45f8d","system_id":"levelo_inurba_marseille","lat":43.287268,"lon":5.360758,"is_reserved":false,"is_disabled":false,"rental_uris":{"android":"levelo://app?vid=b69e9525-f9fe-475a-a8d8-418ab1b45f8d","ios":"levelo://app?vid=b69e9525-f9fe-475a-a8d8-418ab1b45f8d"},"vehicle_type_id":"4","last_reported":1747712187,"current_range_meters":9200,"station_id":"cki0cbj6b192h4jlfktg","pricing_plan_id":"cebpf4jnsgd1na2vs0mg"},{"bike_id":"b5df4361-8fa9-4b8b-b1ad-cea9da2f893d","system_id":"levelo_inurba_marseille","lat":43.25117,"lon":5.40315,"is_reserved":false,"is_disabled":false,"rental_uris":{"android":"levelo://app?vid=b5df4361-8fa9-4b8b-b1ad-cea9da2f893d","ios":"levelo://app?vid=b5df4361-8fa9-4b8b-b1ad-cea9da2f893d"},"vehicle_type_id":"4","last_reported":1747712187,"current_range_meters":9200,"station_id":"ce4bhlh2rcd13ifvqgig","pricing_plan_id":"cebpf4jnsgd1na2vs0mg"},{"bike_id":"da010972-4ccc-41eb-af96-8bb9af3dbf4b","system_id":"levelo_inurba_marseille","lat":43.287073,"lon":5.399809,"is_reserved":false,"is_disabled":false,"rental_uris":{"android":"levelo://app?vid=da010972-4ccc-41eb-af96-8bb9af3dbf4b","ios":"levelo://app?vid=da010972-4ccc-41eb-af96-8bb9af3dbf4b"},"vehicle_type_id":"4","last_reported":1747712187,"current_range_meters":9200,"station_id":"ce4bho92rcd13ifvqh3g","pricing_plan_id":"cebpf4jnsgd1na2vs0mg"},{"bike_id":"c076ad54-d589-4eeb-ac51-e1376a33ec39","system_id":"levelo_inurba_marseille","lat":43.295407,"lon":5.422939,"is_reserved":false,"is_disabled":false,"rental_uris":{"android":"levelo://app?vid=c076ad54-d589-4eeb-ac51-e1376a33ec39","ios":"levelo://app?vid=c076ad54-d589-4eeb-ac51-e1376a33ec39"},"vehicle_type_id":"4","last_reported":1747712187,"current_range_meters":9200,"station_id":"ce4bhph2rcd13ifvqhdg","pricing_plan_id":"cebpf4jnsgd1na2vs0mg"},{"bike_id":"7ddabab5-fb9d-431e-bb65-ee4d4e122759","system_id":"levelo_inurba_marseille","lat":43.281509,"lon":5.426569,"is_reserved":false,"is_disabled":false,"rental_uris":{"android":"levelo://app?vid=7ddabab5-fb9d-431e-bb65-ee4d4e122759","ios":"levelo://app?vid=7ddabab5-fb9d-431e-bb65-ee4d4e122759"},"vehicle_type_id":"4","last_reported":1747712187,"current_range_meters":9600,"station_id":"ce4bhnh2rcd13ifvqgug","pricing_plan_id":"cebpf4jnsgd1na2vs0mg"},{"bike_id":"68944906-2bed-4069-92e3-fb4361342be4","system_id":"levelo_inurba_marseille","lat":43.290878,"lon":5.381457,"is_reserved":false,"is_disabled":true,"rental_uris":{"android":"levelo://app?vid=68944906-2bed-4069-92e3-fb4361342be4","ios":"levelo://app?vid=68944906-2bed-4069-92e3-fb4361342be4"},"vehicle_type_id":"4","last_reported":1747712187,"current_range_meters":9600,"station_id":"ce4bh512rcd13ifvqe2g","pricing_plan_id":"cebpf4jnsgd1na2vs0mg"},{"bike_id":"8d91a467-443b-401e-bb33-c6f87a96e75a","system_id":"levelo_inurba_marseille","lat":43.29555,"lon":5.37516,"is_reserved":false,"is_disabled":true,"rental_uris":{"android":"levelo://app?vid=8d91a467-443b-401e-bb33-c6f87a96e75a","ios":"levelo://app?vid=8d91a467-443b-401e-bb33-c6f87a96e75a"},"vehicle_type_id":"4","last_reported":1747712187,"current_range_meters":9600,"station_id":"ce4bgh92rcd13ifvqb50","pricing_plan_id":"cebpf4jnsgd1na2vs0mg"},{"bike_id":"85eaca89-9437-48d0-9bca-a254337b88db","system_id":"levelo_inurba_marseille","lat":43.27456,"lon":5.4095,"is_reserved":false,"is_disabled":false,"rental_uris":{"android":"levelo://app?vid=85eaca89-9437-48d0-9bca-a254337b88db","ios":"levelo://app?vid=85eaca89-9437-48d0-9bca-a254337b88db"},"vehicle_type_id":"4","last_reported":1747712187,"current_range_meters":9600,"station_id":"","pricing_plan_id":"cebpf4jnsgd1na2vs0mg"},{"bike_id":"bf0f734e-7db4-4909-bee4-1c076f1b6d92","system_id":"levelo_inurba_marseille","lat":43.281533,"lon":5.426499,"is_reserved":false,"is_disabled":false,"rental_uris":{"android":"levelo://app?vid=bf0f734e-7db4-4909-bee4-1c076f1b6d92","ios":"levelo://app?vid=bf0f734e-7db4-4909-bee4-1c076f1b6d92"},"vehicle_type_id":"4","last_reported":1747712187,"current_range_meters":9600,"station_id":"ce4bhnh2rcd13ifvqgug","pricing_plan_id":"cebpf4jnsgd1na2vs0mg"},{"bike_id":"b7818455-a4e2-4ee4-9041-cdaccd7dec78","system_id":"levelo_inurba_marseille","lat":43.31488,"lon":5.37294,"is_reserved":false,"is_disabled":false,"rental_uris":{"android":"levelo://app?vid=b7818455-a4e2-4ee4-9041-cdaccd7dec78","ios":"levelo://app?vid=b7818455-a4e2-4ee4-9041-cdaccd7dec78"},"vehicle_type_id":"4","last_reported":1747712187,"current_range_meters":9600,"station_id":"ce4bgt12rcd13ifvqcd0","pricing_plan_id":"cebpf4jnsgd1na2vs0mg"},{"bike_id":"89e75d22-2829-4276-bd50-349663c80965","system_id":"levelo_inurba_marseille","lat":43.251072,"lon":5.403204,"is_reserved":false,"is_disabled":false,"rental_uris":{"android":"levelo://app?vid=89e75d22-2829-4276-bd50-349663c80965","ios":"levelo://app?vid=89e75d22-2829-4276-bd50-349663c80965"},"vehicle_type_id":"4","last_reported":1747712187,"current_range_meters":9600,"station_id":"ce4bhlh2rcd13ifvqgig","pricing_plan_id":"cebpf4jnsgd1na2vs0mg"},{"bike_id":"40d5f946-42f0-423c-82a6-7cd8e3c0679d","system_id":"levelo_inurba_marseille","lat":43.28404,"lon":5.37512,"is_reserved":false,"is_disabled":false,"rental_uris":{"android":"levelo://app?vid=40d5f946-42f0-423c-82a6-7cd8e3c0679d","ios":"levelo://app?vid=40d5f946-42f0-423c-82a6-7cd8e3c0679d"},"vehicle_type_id":"4","last_reported":1747712187,"current_range_meters":9600,"station_id":"ce4bh412rcd13ifvqds0","pricing_plan_id":"cebpf4jnsgd1na2vs0mg"},{"bike_id":"05c63458-b601-4e4e-ab26-7a54ca437048","system_id":"levelo_inurba_marseille","lat":43.29548,"lon":5.42285,"is_reserved":false,"is_disabled":false,"rental_uris":{"android":"levelo://app?vid=05c63458-b601-4e4e-ab26-7a54ca437048","ios":"levelo://app?vid=05c63458-b601-4e4e-ab26-7a54ca437048"},"vehicle_type_id":"4","last_reported":1747712187,"current_range_meters":9600,"station_id":"ce4bhph2rcd13ifvqhdg","pricing_plan_id":"cebpf4jnsgd1na2vs0mg"},{"bike_id":"870c685e-5967-4798-97cb-476b1794b9e1","system_id":"levelo_inurba_marseille","lat":43.30252,"lon":5.40056,"is_reserved":false,"is_disabled":false,"rental_uris":{"android":"levelo://app?vid=870c685e-5967-4798-97cb-476b1794b9e1","ios":"levelo://app?vid=870c685e-5967-4798-97cb-476b1794b9e1"},"vehicle_type_id":"4","last_reported":1747712187,"current_range_meters":9600,"station_id":"ce4bgvh2rcd13ifvqcs0","pricing_plan_id":"cebpf4jnsgd1na2vs0mg"},{"bike_id":"e0391685-f930-423c-9e14-b2af3a4e59b5","system_id":"levelo_inurba_marseille","lat":43.23169,"lon":5.40004,"is_reserved":false,"is_disabled":false,"rental_uris":{"android":"levelo://app?vid=e0391685-f930-423c-9e14-b2af3a4e59b5","ios":"levelo://app?vid=e0391685-f930-423c-9e14-b2af3a4e59b5"},"vehicle_type_id":"4","last_reported":1747712187,"current_range_meters":9600,"station_id":"ce4bhn12rcd13ifvqgqg","pricing_plan_id":"cebpf4jnsgd1na2vs0mg"},{"bike_id":"f9b3996d-2c0f-497b-a2fb-c22c787feca1","system_id":"levelo_inurba_marseille","lat":43.28098,"lon":5.40195,"is_reserved":false,"is_disabled":false,"rental_uris":{"android":"levelo://app?vid=f9b3996d-2c0f-497b-a2fb-c22c787feca1","ios":"levelo://app?vid=f9b3996d-2c0f-497b-a2fb-c22c787feca1"},"vehicle_type_id":"4","last_reported":1747712187,"current_range_meters":10000,"station_id":"","pricing_plan_id":"cebpf4jnsgd1na2vs0mg"},{"bike_id":"dbf8222a-eea0-42f0-80c2-a4791ac4ed58","system_id":"levelo_inurba_marseille","lat":43.250061,"lon":5.389343,"is_reserved":false,"is_disabled":false,"rental_uris":{"android":"levelo://app?vid=dbf8222a-eea0-42f0-80c2-a4791ac4ed58","ios":"levelo://app?vid=dbf8222a-eea0-42f0-80c2-a4791ac4ed58"},"vehicle_type_id":"4","last_reported":1747712187,"current_range_meters":10000,"station_id":"ce4bhgp2rcd13ifvqfd0","pricing_plan_id":"cebpf4jnsgd1na2vs0mg"},{"bike_id":"7b4ebcee-a823-442f-a8fb-bd9eabc7a6ed","system_id":"levelo_inurba_marseille","lat":43.25101,"lon":5.3883,"is_reserved":false,"is_disabled":false,"rental_uris":{"android":"levelo://app?vid=7b4ebcee-a823-442f-a8fb-bd9eabc7a6ed","ios":"levelo://app?vid=7b4ebcee-a823-442f-a8fb-bd9eabc7a6ed"},"vehicle_type_id":"4","last_reported":1747712187,"current_range_meters":10000,"station_id":"","pricing_plan_id":"cebpf4jnsgd1na2vs0mg"},{"bike_id":"4b4ec30a-5019-4306-ad90-2b94bab06dcd","system_id":"levelo_inurba_marseille","lat":43.30075,"lon":5.36589,"is_reserved":false,"is_disabled":true,"rental_uris":{"android":"levelo://app?vid=4b4ec30a-5019-4306-ad90-2b94bab06dcd","ios":"levelo://app?vid=4b4ec30a-5019-4306-ad90-2b94bab06dcd"},"vehicle_type_id":"4","last_reported":1747712187,"current_range_meters":10000,"station_id":"","pricing_plan_id":"cebpf4jnsgd1na2vs0mg"},{"bike_id":"572c97ee-0da0-4be5-a2ce-28eff65f3ef1","system_id":"levelo_inurba_marseille","lat":43.337609,"lon":5.374721,"is_reserved":false,"is_disabled":false,"rental_uris":{"android":"levelo://app?vid=572c97ee-0da0-4be5-a2ce-28eff65f3ef1","ios":"levelo://app?vid=572c97ee-0da0-4be5-a2ce-28eff65f3ef1"},"vehicle_type_id":"4","last_reported":1747712187,"current_range_meters":10000,"station_id":"","pricing_plan_id":"cebpf4jnsgd1na2vs0mg"},{"bike_id":"f8911316-ecb6-4253-8bdc-b8e77174a78c","system_id":"levelo_inurba_marseille","lat":43.286977,"lon":5.373936,"is_reserved":false,"is_disabled":false,"rental_uris":{"android":"levelo://app?vid=f8911316-ecb6-4253-8bdc-b8e77174a78c","ios":"levelo://app?vid=f8911316-ecb6-4253-8bdc-b8e77174a78c"},"vehicle_type_id":"4","last_reported":1747712187,"current_range_meters":10000,"station_id":"ce4bh3p2rcd13ifvqdq0","pricing_plan_id":"cebpf4jnsgd1na2vs0mg"},{"bike_id":"08129706-0840-4cc7-a7e9-4dbc2d7407ba","system_id":"levelo_inurba_marseille","lat":43.231931,"lon":5.399862,"is_reserved":false,"is_disabled":false,"rental_uris":{"android":"levelo://app?vid=08129706-0840-4cc7-a7e9-4dbc2d7407ba","ios":"levelo://app?vid=08129706-0840-4cc7-a7e9-4dbc2d7407ba"},"vehicle_type_id":"4","last_reported":1747712187,"current_range_meters":10000,"station_id":"ce4bhn12rcd13ifvqgqg","pricing_plan_id":"cebpf4jnsgd1na2vs0mg"},{"bike_id":"4be0c667-10fb-4d0d-a527-4a1530a211d3","system_id":"levelo_inurba_marseille","lat":43.31452,"lon":5.37311,"is_reserved":false,"is_disabled":false,"rental_uris":{"android":"levelo://app?vid=4be0c667-10fb-4d0d-a527-4a1530a211d3","ios":"levelo://app?vid=4be0c667-10fb-4d0d-a527-4a1530a211d3"},"vehicle_type_id":"4","last_reported":1747712187,"current_range_meters":10000,"station_id":"ce4bgt12rcd13ifvqcd0","pricing_plan_id":"cebpf4jnsgd1na2vs0mg"},{"bike_id":"27e2e700-c978-4d72-8e0b-9608485d555f","system_id":"levelo_inurba_marseille","lat":43.2408,"lon":5.377485,"is_reserved":false,"is_disabled":false,"rental_uris":{"android":"levelo://app?vid=27e2e700-c978-4d72-8e0b-9608485d555f","ios":"levelo://app?vid=27e2e700-c978-4d72-8e0b-9608485d555f"},"vehicle_type_id":"4","last_reported":1747712187,"current_range_meters":10800,"station_id":"ce4bhnp2rcd13ifvqgvg","pricing_plan_id":"cebpf4jnsgd1na2vs0mg"},{"bike_id":"02fc1184-206c-48c4-a5e6-80d0158ace74","system_id":"levelo_inurba_marseille","lat":43.30304,"lon":5.36916,"is_reserved":false,"is_disabled":true,"rental_uris":{"android":"levelo://app?vid=02fc1184-206c-48c4-a5e6-80d0158ace74","ios":"levelo://app?vid=02fc1184-206c-48c4-a5e6-80d0158ace74"},"vehicle_type_id":"4","last_reported":1747712187,"current_range_meters":10800,"station_id":"ce4bgqh2rcd13ifvqc5g","pricing_plan_id":"cebpf4jnsgd1na2vs0mg"},{"bike_id":"bffbaf88-357a-4e87-a68c-a9a27a6e01e6","system_id":"levelo_inurba_marseille","lat":43.26231,"lon":5.42154,"is_reserved":false,"is_disabled":false,"rental_uris":{"android":"levelo://app?vid=bffbaf88-357a-4e87-a68c-a9a27a6e01e6","ios":"levelo://app?vid=bffbaf88-357a-4e87-a68c-a9a27a6e01e6"},"vehicle_type_id":"4","last_reported":1747712187,"current_range_meters":10800,"station_id":"","pricing_plan_id":"cebpf4jnsgd1na2vs0mg"},{"bike_id":"a824fbd1-e4ac-448d-8615-1ee649070018","system_id":"levelo_inurba_marseille","lat":43.286091,"lon":5.370692,"is_reserved":false,"is_disabled":false,"rental_uris":{"android":"levelo://app?vid=a824fbd1-e4ac-448d-8615-1ee649070018","ios":"levelo://app?vid=a824fbd1-e4ac-448d-8615-1ee649070018"},"vehicle_type_id":"4","last_reported":1747712187,"current_range_meters":10800,"station_id":"ce4bht12rcd13ifvqi60","pricing_plan_id":"cebpf4jnsgd1na2vs0mg"},{"bike_id":"d39cae16-34b5-4b82-8fc6-cac28c889070","system_id":"levelo_inurba_marseille","lat":43.29417,"lon":5.38627,"is_reserved":false,"is_disabled":true,"rental_uris":{"android":"levelo://app?vid=d39cae16-34b5-4b82-8fc6-cac28c889070","ios":"levelo://app?vid=d39cae16-34b5-4b82-8fc6-cac28c889070"},"vehicle_type_id":"4","last_reported":1747712187,"current_range_meters":10800,"station_id":"ce4bh2h2rcd13ifvqdh0","pricing_plan_id":"cebpf4jnsgd1na2vs0mg"},{"bike_id":"a9bed2ee-23b7-4708-b05e-86f24507f78f","system_id":"levelo_inurba_marseille","lat":43.265493,"lon":5.373134,"is_reserved":false,"is_disabled":false,"rental_uris":{"android":"levelo://app?vid=a9bed2ee-23b7-4708-b05e-86f24507f78f","ios":"levelo://app?vid=a9bed2ee-23b7-4708-b05e-86f24507f78f"},"vehicle_type_id":"4","last_reported":1747712187,"current_range_meters":10800,"station_id":"ce4bhg12rcd13ifvqf70","pricing_plan_id":"cebpf4jnsgd1na2vs0mg"},{"bike_id":"c4bdf685-5167-4fdc-b41b-b93781445c37","system_id":"levelo_inurba_marseille","lat":43.286142,"lon":5.351022,"is_reserved":false,"is_disabled":false,"rental_uris":{"android":"levelo://app?vid=c4bdf685-5167-4fdc-b41b-b93781445c37","ios":"levelo://app?vid=c4bdf685-5167-4fdc-b41b-b93781445c37"},"vehicle_type_id":"4","last_reported":1747712187,"current_range_meters":10800,"station_id":"ce4bhch2rcd13ifvqeug","pricing_plan_id":"cebpf4jnsgd1na2vs0mg"},{"bike_id":"52a39732-f389-4238-8320-12a8ecb43bc9","system_id":"levelo_inurba_marseille","lat":43.3379,"lon":5.37474,"is_reserved":false,"is_disabled":false,"rental_uris":{"android":"levelo://app?vid=52a39732-f389-4238-8320-12a8ecb43bc9","ios":"levelo://app?vid=52a39732-f389-4238-8320-12a8ecb43bc9"},"vehicle_type_id":"4","last_reported":1747712187,"current_range_meters":10800,"station_id":"","pricing_plan_id":"cebpf4jnsgd1na2vs0mg"},{"bike_id":"f3dd4642-98de-4393-9209-048925d90605","system_id":"levelo_inurba_marseille","lat":43.243898,"lon":5.370538,"is_reserved":false,"is_disabled":false,"rental_uris":{"android":"levelo://app?vid=f3dd4642-98de-4393-9209-048925d90605","ios":"levelo://app?vid=f3dd4642-98de-4393-9209-048925d90605"},"vehicle_type_id":"4","last_reported":1747712187,"current_range_meters":11200,"station_id":"ce4bhhh2rcd13ifvqfk0","pricing_plan_id":"cebpf4jnsgd1na2vs0mg"},{"bike_id":"0767dbbf-ed3c-4904-92d7-716004b3e1f9","system_id":"levelo_inurba_marseille","lat":43.255768,"lon":5.382326,"is_reserved":false,"is_disabled":true,"rental_uris":{"android":"levelo://app?vid=0767dbbf-ed3c-4904-92d7-716004b3e1f9","ios":"levelo://app?vid=0767dbbf-ed3c-4904-92d7-716004b3e1f9"},"vehicle_type_id":"4","last_reported":1747712187,"current_range_meters":11200,"station_id":"ce4bhih2rcd13ifvqfs0","pricing_plan_id":"cebpf4jnsgd1na2vs0mg"},{"bike_id":"f6dec522-dffe-4246-a51c-e4a759e3c14e","system_id":"levelo_inurba_marseille","lat":43.307773,"lon":5.376466,"is_reserved":false,"is_disabled":false,"rental_uris":{"android":"levelo://app?vid=f6dec522-dffe-4246-a51c-e4a759e3c14e","ios":"levelo://app?vid=f6dec522-dffe-4246-a51c-e4a759e3c14e"},"vehicle_type_id":"4","last_reported":1747712187,"current_range_meters":11200,"station_id":"ce4bgv92rcd13ifvqcq0","pricing_plan_id":"cebpf4jnsgd1na2vs0mg"},{"bike_id":"17327be2-c418-4d27-835d-14cf9f268a47","system_id":"levelo_inurba_marseille","lat":43.289403,"lon":5.364,"is_reserved":false,"is_disabled":false,"rental_uris":{"android":"levelo://app?vid=17327be2-c418-4d27-835d-14cf9f268a47","ios":"levelo://app?vid=17327be2-c418-4d27-835d-14cf9f268a47"},"vehicle_type_id":"4","last_reported":1747712187,"current_range_meters":11200,"station_id":"ce4bhc92rcd13ifvqetg","pricing_plan_id":"cebpf4jnsgd1na2vs0mg"},{"bike_id":"204d1b88-2cc3-469d-bac1-db71361fd818","system_id":"levelo_inurba_marseille","lat":43.290195,"lon":5.38639,"is_reserved":false,"is_disabled":true,"rental_uris":{"android":"levelo://app?vid=204d1b88-2cc3-469d-bac1-db71361fd818","ios":"levelo://app?vid=204d1b88-2cc3-469d-bac1-db71361fd818"},"vehicle_type_id":"4","last_reported":1747712187,"current_range_meters":11200,"station_id":"ce4bh4p2rcd13ifvqe0g","pricing_plan_id":"cebpf4jnsgd1na2vs0mg"},{"bike_id":"45301c01-b041-4bcf-8043-cc735fe4d258","system_id":"levelo_inurba_marseille","lat":43.28713,"lon":5.39981,"is_reserved":false,"is_disabled":false,"rental_uris":{"android":"levelo://app?vid=45301c01-b041-4bcf-8043-cc735fe4d258","ios":"levelo://app?vid=45301c01-b041-4bcf-8043-cc735fe4d258"},"vehicle_type_id":"4","last_reported":1747712187,"current_range_meters":11200,"station_id":"ce4bho92rcd13ifvqh3g","pricing_plan_id":"cebpf4jnsgd1na2vs0mg"},{"bike_id":"598900bc-cc96-46f3-b8f9-32958f862dd5","system_id":"levelo_inurba_marseille","lat":43.304046,"lon":5.367883,"is_reserved":false,"is_disabled":false,"rental_uris":{"android":"levelo://app?vid=598900bc-cc96-46f3-b8f9-32958f862dd5","ios":"levelo://app?vid=598900bc-cc96-46f3-b8f9-32958f862dd5"},"vehicle_type_id":"4","last_reported":1747712187,"current_range_meters":11600,"station_id":"","pricing_plan_id":"cebpf4jnsgd1na2vs0mg"},{"bike_id":"a5069c23-eea7-40f4-9d9a-11b963aa48ad","system_id":"levelo_inurba_marseille","lat":43.23198,"lon":5.39981,"is_reserved":false,"is_disabled":false,"rental_uris":{"android":"levelo://app?vid=a5069c23-eea7-40f4-9d9a-11b963aa48ad","ios":"levelo://app?vid=a5069c23-eea7-40f4-9d9a-11b963aa48ad"},"vehicle_type_id":"4","last_reported":1747712187,"current_range_meters":11600,"station_id":"ce4bhn12rcd13ifvqgqg","pricing_plan_id":"cebpf4jnsgd1na2vs0mg"},{"bike_id":"841f12ae-d6d4-4e78-b95d-4c6b21a10dbd","system_id":"levelo_inurba_marseille","lat":43.30773,"lon":5.37653,"is_reserved":false,"is_disabled":false,"rental_uris":{"android":"levelo://app?vid=841f12ae-d6d4-4e78-b95d-4c6b21a10dbd","ios":"levelo://app?vid=841f12ae-d6d4-4e78-b95d-4c6b21a10dbd"},"vehicle_type_id":"4","last_reported":1747712187,"current_range_meters":11600,"station_id":"ce4bgv92rcd13ifvqcq0","pricing_plan_id":"cebpf4jnsgd1na2vs0mg"},{"bike_id":"b7cb1705-6b5a-49c6-8905-4f8177d4379a","system_id":"levelo_inurba_marseille","lat":43.23182,"lon":5.39998,"is_reserved":false,"is_disabled":false,"rental_uris":{"android":"levelo://app?vid=b7cb1705-6b5a-49c6-8905-4f8177d4379a","ios":"levelo://app?vid=b7cb1705-6b5a-49c6-8905-4f8177d4379a"},"vehicle_type_id":"4","last_reported":1747712187,"current_range_meters":12000,"station_id":"ce4bhn12rcd13ifvqgqg","pricing_plan_id":"cebpf4jnsgd1na2vs0mg"},{"bike_id":"363e9216-b958-47f9-991c-1c8209edd2c4","system_id":"levelo_inurba_marseille","lat":43.24681,"lon":5.38139,"is_reserved":false,"is_disabled":false,"rental_uris":{"android":"levelo://app?vid=363e9216-b958-47f9-991c-1c8209edd2c4","ios":"levelo://app?vid=363e9216-b958-47f9-991c-1c8209edd2c4"},"vehicle_type_id":"4","last_reported":1747712187,"current_range_meters":12000,"station_id":"ce4bhih2rcd13ifvqfr0","pricing_plan_id":"cebpf4jnsgd1na2vs0mg"},{"bike_id":"f9bd452a-300d-4454-890a-c716cf8ab1c5","system_id":"levelo_inurba_marseille","lat":43.250073,"lon":5.389424,"is_reserved":false,"is_disabled":false,"rental_uris":{"android":"levelo://app?vid=f9bd452a-300d-4454-890a-c716cf8ab1c5","ios":"levelo://app?vid=f9bd452a-300d-4454-890a-c716cf8ab1c5"},"vehicle_type_id":"4","last_reported":1747712187,"current_range_meters":12000,"station_id":"ce4bhgp2rcd13ifvqfd0","pricing_plan_id":"cebpf4jnsgd1na2vs0mg"},{"bike_id":"bca5fcbc-3c53-4bb3-9196-4ebb9a210b53","system_id":"levelo_inurba_marseille","lat":43.240754,"lon":5.37756,"is_reserved":false,"is_disabled":false,"rental_uris":{"android":"levelo://app?vid=bca5fcbc-3c53-4bb3-9196-4ebb9a210b53","ios":"levelo://app?vid=bca5fcbc-3c53-4bb3-9196-4ebb9a210b53"},"vehicle_type_id":"4","last_reported":1747712187,"current_range_meters":12000,"station_id":"ce4bhnp2rcd13ifvqgvg","pricing_plan_id":"cebpf4jnsgd1na2vs0mg"},{"bike_id":"def1dbab-2f13-4e02-9068-e78ce5506334","system_id":"levelo_inurba_marseille","lat":43.301452,"lon":5.374142,"is_reserved":false,"is_disabled":false,"rental_uris":{"android":"levelo://app?vid=def1dbab-2f13-4e02-9068-e78ce5506334","ios":"levelo://app?vid=def1dbab-2f13-4e02-9068-e78ce5506334"},"vehicle_type_id":"4","last_reported":1747712187,"current_range_meters":12400,"station_id":"","pricing_plan_id":"cebpf4jnsgd1na2vs0mg"},{"bike_id":"da3205cd-df05-4a76-a08e-10bf4b39b88e","system_id":"levelo_inurba_marseille","lat":43.291923,"lon":5.393232,"is_reserved":false,"is_disabled":false,"rental_uris":{"android":"levelo://app?vid=da3205cd-df05-4a76-a08e-10bf4b39b88e","ios":"levelo://app?vid=da3205cd-df05-4a76-a08e-10bf4b39b88e"},"vehicle_type_id":"4","last_reported":1747712187,"current_range_meters":12400,"station_id":"ce4bh192rcd13ifvqdd0","pricing_plan_id":"cebpf4jnsgd1na2vs0mg"},{"bike_id":"aab7d1e3-5abb-4aa2-a248-da2489d22e99","system_id":"levelo_inurba_marseille","lat":43.298697,"lon":5.389151,"is_reserved":false,"is_disabled":true,"rental_uris":{"android":"levelo://app?vid=aab7d1e3-5abb-4aa2-a248-da2489d22e99","ios":"levelo://app?vid=aab7d1e3-5abb-4aa2-a248-da2489d22e99"},"vehicle_type_id":"4","last_reported":1747712187,"current_range_meters":12400,"station_id":"ce4bh392rcd13ifvqdl0","pricing_plan_id":"cebpf4jnsgd1na2vs0mg"},{"bike_id":"58edc354-c183-4da4-b527-1ba0f2d395e0","system_id":"levelo_inurba_marseille","lat":43.27683,"lon":5.35735,"is_reserved":false,"is_disabled":false,"rental_uris":{"android":"levelo://app?vid=58edc354-c183-4da4-b527-1ba0f2d395e0","ios":"levelo://app?vid=58edc354-c183-4da4-b527-1ba0f2d395e0"},"vehicle_type_id":"4","last_reported":1747712187,"current_range_meters":12400,"station_id":"","pricing_plan_id":"cebpf4jnsgd1na2vs0mg"},{"bike_id":"98804e99-9bed-4363-a5ff-1489de79ae3d","system_id":"levelo_inurba_marseille","lat":43.281559,"lon":5.426358,"is_reserved":false,"is_disabled":true,"rental_uris":{"android":"levelo://app?vid=98804e99-9bed-4363-a5ff-1489de79ae3d","ios":"levelo://app?vid=98804e99-9bed-4363-a5ff-1489de79ae3d"},"vehicle_type_id":"4","last_reported":1747712187,"current_range_meters":12400,"station_id":"ce4bhnh2rcd13ifvqgug","pricing_plan_id":"cebpf4jnsgd1na2vs0mg"},{"bike_id":"184a7879-daca-44b6-873d-e1c7c604e329","system_id":"levelo_inurba_marseille","lat":43.304446,"lon":5.379085,"is_reserved":false,"is_disabled":true,"rental_uris":{"android":"levelo://app?vid=184a7879-daca-44b6-873d-e1c7c604e329","ios":"levelo://app?vid=184a7879-daca-44b6-873d-e1c7c604e329"},"vehicle_type_id":"4","last_reported":1747712187,"current_range_meters":12400,"station_id":"ce4bgup2rcd13ifvqcn0","pricing_plan_id":"cebpf4jnsgd1na2vs0mg"},{"bike_id":"0f9d6bdf-1d4f-466e-aa63-557c75d3adc2","system_id":"levelo_inurba_marseille","lat":43.280324,"lon":5.369414,"is_reserved":false,"is_disabled":false,"rental_uris":{"android":"levelo://app?vid=0f9d6bdf-1d4f-466e-aa63-557c75d3adc2","ios":"levelo://app?vid=0f9d6bdf-1d4f-466e-aa63-557c75d3adc2"},"vehicle_type_id":"4","last_reported":1747712187,"current_range_meters":12800,"station_id":"ce4bha12rcd13ifvqef0","pricing_plan_id":"cebpf4jnsgd1na2vs0mg"},{"bike_id":"e8162579-a5ad-485f-ad83-fec8a2ebe7e1","system_id":"levelo_inurba_marseille","lat":43.26826,"lon":5.39099,"is_reserved":false,"is_disabled":false,"rental_uris":{"android":"levelo://app?vid=e8162579-a5ad-485f-ad83-fec8a2ebe7e1","ios":"levelo://app?vid=e8162579-a5ad-485f-ad83-fec8a2ebe7e1"},"vehicle_type_id":"4","last_reported":1747712187,"current_range_meters":12800,"station_id":"","pricing_plan_id":"cebpf4jnsgd1na2vs0mg"},{"bike_id":"33e5cbd5-31c8-4fa0-9d70-cf685e1c2a15","system_id":"levelo_inurba_marseille","lat":43.25126,"lon":5.40345,"is_reserved":false,"is_disabled":false,"rental_uris":{"android":"levelo://app?vid=33e5cbd5-31c8-4fa0-9d70-cf685e1c2a15","ios":"levelo://app?vid=33e5cbd5-31c8-4fa0-9d70-cf685e1c2a15"},"vehicle_type_id":"4","last_reported":1747712187,"current_range_meters":12800,"station_id":"ce4bhlh2rcd13ifvqgig","pricing_plan_id":"cebpf4jnsgd1na2vs0mg"},{"bike_id":"59b8a132-4666-485c-b6ad-3e889f0d9322","system_id":"levelo_inurba_marseille","lat":43.255012,"lon":5.376436,"is_reserved":false,"is_disabled":false,"rental_uris":{"android":"levelo://app?vid=59b8a132-4666-485c-b6ad-3e889f0d9322","ios":"levelo://app?vid=59b8a132-4666-485c-b6ad-3e889f0d9322"},"vehicle_type_id":"4","last_reported":1747712187,"current_range_meters":12800,"station_id":"ce4bhh12rcd13ifvqff0","pricing_plan_id":"cebpf4jnsgd1na2vs0mg"},{"bike_id":"8bbb1294-cf4b-4237-96d4-9a2f7e0a18bf","system_id":"levelo_inurba_marseille","lat":43.30787,"lon":5.3765,"is_reserved":false,"is_disabled":false,"rental_uris":{"android":"levelo://app?vid=8bbb1294-cf4b-4237-96d4-9a2f7e0a18bf","ios":"levelo://app?vid=8bbb1294-cf4b-4237-96d4-9a2f7e0a18bf"},"vehicle_type_id":"4","last_reported":1747712187,"current_range_meters":13600,"station_id":"ce4bgv92rcd13ifvqcq0","pricing_plan_id":"cebpf4jnsgd1na2vs0mg"},{"bike_id":"e2e3a6f6-0f08-4185-b27b-75bc9500a96d","system_id":"levelo_inurba_marseille","lat":43.211876,"lon":5.350784,"is_reserved":false,"is_disabled":false,"rental_uris":{"android":"levelo://app?vid=e2e3a6f6-0f08-4185-b27b-75bc9500a96d","ios":"levelo://app?vid=e2e3a6f6-0f08-4185-b27b-75bc9500a96d"},"vehicle_type_id":"4","last_reported":1747712187,"current_range_meters":13600,"station_id":"st_cvj6sg6p6f1abm77japg","pricing_plan_id":"cebpf4jnsgd1na2vs0mg"},{"bike_id":"7ddd82f2-75df-464b-8c03-766d7fbb61de","system_id":"levelo_inurba_marseille","lat":43.2926,"lon":5.40915,"is_reserved":false,"is_disabled":false,"rental_uris":{"android":"levelo://app?vid=7ddd82f2-75df-464b-8c03-766d7fbb61de","ios":"levelo://app?vid=7ddd82f2-75df-464b-8c03-766d7fbb61de"},"vehicle_type_id":"4","last_reported":1747712187,"current_range_meters":13600,"station_id":"ce4bh192rcd13ifvqdc0","pricing_plan_id":"cebpf4jnsgd1na2vs0mg"},{"bike_id":"54040be0-6ce0-42b3-861c-ee7d36911f1f","system_id":"levelo_inurba_marseille","lat":43.30468,"lon":5.37897,"is_reserved":false,"is_disabled":false,"rental_uris":{"android":"levelo://app?vid=54040be0-6ce0-42b3-861c-ee7d36911f1f","ios":"levelo://app?vid=54040be0-6ce0-42b3-861c-ee7d36911f1f"},"vehicle_type_id":"4","last_reported":1747712187,"current_range_meters":13600,"station_id":"ce4bgup2rcd13ifvqcn0","pricing_plan_id":"cebpf4jnsgd1na2vs0mg"},{"bike_id":"bc20e170-706b-4239-9c7d-af27505198a7","system_id":"levelo_inurba_marseille","lat":43.31081,"lon":5.38347,"is_reserved":false,"is_disabled":false,"rental_uris":{"android":"levelo://app?vid=bc20e170-706b-4239-9c7d-af27505198a7","ios":"levelo://app?vid=bc20e170-706b-4239-9c7d-af27505198a7"},"vehicle_type_id":"4","last_reported":1747712187,"current_range_meters":13600,"station_id":"ce4bgv92rcd13ifvqcr0","pricing_plan_id":"cebpf4jnsgd1na2vs0mg"},{"bike_id":"bb4b53fc-45b4-4e64-ac38-5876b2228a2c","system_id":"levelo_inurba_marseille","lat":43.28719,"lon":5.36104,"is_reserved":false,"is_disabled":false,"rental_uris":{"android":"levelo://app?vid=bb4b53fc-45b4-4e64-ac38-5876b2228a2c","ios":"levelo://app?vid=bb4b53fc-45b4-4e64-ac38-5876b2228a2c"},"vehicle_type_id":"4","last_reported":1747712187,"current_range_meters":14000,"station_id":"cki0cbj6b192h4jlfktg","pricing_plan_id":"cebpf4jnsgd1na2vs0mg"},{"bike_id":"3552fbf2-b43a-446f-93f5-d695fc251b73","system_id":"levelo_inurba_marseille","lat":43.25172,"lon":5.375213,"is_reserved":false,"is_disabled":false,"rental_uris":{"android":"levelo://app?vid=3552fbf2-b43a-446f-93f5-d695fc251b73","ios":"levelo://app?vid=3552fbf2-b43a-446f-93f5-d695fc251b73"},"vehicle_type_id":"4","last_reported":1747712187,"current_range_meters":14000,"station_id":"","pricing_plan_id":"cebpf4jnsgd1na2vs0mg"},{"bike_id":"f7474435-f8d2-4143-bbcd-6ab773bd9583","system_id":"levelo_inurba_marseille","lat":43.30808,"lon":5.38149,"is_reserved":false,"is_disabled":false,"rental_uris":{"android":"levelo://app?vid=f7474435-f8d2-4143-bbcd-6ab773bd9583","ios":"levelo://app?vid=f7474435-f8d2-4143-bbcd-6ab773bd9583"},"vehicle_type_id":"4","last_reported":1747712187,"current_range_meters":14000,"station_id":"ce4bgt12rcd13ifvqce0","pricing_plan_id":"cebpf4jnsgd1na2vs0mg"},{"bike_id":"ce4d1ffa-876e-4dab-b1eb-9b411a2a1967","system_id":"levelo_inurba_marseille","lat":43.278121,"lon":5.407204,"is_reserved":false,"is_disabled":false,"rental_uris":{"android":"levelo://app?vid=ce4d1ffa-876e-4dab-b1eb-9b411a2a1967","ios":"levelo://app?vid=ce4d1ffa-876e-4dab-b1eb-9b411a2a1967"},"vehicle_type_id":"4","last_reported":1747712187,"current_range_meters":14000,"station_id":"ce4bhnh2rcd13ifvqgtg","pricing_plan_id":"cebpf4jnsgd1na2vs0mg"},{"bike_id":"7af17d99-af41-438b-9061-c62535fdf3e8","system_id":"levelo_inurba_marseille","lat":43.281103,"lon":5.378366,"is_reserved":false,"is_disabled":false,"rental_uris":{"android":"levelo://app?vid=7af17d99-af41-438b-9061-c62535fdf3e8","ios":"levelo://app?vid=7af17d99-af41-438b-9061-c62535fdf3e8"},"vehicle_type_id":"4","last_reported":1747712187,"current_range_meters":14000,"station_id":"ce4bha12rcd13ifvqee0","pricing_plan_id":"cebpf4jnsgd1na2vs0mg"},{"bike_id":"0f5e51c5-c8d7-47f5-8b06-dfdcf1c9042a","system_id":"levelo_inurba_marseille","lat":43.29789,"lon":5.393488,"is_reserved":false,"is_disabled":false,"rental_uris":{"android":"levelo://app?vid=0f5e51c5-c8d7-47f5-8b06-dfdcf1c9042a","ios":"levelo://app?vid=0f5e51c5-c8d7-47f5-8b06-dfdcf1c9042a"},"vehicle_type_id":"4","last_reported":1747712187,"current_range_meters":14000,"station_id":"chh1huq6cuj3fo74tm60","pricing_plan_id":"cebpf4jnsgd1na2vs0mg"},{"bike_id":"2aeaf632-8f44-4284-bf3b-9782c3bf4f04","system_id":"levelo_inurba_marseille","lat":43.27174,"lon":5.40993,"is_reserved":false,"is_disabled":false,"rental_uris":{"android":"levelo://app?vid=2aeaf632-8f44-4284-bf3b-9782c3bf4f04","ios":"levelo://app?vid=2aeaf632-8f44-4284-bf3b-9782c3bf4f04"},"vehicle_type_id":"4","last_reported":1747712187,"current_range_meters":14400,"station_id":"ce4bhl12rcd13ifvqgf0","pricing_plan_id":"cebpf4jnsgd1na2vs0mg"},{"bike_id":"fc4abf58-1635-4dd7-aeaa-046974ab6166","system_id":"levelo_inurba_marseille","lat":43.249906,"lon":5.389539,"is_reserved":false,"is_disabled":false,"rental_uris":{"android":"levelo://app?vid=fc4abf58-1635-4dd7-aeaa-046974ab6166","ios":"levelo://app?vid=fc4abf58-1635-4dd7-aeaa-046974ab6166"},"vehicle_type_id":"4","last_reported":1747712187,"current_range_meters":14400,"station_id":"ce4bhgp2rcd13ifvqfd0","pricing_plan_id":"cebpf4jnsgd1na2vs0mg"},{"bike_id":"c3c11b11-8507-45b4-bd48-1e3bdd46fbbe","system_id":"levelo_inurba_marseille","lat":43.231866,"lon":5.399831,"is_reserved":false,"is_disabled":false,"rental_uris":{"android":"levelo://app?vid=c3c11b11-8507-45b4-bd48-1e3bdd46fbbe","ios":"levelo://app?vid=c3c11b11-8507-45b4-bd48-1e3bdd46fbbe"},"vehicle_type_id":"4","last_reported":1747712187,"current_range_meters":14400,"station_id":"ce4bhn12rcd13ifvqgqg","pricing_plan_id":"cebpf4jnsgd1na2vs0mg"},{"bike_id":"971fc3c8-e765-452e-a7f2-ed2f1afcaaa3","system_id":"levelo_inurba_marseille","lat":43.311191,"lon":5.377692,"is_reserved":false,"is_disabled":false,"rental_uris":{"android":"levelo://app?vid=971fc3c8-e765-452e-a7f2-ed2f1afcaaa3","ios":"levelo://app?vid=971fc3c8-e765-452e-a7f2-ed2f1afcaaa3"},"vehicle_type_id":"4","last_reported":1747712187,"current_range_meters":14800,"station_id":"ce4bgt92rcd13ifvqcg0","pricing_plan_id":"cebpf4jnsgd1na2vs0mg"},{"bike_id":"b4092363-ce05-481e-b8a5-74f257327df5","system_id":"levelo_inurba_marseille","lat":43.250869,"lon":5.395242,"is_reserved":false,"is_disabled":false,"rental_uris":{"android":"levelo://app?vid=b4092363-ce05-481e-b8a5-74f257327df5","ios":"levelo://app?vid=b4092363-ce05-481e-b8a5-74f257327df5"},"vehicle_type_id":"4","last_reported":1747712187,"current_range_meters":14800,"station_id":"ce4bhm12rcd13ifvqgkg","pricing_plan_id":"cebpf4jnsgd1na2vs0mg"},{"bike_id":"92821e98-ca5f-417b-a927-33d6183a33fb","system_id":"levelo_inurba_marseille","lat":43.309327,"lon":5.4015,"is_reserved":false,"is_disabled":false,"rental_uris":{"android":"levelo://app?vid=92821e98-ca5f-417b-a927-33d6183a33fb","ios":"levelo://app?vid=92821e98-ca5f-417b-a927-33d6183a33fb"},"vehicle_type_id":"4","last_reported":1747712187,"current_range_meters":14800,"station_id":"ce4bgvp2rcd13ifvqct0","pricing_plan_id":"cebpf4jnsgd1na2vs0mg"},{"bike_id":"33790735-6b85-4edc-981e-75cfd415e29a","system_id":"levelo_inurba_marseille","lat":43.3012,"lon":5.38787,"is_reserved":false,"is_disabled":true,"rental_uris":{"android":"levelo://app?vid=33790735-6b85-4edc-981e-75cfd415e29a","ios":"levelo://app?vid=33790735-6b85-4edc-981e-75cfd415e29a"},"vehicle_type_id":"4","last_reported":1747712187,"current_range_meters":14800,"station_id":"ce4bghh2rcd13ifvqb60","pricing_plan_id":"cebpf4jnsgd1na2vs0mg"},{"bike_id":"7d817d5d-b615-43af-81fe-329239a1bd76","system_id":"levelo_inurba_marseille","lat":43.32338,"lon":5.40611,"is_reserved":false,"is_disabled":false,"rental_uris":{"android":"levelo://app?vid=7d817d5d-b615-43af-81fe-329239a1bd76","ios":"levelo://app?vid=7d817d5d-b615-43af-81fe-329239a1bd76"},"vehicle_type_id":"4","last_reported":1747712187,"current_range_meters":14800,"station_id":"ce4bhq92rcd13ifvqhjg","pricing_plan_id":"cebpf4jnsgd1na2vs0mg"},{"bike_id":"6386b301-5c5b-41dc-9be6-064d845d26a2","system_id":"levelo_inurba_marseille","lat":43.28627,"lon":5.4066,"is_reserved":false,"is_disabled":false,"rental_uris":{"android":"levelo://app?vid=6386b301-5c5b-41dc-9be6-064d845d26a2","ios":"levelo://app?vid=6386b301-5c5b-41dc-9be6-064d845d26a2"},"vehicle_type_id":"4","last_reported":1747712187,"current_range_meters":14800,"station_id":"","pricing_plan_id":"cebpf4jnsgd1na2vs0mg"},{"bike_id":"5896be57-38cf-40a7-8c42-94803a4f05a3","system_id":"levelo_inurba_marseille","lat":43.30168,"lon":5.38083,"is_reserved":false,"is_disabled":false,"rental_uris":{"android":"levelo://app?vid=5896be57-38cf-40a7-8c42-94803a4f05a3","ios":"levelo://app?vid=5896be57-38cf-40a7-8c42-94803a4f05a3"},"vehicle_type_id":"4","last_reported":1747712187,"current_range_meters":14800,"station_id":"ce4bgjp2rcd13ifvqbh0","pricing_plan_id":"cebpf4jnsgd1na2vs0mg"},{"bike_id":"185ccfd4-2307-4269-8343-9f69a9c912b2","system_id":"levelo_inurba_marseille","lat":43.31758,"lon":5.390197,"is_reserved":false,"is_disabled":false,"rental_uris":{"android":"levelo://app?vid=185ccfd4-2307-4269-8343-9f69a9c912b2","ios":"levelo://app?vid=185ccfd4-2307-4269-8343-9f69a9c912b2"},"vehicle_type_id":"4","last_reported":1747712187,"current_range_meters":14800,"station_id":"ce4bhqp2rcd13ifvqhng","pricing_plan_id":"cebpf4jnsgd1na2vs0mg"},{"bike_id":"ef24fb0c-db74-4c0c-8c90-5cf92ab0b471","system_id":"levelo_inurba_marseille","lat":43.29245,"lon":5.40928,"is_reserved":false,"is_disabled":false,"rental_uris":{"android":"levelo://app?vid=ef24fb0c-db74-4c0c-8c90-5cf92ab0b471","ios":"levelo://app?vid=ef24fb0c-db74-4c0c-8c90-5cf92ab0b471"},"vehicle_type_id":"4","last_reported":1747712187,"current_range_meters":15200,"station_id":"ce4bh192rcd13ifvqdc0","pricing_plan_id":"cebpf4jnsgd1na2vs0mg"},{"bike_id":"116ee6de-5d7e-4a40-80f6-c5e3f47d2eb6","system_id":"levelo_inurba_marseille","lat":43.304196,"lon":5.412799,"is_reserved":false,"is_disabled":false,"rental_uris":{"android":"levelo://app?vid=116ee6de-5d7e-4a40-80f6-c5e3f47d2eb6","ios":"levelo://app?vid=116ee6de-5d7e-4a40-80f6-c5e3f47d2eb6"},"vehicle_type_id":"4","last_reported":1747712187,"current_range_meters":15200,"station_id":"ce4bhop2rcd13ifvqh8g","pricing_plan_id":"cebpf4jnsgd1na2vs0mg"},{"bike_id":"2360e01b-c52d-4f5a-9885-8dcf40588104","system_id":"levelo_inurba_marseille","lat":43.292493,"lon":5.409089,"is_reserved":false,"is_disabled":false,"rental_uris":{"android":"levelo://app?vid=2360e01b-c52d-4f5a-9885-8dcf40588104","ios":"levelo://app?vid=2360e01b-c52d-4f5a-9885-8dcf40588104"},"vehicle_type_id":"4","last_reported":1747712187,"current_range_meters":15200,"station_id":"ce4bh192rcd13ifvqdc0","pricing_plan_id":"cebpf4jnsgd1na2vs0mg"},{"bike_id":"901d18ec-442b-4311-be09-c99faa5dda47","system_id":"levelo_inurba_marseille","lat":43.29995,"lon":5.37177,"is_reserved":false,"is_disabled":true,"rental_uris":{"android":"levelo://app?vid=901d18ec-442b-4311-be09-c99faa5dda47","ios":"levelo://app?vid=901d18ec-442b-4311-be09-c99faa5dda47"},"vehicle_type_id":"4","last_reported":1747712187,"current_range_meters":15200,"station_id":"ce4bgr92rcd13ifvqc7g","pricing_plan_id":"cebpf4jnsgd1na2vs0mg"},{"bike_id":"08ea18f2-dc53-4ee0-8fd1-93801ba6e874","system_id":"levelo_inurba_marseille","lat":43.31066,"lon":5.38359,"is_reserved":false,"is_disabled":false,"rental_uris":{"android":"levelo://app?vid=08ea18f2-dc53-4ee0-8fd1-93801ba6e874","ios":"levelo://app?vid=08ea18f2-dc53-4ee0-8fd1-93801ba6e874"},"vehicle_type_id":"4","last_reported":1747712187,"current_range_meters":15200,"station_id":"ce4bgv92rcd13ifvqcr0","pricing_plan_id":"cebpf4jnsgd1na2vs0mg"},{"bike_id":"75dee7d2-0f48-4cd8-b326-0e219910beed","system_id":"levelo_inurba_marseille","lat":43.30811,"lon":5.43526,"is_reserved":false,"is_disabled":false,"rental_uris":{"android":"levelo://app?vid=75dee7d2-0f48-4cd8-b326-0e219910beed","ios":"levelo://app?vid=75dee7d2-0f48-4cd8-b326-0e219910beed"},"vehicle_type_id":"4","last_reported":1747712187,"current_range_meters":15200,"station_id":"ce4bhph2rcd13ifvqheg","pricing_plan_id":"cebpf4jnsgd1na2vs0mg"},{"bike_id":"71817c77-e9f1-483d-89c1-16ca77de3122","system_id":"levelo_inurba_marseille","lat":43.250812,"lon":5.395176,"is_reserved":false,"is_disabled":false,"rental_uris":{"android":"levelo://app?vid=71817c77-e9f1-483d-89c1-16ca77de3122","ios":"levelo://app?vid=71817c77-e9f1-483d-89c1-16ca77de3122"},"vehicle_type_id":"4","last_reported":1747712187,"current_range_meters":16000,"station_id":"ce4bhm12rcd13ifvqgkg","pricing_plan_id":"cebpf4jnsgd1na2vs0mg"},{"bike_id":"a77299a9-0afc-4000-817b-f97ca1eaadca","system_id":"levelo_inurba_marseille","lat":43.28822,"lon":5.459564,"is_reserved":false,"is_disabled":false,"rental_uris":{"android":"levelo://app?vid=a77299a9-0afc-4000-817b-f97ca1eaadca","ios":"levelo://app?vid=a77299a9-0afc-4000-817b-f97ca1eaadca"},"vehicle_type_id":"4","last_reported":1747712187,"current_range_meters":16000,"station_id":"","pricing_plan_id":"cebpf4jnsgd1na2vs0mg"},{"bike_id":"a5f241f5-5f56-4773-b4f4-368dd15e3cca","system_id":"levelo_inurba_marseille","lat":43.323433,"lon":5.388823,"is_reserved":false,"is_disabled":false,"rental_uris":{"android":"levelo://app?vid=a5f241f5-5f56-4773-b4f4-368dd15e3cca","ios":"levelo://app?vid=a5f241f5-5f56-4773-b4f4-368dd15e3cca"},"vehicle_type_id":"4","last_reported":1747712187,"current_range_meters":16000,"station_id":"ce4bhqp2rcd13ifvqhog","pricing_plan_id":"cebpf4jnsgd1na2vs0mg"},{"bike_id":"2fec4f99-c08b-4324-9991-e52c3316729a","system_id":"levelo_inurba_marseille","lat":43.309293,"lon":5.401634,"is_reserved":false,"is_disabled":false,"rental_uris":{"android":"levelo://app?vid=2fec4f99-c08b-4324-9991-e52c3316729a","ios":"levelo://app?vid=2fec4f99-c08b-4324-9991-e52c3316729a"},"vehicle_type_id":"4","last_reported":1747712187,"current_range_meters":16000,"station_id":"ce4bgvp2rcd13ifvqct0","pricing_plan_id":"cebpf4jnsgd1na2vs0mg"},{"bike_id":"b209cd27-532c-40f1-a5bf-f25f6c308ae9","system_id":"levelo_inurba_marseille","lat":43.28854,"lon":5.39334,"is_reserved":false,"is_disabled":true,"rental_uris":{"android":"levelo://app?vid=b209cd27-532c-40f1-a5bf-f25f6c308ae9","ios":"levelo://app?vid=b209cd27-532c-40f1-a5bf-f25f6c308ae9"},"vehicle_type_id":"4","last_reported":1747712187,"current_range_meters":16000,"station_id":"ce4bh2p2rcd13ifvqdi0","pricing_plan_id":"cebpf4jnsgd1na2vs0mg"},{"bike_id":"0c75e290-2f49-4428-9202-02a35670787a","system_id":"levelo_inurba_marseille","lat":43.23185,"lon":5.39984,"is_reserved":false,"is_disabled":false,"rental_uris":{"android":"levelo://app?vid=0c75e290-2f49-4428-9202-02a35670787a","ios":"levelo://app?vid=0c75e290-2f49-4428-9202-02a35670787a"},"vehicle_type_id":"4","last_reported":1747712187,"current_range_meters":16000,"station_id":"ce4bhn12rcd13ifvqgqg","pricing_plan_id":"cebpf4jnsgd1na2vs0mg"},{"bike_id":"77ae2670-5f4a-4f82-a74a-99848315064b","system_id":"levelo_inurba_marseille","lat":43.303124,"lon":5.404453,"is_reserved":false,"is_disabled":true,"rental_uris":{"android":"levelo://app?vid=77ae2670-5f4a-4f82-a74a-99848315064b","ios":"levelo://app?vid=77ae2670-5f4a-4f82-a74a-99848315064b"},"vehicle_type_id":"4","last_reported":1747712187,"current_range_meters":16000,"station_id":"ce4bh012rcd13ifvqd10","pricing_plan_id":"cebpf4jnsgd1na2vs0mg"},{"bike_id":"52e5a0fd-9a82-4a4a-8f0b-b92665327644","system_id":"levelo_inurba_marseille","lat":43.30814,"lon":5.43536,"is_reserved":false,"is_disabled":false,"rental_uris":{"android":"levelo://app?vid=52e5a0fd-9a82-4a4a-8f0b-b92665327644","ios":"levelo://app?vid=52e5a0fd-9a82-4a4a-8f0b-b92665327644"},"vehicle_type_id":"4","last_reported":1747712187,"current_range_meters":16000,"station_id":"ce4bhph2rcd13ifvqheg","pricing_plan_id":"cebpf4jnsgd1na2vs0mg"},{"bike_id":"88092a5f-6797-40bf-8e4d-17450765a42b","system_id":"levelo_inurba_marseille","lat":43.29556,"lon":5.39423,"is_reserved":false,"is_disabled":false,"rental_uris":{"android":"levelo://app?vid=88092a5f-6797-40bf-8e4d-17450765a42b","ios":"levelo://app?vid=88092a5f-6797-40bf-8e4d-17450765a42b"},"vehicle_type_id":"4","last_reported":1747712187,"current_range_meters":16400,"station_id":"ce4bh292rcd13ifvqdf0","pricing_plan_id":"cebpf4jnsgd1na2vs0mg"},{"bike_id":"e1d57822-ecc8-4c43-b3f2-6f5adecafb55","system_id":"levelo_inurba_marseille","lat":43.25083,"lon":5.39491,"is_reserved":false,"is_disabled":false,"rental_uris":{"android":"levelo://app?vid=e1d57822-ecc8-4c43-b3f2-6f5adecafb55","ios":"levelo://app?vid=e1d57822-ecc8-4c43-b3f2-6f5adecafb55"},"vehicle_type_id":"4","last_reported":1747712187,"current_range_meters":16400,"station_id":"ce4bhm12rcd13ifvqgkg","pricing_plan_id":"cebpf4jnsgd1na2vs0mg"},{"bike_id":"3db1d010-48a6-49be-97c6-2133fb8ee162","system_id":"levelo_inurba_marseille","lat":43.29968,"lon":5.38499,"is_reserved":false,"is_disabled":true,"rental_uris":{"android":"levelo://app?vid=3db1d010-48a6-49be-97c6-2133fb8ee162","ios":"levelo://app?vid=3db1d010-48a6-49be-97c6-2133fb8ee162"},"vehicle_type_id":"4","last_reported":1747712187,"current_range_meters":16400,"station_id":"ce4bgj92rcd13ifvqbd0","pricing_plan_id":"cebpf4jnsgd1na2vs0mg"},{"bike_id":"dc80936a-51b4-4ef9-b71e-e259b58f2ac3","system_id":"levelo_inurba_marseille","lat":43.23174,"lon":5.4,"is_reserved":false,"is_disabled":false,"rental_uris":{"android":"levelo://app?vid=dc80936a-51b4-4ef9-b71e-e259b58f2ac3","ios":"levelo://app?vid=dc80936a-51b4-4ef9-b71e-e259b58f2ac3"},"vehicle_type_id":"4","last_reported":1747712187,"current_range_meters":16400,"station_id":"ce4bhn12rcd13ifvqgqg","pricing_plan_id":"cebpf4jnsgd1na2vs0mg"},{"bike_id":"42cce372-3d36-4197-a55b-bf6adec344a3","system_id":"levelo_inurba_marseille","lat":43.30249,"lon":5.4007,"is_reserved":false,"is_disabled":false,"rental_uris":{"android":"levelo://app?vid=42cce372-3d36-4197-a55b-bf6adec344a3","ios":"levelo://app?vid=42cce372-3d36-4197-a55b-bf6adec344a3"},"vehicle_type_id":"4","last_reported":1747712187,"current_range_meters":16400,"station_id":"ce4bgvh2rcd13ifvqcs0","pricing_plan_id":"cebpf4jnsgd1na2vs0mg"},{"bike_id":"bfadeaec-216b-47d1-99b4-74d81f9ee763","system_id":"levelo_inurba_marseille","lat":43.32087,"lon":5.36785,"is_reserved":false,"is_disabled":false,"rental_uris":{"android":"levelo://app?vid=bfadeaec-216b-47d1-99b4-74d81f9ee763","ios":"levelo://app?vid=bfadeaec-216b-47d1-99b4-74d81f9ee763"},"vehicle_type_id":"4","last_reported":1747712187,"current_range_meters":16400,"station_id":"ce4bhrh2rcd13ifvqhug","pricing_plan_id":"cebpf4jnsgd1na2vs0mg"},{"bike_id":"7e053555-9d33-4a74-9b33-70ec85fc4206","system_id":"levelo_inurba_marseille","lat":43.30312,"lon":5.36905,"is_reserved":false,"is_disabled":false,"rental_uris":{"android":"levelo://app?vid=7e053555-9d33-4a74-9b33-70ec85fc4206","ios":"levelo://app?vid=7e053555-9d33-4a74-9b33-70ec85fc4206"},"vehicle_type_id":"4","last_reported":1747712187,"current_range_meters":16400,"station_id":"ce4bgqh2rcd13ifvqc5g","pricing_plan_id":"cebpf4jnsgd1na2vs0mg"},{"bike_id":"96806db4-e850-4c29-beae-3920eff38299","system_id":"levelo_inurba_marseille","lat":43.29261,"lon":5.37613,"is_reserved":false,"is_disabled":true,"rental_uris":{"android":"levelo://app?vid=96806db4-e850-4c29-beae-3920eff38299","ios":"levelo://app?vid=96806db4-e850-4c29-beae-3920eff38299"},"vehicle_type_id":"4","last_reported":1747712187,"current_range_meters":16800,"station_id":"ce4bgi12rcd13ifvqb80","pricing_plan_id":"cebpf4jnsgd1na2vs0mg"},{"bike_id":"17008679-5b7b-4904-b0a5-a1a99ad3c945","system_id":"levelo_inurba_marseille","lat":43.295343,"lon":5.375111,"is_reserved":false,"is_disabled":true,"rental_uris":{"android":"levelo://app?vid=17008679-5b7b-4904-b0a5-a1a99ad3c945","ios":"levelo://app?vid=17008679-5b7b-4904-b0a5-a1a99ad3c945"},"vehicle_type_id":"4","last_reported":1747712187,"current_range_meters":16800,"station_id":"ce4bgkp2rcd13ifvqbmg","pricing_plan_id":"cebpf4jnsgd1na2vs0mg"},{"bike_id":"3592927e-bdbe-4e67-99a2-1ba7f5aedb0d","system_id":"levelo_inurba_marseille","lat":43.29265,"lon":5.40136,"is_reserved":false,"is_disabled":false,"rental_uris":{"android":"levelo://app?vid=3592927e-bdbe-4e67-99a2-1ba7f5aedb0d","ios":"levelo://app?vid=3592927e-bdbe-4e67-99a2-1ba7f5aedb0d"},"vehicle_type_id":"4","last_reported":1747712187,"current_range_meters":16800,"station_id":"ce4bh312rcd13ifvqdk0","pricing_plan_id":"cebpf4jnsgd1na2vs0mg"},{"bike_id":"283403a0-596c-4a94-85e1-66d88d547369","system_id":"levelo_inurba_marseille","lat":43.29239,"lon":5.4091,"is_reserved":false,"is_disabled":false,"rental_uris":{"android":"levelo://app?vid=283403a0-596c-4a94-85e1-66d88d547369","ios":"levelo://app?vid=283403a0-596c-4a94-85e1-66d88d547369"},"vehicle_type_id":"4","last_reported":1747712187,"current_range_meters":17200,"station_id":"ce4bh192rcd13ifvqdc0","pricing_plan_id":"cebpf4jnsgd1na2vs0mg"},{"bike_id":"09d6ba82-f698-49a9-8e0d-85a4008ad1f8","system_id":"levelo_inurba_marseille","lat":43.311848,"lon":5.387128,"is_reserved":false,"is_disabled":false,"rental_uris":{"android":"levelo://app?vid=09d6ba82-f698-49a9-8e0d-85a4008ad1f8","ios":"levelo://app?vid=09d6ba82-f698-49a9-8e0d-85a4008ad1f8"},"vehicle_type_id":"4","last_reported":1747712187,"current_range_meters":17200,"station_id":"ce4bgv12rcd13ifvqcp0","pricing_plan_id":"cebpf4jnsgd1na2vs0mg"},{"bike_id":"094332af-7863-4c9b-b973-ff23daa8d0b7","system_id":"levelo_inurba_marseille","lat":43.24641,"lon":5.38209,"is_reserved":false,"is_disabled":false,"rental_uris":{"android":"levelo://app?vid=094332af-7863-4c9b-b973-ff23daa8d0b7","ios":"levelo://app?vid=094332af-7863-4c9b-b973-ff23daa8d0b7"},"vehicle_type_id":"4","last_reported":1747712187,"current_range_meters":17200,"station_id":"ce4bhih2rcd13ifvqfr0","pricing_plan_id":"cebpf4jnsgd1na2vs0mg"},{"bike_id":"4f2e4cda-39ca-4e24-bf95-e6bd03ac21a5","system_id":"levelo_inurba_marseille","lat":43.287276,"lon":5.360831,"is_reserved":false,"is_disabled":false,"rental_uris":{"android":"levelo://app?vid=4f2e4cda-39ca-4e24-bf95-e6bd03ac21a5","ios":"levelo://app?vid=4f2e4cda-39ca-4e24-bf95-e6bd03ac21a5"},"vehicle_type_id":"4","last_reported":1747712187,"current_range_meters":17200,"station_id":"cki0cbj6b192h4jlfktg","pricing_plan_id":"cebpf4jnsgd1na2vs0mg"},{"bike_id":"d8f4dca5-4410-43ef-a8d1-e53e76b49789","system_id":"levelo_inurba_marseille","lat":43.290334,"lon":5.375631,"is_reserved":false,"is_disabled":false,"rental_uris":{"android":"levelo://app?vid=d8f4dca5-4410-43ef-a8d1-e53e76b49789","ios":"levelo://app?vid=d8f4dca5-4410-43ef-a8d1-e53e76b49789"},"vehicle_type_id":"4","last_reported":1747712187,"current_range_meters":17200,"station_id":"ce4bh692rcd13ifvqe90","pricing_plan_id":"cebpf4jnsgd1na2vs0mg"},{"bike_id":"13c60fc3-3151-4a28-9e35-534c35504d13","system_id":"levelo_inurba_marseille","lat":43.320454,"lon":5.415694,"is_reserved":false,"is_disabled":false,"rental_uris":{"android":"levelo://app?vid=13c60fc3-3151-4a28-9e35-534c35504d13","ios":"levelo://app?vid=13c60fc3-3151-4a28-9e35-534c35504d13"},"vehicle_type_id":"4","last_reported":1747712187,"current_range_meters":17200,"station_id":"ce4bhq92rcd13ifvqhkg","pricing_plan_id":"cebpf4jnsgd1na2vs0mg"},{"bike_id":"f7e92e91-cff9-4cb9-b5ce-3aba442843a0","system_id":"levelo_inurba_marseille","lat":43.306098,"lon":5.372362,"is_reserved":false,"is_disabled":false,"rental_uris":{"android":"levelo://app?vid=f7e92e91-cff9-4cb9-b5ce-3aba442843a0","ios":"levelo://app?vid=f7e92e91-cff9-4cb9-b5ce-3aba442843a0"},"vehicle_type_id":"4","last_reported":1747712187,"current_range_meters":17600,"station_id":"ce4bgqh2rcd13ifvqc4g","pricing_plan_id":"cebpf4jnsgd1na2vs0mg"},{"bike_id":"697a9b19-19cf-408f-a646-3bcdb4d31625","system_id":"levelo_inurba_marseille","lat":43.24682,"lon":5.38156,"is_reserved":false,"is_disabled":false,"rental_uris":{"android":"levelo://app?vid=697a9b19-19cf-408f-a646-3bcdb4d31625","ios":"levelo://app?vid=697a9b19-19cf-408f-a646-3bcdb4d31625"},"vehicle_type_id":"4","last_reported":1747712187,"current_range_meters":17600,"station_id":"ce4bhih2rcd13ifvqfr0","pricing_plan_id":"cebpf4jnsgd1na2vs0mg"},{"bike_id":"5765434c-77b5-41b5-8b14-b978e4d6dd10","system_id":"levelo_inurba_marseille","lat":43.21194,"lon":5.35088,"is_reserved":false,"is_disabled":false,"rental_uris":{"android":"levelo://app?vid=5765434c-77b5-41b5-8b14-b978e4d6dd10","ios":"levelo://app?vid=5765434c-77b5-41b5-8b14-b978e4d6dd10"},"vehicle_type_id":"4","last_reported":1747712187,"current_range_meters":17600,"station_id":"st_cvj6sg6p6f1abm77japg","pricing_plan_id":"cebpf4jnsgd1na2vs0mg"},{"bike_id":"70e0567a-1091-48b5-9d11-86e921d1634e","system_id":"levelo_inurba_marseille","lat":43.28709,"lon":5.37393,"is_reserved":false,"is_disabled":false,"rental_uris":{"android":"levelo://app?vid=70e0567a-1091-48b5-9d11-86e921d1634e","ios":"levelo://app?vid=70e0567a-1091-48b5-9d11-86e921d1634e"},"vehicle_type_id":"4","last_reported":1747712187,"current_range_meters":17600,"station_id":"ce4bh3p2rcd13ifvqdq0","pricing_plan_id":"cebpf4jnsgd1na2vs0mg"},{"bike_id":"acfe07a3-d915-4c6f-9bb1-7746febe5e1b","system_id":"levelo_inurba_marseille","lat":43.28436,"lon":5.35916,"is_reserved":false,"is_disabled":false,"rental_uris":{"android":"levelo://app?vid=acfe07a3-d915-4c6f-9bb1-7746febe5e1b","ios":"levelo://app?vid=acfe07a3-d915-4c6f-9bb1-7746febe5e1b"},"vehicle_type_id":"4","last_reported":1747712187,"current_range_meters":17600,"station_id":"ce4bhah2rcd13ifvqei0","pricing_plan_id":"cebpf4jnsgd1na2vs0mg"},{"bike_id":"1ab14a22-64fc-4e05-9bc7-71c47c2434aa","system_id":"levelo_inurba_marseille","lat":43.295711,"lon":5.399725,"is_reserved":false,"is_disabled":false,"rental_uris":{"android":"levelo://app?vid=1ab14a22-64fc-4e05-9bc7-71c47c2434aa","ios":"levelo://app?vid=1ab14a22-64fc-4e05-9bc7-71c47c2434aa"},"vehicle_type_id":"4","last_reported":1747712187,"current_range_meters":17600,"station_id":"ce4bh312rcd13ifvqdj0","pricing_plan_id":"cebpf4jnsgd1na2vs0mg"},{"bike_id":"2a970de0-c1c9-469a-ab82-138a3fd977f3","system_id":"levelo_inurba_marseille","lat":43.290215,"lon":5.38646,"is_reserved":false,"is_disabled":true,"rental_uris":{"android":"levelo://app?vid=2a970de0-c1c9-469a-ab82-138a3fd977f3","ios":"levelo://app?vid=2a970de0-c1c9-469a-ab82-138a3fd977f3"},"vehicle_type_id":"4","last_reported":1747712187,"current_range_meters":18000,"station_id":"ce4bh4p2rcd13ifvqe0g","pricing_plan_id":"cebpf4jnsgd1na2vs0mg"},{"bike_id":"18c0878a-8caa-48a1-b8c5-12dc58136a1e","system_id":"levelo_inurba_marseille","lat":43.270665,"lon":5.4228,"is_reserved":false,"is_disabled":true,"rental_uris":{"android":"levelo://app?vid=18c0878a-8caa-48a1-b8c5-12dc58136a1e","ios":"levelo://app?vid=18c0878a-8caa-48a1-b8c5-12dc58136a1e"},"vehicle_type_id":"4","last_reported":1747712187,"current_range_meters":18000,"station_id":"ce4bhk92rcd13ifvqgb0","pricing_plan_id":"cebpf4jnsgd1na2vs0mg"},{"bike_id":"09d7a4d4-17d7-47a6-bb6b-5afb4119e4d9","system_id":"levelo_inurba_marseille","lat":43.295292,"lon":5.394136,"is_reserved":false,"is_disabled":false,"rental_uris":{"android":"levelo://app?vid=09d7a4d4-17d7-47a6-bb6b-5afb4119e4d9","ios":"levelo://app?vid=09d7a4d4-17d7-47a6-bb6b-5afb4119e4d9"},"vehicle_type_id":"4","last_reported":1747712187,"current_range_meters":18000,"station_id":"ce4bh292rcd13ifvqdf0","pricing_plan_id":"cebpf4jnsgd1na2vs0mg"},{"bike_id":"169e41d7-0c84-4fed-abef-f8a3ddc0dfd6","system_id":"levelo_inurba_marseille","lat":43.287245,"lon":5.361062,"is_reserved":false,"is_disabled":false,"rental_uris":{"android":"levelo://app?vid=169e41d7-0c84-4fed-abef-f8a3ddc0dfd6","ios":"levelo://app?vid=169e41d7-0c84-4fed-abef-f8a3ddc0dfd6"},"vehicle_type_id":"4","last_reported":1747712187,"current_range_meters":18000,"station_id":"cki0cbj6b192h4jlfktg","pricing_plan_id":"cebpf4jnsgd1na2vs0mg"},{"bike_id":"aa048516-7dde-4588-8581-150fd54aee39","system_id":"levelo_inurba_marseille","lat":43.248099,"lon":5.374613,"is_reserved":false,"is_disabled":false,"rental_uris":{"android":"levelo://app?vid=aa048516-7dde-4588-8581-150fd54aee39","ios":"levelo://app?vid=aa048516-7dde-4588-8581-150fd54aee39"},"vehicle_type_id":"4","last_reported":1747712187,"current_range_meters":18000,"station_id":"ce4bhgh2rcd13ifvqfb0","pricing_plan_id":"cebpf4jnsgd1na2vs0mg"},{"bike_id":"91142259-0ed6-40e7-9c78-83cc683d7f8e","system_id":"levelo_inurba_marseille","lat":43.28404,"lon":5.375116,"is_reserved":false,"is_disabled":false,"rental_uris":{"android":"levelo://app?vid=91142259-0ed6-40e7-9c78-83cc683d7f8e","ios":"levelo://app?vid=91142259-0ed6-40e7-9c78-83cc683d7f8e"},"vehicle_type_id":"4","last_reported":1747712187,"current_range_meters":18000,"station_id":"ce4bh412rcd13ifvqds0","pricing_plan_id":"cebpf4jnsgd1na2vs0mg"},{"bike_id":"d22b0fd0-78a6-46fc-aad8-ce2ca2a629e3","system_id":"levelo_inurba_marseille","lat":43.211957,"lon":5.350808,"is_reserved":false,"is_disabled":false,"rental_uris":{"android":"levelo://app?vid=d22b0fd0-78a6-46fc-aad8-ce2ca2a629e3","ios":"levelo://app?vid=d22b0fd0-78a6-46fc-aad8-ce2ca2a629e3"},"vehicle_type_id":"4","last_reported":1747712187,"current_range_meters":18000,"station_id":"st_cvj6sg6p6f1abm77japg","pricing_plan_id":"cebpf4jnsgd1na2vs0mg"},{"bike_id":"87e7bc5e-db0f-423c-8aff-9df688bbf3bc","system_id":"levelo_inurba_marseille","lat":43.248005,"lon":5.374639,"is_reserved":false,"is_disabled":false,"rental_uris":{"android":"levelo://app?vid=87e7bc5e-db0f-423c-8aff-9df688bbf3bc","ios":"levelo://app?vid=87e7bc5e-db0f-423c-8aff-9df688bbf3bc"},"vehicle_type_id":"4","last_reported":1747712187,"current_range_meters":18000,"station_id":"ce4bhgh2rcd13ifvqfb0","pricing_plan_id":"cebpf4jnsgd1na2vs0mg"},{"bike_id":"9e3e8194-b670-4897-b285-abf4d4977855","system_id":"levelo_inurba_marseille","lat":43.292533,"lon":5.409011,"is_reserved":false,"is_disabled":false,"rental_uris":{"android":"levelo://app?vid=9e3e8194-b670-4897-b285-abf4d4977855","ios":"levelo://app?vid=9e3e8194-b670-4897-b285-abf4d4977855"},"vehicle_type_id":"4","last_reported":1747712187,"current_range_meters":18000,"station_id":"ce4bh192rcd13ifvqdc0","pricing_plan_id":"cebpf4jnsgd1na2vs0mg"},{"bike_id":"a253706b-1cb9-4ca4-9560-173eeb92ac1f","system_id":"levelo_inurba_marseille","lat":43.308004,"lon":5.435182,"is_reserved":false,"is_disabled":false,"rental_uris":{"android":"levelo://app?vid=a253706b-1cb9-4ca4-9560-173eeb92ac1f","ios":"levelo://app?vid=a253706b-1cb9-4ca4-9560-173eeb92ac1f"},"vehicle_type_id":"4","last_reported":1747712187,"current_range_meters":18000,"station_id":"ce4bhph2rcd13ifvqheg","pricing_plan_id":"cebpf4jnsgd1na2vs0mg"},{"bike_id":"3e90b5a3-cc90-4e07-92d6-fd1e339027d5","system_id":"levelo_inurba_marseille","lat":43.262175,"lon":5.404459,"is_reserved":false,"is_disabled":false,"rental_uris":{"android":"levelo://app?vid=3e90b5a3-cc90-4e07-92d6-fd1e339027d5","ios":"levelo://app?vid=3e90b5a3-cc90-4e07-92d6-fd1e339027d5"},"vehicle_type_id":"4","last_reported":1747712187,"current_range_meters":18800,"station_id":"ce4bhmh2rcd13ifvqgmg","pricing_plan_id":"cebpf4jnsgd1na2vs0mg"},{"bike_id":"871cf541-eae3-4f6c-9b18-98a5cdcfdec7","system_id":"levelo_inurba_marseille","lat":43.28421,"lon":5.3752,"is_reserved":false,"is_disabled":false,"rental_uris":{"android":"levelo://app?vid=871cf541-eae3-4f6c-9b18-98a5cdcfdec7","ios":"levelo://app?vid=871cf541-eae3-4f6c-9b18-98a5cdcfdec7"},"vehicle_type_id":"4","last_reported":1747712187,"current_range_meters":18800,"station_id":"ce4bh412rcd13ifvqds0","pricing_plan_id":"cebpf4jnsgd1na2vs0mg"},{"bike_id":"24dc12dd-e0a1-4ccc-b473-486d35ddca69","system_id":"levelo_inurba_marseille","lat":43.317142,"lon":5.437066,"is_reserved":false,"is_disabled":false,"rental_uris":{"android":"levelo://app?vid=24dc12dd-e0a1-4ccc-b473-486d35ddca69","ios":"levelo://app?vid=24dc12dd-e0a1-4ccc-b473-486d35ddca69"},"vehicle_type_id":"4","last_reported":1747712187,"current_range_meters":18800,"station_id":"ce4bhp92rcd13ifvqhcg","pricing_plan_id":"cebpf4jnsgd1na2vs0mg"},{"bike_id":"b8555ffa-0ae4-4721-9ab6-b93e4ef78d17","system_id":"levelo_inurba_marseille","lat":43.26236,"lon":5.40444,"is_reserved":false,"is_disabled":false,"rental_uris":{"android":"levelo://app?vid=b8555ffa-0ae4-4721-9ab6-b93e4ef78d17","ios":"levelo://app?vid=b8555ffa-0ae4-4721-9ab6-b93e4ef78d17"},"vehicle_type_id":"4","last_reported":1747712187,"current_range_meters":18800,"station_id":"ce4bhmh2rcd13ifvqgmg","pricing_plan_id":"cebpf4jnsgd1na2vs0mg"},{"bike_id":"2da74e1b-9f8c-4ef1-85f5-dd4b92041c74","system_id":"levelo_inurba_marseille","lat":43.28712,"lon":5.37401,"is_reserved":false,"is_disabled":false,"rental_uris":{"android":"levelo://app?vid=2da74e1b-9f8c-4ef1-85f5-dd4b92041c74","ios":"levelo://app?vid=2da74e1b-9f8c-4ef1-85f5-dd4b92041c74"},"vehicle_type_id":"4","last_reported":1747712187,"current_range_meters":18800,"station_id":"ce4bh3p2rcd13ifvqdq0","pricing_plan_id":"cebpf4jnsgd1na2vs0mg"},{"bike_id":"c7bb0dfb-9f56-4d16-bd41-669f02cf50ad","system_id":"levelo_inurba_marseille","lat":43.303142,"lon":5.404513,"is_reserved":false,"is_disabled":true,"rental_uris":{"android":"levelo://app?vid=c7bb0dfb-9f56-4d16-bd41-669f02cf50ad","ios":"levelo://app?vid=c7bb0dfb-9f56-4d16-bd41-669f02cf50ad"},"vehicle_type_id":"4","last_reported":1747712187,"current_range_meters":18800,"station_id":"ce4bh012rcd13ifvqd10","pricing_plan_id":"cebpf4jnsgd1na2vs0mg"},{"bike_id":"a3481c5a-d345-4a3b-a42a-9252438b88ad","system_id":"levelo_inurba_marseille","lat":43.284652,"lon":5.358783,"is_reserved":false,"is_disabled":false,"rental_uris":{"android":"levelo://app?vid=a3481c5a-d345-4a3b-a42a-9252438b88ad","ios":"levelo://app?vid=a3481c5a-d345-4a3b-a42a-9252438b88ad"},"vehicle_type_id":"4","last_reported":1747712187,"current_range_meters":19200,"station_id":"ce4bhah2rcd13ifvqei0","pricing_plan_id":"cebpf4jnsgd1na2vs0mg"},{"bike_id":"1ab1e2bf-f6bc-49f8-b44c-479c40706406","system_id":"levelo_inurba_marseille","lat":43.320449,"lon":5.415728,"is_reserved":false,"is_disabled":false,"rental_uris":{"android":"levelo://app?vid=1ab1e2bf-f6bc-49f8-b44c-479c40706406","ios":"levelo://app?vid=1ab1e2bf-f6bc-49f8-b44c-479c40706406"},"vehicle_type_id":"4","last_reported":1747712187,"current_range_meters":19200,"station_id":"ce4bhq92rcd13ifvqhkg","pricing_plan_id":"cebpf4jnsgd1na2vs0mg"},{"bike_id":"1059b443-c962-4331-ad65-b9896d1b4ce4","system_id":"levelo_inurba_marseille","lat":43.305887,"lon":5.393566,"is_reserved":false,"is_disabled":false,"rental_uris":{"android":"levelo://app?vid=1059b443-c962-4331-ad65-b9896d1b4ce4","ios":"levelo://app?vid=1059b443-c962-4331-ad65-b9896d1b4ce4"},"vehicle_type_id":"4","last_reported":1747712187,"current_range_meters":19200,"station_id":"ce4bh0p2rcd13ifvqd80","pricing_plan_id":"cebpf4jnsgd1na2vs0mg"},{"bike_id":"0fff9fb1-fc84-48c6-8ab5-8a9c77b239b4","system_id":"levelo_inurba_marseille","lat":43.251147,"lon":5.403368,"is_reserved":false,"is_disabled":false,"rental_uris":{"android":"levelo://app?vid=0fff9fb1-fc84-48c6-8ab5-8a9c77b239b4","ios":"levelo://app?vid=0fff9fb1-fc84-48c6-8ab5-8a9c77b239b4"},"vehicle_type_id":"4","last_reported":1747712187,"current_range_meters":19200,"station_id":"ce4bhlh2rcd13ifvqgig","pricing_plan_id":"cebpf4jnsgd1na2vs0mg"},{"bike_id":"d9aaf1a2-4106-41f1-bdb5-227fd13f0c43","system_id":"levelo_inurba_marseille","lat":43.311166,"lon":5.377636,"is_reserved":false,"is_disabled":false,"rental_uris":{"android":"levelo://app?vid=d9aaf1a2-4106-41f1-bdb5-227fd13f0c43","ios":"levelo://app?vid=d9aaf1a2-4106-41f1-bdb5-227fd13f0c43"},"vehicle_type_id":"4","last_reported":1747712187,"current_range_meters":19200,"station_id":"ce4bgt92rcd13ifvqcg0","pricing_plan_id":"cebpf4jnsgd1na2vs0mg"},{"bike_id":"601218b6-13d1-4278-bbe9-affcbb5962f7","system_id":"levelo_inurba_marseille","lat":43.30779,"lon":5.376637,"is_reserved":false,"is_disabled":false,"rental_uris":{"android":"levelo://app?vid=601218b6-13d1-4278-bbe9-affcbb5962f7","ios":"levelo://app?vid=601218b6-13d1-4278-bbe9-affcbb5962f7"},"vehicle_type_id":"4","last_reported":1747712187,"current_range_meters":19200,"station_id":"ce4bgv92rcd13ifvqcq0","pricing_plan_id":"cebpf4jnsgd1na2vs0mg"},{"bike_id":"bb1b1447-948b-478c-93fc-efd40a95386b","system_id":"levelo_inurba_marseille","lat":43.284084,"lon":5.375166,"is_reserved":false,"is_disabled":false,"rental_uris":{"android":"levelo://app?vid=bb1b1447-948b-478c-93fc-efd40a95386b","ios":"levelo://app?vid=bb1b1447-948b-478c-93fc-efd40a95386b"},"vehicle_type_id":"4","last_reported":1747712187,"current_range_meters":19200,"station_id":"ce4bh412rcd13ifvqds0","pricing_plan_id":"cebpf4jnsgd1na2vs0mg"},{"bike_id":"bbbb59d5-2be6-482d-be95-14b0a73f23b3","system_id":"levelo_inurba_marseille","lat":43.286768,"lon":5.363485,"is_reserved":false,"is_disabled":false,"rental_uris":{"android":"levelo://app?vid=bbbb59d5-2be6-482d-be95-14b0a73f23b3","ios":"levelo://app?vid=bbbb59d5-2be6-482d-be95-14b0a73f23b3"},"vehicle_type_id":"4","last_reported":1747712187,"current_range_meters":19200,"station_id":"ce4bhah2rcd13ifvqej0","pricing_plan_id":"cebpf4jnsgd1na2vs0mg"},{"bike_id":"da9c9dca-2f1f-4148-9531-64f0c6e07b68","system_id":"levelo_inurba_marseille","lat":43.28692,"lon":5.37399,"is_reserved":false,"is_disabled":false,"rental_uris":{"android":"levelo://app?vid=da9c9dca-2f1f-4148-9531-64f0c6e07b68","ios":"levelo://app?vid=da9c9dca-2f1f-4148-9531-64f0c6e07b68"},"vehicle_type_id":"4","last_reported":1747712187,"current_range_meters":19200,"station_id":"ce4bh3p2rcd13ifvqdq0","pricing_plan_id":"cebpf4jnsgd1na2vs0mg"},{"bike_id":"663106d9-3d8f-4347-ae89-d8e356470262","system_id":"levelo_inurba_marseille","lat":43.287309,"lon":5.360927,"is_reserved":false,"is_disabled":true,"rental_uris":{"android":"levelo://app?vid=663106d9-3d8f-4347-ae89-d8e356470262","ios":"levelo://app?vid=663106d9-3d8f-4347-ae89-d8e356470262"},"vehicle_type_id":"4","last_reported":1747712187,"current_range_meters":19200,"station_id":"cki0cbj6b192h4jlfktg","pricing_plan_id":"cebpf4jnsgd1na2vs0mg"},{"bike_id":"0343b7c1-b9e1-49c9-bf64-b48e8d7971b0","system_id":"levelo_inurba_marseille","lat":43.29573,"lon":5.39967,"is_reserved":false,"is_disabled":false,"rental_uris":{"android":"levelo://app?vid=0343b7c1-b9e1-49c9-bf64-b48e8d7971b0","ios":"levelo://app?vid=0343b7c1-b9e1-49c9-bf64-b48e8d7971b0"},"vehicle_type_id":"4","last_reported":1747712187,"current_range_meters":19600,"station_id":"ce4bh312rcd13ifvqdj0","pricing_plan_id":"cebpf4jnsgd1na2vs0mg"},{"bike_id":"ad645217-e0a8-4df1-8194-00de8bf8e3a5","system_id":"levelo_inurba_marseille","lat":43.31349,"lon":5.38376,"is_reserved":false,"is_disabled":false,"rental_uris":{"android":"levelo://app?vid=ad645217-e0a8-4df1-8194-00de8bf8e3a5","ios":"levelo://app?vid=ad645217-e0a8-4df1-8194-00de8bf8e3a5"},"vehicle_type_id":"4","last_reported":1747712187,"current_range_meters":19600,"station_id":"","pricing_plan_id":"cebpf4jnsgd1na2vs0mg"},{"bike_id":"3a78ca34-3310-4ba2-bd48-75f23e091e71","system_id":"levelo_inurba_marseille","lat":43.29798,"lon":5.3936,"is_reserved":false,"is_disabled":false,"rental_uris":{"android":"levelo://app?vid=3a78ca34-3310-4ba2-bd48-75f23e091e71","ios":"levelo://app?vid=3a78ca34-3310-4ba2-bd48-75f23e091e71"},"vehicle_type_id":"4","last_reported":1747712187,"current_range_meters":19600,"station_id":"chh1huq6cuj3fo74tm60","pricing_plan_id":"cebpf4jnsgd1na2vs0mg"},{"bike_id":"53291868-9a47-43e0-921f-eb433569a23d","system_id":"levelo_inurba_marseille","lat":43.309362,"lon":5.40155,"is_reserved":false,"is_disabled":false,"rental_uris":{"android":"levelo://app?vid=53291868-9a47-43e0-921f-eb433569a23d","ios":"levelo://app?vid=53291868-9a47-43e0-921f-eb433569a23d"},"vehicle_type_id":"4","last_reported":1747712187,"current_range_meters":19600,"station_id":"ce4bgvp2rcd13ifvqct0","pricing_plan_id":"cebpf4jnsgd1na2vs0mg"},{"bike_id":"23e03e03-1bdb-46d3-ad4e-9958a18c2ffc","system_id":"levelo_inurba_marseille","lat":43.2782,"lon":5.40723,"is_reserved":false,"is_disabled":false,"rental_uris":{"android":"levelo://app?vid=23e03e03-1bdb-46d3-ad4e-9958a18c2ffc","ios":"levelo://app?vid=23e03e03-1bdb-46d3-ad4e-9958a18c2ffc"},"vehicle_type_id":"4","last_reported":1747712187,"current_range_meters":20000,"station_id":"ce4bhnh2rcd13ifvqgtg","pricing_plan_id":"cebpf4jnsgd1na2vs0mg"},{"bike_id":"28aad65e-0de0-436a-a9c6-72b66c7a120c","system_id":"levelo_inurba_marseille","lat":43.293,"lon":5.37634,"is_reserved":false,"is_disabled":true,"rental_uris":{"android":"levelo://app?vid=28aad65e-0de0-436a-a9c6-72b66c7a120c","ios":"levelo://app?vid=28aad65e-0de0-436a-a9c6-72b66c7a120c"},"vehicle_type_id":"4","last_reported":1747712187,"current_range_meters":20000,"station_id":"ce4bgi12rcd13ifvqb80","pricing_plan_id":"cebpf4jnsgd1na2vs0mg"},{"bike_id":"c52f169f-60f3-4f23-aba1-2578c1dfb918","system_id":"levelo_inurba_marseille","lat":43.280353,"lon":5.36948,"is_reserved":false,"is_disabled":false,"rental_uris":{"android":"levelo://app?vid=c52f169f-60f3-4f23-aba1-2578c1dfb918","ios":"levelo://app?vid=c52f169f-60f3-4f23-aba1-2578c1dfb918"},"vehicle_type_id":"4","last_reported":1747712187,"current_range_meters":20000,"station_id":"ce4bha12rcd13ifvqef0","pricing_plan_id":"cebpf4jnsgd1na2vs0mg"},{"bike_id":"fa4b9757-047b-4f0a-a18a-2cd6f188a33a","system_id":"levelo_inurba_marseille","lat":43.279163,"lon":5.395851,"is_reserved":false,"is_disabled":false,"rental_uris":{"android":"levelo://app?vid=fa4b9757-047b-4f0a-a18a-2cd6f188a33a","ios":"levelo://app?vid=fa4b9757-047b-4f0a-a18a-2cd6f188a33a"},"vehicle_type_id":"4","last_reported":1747712187,"current_range_meters":20000,"station_id":"ce4bhf92rcd13ifvqf40","pricing_plan_id":"cebpf4jnsgd1na2vs0mg"},