{"last_updated":1737047291,"ttl":60,"version":"2.2","data":{"bikes":[{"bike_id":"97285aa9-5761-409a-831f-0e86e3084153","system_id":"levelo_inurba_marseille","lat":43.31329,"lon":5.39684,"is_reserved":false,"is_disabled":false,"rental_uris":{"android":"levelo://app?vid=97285aa9-5761-409a-831f-0e86e3084153","ios":"levelo://app?vid=97285aa9-5761-409a-831f-0e86e3084153"},"vehicle_type_id":"4","last_reported":1737047292,"current_range_meters":12000,"station_id":"ce4bgvp2rcd13ifvqcu0","pricing_plan_id":"cebpf4jnsgd1na2vs0mg"},{"bike_id":"43c47a32-0440-4898-96fe-6e812a2a332c","system_id":"levelo_inurba_marseille","lat":43.25114,"lon":5.40324,"is_reserved":false,"is_disabled":true,"rental_uris":{"android":"levelo://app?vid=43c47a32-0440-4898-96fe-6e812a2a332c","ios":"levelo://app?vid=43c47a32-0440-4898-96fe-6e812a2a332c"},"vehicle_type_id":"4","last_reported":1737047292,"current_range_meters":1200,"station_id":"ce4bhlh2rcd13ifvqgig","pricing_plan_id":"cebpf4jnsgd1na2vs0mg"},{"bike_id":"576b341b-87be-44d8-951b-6f0e035d9ba7","system_id":"levelo_inurba_marseille","lat":43.29523,"lon":5.3903,"is_reserved":false,"is_disabled":false,"rental_uris":{"android":"levelo://app?vid=576b341b-87be-44d8-951b-6f0e035d9ba7","ios":"levelo://app?vid=576b341b-87be-44d8-951b-6f0e035d9ba7"},"vehicle_type_id":"4","last_reported":1737047292,"current_range_meters":25600,"station_id":"ce4bh3p2rcd13ifvqdp0","pricing_plan_id":"cebpf4jnsgd1na2vs0mg"},{"bike_id":"6bf20a36-cd76-4558-a422-f3890e620e17","system_id":"levelo_inurba_marseille","lat":43.27617,"lon":5.36116,"is_reserved":false,"is_disabled":false,"rental_uris":{"android":"levelo://app?vid=6bf20a36-cd76-4558-a422-f3890e620e17","ios":"levelo://app?vid=6bf20a36-cd76-4558-a422-f3890e620e17"},"vehicle_type_id":"4","last_reported":1737047292,"current_range_meters":38400,"station_id":"ce4bgj92rcd13ifvqbe0","pricing_plan_id":"cebpf4jnsgd1na2vs0mg"},{"bike_id":"a39c946b-f215-435b-b58f-d6dc4c7b0aaf","system_id":"levelo_inurba_marseille","lat":43.28161,"lon":5.42636,"is_reserved":false,"is_disabled":true,"rental_uris":{"android":"levelo://app?vid=a39c946b-f215-435b-b58f-d6dc4c7b0aaf","ios":"levelo://app?vid=a39c946b-f215-435b-b58f-d6dc4c7b0aaf"},"vehicle_type_id":"4","last_reported":1737047292,"current_range_meters":37600,"station_id":"ce4bhnh2rcd13ifvqgug","pricing_plan_id":"cebpf4jnsgd1na2vs0mg"},{"bike_id":"f920b982-cf2b-4f22-a8e5-d4ce681958df","system_id":"levelo_inurba_marseille","lat":43.298577,"lon":5.402648,"is_reserved":false,"is_disabled":false,"rental_uris":{"android":"levelo://app?vid=f920b982-cf2b-4f22-a8e5-d4ce681958df","ios":"levelo://app?vid=f920b982-cf2b-4f22-a8e5-d4ce681958df"},"vehicle_type_id":"4","last_reported":1737047292,"current_range_meters":30800,"station_id":"ce4bh112rcd13ifvqd90","pricing_plan_id":"cebpf4jnsgd1na2vs0mg"},{"bike_id":"95e185e8-799b-4104-a919-b24e84f707a2","system_id":"levelo_inurba_marseille","lat":43.25721,"lon":5.41115,"is_reserved":false,"is_disabled":false,"rental_uris":{"android":"levelo://app?vid=95e185e8-799b-4104-a919-b24e84f707a2","ios":"levelo://app?vid=95e185e8-799b-4104-a919-b24e84f707a2"},"vehicle_type_id":"4","last_reported":1737047292,"current_range_meters":1200,"station_id":"ce4bhkp2rcd13ifvqgd0","pricing_plan_id":"cebpf4jnsgd1na2vs0mg"},{"bike_id":"a9302831-a977-42c7-a552-458f0d4a525a","system_id":"levelo_inurba_marseille","lat":43.291396,"lon":5.380729,"is_reserved":false,"is_disabled":false,"rental_uris":{"android":"levelo://app?vid=a9302831-a977-42c7-a552-458f0d4a525a","ios":"levelo://app?vid=a9302831-a977-42c7-a552-458f0d4a525a"},"vehicle_type_id":"4","last_reported":1737047292,"current_range_meters":32000,"station_id":"","pricing_plan_id":"cebpf4jnsgd1na2vs0mg"},{"bike_id":"25b01166-8b4c-49d6-8386-8f83eb8111f5","system_id":"levelo_inurba_marseille","lat":43.25817,"lon":5.39439,"is_reserved":false,"is_disabled":false,"rental_uris":{"android":"levelo://app?vid=25b01166-8b4c-49d6-8386-8f83eb8111f5","ios":"levelo://app?vid=25b01166-8b4c-49d6-8386-8f83eb8111f5"},"vehicle_type_id":"4","last_reported":1737047292,"current_range_meters":8000,"station_id":"ce4bhip2rcd13ifvqft0","pricing_plan_id":"cebpf4jnsgd1na2vs0mg"},{"bike_id":"f0a92fb5-a1b4-48f0-adca-077cea1d20a2","system_id":"levelo_inurba_marseille","lat":43.27825,"lon":5.39211,"is_reserved":false,"is_disabled":true,"rental_uris":{"android":"levelo://app?vid=f0a92fb5-a1b4-48f0-adca-077cea1d20a2","ios":"levelo://app?vid=f0a92fb5-a1b4-48f0-adca-077cea1d20a2"},"vehicle_type_id":"4","last_reported":1737047292,"current_range_meters":1600,"station_id":"ce4bhjp2rcd13ifvqga0","pricing_plan_id":"cebpf4jnsgd1na2vs0mg"},{"bike_id":"4c981b7a-6a20-4f99-8f7f-b78dfe740cbc","system_id":"levelo_inurba_marseille","lat":43.27924,"lon":5.39573,"is_reserved":false,"is_disabled":true,"rental_uris":{"android":"levelo://app?vid=4c981b7a-6a20-4f99-8f7f-b78dfe740cbc","ios":"levelo://app?vid=4c981b7a-6a20-4f99-8f7f-b78dfe740cbc"},"vehicle_type_id":"4","last_reported":1737047292,"current_range_meters":1600,"station_id":"ce4bhf92rcd13ifvqf40","pricing_plan_id":"cebpf4jnsgd1na2vs0mg"},{"bike_id":"e9ed9015-c413-42e5-81bd-431fd886da21","system_id":"levelo_inurba_marseille","lat":43.29035,"lon":5.38646,"is_reserved":false,"is_disabled":false,"rental_uris":{"android":"levelo://app?vid=e9ed9015-c413-42e5-81bd-431fd886da21","ios":"levelo://app?vid=e9ed9015-c413-42e5-81bd-431fd886da21"},"vehicle_type_id":"4","last_reported":1737047292,"current_range_meters":38000,"station_id":"ce4bh4p2rcd13ifvqe0g","pricing_plan_id":"cebpf4jnsgd1na2vs0mg"},{"bike_id":"6a6eccf6-1a6c-426e-ab1e-7bf245bcf077","system_id":"levelo_inurba_marseille","lat":43.28939,"lon":5.36634,"is_reserved":false,"is_disabled":false,"rental_uris":{"android":"levelo://app?vid=6a6eccf6-1a6c-426e-ab1e-7bf245bcf077","ios":"levelo://app?vid=6a6eccf6-1a6c-426e-ab1e-7bf245bcf077"},"vehicle_type_id":"4","last_reported":1737047292,"current_range_meters":17600,"station_id":"ce4bhap2rcd13ifvqek0","pricing_plan_id":"cebpf4jnsgd1na2vs0mg"},{"bike_id":"8800286a-027a-4841-87ae-71bd90fd9e19","system_id":"levelo_inurba_marseille","lat":43.28661,"lon":5.36363,"is_reserved":false,"is_disabled":false,"rental_uris":{"android":"levelo://app?vid=8800286a-027a-4841-87ae-71bd90fd9e19","ios":"levelo://app?vid=8800286a-027a-4841-87ae-71bd90fd9e19"},"vehicle_type_id":"4","last_reported":1737047292,"current_range_meters":34800,"station_id":"ce4bhah2rcd13ifvqej0","pricing_plan_id":"cebpf4jnsgd1na2vs0mg"},{"bike_id":"da7ee631-ad3f-47d4-b67e-54641f4c13ef","system_id":"levelo_inurba_marseille","lat":43.29758,"lon":5.37701,"is_reserved":false,"is_disabled":false,"rental_uris":{"android":"levelo://app?vid=da7ee631-ad3f-47d4-b67e-54641f4c13ef","ios":"levelo://app?vid=da7ee631-ad3f-47d4-b67e-54641f4c13ef"},"vehicle_type_id":"4","last_reported":1737047292,"current_range_meters":32400,"station_id":"ce4bgkh2rcd13ifvqbl0","pricing_plan_id":"cebpf4jnsgd1na2vs0mg"},{"bike_id":"0a704a56-33fb-47e2-b0c5-6a84a4b792a3","system_id":"levelo_inurba_marseille","lat":43.29165,"lon":5.37169,"is_reserved":false,"is_disabled":false,"rental_uris":{"android":"levelo://app?vid=0a704a56-33fb-47e2-b0c5-6a84a4b792a3","ios":"levelo://app?vid=0a704a56-33fb-47e2-b0c5-6a84a4b792a3"},"vehicle_type_id":"4","last_reported":1737047292,"current_range_meters":13600,"station_id":"ce4bha92rcd13ifvqeh0","pricing_plan_id":"cebpf4jnsgd1na2vs0mg"},{"bike_id":"85697b48-7ca0-4d57-bbd7-b28f626dd05b","system_id":"levelo_inurba_marseille","lat":43.28578,"lon":5.35972,"is_reserved":false,"is_disabled":false,"rental_uris":{"android":"levelo://app?vid=85697b48-7ca0-4d57-bbd7-b28f626dd05b","ios":"levelo://app?vid=85697b48-7ca0-4d57-bbd7-b28f626dd05b"},"vehicle_type_id":"4","last_reported":1737047292,"current_range_meters":5600,"station_id":"","pricing_plan_id":"cebpf4jnsgd1na2vs0mg"},{"bike_id":"6f368ff2-1504-491c-83f4-83e26ebadf4f","system_id":"levelo_inurba_marseille","lat":43.27974,"lon":5.38746,"is_reserved":false,"is_disabled":false,"rental_uris":{"android":"levelo://app?vid=6f368ff2-1504-491c-83f4-83e26ebadf4f","ios":"levelo://app?vid=6f368ff2-1504-491c-83f4-83e26ebadf4f"},"vehicle_type_id":"4","last_reported":1737047292,"current_range_meters":22800,"station_id":"ce4bhg12rcd13ifvqf80","pricing_plan_id":"cebpf4jnsgd1na2vs0mg"},{"bike_id":"c4fc9679-1008-473b-9e9b-26f1ed62312e","system_id":"levelo_inurba_marseille","lat":43.2293,"lon":5.353821,"is_reserved":false,"is_disabled":false,"rental_uris":{"android":"levelo://app?vid=c4fc9679-1008-473b-9e9b-26f1ed62312e","ios":"levelo://app?vid=c4fc9679-1008-473b-9e9b-26f1ed62312e"},"vehicle_type_id":"4","last_reported":1737047292,"current_range_meters":22800,"station_id":"cpo3532slgdg3j2ikp40","pricing_plan_id":"cebpf4jnsgd1na2vs0mg"},{"bike_id":"c16f3ad5-7a4d-4e73-894d-e8f52bcfa5ac","system_id":"levelo_inurba_marseille","lat":43.28581,"lon":5.39491,"is_reserved":false,"is_disabled":false,"rental_uris":{"android":"levelo://app?vid=c16f3ad5-7a4d-4e73-894d-e8f52bcfa5ac","ios":"levelo://app?vid=c16f3ad5-7a4d-4e73-894d-e8f52bcfa5ac"},"vehicle_type_id":"4","last_reported":1737047292,"current_range_meters":38800,"station_id":"ce4bh292rcd13ifvqdg0","pricing_plan_id":"cebpf4jnsgd1na2vs0mg"},{"bike_id":"32259bb3-143d-4a79-b245-4c8a398c3e34","system_id":"levelo_inurba_marseille","lat":43.28719,"lon":5.3795,"is_reserved":false,"is_disabled":false,"rental_uris":{"android":"levelo://app?vid=32259bb3-143d-4a79-b245-4c8a398c3e34","ios":"levelo://app?vid=32259bb3-143d-4a79-b245-4c8a398c3e34"},"vehicle_type_id":"4","last_reported":1737047292,"current_range_meters":32000,"station_id":"ce4bh9p2rcd13ifvqec0","pricing_plan_id":"cebpf4jnsgd1na2vs0mg"},{"bike_id":"0e842b39-329d-48e2-b781-7e3babc96cf4","system_id":"levelo_inurba_marseille","lat":43.229359,"lon":5.353849,"is_reserved":false,"is_disabled":false,"rental_uris":{"android":"levelo://app?vid=0e842b39-329d-48e2-b781-7e3babc96cf4","ios":"levelo://app?vid=0e842b39-329d-48e2-b781-7e3babc96cf4"},"vehicle_type_id":"4","last_reported":1737047292,"current_range_meters":14400,"station_id":"cpo3532slgdg3j2ikp40","pricing_plan_id":"cebpf4jnsgd1na2vs0mg"},{"bike_id":"2e7c58f0-f87f-443e-8de0-f219f58aa275","system_id":"levelo_inurba_marseille","lat":43.29864,"lon":5.3628,"is_reserved":false,"is_disabled":false,"rental_uris":{"android":"levelo://app?vid=2e7c58f0-f87f-443e-8de0-f219f58aa275","ios":"levelo://app?vid=2e7c58f0-f87f-443e-8de0-f219f58aa275"},"vehicle_type_id":"4","last_reported":1737047292,"current_range_meters":10800,"station_id":"ce4bgpp2rcd13ifvqc3g","pricing_plan_id":"cebpf4jnsgd1na2vs0mg"},{"bike_id":"99edffd1-a5ba-4759-befa-f12a00faec89","system_id":"levelo_inurba_marseille","lat":43.28562,"lon":5.39503,"is_reserved":false,"is_disabled":true,"rental_uris":{"android":"levelo://app?vid=99edffd1-a5ba-4759-befa-f12a00faec89","ios":"levelo://app?vid=99edffd1-a5ba-4759-befa-f12a00faec89"},"vehicle_type_id":"4","last_reported":1737047292,"current_range_meters":14000,"station_id":"ce4bh292rcd13ifvqdg0","pricing_plan_id":"cebpf4jnsgd1na2vs0mg"},{"bike_id":"eedca34a-74d3-4a3c-b3ef-ad0a55602930","system_id":"levelo_inurba_marseille","lat":43.2989,"lon":5.39737,"is_reserved":false,"is_disabled":false,"rental_uris":{"android":"levelo://app?vid=eedca34a-74d3-4a3c-b3ef-ad0a55602930","ios":"levelo://app?vid=eedca34a-74d3-4a3c-b3ef-ad0a55602930"},"vehicle_type_id":"4","last_reported":1737047292,"current_range_meters":38800,"station_id":"ce4bh0h2rcd13ifvqd50","pricing_plan_id":"cebpf4jnsgd1na2vs0mg"},{"bike_id":"240793b7-2334-47eb-b07b-36073cab0422","system_id":"levelo_inurba_marseille","lat":43.23184,"lon":5.39985,"is_reserved":false,"is_disabled":false,"rental_uris":{"android":"levelo://app?vid=240793b7-2334-47eb-b07b-36073cab0422","ios":"levelo://app?vid=240793b7-2334-47eb-b07b-36073cab0422"},"vehicle_type_id":"4","last_reported":1737047292,"current_range_meters":25600,"station_id":"ce4bhn12rcd13ifvqgqg","pricing_plan_id":"cebpf4jnsgd1na2vs0mg"},{"bike_id":"65a397c1-07b1-4480-be0a-2ce730712cf5","system_id":"levelo_inurba_marseille","lat":43.27184,"lon":5.40983,"is_reserved":false,"is_disabled":false,"rental_uris":{"android":"levelo://app?vid=65a397c1-07b1-4480-be0a-2ce730712cf5","ios":"levelo://app?vid=65a397c1-07b1-4480-be0a-2ce730712cf5"},"vehicle_type_id":"4","last_reported":1737047292,"current_range_meters":27600,"station_id":"ce4bhl12rcd13ifvqgf0","pricing_plan_id":"cebpf4jnsgd1na2vs0mg"},{"bike_id":"a0692d70-e17f-48da-be55-0222287280f4","system_id":"levelo_inurba_marseille","lat":43.29557,"lon":5.42289,"is_reserved":false,"is_disabled":false,"rental_uris":{"android":"levelo://app?vid=a0692d70-e17f-48da-be55-0222287280f4","ios":"levelo://app?vid=a0692d70-e17f-48da-be55-0222287280f4"},"vehicle_type_id":"4","last_reported":1737047292,"current_range_meters":36000,"station_id":"ce4bhph2rcd13ifvqhdg","pricing_plan_id":"cebpf4jnsgd1na2vs0mg"},{"bike_id":"c2257fb8-59f9-4251-bf34-1293636b1dbf","system_id":"levelo_inurba_marseille","lat":43.29577,"lon":5.37425,"is_reserved":false,"is_disabled":false,"rental_uris":{"android":"levelo://app?vid=c2257fb8-59f9-4251-bf34-1293636b1dbf","ios":"levelo://app?vid=c2257fb8-59f9-4251-bf34-1293636b1dbf"},"vehicle_type_id":"4","last_reported":1737047292,"current_range_meters":35600,"station_id":"ce4bgh92rcd13ifvqb50","pricing_plan_id":"cebpf4jnsgd1na2vs0mg"},{"bike_id":"70199fc2-df6a-4ec4-910c-a63d7bb31e5e","system_id":"levelo_inurba_marseille","lat":43.29197,"lon":5.35804,"is_reserved":false,"is_disabled":false,"rental_uris":{"android":"levelo://app?vid=70199fc2-df6a-4ec4-910c-a63d7bb31e5e","ios":"levelo://app?vid=70199fc2-df6a-4ec4-910c-a63d7bb31e5e"},"vehicle_type_id":"4","last_reported":1737047292,"current_range_meters":38400,"station_id":"ce4bhb12rcd13ifvqel0","pricing_plan_id":"cebpf4jnsgd1na2vs0mg"},{"bike_id":"ec71eac7-b259-44c3-8eb4-0f05a3997871","system_id":"levelo_inurba_marseille","lat":43.29255,"lon":5.40903,"is_reserved":false,"is_disabled":false,"rental_uris":{"android":"levelo://app?vid=ec71eac7-b259-44c3-8eb4-0f05a3997871","ios":"levelo://app?vid=ec71eac7-b259-44c3-8eb4-0f05a3997871"},"vehicle_type_id":"4","last_reported":1737047292,"current_range_meters":24400,"station_id":"ce4bh192rcd13ifvqdc0","pricing_plan_id":"cebpf4jnsgd1na2vs0mg"},{"bike_id":"cba96702-007c-415e-9b61-0a4b4895f41a","system_id":"levelo_inurba_marseille","lat":43.29051,"lon":5.3997,"is_reserved":false,"is_disabled":true,"rental_uris":{"android":"levelo://app?vid=cba96702-007c-415e-9b61-0a4b4895f41a","ios":"levelo://app?vid=cba96702-007c-415e-9b61-0a4b4895f41a"},"vehicle_type_id":"4","last_reported":1737047292,"current_range_meters":0,"station_id":"ce4bh392rcd13ifvqdm0","pricing_plan_id":"cebpf4jnsgd1na2vs0mg"},{"bike_id":"85b17b88-0932-436f-a3cd-d6633f9898b6","system_id":"levelo_inurba_marseille","lat":43.23185,"lon":5.39985,"is_reserved":false,"is_disabled":false,"rental_uris":{"android":"levelo://app?vid=85b17b88-0932-436f-a3cd-d6633f9898b6","ios":"levelo://app?vid=85b17b88-0932-436f-a3cd-d6633f9898b6"},"vehicle_type_id":"4","last_reported":1737047292,"current_range_meters":17600,"station_id":"ce4bhn12rcd13ifvqgqg","pricing_plan_id":"cebpf4jnsgd1na2vs0mg"},{"bike_id":"d2ed35f8-7da5-4b4b-8781-01e92d76cd9e","system_id":"levelo_inurba_marseille","lat":43.28422,"lon":5.37542,"is_reserved":false,"is_disabled":false,"rental_uris":{"android":"levelo://app?vid=d2ed35f8-7da5-4b4b-8781-01e92d76cd9e","ios":"levelo://app?vid=d2ed35f8-7da5-4b4b-8781-01e92d76cd9e"},"vehicle_type_id":"4","last_reported":1737047292,"current_range_meters":38800,"station_id":"ce4bh412rcd13ifvqds0","pricing_plan_id":"cebpf4jnsgd1na2vs0mg"},{"bike_id":"b70e13b7-3391-4c0e-9f63-5b7868985b1d","system_id":"levelo_inurba_marseille","lat":43.29009,"lon":5.38632,"is_reserved":false,"is_disabled":false,"rental_uris":{"android":"levelo://app?vid=b70e13b7-3391-4c0e-9f63-5b7868985b1d","ios":"levelo://app?vid=b70e13b7-3391-4c0e-9f63-5b7868985b1d"},"vehicle_type_id":"4","last_reported":1737047292,"current_range_meters":39200,"station_id":"ce4bh4p2rcd13ifvqe0g","pricing_plan_id":"cebpf4jnsgd1na2vs0mg"},{"bike_id":"396323e9-c67e-466f-a683-f8e12dfec855","system_id":"levelo_inurba_marseille","lat":43.28409,"lon":5.37506,"is_reserved":false,"is_disabled":false,"rental_uris":{"android":"levelo://app?vid=396323e9-c67e-466f-a683-f8e12dfec855","ios":"levelo://app?vid=396323e9-c67e-466f-a683-f8e12dfec855"},"vehicle_type_id":"4","last_reported":1737047292,"current_range_meters":34000,"station_id":"ce4bh412rcd13ifvqds0","pricing_plan_id":"cebpf4jnsgd1na2vs0mg"},{"bike_id":"732c3f70-d004-4758-8c96-55addba00672","system_id":"levelo_inurba_marseille","lat":43.30588,"lon":5.39351,"is_reserved":false,"is_disabled":false,"rental_uris":{"android":"levelo://app?vid=732c3f70-d004-4758-8c96-55addba00672","ios":"levelo://app?vid=732c3f70-d004-4758-8c96-55addba00672"},"vehicle_type_id":"4","last_reported":1737047292,"current_range_meters":34000,"station_id":"ce4bh0p2rcd13ifvqd80","pricing_plan_id":"cebpf4jnsgd1na2vs0mg"},{"bike_id":"c9add519-258f-466c-905c-4c6ce90bff83","system_id":"levelo_inurba_marseille","lat":43.29897,"lon":5.4367,"is_reserved":false,"is_disabled":false,"rental_uris":{"android":"levelo://app?vid=c9add519-258f-466c-905c-4c6ce90bff83","ios":"levelo://app?vid=c9add519-258f-466c-905c-4c6ce90bff83"},"vehicle_type_id":"4","last_reported":1737047292,"current_range_meters":38000,"station_id":"ce4bhpp2rcd13ifvqhfg","pricing_plan_id":"cebpf4jnsgd1na2vs0mg"},{"bike_id":"507d7b19-702d-4bfb-8bc8-0fc6d8c1a3a4","system_id":"levelo_inurba_marseille","lat":43.2989,"lon":5.3974,"is_reserved":false,"is_disabled":false,"rental_uris":{"android":"levelo://app?vid=507d7b19-702d-4bfb-8bc8-0fc6d8c1a3a4","ios":"levelo://app?vid=507d7b19-702d-4bfb-8bc8-0fc6d8c1a3a4"},"vehicle_type_id":"4","last_reported":1737047292,"current_range_meters":38800,"station_id":"ce4bh0h2rcd13ifvqd50","pricing_plan_id":"cebpf4jnsgd1na2vs0mg"},{"bike_id":"87707ecc-a555-4041-b4c9-046040370b07","system_id":"levelo_inurba_marseille","lat":43.31997,"lon":5.38166,"is_reserved":false,"is_disabled":true,"rental_uris":{"android":"levelo://app?vid=87707ecc-a555-4041-b4c9-046040370b07","ios":"levelo://app?vid=87707ecc-a555-4041-b4c9-046040370b07"},"vehicle_type_id":"4","last_reported":1737047292,"current_range_meters":800,"station_id":"ce4bhr12rcd13ifvqhpg","pricing_plan_id":"cebpf4jnsgd1na2vs0mg"},{"bike_id":"f7b36479-004c-471b-8a8d-311295e04458","system_id":"levelo_inurba_marseille","lat":43.30778,"lon":5.37651,"is_reserved":false,"is_disabled":false,"rental_uris":{"android":"levelo://app?vid=f7b36479-004c-471b-8a8d-311295e04458","ios":"levelo://app?vid=f7b36479-004c-471b-8a8d-311295e04458"},"vehicle_type_id":"4","last_reported":1737047292,"current_range_meters":29600,"station_id":"ce4bgv92rcd13ifvqcq0","pricing_plan_id":"cebpf4jnsgd1na2vs0mg"},{"bike_id":"ae6ec69a-9b0e-43e0-a28d-173f309613ee","system_id":"levelo_inurba_marseille","lat":43.299161,"lon":5.374751,"is_reserved":false,"is_disabled":false,"rental_uris":{"android":"levelo://app?vid=ae6ec69a-9b0e-43e0-a28d-173f309613ee","ios":"levelo://app?vid=ae6ec69a-9b0e-43e0-a28d-173f309613ee"},"vehicle_type_id":"4","last_reported":1737047292,"current_range_meters":26800,"station_id":"ce4bgjh2rcd13ifvqbg0","pricing_plan_id":"cebpf4jnsgd1na2vs0mg"},{"bike_id":"8014e73d-d203-41f5-8062-c56d5d194ec7","system_id":"levelo_inurba_marseille","lat":43.293195,"lon":5.371647,"is_reserved":false,"is_disabled":false,"rental_uris":{"android":"levelo://app?vid=8014e73d-d203-41f5-8062-c56d5d194ec7","ios":"levelo://app?vid=8014e73d-d203-41f5-8062-c56d5d194ec7"},"vehicle_type_id":"4","last_reported":1737047292,"current_range_meters":38000,"station_id":"ce4bgh92rcd13ifvqb40","pricing_plan_id":"cebpf4jnsgd1na2vs0mg"},{"bike_id":"fa53afd0-c3c0-46c2-be7e-d056eb14f6b8","system_id":"levelo_inurba_marseille","lat":43.26073,"lon":5.39406,"is_reserved":false,"is_disabled":false,"rental_uris":{"android":"levelo://app?vid=fa53afd0-c3c0-46c2-be7e-d056eb14f6b8","ios":"levelo://app?vid=fa53afd0-c3c0-46c2-be7e-d056eb14f6b8"},"vehicle_type_id":"4","last_reported":1737047292,"current_range_meters":38800,"station_id":"ce4bhh92rcd13ifvqfj0","pricing_plan_id":"cebpf4jnsgd1na2vs0mg"},{"bike_id":"d39ad554-9485-40a7-aff3-42eac41895af","system_id":"levelo_inurba_marseille","lat":43.297287,"lon":5.376683,"is_reserved":false,"is_disabled":false,"rental_uris":{"android":"levelo://app?vid=d39ad554-9485-40a7-aff3-42eac41895af","ios":"levelo://app?vid=d39ad554-9485-40a7-aff3-42eac41895af"},"vehicle_type_id":"4","last_reported":1737047292,"current_range_meters":31200,"station_id":"ce4bgkh2rcd13ifvqbl0","pricing_plan_id":"cebpf4jnsgd1na2vs0mg"},{"bike_id":"871009eb-a9db-432d-8f31-ee5e9186f3bd","system_id":"levelo_inurba_marseille","lat":43.27572,"lon":5.38433,"is_reserved":false,"is_disabled":false,"rental_uris":{"android":"levelo://app?vid=871009eb-a9db-432d-8f31-ee5e9186f3bd","ios":"levelo://app?vid=871009eb-a9db-432d-8f31-ee5e9186f3bd"},"vehicle_type_id":"4","last_reported":1737047292,"current_range_meters":18800,"station_id":"ce4bhh92rcd13ifvqfi0","pricing_plan_id":"cebpf4jnsgd1na2vs0mg"},{"bike_id":"4e23a9df-47c8-488b-a649-694f1b92ae4e","system_id":"levelo_inurba_marseille","lat":43.2902,"lon":5.38639,"is_reserved":false,"is_disabled":false,"rental_uris":{"android":"levelo://app?vid=4e23a9df-47c8-488b-a649-694f1b92ae4e","ios":"levelo://app?vid=4e23a9df-47c8-488b-a649-694f1b92ae4e"},"vehicle_type_id":"4","last_reported":1737047292,"current_range_meters":17200,"station_id":"ce4bh4p2rcd13ifvqe0g","pricing_plan_id":"cebpf4jnsgd1na2vs0mg"},{"bike_id":"155dbf4b-d6fe-46aa-9097-9994452a5158","system_id":"levelo_inurba_marseille","lat":43.230654,"lon":5.354937,"is_reserved":false,"is_disabled":false,"rental_uris":{"android":"levelo://app?vid=155dbf4b-d6fe-46aa-9097-9994452a5158","ios":"levelo://app?vid=155dbf4b-d6fe-46aa-9097-9994452a5158"},"vehicle_type_id":"4","last_reported":1737047292,"current_range_meters":8800,"station_id":"cpo3342slgdg3j2ifvpg","pricing_plan_id":"cebpf4jnsgd1na2vs0mg"},{"bike_id":"0e71a129-f7e7-4831-b59a-0bfbf11a9064","system_id":"levelo_inurba_marseille","lat":43.28721,"lon":5.37954,"is_reserved":false,"is_disabled":false,"rental_uris":{"android":"levelo://app?vid=0e71a129-f7e7-4831-b59a-0bfbf11a9064","ios":"levelo://app?vid=0e71a129-f7e7-4831-b59a-0bfbf11a9064"},"vehicle_type_id":"4","last_reported":1737047292,"current_range_meters":10000,"station_id":"ce4bh9p2rcd13ifvqec0","pricing_plan_id":"cebpf4jnsgd1na2vs0mg"},{"bike_id":"80bc6287-ce2b-4ae4-b9d5-67d3150daa6d","system_id":"levelo_inurba_marseille","lat":43.27181,"lon":5.40992,"is_reserved":false,"is_disabled":false,"rental_uris":{"android":"levelo://app?vid=80bc6287-ce2b-4ae4-b9d5-67d3150daa6d","ios":"levelo://app?vid=80bc6287-ce2b-4ae4-b9d5-67d3150daa6d"},"vehicle_type_id":"4","last_reported":1737047292,"current_range_meters":28400,"station_id":"ce4bhl12rcd13ifvqgf0","pricing_plan_id":"cebpf4jnsgd1na2vs0mg"},{"bike_id":"98342f93-7bf2-4304-817a-494cc685e2f4","system_id":"levelo_inurba_marseille","lat":43.337312,"lon":5.39187,"is_reserved":false,"is_disabled":false,"rental_uris":{"android":"levelo://app?vid=98342f93-7bf2-4304-817a-494cc685e2f4","ios":"levelo://app?vid=98342f93-7bf2-4304-817a-494cc685e2f4"},"vehicle_type_id":"4","last_reported":1737047292,"current_range_meters":38800,"station_id":"ce4bhr92rcd13ifvqhsg","pricing_plan_id":"cebpf4jnsgd1na2vs0mg"},{"bike_id":"9fb51e7c-64df-4bee-80d2-5900417ff627","system_id":"levelo_inurba_marseille","lat":43.29054,"lon":5.35921,"is_reserved":false,"is_disabled":false,"rental_uris":{"android":"levelo://app?vid=9fb51e7c-64df-4bee-80d2-5900417ff627","ios":"levelo://app?vid=9fb51e7c-64df-4bee-80d2-5900417ff627"},"vehicle_type_id":"4","last_reported":1737047292,"current_range_meters":6800,"station_id":"ce4bha92rcd13ifvqeg0","pricing_plan_id":"cebpf4jnsgd1na2vs0mg"},{"bike_id":"0e148415-5fb7-4b85-bd8d-2efc964f268e","system_id":"levelo_inurba_marseille","lat":43.33729,"lon":5.39191,"is_reserved":false,"is_disabled":false,"rental_uris":{"android":"levelo://app?vid=0e148415-5fb7-4b85-bd8d-2efc964f268e","ios":"levelo://app?vid=0e148415-5fb7-4b85-bd8d-2efc964f268e"},"vehicle_type_id":"4","last_reported":1737047292,"current_range_meters":38000,"station_id":"ce4bhr92rcd13ifvqhsg","pricing_plan_id":"cebpf4jnsgd1na2vs0mg"},{"bike_id":"160c4de7-7f2e-4ddd-89ef-4765ad4546e8","system_id":"levelo_inurba_marseille","lat":43.29006,"lon":5.35612,"is_reserved":false,"is_disabled":false,"rental_uris":{"android":"levelo://app?vid=160c4de7-7f2e-4ddd-89ef-4765ad4546e8","ios":"levelo://app?vid=160c4de7-7f2e-4ddd-89ef-4765ad4546e8"},"vehicle_type_id":"4","last_reported":1737047292,"current_range_meters":37600,"station_id":"ce4bhb92rcd13ifvqen0","pricing_plan_id":"cebpf4jnsgd1na2vs0mg"},{"bike_id":"0cb6441d-692d-4313-a29a-274f515059a2","system_id":"levelo_inurba_marseille","lat":43.29709,"lon":5.37699,"is_reserved":false,"is_disabled":false,"rental_uris":{"android":"levelo://app?vid=0cb6441d-692d-4313-a29a-274f515059a2","ios":"levelo://app?vid=0cb6441d-692d-4313-a29a-274f515059a2"},"vehicle_type_id":"4","last_reported":1737047292,"current_range_meters":26800,"station_id":"ce4bgkh2rcd13ifvqbl0","pricing_plan_id":"cebpf4jnsgd1na2vs0mg"},{"bike_id":"41b0b4ec-7526-4290-96f9-44cbe4cd1ada","system_id":"levelo_inurba_marseille","lat":43.26779,"lon":5.39425,"is_reserved":false,"is_disabled":true,"rental_uris":{"android":"levelo://app?vid=41b0b4ec-7526-4290-96f9-44cbe4cd1ada","ios":"levelo://app?vid=41b0b4ec-7526-4290-96f9-44cbe4cd1ada"},"vehicle_type_id":"4","last_reported":1737047292,"current_range_meters":24000,"station_id":"ce4bhh12rcd13ifvqfg0","pricing_plan_id":"cebpf4jnsgd1na2vs0mg"},{"bike_id":"6851d26c-9ce1-4383-9e14-ab406b67b568","system_id":"levelo_inurba_marseille","lat":43.26496,"lon":5.39536,"is_reserved":false,"is_disabled":false,"rental_uris":{"android":"levelo://app?vid=6851d26c-9ce1-4383-9e14-ab406b67b568","ios":"levelo://app?vid=6851d26c-9ce1-4383-9e14-ab406b67b568"},"vehicle_type_id":"4","last_reported":1737047292,"current_range_meters":8800,"station_id":"ce4bhi12rcd13ifvqfq0","pricing_plan_id":"cebpf4jnsgd1na2vs0mg"},{"bike_id":"9209536e-bf89-40ac-8887-2f112bedc4b0","system_id":"levelo_inurba_marseille","lat":43.32658,"lon":5.40997,"is_reserved":false,"is_disabled":false,"rental_uris":{"android":"levelo://app?vid=9209536e-bf89-40ac-8887-2f112bedc4b0","ios":"levelo://app?vid=9209536e-bf89-40ac-8887-2f112bedc4b0"},"vehicle_type_id":"4","last_reported":1737047292,"current_range_meters":38800,"station_id":"ce4bhpp2rcd13ifvqhgg","pricing_plan_id":"cebpf4jnsgd1na2vs0mg"},{"bike_id":"4d67d339-e8e1-4f5a-8086-1d6e90a5223c","system_id":"levelo_inurba_marseille","lat":43.31442,"lon":5.376,"is_reserved":false,"is_disabled":false,"rental_uris":{"android":"levelo://app?vid=4d67d339-e8e1-4f5a-8086-1d6e90a5223c","ios":"levelo://app?vid=4d67d339-e8e1-4f5a-8086-1d6e90a5223c"},"vehicle_type_id":"4","last_reported":1737047292,"current_range_meters":38800,"station_id":"","pricing_plan_id":"cebpf4jnsgd1na2vs0mg"},{"bike_id":"6232c13d-8660-4e7a-9cb2-6e4d75352511","system_id":"levelo_inurba_marseille","lat":43.29979,"lon":5.385,"is_reserved":false,"is_disabled":false,"rental_uris":{"android":"levelo://app?vid=6232c13d-8660-4e7a-9cb2-6e4d75352511","ios":"levelo://app?vid=6232c13d-8660-4e7a-9cb2-6e4d75352511"},"vehicle_type_id":"4","last_reported":1737047292,"current_range_meters":30800,"station_id":"ce4bgj92rcd13ifvqbd0","pricing_plan_id":"cebpf4jnsgd1na2vs0mg"},{"bike_id":"e255050d-d8ec-4ad4-b50b-34d84c3f0280","system_id":"levelo_inurba_marseille","lat":43.28,"lon":5.40005,"is_reserved":false,"is_disabled":false,"rental_uris":{"android":"levelo://app?vid=e255050d-d8ec-4ad4-b50b-34d84c3f0280","ios":"levelo://app?vid=e255050d-d8ec-4ad4-b50b-34d84c3f0280"},"vehicle_type_id":"4","last_reported":1737047292,"current_range_meters":14400,"station_id":"ce4bho92rcd13ifvqh4g","pricing_plan_id":"cebpf4jnsgd1na2vs0mg"},{"bike_id":"2c839bfc-228b-4afd-9c45-0e54b8f36672","system_id":"levelo_inurba_marseille","lat":43.24667,"lon":5.38875,"is_reserved":false,"is_disabled":false,"rental_uris":{"android":"levelo://app?vid=2c839bfc-228b-4afd-9c45-0e54b8f36672","ios":"levelo://app?vid=2c839bfc-228b-4afd-9c45-0e54b8f36672"},"vehicle_type_id":"4","last_reported":1737047292,"current_range_meters":39200,"station_id":"ce4bhg12rcd13ifvqf60","pricing_plan_id":"cebpf4jnsgd1na2vs0mg"},{"bike_id":"b1ddeadc-31f1-42f9-9a80-512818b293b3","system_id":"levelo_inurba_marseille","lat":43.29425,"lon":5.38622,"is_reserved":false,"is_disabled":false,"rental_uris":{"android":"levelo://app?vid=b1ddeadc-31f1-42f9-9a80-512818b293b3","ios":"levelo://app?vid=b1ddeadc-31f1-42f9-9a80-512818b293b3"},"vehicle_type_id":"4","last_reported":1737047292,"current_range_meters":38800,"station_id":"ce4bh2h2rcd13ifvqdh0","pricing_plan_id":"cebpf4jnsgd1na2vs0mg"},{"bike_id":"417dabc6-be3f-43f0-81a8-866ae70fc1b9","system_id":"levelo_inurba_marseille","lat":43.2439,"lon":5.37064,"is_reserved":false,"is_disabled":false,"rental_uris":{"android":"levelo://app?vid=417dabc6-be3f-43f0-81a8-866ae70fc1b9","ios":"levelo://app?vid=417dabc6-be3f-43f0-81a8-866ae70fc1b9"},"vehicle_type_id":"4","last_reported":1737047292,"current_range_meters":32400,"station_id":"ce4bhhh2rcd13ifvqfk0","pricing_plan_id":"cebpf4jnsgd1na2vs0mg"},{"bike_id":"2498faab-5593-4302-bdc1-e3deb0d376d2","system_id":"levelo_inurba_marseille","lat":43.29624,"lon":5.40604,"is_reserved":false,"is_disabled":false,"rental_uris":{"android":"levelo://app?vid=2498faab-5593-4302-bdc1-e3deb0d376d2","ios":"levelo://app?vid=2498faab-5593-4302-bdc1-e3deb0d376d2"},"vehicle_type_id":"4","last_reported":1737047292,"current_range_meters":28400,"station_id":"ce4bh0h2rcd13ifvqd60","pricing_plan_id":"cebpf4jnsgd1na2vs0mg"},{"bike_id":"249ec570-62d6-4f42-9453-b09ee48c11d9","system_id":"levelo_inurba_marseille","lat":43.24389,"lon":5.37056,"is_reserved":false,"is_disabled":false,"rental_uris":{"android":"levelo://app?vid=249ec570-62d6-4f42-9453-b09ee48c11d9","ios":"levelo://app?vid=249ec570-62d6-4f42-9453-b09ee48c11d9"},"vehicle_type_id":"4","last_reported":1737047292,"current_range_meters":16000,"station_id":"ce4bhhh2rcd13ifvqfk0","pricing_plan_id":"cebpf4jnsgd1na2vs0mg"},{"bike_id":"f6785c8d-e6ca-414c-a30d-e75ed14ad662","system_id":"levelo_inurba_marseille","lat":43.27833,"lon":5.39215,"is_reserved":false,"is_disabled":false,"rental_uris":{"android":"levelo://app?vid=f6785c8d-e6ca-414c-a30d-e75ed14ad662","ios":"levelo://app?vid=f6785c8d-e6ca-414c-a30d-e75ed14ad662"},"vehicle_type_id":"4","last_reported":1737047292,"current_range_meters":32000,"station_id":"ce4bhjp2rcd13ifvqga0","pricing_plan_id":"cebpf4jnsgd1na2vs0mg"},{"bike_id":"a15980ac-c225-4e68-8982-6cc8c4cbfd79","system_id":"levelo_inurba_marseille","lat":43.23189,"lon":5.35584,"is_reserved":false,"is_disabled":false,"rental_uris":{"android":"levelo://app?vid=a15980ac-c225-4e68-8982-6cc8c4cbfd79","ios":"levelo://app?vid=a15980ac-c225-4e68-8982-6cc8c4cbfd79"},"vehicle_type_id":"4","last_reported":1737047292,"current_range_meters":38800,"station_id":"ce4bhu92rcd13ifvqi70","pricing_plan_id":"cebpf4jnsgd1na2vs0mg"},{"bike_id":"390ab92d-b8c8-4fa3-a463-67c40cf8a73a","system_id":"levelo_inurba_marseille","lat":43.27202,"lon":5.40976,"is_reserved":false,"is_disabled":false,"rental_uris":{"android":"levelo://app?vid=390ab92d-b8c8-4fa3-a463-67c40cf8a73a","ios":"levelo://app?vid=390ab92d-b8c8-4fa3-a463-67c40cf8a73a"},"vehicle_type_id":"4","last_reported":1737047292,"current_range_meters":38800,"station_id":"ce4bhl12rcd13ifvqgf0","pricing_plan_id":"cebpf4jnsgd1na2vs0mg"},{"bike_id":"8d9e4166-b0a5-437b-8aea-8771c8d303eb","system_id":"levelo_inurba_marseille","lat":43.24804,"lon":5.37452,"is_reserved":false,"is_disabled":false,"rental_uris":{"android":"levelo://app?vid=8d9e4166-b0a5-437b-8aea-8771c8d303eb","ios":"levelo://app?vid=8d9e4166-b0a5-437b-8aea-8771c8d303eb"},"vehicle_type_id":"4","last_reported":1737047292,"current_range_meters":27600,"station_id":"ce4bhgh2rcd13ifvqfb0","pricing_plan_id":"cebpf4jnsgd1na2vs0mg"},{"bike_id":"00c5a083-e33e-4a56-8c92-47fa8bdc8cb5","system_id":"levelo_inurba_marseille","lat":43.29528,"lon":5.39033,"is_reserved":false,"is_disabled":false,"rental_uris":{"android":"levelo://app?vid=00c5a083-e33e-4a56-8c92-47fa8bdc8cb5","ios":"levelo://app?vid=00c5a083-e33e-4a56-8c92-47fa8bdc8cb5"},"vehicle_type_id":"4","last_reported":1737047292,"current_range_meters":21600,"station_id":"ce4bh3p2rcd13ifvqdp0","pricing_plan_id":"cebpf4jnsgd1na2vs0mg"},{"bike_id":"029c79f9-e365-4c90-93b3-bd368ec2445d","system_id":"levelo_inurba_marseille","lat":43.30146,"lon":5.38786,"is_reserved":false,"is_disabled":false,"rental_uris":{"android":"levelo://app?vid=029c79f9-e365-4c90-93b3-bd368ec2445d","ios":"levelo://app?vid=029c79f9-e365-4c90-93b3-bd368ec2445d"},"vehicle_type_id":"4","last_reported":1737047292,"current_range_meters":38400,"station_id":"ce4bhoh2rcd13ifvqh6g","pricing_plan_id":"cebpf4jnsgd1na2vs0mg"},{"bike_id":"ba45637f-d8c9-4bd3-8a31-5f63ba3b6d97","system_id":"levelo_inurba_marseille","lat":43.29442,"lon":5.38588,"is_reserved":false,"is_disabled":true,"rental_uris":{"android":"levelo://app?vid=ba45637f-d8c9-4bd3-8a31-5f63ba3b6d97","ios":"levelo://app?vid=ba45637f-d8c9-4bd3-8a31-5f63ba3b6d97"},"vehicle_type_id":"4","last_reported":1737047292,"current_range_meters":0,"station_id":"ce4bh2h2rcd13ifvqdh0","pricing_plan_id":"cebpf4jnsgd1na2vs0mg"},{"bike_id":"e6d52744-fcef-4b04-b3e0-4aafb92377b1","system_id":"levelo_inurba_marseille","lat":43.305363,"lon":5.36686,"is_reserved":false,"is_disabled":true,"rental_uris":{"android":"levelo://app?vid=e6d52744-fcef-4b04-b3e0-4aafb92377b1","ios":"levelo://app?vid=e6d52744-fcef-4b04-b3e0-4aafb92377b1"},"vehicle_type_id":"4","last_reported":1737047292,"current_range_meters":36800,"station_id":"ce4bgrp2rcd13ifvqc9g","pricing_plan_id":"cebpf4jnsgd1na2vs0mg"},{"bike_id":"9be957d2-26d1-49a4-9f85-b06ee3432064","system_id":"levelo_inurba_marseille","lat":43.33732,"lon":5.39182,"is_reserved":false,"is_disabled":false,"rental_uris":{"android":"levelo://app?vid=9be957d2-26d1-49a4-9f85-b06ee3432064","ios":"levelo://app?vid=9be957d2-26d1-49a4-9f85-b06ee3432064"},"vehicle_type_id":"4","last_reported":1737047292,"current_range_meters":34000,"station_id":"ce4bhr92rcd13ifvqhsg","pricing_plan_id":"cebpf4jnsgd1na2vs0mg"},{"bike_id":"4488423e-fb64-4bbe-9192-9966dc0edac0","system_id":"levelo_inurba_marseille","lat":43.317142,"lon":5.377573,"is_reserved":false,"is_disabled":false,"rental_uris":{"android":"levelo://app?vid=4488423e-fb64-4bbe-9192-9966dc0edac0","ios":"levelo://app?vid=4488423e-fb64-4bbe-9192-9966dc0edac0"},"vehicle_type_id":"4","last_reported":1737047292,"current_range_meters":38800,"station_id":"ce4bgth2rcd13ifvqch0","pricing_plan_id":"cebpf4jnsgd1na2vs0mg"},{"bike_id":"d7dbcc25-391a-4e8a-9b74-7b40604397fc","system_id":"levelo_inurba_marseille","lat":43.33025,"lon":5.39036,"is_reserved":false,"is_disabled":false,"rental_uris":{"android":"levelo://app?vid=d7dbcc25-391a-4e8a-9b74-7b40604397fc","ios":"levelo://app?vid=d7dbcc25-391a-4e8a-9b74-7b40604397fc"},"vehicle_type_id":"4","last_reported":1737047292,"current_range_meters":38800,"station_id":"ce4bhr92rcd13ifvqhrg","pricing_plan_id":"cebpf4jnsgd1na2vs0mg"},{"bike_id":"b1e44280-9008-4901-9801-a99f96c8214a","system_id":"levelo_inurba_marseille","lat":43.2693,"lon":5.38919,"is_reserved":false,"is_disabled":false,"rental_uris":{"android":"levelo://app?vid=b1e44280-9008-4901-9801-a99f96c8214a","ios":"levelo://app?vid=b1e44280-9008-4901-9801-a99f96c8214a"},"vehicle_type_id":"4","last_reported":1737047292,"current_range_meters":24000,"station_id":"ce4bhhh2rcd13ifvqfl0","pricing_plan_id":"cebpf4jnsgd1na2vs0mg"},{"bike_id":"3bea599d-9d1d-4ce1-a78c-b94821d3e8a3","system_id":"levelo_inurba_marseille","lat":43.2501,"lon":5.38943,"is_reserved":false,"is_disabled":false,"rental_uris":{"android":"levelo://app?vid=3bea599d-9d1d-4ce1-a78c-b94821d3e8a3","ios":"levelo://app?vid=3bea599d-9d1d-4ce1-a78c-b94821d3e8a3"},"vehicle_type_id":"4","last_reported":1737047292,"current_range_meters":36000,"station_id":"ce4bhgp2rcd13ifvqfd0","pricing_plan_id":"cebpf4jnsgd1na2vs0mg"},{"bike_id":"fd5942cc-197e-41bf-a6b1-6fae4ffe9cf5","system_id":"levelo_inurba_marseille","lat":43.29784,"lon":5.37089,"is_reserved":false,"is_disabled":false,"rental_uris":{"android":"levelo://app?vid=fd5942cc-197e-41bf-a6b1-6fae4ffe9cf5","ios":"levelo://app?vid=fd5942cc-197e-41bf-a6b1-6fae4ffe9cf5"},"vehicle_type_id":"4","last_reported":1737047292,"current_range_meters":28000,"station_id":"ce4bgop2rcd13ifvqc1g","pricing_plan_id":"cebpf4jnsgd1na2vs0mg"},{"bike_id":"c72f0241-b8c1-44da-8744-7ccc8e668d26","system_id":"levelo_inurba_marseille","lat":43.24808,"lon":5.37466,"is_reserved":false,"is_disabled":false,"rental_uris":{"android":"levelo://app?vid=c72f0241-b8c1-44da-8744-7ccc8e668d26","ios":"levelo://app?vid=c72f0241-b8c1-44da-8744-7ccc8e668d26"},"vehicle_type_id":"4","last_reported":1737047292,"current_range_meters":34000,"station_id":"ce4bhgh2rcd13ifvqfb0","pricing_plan_id":"cebpf4jnsgd1na2vs0mg"},{"bike_id":"901b115c-0a0c-4999-afc1-1f76391d6e62","system_id":"levelo_inurba_marseille","lat":43.28662,"lon":5.36352,"is_reserved":false,"is_disabled":false,"rental_uris":{"android":"levelo://app?vid=901b115c-0a0c-4999-afc1-1f76391d6e62","ios":"levelo://app?vid=901b115c-0a0c-4999-afc1-1f76391d6e62"},"vehicle_type_id":"4","last_reported":1737047292,"current_range_meters":33200,"station_id":"ce4bhah2rcd13ifvqej0","pricing_plan_id":"cebpf4jnsgd1na2vs0mg"},{"bike_id":"18a4e803-9fed-490d-8b8f-cfa50d31713a","system_id":"levelo_inurba_marseille","lat":43.2606,"lon":5.39393,"is_reserved":false,"is_disabled":false,"rental_uris":{"android":"levelo://app?vid=18a4e803-9fed-490d-8b8f-cfa50d31713a","ios":"levelo://app?vid=18a4e803-9fed-490d-8b8f-cfa50d31713a"},"vehicle_type_id":"4","last_reported":1737047292,"current_range_meters":14800,"station_id":"ce4bhh92rcd13ifvqfj0","pricing_plan_id":"cebpf4jnsgd1na2vs0mg"},{"bike_id":"81f98bca-4538-482c-8d1a-6d04255eb1e5","system_id":"levelo_inurba_marseille","lat":43.27199,"lon":5.39162,"is_reserved":false,"is_disabled":true,"rental_uris":{"android":"levelo://app?vid=81f98bca-4538-482c-8d1a-6d04255eb1e5","ios":"levelo://app?vid=81f98bca-4538-482c-8d1a-6d04255eb1e5"},"vehicle_type_id":"4","last_reported":1737047292,"current_range_meters":0,"station_id":"ce4bhhp2rcd13ifvqfm0","pricing_plan_id":"cebpf4jnsgd1na2vs0mg"},{"bike_id":"cf2b9180-bc86-4580-8e39-46ff744dcbfd","system_id":"levelo_inurba_marseille","lat":43.29939,"lon":5.36537,"is_reserved":false,"is_disabled":false,"rental_uris":{"android":"levelo://app?vid=cf2b9180-bc86-4580-8e39-46ff744dcbfd","ios":"levelo://app?vid=cf2b9180-bc86-4580-8e39-46ff744dcbfd"},"vehicle_type_id":"4","last_reported":1737047292,"current_range_meters":36400,"station_id":"ce4bgm92rcd13ifvqbr0","pricing_plan_id":"cebpf4jnsgd1na2vs0mg"},{"bike_id":"2a10d5be-dd7c-451b-9884-09395d765f3c","system_id":"levelo_inurba_marseille","lat":43.31121,"lon":5.37764,"is_reserved":false,"is_disabled":false,"rental_uris":{"android":"levelo://app?vid=2a10d5be-dd7c-451b-9884-09395d765f3c","ios":"levelo://app?vid=2a10d5be-dd7c-451b-9884-09395d765f3c"},"vehicle_type_id":"4","last_reported":1737047292,"current_range_meters":11200,"station_id":"ce4bgt92rcd13ifvqcg0","pricing_plan_id":"cebpf4jnsgd1na2vs0mg"},{"bike_id":"4b2a9951-e9c3-48e0-8b22-f77f1838dfc7","system_id":"levelo_inurba_marseille","lat":43.29593,"lon":5.37585,"is_reserved":false,"is_disabled":false,"rental_uris":{"android":"levelo://app?vid=4b2a9951-e9c3-48e0-8b22-f77f1838dfc7","ios":"levelo://app?vid=4b2a9951-e9c3-48e0-8b22-f77f1838dfc7"},"vehicle_type_id":"4","last_reported":1737047292,"current_range_meters":16000,"station_id":"","pricing_plan_id":"cebpf4jnsgd1na2vs0mg"},{"bike_id":"227e2104-9342-467a-bb13-dc81a29065f7","system_id":"levelo_inurba_marseille","lat":43.28432,"lon":5.38891,"is_reserved":false,"is_disabled":false,"rental_uris":{"android":"levelo://app?vid=227e2104-9342-467a-bb13-dc81a29065f7","ios":"levelo://app?vid=227e2104-9342-467a-bb13-dc81a29065f7"},"vehicle_type_id":"4","last_reported":1737047292,"current_range_meters":29600,"station_id":"","pricing_plan_id":"cebpf4jnsgd1na2vs0mg"},{"bike_id":"b2632576-d2f4-4f91-975b-2a6e65937421","system_id":"levelo_inurba_marseille","lat":43.250852,"lon":5.395166,"is_reserved":false,"is_disabled":false,"rental_uris":{"android":"levelo://app?vid=b2632576-d2f4-4f91-975b-2a6e65937421","ios":"levelo://app?vid=b2632576-d2f4-4f91-975b-2a6e65937421"},"vehicle_type_id":"4","last_reported":1737047292,"current_range_meters":33600,"station_id":"ce4bhm12rcd13ifvqgkg","pricing_plan_id":"cebpf4jnsgd1na2vs0mg"},{"bike_id":"c032b915-e185-4650-b76d-34976aa7209e","system_id":"levelo_inurba_marseille","lat":43.30883,"lon":5.39639,"is_reserved":false,"is_disabled":false,"rental_uris":{"android":"levelo://app?vid=c032b915-e185-4650-b76d-34976aa7209e","ios":"levelo://app?vid=c032b915-e185-4650-b76d-34976aa7209e"},"vehicle_type_id":"4","last_reported":1737047292,"current_range_meters":35200,"station_id":"ce4bh012rcd13ifvqcv0","pricing_plan_id":"cebpf4jnsgd1na2vs0mg"},{"bike_id":"6a1aca43-add9-4b6f-bb01-eda73237eebd","system_id":"levelo_inurba_marseille","lat":43.29438,"lon":5.38312,"is_reserved":false,"is_disabled":true,"rental_uris":{"android":"levelo://app?vid=6a1aca43-add9-4b6f-bb01-eda73237eebd","ios":"levelo://app?vid=6a1aca43-add9-4b6f-bb01-eda73237eebd"},"vehicle_type_id":"4","last_reported":1737047292,"current_range_meters":0,"station_id":"","pricing_plan_id":"cebpf4jnsgd1na2vs0mg"},{"bike_id":"09370389-a774-484b-8cf9-1952c39e1348","system_id":"levelo_inurba_marseille","lat":43.29604,"lon":5.37727,"is_reserved":false,"is_disabled":false,"rental_uris":{"android":"levelo://app?vid=09370389-a774-484b-8cf9-1952c39e1348","ios":"levelo://app?vid=09370389-a774-484b-8cf9-1952c39e1348"},"vehicle_type_id":"4","last_reported":1737047292,"current_range_meters":17600,"station_id":"ce4bgi92rcd13ifvqb90","pricing_plan_id":"cebpf4jnsgd1na2vs0mg"},{"bike_id":"9a8a178a-6ad3-4033-901a-097df6c65251","system_id":"levelo_inurba_marseille","lat":43.301453,"lon":5.374182,"is_reserved":false,"is_disabled":false,"rental_uris":{"android":"levelo://app?vid=9a8a178a-6ad3-4033-901a-097df6c65251","ios":"levelo://app?vid=9a8a178a-6ad3-4033-901a-097df6c65251"},"vehicle_type_id":"4","last_reported":1737047292,"current_range_meters":19600,"station_id":"ce4bgs92rcd13ifvqcc0","pricing_plan_id":"cebpf4jnsgd1na2vs0mg"},{"bike_id":"52d4a24e-cd42-4649-a341-e237ca29e5ce","system_id":"levelo_inurba_marseille","lat":43.23154,"lon":5.43707,"is_reserved":false,"is_disabled":false,"rental_uris":{"android":"levelo://app?vid=52d4a24e-cd42-4649-a341-e237ca29e5ce","ios":"levelo://app?vid=52d4a24e-cd42-4649-a341-e237ca29e5ce"},"vehicle_type_id":"4","last_reported":1737047292,"current_range_meters":32800,"station_id":"ce4bhmp2rcd13ifvqgog","pricing_plan_id":"cebpf4jnsgd1na2vs0mg"},{"bike_id":"1bc5285a-f8e6-470f-8534-9c1c69d7c06f","system_id":"levelo_inurba_marseille","lat":43.29588,"lon":5.37515,"is_reserved":false,"is_disabled":false,"rental_uris":{"android":"levelo://app?vid=1bc5285a-f8e6-470f-8534-9c1c69d7c06f","ios":"levelo://app?vid=1bc5285a-f8e6-470f-8534-9c1c69d7c06f"},"vehicle_type_id":"4","last_reported":1737047292,"current_range_meters":35600,"station_id":"ce4bgh92rcd13ifvqb50","pricing_plan_id":"cebpf4jnsgd1na2vs0mg"},{"bike_id":"db6229a4-bf72-4589-b6cd-6eb494a2d913","system_id":"levelo_inurba_marseille","lat":43.27916,"lon":5.39581,"is_reserved":false,"is_disabled":false,"rental_uris":{"android":"levelo://app?vid=db6229a4-bf72-4589-b6cd-6eb494a2d913","ios":"levelo://app?vid=db6229a4-bf72-4589-b6cd-6eb494a2d913"},"vehicle_type_id":"4","last_reported":1737047292,"current_range_meters":27200,"station_id":"ce4bhf92rcd13ifvqf40","pricing_plan_id":"cebpf4jnsgd1na2vs0mg"},{"bike_id":"c898eb10-ff3b-4538-8a43-f2beaf99661f","system_id":"levelo_inurba_marseille","lat":43.28666,"lon":5.36343,"is_reserved":false,"is_disabled":false,"rental_uris":{"android":"levelo://app?vid=c898eb10-ff3b-4538-8a43-f2beaf99661f","ios":"levelo://app?vid=c898eb10-ff3b-4538-8a43-f2beaf99661f"},"vehicle_type_id":"4","last_reported":1737047292,"current_range_meters":22000,"station_id":"ce4bhah2rcd13ifvqej0","pricing_plan_id":"cebpf4jnsgd1na2vs0mg"},{"bike_id":"8b636c79-4a49-40e3-9ea6-ad9baf60d593","system_id":"levelo_inurba_marseille","lat":43.29039,"lon":5.35918,"is_reserved":false,"is_disabled":false,"rental_uris":{"android":"levelo://app?vid=8b636c79-4a49-40e3-9ea6-ad9baf60d593","ios":"levelo://app?vid=8b636c79-4a49-40e3-9ea6-ad9baf60d593"},"vehicle_type_id":"4","last_reported":1737047292,"current_range_meters":10000,"station_id":"ce4bha92rcd13ifvqeg0","pricing_plan_id":"cebpf4jnsgd1na2vs0mg"},{"bike_id":"8b6d4a34-e62b-47b8-b076-8a1ccb84fcf2","system_id":"levelo_inurba_marseille","lat":43.27901,"lon":5.38016,"is_reserved":false,"is_disabled":false,"rental_uris":{"android":"levelo://app?vid=8b6d4a34-e62b-47b8-b076-8a1ccb84fcf2","ios":"levelo://app?vid=8b6d4a34-e62b-47b8-b076-8a1ccb84fcf2"},"vehicle_type_id":"4","last_reported":1737047292,"current_range_meters":30000,"station_id":"ce4bhf92rcd13ifvqf50","pricing_plan_id":"cebpf4jnsgd1na2vs0mg"},{"bike_id":"4bb8ec4f-b63f-4e03-94bb-0412e8b614c5","system_id":"levelo_inurba_marseille","lat":43.27062,"lon":5.42288,"is_reserved":false,"is_disabled":false,"rental_uris":{"android":"levelo://app?vid=4bb8ec4f-b63f-4e03-94bb-0412e8b614c5","ios":"levelo://app?vid=4bb8ec4f-b63f-4e03-94bb-0412e8b614c5"},"vehicle_type_id":"4","last_reported":1737047292,"current_range_meters":20400,"station_id":"ce4bhk92rcd13ifvqgb0","pricing_plan_id":"cebpf4jnsgd1na2vs0mg"},{"bike_id":"450e4b2e-2717-46bb-9250-32754d000e21","system_id":"levelo_inurba_marseille","lat":43.31718,"lon":5.37754,"is_reserved":false,"is_disabled":false,"rental_uris":{"android":"levelo://app?vid=450e4b2e-2717-46bb-9250-32754d000e21","ios":"levelo://app?vid=450e4b2e-2717-46bb-9250-32754d000e21"},"vehicle_type_id":"4","last_reported":1737047292,"current_range_meters":38800,"station_id":"ce4bgth2rcd13ifvqch0","pricing_plan_id":"cebpf4jnsgd1na2vs0mg"},{"bike_id":"82e403ea-269c-4314-b0ed-e0d031b0cd41","system_id":"levelo_inurba_marseille","lat":43.30801,"lon":5.38167,"is_reserved":false,"is_disabled":true,"rental_uris":{"android":"levelo://app?vid=82e403ea-269c-4314-b0ed-e0d031b0cd41","ios":"levelo://app?vid=82e403ea-269c-4314-b0ed-e0d031b0cd41"},"vehicle_type_id":"4","last_reported":1737047292,"current_range_meters":400,"station_id":"ce4bgt12rcd13ifvqce0","pricing_plan_id":"cebpf4jnsgd1na2vs0mg"},{"bike_id":"1ea35f76-06dc-4a5f-b951-782000a0c3f9","system_id":"levelo_inurba_marseille","lat":43.23182,"lon":5.39986,"is_reserved":false,"is_disabled":false,"rental_uris":{"android":"levelo://app?vid=1ea35f76-06dc-4a5f-b951-782000a0c3f9","ios":"levelo://app?vid=1ea35f76-06dc-4a5f-b951-782000a0c3f9"},"vehicle_type_id":"4","last_reported":1737047292,"current_range_meters":3200,"station_id":"ce4bhn12rcd13ifvqgqg","pricing_plan_id":"cebpf4jnsgd1na2vs0mg"},{"bike_id":"1c5dee46-9296-4ff0-86e0-56f1d3de6cd3","system_id":"levelo_inurba_marseille","lat":43.29861,"lon":5.36229,"is_reserved":false,"is_disabled":false,"rental_uris":{"android":"levelo://app?vid=1c5dee46-9296-4ff0-86e0-56f1d3de6cd3","ios":"levelo://app?vid=1c5dee46-9296-4ff0-86e0-56f1d3de6cd3"},"vehicle_type_id":"4","last_reported":1737047292,"current_range_meters":12000,"station_id":"ce4bgpp2rcd13ifvqc3g","pricing_plan_id":"cebpf4jnsgd1na2vs0mg"},{"bike_id":"091235b0-e1a5-41c5-86b2-2778d26f4df4","system_id":"levelo_inurba_marseille","lat":43.27167,"lon":5.40996,"is_reserved":false,"is_disabled":false,"rental_uris":{"android":"levelo://app?vid=091235b0-e1a5-41c5-86b2-2778d26f4df4","ios":"levelo://app?vid=091235b0-e1a5-41c5-86b2-2778d26f4df4"},"vehicle_type_id":"4","last_reported":1737047292,"current_range_meters":38800,"station_id":"ce4bhl12rcd13ifvqgf0","pricing_plan_id":"cebpf4jnsgd1na2vs0mg"},{"bike_id":"b8f8226c-3087-4177-968a-6603233543c4","system_id":"levelo_inurba_marseille","lat":43.26568,"lon":5.39017,"is_reserved":false,"is_disabled":false,"rental_uris":{"android":"levelo://app?vid=b8f8226c-3087-4177-968a-6603233543c4","ios":"levelo://app?vid=b8f8226c-3087-4177-968a-6603233543c4"},"vehicle_type_id":"4","last_reported":1737047292,"current_range_meters":30400,"station_id":"ce4bhe12rcd13ifvqf30","pricing_plan_id":"cebpf4jnsgd1na2vs0mg"},{"bike_id":"a4b779dc-e9f6-42d9-b786-46a4421bfccd","system_id":"levelo_inurba_marseille","lat":43.30595,"lon":5.37194,"is_reserved":false,"is_disabled":false,"rental_uris":{"android":"levelo://app?vid=a4b779dc-e9f6-42d9-b786-46a4421bfccd","ios":"levelo://app?vid=a4b779dc-e9f6-42d9-b786-46a4421bfccd"},"vehicle_type_id":"4","last_reported":1737047292,"current_range_meters":28400,"station_id":"ce4bgqh2rcd13ifvqc4g","pricing_plan_id":"cebpf4jnsgd1na2vs0mg"},{"bike_id":"7d0d7384-41c7-43ea-8024-2f769992343b","system_id":"levelo_inurba_marseille","lat":43.30324,"lon":5.40434,"is_reserved":false,"is_disabled":false,"rental_uris":{"android":"levelo://app?vid=7d0d7384-41c7-43ea-8024-2f769992343b","ios":"levelo://app?vid=7d0d7384-41c7-43ea-8024-2f769992343b"},"vehicle_type_id":"4","last_reported":1737047292,"current_range_meters":29600,"station_id":"ce4bh012rcd13ifvqd10","pricing_plan_id":"cebpf4jnsgd1na2vs0mg"},{"bike_id":"83cd37b8-de98-4156-b186-da20298deb62","system_id":"levelo_inurba_marseille","lat":43.26499,"lon":5.39545,"is_reserved":false,"is_disabled":false,"rental_uris":{"android":"levelo://app?vid=83cd37b8-de98-4156-b186-da20298deb62","ios":"levelo://app?vid=83cd37b8-de98-4156-b186-da20298deb62"},"vehicle_type_id":"4","last_reported":1737047292,"current_range_meters":22400,"station_id":"ce4bhi12rcd13ifvqfq0","pricing_plan_id":"cebpf4jnsgd1na2vs0mg"},{"bike_id":"34709e64-d1c8-4538-88a5-33805792c0a5","system_id":"levelo_inurba_marseille","lat":43.25828,"lon":5.39432,"is_reserved":false,"is_disabled":true,"rental_uris":{"android":"levelo://app?vid=34709e64-d1c8-4538-88a5-33805792c0a5","ios":"levelo://app?vid=34709e64-d1c8-4538-88a5-33805792c0a5"},"vehicle_type_id":"4","last_reported":1737047292,"current_range_meters":0,"station_id":"ce4bhip2rcd13ifvqft0","pricing_plan_id":"cebpf4jnsgd1na2vs0mg"},{"bike_id":"d39da91a-b698-4714-a206-e0164b345cc7","system_id":"levelo_inurba_marseille","lat":43.25585,"lon":5.38232,"is_reserved":false,"is_disabled":false,"rental_uris":{"android":"levelo://app?vid=d39da91a-b698-4714-a206-e0164b345cc7","ios":"levelo://app?vid=d39da91a-b698-4714-a206-e0164b345cc7"},"vehicle_type_id":"4","last_reported":1737047292,"current_range_meters":26800,"station_id":"ce4bhih2rcd13ifvqfs0","pricing_plan_id":"cebpf4jnsgd1na2vs0mg"},{"bike_id":"7a26b63c-652f-4d2d-8353-1a9dfb4e945a","system_id":"levelo_inurba_marseille","lat":43.33736,"lon":5.39154,"is_reserved":false,"is_disabled":false,"rental_uris":{"android":"levelo://app?vid=7a26b63c-652f-4d2d-8353-1a9dfb4e945a","ios":"levelo://app?vid=7a26b63c-652f-4d2d-8353-1a9dfb4e945a"},"vehicle_type_id":"4","last_reported":1737047292,"current_range_meters":38800,"station_id":"ce4bhr92rcd13ifvqhsg","pricing_plan_id":"cebpf4jnsgd1na2vs0mg"},{"bike_id":"676c685d-59cf-4ca3-bda8-3bc86a27fc20","system_id":"levelo_inurba_marseille","lat":43.30552,"lon":5.36505,"is_reserved":false,"is_disabled":false,"rental_uris":{"android":"levelo://app?vid=676c685d-59cf-4ca3-bda8-3bc86a27fc20","ios":"levelo://app?vid=676c685d-59cf-4ca3-bda8-3bc86a27fc20"},"vehicle_type_id":"4","last_reported":1737047292,"current_range_meters":32400,"station_id":"ce4bgs12rcd13ifvqcag","pricing_plan_id":"cebpf4jnsgd1na2vs0mg"},{"bike_id":"8ab529c5-0c54-40b5-96ac-0bbb4c91817f","system_id":"levelo_inurba_marseille","lat":43.26787,"lon":5.39403,"is_reserved":false,"is_disabled":false,"rental_uris":{"android":"levelo://app?vid=8ab529c5-0c54-40b5-96ac-0bbb4c91817f","ios":"levelo://app?vid=8ab529c5-0c54-40b5-96ac-0bbb4c91817f"},"vehicle_type_id":"4","last_reported":1737047292,"current_range_meters":30000,"station_id":"ce4bhh12rcd13ifvqfg0","pricing_plan_id":"cebpf4jnsgd1na2vs0mg"},{"bike_id":"56b8e9bc-f750-4815-bc98-9098414d16db","system_id":"levelo_inurba_marseille","lat":43.23202,"lon":5.35541,"is_reserved":false,"is_disabled":true,"rental_uris":{"android":"levelo://app?vid=56b8e9bc-f750-4815-bc98-9098414d16db","ios":"levelo://app?vid=56b8e9bc-f750-4815-bc98-9098414d16db"},"vehicle_type_id":"4","last_reported":1737047292,"current_range_meters":0,"station_id":"ce4bhu92rcd13ifvqi70","pricing_plan_id":"cebpf4jnsgd1na2vs0mg"},{"bike_id":"1540002b-e22c-4da0-811a-35099ae69ca0","system_id":"levelo_inurba_marseille","lat":43.29205,"lon":5.39325,"is_reserved":false,"is_disabled":false,"rental_uris":{"android":"levelo://app?vid=1540002b-e22c-4da0-811a-35099ae69ca0","ios":"levelo://app?vid=1540002b-e22c-4da0-811a-35099ae69ca0"},"vehicle_type_id":"4","last_reported":1737047292,"current_range_meters":26800,"station_id":"ce4bh192rcd13ifvqdd0","pricing_plan_id":"cebpf4jnsgd1na2vs0mg"},{"bike_id":"05dc1556-4f77-4f5c-ac04-b6dd9c4eb4cf","system_id":"levelo_inurba_marseille","lat":43.29638,"lon":5.40599,"is_reserved":false,"is_disabled":false,"rental_uris":{"android":"levelo://app?vid=05dc1556-4f77-4f5c-ac04-b6dd9c4eb4cf","ios":"levelo://app?vid=05dc1556-4f77-4f5c-ac04-b6dd9c4eb4cf"},"vehicle_type_id":"4","last_reported":1737047292,"current_range_meters":32000,"station_id":"ce4bh0h2rcd13ifvqd60","pricing_plan_id":"cebpf4jnsgd1na2vs0mg"},{"bike_id":"d7a710b0-adff-4c5c-bf44-f4013363962c","system_id":"levelo_inurba_marseille","lat":43.24686,"lon":5.39426,"is_reserved":false,"is_disabled":false,"rental_uris":{"android":"levelo://app?vid=d7a710b0-adff-4c5c-bf44-f4013363962c","ios":"levelo://app?vid=d7a710b0-adff-4c5c-bf44-f4013363962c"},"vehicle_type_id":"4","last_reported":1737047292,"current_range_meters":38800,"station_id":"","pricing_plan_id":"cebpf4jnsgd1na2vs0mg"},{"bike_id":"5b5b9902-6477-4816-81ea-170089f5c9a8","system_id":"levelo_inurba_marseille","lat":43.29247,"lon":5.40883,"is_reserved":false,"is_disabled":false,"rental_uris":{"android":"levelo://app?vid=5b5b9902-6477-4816-81ea-170089f5c9a8","ios":"levelo://app?vid=5b5b9902-6477-4816-81ea-170089f5c9a8"},"vehicle_type_id":"4","last_reported":1737047292,"current_range_meters":37600,"station_id":"ce4bh192rcd13ifvqdc0","pricing_plan_id":"cebpf4jnsgd1na2vs0mg"},{"bike_id":"f47ab076-41f5-4143-87f1-14710ac278f6","system_id":"levelo_inurba_marseille","lat":43.29031,"lon":5.38641,"is_reserved":false,"is_disabled":false,"rental_uris":{"android":"levelo://app?vid=f47ab076-41f5-4143-87f1-14710ac278f6","ios":"levelo://app?vid=f47ab076-41f5-4143-87f1-14710ac278f6"},"vehicle_type_id":"4","last_reported":1737047292,"current_range_meters":28400,"station_id":"ce4bh4p2rcd13ifvqe0g","pricing_plan_id":"cebpf4jnsgd1na2vs0mg"},{"bike_id":"bb7daf91-0b2b-4c17-bfd2-ec6c0a04b185","system_id":"levelo_inurba_marseille","lat":43.24804,"lon":5.37458,"is_reserved":false,"is_disabled":false,"rental_uris":{"android":"levelo://app?vid=bb7daf91-0b2b-4c17-bfd2-ec6c0a04b185","ios":"levelo://app?vid=bb7daf91-0b2b-4c17-bfd2-ec6c0a04b185"},"vehicle_type_id":"4","last_reported":1737047292,"current_range_meters":18000,"station_id":"ce4bhgh2rcd13ifvqfb0","pricing_plan_id":"cebpf4jnsgd1na2vs0mg"},{"bike_id":"49855c89-8f10-44d3-8086-e66be26e933d","system_id":"levelo_inurba_marseille","lat":43.29977,"lon":5.38495,"is_reserved":false,"is_disabled":false,"rental_uris":{"android":"levelo://app?vid=49855c89-8f10-44d3-8086-e66be26e933d","ios":"levelo://app?vid=49855c89-8f10-44d3-8086-e66be26e933d"},"vehicle_type_id":"4","last_reported":1737047292,"current_range_meters":27200,"station_id":"ce4bgj92rcd13ifvqbd0","pricing_plan_id":"cebpf4jnsgd1na2vs0mg"},{"bike_id":"39a9310a-edad-435c-9bc2-4206711c0071","system_id":"levelo_inurba_marseille","lat":43.29571,"lon":5.375,"is_reserved":false,"is_disabled":false,"rental_uris":{"android":"levelo://app?vid=39a9310a-edad-435c-9bc2-4206711c0071","ios":"levelo://app?vid=39a9310a-edad-435c-9bc2-4206711c0071"},"vehicle_type_id":"4","last_reported":1737047292,"current_range_meters":22400,"station_id":"ce4bgh92rcd13ifvqb50","pricing_plan_id":"cebpf4jnsgd1na2vs0mg"},{"bike_id":"2e70836a-a10f-4618-953a-21e9a7e8b8d7","system_id":"levelo_inurba_marseille","lat":43.28415,"lon":5.37513,"is_reserved":false,"is_disabled":false,"rental_uris":{"android":"levelo://app?vid=2e70836a-a10f-4618-953a-21e9a7e8b8d7","ios":"levelo://app?vid=2e70836a-a10f-4618-953a-21e9a7e8b8d7"},"vehicle_type_id":"4","last_reported":1737047292,"current_range_meters":29600,"station_id":"ce4bh412rcd13ifvqds0","pricing_plan_id":"cebpf4jnsgd1na2vs0mg"},{"bike_id":"22465212-93af-4e0b-b803-6ee82bba56d5","system_id":"levelo_inurba_marseille","lat":43.337631,"lon":5.374862,"is_reserved":false,"is_disabled":false,"rental_uris":{"android":"levelo://app?vid=22465212-93af-4e0b-b803-6ee82bba56d5","ios":"levelo://app?vid=22465212-93af-4e0b-b803-6ee82bba56d5"},"vehicle_type_id":"4","last_reported":1737047292,"current_range_meters":32800,"station_id":"","pricing_plan_id":"cebpf4jnsgd1na2vs0mg"},{"bike_id":"ca8484b5-5c87-4436-a685-bd97c229f459","system_id":"levelo_inurba_marseille","lat":43.27911,"lon":5.39579,"is_reserved":false,"is_disabled":false,"rental_uris":{"android":"levelo://app?vid=ca8484b5-5c87-4436-a685-bd97c229f459","ios":"levelo://app?vid=ca8484b5-5c87-4436-a685-bd97c229f459"},"vehicle_type_id":"4","last_reported":1737047292,"current_range_meters":4400,"station_id":"ce4bhf92rcd13ifvqf40","pricing_plan_id":"cebpf4jnsgd1na2vs0mg"},{"bike_id":"fc705563-96e6-45d0-adb3-8588f3962dd4","system_id":"levelo_inurba_marseille","lat":43.32363,"lon":5.38886,"is_reserved":false,"is_disabled":false,"rental_uris":{"android":"levelo://app?vid=fc705563-96e6-45d0-adb3-8588f3962dd4","ios":"levelo://app?vid=fc705563-96e6-45d0-adb3-8588f3962dd4"},"vehicle_type_id":"4","last_reported":1737047292,"current_range_meters":32400,"station_id":"ce4bhqp2rcd13ifvqhog","pricing_plan_id":"cebpf4jnsgd1na2vs0mg"},{"bike_id":"1c0b33ae-14a7-4700-9927-b8a5e63f8359","system_id":"levelo_inurba_marseille","lat":43.28352,"lon":5.38106,"is_reserved":false,"is_disabled":false,"rental_uris":{"android":"levelo://app?vid=1c0b33ae-14a7-4700-9927-b8a5e63f8359","ios":"levelo://app?vid=1c0b33ae-14a7-4700-9927-b8a5e63f8359"},"vehicle_type_id":"4","last_reported":1737047292,"current_range_meters":8000,"station_id":"ce4bh412rcd13ifvqdr0","pricing_plan_id":"cebpf4jnsgd1na2vs0mg"},{"bike_id":"7276c8ad-124f-4c35-ae4c-ef20b2dbf667","system_id":"levelo_inurba_marseille","lat":43.2987,"lon":5.39735,"is_reserved":false,"is_disabled":false,"rental_uris":{"android":"levelo://app?vid=7276c8ad-124f-4c35-ae4c-ef20b2dbf667","ios":"levelo://app?vid=7276c8ad-124f-4c35-ae4c-ef20b2dbf667"},"vehicle_type_id":"4","last_reported":1737047292,"current_range_meters":14400,"station_id":"ce4bh0h2rcd13ifvqd50","pricing_plan_id":"cebpf4jnsgd1na2vs0mg"},{"bike_id":"620f5798-de92-438d-b848-c5c91a98dd52","system_id":"levelo_inurba_marseille","lat":43.27375,"lon":5.36266,"is_reserved":false,"is_disabled":false,"rental_uris":{"android":"levelo://app?vid=620f5798-de92-438d-b848-c5c91a98dd52","ios":"levelo://app?vid=620f5798-de92-438d-b848-c5c91a98dd52"},"vehicle_type_id":"4","last_reported":1737047292,"current_range_meters":38000,"station_id":"ce4bhbh2rcd13ifvqeo0","pricing_plan_id":"cebpf4jnsgd1na2vs0mg"},{"bike_id":"b9ed1a1c-0303-49fb-8774-70468454ec34","system_id":"levelo_inurba_marseille","lat":43.29262,"lon":5.40902,"is_reserved":false,"is_disabled":true,"rental_uris":{"android":"levelo://app?vid=b9ed1a1c-0303-49fb-8774-70468454ec34","ios":"levelo://app?vid=b9ed1a1c-0303-49fb-8774-70468454ec34"},"vehicle_type_id":"4","last_reported":1737047292,"current_range_meters":2000,"station_id":"ce4bh192rcd13ifvqdc0","pricing_plan_id":"cebpf4jnsgd1na2vs0mg"},{"bike_id":"cb020a1a-19e4-4a4a-a34c-642bfeae3936","system_id":"levelo_inurba_marseille","lat":43.29574,"lon":5.39985,"is_reserved":false,"is_disabled":false,"rental_uris":{"android":"levelo://app?vid=cb020a1a-19e4-4a4a-a34c-642bfeae3936","ios":"levelo://app?vid=cb020a1a-19e4-4a4a-a34c-642bfeae3936"},"vehicle_type_id":"4","last_reported":1737047292,"current_range_meters":2800,"station_id":"ce4bh312rcd13ifvqdj0","pricing_plan_id":"cebpf4jnsgd1na2vs0mg"},{"bike_id":"6f9fff78-d4d1-4a6e-8ee2-3b3237244db2","system_id":"levelo_inurba_marseille","lat":43.29021,"lon":5.38628,"is_reserved":false,"is_disabled":false,"rental_uris":{"android":"levelo://app?vid=6f9fff78-d4d1-4a6e-8ee2-3b3237244db2","ios":"levelo://app?vid=6f9fff78-d4d1-4a6e-8ee2-3b3237244db2"},"vehicle_type_id":"4","last_reported":1737047292,"current_range_meters":20800,"station_id":"ce4bh4p2rcd13ifvqe0g","pricing_plan_id":"cebpf4jnsgd1na2vs0mg"},{"bike_id":"5f73b1c5-bb2a-4fac-9eb7-14c830fab3ce","system_id":"levelo_inurba_marseille","lat":43.29845,"lon":5.36264,"is_reserved":false,"is_disabled":false,"rental_uris":{"android":"levelo://app?vid=5f73b1c5-bb2a-4fac-9eb7-14c830fab3ce","ios":"levelo://app?vid=5f73b1c5-bb2a-4fac-9eb7-14c830fab3ce"},"vehicle_type_id":"4","last_reported":1737047292,"current_range_meters":38000,"station_id":"ce4bgpp2rcd13ifvqc3g","pricing_plan_id":"cebpf4jnsgd1na2vs0mg"},{"bike_id":"e386f0a8-04cb-4c29-8ebb-931533ba0a94","system_id":"levelo_inurba_marseille","lat":43.28152,"lon":5.42649,"is_reserved":false,"is_disabled":false,"rental_uris":{"android":"levelo://app?vid=e386f0a8-04cb-4c29-8ebb-931533ba0a94","ios":"levelo://app?vid=e386f0a8-04cb-4c29-8ebb-931533ba0a94"},"vehicle_type_id":"4","last_reported":1737047292,"current_range_meters":14400,"station_id":"ce4bhnh2rcd13ifvqgug","pricing_plan_id":"cebpf4jnsgd1na2vs0mg"},{"bike_id":"6a7366d7-ed8c-4629-bf0c-70c2abcda36d","system_id":"levelo_inurba_marseille","lat":43.23204,"lon":5.35537,"is_reserved":false,"is_disabled":false,"rental_uris":{"android":"levelo://app?vid=6a7366d7-ed8c-4629-bf0c-70c2abcda36d","ios":"levelo://app?vid=6a7366d7-ed8c-4629-bf0c-70c2abcda36d"},"vehicle_type_id":"4","last_reported":1737047292,"current_range_meters":10800,"station_id":"ce4bhu92rcd13ifvqi70","pricing_plan_id":"cebpf4jnsgd1na2vs0mg"},{"bike_id":"203fb9a7-88cc-42b8-b9ad-a0f505bc291b","system_id":"levelo_inurba_marseille","lat":43.29971,"lon":5.38494,"is_reserved":false,"is_disabled":false,"rental_uris":{"android":"levelo://app?vid=203fb9a7-88cc-42b8-b9ad-a0f505bc291b","ios":"levelo://app?vid=203fb9a7-88cc-42b8-b9ad-a0f505bc291b"},"vehicle_type_id":"4","last_reported":1737047292,"current_range_meters":24000,"station_id":"ce4bgj92rcd13ifvqbd0","pricing_plan_id":"cebpf4jnsgd1na2vs0mg"},{"bike_id":"2d7f3353-743b-41e1-85f2-e32181d4ae48","system_id":"levelo_inurba_marseille","lat":43.320044,"lon":5.381544,"is_reserved":false,"is_disabled":false,"rental_uris":{"android":"levelo://app?vid=2d7f3353-743b-41e1-85f2-e32181d4ae48","ios":"levelo://app?vid=2d7f3353-743b-41e1-85f2-e32181d4ae48"},"vehicle_type_id":"4","last_reported":1737047292,"current_range_meters":32400,"station_id":"ce4bhr12rcd13ifvqhpg","pricing_plan_id":"cebpf4jnsgd1na2vs0mg"},{"bike_id":"573076c8-1172-47e5-b129-cb987286e5ee","system_id":"levelo_inurba_marseille","lat":43.27809,"lon":5.40754,"is_reserved":false,"is_disabled":false,"rental_uris":{"android":"levelo://app?vid=573076c8-1172-47e5-b129-cb987286e5ee","ios":"levelo://app?vid=573076c8-1172-47e5-b129-cb987286e5ee"},"vehicle_type_id":"4","last_reported":1737047292,"current_range_meters":3200,"station_id":"ce4bhnh2rcd13ifvqgtg","pricing_plan_id":"cebpf4jnsgd1na2vs0mg"},{"bike_id":"88793ffa-01a3-4e34-be8c-e520fd17e5e5","system_id":"levelo_inurba_marseille","lat":43.29426,"lon":5.38623,"is_reserved":false,"is_disabled":false,"rental_uris":{"android":"levelo://app?vid=88793ffa-01a3-4e34-be8c-e520fd17e5e5","ios":"levelo://app?vid=88793ffa-01a3-4e34-be8c-e520fd17e5e5"},"vehicle_type_id":"4","last_reported":1737047292,"current_range_meters":26000,"station_id":"ce4bh2h2rcd13ifvqdh0","pricing_plan_id":"cebpf4jnsgd1na2vs0mg"},{"bike_id":"35deb437-7ef2-4ee7-9ea5-27ce0001ca7b","system_id":"levelo_inurba_marseille","lat":43.26054,"lon":5.39398,"is_reserved":false,"is_disabled":false,"rental_uris":{"android":"levelo://app?vid=35deb437-7ef2-4ee7-9ea5-27ce0001ca7b","ios":"levelo://app?vid=35deb437-7ef2-4ee7-9ea5-27ce0001ca7b"},"vehicle_type_id":"4","last_reported":1737047292,"current_range_meters":38800,"station_id":"ce4bhh92rcd13ifvqfj0","pricing_plan_id":"cebpf4jnsgd1na2vs0mg"},{"bike_id":"855a2268-02f8-4307-894d-f57dfd10b4c1","system_id":"levelo_inurba_marseille","lat":43.330244,"lon":5.390442,"is_reserved":false,"is_disabled":false,"rental_uris":{"android":"levelo://app?vid=855a2268-02f8-4307-894d-f57dfd10b4c1","ios":"levelo://app?vid=855a2268-02f8-4307-894d-f57dfd10b4c1"},"vehicle_type_id":"4","last_reported":1737047292,"current_range_meters":38800,"station_id":"ce4bhr92rcd13ifvqhrg","pricing_plan_id":"cebpf4jnsgd1na2vs0mg"},{"bike_id":"006eddf6-3b41-4a21-a985-f7a4350b5bf4","system_id":"levelo_inurba_marseille","lat":43.26055,"lon":5.394,"is_reserved":false,"is_disabled":false,"rental_uris":{"android":"levelo://app?vid=006eddf6-3b41-4a21-a985-f7a4350b5bf4","ios":"levelo://app?vid=006eddf6-3b41-4a21-a985-f7a4350b5bf4"},"vehicle_type_id":"4","last_reported":1737047292,"current_range_meters":32400,"station_id":"ce4bhh92rcd13ifvqfj0","pricing_plan_id":"cebpf4jnsgd1na2vs0mg"},{"bike_id":"e3d88b89-ec5d-4bff-8d46-eceaa1b97165","system_id":"levelo_inurba_marseille","lat":43.29425,"lon":5.38613,"is_reserved":false,"is_disabled":false,"rental_uris":{"android":"levelo://app?vid=e3d88b89-ec5d-4bff-8d46-eceaa1b97165","ios":"levelo://app?vid=e3d88b89-ec5d-4bff-8d46-eceaa1b97165"},"vehicle_type_id":"4","last_reported":1737047292,"current_range_meters":24400,"station_id":"ce4bh2h2rcd13ifvqdh0","pricing_plan_id":"cebpf4jnsgd1na2vs0mg"},{"bike_id":"b8a5fb1d-e26a-49c7-87c4-ebc3940b629b","system_id":"levelo_inurba_marseille","lat":43.27947,"lon":5.41045,"is_reserved":false,"is_disabled":false,"rental_uris":{"android":"levelo://app?vid=b8a5fb1d-e26a-49c7-87c4-ebc3940b629b","ios":"levelo://app?vid=b8a5fb1d-e26a-49c7-87c4-ebc3940b629b"},"vehicle_type_id":"4","last_reported":1737047292,"current_range_meters":7200,"station_id":"ce4bhnp2rcd13ifvqh0g","pricing_plan_id":"cebpf4jnsgd1na2vs0mg"},{"bike_id":"5d42a98e-bef8-43af-946e-751274f82d4c","system_id":"levelo_inurba_marseille","lat":43.236599,"lon":5.435982,"is_reserved":false,"is_disabled":true,"rental_uris":{"android":"levelo://app?vid=5d42a98e-bef8-43af-946e-751274f82d4c","ios":"levelo://app?vid=5d42a98e-bef8-43af-946e-751274f82d4c"},"vehicle_type_id":"4","last_reported":1737047292,"current_range_meters":30800,"station_id":"","pricing_plan_id":"cebpf4jnsgd1na2vs0mg"},{"bike_id":"576521bf-1ea2-405b-a2ab-32216f8144ba","system_id":"levelo_inurba_marseille","lat":43.29578,"lon":5.37507,"is_reserved":false,"is_disabled":false,"rental_uris":{"android":"levelo://app?vid=576521bf-1ea2-405b-a2ab-32216f8144ba","ios":"levelo://app?vid=576521bf-1ea2-405b-a2ab-32216f8144ba"},"vehicle_type_id":"4","last_reported":1737047292,"current_range_meters":37600,"station_id":"ce4bgh92rcd13ifvqb50","pricing_plan_id":"cebpf4jnsgd1na2vs0mg"},{"bike_id":"6bb0c2df-6198-4645-b80a-340391eb447c","system_id":"levelo_inurba_marseille","lat":43.28158,"lon":5.4263,"is_reserved":false,"is_disabled":false,"rental_uris":{"android":"levelo://app?vid=6bb0c2df-6198-4645-b80a-340391eb447c","ios":"levelo://app?vid=6bb0c2df-6198-4645-b80a-340391eb447c"},"vehicle_type_id":"4","last_reported":1737047292,"current_range_meters":29600,"station_id":"ce4bhnh2rcd13ifvqgug","pricing_plan_id":"cebpf4jnsgd1na2vs0mg"},{"bike_id":"bcdc3bbf-87c0-445e-989a-7d417499286b","system_id":"levelo_inurba_marseille","lat":43.29286,"lon":5.40117,"is_reserved":false,"is_disabled":false,"rental_uris":{"android":"levelo://app?vid=bcdc3bbf-87c0-445e-989a-7d417499286b","ios":"levelo://app?vid=bcdc3bbf-87c0-445e-989a-7d417499286b"},"vehicle_type_id":"4","last_reported":1737047292,"current_range_meters":33200,"station_id":"ce4bh312rcd13ifvqdk0","pricing_plan_id":"cebpf4jnsgd1na2vs0mg"},{"bike_id":"4b71fbbe-4c0f-4730-ab32-c7f67aa10270","system_id":"levelo_inurba_marseille","lat":43.25498,"lon":5.37653,"is_reserved":false,"is_disabled":false,"rental_uris":{"android":"levelo://app?vid=4b71fbbe-4c0f-4730-ab32-c7f67aa10270","ios":"levelo://app?vid=4b71fbbe-4c0f-4730-ab32-c7f67aa10270"},"vehicle_type_id":"4","last_reported":1737047292,"current_range_meters":38800,"station_id":"ce4bhh12rcd13ifvqff0","pricing_plan_id":"cebpf4jnsgd1na2vs0mg"},{"bike_id":"a520de0a-aece-4bef-bc4c-eb5b0d8bc3be","system_id":"levelo_inurba_marseille","lat":43.28461,"lon":5.37467,"is_reserved":false,"is_disabled":false,"rental_uris":{"android":"levelo://app?vid=a520de0a-aece-4bef-bc4c-eb5b0d8bc3be","ios":"levelo://app?vid=a520de0a-aece-4bef-bc4c-eb5b0d8bc3be"},"vehicle_type_id":"4","last_reported":1737047292,"current_range_meters":24800,"station_id":"","pricing_plan_id":"cebpf4jnsgd1na2vs0mg"},{"bike_id":"c00bc195-a15c-4f3b-9a6a-fb6af373d505","system_id":"levelo_inurba_marseille","lat":43.33031,"lon":5.39032,"is_reserved":false,"is_disabled":false,"rental_uris":{"android":"levelo://app?vid=c00bc195-a15c-4f3b-9a6a-fb6af373d505","ios":"levelo://app?vid=c00bc195-a15c-4f3b-9a6a-fb6af373d505"},"vehicle_type_id":"4","last_reported":1737047292,"current_range_meters":25200,"station_id":"ce4bhr92rcd13ifvqhrg","pricing_plan_id":"cebpf4jnsgd1na2vs0mg"},{"bike_id":"a0bb9605-7c79-485c-b9c5-8be0dda1fb79","system_id":"levelo_inurba_marseille","lat":43.29061,"lon":5.35922,"is_reserved":false,"is_disabled":false,"rental_uris":{"android":"levelo://app?vid=a0bb9605-7c79-485c-b9c5-8be0dda1fb79","ios":"levelo://app?vid=a0bb9605-7c79-485c-b9c5-8be0dda1fb79"},"vehicle_type_id":"4","last_reported":1737047292,"current_range_meters":19600,"station_id":"ce4bha92rcd13ifvqeg0","pricing_plan_id":"cebpf4jnsgd1na2vs0mg"},{"bike_id":"fcad4ee9-9450-447d-bc6a-1b1cba810299","system_id":"levelo_inurba_marseille","lat":43.29703,"lon":5.37666,"is_reserved":false,"is_disabled":false,"rental_uris":{"android":"levelo://app?vid=fcad4ee9-9450-447d-bc6a-1b1cba810299","ios":"levelo://app?vid=fcad4ee9-9450-447d-bc6a-1b1cba810299"},"vehicle_type_id":"4","last_reported":1737047292,"current_range_meters":18000,"station_id":"ce4bgkh2rcd13ifvqbl0","pricing_plan_id":"cebpf4jnsgd1na2vs0mg"},{"bike_id":"9cb2c55e-dee3-46b0-99e4-c619a7277a83","system_id":"levelo_inurba_marseille","lat":43.29574,"lon":5.39987,"is_reserved":false,"is_disabled":false,"rental_uris":{"android":"levelo://app?vid=9cb2c55e-dee3-46b0-99e4-c619a7277a83","ios":"levelo://app?vid=9cb2c55e-dee3-46b0-99e4-c619a7277a83"},"vehicle_type_id":"4","last_reported":1737047292,"current_range_meters":23200,"station_id":"ce4bh312rcd13ifvqdj0","pricing_plan_id":"cebpf4jnsgd1na2vs0mg"},{"bike_id":"e21a33db-4ff7-44b2-a73f-b5c05a38c476","system_id":"levelo_inurba_marseille","lat":43.25496,"lon":5.37659,"is_reserved":false,"is_disabled":false,"rental_uris":{"android":"levelo://app?vid=e21a33db-4ff7-44b2-a73f-b5c05a38c476","ios":"levelo://app?vid=e21a33db-4ff7-44b2-a73f-b5c05a38c476"},"vehicle_type_id":"4","last_reported":1737047292,"current_range_meters":38000,"station_id":"ce4bhh12rcd13ifvqff0","pricing_plan_id":"cebpf4jnsgd1na2vs0mg"},{"bike_id":"ea68a76e-b4c6-4be9-ab98-1a2f34b18dea","system_id":"levelo_inurba_marseille","lat":43.2419,"lon":5.39744,"is_reserved":false,"is_disabled":false,"rental_uris":{"android":"levelo://app?vid=ea68a76e-b4c6-4be9-ab98-1a2f34b18dea","ios":"levelo://app?vid=ea68a76e-b4c6-4be9-ab98-1a2f34b18dea"},"vehicle_type_id":"4","last_reported":1737047292,"current_range_meters":19200,"station_id":"ce4bhn12rcd13ifvqgpg","pricing_plan_id":"cebpf4jnsgd1na2vs0mg"},{"bike_id":"deed0929-0128-456e-9f76-6afc5444b63c","system_id":"levelo_inurba_marseille","lat":43.284613,"lon":5.358907,"is_reserved":false,"is_disabled":false,"rental_uris":{"android":"levelo://app?vid=deed0929-0128-456e-9f76-6afc5444b63c","ios":"levelo://app?vid=deed0929-0128-456e-9f76-6afc5444b63c"},"vehicle_type_id":"4","last_reported":1737047292,"current_range_meters":8400,"station_id":"ce4bhah2rcd13ifvqei0","pricing_plan_id":"cebpf4jnsgd1na2vs0mg"},{"bike_id":"5641e134-717a-456c-a807-254c428b73cb","system_id":"levelo_inurba_marseille","lat":43.24388,"lon":5.37066,"is_reserved":false,"is_disabled":false,"rental_uris":{"android":"levelo://app?vid=5641e134-717a-456c-a807-254c428b73cb","ios":"levelo://app?vid=5641e134-717a-456c-a807-254c428b73cb"},"vehicle_type_id":"4","last_reported":1737047292,"current_range_meters":27200,"station_id":"ce4bhhh2rcd13ifvqfk0","pricing_plan_id":"cebpf4jnsgd1na2vs0mg"},{"bike_id":"b0c36ad8-2d79-431f-ad04-29cb76130a91","system_id":"levelo_inurba_marseille","lat":43.2944,"lon":5.3975,"is_reserved":false,"is_disabled":true,"rental_uris":{"android":"levelo://app?vid=b0c36ad8-2d79-431f-ad04-29cb76130a91","ios":"levelo://app?vid=b0c36ad8-2d79-431f-ad04-29cb76130a91"},"vehicle_type_id":"4","last_reported":1737047292,"current_range_meters":1200,"station_id":"ce4bh3h2rcd13ifvqdo0","pricing_plan_id":"cebpf4jnsgd1na2vs0mg"},{"bike_id":"b66c8a7c-98ac-480c-a383-f54813a2d5aa","system_id":"levelo_inurba_marseille","lat":43.25821,"lon":5.39437,"is_reserved":false,"is_disabled":false,"rental_uris":{"android":"levelo://app?vid=b66c8a7c-98ac-480c-a383-f54813a2d5aa","ios":"levelo://app?vid=b66c8a7c-98ac-480c-a383-f54813a2d5aa"},"vehicle_type_id":"4","last_reported":1737047292,"current_range_meters":38800,"station_id":"ce4bhip2rcd13ifvqft0","pricing_plan_id":"cebpf4jnsgd1na2vs0mg"},{"bike_id":"9eb8e58d-02d8-47e4-a3bd-13b422680bda","system_id":"levelo_inurba_marseille","lat":43.29413,"lon":5.38644,"is_reserved":false,"is_disabled":false,"rental_uris":{"android":"levelo://app?vid=9eb8e58d-02d8-47e4-a3bd-13b422680bda","ios":"levelo://app?vid=9eb8e58d-02d8-47e4-a3bd-13b422680bda"},"vehicle_type_id":"4","last_reported":1737047292,"current_range_meters":7200,"station_id":"ce4bh2h2rcd13ifvqdh0","pricing_plan_id":"cebpf4jnsgd1na2vs0mg"},{"bike_id":"8063ccad-9655-46fb-b66f-256126963c92","system_id":"levelo_inurba_marseille","lat":43.29959,"lon":5.37175,"is_reserved":false,"is_disabled":false,"rental_uris":{"android":"levelo://app?vid=8063ccad-9655-46fb-b66f-256126963c92","ios":"levelo://app?vid=8063ccad-9655-46fb-b66f-256126963c92"},"vehicle_type_id":"4","last_reported":1737047292,"current_range_meters":28000,"station_id":"ce4bgr92rcd13ifvqc7g","pricing_plan_id":"cebpf4jnsgd1na2vs0mg"},{"bike_id":"2b306c98-f95b-42a1-9aee-b5e32b2b0bbb","system_id":"levelo_inurba_marseille","lat":43.25579,"lon":5.38221,"is_reserved":false,"is_disabled":false,"rental_uris":{"android":"levelo://app?vid=2b306c98-f95b-42a1-9aee-b5e32b2b0bbb","ios":"levelo://app?vid=2b306c98-f95b-42a1-9aee-b5e32b2b0bbb"},"vehicle_type_id":"4","last_reported":1737047292,"current_range_meters":23200,"station_id":"ce4bhih2rcd13ifvqfs0","pricing_plan_id":"cebpf4jnsgd1na2vs0mg"},{"bike_id":"bb13a3cc-8197-4c21-94a0-0bda939710d0","system_id":"levelo_inurba_marseille","lat":43.2439,"lon":5.37062,"is_reserved":false,"is_disabled":false,"rental_uris":{"android":"levelo://app?vid=bb13a3cc-8197-4c21-94a0-0bda939710d0","ios":"levelo://app?vid=bb13a3cc-8197-4c21-94a0-0bda939710d0"},"vehicle_type_id":"4","last_reported":1737047292,"current_range_meters":31200,"station_id":"ce4bhhh2rcd13ifvqfk0","pricing_plan_id":"cebpf4jnsgd1na2vs0mg"},{"bike_id":"102ba7a4-43e9-4fd1-8567-d36ab4281427","system_id":"levelo_inurba_marseille","lat":43.24649,"lon":5.388952,"is_reserved":false,"is_disabled":false,"rental_uris":{"android":"levelo://app?vid=102ba7a4-43e9-4fd1-8567-d36ab4281427","ios":"levelo://app?vid=102ba7a4-43e9-4fd1-8567-d36ab4281427"},"vehicle_type_id":"4","last_reported":1737047292,"current_range_meters":16000,"station_id":"ce4bhg12rcd13ifvqf60","pricing_plan_id":"cebpf4jnsgd1na2vs0mg"},{"bike_id":"7bff17cc-1c44-40d8-87ad-42c14976da2f","system_id":"levelo_inurba_marseille","lat":43.306063,"lon":5.380774,"is_reserved":false,"is_disabled":false,"rental_uris":{"android":"levelo://app?vid=7bff17cc-1c44-40d8-87ad-42c14976da2f","ios":"levelo://app?vid=7bff17cc-1c44-40d8-87ad-42c14976da2f"},"vehicle_type_id":"4","last_reported":1737047292,"current_range_meters":12000,"station_id":"","pricing_plan_id":"cebpf4jnsgd1na2vs0mg"},{"bike_id":"44721705-52d0-4eba-b0b2-b41ea9586411","system_id":"levelo_inurba_marseille","lat":43.23194,"lon":5.35564,"is_reserved":false,"is_disabled":false,"rental_uris":{"android":"levelo://app?vid=44721705-52d0-4eba-b0b2-b41ea9586411","ios":"levelo://app?vid=44721705-52d0-4eba-b0b2-b41ea9586411"},"vehicle_type_id":"4","last_reported":1737047292,"current_range_meters":33600,"station_id":"ce4bhu92rcd13ifvqi70","pricing_plan_id":"cebpf4jnsgd1na2vs0mg"},{"bike_id":"b46558d2-789c-4699-a152-64fbeef8db30","system_id":"levelo_inurba_marseille","lat":43.31323,"lon":5.39689,"is_reserved":false,"is_disabled":false,"rental_uris":{"android":"levelo://app?vid=b46558d2-789c-4699-a152-64fbeef8db30","ios":"levelo://app?vid=b46558d2-789c-4699-a152-64fbeef8db30"},"vehicle_type_id":"4","last_reported":1737047292,"current_range_meters":14000,"station_id":"ce4bgvp2rcd13ifvqcu0","pricing_plan_id":"cebpf4jnsgd1na2vs0mg"},{"bike_id":"bf778365-62aa-48ac-b6f7-10e2b03d036a","system_id":"levelo_inurba_marseille","lat":43.29305,"lon":5.3747,"is_reserved":false,"is_disabled":false,"rental_uris":{"android":"levelo://app?vid=bf778365-62aa-48ac-b6f7-10e2b03d036a","ios":"levelo://app?vid=bf778365-62aa-48ac-b6f7-10e2b03d036a"},"vehicle_type_id":"4","last_reported":1737047292,"current_range_meters":26000,"station_id":"ce4bgi12rcd13ifvqb70","pricing_plan_id":"cebpf4jnsgd1na2vs0mg"},{"bike_id":"c0c91bc9-88c3-4384-ab66-92c6ebc9d15a","system_id":"levelo_inurba_marseille","lat":43.27375,"lon":5.36258,"is_reserved":false,"is_disabled":false,"rental_uris":{"android":"levelo://app?vid=c0c91bc9-88c3-4384-ab66-92c6ebc9d15a","ios":"levelo://app?vid=c0c91bc9-88c3-4384-ab66-92c6ebc9d15a"},"vehicle_type_id":"4","last_reported":1737047292,"current_range_meters":38400,"station_id":"ce4bhbh2rcd13ifvqeo0","pricing_plan_id":"cebpf4jnsgd1na2vs0mg"},{"bike_id":"27371fc3-88d5-40e0-8fcb-13c0dd889d55","system_id":"levelo_inurba_marseille","lat":43.25834,"lon":5.39429,"is_reserved":false,"is_disabled":false,"rental_uris":{"android":"levelo://app?vid=27371fc3-88d5-40e0-8fcb-13c0dd889d55","ios":"levelo://app?vid=27371fc3-88d5-40e0-8fcb-13c0dd889d55"},"vehicle_type_id":"4","last_reported":1737047292,"current_range_meters":24400,"station_id":"ce4bhip2rcd13ifvqft0","pricing_plan_id":"cebpf4jnsgd1na2vs0mg"},{"bike_id":"ca2a8522-cc01-4006-8a0f-c4a9fc45589f","system_id":"levelo_inurba_marseille","lat":43.250007,"lon":5.389353,"is_reserved":false,"is_disabled":false,"rental_uris":{"android":"levelo://app?vid=ca2a8522-cc01-4006-8a0f-c4a9fc45589f","ios":"levelo://app?vid=ca2a8522-cc01-4006-8a0f-c4a9fc45589f"},"vehicle_type_id":"4","last_reported":1737047292,"current_range_meters":22800,"station_id":"ce4bhgp2rcd13ifvqfd0","pricing_plan_id":"cebpf4jnsgd1na2vs0mg"},{"bike_id":"e1f9a0b5-1419-4e67-ab24-a72ee45dfd85","system_id":"levelo_inurba_marseille","lat":43.241735,"lon":5.363966,"is_reserved":false,"is_disabled":false,"rental_uris":{"android":"levelo://app?vid=e1f9a0b5-1419-4e67-ab24-a72ee45dfd85","ios":"levelo://app?vid=e1f9a0b5-1419-4e67-ab24-a72ee45dfd85"},"vehicle_type_id":"4","last_reported":1737047292,"current_range_meters":20400,"station_id":"cpo36qri1sfpv3e86is0","pricing_plan_id":"cebpf4jnsgd1na2vs0mg"},{"bike_id":"9a582c56-bbf8-4319-a059-65116fb6f262","system_id":"levelo_inurba_marseille","lat":43.29636,"lon":5.4059,"is_reserved":false,"is_disabled":false,"rental_uris":{"android":"levelo://app?vid=9a582c56-bbf8-4319-a059-65116fb6f262","ios":"levelo://app?vid=9a582c56-bbf8-4319-a059-65116fb6f262"},"vehicle_type_id":"4","last_reported":1737047292,"current_range_meters":6000,"station_id":"ce4bh0h2rcd13ifvqd60","pricing_plan_id":"cebpf4jnsgd1na2vs0mg"},{"bike_id":"699fb9f4-6853-4a1d-9b47-2766077df347","system_id":"levelo_inurba_marseille","lat":43.29603,"lon":5.37721,"is_reserved":false,"is_disabled":false,"rental_uris":{"android":"levelo://app?vid=699fb9f4-6853-4a1d-9b47-2766077df347","ios":"levelo://app?vid=699fb9f4-6853-4a1d-9b47-2766077df347"},"vehicle_type_id":"4","last_reported":1737047292,"current_range_meters":24000,"station_id":"ce4bgi92rcd13ifvqb90","pricing_plan_id":"cebpf4jnsgd1na2vs0mg"},{"bike_id":"f7a93299-4b31-44c2-976e-82f7878bc418","system_id":"levelo_inurba_marseille","lat":43.255,"lon":5.37648,"is_reserved":false,"is_disabled":false,"rental_uris":{"android":"levelo://app?vid=f7a93299-4b31-44c2-976e-82f7878bc418","ios":"levelo://app?vid=f7a93299-4b31-44c2-976e-82f7878bc418"},"vehicle_type_id":"4","last_reported":1737047292,"current_range_meters":38800,"station_id":"ce4bhh12rcd13ifvqff0","pricing_plan_id":"cebpf4jnsgd1na2vs0mg"},{"bike_id":"31f00ed0-b0ca-427a-9039-ac29c940ea2c","system_id":"levelo_inurba_marseille","lat":43.23205,"lon":5.35553,"is_reserved":false,"is_disabled":false,"rental_uris":{"android":"levelo://app?vid=31f00ed0-b0ca-427a-9039-ac29c940ea2c","ios":"levelo://app?vid=31f00ed0-b0ca-427a-9039-ac29c940ea2c"},"vehicle_type_id":"4","last_reported":1737047292,"current_range_meters":18000,"station_id":"ce4bhu92rcd13ifvqi70","pricing_plan_id":"cebpf4jnsgd1na2vs0mg"},{"bike_id":"5dbd9abf-b5c6-48bb-957e-ded34486cfea","system_id":"levelo_inurba_marseille","lat":43.31695,"lon":5.40445,"is_reserved":false,"is_disabled":false,"rental_uris":{"android":"levelo://app?vid=5dbd9abf-b5c6-48bb-957e-ded34486cfea","ios":"levelo://app?vid=5dbd9abf-b5c6-48bb-957e-ded34486cfea"},"vehicle_type_id":"4","last_reported":1737047292,"current_range_meters":38800,"station_id":"ce4bh012rcd13ifvqd00","pricing_plan_id":"cebpf4jnsgd1na2vs0mg"},{"bike_id":"afcf7a34-93cd-4f0e-b520-4dcfcccfa23c","system_id":"levelo_inurba_marseille","lat":43.27685,"lon":5.38892,"is_reserved":false,"is_disabled":true,"rental_uris":{"android":"levelo://app?vid=afcf7a34-93cd-4f0e-b520-4dcfcccfa23c","ios":"levelo://app?vid=afcf7a34-93cd-4f0e-b520-4dcfcccfa23c"},"vehicle_type_id":"4","last_reported":1737047292,"current_range_meters":0,"station_id":"ce4bhi12rcd13ifvqfo0","pricing_plan_id":"cebpf4jnsgd1na2vs0mg"},{"bike_id":"8ccdb8e3-5350-4cab-8a81-1bd6181a6c06","system_id":"levelo_inurba_marseille","lat":43.231979,"lon":5.355509,"is_reserved":false,"is_disabled":false,"rental_uris":{"android":"levelo://app?vid=8ccdb8e3-5350-4cab-8a81-1bd6181a6c06","ios":"levelo://app?vid=8ccdb8e3-5350-4cab-8a81-1bd6181a6c06"},"vehicle_type_id":"4","last_reported":1737047292,"current_range_meters":29600,"station_id":"ce4bhu92rcd13ifvqi70","pricing_plan_id":"cebpf4jnsgd1na2vs0mg"},{"bike_id":"7ed25fb3-93fa-44fd-af01-b9de801cd87e","system_id":"levelo_inurba_marseille","lat":43.30885,"lon":5.39644,"is_reserved":false,"is_disabled":false,"rental_uris":{"android":"levelo://app?vid=7ed25fb3-93fa-44fd-af01-b9de801cd87e","ios":"levelo://app?vid=7ed25fb3-93fa-44fd-af01-b9de801cd87e"},"vehicle_type_id":"4","last_reported":1737047292,"current_range_meters":28800,"station_id":"ce4bh012rcd13ifvqcv0","pricing_plan_id":"cebpf4jnsgd1na2vs0mg"},{"bike_id":"debf1d68-8b1d-4b6b-9d17-2e6033da6eb8","system_id":"levelo_inurba_marseille","lat":43.31321,"lon":5.39696,"is_reserved":false,"is_disabled":false,"rental_uris":{"android":"levelo://app?vid=debf1d68-8b1d-4b6b-9d17-2e6033da6eb8","ios":"levelo://app?vid=debf1d68-8b1d-4b6b-9d17-2e6033da6eb8"},"vehicle_type_id":"4","last_reported":1737047292,"current_range_meters":39200,"station_id":"ce4bgvp2rcd13ifvqcu0","pricing_plan_id":"cebpf4jnsgd1na2vs0mg"},{"bike_id":"ce201219-1b85-4591-9c32-ec85e024bdda","system_id":"levelo_inurba_marseille","lat":43.28616,"lon":5.351,"is_reserved":false,"is_disabled":false,"rental_uris":{"android":"levelo://app?vid=ce201219-1b85-4591-9c32-ec85e024bdda","ios":"levelo://app?vid=ce201219-1b85-4591-9c32-ec85e024bdda"},"vehicle_type_id":"4","last_reported":1737047292,"current_range_meters":33600,"station_id":"ce4bhch2rcd13ifvqeug","pricing_plan_id":"cebpf4jnsgd1na2vs0mg"},{"bike_id":"f5863b18-13a1-4c6e-92de-5668ea912ad3","system_id":"levelo_inurba_marseille","lat":43.26223,"lon":5.40444,"is_reserved":false,"is_disabled":true,"rental_uris":{"android":"levelo://app?vid=f5863b18-13a1-4c6e-92de-5668ea912ad3","ios":"levelo://app?vid=f5863b18-13a1-4c6e-92de-5668ea912ad3"},"vehicle_type_id":"4","last_reported":1737047292,"current_range_meters":1600,"station_id":"","pricing_plan_id":"cebpf4jnsgd1na2vs0mg"},{"bike_id":"8bcbffa9-0fbc-4bba-8495-f8fc61914422","system_id":"levelo_inurba_marseille","lat":43.2953,"lon":5.38991,"is_reserved":false,"is_disabled":false,"rental_uris":{"android":"levelo://app?vid=8bcbffa9-0fbc-4bba-8495-f8fc61914422","ios":"levelo://app?vid=8bcbffa9-0fbc-4bba-8495-f8fc61914422"},"vehicle_type_id":"4","last_reported":1737047292,"current_range_meters":32400,"station_id":"ce4bh3p2rcd13ifvqdp0","pricing_plan_id":"cebpf4jnsgd1na2vs0mg"},{"bike_id":"a8fad254-19bb-48fe-801d-9e93d4767cef","system_id":"levelo_inurba_marseille","lat":43.31423,"lon":5.37417,"is_reserved":false,"is_disabled":true,"rental_uris":{"android":"levelo://app?vid=a8fad254-19bb-48fe-801d-9e93d4767cef","ios":"levelo://app?vid=a8fad254-19bb-48fe-801d-9e93d4767cef"},"vehicle_type_id":"4","last_reported":1737047292,"current_range_meters":2000,"station_id":"","pricing_plan_id":"cebpf4jnsgd1na2vs0mg"},{"bike_id":"b80538f1-bed7-4fbe-806c-123f996da5e7","system_id":"levelo_inurba_marseille","lat":43.30648,"lon":5.40079,"is_reserved":false,"is_disabled":false,"rental_uris":{"android":"levelo://app?vid=b80538f1-bed7-4fbe-806c-123f996da5e7","ios":"levelo://app?vid=b80538f1-bed7-4fbe-806c-123f996da5e7"},"vehicle_type_id":"4","last_reported":1737047292,"current_range_meters":12400,"station_id":"ce4bh112rcd13ifvqda0","pricing_plan_id":"cebpf4jnsgd1na2vs0mg"},{"bike_id":"e5f71037-c3e2-4a5c-b185-51bcddd625d8","system_id":"levelo_inurba_marseille","lat":43.23059,"lon":5.35502,"is_reserved":false,"is_disabled":false,"rental_uris":{"android":"levelo://app?vid=e5f71037-c3e2-4a5c-b185-51bcddd625d8","ios":"levelo://app?vid=e5f71037-c3e2-4a5c-b185-51bcddd625d8"},"vehicle_type_id":"4","last_reported":1737047292,"current_range_meters":8400,"station_id":"cpo3342slgdg3j2ifvpg","pricing_plan_id":"cebpf4jnsgd1na2vs0mg"},{"bike_id":"4fa16731-3198-4b9a-8a3d-5dc35be06842","system_id":"levelo_inurba_marseille","lat":43.29518,"lon":5.39048,"is_reserved":false,"is_disabled":false,"rental_uris":{"android":"levelo://app?vid=4fa16731-3198-4b9a-8a3d-5dc35be06842","ios":"levelo://app?vid=4fa16731-3198-4b9a-8a3d-5dc35be06842"},"vehicle_type_id":"4","last_reported":1737047292,"current_range_meters":32800,"station_id":"ce4bh3p2rcd13ifvqdp0","pricing_plan_id":"cebpf4jnsgd1na2vs0mg"},{"bike_id":"cb2f1299-e999-4727-96a3-ad8c3bbf4419","system_id":"levelo_inurba_marseille","lat":43.29723,"lon":5.37702,"is_reserved":false,"is_disabled":false,"rental_uris":{"android":"levelo://app?vid=cb2f1299-e999-4727-96a3-ad8c3bbf4419","ios":"levelo://app?vid=cb2f1299-e999-4727-96a3-ad8c3bbf4419"},"vehicle_type_id":"4","last_reported":1737047292,"current_range_meters":16800,"station_id":"ce4bgkh2rcd13ifvqbl0","pricing_plan_id":"cebpf4jnsgd1na2vs0mg"},{"bike_id":"3d5a1262-2932-4ccd-9bd0-8d62fc0bdf09","system_id":"levelo_inurba_marseille","lat":43.26936,"lon":5.38928,"is_reserved":false,"is_disabled":false,"rental_uris":{"android":"levelo://app?vid=3d5a1262-2932-4ccd-9bd0-8d62fc0bdf09","ios":"levelo://app?vid=3d5a1262-2932-4ccd-9bd0-8d62fc0bdf09"},"vehicle_type_id":"4","last_reported":1737047292,"current_range_meters":35600,"station_id":"ce4bhhh2rcd13ifvqfl0","pricing_plan_id":"cebpf4jnsgd1na2vs0mg"},{"bike_id":"3308c234-f0cb-4552-ab05-5c7b9282ff70","system_id":"levelo_inurba_marseille","lat":43.28613,"lon":5.35105,"is_reserved":false,"is_disabled":false,"rental_uris":{"android":"levelo://app?vid=3308c234-f0cb-4552-ab05-5c7b9282ff70","ios":"levelo://app?vid=3308c234-f0cb-4552-ab05-5c7b9282ff70"},"vehicle_type_id":"4","last_reported":1737047292,"current_range_meters":10000,"station_id":"ce4bhch2rcd13ifvqeug","pricing_plan_id":"cebpf4jnsgd1na2vs0mg"},{"bike_id":"708f0e28-a3f6-468e-b3f8-61922c8278da","system_id":"levelo_inurba_marseille","lat":43.2847,"lon":5.38423,"is_reserved":false,"is_disabled":false,"rental_uris":{"android":"levelo://app?vid=708f0e28-a3f6-468e-b3f8-61922c8278da","ios":"levelo://app?vid=708f0e28-a3f6-468e-b3f8-61922c8278da"},"vehicle_type_id":"4","last_reported":1737047292,"current_range_meters":38400,"station_id":"ce4bh512rcd13ifvqe3g","pricing_plan_id":"cebpf4jnsgd1na2vs0mg"},{"bike_id":"9bb7b3de-43c2-4da5-8347-146bf99f2053","system_id":"levelo_inurba_marseille","lat":43.29266,"lon":5.38444,"is_reserved":false,"is_disabled":false,"rental_uris":{"android":"levelo://app?vid=9bb7b3de-43c2-4da5-8347-146bf99f2053","ios":"levelo://app?vid=9bb7b3de-43c2-4da5-8347-146bf99f2053"},"vehicle_type_id":"4","last_reported":1737047292,"current_range_meters":28000,"station_id":"ce4bh692rcd13ifvqea0","pricing_plan_id":"cebpf4jnsgd1na2vs0mg"},{"bike_id":"f5d42cbd-fc3f-47c5-8a41-673e06398506","system_id":"levelo_inurba_marseille","lat":43.30142,"lon":5.3879,"is_reserved":false,"is_disabled":false,"rental_uris":{"android":"levelo://app?vid=f5d42cbd-fc3f-47c5-8a41-673e06398506","ios":"levelo://app?vid=f5d42cbd-fc3f-47c5-8a41-673e06398506"},"vehicle_type_id":"4","last_reported":1737047292,"current_range_meters":21600,"station_id":"ce4bhoh2rcd13ifvqh6g","pricing_plan_id":"cebpf4jnsgd1na2vs0mg"},{"bike_id":"1d6c4c49-5f9d-42f6-91a6-37cfba2e8555","system_id":"levelo_inurba_marseille","lat":43.29874,"lon":5.38904,"is_reserved":false,"is_disabled":false,"rental_uris":{"android":"levelo://app?vid=1d6c4c49-5f9d-42f6-91a6-37cfba2e8555","ios":"levelo://app?vid=1d6c4c49-5f9d-42f6-91a6-37cfba2e8555"},"vehicle_type_id":"4","last_reported":1737047292,"current_range_meters":29600,"station_id":"ce4bh392rcd13ifvqdl0","pricing_plan_id":"cebpf4jnsgd1na2vs0mg"},{"bike_id":"d5c5c535-afd0-4062-8c96-ab71c7e7e06a","system_id":"levelo_inurba_marseille","lat":43.29957,"lon":5.41316,"is_reserved":false,"is_disabled":false,"rental_uris":{"android":"levelo://app?vid=d5c5c535-afd0-4062-8c96-ab71c7e7e06a","ios":"levelo://app?vid=d5c5c535-afd0-4062-8c96-ab71c7e7e06a"},"vehicle_type_id":"4","last_reported":1737047292,"current_range_meters":33200,"station_id":"ce4bhp12rcd13ifvqh9g","pricing_plan_id":"cebpf4jnsgd1na2vs0mg"},{"bike_id":"9881bc6f-d94e-4215-8c46-4998aceeb78d","system_id":"levelo_inurba_marseille","lat":43.29871,"lon":5.39731,"is_reserved":false,"is_disabled":false,"rental_uris":{"android":"levelo://app?vid=9881bc6f-d94e-4215-8c46-4998aceeb78d","ios":"levelo://app?vid=9881bc6f-d94e-4215-8c46-4998aceeb78d"},"vehicle_type_id":"4","last_reported":1737047292,"current_range_meters":2800,"station_id":"ce4bh0h2rcd13ifvqd50","pricing_plan_id":"cebpf4jnsgd1na2vs0mg"},{"bike_id":"6a7962fe-277b-47e1-a02c-2a5b4d88817e","system_id":"levelo_inurba_marseille","lat":43.24386,"lon":5.3706,"is_reserved":false,"is_disabled":false,"rental_uris":{"android":"levelo://app?vid=6a7962fe-277b-47e1-a02c-2a5b4d88817e","ios":"levelo://app?vid=6a7962fe-277b-47e1-a02c-2a5b4d88817e"},"vehicle_type_id":"4","last_reported":1737047292,"current_range_meters":38800,"station_id":"ce4bhhh2rcd13ifvqfk0","pricing_plan_id":"cebpf4jnsgd1na2vs0mg"},{"bike_id":"f5a53e35-9bad-424d-92fb-4d154082ae80","system_id":"levelo_inurba_marseille","lat":43.28564,"lon":5.39495,"is_reserved":false,"is_disabled":false,"rental_uris":{"android":"levelo://app?vid=f5a53e35-9bad-424d-92fb-4d154082ae80","ios":"levelo://app?vid=f5a53e35-9bad-424d-92fb-4d154082ae80"},"vehicle_type_id":"4","last_reported":1737047292,"current_range_meters":16000,"station_id":"ce4bh292rcd13ifvqdg0","pricing_plan_id":"cebpf4jnsgd1na2vs0mg"},{"bike_id":"7f32d0a1-1170-4818-b723-6ac772ae698e","system_id":"levelo_inurba_marseille","lat":43.27208,"lon":5.39182,"is_reserved":false,"is_disabled":false,"rental_uris":{"android":"levelo://app?vid=7f32d0a1-1170-4818-b723-6ac772ae698e","ios":"levelo://app?vid=7f32d0a1-1170-4818-b723-6ac772ae698e"},"vehicle_type_id":"4","last_reported":1737047292,"current_range_meters":14000,"station_id":"ce4bhhp2rcd13ifvqfm0","pricing_plan_id":"cebpf4jnsgd1na2vs0mg"},{"bike_id":"90d6e380-3326-429d-8750-22bef3f4fa3c","system_id":"levelo_inurba_marseille","lat":43.28406,"lon":5.37521,"is_reserved":false,"is_disabled":false,"rental_uris":{"android":"levelo://app?vid=90d6e380-3326-429d-8750-22bef3f4fa3c","ios":"levelo://app?vid=90d6e380-3326-429d-8750-22bef3f4fa3c"},"vehicle_type_id":"4","last_reported":1737047292,"current_range_meters":32800,"station_id":"ce4bh412rcd13ifvqds0","pricing_plan_id":"cebpf4jnsgd1na2vs0mg"},{"bike_id":"1e4fbeb9-1986-41df-b4b0-06b0b90b6c2f","system_id":"levelo_inurba_marseille","lat":43.2757,"lon":5.38432,"is_reserved":false,"is_disabled":false,"rental_uris":{"android":"levelo://app?vid=1e4fbeb9-1986-41df-b4b0-06b0b90b6c2f","ios":"levelo://app?vid=1e4fbeb9-1986-41df-b4b0-06b0b90b6c2f"},"vehicle_type_id":"4","last_reported":1737047292,"current_range_meters":7200,"station_id":"ce4bhh92rcd13ifvqfi0","pricing_plan_id":"cebpf4jnsgd1na2vs0mg"},{"bike_id":"2320f80a-0468-48bb-916b-633f58ab53fe","system_id":"levelo_inurba_marseille","lat":43.33715,"lon":5.3918,"is_reserved":false,"is_disabled":false,"rental_uris":{"android":"levelo://app?vid=2320f80a-0468-48bb-916b-633f58ab53fe","ios":"levelo://app?vid=2320f80a-0468-48bb-916b-633f58ab53fe"},"vehicle_type_id":"4","last_reported":1737047292,"current_range_meters":23200,"station_id":"ce4bhr92rcd13ifvqhsg","pricing_plan_id":"cebpf4jnsgd1na2vs0mg"},{"bike_id":"0ab91b2f-8859-4081-a14d-c5c0c1c0e739","system_id":"levelo_inurba_marseille","lat":43.28033,"lon":5.36951,"is_reserved":false,"is_disabled":false,"rental_uris":{"android":"levelo://app?vid=0ab91b2f-8859-4081-a14d-c5c0c1c0e739","ios":"levelo://app?vid=0ab91b2f-8859-4081-a14d-c5c0c1c0e739"},"vehicle_type_id":"4","last_reported":1737047292,"current_range_meters":38800,"station_id":"ce4bha12rcd13ifvqef0","pricing_plan_id":"cebpf4jnsgd1na2vs0mg"},{"bike_id":"3fc466a4-5364-4636-99d9-c7e2cc2ff0c2","system_id":"levelo_inurba_marseille","lat":43.33032,"lon":5.39037,"is_reserved":false,"is_disabled":false,"rental_uris":{"android":"levelo://app?vid=3fc466a4-5364-4636-99d9-c7e2cc2ff0c2","ios":"levelo://app?vid=3fc466a4-5364-4636-99d9-c7e2cc2ff0c2"},"vehicle_type_id":"4","last_reported":1737047292,"current_range_meters":38000,"station_id":"ce4bhr92rcd13ifvqhrg","pricing_plan_id":"cebpf4jnsgd1na2vs0mg"},{"bike_id":"9fc2e505-732d-4b5e-a078-bf18a5ad6b1a","system_id":"levelo_inurba_marseille","lat":43.246487,"lon":5.388942,"is_reserved":false,"is_disabled":false,"rental_uris":{"android":"levelo://app?vid=9fc2e505-732d-4b5e-a078-bf18a5ad6b1a","ios":"levelo://app?vid=9fc2e505-732d-4b5e-a078-bf18a5ad6b1a"},"vehicle_type_id":"4","last_reported":1737047292,"current_range_meters":38800,"station_id":"ce4bhg12rcd13ifvqf60","pricing_plan_id":"cebpf4jnsgd1na2vs0mg"},{"bike_id":"a87465e3-1cd9-4ca2-bed4-eec54b6a624e","system_id":"levelo_inurba_marseille","lat":43.2998,"lon":5.38496,"is_reserved":false,"is_disabled":false,"rental_uris":{"android":"levelo://app?vid=a87465e3-1cd9-4ca2-bed4-eec54b6a624e","ios":"levelo://app?vid=a87465e3-1cd9-4ca2-bed4-eec54b6a624e"},"vehicle_type_id":"4","last_reported":1737047292,"current_range_meters":28000,"station_id":"ce4bgj92rcd13ifvqbd0","pricing_plan_id":"cebpf4jnsgd1na2vs0mg"},{"bike_id":"393b4f96-c48c-4e62-8786-5c4cfba559f3","system_id":"levelo_inurba_marseille","lat":43.28076,"lon":5.39662,"is_reserved":false,"is_disabled":false,"rental_uris":{"android":"levelo://app?vid=393b4f96-c48c-4e62-8786-5c4cfba559f3","ios":"levelo://app?vid=393b4f96-c48c-4e62-8786-5c4cfba559f3"},"vehicle_type_id":"4","last_reported":1737047292,"current_range_meters":32400,"station_id":"ce4bho12rcd13ifvqh2g","pricing_plan_id":"cebpf4jnsgd1na2vs0mg"},{"bike_id":"23148424-4caa-48c3-8614-6e7e880e804e","system_id":"levelo_inurba_marseille","lat":43.26935,"lon":5.38926,"is_reserved":false,"is_disabled":true,"rental_uris":{"android":"levelo://app?vid=23148424-4caa-48c3-8614-6e7e880e804e","ios":"levelo://app?vid=23148424-4caa-48c3-8614-6e7e880e804e"},"vehicle_type_id":"4","last_reported":1737047292,"current_range_meters":0,"station_id":"ce4bhhh2rcd13ifvqfl0","pricing_plan_id":"cebpf4jnsgd1na2vs0mg"},{"bike_id":"93265de4-2e40-4c04-a419-9157b33f0179","system_id":"levelo_inurba_marseille","lat":43.29722,"lon":5.37685,"is_reserved":false,"is_disabled":false,"rental_uris":{"android":"levelo://app?vid=93265de4-2e40-4c04-a419-9157b33f0179","ios":"levelo://app?vid=93265de4-2e40-4c04-a419-9157b33f0179"},"vehicle_type_id":"4","last_reported":1737047292,"current_range_meters":38000,"station_id":"ce4bgkh2rcd13ifvqbl0","pricing_plan_id":"cebpf4jnsgd1na2vs0mg"},{"bike_id":"fcf6bd71-87c8-4611-a2cd-85fda415d5ef","system_id":"levelo_inurba_marseille","lat":43.29609,"lon":5.37725,"is_reserved":false,"is_disabled":false,"rental_uris":{"android":"levelo://app?vid=fcf6bd71-87c8-4611-a2cd-85fda415d5ef","ios":"levelo://app?vid=fcf6bd71-87c8-4611-a2cd-85fda415d5ef"},"vehicle_type_id":"4","last_reported":1737047292,"current_range_meters":38800,"station_id":"ce4bgi92rcd13ifvqb90","pricing_plan_id":"cebpf4jnsgd1na2vs0mg"},{"bike_id":"a9d92ac4-4270-44d4-9c73-6e9b286cbe6f","system_id":"levelo_inurba_marseille","lat":43.27924,"lon":5.39583,"is_reserved":false,"is_disabled":false,"rental_uris":{"android":"levelo://app?vid=a9d92ac4-4270-44d4-9c73-6e9b286cbe6f","ios":"levelo://app?vid=a9d92ac4-4270-44d4-9c73-6e9b286cbe6f"},"vehicle_type_id":"4","last_reported":1737047292,"current_range_meters":24000,"station_id":"ce4bhf92rcd13ifvqf40","pricing_plan_id":"cebpf4jnsgd1na2vs0mg"},{"bike_id":"b1b65588-d46e-4985-ab0d-6a43878d36fc","system_id":"levelo_inurba_marseille","lat":43.3373,"lon":5.39192,"is_reserved":false,"is_disabled":false,"rental_uris":{"android":"levelo://app?vid=b1b65588-d46e-4985-ab0d-6a43878d36fc","ios":"levelo://app?vid=b1b65588-d46e-4985-ab0d-6a43878d36fc"},"vehicle_type_id":"4","last_reported":1737047292,"current_range_meters":38800,"station_id":"ce4bhr92rcd13ifvqhsg","pricing_plan_id":"cebpf4jnsgd1na2vs0mg"},{"bike_id":"98840329-b43e-4341-ba2f-db9c839374b7","system_id":"levelo_inurba_marseille","lat":43.292578,"lon":5.409164,"is_reserved":false,"is_disabled":false,"rental_uris":{"android":"levelo://app?vid=98840329-b43e-4341-ba2f-db9c839374b7","ios":"levelo://app?vid=98840329-b43e-4341-ba2f-db9c839374b7"},"vehicle_type_id":"4","last_reported":1737047292,"current_range_meters":38800,"station_id":"ce4bh192rcd13ifvqdc0","pricing_plan_id":"cebpf4jnsgd1na2vs0mg"},{"bike_id":"7a725f57-6f8f-441b-98b7-20a1b336a17d","system_id":"levelo_inurba_marseille","lat":43.28737,"lon":5.36091,"is_reserved":false,"is_disabled":false,"rental_uris":{"android":"levelo://app?vid=7a725f57-6f8f-441b-98b7-20a1b336a17d","ios":"levelo://app?vid=7a725f57-6f8f-441b-98b7-20a1b336a17d"},"vehicle_type_id":"4","last_reported":1737047292,"current_range_meters":31200,"station_id":"cki0cbj6b192h4jlfktg","pricing_plan_id":"cebpf4jnsgd1na2vs0mg"},{"bike_id":"8f8e1238-66db-4115-8937-ba469358bd84","system_id":"levelo_inurba_marseille","lat":43.30935,"lon":5.36855,"is_reserved":false,"is_disabled":false,"rental_uris":{"android":"levelo://app?vid=8f8e1238-66db-4115-8937-ba469358bd84","ios":"levelo://app?vid=8f8e1238-66db-4115-8937-ba469358bd84"},"vehicle_type_id":"4","last_reported":1737047292,"current_range_meters":4000,"station_id":"ce4bgn92rcd13ifvqbvg","pricing_plan_id":"cebpf4jnsgd1na2vs0mg"},{"bike_id":"09eb6099-5512-4d38-97c6-e405f95aa38f","system_id":"levelo_inurba_marseille","lat":43.29717,"lon":5.37698,"is_reserved":false,"is_disabled":false,"rental_uris":{"android":"levelo://app?vid=09eb6099-5512-4d38-97c6-e405f95aa38f","ios":"levelo://app?vid=09eb6099-5512-4d38-97c6-e405f95aa38f"},"vehicle_type_id":"4","last_reported":1737047292,"current_range_meters":38800,"station_id":"ce4bgkh2rcd13ifvqbl0","pricing_plan_id":"cebpf4jnsgd1na2vs0mg"},