{"last_updated":1729282189,"ttl":60,"version":"2.2","data":{"bikes":[{"bike_id":"7c215bb1-a727-4569-986d-c8f6cf1e676e","system_id":"levelo_inurba_marseille","lat":43.31711,"lon":5.43712,"is_reserved":false,"is_disabled":false,"rental_uris":{"android":"levelo://app?vid=7c215bb1-a727-4569-986d-c8f6cf1e676e","ios":"levelo://app?vid=7c215bb1-a727-4569-986d-c8f6cf1e676e"},"vehicle_type_id":"4","last_reported":1729282189,"current_range_meters":38800,"station_id":"ce4bhp92rcd13ifvqhcg","pricing_plan_id":"cebpf4jnsgd1na2vs0mg"},{"bike_id":"0bd29515-40d3-4b3d-a1be-6c5884ab24e6","system_id":"levelo_inurba_marseille","lat":43.31186,"lon":5.36767,"is_reserved":false,"is_disabled":false,"rental_uris":{"android":"levelo://app?vid=0bd29515-40d3-4b3d-a1be-6c5884ab24e6","ios":"levelo://app?vid=0bd29515-40d3-4b3d-a1be-6c5884ab24e6"},"vehicle_type_id":"4","last_reported":1729282189,"current_range_meters":22800,"station_id":"","pricing_plan_id":"cebpf4jnsgd1na2vs0mg"},{"bike_id":"676ec6c4-6b42-43e0-81fe-327782965da5","system_id":"levelo_inurba_marseille","lat":43.33765,"lon":5.37484,"is_reserved":false,"is_disabled":false,"rental_uris":{"android":"levelo://app?vid=676ec6c4-6b42-43e0-81fe-327782965da5","ios":"levelo://app?vid=676ec6c4-6b42-43e0-81fe-327782965da5"},"vehicle_type_id":"4","last_reported":1729282189,"current_range_meters":16800,"station_id":"","pricing_plan_id":"cebpf4jnsgd1na2vs0mg"},{"bike_id":"efad7009-0ee6-463a-ba8e-0be29e40d893","system_id":"levelo_inurba_marseille","lat":43.2963,"lon":5.38025,"is_reserved":false,"is_disabled":false,"rental_uris":{"android":"levelo://app?vid=efad7009-0ee6-463a-ba8e-0be29e40d893","ios":"levelo://app?vid=efad7009-0ee6-463a-ba8e-0be29e40d893"},"vehicle_type_id":"4","last_reported":1729282189,"current_range_meters":30800,"station_id":"","pricing_plan_id":"cebpf4jnsgd1na2vs0mg"},{"bike_id":"7c211f13-8b61-4402-8ed3-420ceb6cdf6a","system_id":"levelo_inurba_marseille","lat":43.28447,"lon":5.39185,"is_reserved":false,"is_disabled":false,"rental_uris":{"android":"levelo://app?vid=7c211f13-8b61-4402-8ed3-420ceb6cdf6a","ios":"levelo://app?vid=7c211f13-8b61-4402-8ed3-420ceb6cdf6a"},"vehicle_type_id":"4","last_reported":1729282189,"current_range_meters":38800,"station_id":"ce4bhoh2rcd13ifvqh5g","pricing_plan_id":"cebpf4jnsgd1na2vs0mg"},{"bike_id":"966f251d-4412-4e77-82b7-c125675614ef","system_id":"levelo_inurba_marseille","lat":43.337444,"lon":5.374475,"is_reserved":false,"is_disabled":false,"rental_uris":{"android":"levelo://app?vid=966f251d-4412-4e77-82b7-c125675614ef","ios":"levelo://app?vid=966f251d-4412-4e77-82b7-c125675614ef"},"vehicle_type_id":"4","last_reported":1729282189,"current_range_meters":6400,"station_id":"","pricing_plan_id":"cebpf4jnsgd1na2vs0mg"},{"bike_id":"3ebe773f-9a6b-4404-8a47-7723af841ae0","system_id":"levelo_inurba_marseille","lat":43.32657,"lon":5.40997,"is_reserved":false,"is_disabled":false,"rental_uris":{"android":"levelo://app?vid=3ebe773f-9a6b-4404-8a47-7723af841ae0","ios":"levelo://app?vid=3ebe773f-9a6b-4404-8a47-7723af841ae0"},"vehicle_type_id":"4","last_reported":1729282189,"current_range_meters":36000,"station_id":"ce4bhpp2rcd13ifvqhgg","pricing_plan_id":"cebpf4jnsgd1na2vs0mg"},{"bike_id":"9e23534c-3873-44a5-b32e-f42e453f7851","system_id":"levelo_inurba_marseille","lat":43.31081,"lon":5.4243,"is_reserved":false,"is_disabled":false,"rental_uris":{"android":"levelo://app?vid=9e23534c-3873-44a5-b32e-f42e453f7851","ios":"levelo://app?vid=9e23534c-3873-44a5-b32e-f42e453f7851"},"vehicle_type_id":"4","last_reported":1729282189,"current_range_meters":27600,"station_id":"ce4bhp92rcd13ifvqhag","pricing_plan_id":"cebpf4jnsgd1na2vs0mg"},{"bike_id":"bdac7045-6822-4f98-8d23-075c35d4893f","system_id":"levelo_inurba_marseille","lat":43.29343,"lon":5.42828,"is_reserved":false,"is_disabled":false,"rental_uris":{"android":"levelo://app?vid=bdac7045-6822-4f98-8d23-075c35d4893f","ios":"levelo://app?vid=bdac7045-6822-4f98-8d23-075c35d4893f"},"vehicle_type_id":"4","last_reported":1729282189,"current_range_meters":8800,"station_id":"","pricing_plan_id":"cebpf4jnsgd1na2vs0mg"},{"bike_id":"c776ab65-d0f8-45c6-9388-c708bbeaa1e6","system_id":"levelo_inurba_marseille","lat":43.31996,"lon":5.38166,"is_reserved":false,"is_disabled":false,"rental_uris":{"android":"levelo://app?vid=c776ab65-d0f8-45c6-9388-c708bbeaa1e6","ios":"levelo://app?vid=c776ab65-d0f8-45c6-9388-c708bbeaa1e6"},"vehicle_type_id":"4","last_reported":1729282189,"current_range_meters":28800,"station_id":"ce4bhr12rcd13ifvqhpg","pricing_plan_id":"cebpf4jnsgd1na2vs0mg"},{"bike_id":"8026e345-ee5f-499a-a48f-cdcd6de8dba0","system_id":"levelo_inurba_marseille","lat":43.32365,"lon":5.38887,"is_reserved":false,"is_disabled":false,"rental_uris":{"android":"levelo://app?vid=8026e345-ee5f-499a-a48f-cdcd6de8dba0","ios":"levelo://app?vid=8026e345-ee5f-499a-a48f-cdcd6de8dba0"},"vehicle_type_id":"4","last_reported":1729282189,"current_range_meters":20000,"station_id":"ce4bhqp2rcd13ifvqhog","pricing_plan_id":"cebpf4jnsgd1na2vs0mg"},{"bike_id":"d1aa7191-8adf-49b8-bfe5-5a2641b461b9","system_id":"levelo_inurba_marseille","lat":43.26062,"lon":5.39392,"is_reserved":false,"is_disabled":false,"rental_uris":{"android":"levelo://app?vid=d1aa7191-8adf-49b8-bfe5-5a2641b461b9","ios":"levelo://app?vid=d1aa7191-8adf-49b8-bfe5-5a2641b461b9"},"vehicle_type_id":"4","last_reported":1729282189,"current_range_meters":2800,"station_id":"ce4bhh92rcd13ifvqfj0","pricing_plan_id":"cebpf4jnsgd1na2vs0mg"},{"bike_id":"b11a0b35-9a35-4c12-b0cc-c7e5e4279566","system_id":"levelo_inurba_marseille","lat":43.23958,"lon":5.36639,"is_reserved":false,"is_disabled":false,"rental_uris":{"android":"levelo://app?vid=b11a0b35-9a35-4c12-b0cc-c7e5e4279566","ios":"levelo://app?vid=b11a0b35-9a35-4c12-b0cc-c7e5e4279566"},"vehicle_type_id":"4","last_reported":1729282189,"current_range_meters":6800,"station_id":"ce4bhi12rcd13ifvqfp0","pricing_plan_id":"cebpf4jnsgd1na2vs0mg"},{"bike_id":"3a657d5c-5088-4a29-9a19-2cc334e5bcdc","system_id":"levelo_inurba_marseille","lat":43.28935,"lon":5.36405,"is_reserved":false,"is_disabled":false,"rental_uris":{"android":"levelo://app?vid=3a657d5c-5088-4a29-9a19-2cc334e5bcdc","ios":"levelo://app?vid=3a657d5c-5088-4a29-9a19-2cc334e5bcdc"},"vehicle_type_id":"4","last_reported":1729282189,"current_range_meters":38800,"station_id":"ce4bhc92rcd13ifvqetg","pricing_plan_id":"cebpf4jnsgd1na2vs0mg"},{"bike_id":"23378796-dcf6-4be0-b6ce-a55ba9edc13e","system_id":"levelo_inurba_marseille","lat":43.2549,"lon":5.3765,"is_reserved":false,"is_disabled":false,"rental_uris":{"android":"levelo://app?vid=23378796-dcf6-4be0-b6ce-a55ba9edc13e","ios":"levelo://app?vid=23378796-dcf6-4be0-b6ce-a55ba9edc13e"},"vehicle_type_id":"4","last_reported":1729282189,"current_range_meters":36000,"station_id":"ce4bhh12rcd13ifvqff0","pricing_plan_id":"cebpf4jnsgd1na2vs0mg"},{"bike_id":"40302e19-028a-44eb-9abb-29a38b86aa5e","system_id":"levelo_inurba_marseille","lat":43.31168,"lon":5.38713,"is_reserved":false,"is_disabled":false,"rental_uris":{"android":"levelo://app?vid=40302e19-028a-44eb-9abb-29a38b86aa5e","ios":"levelo://app?vid=40302e19-028a-44eb-9abb-29a38b86aa5e"},"vehicle_type_id":"4","last_reported":1729282189,"current_range_meters":20400,"station_id":"ce4bgv12rcd13ifvqcp0","pricing_plan_id":"cebpf4jnsgd1na2vs0mg"},{"bike_id":"868801d7-c68f-462c-9fc7-f3c685c01a61","system_id":"levelo_inurba_marseille","lat":43.31365,"lon":5.38492,"is_reserved":false,"is_disabled":false,"rental_uris":{"android":"levelo://app?vid=868801d7-c68f-462c-9fc7-f3c685c01a61","ios":"levelo://app?vid=868801d7-c68f-462c-9fc7-f3c685c01a61"},"vehicle_type_id":"4","last_reported":1729282189,"current_range_meters":8000,"station_id":"ce4bgt92rcd13ifvqcf0","pricing_plan_id":"cebpf4jnsgd1na2vs0mg"},{"bike_id":"f61d4890-291c-4e4e-a025-b850d0243e84","system_id":"levelo_inurba_marseille","lat":43.28444,"lon":5.39201,"is_reserved":false,"is_disabled":false,"rental_uris":{"android":"levelo://app?vid=f61d4890-291c-4e4e-a025-b850d0243e84","ios":"levelo://app?vid=f61d4890-291c-4e4e-a025-b850d0243e84"},"vehicle_type_id":"4","last_reported":1729282189,"current_range_meters":36400,"station_id":"ce4bhoh2rcd13ifvqh5g","pricing_plan_id":"cebpf4jnsgd1na2vs0mg"},{"bike_id":"2cd6575d-763f-440c-a8ba-045981fa0046","system_id":"levelo_inurba_marseille","lat":43.29528,"lon":5.38548,"is_reserved":false,"is_disabled":false,"rental_uris":{"android":"levelo://app?vid=2cd6575d-763f-440c-a8ba-045981fa0046","ios":"levelo://app?vid=2cd6575d-763f-440c-a8ba-045981fa0046"},"vehicle_type_id":"4","last_reported":1729282189,"current_range_meters":6800,"station_id":"ce4bgih2rcd13ifvqba0","pricing_plan_id":"cebpf4jnsgd1na2vs0mg"},{"bike_id":"595344e4-7d1f-4681-ad29-d255c0118c97","system_id":"levelo_inurba_marseille","lat":43.28,"lon":5.40013,"is_reserved":false,"is_disabled":false,"rental_uris":{"android":"levelo://app?vid=595344e4-7d1f-4681-ad29-d255c0118c97","ios":"levelo://app?vid=595344e4-7d1f-4681-ad29-d255c0118c97"},"vehicle_type_id":"4","last_reported":1729282189,"current_range_meters":38400,"station_id":"ce4bho92rcd13ifvqh4g","pricing_plan_id":"cebpf4jnsgd1na2vs0mg"},{"bike_id":"37fd52b8-1471-4998-aad0-f8643874b331","system_id":"levelo_inurba_marseille","lat":43.29422,"lon":5.38616,"is_reserved":false,"is_disabled":false,"rental_uris":{"android":"levelo://app?vid=37fd52b8-1471-4998-aad0-f8643874b331","ios":"levelo://app?vid=37fd52b8-1471-4998-aad0-f8643874b331"},"vehicle_type_id":"4","last_reported":1729282189,"current_range_meters":38800,"station_id":"ce4bh2h2rcd13ifvqdh0","pricing_plan_id":"cebpf4jnsgd1na2vs0mg"},{"bike_id":"e0e7a991-3def-4e44-b3cb-bdb38dd7c1d0","system_id":"levelo_inurba_marseille","lat":43.30604,"lon":5.39372,"is_reserved":false,"is_disabled":false,"rental_uris":{"android":"levelo://app?vid=e0e7a991-3def-4e44-b3cb-bdb38dd7c1d0","ios":"levelo://app?vid=e0e7a991-3def-4e44-b3cb-bdb38dd7c1d0"},"vehicle_type_id":"4","last_reported":1729282189,"current_range_meters":3200,"station_id":"ce4bh012rcd13ifvqcv0","pricing_plan_id":"cebpf4jnsgd1na2vs0mg"},{"bike_id":"eacf4c02-65f1-4118-a3b8-31344808a755","system_id":"levelo_inurba_marseille","lat":43.26503,"lon":5.39533,"is_reserved":false,"is_disabled":false,"rental_uris":{"android":"levelo://app?vid=eacf4c02-65f1-4118-a3b8-31344808a755","ios":"levelo://app?vid=eacf4c02-65f1-4118-a3b8-31344808a755"},"vehicle_type_id":"4","last_reported":1729282189,"current_range_meters":12800,"station_id":"ce4bhi12rcd13ifvqfq0","pricing_plan_id":"cebpf4jnsgd1na2vs0mg"},{"bike_id":"e2d2bdd3-a2c8-45f6-99f8-c7446a30ce17","system_id":"levelo_inurba_marseille","lat":43.29541,"lon":5.38549,"is_reserved":false,"is_disabled":false,"rental_uris":{"android":"levelo://app?vid=e2d2bdd3-a2c8-45f6-99f8-c7446a30ce17","ios":"levelo://app?vid=e2d2bdd3-a2c8-45f6-99f8-c7446a30ce17"},"vehicle_type_id":"4","last_reported":1729282189,"current_range_meters":34800,"station_id":"ce4bgih2rcd13ifvqba0","pricing_plan_id":"cebpf4jnsgd1na2vs0mg"},{"bike_id":"84a71244-fc5a-453f-b683-69ed4c14244f","system_id":"levelo_inurba_marseille","lat":43.27999,"lon":5.41648,"is_reserved":false,"is_disabled":false,"rental_uris":{"android":"levelo://app?vid=84a71244-fc5a-453f-b683-69ed4c14244f","ios":"levelo://app?vid=84a71244-fc5a-453f-b683-69ed4c14244f"},"vehicle_type_id":"4","last_reported":1729282189,"current_range_meters":13600,"station_id":"ce4bho12rcd13ifvqh1g","pricing_plan_id":"cebpf4jnsgd1na2vs0mg"},{"bike_id":"2aa30074-a798-4517-9910-408fe840d5c0","system_id":"levelo_inurba_marseille","lat":43.23192,"lon":5.35555,"is_reserved":false,"is_disabled":false,"rental_uris":{"android":"levelo://app?vid=2aa30074-a798-4517-9910-408fe840d5c0","ios":"levelo://app?vid=2aa30074-a798-4517-9910-408fe840d5c0"},"vehicle_type_id":"4","last_reported":1729282189,"current_range_meters":27600,"station_id":"ce4bhu92rcd13ifvqi70","pricing_plan_id":"cebpf4jnsgd1na2vs0mg"},{"bike_id":"0adf7669-a750-4fb5-b7ed-99a249885d91","system_id":"levelo_inurba_marseille","lat":43.29018,"lon":5.39977,"is_reserved":false,"is_disabled":false,"rental_uris":{"android":"levelo://app?vid=0adf7669-a750-4fb5-b7ed-99a249885d91","ios":"levelo://app?vid=0adf7669-a750-4fb5-b7ed-99a249885d91"},"vehicle_type_id":"4","last_reported":1729282189,"current_range_meters":17200,"station_id":"ce4bh392rcd13ifvqdm0","pricing_plan_id":"cebpf4jnsgd1na2vs0mg"},{"bike_id":"9224c72e-b6cd-4b3b-807f-ae00f24ef2aa","system_id":"levelo_inurba_marseille","lat":43.29511,"lon":5.38743,"is_reserved":false,"is_disabled":false,"rental_uris":{"android":"levelo://app?vid=9224c72e-b6cd-4b3b-807f-ae00f24ef2aa","ios":"levelo://app?vid=9224c72e-b6cd-4b3b-807f-ae00f24ef2aa"},"vehicle_type_id":"4","last_reported":1729282189,"current_range_meters":28400,"station_id":"","pricing_plan_id":"cebpf4jnsgd1na2vs0mg"},{"bike_id":"bc4dfd71-cdf3-45e3-8aa3-c5528379f96a","system_id":"levelo_inurba_marseille","lat":43.27614,"lon":5.36109,"is_reserved":false,"is_disabled":false,"rental_uris":{"android":"levelo://app?vid=bc4dfd71-cdf3-45e3-8aa3-c5528379f96a","ios":"levelo://app?vid=bc4dfd71-cdf3-45e3-8aa3-c5528379f96a"},"vehicle_type_id":"4","last_reported":1729282189,"current_range_meters":24400,"station_id":"ce4bgj92rcd13ifvqbe0","pricing_plan_id":"cebpf4jnsgd1na2vs0mg"},{"bike_id":"c746da30-0175-4c63-8cc4-f4d0284e8127","system_id":"levelo_inurba_marseille","lat":43.2397,"lon":5.36634,"is_reserved":false,"is_disabled":false,"rental_uris":{"android":"levelo://app?vid=c746da30-0175-4c63-8cc4-f4d0284e8127","ios":"levelo://app?vid=c746da30-0175-4c63-8cc4-f4d0284e8127"},"vehicle_type_id":"4","last_reported":1729282189,"current_range_meters":20000,"station_id":"ce4bhi12rcd13ifvqfp0","pricing_plan_id":"cebpf4jnsgd1na2vs0mg"},{"bike_id":"cb11357c-b99c-45e1-b695-eb95f3c41c02","system_id":"levelo_inurba_marseille","lat":43.30954,"lon":5.390323,"is_reserved":false,"is_disabled":false,"rental_uris":{"android":"levelo://app?vid=cb11357c-b99c-45e1-b695-eb95f3c41c02","ios":"levelo://app?vid=cb11357c-b99c-45e1-b695-eb95f3c41c02"},"vehicle_type_id":"4","last_reported":1729282189,"current_range_meters":24000,"station_id":"ce4bgup2rcd13ifvqco0","pricing_plan_id":"cebpf4jnsgd1na2vs0mg"},{"bike_id":"38c20277-8950-4293-a4e4-17950a44864e","system_id":"levelo_inurba_marseille","lat":43.27902,"lon":5.38017,"is_reserved":false,"is_disabled":false,"rental_uris":{"android":"levelo://app?vid=38c20277-8950-4293-a4e4-17950a44864e","ios":"levelo://app?vid=38c20277-8950-4293-a4e4-17950a44864e"},"vehicle_type_id":"4","last_reported":1729282189,"current_range_meters":6000,"station_id":"ce4bhf92rcd13ifvqf50","pricing_plan_id":"cebpf4jnsgd1na2vs0mg"},{"bike_id":"b0fd846a-bee8-4b5d-ac80-51eda422fc1d","system_id":"levelo_inurba_marseille","lat":43.26804,"lon":5.4027,"is_reserved":false,"is_disabled":false,"rental_uris":{"android":"levelo://app?vid=b0fd846a-bee8-4b5d-ac80-51eda422fc1d","ios":"levelo://app?vid=b0fd846a-bee8-4b5d-ac80-51eda422fc1d"},"vehicle_type_id":"4","last_reported":1729282189,"current_range_meters":37600,"station_id":"ce501612rcd8frsf0b60","pricing_plan_id":"cebpf4jnsgd1na2vs0mg"},{"bike_id":"d92866e7-2197-4237-852c-dbd4ba06590f","system_id":"levelo_inurba_marseille","lat":43.2942,"lon":5.38627,"is_reserved":false,"is_disabled":false,"rental_uris":{"android":"levelo://app?vid=d92866e7-2197-4237-852c-dbd4ba06590f","ios":"levelo://app?vid=d92866e7-2197-4237-852c-dbd4ba06590f"},"vehicle_type_id":"4","last_reported":1729282189,"current_range_meters":35200,"station_id":"ce4bh2h2rcd13ifvqdh0","pricing_plan_id":"cebpf4jnsgd1na2vs0mg"},{"bike_id":"09f80386-3416-46b5-9360-2a140a3d0089","system_id":"levelo_inurba_marseille","lat":43.30132,"lon":5.38779,"is_reserved":false,"is_disabled":false,"rental_uris":{"android":"levelo://app?vid=09f80386-3416-46b5-9360-2a140a3d0089","ios":"levelo://app?vid=09f80386-3416-46b5-9360-2a140a3d0089"},"vehicle_type_id":"4","last_reported":1729282189,"current_range_meters":28400,"station_id":"ce4bghh2rcd13ifvqb60","pricing_plan_id":"cebpf4jnsgd1na2vs0mg"},{"bike_id":"c1bc2238-4c84-45dd-a9b6-2feb5531cb3f","system_id":"levelo_inurba_marseille","lat":43.29278,"lon":5.4013,"is_reserved":false,"is_disabled":false,"rental_uris":{"android":"levelo://app?vid=c1bc2238-4c84-45dd-a9b6-2feb5531cb3f","ios":"levelo://app?vid=c1bc2238-4c84-45dd-a9b6-2feb5531cb3f"},"vehicle_type_id":"4","last_reported":1729282189,"current_range_meters":3200,"station_id":"ce4bh312rcd13ifvqdk0","pricing_plan_id":"cebpf4jnsgd1na2vs0mg"},{"bike_id":"6f034070-ee6f-4e30-853e-ccd43834685f","system_id":"levelo_inurba_marseille","lat":43.27994,"lon":5.41651,"is_reserved":false,"is_disabled":false,"rental_uris":{"android":"levelo://app?vid=6f034070-ee6f-4e30-853e-ccd43834685f","ios":"levelo://app?vid=6f034070-ee6f-4e30-853e-ccd43834685f"},"vehicle_type_id":"4","last_reported":1729282189,"current_range_meters":15200,"station_id":"ce4bho12rcd13ifvqh1g","pricing_plan_id":"cebpf4jnsgd1na2vs0mg"},{"bike_id":"eca218d1-7119-492a-ba62-cb52d239834b","system_id":"levelo_inurba_marseille","lat":43.27817,"lon":5.40721,"is_reserved":false,"is_disabled":false,"rental_uris":{"android":"levelo://app?vid=eca218d1-7119-492a-ba62-cb52d239834b","ios":"levelo://app?vid=eca218d1-7119-492a-ba62-cb52d239834b"},"vehicle_type_id":"4","last_reported":1729282189,"current_range_meters":36400,"station_id":"ce4bhnh2rcd13ifvqgtg","pricing_plan_id":"cebpf4jnsgd1na2vs0mg"},{"bike_id":"4f8bd11b-a06a-4d2a-bee0-a05a0caa7df3","system_id":"levelo_inurba_marseille","lat":43.23189,"lon":5.39976,"is_reserved":false,"is_disabled":false,"rental_uris":{"android":"levelo://app?vid=4f8bd11b-a06a-4d2a-bee0-a05a0caa7df3","ios":"levelo://app?vid=4f8bd11b-a06a-4d2a-bee0-a05a0caa7df3"},"vehicle_type_id":"4","last_reported":1729282189,"current_range_meters":23200,"station_id":"ce4bhn12rcd13ifvqgqg","pricing_plan_id":"cebpf4jnsgd1na2vs0mg"},{"bike_id":"996fe878-5b5d-4603-a6c3-9fb689e4747b","system_id":"levelo_inurba_marseille","lat":43.27494,"lon":5.42453,"is_reserved":false,"is_disabled":false,"rental_uris":{"android":"levelo://app?vid=996fe878-5b5d-4603-a6c3-9fb689e4747b","ios":"levelo://app?vid=996fe878-5b5d-4603-a6c3-9fb689e4747b"},"vehicle_type_id":"4","last_reported":1729282189,"current_range_meters":16400,"station_id":"ce4bhn92rcd13ifvqgrg","pricing_plan_id":"cebpf4jnsgd1na2vs0mg"},{"bike_id":"fc6e513b-da81-4d34-a427-493e42edd768","system_id":"levelo_inurba_marseille","lat":43.29398,"lon":5.40533,"is_reserved":false,"is_disabled":false,"rental_uris":{"android":"levelo://app?vid=fc6e513b-da81-4d34-a427-493e42edd768","ios":"levelo://app?vid=fc6e513b-da81-4d34-a427-493e42edd768"},"vehicle_type_id":"4","last_reported":1729282189,"current_range_meters":26800,"station_id":"","pricing_plan_id":"cebpf4jnsgd1na2vs0mg"},{"bike_id":"0092393c-5fa7-4d7e-96ae-1d3cba232a3c","system_id":"levelo_inurba_marseille","lat":43.23182,"lon":5.39982,"is_reserved":false,"is_disabled":false,"rental_uris":{"android":"levelo://app?vid=0092393c-5fa7-4d7e-96ae-1d3cba232a3c","ios":"levelo://app?vid=0092393c-5fa7-4d7e-96ae-1d3cba232a3c"},"vehicle_type_id":"4","last_reported":1729282189,"current_range_meters":38800,"station_id":"ce4bhn12rcd13ifvqgqg","pricing_plan_id":"cebpf4jnsgd1na2vs0mg"},{"bike_id":"a29025c4-d899-43d5-95f1-5b17fbcffe8f","system_id":"levelo_inurba_marseille","lat":43.24183,"lon":5.39728,"is_reserved":false,"is_disabled":false,"rental_uris":{"android":"levelo://app?vid=a29025c4-d899-43d5-95f1-5b17fbcffe8f","ios":"levelo://app?vid=a29025c4-d899-43d5-95f1-5b17fbcffe8f"},"vehicle_type_id":"4","last_reported":1729282189,"current_range_meters":24800,"station_id":"ce4bhn12rcd13ifvqgpg","pricing_plan_id":"cebpf4jnsgd1na2vs0mg"},{"bike_id":"6a17560c-e982-4f70-afa6-b4ec03264eaa","system_id":"levelo_inurba_marseille","lat":43.28433,"lon":5.3919,"is_reserved":false,"is_disabled":false,"rental_uris":{"android":"levelo://app?vid=6a17560c-e982-4f70-afa6-b4ec03264eaa","ios":"levelo://app?vid=6a17560c-e982-4f70-afa6-b4ec03264eaa"},"vehicle_type_id":"4","last_reported":1729282189,"current_range_meters":38800,"station_id":"ce4bhoh2rcd13ifvqh5g","pricing_plan_id":"cebpf4jnsgd1na2vs0mg"},{"bike_id":"d66b88ee-5904-4f9e-94fd-fe3342b8cf6b","system_id":"levelo_inurba_marseille","lat":43.29724,"lon":5.37691,"is_reserved":false,"is_disabled":false,"rental_uris":{"android":"levelo://app?vid=d66b88ee-5904-4f9e-94fd-fe3342b8cf6b","ios":"levelo://app?vid=d66b88ee-5904-4f9e-94fd-fe3342b8cf6b"},"vehicle_type_id":"4","last_reported":1729282189,"current_range_meters":33600,"station_id":"ce4bgkh2rcd13ifvqbl0","pricing_plan_id":"cebpf4jnsgd1na2vs0mg"},{"bike_id":"c4625362-afa5-4a11-9313-a6da32a32daa","system_id":"levelo_inurba_marseille","lat":43.29598,"lon":5.38105,"is_reserved":false,"is_disabled":false,"rental_uris":{"android":"levelo://app?vid=c4625362-afa5-4a11-9313-a6da32a32daa","ios":"levelo://app?vid=c4625362-afa5-4a11-9313-a6da32a32daa"},"vehicle_type_id":"4","last_reported":1729282189,"current_range_meters":24000,"station_id":"ce4bgl12rcd13ifvqbo0","pricing_plan_id":"cebpf4jnsgd1na2vs0mg"},{"bike_id":"3d7546d0-4dba-4212-88c9-dfe9a2032237","system_id":"levelo_inurba_marseille","lat":43.24171,"lon":5.36394,"is_reserved":false,"is_disabled":false,"rental_uris":{"android":"levelo://app?vid=3d7546d0-4dba-4212-88c9-dfe9a2032237","ios":"levelo://app?vid=3d7546d0-4dba-4212-88c9-dfe9a2032237"},"vehicle_type_id":"4","last_reported":1729282189,"current_range_meters":36800,"station_id":"cpo36qri1sfpv3e86is0","pricing_plan_id":"cebpf4jnsgd1na2vs0mg"},{"bike_id":"c54a117e-63b9-4078-9d8f-1c6a66c8d693","system_id":"levelo_inurba_marseille","lat":43.30138,"lon":5.38781,"is_reserved":false,"is_disabled":false,"rental_uris":{"android":"levelo://app?vid=c54a117e-63b9-4078-9d8f-1c6a66c8d693","ios":"levelo://app?vid=c54a117e-63b9-4078-9d8f-1c6a66c8d693"},"vehicle_type_id":"4","last_reported":1729282189,"current_range_meters":29600,"station_id":"ce4bghh2rcd13ifvqb60","pricing_plan_id":"cebpf4jnsgd1na2vs0mg"},{"bike_id":"b2fb5013-0f40-4c0f-b7e8-470159073346","system_id":"levelo_inurba_marseille","lat":43.27997,"lon":5.40007,"is_reserved":false,"is_disabled":false,"rental_uris":{"android":"levelo://app?vid=b2fb5013-0f40-4c0f-b7e8-470159073346","ios":"levelo://app?vid=b2fb5013-0f40-4c0f-b7e8-470159073346"},"vehicle_type_id":"4","last_reported":1729282189,"current_range_meters":23200,"station_id":"ce4bho92rcd13ifvqh4g","pricing_plan_id":"cebpf4jnsgd1na2vs0mg"},{"bike_id":"00eeecb8-dff3-420d-9a78-bdbcd8969cb8","system_id":"levelo_inurba_marseille","lat":43.27209,"lon":5.39183,"is_reserved":false,"is_disabled":false,"rental_uris":{"android":"levelo://app?vid=00eeecb8-dff3-420d-9a78-bdbcd8969cb8","ios":"levelo://app?vid=00eeecb8-dff3-420d-9a78-bdbcd8969cb8"},"vehicle_type_id":"4","last_reported":1729282189,"current_range_meters":35600,"station_id":"ce4bhhp2rcd13ifvqfm0","pricing_plan_id":"cebpf4jnsgd1na2vs0mg"},{"bike_id":"2e24b2f7-04d9-4aa5-a803-56fcc770dc64","system_id":"levelo_inurba_marseille","lat":43.29851,"lon":5.37662,"is_reserved":false,"is_disabled":false,"rental_uris":{"android":"levelo://app?vid=2e24b2f7-04d9-4aa5-a803-56fcc770dc64","ios":"levelo://app?vid=2e24b2f7-04d9-4aa5-a803-56fcc770dc64"},"vehicle_type_id":"4","last_reported":1729282189,"current_range_meters":36000,"station_id":"ce4bgkh2rcd13ifvqbl0","pricing_plan_id":"cebpf4jnsgd1na2vs0mg"},{"bike_id":"05b8e18a-c613-4303-97da-5d0df324e1bc","system_id":"levelo_inurba_marseille","lat":43.274225,"lon":5.394131,"is_reserved":false,"is_disabled":false,"rental_uris":{"android":"levelo://app?vid=05b8e18a-c613-4303-97da-5d0df324e1bc","ios":"levelo://app?vid=05b8e18a-c613-4303-97da-5d0df324e1bc"},"vehicle_type_id":"4","last_reported":1729282189,"current_range_meters":33600,"station_id":"ce4bhdp2rcd13ifvqf20","pricing_plan_id":"cebpf4jnsgd1na2vs0mg"},{"bike_id":"90b7df2b-2805-4913-a745-07d80216980c","system_id":"levelo_inurba_marseille","lat":43.30799,"lon":5.43522,"is_reserved":false,"is_disabled":false,"rental_uris":{"android":"levelo://app?vid=90b7df2b-2805-4913-a745-07d80216980c","ios":"levelo://app?vid=90b7df2b-2805-4913-a745-07d80216980c"},"vehicle_type_id":"4","last_reported":1729282189,"current_range_meters":9600,"station_id":"ce4bhph2rcd13ifvqheg","pricing_plan_id":"cebpf4jnsgd1na2vs0mg"},{"bike_id":"32ce68a3-3fc7-4257-974f-ab657619c295","system_id":"levelo_inurba_marseille","lat":43.33731,"lon":5.37443,"is_reserved":false,"is_disabled":false,"rental_uris":{"android":"levelo://app?vid=32ce68a3-3fc7-4257-974f-ab657619c295","ios":"levelo://app?vid=32ce68a3-3fc7-4257-974f-ab657619c295"},"vehicle_type_id":"4","last_reported":1729282189,"current_range_meters":8800,"station_id":"","pricing_plan_id":"cebpf4jnsgd1na2vs0mg"},{"bike_id":"c4cc6d39-ca2d-4756-9269-eb88ed03f6f8","system_id":"levelo_inurba_marseille","lat":43.34142,"lon":5.40907,"is_reserved":false,"is_disabled":false,"rental_uris":{"android":"levelo://app?vid=c4cc6d39-ca2d-4756-9269-eb88ed03f6f8","ios":"levelo://app?vid=c4cc6d39-ca2d-4756-9269-eb88ed03f6f8"},"vehicle_type_id":"4","last_reported":1729282189,"current_range_meters":12400,"station_id":"ce4bhqh2rcd13ifvqhlg","pricing_plan_id":"cebpf4jnsgd1na2vs0mg"},{"bike_id":"310dc4d8-21a4-4d74-926f-4ffe3f0ed12b","system_id":"levelo_inurba_marseille","lat":43.27373,"lon":5.36265,"is_reserved":false,"is_disabled":false,"rental_uris":{"android":"levelo://app?vid=310dc4d8-21a4-4d74-926f-4ffe3f0ed12b","ios":"levelo://app?vid=310dc4d8-21a4-4d74-926f-4ffe3f0ed12b"},"vehicle_type_id":"4","last_reported":1729282189,"current_range_meters":30400,"station_id":"ce4bhbh2rcd13ifvqeo0","pricing_plan_id":"cebpf4jnsgd1na2vs0mg"},{"bike_id":"555ff3cf-777b-4ff4-b149-9575fc002950","system_id":"levelo_inurba_marseille","lat":43.2418,"lon":5.39738,"is_reserved":false,"is_disabled":false,"rental_uris":{"android":"levelo://app?vid=555ff3cf-777b-4ff4-b149-9575fc002950","ios":"levelo://app?vid=555ff3cf-777b-4ff4-b149-9575fc002950"},"vehicle_type_id":"4","last_reported":1729282189,"current_range_meters":30400,"station_id":"ce4bhn12rcd13ifvqgpg","pricing_plan_id":"cebpf4jnsgd1na2vs0mg"},{"bike_id":"b64362e2-b043-4f67-8e42-f68524e828ed","system_id":"levelo_inurba_marseille","lat":43.24182,"lon":5.39719,"is_reserved":false,"is_disabled":false,"rental_uris":{"android":"levelo://app?vid=b64362e2-b043-4f67-8e42-f68524e828ed","ios":"levelo://app?vid=b64362e2-b043-4f67-8e42-f68524e828ed"},"vehicle_type_id":"4","last_reported":1729282189,"current_range_meters":24000,"station_id":"ce4bhn12rcd13ifvqgpg","pricing_plan_id":"cebpf4jnsgd1na2vs0mg"},{"bike_id":"1b1613ca-55b3-41c0-bc8c-bdb057af993a","system_id":"levelo_inurba_marseille","lat":43.27939,"lon":5.41046,"is_reserved":false,"is_disabled":false,"rental_uris":{"android":"levelo://app?vid=1b1613ca-55b3-41c0-bc8c-bdb057af993a","ios":"levelo://app?vid=1b1613ca-55b3-41c0-bc8c-bdb057af993a"},"vehicle_type_id":"4","last_reported":1729282189,"current_range_meters":16400,"station_id":"ce4bhnp2rcd13ifvqh0g","pricing_plan_id":"cebpf4jnsgd1na2vs0mg"},{"bike_id":"fd53d71c-0d08-41f3-9407-5a89f823e5fd","system_id":"levelo_inurba_marseille","lat":43.29206,"lon":5.39321,"is_reserved":false,"is_disabled":false,"rental_uris":{"android":"levelo://app?vid=fd53d71c-0d08-41f3-9407-5a89f823e5fd","ios":"levelo://app?vid=fd53d71c-0d08-41f3-9407-5a89f823e5fd"},"vehicle_type_id":"4","last_reported":1729282189,"current_range_meters":8400,"station_id":"ce4bh192rcd13ifvqdd0","pricing_plan_id":"cebpf4jnsgd1na2vs0mg"},{"bike_id":"3c5836e7-51e1-4f79-aab6-e637a4141a9a","system_id":"levelo_inurba_marseille","lat":43.32339,"lon":5.40624,"is_reserved":false,"is_disabled":false,"rental_uris":{"android":"levelo://app?vid=3c5836e7-51e1-4f79-aab6-e637a4141a9a","ios":"levelo://app?vid=3c5836e7-51e1-4f79-aab6-e637a4141a9a"},"vehicle_type_id":"4","last_reported":1729282189,"current_range_meters":6400,"station_id":"ce4bhq92rcd13ifvqhjg","pricing_plan_id":"cebpf4jnsgd1na2vs0mg"},{"bike_id":"8a5f9488-9387-479b-a186-e1d0bd5f6b49","system_id":"levelo_inurba_marseille","lat":43.2953,"lon":5.39399,"is_reserved":false,"is_disabled":false,"rental_uris":{"android":"levelo://app?vid=8a5f9488-9387-479b-a186-e1d0bd5f6b49","ios":"levelo://app?vid=8a5f9488-9387-479b-a186-e1d0bd5f6b49"},"vehicle_type_id":"4","last_reported":1729282189,"current_range_meters":28000,"station_id":"ce4bh292rcd13ifvqdf0","pricing_plan_id":"cebpf4jnsgd1na2vs0mg"},{"bike_id":"1c170803-c512-427c-a113-e3f0a35819ca","system_id":"levelo_inurba_marseille","lat":43.24549,"lon":5.39521,"is_reserved":false,"is_disabled":false,"rental_uris":{"android":"levelo://app?vid=1c170803-c512-427c-a113-e3f0a35819ca","ios":"levelo://app?vid=1c170803-c512-427c-a113-e3f0a35819ca"},"vehicle_type_id":"4","last_reported":1729282189,"current_range_meters":32400,"station_id":"ce4bhlp2rcd13ifvqgjg","pricing_plan_id":"cebpf4jnsgd1na2vs0mg"},{"bike_id":"ddd62ba3-c050-46d2-a8ed-02c4b983589b","system_id":"levelo_inurba_marseille","lat":43.32481,"lon":5.36573,"is_reserved":false,"is_disabled":false,"rental_uris":{"android":"levelo://app?vid=ddd62ba3-c050-46d2-a8ed-02c4b983589b","ios":"levelo://app?vid=ddd62ba3-c050-46d2-a8ed-02c4b983589b"},"vehicle_type_id":"4","last_reported":1729282189,"current_range_meters":30400,"station_id":"ce4bhs12rcd13ifvqhvg","pricing_plan_id":"cebpf4jnsgd1na2vs0mg"},{"bike_id":"8c1ec6cb-2291-4814-837b-be8625c706f3","system_id":"levelo_inurba_marseille","lat":43.231949,"lon":5.355442,"is_reserved":false,"is_disabled":false,"rental_uris":{"android":"levelo://app?vid=8c1ec6cb-2291-4814-837b-be8625c706f3","ios":"levelo://app?vid=8c1ec6cb-2291-4814-837b-be8625c706f3"},"vehicle_type_id":"4","last_reported":1729282189,"current_range_meters":30800,"station_id":"ce4bhu92rcd13ifvqi70","pricing_plan_id":"cebpf4jnsgd1na2vs0mg"},{"bike_id":"27b9e7f8-1b71-4f56-ae30-da9b2ff53595","system_id":"levelo_inurba_marseille","lat":43.30256,"lon":5.40081,"is_reserved":false,"is_disabled":false,"rental_uris":{"android":"levelo://app?vid=27b9e7f8-1b71-4f56-ae30-da9b2ff53595","ios":"levelo://app?vid=27b9e7f8-1b71-4f56-ae30-da9b2ff53595"},"vehicle_type_id":"4","last_reported":1729282189,"current_range_meters":36400,"station_id":"ce4bgvh2rcd13ifvqcs0","pricing_plan_id":"cebpf4jnsgd1na2vs0mg"},{"bike_id":"8429a31c-77f3-41b6-b710-38d8ca6d27dc","system_id":"levelo_inurba_marseille","lat":43.25086,"lon":5.39527,"is_reserved":false,"is_disabled":false,"rental_uris":{"android":"levelo://app?vid=8429a31c-77f3-41b6-b710-38d8ca6d27dc","ios":"levelo://app?vid=8429a31c-77f3-41b6-b710-38d8ca6d27dc"},"vehicle_type_id":"4","last_reported":1729282189,"current_range_meters":36400,"station_id":"ce4bhm12rcd13ifvqgkg","pricing_plan_id":"cebpf4jnsgd1na2vs0mg"},{"bike_id":"237d7f97-c455-4e9c-921e-eac7b8d93fcf","system_id":"levelo_inurba_marseille","lat":43.24809,"lon":5.37461,"is_reserved":false,"is_disabled":false,"rental_uris":{"android":"levelo://app?vid=237d7f97-c455-4e9c-921e-eac7b8d93fcf","ios":"levelo://app?vid=237d7f97-c455-4e9c-921e-eac7b8d93fcf"},"vehicle_type_id":"4","last_reported":1729282189,"current_range_meters":36800,"station_id":"ce4bhgh2rcd13ifvqfb0","pricing_plan_id":"cebpf4jnsgd1na2vs0mg"},{"bike_id":"7070fe00-214d-43ef-b66f-b21d0051ea55","system_id":"levelo_inurba_marseille","lat":43.31484,"lon":5.37307,"is_reserved":false,"is_disabled":false,"rental_uris":{"android":"levelo://app?vid=7070fe00-214d-43ef-b66f-b21d0051ea55","ios":"levelo://app?vid=7070fe00-214d-43ef-b66f-b21d0051ea55"},"vehicle_type_id":"4","last_reported":1729282189,"current_range_meters":36800,"station_id":"ce4bgt12rcd13ifvqcd0","pricing_plan_id":"cebpf4jnsgd1na2vs0mg"},{"bike_id":"edc31e9a-79f2-4a42-a2d0-92f0f5bfc52e","system_id":"levelo_inurba_marseille","lat":43.29413,"lon":5.38632,"is_reserved":false,"is_disabled":false,"rental_uris":{"android":"levelo://app?vid=edc31e9a-79f2-4a42-a2d0-92f0f5bfc52e","ios":"levelo://app?vid=edc31e9a-79f2-4a42-a2d0-92f0f5bfc52e"},"vehicle_type_id":"4","last_reported":1729282189,"current_range_meters":21600,"station_id":"ce4bh2h2rcd13ifvqdh0","pricing_plan_id":"cebpf4jnsgd1na2vs0mg"},{"bike_id":"8e9c6055-8067-43c8-b7e5-0ce9b2b9299f","system_id":"levelo_inurba_marseille","lat":43.28071,"lon":5.39652,"is_reserved":false,"is_disabled":false,"rental_uris":{"android":"levelo://app?vid=8e9c6055-8067-43c8-b7e5-0ce9b2b9299f","ios":"levelo://app?vid=8e9c6055-8067-43c8-b7e5-0ce9b2b9299f"},"vehicle_type_id":"4","last_reported":1729282189,"current_range_meters":28800,"station_id":"ce4bho12rcd13ifvqh2g","pricing_plan_id":"cebpf4jnsgd1na2vs0mg"},{"bike_id":"cad21a4f-1cc2-4242-ba5f-ce125c1c6682","system_id":"levelo_inurba_marseille","lat":43.2942,"lon":5.37883,"is_reserved":false,"is_disabled":false,"rental_uris":{"android":"levelo://app?vid=cad21a4f-1cc2-4242-ba5f-ce125c1c6682","ios":"levelo://app?vid=cad21a4f-1cc2-4242-ba5f-ce125c1c6682"},"vehicle_type_id":"4","last_reported":1729282189,"current_range_meters":24800,"station_id":"","pricing_plan_id":"cebpf4jnsgd1na2vs0mg"},{"bike_id":"dd2b4f0c-6344-4a16-bdd5-9a39e0be809c","system_id":"levelo_inurba_marseille","lat":43.27984,"lon":5.41658,"is_reserved":false,"is_disabled":false,"rental_uris":{"android":"levelo://app?vid=dd2b4f0c-6344-4a16-bdd5-9a39e0be809c","ios":"levelo://app?vid=dd2b4f0c-6344-4a16-bdd5-9a39e0be809c"},"vehicle_type_id":"4","last_reported":1729282189,"current_range_meters":36800,"station_id":"ce4bho12rcd13ifvqh1g","pricing_plan_id":"cebpf4jnsgd1na2vs0mg"},{"bike_id":"b737e261-2578-47a1-904c-cae862648b04","system_id":"levelo_inurba_marseille","lat":43.295296,"lon":5.394024,"is_reserved":false,"is_disabled":false,"rental_uris":{"android":"levelo://app?vid=b737e261-2578-47a1-904c-cae862648b04","ios":"levelo://app?vid=b737e261-2578-47a1-904c-cae862648b04"},"vehicle_type_id":"4","last_reported":1729282189,"current_range_meters":4400,"station_id":"ce4bh292rcd13ifvqdf0","pricing_plan_id":"cebpf4jnsgd1na2vs0mg"},{"bike_id":"c28dcc41-e290-4ac5-920f-78c8b4b9a18e","system_id":"levelo_inurba_marseille","lat":43.27616,"lon":5.36116,"is_reserved":false,"is_disabled":false,"rental_uris":{"android":"levelo://app?vid=c28dcc41-e290-4ac5-920f-78c8b4b9a18e","ios":"levelo://app?vid=c28dcc41-e290-4ac5-920f-78c8b4b9a18e"},"vehicle_type_id":"4","last_reported":1729282189,"current_range_meters":36000,"station_id":"ce4bgj92rcd13ifvqbe0","pricing_plan_id":"cebpf4jnsgd1na2vs0mg"},{"bike_id":"4ce82a4a-83c0-4545-b012-7447fd0c0c13","system_id":"levelo_inurba_marseille","lat":43.23181,"lon":5.39995,"is_reserved":false,"is_disabled":false,"rental_uris":{"android":"levelo://app?vid=4ce82a4a-83c0-4545-b012-7447fd0c0c13","ios":"levelo://app?vid=4ce82a4a-83c0-4545-b012-7447fd0c0c13"},"vehicle_type_id":"4","last_reported":1729282189,"current_range_meters":35200,"station_id":"ce4bhn12rcd13ifvqgqg","pricing_plan_id":"cebpf4jnsgd1na2vs0mg"},{"bike_id":"aa557e45-cdfd-497c-999b-263390ecc542","system_id":"levelo_inurba_marseille","lat":43.28442,"lon":5.39192,"is_reserved":false,"is_disabled":false,"rental_uris":{"android":"levelo://app?vid=aa557e45-cdfd-497c-999b-263390ecc542","ios":"levelo://app?vid=aa557e45-cdfd-497c-999b-263390ecc542"},"vehicle_type_id":"4","last_reported":1729282189,"current_range_meters":22000,"station_id":"ce4bhoh2rcd13ifvqh5g","pricing_plan_id":"cebpf4jnsgd1na2vs0mg"},{"bike_id":"be22f37b-52a7-4a4c-8834-64ff4c3149e3","system_id":"levelo_inurba_marseille","lat":43.29601,"lon":5.38094,"is_reserved":false,"is_disabled":false,"rental_uris":{"android":"levelo://app?vid=be22f37b-52a7-4a4c-8834-64ff4c3149e3","ios":"levelo://app?vid=be22f37b-52a7-4a4c-8834-64ff4c3149e3"},"vehicle_type_id":"4","last_reported":1729282189,"current_range_meters":33600,"station_id":"ce4bgl12rcd13ifvqbo0","pricing_plan_id":"cebpf4jnsgd1na2vs0mg"},{"bike_id":"6dd50513-26a7-425b-86ef-6c0fee7521e0","system_id":"levelo_inurba_marseille","lat":43.29898,"lon":5.4366,"is_reserved":false,"is_disabled":false,"rental_uris":{"android":"levelo://app?vid=6dd50513-26a7-425b-86ef-6c0fee7521e0","ios":"levelo://app?vid=6dd50513-26a7-425b-86ef-6c0fee7521e0"},"vehicle_type_id":"4","last_reported":1729282189,"current_range_meters":26000,"station_id":"ce4bhpp2rcd13ifvqhfg","pricing_plan_id":"cebpf4jnsgd1na2vs0mg"},{"bike_id":"7bc23e55-0cb5-4e2e-8439-3972f0a178dc","system_id":"levelo_inurba_marseille","lat":43.32367,"lon":5.38886,"is_reserved":false,"is_disabled":false,"rental_uris":{"android":"levelo://app?vid=7bc23e55-0cb5-4e2e-8439-3972f0a178dc","ios":"levelo://app?vid=7bc23e55-0cb5-4e2e-8439-3972f0a178dc"},"vehicle_type_id":"4","last_reported":1729282189,"current_range_meters":19600,"station_id":"ce4bhqp2rcd13ifvqhog","pricing_plan_id":"cebpf4jnsgd1na2vs0mg"},{"bike_id":"8b33911e-5d42-46bd-b00d-c1d5ce72f577","system_id":"levelo_inurba_marseille","lat":43.23194,"lon":5.39983,"is_reserved":false,"is_disabled":false,"rental_uris":{"android":"levelo://app?vid=8b33911e-5d42-46bd-b00d-c1d5ce72f577","ios":"levelo://app?vid=8b33911e-5d42-46bd-b00d-c1d5ce72f577"},"vehicle_type_id":"4","last_reported":1729282189,"current_range_meters":40000,"station_id":"ce4bhn12rcd13ifvqgqg","pricing_plan_id":"cebpf4jnsgd1na2vs0mg"},{"bike_id":"127b39da-5a41-410c-b941-95e91fb64c1a","system_id":"levelo_inurba_marseille","lat":43.28078,"lon":5.39659,"is_reserved":false,"is_disabled":false,"rental_uris":{"android":"levelo://app?vid=127b39da-5a41-410c-b941-95e91fb64c1a","ios":"levelo://app?vid=127b39da-5a41-410c-b941-95e91fb64c1a"},"vehicle_type_id":"4","last_reported":1729282189,"current_range_meters":15200,"station_id":"ce4bho12rcd13ifvqh2g","pricing_plan_id":"cebpf4jnsgd1na2vs0mg"},{"bike_id":"0994d7f0-fa2e-480f-b967-2b1e1b476b78","system_id":"levelo_inurba_marseille","lat":43.23195,"lon":5.35556,"is_reserved":false,"is_disabled":false,"rental_uris":{"android":"levelo://app?vid=0994d7f0-fa2e-480f-b967-2b1e1b476b78","ios":"levelo://app?vid=0994d7f0-fa2e-480f-b967-2b1e1b476b78"},"vehicle_type_id":"4","last_reported":1729282189,"current_range_meters":7200,"station_id":"ce4bhu92rcd13ifvqi70","pricing_plan_id":"cebpf4jnsgd1na2vs0mg"},{"bike_id":"7900d9ac-c072-4cb4-840d-50db24e93bf2","system_id":"levelo_inurba_marseille","lat":43.27054,"lon":5.40268,"is_reserved":false,"is_disabled":false,"rental_uris":{"android":"levelo://app?vid=7900d9ac-c072-4cb4-840d-50db24e93bf2","ios":"levelo://app?vid=7900d9ac-c072-4cb4-840d-50db24e93bf2"},"vehicle_type_id":"4","last_reported":1729282189,"current_range_meters":24800,"station_id":"ce4bhk92rcd13ifvqgc0","pricing_plan_id":"cebpf4jnsgd1na2vs0mg"},{"bike_id":"41352ecd-ccf7-4501-b52c-c09f6f495c10","system_id":"levelo_inurba_marseille","lat":43.27172,"lon":5.40994,"is_reserved":false,"is_disabled":false,"rental_uris":{"android":"levelo://app?vid=41352ecd-ccf7-4501-b52c-c09f6f495c10","ios":"levelo://app?vid=41352ecd-ccf7-4501-b52c-c09f6f495c10"},"vehicle_type_id":"4","last_reported":1729282189,"current_range_meters":13600,"station_id":"ce4bhl12rcd13ifvqgf0","pricing_plan_id":"cebpf4jnsgd1na2vs0mg"},{"bike_id":"93f322b6-9869-4358-bc06-a92fb7155371","system_id":"levelo_inurba_marseille","lat":43.31222,"lon":5.36848,"is_reserved":false,"is_disabled":false,"rental_uris":{"android":"levelo://app?vid=93f322b6-9869-4358-bc06-a92fb7155371","ios":"levelo://app?vid=93f322b6-9869-4358-bc06-a92fb7155371"},"vehicle_type_id":"4","last_reported":1729282189,"current_range_meters":27200,"station_id":"ce4bgl92rcd13ifvqbq0","pricing_plan_id":"cebpf4jnsgd1na2vs0mg"},{"bike_id":"66ccc46d-618e-4760-b09c-27382152bdab","system_id":"levelo_inurba_marseille","lat":43.23193,"lon":5.35547,"is_reserved":false,"is_disabled":false,"rental_uris":{"android":"levelo://app?vid=66ccc46d-618e-4760-b09c-27382152bdab","ios":"levelo://app?vid=66ccc46d-618e-4760-b09c-27382152bdab"},"vehicle_type_id":"4","last_reported":1729282189,"current_range_meters":27200,"station_id":"ce4bhu92rcd13ifvqi70","pricing_plan_id":"cebpf4jnsgd1na2vs0mg"},{"bike_id":"8623bf51-0c8a-40e8-b339-04b43efc86c2","system_id":"levelo_inurba_marseille","lat":43.30461,"lon":5.37903,"is_reserved":false,"is_disabled":false,"rental_uris":{"android":"levelo://app?vid=8623bf51-0c8a-40e8-b339-04b43efc86c2","ios":"levelo://app?vid=8623bf51-0c8a-40e8-b339-04b43efc86c2"},"vehicle_type_id":"4","last_reported":1729282189,"current_range_meters":34800,"station_id":"ce4bgup2rcd13ifvqcn0","pricing_plan_id":"cebpf4jnsgd1na2vs0mg"},{"bike_id":"63e4c8ad-d7a5-4a07-bd91-ef5e1d531e61","system_id":"levelo_inurba_marseille","lat":43.29416,"lon":5.38633,"is_reserved":false,"is_disabled":false,"rental_uris":{"android":"levelo://app?vid=63e4c8ad-d7a5-4a07-bd91-ef5e1d531e61","ios":"levelo://app?vid=63e4c8ad-d7a5-4a07-bd91-ef5e1d531e61"},"vehicle_type_id":"4","last_reported":1729282189,"current_range_meters":38800,"station_id":"ce4bh2h2rcd13ifvqdh0","pricing_plan_id":"cebpf4jnsgd1na2vs0mg"},{"bike_id":"419a9d7d-2a1b-40b7-a37f-e4605d93d1f7","system_id":"levelo_inurba_marseille","lat":43.23186,"lon":5.39995,"is_reserved":false,"is_disabled":false,"rental_uris":{"android":"levelo://app?vid=419a9d7d-2a1b-40b7-a37f-e4605d93d1f7","ios":"levelo://app?vid=419a9d7d-2a1b-40b7-a37f-e4605d93d1f7"},"vehicle_type_id":"4","last_reported":1729282189,"current_range_meters":38800,"station_id":"ce4bhn12rcd13ifvqgqg","pricing_plan_id":"cebpf4jnsgd1na2vs0mg"},{"bike_id":"6e5ca35b-a89e-4f17-8ea4-9ff5a9c712be","system_id":"levelo_inurba_marseille","lat":43.29177,"lon":5.37139,"is_reserved":false,"is_disabled":false,"rental_uris":{"android":"levelo://app?vid=6e5ca35b-a89e-4f17-8ea4-9ff5a9c712be","ios":"levelo://app?vid=6e5ca35b-a89e-4f17-8ea4-9ff5a9c712be"},"vehicle_type_id":"4","last_reported":1729282189,"current_range_meters":38800,"station_id":"ce4bha92rcd13ifvqeh0","pricing_plan_id":"cebpf4jnsgd1na2vs0mg"},{"bike_id":"ae435b78-7482-436d-bcc5-db6941735961","system_id":"levelo_inurba_marseille","lat":43.3211,"lon":5.36777,"is_reserved":false,"is_disabled":false,"rental_uris":{"android":"levelo://app?vid=ae435b78-7482-436d-bcc5-db6941735961","ios":"levelo://app?vid=ae435b78-7482-436d-bcc5-db6941735961"},"vehicle_type_id":"4","last_reported":1729282189,"current_range_meters":36800,"station_id":"ce4bhrh2rcd13ifvqhug","pricing_plan_id":"cebpf4jnsgd1na2vs0mg"},{"bike_id":"a30002c2-320c-4186-887b-941308b39268","system_id":"levelo_inurba_marseille","lat":43.27948,"lon":5.41051,"is_reserved":false,"is_disabled":false,"rental_uris":{"android":"levelo://app?vid=a30002c2-320c-4186-887b-941308b39268","ios":"levelo://app?vid=a30002c2-320c-4186-887b-941308b39268"},"vehicle_type_id":"4","last_reported":1729282189,"current_range_meters":6800,"station_id":"ce4bhnp2rcd13ifvqh0g","pricing_plan_id":"cebpf4jnsgd1na2vs0mg"},{"bike_id":"a12ae0dd-8b65-4eb2-8487-884aed36a295","system_id":"levelo_inurba_marseille","lat":43.29419,"lon":5.38628,"is_reserved":false,"is_disabled":false,"rental_uris":{"android":"levelo://app?vid=a12ae0dd-8b65-4eb2-8487-884aed36a295","ios":"levelo://app?vid=a12ae0dd-8b65-4eb2-8487-884aed36a295"},"vehicle_type_id":"4","last_reported":1729282189,"current_range_meters":17600,"station_id":"ce4bh2h2rcd13ifvqdh0","pricing_plan_id":"cebpf4jnsgd1na2vs0mg"},{"bike_id":"c57cc8cc-5388-4b5c-b2af-6cfabd9db89a","system_id":"levelo_inurba_marseille","lat":43.30599,"lon":5.37218,"is_reserved":false,"is_disabled":false,"rental_uris":{"android":"levelo://app?vid=c57cc8cc-5388-4b5c-b2af-6cfabd9db89a","ios":"levelo://app?vid=c57cc8cc-5388-4b5c-b2af-6cfabd9db89a"},"vehicle_type_id":"4","last_reported":1729282189,"current_range_meters":8800,"station_id":"ce4bgqh2rcd13ifvqc4g","pricing_plan_id":"cebpf4jnsgd1na2vs0mg"},{"bike_id":"907d90e2-7e08-4846-bbc2-01977b54a9bd","system_id":"levelo_inurba_marseille","lat":43.24169,"lon":5.36393,"is_reserved":false,"is_disabled":false,"rental_uris":{"android":"levelo://app?vid=907d90e2-7e08-4846-bbc2-01977b54a9bd","ios":"levelo://app?vid=907d90e2-7e08-4846-bbc2-01977b54a9bd"},"vehicle_type_id":"4","last_reported":1729282189,"current_range_meters":16000,"station_id":"cpo36qri1sfpv3e86is0","pricing_plan_id":"cebpf4jnsgd1na2vs0mg"},{"bike_id":"eb6d1ebd-084f-4340-b44b-2c28d5719fea","system_id":"levelo_inurba_marseille","lat":43.32334,"lon":5.40623,"is_reserved":false,"is_disabled":false,"rental_uris":{"android":"levelo://app?vid=eb6d1ebd-084f-4340-b44b-2c28d5719fea","ios":"levelo://app?vid=eb6d1ebd-084f-4340-b44b-2c28d5719fea"},"vehicle_type_id":"4","last_reported":1729282189,"current_range_meters":17600,"station_id":"ce4bhq92rcd13ifvqhjg","pricing_plan_id":"cebpf4jnsgd1na2vs0mg"},{"bike_id":"e5b42735-1a8e-4768-a51b-aab7e986de07","system_id":"levelo_inurba_marseille","lat":43.2981,"lon":5.38098,"is_reserved":false,"is_disabled":false,"rental_uris":{"android":"levelo://app?vid=e5b42735-1a8e-4768-a51b-aab7e986de07","ios":"levelo://app?vid=e5b42735-1a8e-4768-a51b-aab7e986de07"},"vehicle_type_id":"4","last_reported":1729282189,"current_range_meters":36800,"station_id":"ce4bgip2rcd13ifvqbb0","pricing_plan_id":"cebpf4jnsgd1na2vs0mg"},{"bike_id":"ff72b91e-d1ad-44ea-a79d-b20bc18d5431","system_id":"levelo_inurba_marseille","lat":43.3059,"lon":5.37236,"is_reserved":false,"is_disabled":false,"rental_uris":{"android":"levelo://app?vid=ff72b91e-d1ad-44ea-a79d-b20bc18d5431","ios":"levelo://app?vid=ff72b91e-d1ad-44ea-a79d-b20bc18d5431"},"vehicle_type_id":"4","last_reported":1729282189,"current_range_meters":28000,"station_id":"ce4bgqh2rcd13ifvqc4g","pricing_plan_id":"cebpf4jnsgd1na2vs0mg"},{"bike_id":"ed913017-0c45-4c1c-b4ff-feacb7ef44ac","system_id":"levelo_inurba_marseille","lat":43.31338,"lon":5.39695,"is_reserved":false,"is_disabled":false,"rental_uris":{"android":"levelo://app?vid=ed913017-0c45-4c1c-b4ff-feacb7ef44ac","ios":"levelo://app?vid=ed913017-0c45-4c1c-b4ff-feacb7ef44ac"},"vehicle_type_id":"4","last_reported":1729282189,"current_range_meters":19600,"station_id":"ce4bgvp2rcd13ifvqcu0","pricing_plan_id":"cebpf4jnsgd1na2vs0mg"},{"bike_id":"e69b4122-f7ac-4008-93a9-e62d31e59619","system_id":"levelo_inurba_marseille","lat":43.29512,"lon":5.37503,"is_reserved":false,"is_disabled":false,"rental_uris":{"android":"levelo://app?vid=e69b4122-f7ac-4008-93a9-e62d31e59619","ios":"levelo://app?vid=e69b4122-f7ac-4008-93a9-e62d31e59619"},"vehicle_type_id":"4","last_reported":1729282189,"current_range_meters":39200,"station_id":"ce4bgkp2rcd13ifvqbmg","pricing_plan_id":"cebpf4jnsgd1na2vs0mg"},{"bike_id":"2e7a4c72-d8d6-4849-b84c-8f4b0923a75d","system_id":"levelo_inurba_marseille","lat":43.31711,"lon":5.37715,"is_reserved":false,"is_disabled":false,"rental_uris":{"android":"levelo://app?vid=2e7a4c72-d8d6-4849-b84c-8f4b0923a75d","ios":"levelo://app?vid=2e7a4c72-d8d6-4849-b84c-8f4b0923a75d"},"vehicle_type_id":"4","last_reported":1729282189,"current_range_meters":35600,"station_id":"ce4bgth2rcd13ifvqch0","pricing_plan_id":"cebpf4jnsgd1na2vs0mg"},{"bike_id":"94dad7f8-6585-4b37-b691-74420d23ef13","system_id":"levelo_inurba_marseille","lat":43.30804,"lon":5.43528,"is_reserved":false,"is_disabled":false,"rental_uris":{"android":"levelo://app?vid=94dad7f8-6585-4b37-b691-74420d23ef13","ios":"levelo://app?vid=94dad7f8-6585-4b37-b691-74420d23ef13"},"vehicle_type_id":"4","last_reported":1729282189,"current_range_meters":35200,"station_id":"ce4bhph2rcd13ifvqheg","pricing_plan_id":"cebpf4jnsgd1na2vs0mg"},{"bike_id":"40fe447a-cbb5-4fdd-b298-95a9f8359fb9","system_id":"levelo_inurba_marseille","lat":43.29428,"lon":5.38614,"is_reserved":false,"is_disabled":false,"rental_uris":{"android":"levelo://app?vid=40fe447a-cbb5-4fdd-b298-95a9f8359fb9","ios":"levelo://app?vid=40fe447a-cbb5-4fdd-b298-95a9f8359fb9"},"vehicle_type_id":"4","last_reported":1729282189,"current_range_meters":28800,"station_id":"ce4bh2h2rcd13ifvqdh0","pricing_plan_id":"cebpf4jnsgd1na2vs0mg"},{"bike_id":"4562e9bb-7c1e-4e0e-95e1-858d0f8d86d1","system_id":"levelo_inurba_marseille","lat":43.2319,"lon":5.35563,"is_reserved":false,"is_disabled":false,"rental_uris":{"android":"levelo://app?vid=4562e9bb-7c1e-4e0e-95e1-858d0f8d86d1","ios":"levelo://app?vid=4562e9bb-7c1e-4e0e-95e1-858d0f8d86d1"},"vehicle_type_id":"4","last_reported":1729282189,"current_range_meters":31200,"station_id":"ce4bhu92rcd13ifvqi70","pricing_plan_id":"cebpf4jnsgd1na2vs0mg"},{"bike_id":"e28d4c6d-ad1c-436e-be0f-152d1dcbbc9f","system_id":"levelo_inurba_marseille","lat":43.292603,"lon":5.384307,"is_reserved":false,"is_disabled":false,"rental_uris":{"android":"levelo://app?vid=e28d4c6d-ad1c-436e-be0f-152d1dcbbc9f","ios":"levelo://app?vid=e28d4c6d-ad1c-436e-be0f-152d1dcbbc9f"},"vehicle_type_id":"4","last_reported":1729282189,"current_range_meters":28400,"station_id":"","pricing_plan_id":"cebpf4jnsgd1na2vs0mg"},{"bike_id":"6837ac97-30a8-4145-8047-b6d6df61ac48","system_id":"levelo_inurba_marseille","lat":43.23185,"lon":5.39993,"is_reserved":false,"is_disabled":false,"rental_uris":{"android":"levelo://app?vid=6837ac97-30a8-4145-8047-b6d6df61ac48","ios":"levelo://app?vid=6837ac97-30a8-4145-8047-b6d6df61ac48"},"vehicle_type_id":"4","last_reported":1729282189,"current_range_meters":38800,"station_id":"ce4bhn12rcd13ifvqgqg","pricing_plan_id":"cebpf4jnsgd1na2vs0mg"},{"bike_id":"2140b6a3-5118-4150-823e-9225aeb56201","system_id":"levelo_inurba_marseille","lat":43.23187,"lon":5.35542,"is_reserved":false,"is_disabled":false,"rental_uris":{"android":"levelo://app?vid=2140b6a3-5118-4150-823e-9225aeb56201","ios":"levelo://app?vid=2140b6a3-5118-4150-823e-9225aeb56201"},"vehicle_type_id":"4","last_reported":1729282189,"current_range_meters":30400,"station_id":"ce4bhu92rcd13ifvqi70","pricing_plan_id":"cebpf4jnsgd1na2vs0mg"},{"bike_id":"f4720186-7c32-491e-aa76-023374d0d4de","system_id":"levelo_inurba_marseille","lat":43.3093,"lon":5.40144,"is_reserved":false,"is_disabled":false,"rental_uris":{"android":"levelo://app?vid=f4720186-7c32-491e-aa76-023374d0d4de","ios":"levelo://app?vid=f4720186-7c32-491e-aa76-023374d0d4de"},"vehicle_type_id":"4","last_reported":1729282189,"current_range_meters":12000,"station_id":"ce4bgvp2rcd13ifvqct0","pricing_plan_id":"cebpf4jnsgd1na2vs0mg"},{"bike_id":"1902fcf2-26dd-43f3-bab6-0de2f4c85bd3","system_id":"levelo_inurba_marseille","lat":43.27946,"lon":5.41047,"is_reserved":false,"is_disabled":false,"rental_uris":{"android":"levelo://app?vid=1902fcf2-26dd-43f3-bab6-0de2f4c85bd3","ios":"levelo://app?vid=1902fcf2-26dd-43f3-bab6-0de2f4c85bd3"},"vehicle_type_id":"4","last_reported":1729282189,"current_range_meters":25200,"station_id":"ce4bhnp2rcd13ifvqh0g","pricing_plan_id":"cebpf4jnsgd1na2vs0mg"},{"bike_id":"5fcafa2e-9de4-4b9a-bba5-451af068b69e","system_id":"levelo_inurba_marseille","lat":43.27981,"lon":5.41663,"is_reserved":false,"is_disabled":false,"rental_uris":{"android":"levelo://app?vid=5fcafa2e-9de4-4b9a-bba5-451af068b69e","ios":"levelo://app?vid=5fcafa2e-9de4-4b9a-bba5-451af068b69e"},"vehicle_type_id":"4","last_reported":1729282189,"current_range_meters":30400,"station_id":"ce4bho12rcd13ifvqh1g","pricing_plan_id":"cebpf4jnsgd1na2vs0mg"},{"bike_id":"b8c185e3-ed9c-47c4-aab5-d91efa8ec5b6","system_id":"levelo_inurba_marseille","lat":43.2804,"lon":5.36944,"is_reserved":false,"is_disabled":false,"rental_uris":{"android":"levelo://app?vid=b8c185e3-ed9c-47c4-aab5-d91efa8ec5b6","ios":"levelo://app?vid=b8c185e3-ed9c-47c4-aab5-d91efa8ec5b6"},"vehicle_type_id":"4","last_reported":1729282189,"current_range_meters":8000,"station_id":"ce4bha12rcd13ifvqef0","pricing_plan_id":"cebpf4jnsgd1na2vs0mg"},{"bike_id":"71ff7bf5-519f-4879-804f-e6ebaab58e8f","system_id":"levelo_inurba_marseille","lat":43.2844,"lon":5.39193,"is_reserved":false,"is_disabled":false,"rental_uris":{"android":"levelo://app?vid=71ff7bf5-519f-4879-804f-e6ebaab58e8f","ios":"levelo://app?vid=71ff7bf5-519f-4879-804f-e6ebaab58e8f"},"vehicle_type_id":"4","last_reported":1729282189,"current_range_meters":20400,"station_id":"ce4bhoh2rcd13ifvqh5g","pricing_plan_id":"cebpf4jnsgd1na2vs0mg"},{"bike_id":"68ee4ef7-329c-4223-8263-a5b8d725c2b4","system_id":"levelo_inurba_marseille","lat":43.28107,"lon":5.37843,"is_reserved":false,"is_disabled":false,"rental_uris":{"android":"levelo://app?vid=68ee4ef7-329c-4223-8263-a5b8d725c2b4","ios":"levelo://app?vid=68ee4ef7-329c-4223-8263-a5b8d725c2b4"},"vehicle_type_id":"4","last_reported":1729282189,"current_range_meters":10000,"station_id":"ce4bha12rcd13ifvqee0","pricing_plan_id":"cebpf4jnsgd1na2vs0mg"},{"bike_id":"041391a2-fc6a-4cef-8d1c-2dfe1f010100","system_id":"levelo_inurba_marseille","lat":43.31366,"lon":5.38493,"is_reserved":false,"is_disabled":false,"rental_uris":{"android":"levelo://app?vid=041391a2-fc6a-4cef-8d1c-2dfe1f010100","ios":"levelo://app?vid=041391a2-fc6a-4cef-8d1c-2dfe1f010100"},"vehicle_type_id":"4","last_reported":1729282189,"current_range_meters":34800,"station_id":"ce4bgt92rcd13ifvqcf0","pricing_plan_id":"cebpf4jnsgd1na2vs0mg"},{"bike_id":"77d98112-5619-40ae-8b6f-765ecc151b50","system_id":"levelo_inurba_marseille","lat":43.3204,"lon":5.41547,"is_reserved":false,"is_disabled":false,"rental_uris":{"android":"levelo://app?vid=77d98112-5619-40ae-8b6f-765ecc151b50","ios":"levelo://app?vid=77d98112-5619-40ae-8b6f-765ecc151b50"},"vehicle_type_id":"4","last_reported":1729282189,"current_range_meters":12400,"station_id":"ce4bhq92rcd13ifvqhkg","pricing_plan_id":"cebpf4jnsgd1na2vs0mg"},{"bike_id":"7772d39f-5e28-445c-af91-069b0cf63793","system_id":"levelo_inurba_marseille","lat":43.33765,"lon":5.37438,"is_reserved":false,"is_disabled":false,"rental_uris":{"android":"levelo://app?vid=7772d39f-5e28-445c-af91-069b0cf63793","ios":"levelo://app?vid=7772d39f-5e28-445c-af91-069b0cf63793"},"vehicle_type_id":"4","last_reported":1729282189,"current_range_meters":12000,"station_id":"","pricing_plan_id":"cebpf4jnsgd1na2vs0mg"},{"bike_id":"e0ab6bb6-c6b9-4385-b41c-27bea5d9c0cb","system_id":"levelo_inurba_marseille","lat":43.33038,"lon":5.39037,"is_reserved":false,"is_disabled":false,"rental_uris":{"android":"levelo://app?vid=e0ab6bb6-c6b9-4385-b41c-27bea5d9c0cb","ios":"levelo://app?vid=e0ab6bb6-c6b9-4385-b41c-27bea5d9c0cb"},"vehicle_type_id":"4","last_reported":1729282189,"current_range_meters":20800,"station_id":"ce4bhr92rcd13ifvqhrg","pricing_plan_id":"cebpf4jnsgd1na2vs0mg"},{"bike_id":"058ec527-60b8-4877-8817-19590c3cd4f5","system_id":"levelo_inurba_marseille","lat":43.32292,"lon":5.38262,"is_reserved":false,"is_disabled":false,"rental_uris":{"android":"levelo://app?vid=058ec527-60b8-4877-8817-19590c3cd4f5","ios":"levelo://app?vid=058ec527-60b8-4877-8817-19590c3cd4f5"},"vehicle_type_id":"4","last_reported":1729282189,"current_range_meters":40000,"station_id":"ce4bhr12rcd13ifvqhqg","pricing_plan_id":"cebpf4jnsgd1na2vs0mg"},{"bike_id":"3213665e-989c-4d22-9f5a-31c8522597dd","system_id":"levelo_inurba_marseille","lat":43.296,"lon":5.36142,"is_reserved":false,"is_disabled":false,"rental_uris":{"android":"levelo://app?vid=3213665e-989c-4d22-9f5a-31c8522597dd","ios":"levelo://app?vid=3213665e-989c-4d22-9f5a-31c8522597dd"},"vehicle_type_id":"4","last_reported":1729282189,"current_range_meters":22400,"station_id":"","pricing_plan_id":"cebpf4jnsgd1na2vs0mg"},{"bike_id":"cddb2538-acdb-46a5-bc95-6e0a8d74ef0c","system_id":"levelo_inurba_marseille","lat":43.30795,"lon":5.43529,"is_reserved":false,"is_disabled":false,"rental_uris":{"android":"levelo://app?vid=cddb2538-acdb-46a5-bc95-6e0a8d74ef0c","ios":"levelo://app?vid=cddb2538-acdb-46a5-bc95-6e0a8d74ef0c"},"vehicle_type_id":"4","last_reported":1729282189,"current_range_meters":30000,"station_id":"ce4bhph2rcd13ifvqheg","pricing_plan_id":"cebpf4jnsgd1na2vs0mg"},{"bike_id":"cce08346-f125-492d-af2e-c83622d7a520","system_id":"levelo_inurba_marseille","lat":43.29423,"lon":5.38621,"is_reserved":false,"is_disabled":false,"rental_uris":{"android":"levelo://app?vid=cce08346-f125-492d-af2e-c83622d7a520","ios":"levelo://app?vid=cce08346-f125-492d-af2e-c83622d7a520"},"vehicle_type_id":"4","last_reported":1729282189,"current_range_meters":38800,"station_id":"ce4bh2h2rcd13ifvqdh0","pricing_plan_id":"cebpf4jnsgd1na2vs0mg"},{"bike_id":"88c53981-f7cf-4b5a-9eec-2100990d3817","system_id":"levelo_inurba_marseille","lat":43.29416,"lon":5.38628,"is_reserved":false,"is_disabled":false,"rental_uris":{"android":"levelo://app?vid=88c53981-f7cf-4b5a-9eec-2100990d3817","ios":"levelo://app?vid=88c53981-f7cf-4b5a-9eec-2100990d3817"},"vehicle_type_id":"4","last_reported":1729282189,"current_range_meters":17200,"station_id":"ce4bh2h2rcd13ifvqdh0","pricing_plan_id":"cebpf4jnsgd1na2vs0mg"},{"bike_id":"85978b2d-96a1-4496-a15d-3917a97b0613","system_id":"levelo_inurba_marseille","lat":43.32366,"lon":5.38889,"is_reserved":false,"is_disabled":false,"rental_uris":{"android":"levelo://app?vid=85978b2d-96a1-4496-a15d-3917a97b0613","ios":"levelo://app?vid=85978b2d-96a1-4496-a15d-3917a97b0613"},"vehicle_type_id":"4","last_reported":1729282189,"current_range_meters":2800,"station_id":"ce4bhqp2rcd13ifvqhog","pricing_plan_id":"cebpf4jnsgd1na2vs0mg"},{"bike_id":"89211ee2-076f-4df3-92bd-cd8885f2e76d","system_id":"levelo_inurba_marseille","lat":43.23194,"lon":5.35556,"is_reserved":false,"is_disabled":false,"rental_uris":{"android":"levelo://app?vid=89211ee2-076f-4df3-92bd-cd8885f2e76d","ios":"levelo://app?vid=89211ee2-076f-4df3-92bd-cd8885f2e76d"},"vehicle_type_id":"4","last_reported":1729282189,"current_range_meters":27200,"station_id":"ce4bhu92rcd13ifvqi70","pricing_plan_id":"cebpf4jnsgd1na2vs0mg"},{"bike_id":"35a4a067-6724-4af6-9ac7-d2fc1a807c6b","system_id":"levelo_inurba_marseille","lat":43.23141,"lon":5.43726,"is_reserved":false,"is_disabled":false,"rental_uris":{"android":"levelo://app?vid=35a4a067-6724-4af6-9ac7-d2fc1a807c6b","ios":"levelo://app?vid=35a4a067-6724-4af6-9ac7-d2fc1a807c6b"},"vehicle_type_id":"4","last_reported":1729282189,"current_range_meters":4000,"station_id":"ce4bhmp2rcd13ifvqgog","pricing_plan_id":"cebpf4jnsgd1na2vs0mg"},{"bike_id":"bee5c081-5ec7-4c76-b2df-b17eadfcfaf0","system_id":"levelo_inurba_marseille","lat":43.29421,"lon":5.38632,"is_reserved":false,"is_disabled":false,"rental_uris":{"android":"levelo://app?vid=bee5c081-5ec7-4c76-b2df-b17eadfcfaf0","ios":"levelo://app?vid=bee5c081-5ec7-4c76-b2df-b17eadfcfaf0"},"vehicle_type_id":"4","last_reported":1729282189,"current_range_meters":24800,"station_id":"ce4bh2h2rcd13ifvqdh0","pricing_plan_id":"cebpf4jnsgd1na2vs0mg"},{"bike_id":"3ab2809e-b5c8-4ac7-9409-4f9c95aa98d4","system_id":"levelo_inurba_marseille","lat":43.29517,"lon":5.39403,"is_reserved":false,"is_disabled":false,"rental_uris":{"android":"levelo://app?vid=3ab2809e-b5c8-4ac7-9409-4f9c95aa98d4","ios":"levelo://app?vid=3ab2809e-b5c8-4ac7-9409-4f9c95aa98d4"},"vehicle_type_id":"4","last_reported":1729282189,"current_range_meters":9200,"station_id":"ce4bh292rcd13ifvqdf0","pricing_plan_id":"cebpf4jnsgd1na2vs0mg"},{"bike_id":"ec856568-8217-4dcd-acd9-cbc0c1bd9ea0","system_id":"levelo_inurba_marseille","lat":43.31072,"lon":5.38348,"is_reserved":false,"is_disabled":false,"rental_uris":{"android":"levelo://app?vid=ec856568-8217-4dcd-acd9-cbc0c1bd9ea0","ios":"levelo://app?vid=ec856568-8217-4dcd-acd9-cbc0c1bd9ea0"},"vehicle_type_id":"4","last_reported":1729282189,"current_range_meters":34800,"station_id":"ce4bgv92rcd13ifvqcr0","pricing_plan_id":"cebpf4jnsgd1na2vs0mg"},{"bike_id":"48f2469d-4594-4ecb-a7ea-698cf7713650","system_id":"levelo_inurba_marseille","lat":43.33021,"lon":5.39038,"is_reserved":false,"is_disabled":false,"rental_uris":{"android":"levelo://app?vid=48f2469d-4594-4ecb-a7ea-698cf7713650","ios":"levelo://app?vid=48f2469d-4594-4ecb-a7ea-698cf7713650"},"vehicle_type_id":"4","last_reported":1729282189,"current_range_meters":27600,"station_id":"ce4bhr92rcd13ifvqhrg","pricing_plan_id":"cebpf4jnsgd1na2vs0mg"},{"bike_id":"9fad28c8-1628-42ba-9a04-d66bad0757a4","system_id":"levelo_inurba_marseille","lat":43.29897,"lon":5.38145,"is_reserved":false,"is_disabled":false,"rental_uris":{"android":"levelo://app?vid=9fad28c8-1628-42ba-9a04-d66bad0757a4","ios":"levelo://app?vid=9fad28c8-1628-42ba-9a04-d66bad0757a4"},"vehicle_type_id":"4","last_reported":1729282189,"current_range_meters":6800,"station_id":"ce4bgj12rcd13ifvqbc0","pricing_plan_id":"cebpf4jnsgd1na2vs0mg"},{"bike_id":"11a21bb0-f15a-49f4-8d19-d7ea309cb0d1","system_id":"levelo_inurba_marseille","lat":43.31763,"lon":5.39021,"is_reserved":false,"is_disabled":false,"rental_uris":{"android":"levelo://app?vid=11a21bb0-f15a-49f4-8d19-d7ea309cb0d1","ios":"levelo://app?vid=11a21bb0-f15a-49f4-8d19-d7ea309cb0d1"},"vehicle_type_id":"4","last_reported":1729282189,"current_range_meters":11600,"station_id":"ce4bhqp2rcd13ifvqhng","pricing_plan_id":"cebpf4jnsgd1na2vs0mg"},{"bike_id":"02de8a40-b47e-47a9-a06a-98868ca6d6d7","system_id":"levelo_inurba_marseille","lat":43.29593,"lon":5.38105,"is_reserved":false,"is_disabled":false,"rental_uris":{"android":"levelo://app?vid=02de8a40-b47e-47a9-a06a-98868ca6d6d7","ios":"levelo://app?vid=02de8a40-b47e-47a9-a06a-98868ca6d6d7"},"vehicle_type_id":"4","last_reported":1729282189,"current_range_meters":18800,"station_id":"ce4bgl12rcd13ifvqbo0","pricing_plan_id":"cebpf4jnsgd1na2vs0mg"},{"bike_id":"629ed598-1551-43d7-9954-513e60a8b21e","system_id":"levelo_inurba_marseille","lat":43.29541,"lon":5.38548,"is_reserved":false,"is_disabled":false,"rental_uris":{"android":"levelo://app?vid=629ed598-1551-43d7-9954-513e60a8b21e","ios":"levelo://app?vid=629ed598-1551-43d7-9954-513e60a8b21e"},"vehicle_type_id":"4","last_reported":1729282189,"current_range_meters":16000,"station_id":"ce4bgih2rcd13ifvqba0","pricing_plan_id":"cebpf4jnsgd1na2vs0mg"},{"bike_id":"5a9358f2-aa4f-4e9f-afef-6fc62a52e295","system_id":"levelo_inurba_marseille","lat":43.29412,"lon":5.38626,"is_reserved":false,"is_disabled":false,"rental_uris":{"android":"levelo://app?vid=5a9358f2-aa4f-4e9f-afef-6fc62a52e295","ios":"levelo://app?vid=5a9358f2-aa4f-4e9f-afef-6fc62a52e295"},"vehicle_type_id":"4","last_reported":1729282189,"current_range_meters":22800,"station_id":"ce4bh2h2rcd13ifvqdh0","pricing_plan_id":"cebpf4jnsgd1na2vs0mg"},{"bike_id":"87440bd7-4730-412f-b52f-03b263c3d6ba","system_id":"levelo_inurba_marseille","lat":43.23191,"lon":5.35557,"is_reserved":false,"is_disabled":false,"rental_uris":{"android":"levelo://app?vid=87440bd7-4730-412f-b52f-03b263c3d6ba","ios":"levelo://app?vid=87440bd7-4730-412f-b52f-03b263c3d6ba"},"vehicle_type_id":"4","last_reported":1729282189,"current_range_meters":10800,"station_id":"ce4bhu92rcd13ifvqi70","pricing_plan_id":"cebpf4jnsgd1na2vs0mg"},{"bike_id":"166ff55e-0b6e-42f9-b963-16e0635d6760","system_id":"levelo_inurba_marseille","lat":43.29597,"lon":5.38101,"is_reserved":false,"is_disabled":false,"rental_uris":{"android":"levelo://app?vid=166ff55e-0b6e-42f9-b963-16e0635d6760","ios":"levelo://app?vid=166ff55e-0b6e-42f9-b963-16e0635d6760"},"vehicle_type_id":"4","last_reported":1729282189,"current_range_meters":9200,"station_id":"ce4bgl12rcd13ifvqbo0","pricing_plan_id":"cebpf4jnsgd1na2vs0mg"},{"bike_id":"648c1249-510e-4ccd-9a00-d9def5dad220","system_id":"levelo_inurba_marseille","lat":43.31995,"lon":5.38142,"is_reserved":false,"is_disabled":false,"rental_uris":{"android":"levelo://app?vid=648c1249-510e-4ccd-9a00-d9def5dad220","ios":"levelo://app?vid=648c1249-510e-4ccd-9a00-d9def5dad220"},"vehicle_type_id":"4","last_reported":1729282189,"current_range_meters":38800,"station_id":"ce4bhr12rcd13ifvqhpg","pricing_plan_id":"cebpf4jnsgd1na2vs0mg"},{"bike_id":"a88ccfa0-f7ce-4bbd-97ed-f2b037aae5bd","system_id":"levelo_inurba_marseille","lat":43.29418,"lon":5.38641,"is_reserved":false,"is_disabled":false,"rental_uris":{"android":"levelo://app?vid=a88ccfa0-f7ce-4bbd-97ed-f2b037aae5bd","ios":"levelo://app?vid=a88ccfa0-f7ce-4bbd-97ed-f2b037aae5bd"},"vehicle_type_id":"4","last_reported":1729282189,"current_range_meters":26800,"station_id":"ce4bh2h2rcd13ifvqdh0","pricing_plan_id":"cebpf4jnsgd1na2vs0mg"},{"bike_id":"7a862e57-1df3-48b1-82b6-f5a2da84d2f6","system_id":"levelo_inurba_marseille","lat":43.27911,"lon":5.39585,"is_reserved":false,"is_disabled":false,"rental_uris":{"android":"levelo://app?vid=7a862e57-1df3-48b1-82b6-f5a2da84d2f6","ios":"levelo://app?vid=7a862e57-1df3-48b1-82b6-f5a2da84d2f6"},"vehicle_type_id":"4","last_reported":1729282189,"current_range_meters":34800,"station_id":"ce4bhf92rcd13ifvqf40","pricing_plan_id":"cebpf4jnsgd1na2vs0mg"},{"bike_id":"b088242a-8e72-487d-a6f3-d3812ba32951","system_id":"levelo_inurba_marseille","lat":43.29418,"lon":5.38625,"is_reserved":false,"is_disabled":false,"rental_uris":{"android":"levelo://app?vid=b088242a-8e72-487d-a6f3-d3812ba32951","ios":"levelo://app?vid=b088242a-8e72-487d-a6f3-d3812ba32951"},"vehicle_type_id":"4","last_reported":1729282189,"current_range_meters":24000,"station_id":"ce4bh2h2rcd13ifvqdh0","pricing_plan_id":"cebpf4jnsgd1na2vs0mg"},{"bike_id":"832d3728-3f4d-4aaf-8518-4b3d4e677cd7","system_id":"levelo_inurba_marseille","lat":43.29527,"lon":5.39057,"is_reserved":false,"is_disabled":false,"rental_uris":{"android":"levelo://app?vid=832d3728-3f4d-4aaf-8518-4b3d4e677cd7","ios":"levelo://app?vid=832d3728-3f4d-4aaf-8518-4b3d4e677cd7"},"vehicle_type_id":"4","last_reported":1729282189,"current_range_meters":38800,"station_id":"ce4bh3p2rcd13ifvqdp0","pricing_plan_id":"cebpf4jnsgd1na2vs0mg"},{"bike_id":"0b4b408b-0e1b-41ef-9396-f416e28a2088","system_id":"levelo_inurba_marseille","lat":43.27938,"lon":5.41044,"is_reserved":false,"is_disabled":false,"rental_uris":{"android":"levelo://app?vid=0b4b408b-0e1b-41ef-9396-f416e28a2088","ios":"levelo://app?vid=0b4b408b-0e1b-41ef-9396-f416e28a2088"},"vehicle_type_id":"4","last_reported":1729282189,"current_range_meters":28400,"station_id":"ce4bhnp2rcd13ifvqh0g","pricing_plan_id":"cebpf4jnsgd1na2vs0mg"},{"bike_id":"e8876da4-9ddc-4279-854b-97dbd3681c0b","system_id":"levelo_inurba_marseille","lat":43.31992,"lon":5.3814,"is_reserved":false,"is_disabled":false,"rental_uris":{"android":"levelo://app?vid=e8876da4-9ddc-4279-854b-97dbd3681c0b","ios":"levelo://app?vid=e8876da4-9ddc-4279-854b-97dbd3681c0b"},"vehicle_type_id":"4","last_reported":1729282189,"current_range_meters":11200,"station_id":"ce4bhr12rcd13ifvqhpg","pricing_plan_id":"cebpf4jnsgd1na2vs0mg"},{"bike_id":"c1a52624-e768-4cd0-9d47-c01f98b9c952","system_id":"levelo_inurba_marseille","lat":43.29166,"lon":5.37169,"is_reserved":false,"is_disabled":false,"rental_uris":{"android":"levelo://app?vid=c1a52624-e768-4cd0-9d47-c01f98b9c952","ios":"levelo://app?vid=c1a52624-e768-4cd0-9d47-c01f98b9c952"},"vehicle_type_id":"4","last_reported":1729282189,"current_range_meters":1200,"station_id":"ce4bha92rcd13ifvqeh0","pricing_plan_id":"cebpf4jnsgd1na2vs0mg"},{"bike_id":"e8da62c6-bbec-48e4-86d2-9e1bf2d17e6b","system_id":"levelo_inurba_marseille","lat":43.32481,"lon":5.36568,"is_reserved":false,"is_disabled":false,"rental_uris":{"android":"levelo://app?vid=e8da62c6-bbec-48e4-86d2-9e1bf2d17e6b","ios":"levelo://app?vid=e8da62c6-bbec-48e4-86d2-9e1bf2d17e6b"},"vehicle_type_id":"4","last_reported":1729282189,"current_range_meters":31200,"station_id":"ce4bhs12rcd13ifvqhvg","pricing_plan_id":"cebpf4jnsgd1na2vs0mg"},{"bike_id":"c92c83ca-5649-482c-94db-74e585c302ac","system_id":"levelo_inurba_marseille","lat":43.2318,"lon":5.39983,"is_reserved":false,"is_disabled":false,"rental_uris":{"android":"levelo://app?vid=c92c83ca-5649-482c-94db-74e585c302ac","ios":"levelo://app?vid=c92c83ca-5649-482c-94db-74e585c302ac"},"vehicle_type_id":"4","last_reported":1729282189,"current_range_meters":38800,"station_id":"ce4bhn12rcd13ifvqgqg","pricing_plan_id":"cebpf4jnsgd1na2vs0mg"},{"bike_id":"a80ef76f-2747-4dd1-accb-cc75aa556b1a","system_id":"levelo_inurba_marseille","lat":43.27065,"lon":5.40258,"is_reserved":false,"is_disabled":false,"rental_uris":{"android":"levelo://app?vid=a80ef76f-2747-4dd1-accb-cc75aa556b1a","ios":"levelo://app?vid=a80ef76f-2747-4dd1-accb-cc75aa556b1a"},"vehicle_type_id":"4","last_reported":1729282189,"current_range_meters":25600,"station_id":"ce4bhk92rcd13ifvqgc0","pricing_plan_id":"cebpf4jnsgd1na2vs0mg"},{"bike_id":"b7a6992c-7545-4261-bc24-c69999037398","system_id":"levelo_inurba_marseille","lat":43.27939,"lon":5.4104,"is_reserved":false,"is_disabled":false,"rental_uris":{"android":"levelo://app?vid=b7a6992c-7545-4261-bc24-c69999037398","ios":"levelo://app?vid=b7a6992c-7545-4261-bc24-c69999037398"},"vehicle_type_id":"4","last_reported":1729282189,"current_range_meters":20000,"station_id":"ce4bhnp2rcd13ifvqh0g","pricing_plan_id":"cebpf4jnsgd1na2vs0mg"},{"bike_id":"05838322-0ba0-4409-8314-8d55d36c1fa2","system_id":"levelo_inurba_marseille","lat":43.26931,"lon":5.38915,"is_reserved":false,"is_disabled":false,"rental_uris":{"android":"levelo://app?vid=05838322-0ba0-4409-8314-8d55d36c1fa2","ios":"levelo://app?vid=05838322-0ba0-4409-8314-8d55d36c1fa2"},"vehicle_type_id":"4","last_reported":1729282189,"current_range_meters":16400,"station_id":"ce4bhhh2rcd13ifvqfl0","pricing_plan_id":"cebpf4jnsgd1na2vs0mg"},{"bike_id":"5f2569a2-2680-4f0e-8b01-5eae32db521a","system_id":"levelo_inurba_marseille","lat":43.29416,"lon":5.38627,"is_reserved":false,"is_disabled":false,"rental_uris":{"android":"levelo://app?vid=5f2569a2-2680-4f0e-8b01-5eae32db521a","ios":"levelo://app?vid=5f2569a2-2680-4f0e-8b01-5eae32db521a"},"vehicle_type_id":"4","last_reported":1729282189,"current_range_meters":28400,"station_id":"ce4bh2h2rcd13ifvqdh0","pricing_plan_id":"cebpf4jnsgd1na2vs0mg"},{"bike_id":"c8d3699f-64e5-4264-a8b9-2389b535b751","system_id":"levelo_inurba_marseille","lat":43.25491,"lon":5.37649,"is_reserved":false,"is_disabled":false,"rental_uris":{"android":"levelo://app?vid=c8d3699f-64e5-4264-a8b9-2389b535b751","ios":"levelo://app?vid=c8d3699f-64e5-4264-a8b9-2389b535b751"},"vehicle_type_id":"4","last_reported":1729282189,"current_range_meters":20000,"station_id":"ce4bhh12rcd13ifvqff0","pricing_plan_id":"cebpf4jnsgd1na2vs0mg"},{"bike_id":"fc495943-ffc9-4a73-8563-abda057f67a8","system_id":"levelo_inurba_marseille","lat":43.25819,"lon":5.39444,"is_reserved":false,"is_disabled":false,"rental_uris":{"android":"levelo://app?vid=fc495943-ffc9-4a73-8563-abda057f67a8","ios":"levelo://app?vid=fc495943-ffc9-4a73-8563-abda057f67a8"},"vehicle_type_id":"4","last_reported":1729282189,"current_range_meters":35600,"station_id":"ce4bhip2rcd13ifvqft0","pricing_plan_id":"cebpf4jnsgd1na2vs0mg"},{"bike_id":"c44d935c-2c69-47fe-b9c2-485341490f45","system_id":"levelo_inurba_marseille","lat":43.2838,"lon":5.38629,"is_reserved":false,"is_disabled":false,"rental_uris":{"android":"levelo://app?vid=c44d935c-2c69-47fe-b9c2-485341490f45","ios":"levelo://app?vid=c44d935c-2c69-47fe-b9c2-485341490f45"},"vehicle_type_id":"4","last_reported":1729282189,"current_range_meters":37600,"station_id":"ce4bh492rcd13ifvqdvg","pricing_plan_id":"cebpf4jnsgd1na2vs0mg"},{"bike_id":"99cff6e0-5957-4fc4-9dff-04e1de1af5de","system_id":"levelo_inurba_marseille","lat":43.31995,"lon":5.38158,"is_reserved":false,"is_disabled":false,"rental_uris":{"android":"levelo://app?vid=99cff6e0-5957-4fc4-9dff-04e1de1af5de","ios":"levelo://app?vid=99cff6e0-5957-4fc4-9dff-04e1de1af5de"},"vehicle_type_id":"4","last_reported":1729282189,"current_range_meters":21600,"station_id":"ce4bhr12rcd13ifvqhpg","pricing_plan_id":"cebpf4jnsgd1na2vs0mg"},{"bike_id":"93ccbb17-bf6f-405a-8a76-90517023ba56","system_id":"levelo_inurba_marseille","lat":43.27308,"lon":5.39066,"is_reserved":false,"is_disabled":false,"rental_uris":{"android":"levelo://app?vid=93ccbb17-bf6f-405a-8a76-90517023ba56","ios":"levelo://app?vid=93ccbb17-bf6f-405a-8a76-90517023ba56"},"vehicle_type_id":"4","last_reported":1729282189,"current_range_meters":11200,"station_id":"ce4bhgp2rcd13ifvqfe0","pricing_plan_id":"cebpf4jnsgd1na2vs0mg"},{"bike_id":"f8eb8a27-b952-4aee-8352-216d6088c539","system_id":"levelo_inurba_marseille","lat":43.25867,"lon":5.39898,"is_reserved":false,"is_disabled":false,"rental_uris":{"android":"levelo://app?vid=f8eb8a27-b952-4aee-8352-216d6088c539","ios":"levelo://app?vid=f8eb8a27-b952-4aee-8352-216d6088c539"},"vehicle_type_id":"4","last_reported":1729282189,"current_range_meters":38800,"station_id":"ce4bhl92rcd13ifvqghg","pricing_plan_id":"cebpf4jnsgd1na2vs0mg"},{"bike_id":"5db7a02e-8cc4-407b-bbe3-8dc1335d3d0f","system_id":"levelo_inurba_marseille","lat":43.29421,"lon":5.38625,"is_reserved":false,"is_disabled":false,"rental_uris":{"android":"levelo://app?vid=5db7a02e-8cc4-407b-bbe3-8dc1335d3d0f","ios":"levelo://app?vid=5db7a02e-8cc4-407b-bbe3-8dc1335d3d0f"},"vehicle_type_id":"4","last_reported":1729282189,"current_range_meters":24800,"station_id":"ce4bh2h2rcd13ifvqdh0","pricing_plan_id":"cebpf4jnsgd1na2vs0mg"},{"bike_id":"5715e832-098d-4c62-8619-ea0204aa01d5","system_id":"levelo_inurba_marseille","lat":43.27067,"lon":5.4228,"is_reserved":false,"is_disabled":false,"rental_uris":{"android":"levelo://app?vid=5715e832-098d-4c62-8619-ea0204aa01d5","ios":"levelo://app?vid=5715e832-098d-4c62-8619-ea0204aa01d5"},"vehicle_type_id":"4","last_reported":1729282189,"current_range_meters":35600,"station_id":"ce4bhk92rcd13ifvqgb0","pricing_plan_id":"cebpf4jnsgd1na2vs0mg"},{"bike_id":"16b1b911-bb65-4789-8585-a71be1cf7fb9","system_id":"levelo_inurba_marseille","lat":43.29834,"lon":5.380995,"is_reserved":false,"is_disabled":false,"rental_uris":{"android":"levelo://app?vid=16b1b911-bb65-4789-8585-a71be1cf7fb9","ios":"levelo://app?vid=16b1b911-bb65-4789-8585-a71be1cf7fb9"},"vehicle_type_id":"4","last_reported":1729282189,"current_range_meters":25200,"station_id":"ce4bhjp2rcd13ifvqga0","pricing_plan_id":"cebpf4jnsgd1na2vs0mg"},{"bike_id":"2bd5343d-3817-41a1-a84c-8af6aa846743","system_id":"levelo_inurba_marseille","lat":43.28703,"lon":5.39988,"is_reserved":false,"is_disabled":false,"rental_uris":{"android":"levelo://app?vid=2bd5343d-3817-41a1-a84c-8af6aa846743","ios":"levelo://app?vid=2bd5343d-3817-41a1-a84c-8af6aa846743"},"vehicle_type_id":"4","last_reported":1729282189,"current_range_meters":34000,"station_id":"ce4bho92rcd13ifvqh3g","pricing_plan_id":"cebpf4jnsgd1na2vs0mg"},{"bike_id":"f327aa78-9d4a-4842-afe3-0b0531d3a72f","system_id":"levelo_inurba_marseille","lat":43.31996,"lon":5.38148,"is_reserved":false,"is_disabled":false,"rental_uris":{"android":"levelo://app?vid=f327aa78-9d4a-4842-afe3-0b0531d3a72f","ios":"levelo://app?vid=f327aa78-9d4a-4842-afe3-0b0531d3a72f"},"vehicle_type_id":"4","last_reported":1729282189,"current_range_meters":26000,"station_id":"ce4bhr12rcd13ifvqhpg","pricing_plan_id":"cebpf4jnsgd1na2vs0mg"},{"bike_id":"9cd153b0-ba0e-4428-8186-db5f7ecf1b47","system_id":"levelo_inurba_marseille","lat":43.29023,"lon":5.38649,"is_reserved":false,"is_disabled":false,"rental_uris":{"android":"levelo://app?vid=9cd153b0-ba0e-4428-8186-db5f7ecf1b47","ios":"levelo://app?vid=9cd153b0-ba0e-4428-8186-db5f7ecf1b47"},"vehicle_type_id":"4","last_reported":1729282189,"current_range_meters":7200,"station_id":"ce4bh4p2rcd13ifvqe0g","pricing_plan_id":"cebpf4jnsgd1na2vs0mg"},{"bike_id":"05e903a6-25eb-4fdc-92d6-70bb63a59283","system_id":"levelo_inurba_marseille","lat":43.25085,"lon":5.39532,"is_reserved":false,"is_disabled":false,"rental_uris":{"android":"levelo://app?vid=05e903a6-25eb-4fdc-92d6-70bb63a59283","ios":"levelo://app?vid=05e903a6-25eb-4fdc-92d6-70bb63a59283"},"vehicle_type_id":"4","last_reported":1729282189,"current_range_meters":38800,"station_id":"ce4bhm12rcd13ifvqgkg","pricing_plan_id":"cebpf4jnsgd1na2vs0mg"},{"bike_id":"2dffce44-7cfd-4d42-813e-c4b2870080b3","system_id":"levelo_inurba_marseille","lat":43.28075,"lon":5.3966,"is_reserved":false,"is_disabled":false,"rental_uris":{"android":"levelo://app?vid=2dffce44-7cfd-4d42-813e-c4b2870080b3","ios":"levelo://app?vid=2dffce44-7cfd-4d42-813e-c4b2870080b3"},"vehicle_type_id":"4","last_reported":1729282189,"current_range_meters":36800,"station_id":"ce4bho12rcd13ifvqh2g","pricing_plan_id":"cebpf4jnsgd1na2vs0mg"},{"bike_id":"3664398f-378f-46f2-bd12-30042ad8db9d","system_id":"levelo_inurba_marseille","lat":43.23186,"lon":5.39984,"is_reserved":false,"is_disabled":false,"rental_uris":{"android":"levelo://app?vid=3664398f-378f-46f2-bd12-30042ad8db9d","ios":"levelo://app?vid=3664398f-378f-46f2-bd12-30042ad8db9d"},"vehicle_type_id":"4","last_reported":1729282189,"current_range_meters":28400,"station_id":"ce4bhn12rcd13ifvqgqg","pricing_plan_id":"cebpf4jnsgd1na2vs0mg"},{"bike_id":"a9d80141-cb04-4f88-bcc5-9763572e3517","system_id":"levelo_inurba_marseille","lat":43.232,"lon":5.35555,"is_reserved":false,"is_disabled":false,"rental_uris":{"android":"levelo://app?vid=a9d80141-cb04-4f88-bcc5-9763572e3517","ios":"levelo://app?vid=a9d80141-cb04-4f88-bcc5-9763572e3517"},"vehicle_type_id":"4","last_reported":1729282189,"current_range_meters":27600,"station_id":"ce4bhu92rcd13ifvqi70","pricing_plan_id":"cebpf4jnsgd1na2vs0mg"},{"bike_id":"cb3cf8a0-cf28-4058-b431-4be028654e46","system_id":"levelo_inurba_marseille","lat":43.30353,"lon":5.41882,"is_reserved":false,"is_disabled":false,"rental_uris":{"android":"levelo://app?vid=cb3cf8a0-cf28-4058-b431-4be028654e46","ios":"levelo://app?vid=cb3cf8a0-cf28-4058-b431-4be028654e46"},"vehicle_type_id":"4","last_reported":1729282189,"current_range_meters":24400,"station_id":"ce4bhop2rcd13ifvqh7g","pricing_plan_id":"cebpf4jnsgd1na2vs0mg"},{"bike_id":"36b5dec0-1e63-4607-85f9-e103b1d5ef7e","system_id":"levelo_inurba_marseille","lat":43.289348,"lon":5.396213,"is_reserved":false,"is_disabled":false,"rental_uris":{"android":"levelo://app?vid=36b5dec0-1e63-4607-85f9-e103b1d5ef7e","ios":"levelo://app?vid=36b5dec0-1e63-4607-85f9-e103b1d5ef7e"},"vehicle_type_id":"4","last_reported":1729282189,"current_range_meters":27600,"station_id":"ce4bh3h2rcd13ifvqdn0","pricing_plan_id":"cebpf4jnsgd1na2vs0mg"},{"bike_id":"6bdf77d3-cb0b-49bc-91d0-34226cf70b4b","system_id":"levelo_inurba_marseille","lat":43.29538,"lon":5.38551,"is_reserved":false,"is_disabled":false,"rental_uris":{"android":"levelo://app?vid=6bdf77d3-cb0b-49bc-91d0-34226cf70b4b","ios":"levelo://app?vid=6bdf77d3-cb0b-49bc-91d0-34226cf70b4b"},"vehicle_type_id":"4","last_reported":1729282189,"current_range_meters":12400,"station_id":"ce4bgih2rcd13ifvqba0","pricing_plan_id":"cebpf4jnsgd1na2vs0mg"},{"bike_id":"4494673c-ebac-42b3-884d-4d7420fce07c","system_id":"levelo_inurba_marseille","lat":43.23958,"lon":5.36635,"is_reserved":false,"is_disabled":false,"rental_uris":{"android":"levelo://app?vid=4494673c-ebac-42b3-884d-4d7420fce07c","ios":"levelo://app?vid=4494673c-ebac-42b3-884d-4d7420fce07c"},"vehicle_type_id":"4","last_reported":1729282189,"current_range_meters":4000,"station_id":"ce4bhi12rcd13ifvqfp0","pricing_plan_id":"cebpf4jnsgd1na2vs0mg"},{"bike_id":"ab653f2b-fb5c-4e79-aabd-11b042b9388c","system_id":"levelo_inurba_marseille","lat":43.24808,"lon":5.37456,"is_reserved":false,"is_disabled":false,"rental_uris":{"android":"levelo://app?vid=ab653f2b-fb5c-4e79-aabd-11b042b9388c","ios":"levelo://app?vid=ab653f2b-fb5c-4e79-aabd-11b042b9388c"},"vehicle_type_id":"4","last_reported":1729282189,"current_range_meters":9200,"station_id":"ce4bhgh2rcd13ifvqfb0","pricing_plan_id":"cebpf4jnsgd1na2vs0mg"},{"bike_id":"4a9c5136-102b-41cb-94fc-f5175f170593","system_id":"levelo_inurba_marseille","lat":43.2586,"lon":5.39904,"is_reserved":false,"is_disabled":false,"rental_uris":{"android":"levelo://app?vid=4a9c5136-102b-41cb-94fc-f5175f170593","ios":"levelo://app?vid=4a9c5136-102b-41cb-94fc-f5175f170593"},"vehicle_type_id":"4","last_reported":1729282189,"current_range_meters":18800,"station_id":"ce4bhl92rcd13ifvqghg","pricing_plan_id":"cebpf4jnsgd1na2vs0mg"},{"bike_id":"2a23636d-09fb-43ac-ac53-35b6c8edc197","system_id":"levelo_inurba_marseille","lat":43.24653,"lon":5.38893,"is_reserved":false,"is_disabled":false,"rental_uris":{"android":"levelo://app?vid=2a23636d-09fb-43ac-ac53-35b6c8edc197","ios":"levelo://app?vid=2a23636d-09fb-43ac-ac53-35b6c8edc197"},"vehicle_type_id":"4","last_reported":1729282189,"current_range_meters":22400,"station_id":"ce4bhg12rcd13ifvqf60","pricing_plan_id":"cebpf4jnsgd1na2vs0mg"},{"bike_id":"09e2914a-0fcc-451a-823e-320bb77c1789","system_id":"levelo_inurba_marseille","lat":43.2795,"lon":5.41047,"is_reserved":false,"is_disabled":false,"rental_uris":{"android":"levelo://app?vid=09e2914a-0fcc-451a-823e-320bb77c1789","ios":"levelo://app?vid=09e2914a-0fcc-451a-823e-320bb77c1789"},"vehicle_type_id":"4","last_reported":1729282189,"current_range_meters":24000,"station_id":"ce4bhnp2rcd13ifvqh0g","pricing_plan_id":"cebpf4jnsgd1na2vs0mg"},{"bike_id":"1185016f-df9b-4e61-b964-54bd7386f7c9","system_id":"levelo_inurba_marseille","lat":43.33022,"lon":5.39048,"is_reserved":false,"is_disabled":false,"rental_uris":{"android":"levelo://app?vid=1185016f-df9b-4e61-b964-54bd7386f7c9","ios":"levelo://app?vid=1185016f-df9b-4e61-b964-54bd7386f7c9"},"vehicle_type_id":"4","last_reported":1729282189,"current_range_meters":40000,"station_id":"ce4bhr92rcd13ifvqhrg","pricing_plan_id":"cebpf4jnsgd1na2vs0mg"},{"bike_id":"d41309ab-1a1f-4395-acaa-455483c3f8e1","system_id":"levelo_inurba_marseille","lat":43.2319,"lon":5.35561,"is_reserved":false,"is_disabled":false,"rental_uris":{"android":"levelo://app?vid=d41309ab-1a1f-4395-acaa-455483c3f8e1","ios":"levelo://app?vid=d41309ab-1a1f-4395-acaa-455483c3f8e1"},"vehicle_type_id":"4","last_reported":1729282189,"current_range_meters":29600,"station_id":"ce4bhu92rcd13ifvqi70","pricing_plan_id":"cebpf4jnsgd1na2vs0mg"},{"bike_id":"1cbb48bf-b1a5-4ea5-9587-40d3f50e6186","system_id":"levelo_inurba_marseille","lat":43.296204,"lon":5.371504,"is_reserved":false,"is_disabled":false,"rental_uris":{"android":"levelo://app?vid=1cbb48bf-b1a5-4ea5-9587-40d3f50e6186","ios":"levelo://app?vid=1cbb48bf-b1a5-4ea5-9587-40d3f50e6186"},"vehicle_type_id":"4","last_reported":1729282189,"current_range_meters":38000,"station_id":"ce4bgnh2rcd13ifvqc0g","pricing_plan_id":"cebpf4jnsgd1na2vs0mg"},{"bike_id":"71d5b8fd-b16e-4501-bf0e-93ce0ce6052d","system_id":"levelo_inurba_marseille","lat":43.24543,"lon":5.39519,"is_reserved":false,"is_disabled":false,"rental_uris":{"android":"levelo://app?vid=71d5b8fd-b16e-4501-bf0e-93ce0ce6052d","ios":"levelo://app?vid=71d5b8fd-b16e-4501-bf0e-93ce0ce6052d"},"vehicle_type_id":"4","last_reported":1729282189,"current_range_meters":36000,"station_id":"ce4bhlp2rcd13ifvqgjg","pricing_plan_id":"cebpf4jnsgd1na2vs0mg"},{"bike_id":"c925b4b6-f5e7-4a07-8327-2541ed38ec26","system_id":"levelo_inurba_marseille","lat":43.32289,"lon":5.38264,"is_reserved":false,"is_disabled":false,"rental_uris":{"android":"levelo://app?vid=c925b4b6-f5e7-4a07-8327-2541ed38ec26","ios":"levelo://app?vid=c925b4b6-f5e7-4a07-8327-2541ed38ec26"},"vehicle_type_id":"4","last_reported":1729282189,"current_range_meters":20800,"station_id":"ce4bhr12rcd13ifvqhqg","pricing_plan_id":"cebpf4jnsgd1na2vs0mg"},{"bike_id":"8c46528e-f982-4833-8dc3-683de7e457dd","system_id":"levelo_inurba_marseille","lat":43.26487,"lon":5.39551,"is_reserved":false,"is_disabled":false,"rental_uris":{"android":"levelo://app?vid=8c46528e-f982-4833-8dc3-683de7e457dd","ios":"levelo://app?vid=8c46528e-f982-4833-8dc3-683de7e457dd"},"vehicle_type_id":"4","last_reported":1729282189,"current_range_meters":28000,"station_id":"ce4bhi12rcd13ifvqfq0","pricing_plan_id":"cebpf4jnsgd1na2vs0mg"},{"bike_id":"112f5af7-d8d7-49ca-9d5b-2b1b1ee7c6a0","system_id":"levelo_inurba_marseille","lat":43.23192,"lon":5.35546,"is_reserved":false,"is_disabled":false,"rental_uris":{"android":"levelo://app?vid=112f5af7-d8d7-49ca-9d5b-2b1b1ee7c6a0","ios":"levelo://app?vid=112f5af7-d8d7-49ca-9d5b-2b1b1ee7c6a0"},"vehicle_type_id":"4","last_reported":1729282189,"current_range_meters":39200,"station_id":"ce4bhu92rcd13ifvqi70","pricing_plan_id":"cebpf4jnsgd1na2vs0mg"},{"bike_id":"2d12c475-1606-45db-9b57-bde660f7b2ba","system_id":"levelo_inurba_marseille","lat":43.295318,"lon":5.38543,"is_reserved":false,"is_disabled":false,"rental_uris":{"android":"levelo://app?vid=2d12c475-1606-45db-9b57-bde660f7b2ba","ios":"levelo://app?vid=2d12c475-1606-45db-9b57-bde660f7b2ba"},"vehicle_type_id":"4","last_reported":1729282189,"current_range_meters":34000,"station_id":"ce4bgih2rcd13ifvqba0","pricing_plan_id":"cebpf4jnsgd1na2vs0mg"},{"bike_id":"adcc82c1-50b8-4350-bb82-7e178c902d33","system_id":"levelo_inurba_marseille","lat":43.28213,"lon":5.40288,"is_reserved":false,"is_disabled":false,"rental_uris":{"android":"levelo://app?vid=adcc82c1-50b8-4350-bb82-7e178c902d33","ios":"levelo://app?vid=adcc82c1-50b8-4350-bb82-7e178c902d33"},"vehicle_type_id":"4","last_reported":1729282189,"current_range_meters":15200,"station_id":"","pricing_plan_id":"cebpf4jnsgd1na2vs0mg"},{"bike_id":"a417ea90-2677-4128-ad80-9d6526661d0d","system_id":"levelo_inurba_marseille","lat":43.23954,"lon":5.36632,"is_reserved":false,"is_disabled":false,"rental_uris":{"android":"levelo://app?vid=a417ea90-2677-4128-ad80-9d6526661d0d","ios":"levelo://app?vid=a417ea90-2677-4128-ad80-9d6526661d0d"},"vehicle_type_id":"4","last_reported":1729282189,"current_range_meters":20000,"station_id":"ce4bhi12rcd13ifvqfp0","pricing_plan_id":"cebpf4jnsgd1na2vs0mg"},{"bike_id":"e4f70158-b6ee-440a-8c14-eb6a5460b15c","system_id":"levelo_inurba_marseille","lat":43.290365,"lon":5.38651,"is_reserved":false,"is_disabled":false,"rental_uris":{"android":"levelo://app?vid=e4f70158-b6ee-440a-8c14-eb6a5460b15c","ios":"levelo://app?vid=e4f70158-b6ee-440a-8c14-eb6a5460b15c"},"vehicle_type_id":"4","last_reported":1729282189,"current_range_meters":33600,"station_id":"ce4bh4p2rcd13ifvqe0g","pricing_plan_id":"cebpf4jnsgd1na2vs0mg"},{"bike_id":"117ee8b3-b5e2-4e87-a5f7-420c68bf7509","system_id":"levelo_inurba_marseille","lat":43.25864,"lon":5.399058,"is_reserved":false,"is_disabled":false,"rental_uris":{"android":"levelo://app?vid=117ee8b3-b5e2-4e87-a5f7-420c68bf7509","ios":"levelo://app?vid=117ee8b3-b5e2-4e87-a5f7-420c68bf7509"},"vehicle_type_id":"4","last_reported":1729282189,"current_range_meters":38800,"station_id":"ce4bhl92rcd13ifvqghg","pricing_plan_id":"cebpf4jnsgd1na2vs0mg"},{"bike_id":"f65b6338-4e52-4df7-8486-bfc25fe0a6c1","system_id":"levelo_inurba_marseille","lat":43.28844,"lon":5.39313,"is_reserved":false,"is_disabled":false,"rental_uris":{"android":"levelo://app?vid=f65b6338-4e52-4df7-8486-bfc25fe0a6c1","ios":"levelo://app?vid=f65b6338-4e52-4df7-8486-bfc25fe0a6c1"},"vehicle_type_id":"4","last_reported":1729282189,"current_range_meters":39200,"station_id":"ce4bh2p2rcd13ifvqdi0","pricing_plan_id":"cebpf4jnsgd1na2vs0mg"},{"bike_id":"f93454e1-a669-4c63-a4ca-b572042c7971","system_id":"levelo_inurba_marseille","lat":43.23194,"lon":5.35554,"is_reserved":false,"is_disabled":false,"rental_uris":{"android":"levelo://app?vid=f93454e1-a669-4c63-a4ca-b572042c7971","ios":"levelo://app?vid=f93454e1-a669-4c63-a4ca-b572042c7971"},"vehicle_type_id":"4","last_reported":1729282189,"current_range_meters":7200,"station_id":"ce4bhu92rcd13ifvqi70","pricing_plan_id":"cebpf4jnsgd1na2vs0mg"},{"bike_id":"9feebf6a-cf06-4283-9475-cface9a88761","system_id":"levelo_inurba_marseille","lat":43.30801,"lon":5.43526,"is_reserved":false,"is_disabled":false,"rental_uris":{"android":"levelo://app?vid=9feebf6a-cf06-4283-9475-cface9a88761","ios":"levelo://app?vid=9feebf6a-cf06-4283-9475-cface9a88761"},"vehicle_type_id":"4","last_reported":1729282189,"current_range_meters":32000,"station_id":"ce4bhph2rcd13ifvqheg","pricing_plan_id":"cebpf4jnsgd1na2vs0mg"},{"bike_id":"c08ebc74-e90f-4ca0-abbc-969181901ab5","system_id":"levelo_inurba_marseille","lat":43.23181,"lon":5.39991,"is_reserved":false,"is_disabled":false,"rental_uris":{"android":"levelo://app?vid=c08ebc74-e90f-4ca0-abbc-969181901ab5","ios":"levelo://app?vid=c08ebc74-e90f-4ca0-abbc-969181901ab5"},"vehicle_type_id":"4","last_reported":1729282189,"current_range_meters":30400,"station_id":"ce4bhn12rcd13ifvqgqg","pricing_plan_id":"cebpf4jnsgd1na2vs0mg"},{"bike_id":"22b37876-70ac-4ba0-9001-79de88a5c4f9","system_id":"levelo_inurba_marseille","lat":43.33763,"lon":5.37433,"is_reserved":false,"is_disabled":false,"rental_uris":{"android":"levelo://app?vid=22b37876-70ac-4ba0-9001-79de88a5c4f9","ios":"levelo://app?vid=22b37876-70ac-4ba0-9001-79de88a5c4f9"},"vehicle_type_id":"4","last_reported":1729282189,"current_range_meters":30000,"station_id":"","pricing_plan_id":"cebpf4jnsgd1na2vs0mg"},{"bike_id":"064b8d08-b34f-4a4b-b6df-824672952086","system_id":"levelo_inurba_marseille","lat":43.29532,"lon":5.38548,"is_reserved":false,"is_disabled":false,"rental_uris":{"android":"levelo://app?vid=064b8d08-b34f-4a4b-b6df-824672952086","ios":"levelo://app?vid=064b8d08-b34f-4a4b-b6df-824672952086"},"vehicle_type_id":"4","last_reported":1729282189,"current_range_meters":9600,"station_id":"ce4bgih2rcd13ifvqba0","pricing_plan_id":"cebpf4jnsgd1na2vs0mg"},{"bike_id":"83893556-7c00-42a3-a08d-3dc2a54beb25","system_id":"levelo_inurba_marseille","lat":43.28002,"lon":5.40017,"is_reserved":false,"is_disabled":false,"rental_uris":{"android":"levelo://app?vid=83893556-7c00-42a3-a08d-3dc2a54beb25","ios":"levelo://app?vid=83893556-7c00-42a3-a08d-3dc2a54beb25"},"vehicle_type_id":"4","last_reported":1729282189,"current_range_meters":35200,"station_id":"ce4bho92rcd13ifvqh4g","pricing_plan_id":"cebpf4jnsgd1na2vs0mg"},{"bike_id":"c03a916c-1e35-4441-9d80-9299292f823f","system_id":"levelo_inurba_marseille","lat":43.29528,"lon":5.38536,"is_reserved":false,"is_disabled":false,"rental_uris":{"android":"levelo://app?vid=c03a916c-1e35-4441-9d80-9299292f823f","ios":"levelo://app?vid=c03a916c-1e35-4441-9d80-9299292f823f"},"vehicle_type_id":"4","last_reported":1729282189,"current_range_meters":38000,"station_id":"ce4bgih2rcd13ifvqba0","pricing_plan_id":"cebpf4jnsgd1na2vs0mg"},{"bike_id":"9b78167b-ae5a-47c9-9d1b-58b45505fd1c","system_id":"levelo_inurba_marseille","lat":43.24166,"lon":5.36405,"is_reserved":false,"is_disabled":false,"rental_uris":{"android":"levelo://app?vid=9b78167b-ae5a-47c9-9d1b-58b45505fd1c","ios":"levelo://app?vid=9b78167b-ae5a-47c9-9d1b-58b45505fd1c"},"vehicle_type_id":"4","last_reported":1729282189,"current_range_meters":38000,"station_id":"cpo36qri1sfpv3e86is0","pricing_plan_id":"cebpf4jnsgd1na2vs0mg"},{"bike_id":"0a842bd6-d0b0-4b8f-8dec-709c5f3a0d4c","system_id":"levelo_inurba_marseille","lat":43.2957,"lon":5.37507,"is_reserved":false,"is_disabled":false,"rental_uris":{"android":"levelo://app?vid=0a842bd6-d0b0-4b8f-8dec-709c5f3a0d4c","ios":"levelo://app?vid=0a842bd6-d0b0-4b8f-8dec-709c5f3a0d4c"},"vehicle_type_id":"4","last_reported":1729282189,"current_range_meters":38800,"station_id":"ce4bgh92rcd13ifvqb50","pricing_plan_id":"cebpf4jnsgd1na2vs0mg"},{"bike_id":"0f908496-374b-4567-83f6-0ab764129cae","system_id":"levelo_inurba_marseille","lat":43.27321,"lon":5.39076,"is_reserved":false,"is_disabled":false,"rental_uris":{"android":"levelo://app?vid=0f908496-374b-4567-83f6-0ab764129cae","ios":"levelo://app?vid=0f908496-374b-4567-83f6-0ab764129cae"},"vehicle_type_id":"4","last_reported":1729282189,"current_range_meters":8400,"station_id":"ce4bhgp2rcd13ifvqfe0","pricing_plan_id":"cebpf4jnsgd1na2vs0mg"},{"bike_id":"eb1f1d54-728d-41c8-b6a3-f686d19a9494","system_id":"levelo_inurba_marseille","lat":43.3033,"lon":5.40431,"is_reserved":false,"is_disabled":false,"rental_uris":{"android":"levelo://app?vid=eb1f1d54-728d-41c8-b6a3-f686d19a9494","ios":"levelo://app?vid=eb1f1d54-728d-41c8-b6a3-f686d19a9494"},"vehicle_type_id":"4","last_reported":1729282189,"current_range_meters":3600,"station_id":"ce4bh012rcd13ifvqd10","pricing_plan_id":"cebpf4jnsgd1na2vs0mg"},{"bike_id":"b87f592d-a47c-4ec9-a7d5-862dbe7e3f75","system_id":"levelo_inurba_marseille","lat":43.295317,"lon":5.38556,"is_reserved":false,"is_disabled":false,"rental_uris":{"android":"levelo://app?vid=b87f592d-a47c-4ec9-a7d5-862dbe7e3f75","ios":"levelo://app?vid=b87f592d-a47c-4ec9-a7d5-862dbe7e3f75"},"vehicle_type_id":"4","last_reported":1729282189,"current_range_meters":20800,"station_id":"ce4bgih2rcd13ifvqba0","pricing_plan_id":"cebpf4jnsgd1na2vs0mg"},{"bike_id":"0b2c2655-6760-4b5b-a837-430cc57c992d","system_id":"levelo_inurba_marseille","lat":43.23179,"lon":5.39991,"is_reserved":false,"is_disabled":false,"rental_uris":{"android":"levelo://app?vid=0b2c2655-6760-4b5b-a837-430cc57c992d","ios":"levelo://app?vid=0b2c2655-6760-4b5b-a837-430cc57c992d"},"vehicle_type_id":"4","last_reported":1729282189,"current_range_meters":22000,"station_id":"ce4bhn12rcd13ifvqgqg","pricing_plan_id":"cebpf4jnsgd1na2vs0mg"},{"bike_id":"3ac58501-1234-4544-ae5e-37c1fc251df3","system_id":"levelo_inurba_marseille","lat":43.24643,"lon":5.38899,"is_reserved":false,"is_disabled":false,"rental_uris":{"android":"levelo://app?vid=3ac58501-1234-4544-ae5e-37c1fc251df3","ios":"levelo://app?vid=3ac58501-1234-4544-ae5e-37c1fc251df3"},"vehicle_type_id":"4","last_reported":1729282189,"current_range_meters":38800,"station_id":"ce4bhg12rcd13ifvqf60","pricing_plan_id":"cebpf4jnsgd1na2vs0mg"},{"bike_id":"c8fa6f39-e07d-463d-8d01-7ccf9e86f944","system_id":"levelo_inurba_marseille","lat":43.232,"lon":5.35553,"is_reserved":false,"is_disabled":false,"rental_uris":{"android":"levelo://app?vid=c8fa6f39-e07d-463d-8d01-7ccf9e86f944","ios":"levelo://app?vid=c8fa6f39-e07d-463d-8d01-7ccf9e86f944"},"vehicle_type_id":"4","last_reported":1729282189,"current_range_meters":22400,"station_id":"ce4bhu92rcd13ifvqi70","pricing_plan_id":"cebpf4jnsgd1na2vs0mg"},{"bike_id":"7220dcba-0cbb-43cf-b3f0-810068404926","system_id":"levelo_inurba_marseille","lat":43.29522,"lon":5.37462,"is_reserved":false,"is_disabled":false,"rental_uris":{"android":"levelo://app?vid=7220dcba-0cbb-43cf-b3f0-810068404926","ios":"levelo://app?vid=7220dcba-0cbb-43cf-b3f0-810068404926"},"vehicle_type_id":"4","last_reported":1729282189,"current_range_meters":27600,"station_id":"","pricing_plan_id":"cebpf4jnsgd1na2vs0mg"},{"bike_id":"7083d6dd-62a3-40cd-bc95-f4d44769330f","system_id":"levelo_inurba_marseille","lat":43.32191,"lon":5.38689,"is_reserved":false,"is_disabled":false,"rental_uris":{"android":"levelo://app?vid=7083d6dd-62a3-40cd-bc95-f4d44769330f","ios":"levelo://app?vid=7083d6dd-62a3-40cd-bc95-f4d44769330f"},"vehicle_type_id":"4","last_reported":1729282189,"current_range_meters":6800,"station_id":"","pricing_plan_id":"cebpf4jnsgd1na2vs0mg"},{"bike_id":"b43c6502-477c-4714-ae10-8051c108c1a8","system_id":"levelo_inurba_marseille","lat":43.26492,"lon":5.39556,"is_reserved":false,"is_disabled":false,"rental_uris":{"android":"levelo://app?vid=b43c6502-477c-4714-ae10-8051c108c1a8","ios":"levelo://app?vid=b43c6502-477c-4714-ae10-8051c108c1a8"},"vehicle_type_id":"4","last_reported":1729282189,"current_range_meters":28800,"station_id":"ce4bhi12rcd13ifvqfq0","pricing_plan_id":"cebpf4jnsgd1na2vs0mg"},{"bike_id":"e23fcc06-93cc-4b30-91b9-ae992c54a640","system_id":"levelo_inurba_marseille","lat":43.290369,"lon":5.359164,"is_reserved":false,"is_disabled":false,"rental_uris":{"android":"levelo://app?vid=e23fcc06-93cc-4b30-91b9-ae992c54a640","ios":"levelo://app?vid=e23fcc06-93cc-4b30-91b9-ae992c54a640"},"vehicle_type_id":"4","last_reported":1729282189,"current_range_meters":9200,"station_id":"","pricing_plan_id":"cebpf4jnsgd1na2vs0mg"},{"bike_id":"790ff02a-d02b-46a0-a868-74fb7518b7a4","system_id":"levelo_inurba_marseille","lat":43.28075,"lon":5.39663,"is_reserved":false,"is_disabled":false,"rental_uris":{"android":"levelo://app?vid=790ff02a-d02b-46a0-a868-74fb7518b7a4","ios":"levelo://app?vid=790ff02a-d02b-46a0-a868-74fb7518b7a4"},"vehicle_type_id":"4","last_reported":1729282189,"current_range_meters":38400,"station_id":"ce4bho12rcd13ifvqh2g","pricing_plan_id":"cebpf4jnsgd1na2vs0mg"},{"bike_id":"cfacd117-3021-4950-b1b1-2aed9cc3872e","system_id":"levelo_inurba_marseille","lat":43.31067,"lon":5.38364,"is_reserved":false,"is_disabled":false,"rental_uris":{"android":"levelo://app?vid=cfacd117-3021-4950-b1b1-2aed9cc3872e","ios":"levelo://app?vid=cfacd117-3021-4950-b1b1-2aed9cc3872e"},"vehicle_type_id":"4","last_reported":1729282189,"current_range_meters":38800,"station_id":"ce4bgt12rcd13ifvqcd0","pricing_plan_id":"cebpf4jnsgd1na2vs0mg"},{"bike_id":"7063fb3b-7970-4334-9484-d52346657a59","system_id":"levelo_inurba_marseille","lat":43.28042,"lon":5.36944,"is_reserved":false,"is_disabled":false,"rental_uris":{"android":"levelo://app?vid=7063fb3b-7970-4334-9484-d52346657a59","ios":"levelo://app?vid=7063fb3b-7970-4334-9484-d52346657a59"},"vehicle_type_id":"4","last_reported":1729282189,"current_range_meters":29600,"station_id":"ce4bha12rcd13ifvqef0","pricing_plan_id":"cebpf4jnsgd1na2vs0mg"},{"bike_id":"0cc3167e-f41d-4321-aa62-4a273d7ed4a1","system_id":"levelo_inurba_marseille","lat":43.29418,"lon":5.3863,"is_reserved":false,"is_disabled":false,"rental_uris":{"android":"levelo://app?vid=0cc3167e-f41d-4321-aa62-4a273d7ed4a1","ios":"levelo://app?vid=0cc3167e-f41d-4321-aa62-4a273d7ed4a1"},"vehicle_type_id":"4","last_reported":1729282189,"current_range_meters":9600,"station_id":"ce4bh2h2rcd13ifvqdh0","pricing_plan_id":"cebpf4jnsgd1na2vs0mg"},{"bike_id":"8a0191c5-54a7-4453-bcdf-bbd895b2d3f3","system_id":"levelo_inurba_marseille","lat":43.27174,"lon":5.40994,"is_reserved":false,"is_disabled":false,"rental_uris":{"android":"levelo://app?vid=8a0191c5-54a7-4453-bcdf-bbd895b2d3f3","ios":"levelo://app?vid=8a0191c5-54a7-4453-bcdf-bbd895b2d3f3"},"vehicle_type_id":"4","last_reported":1729282189,"current_range_meters":26800,"station_id":"ce4bhl12rcd13ifvqgf0","pricing_plan_id":"cebpf4jnsgd1na2vs0mg"},{"bike_id":"69ca36d3-a6bf-49b2-b6dc-a3bd1c9f448c","system_id":"levelo_inurba_marseille","lat":43.31069,"lon":5.38354,"is_reserved":false,"is_disabled":false,"rental_uris":{"android":"levelo://app?vid=69ca36d3-a6bf-49b2-b6dc-a3bd1c9f448c","ios":"levelo://app?vid=69ca36d3-a6bf-49b2-b6dc-a3bd1c9f448c"},"vehicle_type_id":"4","last_reported":1729282189,"current_range_meters":24800,"station_id":"ce4bgv92rcd13ifvqcr0","pricing_plan_id":"cebpf4jnsgd1na2vs0mg"},{"bike_id":"9bd69820-c53a-48b9-90dc-1531feca180d","system_id":"levelo_inurba_marseille","lat":43.29251,"lon":5.38442,"is_reserved":false,"is_disabled":false,"rental_uris":{"android":"levelo://app?vid=9bd69820-c53a-48b9-90dc-1531feca180d","ios":"levelo://app?vid=9bd69820-c53a-48b9-90dc-1531feca180d"},"vehicle_type_id":"4","last_reported":1729282189,"current_range_meters":16800,"station_id":"","pricing_plan_id":"cebpf4jnsgd1na2vs0mg"},{"bike_id":"c91a7c8e-0a42-4513-ad0a-5ec23c61445b","system_id":"levelo_inurba_marseille","lat":43.2455,"lon":5.3952,"is_reserved":false,"is_disabled":false,"rental_uris":{"android":"levelo://app?vid=c91a7c8e-0a42-4513-ad0a-5ec23c61445b","ios":"levelo://app?vid=c91a7c8e-0a42-4513-ad0a-5ec23c61445b"},"vehicle_type_id":"4","last_reported":1729282189,"current_range_meters":8400,"station_id":"ce4bhlp2rcd13ifvqgjg","pricing_plan_id":"cebpf4jnsgd1na2vs0mg"},{"bike_id":"78c70ea9-dbb6-42dd-9464-6028bc589421","system_id":"levelo_inurba_marseille","lat":43.2861,"lon":5.37072,"is_reserved":false,"is_disabled":false,"rental_uris":{"android":"levelo://app?vid=78c70ea9-dbb6-42dd-9464-6028bc589421","ios":"levelo://app?vid=78c70ea9-dbb6-42dd-9464-6028bc589421"},"vehicle_type_id":"4","last_reported":1729282189,"current_range_meters":38800,"station_id":"ce4bht12rcd13ifvqi60","pricing_plan_id":"cebpf4jnsgd1na2vs0mg"},{"bike_id":"4b5b032a-8cea-48d2-8797-7d3163dda3a8","system_id":"levelo_inurba_marseille","lat":43.29273,"lon":5.40116,"is_reserved":false,"is_disabled":false,"rental_uris":{"android":"levelo://app?vid=4b5b032a-8cea-48d2-8797-7d3163dda3a8","ios":"levelo://app?vid=4b5b032a-8cea-48d2-8797-7d3163dda3a8"},"vehicle_type_id":"4","last_reported":1729282189,"current_range_meters":17200,"station_id":"ce4bh312rcd13ifvqdk0","pricing_plan_id":"cebpf4jnsgd1na2vs0mg"},{"bike_id":"0e1a6873-0ab3-4ded-8cb0-3ae98cc6f970","system_id":"levelo_inurba_marseille","lat":43.29417,"lon":5.38623,"is_reserved":false,"is_disabled":false,"rental_uris":{"android":"levelo://app?vid=0e1a6873-0ab3-4ded-8cb0-3ae98cc6f970","ios":"levelo://app?vid=0e1a6873-0ab3-4ded-8cb0-3ae98cc6f970"},"vehicle_type_id":"4","last_reported":1729282189,"current_range_meters":38800,"station_id":"ce4bh2h2rcd13ifvqdh0","pricing_plan_id":"cebpf4jnsgd1na2vs0mg"},{"bike_id":"9015b703-b431-4416-83da-4ddbb2050da4","system_id":"levelo_inurba_marseille","lat":43.2797,"lon":5.38744,"is_reserved":false,"is_disabled":false,"rental_uris":{"android":"levelo://app?vid=9015b703-b431-4416-83da-4ddbb2050da4","ios":"levelo://app?vid=9015b703-b431-4416-83da-4ddbb2050da4"},"vehicle_type_id":"4","last_reported":1729282189,"current_range_meters":30800,"station_id":"ce4bhg12rcd13ifvqf80","pricing_plan_id":"cebpf4jnsgd1na2vs0mg"},