{"last_updated":1774291077,"ttl":60,"version":"2.2","data":{"bikes":[{"bike_id":"534b7768-09e3-4536-8119-2ce1cccbdb55","system_id":"levelo_inurba_marseille","lat":43.31361,"lon":5.38486,"is_reserved":false,"is_disabled":false,"rental_uris":{"android":"levelo://app?vid=534b7768-09e3-4536-8119-2ce1cccbdb55","ios":"levelo://app?vid=534b7768-09e3-4536-8119-2ce1cccbdb55"},"vehicle_type_id":"4","last_reported":1774291078,"current_range_meters":2800,"station_id":"ce4bgt92rcd13ifvqcf0","pricing_plan_id":"cebpf4jnsgd1na2vs0mg"},{"bike_id":"895b6d9a-f6b2-4744-8c30-184547b1b37e","system_id":"levelo_inurba_marseille","lat":43.28156,"lon":5.42652,"is_reserved":false,"is_disabled":false,"rental_uris":{"android":"levelo://app?vid=895b6d9a-f6b2-4744-8c30-184547b1b37e","ios":"levelo://app?vid=895b6d9a-f6b2-4744-8c30-184547b1b37e"},"vehicle_type_id":"4","last_reported":1774291078,"current_range_meters":2800,"station_id":"ce4bhnh2rcd13ifvqgug","pricing_plan_id":"cebpf4jnsgd1na2vs0mg"},{"bike_id":"6b2d73ab-4e55-4282-bb0a-3ee6f3388e2b","system_id":"levelo_inurba_marseille","lat":43.2318,"lon":5.39991,"is_reserved":false,"is_disabled":false,"rental_uris":{"android":"levelo://app?vid=6b2d73ab-4e55-4282-bb0a-3ee6f3388e2b","ios":"levelo://app?vid=6b2d73ab-4e55-4282-bb0a-3ee6f3388e2b"},"vehicle_type_id":"4","last_reported":1774291078,"current_range_meters":2800,"station_id":"ce4bhn12rcd13ifvqgqg","pricing_plan_id":"cebpf4jnsgd1na2vs0mg"},{"bike_id":"a08dedf6-9b8f-4ed0-9e96-d5c2ed18419f","system_id":"levelo_inurba_marseille","lat":43.31049,"lon":5.37158,"is_reserved":false,"is_disabled":false,"rental_uris":{"android":"levelo://app?vid=a08dedf6-9b8f-4ed0-9e96-d5c2ed18419f","ios":"levelo://app?vid=a08dedf6-9b8f-4ed0-9e96-d5c2ed18419f"},"vehicle_type_id":"4","last_reported":1774291078,"current_range_meters":2800,"station_id":"st_d4kl2rp97mjs73e7tdfg","pricing_plan_id":"cebpf4jnsgd1na2vs0mg"},{"bike_id":"fdd9b2f9-8e54-4974-b8ae-42e978f9a2eb","system_id":"levelo_inurba_marseille","lat":43.29962,"lon":5.38505,"is_reserved":false,"is_disabled":false,"rental_uris":{"android":"levelo://app?vid=fdd9b2f9-8e54-4974-b8ae-42e978f9a2eb","ios":"levelo://app?vid=fdd9b2f9-8e54-4974-b8ae-42e978f9a2eb"},"vehicle_type_id":"4","last_reported":1774291078,"current_range_meters":2800,"station_id":"ce4bgj92rcd13ifvqbd0","pricing_plan_id":"cebpf4jnsgd1na2vs0mg"},{"bike_id":"466b6f84-924a-4ebf-8b64-f0b5b439160b","system_id":"levelo_inurba_marseille","lat":43.32112,"lon":5.36781,"is_reserved":false,"is_disabled":false,"rental_uris":{"android":"levelo://app?vid=466b6f84-924a-4ebf-8b64-f0b5b439160b","ios":"levelo://app?vid=466b6f84-924a-4ebf-8b64-f0b5b439160b"},"vehicle_type_id":"4","last_reported":1774291078,"current_range_meters":2800,"station_id":"ce4bhrh2rcd13ifvqhug","pricing_plan_id":"cebpf4jnsgd1na2vs0mg"},{"bike_id":"0227bc24-a0ba-4e17-9349-3df1b638728d","system_id":"levelo_inurba_marseille","lat":43.29632,"lon":5.40622,"is_reserved":false,"is_disabled":false,"rental_uris":{"android":"levelo://app?vid=0227bc24-a0ba-4e17-9349-3df1b638728d","ios":"levelo://app?vid=0227bc24-a0ba-4e17-9349-3df1b638728d"},"vehicle_type_id":"4","last_reported":1774291078,"current_range_meters":2800,"station_id":"ce4bh0h2rcd13ifvqd60","pricing_plan_id":"cebpf4jnsgd1na2vs0mg"},{"bike_id":"89884c11-0089-40c9-b4c8-cc026115fb44","system_id":"levelo_inurba_marseille","lat":43.26924,"lon":5.41926,"is_reserved":false,"is_disabled":false,"rental_uris":{"android":"levelo://app?vid=89884c11-0089-40c9-b4c8-cc026115fb44","ios":"levelo://app?vid=89884c11-0089-40c9-b4c8-cc026115fb44"},"vehicle_type_id":"4","last_reported":1774291078,"current_range_meters":2800,"station_id":"","pricing_plan_id":"cebpf4jnsgd1na2vs0mg"},{"bike_id":"bf0ffe52-cbd3-4349-8490-7bbe7cbc4ae0","system_id":"levelo_inurba_marseille","lat":43.30712,"lon":5.42433,"is_reserved":false,"is_disabled":false,"rental_uris":{"android":"levelo://app?vid=bf0ffe52-cbd3-4349-8490-7bbe7cbc4ae0","ios":"levelo://app?vid=bf0ffe52-cbd3-4349-8490-7bbe7cbc4ae0"},"vehicle_type_id":"4","last_reported":1774291078,"current_range_meters":2800,"station_id":"st_cvj6ca6bvosntc0bfgr0","pricing_plan_id":"cebpf4jnsgd1na2vs0mg"},{"bike_id":"c1fb5764-bcd6-4143-af0b-de782b945bea","system_id":"levelo_inurba_marseille","lat":43.2378,"lon":5.36642,"is_reserved":false,"is_disabled":false,"rental_uris":{"android":"levelo://app?vid=c1fb5764-bcd6-4143-af0b-de782b945bea","ios":"levelo://app?vid=c1fb5764-bcd6-4143-af0b-de782b945bea"},"vehicle_type_id":"4","last_reported":1774291078,"current_range_meters":2800,"station_id":"st_d3nk18o9ro0c73en2l3g","pricing_plan_id":"cebpf4jnsgd1na2vs0mg"},{"bike_id":"8563fecb-6fa1-4584-917c-bfac53245b95","system_id":"levelo_inurba_marseille","lat":43.23878,"lon":5.37461,"is_reserved":false,"is_disabled":false,"rental_uris":{"android":"levelo://app?vid=8563fecb-6fa1-4584-917c-bfac53245b95","ios":"levelo://app?vid=8563fecb-6fa1-4584-917c-bfac53245b95"},"vehicle_type_id":"4","last_reported":1774291078,"current_range_meters":2800,"station_id":"st_d6sm7csbq4hs73f8fpjg","pricing_plan_id":"cebpf4jnsgd1na2vs0mg"},{"bike_id":"70878a12-8f24-4628-8984-70aa684fe4a7","system_id":"levelo_inurba_marseille","lat":43.25485,"lon":5.3765,"is_reserved":false,"is_disabled":false,"rental_uris":{"android":"levelo://app?vid=70878a12-8f24-4628-8984-70aa684fe4a7","ios":"levelo://app?vid=70878a12-8f24-4628-8984-70aa684fe4a7"},"vehicle_type_id":"4","last_reported":1774291078,"current_range_meters":3200,"station_id":"ce4bhh12rcd13ifvqff0","pricing_plan_id":"cebpf4jnsgd1na2vs0mg"},{"bike_id":"ee3ff2c5-8eb9-460a-936f-029a2d3bd45f","system_id":"levelo_inurba_marseille","lat":43.28896,"lon":5.43344,"is_reserved":false,"is_disabled":false,"rental_uris":{"android":"levelo://app?vid=ee3ff2c5-8eb9-460a-936f-029a2d3bd45f","ios":"levelo://app?vid=ee3ff2c5-8eb9-460a-936f-029a2d3bd45f"},"vehicle_type_id":"4","last_reported":1774291078,"current_range_meters":3200,"station_id":"","pricing_plan_id":"cebpf4jnsgd1na2vs0mg"},{"bike_id":"11002bc4-302b-45ea-8526-515148fe0a7c","system_id":"levelo_inurba_marseille","lat":43.23762,"lon":5.39501,"is_reserved":false,"is_disabled":false,"rental_uris":{"android":"levelo://app?vid=11002bc4-302b-45ea-8526-515148fe0a7c","ios":"levelo://app?vid=11002bc4-302b-45ea-8526-515148fe0a7c"},"vehicle_type_id":"4","last_reported":1774291078,"current_range_meters":3200,"station_id":"","pricing_plan_id":"cebpf4jnsgd1na2vs0mg"},{"bike_id":"a299a6df-7eac-484e-a0b7-18ec7c3920f8","system_id":"levelo_inurba_marseille","lat":43.27837,"lon":5.3921,"is_reserved":false,"is_disabled":false,"rental_uris":{"android":"levelo://app?vid=a299a6df-7eac-484e-a0b7-18ec7c3920f8","ios":"levelo://app?vid=a299a6df-7eac-484e-a0b7-18ec7c3920f8"},"vehicle_type_id":"4","last_reported":1774291078,"current_range_meters":3200,"station_id":"ce4bhjp2rcd13ifvqga0","pricing_plan_id":"cebpf4jnsgd1na2vs0mg"},{"bike_id":"af8d2a67-5765-4d25-9890-717868ce4def","system_id":"levelo_inurba_marseille","lat":43.27005,"lon":5.40312,"is_reserved":false,"is_disabled":false,"rental_uris":{"android":"levelo://app?vid=af8d2a67-5765-4d25-9890-717868ce4def","ios":"levelo://app?vid=af8d2a67-5765-4d25-9890-717868ce4def"},"vehicle_type_id":"4","last_reported":1774291078,"current_range_meters":3200,"station_id":"","pricing_plan_id":"cebpf4jnsgd1na2vs0mg"},{"bike_id":"00560f09-8ead-439c-a384-e1807bc0a84c","system_id":"levelo_inurba_marseille","lat":43.28487,"lon":5.48385,"is_reserved":false,"is_disabled":false,"rental_uris":{"android":"levelo://app?vid=00560f09-8ead-439c-a384-e1807bc0a84c","ios":"levelo://app?vid=00560f09-8ead-439c-a384-e1807bc0a84c"},"vehicle_type_id":"4","last_reported":1774291078,"current_range_meters":3200,"station_id":"","pricing_plan_id":"cebpf4jnsgd1na2vs0mg"},{"bike_id":"4848bd9f-6f83-412b-b235-c94d48e82b85","system_id":"levelo_inurba_marseille","lat":43.27204,"lon":5.39171,"is_reserved":false,"is_disabled":false,"rental_uris":{"android":"levelo://app?vid=4848bd9f-6f83-412b-b235-c94d48e82b85","ios":"levelo://app?vid=4848bd9f-6f83-412b-b235-c94d48e82b85"},"vehicle_type_id":"4","last_reported":1774291078,"current_range_meters":3200,"station_id":"ce4bhhp2rcd13ifvqfm0","pricing_plan_id":"cebpf4jnsgd1na2vs0mg"},{"bike_id":"926980e7-6e9b-4c45-a007-9ac0bf89dc56","system_id":"levelo_inurba_marseille","lat":43.31594,"lon":5.44565,"is_reserved":false,"is_disabled":false,"rental_uris":{"android":"levelo://app?vid=926980e7-6e9b-4c45-a007-9ac0bf89dc56","ios":"levelo://app?vid=926980e7-6e9b-4c45-a007-9ac0bf89dc56"},"vehicle_type_id":"4","last_reported":1774291078,"current_range_meters":3200,"station_id":"","pricing_plan_id":"cebpf4jnsgd1na2vs0mg"},{"bike_id":"869bcd45-8716-4f9d-843e-1e77fa12c3d1","system_id":"levelo_inurba_marseille","lat":43.30668,"lon":5.4006,"is_reserved":false,"is_disabled":false,"rental_uris":{"android":"levelo://app?vid=869bcd45-8716-4f9d-843e-1e77fa12c3d1","ios":"levelo://app?vid=869bcd45-8716-4f9d-843e-1e77fa12c3d1"},"vehicle_type_id":"4","last_reported":1774291078,"current_range_meters":3200,"station_id":"ce4bh112rcd13ifvqda0","pricing_plan_id":"cebpf4jnsgd1na2vs0mg"},{"bike_id":"5df1f5a6-4b9e-4c79-a2a6-2866329b1718","system_id":"levelo_inurba_marseille","lat":43.27979,"lon":5.3873,"is_reserved":false,"is_disabled":false,"rental_uris":{"android":"levelo://app?vid=5df1f5a6-4b9e-4c79-a2a6-2866329b1718","ios":"levelo://app?vid=5df1f5a6-4b9e-4c79-a2a6-2866329b1718"},"vehicle_type_id":"4","last_reported":1774291078,"current_range_meters":3200,"station_id":"ce4bhg12rcd13ifvqf80","pricing_plan_id":"cebpf4jnsgd1na2vs0mg"},{"bike_id":"a4d2f8ad-a232-48bb-884e-429b1c058af7","system_id":"levelo_inurba_marseille","lat":43.265686,"lon":5.39007,"is_reserved":false,"is_disabled":false,"rental_uris":{"android":"levelo://app?vid=a4d2f8ad-a232-48bb-884e-429b1c058af7","ios":"levelo://app?vid=a4d2f8ad-a232-48bb-884e-429b1c058af7"},"vehicle_type_id":"4","last_reported":1774291078,"current_range_meters":3200,"station_id":"ce4bhe12rcd13ifvqf30","pricing_plan_id":"cebpf4jnsgd1na2vs0mg"},{"bike_id":"a7ebfabf-1c52-4c20-bd0d-c7200e1ab607","system_id":"levelo_inurba_marseille","lat":43.27911,"lon":5.39578,"is_reserved":false,"is_disabled":false,"rental_uris":{"android":"levelo://app?vid=a7ebfabf-1c52-4c20-bd0d-c7200e1ab607","ios":"levelo://app?vid=a7ebfabf-1c52-4c20-bd0d-c7200e1ab607"},"vehicle_type_id":"4","last_reported":1774291078,"current_range_meters":3200,"station_id":"ce4bhf92rcd13ifvqf40","pricing_plan_id":"cebpf4jnsgd1na2vs0mg"},{"bike_id":"927c24b6-4655-4a96-aed3-54d29860860a","system_id":"levelo_inurba_marseille","lat":43.288489,"lon":5.393167,"is_reserved":false,"is_disabled":false,"rental_uris":{"android":"levelo://app?vid=927c24b6-4655-4a96-aed3-54d29860860a","ios":"levelo://app?vid=927c24b6-4655-4a96-aed3-54d29860860a"},"vehicle_type_id":"4","last_reported":1774291078,"current_range_meters":3200,"station_id":"ce4bh2p2rcd13ifvqdi0","pricing_plan_id":"cebpf4jnsgd1na2vs0mg"},{"bike_id":"acf046c8-4fc8-4ced-9ed5-1ee4a58a1236","system_id":"levelo_inurba_marseille","lat":43.31175,"lon":5.38709,"is_reserved":false,"is_disabled":false,"rental_uris":{"android":"levelo://app?vid=acf046c8-4fc8-4ced-9ed5-1ee4a58a1236","ios":"levelo://app?vid=acf046c8-4fc8-4ced-9ed5-1ee4a58a1236"},"vehicle_type_id":"4","last_reported":1774291078,"current_range_meters":3600,"station_id":"ce4bgv12rcd13ifvqcp0","pricing_plan_id":"cebpf4jnsgd1na2vs0mg"},{"bike_id":"e7e155ca-02af-4771-a637-8da81c4eeeb4","system_id":"levelo_inurba_marseille","lat":43.29539,"lon":5.38545,"is_reserved":false,"is_disabled":false,"rental_uris":{"android":"levelo://app?vid=e7e155ca-02af-4771-a637-8da81c4eeeb4","ios":"levelo://app?vid=e7e155ca-02af-4771-a637-8da81c4eeeb4"},"vehicle_type_id":"4","last_reported":1774291078,"current_range_meters":3600,"station_id":"ce4bgih2rcd13ifvqba0","pricing_plan_id":"cebpf4jnsgd1na2vs0mg"},{"bike_id":"0e118711-8af9-4c1f-a344-77af089c2198","system_id":"levelo_inurba_marseille","lat":43.29239,"lon":5.40914,"is_reserved":false,"is_disabled":false,"rental_uris":{"android":"levelo://app?vid=0e118711-8af9-4c1f-a344-77af089c2198","ios":"levelo://app?vid=0e118711-8af9-4c1f-a344-77af089c2198"},"vehicle_type_id":"4","last_reported":1774291078,"current_range_meters":3600,"station_id":"ce4bh192rcd13ifvqdc0","pricing_plan_id":"cebpf4jnsgd1na2vs0mg"},{"bike_id":"23f5c0b2-5be0-4d4b-8e55-8c28e7f3c946","system_id":"levelo_inurba_marseille","lat":43.3065,"lon":5.40076,"is_reserved":false,"is_disabled":false,"rental_uris":{"android":"levelo://app?vid=23f5c0b2-5be0-4d4b-8e55-8c28e7f3c946","ios":"levelo://app?vid=23f5c0b2-5be0-4d4b-8e55-8c28e7f3c946"},"vehicle_type_id":"4","last_reported":1774291078,"current_range_meters":3600,"station_id":"ce4bh112rcd13ifvqda0","pricing_plan_id":"cebpf4jnsgd1na2vs0mg"},{"bike_id":"493d8214-d631-458f-840b-53fb457d301f","system_id":"levelo_inurba_marseille","lat":43.262043,"lon":5.379349,"is_reserved":false,"is_disabled":false,"rental_uris":{"android":"levelo://app?vid=493d8214-d631-458f-840b-53fb457d301f","ios":"levelo://app?vid=493d8214-d631-458f-840b-53fb457d301f"},"vehicle_type_id":"4","last_reported":1774291078,"current_range_meters":3600,"station_id":"ce4bhjp2rcd13ifvqg90","pricing_plan_id":"cebpf4jnsgd1na2vs0mg"},{"bike_id":"a7ef863b-cab8-42e9-b85f-6f95b77e21f8","system_id":"levelo_inurba_marseille","lat":43.25505,"lon":5.3766,"is_reserved":false,"is_disabled":false,"rental_uris":{"android":"levelo://app?vid=a7ef863b-cab8-42e9-b85f-6f95b77e21f8","ios":"levelo://app?vid=a7ef863b-cab8-42e9-b85f-6f95b77e21f8"},"vehicle_type_id":"4","last_reported":1774291078,"current_range_meters":3600,"station_id":"ce4bhh12rcd13ifvqff0","pricing_plan_id":"cebpf4jnsgd1na2vs0mg"},{"bike_id":"84e20d23-ebe8-4160-9edf-cbfe4960b8d6","system_id":"levelo_inurba_marseille","lat":43.29972,"lon":5.38495,"is_reserved":false,"is_disabled":false,"rental_uris":{"android":"levelo://app?vid=84e20d23-ebe8-4160-9edf-cbfe4960b8d6","ios":"levelo://app?vid=84e20d23-ebe8-4160-9edf-cbfe4960b8d6"},"vehicle_type_id":"4","last_reported":1774291078,"current_range_meters":3600,"station_id":"ce4bgj92rcd13ifvqbd0","pricing_plan_id":"cebpf4jnsgd1na2vs0mg"},{"bike_id":"a9f43fc6-64a8-45ff-8479-8665abac3d89","system_id":"levelo_inurba_marseille","lat":43.28457,"lon":5.35891,"is_reserved":false,"is_disabled":false,"rental_uris":{"android":"levelo://app?vid=a9f43fc6-64a8-45ff-8479-8665abac3d89","ios":"levelo://app?vid=a9f43fc6-64a8-45ff-8479-8665abac3d89"},"vehicle_type_id":"4","last_reported":1774291078,"current_range_meters":3600,"station_id":"ce4bhah2rcd13ifvqei0","pricing_plan_id":"cebpf4jnsgd1na2vs0mg"},{"bike_id":"2f7bef34-a212-43ab-8404-1b5e002251b5","system_id":"levelo_inurba_marseille","lat":43.28946,"lon":5.364,"is_reserved":false,"is_disabled":false,"rental_uris":{"android":"levelo://app?vid=2f7bef34-a212-43ab-8404-1b5e002251b5","ios":"levelo://app?vid=2f7bef34-a212-43ab-8404-1b5e002251b5"},"vehicle_type_id":"4","last_reported":1774291078,"current_range_meters":3600,"station_id":"ce4bhc92rcd13ifvqetg","pricing_plan_id":"cebpf4jnsgd1na2vs0mg"},{"bike_id":"eb819132-961a-4bd8-8ef3-7c138e94ba50","system_id":"levelo_inurba_marseille","lat":43.27568,"lon":5.38412,"is_reserved":false,"is_disabled":false,"rental_uris":{"android":"levelo://app?vid=eb819132-961a-4bd8-8ef3-7c138e94ba50","ios":"levelo://app?vid=eb819132-961a-4bd8-8ef3-7c138e94ba50"},"vehicle_type_id":"4","last_reported":1774291078,"current_range_meters":4000,"station_id":"ce4bhh92rcd13ifvqfi0","pricing_plan_id":"cebpf4jnsgd1na2vs0mg"},{"bike_id":"1a1a7c55-ee9f-457e-9d2b-7662e3b1f44b","system_id":"levelo_inurba_marseille","lat":43.24634,"lon":5.43495,"is_reserved":false,"is_disabled":true,"rental_uris":{"android":"levelo://app?vid=1a1a7c55-ee9f-457e-9d2b-7662e3b1f44b","ios":"levelo://app?vid=1a1a7c55-ee9f-457e-9d2b-7662e3b1f44b"},"vehicle_type_id":"4","last_reported":1774291078,"current_range_meters":4000,"station_id":"","pricing_plan_id":"cebpf4jnsgd1na2vs0mg"},{"bike_id":"b23e52e9-a876-459e-8724-e0215296ea00","system_id":"levelo_inurba_marseille","lat":43.28482,"lon":5.48393,"is_reserved":false,"is_disabled":true,"rental_uris":{"android":"levelo://app?vid=b23e52e9-a876-459e-8724-e0215296ea00","ios":"levelo://app?vid=b23e52e9-a876-459e-8724-e0215296ea00"},"vehicle_type_id":"4","last_reported":1774291078,"current_range_meters":4000,"station_id":"","pricing_plan_id":"cebpf4jnsgd1na2vs0mg"},{"bike_id":"11d0ccd8-d319-4f91-93e5-40707a0e162a","system_id":"levelo_inurba_marseille","lat":43.28445,"lon":5.35897,"is_reserved":false,"is_disabled":false,"rental_uris":{"android":"levelo://app?vid=11d0ccd8-d319-4f91-93e5-40707a0e162a","ios":"levelo://app?vid=11d0ccd8-d319-4f91-93e5-40707a0e162a"},"vehicle_type_id":"4","last_reported":1774291078,"current_range_meters":4000,"station_id":"ce4bhah2rcd13ifvqei0","pricing_plan_id":"cebpf4jnsgd1na2vs0mg"},{"bike_id":"6a3db8e9-0ed4-4d26-9468-86a6444b6b8b","system_id":"levelo_inurba_marseille","lat":43.28568,"lon":5.39502,"is_reserved":false,"is_disabled":false,"rental_uris":{"android":"levelo://app?vid=6a3db8e9-0ed4-4d26-9468-86a6444b6b8b","ios":"levelo://app?vid=6a3db8e9-0ed4-4d26-9468-86a6444b6b8b"},"vehicle_type_id":"4","last_reported":1774291078,"current_range_meters":4000,"station_id":"ce4bh292rcd13ifvqdg0","pricing_plan_id":"cebpf4jnsgd1na2vs0mg"},{"bike_id":"5a3d3df4-d923-46fc-bdfe-9820e3b28092","system_id":"levelo_inurba_marseille","lat":43.27341,"lon":5.39084,"is_reserved":false,"is_disabled":true,"rental_uris":{"android":"levelo://app?vid=5a3d3df4-d923-46fc-bdfe-9820e3b28092","ios":"levelo://app?vid=5a3d3df4-d923-46fc-bdfe-9820e3b28092"},"vehicle_type_id":"4","last_reported":1774291078,"current_range_meters":4000,"station_id":"ce4bhgp2rcd13ifvqfe0","pricing_plan_id":"cebpf4jnsgd1na2vs0mg"},{"bike_id":"c5af48bc-cee7-4dcc-b8b2-46a8803e10ed","system_id":"levelo_inurba_marseille","lat":43.2781,"lon":5.40706,"is_reserved":false,"is_disabled":false,"rental_uris":{"android":"levelo://app?vid=c5af48bc-cee7-4dcc-b8b2-46a8803e10ed","ios":"levelo://app?vid=c5af48bc-cee7-4dcc-b8b2-46a8803e10ed"},"vehicle_type_id":"4","last_reported":1774291078,"current_range_meters":4000,"station_id":"ce4bhnh2rcd13ifvqgtg","pricing_plan_id":"cebpf4jnsgd1na2vs0mg"},{"bike_id":"f5817187-44cb-46f8-92f4-6a1040ec1adf","system_id":"levelo_inurba_marseille","lat":43.26483,"lon":5.39553,"is_reserved":false,"is_disabled":false,"rental_uris":{"android":"levelo://app?vid=f5817187-44cb-46f8-92f4-6a1040ec1adf","ios":"levelo://app?vid=f5817187-44cb-46f8-92f4-6a1040ec1adf"},"vehicle_type_id":"4","last_reported":1774291078,"current_range_meters":4000,"station_id":"ce4bhi12rcd13ifvqfq0","pricing_plan_id":"cebpf4jnsgd1na2vs0mg"},{"bike_id":"8c198a30-0de0-4086-aa29-21cb05f0cd90","system_id":"levelo_inurba_marseille","lat":43.25141,"lon":5.40495,"is_reserved":false,"is_disabled":false,"rental_uris":{"android":"levelo://app?vid=8c198a30-0de0-4086-aa29-21cb05f0cd90","ios":"levelo://app?vid=8c198a30-0de0-4086-aa29-21cb05f0cd90"},"vehicle_type_id":"4","last_reported":1774291078,"current_range_meters":4000,"station_id":"","pricing_plan_id":"cebpf4jnsgd1na2vs0mg"},{"bike_id":"fa87ce26-5306-414f-98c9-1e3509ad90c0","system_id":"levelo_inurba_marseille","lat":43.24648,"lon":5.39295,"is_reserved":false,"is_disabled":false,"rental_uris":{"android":"levelo://app?vid=fa87ce26-5306-414f-98c9-1e3509ad90c0","ios":"levelo://app?vid=fa87ce26-5306-414f-98c9-1e3509ad90c0"},"vehicle_type_id":"4","last_reported":1774291078,"current_range_meters":4000,"station_id":"","pricing_plan_id":"cebpf4jnsgd1na2vs0mg"},{"bike_id":"f34dc19a-25c4-490b-b36b-67fa8c649bfe","system_id":"levelo_inurba_marseille","lat":43.30963,"lon":5.37547,"is_reserved":false,"is_disabled":false,"rental_uris":{"android":"levelo://app?vid=f34dc19a-25c4-490b-b36b-67fa8c649bfe","ios":"levelo://app?vid=f34dc19a-25c4-490b-b36b-67fa8c649bfe"},"vehicle_type_id":"4","last_reported":1774291078,"current_range_meters":4000,"station_id":"","pricing_plan_id":"cebpf4jnsgd1na2vs0mg"},{"bike_id":"1bd26c40-f793-4863-87af-5cc8aa2dc20e","system_id":"levelo_inurba_marseille","lat":43.29755,"lon":5.37242,"is_reserved":false,"is_disabled":false,"rental_uris":{"android":"levelo://app?vid=1bd26c40-f793-4863-87af-5cc8aa2dc20e","ios":"levelo://app?vid=1bd26c40-f793-4863-87af-5cc8aa2dc20e"},"vehicle_type_id":"4","last_reported":1774291078,"current_range_meters":4000,"station_id":"","pricing_plan_id":"cebpf4jnsgd1na2vs0mg"},{"bike_id":"c2e01e65-80ed-45ae-b328-541fb2ac74f5","system_id":"levelo_inurba_marseille","lat":43.21197,"lon":5.35071,"is_reserved":false,"is_disabled":false,"rental_uris":{"android":"levelo://app?vid=c2e01e65-80ed-45ae-b328-541fb2ac74f5","ios":"levelo://app?vid=c2e01e65-80ed-45ae-b328-541fb2ac74f5"},"vehicle_type_id":"4","last_reported":1774291078,"current_range_meters":4000,"station_id":"st_cvj6sg6p6f1abm77japg","pricing_plan_id":"cebpf4jnsgd1na2vs0mg"},{"bike_id":"96d19c7a-cddc-421b-8245-8896f9ca8560","system_id":"levelo_inurba_marseille","lat":43.30534,"lon":5.38435,"is_reserved":false,"is_disabled":false,"rental_uris":{"android":"levelo://app?vid=96d19c7a-cddc-421b-8245-8896f9ca8560","ios":"levelo://app?vid=96d19c7a-cddc-421b-8245-8896f9ca8560"},"vehicle_type_id":"4","last_reported":1774291078,"current_range_meters":4400,"station_id":"ce4bgg92rcd13ifvqb30","pricing_plan_id":"cebpf4jnsgd1na2vs0mg"},{"bike_id":"58a4b0d7-f43b-449e-8d2e-e05a79e437e2","system_id":"levelo_inurba_marseille","lat":43.292609,"lon":5.376234,"is_reserved":false,"is_disabled":false,"rental_uris":{"android":"levelo://app?vid=58a4b0d7-f43b-449e-8d2e-e05a79e437e2","ios":"levelo://app?vid=58a4b0d7-f43b-449e-8d2e-e05a79e437e2"},"vehicle_type_id":"4","last_reported":1774291078,"current_range_meters":4400,"station_id":"","pricing_plan_id":"cebpf4jnsgd1na2vs0mg"},{"bike_id":"e6d16333-aca6-4874-b7aa-5680ac1a37f3","system_id":"levelo_inurba_marseille","lat":43.27219,"lon":5.40993,"is_reserved":false,"is_disabled":false,"rental_uris":{"android":"levelo://app?vid=e6d16333-aca6-4874-b7aa-5680ac1a37f3","ios":"levelo://app?vid=e6d16333-aca6-4874-b7aa-5680ac1a37f3"},"vehicle_type_id":"4","last_reported":1774291078,"current_range_meters":4400,"station_id":"","pricing_plan_id":"cebpf4jnsgd1na2vs0mg"},{"bike_id":"af97eb7b-89c2-476f-b528-0e975912d52a","system_id":"levelo_inurba_marseille","lat":43.24547,"lon":5.39528,"is_reserved":false,"is_disabled":false,"rental_uris":{"android":"levelo://app?vid=af97eb7b-89c2-476f-b528-0e975912d52a","ios":"levelo://app?vid=af97eb7b-89c2-476f-b528-0e975912d52a"},"vehicle_type_id":"4","last_reported":1774291078,"current_range_meters":4400,"station_id":"ce4bhlp2rcd13ifvqgjg","pricing_plan_id":"cebpf4jnsgd1na2vs0mg"},{"bike_id":"851f7ed5-5327-45e5-a0df-365a30f7491a","system_id":"levelo_inurba_marseille","lat":43.25336,"lon":5.42172,"is_reserved":false,"is_disabled":false,"rental_uris":{"android":"levelo://app?vid=851f7ed5-5327-45e5-a0df-365a30f7491a","ios":"levelo://app?vid=851f7ed5-5327-45e5-a0df-365a30f7491a"},"vehicle_type_id":"4","last_reported":1774291078,"current_range_meters":4400,"station_id":"st_d2m65c5bi1j21697t3ng","pricing_plan_id":"cebpf4jnsgd1na2vs0mg"},{"bike_id":"865b96b6-e98e-46e0-b54c-50dfe88286fd","system_id":"levelo_inurba_marseille","lat":43.2533,"lon":5.42178,"is_reserved":false,"is_disabled":false,"rental_uris":{"android":"levelo://app?vid=865b96b6-e98e-46e0-b54c-50dfe88286fd","ios":"levelo://app?vid=865b96b6-e98e-46e0-b54c-50dfe88286fd"},"vehicle_type_id":"4","last_reported":1774291078,"current_range_meters":4400,"station_id":"st_d2m65c5bi1j21697t3ng","pricing_plan_id":"cebpf4jnsgd1na2vs0mg"},{"bike_id":"e4c9b34d-4ef0-40af-a53b-1d11841b4d3c","system_id":"levelo_inurba_marseille","lat":43.313269,"lon":5.396816,"is_reserved":false,"is_disabled":false,"rental_uris":{"android":"levelo://app?vid=e4c9b34d-4ef0-40af-a53b-1d11841b4d3c","ios":"levelo://app?vid=e4c9b34d-4ef0-40af-a53b-1d11841b4d3c"},"vehicle_type_id":"4","last_reported":1774291078,"current_range_meters":4400,"station_id":"ce4bgvp2rcd13ifvqcu0","pricing_plan_id":"cebpf4jnsgd1na2vs0mg"},{"bike_id":"132bb495-74f7-4588-b6f7-7289357e5b5e","system_id":"levelo_inurba_marseille","lat":43.29521,"lon":5.39041,"is_reserved":false,"is_disabled":false,"rental_uris":{"android":"levelo://app?vid=132bb495-74f7-4588-b6f7-7289357e5b5e","ios":"levelo://app?vid=132bb495-74f7-4588-b6f7-7289357e5b5e"},"vehicle_type_id":"4","last_reported":1774291078,"current_range_meters":4400,"station_id":"ce4bh3p2rcd13ifvqdp0","pricing_plan_id":"cebpf4jnsgd1na2vs0mg"},{"bike_id":"b7ba0e58-bef0-47a7-bd3b-64bf72ecf131","system_id":"levelo_inurba_marseille","lat":43.3298,"lon":5.36671,"is_reserved":false,"is_disabled":false,"rental_uris":{"android":"levelo://app?vid=b7ba0e58-bef0-47a7-bd3b-64bf72ecf131","ios":"levelo://app?vid=b7ba0e58-bef0-47a7-bd3b-64bf72ecf131"},"vehicle_type_id":"4","last_reported":1774291078,"current_range_meters":4400,"station_id":"","pricing_plan_id":"cebpf4jnsgd1na2vs0mg"},{"bike_id":"445ebebe-cf54-4ac8-bc4b-1d7288a1a467","system_id":"levelo_inurba_marseille","lat":43.29211,"lon":5.36084,"is_reserved":false,"is_disabled":false,"rental_uris":{"android":"levelo://app?vid=445ebebe-cf54-4ac8-bc4b-1d7288a1a467","ios":"levelo://app?vid=445ebebe-cf54-4ac8-bc4b-1d7288a1a467"},"vehicle_type_id":"4","last_reported":1774291078,"current_range_meters":4800,"station_id":"ce4bhbh2rcd13ifvqeqg","pricing_plan_id":"cebpf4jnsgd1na2vs0mg"},{"bike_id":"9453e579-87d8-475b-9a7d-0c3671abf86b","system_id":"levelo_inurba_marseille","lat":43.32106,"lon":5.36763,"is_reserved":false,"is_disabled":false,"rental_uris":{"android":"levelo://app?vid=9453e579-87d8-475b-9a7d-0c3671abf86b","ios":"levelo://app?vid=9453e579-87d8-475b-9a7d-0c3671abf86b"},"vehicle_type_id":"4","last_reported":1774291078,"current_range_meters":4800,"station_id":"ce4bhrh2rcd13ifvqhug","pricing_plan_id":"cebpf4jnsgd1na2vs0mg"},{"bike_id":"20cb9ef6-bd8d-4422-b04b-f7c63176016d","system_id":"levelo_inurba_marseille","lat":43.29265,"lon":5.38435,"is_reserved":false,"is_disabled":false,"rental_uris":{"android":"levelo://app?vid=20cb9ef6-bd8d-4422-b04b-f7c63176016d","ios":"levelo://app?vid=20cb9ef6-bd8d-4422-b04b-f7c63176016d"},"vehicle_type_id":"4","last_reported":1774291078,"current_range_meters":4800,"station_id":"ce4bh692rcd13ifvqea0","pricing_plan_id":"cebpf4jnsgd1na2vs0mg"},{"bike_id":"d40d8eca-f119-4060-8aff-fc44cc2f2fee","system_id":"levelo_inurba_marseille","lat":43.25088,"lon":5.39516,"is_reserved":false,"is_disabled":false,"rental_uris":{"android":"levelo://app?vid=d40d8eca-f119-4060-8aff-fc44cc2f2fee","ios":"levelo://app?vid=d40d8eca-f119-4060-8aff-fc44cc2f2fee"},"vehicle_type_id":"4","last_reported":1774291078,"current_range_meters":4800,"station_id":"ce4bhm12rcd13ifvqgkg","pricing_plan_id":"cebpf4jnsgd1na2vs0mg"},{"bike_id":"7b45e91f-c3c9-4ba9-87db-c8c6037a7491","system_id":"levelo_inurba_marseille","lat":43.31319,"lon":5.39696,"is_reserved":false,"is_disabled":false,"rental_uris":{"android":"levelo://app?vid=7b45e91f-c3c9-4ba9-87db-c8c6037a7491","ios":"levelo://app?vid=7b45e91f-c3c9-4ba9-87db-c8c6037a7491"},"vehicle_type_id":"4","last_reported":1774291078,"current_range_meters":4800,"station_id":"ce4bgvp2rcd13ifvqcu0","pricing_plan_id":"cebpf4jnsgd1na2vs0mg"},{"bike_id":"69a34fac-fc80-43dc-bb66-91eee3bdfb90","system_id":"levelo_inurba_marseille","lat":43.28764,"lon":5.35332,"is_reserved":false,"is_disabled":false,"rental_uris":{"android":"levelo://app?vid=69a34fac-fc80-43dc-bb66-91eee3bdfb90","ios":"levelo://app?vid=69a34fac-fc80-43dc-bb66-91eee3bdfb90"},"vehicle_type_id":"4","last_reported":1774291078,"current_range_meters":4800,"station_id":"","pricing_plan_id":"cebpf4jnsgd1na2vs0mg"},{"bike_id":"abd3afb9-4326-45d9-8e47-0e339280e129","system_id":"levelo_inurba_marseille","lat":43.2534,"lon":5.42185,"is_reserved":false,"is_disabled":false,"rental_uris":{"android":"levelo://app?vid=abd3afb9-4326-45d9-8e47-0e339280e129","ios":"levelo://app?vid=abd3afb9-4326-45d9-8e47-0e339280e129"},"vehicle_type_id":"4","last_reported":1774291078,"current_range_meters":4800,"station_id":"st_d2m65c5bi1j21697t3ng","pricing_plan_id":"cebpf4jnsgd1na2vs0mg"},{"bike_id":"6f3fdbf9-917f-421d-aa86-02187d7ba65c","system_id":"levelo_inurba_marseille","lat":43.28476,"lon":5.48399,"is_reserved":false,"is_disabled":false,"rental_uris":{"android":"levelo://app?vid=6f3fdbf9-917f-421d-aa86-02187d7ba65c","ios":"levelo://app?vid=6f3fdbf9-917f-421d-aa86-02187d7ba65c"},"vehicle_type_id":"4","last_reported":1774291078,"current_range_meters":4800,"station_id":"st_d3svhcjqgbts73a3dn0g","pricing_plan_id":"cebpf4jnsgd1na2vs0mg"},{"bike_id":"d311084a-0c90-4db7-af70-a74fadd4b09c","system_id":"levelo_inurba_marseille","lat":43.29967,"lon":5.38507,"is_reserved":false,"is_disabled":false,"rental_uris":{"android":"levelo://app?vid=d311084a-0c90-4db7-af70-a74fadd4b09c","ios":"levelo://app?vid=d311084a-0c90-4db7-af70-a74fadd4b09c"},"vehicle_type_id":"4","last_reported":1774291078,"current_range_meters":4800,"station_id":"ce4bgj92rcd13ifvqbd0","pricing_plan_id":"cebpf4jnsgd1na2vs0mg"},{"bike_id":"0cbff5b5-883d-4539-b5c3-a008b6f5ac33","system_id":"levelo_inurba_marseille","lat":43.31179,"lon":5.3871,"is_reserved":false,"is_disabled":false,"rental_uris":{"android":"levelo://app?vid=0cbff5b5-883d-4539-b5c3-a008b6f5ac33","ios":"levelo://app?vid=0cbff5b5-883d-4539-b5c3-a008b6f5ac33"},"vehicle_type_id":"4","last_reported":1774291078,"current_range_meters":4800,"station_id":"ce4bgv12rcd13ifvqcp0","pricing_plan_id":"cebpf4jnsgd1na2vs0mg"},{"bike_id":"4434b08c-209b-4165-9f8d-592d50e648f4","system_id":"levelo_inurba_marseille","lat":43.26565,"lon":5.3901,"is_reserved":false,"is_disabled":false,"rental_uris":{"android":"levelo://app?vid=4434b08c-209b-4165-9f8d-592d50e648f4","ios":"levelo://app?vid=4434b08c-209b-4165-9f8d-592d50e648f4"},"vehicle_type_id":"4","last_reported":1774291078,"current_range_meters":4800,"station_id":"ce4bhe12rcd13ifvqf30","pricing_plan_id":"cebpf4jnsgd1na2vs0mg"},{"bike_id":"f9c57d50-832a-477c-9c7f-1e7c12d972b0","system_id":"levelo_inurba_marseille","lat":43.25107,"lon":5.39508,"is_reserved":false,"is_disabled":true,"rental_uris":{"android":"levelo://app?vid=f9c57d50-832a-477c-9c7f-1e7c12d972b0","ios":"levelo://app?vid=f9c57d50-832a-477c-9c7f-1e7c12d972b0"},"vehicle_type_id":"4","last_reported":1774291078,"current_range_meters":5600,"station_id":"ce4bhm12rcd13ifvqgkg","pricing_plan_id":"cebpf4jnsgd1na2vs0mg"},{"bike_id":"3fecfc73-a789-48b9-b076-a2713a72cd54","system_id":"levelo_inurba_marseille","lat":43.29027,"lon":5.38638,"is_reserved":false,"is_disabled":false,"rental_uris":{"android":"levelo://app?vid=3fecfc73-a789-48b9-b076-a2713a72cd54","ios":"levelo://app?vid=3fecfc73-a789-48b9-b076-a2713a72cd54"},"vehicle_type_id":"4","last_reported":1774291078,"current_range_meters":5600,"station_id":"ce4bh4p2rcd13ifvqe0g","pricing_plan_id":"cebpf4jnsgd1na2vs0mg"},{"bike_id":"47b8ae16-a581-4cf5-8d60-49dfcb9f622c","system_id":"levelo_inurba_marseille","lat":43.255,"lon":5.37651,"is_reserved":false,"is_disabled":false,"rental_uris":{"android":"levelo://app?vid=47b8ae16-a581-4cf5-8d60-49dfcb9f622c","ios":"levelo://app?vid=47b8ae16-a581-4cf5-8d60-49dfcb9f622c"},"vehicle_type_id":"4","last_reported":1774291078,"current_range_meters":5600,"station_id":"ce4bhh12rcd13ifvqff0","pricing_plan_id":"cebpf4jnsgd1na2vs0mg"},{"bike_id":"ef8f663b-0075-416a-88fe-1fde798c71ff","system_id":"levelo_inurba_marseille","lat":43.23385,"lon":5.41247,"is_reserved":false,"is_disabled":false,"rental_uris":{"android":"levelo://app?vid=ef8f663b-0075-416a-88fe-1fde798c71ff","ios":"levelo://app?vid=ef8f663b-0075-416a-88fe-1fde798c71ff"},"vehicle_type_id":"4","last_reported":1774291078,"current_range_meters":5600,"station_id":"","pricing_plan_id":"cebpf4jnsgd1na2vs0mg"},{"bike_id":"de73c310-f5b2-40f5-b1ca-fa0887319316","system_id":"levelo_inurba_marseille","lat":43.32994,"lon":5.39095,"is_reserved":false,"is_disabled":false,"rental_uris":{"android":"levelo://app?vid=de73c310-f5b2-40f5-b1ca-fa0887319316","ios":"levelo://app?vid=de73c310-f5b2-40f5-b1ca-fa0887319316"},"vehicle_type_id":"4","last_reported":1774291078,"current_range_meters":5600,"station_id":"ce4bhr92rcd13ifvqhrg","pricing_plan_id":"cebpf4jnsgd1na2vs0mg"},{"bike_id":"1e3f7007-bbd6-42ff-ae1c-30087c320846","system_id":"levelo_inurba_marseille","lat":43.25045,"lon":5.39751,"is_reserved":false,"is_disabled":false,"rental_uris":{"android":"levelo://app?vid=1e3f7007-bbd6-42ff-ae1c-30087c320846","ios":"levelo://app?vid=1e3f7007-bbd6-42ff-ae1c-30087c320846"},"vehicle_type_id":"4","last_reported":1774291078,"current_range_meters":5600,"station_id":"","pricing_plan_id":"cebpf4jnsgd1na2vs0mg"},{"bike_id":"0cb0d6c1-4976-4a2a-83bd-d257f9b2f0f7","system_id":"levelo_inurba_marseille","lat":43.29973,"lon":5.38501,"is_reserved":false,"is_disabled":false,"rental_uris":{"android":"levelo://app?vid=0cb0d6c1-4976-4a2a-83bd-d257f9b2f0f7","ios":"levelo://app?vid=0cb0d6c1-4976-4a2a-83bd-d257f9b2f0f7"},"vehicle_type_id":"4","last_reported":1774291078,"current_range_meters":5600,"station_id":"ce4bgj92rcd13ifvqbd0","pricing_plan_id":"cebpf4jnsgd1na2vs0mg"},{"bike_id":"db5b68bd-19f6-4e52-b6c2-e07fb4e016e1","system_id":"levelo_inurba_marseille","lat":43.2657,"lon":5.39005,"is_reserved":false,"is_disabled":false,"rental_uris":{"android":"levelo://app?vid=db5b68bd-19f6-4e52-b6c2-e07fb4e016e1","ios":"levelo://app?vid=db5b68bd-19f6-4e52-b6c2-e07fb4e016e1"},"vehicle_type_id":"4","last_reported":1774291078,"current_range_meters":5600,"station_id":"ce4bhe12rcd13ifvqf30","pricing_plan_id":"cebpf4jnsgd1na2vs0mg"},{"bike_id":"a7fc8bc2-4e73-49fe-9501-65668a8c443b","system_id":"levelo_inurba_marseille","lat":43.30788,"lon":5.38147,"is_reserved":false,"is_disabled":false,"rental_uris":{"android":"levelo://app?vid=a7fc8bc2-4e73-49fe-9501-65668a8c443b","ios":"levelo://app?vid=a7fc8bc2-4e73-49fe-9501-65668a8c443b"},"vehicle_type_id":"4","last_reported":1774291078,"current_range_meters":6000,"station_id":"ce4bgt12rcd13ifvqce0","pricing_plan_id":"cebpf4jnsgd1na2vs0mg"},{"bike_id":"7d0e7181-3a70-4370-9354-bef3948a92c8","system_id":"levelo_inurba_marseille","lat":43.29959,"lon":5.41327,"is_reserved":false,"is_disabled":false,"rental_uris":{"android":"levelo://app?vid=7d0e7181-3a70-4370-9354-bef3948a92c8","ios":"levelo://app?vid=7d0e7181-3a70-4370-9354-bef3948a92c8"},"vehicle_type_id":"4","last_reported":1774291078,"current_range_meters":6000,"station_id":"ce4bhp12rcd13ifvqh9g","pricing_plan_id":"cebpf4jnsgd1na2vs0mg"},{"bike_id":"51dd33b1-2e45-4e66-bcc7-fafdf552582a","system_id":"levelo_inurba_marseille","lat":43.29012,"lon":5.38132,"is_reserved":false,"is_disabled":false,"rental_uris":{"android":"levelo://app?vid=51dd33b1-2e45-4e66-bcc7-fafdf552582a","ios":"levelo://app?vid=51dd33b1-2e45-4e66-bcc7-fafdf552582a"},"vehicle_type_id":"4","last_reported":1774291078,"current_range_meters":6000,"station_id":"ce4bh4p2rcd13ifvqe1g","pricing_plan_id":"cebpf4jnsgd1na2vs0mg"},{"bike_id":"8310aa65-ac67-4592-b812-f63970cb0af3","system_id":"levelo_inurba_marseille","lat":43.32109,"lon":5.36768,"is_reserved":false,"is_disabled":false,"rental_uris":{"android":"levelo://app?vid=8310aa65-ac67-4592-b812-f63970cb0af3","ios":"levelo://app?vid=8310aa65-ac67-4592-b812-f63970cb0af3"},"vehicle_type_id":"4","last_reported":1774291078,"current_range_meters":6000,"station_id":"ce4bhrh2rcd13ifvqhug","pricing_plan_id":"cebpf4jnsgd1na2vs0mg"},{"bike_id":"0f88d6b7-883f-4b13-98ff-b1b3b7d422a5","system_id":"levelo_inurba_marseille","lat":43.2592,"lon":5.40897,"is_reserved":false,"is_disabled":true,"rental_uris":{"android":"levelo://app?vid=0f88d6b7-883f-4b13-98ff-b1b3b7d422a5","ios":"levelo://app?vid=0f88d6b7-883f-4b13-98ff-b1b3b7d422a5"},"vehicle_type_id":"4","last_reported":1774291078,"current_range_meters":6000,"station_id":"ce4bhm92rcd13ifvqglg","pricing_plan_id":"cebpf4jnsgd1na2vs0mg"},{"bike_id":"4399c2a6-3968-44d1-b3c2-99046f0e6df7","system_id":"levelo_inurba_marseille","lat":43.29941,"lon":5.36534,"is_reserved":false,"is_disabled":false,"rental_uris":{"android":"levelo://app?vid=4399c2a6-3968-44d1-b3c2-99046f0e6df7","ios":"levelo://app?vid=4399c2a6-3968-44d1-b3c2-99046f0e6df7"},"vehicle_type_id":"4","last_reported":1774291078,"current_range_meters":6000,"station_id":"ce4bgm92rcd13ifvqbr0","pricing_plan_id":"cebpf4jnsgd1na2vs0mg"},{"bike_id":"462a1cdd-980f-4d75-accd-0f62886214c9","system_id":"levelo_inurba_marseille","lat":43.282,"lon":5.40828,"is_reserved":false,"is_disabled":false,"rental_uris":{"android":"levelo://app?vid=462a1cdd-980f-4d75-accd-0f62886214c9","ios":"levelo://app?vid=462a1cdd-980f-4d75-accd-0f62886214c9"},"vehicle_type_id":"4","last_reported":1774291078,"current_range_meters":6000,"station_id":"","pricing_plan_id":"cebpf4jnsgd1na2vs0mg"},{"bike_id":"9be35987-805d-4aab-a951-55292d8c9d92","system_id":"levelo_inurba_marseille","lat":43.31714,"lon":5.43709,"is_reserved":false,"is_disabled":false,"rental_uris":{"android":"levelo://app?vid=9be35987-805d-4aab-a951-55292d8c9d92","ios":"levelo://app?vid=9be35987-805d-4aab-a951-55292d8c9d92"},"vehicle_type_id":"4","last_reported":1774291078,"current_range_meters":6400,"station_id":"ce4bhp92rcd13ifvqhcg","pricing_plan_id":"cebpf4jnsgd1na2vs0mg"},{"bike_id":"e75c1bb8-5299-4c37-bc34-d7db2366344b","system_id":"levelo_inurba_marseille","lat":43.29253,"lon":5.40904,"is_reserved":false,"is_disabled":false,"rental_uris":{"android":"levelo://app?vid=e75c1bb8-5299-4c37-bc34-d7db2366344b","ios":"levelo://app?vid=e75c1bb8-5299-4c37-bc34-d7db2366344b"},"vehicle_type_id":"4","last_reported":1774291078,"current_range_meters":6400,"station_id":"ce4bh192rcd13ifvqdc0","pricing_plan_id":"cebpf4jnsgd1na2vs0mg"},{"bike_id":"f9097267-075b-4171-8934-a217e1a9fffd","system_id":"levelo_inurba_marseille","lat":43.28178,"lon":5.4268,"is_reserved":false,"is_disabled":false,"rental_uris":{"android":"levelo://app?vid=f9097267-075b-4171-8934-a217e1a9fffd","ios":"levelo://app?vid=f9097267-075b-4171-8934-a217e1a9fffd"},"vehicle_type_id":"4","last_reported":1774291078,"current_range_meters":6400,"station_id":"ce4bhnh2rcd13ifvqgug","pricing_plan_id":"cebpf4jnsgd1na2vs0mg"},{"bike_id":"d5a0f690-e8c3-48ce-a227-19f70b78161d","system_id":"levelo_inurba_marseille","lat":43.29969,"lon":5.38459,"is_reserved":false,"is_disabled":false,"rental_uris":{"android":"levelo://app?vid=d5a0f690-e8c3-48ce-a227-19f70b78161d","ios":"levelo://app?vid=d5a0f690-e8c3-48ce-a227-19f70b78161d"},"vehicle_type_id":"4","last_reported":1774291078,"current_range_meters":6400,"station_id":"ce4bgj92rcd13ifvqbd0","pricing_plan_id":"cebpf4jnsgd1na2vs0mg"},{"bike_id":"eb985356-a5f9-4c87-9e19-2b3bf1aa00a1","system_id":"levelo_inurba_marseille","lat":43.28406,"lon":5.37518,"is_reserved":false,"is_disabled":false,"rental_uris":{"android":"levelo://app?vid=eb985356-a5f9-4c87-9e19-2b3bf1aa00a1","ios":"levelo://app?vid=eb985356-a5f9-4c87-9e19-2b3bf1aa00a1"},"vehicle_type_id":"4","last_reported":1774291078,"current_range_meters":6400,"station_id":"ce4bh412rcd13ifvqds0","pricing_plan_id":"cebpf4jnsgd1na2vs0mg"},{"bike_id":"a9630449-3a98-4b0a-966f-dd8acbc2950a","system_id":"levelo_inurba_marseille","lat":43.28656,"lon":5.3636,"is_reserved":false,"is_disabled":false,"rental_uris":{"android":"levelo://app?vid=a9630449-3a98-4b0a-966f-dd8acbc2950a","ios":"levelo://app?vid=a9630449-3a98-4b0a-966f-dd8acbc2950a"},"vehicle_type_id":"4","last_reported":1774291078,"current_range_meters":6400,"station_id":"ce4bhah2rcd13ifvqej0","pricing_plan_id":"cebpf4jnsgd1na2vs0mg"},{"bike_id":"2878fb2e-f4ec-433a-a5d2-cccc4f190f08","system_id":"levelo_inurba_marseille","lat":43.28109,"lon":5.37833,"is_reserved":false,"is_disabled":false,"rental_uris":{"android":"levelo://app?vid=2878fb2e-f4ec-433a-a5d2-cccc4f190f08","ios":"levelo://app?vid=2878fb2e-f4ec-433a-a5d2-cccc4f190f08"},"vehicle_type_id":"4","last_reported":1774291078,"current_range_meters":6400,"station_id":"ce4bha12rcd13ifvqee0","pricing_plan_id":"cebpf4jnsgd1na2vs0mg"},{"bike_id":"d74f0d50-c24b-42f6-87ab-68385e5549ba","system_id":"levelo_inurba_marseille","lat":43.31713,"lon":5.37739,"is_reserved":false,"is_disabled":false,"rental_uris":{"android":"levelo://app?vid=d74f0d50-c24b-42f6-87ab-68385e5549ba","ios":"levelo://app?vid=d74f0d50-c24b-42f6-87ab-68385e5549ba"},"vehicle_type_id":"4","last_reported":1774291078,"current_range_meters":6400,"station_id":"ce4bgth2rcd13ifvqch0","pricing_plan_id":"cebpf4jnsgd1na2vs0mg"},{"bike_id":"1e531256-5a75-45e5-b8c5-3002b9129851","system_id":"levelo_inurba_marseille","lat":43.29534,"lon":5.38549,"is_reserved":false,"is_disabled":false,"rental_uris":{"android":"levelo://app?vid=1e531256-5a75-45e5-b8c5-3002b9129851","ios":"levelo://app?vid=1e531256-5a75-45e5-b8c5-3002b9129851"},"vehicle_type_id":"4","last_reported":1774291078,"current_range_meters":6400,"station_id":"ce4bgih2rcd13ifvqba0","pricing_plan_id":"cebpf4jnsgd1na2vs0mg"},{"bike_id":"19816687-f443-4a5d-b7aa-e3cfd2cb0259","system_id":"levelo_inurba_marseille","lat":43.31464,"lon":5.44549,"is_reserved":false,"is_disabled":false,"rental_uris":{"android":"levelo://app?vid=19816687-f443-4a5d-b7aa-e3cfd2cb0259","ios":"levelo://app?vid=19816687-f443-4a5d-b7aa-e3cfd2cb0259"},"vehicle_type_id":"4","last_reported":1774291078,"current_range_meters":6800,"station_id":"","pricing_plan_id":"cebpf4jnsgd1na2vs0mg"},{"bike_id":"a28c12fc-edef-4a9a-a72e-baf935345a4e","system_id":"levelo_inurba_marseille","lat":43.28672,"lon":5.37354,"is_reserved":false,"is_disabled":false,"rental_uris":{"android":"levelo://app?vid=a28c12fc-edef-4a9a-a72e-baf935345a4e","ios":"levelo://app?vid=a28c12fc-edef-4a9a-a72e-baf935345a4e"},"vehicle_type_id":"4","last_reported":1774291078,"current_range_meters":6800,"station_id":"ce4bh3p2rcd13ifvqdq0","pricing_plan_id":"cebpf4jnsgd1na2vs0mg"},{"bike_id":"4bc91efc-5348-4dd5-84c0-807354869870","system_id":"levelo_inurba_marseille","lat":43.27804,"lon":5.40721,"is_reserved":false,"is_disabled":false,"rental_uris":{"android":"levelo://app?vid=4bc91efc-5348-4dd5-84c0-807354869870","ios":"levelo://app?vid=4bc91efc-5348-4dd5-84c0-807354869870"},"vehicle_type_id":"4","last_reported":1774291078,"current_range_meters":6800,"station_id":"ce4bhnh2rcd13ifvqgtg","pricing_plan_id":"cebpf4jnsgd1na2vs0mg"},{"bike_id":"6d8d09fd-043e-40dd-92de-c6d036fa5ea9","system_id":"levelo_inurba_marseille","lat":43.28936,"lon":5.38392,"is_reserved":false,"is_disabled":true,"rental_uris":{"android":"levelo://app?vid=6d8d09fd-043e-40dd-92de-c6d036fa5ea9","ios":"levelo://app?vid=6d8d09fd-043e-40dd-92de-c6d036fa5ea9"},"vehicle_type_id":"4","last_reported":1774291078,"current_range_meters":6800,"station_id":"ce4bh612rcd13ifvqe6g","pricing_plan_id":"cebpf4jnsgd1na2vs0mg"},{"bike_id":"ffb98fb8-da98-43fb-9eac-ddb2ee1141c2","system_id":"levelo_inurba_marseille","lat":43.24639,"lon":5.41649,"is_reserved":false,"is_disabled":false,"rental_uris":{"android":"levelo://app?vid=ffb98fb8-da98-43fb-9eac-ddb2ee1141c2","ios":"levelo://app?vid=ffb98fb8-da98-43fb-9eac-ddb2ee1141c2"},"vehicle_type_id":"4","last_reported":1774291078,"current_range_meters":6800,"station_id":"","pricing_plan_id":"cebpf4jnsgd1na2vs0mg"},{"bike_id":"59c77be4-f85b-4d5b-8fb2-81481ccedada","system_id":"levelo_inurba_marseille","lat":43.28315,"lon":5.35106,"is_reserved":false,"is_disabled":false,"rental_uris":{"android":"levelo://app?vid=59c77be4-f85b-4d5b-8fb2-81481ccedada","ios":"levelo://app?vid=59c77be4-f85b-4d5b-8fb2-81481ccedada"},"vehicle_type_id":"4","last_reported":1774291078,"current_range_meters":6800,"station_id":"","pricing_plan_id":"cebpf4jnsgd1na2vs0mg"},{"bike_id":"f554888c-9515-430c-b3e9-327a4cc15db0","system_id":"levelo_inurba_marseille","lat":43.2964,"lon":5.42423,"is_reserved":false,"is_disabled":false,"rental_uris":{"android":"levelo://app?vid=f554888c-9515-430c-b3e9-327a4cc15db0","ios":"levelo://app?vid=f554888c-9515-430c-b3e9-327a4cc15db0"},"vehicle_type_id":"4","last_reported":1774291078,"current_range_meters":6800,"station_id":"","pricing_plan_id":"cebpf4jnsgd1na2vs0mg"},{"bike_id":"11671389-f032-4f03-afee-3773f4418f76","system_id":"levelo_inurba_marseille","lat":43.29057,"lon":5.35883,"is_reserved":false,"is_disabled":false,"rental_uris":{"android":"levelo://app?vid=11671389-f032-4f03-afee-3773f4418f76","ios":"levelo://app?vid=11671389-f032-4f03-afee-3773f4418f76"},"vehicle_type_id":"4","last_reported":1774291078,"current_range_meters":6800,"station_id":"ce4bha92rcd13ifvqeg0","pricing_plan_id":"cebpf4jnsgd1na2vs0mg"},{"bike_id":"1dbf0d05-c74a-4e3d-8283-37bea7208635","system_id":"levelo_inurba_marseille","lat":43.26497,"lon":5.39533,"is_reserved":false,"is_disabled":false,"rental_uris":{"android":"levelo://app?vid=1dbf0d05-c74a-4e3d-8283-37bea7208635","ios":"levelo://app?vid=1dbf0d05-c74a-4e3d-8283-37bea7208635"},"vehicle_type_id":"4","last_reported":1774291078,"current_range_meters":6800,"station_id":"ce4bhi12rcd13ifvqfq0","pricing_plan_id":"cebpf4jnsgd1na2vs0mg"},{"bike_id":"64e87a6b-4860-4688-8f89-aa276657e376","system_id":"levelo_inurba_marseille","lat":43.30652,"lon":5.40081,"is_reserved":false,"is_disabled":false,"rental_uris":{"android":"levelo://app?vid=64e87a6b-4860-4688-8f89-aa276657e376","ios":"levelo://app?vid=64e87a6b-4860-4688-8f89-aa276657e376"},"vehicle_type_id":"4","last_reported":1774291078,"current_range_meters":6800,"station_id":"ce4bh112rcd13ifvqda0","pricing_plan_id":"cebpf4jnsgd1na2vs0mg"},{"bike_id":"4d88734a-162e-4307-92a3-61e5ee7aa63f","system_id":"levelo_inurba_marseille","lat":43.29205,"lon":5.42586,"is_reserved":false,"is_disabled":true,"rental_uris":{"android":"levelo://app?vid=4d88734a-162e-4307-92a3-61e5ee7aa63f","ios":"levelo://app?vid=4d88734a-162e-4307-92a3-61e5ee7aa63f"},"vehicle_type_id":"4","last_reported":1774291078,"current_range_meters":6800,"station_id":"","pricing_plan_id":"cebpf4jnsgd1na2vs0mg"},{"bike_id":"85d6ab11-5518-4ccd-91e4-dbdc93e9ebe9","system_id":"levelo_inurba_marseille","lat":43.28536,"lon":5.4409,"is_reserved":false,"is_disabled":false,"rental_uris":{"android":"levelo://app?vid=85d6ab11-5518-4ccd-91e4-dbdc93e9ebe9","ios":"levelo://app?vid=85d6ab11-5518-4ccd-91e4-dbdc93e9ebe9"},"vehicle_type_id":"4","last_reported":1774291078,"current_range_meters":6800,"station_id":"st_d3j3df2ikq2c7380ej80","pricing_plan_id":"cebpf4jnsgd1na2vs0mg"},{"bike_id":"093a51ec-38f1-4395-af9c-d39c5ef2db46","system_id":"levelo_inurba_marseille","lat":43.29833,"lon":5.40555,"is_reserved":false,"is_disabled":false,"rental_uris":{"android":"levelo://app?vid=093a51ec-38f1-4395-af9c-d39c5ef2db46","ios":"levelo://app?vid=093a51ec-38f1-4395-af9c-d39c5ef2db46"},"vehicle_type_id":"4","last_reported":1774291078,"current_range_meters":6800,"station_id":"","pricing_plan_id":"cebpf4jnsgd1na2vs0mg"},{"bike_id":"c3f3c8ac-b6d1-4026-a061-65e7cfa764fe","system_id":"levelo_inurba_marseille","lat":43.28489,"lon":5.4839,"is_reserved":false,"is_disabled":false,"rental_uris":{"android":"levelo://app?vid=c3f3c8ac-b6d1-4026-a061-65e7cfa764fe","ios":"levelo://app?vid=c3f3c8ac-b6d1-4026-a061-65e7cfa764fe"},"vehicle_type_id":"4","last_reported":1774291078,"current_range_meters":6800,"station_id":"","pricing_plan_id":"cebpf4jnsgd1na2vs0mg"},{"bike_id":"88693dbb-b43f-46eb-bfb4-0224c33f2bdc","system_id":"levelo_inurba_marseille","lat":43.28674,"lon":5.38713,"is_reserved":false,"is_disabled":false,"rental_uris":{"android":"levelo://app?vid=88693dbb-b43f-46eb-bfb4-0224c33f2bdc","ios":"levelo://app?vid=88693dbb-b43f-46eb-bfb4-0224c33f2bdc"},"vehicle_type_id":"4","last_reported":1774291078,"current_range_meters":6800,"station_id":"ce4bh492rcd13ifvqdug","pricing_plan_id":"cebpf4jnsgd1na2vs0mg"},{"bike_id":"c1af2eca-cb1d-451f-a2e9-025bc5e4557d","system_id":"levelo_inurba_marseille","lat":43.302,"lon":5.366,"is_reserved":false,"is_disabled":false,"rental_uris":{"android":"levelo://app?vid=c1af2eca-cb1d-451f-a2e9-025bc5e4557d","ios":"levelo://app?vid=c1af2eca-cb1d-451f-a2e9-025bc5e4557d"},"vehicle_type_id":"4","last_reported":1774291078,"current_range_meters":6800,"station_id":"ce4bgrh2rcd13ifvqc8g","pricing_plan_id":"cebpf4jnsgd1na2vs0mg"},{"bike_id":"aa0a5068-cfe9-4a18-a9ba-63be0f2e026d","system_id":"levelo_inurba_marseille","lat":43.30348,"lon":5.41867,"is_reserved":false,"is_disabled":false,"rental_uris":{"android":"levelo://app?vid=aa0a5068-cfe9-4a18-a9ba-63be0f2e026d","ios":"levelo://app?vid=aa0a5068-cfe9-4a18-a9ba-63be0f2e026d"},"vehicle_type_id":"4","last_reported":1774291078,"current_range_meters":7200,"station_id":"ce4bhop2rcd13ifvqh7g","pricing_plan_id":"cebpf4jnsgd1na2vs0mg"},{"bike_id":"a4ed6440-1299-492c-a2e0-14f3831500d1","system_id":"levelo_inurba_marseille","lat":43.28624,"lon":5.35116,"is_reserved":false,"is_disabled":false,"rental_uris":{"android":"levelo://app?vid=a4ed6440-1299-492c-a2e0-14f3831500d1","ios":"levelo://app?vid=a4ed6440-1299-492c-a2e0-14f3831500d1"},"vehicle_type_id":"4","last_reported":1774291078,"current_range_meters":7200,"station_id":"ce4bhch2rcd13ifvqeug","pricing_plan_id":"cebpf4jnsgd1na2vs0mg"},{"bike_id":"69f168d7-6f68-4599-a59c-85a2fbf8b2c8","system_id":"levelo_inurba_marseille","lat":43.29564,"lon":5.38546,"is_reserved":false,"is_disabled":false,"rental_uris":{"android":"levelo://app?vid=69f168d7-6f68-4599-a59c-85a2fbf8b2c8","ios":"levelo://app?vid=69f168d7-6f68-4599-a59c-85a2fbf8b2c8"},"vehicle_type_id":"4","last_reported":1774291078,"current_range_meters":7200,"station_id":"ce4bgih2rcd13ifvqba0","pricing_plan_id":"cebpf4jnsgd1na2vs0mg"},{"bike_id":"55904041-25d7-4daa-8ba2-55fede9db72a","system_id":"levelo_inurba_marseille","lat":43.27678,"lon":5.38868,"is_reserved":false,"is_disabled":false,"rental_uris":{"android":"levelo://app?vid=55904041-25d7-4daa-8ba2-55fede9db72a","ios":"levelo://app?vid=55904041-25d7-4daa-8ba2-55fede9db72a"},"vehicle_type_id":"4","last_reported":1774291078,"current_range_meters":7200,"station_id":"ce4bhi12rcd13ifvqfo0","pricing_plan_id":"cebpf4jnsgd1na2vs0mg"},{"bike_id":"a6e4bf73-1d4a-4ed5-90a9-660cd7d7aa1f","system_id":"levelo_inurba_marseille","lat":43.30139,"lon":5.39877,"is_reserved":false,"is_disabled":false,"rental_uris":{"android":"levelo://app?vid=a6e4bf73-1d4a-4ed5-90a9-660cd7d7aa1f","ios":"levelo://app?vid=a6e4bf73-1d4a-4ed5-90a9-660cd7d7aa1f"},"vehicle_type_id":"4","last_reported":1774291078,"current_range_meters":7200,"station_id":"ce4bh0h2rcd13ifvqd40","pricing_plan_id":"cebpf4jnsgd1na2vs0mg"},{"bike_id":"aa929685-e4dd-4a31-a1c6-979463fa81a3","system_id":"levelo_inurba_marseille","lat":43.28508,"lon":5.48399,"is_reserved":false,"is_disabled":false,"rental_uris":{"android":"levelo://app?vid=aa929685-e4dd-4a31-a1c6-979463fa81a3","ios":"levelo://app?vid=aa929685-e4dd-4a31-a1c6-979463fa81a3"},"vehicle_type_id":"4","last_reported":1774291078,"current_range_meters":7200,"station_id":"st_d3svhcjqgbts73a3dn0g","pricing_plan_id":"cebpf4jnsgd1na2vs0mg"},{"bike_id":"1d696319-c208-4ca3-ad10-486adc2a37c9","system_id":"levelo_inurba_marseille","lat":43.27556,"lon":5.384,"is_reserved":false,"is_disabled":false,"rental_uris":{"android":"levelo://app?vid=1d696319-c208-4ca3-ad10-486adc2a37c9","ios":"levelo://app?vid=1d696319-c208-4ca3-ad10-486adc2a37c9"},"vehicle_type_id":"4","last_reported":1774291078,"current_range_meters":7200,"station_id":"ce4bhh92rcd13ifvqfi0","pricing_plan_id":"cebpf4jnsgd1na2vs0mg"},{"bike_id":"f88785b3-6943-4637-92b7-314729fe3c58","system_id":"levelo_inurba_marseille","lat":43.30816,"lon":5.38274,"is_reserved":false,"is_disabled":false,"rental_uris":{"android":"levelo://app?vid=f88785b3-6943-4637-92b7-314729fe3c58","ios":"levelo://app?vid=f88785b3-6943-4637-92b7-314729fe3c58"},"vehicle_type_id":"4","last_reported":1774291078,"current_range_meters":7200,"station_id":"","pricing_plan_id":"cebpf4jnsgd1na2vs0mg"},{"bike_id":"b5333f57-9617-46f0-aaae-225efa23aa88","system_id":"levelo_inurba_marseille","lat":43.30778,"lon":5.37637,"is_reserved":false,"is_disabled":false,"rental_uris":{"android":"levelo://app?vid=b5333f57-9617-46f0-aaae-225efa23aa88","ios":"levelo://app?vid=b5333f57-9617-46f0-aaae-225efa23aa88"},"vehicle_type_id":"4","last_reported":1774291078,"current_range_meters":7200,"station_id":"ce4bgv92rcd13ifvqcq0","pricing_plan_id":"cebpf4jnsgd1na2vs0mg"},{"bike_id":"f7390397-4814-4507-a231-e8f15349db88","system_id":"levelo_inurba_marseille","lat":43.24388,"lon":5.37072,"is_reserved":false,"is_disabled":false,"rental_uris":{"android":"levelo://app?vid=f7390397-4814-4507-a231-e8f15349db88","ios":"levelo://app?vid=f7390397-4814-4507-a231-e8f15349db88"},"vehicle_type_id":"4","last_reported":1774291078,"current_range_meters":7200,"station_id":"ce4bhhh2rcd13ifvqfk0","pricing_plan_id":"cebpf4jnsgd1na2vs0mg"},{"bike_id":"3231dbcc-23be-407a-bb03-c30aef6350a1","system_id":"levelo_inurba_marseille","lat":43.27586,"lon":5.38434,"is_reserved":false,"is_disabled":false,"rental_uris":{"android":"levelo://app?vid=3231dbcc-23be-407a-bb03-c30aef6350a1","ios":"levelo://app?vid=3231dbcc-23be-407a-bb03-c30aef6350a1"},"vehicle_type_id":"4","last_reported":1774291078,"current_range_meters":7200,"station_id":"ce4bhh92rcd13ifvqfi0","pricing_plan_id":"cebpf4jnsgd1na2vs0mg"},{"bike_id":"b207dab1-3250-4004-981c-5514248a7bc0","system_id":"levelo_inurba_marseille","lat":43.24212,"lon":5.41148,"is_reserved":false,"is_disabled":false,"rental_uris":{"android":"levelo://app?vid=b207dab1-3250-4004-981c-5514248a7bc0","ios":"levelo://app?vid=b207dab1-3250-4004-981c-5514248a7bc0"},"vehicle_type_id":"4","last_reported":1774291078,"current_range_meters":7200,"station_id":"","pricing_plan_id":"cebpf4jnsgd1na2vs0mg"},{"bike_id":"5208ee98-7e4f-445b-9dbc-5d8fbec80d74","system_id":"levelo_inurba_marseille","lat":43.233807,"lon":5.412372,"is_reserved":false,"is_disabled":false,"rental_uris":{"android":"levelo://app?vid=5208ee98-7e4f-445b-9dbc-5d8fbec80d74","ios":"levelo://app?vid=5208ee98-7e4f-445b-9dbc-5d8fbec80d74"},"vehicle_type_id":"4","last_reported":1774291078,"current_range_meters":7200,"station_id":"","pricing_plan_id":"cebpf4jnsgd1na2vs0mg"},{"bike_id":"1a5169b9-84ad-4dd4-9ce6-e4c8c83fc75e","system_id":"levelo_inurba_marseille","lat":43.29847,"lon":5.39742,"is_reserved":false,"is_disabled":false,"rental_uris":{"android":"levelo://app?vid=1a5169b9-84ad-4dd4-9ce6-e4c8c83fc75e","ios":"levelo://app?vid=1a5169b9-84ad-4dd4-9ce6-e4c8c83fc75e"},"vehicle_type_id":"4","last_reported":1774291078,"current_range_meters":7200,"station_id":"ce4bh0h2rcd13ifvqd50","pricing_plan_id":"cebpf4jnsgd1na2vs0mg"},{"bike_id":"fd0e3133-7509-4125-9f21-351aacba6924","system_id":"levelo_inurba_marseille","lat":43.29525,"lon":5.39043,"is_reserved":false,"is_disabled":false,"rental_uris":{"android":"levelo://app?vid=fd0e3133-7509-4125-9f21-351aacba6924","ios":"levelo://app?vid=fd0e3133-7509-4125-9f21-351aacba6924"},"vehicle_type_id":"4","last_reported":1774291078,"current_range_meters":7200,"station_id":"ce4bh3p2rcd13ifvqdp0","pricing_plan_id":"cebpf4jnsgd1na2vs0mg"},{"bike_id":"67d43e50-8843-448d-9e2f-b1b2ef23bc90","system_id":"levelo_inurba_marseille","lat":43.28422,"lon":5.37524,"is_reserved":false,"is_disabled":false,"rental_uris":{"android":"levelo://app?vid=67d43e50-8843-448d-9e2f-b1b2ef23bc90","ios":"levelo://app?vid=67d43e50-8843-448d-9e2f-b1b2ef23bc90"},"vehicle_type_id":"4","last_reported":1774291078,"current_range_meters":7200,"station_id":"ce4bh412rcd13ifvqds0","pricing_plan_id":"cebpf4jnsgd1na2vs0mg"},{"bike_id":"8977f126-e6d2-4455-ab45-150702ea7082","system_id":"levelo_inurba_marseille","lat":43.29239,"lon":5.36089,"is_reserved":false,"is_disabled":false,"rental_uris":{"android":"levelo://app?vid=8977f126-e6d2-4455-ab45-150702ea7082","ios":"levelo://app?vid=8977f126-e6d2-4455-ab45-150702ea7082"},"vehicle_type_id":"4","last_reported":1774291078,"current_range_meters":7200,"station_id":"ce4bhbh2rcd13ifvqeqg","pricing_plan_id":"cebpf4jnsgd1na2vs0mg"},{"bike_id":"6a361988-483c-4fea-b668-fae45fefb959","system_id":"levelo_inurba_marseille","lat":43.32079,"lon":5.36747,"is_reserved":false,"is_disabled":false,"rental_uris":{"android":"levelo://app?vid=6a361988-483c-4fea-b668-fae45fefb959","ios":"levelo://app?vid=6a361988-483c-4fea-b668-fae45fefb959"},"vehicle_type_id":"4","last_reported":1774291078,"current_range_meters":8000,"station_id":"ce4bhrh2rcd13ifvqhug","pricing_plan_id":"cebpf4jnsgd1na2vs0mg"},{"bike_id":"8d261618-9edd-4288-9d3a-3da9cd55b40c","system_id":"levelo_inurba_marseille","lat":43.28853,"lon":5.39333,"is_reserved":false,"is_disabled":false,"rental_uris":{"android":"levelo://app?vid=8d261618-9edd-4288-9d3a-3da9cd55b40c","ios":"levelo://app?vid=8d261618-9edd-4288-9d3a-3da9cd55b40c"},"vehicle_type_id":"4","last_reported":1774291078,"current_range_meters":8000,"station_id":"ce4bh2p2rcd13ifvqdi0","pricing_plan_id":"cebpf4jnsgd1na2vs0mg"},{"bike_id":"7b3cf6a4-706e-4f67-8778-2dee757392f0","system_id":"levelo_inurba_marseille","lat":43.28567,"lon":5.39504,"is_reserved":false,"is_disabled":false,"rental_uris":{"android":"levelo://app?vid=7b3cf6a4-706e-4f67-8778-2dee757392f0","ios":"levelo://app?vid=7b3cf6a4-706e-4f67-8778-2dee757392f0"},"vehicle_type_id":"4","last_reported":1774291078,"current_range_meters":8000,"station_id":"ce4bh292rcd13ifvqdg0","pricing_plan_id":"cebpf4jnsgd1na2vs0mg"},{"bike_id":"2405430b-043c-4902-843a-b0a78f17e50c","system_id":"levelo_inurba_marseille","lat":43.28264,"lon":5.35105,"is_reserved":false,"is_disabled":false,"rental_uris":{"android":"levelo://app?vid=2405430b-043c-4902-843a-b0a78f17e50c","ios":"levelo://app?vid=2405430b-043c-4902-843a-b0a78f17e50c"},"vehicle_type_id":"4","last_reported":1774291078,"current_range_meters":8000,"station_id":"ce4bhbp2rcd13ifvqerg","pricing_plan_id":"cebpf4jnsgd1na2vs0mg"},{"bike_id":"bbb20be4-a4e3-4756-bf9e-de6efa0abbb9","system_id":"levelo_inurba_marseille","lat":43.29206,"lon":5.42603,"is_reserved":false,"is_disabled":false,"rental_uris":{"android":"levelo://app?vid=bbb20be4-a4e3-4756-bf9e-de6efa0abbb9","ios":"levelo://app?vid=bbb20be4-a4e3-4756-bf9e-de6efa0abbb9"},"vehicle_type_id":"4","last_reported":1774291078,"current_range_meters":8000,"station_id":"","pricing_plan_id":"cebpf4jnsgd1na2vs0mg"},{"bike_id":"0082d248-ef3e-4bc5-b48e-da79ab5469a5","system_id":"levelo_inurba_marseille","lat":43.275772,"lon":5.384258,"is_reserved":false,"is_disabled":false,"rental_uris":{"android":"levelo://app?vid=0082d248-ef3e-4bc5-b48e-da79ab5469a5","ios":"levelo://app?vid=0082d248-ef3e-4bc5-b48e-da79ab5469a5"},"vehicle_type_id":"4","last_reported":1774291078,"current_range_meters":8000,"station_id":"ce4bhh92rcd13ifvqfi0","pricing_plan_id":"cebpf4jnsgd1na2vs0mg"},{"bike_id":"c0ede030-ab9a-4615-a9c7-01479ac5ac50","system_id":"levelo_inurba_marseille","lat":43.26688,"lon":5.38298,"is_reserved":false,"is_disabled":true,"rental_uris":{"android":"levelo://app?vid=c0ede030-ab9a-4615-a9c7-01479ac5ac50","ios":"levelo://app?vid=c0ede030-ab9a-4615-a9c7-01479ac5ac50"},"vehicle_type_id":"4","last_reported":1774291078,"current_range_meters":8000,"station_id":"ce4bhg92rcd13ifvqf90","pricing_plan_id":"cebpf4jnsgd1na2vs0mg"},{"bike_id":"72c8e3c0-52d4-49e1-9aa9-201dd7c27a60","system_id":"levelo_inurba_marseille","lat":43.31131,"lon":5.37758,"is_reserved":false,"is_disabled":true,"rental_uris":{"android":"levelo://app?vid=72c8e3c0-52d4-49e1-9aa9-201dd7c27a60","ios":"levelo://app?vid=72c8e3c0-52d4-49e1-9aa9-201dd7c27a60"},"vehicle_type_id":"4","last_reported":1774291078,"current_range_meters":8000,"station_id":"ce4bgt92rcd13ifvqcg0","pricing_plan_id":"cebpf4jnsgd1na2vs0mg"},{"bike_id":"5a0a2a4a-b1e8-4e61-b830-f4dd493a0e89","system_id":"levelo_inurba_marseille","lat":43.28937,"lon":5.36604,"is_reserved":false,"is_disabled":false,"rental_uris":{"android":"levelo://app?vid=5a0a2a4a-b1e8-4e61-b830-f4dd493a0e89","ios":"levelo://app?vid=5a0a2a4a-b1e8-4e61-b830-f4dd493a0e89"},"vehicle_type_id":"4","last_reported":1774291078,"current_range_meters":8000,"station_id":"ce4bhap2rcd13ifvqek0","pricing_plan_id":"cebpf4jnsgd1na2vs0mg"},{"bike_id":"afc03cdd-a69b-4d04-98d7-52034e05902b","system_id":"levelo_inurba_marseille","lat":43.29255,"lon":5.3846,"is_reserved":false,"is_disabled":false,"rental_uris":{"android":"levelo://app?vid=afc03cdd-a69b-4d04-98d7-52034e05902b","ios":"levelo://app?vid=afc03cdd-a69b-4d04-98d7-52034e05902b"},"vehicle_type_id":"4","last_reported":1774291078,"current_range_meters":8000,"station_id":"ce4bh692rcd13ifvqea0","pricing_plan_id":"cebpf4jnsgd1na2vs0mg"},{"bike_id":"6979a6fb-10a0-43cf-8c47-6569f8ddef35","system_id":"levelo_inurba_marseille","lat":43.32127,"lon":5.3678,"is_reserved":false,"is_disabled":false,"rental_uris":{"android":"levelo://app?vid=6979a6fb-10a0-43cf-8c47-6569f8ddef35","ios":"levelo://app?vid=6979a6fb-10a0-43cf-8c47-6569f8ddef35"},"vehicle_type_id":"4","last_reported":1774291078,"current_range_meters":8000,"station_id":"ce4bhrh2rcd13ifvqhug","pricing_plan_id":"cebpf4jnsgd1na2vs0mg"},{"bike_id":"57f0d584-79cb-402a-860d-c1d84f3b08b5","system_id":"levelo_inurba_marseille","lat":43.29259,"lon":5.38434,"is_reserved":false,"is_disabled":false,"rental_uris":{"android":"levelo://app?vid=57f0d584-79cb-402a-860d-c1d84f3b08b5","ios":"levelo://app?vid=57f0d584-79cb-402a-860d-c1d84f3b08b5"},"vehicle_type_id":"4","last_reported":1774291078,"current_range_meters":8000,"station_id":"ce4bh692rcd13ifvqea0","pricing_plan_id":"cebpf4jnsgd1na2vs0mg"},{"bike_id":"87cab354-e36c-4dc9-949d-1832434988fa","system_id":"levelo_inurba_marseille","lat":43.31309,"lon":5.38426,"is_reserved":false,"is_disabled":false,"rental_uris":{"android":"levelo://app?vid=87cab354-e36c-4dc9-949d-1832434988fa","ios":"levelo://app?vid=87cab354-e36c-4dc9-949d-1832434988fa"},"vehicle_type_id":"4","last_reported":1774291078,"current_range_meters":8000,"station_id":"","pricing_plan_id":"cebpf4jnsgd1na2vs0mg"},{"bike_id":"5944a87f-7cd4-41ff-a89f-f21122e6314f","system_id":"levelo_inurba_marseille","lat":43.29255,"lon":5.40901,"is_reserved":false,"is_disabled":false,"rental_uris":{"android":"levelo://app?vid=5944a87f-7cd4-41ff-a89f-f21122e6314f","ios":"levelo://app?vid=5944a87f-7cd4-41ff-a89f-f21122e6314f"},"vehicle_type_id":"4","last_reported":1774291078,"current_range_meters":8000,"station_id":"ce4bh192rcd13ifvqdc0","pricing_plan_id":"cebpf4jnsgd1na2vs0mg"},{"bike_id":"6595120b-ecb3-4034-888e-ed5ebb2d5c28","system_id":"levelo_inurba_marseille","lat":43.30145,"lon":5.37426,"is_reserved":false,"is_disabled":false,"rental_uris":{"android":"levelo://app?vid=6595120b-ecb3-4034-888e-ed5ebb2d5c28","ios":"levelo://app?vid=6595120b-ecb3-4034-888e-ed5ebb2d5c28"},"vehicle_type_id":"4","last_reported":1774291078,"current_range_meters":8000,"station_id":"ce4bgs92rcd13ifvqcc0","pricing_plan_id":"cebpf4jnsgd1na2vs0mg"},{"bike_id":"59320224-03ff-4fa2-8a28-3304debe9556","system_id":"levelo_inurba_marseille","lat":43.28452,"lon":5.3496,"is_reserved":false,"is_disabled":false,"rental_uris":{"android":"levelo://app?vid=59320224-03ff-4fa2-8a28-3304debe9556","ios":"levelo://app?vid=59320224-03ff-4fa2-8a28-3304debe9556"},"vehicle_type_id":"4","last_reported":1774291078,"current_range_meters":8000,"station_id":"ce4bhbh2rcd13ifvqepg","pricing_plan_id":"cebpf4jnsgd1na2vs0mg"},{"bike_id":"e41c893a-4032-48f3-bf3a-8efcbfe1465c","system_id":"levelo_inurba_marseille","lat":43.25814,"lon":5.39453,"is_reserved":false,"is_disabled":true,"rental_uris":{"android":"levelo://app?vid=e41c893a-4032-48f3-bf3a-8efcbfe1465c","ios":"levelo://app?vid=e41c893a-4032-48f3-bf3a-8efcbfe1465c"},"vehicle_type_id":"4","last_reported":1774291078,"current_range_meters":8400,"station_id":"ce4bhip2rcd13ifvqft0","pricing_plan_id":"cebpf4jnsgd1na2vs0mg"},{"bike_id":"de16a0e2-b001-49cd-938d-ab0d2d7891e1","system_id":"levelo_inurba_marseille","lat":43.30293,"lon":5.36911,"is_reserved":false,"is_disabled":false,"rental_uris":{"android":"levelo://app?vid=de16a0e2-b001-49cd-938d-ab0d2d7891e1","ios":"levelo://app?vid=de16a0e2-b001-49cd-938d-ab0d2d7891e1"},"vehicle_type_id":"4","last_reported":1774291078,"current_range_meters":8400,"station_id":"ce4bgqh2rcd13ifvqc5g","pricing_plan_id":"cebpf4jnsgd1na2vs0mg"},{"bike_id":"a9fcd02c-7b6b-4ad8-a39d-d88606ee3ac0","system_id":"levelo_inurba_marseille","lat":43.25026,"lon":5.38898,"is_reserved":false,"is_disabled":true,"rental_uris":{"android":"levelo://app?vid=a9fcd02c-7b6b-4ad8-a39d-d88606ee3ac0","ios":"levelo://app?vid=a9fcd02c-7b6b-4ad8-a39d-d88606ee3ac0"},"vehicle_type_id":"4","last_reported":1774291078,"current_range_meters":8400,"station_id":"ce4bhgp2rcd13ifvqfd0","pricing_plan_id":"cebpf4jnsgd1na2vs0mg"},{"bike_id":"d652bb11-1e1c-4ddc-8dd0-6b5be03c5876","system_id":"levelo_inurba_marseille","lat":43.28256,"lon":5.35072,"is_reserved":false,"is_disabled":false,"rental_uris":{"android":"levelo://app?vid=d652bb11-1e1c-4ddc-8dd0-6b5be03c5876","ios":"levelo://app?vid=d652bb11-1e1c-4ddc-8dd0-6b5be03c5876"},"vehicle_type_id":"4","last_reported":1774291078,"current_range_meters":8400,"station_id":"ce4bhbp2rcd13ifvqerg","pricing_plan_id":"cebpf4jnsgd1na2vs0mg"},{"bike_id":"1d0f3067-7ca2-4fbd-8b40-b921c6748a4a","system_id":"levelo_inurba_marseille","lat":43.28476,"lon":5.4841,"is_reserved":false,"is_disabled":false,"rental_uris":{"android":"levelo://app?vid=1d0f3067-7ca2-4fbd-8b40-b921c6748a4a","ios":"levelo://app?vid=1d0f3067-7ca2-4fbd-8b40-b921c6748a4a"},"vehicle_type_id":"4","last_reported":1774291078,"current_range_meters":8400,"station_id":"","pricing_plan_id":"cebpf4jnsgd1na2vs0mg"},{"bike_id":"07906a38-5792-4531-97b5-a5ae0ec09a66","system_id":"levelo_inurba_marseille","lat":43.31376,"lon":5.38498,"is_reserved":false,"is_disabled":false,"rental_uris":{"android":"levelo://app?vid=07906a38-5792-4531-97b5-a5ae0ec09a66","ios":"levelo://app?vid=07906a38-5792-4531-97b5-a5ae0ec09a66"},"vehicle_type_id":"4","last_reported":1774291078,"current_range_meters":8400,"station_id":"ce4bgt92rcd13ifvqcf0","pricing_plan_id":"cebpf4jnsgd1na2vs0mg"},{"bike_id":"ee698121-d38a-42d7-b2ad-b69bddb1a86c","system_id":"levelo_inurba_marseille","lat":43.28417,"lon":5.34993,"is_reserved":false,"is_disabled":false,"rental_uris":{"android":"levelo://app?vid=ee698121-d38a-42d7-b2ad-b69bddb1a86c","ios":"levelo://app?vid=ee698121-d38a-42d7-b2ad-b69bddb1a86c"},"vehicle_type_id":"4","last_reported":1774291078,"current_range_meters":8400,"station_id":"ce4bhbh2rcd13ifvqepg","pricing_plan_id":"cebpf4jnsgd1na2vs0mg"},{"bike_id":"04dcfaab-0289-4deb-8191-8bb29cdadfb2","system_id":"levelo_inurba_marseille","lat":43.28978,"lon":5.35591,"is_reserved":false,"is_disabled":false,"rental_uris":{"android":"levelo://app?vid=04dcfaab-0289-4deb-8191-8bb29cdadfb2","ios":"levelo://app?vid=04dcfaab-0289-4deb-8191-8bb29cdadfb2"},"vehicle_type_id":"4","last_reported":1774291078,"current_range_meters":8400,"station_id":"ce4bhb92rcd13ifvqen0","pricing_plan_id":"cebpf4jnsgd1na2vs0mg"},{"bike_id":"72999db3-62c4-4d6b-9c7f-3129997c7dc6","system_id":"levelo_inurba_marseille","lat":43.28139,"lon":5.40942,"is_reserved":false,"is_disabled":false,"rental_uris":{"android":"levelo://app?vid=72999db3-62c4-4d6b-9c7f-3129997c7dc6","ios":"levelo://app?vid=72999db3-62c4-4d6b-9c7f-3129997c7dc6"},"vehicle_type_id":"4","last_reported":1774291078,"current_range_meters":8400,"station_id":"","pricing_plan_id":"cebpf4jnsgd1na2vs0mg"},{"bike_id":"3447cb79-bcea-4e0e-a6e2-fb4871ba01b4","system_id":"levelo_inurba_marseille","lat":43.24723,"lon":5.39324,"is_reserved":false,"is_disabled":false,"rental_uris":{"android":"levelo://app?vid=3447cb79-bcea-4e0e-a6e2-fb4871ba01b4","ios":"levelo://app?vid=3447cb79-bcea-4e0e-a6e2-fb4871ba01b4"},"vehicle_type_id":"4","last_reported":1774291078,"current_range_meters":8400,"station_id":"","pricing_plan_id":"cebpf4jnsgd1na2vs0mg"},{"bike_id":"7e8acf04-a5ab-4176-8867-3df1686c7ceb","system_id":"levelo_inurba_marseille","lat":43.27843,"lon":5.39209,"is_reserved":false,"is_disabled":false,"rental_uris":{"android":"levelo://app?vid=7e8acf04-a5ab-4176-8867-3df1686c7ceb","ios":"levelo://app?vid=7e8acf04-a5ab-4176-8867-3df1686c7ceb"},"vehicle_type_id":"4","last_reported":1774291078,"current_range_meters":8400,"station_id":"ce4bhjp2rcd13ifvqga0","pricing_plan_id":"cebpf4jnsgd1na2vs0mg"},{"bike_id":"5a8bd1b9-5014-4460-adf8-5a023fb4e50b","system_id":"levelo_inurba_marseille","lat":43.298706,"lon":5.39735,"is_reserved":false,"is_disabled":false,"rental_uris":{"android":"levelo://app?vid=5a8bd1b9-5014-4460-adf8-5a023fb4e50b","ios":"levelo://app?vid=5a8bd1b9-5014-4460-adf8-5a023fb4e50b"},"vehicle_type_id":"4","last_reported":1774291078,"current_range_meters":8400,"station_id":"ce4bh0h2rcd13ifvqd50","pricing_plan_id":"cebpf4jnsgd1na2vs0mg"},{"bike_id":"edaa494a-4360-47b4-975b-ccf6d6b743ca","system_id":"levelo_inurba_marseille","lat":43.29597,"lon":5.36365,"is_reserved":false,"is_disabled":false,"rental_uris":{"android":"levelo://app?vid=edaa494a-4360-47b4-975b-ccf6d6b743ca","ios":"levelo://app?vid=edaa494a-4360-47b4-975b-ccf6d6b743ca"},"vehicle_type_id":"4","last_reported":1774291078,"current_range_meters":8400,"station_id":"","pricing_plan_id":"cebpf4jnsgd1na2vs0mg"},{"bike_id":"e8d906fe-5bf4-4360-bcb1-d6d5cde643c0","system_id":"levelo_inurba_marseille","lat":43.23185,"lon":5.3998,"is_reserved":false,"is_disabled":false,"rental_uris":{"android":"levelo://app?vid=e8d906fe-5bf4-4360-bcb1-d6d5cde643c0","ios":"levelo://app?vid=e8d906fe-5bf4-4360-bcb1-d6d5cde643c0"},"vehicle_type_id":"4","last_reported":1774291078,"current_range_meters":8400,"station_id":"ce4bhn12rcd13ifvqgqg","pricing_plan_id":"cebpf4jnsgd1na2vs0mg"},{"bike_id":"25cb2586-05ac-4964-a48f-cfa3c8708a46","system_id":"levelo_inurba_marseille","lat":43.3079,"lon":5.38165,"is_reserved":false,"is_disabled":false,"rental_uris":{"android":"levelo://app?vid=25cb2586-05ac-4964-a48f-cfa3c8708a46","ios":"levelo://app?vid=25cb2586-05ac-4964-a48f-cfa3c8708a46"},"vehicle_type_id":"4","last_reported":1774291078,"current_range_meters":8400,"station_id":"ce4bgt12rcd13ifvqce0","pricing_plan_id":"cebpf4jnsgd1na2vs0mg"},{"bike_id":"81cf727e-bec8-439c-90d1-a81bccc4683f","system_id":"levelo_inurba_marseille","lat":43.29519,"lon":5.394,"is_reserved":false,"is_disabled":false,"rental_uris":{"android":"levelo://app?vid=81cf727e-bec8-439c-90d1-a81bccc4683f","ios":"levelo://app?vid=81cf727e-bec8-439c-90d1-a81bccc4683f"},"vehicle_type_id":"4","last_reported":1774291078,"current_range_meters":8400,"station_id":"ce4bh292rcd13ifvqdf0","pricing_plan_id":"cebpf4jnsgd1na2vs0mg"},{"bike_id":"8b3b5143-9318-45ef-8c15-1a5e26dfeb39","system_id":"levelo_inurba_marseille","lat":43.28848,"lon":5.35859,"is_reserved":false,"is_disabled":false,"rental_uris":{"android":"levelo://app?vid=8b3b5143-9318-45ef-8c15-1a5e26dfeb39","ios":"levelo://app?vid=8b3b5143-9318-45ef-8c15-1a5e26dfeb39"},"vehicle_type_id":"4","last_reported":1774291078,"current_range_meters":8400,"station_id":"ce4bhb12rcd13ifvqem0","pricing_plan_id":"cebpf4jnsgd1na2vs0mg"},{"bike_id":"d89b1915-483d-4d09-b44a-47b8df915eef","system_id":"levelo_inurba_marseille","lat":43.23119,"lon":5.35506,"is_reserved":false,"is_disabled":false,"rental_uris":{"android":"levelo://app?vid=d89b1915-483d-4d09-b44a-47b8df915eef","ios":"levelo://app?vid=d89b1915-483d-4d09-b44a-47b8df915eef"},"vehicle_type_id":"4","last_reported":1774291078,"current_range_meters":8400,"station_id":"","pricing_plan_id":"cebpf4jnsgd1na2vs0mg"},{"bike_id":"2c00774a-ebcb-4a07-9164-0b12b081c5f8","system_id":"levelo_inurba_marseille","lat":43.24948,"lon":5.40486,"is_reserved":false,"is_disabled":false,"rental_uris":{"android":"levelo://app?vid=2c00774a-ebcb-4a07-9164-0b12b081c5f8","ios":"levelo://app?vid=2c00774a-ebcb-4a07-9164-0b12b081c5f8"},"vehicle_type_id":"4","last_reported":1774291078,"current_range_meters":8400,"station_id":"st_d2ngiaodas8pm72gd1h0","pricing_plan_id":"cebpf4jnsgd1na2vs0mg"},{"bike_id":"be603081-03ff-401f-b55f-9b5d1a7905f7","system_id":"levelo_inurba_marseille","lat":43.30258,"lon":5.40057,"is_reserved":false,"is_disabled":false,"rental_uris":{"android":"levelo://app?vid=be603081-03ff-401f-b55f-9b5d1a7905f7","ios":"levelo://app?vid=be603081-03ff-401f-b55f-9b5d1a7905f7"},"vehicle_type_id":"4","last_reported":1774291078,"current_range_meters":8400,"station_id":"ce4bgvh2rcd13ifvqcs0","pricing_plan_id":"cebpf4jnsgd1na2vs0mg"},{"bike_id":"313cc7c8-e64b-4399-82fa-8ec8a9a3f2a7","system_id":"levelo_inurba_marseille","lat":43.28148,"lon":5.42648,"is_reserved":false,"is_disabled":false,"rental_uris":{"android":"levelo://app?vid=313cc7c8-e64b-4399-82fa-8ec8a9a3f2a7","ios":"levelo://app?vid=313cc7c8-e64b-4399-82fa-8ec8a9a3f2a7"},"vehicle_type_id":"4","last_reported":1774291078,"current_range_meters":8800,"station_id":"ce4bhnh2rcd13ifvqgug","pricing_plan_id":"cebpf4jnsgd1na2vs0mg"},{"bike_id":"f910acab-e234-4475-91c9-ec3fea6d1bf3","system_id":"levelo_inurba_marseille","lat":43.29898,"lon":5.43638,"is_reserved":false,"is_disabled":false,"rental_uris":{"android":"levelo://app?vid=f910acab-e234-4475-91c9-ec3fea6d1bf3","ios":"levelo://app?vid=f910acab-e234-4475-91c9-ec3fea6d1bf3"},"vehicle_type_id":"4","last_reported":1774291078,"current_range_meters":8800,"station_id":"ce4bhpp2rcd13ifvqhfg","pricing_plan_id":"cebpf4jnsgd1na2vs0mg"},{"bike_id":"25eefe2b-e389-4250-8b66-a4c85d2edc82","system_id":"levelo_inurba_marseille","lat":43.2866,"lon":5.36355,"is_reserved":false,"is_disabled":false,"rental_uris":{"android":"levelo://app?vid=25eefe2b-e389-4250-8b66-a4c85d2edc82","ios":"levelo://app?vid=25eefe2b-e389-4250-8b66-a4c85d2edc82"},"vehicle_type_id":"4","last_reported":1774291078,"current_range_meters":8800,"station_id":"ce4bhah2rcd13ifvqej0","pricing_plan_id":"cebpf4jnsgd1na2vs0mg"},{"bike_id":"360ab070-8e54-475e-bcd7-7786acdcb258","system_id":"levelo_inurba_marseille","lat":43.28466,"lon":5.35894,"is_reserved":false,"is_disabled":false,"rental_uris":{"android":"levelo://app?vid=360ab070-8e54-475e-bcd7-7786acdcb258","ios":"levelo://app?vid=360ab070-8e54-475e-bcd7-7786acdcb258"},"vehicle_type_id":"4","last_reported":1774291078,"current_range_meters":8800,"station_id":"ce4bhah2rcd13ifvqei0","pricing_plan_id":"cebpf4jnsgd1na2vs0mg"},{"bike_id":"5cca4b32-612b-471f-a02d-66912cbe70ff","system_id":"levelo_inurba_marseille","lat":43.21209,"lon":5.3508,"is_reserved":false,"is_disabled":true,"rental_uris":{"android":"levelo://app?vid=5cca4b32-612b-471f-a02d-66912cbe70ff","ios":"levelo://app?vid=5cca4b32-612b-471f-a02d-66912cbe70ff"},"vehicle_type_id":"4","last_reported":1774291078,"current_range_meters":8800,"station_id":"st_cvj6sg6p6f1abm77japg","pricing_plan_id":"cebpf4jnsgd1na2vs0mg"},{"bike_id":"8be5128a-491b-4b91-b30f-b9014be3de35","system_id":"levelo_inurba_marseille","lat":43.284,"lon":5.37496,"is_reserved":false,"is_disabled":false,"rental_uris":{"android":"levelo://app?vid=8be5128a-491b-4b91-b30f-b9014be3de35","ios":"levelo://app?vid=8be5128a-491b-4b91-b30f-b9014be3de35"},"vehicle_type_id":"4","last_reported":1774291078,"current_range_meters":8800,"station_id":"ce4bh412rcd13ifvqds0","pricing_plan_id":"cebpf4jnsgd1na2vs0mg"},{"bike_id":"3f30f2ff-40f2-4f9d-996a-0de8bac95dfa","system_id":"levelo_inurba_marseille","lat":43.26556,"lon":5.37284,"is_reserved":false,"is_disabled":false,"rental_uris":{"android":"levelo://app?vid=3f30f2ff-40f2-4f9d-996a-0de8bac95dfa","ios":"levelo://app?vid=3f30f2ff-40f2-4f9d-996a-0de8bac95dfa"},"vehicle_type_id":"4","last_reported":1774291078,"current_range_meters":8800,"station_id":"ce4bhg12rcd13ifvqf70","pricing_plan_id":"cebpf4jnsgd1na2vs0mg"},{"bike_id":"7e208f55-e11d-452f-b569-817a24ad3f7f","system_id":"levelo_inurba_marseille","lat":43.28684,"lon":5.38664,"is_reserved":false,"is_disabled":false,"rental_uris":{"android":"levelo://app?vid=7e208f55-e11d-452f-b569-817a24ad3f7f","ios":"levelo://app?vid=7e208f55-e11d-452f-b569-817a24ad3f7f"},"vehicle_type_id":"4","last_reported":1774291078,"current_range_meters":8800,"station_id":"ce4bh492rcd13ifvqdug","pricing_plan_id":"cebpf4jnsgd1na2vs0mg"},{"bike_id":"2fc94daa-616d-409d-9fae-f1b264fe4d84","system_id":"levelo_inurba_marseille","lat":43.24388,"lon":5.37057,"is_reserved":false,"is_disabled":false,"rental_uris":{"android":"levelo://app?vid=2fc94daa-616d-409d-9fae-f1b264fe4d84","ios":"levelo://app?vid=2fc94daa-616d-409d-9fae-f1b264fe4d84"},"vehicle_type_id":"4","last_reported":1774291078,"current_range_meters":8800,"station_id":"ce4bhhh2rcd13ifvqfk0","pricing_plan_id":"cebpf4jnsgd1na2vs0mg"},{"bike_id":"04e42d2b-817b-4033-8935-148ae7f53cb4","system_id":"levelo_inurba_marseille","lat":43.28199,"lon":5.3903,"is_reserved":false,"is_disabled":true,"rental_uris":{"android":"levelo://app?vid=04e42d2b-817b-4033-8935-148ae7f53cb4","ios":"levelo://app?vid=04e42d2b-817b-4033-8935-148ae7f53cb4"},"vehicle_type_id":"4","last_reported":1774291078,"current_range_meters":8800,"station_id":"","pricing_plan_id":"cebpf4jnsgd1na2vs0mg"},{"bike_id":"7c65ede5-43dc-4f72-bd04-324294c0b8ba","system_id":"levelo_inurba_marseille","lat":43.30516,"lon":5.3652,"is_reserved":false,"is_disabled":false,"rental_uris":{"android":"levelo://app?vid=7c65ede5-43dc-4f72-bd04-324294c0b8ba","ios":"levelo://app?vid=7c65ede5-43dc-4f72-bd04-324294c0b8ba"},"vehicle_type_id":"4","last_reported":1774291078,"current_range_meters":8800,"station_id":"","pricing_plan_id":"cebpf4jnsgd1na2vs0mg"},{"bike_id":"d96edd14-afbf-4a34-a2cd-51b040243f91","system_id":"levelo_inurba_marseille","lat":43.28468,"lon":5.35888,"is_reserved":false,"is_disabled":false,"rental_uris":{"android":"levelo://app?vid=d96edd14-afbf-4a34-a2cd-51b040243f91","ios":"levelo://app?vid=d96edd14-afbf-4a34-a2cd-51b040243f91"},"vehicle_type_id":"4","last_reported":1774291078,"current_range_meters":8800,"station_id":"ce4bhah2rcd13ifvqei0","pricing_plan_id":"cebpf4jnsgd1na2vs0mg"},{"bike_id":"8bc5add6-5c15-45ea-9941-93c78fa5f3ee","system_id":"levelo_inurba_marseille","lat":43.29628,"lon":5.40602,"is_reserved":false,"is_disabled":false,"rental_uris":{"android":"levelo://app?vid=8bc5add6-5c15-45ea-9941-93c78fa5f3ee","ios":"levelo://app?vid=8bc5add6-5c15-45ea-9941-93c78fa5f3ee"},"vehicle_type_id":"4","last_reported":1774291078,"current_range_meters":8800,"station_id":"ce4bh0h2rcd13ifvqd60","pricing_plan_id":"cebpf4jnsgd1na2vs0mg"},{"bike_id":"e7c05323-ff60-4631-94bd-e1f547952122","system_id":"levelo_inurba_marseille","lat":43.28389,"lon":5.375,"is_reserved":false,"is_disabled":false,"rental_uris":{"android":"levelo://app?vid=e7c05323-ff60-4631-94bd-e1f547952122","ios":"levelo://app?vid=e7c05323-ff60-4631-94bd-e1f547952122"},"vehicle_type_id":"4","last_reported":1774291078,"current_range_meters":8800,"station_id":"ce4bh412rcd13ifvqds0","pricing_plan_id":"cebpf4jnsgd1na2vs0mg"},{"bike_id":"7098e2ca-9180-4702-837a-25a3954b3b1d","system_id":"levelo_inurba_marseille","lat":43.29533,"lon":5.39046,"is_reserved":false,"is_disabled":false,"rental_uris":{"android":"levelo://app?vid=7098e2ca-9180-4702-837a-25a3954b3b1d","ios":"levelo://app?vid=7098e2ca-9180-4702-837a-25a3954b3b1d"},"vehicle_type_id":"4","last_reported":1774291078,"current_range_meters":8800,"station_id":"ce4bh3p2rcd13ifvqdp0","pricing_plan_id":"cebpf4jnsgd1na2vs0mg"},{"bike_id":"a2fabdf4-bd61-4352-82b4-201f5349c59d","system_id":"levelo_inurba_marseille","lat":43.26559,"lon":5.39015,"is_reserved":false,"is_disabled":true,"rental_uris":{"android":"levelo://app?vid=a2fabdf4-bd61-4352-82b4-201f5349c59d","ios":"levelo://app?vid=a2fabdf4-bd61-4352-82b4-201f5349c59d"},"vehicle_type_id":"4","last_reported":1774291078,"current_range_meters":9200,"station_id":"ce4bhe12rcd13ifvqf30","pricing_plan_id":"cebpf4jnsgd1na2vs0mg"},{"bike_id":"a0cd466d-85fa-4493-8548-74232b344d34","system_id":"levelo_inurba_marseille","lat":43.27892,"lon":5.37999,"is_reserved":false,"is_disabled":false,"rental_uris":{"android":"levelo://app?vid=a0cd466d-85fa-4493-8548-74232b344d34","ios":"levelo://app?vid=a0cd466d-85fa-4493-8548-74232b344d34"},"vehicle_type_id":"4","last_reported":1774291078,"current_range_meters":9200,"station_id":"ce4bhf92rcd13ifvqf50","pricing_plan_id":"cebpf4jnsgd1na2vs0mg"},{"bike_id":"ea55a489-9225-40f2-8711-7237563668b5","system_id":"levelo_inurba_marseille","lat":43.30547,"lon":5.36544,"is_reserved":false,"is_disabled":false,"rental_uris":{"android":"levelo://app?vid=ea55a489-9225-40f2-8711-7237563668b5","ios":"levelo://app?vid=ea55a489-9225-40f2-8711-7237563668b5"},"vehicle_type_id":"4","last_reported":1774291078,"current_range_meters":9200,"station_id":"ce4bgs12rcd13ifvqcag","pricing_plan_id":"cebpf4jnsgd1na2vs0mg"},{"bike_id":"f329e31a-d145-44dd-a6c7-77d893fce1d9","system_id":"levelo_inurba_marseille","lat":43.25334,"lon":5.42183,"is_reserved":false,"is_disabled":false,"rental_uris":{"android":"levelo://app?vid=f329e31a-d145-44dd-a6c7-77d893fce1d9","ios":"levelo://app?vid=f329e31a-d145-44dd-a6c7-77d893fce1d9"},"vehicle_type_id":"4","last_reported":1774291078,"current_range_meters":9200,"station_id":"st_d2m65c5bi1j21697t3ng","pricing_plan_id":"cebpf4jnsgd1na2vs0mg"},{"bike_id":"52afd454-e1e8-4494-a291-d583b2ddd5d8","system_id":"levelo_inurba_marseille","lat":43.30776,"lon":5.39987,"is_reserved":false,"is_disabled":false,"rental_uris":{"android":"levelo://app?vid=52afd454-e1e8-4494-a291-d583b2ddd5d8","ios":"levelo://app?vid=52afd454-e1e8-4494-a291-d583b2ddd5d8"},"vehicle_type_id":"4","last_reported":1774291078,"current_range_meters":9200,"station_id":"","pricing_plan_id":"cebpf4jnsgd1na2vs0mg"},{"bike_id":"29f49a32-ba08-40ef-839e-89650b416d04","system_id":"levelo_inurba_marseille","lat":43.31047,"lon":5.37935,"is_reserved":false,"is_disabled":false,"rental_uris":{"android":"levelo://app?vid=29f49a32-ba08-40ef-839e-89650b416d04","ios":"levelo://app?vid=29f49a32-ba08-40ef-839e-89650b416d04"},"vehicle_type_id":"4","last_reported":1774291078,"current_range_meters":9200,"station_id":"","pricing_plan_id":"cebpf4jnsgd1na2vs0mg"},{"bike_id":"67fa727b-a75e-43f5-8f7f-0420dd73f369","system_id":"levelo_inurba_marseille","lat":43.32106,"lon":5.3678,"is_reserved":false,"is_disabled":false,"rental_uris":{"android":"levelo://app?vid=67fa727b-a75e-43f5-8f7f-0420dd73f369","ios":"levelo://app?vid=67fa727b-a75e-43f5-8f7f-0420dd73f369"},"vehicle_type_id":"4","last_reported":1774291078,"current_range_meters":9200,"station_id":"ce4bhrh2rcd13ifvqhug","pricing_plan_id":"cebpf4jnsgd1na2vs0mg"},{"bike_id":"de080062-3a9b-4bf2-bc8f-71e6332f2301","system_id":"levelo_inurba_marseille","lat":43.21752,"lon":5.34607,"is_reserved":false,"is_disabled":false,"rental_uris":{"android":"levelo://app?vid=de080062-3a9b-4bf2-bc8f-71e6332f2301","ios":"levelo://app?vid=de080062-3a9b-4bf2-bc8f-71e6332f2301"},"vehicle_type_id":"4","last_reported":1774291078,"current_range_meters":9200,"station_id":"st_cvj6r9ubvosntc0bgbag","pricing_plan_id":"cebpf4jnsgd1na2vs0mg"},{"bike_id":"5983c768-9c88-4e5c-bdbb-6daf5a5e71f5","system_id":"levelo_inurba_marseille","lat":43.27818,"lon":5.40719,"is_reserved":false,"is_disabled":false,"rental_uris":{"android":"levelo://app?vid=5983c768-9c88-4e5c-bdbb-6daf5a5e71f5","ios":"levelo://app?vid=5983c768-9c88-4e5c-bdbb-6daf5a5e71f5"},"vehicle_type_id":"4","last_reported":1774291078,"current_range_meters":9200,"station_id":"ce4bhnh2rcd13ifvqgtg","pricing_plan_id":"cebpf4jnsgd1na2vs0mg"},{"bike_id":"0b786319-6d9f-4d1c-890a-5150198e272a","system_id":"levelo_inurba_marseille","lat":43.2847,"lon":5.48401,"is_reserved":false,"is_disabled":false,"rental_uris":{"android":"levelo://app?vid=0b786319-6d9f-4d1c-890a-5150198e272a","ios":"levelo://app?vid=0b786319-6d9f-4d1c-890a-5150198e272a"},"vehicle_type_id":"4","last_reported":1774291078,"current_range_meters":9200,"station_id":"st_d3svhcjqgbts73a3dn0g","pricing_plan_id":"cebpf4jnsgd1na2vs0mg"},{"bike_id":"1234c359-1d15-488e-b196-2c07adc57fdd","system_id":"levelo_inurba_marseille","lat":43.28347,"lon":5.38114,"is_reserved":false,"is_disabled":false,"rental_uris":{"android":"levelo://app?vid=1234c359-1d15-488e-b196-2c07adc57fdd","ios":"levelo://app?vid=1234c359-1d15-488e-b196-2c07adc57fdd"},"vehicle_type_id":"4","last_reported":1774291078,"current_range_meters":9200,"station_id":"ce4bh412rcd13ifvqdr0","pricing_plan_id":"cebpf4jnsgd1na2vs0mg"},{"bike_id":"bbf06f99-10eb-4743-9c34-2b5936013bcc","system_id":"levelo_inurba_marseille","lat":43.23816,"lon":5.3665,"is_reserved":false,"is_disabled":false,"rental_uris":{"android":"levelo://app?vid=bbf06f99-10eb-4743-9c34-2b5936013bcc","ios":"levelo://app?vid=bbf06f99-10eb-4743-9c34-2b5936013bcc"},"vehicle_type_id":"4","last_reported":1774291078,"current_range_meters":9200,"station_id":"st_d3nk18o9ro0c73en2l3g","pricing_plan_id":"cebpf4jnsgd1na2vs0mg"},{"bike_id":"7e03e45c-d69c-4371-8267-aa26cde43729","system_id":"levelo_inurba_marseille","lat":43.25581,"lon":5.38257,"is_reserved":false,"is_disabled":true,"rental_uris":{"android":"levelo://app?vid=7e03e45c-d69c-4371-8267-aa26cde43729","ios":"levelo://app?vid=7e03e45c-d69c-4371-8267-aa26cde43729"},"vehicle_type_id":"4","last_reported":1774291078,"current_range_meters":9200,"station_id":"ce4bhih2rcd13ifvqfs0","pricing_plan_id":"cebpf4jnsgd1na2vs0mg"},{"bike_id":"0c60f125-1581-4dd1-9854-3eae9061b4e8","system_id":"levelo_inurba_marseille","lat":43.23784,"lon":5.36632,"is_reserved":false,"is_disabled":false,"rental_uris":{"android":"levelo://app?vid=0c60f125-1581-4dd1-9854-3eae9061b4e8","ios":"levelo://app?vid=0c60f125-1581-4dd1-9854-3eae9061b4e8"},"vehicle_type_id":"4","last_reported":1774291078,"current_range_meters":9200,"station_id":"st_d3nk18o9ro0c73en2l3g","pricing_plan_id":"cebpf4jnsgd1na2vs0mg"},{"bike_id":"6711ca2b-9a4e-46b1-892e-1007cc2a656e","system_id":"levelo_inurba_marseille","lat":43.28572,"lon":5.44168,"is_reserved":false,"is_disabled":false,"rental_uris":{"android":"levelo://app?vid=6711ca2b-9a4e-46b1-892e-1007cc2a656e","ios":"levelo://app?vid=6711ca2b-9a4e-46b1-892e-1007cc2a656e"},"vehicle_type_id":"4","last_reported":1774291078,"current_range_meters":9200,"station_id":"","pricing_plan_id":"cebpf4jnsgd1na2vs0mg"},{"bike_id":"ac69a291-fffe-44aa-9d70-d5986c193cb3","system_id":"levelo_inurba_marseille","lat":43.30596,"lon":5.39366,"is_reserved":false,"is_disabled":false,"rental_uris":{"android":"levelo://app?vid=ac69a291-fffe-44aa-9d70-d5986c193cb3","ios":"levelo://app?vid=ac69a291-fffe-44aa-9d70-d5986c193cb3"},"vehicle_type_id":"4","last_reported":1774291078,"current_range_meters":9200,"station_id":"ce4bh0p2rcd13ifvqd80","pricing_plan_id":"cebpf4jnsgd1na2vs0mg"},{"bike_id":"ea9167df-dd8d-4332-bd76-9d03fb1795d3","system_id":"levelo_inurba_marseille","lat":43.31202,"lon":5.36843,"is_reserved":false,"is_disabled":false,"rental_uris":{"android":"levelo://app?vid=ea9167df-dd8d-4332-bd76-9d03fb1795d3","ios":"levelo://app?vid=ea9167df-dd8d-4332-bd76-9d03fb1795d3"},"vehicle_type_id":"4","last_reported":1774291078,"current_range_meters":9200,"station_id":"ce4bgl92rcd13ifvqbq0","pricing_plan_id":"cebpf4jnsgd1na2vs0mg"},{"bike_id":"e0d4b646-f9d3-4a11-a116-7e16e9f27389","system_id":"levelo_inurba_marseille","lat":43.28953,"lon":5.36651,"is_reserved":false,"is_disabled":false,"rental_uris":{"android":"levelo://app?vid=e0d4b646-f9d3-4a11-a116-7e16e9f27389","ios":"levelo://app?vid=e0d4b646-f9d3-4a11-a116-7e16e9f27389"},"vehicle_type_id":"4","last_reported":1774291078,"current_range_meters":9200,"station_id":"ce4bhap2rcd13ifvqek0","pricing_plan_id":"cebpf4jnsgd1na2vs0mg"},{"bike_id":"42a4a15e-3eeb-448b-866f-9a05c2c9ea98","system_id":"levelo_inurba_marseille","lat":43.27984,"lon":5.41648,"is_reserved":false,"is_disabled":false,"rental_uris":{"android":"levelo://app?vid=42a4a15e-3eeb-448b-866f-9a05c2c9ea98","ios":"levelo://app?vid=42a4a15e-3eeb-448b-866f-9a05c2c9ea98"},"vehicle_type_id":"4","last_reported":1774291078,"current_range_meters":9200,"station_id":"ce4bho12rcd13ifvqh1g","pricing_plan_id":"cebpf4jnsgd1na2vs0mg"},{"bike_id":"35e97175-713c-48ae-a068-660186a6a8d4","system_id":"levelo_inurba_marseille","lat":43.29253,"lon":5.40902,"is_reserved":false,"is_disabled":false,"rental_uris":{"android":"levelo://app?vid=35e97175-713c-48ae-a068-660186a6a8d4","ios":"levelo://app?vid=35e97175-713c-48ae-a068-660186a6a8d4"},"vehicle_type_id":"4","last_reported":1774291078,"current_range_meters":9200,"station_id":"ce4bh192rcd13ifvqdc0","pricing_plan_id":"cebpf4jnsgd1na2vs0mg"},{"bike_id":"32e51a9f-14f4-4af7-9b1f-a66308a25dab","system_id":"levelo_inurba_marseille","lat":43.29035,"lon":5.38137,"is_reserved":false,"is_disabled":false,"rental_uris":{"android":"levelo://app?vid=32e51a9f-14f4-4af7-9b1f-a66308a25dab","ios":"levelo://app?vid=32e51a9f-14f4-4af7-9b1f-a66308a25dab"},"vehicle_type_id":"4","last_reported":1774291078,"current_range_meters":9200,"station_id":"ce4bh4p2rcd13ifvqe1g","pricing_plan_id":"cebpf4jnsgd1na2vs0mg"},{"bike_id":"40906df4-17dd-4d9f-ac1f-0880c5eb117e","system_id":"levelo_inurba_marseille","lat":43.32388,"lon":5.36759,"is_reserved":false,"is_disabled":false,"rental_uris":{"android":"levelo://app?vid=40906df4-17dd-4d9f-ac1f-0880c5eb117e","ios":"levelo://app?vid=40906df4-17dd-4d9f-ac1f-0880c5eb117e"},"vehicle_type_id":"4","last_reported":1774291078,"current_range_meters":9600,"station_id":"","pricing_plan_id":"cebpf4jnsgd1na2vs0mg"},{"bike_id":"8e331d09-f777-47e4-a327-164db2e188a9","system_id":"levelo_inurba_marseille","lat":43.26598,"lon":5.40336,"is_reserved":false,"is_disabled":true,"rental_uris":{"android":"levelo://app?vid=8e331d09-f777-47e4-a327-164db2e188a9","ios":"levelo://app?vid=8e331d09-f777-47e4-a327-164db2e188a9"},"vehicle_type_id":"4","last_reported":1774291078,"current_range_meters":9600,"station_id":"ce4bhmp2rcd13ifvqgng","pricing_plan_id":"cebpf4jnsgd1na2vs0mg"},{"bike_id":"cd91631e-c7e8-46db-b75d-7277bdfa7025","system_id":"levelo_inurba_marseille","lat":43.28447,"lon":5.39173,"is_reserved":false,"is_disabled":false,"rental_uris":{"android":"levelo://app?vid=cd91631e-c7e8-46db-b75d-7277bdfa7025","ios":"levelo://app?vid=cd91631e-c7e8-46db-b75d-7277bdfa7025"},"vehicle_type_id":"4","last_reported":1774291078,"current_range_meters":9600,"station_id":"ce4bhoh2rcd13ifvqh5g","pricing_plan_id":"cebpf4jnsgd1na2vs0mg"},{"bike_id":"777878bc-164f-4c5a-8054-7f1657bde276","system_id":"levelo_inurba_marseille","lat":43.2657,"lon":5.39027,"is_reserved":false,"is_disabled":false,"rental_uris":{"android":"levelo://app?vid=777878bc-164f-4c5a-8054-7f1657bde276","ios":"levelo://app?vid=777878bc-164f-4c5a-8054-7f1657bde276"},"vehicle_type_id":"4","last_reported":1774291078,"current_range_meters":9600,"station_id":"ce4bhe12rcd13ifvqf30","pricing_plan_id":"cebpf4jnsgd1na2vs0mg"},{"bike_id":"91772fac-1fc9-4c27-b5ed-ae7735be1efd","system_id":"levelo_inurba_marseille","lat":43.25491,"lon":5.37649,"is_reserved":false,"is_disabled":false,"rental_uris":{"android":"levelo://app?vid=91772fac-1fc9-4c27-b5ed-ae7735be1efd","ios":"levelo://app?vid=91772fac-1fc9-4c27-b5ed-ae7735be1efd"},"vehicle_type_id":"4","last_reported":1774291078,"current_range_meters":9600,"station_id":"ce4bhh12rcd13ifvqff0","pricing_plan_id":"cebpf4jnsgd1na2vs0mg"},{"bike_id":"18d83782-f1db-493d-a737-cf94fa94a1b2","system_id":"levelo_inurba_marseille","lat":43.29187,"lon":5.35799,"is_reserved":false,"is_disabled":false,"rental_uris":{"android":"levelo://app?vid=18d83782-f1db-493d-a737-cf94fa94a1b2","ios":"levelo://app?vid=18d83782-f1db-493d-a737-cf94fa94a1b2"},"vehicle_type_id":"4","last_reported":1774291078,"current_range_meters":9600,"station_id":"ce4bhb12rcd13ifvqel0","pricing_plan_id":"cebpf4jnsgd1na2vs0mg"},{"bike_id":"34626e01-cc86-4c92-b6b2-0a10b25993e7","system_id":"levelo_inurba_marseille","lat":43.28633,"lon":5.35113,"is_reserved":false,"is_disabled":true,"rental_uris":{"android":"levelo://app?vid=34626e01-cc86-4c92-b6b2-0a10b25993e7","ios":"levelo://app?vid=34626e01-cc86-4c92-b6b2-0a10b25993e7"},"vehicle_type_id":"4","last_reported":1774291078,"current_range_meters":9600,"station_id":"ce4bhch2rcd13ifvqeug","pricing_plan_id":"cebpf4jnsgd1na2vs0mg"},{"bike_id":"540a0c4e-2ba0-4b45-94f3-8f52eda68e3e","system_id":"levelo_inurba_marseille","lat":43.28943,"lon":5.36648,"is_reserved":false,"is_disabled":false,"rental_uris":{"android":"levelo://app?vid=540a0c4e-2ba0-4b45-94f3-8f52eda68e3e","ios":"levelo://app?vid=540a0c4e-2ba0-4b45-94f3-8f52eda68e3e"},"vehicle_type_id":"4","last_reported":1774291078,"current_range_meters":9600,"station_id":"ce4bhap2rcd13ifvqek0","pricing_plan_id":"cebpf4jnsgd1na2vs0mg"},{"bike_id":"4ce98637-072f-4197-bd69-11f207a88eab","system_id":"levelo_inurba_marseille","lat":43.28496,"lon":5.47279,"is_reserved":false,"is_disabled":false,"rental_uris":{"android":"levelo://app?vid=4ce98637-072f-4197-bd69-11f207a88eab","ios":"levelo://app?vid=4ce98637-072f-4197-bd69-11f207a88eab"},"vehicle_type_id":"4","last_reported":1774291078,"current_range_meters":9600,"station_id":"","pricing_plan_id":"cebpf4jnsgd1na2vs0mg"},{"bike_id":"5029ccc8-aced-4a90-b3b4-8c24fe068690","system_id":"levelo_inurba_marseille","lat":43.27906,"lon":5.39593,"is_reserved":false,"is_disabled":false,"rental_uris":{"android":"levelo://app?vid=5029ccc8-aced-4a90-b3b4-8c24fe068690","ios":"levelo://app?vid=5029ccc8-aced-4a90-b3b4-8c24fe068690"},"vehicle_type_id":"4","last_reported":1774291078,"current_range_meters":9600,"station_id":"ce4bhf92rcd13ifvqf40","pricing_plan_id":"cebpf4jnsgd1na2vs0mg"},{"bike_id":"2e4408b1-4f10-4104-87c2-00f9c6cc7b1b","system_id":"levelo_inurba_marseille","lat":43.3016,"lon":5.43124,"is_reserved":false,"is_disabled":false,"rental_uris":{"android":"levelo://app?vid=2e4408b1-4f10-4104-87c2-00f9c6cc7b1b","ios":"levelo://app?vid=2e4408b1-4f10-4104-87c2-00f9c6cc7b1b"},"vehicle_type_id":"4","last_reported":1774291078,"current_range_meters":9600,"station_id":"st_d3js3co5814s73ftftug","pricing_plan_id":"cebpf4jnsgd1na2vs0mg"},{"bike_id":"19f1add8-fb4d-4df2-9f34-3abb6a2112fe","system_id":"levelo_inurba_marseille","lat":43.21208,"lon":5.35087,"is_reserved":false,"is_disabled":false,"rental_uris":{"android":"levelo://app?vid=19f1add8-fb4d-4df2-9f34-3abb6a2112fe","ios":"levelo://app?vid=19f1add8-fb4d-4df2-9f34-3abb6a2112fe"},"vehicle_type_id":"4","last_reported":1774291078,"current_range_meters":9600,"station_id":"st_cvj6sg6p6f1abm77japg","pricing_plan_id":"cebpf4jnsgd1na2vs0mg"},{"bike_id":"9f8ae27b-f8d2-4ed8-858a-6d9ca53a6000","system_id":"levelo_inurba_marseille","lat":43.30412,"lon":5.37187,"is_reserved":false,"is_disabled":false,"rental_uris":{"android":"levelo://app?vid=9f8ae27b-f8d2-4ed8-858a-6d9ca53a6000","ios":"levelo://app?vid=9f8ae27b-f8d2-4ed8-858a-6d9ca53a6000"},"vehicle_type_id":"4","last_reported":1774291078,"current_range_meters":9600,"station_id":"","pricing_plan_id":"cebpf4jnsgd1na2vs0mg"},{"bike_id":"e0f39660-150f-44e1-b21b-cff53e98beed","system_id":"levelo_inurba_marseille","lat":43.30434,"lon":5.38888,"is_reserved":false,"is_disabled":false,"rental_uris":{"android":"levelo://app?vid=e0f39660-150f-44e1-b21b-cff53e98beed","ios":"levelo://app?vid=e0f39660-150f-44e1-b21b-cff53e98beed"},"vehicle_type_id":"4","last_reported":1774291078,"current_range_meters":9600,"station_id":"ce4bgk12rcd13ifvqbi0","pricing_plan_id":"cebpf4jnsgd1na2vs0mg"},{"bike_id":"a35cd57a-a85a-4199-af90-0e8344d73999","system_id":"levelo_inurba_marseille","lat":43.24654,"lon":5.38912,"is_reserved":false,"is_disabled":false,"rental_uris":{"android":"levelo://app?vid=a35cd57a-a85a-4199-af90-0e8344d73999","ios":"levelo://app?vid=a35cd57a-a85a-4199-af90-0e8344d73999"},"vehicle_type_id":"4","last_reported":1774291078,"current_range_meters":9600,"station_id":"ce4bhg12rcd13ifvqf60","pricing_plan_id":"cebpf4jnsgd1na2vs0mg"},{"bike_id":"12d74933-18e6-4925-80d9-2a20146ddf61","system_id":"levelo_inurba_marseille","lat":43.31526,"lon":5.38797,"is_reserved":false,"is_disabled":false,"rental_uris":{"android":"levelo://app?vid=12d74933-18e6-4925-80d9-2a20146ddf61","ios":"levelo://app?vid=12d74933-18e6-4925-80d9-2a20146ddf61"},"vehicle_type_id":"4","last_reported":1774291078,"current_range_meters":9600,"station_id":"","pricing_plan_id":"cebpf4jnsgd1na2vs0mg"},{"bike_id":"6a7aafba-5ac7-4bdb-ac09-35267e240dbf","system_id":"levelo_inurba_marseille","lat":43.2821,"lon":5.40571,"is_reserved":false,"is_disabled":false,"rental_uris":{"android":"levelo://app?vid=6a7aafba-5ac7-4bdb-ac09-35267e240dbf","ios":"levelo://app?vid=6a7aafba-5ac7-4bdb-ac09-35267e240dbf"},"vehicle_type_id":"4","last_reported":1774291078,"current_range_meters":9600,"station_id":"","pricing_plan_id":"cebpf4jnsgd1na2vs0mg"},{"bike_id":"b9d157e4-adb0-4d64-b93d-349f42c39fcf","system_id":"levelo_inurba_marseille","lat":43.31883,"lon":5.36799,"is_reserved":false,"is_disabled":false,"rental_uris":{"android":"levelo://app?vid=b9d157e4-adb0-4d64-b93d-349f42c39fcf","ios":"levelo://app?vid=b9d157e4-adb0-4d64-b93d-349f42c39fcf"},"vehicle_type_id":"4","last_reported":1774291078,"current_range_meters":9600,"station_id":"st_d6o2h0d0559c73evc1b0","pricing_plan_id":"cebpf4jnsgd1na2vs0mg"},{"bike_id":"b05d46eb-fc25-4923-bb64-77ffacd00454","system_id":"levelo_inurba_marseille","lat":43.29866,"lon":5.39731,"is_reserved":false,"is_disabled":false,"rental_uris":{"android":"levelo://app?vid=b05d46eb-fc25-4923-bb64-77ffacd00454","ios":"levelo://app?vid=b05d46eb-fc25-4923-bb64-77ffacd00454"},"vehicle_type_id":"4","last_reported":1774291078,"current_range_meters":9600,"station_id":"ce4bh0h2rcd13ifvqd50","pricing_plan_id":"cebpf4jnsgd1na2vs0mg"},{"bike_id":"a14d2edd-85c5-4116-8db5-355e3fb2ddbe","system_id":"levelo_inurba_marseille","lat":43.33551,"lon":5.37477,"is_reserved":false,"is_disabled":false,"rental_uris":{"android":"levelo://app?vid=a14d2edd-85c5-4116-8db5-355e3fb2ddbe","ios":"levelo://app?vid=a14d2edd-85c5-4116-8db5-355e3fb2ddbe"},"vehicle_type_id":"4","last_reported":1774291078,"current_range_meters":10000,"station_id":"st_d46tts09ee8s73dlu43g","pricing_plan_id":"cebpf4jnsgd1na2vs0mg"},{"bike_id":"da96e62c-aa8b-4584-b620-7915e0492349","system_id":"levelo_inurba_marseille","lat":43.28413,"lon":5.34988,"is_reserved":false,"is_disabled":false,"rental_uris":{"android":"levelo://app?vid=da96e62c-aa8b-4584-b620-7915e0492349","ios":"levelo://app?vid=da96e62c-aa8b-4584-b620-7915e0492349"},"vehicle_type_id":"4","last_reported":1774291078,"current_range_meters":10000,"station_id":"ce4bhbh2rcd13ifvqepg","pricing_plan_id":"cebpf4jnsgd1na2vs0mg"},{"bike_id":"39c70932-630b-465a-a0ce-82a1b8882d58","system_id":"levelo_inurba_marseille","lat":43.28416,"lon":5.37501,"is_reserved":false,"is_disabled":false,"rental_uris":{"android":"levelo://app?vid=39c70932-630b-465a-a0ce-82a1b8882d58","ios":"levelo://app?vid=39c70932-630b-465a-a0ce-82a1b8882d58"},"vehicle_type_id":"4","last_reported":1774291078,"current_range_meters":10000,"station_id":"ce4bh412rcd13ifvqds0","pricing_plan_id":"cebpf4jnsgd1na2vs0mg"},{"bike_id":"da6972b3-b161-480b-8ef0-1ff556fc7299","system_id":"levelo_inurba_marseille","lat":43.2379,"lon":5.36638,"is_reserved":false,"is_disabled":false,"rental_uris":{"android":"levelo://app?vid=da6972b3-b161-480b-8ef0-1ff556fc7299","ios":"levelo://app?vid=da6972b3-b161-480b-8ef0-1ff556fc7299"},"vehicle_type_id":"4","last_reported":1774291078,"current_range_meters":10000,"station_id":"st_d3nk18o9ro0c73en2l3g","pricing_plan_id":"cebpf4jnsgd1na2vs0mg"},{"bike_id":"17b6291a-b600-49d3-9437-0d985b9a42cc","system_id":"levelo_inurba_marseille","lat":43.30318,"lon":5.36907,"is_reserved":false,"is_disabled":false,"rental_uris":{"android":"levelo://app?vid=17b6291a-b600-49d3-9437-0d985b9a42cc","ios":"levelo://app?vid=17b6291a-b600-49d3-9437-0d985b9a42cc"},"vehicle_type_id":"4","last_reported":1774291078,"current_range_meters":10000,"station_id":"ce4bgqh2rcd13ifvqc5g","pricing_plan_id":"cebpf4jnsgd1na2vs0mg"},{"bike_id":"445a363e-6635-4c6f-9d9b-6ed1d223c4e8","system_id":"levelo_inurba_marseille","lat":43.29555,"lon":5.43893,"is_reserved":false,"is_disabled":false,"rental_uris":{"android":"levelo://app?vid=445a363e-6635-4c6f-9d9b-6ed1d223c4e8","ios":"levelo://app?vid=445a363e-6635-4c6f-9d9b-6ed1d223c4e8"},"vehicle_type_id":"4","last_reported":1774291078,"current_range_meters":10000,"station_id":"","pricing_plan_id":"cebpf4jnsgd1na2vs0mg"},{"bike_id":"2f5b6265-483e-47d4-831c-32860cec290b","system_id":"levelo_inurba_marseille","lat":43.29572,"lon":5.42278,"is_reserved":false,"is_disabled":false,"rental_uris":{"android":"levelo://app?vid=2f5b6265-483e-47d4-831c-32860cec290b","ios":"levelo://app?vid=2f5b6265-483e-47d4-831c-32860cec290b"},"vehicle_type_id":"4","last_reported":1774291078,"current_range_meters":10000,"station_id":"ce4bhph2rcd13ifvqhdg","pricing_plan_id":"cebpf4jnsgd1na2vs0mg"},