{"last_updated":1729865341,"ttl":60,"version":"2.2","data":{"bikes":[{"bike_id":"d1a64d69-ba04-4aca-8024-51c798360fd2","system_id":"levelo_inurba_marseille","lat":43.30298,"lon":5.3689,"is_reserved":false,"is_disabled":false,"rental_uris":{"android":"levelo://app?vid=d1a64d69-ba04-4aca-8024-51c798360fd2","ios":"levelo://app?vid=d1a64d69-ba04-4aca-8024-51c798360fd2"},"vehicle_type_id":"4","last_reported":1729865341,"current_range_meters":36800,"station_id":"ce4bgqh2rcd13ifvqc5g","pricing_plan_id":"cebpf4jnsgd1na2vs0mg"},{"bike_id":"0b39c313-cea2-4bf3-8ef2-aa9734f4753a","system_id":"levelo_inurba_marseille","lat":43.287,"lon":5.373875,"is_reserved":false,"is_disabled":false,"rental_uris":{"android":"levelo://app?vid=0b39c313-cea2-4bf3-8ef2-aa9734f4753a","ios":"levelo://app?vid=0b39c313-cea2-4bf3-8ef2-aa9734f4753a"},"vehicle_type_id":"4","last_reported":1729865341,"current_range_meters":28800,"station_id":"ce4bh3p2rcd13ifvqdq0","pricing_plan_id":"cebpf4jnsgd1na2vs0mg"},{"bike_id":"65ea6052-c3bf-48e1-87bf-af9b6259ddfa","system_id":"levelo_inurba_marseille","lat":43.28418,"lon":5.34994,"is_reserved":false,"is_disabled":false,"rental_uris":{"android":"levelo://app?vid=65ea6052-c3bf-48e1-87bf-af9b6259ddfa","ios":"levelo://app?vid=65ea6052-c3bf-48e1-87bf-af9b6259ddfa"},"vehicle_type_id":"4","last_reported":1729865341,"current_range_meters":24400,"station_id":"ce4bhbh2rcd13ifvqepg","pricing_plan_id":"cebpf4jnsgd1na2vs0mg"},{"bike_id":"e5c454be-78de-40bb-8b82-ea6124c0c14e","system_id":"levelo_inurba_marseille","lat":43.29718,"lon":5.37685,"is_reserved":false,"is_disabled":false,"rental_uris":{"android":"levelo://app?vid=e5c454be-78de-40bb-8b82-ea6124c0c14e","ios":"levelo://app?vid=e5c454be-78de-40bb-8b82-ea6124c0c14e"},"vehicle_type_id":"4","last_reported":1729865341,"current_range_meters":31200,"station_id":"ce4bgkh2rcd13ifvqbl0","pricing_plan_id":"cebpf4jnsgd1na2vs0mg"},{"bike_id":"ce9286a2-b4dc-46e2-825c-55b130cdbd52","system_id":"levelo_inurba_marseille","lat":43.25938,"lon":5.40907,"is_reserved":false,"is_disabled":false,"rental_uris":{"android":"levelo://app?vid=ce9286a2-b4dc-46e2-825c-55b130cdbd52","ios":"levelo://app?vid=ce9286a2-b4dc-46e2-825c-55b130cdbd52"},"vehicle_type_id":"4","last_reported":1729865341,"current_range_meters":38000,"station_id":"ce4bhm92rcd13ifvqglg","pricing_plan_id":"cebpf4jnsgd1na2vs0mg"},{"bike_id":"04df14ff-97d4-4ebe-b538-2e47742b3287","system_id":"levelo_inurba_marseille","lat":43.28462,"lon":5.35892,"is_reserved":false,"is_disabled":false,"rental_uris":{"android":"levelo://app?vid=04df14ff-97d4-4ebe-b538-2e47742b3287","ios":"levelo://app?vid=04df14ff-97d4-4ebe-b538-2e47742b3287"},"vehicle_type_id":"4","last_reported":1729865341,"current_range_meters":15200,"station_id":"ce4bhah2rcd13ifvqei0","pricing_plan_id":"cebpf4jnsgd1na2vs0mg"},{"bike_id":"d838620b-1bc9-4c30-975f-0710407696aa","system_id":"levelo_inurba_marseille","lat":43.28266,"lon":5.35084,"is_reserved":false,"is_disabled":false,"rental_uris":{"android":"levelo://app?vid=d838620b-1bc9-4c30-975f-0710407696aa","ios":"levelo://app?vid=d838620b-1bc9-4c30-975f-0710407696aa"},"vehicle_type_id":"4","last_reported":1729865341,"current_range_meters":12400,"station_id":"ce4bhbp2rcd13ifvqerg","pricing_plan_id":"cebpf4jnsgd1na2vs0mg"},{"bike_id":"99bf5ac1-21da-402e-afc9-1b3329b87bd2","system_id":"levelo_inurba_marseille","lat":43.30604,"lon":5.37229,"is_reserved":false,"is_disabled":false,"rental_uris":{"android":"levelo://app?vid=99bf5ac1-21da-402e-afc9-1b3329b87bd2","ios":"levelo://app?vid=99bf5ac1-21da-402e-afc9-1b3329b87bd2"},"vehicle_type_id":"4","last_reported":1729865341,"current_range_meters":30400,"station_id":"ce4bgqh2rcd13ifvqc4g","pricing_plan_id":"cebpf4jnsgd1na2vs0mg"},{"bike_id":"679208fd-d7fc-422f-bbe1-a8f8bfa5a923","system_id":"levelo_inurba_marseille","lat":43.31693,"lon":5.40468,"is_reserved":false,"is_disabled":false,"rental_uris":{"android":"levelo://app?vid=679208fd-d7fc-422f-bbe1-a8f8bfa5a923","ios":"levelo://app?vid=679208fd-d7fc-422f-bbe1-a8f8bfa5a923"},"vehicle_type_id":"4","last_reported":1729865341,"current_range_meters":14000,"station_id":"ce4bh012rcd13ifvqd00","pricing_plan_id":"cebpf4jnsgd1na2vs0mg"},{"bike_id":"606a0a9f-39b1-4893-a64f-c13dd2ae381e","system_id":"levelo_inurba_marseille","lat":43.3123,"lon":5.36851,"is_reserved":false,"is_disabled":false,"rental_uris":{"android":"levelo://app?vid=606a0a9f-39b1-4893-a64f-c13dd2ae381e","ios":"levelo://app?vid=606a0a9f-39b1-4893-a64f-c13dd2ae381e"},"vehicle_type_id":"4","last_reported":1729865341,"current_range_meters":38400,"station_id":"ce4bgl92rcd13ifvqbq0","pricing_plan_id":"cebpf4jnsgd1na2vs0mg"},{"bike_id":"26b9e837-5b91-41a1-ad8f-50c0e2155aef","system_id":"levelo_inurba_marseille","lat":43.29581,"lon":5.36745,"is_reserved":false,"is_disabled":false,"rental_uris":{"android":"levelo://app?vid=26b9e837-5b91-41a1-ad8f-50c0e2155aef","ios":"levelo://app?vid=26b9e837-5b91-41a1-ad8f-50c0e2155aef"},"vehicle_type_id":"4","last_reported":1729865341,"current_range_meters":31200,"station_id":"ce4bgph2rcd13ifvqc2g","pricing_plan_id":"cebpf4jnsgd1na2vs0mg"},{"bike_id":"44b52b18-614b-416b-b601-90beabc420af","system_id":"levelo_inurba_marseille","lat":43.30802,"lon":5.38157,"is_reserved":false,"is_disabled":false,"rental_uris":{"android":"levelo://app?vid=44b52b18-614b-416b-b601-90beabc420af","ios":"levelo://app?vid=44b52b18-614b-416b-b601-90beabc420af"},"vehicle_type_id":"4","last_reported":1729865341,"current_range_meters":30000,"station_id":"ce4bgt12rcd13ifvqce0","pricing_plan_id":"cebpf4jnsgd1na2vs0mg"},{"bike_id":"86d8d3e6-fde4-457d-9f42-0e5e56a09ca8","system_id":"levelo_inurba_marseille","lat":43.28922,"lon":5.38403,"is_reserved":false,"is_disabled":false,"rental_uris":{"android":"levelo://app?vid=86d8d3e6-fde4-457d-9f42-0e5e56a09ca8","ios":"levelo://app?vid=86d8d3e6-fde4-457d-9f42-0e5e56a09ca8"},"vehicle_type_id":"4","last_reported":1729865341,"current_range_meters":36400,"station_id":"ce4bh612rcd13ifvqe6g","pricing_plan_id":"cebpf4jnsgd1na2vs0mg"},{"bike_id":"2c27fbdc-776b-4494-a1ea-52af6020fa09","system_id":"levelo_inurba_marseille","lat":43.23461,"lon":5.40018,"is_reserved":false,"is_disabled":false,"rental_uris":{"android":"levelo://app?vid=2c27fbdc-776b-4494-a1ea-52af6020fa09","ios":"levelo://app?vid=2c27fbdc-776b-4494-a1ea-52af6020fa09"},"vehicle_type_id":"4","last_reported":1729865341,"current_range_meters":2800,"station_id":"ce4bhn12rcd13ifvqgqg","pricing_plan_id":"cebpf4jnsgd1na2vs0mg"},{"bike_id":"83b93c0d-fd1e-413e-9772-9048be31d163","system_id":"levelo_inurba_marseille","lat":43.31696,"lon":5.37758,"is_reserved":false,"is_disabled":false,"rental_uris":{"android":"levelo://app?vid=83b93c0d-fd1e-413e-9772-9048be31d163","ios":"levelo://app?vid=83b93c0d-fd1e-413e-9772-9048be31d163"},"vehicle_type_id":"4","last_reported":1729865341,"current_range_meters":38000,"station_id":"ce4bgth2rcd13ifvqch0","pricing_plan_id":"cebpf4jnsgd1na2vs0mg"},{"bike_id":"a69925f5-f019-426c-87f5-a7e7e2d934bf","system_id":"levelo_inurba_marseille","lat":43.26505,"lon":5.39107,"is_reserved":false,"is_disabled":false,"rental_uris":{"android":"levelo://app?vid=a69925f5-f019-426c-87f5-a7e7e2d934bf","ios":"levelo://app?vid=a69925f5-f019-426c-87f5-a7e7e2d934bf"},"vehicle_type_id":"4","last_reported":1729865341,"current_range_meters":38800,"station_id":"ce4bhg12rcd13ifvqf60","pricing_plan_id":"cebpf4jnsgd1na2vs0mg"},{"bike_id":"784dd773-f509-4455-843a-8e8b8177e5e1","system_id":"levelo_inurba_marseille","lat":43.317,"lon":5.37747,"is_reserved":false,"is_disabled":false,"rental_uris":{"android":"levelo://app?vid=784dd773-f509-4455-843a-8e8b8177e5e1","ios":"levelo://app?vid=784dd773-f509-4455-843a-8e8b8177e5e1"},"vehicle_type_id":"4","last_reported":1729865341,"current_range_meters":38800,"station_id":"ce4bgth2rcd13ifvqch0","pricing_plan_id":"cebpf4jnsgd1na2vs0mg"},{"bike_id":"b6f7a50c-2b98-4576-acfd-91e01d6b4cb6","system_id":"levelo_inurba_marseille","lat":43.29714,"lon":5.37695,"is_reserved":false,"is_disabled":false,"rental_uris":{"android":"levelo://app?vid=b6f7a50c-2b98-4576-acfd-91e01d6b4cb6","ios":"levelo://app?vid=b6f7a50c-2b98-4576-acfd-91e01d6b4cb6"},"vehicle_type_id":"4","last_reported":1729865341,"current_range_meters":38000,"station_id":"ce4bgkh2rcd13ifvqbl0","pricing_plan_id":"cebpf4jnsgd1na2vs0mg"},{"bike_id":"6207e24e-6c38-4753-b7b0-08ff7ff761cb","system_id":"levelo_inurba_marseille","lat":43.30545,"lon":5.36546,"is_reserved":false,"is_disabled":false,"rental_uris":{"android":"levelo://app?vid=6207e24e-6c38-4753-b7b0-08ff7ff761cb","ios":"levelo://app?vid=6207e24e-6c38-4753-b7b0-08ff7ff761cb"},"vehicle_type_id":"4","last_reported":1729865341,"current_range_meters":38800,"station_id":"ce4bgs12rcd13ifvqcag","pricing_plan_id":"cebpf4jnsgd1na2vs0mg"},{"bike_id":"65ee6142-433d-4531-9f32-ac8867a190b3","system_id":"levelo_inurba_marseille","lat":43.29916,"lon":5.38142,"is_reserved":false,"is_disabled":false,"rental_uris":{"android":"levelo://app?vid=65ee6142-433d-4531-9f32-ac8867a190b3","ios":"levelo://app?vid=65ee6142-433d-4531-9f32-ac8867a190b3"},"vehicle_type_id":"4","last_reported":1729865341,"current_range_meters":3200,"station_id":"ce4bgj12rcd13ifvqbc0","pricing_plan_id":"cebpf4jnsgd1na2vs0mg"},{"bike_id":"b5280a4e-5993-4f8e-83ef-b79f0bc022bd","system_id":"levelo_inurba_marseille","lat":43.24649,"lon":5.38888,"is_reserved":false,"is_disabled":false,"rental_uris":{"android":"levelo://app?vid=b5280a4e-5993-4f8e-83ef-b79f0bc022bd","ios":"levelo://app?vid=b5280a4e-5993-4f8e-83ef-b79f0bc022bd"},"vehicle_type_id":"4","last_reported":1729865341,"current_range_meters":8000,"station_id":"ce4bhg12rcd13ifvqf60","pricing_plan_id":"cebpf4jnsgd1na2vs0mg"},{"bike_id":"bdd8ff7c-fd85-48f5-ba32-460bcd604075","system_id":"levelo_inurba_marseille","lat":43.2923,"lon":5.36061,"is_reserved":false,"is_disabled":false,"rental_uris":{"android":"levelo://app?vid=bdd8ff7c-fd85-48f5-ba32-460bcd604075","ios":"levelo://app?vid=bdd8ff7c-fd85-48f5-ba32-460bcd604075"},"vehicle_type_id":"4","last_reported":1729865341,"current_range_meters":24400,"station_id":"ce4bhbh2rcd13ifvqeqg","pricing_plan_id":"cebpf4jnsgd1na2vs0mg"},{"bike_id":"7969dd37-faf1-43ba-9922-f50db8b11586","system_id":"levelo_inurba_marseille","lat":43.32479,"lon":5.36569,"is_reserved":false,"is_disabled":false,"rental_uris":{"android":"levelo://app?vid=7969dd37-faf1-43ba-9922-f50db8b11586","ios":"levelo://app?vid=7969dd37-faf1-43ba-9922-f50db8b11586"},"vehicle_type_id":"4","last_reported":1729865341,"current_range_meters":20800,"station_id":"ce4bhs12rcd13ifvqhvg","pricing_plan_id":"cebpf4jnsgd1na2vs0mg"},{"bike_id":"000f8dc2-bdca-406a-a3f8-fa4a4d781e04","system_id":"levelo_inurba_marseille","lat":43.336048,"lon":5.41039,"is_reserved":false,"is_disabled":false,"rental_uris":{"android":"levelo://app?vid=000f8dc2-bdca-406a-a3f8-fa4a4d781e04","ios":"levelo://app?vid=000f8dc2-bdca-406a-a3f8-fa4a4d781e04"},"vehicle_type_id":"4","last_reported":1729865341,"current_range_meters":35200,"station_id":"ce4bhqh2rcd13ifvqhmg","pricing_plan_id":"cebpf4jnsgd1na2vs0mg"},{"bike_id":"8897966f-0e9d-4d71-a1ca-75120996dfdf","system_id":"levelo_inurba_marseille","lat":43.29714,"lon":5.36614,"is_reserved":false,"is_disabled":false,"rental_uris":{"android":"levelo://app?vid=8897966f-0e9d-4d71-a1ca-75120996dfdf","ios":"levelo://app?vid=8897966f-0e9d-4d71-a1ca-75120996dfdf"},"vehicle_type_id":"4","last_reported":1729865341,"current_range_meters":37600,"station_id":"ce4bgn12rcd13ifvqbt0","pricing_plan_id":"cebpf4jnsgd1na2vs0mg"},{"bike_id":"97ce6431-cdfe-4c86-8575-534875aed7f5","system_id":"levelo_inurba_marseille","lat":43.3053,"lon":5.36659,"is_reserved":false,"is_disabled":false,"rental_uris":{"android":"levelo://app?vid=97ce6431-cdfe-4c86-8575-534875aed7f5","ios":"levelo://app?vid=97ce6431-cdfe-4c86-8575-534875aed7f5"},"vehicle_type_id":"4","last_reported":1729865341,"current_range_meters":2800,"station_id":"","pricing_plan_id":"cebpf4jnsgd1na2vs0mg"},{"bike_id":"1ca02ea1-1888-4d0b-bca8-c92aae56a3d3","system_id":"levelo_inurba_marseille","lat":43.27816,"lon":5.40712,"is_reserved":false,"is_disabled":false,"rental_uris":{"android":"levelo://app?vid=1ca02ea1-1888-4d0b-bca8-c92aae56a3d3","ios":"levelo://app?vid=1ca02ea1-1888-4d0b-bca8-c92aae56a3d3"},"vehicle_type_id":"4","last_reported":1729865341,"current_range_meters":39200,"station_id":"ce4bhnh2rcd13ifvqgtg","pricing_plan_id":"cebpf4jnsgd1na2vs0mg"},{"bike_id":"cbc9d2ee-c740-4b1a-96a2-f51c977a89aa","system_id":"levelo_inurba_marseille","lat":43.31757,"lon":5.39015,"is_reserved":false,"is_disabled":false,"rental_uris":{"android":"levelo://app?vid=cbc9d2ee-c740-4b1a-96a2-f51c977a89aa","ios":"levelo://app?vid=cbc9d2ee-c740-4b1a-96a2-f51c977a89aa"},"vehicle_type_id":"4","last_reported":1729865341,"current_range_meters":38800,"station_id":"ce4bhqp2rcd13ifvqhng","pricing_plan_id":"cebpf4jnsgd1na2vs0mg"},{"bike_id":"28e8f1ff-9675-4734-ad66-a283faac58d2","system_id":"levelo_inurba_marseille","lat":43.22932,"lon":5.35371,"is_reserved":false,"is_disabled":false,"rental_uris":{"android":"levelo://app?vid=28e8f1ff-9675-4734-ad66-a283faac58d2","ios":"levelo://app?vid=28e8f1ff-9675-4734-ad66-a283faac58d2"},"vehicle_type_id":"4","last_reported":1729865341,"current_range_meters":38400,"station_id":"cpo3532slgdg3j2ikp40","pricing_plan_id":"cebpf4jnsgd1na2vs0mg"},{"bike_id":"5861e0c6-45d8-420f-96b4-076eb4ea4be9","system_id":"levelo_inurba_marseille","lat":43.24075,"lon":5.37755,"is_reserved":false,"is_disabled":false,"rental_uris":{"android":"levelo://app?vid=5861e0c6-45d8-420f-96b4-076eb4ea4be9","ios":"levelo://app?vid=5861e0c6-45d8-420f-96b4-076eb4ea4be9"},"vehicle_type_id":"4","last_reported":1729865341,"current_range_meters":36800,"station_id":"ce4bhnp2rcd13ifvqgvg","pricing_plan_id":"cebpf4jnsgd1na2vs0mg"},{"bike_id":"ab8a2d24-7bb7-4dd4-b261-bb0c7cc06631","system_id":"levelo_inurba_marseille","lat":43.22932,"lon":5.35371,"is_reserved":false,"is_disabled":false,"rental_uris":{"android":"levelo://app?vid=ab8a2d24-7bb7-4dd4-b261-bb0c7cc06631","ios":"levelo://app?vid=ab8a2d24-7bb7-4dd4-b261-bb0c7cc06631"},"vehicle_type_id":"4","last_reported":1729865341,"current_range_meters":36400,"station_id":"cpo3532slgdg3j2ikp40","pricing_plan_id":"cebpf4jnsgd1na2vs0mg"},{"bike_id":"2ad4cba1-cc92-437d-b4ba-d4c6c841f811","system_id":"levelo_inurba_marseille","lat":43.32028,"lon":5.41544,"is_reserved":false,"is_disabled":false,"rental_uris":{"android":"levelo://app?vid=2ad4cba1-cc92-437d-b4ba-d4c6c841f811","ios":"levelo://app?vid=2ad4cba1-cc92-437d-b4ba-d4c6c841f811"},"vehicle_type_id":"4","last_reported":1729865341,"current_range_meters":29600,"station_id":"ce4bhq92rcd13ifvqhkg","pricing_plan_id":"cebpf4jnsgd1na2vs0mg"},{"bike_id":"a0076909-a038-43b4-989f-b12abedd7bde","system_id":"levelo_inurba_marseille","lat":43.31706,"lon":5.40458,"is_reserved":false,"is_disabled":false,"rental_uris":{"android":"levelo://app?vid=a0076909-a038-43b4-989f-b12abedd7bde","ios":"levelo://app?vid=a0076909-a038-43b4-989f-b12abedd7bde"},"vehicle_type_id":"4","last_reported":1729865341,"current_range_meters":38000,"station_id":"ce4bh012rcd13ifvqd00","pricing_plan_id":"cebpf4jnsgd1na2vs0mg"},{"bike_id":"b3c24197-e6e6-4788-84af-7efb3fcfa710","system_id":"levelo_inurba_marseille","lat":43.2928,"lon":5.36848,"is_reserved":false,"is_disabled":false,"rental_uris":{"android":"levelo://app?vid=b3c24197-e6e6-4788-84af-7efb3fcfa710","ios":"levelo://app?vid=b3c24197-e6e6-4788-84af-7efb3fcfa710"},"vehicle_type_id":"4","last_reported":1729865341,"current_range_meters":9600,"station_id":"ce4bhbp2rcd13ifvqesg","pricing_plan_id":"cebpf4jnsgd1na2vs0mg"},{"bike_id":"5efc7cd6-6ec0-4a9a-9799-5befcecd962a","system_id":"levelo_inurba_marseille","lat":43.28943,"lon":5.35741,"is_reserved":false,"is_disabled":false,"rental_uris":{"android":"levelo://app?vid=5efc7cd6-6ec0-4a9a-9799-5befcecd962a","ios":"levelo://app?vid=5efc7cd6-6ec0-4a9a-9799-5befcecd962a"},"vehicle_type_id":"4","last_reported":1729865341,"current_range_meters":6800,"station_id":"ce4bhih2rcd13ifvqfs0","pricing_plan_id":"cebpf4jnsgd1na2vs0mg"},{"bike_id":"172208e9-70cd-4b52-b8b5-db9312e32f6a","system_id":"levelo_inurba_marseille","lat":43.24544,"lon":5.39516,"is_reserved":false,"is_disabled":false,"rental_uris":{"android":"levelo://app?vid=172208e9-70cd-4b52-b8b5-db9312e32f6a","ios":"levelo://app?vid=172208e9-70cd-4b52-b8b5-db9312e32f6a"},"vehicle_type_id":"4","last_reported":1729865341,"current_range_meters":25200,"station_id":"ce4bhlp2rcd13ifvqgjg","pricing_plan_id":"cebpf4jnsgd1na2vs0mg"},{"bike_id":"05c0bdb9-3fee-4115-b22b-f6e25a025f3a","system_id":"levelo_inurba_marseille","lat":43.30796,"lon":5.38136,"is_reserved":false,"is_disabled":false,"rental_uris":{"android":"levelo://app?vid=05c0bdb9-3fee-4115-b22b-f6e25a025f3a","ios":"levelo://app?vid=05c0bdb9-3fee-4115-b22b-f6e25a025f3a"},"vehicle_type_id":"4","last_reported":1729865341,"current_range_meters":17600,"station_id":"ce4bgt12rcd13ifvqce0","pricing_plan_id":"cebpf4jnsgd1na2vs0mg"},{"bike_id":"fbda76cf-ad32-44f5-8e46-a16eaabd2829","system_id":"levelo_inurba_marseille","lat":43.2293,"lon":5.35384,"is_reserved":false,"is_disabled":false,"rental_uris":{"android":"levelo://app?vid=fbda76cf-ad32-44f5-8e46-a16eaabd2829","ios":"levelo://app?vid=fbda76cf-ad32-44f5-8e46-a16eaabd2829"},"vehicle_type_id":"4","last_reported":1729865341,"current_range_meters":19600,"station_id":"cpo3532slgdg3j2ikp40","pricing_plan_id":"cebpf4jnsgd1na2vs0mg"},{"bike_id":"e3ee5f84-4d74-4ce5-9540-764d9f311735","system_id":"levelo_inurba_marseille","lat":43.3028,"lon":5.37702,"is_reserved":false,"is_disabled":false,"rental_uris":{"android":"levelo://app?vid=e3ee5f84-4d74-4ce5-9540-764d9f311735","ios":"levelo://app?vid=e3ee5f84-4d74-4ce5-9540-764d9f311735"},"vehicle_type_id":"4","last_reported":1729865341,"current_range_meters":27600,"station_id":"ce4bguh2rcd13ifvqcj0","pricing_plan_id":"cebpf4jnsgd1na2vs0mg"},{"bike_id":"55f31542-79d5-4876-8508-e9985cb2a203","system_id":"levelo_inurba_marseille","lat":43.28413,"lon":5.34977,"is_reserved":false,"is_disabled":false,"rental_uris":{"android":"levelo://app?vid=55f31542-79d5-4876-8508-e9985cb2a203","ios":"levelo://app?vid=55f31542-79d5-4876-8508-e9985cb2a203"},"vehicle_type_id":"4","last_reported":1729865341,"current_range_meters":39200,"station_id":"ce4bhbh2rcd13ifvqepg","pricing_plan_id":"cebpf4jnsgd1na2vs0mg"},{"bike_id":"3f9fa6af-5256-4a1c-ad07-f51b88b891b7","system_id":"levelo_inurba_marseille","lat":43.30541,"lon":5.36557,"is_reserved":false,"is_disabled":false,"rental_uris":{"android":"levelo://app?vid=3f9fa6af-5256-4a1c-ad07-f51b88b891b7","ios":"levelo://app?vid=3f9fa6af-5256-4a1c-ad07-f51b88b891b7"},"vehicle_type_id":"4","last_reported":1729865341,"current_range_meters":25200,"station_id":"ce4bgs12rcd13ifvqcag","pricing_plan_id":"cebpf4jnsgd1na2vs0mg"},{"bike_id":"d4df8e80-99ee-48f6-99a8-7a63c3f617af","system_id":"levelo_inurba_marseille","lat":43.26784,"lon":5.39419,"is_reserved":false,"is_disabled":false,"rental_uris":{"android":"levelo://app?vid=d4df8e80-99ee-48f6-99a8-7a63c3f617af","ios":"levelo://app?vid=d4df8e80-99ee-48f6-99a8-7a63c3f617af"},"vehicle_type_id":"4","last_reported":1729865341,"current_range_meters":10800,"station_id":"ce4bhh12rcd13ifvqfg0","pricing_plan_id":"cebpf4jnsgd1na2vs0mg"},{"bike_id":"b18d1dab-dbcd-4023-8550-df98340f4dd3","system_id":"levelo_inurba_marseille","lat":43.29869,"lon":5.39731,"is_reserved":false,"is_disabled":false,"rental_uris":{"android":"levelo://app?vid=b18d1dab-dbcd-4023-8550-df98340f4dd3","ios":"levelo://app?vid=b18d1dab-dbcd-4023-8550-df98340f4dd3"},"vehicle_type_id":"4","last_reported":1729865341,"current_range_meters":11200,"station_id":"ce4bh0h2rcd13ifvqd50","pricing_plan_id":"cebpf4jnsgd1na2vs0mg"},{"bike_id":"1fe7a754-88e8-464c-a31c-86bf41ad4349","system_id":"levelo_inurba_marseille","lat":43.30292,"lon":5.377,"is_reserved":false,"is_disabled":false,"rental_uris":{"android":"levelo://app?vid=1fe7a754-88e8-464c-a31c-86bf41ad4349","ios":"levelo://app?vid=1fe7a754-88e8-464c-a31c-86bf41ad4349"},"vehicle_type_id":"4","last_reported":1729865341,"current_range_meters":22800,"station_id":"ce4bguh2rcd13ifvqcj0","pricing_plan_id":"cebpf4jnsgd1na2vs0mg"},{"bike_id":"9754723d-e668-49d4-876a-7bacb4a8b31a","system_id":"levelo_inurba_marseille","lat":43.27569,"lon":5.38412,"is_reserved":false,"is_disabled":false,"rental_uris":{"android":"levelo://app?vid=9754723d-e668-49d4-876a-7bacb4a8b31a","ios":"levelo://app?vid=9754723d-e668-49d4-876a-7bacb4a8b31a"},"vehicle_type_id":"4","last_reported":1729865341,"current_range_meters":22000,"station_id":"ce4bhh92rcd13ifvqfi0","pricing_plan_id":"cebpf4jnsgd1na2vs0mg"},{"bike_id":"2f11c33a-2d96-4a66-8697-04fd04c433f4","system_id":"levelo_inurba_marseille","lat":43.30136,"lon":5.37413,"is_reserved":false,"is_disabled":false,"rental_uris":{"android":"levelo://app?vid=2f11c33a-2d96-4a66-8697-04fd04c433f4","ios":"levelo://app?vid=2f11c33a-2d96-4a66-8697-04fd04c433f4"},"vehicle_type_id":"4","last_reported":1729865341,"current_range_meters":38400,"station_id":"ce4bgs92rcd13ifvqcc0","pricing_plan_id":"cebpf4jnsgd1na2vs0mg"},{"bike_id":"db220e45-38f8-43c2-822f-a835d9cc12b0","system_id":"levelo_inurba_marseille","lat":43.29269,"lon":5.38442,"is_reserved":false,"is_disabled":false,"rental_uris":{"android":"levelo://app?vid=db220e45-38f8-43c2-822f-a835d9cc12b0","ios":"levelo://app?vid=db220e45-38f8-43c2-822f-a835d9cc12b0"},"vehicle_type_id":"4","last_reported":1729865341,"current_range_meters":30000,"station_id":"ce4bh692rcd13ifvqea0","pricing_plan_id":"cebpf4jnsgd1na2vs0mg"},{"bike_id":"76de16cc-266c-4be2-881f-fc0fc7f35c12","system_id":"levelo_inurba_marseille","lat":43.30916,"lon":5.36846,"is_reserved":false,"is_disabled":false,"rental_uris":{"android":"levelo://app?vid=76de16cc-266c-4be2-881f-fc0fc7f35c12","ios":"levelo://app?vid=76de16cc-266c-4be2-881f-fc0fc7f35c12"},"vehicle_type_id":"4","last_reported":1729865341,"current_range_meters":38400,"station_id":"ce4bgn92rcd13ifvqbvg","pricing_plan_id":"cebpf4jnsgd1na2vs0mg"},{"bike_id":"0470d92a-073e-4127-8e86-a6177128e5c7","system_id":"levelo_inurba_marseille","lat":43.28946,"lon":5.36633,"is_reserved":false,"is_disabled":false,"rental_uris":{"android":"levelo://app?vid=0470d92a-073e-4127-8e86-a6177128e5c7","ios":"levelo://app?vid=0470d92a-073e-4127-8e86-a6177128e5c7"},"vehicle_type_id":"4","last_reported":1729865341,"current_range_meters":36800,"station_id":"ce4bhap2rcd13ifvqek0","pricing_plan_id":"cebpf4jnsgd1na2vs0mg"},{"bike_id":"d3bbf7db-dbd7-4c37-82f1-086f96c4acff","system_id":"levelo_inurba_marseille","lat":43.30911,"lon":5.36855,"is_reserved":false,"is_disabled":false,"rental_uris":{"android":"levelo://app?vid=d3bbf7db-dbd7-4c37-82f1-086f96c4acff","ios":"levelo://app?vid=d3bbf7db-dbd7-4c37-82f1-086f96c4acff"},"vehicle_type_id":"4","last_reported":1729865341,"current_range_meters":30400,"station_id":"ce4bgn92rcd13ifvqbvg","pricing_plan_id":"cebpf4jnsgd1na2vs0mg"},{"bike_id":"7a9bebfb-3ca8-461f-9edc-3e4de00c7841","system_id":"levelo_inurba_marseille","lat":43.25581,"lon":5.38234,"is_reserved":false,"is_disabled":false,"rental_uris":{"android":"levelo://app?vid=7a9bebfb-3ca8-461f-9edc-3e4de00c7841","ios":"levelo://app?vid=7a9bebfb-3ca8-461f-9edc-3e4de00c7841"},"vehicle_type_id":"4","last_reported":1729865341,"current_range_meters":37600,"station_id":"ce4bhih2rcd13ifvqfs0","pricing_plan_id":"cebpf4jnsgd1na2vs0mg"},{"bike_id":"be8fbca4-3dcd-4e0e-96d2-8c570f59713c","system_id":"levelo_inurba_marseille","lat":43.32481,"lon":5.36567,"is_reserved":false,"is_disabled":false,"rental_uris":{"android":"levelo://app?vid=be8fbca4-3dcd-4e0e-96d2-8c570f59713c","ios":"levelo://app?vid=be8fbca4-3dcd-4e0e-96d2-8c570f59713c"},"vehicle_type_id":"4","last_reported":1729865341,"current_range_meters":18000,"station_id":"ce4bhs12rcd13ifvqhvg","pricing_plan_id":"cebpf4jnsgd1na2vs0mg"},{"bike_id":"30a58045-5e86-4621-8a97-37f74aea516a","system_id":"levelo_inurba_marseille","lat":43.32331,"lon":5.38883,"is_reserved":false,"is_disabled":false,"rental_uris":{"android":"levelo://app?vid=30a58045-5e86-4621-8a97-37f74aea516a","ios":"levelo://app?vid=30a58045-5e86-4621-8a97-37f74aea516a"},"vehicle_type_id":"4","last_reported":1729865341,"current_range_meters":12400,"station_id":"ce4bhqp2rcd13ifvqhog","pricing_plan_id":"cebpf4jnsgd1na2vs0mg"},{"bike_id":"1087561a-4554-4968-81ad-1fcf385c1857","system_id":"levelo_inurba_marseille","lat":43.28976,"lon":5.37833,"is_reserved":false,"is_disabled":false,"rental_uris":{"android":"levelo://app?vid=1087561a-4554-4968-81ad-1fcf385c1857","ios":"levelo://app?vid=1087561a-4554-4968-81ad-1fcf385c1857"},"vehicle_type_id":"4","last_reported":1729865341,"current_range_meters":24800,"station_id":"ce4bh9p2rcd13ifvqed0","pricing_plan_id":"cebpf4jnsgd1na2vs0mg"},{"bike_id":"cf28c0ba-748d-4e8a-b8af-61e44f800fb1","system_id":"levelo_inurba_marseille","lat":43.2439,"lon":5.37065,"is_reserved":false,"is_disabled":false,"rental_uris":{"android":"levelo://app?vid=cf28c0ba-748d-4e8a-b8af-61e44f800fb1","ios":"levelo://app?vid=cf28c0ba-748d-4e8a-b8af-61e44f800fb1"},"vehicle_type_id":"4","last_reported":1729865341,"current_range_meters":3600,"station_id":"ce4bhhh2rcd13ifvqfk0","pricing_plan_id":"cebpf4jnsgd1na2vs0mg"},{"bike_id":"d38e0507-7ec2-476f-b84a-7e5d87a49423","system_id":"levelo_inurba_marseille","lat":43.25828,"lon":5.39445,"is_reserved":false,"is_disabled":false,"rental_uris":{"android":"levelo://app?vid=d38e0507-7ec2-476f-b84a-7e5d87a49423","ios":"levelo://app?vid=d38e0507-7ec2-476f-b84a-7e5d87a49423"},"vehicle_type_id":"4","last_reported":1729865341,"current_range_meters":39200,"station_id":"ce4bhip2rcd13ifvqft0","pricing_plan_id":"cebpf4jnsgd1na2vs0mg"},{"bike_id":"c72bc0de-eb71-4120-a3ae-eb3ec583492b","system_id":"levelo_inurba_marseille","lat":43.29265,"lon":5.38434,"is_reserved":false,"is_disabled":false,"rental_uris":{"android":"levelo://app?vid=c72bc0de-eb71-4120-a3ae-eb3ec583492b","ios":"levelo://app?vid=c72bc0de-eb71-4120-a3ae-eb3ec583492b"},"vehicle_type_id":"4","last_reported":1729865341,"current_range_meters":12800,"station_id":"ce4bh692rcd13ifvqea0","pricing_plan_id":"cebpf4jnsgd1na2vs0mg"},{"bike_id":"8742d4b7-d012-499d-83f8-0bf03ac895e4","system_id":"levelo_inurba_marseille","lat":43.30296,"lon":5.37709,"is_reserved":false,"is_disabled":false,"rental_uris":{"android":"levelo://app?vid=8742d4b7-d012-499d-83f8-0bf03ac895e4","ios":"levelo://app?vid=8742d4b7-d012-499d-83f8-0bf03ac895e4"},"vehicle_type_id":"4","last_reported":1729865341,"current_range_meters":19600,"station_id":"ce4bguh2rcd13ifvqcj0","pricing_plan_id":"cebpf4jnsgd1na2vs0mg"},{"bike_id":"eda20d13-c206-4b88-85e8-a17922f9a47f","system_id":"levelo_inurba_marseille","lat":43.30143,"lon":5.37414,"is_reserved":false,"is_disabled":false,"rental_uris":{"android":"levelo://app?vid=eda20d13-c206-4b88-85e8-a17922f9a47f","ios":"levelo://app?vid=eda20d13-c206-4b88-85e8-a17922f9a47f"},"vehicle_type_id":"4","last_reported":1729865341,"current_range_meters":17600,"station_id":"ce4bgs92rcd13ifvqcc0","pricing_plan_id":"cebpf4jnsgd1na2vs0mg"},{"bike_id":"d615dac2-81d2-4df4-a832-bb156128c56b","system_id":"levelo_inurba_marseille","lat":43.28946,"lon":5.36391,"is_reserved":false,"is_disabled":false,"rental_uris":{"android":"levelo://app?vid=d615dac2-81d2-4df4-a832-bb156128c56b","ios":"levelo://app?vid=d615dac2-81d2-4df4-a832-bb156128c56b"},"vehicle_type_id":"4","last_reported":1729865341,"current_range_meters":15200,"station_id":"ce4bhc92rcd13ifvqetg","pricing_plan_id":"cebpf4jnsgd1na2vs0mg"},{"bike_id":"ec517bc8-aab9-4441-9a5a-13b6295f2e39","system_id":"levelo_inurba_marseille","lat":43.22933,"lon":5.35376,"is_reserved":false,"is_disabled":false,"rental_uris":{"android":"levelo://app?vid=ec517bc8-aab9-4441-9a5a-13b6295f2e39","ios":"levelo://app?vid=ec517bc8-aab9-4441-9a5a-13b6295f2e39"},"vehicle_type_id":"4","last_reported":1729865341,"current_range_meters":20000,"station_id":"cpo3532slgdg3j2ikp40","pricing_plan_id":"cebpf4jnsgd1na2vs0mg"},{"bike_id":"64faf795-8226-4264-8e18-725176b82a67","system_id":"levelo_inurba_marseille","lat":43.31489,"lon":5.37315,"is_reserved":false,"is_disabled":false,"rental_uris":{"android":"levelo://app?vid=64faf795-8226-4264-8e18-725176b82a67","ios":"levelo://app?vid=64faf795-8226-4264-8e18-725176b82a67"},"vehicle_type_id":"4","last_reported":1729865341,"current_range_meters":10000,"station_id":"ce4bgt12rcd13ifvqcd0","pricing_plan_id":"cebpf4jnsgd1na2vs0mg"},{"bike_id":"2fc89223-7550-4ede-b55f-bc92fa8781b2","system_id":"levelo_inurba_marseille","lat":43.2952,"lon":5.39039,"is_reserved":false,"is_disabled":false,"rental_uris":{"android":"levelo://app?vid=2fc89223-7550-4ede-b55f-bc92fa8781b2","ios":"levelo://app?vid=2fc89223-7550-4ede-b55f-bc92fa8781b2"},"vehicle_type_id":"4","last_reported":1729865341,"current_range_meters":33200,"station_id":"ce4bh3p2rcd13ifvqdp0","pricing_plan_id":"cebpf4jnsgd1na2vs0mg"},{"bike_id":"2d1947d2-594f-4eb1-91b4-bd2bf145a66a","system_id":"levelo_inurba_marseille","lat":43.26058,"lon":5.39395,"is_reserved":false,"is_disabled":false,"rental_uris":{"android":"levelo://app?vid=2d1947d2-594f-4eb1-91b4-bd2bf145a66a","ios":"levelo://app?vid=2d1947d2-594f-4eb1-91b4-bd2bf145a66a"},"vehicle_type_id":"4","last_reported":1729865341,"current_range_meters":9600,"station_id":"ce4bhh92rcd13ifvqfj0","pricing_plan_id":"cebpf4jnsgd1na2vs0mg"},{"bike_id":"f0b863c8-76f9-4f06-a6ca-be71cfa200a0","system_id":"levelo_inurba_marseille","lat":43.29267,"lon":5.40907,"is_reserved":false,"is_disabled":false,"rental_uris":{"android":"levelo://app?vid=f0b863c8-76f9-4f06-a6ca-be71cfa200a0","ios":"levelo://app?vid=f0b863c8-76f9-4f06-a6ca-be71cfa200a0"},"vehicle_type_id":"4","last_reported":1729865341,"current_range_meters":38800,"station_id":"ce4bh192rcd13ifvqdc0","pricing_plan_id":"cebpf4jnsgd1na2vs0mg"},{"bike_id":"a9214185-c996-4f64-9d86-e23c7a50425f","system_id":"levelo_inurba_marseille","lat":43.2928,"lon":5.36848,"is_reserved":false,"is_disabled":false,"rental_uris":{"android":"levelo://app?vid=a9214185-c996-4f64-9d86-e23c7a50425f","ios":"levelo://app?vid=a9214185-c996-4f64-9d86-e23c7a50425f"},"vehicle_type_id":"4","last_reported":1729865341,"current_range_meters":16000,"station_id":"ce4bhbp2rcd13ifvqesg","pricing_plan_id":"cebpf4jnsgd1na2vs0mg"},{"bike_id":"aa35eede-acd1-4014-9e9d-ec3696c0a4f4","system_id":"levelo_inurba_marseille","lat":43.28943,"lon":5.36633,"is_reserved":false,"is_disabled":false,"rental_uris":{"android":"levelo://app?vid=aa35eede-acd1-4014-9e9d-ec3696c0a4f4","ios":"levelo://app?vid=aa35eede-acd1-4014-9e9d-ec3696c0a4f4"},"vehicle_type_id":"4","last_reported":1729865341,"current_range_meters":8800,"station_id":"ce4bhap2rcd13ifvqek0","pricing_plan_id":"cebpf4jnsgd1na2vs0mg"},{"bike_id":"6cb0d09c-4434-41fe-bab7-3f2ab7b0ac84","system_id":"levelo_inurba_marseille","lat":43.23055,"lon":5.35495,"is_reserved":false,"is_disabled":false,"rental_uris":{"android":"levelo://app?vid=6cb0d09c-4434-41fe-bab7-3f2ab7b0ac84","ios":"levelo://app?vid=6cb0d09c-4434-41fe-bab7-3f2ab7b0ac84"},"vehicle_type_id":"4","last_reported":1729865341,"current_range_meters":20800,"station_id":"cpo3342slgdg3j2ifvpg","pricing_plan_id":"cebpf4jnsgd1na2vs0mg"},{"bike_id":"67587c4d-8d15-4a6e-92a4-30f7bab31d04","system_id":"levelo_inurba_marseille","lat":43.288483,"lon":5.366592,"is_reserved":false,"is_disabled":false,"rental_uris":{"android":"levelo://app?vid=67587c4d-8d15-4a6e-92a4-30f7bab31d04","ios":"levelo://app?vid=67587c4d-8d15-4a6e-92a4-30f7bab31d04"},"vehicle_type_id":"4","last_reported":1729865341,"current_range_meters":5600,"station_id":"cki0cbj6b192h4jlfktg","pricing_plan_id":"cebpf4jnsgd1na2vs0mg"},{"bike_id":"f860efe8-a36b-4628-8d86-bbbc7862413e","system_id":"levelo_inurba_marseille","lat":43.27677,"lon":5.38874,"is_reserved":false,"is_disabled":false,"rental_uris":{"android":"levelo://app?vid=f860efe8-a36b-4628-8d86-bbbc7862413e","ios":"levelo://app?vid=f860efe8-a36b-4628-8d86-bbbc7862413e"},"vehicle_type_id":"4","last_reported":1729865341,"current_range_meters":26800,"station_id":"ce4bhi12rcd13ifvqfo0","pricing_plan_id":"cebpf4jnsgd1na2vs0mg"},{"bike_id":"892509c5-dc61-4a89-b908-6cc86b84d3f4","system_id":"levelo_inurba_marseille","lat":43.2977,"lon":5.37107,"is_reserved":false,"is_disabled":false,"rental_uris":{"android":"levelo://app?vid=892509c5-dc61-4a89-b908-6cc86b84d3f4","ios":"levelo://app?vid=892509c5-dc61-4a89-b908-6cc86b84d3f4"},"vehicle_type_id":"4","last_reported":1729865341,"current_range_meters":38800,"station_id":"ce4bgop2rcd13ifvqc1g","pricing_plan_id":"cebpf4jnsgd1na2vs0mg"},{"bike_id":"5df604fa-7553-4272-a4d5-618927778809","system_id":"levelo_inurba_marseille","lat":43.29165,"lon":5.37171,"is_reserved":false,"is_disabled":false,"rental_uris":{"android":"levelo://app?vid=5df604fa-7553-4272-a4d5-618927778809","ios":"levelo://app?vid=5df604fa-7553-4272-a4d5-618927778809"},"vehicle_type_id":"4","last_reported":1729865341,"current_range_meters":12400,"station_id":"ce4bha92rcd13ifvqeh0","pricing_plan_id":"cebpf4jnsgd1na2vs0mg"},{"bike_id":"500a01aa-10e6-4571-ae10-c12b1131e600","system_id":"levelo_inurba_marseille","lat":43.30878,"lon":5.37196,"is_reserved":false,"is_disabled":false,"rental_uris":{"android":"levelo://app?vid=500a01aa-10e6-4571-ae10-c12b1131e600","ios":"levelo://app?vid=500a01aa-10e6-4571-ae10-c12b1131e600"},"vehicle_type_id":"4","last_reported":1729865341,"current_range_meters":10800,"station_id":"ce4bguh2rcd13ifvqckg","pricing_plan_id":"cebpf4jnsgd1na2vs0mg"},{"bike_id":"661e62a9-af33-4796-bf88-bdb0e3140103","system_id":"levelo_inurba_marseille","lat":43.288505,"lon":5.358617,"is_reserved":false,"is_disabled":false,"rental_uris":{"android":"levelo://app?vid=661e62a9-af33-4796-bf88-bdb0e3140103","ios":"levelo://app?vid=661e62a9-af33-4796-bf88-bdb0e3140103"},"vehicle_type_id":"4","last_reported":1729865341,"current_range_meters":38400,"station_id":"ce4bhb12rcd13ifvqem0","pricing_plan_id":"cebpf4jnsgd1na2vs0mg"},{"bike_id":"d0ae0aef-f22e-4e0f-a487-c02599f61132","system_id":"levelo_inurba_marseille","lat":43.28424,"lon":5.34983,"is_reserved":false,"is_disabled":false,"rental_uris":{"android":"levelo://app?vid=d0ae0aef-f22e-4e0f-a487-c02599f61132","ios":"levelo://app?vid=d0ae0aef-f22e-4e0f-a487-c02599f61132"},"vehicle_type_id":"4","last_reported":1729865341,"current_range_meters":22000,"station_id":"ce4bhbh2rcd13ifvqepg","pricing_plan_id":"cebpf4jnsgd1na2vs0mg"},{"bike_id":"5c1dd2fb-58f5-469d-b616-e038d518c083","system_id":"levelo_inurba_marseille","lat":43.26955,"lon":5.38637,"is_reserved":false,"is_disabled":false,"rental_uris":{"android":"levelo://app?vid=5c1dd2fb-58f5-469d-b616-e038d518c083","ios":"levelo://app?vid=5c1dd2fb-58f5-469d-b616-e038d518c083"},"vehicle_type_id":"4","last_reported":1729865341,"current_range_meters":38800,"station_id":"ce4bhh92rcd13ifvqfh0","pricing_plan_id":"cebpf4jnsgd1na2vs0mg"},{"bike_id":"f082fa24-964b-4afc-8d8e-65b1719eafd7","system_id":"levelo_inurba_marseille","lat":43.24389,"lon":5.37053,"is_reserved":false,"is_disabled":false,"rental_uris":{"android":"levelo://app?vid=f082fa24-964b-4afc-8d8e-65b1719eafd7","ios":"levelo://app?vid=f082fa24-964b-4afc-8d8e-65b1719eafd7"},"vehicle_type_id":"4","last_reported":1729865341,"current_range_meters":39200,"station_id":"ce4bhhh2rcd13ifvqfk0","pricing_plan_id":"cebpf4jnsgd1na2vs0mg"},{"bike_id":"adf70089-cb30-4602-a86a-e8037bfc68b2","system_id":"levelo_inurba_marseille","lat":43.29577,"lon":5.37507,"is_reserved":false,"is_disabled":false,"rental_uris":{"android":"levelo://app?vid=adf70089-cb30-4602-a86a-e8037bfc68b2","ios":"levelo://app?vid=adf70089-cb30-4602-a86a-e8037bfc68b2"},"vehicle_type_id":"4","last_reported":1729865341,"current_range_meters":30000,"station_id":"ce4bgh92rcd13ifvqb50","pricing_plan_id":"cebpf4jnsgd1na2vs0mg"},{"bike_id":"e1b07d90-90a9-4b50-8f11-92c98ffef988","system_id":"levelo_inurba_marseille","lat":43.29554,"lon":5.42298,"is_reserved":false,"is_disabled":false,"rental_uris":{"android":"levelo://app?vid=e1b07d90-90a9-4b50-8f11-92c98ffef988","ios":"levelo://app?vid=e1b07d90-90a9-4b50-8f11-92c98ffef988"},"vehicle_type_id":"4","last_reported":1729865341,"current_range_meters":23200,"station_id":"ce4bhph2rcd13ifvqhdg","pricing_plan_id":"cebpf4jnsgd1na2vs0mg"},{"bike_id":"d3e60edd-ce94-4f81-ba05-2a3c36f21447","system_id":"levelo_inurba_marseille","lat":43.31725,"lon":5.42405,"is_reserved":false,"is_disabled":false,"rental_uris":{"android":"levelo://app?vid=d3e60edd-ce94-4f81-ba05-2a3c36f21447","ios":"levelo://app?vid=d3e60edd-ce94-4f81-ba05-2a3c36f21447"},"vehicle_type_id":"4","last_reported":1729865341,"current_range_meters":36800,"station_id":"ce4bhp92rcd13ifvqhbg","pricing_plan_id":"cebpf4jnsgd1na2vs0mg"},{"bike_id":"3ebf8cda-d0a0-4766-a70a-4734938df7d8","system_id":"levelo_inurba_marseille","lat":43.28488,"lon":5.38559,"is_reserved":false,"is_disabled":false,"rental_uris":{"android":"levelo://app?vid=3ebf8cda-d0a0-4766-a70a-4734938df7d8","ios":"levelo://app?vid=3ebf8cda-d0a0-4766-a70a-4734938df7d8"},"vehicle_type_id":"4","last_reported":1729865341,"current_range_meters":3200,"station_id":"ce4bh8p2rcd13ifvqeb0","pricing_plan_id":"cebpf4jnsgd1na2vs0mg"},{"bike_id":"9ed9d97e-c6e1-47e0-a8ee-48160eeb661d","system_id":"levelo_inurba_marseille","lat":43.27902,"lon":5.38,"is_reserved":false,"is_disabled":false,"rental_uris":{"android":"levelo://app?vid=9ed9d97e-c6e1-47e0-a8ee-48160eeb661d","ios":"levelo://app?vid=9ed9d97e-c6e1-47e0-a8ee-48160eeb661d"},"vehicle_type_id":"4","last_reported":1729865341,"current_range_meters":18800,"station_id":"ce4bhf92rcd13ifvqf50","pricing_plan_id":"cebpf4jnsgd1na2vs0mg"},{"bike_id":"7ebc9bdb-d16d-4077-bbd0-ac0bc6127ef4","system_id":"levelo_inurba_marseille","lat":43.30547,"lon":5.36696,"is_reserved":false,"is_disabled":false,"rental_uris":{"android":"levelo://app?vid=7ebc9bdb-d16d-4077-bbd0-ac0bc6127ef4","ios":"levelo://app?vid=7ebc9bdb-d16d-4077-bbd0-ac0bc6127ef4"},"vehicle_type_id":"4","last_reported":1729865341,"current_range_meters":27200,"station_id":"ce4bgrp2rcd13ifvqc9g","pricing_plan_id":"cebpf4jnsgd1na2vs0mg"},{"bike_id":"43b20a75-49b3-45ab-b19b-f5aa302cde8d","system_id":"levelo_inurba_marseille","lat":43.24804,"lon":5.3745,"is_reserved":false,"is_disabled":false,"rental_uris":{"android":"levelo://app?vid=43b20a75-49b3-45ab-b19b-f5aa302cde8d","ios":"levelo://app?vid=43b20a75-49b3-45ab-b19b-f5aa302cde8d"},"vehicle_type_id":"4","last_reported":1729865341,"current_range_meters":16400,"station_id":"ce4bhgh2rcd13ifvqfb0","pricing_plan_id":"cebpf4jnsgd1na2vs0mg"},{"bike_id":"7ca2732a-8343-4695-9bfd-cf79f7164472","system_id":"levelo_inurba_marseille","lat":43.32106,"lon":5.36773,"is_reserved":false,"is_disabled":false,"rental_uris":{"android":"levelo://app?vid=7ca2732a-8343-4695-9bfd-cf79f7164472","ios":"levelo://app?vid=7ca2732a-8343-4695-9bfd-cf79f7164472"},"vehicle_type_id":"4","last_reported":1729865341,"current_range_meters":14000,"station_id":"ce4bhrh2rcd13ifvqhug","pricing_plan_id":"cebpf4jnsgd1na2vs0mg"},{"bike_id":"69bb6e52-55bc-424c-8ae5-3744ab11b2e2","system_id":"levelo_inurba_marseille","lat":43.26491,"lon":5.39562,"is_reserved":false,"is_disabled":false,"rental_uris":{"android":"levelo://app?vid=69bb6e52-55bc-424c-8ae5-3744ab11b2e2","ios":"levelo://app?vid=69bb6e52-55bc-424c-8ae5-3744ab11b2e2"},"vehicle_type_id":"4","last_reported":1729865341,"current_range_meters":19200,"station_id":"ce4bhi12rcd13ifvqfq0","pricing_plan_id":"cebpf4jnsgd1na2vs0mg"},{"bike_id":"99ddea5b-5cd9-4b87-9290-1beed3353792","system_id":"levelo_inurba_marseille","lat":43.24389,"lon":5.37053,"is_reserved":false,"is_disabled":false,"rental_uris":{"android":"levelo://app?vid=99ddea5b-5cd9-4b87-9290-1beed3353792","ios":"levelo://app?vid=99ddea5b-5cd9-4b87-9290-1beed3353792"},"vehicle_type_id":"4","last_reported":1729865341,"current_range_meters":39200,"station_id":"ce4bhhh2rcd13ifvqfk0","pricing_plan_id":"cebpf4jnsgd1na2vs0mg"},{"bike_id":"d1dc165e-d6ff-4dd1-a01b-3a148f875983","system_id":"levelo_inurba_marseille","lat":43.29761,"lon":5.37114,"is_reserved":false,"is_disabled":false,"rental_uris":{"android":"levelo://app?vid=d1dc165e-d6ff-4dd1-a01b-3a148f875983","ios":"levelo://app?vid=d1dc165e-d6ff-4dd1-a01b-3a148f875983"},"vehicle_type_id":"4","last_reported":1729865341,"current_range_meters":28400,"station_id":"ce4bgop2rcd13ifvqc1g","pricing_plan_id":"cebpf4jnsgd1na2vs0mg"},{"bike_id":"43dbac4a-2fa5-4990-88b6-ca510ed5e674","system_id":"levelo_inurba_marseille","lat":43.30152,"lon":5.38081,"is_reserved":false,"is_disabled":false,"rental_uris":{"android":"levelo://app?vid=43dbac4a-2fa5-4990-88b6-ca510ed5e674","ios":"levelo://app?vid=43dbac4a-2fa5-4990-88b6-ca510ed5e674"},"vehicle_type_id":"4","last_reported":1729865341,"current_range_meters":10800,"station_id":"ce4bgjp2rcd13ifvqbh0","pricing_plan_id":"cebpf4jnsgd1na2vs0mg"},{"bike_id":"efdd3aa0-e144-46ca-b8b0-257cd2be71e6","system_id":"levelo_inurba_marseille","lat":43.25577,"lon":5.38232,"is_reserved":false,"is_disabled":false,"rental_uris":{"android":"levelo://app?vid=efdd3aa0-e144-46ca-b8b0-257cd2be71e6","ios":"levelo://app?vid=efdd3aa0-e144-46ca-b8b0-257cd2be71e6"},"vehicle_type_id":"4","last_reported":1729865341,"current_range_meters":38800,"station_id":"ce4bhih2rcd13ifvqfs0","pricing_plan_id":"cebpf4jnsgd1na2vs0mg"},{"bike_id":"164c7d04-a4c9-4a1a-9db1-07981b935c91","system_id":"levelo_inurba_marseille","lat":43.28477,"lon":5.38557,"is_reserved":false,"is_disabled":false,"rental_uris":{"android":"levelo://app?vid=164c7d04-a4c9-4a1a-9db1-07981b935c91","ios":"levelo://app?vid=164c7d04-a4c9-4a1a-9db1-07981b935c91"},"vehicle_type_id":"4","last_reported":1729865341,"current_range_meters":36800,"station_id":"ce4bh8p2rcd13ifvqeb0","pricing_plan_id":"cebpf4jnsgd1na2vs0mg"},{"bike_id":"a42b0bdd-1f10-437f-813e-02df169ed0a9","system_id":"levelo_inurba_marseille","lat":43.22935,"lon":5.35374,"is_reserved":false,"is_disabled":false,"rental_uris":{"android":"levelo://app?vid=a42b0bdd-1f10-437f-813e-02df169ed0a9","ios":"levelo://app?vid=a42b0bdd-1f10-437f-813e-02df169ed0a9"},"vehicle_type_id":"4","last_reported":1729865341,"current_range_meters":27600,"station_id":"cpo3532slgdg3j2ikp40","pricing_plan_id":"cebpf4jnsgd1na2vs0mg"},{"bike_id":"28ec963f-d368-40f3-8f34-57afeb82ba40","system_id":"levelo_inurba_marseille","lat":43.27835,"lon":5.39217,"is_reserved":false,"is_disabled":false,"rental_uris":{"android":"levelo://app?vid=28ec963f-d368-40f3-8f34-57afeb82ba40","ios":"levelo://app?vid=28ec963f-d368-40f3-8f34-57afeb82ba40"},"vehicle_type_id":"4","last_reported":1729865341,"current_range_meters":10800,"station_id":"ce4bhjp2rcd13ifvqga0","pricing_plan_id":"cebpf4jnsgd1na2vs0mg"},{"bike_id":"5cbf8c32-901d-4a53-9920-e2eb6c2246e5","system_id":"levelo_inurba_marseille","lat":43.30885,"lon":5.39633,"is_reserved":false,"is_disabled":false,"rental_uris":{"android":"levelo://app?vid=5cbf8c32-901d-4a53-9920-e2eb6c2246e5","ios":"levelo://app?vid=5cbf8c32-901d-4a53-9920-e2eb6c2246e5"},"vehicle_type_id":"4","last_reported":1729865341,"current_range_meters":38800,"station_id":"ce4bh012rcd13ifvqcv0","pricing_plan_id":"cebpf4jnsgd1na2vs0mg"},{"bike_id":"b2a05d95-c058-43f9-bf69-f76e49523c27","system_id":"levelo_inurba_marseille","lat":43.33751,"lon":5.37484,"is_reserved":false,"is_disabled":false,"rental_uris":{"android":"levelo://app?vid=b2a05d95-c058-43f9-bf69-f76e49523c27","ios":"levelo://app?vid=b2a05d95-c058-43f9-bf69-f76e49523c27"},"vehicle_type_id":"4","last_reported":1729865341,"current_range_meters":12000,"station_id":"","pricing_plan_id":"cebpf4jnsgd1na2vs0mg"},{"bike_id":"20095a2e-a9a0-48e0-be9d-5bf47f8349fe","system_id":"levelo_inurba_marseille","lat":43.29537,"lon":5.39024,"is_reserved":false,"is_disabled":false,"rental_uris":{"android":"levelo://app?vid=20095a2e-a9a0-48e0-be9d-5bf47f8349fe","ios":"levelo://app?vid=20095a2e-a9a0-48e0-be9d-5bf47f8349fe"},"vehicle_type_id":"4","last_reported":1729865341,"current_range_meters":10800,"station_id":"ce4bh3p2rcd13ifvqdp0","pricing_plan_id":"cebpf4jnsgd1na2vs0mg"},{"bike_id":"f91d742a-b009-4e35-af9a-9cf23b06f65f","system_id":"levelo_inurba_marseille","lat":43.24078,"lon":5.37743,"is_reserved":false,"is_disabled":false,"rental_uris":{"android":"levelo://app?vid=f91d742a-b009-4e35-af9a-9cf23b06f65f","ios":"levelo://app?vid=f91d742a-b009-4e35-af9a-9cf23b06f65f"},"vehicle_type_id":"4","last_reported":1729865341,"current_range_meters":9600,"station_id":"ce4bhnp2rcd13ifvqgvg","pricing_plan_id":"cebpf4jnsgd1na2vs0mg"},{"bike_id":"31256e41-0d94-485d-b554-2607f0752bd3","system_id":"levelo_inurba_marseille","lat":43.29531,"lon":5.393975,"is_reserved":false,"is_disabled":false,"rental_uris":{"android":"levelo://app?vid=31256e41-0d94-485d-b554-2607f0752bd3","ios":"levelo://app?vid=31256e41-0d94-485d-b554-2607f0752bd3"},"vehicle_type_id":"4","last_reported":1729865341,"current_range_meters":35200,"station_id":"ce4bh292rcd13ifvqdf0","pricing_plan_id":"cebpf4jnsgd1na2vs0mg"},{"bike_id":"f9ec36ed-f1e8-4d39-a330-d53d339322cc","system_id":"levelo_inurba_marseille","lat":43.24953,"lon":5.39741,"is_reserved":false,"is_disabled":false,"rental_uris":{"android":"levelo://app?vid=f9ec36ed-f1e8-4d39-a330-d53d339322cc","ios":"levelo://app?vid=f9ec36ed-f1e8-4d39-a330-d53d339322cc"},"vehicle_type_id":"4","last_reported":1729865341,"current_range_meters":17200,"station_id":"","pricing_plan_id":"cebpf4jnsgd1na2vs0mg"},{"bike_id":"14b32013-16c9-4a3a-9b24-38e904708fdb","system_id":"levelo_inurba_marseille","lat":43.28275,"lon":5.3506,"is_reserved":false,"is_disabled":false,"rental_uris":{"android":"levelo://app?vid=14b32013-16c9-4a3a-9b24-38e904708fdb","ios":"levelo://app?vid=14b32013-16c9-4a3a-9b24-38e904708fdb"},"vehicle_type_id":"4","last_reported":1729865341,"current_range_meters":25600,"station_id":"ce4bhbp2rcd13ifvqerg","pricing_plan_id":"cebpf4jnsgd1na2vs0mg"},{"bike_id":"9cd73a1f-ff7a-48ad-9cd4-fd1c1836abd6","system_id":"levelo_inurba_marseille","lat":43.30641,"lon":5.40097,"is_reserved":false,"is_disabled":false,"rental_uris":{"android":"levelo://app?vid=9cd73a1f-ff7a-48ad-9cd4-fd1c1836abd6","ios":"levelo://app?vid=9cd73a1f-ff7a-48ad-9cd4-fd1c1836abd6"},"vehicle_type_id":"4","last_reported":1729865341,"current_range_meters":24800,"station_id":"ce4bh112rcd13ifvqda0","pricing_plan_id":"cebpf4jnsgd1na2vs0mg"},{"bike_id":"9547fe9f-7da9-478b-9033-f446ea71bb69","system_id":"levelo_inurba_marseille","lat":43.31076,"lon":5.42437,"is_reserved":false,"is_disabled":false,"rental_uris":{"android":"levelo://app?vid=9547fe9f-7da9-478b-9033-f446ea71bb69","ios":"levelo://app?vid=9547fe9f-7da9-478b-9033-f446ea71bb69"},"vehicle_type_id":"4","last_reported":1729865341,"current_range_meters":36800,"station_id":"ce4bhp92rcd13ifvqhag","pricing_plan_id":"cebpf4jnsgd1na2vs0mg"},{"bike_id":"cbc8ef28-f0dd-46bc-a374-bf126ae54cf2","system_id":"levelo_inurba_marseille","lat":43.28374,"lon":5.40009,"is_reserved":false,"is_disabled":false,"rental_uris":{"android":"levelo://app?vid=cbc8ef28-f0dd-46bc-a374-bf126ae54cf2","ios":"levelo://app?vid=cbc8ef28-f0dd-46bc-a374-bf126ae54cf2"},"vehicle_type_id":"4","last_reported":1729865341,"current_range_meters":28000,"station_id":"","pricing_plan_id":"cebpf4jnsgd1na2vs0mg"},{"bike_id":"aa2296b3-9e48-4eb8-8736-02ee29db4f53","system_id":"levelo_inurba_marseille","lat":43.30283,"lon":5.3771,"is_reserved":false,"is_disabled":false,"rental_uris":{"android":"levelo://app?vid=aa2296b3-9e48-4eb8-8736-02ee29db4f53","ios":"levelo://app?vid=aa2296b3-9e48-4eb8-8736-02ee29db4f53"},"vehicle_type_id":"4","last_reported":1729865341,"current_range_meters":38800,"station_id":"ce4bguh2rcd13ifvqcj0","pricing_plan_id":"cebpf4jnsgd1na2vs0mg"},{"bike_id":"3aac9a0d-324d-4da0-9806-aaa2ea2a042c","system_id":"levelo_inurba_marseille","lat":43.29572,"lon":5.37531,"is_reserved":false,"is_disabled":false,"rental_uris":{"android":"levelo://app?vid=3aac9a0d-324d-4da0-9806-aaa2ea2a042c","ios":"levelo://app?vid=3aac9a0d-324d-4da0-9806-aaa2ea2a042c"},"vehicle_type_id":"4","last_reported":1729865341,"current_range_meters":8400,"station_id":"ce4bgh92rcd13ifvqb50","pricing_plan_id":"cebpf4jnsgd1na2vs0mg"},{"bike_id":"f54e3f55-4ff3-4fec-a14f-4c6e50d390be","system_id":"levelo_inurba_marseille","lat":43.29201,"lon":5.35805,"is_reserved":false,"is_disabled":false,"rental_uris":{"android":"levelo://app?vid=f54e3f55-4ff3-4fec-a14f-4c6e50d390be","ios":"levelo://app?vid=f54e3f55-4ff3-4fec-a14f-4c6e50d390be"},"vehicle_type_id":"4","last_reported":1729865341,"current_range_meters":38800,"station_id":"ce4bhb12rcd13ifvqel0","pricing_plan_id":"cebpf4jnsgd1na2vs0mg"},{"bike_id":"efe0b02e-9dcd-4192-8f41-25a0bf494636","system_id":"levelo_inurba_marseille","lat":43.32482,"lon":5.36566,"is_reserved":false,"is_disabled":false,"rental_uris":{"android":"levelo://app?vid=efe0b02e-9dcd-4192-8f41-25a0bf494636","ios":"levelo://app?vid=efe0b02e-9dcd-4192-8f41-25a0bf494636"},"vehicle_type_id":"4","last_reported":1729865341,"current_range_meters":38800,"station_id":"ce4bhs12rcd13ifvqhvg","pricing_plan_id":"cebpf4jnsgd1na2vs0mg"},{"bike_id":"a6372292-563d-4771-a01d-bf6771d8264b","system_id":"levelo_inurba_marseille","lat":43.29843,"lon":5.36265,"is_reserved":false,"is_disabled":false,"rental_uris":{"android":"levelo://app?vid=a6372292-563d-4771-a01d-bf6771d8264b","ios":"levelo://app?vid=a6372292-563d-4771-a01d-bf6771d8264b"},"vehicle_type_id":"4","last_reported":1729865341,"current_range_meters":13600,"station_id":"ce4bgpp2rcd13ifvqc3g","pricing_plan_id":"cebpf4jnsgd1na2vs0mg"},{"bike_id":"0603bf6a-ece4-4af9-9d99-dc9e4148c0ad","system_id":"levelo_inurba_marseille","lat":43.26486,"lon":5.39551,"is_reserved":false,"is_disabled":false,"rental_uris":{"android":"levelo://app?vid=0603bf6a-ece4-4af9-9d99-dc9e4148c0ad","ios":"levelo://app?vid=0603bf6a-ece4-4af9-9d99-dc9e4148c0ad"},"vehicle_type_id":"4","last_reported":1729865341,"current_range_meters":28800,"station_id":"ce4bhi12rcd13ifvqfq0","pricing_plan_id":"cebpf4jnsgd1na2vs0mg"},{"bike_id":"48e380db-a09a-4558-9a32-ca03edf9c6fe","system_id":"levelo_inurba_marseille","lat":43.29898,"lon":5.43667,"is_reserved":false,"is_disabled":false,"rental_uris":{"android":"levelo://app?vid=48e380db-a09a-4558-9a32-ca03edf9c6fe","ios":"levelo://app?vid=48e380db-a09a-4558-9a32-ca03edf9c6fe"},"vehicle_type_id":"4","last_reported":1729865341,"current_range_meters":18000,"station_id":"ce4bhpp2rcd13ifvqhfg","pricing_plan_id":"cebpf4jnsgd1na2vs0mg"},{"bike_id":"82e5b345-77a3-4984-9ea4-c98235e5c41c","system_id":"levelo_inurba_marseille","lat":43.31695,"lon":5.37753,"is_reserved":false,"is_disabled":false,"rental_uris":{"android":"levelo://app?vid=82e5b345-77a3-4984-9ea4-c98235e5c41c","ios":"levelo://app?vid=82e5b345-77a3-4984-9ea4-c98235e5c41c"},"vehicle_type_id":"4","last_reported":1729865341,"current_range_meters":16800,"station_id":"ce4bgth2rcd13ifvqch0","pricing_plan_id":"cebpf4jnsgd1na2vs0mg"},{"bike_id":"de58f6e4-16f5-4b99-97d3-71cd234b1d32","system_id":"levelo_inurba_marseille","lat":43.30148,"lon":5.38083,"is_reserved":false,"is_disabled":false,"rental_uris":{"android":"levelo://app?vid=de58f6e4-16f5-4b99-97d3-71cd234b1d32","ios":"levelo://app?vid=de58f6e4-16f5-4b99-97d3-71cd234b1d32"},"vehicle_type_id":"4","last_reported":1729865341,"current_range_meters":8000,"station_id":"ce4bgjp2rcd13ifvqbh0","pricing_plan_id":"cebpf4jnsgd1na2vs0mg"},{"bike_id":"7691659f-eea1-4b4d-8db5-2728fcde3a23","system_id":"levelo_inurba_marseille","lat":43.29827,"lon":5.36232,"is_reserved":false,"is_disabled":false,"rental_uris":{"android":"levelo://app?vid=7691659f-eea1-4b4d-8db5-2728fcde3a23","ios":"levelo://app?vid=7691659f-eea1-4b4d-8db5-2728fcde3a23"},"vehicle_type_id":"4","last_reported":1729865341,"current_range_meters":28000,"station_id":"ce4bgpp2rcd13ifvqc3g","pricing_plan_id":"cebpf4jnsgd1na2vs0mg"},{"bike_id":"f80d7c64-9690-47c4-82e6-2afe878fea68","system_id":"levelo_inurba_marseille","lat":43.3054,"lon":5.36545,"is_reserved":false,"is_disabled":false,"rental_uris":{"android":"levelo://app?vid=f80d7c64-9690-47c4-82e6-2afe878fea68","ios":"levelo://app?vid=f80d7c64-9690-47c4-82e6-2afe878fea68"},"vehicle_type_id":"4","last_reported":1729865341,"current_range_meters":38000,"station_id":"ce4bgs12rcd13ifvqcag","pricing_plan_id":"cebpf4jnsgd1na2vs0mg"},{"bike_id":"267ca5cf-edda-4858-8f56-25cb32f809d3","system_id":"levelo_inurba_marseille","lat":43.29772,"lon":5.37097,"is_reserved":false,"is_disabled":false,"rental_uris":{"android":"levelo://app?vid=267ca5cf-edda-4858-8f56-25cb32f809d3","ios":"levelo://app?vid=267ca5cf-edda-4858-8f56-25cb32f809d3"},"vehicle_type_id":"4","last_reported":1729865341,"current_range_meters":30400,"station_id":"ce4bgop2rcd13ifvqc1g","pricing_plan_id":"cebpf4jnsgd1na2vs0mg"},{"bike_id":"0fe77b0f-5131-4557-b571-bab2bbf01500","system_id":"levelo_inurba_marseille","lat":43.2981,"lon":5.3808,"is_reserved":false,"is_disabled":false,"rental_uris":{"android":"levelo://app?vid=0fe77b0f-5131-4557-b571-bab2bbf01500","ios":"levelo://app?vid=0fe77b0f-5131-4557-b571-bab2bbf01500"},"vehicle_type_id":"4","last_reported":1729865341,"current_range_meters":39200,"station_id":"ce4bgip2rcd13ifvqbb0","pricing_plan_id":"cebpf4jnsgd1na2vs0mg"},{"bike_id":"47717028-ce2a-4591-b6b5-5afb73062dd9","system_id":"levelo_inurba_marseille","lat":43.28413,"lon":5.34978,"is_reserved":false,"is_disabled":false,"rental_uris":{"android":"levelo://app?vid=47717028-ce2a-4591-b6b5-5afb73062dd9","ios":"levelo://app?vid=47717028-ce2a-4591-b6b5-5afb73062dd9"},"vehicle_type_id":"4","last_reported":1729865341,"current_range_meters":24800,"station_id":"ce4bhbh2rcd13ifvqepg","pricing_plan_id":"cebpf4jnsgd1na2vs0mg"},{"bike_id":"19ef132f-0a4a-48cf-8e01-c74d639e28ab","system_id":"levelo_inurba_marseille","lat":43.24079,"lon":5.37757,"is_reserved":false,"is_disabled":false,"rental_uris":{"android":"levelo://app?vid=19ef132f-0a4a-48cf-8e01-c74d639e28ab","ios":"levelo://app?vid=19ef132f-0a4a-48cf-8e01-c74d639e28ab"},"vehicle_type_id":"4","last_reported":1729865341,"current_range_meters":10800,"station_id":"ce4bhnp2rcd13ifvqgvg","pricing_plan_id":"cebpf4jnsgd1na2vs0mg"},{"bike_id":"861b9f3e-2d30-49b0-8914-c5a5175926a2","system_id":"levelo_inurba_marseille","lat":43.28187,"lon":5.35116,"is_reserved":false,"is_disabled":false,"rental_uris":{"android":"levelo://app?vid=861b9f3e-2d30-49b0-8914-c5a5175926a2","ios":"levelo://app?vid=861b9f3e-2d30-49b0-8914-c5a5175926a2"},"vehicle_type_id":"4","last_reported":1729865341,"current_range_meters":38800,"station_id":"ce4bhbp2rcd13ifvqerg","pricing_plan_id":"cebpf4jnsgd1na2vs0mg"},{"bike_id":"18cd883a-f1cd-4f34-98dc-7580d7e4256d","system_id":"levelo_inurba_marseille","lat":43.24645,"lon":5.38896,"is_reserved":false,"is_disabled":false,"rental_uris":{"android":"levelo://app?vid=18cd883a-f1cd-4f34-98dc-7580d7e4256d","ios":"levelo://app?vid=18cd883a-f1cd-4f34-98dc-7580d7e4256d"},"vehicle_type_id":"4","last_reported":1729865341,"current_range_meters":24400,"station_id":"ce4bhg12rcd13ifvqf60","pricing_plan_id":"cebpf4jnsgd1na2vs0mg"},{"bike_id":"b7de22ec-f13e-43a6-8212-09c92176816b","system_id":"levelo_inurba_marseille","lat":43.27834,"lon":5.39207,"is_reserved":false,"is_disabled":false,"rental_uris":{"android":"levelo://app?vid=b7de22ec-f13e-43a6-8212-09c92176816b","ios":"levelo://app?vid=b7de22ec-f13e-43a6-8212-09c92176816b"},"vehicle_type_id":"4","last_reported":1729865341,"current_range_meters":6800,"station_id":"ce4bhjp2rcd13ifvqga0","pricing_plan_id":"cebpf4jnsgd1na2vs0mg"},{"bike_id":"f0fc82ca-f5ec-4e02-8e94-135a203ff8d2","system_id":"levelo_inurba_marseille","lat":43.24803,"lon":5.37459,"is_reserved":false,"is_disabled":false,"rental_uris":{"android":"levelo://app?vid=f0fc82ca-f5ec-4e02-8e94-135a203ff8d2","ios":"levelo://app?vid=f0fc82ca-f5ec-4e02-8e94-135a203ff8d2"},"vehicle_type_id":"4","last_reported":1729865341,"current_range_meters":38400,"station_id":"ce4bhgh2rcd13ifvqfb0","pricing_plan_id":"cebpf4jnsgd1na2vs0mg"},{"bike_id":"40321da8-c398-4ab8-927e-bee9aa84dcec","system_id":"levelo_inurba_marseille","lat":43.33775,"lon":5.37444,"is_reserved":false,"is_disabled":false,"rental_uris":{"android":"levelo://app?vid=40321da8-c398-4ab8-927e-bee9aa84dcec","ios":"levelo://app?vid=40321da8-c398-4ab8-927e-bee9aa84dcec"},"vehicle_type_id":"4","last_reported":1729865341,"current_range_meters":37600,"station_id":"","pricing_plan_id":"cebpf4jnsgd1na2vs0mg"},{"bike_id":"bef0f98e-928e-4943-83ce-7b60f0d730d7","system_id":"levelo_inurba_marseille","lat":43.22925,"lon":5.35378,"is_reserved":false,"is_disabled":false,"rental_uris":{"android":"levelo://app?vid=bef0f98e-928e-4943-83ce-7b60f0d730d7","ios":"levelo://app?vid=bef0f98e-928e-4943-83ce-7b60f0d730d7"},"vehicle_type_id":"4","last_reported":1729865341,"current_range_meters":36800,"station_id":"cpo3532slgdg3j2ikp40","pricing_plan_id":"cebpf4jnsgd1na2vs0mg"},{"bike_id":"66f020ae-5526-4ad0-8af9-6a968240ac52","system_id":"levelo_inurba_marseille","lat":43.32481,"lon":5.3657,"is_reserved":false,"is_disabled":false,"rental_uris":{"android":"levelo://app?vid=66f020ae-5526-4ad0-8af9-6a968240ac52","ios":"levelo://app?vid=66f020ae-5526-4ad0-8af9-6a968240ac52"},"vehicle_type_id":"4","last_reported":1729865341,"current_range_meters":37600,"station_id":"ce4bhs12rcd13ifvqhvg","pricing_plan_id":"cebpf4jnsgd1na2vs0mg"},{"bike_id":"09dc4124-7fb5-4ba7-a1f0-258ed57ce86b","system_id":"levelo_inurba_marseille","lat":43.22928,"lon":5.35374,"is_reserved":false,"is_disabled":false,"rental_uris":{"android":"levelo://app?vid=09dc4124-7fb5-4ba7-a1f0-258ed57ce86b","ios":"levelo://app?vid=09dc4124-7fb5-4ba7-a1f0-258ed57ce86b"},"vehicle_type_id":"4","last_reported":1729865341,"current_range_meters":38400,"station_id":"cpo3532slgdg3j2ikp40","pricing_plan_id":"cebpf4jnsgd1na2vs0mg"},{"bike_id":"74742f40-fa2c-48fd-bf0d-6739b2845560","system_id":"levelo_inurba_marseille","lat":43.30306,"lon":5.39148,"is_reserved":false,"is_disabled":false,"rental_uris":{"android":"levelo://app?vid=74742f40-fa2c-48fd-bf0d-6739b2845560","ios":"levelo://app?vid=74742f40-fa2c-48fd-bf0d-6739b2845560"},"vehicle_type_id":"4","last_reported":1729865341,"current_range_meters":36800,"station_id":"ce4bgkh2rcd13ifvqbk0","pricing_plan_id":"cebpf4jnsgd1na2vs0mg"},{"bike_id":"5085653b-05c6-4f3a-a5a1-da4cffcb9ec9","system_id":"levelo_inurba_marseille","lat":43.28155,"lon":5.42639,"is_reserved":false,"is_disabled":false,"rental_uris":{"android":"levelo://app?vid=5085653b-05c6-4f3a-a5a1-da4cffcb9ec9","ios":"levelo://app?vid=5085653b-05c6-4f3a-a5a1-da4cffcb9ec9"},"vehicle_type_id":"4","last_reported":1729865341,"current_range_meters":38800,"station_id":"ce4bhnh2rcd13ifvqgug","pricing_plan_id":"cebpf4jnsgd1na2vs0mg"},{"bike_id":"f542537c-c18e-43bf-b13b-cee19eb4f644","system_id":"levelo_inurba_marseille","lat":43.31754,"lon":5.39029,"is_reserved":false,"is_disabled":false,"rental_uris":{"android":"levelo://app?vid=f542537c-c18e-43bf-b13b-cee19eb4f644","ios":"levelo://app?vid=f542537c-c18e-43bf-b13b-cee19eb4f644"},"vehicle_type_id":"4","last_reported":1729865341,"current_range_meters":35200,"station_id":"ce4bhqp2rcd13ifvqhng","pricing_plan_id":"cebpf4jnsgd1na2vs0mg"},{"bike_id":"9a1c6c58-3062-4a9d-a9d0-83b4a3a073db","system_id":"levelo_inurba_marseille","lat":43.29557,"lon":5.42292,"is_reserved":false,"is_disabled":false,"rental_uris":{"android":"levelo://app?vid=9a1c6c58-3062-4a9d-a9d0-83b4a3a073db","ios":"levelo://app?vid=9a1c6c58-3062-4a9d-a9d0-83b4a3a073db"},"vehicle_type_id":"4","last_reported":1729865341,"current_range_meters":27200,"station_id":"ce4bhph2rcd13ifvqhdg","pricing_plan_id":"cebpf4jnsgd1na2vs0mg"},{"bike_id":"5098f54a-2448-400a-a101-90762d04d5e1","system_id":"levelo_inurba_marseille","lat":43.31081,"lon":5.38365,"is_reserved":false,"is_disabled":false,"rental_uris":{"android":"levelo://app?vid=5098f54a-2448-400a-a101-90762d04d5e1","ios":"levelo://app?vid=5098f54a-2448-400a-a101-90762d04d5e1"},"vehicle_type_id":"4","last_reported":1729865341,"current_range_meters":19200,"station_id":"ce4bgv92rcd13ifvqcr0","pricing_plan_id":"cebpf4jnsgd1na2vs0mg"},{"bike_id":"b69629f5-3119-4609-ab12-4016242cb5ca","system_id":"levelo_inurba_marseille","lat":43.27071,"lon":5.42274,"is_reserved":false,"is_disabled":false,"rental_uris":{"android":"levelo://app?vid=b69629f5-3119-4609-ab12-4016242cb5ca","ios":"levelo://app?vid=b69629f5-3119-4609-ab12-4016242cb5ca"},"vehicle_type_id":"4","last_reported":1729865341,"current_range_meters":24800,"station_id":"ce4bhk92rcd13ifvqgb0","pricing_plan_id":"cebpf4jnsgd1na2vs0mg"},{"bike_id":"f347d2d3-8e62-42af-b56b-5696da48a0b0","system_id":"levelo_inurba_marseille","lat":43.26031,"lon":5.37549,"is_reserved":false,"is_disabled":false,"rental_uris":{"android":"levelo://app?vid=f347d2d3-8e62-42af-b56b-5696da48a0b0","ios":"levelo://app?vid=f347d2d3-8e62-42af-b56b-5696da48a0b0"},"vehicle_type_id":"4","last_reported":1729865341,"current_range_meters":38800,"station_id":"ce4bhgh2rcd13ifvqfa0","pricing_plan_id":"cebpf4jnsgd1na2vs0mg"},{"bike_id":"d51e70e3-e500-4ad8-afdb-77e572148b3c","system_id":"levelo_inurba_marseille","lat":43.30298,"lon":5.37701,"is_reserved":false,"is_disabled":false,"rental_uris":{"android":"levelo://app?vid=d51e70e3-e500-4ad8-afdb-77e572148b3c","ios":"levelo://app?vid=d51e70e3-e500-4ad8-afdb-77e572148b3c"},"vehicle_type_id":"4","last_reported":1729865341,"current_range_meters":38000,"station_id":"ce4bguh2rcd13ifvqcj0","pricing_plan_id":"cebpf4jnsgd1na2vs0mg"},{"bike_id":"868ad35c-bf5f-4bfb-a70d-644dee912ce8","system_id":"levelo_inurba_marseille","lat":43.28941,"lon":5.36639,"is_reserved":false,"is_disabled":false,"rental_uris":{"android":"levelo://app?vid=868ad35c-bf5f-4bfb-a70d-644dee912ce8","ios":"levelo://app?vid=868ad35c-bf5f-4bfb-a70d-644dee912ce8"},"vehicle_type_id":"4","last_reported":1729865341,"current_range_meters":3200,"station_id":"ce4bhap2rcd13ifvqek0","pricing_plan_id":"cebpf4jnsgd1na2vs0mg"},{"bike_id":"56c6f9f5-fdcb-4236-a945-56b86ab994b2","system_id":"levelo_inurba_marseille","lat":43.29233,"lon":5.36057,"is_reserved":false,"is_disabled":false,"rental_uris":{"android":"levelo://app?vid=56c6f9f5-fdcb-4236-a945-56b86ab994b2","ios":"levelo://app?vid=56c6f9f5-fdcb-4236-a945-56b86ab994b2"},"vehicle_type_id":"4","last_reported":1729865341,"current_range_meters":24400,"station_id":"ce4bhbh2rcd13ifvqeqg","pricing_plan_id":"cebpf4jnsgd1na2vs0mg"},{"bike_id":"103c0fd4-bc85-4d9d-b042-a4d344669667","system_id":"levelo_inurba_marseille","lat":43.33758,"lon":5.37427,"is_reserved":false,"is_disabled":false,"rental_uris":{"android":"levelo://app?vid=103c0fd4-bc85-4d9d-b042-a4d344669667","ios":"levelo://app?vid=103c0fd4-bc85-4d9d-b042-a4d344669667"},"vehicle_type_id":"4","last_reported":1729865341,"current_range_meters":38400,"station_id":"","pricing_plan_id":"cebpf4jnsgd1na2vs0mg"},{"bike_id":"31a57b9e-7abd-4c71-9f8a-04706c493db6","system_id":"levelo_inurba_marseille","lat":43.296112,"lon":5.369526,"is_reserved":false,"is_disabled":false,"rental_uris":{"android":"levelo://app?vid=31a57b9e-7abd-4c71-9f8a-04706c493db6","ios":"levelo://app?vid=31a57b9e-7abd-4c71-9f8a-04706c493db6"},"vehicle_type_id":"4","last_reported":1729865341,"current_range_meters":19600,"station_id":"ce4bgph2rcd13ifvqc2g","pricing_plan_id":"cebpf4jnsgd1na2vs0mg"},{"bike_id":"0ef8fba8-39c8-4140-84b7-f273a0e855f5","system_id":"levelo_inurba_marseille","lat":43.2732,"lon":5.39085,"is_reserved":false,"is_disabled":false,"rental_uris":{"android":"levelo://app?vid=0ef8fba8-39c8-4140-84b7-f273a0e855f5","ios":"levelo://app?vid=0ef8fba8-39c8-4140-84b7-f273a0e855f5"},"vehicle_type_id":"4","last_reported":1729865341,"current_range_meters":38800,"station_id":"ce4bhgp2rcd13ifvqfe0","pricing_plan_id":"cebpf4jnsgd1na2vs0mg"},{"bike_id":"6ae5c146-3499-40d3-86c2-6885fd8ebd2d","system_id":"levelo_inurba_marseille","lat":43.29585,"lon":5.36744,"is_reserved":false,"is_disabled":false,"rental_uris":{"android":"levelo://app?vid=6ae5c146-3499-40d3-86c2-6885fd8ebd2d","ios":"levelo://app?vid=6ae5c146-3499-40d3-86c2-6885fd8ebd2d"},"vehicle_type_id":"4","last_reported":1729865341,"current_range_meters":37600,"station_id":"ce4bgph2rcd13ifvqc2g","pricing_plan_id":"cebpf4jnsgd1na2vs0mg"},{"bike_id":"4d227370-bda0-4aeb-95e4-c1c70947d86a","system_id":"levelo_inurba_marseille","lat":43.27997,"lon":5.41662,"is_reserved":false,"is_disabled":false,"rental_uris":{"android":"levelo://app?vid=4d227370-bda0-4aeb-95e4-c1c70947d86a","ios":"levelo://app?vid=4d227370-bda0-4aeb-95e4-c1c70947d86a"},"vehicle_type_id":"4","last_reported":1729865341,"current_range_meters":20800,"station_id":"ce4bho12rcd13ifvqh1g","pricing_plan_id":"cebpf4jnsgd1na2vs0mg"},{"bike_id":"d8420af1-ffc8-4b89-ad2b-a63dcfb700fd","system_id":"levelo_inurba_marseille","lat":43.29166,"lon":5.37153,"is_reserved":false,"is_disabled":false,"rental_uris":{"android":"levelo://app?vid=d8420af1-ffc8-4b89-ad2b-a63dcfb700fd","ios":"levelo://app?vid=d8420af1-ffc8-4b89-ad2b-a63dcfb700fd"},"vehicle_type_id":"4","last_reported":1729865341,"current_range_meters":37600,"station_id":"ce4bha92rcd13ifvqeh0","pricing_plan_id":"cebpf4jnsgd1na2vs0mg"},{"bike_id":"730a8a49-65c2-430b-a094-6a5bece33e5f","system_id":"levelo_inurba_marseille","lat":43.30885,"lon":5.37148,"is_reserved":false,"is_disabled":false,"rental_uris":{"android":"levelo://app?vid=730a8a49-65c2-430b-a094-6a5bece33e5f","ios":"levelo://app?vid=730a8a49-65c2-430b-a094-6a5bece33e5f"},"vehicle_type_id":"4","last_reported":1729865341,"current_range_meters":38800,"station_id":"ce4bguh2rcd13ifvqckg","pricing_plan_id":"cebpf4jnsgd1na2vs0mg"},{"bike_id":"845e1b95-4e1f-4f0b-93b0-d4c186b9d1bb","system_id":"levelo_inurba_marseille","lat":43.25575,"lon":5.38234,"is_reserved":false,"is_disabled":false,"rental_uris":{"android":"levelo://app?vid=845e1b95-4e1f-4f0b-93b0-d4c186b9d1bb","ios":"levelo://app?vid=845e1b95-4e1f-4f0b-93b0-d4c186b9d1bb"},"vehicle_type_id":"4","last_reported":1729865341,"current_range_meters":8000,"station_id":"ce4bhih2rcd13ifvqfs0","pricing_plan_id":"cebpf4jnsgd1na2vs0mg"},{"bike_id":"b7ddd9ac-3b47-47ce-b1f5-8e2c1f385fdd","system_id":"levelo_inurba_marseille","lat":43.2794,"lon":5.41044,"is_reserved":false,"is_disabled":false,"rental_uris":{"android":"levelo://app?vid=b7ddd9ac-3b47-47ce-b1f5-8e2c1f385fdd","ios":"levelo://app?vid=b7ddd9ac-3b47-47ce-b1f5-8e2c1f385fdd"},"vehicle_type_id":"4","last_reported":1729865341,"current_range_meters":16800,"station_id":"ce4bhnp2rcd13ifvqh0g","pricing_plan_id":"cebpf4jnsgd1na2vs0mg"},{"bike_id":"85c65c7e-146c-40db-9550-aa4617881fa8","system_id":"levelo_inurba_marseille","lat":43.29411,"lon":5.38633,"is_reserved":false,"is_disabled":false,"rental_uris":{"android":"levelo://app?vid=85c65c7e-146c-40db-9550-aa4617881fa8","ios":"levelo://app?vid=85c65c7e-146c-40db-9550-aa4617881fa8"},"vehicle_type_id":"4","last_reported":1729865341,"current_range_meters":34000,"station_id":"ce4bh2h2rcd13ifvqdh0","pricing_plan_id":"cebpf4jnsgd1na2vs0mg"},{"bike_id":"afe02a10-b492-41ee-a678-02120512ec00","system_id":"levelo_inurba_marseille","lat":43.27574,"lon":5.38399,"is_reserved":false,"is_disabled":false,"rental_uris":{"android":"levelo://app?vid=afe02a10-b492-41ee-a678-02120512ec00","ios":"levelo://app?vid=afe02a10-b492-41ee-a678-02120512ec00"},"vehicle_type_id":"4","last_reported":1729865341,"current_range_meters":34000,"station_id":"ce4bhh92rcd13ifvqfi0","pricing_plan_id":"cebpf4jnsgd1na2vs0mg"},{"bike_id":"646e9e3b-f27f-4f3a-8bb4-f796b8f9ddbb","system_id":"levelo_inurba_marseille","lat":43.29975,"lon":5.37476,"is_reserved":false,"is_disabled":false,"rental_uris":{"android":"levelo://app?vid=646e9e3b-f27f-4f3a-8bb4-f796b8f9ddbb","ios":"levelo://app?vid=646e9e3b-f27f-4f3a-8bb4-f796b8f9ddbb"},"vehicle_type_id":"4","last_reported":1729865341,"current_range_meters":10800,"station_id":"","pricing_plan_id":"cebpf4jnsgd1na2vs0mg"},{"bike_id":"846a36a2-8d14-4cc1-98d4-2bd365d52156","system_id":"levelo_inurba_marseille","lat":43.30298,"lon":5.39223,"is_reserved":false,"is_disabled":false,"rental_uris":{"android":"levelo://app?vid=846a36a2-8d14-4cc1-98d4-2bd365d52156","ios":"levelo://app?vid=846a36a2-8d14-4cc1-98d4-2bd365d52156"},"vehicle_type_id":"4","last_reported":1729865341,"current_range_meters":25200,"station_id":"ce4bgkh2rcd13ifvqbk0","pricing_plan_id":"cebpf4jnsgd1na2vs0mg"},{"bike_id":"bd995abb-12e7-47a6-b0b9-e1f25439576a","system_id":"levelo_inurba_marseille","lat":43.25007,"lon":5.38927,"is_reserved":false,"is_disabled":false,"rental_uris":{"android":"levelo://app?vid=bd995abb-12e7-47a6-b0b9-e1f25439576a","ios":"levelo://app?vid=bd995abb-12e7-47a6-b0b9-e1f25439576a"},"vehicle_type_id":"4","last_reported":1729865341,"current_range_meters":38800,"station_id":"ce4bhgp2rcd13ifvqfd0","pricing_plan_id":"cebpf4jnsgd1na2vs0mg"},{"bike_id":"94683425-7064-4cd9-870f-3dcd50c4b3b3","system_id":"levelo_inurba_marseille","lat":43.32293,"lon":5.38259,"is_reserved":false,"is_disabled":false,"rental_uris":{"android":"levelo://app?vid=94683425-7064-4cd9-870f-3dcd50c4b3b3","ios":"levelo://app?vid=94683425-7064-4cd9-870f-3dcd50c4b3b3"},"vehicle_type_id":"4","last_reported":1729865341,"current_range_meters":30400,"station_id":"ce4bhr12rcd13ifvqhqg","pricing_plan_id":"cebpf4jnsgd1na2vs0mg"},{"bike_id":"43e0342e-7c69-4ef3-9959-2e5c770bab9f","system_id":"levelo_inurba_marseille","lat":43.22937,"lon":5.35381,"is_reserved":false,"is_disabled":false,"rental_uris":{"android":"levelo://app?vid=43e0342e-7c69-4ef3-9959-2e5c770bab9f","ios":"levelo://app?vid=43e0342e-7c69-4ef3-9959-2e5c770bab9f"},"vehicle_type_id":"4","last_reported":1729865341,"current_range_meters":18800,"station_id":"cpo3532slgdg3j2ikp40","pricing_plan_id":"cebpf4jnsgd1na2vs0mg"},{"bike_id":"30506dd3-5dff-4893-9985-60fd5a91a751","system_id":"levelo_inurba_marseille","lat":43.29579,"lon":5.36736,"is_reserved":false,"is_disabled":false,"rental_uris":{"android":"levelo://app?vid=30506dd3-5dff-4893-9985-60fd5a91a751","ios":"levelo://app?vid=30506dd3-5dff-4893-9985-60fd5a91a751"},"vehicle_type_id":"4","last_reported":1729865341,"current_range_meters":22000,"station_id":"ce4bgph2rcd13ifvqc2g","pricing_plan_id":"cebpf4jnsgd1na2vs0mg"},{"bike_id":"72f5cb6a-aa2a-4ea7-9dbe-9b47e39c495a","system_id":"levelo_inurba_marseille","lat":43.29912,"lon":5.38138,"is_reserved":false,"is_disabled":false,"rental_uris":{"android":"levelo://app?vid=72f5cb6a-aa2a-4ea7-9dbe-9b47e39c495a","ios":"levelo://app?vid=72f5cb6a-aa2a-4ea7-9dbe-9b47e39c495a"},"vehicle_type_id":"4","last_reported":1729865341,"current_range_meters":26000,"station_id":"ce4bgj12rcd13ifvqbc0","pricing_plan_id":"cebpf4jnsgd1na2vs0mg"},{"bike_id":"d3c4e640-57d6-4389-b8e6-eb4c10541417","system_id":"levelo_inurba_marseille","lat":43.287079,"lon":5.362631,"is_reserved":false,"is_disabled":false,"rental_uris":{"android":"levelo://app?vid=d3c4e640-57d6-4389-b8e6-eb4c10541417","ios":"levelo://app?vid=d3c4e640-57d6-4389-b8e6-eb4c10541417"},"vehicle_type_id":"4","last_reported":1729865341,"current_range_meters":25200,"station_id":"ce4bhah2rcd13ifvqej0","pricing_plan_id":"cebpf4jnsgd1na2vs0mg"},{"bike_id":"69c50a7a-8960-41bd-bcf6-67af981ebe82","system_id":"levelo_inurba_marseille","lat":43.28859,"lon":5.35853,"is_reserved":false,"is_disabled":false,"rental_uris":{"android":"levelo://app?vid=69c50a7a-8960-41bd-bcf6-67af981ebe82","ios":"levelo://app?vid=69c50a7a-8960-41bd-bcf6-67af981ebe82"},"vehicle_type_id":"4","last_reported":1729865341,"current_range_meters":36800,"station_id":"ce4bhb12rcd13ifvqem0","pricing_plan_id":"cebpf4jnsgd1na2vs0mg"},{"bike_id":"828fe52e-1917-45a4-bccc-4d59bf498682","system_id":"levelo_inurba_marseille","lat":43.29223,"lon":5.36062,"is_reserved":false,"is_disabled":false,"rental_uris":{"android":"levelo://app?vid=828fe52e-1917-45a4-bccc-4d59bf498682","ios":"levelo://app?vid=828fe52e-1917-45a4-bccc-4d59bf498682"},"vehicle_type_id":"4","last_reported":1729865341,"current_range_meters":36800,"station_id":"ce4bhbh2rcd13ifvqeqg","pricing_plan_id":"cebpf4jnsgd1na2vs0mg"},{"bike_id":"459864f2-a06f-4aa6-a59b-7b85f68285fe","system_id":"levelo_inurba_marseille","lat":43.293104,"lon":5.385574,"is_reserved":false,"is_disabled":false,"rental_uris":{"android":"levelo://app?vid=459864f2-a06f-4aa6-a59b-7b85f68285fe","ios":"levelo://app?vid=459864f2-a06f-4aa6-a59b-7b85f68285fe"},"vehicle_type_id":"4","last_reported":1729865341,"current_range_meters":27600,"station_id":"ce4bh692rcd13ifvqea0","pricing_plan_id":"cebpf4jnsgd1na2vs0mg"},{"bike_id":"365a5e76-e012-4983-b8a9-1a07480bde83","system_id":"levelo_inurba_marseille","lat":43.23203,"lon":5.3555,"is_reserved":false,"is_disabled":false,"rental_uris":{"android":"levelo://app?vid=365a5e76-e012-4983-b8a9-1a07480bde83","ios":"levelo://app?vid=365a5e76-e012-4983-b8a9-1a07480bde83"},"vehicle_type_id":"4","last_reported":1729865341,"current_range_meters":38800,"station_id":"ce4bhu92rcd13ifvqi70","pricing_plan_id":"cebpf4jnsgd1na2vs0mg"},{"bike_id":"176c2bd2-7d0c-4278-833a-48f82a51f6ca","system_id":"levelo_inurba_marseille","lat":43.26195,"lon":5.37933,"is_reserved":false,"is_disabled":false,"rental_uris":{"android":"levelo://app?vid=176c2bd2-7d0c-4278-833a-48f82a51f6ca","ios":"levelo://app?vid=176c2bd2-7d0c-4278-833a-48f82a51f6ca"},"vehicle_type_id":"4","last_reported":1729865341,"current_range_meters":38800,"station_id":"ce4bhjp2rcd13ifvqg90","pricing_plan_id":"cebpf4jnsgd1na2vs0mg"},{"bike_id":"41f153c9-6e2f-4115-a2bf-ece305a88b3a","system_id":"levelo_inurba_marseille","lat":43.2307,"lon":5.35489,"is_reserved":false,"is_disabled":false,"rental_uris":{"android":"levelo://app?vid=41f153c9-6e2f-4115-a2bf-ece305a88b3a","ios":"levelo://app?vid=41f153c9-6e2f-4115-a2bf-ece305a88b3a"},"vehicle_type_id":"4","last_reported":1729865341,"current_range_meters":30800,"station_id":"cpo3342slgdg3j2ifvpg","pricing_plan_id":"cebpf4jnsgd1na2vs0mg"},{"bike_id":"f1f3124d-156b-4ea3-8f8c-6dfee18217ad","system_id":"levelo_inurba_marseille","lat":43.27811,"lon":5.40712,"is_reserved":false,"is_disabled":false,"rental_uris":{"android":"levelo://app?vid=f1f3124d-156b-4ea3-8f8c-6dfee18217ad","ios":"levelo://app?vid=f1f3124d-156b-4ea3-8f8c-6dfee18217ad"},"vehicle_type_id":"4","last_reported":1729865341,"current_range_meters":38800,"station_id":"ce4bhnh2rcd13ifvqgtg","pricing_plan_id":"cebpf4jnsgd1na2vs0mg"},{"bike_id":"9b75049b-a480-4336-b5d5-a05ddf000c14","system_id":"levelo_inurba_marseille","lat":43.27178,"lon":5.40986,"is_reserved":false,"is_disabled":false,"rental_uris":{"android":"levelo://app?vid=9b75049b-a480-4336-b5d5-a05ddf000c14","ios":"levelo://app?vid=9b75049b-a480-4336-b5d5-a05ddf000c14"},"vehicle_type_id":"4","last_reported":1729865341,"current_range_meters":26800,"station_id":"ce4bhl12rcd13ifvqgf0","pricing_plan_id":"cebpf4jnsgd1na2vs0mg"},{"bike_id":"701f4efe-5ee2-466f-bc5c-b5ef951fc6a2","system_id":"levelo_inurba_marseille","lat":43.28464,"lon":5.35902,"is_reserved":false,"is_disabled":false,"rental_uris":{"android":"levelo://app?vid=701f4efe-5ee2-466f-bc5c-b5ef951fc6a2","ios":"levelo://app?vid=701f4efe-5ee2-466f-bc5c-b5ef951fc6a2"},"vehicle_type_id":"4","last_reported":1729865341,"current_range_meters":9600,"station_id":"ce4bhah2rcd13ifvqei0","pricing_plan_id":"cebpf4jnsgd1na2vs0mg"},{"bike_id":"8e2e0889-4785-4e39-a227-5b249af4c1f2","system_id":"levelo_inurba_marseille","lat":43.30558,"lon":5.36544,"is_reserved":false,"is_disabled":false,"rental_uris":{"android":"levelo://app?vid=8e2e0889-4785-4e39-a227-5b249af4c1f2","ios":"levelo://app?vid=8e2e0889-4785-4e39-a227-5b249af4c1f2"},"vehicle_type_id":"4","last_reported":1729865341,"current_range_meters":8000,"station_id":"ce4bgs12rcd13ifvqcag","pricing_plan_id":"cebpf4jnsgd1na2vs0mg"},{"bike_id":"ffaf6d1c-64f9-4c62-bbf1-b08f3ad9a305","system_id":"levelo_inurba_marseille","lat":43.33749,"lon":5.37444,"is_reserved":false,"is_disabled":false,"rental_uris":{"android":"levelo://app?vid=ffaf6d1c-64f9-4c62-bbf1-b08f3ad9a305","ios":"levelo://app?vid=ffaf6d1c-64f9-4c62-bbf1-b08f3ad9a305"},"vehicle_type_id":"4","last_reported":1729865341,"current_range_meters":23200,"station_id":"","pricing_plan_id":"cebpf4jnsgd1na2vs0mg"},{"bike_id":"310dfb07-5ec1-458c-8adc-ad355c2060e6","system_id":"levelo_inurba_marseille","lat":43.2815,"lon":5.42642,"is_reserved":false,"is_disabled":false,"rental_uris":{"android":"levelo://app?vid=310dfb07-5ec1-458c-8adc-ad355c2060e6","ios":"levelo://app?vid=310dfb07-5ec1-458c-8adc-ad355c2060e6"},"vehicle_type_id":"4","last_reported":1729865341,"current_range_meters":18800,"station_id":"ce4bhnh2rcd13ifvqgug","pricing_plan_id":"cebpf4jnsgd1na2vs0mg"},{"bike_id":"cb10084e-f507-4f6f-a222-e926d9c07748","system_id":"levelo_inurba_marseille","lat":43.27813,"lon":5.40713,"is_reserved":false,"is_disabled":false,"rental_uris":{"android":"levelo://app?vid=cb10084e-f507-4f6f-a222-e926d9c07748","ios":"levelo://app?vid=cb10084e-f507-4f6f-a222-e926d9c07748"},"vehicle_type_id":"4","last_reported":1729865341,"current_range_meters":34800,"station_id":"ce4bhnh2rcd13ifvqgtg","pricing_plan_id":"cebpf4jnsgd1na2vs0mg"},{"bike_id":"8b030cca-c71f-46b9-af75-48e66e0f8a1e","system_id":"levelo_inurba_marseille","lat":43.24077,"lon":5.37755,"is_reserved":false,"is_disabled":false,"rental_uris":{"android":"levelo://app?vid=8b030cca-c71f-46b9-af75-48e66e0f8a1e","ios":"levelo://app?vid=8b030cca-c71f-46b9-af75-48e66e0f8a1e"},"vehicle_type_id":"4","last_reported":1729865341,"current_range_meters":6800,"station_id":"ce4bhnp2rcd13ifvqgvg","pricing_plan_id":"cebpf4jnsgd1na2vs0mg"},{"bike_id":"d41d44c6-130d-4fe6-9aad-30ea39124c71","system_id":"levelo_inurba_marseille","lat":43.27376,"lon":5.3626,"is_reserved":false,"is_disabled":false,"rental_uris":{"android":"levelo://app?vid=d41d44c6-130d-4fe6-9aad-30ea39124c71","ios":"levelo://app?vid=d41d44c6-130d-4fe6-9aad-30ea39124c71"},"vehicle_type_id":"4","last_reported":1729865341,"current_range_meters":18800,"station_id":"ce4bhbh2rcd13ifvqeo0","pricing_plan_id":"cebpf4jnsgd1na2vs0mg"},{"bike_id":"45d055d8-70e6-4165-a5ae-f57dd0ab9057","system_id":"levelo_inurba_marseille","lat":43.27567,"lon":5.38408,"is_reserved":false,"is_disabled":false,"rental_uris":{"android":"levelo://app?vid=45d055d8-70e6-4165-a5ae-f57dd0ab9057","ios":"levelo://app?vid=45d055d8-70e6-4165-a5ae-f57dd0ab9057"},"vehicle_type_id":"4","last_reported":1729865341,"current_range_meters":17200,"station_id":"ce4bhh92rcd13ifvqfi0","pricing_plan_id":"cebpf4jnsgd1na2vs0mg"},{"bike_id":"1616a665-bd87-4069-afc1-9e7d67993e70","system_id":"levelo_inurba_marseille","lat":43.27994,"lon":5.41665,"is_reserved":false,"is_disabled":false,"rental_uris":{"android":"levelo://app?vid=1616a665-bd87-4069-afc1-9e7d67993e70","ios":"levelo://app?vid=1616a665-bd87-4069-afc1-9e7d67993e70"},"vehicle_type_id":"4","last_reported":1729865341,"current_range_meters":12000,"station_id":"ce4bho12rcd13ifvqh1g","pricing_plan_id":"cebpf4jnsgd1na2vs0mg"},{"bike_id":"e4915fc6-4f7e-439b-a31d-5a0ca8bf3eda","system_id":"levelo_inurba_marseille","lat":43.30539,"lon":5.36697,"is_reserved":false,"is_disabled":false,"rental_uris":{"android":"levelo://app?vid=e4915fc6-4f7e-439b-a31d-5a0ca8bf3eda","ios":"levelo://app?vid=e4915fc6-4f7e-439b-a31d-5a0ca8bf3eda"},"vehicle_type_id":"4","last_reported":1729865341,"current_range_meters":38800,"station_id":"ce4bgrp2rcd13ifvqc9g","pricing_plan_id":"cebpf4jnsgd1na2vs0mg"},{"bike_id":"249243ca-dcde-4ee2-a271-cecba04e02b5","system_id":"levelo_inurba_marseille","lat":43.27315,"lon":5.39102,"is_reserved":false,"is_disabled":false,"rental_uris":{"android":"levelo://app?vid=249243ca-dcde-4ee2-a271-cecba04e02b5","ios":"levelo://app?vid=249243ca-dcde-4ee2-a271-cecba04e02b5"},"vehicle_type_id":"4","last_reported":1729865341,"current_range_meters":38800,"station_id":"ce4bhgp2rcd13ifvqfe0","pricing_plan_id":"cebpf4jnsgd1na2vs0mg"},{"bike_id":"3561e35e-8265-45be-a231-876ec833642d","system_id":"levelo_inurba_marseille","lat":43.26577,"lon":5.39009,"is_reserved":false,"is_disabled":false,"rental_uris":{"android":"levelo://app?vid=3561e35e-8265-45be-a231-876ec833642d","ios":"levelo://app?vid=3561e35e-8265-45be-a231-876ec833642d"},"vehicle_type_id":"4","last_reported":1729865341,"current_range_meters":14400,"station_id":"ce4bhe12rcd13ifvqf30","pricing_plan_id":"cebpf4jnsgd1na2vs0mg"},{"bike_id":"2ef8586e-e691-4251-b2db-7e67dae65119","system_id":"levelo_inurba_marseille","lat":43.30556,"lon":5.36547,"is_reserved":false,"is_disabled":false,"rental_uris":{"android":"levelo://app?vid=2ef8586e-e691-4251-b2db-7e67dae65119","ios":"levelo://app?vid=2ef8586e-e691-4251-b2db-7e67dae65119"},"vehicle_type_id":"4","last_reported":1729865341,"current_range_meters":12400,"station_id":"ce4bgs12rcd13ifvqcag","pricing_plan_id":"cebpf4jnsgd1na2vs0mg"},{"bike_id":"a4f0f8c4-d9ab-4be3-b3a1-d86b685609a9","system_id":"levelo_inurba_marseille","lat":43.30887,"lon":5.37194,"is_reserved":false,"is_disabled":false,"rental_uris":{"android":"levelo://app?vid=a4f0f8c4-d9ab-4be3-b3a1-d86b685609a9","ios":"levelo://app?vid=a4f0f8c4-d9ab-4be3-b3a1-d86b685609a9"},"vehicle_type_id":"4","last_reported":1729865341,"current_range_meters":26000,"station_id":"ce4bguh2rcd13ifvqckg","pricing_plan_id":"cebpf4jnsgd1na2vs0mg"},{"bike_id":"b8c9ac1e-bdf8-4af3-8039-13c51d6bb64d","system_id":"levelo_inurba_marseille","lat":43.30528,"lon":5.36699,"is_reserved":false,"is_disabled":false,"rental_uris":{"android":"levelo://app?vid=b8c9ac1e-bdf8-4af3-8039-13c51d6bb64d","ios":"levelo://app?vid=b8c9ac1e-bdf8-4af3-8039-13c51d6bb64d"},"vehicle_type_id":"4","last_reported":1729865341,"current_range_meters":39200,"station_id":"ce4bgrp2rcd13ifvqc9g","pricing_plan_id":"cebpf4jnsgd1na2vs0mg"},{"bike_id":"9b263669-fef7-4ad3-858f-68106bf48cd5","system_id":"levelo_inurba_marseille","lat":43.23194,"lon":5.35546,"is_reserved":false,"is_disabled":false,"rental_uris":{"android":"levelo://app?vid=9b263669-fef7-4ad3-858f-68106bf48cd5","ios":"levelo://app?vid=9b263669-fef7-4ad3-858f-68106bf48cd5"},"vehicle_type_id":"4","last_reported":1729865341,"current_range_meters":3600,"station_id":"ce4bhu92rcd13ifvqi70","pricing_plan_id":"cebpf4jnsgd1na2vs0mg"},{"bike_id":"fbc51d62-a6cf-4eff-8410-46378049feec","system_id":"levelo_inurba_marseille","lat":43.28704,"lon":5.39979,"is_reserved":false,"is_disabled":false,"rental_uris":{"android":"levelo://app?vid=fbc51d62-a6cf-4eff-8410-46378049feec","ios":"levelo://app?vid=fbc51d62-a6cf-4eff-8410-46378049feec"},"vehicle_type_id":"4","last_reported":1729865341,"current_range_meters":30000,"station_id":"ce4bho92rcd13ifvqh3g","pricing_plan_id":"cebpf4jnsgd1na2vs0mg"},{"bike_id":"80354baf-fe77-4f0c-ba39-7fd425bd173e","system_id":"levelo_inurba_marseille","lat":43.30133,"lon":5.39865,"is_reserved":false,"is_disabled":false,"rental_uris":{"android":"levelo://app?vid=80354baf-fe77-4f0c-ba39-7fd425bd173e","ios":"levelo://app?vid=80354baf-fe77-4f0c-ba39-7fd425bd173e"},"vehicle_type_id":"4","last_reported":1729865341,"current_range_meters":27200,"station_id":"ce4bh0h2rcd13ifvqd40","pricing_plan_id":"cebpf4jnsgd1na2vs0mg"},{"bike_id":"106c8015-9efa-403f-ad28-1aca3a14a7f6","system_id":"levelo_inurba_marseille","lat":43.33024,"lon":5.39045,"is_reserved":false,"is_disabled":false,"rental_uris":{"android":"levelo://app?vid=106c8015-9efa-403f-ad28-1aca3a14a7f6","ios":"levelo://app?vid=106c8015-9efa-403f-ad28-1aca3a14a7f6"},"vehicle_type_id":"4","last_reported":1729865341,"current_range_meters":16000,"station_id":"ce4bhr92rcd13ifvqhrg","pricing_plan_id":"cebpf4jnsgd1na2vs0mg"},{"bike_id":"cb60a0f7-69aa-4d7b-813d-969c2e15c7a5","system_id":"levelo_inurba_marseille","lat":43.29276,"lon":5.38452,"is_reserved":false,"is_disabled":false,"rental_uris":{"android":"levelo://app?vid=cb60a0f7-69aa-4d7b-813d-969c2e15c7a5","ios":"levelo://app?vid=cb60a0f7-69aa-4d7b-813d-969c2e15c7a5"},"vehicle_type_id":"4","last_reported":1729865341,"current_range_meters":31200,"station_id":"ce4bh692rcd13ifvqea0","pricing_plan_id":"cebpf4jnsgd1na2vs0mg"},{"bike_id":"4ca8ad0a-be09-4f84-b34a-80128b20764b","system_id":"levelo_inurba_marseille","lat":43.30278,"lon":5.37694,"is_reserved":false,"is_disabled":false,"rental_uris":{"android":"levelo://app?vid=4ca8ad0a-be09-4f84-b34a-80128b20764b","ios":"levelo://app?vid=4ca8ad0a-be09-4f84-b34a-80128b20764b"},"vehicle_type_id":"4","last_reported":1729865341,"current_range_meters":30800,"station_id":"ce4bguh2rcd13ifvqcj0","pricing_plan_id":"cebpf4jnsgd1na2vs0mg"},{"bike_id":"d4122d26-01de-49db-a3ca-c4321d6a9186","system_id":"levelo_inurba_marseille","lat":43.27306,"lon":5.39081,"is_reserved":false,"is_disabled":false,"rental_uris":{"android":"levelo://app?vid=d4122d26-01de-49db-a3ca-c4321d6a9186","ios":"levelo://app?vid=d4122d26-01de-49db-a3ca-c4321d6a9186"},"vehicle_type_id":"4","last_reported":1729865341,"current_range_meters":25200,"station_id":"ce4bhgp2rcd13ifvqfe0","pricing_plan_id":"cebpf4jnsgd1na2vs0mg"},{"bike_id":"da90dbb0-e997-4133-be64-d5b112dac3a1","system_id":"levelo_inurba_marseille","lat":43.2417,"lon":5.36391,"is_reserved":false,"is_disabled":false,"rental_uris":{"android":"levelo://app?vid=da90dbb0-e997-4133-be64-d5b112dac3a1","ios":"levelo://app?vid=da90dbb0-e997-4133-be64-d5b112dac3a1"},"vehicle_type_id":"4","last_reported":1729865341,"current_range_meters":34800,"station_id":"cpo36qri1sfpv3e86is0","pricing_plan_id":"cebpf4jnsgd1na2vs0mg"},{"bike_id":"55fc16ea-d0cb-42e1-a22f-ed8d647e54c1","system_id":"levelo_inurba_marseille","lat":43.30306,"lon":5.39214,"is_reserved":false,"is_disabled":false,"rental_uris":{"android":"levelo://app?vid=55fc16ea-d0cb-42e1-a22f-ed8d647e54c1","ios":"levelo://app?vid=55fc16ea-d0cb-42e1-a22f-ed8d647e54c1"},"vehicle_type_id":"4","last_reported":1729865341,"current_range_meters":38800,"station_id":"ce4bgkh2rcd13ifvqbk0","pricing_plan_id":"cebpf4jnsgd1na2vs0mg"},{"bike_id":"fbeef37b-1dea-4f75-9b4d-a3b0e464a388","system_id":"levelo_inurba_marseille","lat":43.30304,"lon":5.3689,"is_reserved":false,"is_disabled":false,"rental_uris":{"android":"levelo://app?vid=fbeef37b-1dea-4f75-9b4d-a3b0e464a388","ios":"levelo://app?vid=fbeef37b-1dea-4f75-9b4d-a3b0e464a388"},"vehicle_type_id":"4","last_reported":1729865341,"current_range_meters":18800,"station_id":"ce4bgqh2rcd13ifvqc5g","pricing_plan_id":"cebpf4jnsgd1na2vs0mg"},{"bike_id":"351e9c5c-0a22-404a-a015-303eb54d5e2d","system_id":"levelo_inurba_marseille","lat":43.28425,"lon":5.3499,"is_reserved":false,"is_disabled":false,"rental_uris":{"android":"levelo://app?vid=351e9c5c-0a22-404a-a015-303eb54d5e2d","ios":"levelo://app?vid=351e9c5c-0a22-404a-a015-303eb54d5e2d"},"vehicle_type_id":"4","last_reported":1729865341,"current_range_meters":12400,"station_id":"ce4bhbh2rcd13ifvqepg","pricing_plan_id":"cebpf4jnsgd1na2vs0mg"},{"bike_id":"04e1c48f-b4d0-48ca-8b24-cbabc990a674","system_id":"levelo_inurba_marseille","lat":43.31364,"lon":5.36714,"is_reserved":false,"is_disabled":false,"rental_uris":{"android":"levelo://app?vid=04e1c48f-b4d0-48ca-8b24-cbabc990a674","ios":"levelo://app?vid=04e1c48f-b4d0-48ca-8b24-cbabc990a674"},"vehicle_type_id":"4","last_reported":1729865341,"current_range_meters":30400,"station_id":"ce4bgr92rcd13ifvqc6g","pricing_plan_id":"cebpf4jnsgd1na2vs0mg"},{"bike_id":"bb82304b-ed38-4980-8fcc-2aa6b5a914c2","system_id":"levelo_inurba_marseille","lat":43.31486,"lon":5.37303,"is_reserved":false,"is_disabled":false,"rental_uris":{"android":"levelo://app?vid=bb82304b-ed38-4980-8fcc-2aa6b5a914c2","ios":"levelo://app?vid=bb82304b-ed38-4980-8fcc-2aa6b5a914c2"},"vehicle_type_id":"4","last_reported":1729865341,"current_range_meters":39200,"station_id":"ce4bgt12rcd13ifvqcd0","pricing_plan_id":"cebpf4jnsgd1na2vs0mg"},{"bike_id":"66b50a86-83ee-425d-b133-111723e3ef3b","system_id":"levelo_inurba_marseille","lat":43.30358,"lon":5.41866,"is_reserved":false,"is_disabled":false,"rental_uris":{"android":"levelo://app?vid=66b50a86-83ee-425d-b133-111723e3ef3b","ios":"levelo://app?vid=66b50a86-83ee-425d-b133-111723e3ef3b"},"vehicle_type_id":"4","last_reported":1729865341,"current_range_meters":6400,"station_id":"ce4bhop2rcd13ifvqh7g","pricing_plan_id":"cebpf4jnsgd1na2vs0mg"},{"bike_id":"ebe9fe70-b383-41c5-90c1-a8c938497520","system_id":"levelo_inurba_marseille","lat":43.265,"lon":5.39578,"is_reserved":false,"is_disabled":false,"rental_uris":{"android":"levelo://app?vid=ebe9fe70-b383-41c5-90c1-a8c938497520","ios":"levelo://app?vid=ebe9fe70-b383-41c5-90c1-a8c938497520"},"vehicle_type_id":"4","last_reported":1729865341,"current_range_meters":8400,"station_id":"ce4bhi12rcd13ifvqfq0","pricing_plan_id":"cebpf4jnsgd1na2vs0mg"},{"bike_id":"692a8c38-fcf9-49f6-b7eb-d0a3b098f1f1","system_id":"levelo_inurba_marseille","lat":43.29897,"lon":5.43656,"is_reserved":false,"is_disabled":false,"rental_uris":{"android":"levelo://app?vid=692a8c38-fcf9-49f6-b7eb-d0a3b098f1f1","ios":"levelo://app?vid=692a8c38-fcf9-49f6-b7eb-d0a3b098f1f1"},"vehicle_type_id":"4","last_reported":1729865341,"current_range_meters":30800,"station_id":"ce4bhpp2rcd13ifvqhfg","pricing_plan_id":"cebpf4jnsgd1na2vs0mg"},{"bike_id":"02c53b2b-9d2e-4ec2-a0c7-cb04de7a1cc2","system_id":"levelo_inurba_marseille","lat":43.29231,"lon":5.36054,"is_reserved":false,"is_disabled":false,"rental_uris":{"android":"levelo://app?vid=02c53b2b-9d2e-4ec2-a0c7-cb04de7a1cc2","ios":"levelo://app?vid=02c53b2b-9d2e-4ec2-a0c7-cb04de7a1cc2"},"vehicle_type_id":"4","last_reported":1729865341,"current_range_meters":38800,"station_id":"ce4bhbh2rcd13ifvqeqg","pricing_plan_id":"cebpf4jnsgd1na2vs0mg"},{"bike_id":"8a53ddfb-ad33-4441-8975-1ab5121f620d","system_id":"levelo_inurba_marseille","lat":43.28848,"lon":5.35854,"is_reserved":false,"is_disabled":false,"rental_uris":{"android":"levelo://app?vid=8a53ddfb-ad33-4441-8975-1ab5121f620d","ios":"levelo://app?vid=8a53ddfb-ad33-4441-8975-1ab5121f620d"},"vehicle_type_id":"4","last_reported":1729865341,"current_range_meters":38800,"station_id":"ce4bhb12rcd13ifvqem0","pricing_plan_id":"cebpf4jnsgd1na2vs0mg"},{"bike_id":"76c3083f-6fca-4db8-9ef2-8459c5c38e4a","system_id":"levelo_inurba_marseille","lat":43.30907,"lon":5.36856,"is_reserved":false,"is_disabled":false,"rental_uris":{"android":"levelo://app?vid=76c3083f-6fca-4db8-9ef2-8459c5c38e4a","ios":"levelo://app?vid=76c3083f-6fca-4db8-9ef2-8459c5c38e4a"},"vehicle_type_id":"4","last_reported":1729865341,"current_range_meters":36400,"station_id":"ce4bgn92rcd13ifvqbvg","pricing_plan_id":"cebpf4jnsgd1na2vs0mg"},{"bike_id":"a292fc9f-9145-4254-a577-6ea6e3c96ce6","system_id":"levelo_inurba_marseille","lat":43.24808,"lon":5.37455,"is_reserved":false,"is_disabled":false,"rental_uris":{"android":"levelo://app?vid=a292fc9f-9145-4254-a577-6ea6e3c96ce6","ios":"levelo://app?vid=a292fc9f-9145-4254-a577-6ea6e3c96ce6"},"vehicle_type_id":"4","last_reported":1729865341,"current_range_meters":19600,"station_id":"ce4bhgh2rcd13ifvqfb0","pricing_plan_id":"cebpf4jnsgd1na2vs0mg"},{"bike_id":"25485ad0-5b97-42a6-8b08-419143f64e26","system_id":"levelo_inurba_marseille","lat":43.26498,"lon":5.39546,"is_reserved":false,"is_disabled":false,"rental_uris":{"android":"levelo://app?vid=25485ad0-5b97-42a6-8b08-419143f64e26","ios":"levelo://app?vid=25485ad0-5b97-42a6-8b08-419143f64e26"},"vehicle_type_id":"4","last_reported":1729865341,"current_range_meters":8400,"station_id":"ce4bhi12rcd13ifvqfq0","pricing_plan_id":"cebpf4jnsgd1na2vs0mg"},{"bike_id":"0c3e42b7-51b5-4c8f-be5e-6830d1b71fbb","system_id":"levelo_inurba_marseille","lat":43.30897,"lon":5.37195,"is_reserved":false,"is_disabled":false,"rental_uris":{"android":"levelo://app?vid=0c3e42b7-51b5-4c8f-be5e-6830d1b71fbb","ios":"levelo://app?vid=0c3e42b7-51b5-4c8f-be5e-6830d1b71fbb"},"vehicle_type_id":"4","last_reported":1729865341,"current_range_meters":36800,"station_id":"ce4bguh2rcd13ifvqckg","pricing_plan_id":"cebpf4jnsgd1na2vs0mg"},{"bike_id":"5de01b83-273f-473a-b0f3-afa3453d20b1","system_id":"levelo_inurba_marseille","lat":43.288452,"lon":5.35863,"is_reserved":false,"is_disabled":false,"rental_uris":{"android":"levelo://app?vid=5de01b83-273f-473a-b0f3-afa3453d20b1","ios":"levelo://app?vid=5de01b83-273f-473a-b0f3-afa3453d20b1"},"vehicle_type_id":"4","last_reported":1729865341,"current_range_meters":25600,"station_id":"ce4bhb12rcd13ifvqem0","pricing_plan_id":"cebpf4jnsgd1na2vs0mg"},{"bike_id":"3eecbdba-5578-4e57-8f19-3b43c8221909","system_id":"levelo_inurba_marseille","lat":43.3036,"lon":5.41874,"is_reserved":false,"is_disabled":false,"rental_uris":{"android":"levelo://app?vid=3eecbdba-5578-4e57-8f19-3b43c8221909","ios":"levelo://app?vid=3eecbdba-5578-4e57-8f19-3b43c8221909"},"vehicle_type_id":"4","last_reported":1729865341,"current_range_meters":27600,"station_id":"ce4bhop2rcd13ifvqh7g","pricing_plan_id":"cebpf4jnsgd1na2vs0mg"},{"bike_id":"c3fc543e-8dec-4647-9d6a-9337f37b19c6","system_id":"levelo_inurba_marseille","lat":43.302858,"lon":5.376993,"is_reserved":false,"is_disabled":false,"rental_uris":{"android":"levelo://app?vid=c3fc543e-8dec-4647-9d6a-9337f37b19c6","ios":"levelo://app?vid=c3fc543e-8dec-4647-9d6a-9337f37b19c6"},"vehicle_type_id":"4","last_reported":1729865341,"current_range_meters":33200,"station_id":"ce4bguh2rcd13ifvqcj0","pricing_plan_id":"cebpf4jnsgd1na2vs0mg"},{"bike_id":"ed6713bc-d136-41e9-b2cb-4c5e09d9a0dc","system_id":"levelo_inurba_marseille","lat":43.247417,"lon":5.38032,"is_reserved":false,"is_disabled":false,"rental_uris":{"android":"levelo://app?vid=ed6713bc-d136-41e9-b2cb-4c5e09d9a0dc","ios":"levelo://app?vid=ed6713bc-d136-41e9-b2cb-4c5e09d9a0dc"},"vehicle_type_id":"4","last_reported":1729865341,"current_range_meters":18000,"station_id":"","pricing_plan_id":"cebpf4jnsgd1na2vs0mg"},{"bike_id":"065780dc-32ec-41d3-bb41-d8deff891cf1","system_id":"levelo_inurba_marseille","lat":43.27998,"lon":5.40008,"is_reserved":false,"is_disabled":false,"rental_uris":{"android":"levelo://app?vid=065780dc-32ec-41d3-bb41-d8deff891cf1","ios":"levelo://app?vid=065780dc-32ec-41d3-bb41-d8deff891cf1"},"vehicle_type_id":"4","last_reported":1729865341,"current_range_meters":16800,"station_id":"ce4bho92rcd13ifvqh4g","pricing_plan_id":"cebpf4jnsgd1na2vs0mg"},{"bike_id":"4b0705eb-dca0-45c1-97a4-1cf7e62fe214","system_id":"levelo_inurba_marseille","lat":43.33772,"lon":5.3744,"is_reserved":false,"is_disabled":false,"rental_uris":{"android":"levelo://app?vid=4b0705eb-dca0-45c1-97a4-1cf7e62fe214","ios":"levelo://app?vid=4b0705eb-dca0-45c1-97a4-1cf7e62fe214"},"vehicle_type_id":"4","last_reported":1729865341,"current_range_meters":38400,"station_id":"","pricing_plan_id":"cebpf4jnsgd1na2vs0mg"},{"bike_id":"9131424d-5f38-4003-a915-c4f2698059fa","system_id":"levelo_inurba_marseille","lat":43.24087,"lon":5.37747,"is_reserved":false,"is_disabled":false,"rental_uris":{"android":"levelo://app?vid=9131424d-5f38-4003-a915-c4f2698059fa","ios":"levelo://app?vid=9131424d-5f38-4003-a915-c4f2698059fa"},"vehicle_type_id":"4","last_reported":1729865341,"current_range_meters":34000,"station_id":"ce4bhnp2rcd13ifvqgvg","pricing_plan_id":"cebpf4jnsgd1na2vs0mg"},{"bike_id":"68093386-8337-41d2-a8df-9164085e7be0","system_id":"levelo_inurba_marseille","lat":43.26568,"lon":5.3901,"is_reserved":false,"is_disabled":false,"rental_uris":{"android":"levelo://app?vid=68093386-8337-41d2-a8df-9164085e7be0","ios":"levelo://app?vid=68093386-8337-41d2-a8df-9164085e7be0"},"vehicle_type_id":"4","last_reported":1729865341,"current_range_meters":23200,"station_id":"ce4bhe12rcd13ifvqf30","pricing_plan_id":"cebpf4jnsgd1na2vs0mg"},{"bike_id":"b947db3b-90bb-4ec3-b8df-3a21c18085bc","system_id":"levelo_inurba_marseille","lat":43.29617,"lon":5.37713,"is_reserved":false,"is_disabled":false,"rental_uris":{"android":"levelo://app?vid=b947db3b-90bb-4ec3-b8df-3a21c18085bc","ios":"levelo://app?vid=b947db3b-90bb-4ec3-b8df-3a21c18085bc"},"vehicle_type_id":"4","last_reported":1729865341,"current_range_meters":28000,"station_id":"ce4bgi92rcd13ifvqb90","pricing_plan_id":"cebpf4jnsgd1na2vs0mg"},{"bike_id":"1a3e9356-98ff-4d3f-8d01-1c31934f98b6","system_id":"levelo_inurba_marseille","lat":43.2769,"lon":5.38895,"is_reserved":false,"is_disabled":false,"rental_uris":{"android":"levelo://app?vid=1a3e9356-98ff-4d3f-8d01-1c31934f98b6","ios":"levelo://app?vid=1a3e9356-98ff-4d3f-8d01-1c31934f98b6"},"vehicle_type_id":"4","last_reported":1729865341,"current_range_meters":22000,"station_id":"ce4bhi12rcd13ifvqfo0","pricing_plan_id":"cebpf4jnsgd1na2vs0mg"},{"bike_id":"5e037114-5f20-48b9-974c-dc5497f4b904","system_id":"levelo_inurba_marseille","lat":43.29729,"lon":5.38087,"is_reserved":false,"is_disabled":false,"rental_uris":{"android":"levelo://app?vid=5e037114-5f20-48b9-974c-dc5497f4b904","ios":"levelo://app?vid=5e037114-5f20-48b9-974c-dc5497f4b904"},"vehicle_type_id":"4","last_reported":1729865341,"current_range_meters":18000,"station_id":"ce4bgip2rcd13ifvqbb0","pricing_plan_id":"cebpf4jnsgd1na2vs0mg"},{"bike_id":"c496f2d6-16bc-4951-91ae-5fc5338f6691","system_id":"levelo_inurba_marseille","lat":43.3376,"lon":5.374567,"is_reserved":false,"is_disabled":false,"rental_uris":{"android":"levelo://app?vid=c496f2d6-16bc-4951-91ae-5fc5338f6691","ios":"levelo://app?vid=c496f2d6-16bc-4951-91ae-5fc5338f6691"},"vehicle_type_id":"4","last_reported":1729865341,"current_range_meters":35600,"station_id":"","pricing_plan_id":"cebpf4jnsgd1na2vs0mg"},{"bike_id":"55b0b422-0b11-4301-8d89-bff868245ed4","system_id":"levelo_inurba_marseille","lat":43.28942,"lon":5.36639,"is_reserved":false,"is_disabled":false,"rental_uris":{"android":"levelo://app?vid=55b0b422-0b11-4301-8d89-bff868245ed4","ios":"levelo://app?vid=55b0b422-0b11-4301-8d89-bff868245ed4"},"vehicle_type_id":"4","last_reported":1729865341,"current_range_meters":9200,"station_id":"ce4bhap2rcd13ifvqek0","pricing_plan_id":"cebpf4jnsgd1na2vs0mg"},{"bike_id":"969932e8-249a-41a9-acb4-a876d3015310","system_id":"levelo_inurba_marseille","lat":43.25584,"lon":5.3824,"is_reserved":false,"is_disabled":false,"rental_uris":{"android":"levelo://app?vid=969932e8-249a-41a9-acb4-a876d3015310","ios":"levelo://app?vid=969932e8-249a-41a9-acb4-a876d3015310"},"vehicle_type_id":"4","last_reported":1729865341,"current_range_meters":29600,"station_id":"ce4bhih2rcd13ifvqfs0","pricing_plan_id":"cebpf4jnsgd1na2vs0mg"},{"bike_id":"6c0f09af-a9a0-4daa-b1f0-b90b599ccc5f","system_id":"levelo_inurba_marseille","lat":43.2417,"lon":5.36398,"is_reserved":false,"is_disabled":false,"rental_uris":{"android":"levelo://app?vid=6c0f09af-a9a0-4daa-b1f0-b90b599ccc5f","ios":"levelo://app?vid=6c0f09af-a9a0-4daa-b1f0-b90b599ccc5f"},"vehicle_type_id":"4","last_reported":1729865341,"current_range_meters":27200,"station_id":"cpo36qri1sfpv3e86is0","pricing_plan_id":"cebpf4jnsgd1na2vs0mg"},{"bike_id":"ca74f307-8e51-428b-9bcc-27aadc03418e","system_id":"levelo_inurba_marseille","lat":43.31692,"lon":5.40472,"is_reserved":false,"is_disabled":false,"rental_uris":{"android":"levelo://app?vid=ca74f307-8e51-428b-9bcc-27aadc03418e","ios":"levelo://app?vid=ca74f307-8e51-428b-9bcc-27aadc03418e"},"vehicle_type_id":"4","last_reported":1729865341,"current_range_meters":37600,"station_id":"ce4bh012rcd13ifvqd00","pricing_plan_id":"cebpf4jnsgd1na2vs0mg"},{"bike_id":"d3035504-3f1a-4fb0-998c-0737b49322a1","system_id":"levelo_inurba_marseille","lat":43.29408,"lon":5.43055,"is_reserved":false,"is_disabled":false,"rental_uris":{"android":"levelo://app?vid=d3035504-3f1a-4fb0-998c-0737b49322a1","ios":"levelo://app?vid=d3035504-3f1a-4fb0-998c-0737b49322a1"},"vehicle_type_id":"4","last_reported":1729865341,"current_range_meters":34800,"station_id":"ce4bh192rcd13ifvqdc0","pricing_plan_id":"cebpf4jnsgd1na2vs0mg"},{"bike_id":"7ce5a6f2-c855-4c43-847a-034029a77cae","system_id":"levelo_inurba_marseille","lat":43.27813,"lon":5.40715,"is_reserved":false,"is_disabled":false,"rental_uris":{"android":"levelo://app?vid=7ce5a6f2-c855-4c43-847a-034029a77cae","ios":"levelo://app?vid=7ce5a6f2-c855-4c43-847a-034029a77cae"},"vehicle_type_id":"4","last_reported":1729865341,"current_range_meters":37600,"station_id":"ce4bhnh2rcd13ifvqgtg","pricing_plan_id":"cebpf4jnsgd1na2vs0mg"},{"bike_id":"cb568e93-5a98-496d-be8c-b2abc3204d05","system_id":"levelo_inurba_marseille","lat":43.2649,"lon":5.39551,"is_reserved":false,"is_disabled":false,"rental_uris":{"android":"levelo://app?vid=cb568e93-5a98-496d-be8c-b2abc3204d05","ios":"levelo://app?vid=cb568e93-5a98-496d-be8c-b2abc3204d05"},"vehicle_type_id":"4","last_reported":1729865341,"current_range_meters":2000,"station_id":"ce4bhi12rcd13ifvqfq0","pricing_plan_id":"cebpf4jnsgd1na2vs0mg"},