{"last_updated":1729335993,"ttl":60,"version":"2.2","data":{"bikes":[{"bike_id":"1fab976e-d7a4-493d-91e8-c7a676ba05ab","system_id":"levelo_inurba_marseille","lat":43.29451,"lon":5.39747,"is_reserved":false,"is_disabled":false,"rental_uris":{"android":"levelo://app?vid=1fab976e-d7a4-493d-91e8-c7a676ba05ab","ios":"levelo://app?vid=1fab976e-d7a4-493d-91e8-c7a676ba05ab"},"vehicle_type_id":"4","last_reported":1729335993,"current_range_meters":38800,"station_id":"ce4bh3h2rcd13ifvqdo0","pricing_plan_id":"cebpf4jnsgd1na2vs0mg"},{"bike_id":"10101da1-fa86-401c-acc1-b946faee2bf9","system_id":"levelo_inurba_marseille","lat":43.2815,"lon":5.42642,"is_reserved":false,"is_disabled":false,"rental_uris":{"android":"levelo://app?vid=10101da1-fa86-401c-acc1-b946faee2bf9","ios":"levelo://app?vid=10101da1-fa86-401c-acc1-b946faee2bf9"},"vehicle_type_id":"4","last_reported":1729335993,"current_range_meters":33600,"station_id":"ce4bhnh2rcd13ifvqgug","pricing_plan_id":"cebpf4jnsgd1na2vs0mg"},{"bike_id":"ef47d04a-d623-4923-9ac4-d8403fc9a216","system_id":"levelo_inurba_marseille","lat":43.33728,"lon":5.39179,"is_reserved":false,"is_disabled":false,"rental_uris":{"android":"levelo://app?vid=ef47d04a-d623-4923-9ac4-d8403fc9a216","ios":"levelo://app?vid=ef47d04a-d623-4923-9ac4-d8403fc9a216"},"vehicle_type_id":"4","last_reported":1729335993,"current_range_meters":39200,"station_id":"ce4bhr92rcd13ifvqhsg","pricing_plan_id":"cebpf4jnsgd1na2vs0mg"},{"bike_id":"10a9ece6-ff34-482d-8185-60ac6265c523","system_id":"levelo_inurba_marseille","lat":43.32847,"lon":5.36681,"is_reserved":false,"is_disabled":false,"rental_uris":{"android":"levelo://app?vid=10a9ece6-ff34-482d-8185-60ac6265c523","ios":"levelo://app?vid=10a9ece6-ff34-482d-8185-60ac6265c523"},"vehicle_type_id":"4","last_reported":1729335993,"current_range_meters":21600,"station_id":"","pricing_plan_id":"cebpf4jnsgd1na2vs0mg"},{"bike_id":"1d021ff4-5653-4ead-8358-921822c88a55","system_id":"levelo_inurba_marseille","lat":43.29967,"lon":5.37177,"is_reserved":false,"is_disabled":false,"rental_uris":{"android":"levelo://app?vid=1d021ff4-5653-4ead-8358-921822c88a55","ios":"levelo://app?vid=1d021ff4-5653-4ead-8358-921822c88a55"},"vehicle_type_id":"4","last_reported":1729335993,"current_range_meters":32000,"station_id":"ce4bgr92rcd13ifvqc7g","pricing_plan_id":"cebpf4jnsgd1na2vs0mg"},{"bike_id":"ad642102-4d2c-4ea6-a9af-370e18c44e2b","system_id":"levelo_inurba_marseille","lat":43.29562,"lon":5.42296,"is_reserved":false,"is_disabled":false,"rental_uris":{"android":"levelo://app?vid=ad642102-4d2c-4ea6-a9af-370e18c44e2b","ios":"levelo://app?vid=ad642102-4d2c-4ea6-a9af-370e18c44e2b"},"vehicle_type_id":"4","last_reported":1729335993,"current_range_meters":38400,"station_id":"ce4bhph2rcd13ifvqhdg","pricing_plan_id":"cebpf4jnsgd1na2vs0mg"},{"bike_id":"7695e951-fe49-466c-b1f2-4e44e5b9e14c","system_id":"levelo_inurba_marseille","lat":43.30792,"lon":5.43522,"is_reserved":false,"is_disabled":false,"rental_uris":{"android":"levelo://app?vid=7695e951-fe49-466c-b1f2-4e44e5b9e14c","ios":"levelo://app?vid=7695e951-fe49-466c-b1f2-4e44e5b9e14c"},"vehicle_type_id":"4","last_reported":1729335993,"current_range_meters":38000,"station_id":"ce4bhph2rcd13ifvqheg","pricing_plan_id":"cebpf4jnsgd1na2vs0mg"},{"bike_id":"bdac7045-6822-4f98-8d23-075c35d4893f","system_id":"levelo_inurba_marseille","lat":43.29353,"lon":5.4284,"is_reserved":false,"is_disabled":false,"rental_uris":{"android":"levelo://app?vid=bdac7045-6822-4f98-8d23-075c35d4893f","ios":"levelo://app?vid=bdac7045-6822-4f98-8d23-075c35d4893f"},"vehicle_type_id":"4","last_reported":1729335993,"current_range_meters":6000,"station_id":"","pricing_plan_id":"cebpf4jnsgd1na2vs0mg"},{"bike_id":"4dd78387-69b0-4f40-93ee-8c3fb82439f9","system_id":"levelo_inurba_marseille","lat":43.295948,"lon":5.367518,"is_reserved":false,"is_disabled":false,"rental_uris":{"android":"levelo://app?vid=4dd78387-69b0-4f40-93ee-8c3fb82439f9","ios":"levelo://app?vid=4dd78387-69b0-4f40-93ee-8c3fb82439f9"},"vehicle_type_id":"4","last_reported":1729335993,"current_range_meters":11600,"station_id":"ce4bgph2rcd13ifvqc2g","pricing_plan_id":"cebpf4jnsgd1na2vs0mg"},{"bike_id":"bc477c8f-3e16-4500-beca-ab4cadd9046e","system_id":"levelo_inurba_marseille","lat":43.28567,"lon":5.39504,"is_reserved":false,"is_disabled":false,"rental_uris":{"android":"levelo://app?vid=bc477c8f-3e16-4500-beca-ab4cadd9046e","ios":"levelo://app?vid=bc477c8f-3e16-4500-beca-ab4cadd9046e"},"vehicle_type_id":"4","last_reported":1729335993,"current_range_meters":32800,"station_id":"ce4bh292rcd13ifvqdg0","pricing_plan_id":"cebpf4jnsgd1na2vs0mg"},{"bike_id":"38af9f15-4bc6-49c4-a9f3-eae19adb7f0a","system_id":"levelo_inurba_marseille","lat":43.29791,"lon":5.38127,"is_reserved":false,"is_disabled":false,"rental_uris":{"android":"levelo://app?vid=38af9f15-4bc6-49c4-a9f3-eae19adb7f0a","ios":"levelo://app?vid=38af9f15-4bc6-49c4-a9f3-eae19adb7f0a"},"vehicle_type_id":"4","last_reported":1729335993,"current_range_meters":22000,"station_id":"ce4bgip2rcd13ifvqbb0","pricing_plan_id":"cebpf4jnsgd1na2vs0mg"},{"bike_id":"0faf5d3e-1580-4008-812c-982ac155c999","system_id":"levelo_inurba_marseille","lat":43.29527,"lon":5.37503,"is_reserved":false,"is_disabled":false,"rental_uris":{"android":"levelo://app?vid=0faf5d3e-1580-4008-812c-982ac155c999","ios":"levelo://app?vid=0faf5d3e-1580-4008-812c-982ac155c999"},"vehicle_type_id":"4","last_reported":1729335993,"current_range_meters":4800,"station_id":"ce4bgkp2rcd13ifvqbmg","pricing_plan_id":"cebpf4jnsgd1na2vs0mg"},{"bike_id":"e0879c3f-10eb-4d3b-8053-605cb1c6310c","system_id":"levelo_inurba_marseille","lat":43.26068,"lon":5.39395,"is_reserved":false,"is_disabled":false,"rental_uris":{"android":"levelo://app?vid=e0879c3f-10eb-4d3b-8053-605cb1c6310c","ios":"levelo://app?vid=e0879c3f-10eb-4d3b-8053-605cb1c6310c"},"vehicle_type_id":"4","last_reported":1729335993,"current_range_meters":27200,"station_id":"ce4bhh92rcd13ifvqfj0","pricing_plan_id":"cebpf4jnsgd1na2vs0mg"},{"bike_id":"71da9dc6-dba4-49c4-8067-135146d7a6c9","system_id":"levelo_inurba_marseille","lat":43.24179,"lon":5.39733,"is_reserved":false,"is_disabled":false,"rental_uris":{"android":"levelo://app?vid=71da9dc6-dba4-49c4-8067-135146d7a6c9","ios":"levelo://app?vid=71da9dc6-dba4-49c4-8067-135146d7a6c9"},"vehicle_type_id":"4","last_reported":1729335993,"current_range_meters":39200,"station_id":"ce4bhn12rcd13ifvqgpg","pricing_plan_id":"cebpf4jnsgd1na2vs0mg"},{"bike_id":"9a2bf67e-20c2-40f7-993d-d553cb2fabc1","system_id":"levelo_inurba_marseille","lat":43.31384,"lon":5.38495,"is_reserved":false,"is_disabled":false,"rental_uris":{"android":"levelo://app?vid=9a2bf67e-20c2-40f7-993d-d553cb2fabc1","ios":"levelo://app?vid=9a2bf67e-20c2-40f7-993d-d553cb2fabc1"},"vehicle_type_id":"4","last_reported":1729335993,"current_range_meters":36400,"station_id":"ce4bgt92rcd13ifvqcf0","pricing_plan_id":"cebpf4jnsgd1na2vs0mg"},{"bike_id":"8d66aceb-9080-4ea9-abaa-16c68084b52e","system_id":"levelo_inurba_marseille","lat":43.2873,"lon":5.37937,"is_reserved":false,"is_disabled":false,"rental_uris":{"android":"levelo://app?vid=8d66aceb-9080-4ea9-abaa-16c68084b52e","ios":"levelo://app?vid=8d66aceb-9080-4ea9-abaa-16c68084b52e"},"vehicle_type_id":"4","last_reported":1729335993,"current_range_meters":36800,"station_id":"ce4bh9p2rcd13ifvqec0","pricing_plan_id":"cebpf4jnsgd1na2vs0mg"},{"bike_id":"cc93b3be-1d9e-4764-abe4-bca870f39ee2","system_id":"levelo_inurba_marseille","lat":43.30548,"lon":5.38425,"is_reserved":false,"is_disabled":false,"rental_uris":{"android":"levelo://app?vid=cc93b3be-1d9e-4764-abe4-bca870f39ee2","ios":"levelo://app?vid=cc93b3be-1d9e-4764-abe4-bca870f39ee2"},"vehicle_type_id":"4","last_reported":1729335993,"current_range_meters":10000,"station_id":"ce4bgg92rcd13ifvqb30","pricing_plan_id":"cebpf4jnsgd1na2vs0mg"},{"bike_id":"dd17eb1d-19f8-45c7-9fe6-a0fb023c6234","system_id":"levelo_inurba_marseille","lat":43.32298,"lon":5.38264,"is_reserved":false,"is_disabled":false,"rental_uris":{"android":"levelo://app?vid=dd17eb1d-19f8-45c7-9fe6-a0fb023c6234","ios":"levelo://app?vid=dd17eb1d-19f8-45c7-9fe6-a0fb023c6234"},"vehicle_type_id":"4","last_reported":1729335993,"current_range_meters":36400,"station_id":"ce4bhr12rcd13ifvqhqg","pricing_plan_id":"cebpf4jnsgd1na2vs0mg"},{"bike_id":"6a6d4b77-df59-46fc-a2ab-0d3f626959ce","system_id":"levelo_inurba_marseille","lat":43.22932,"lon":5.35378,"is_reserved":false,"is_disabled":false,"rental_uris":{"android":"levelo://app?vid=6a6d4b77-df59-46fc-a2ab-0d3f626959ce","ios":"levelo://app?vid=6a6d4b77-df59-46fc-a2ab-0d3f626959ce"},"vehicle_type_id":"4","last_reported":1729335993,"current_range_meters":22000,"station_id":"cpo3532slgdg3j2ikp40","pricing_plan_id":"cebpf4jnsgd1na2vs0mg"},{"bike_id":"e70440e8-24a1-43c2-962a-e25778d3dc0d","system_id":"levelo_inurba_marseille","lat":43.29934,"lon":5.36534,"is_reserved":false,"is_disabled":false,"rental_uris":{"android":"levelo://app?vid=e70440e8-24a1-43c2-962a-e25778d3dc0d","ios":"levelo://app?vid=e70440e8-24a1-43c2-962a-e25778d3dc0d"},"vehicle_type_id":"4","last_reported":1729335993,"current_range_meters":36000,"station_id":"ce4bgm92rcd13ifvqbr0","pricing_plan_id":"cebpf4jnsgd1na2vs0mg"},{"bike_id":"006ddbf4-82cb-41c3-a643-0f3a1c8bb945","system_id":"levelo_inurba_marseille","lat":43.27069,"lon":5.42275,"is_reserved":false,"is_disabled":false,"rental_uris":{"android":"levelo://app?vid=006ddbf4-82cb-41c3-a643-0f3a1c8bb945","ios":"levelo://app?vid=006ddbf4-82cb-41c3-a643-0f3a1c8bb945"},"vehicle_type_id":"4","last_reported":1729335993,"current_range_meters":39200,"station_id":"ce4bhk92rcd13ifvqgb0","pricing_plan_id":"cebpf4jnsgd1na2vs0mg"},{"bike_id":"317d7818-96ed-4b00-a33f-364ecbb090a9","system_id":"levelo_inurba_marseille","lat":43.29841,"lon":5.3627,"is_reserved":false,"is_disabled":false,"rental_uris":{"android":"levelo://app?vid=317d7818-96ed-4b00-a33f-364ecbb090a9","ios":"levelo://app?vid=317d7818-96ed-4b00-a33f-364ecbb090a9"},"vehicle_type_id":"4","last_reported":1729335993,"current_range_meters":36400,"station_id":"ce4bgpp2rcd13ifvqc3g","pricing_plan_id":"cebpf4jnsgd1na2vs0mg"},{"bike_id":"df4fc022-e520-4ee5-b522-8445786e2ea8","system_id":"levelo_inurba_marseille","lat":43.29568,"lon":5.3751,"is_reserved":false,"is_disabled":false,"rental_uris":{"android":"levelo://app?vid=df4fc022-e520-4ee5-b522-8445786e2ea8","ios":"levelo://app?vid=df4fc022-e520-4ee5-b522-8445786e2ea8"},"vehicle_type_id":"4","last_reported":1729335993,"current_range_meters":30000,"station_id":"ce4bgh92rcd13ifvqb50","pricing_plan_id":"cebpf4jnsgd1na2vs0mg"},{"bike_id":"c389a28f-63cf-406f-b16c-cfe51d72abe0","system_id":"levelo_inurba_marseille","lat":43.29581,"lon":5.37505,"is_reserved":false,"is_disabled":false,"rental_uris":{"android":"levelo://app?vid=c389a28f-63cf-406f-b16c-cfe51d72abe0","ios":"levelo://app?vid=c389a28f-63cf-406f-b16c-cfe51d72abe0"},"vehicle_type_id":"4","last_reported":1729335993,"current_range_meters":12000,"station_id":"ce4bgh92rcd13ifvqb50","pricing_plan_id":"cebpf4jnsgd1na2vs0mg"},{"bike_id":"96af238e-c375-4a8d-9d83-895810ad3174","system_id":"levelo_inurba_marseille","lat":43.30316,"lon":5.36888,"is_reserved":false,"is_disabled":false,"rental_uris":{"android":"levelo://app?vid=96af238e-c375-4a8d-9d83-895810ad3174","ios":"levelo://app?vid=96af238e-c375-4a8d-9d83-895810ad3174"},"vehicle_type_id":"4","last_reported":1729335993,"current_range_meters":14800,"station_id":"ce4bgqh2rcd13ifvqc5g","pricing_plan_id":"cebpf4jnsgd1na2vs0mg"},{"bike_id":"9e833968-4b5b-4a32-a96b-8431979de98c","system_id":"levelo_inurba_marseille","lat":43.25727,"lon":5.41102,"is_reserved":false,"is_disabled":false,"rental_uris":{"android":"levelo://app?vid=9e833968-4b5b-4a32-a96b-8431979de98c","ios":"levelo://app?vid=9e833968-4b5b-4a32-a96b-8431979de98c"},"vehicle_type_id":"4","last_reported":1729335993,"current_range_meters":27600,"station_id":"ce4bhkp2rcd13ifvqgd0","pricing_plan_id":"cebpf4jnsgd1na2vs0mg"},{"bike_id":"60bdae86-6faa-43f4-ae5c-ad8ce19c9d34","system_id":"levelo_inurba_marseille","lat":43.29626,"lon":5.37153,"is_reserved":false,"is_disabled":false,"rental_uris":{"android":"levelo://app?vid=60bdae86-6faa-43f4-ae5c-ad8ce19c9d34","ios":"levelo://app?vid=60bdae86-6faa-43f4-ae5c-ad8ce19c9d34"},"vehicle_type_id":"4","last_reported":1729335993,"current_range_meters":38000,"station_id":"ce4bgnh2rcd13ifvqc0g","pricing_plan_id":"cebpf4jnsgd1na2vs0mg"},{"bike_id":"874dbab0-2f32-4e5c-a3d5-6bdf980d941d","system_id":"levelo_inurba_marseille","lat":43.28424,"lon":5.34977,"is_reserved":false,"is_disabled":false,"rental_uris":{"android":"levelo://app?vid=874dbab0-2f32-4e5c-a3d5-6bdf980d941d","ios":"levelo://app?vid=874dbab0-2f32-4e5c-a3d5-6bdf980d941d"},"vehicle_type_id":"4","last_reported":1729335993,"current_range_meters":38800,"station_id":"ce4bhbh2rcd13ifvqepg","pricing_plan_id":"cebpf4jnsgd1na2vs0mg"},{"bike_id":"05490f16-ad73-4b37-9f6a-b49e837dd342","system_id":"levelo_inurba_marseille","lat":43.30128,"lon":5.39181,"is_reserved":false,"is_disabled":false,"rental_uris":{"android":"levelo://app?vid=05490f16-ad73-4b37-9f6a-b49e837dd342","ios":"levelo://app?vid=05490f16-ad73-4b37-9f6a-b49e837dd342"},"vehicle_type_id":"4","last_reported":1729335993,"current_range_meters":30000,"station_id":"","pricing_plan_id":"cebpf4jnsgd1na2vs0mg"},{"bike_id":"61a04cb9-be4f-4cf5-b789-0758f7c54444","system_id":"levelo_inurba_marseille","lat":43.23192,"lon":5.35556,"is_reserved":false,"is_disabled":false,"rental_uris":{"android":"levelo://app?vid=61a04cb9-be4f-4cf5-b789-0758f7c54444","ios":"levelo://app?vid=61a04cb9-be4f-4cf5-b789-0758f7c54444"},"vehicle_type_id":"4","last_reported":1729335993,"current_range_meters":19600,"station_id":"ce4bhu92rcd13ifvqi70","pricing_plan_id":"cebpf4jnsgd1na2vs0mg"},{"bike_id":"790fdc4d-0f5b-4f5f-87c8-014c9883d341","system_id":"levelo_inurba_marseille","lat":43.31888,"lon":5.40738,"is_reserved":false,"is_disabled":false,"rental_uris":{"android":"levelo://app?vid=790fdc4d-0f5b-4f5f-87c8-014c9883d341","ios":"levelo://app?vid=790fdc4d-0f5b-4f5f-87c8-014c9883d341"},"vehicle_type_id":"4","last_reported":1729335993,"current_range_meters":11600,"station_id":"ce4bhq12rcd13ifvqhig","pricing_plan_id":"cebpf4jnsgd1na2vs0mg"},{"bike_id":"73841c94-8147-4741-9e19-2c6077ecde2d","system_id":"levelo_inurba_marseille","lat":43.29632,"lon":5.37713,"is_reserved":false,"is_disabled":false,"rental_uris":{"android":"levelo://app?vid=73841c94-8147-4741-9e19-2c6077ecde2d","ios":"levelo://app?vid=73841c94-8147-4741-9e19-2c6077ecde2d"},"vehicle_type_id":"4","last_reported":1729335993,"current_range_meters":22800,"station_id":"ce4bgi92rcd13ifvqb90","pricing_plan_id":"cebpf4jnsgd1na2vs0mg"},{"bike_id":"0b43e9ac-9b90-4557-96c0-7b9cac3a848c","system_id":"levelo_inurba_marseille","lat":43.2316,"lon":5.43702,"is_reserved":false,"is_disabled":false,"rental_uris":{"android":"levelo://app?vid=0b43e9ac-9b90-4557-96c0-7b9cac3a848c","ios":"levelo://app?vid=0b43e9ac-9b90-4557-96c0-7b9cac3a848c"},"vehicle_type_id":"4","last_reported":1729335993,"current_range_meters":6800,"station_id":"ce4bhmp2rcd13ifvqgog","pricing_plan_id":"cebpf4jnsgd1na2vs0mg"},{"bike_id":"ac0e8923-1675-4a0a-be10-3d027dc097cb","system_id":"levelo_inurba_marseille","lat":43.2439,"lon":5.37046,"is_reserved":false,"is_disabled":false,"rental_uris":{"android":"levelo://app?vid=ac0e8923-1675-4a0a-be10-3d027dc097cb","ios":"levelo://app?vid=ac0e8923-1675-4a0a-be10-3d027dc097cb"},"vehicle_type_id":"4","last_reported":1729335993,"current_range_meters":30800,"station_id":"ce4bhhh2rcd13ifvqfk0","pricing_plan_id":"cebpf4jnsgd1na2vs0mg"},{"bike_id":"c746da30-0175-4c63-8cc4-f4d0284e8127","system_id":"levelo_inurba_marseille","lat":43.23976,"lon":5.36618,"is_reserved":false,"is_disabled":false,"rental_uris":{"android":"levelo://app?vid=c746da30-0175-4c63-8cc4-f4d0284e8127","ios":"levelo://app?vid=c746da30-0175-4c63-8cc4-f4d0284e8127"},"vehicle_type_id":"4","last_reported":1729335993,"current_range_meters":16400,"station_id":"ce4bhi12rcd13ifvqfp0","pricing_plan_id":"cebpf4jnsgd1na2vs0mg"},{"bike_id":"62605030-91e9-4b1b-950d-1ad26632458f","system_id":"levelo_inurba_marseille","lat":43.27999,"lon":5.40022,"is_reserved":false,"is_disabled":false,"rental_uris":{"android":"levelo://app?vid=62605030-91e9-4b1b-950d-1ad26632458f","ios":"levelo://app?vid=62605030-91e9-4b1b-950d-1ad26632458f"},"vehicle_type_id":"4","last_reported":1729335993,"current_range_meters":36400,"station_id":"ce4bho92rcd13ifvqh4g","pricing_plan_id":"cebpf4jnsgd1na2vs0mg"},{"bike_id":"52173c56-8d8e-4b63-ae72-54a0a4451f2c","system_id":"levelo_inurba_marseille","lat":43.27501,"lon":5.42452,"is_reserved":false,"is_disabled":false,"rental_uris":{"android":"levelo://app?vid=52173c56-8d8e-4b63-ae72-54a0a4451f2c","ios":"levelo://app?vid=52173c56-8d8e-4b63-ae72-54a0a4451f2c"},"vehicle_type_id":"4","last_reported":1729335993,"current_range_meters":29600,"station_id":"ce4bhn92rcd13ifvqgrg","pricing_plan_id":"cebpf4jnsgd1na2vs0mg"},{"bike_id":"d7e7d996-ed43-46fc-96f2-60f64488b634","system_id":"levelo_inurba_marseille","lat":43.31072,"lon":5.38364,"is_reserved":false,"is_disabled":false,"rental_uris":{"android":"levelo://app?vid=d7e7d996-ed43-46fc-96f2-60f64488b634","ios":"levelo://app?vid=d7e7d996-ed43-46fc-96f2-60f64488b634"},"vehicle_type_id":"4","last_reported":1729335993,"current_range_meters":7200,"station_id":"ce4bgv92rcd13ifvqcr0","pricing_plan_id":"cebpf4jnsgd1na2vs0mg"},{"bike_id":"c6890951-9937-457d-994e-dd5138664a9b","system_id":"levelo_inurba_marseille","lat":43.31998,"lon":5.38165,"is_reserved":false,"is_disabled":false,"rental_uris":{"android":"levelo://app?vid=c6890951-9937-457d-994e-dd5138664a9b","ios":"levelo://app?vid=c6890951-9937-457d-994e-dd5138664a9b"},"vehicle_type_id":"4","last_reported":1729335993,"current_range_meters":14400,"station_id":"ce4bhr12rcd13ifvqhpg","pricing_plan_id":"cebpf4jnsgd1na2vs0mg"},{"bike_id":"4afcc7bb-146f-4578-b35f-5e61e03acd5c","system_id":"levelo_inurba_marseille","lat":43.27811,"lon":5.40707,"is_reserved":false,"is_disabled":false,"rental_uris":{"android":"levelo://app?vid=4afcc7bb-146f-4578-b35f-5e61e03acd5c","ios":"levelo://app?vid=4afcc7bb-146f-4578-b35f-5e61e03acd5c"},"vehicle_type_id":"4","last_reported":1729335993,"current_range_meters":28400,"station_id":"ce4bhnh2rcd13ifvqgtg","pricing_plan_id":"cebpf4jnsgd1na2vs0mg"},{"bike_id":"7127676c-af87-45f8-b8d8-68b0b302868d","system_id":"levelo_inurba_marseille","lat":43.27319,"lon":5.39076,"is_reserved":false,"is_disabled":false,"rental_uris":{"android":"levelo://app?vid=7127676c-af87-45f8-b8d8-68b0b302868d","ios":"levelo://app?vid=7127676c-af87-45f8-b8d8-68b0b302868d"},"vehicle_type_id":"4","last_reported":1729335993,"current_range_meters":20400,"station_id":"ce4bhgp2rcd13ifvqfe0","pricing_plan_id":"cebpf4jnsgd1na2vs0mg"},{"bike_id":"fc6e513b-da81-4d34-a427-493e42edd768","system_id":"levelo_inurba_marseille","lat":43.29545,"lon":5.3924,"is_reserved":false,"is_disabled":false,"rental_uris":{"android":"levelo://app?vid=fc6e513b-da81-4d34-a427-493e42edd768","ios":"levelo://app?vid=fc6e513b-da81-4d34-a427-493e42edd768"},"vehicle_type_id":"4","last_reported":1729335993,"current_range_meters":22800,"station_id":"","pricing_plan_id":"cebpf4jnsgd1na2vs0mg"},{"bike_id":"ac231a2e-1def-435c-8990-198f2e08ac8d","system_id":"levelo_inurba_marseille","lat":43.23061,"lon":5.35488,"is_reserved":false,"is_disabled":false,"rental_uris":{"android":"levelo://app?vid=ac231a2e-1def-435c-8990-198f2e08ac8d","ios":"levelo://app?vid=ac231a2e-1def-435c-8990-198f2e08ac8d"},"vehicle_type_id":"4","last_reported":1729335993,"current_range_meters":16000,"station_id":"cpo3342slgdg3j2ifvpg","pricing_plan_id":"cebpf4jnsgd1na2vs0mg"},{"bike_id":"da00388d-97df-4446-b7e8-e67139613b58","system_id":"levelo_inurba_marseille","lat":43.28274,"lon":5.35079,"is_reserved":false,"is_disabled":false,"rental_uris":{"android":"levelo://app?vid=da00388d-97df-4446-b7e8-e67139613b58","ios":"levelo://app?vid=da00388d-97df-4446-b7e8-e67139613b58"},"vehicle_type_id":"4","last_reported":1729335993,"current_range_meters":4800,"station_id":"ce4bhbp2rcd13ifvqerg","pricing_plan_id":"cebpf4jnsgd1na2vs0mg"},{"bike_id":"7942b4d2-ec2e-45b4-a706-96b5d3064043","system_id":"levelo_inurba_marseille","lat":43.3019,"lon":5.36627,"is_reserved":false,"is_disabled":false,"rental_uris":{"android":"levelo://app?vid=7942b4d2-ec2e-45b4-a706-96b5d3064043","ios":"levelo://app?vid=7942b4d2-ec2e-45b4-a706-96b5d3064043"},"vehicle_type_id":"4","last_reported":1729335993,"current_range_meters":19200,"station_id":"ce4bgrh2rcd13ifvqc8g","pricing_plan_id":"cebpf4jnsgd1na2vs0mg"},{"bike_id":"6ed93ebb-5c94-4aaf-b541-6f5ac53c2a76","system_id":"levelo_inurba_marseille","lat":43.29541,"lon":5.37499,"is_reserved":false,"is_disabled":false,"rental_uris":{"android":"levelo://app?vid=6ed93ebb-5c94-4aaf-b541-6f5ac53c2a76","ios":"levelo://app?vid=6ed93ebb-5c94-4aaf-b541-6f5ac53c2a76"},"vehicle_type_id":"4","last_reported":1729335993,"current_range_meters":37600,"station_id":"ce4bgkp2rcd13ifvqbmg","pricing_plan_id":"cebpf4jnsgd1na2vs0mg"},{"bike_id":"aac282ef-7d0d-4cf6-a738-a10a76319aa8","system_id":"levelo_inurba_marseille","lat":43.25095,"lon":5.39521,"is_reserved":false,"is_disabled":false,"rental_uris":{"android":"levelo://app?vid=aac282ef-7d0d-4cf6-a738-a10a76319aa8","ios":"levelo://app?vid=aac282ef-7d0d-4cf6-a738-a10a76319aa8"},"vehicle_type_id":"4","last_reported":1729335993,"current_range_meters":29600,"station_id":"ce4bhm12rcd13ifvqgkg","pricing_plan_id":"cebpf4jnsgd1na2vs0mg"},{"bike_id":"57dd0012-e7c2-43e3-90a1-087125ac63fa","system_id":"levelo_inurba_marseille","lat":43.33764,"lon":5.37473,"is_reserved":false,"is_disabled":false,"rental_uris":{"android":"levelo://app?vid=57dd0012-e7c2-43e3-90a1-087125ac63fa","ios":"levelo://app?vid=57dd0012-e7c2-43e3-90a1-087125ac63fa"},"vehicle_type_id":"4","last_reported":1729335993,"current_range_meters":38400,"station_id":"","pricing_plan_id":"cebpf4jnsgd1na2vs0mg"},{"bike_id":"a1e3449d-0a34-4e17-994d-10cd0e8c4c27","system_id":"levelo_inurba_marseille","lat":43.25114,"lon":5.40326,"is_reserved":false,"is_disabled":false,"rental_uris":{"android":"levelo://app?vid=a1e3449d-0a34-4e17-994d-10cd0e8c4c27","ios":"levelo://app?vid=a1e3449d-0a34-4e17-994d-10cd0e8c4c27"},"vehicle_type_id":"4","last_reported":1729335993,"current_range_meters":38800,"station_id":"ce4bhlh2rcd13ifvqgig","pricing_plan_id":"cebpf4jnsgd1na2vs0mg"},{"bike_id":"84ce3bbf-253c-4d1f-b6e8-fa1891978269","system_id":"levelo_inurba_marseille","lat":43.23064,"lon":5.35498,"is_reserved":false,"is_disabled":false,"rental_uris":{"android":"levelo://app?vid=84ce3bbf-253c-4d1f-b6e8-fa1891978269","ios":"levelo://app?vid=84ce3bbf-253c-4d1f-b6e8-fa1891978269"},"vehicle_type_id":"4","last_reported":1729335993,"current_range_meters":6000,"station_id":"cpo3342slgdg3j2ifvpg","pricing_plan_id":"cebpf4jnsgd1na2vs0mg"},{"bike_id":"640a369e-fbd3-49a3-8898-1b522e03213c","system_id":"levelo_inurba_marseille","lat":43.29977,"lon":5.38489,"is_reserved":false,"is_disabled":false,"rental_uris":{"android":"levelo://app?vid=640a369e-fbd3-49a3-8898-1b522e03213c","ios":"levelo://app?vid=640a369e-fbd3-49a3-8898-1b522e03213c"},"vehicle_type_id":"4","last_reported":1729335993,"current_range_meters":38000,"station_id":"ce4bgj92rcd13ifvqbd0","pricing_plan_id":"cebpf4jnsgd1na2vs0mg"},{"bike_id":"9755f4e0-8354-4cd2-a672-0e5c29ec1e3f","system_id":"levelo_inurba_marseille","lat":43.22935,"lon":5.35384,"is_reserved":false,"is_disabled":false,"rental_uris":{"android":"levelo://app?vid=9755f4e0-8354-4cd2-a672-0e5c29ec1e3f","ios":"levelo://app?vid=9755f4e0-8354-4cd2-a672-0e5c29ec1e3f"},"vehicle_type_id":"4","last_reported":1729335993,"current_range_meters":37600,"station_id":"cpo3532slgdg3j2ikp40","pricing_plan_id":"cebpf4jnsgd1na2vs0mg"},{"bike_id":"e9cac722-cb5a-4d38-9492-8cf828e387a3","system_id":"levelo_inurba_marseille","lat":43.231835,"lon":5.399786,"is_reserved":false,"is_disabled":false,"rental_uris":{"android":"levelo://app?vid=e9cac722-cb5a-4d38-9492-8cf828e387a3","ios":"levelo://app?vid=e9cac722-cb5a-4d38-9492-8cf828e387a3"},"vehicle_type_id":"4","last_reported":1729335993,"current_range_meters":3200,"station_id":"ce4bhn12rcd13ifvqgqg","pricing_plan_id":"cebpf4jnsgd1na2vs0mg"},{"bike_id":"ed3894ea-1b56-41cd-860a-924b0519a7e8","system_id":"levelo_inurba_marseille","lat":43.29355,"lon":5.37852,"is_reserved":false,"is_disabled":false,"rental_uris":{"android":"levelo://app?vid=ed3894ea-1b56-41cd-860a-924b0519a7e8","ios":"levelo://app?vid=ed3894ea-1b56-41cd-860a-924b0519a7e8"},"vehicle_type_id":"4","last_reported":1729335993,"current_range_meters":20400,"station_id":"ce4bgjh2rcd13ifvqbf0","pricing_plan_id":"cebpf4jnsgd1na2vs0mg"},{"bike_id":"3d7546d0-4dba-4212-88c9-dfe9a2032237","system_id":"levelo_inurba_marseille","lat":43.24174,"lon":5.36389,"is_reserved":false,"is_disabled":false,"rental_uris":{"android":"levelo://app?vid=3d7546d0-4dba-4212-88c9-dfe9a2032237","ios":"levelo://app?vid=3d7546d0-4dba-4212-88c9-dfe9a2032237"},"vehicle_type_id":"4","last_reported":1729335993,"current_range_meters":33600,"station_id":"cpo36qri1sfpv3e86is0","pricing_plan_id":"cebpf4jnsgd1na2vs0mg"},{"bike_id":"5c7be2c7-867a-43bf-95e3-cb21993fed4a","system_id":"levelo_inurba_marseille","lat":43.29578,"lon":5.37501,"is_reserved":false,"is_disabled":false,"rental_uris":{"android":"levelo://app?vid=5c7be2c7-867a-43bf-95e3-cb21993fed4a","ios":"levelo://app?vid=5c7be2c7-867a-43bf-95e3-cb21993fed4a"},"vehicle_type_id":"4","last_reported":1729335993,"current_range_meters":11200,"station_id":"ce4bgh92rcd13ifvqb50","pricing_plan_id":"cebpf4jnsgd1na2vs0mg"},{"bike_id":"b8997d50-b39a-44a4-9376-da38b2d75980","system_id":"levelo_inurba_marseille","lat":43.29529,"lon":5.38549,"is_reserved":false,"is_disabled":false,"rental_uris":{"android":"levelo://app?vid=b8997d50-b39a-44a4-9376-da38b2d75980","ios":"levelo://app?vid=b8997d50-b39a-44a4-9376-da38b2d75980"},"vehicle_type_id":"4","last_reported":1729335993,"current_range_meters":14000,"station_id":"ce4bgih2rcd13ifvqba0","pricing_plan_id":"cebpf4jnsgd1na2vs0mg"},{"bike_id":"8b10c252-b32b-40ef-b8da-9d1c9158f577","system_id":"levelo_inurba_marseille","lat":43.26033,"lon":5.37549,"is_reserved":false,"is_disabled":false,"rental_uris":{"android":"levelo://app?vid=8b10c252-b32b-40ef-b8da-9d1c9158f577","ios":"levelo://app?vid=8b10c252-b32b-40ef-b8da-9d1c9158f577"},"vehicle_type_id":"4","last_reported":1729335993,"current_range_meters":38800,"station_id":"ce4bhgh2rcd13ifvqfa0","pricing_plan_id":"cebpf4jnsgd1na2vs0mg"},{"bike_id":"000d814c-caf5-43d2-98ef-acc9861de5ab","system_id":"levelo_inurba_marseille","lat":43.2897,"lon":5.36608,"is_reserved":false,"is_disabled":false,"rental_uris":{"android":"levelo://app?vid=000d814c-caf5-43d2-98ef-acc9861de5ab","ios":"levelo://app?vid=000d814c-caf5-43d2-98ef-acc9861de5ab"},"vehicle_type_id":"4","last_reported":1729335993,"current_range_meters":20400,"station_id":"ce4bhap2rcd13ifvqek0","pricing_plan_id":"cebpf4jnsgd1na2vs0mg"},{"bike_id":"7d7126c3-e05e-4d92-a19a-f3e6ce9e6f67","system_id":"levelo_inurba_marseille","lat":43.29623,"lon":5.37175,"is_reserved":false,"is_disabled":false,"rental_uris":{"android":"levelo://app?vid=7d7126c3-e05e-4d92-a19a-f3e6ce9e6f67","ios":"levelo://app?vid=7d7126c3-e05e-4d92-a19a-f3e6ce9e6f67"},"vehicle_type_id":"4","last_reported":1729335993,"current_range_meters":31200,"station_id":"ce4bgnh2rcd13ifvqc0g","pricing_plan_id":"cebpf4jnsgd1na2vs0mg"},{"bike_id":"32ce68a3-3fc7-4257-974f-ab657619c295","system_id":"levelo_inurba_marseille","lat":43.33756,"lon":5.37452,"is_reserved":false,"is_disabled":false,"rental_uris":{"android":"levelo://app?vid=32ce68a3-3fc7-4257-974f-ab657619c295","ios":"levelo://app?vid=32ce68a3-3fc7-4257-974f-ab657619c295"},"vehicle_type_id":"4","last_reported":1729335993,"current_range_meters":6400,"station_id":"","pricing_plan_id":"cebpf4jnsgd1na2vs0mg"},{"bike_id":"e5dab1ea-a810-41a0-a6cd-403085d8bf13","system_id":"levelo_inurba_marseille","lat":43.27368,"lon":5.36259,"is_reserved":false,"is_disabled":false,"rental_uris":{"android":"levelo://app?vid=e5dab1ea-a810-41a0-a6cd-403085d8bf13","ios":"levelo://app?vid=e5dab1ea-a810-41a0-a6cd-403085d8bf13"},"vehicle_type_id":"4","last_reported":1729335993,"current_range_meters":39200,"station_id":"ce4bhbh2rcd13ifvqeo0","pricing_plan_id":"cebpf4jnsgd1na2vs0mg"},{"bike_id":"6d86fe87-34ba-4641-bea4-5288af8743c4","system_id":"levelo_inurba_marseille","lat":43.28004,"lon":5.41666,"is_reserved":false,"is_disabled":false,"rental_uris":{"android":"levelo://app?vid=6d86fe87-34ba-4641-bea4-5288af8743c4","ios":"levelo://app?vid=6d86fe87-34ba-4641-bea4-5288af8743c4"},"vehicle_type_id":"4","last_reported":1729335993,"current_range_meters":4000,"station_id":"ce4bho12rcd13ifvqh1g","pricing_plan_id":"cebpf4jnsgd1na2vs0mg"},{"bike_id":"a7a0616c-efc4-4cb4-8cd3-836f9e777e62","system_id":"levelo_inurba_marseille","lat":43.27075,"lon":5.4228,"is_reserved":false,"is_disabled":false,"rental_uris":{"android":"levelo://app?vid=a7a0616c-efc4-4cb4-8cd3-836f9e777e62","ios":"levelo://app?vid=a7a0616c-efc4-4cb4-8cd3-836f9e777e62"},"vehicle_type_id":"4","last_reported":1729335993,"current_range_meters":17600,"station_id":"ce4bhk92rcd13ifvqgb0","pricing_plan_id":"cebpf4jnsgd1na2vs0mg"},{"bike_id":"b64362e2-b043-4f67-8e42-f68524e828ed","system_id":"levelo_inurba_marseille","lat":43.241763,"lon":5.397073,"is_reserved":false,"is_disabled":false,"rental_uris":{"android":"levelo://app?vid=b64362e2-b043-4f67-8e42-f68524e828ed","ios":"levelo://app?vid=b64362e2-b043-4f67-8e42-f68524e828ed"},"vehicle_type_id":"4","last_reported":1729335993,"current_range_meters":20400,"station_id":"ce4bhn12rcd13ifvqgpg","pricing_plan_id":"cebpf4jnsgd1na2vs0mg"},{"bike_id":"e7c2d711-63a4-4bdc-8b13-08b58cf06955","system_id":"levelo_inurba_marseille","lat":43.30141,"lon":5.38785,"is_reserved":false,"is_disabled":false,"rental_uris":{"android":"levelo://app?vid=e7c2d711-63a4-4bdc-8b13-08b58cf06955","ios":"levelo://app?vid=e7c2d711-63a4-4bdc-8b13-08b58cf06955"},"vehicle_type_id":"4","last_reported":1729335993,"current_range_meters":36400,"station_id":"ce4bghh2rcd13ifvqb60","pricing_plan_id":"cebpf4jnsgd1na2vs0mg"},{"bike_id":"2b7e53e0-d15f-4b12-8c67-08178f85d596","system_id":"levelo_inurba_marseille","lat":43.25876,"lon":5.39904,"is_reserved":false,"is_disabled":false,"rental_uris":{"android":"levelo://app?vid=2b7e53e0-d15f-4b12-8c67-08178f85d596","ios":"levelo://app?vid=2b7e53e0-d15f-4b12-8c67-08178f85d596"},"vehicle_type_id":"4","last_reported":1729335993,"current_range_meters":21600,"station_id":"ce4bhl92rcd13ifvqghg","pricing_plan_id":"cebpf4jnsgd1na2vs0mg"},{"bike_id":"15e2d268-4360-4656-9658-f0e2e95e7e28","system_id":"levelo_inurba_marseille","lat":43.31998,"lon":5.38161,"is_reserved":false,"is_disabled":false,"rental_uris":{"android":"levelo://app?vid=15e2d268-4360-4656-9658-f0e2e95e7e28","ios":"levelo://app?vid=15e2d268-4360-4656-9658-f0e2e95e7e28"},"vehicle_type_id":"4","last_reported":1729335993,"current_range_meters":32800,"station_id":"ce4bhr12rcd13ifvqhpg","pricing_plan_id":"cebpf4jnsgd1na2vs0mg"},{"bike_id":"09cf23ae-6e82-4f20-823a-0bf75a603000","system_id":"levelo_inurba_marseille","lat":43.27506,"lon":5.42452,"is_reserved":false,"is_disabled":false,"rental_uris":{"android":"levelo://app?vid=09cf23ae-6e82-4f20-823a-0bf75a603000","ios":"levelo://app?vid=09cf23ae-6e82-4f20-823a-0bf75a603000"},"vehicle_type_id":"4","last_reported":1729335993,"current_range_meters":38800,"station_id":"ce4bhn92rcd13ifvqgrg","pricing_plan_id":"cebpf4jnsgd1na2vs0mg"},{"bike_id":"25cf5fb6-dc9f-4017-8dab-667b8569d060","system_id":"levelo_inurba_marseille","lat":43.26206,"lon":5.37921,"is_reserved":false,"is_disabled":false,"rental_uris":{"android":"levelo://app?vid=25cf5fb6-dc9f-4017-8dab-667b8569d060","ios":"levelo://app?vid=25cf5fb6-dc9f-4017-8dab-667b8569d060"},"vehicle_type_id":"4","last_reported":1729335993,"current_range_meters":29600,"station_id":"ce4bhjp2rcd13ifvqg90","pricing_plan_id":"cebpf4jnsgd1na2vs0mg"},{"bike_id":"9e8bce22-3bc5-463a-9a89-57ed7c0b4b48","system_id":"levelo_inurba_marseille","lat":43.25003,"lon":5.38928,"is_reserved":false,"is_disabled":false,"rental_uris":{"android":"levelo://app?vid=9e8bce22-3bc5-463a-9a89-57ed7c0b4b48","ios":"levelo://app?vid=9e8bce22-3bc5-463a-9a89-57ed7c0b4b48"},"vehicle_type_id":"4","last_reported":1729335993,"current_range_meters":36800,"station_id":"ce4bhgp2rcd13ifvqfd0","pricing_plan_id":"cebpf4jnsgd1na2vs0mg"},{"bike_id":"1c461137-ba12-4f54-b9d1-a3fa9343c0fe","system_id":"levelo_inurba_marseille","lat":43.29308,"lon":5.37178,"is_reserved":false,"is_disabled":false,"rental_uris":{"android":"levelo://app?vid=1c461137-ba12-4f54-b9d1-a3fa9343c0fe","ios":"levelo://app?vid=1c461137-ba12-4f54-b9d1-a3fa9343c0fe"},"vehicle_type_id":"4","last_reported":1729335993,"current_range_meters":25600,"station_id":"ce4bgh92rcd13ifvqb40","pricing_plan_id":"cebpf4jnsgd1na2vs0mg"},{"bike_id":"d7092da1-bd92-4092-8564-a61901b17acc","system_id":"levelo_inurba_marseille","lat":43.25091,"lon":5.39523,"is_reserved":false,"is_disabled":false,"rental_uris":{"android":"levelo://app?vid=d7092da1-bd92-4092-8564-a61901b17acc","ios":"levelo://app?vid=d7092da1-bd92-4092-8564-a61901b17acc"},"vehicle_type_id":"4","last_reported":1729335993,"current_range_meters":38800,"station_id":"","pricing_plan_id":"cebpf4jnsgd1na2vs0mg"},{"bike_id":"4f784510-2334-4173-90f9-a6484a15f6b8","system_id":"levelo_inurba_marseille","lat":43.28006,"lon":5.40005,"is_reserved":false,"is_disabled":false,"rental_uris":{"android":"levelo://app?vid=4f784510-2334-4173-90f9-a6484a15f6b8","ios":"levelo://app?vid=4f784510-2334-4173-90f9-a6484a15f6b8"},"vehicle_type_id":"4","last_reported":1729335993,"current_range_meters":22800,"station_id":"ce4bho92rcd13ifvqh4g","pricing_plan_id":"cebpf4jnsgd1na2vs0mg"},{"bike_id":"9d2b1387-0b01-4c4e-9334-70b920bc01ae","system_id":"levelo_inurba_marseille","lat":43.29854,"lon":5.36277,"is_reserved":false,"is_disabled":false,"rental_uris":{"android":"levelo://app?vid=9d2b1387-0b01-4c4e-9334-70b920bc01ae","ios":"levelo://app?vid=9d2b1387-0b01-4c4e-9334-70b920bc01ae"},"vehicle_type_id":"4","last_reported":1729335993,"current_range_meters":30000,"station_id":"ce4bgpp2rcd13ifvqc3g","pricing_plan_id":"cebpf4jnsgd1na2vs0mg"},{"bike_id":"4dc579e6-9511-4477-a8fc-86c9dc41610c","system_id":"levelo_inurba_marseille","lat":43.24809,"lon":5.37457,"is_reserved":false,"is_disabled":false,"rental_uris":{"android":"levelo://app?vid=4dc579e6-9511-4477-a8fc-86c9dc41610c","ios":"levelo://app?vid=4dc579e6-9511-4477-a8fc-86c9dc41610c"},"vehicle_type_id":"4","last_reported":1729335993,"current_range_meters":20800,"station_id":"ce4bhgh2rcd13ifvqfb0","pricing_plan_id":"cebpf4jnsgd1na2vs0mg"},{"bike_id":"8429a31c-77f3-41b6-b710-38d8ca6d27dc","system_id":"levelo_inurba_marseille","lat":43.25086,"lon":5.39517,"is_reserved":false,"is_disabled":false,"rental_uris":{"android":"levelo://app?vid=8429a31c-77f3-41b6-b710-38d8ca6d27dc","ios":"levelo://app?vid=8429a31c-77f3-41b6-b710-38d8ca6d27dc"},"vehicle_type_id":"4","last_reported":1729335993,"current_range_meters":39200,"station_id":"ce4bhm12rcd13ifvqgkg","pricing_plan_id":"cebpf4jnsgd1na2vs0mg"},{"bike_id":"56a5afb8-444a-4786-9b49-523fbfaf6d8b","system_id":"levelo_inurba_marseille","lat":43.23191,"lon":5.39983,"is_reserved":false,"is_disabled":false,"rental_uris":{"android":"levelo://app?vid=56a5afb8-444a-4786-9b49-523fbfaf6d8b","ios":"levelo://app?vid=56a5afb8-444a-4786-9b49-523fbfaf6d8b"},"vehicle_type_id":"4","last_reported":1729335993,"current_range_meters":3200,"station_id":"ce4bhn12rcd13ifvqgqg","pricing_plan_id":"cebpf4jnsgd1na2vs0mg"},{"bike_id":"18361c49-bdac-4926-a222-92101c5ffc08","system_id":"levelo_inurba_marseille","lat":43.32485,"lon":5.36571,"is_reserved":false,"is_disabled":false,"rental_uris":{"android":"levelo://app?vid=18361c49-bdac-4926-a222-92101c5ffc08","ios":"levelo://app?vid=18361c49-bdac-4926-a222-92101c5ffc08"},"vehicle_type_id":"4","last_reported":1729335993,"current_range_meters":32400,"station_id":"ce4bhs12rcd13ifvqhvg","pricing_plan_id":"cebpf4jnsgd1na2vs0mg"},{"bike_id":"e52a80ba-980a-4312-a91e-2f5284e72e91","system_id":"levelo_inurba_marseille","lat":43.26935,"lon":5.38917,"is_reserved":false,"is_disabled":false,"rental_uris":{"android":"levelo://app?vid=e52a80ba-980a-4312-a91e-2f5284e72e91","ios":"levelo://app?vid=e52a80ba-980a-4312-a91e-2f5284e72e91"},"vehicle_type_id":"4","last_reported":1729335993,"current_range_meters":2800,"station_id":"ce4bhhh2rcd13ifvqfl0","pricing_plan_id":"cebpf4jnsgd1na2vs0mg"},{"bike_id":"cfe78fd2-5ebc-40fb-858b-89aa9fc29771","system_id":"levelo_inurba_marseille","lat":43.29416,"lon":5.37813,"is_reserved":false,"is_disabled":false,"rental_uris":{"android":"levelo://app?vid=cfe78fd2-5ebc-40fb-858b-89aa9fc29771","ios":"levelo://app?vid=cfe78fd2-5ebc-40fb-858b-89aa9fc29771"},"vehicle_type_id":"4","last_reported":1729335993,"current_range_meters":20000,"station_id":"","pricing_plan_id":"cebpf4jnsgd1na2vs0mg"},{"bike_id":"4dd2fe68-a1ec-43b8-9b45-8d717e77b01b","system_id":"levelo_inurba_marseille","lat":43.27817,"lon":5.40717,"is_reserved":false,"is_disabled":false,"rental_uris":{"android":"levelo://app?vid=4dd2fe68-a1ec-43b8-9b45-8d717e77b01b","ios":"levelo://app?vid=4dd2fe68-a1ec-43b8-9b45-8d717e77b01b"},"vehicle_type_id":"4","last_reported":1729335993,"current_range_meters":34800,"station_id":"ce4bhnh2rcd13ifvqgtg","pricing_plan_id":"cebpf4jnsgd1na2vs0mg"},{"bike_id":"0c437458-88ca-45a3-9c8b-718c632453de","system_id":"levelo_inurba_marseille","lat":43.27973,"lon":5.38758,"is_reserved":false,"is_disabled":false,"rental_uris":{"android":"levelo://app?vid=0c437458-88ca-45a3-9c8b-718c632453de","ios":"levelo://app?vid=0c437458-88ca-45a3-9c8b-718c632453de"},"vehicle_type_id":"4","last_reported":1729335993,"current_range_meters":24800,"station_id":"ce4bhg12rcd13ifvqf80","pricing_plan_id":"cebpf4jnsgd1na2vs0mg"},{"bike_id":"cc200779-b0ab-472e-8e4c-a492949d5888","system_id":"levelo_inurba_marseille","lat":43.28159,"lon":5.42644,"is_reserved":false,"is_disabled":false,"rental_uris":{"android":"levelo://app?vid=cc200779-b0ab-472e-8e4c-a492949d5888","ios":"levelo://app?vid=cc200779-b0ab-472e-8e4c-a492949d5888"},"vehicle_type_id":"4","last_reported":1729335993,"current_range_meters":12400,"station_id":"ce4bhnh2rcd13ifvqgug","pricing_plan_id":"cebpf4jnsgd1na2vs0mg"},{"bike_id":"85638a3d-3bc0-4ba5-a0c2-fd5a1454fee6","system_id":"levelo_inurba_marseille","lat":43.22931,"lon":5.35378,"is_reserved":false,"is_disabled":false,"rental_uris":{"android":"levelo://app?vid=85638a3d-3bc0-4ba5-a0c2-fd5a1454fee6","ios":"levelo://app?vid=85638a3d-3bc0-4ba5-a0c2-fd5a1454fee6"},"vehicle_type_id":"4","last_reported":1729335993,"current_range_meters":20000,"station_id":"cpo3532slgdg3j2ikp40","pricing_plan_id":"cebpf4jnsgd1na2vs0mg"},{"bike_id":"95f1e246-49e5-46e5-a1b7-4abb3963bd38","system_id":"levelo_inurba_marseille","lat":43.29847,"lon":5.36279,"is_reserved":false,"is_disabled":false,"rental_uris":{"android":"levelo://app?vid=95f1e246-49e5-46e5-a1b7-4abb3963bd38","ios":"levelo://app?vid=95f1e246-49e5-46e5-a1b7-4abb3963bd38"},"vehicle_type_id":"4","last_reported":1729335993,"current_range_meters":19200,"station_id":"ce4bgpp2rcd13ifvqc3g","pricing_plan_id":"cebpf4jnsgd1na2vs0mg"},{"bike_id":"38d67d90-2d95-4f6e-9a9f-a5ffab1fba2c","system_id":"levelo_inurba_marseille","lat":43.29899,"lon":5.43664,"is_reserved":false,"is_disabled":false,"rental_uris":{"android":"levelo://app?vid=38d67d90-2d95-4f6e-9a9f-a5ffab1fba2c","ios":"levelo://app?vid=38d67d90-2d95-4f6e-9a9f-a5ffab1fba2c"},"vehicle_type_id":"4","last_reported":1729335993,"current_range_meters":22800,"station_id":"ce4bhpp2rcd13ifvqhfg","pricing_plan_id":"cebpf4jnsgd1na2vs0mg"},{"bike_id":"22d4bb12-d9cb-4524-8b56-432c4e684dc2","system_id":"levelo_inurba_marseille","lat":43.24392,"lon":5.37062,"is_reserved":false,"is_disabled":false,"rental_uris":{"android":"levelo://app?vid=22d4bb12-d9cb-4524-8b56-432c4e684dc2","ios":"levelo://app?vid=22d4bb12-d9cb-4524-8b56-432c4e684dc2"},"vehicle_type_id":"4","last_reported":1729335993,"current_range_meters":24800,"station_id":"ce4bhhh2rcd13ifvqfk0","pricing_plan_id":"cebpf4jnsgd1na2vs0mg"},{"bike_id":"538d4be6-0232-47a9-885b-3f82e38fe6ef","system_id":"levelo_inurba_marseille","lat":43.29014,"lon":5.3562,"is_reserved":false,"is_disabled":false,"rental_uris":{"android":"levelo://app?vid=538d4be6-0232-47a9-885b-3f82e38fe6ef","ios":"levelo://app?vid=538d4be6-0232-47a9-885b-3f82e38fe6ef"},"vehicle_type_id":"4","last_reported":1729335993,"current_range_meters":37600,"station_id":"ce4bhb92rcd13ifvqen0","pricing_plan_id":"cebpf4jnsgd1na2vs0mg"},{"bike_id":"2040efa0-0548-4a8f-bbe0-49df48ca8d0d","system_id":"levelo_inurba_marseille","lat":43.31714,"lon":5.37746,"is_reserved":false,"is_disabled":false,"rental_uris":{"android":"levelo://app?vid=2040efa0-0548-4a8f-bbe0-49df48ca8d0d","ios":"levelo://app?vid=2040efa0-0548-4a8f-bbe0-49df48ca8d0d"},"vehicle_type_id":"4","last_reported":1729335993,"current_range_meters":9600,"station_id":"ce4bgth2rcd13ifvqch0","pricing_plan_id":"cebpf4jnsgd1na2vs0mg"},{"bike_id":"d53c30f1-2742-4aeb-84ce-861c9ec13c74","system_id":"levelo_inurba_marseille","lat":43.27076,"lon":5.42279,"is_reserved":false,"is_disabled":false,"rental_uris":{"android":"levelo://app?vid=d53c30f1-2742-4aeb-84ce-861c9ec13c74","ios":"levelo://app?vid=d53c30f1-2742-4aeb-84ce-861c9ec13c74"},"vehicle_type_id":"4","last_reported":1729335993,"current_range_meters":11600,"station_id":"ce4bhk92rcd13ifvqgb0","pricing_plan_id":"cebpf4jnsgd1na2vs0mg"},{"bike_id":"19f4c8bd-9374-42c0-b27b-7228ffdf8e80","system_id":"levelo_inurba_marseille","lat":43.28423,"lon":5.34994,"is_reserved":false,"is_disabled":false,"rental_uris":{"android":"levelo://app?vid=19f4c8bd-9374-42c0-b27b-7228ffdf8e80","ios":"levelo://app?vid=19f4c8bd-9374-42c0-b27b-7228ffdf8e80"},"vehicle_type_id":"4","last_reported":1729335993,"current_range_meters":36000,"station_id":"ce4bhbh2rcd13ifvqepg","pricing_plan_id":"cebpf4jnsgd1na2vs0mg"},{"bike_id":"c7b388ec-03ce-4a29-8a15-d11db7439d34","system_id":"levelo_inurba_marseille","lat":43.24998,"lon":5.3894,"is_reserved":false,"is_disabled":false,"rental_uris":{"android":"levelo://app?vid=c7b388ec-03ce-4a29-8a15-d11db7439d34","ios":"levelo://app?vid=c7b388ec-03ce-4a29-8a15-d11db7439d34"},"vehicle_type_id":"4","last_reported":1729335993,"current_range_meters":25200,"station_id":"ce4bhgp2rcd13ifvqfd0","pricing_plan_id":"cebpf4jnsgd1na2vs0mg"},{"bike_id":"0994d7f0-fa2e-480f-b967-2b1e1b476b78","system_id":"levelo_inurba_marseille","lat":43.23192,"lon":5.3555,"is_reserved":false,"is_disabled":false,"rental_uris":{"android":"levelo://app?vid=0994d7f0-fa2e-480f-b967-2b1e1b476b78","ios":"levelo://app?vid=0994d7f0-fa2e-480f-b967-2b1e1b476b78"},"vehicle_type_id":"4","last_reported":1729335993,"current_range_meters":3200,"station_id":"ce4bhu92rcd13ifvqi70","pricing_plan_id":"cebpf4jnsgd1na2vs0mg"},{"bike_id":"e6789174-ca29-4f3e-b4c1-26a6f6f7478b","system_id":"levelo_inurba_marseille","lat":43.2572,"lon":5.41114,"is_reserved":false,"is_disabled":false,"rental_uris":{"android":"levelo://app?vid=e6789174-ca29-4f3e-b4c1-26a6f6f7478b","ios":"levelo://app?vid=e6789174-ca29-4f3e-b4c1-26a6f6f7478b"},"vehicle_type_id":"4","last_reported":1729335993,"current_range_meters":39200,"station_id":"ce4bhkp2rcd13ifvqgd0","pricing_plan_id":"cebpf4jnsgd1na2vs0mg"},{"bike_id":"41352ecd-ccf7-4501-b52c-c09f6f495c10","system_id":"levelo_inurba_marseille","lat":43.27182,"lon":5.40994,"is_reserved":false,"is_disabled":false,"rental_uris":{"android":"levelo://app?vid=41352ecd-ccf7-4501-b52c-c09f6f495c10","ios":"levelo://app?vid=41352ecd-ccf7-4501-b52c-c09f6f495c10"},"vehicle_type_id":"4","last_reported":1729335993,"current_range_meters":38800,"station_id":"ce4bhl12rcd13ifvqgf0","pricing_plan_id":"cebpf4jnsgd1na2vs0mg"},{"bike_id":"74a60be0-24e2-47a7-a93b-6553aa99350e","system_id":"levelo_inurba_marseille","lat":43.30634,"lon":5.40096,"is_reserved":false,"is_disabled":false,"rental_uris":{"android":"levelo://app?vid=74a60be0-24e2-47a7-a93b-6553aa99350e","ios":"levelo://app?vid=74a60be0-24e2-47a7-a93b-6553aa99350e"},"vehicle_type_id":"4","last_reported":1729335993,"current_range_meters":29600,"station_id":"ce4bh112rcd13ifvqda0","pricing_plan_id":"cebpf4jnsgd1na2vs0mg"},{"bike_id":"b5f01190-7b79-4f99-a601-4669dfb05d9c","system_id":"levelo_inurba_marseille","lat":43.289337,"lon":5.366459,"is_reserved":false,"is_disabled":false,"rental_uris":{"android":"levelo://app?vid=b5f01190-7b79-4f99-a601-4669dfb05d9c","ios":"levelo://app?vid=b5f01190-7b79-4f99-a601-4669dfb05d9c"},"vehicle_type_id":"4","last_reported":1729335993,"current_range_meters":18800,"station_id":"ce4bhbh2rcd13ifvqepg","pricing_plan_id":"cebpf4jnsgd1na2vs0mg"},{"bike_id":"47b0677d-f1ea-44b9-ad27-95f55e4f3816","system_id":"levelo_inurba_marseille","lat":43.23987,"lon":5.36605,"is_reserved":false,"is_disabled":false,"rental_uris":{"android":"levelo://app?vid=47b0677d-f1ea-44b9-ad27-95f55e4f3816","ios":"levelo://app?vid=47b0677d-f1ea-44b9-ad27-95f55e4f3816"},"vehicle_type_id":"4","last_reported":1729335993,"current_range_meters":38800,"station_id":"ce4bhi12rcd13ifvqfp0","pricing_plan_id":"cebpf4jnsgd1na2vs0mg"},{"bike_id":"8ec7db9c-212f-433f-9f11-2309cca1f007","system_id":"levelo_inurba_marseille","lat":43.29702,"lon":5.37713,"is_reserved":false,"is_disabled":false,"rental_uris":{"android":"levelo://app?vid=8ec7db9c-212f-433f-9f11-2309cca1f007","ios":"levelo://app?vid=8ec7db9c-212f-433f-9f11-2309cca1f007"},"vehicle_type_id":"4","last_reported":1729335993,"current_range_meters":33200,"station_id":"ce4bgkh2rcd13ifvqbl0","pricing_plan_id":"cebpf4jnsgd1na2vs0mg"},{"bike_id":"d880b621-9a05-43eb-a436-8746c7d2f01c","system_id":"levelo_inurba_marseille","lat":43.29378,"lon":5.37852,"is_reserved":false,"is_disabled":false,"rental_uris":{"android":"levelo://app?vid=d880b621-9a05-43eb-a436-8746c7d2f01c","ios":"levelo://app?vid=d880b621-9a05-43eb-a436-8746c7d2f01c"},"vehicle_type_id":"4","last_reported":1729335993,"current_range_meters":24800,"station_id":"ce4bgjh2rcd13ifvqbf0","pricing_plan_id":"cebpf4jnsgd1na2vs0mg"},{"bike_id":"fb21d9c1-d08b-438b-a931-aa44d285e489","system_id":"levelo_inurba_marseille","lat":43.29187,"lon":5.37519,"is_reserved":false,"is_disabled":false,"rental_uris":{"android":"levelo://app?vid=fb21d9c1-d08b-438b-a931-aa44d285e489","ios":"levelo://app?vid=fb21d9c1-d08b-438b-a931-aa44d285e489"},"vehicle_type_id":"4","last_reported":1729335993,"current_range_meters":20000,"station_id":"ce4bha12rcd13ifvqef0","pricing_plan_id":"cebpf4jnsgd1na2vs0mg"},{"bike_id":"c345ae1c-1278-471e-9252-ef055a1478f1","system_id":"levelo_inurba_marseille","lat":43.29228,"lon":5.3605,"is_reserved":false,"is_disabled":false,"rental_uris":{"android":"levelo://app?vid=c345ae1c-1278-471e-9252-ef055a1478f1","ios":"levelo://app?vid=c345ae1c-1278-471e-9252-ef055a1478f1"},"vehicle_type_id":"4","last_reported":1729335993,"current_range_meters":36800,"station_id":"ce4bhbh2rcd13ifvqeqg","pricing_plan_id":"cebpf4jnsgd1na2vs0mg"},{"bike_id":"87fbb613-e0c5-4006-8ec1-90b5b3c9b244","system_id":"levelo_inurba_marseille","lat":43.26217,"lon":5.37445,"is_reserved":false,"is_disabled":false,"rental_uris":{"android":"levelo://app?vid=87fbb613-e0c5-4006-8ec1-90b5b3c9b244","ios":"levelo://app?vid=87fbb613-e0c5-4006-8ec1-90b5b3c9b244"},"vehicle_type_id":"4","last_reported":1729335993,"current_range_meters":3600,"station_id":"ce4bhgh2rcd13ifvqfa0","pricing_plan_id":"cebpf4jnsgd1na2vs0mg"},{"bike_id":"8e51a74e-fd45-4aab-80de-8a95db523984","system_id":"levelo_inurba_marseille","lat":43.2439,"lon":5.37047,"is_reserved":false,"is_disabled":false,"rental_uris":{"android":"levelo://app?vid=8e51a74e-fd45-4aab-80de-8a95db523984","ios":"levelo://app?vid=8e51a74e-fd45-4aab-80de-8a95db523984"},"vehicle_type_id":"4","last_reported":1729335993,"current_range_meters":31200,"station_id":"ce4bhhh2rcd13ifvqfk0","pricing_plan_id":"cebpf4jnsgd1na2vs0mg"},{"bike_id":"9ece7319-f410-4a1c-869b-c313ba0a907f","system_id":"levelo_inurba_marseille","lat":43.33611,"lon":5.41026,"is_reserved":false,"is_disabled":false,"rental_uris":{"android":"levelo://app?vid=9ece7319-f410-4a1c-869b-c313ba0a907f","ios":"levelo://app?vid=9ece7319-f410-4a1c-869b-c313ba0a907f"},"vehicle_type_id":"4","last_reported":1729335993,"current_range_meters":39200,"station_id":"ce4bhqh2rcd13ifvqhmg","pricing_plan_id":"cebpf4jnsgd1na2vs0mg"},{"bike_id":"907d90e2-7e08-4846-bbc2-01977b54a9bd","system_id":"levelo_inurba_marseille","lat":43.24173,"lon":5.36389,"is_reserved":false,"is_disabled":false,"rental_uris":{"android":"levelo://app?vid=907d90e2-7e08-4846-bbc2-01977b54a9bd","ios":"levelo://app?vid=907d90e2-7e08-4846-bbc2-01977b54a9bd"},"vehicle_type_id":"4","last_reported":1729335993,"current_range_meters":13600,"station_id":"cpo36qri1sfpv3e86is0","pricing_plan_id":"cebpf4jnsgd1na2vs0mg"},{"bike_id":"48836f4d-12e6-41c1-a5c7-c5ab40f084cd","system_id":"levelo_inurba_marseille","lat":43.25585,"lon":5.3824,"is_reserved":false,"is_disabled":false,"rental_uris":{"android":"levelo://app?vid=48836f4d-12e6-41c1-a5c7-c5ab40f084cd","ios":"levelo://app?vid=48836f4d-12e6-41c1-a5c7-c5ab40f084cd"},"vehicle_type_id":"4","last_reported":1729335993,"current_range_meters":38800,"station_id":"ce4bhih2rcd13ifvqfs0","pricing_plan_id":"cebpf4jnsgd1na2vs0mg"},{"bike_id":"efc0cf8b-7b81-47b0-b090-4589ebc42140","system_id":"levelo_inurba_marseille","lat":43.29626,"lon":5.37721,"is_reserved":false,"is_disabled":false,"rental_uris":{"android":"levelo://app?vid=efc0cf8b-7b81-47b0-b090-4589ebc42140","ios":"levelo://app?vid=efc0cf8b-7b81-47b0-b090-4589ebc42140"},"vehicle_type_id":"4","last_reported":1729335993,"current_range_meters":38800,"station_id":"ce4bgi92rcd13ifvqb90","pricing_plan_id":"cebpf4jnsgd1na2vs0mg"},{"bike_id":"0c849a83-21a9-493d-884b-a3610146705d","system_id":"levelo_inurba_marseille","lat":43.29586,"lon":5.36743,"is_reserved":false,"is_disabled":false,"rental_uris":{"android":"levelo://app?vid=0c849a83-21a9-493d-884b-a3610146705d","ios":"levelo://app?vid=0c849a83-21a9-493d-884b-a3610146705d"},"vehicle_type_id":"4","last_reported":1729335993,"current_range_meters":28800,"station_id":"ce4bgph2rcd13ifvqc2g","pricing_plan_id":"cebpf4jnsgd1na2vs0mg"},{"bike_id":"6ea0efd9-9506-4cd5-a278-7bb1813f4bd9","system_id":"levelo_inurba_marseille","lat":43.30157,"lon":5.37432,"is_reserved":false,"is_disabled":false,"rental_uris":{"android":"levelo://app?vid=6ea0efd9-9506-4cd5-a278-7bb1813f4bd9","ios":"levelo://app?vid=6ea0efd9-9506-4cd5-a278-7bb1813f4bd9"},"vehicle_type_id":"4","last_reported":1729335993,"current_range_meters":34800,"station_id":"ce4bgs92rcd13ifvqcc0","pricing_plan_id":"cebpf4jnsgd1na2vs0mg"},{"bike_id":"3e46c327-c230-4df5-b2fc-852a8e558d9d","system_id":"levelo_inurba_marseille","lat":43.22931,"lon":5.35381,"is_reserved":false,"is_disabled":false,"rental_uris":{"android":"levelo://app?vid=3e46c327-c230-4df5-b2fc-852a8e558d9d","ios":"levelo://app?vid=3e46c327-c230-4df5-b2fc-852a8e558d9d"},"vehicle_type_id":"4","last_reported":1729335993,"current_range_meters":26800,"station_id":"cpo3532slgdg3j2ikp40","pricing_plan_id":"cebpf4jnsgd1na2vs0mg"},{"bike_id":"54ac56ba-302a-4d28-904d-b9986326af31","system_id":"levelo_inurba_marseille","lat":43.25731,"lon":5.41104,"is_reserved":false,"is_disabled":false,"rental_uris":{"android":"levelo://app?vid=54ac56ba-302a-4d28-904d-b9986326af31","ios":"levelo://app?vid=54ac56ba-302a-4d28-904d-b9986326af31"},"vehicle_type_id":"4","last_reported":1729335993,"current_range_meters":5600,"station_id":"ce4bhkp2rcd13ifvqgd0","pricing_plan_id":"cebpf4jnsgd1na2vs0mg"},{"bike_id":"e4bf8fed-694e-4f0d-a894-6aa99f4f9437","system_id":"levelo_inurba_marseille","lat":43.296262,"lon":5.3772,"is_reserved":false,"is_disabled":false,"rental_uris":{"android":"levelo://app?vid=e4bf8fed-694e-4f0d-a894-6aa99f4f9437","ios":"levelo://app?vid=e4bf8fed-694e-4f0d-a894-6aa99f4f9437"},"vehicle_type_id":"4","last_reported":1729335993,"current_range_meters":24400,"station_id":"ce4bh292rcd13ifvqdg0","pricing_plan_id":"cebpf4jnsgd1na2vs0mg"},{"bike_id":"69daf454-197a-4e9d-82a0-60a3278684fb","system_id":"levelo_inurba_marseille","lat":43.22928,"lon":5.35385,"is_reserved":false,"is_disabled":false,"rental_uris":{"android":"levelo://app?vid=69daf454-197a-4e9d-82a0-60a3278684fb","ios":"levelo://app?vid=69daf454-197a-4e9d-82a0-60a3278684fb"},"vehicle_type_id":"4","last_reported":1729335993,"current_range_meters":36400,"station_id":"cpo3532slgdg3j2ikp40","pricing_plan_id":"cebpf4jnsgd1na2vs0mg"},{"bike_id":"9ed66892-1d5d-44f2-a0fb-41e18ceaf1f8","system_id":"levelo_inurba_marseille","lat":43.22935,"lon":5.35381,"is_reserved":false,"is_disabled":false,"rental_uris":{"android":"levelo://app?vid=9ed66892-1d5d-44f2-a0fb-41e18ceaf1f8","ios":"levelo://app?vid=9ed66892-1d5d-44f2-a0fb-41e18ceaf1f8"},"vehicle_type_id":"4","last_reported":1729335993,"current_range_meters":38400,"station_id":"cpo3532slgdg3j2ikp40","pricing_plan_id":"cebpf4jnsgd1na2vs0mg"},{"bike_id":"9b697ce4-04b2-4aeb-ad1d-d9c602b75937","system_id":"levelo_inurba_marseille","lat":43.31707,"lon":5.37755,"is_reserved":false,"is_disabled":false,"rental_uris":{"android":"levelo://app?vid=9b697ce4-04b2-4aeb-ad1d-d9c602b75937","ios":"levelo://app?vid=9b697ce4-04b2-4aeb-ad1d-d9c602b75937"},"vehicle_type_id":"4","last_reported":1729335993,"current_range_meters":39200,"station_id":"ce4bgth2rcd13ifvqch0","pricing_plan_id":"cebpf4jnsgd1na2vs0mg"},{"bike_id":"f4f068bd-5c8e-4895-aafb-b7f800d671e7","system_id":"levelo_inurba_marseille","lat":43.27218,"lon":5.39176,"is_reserved":false,"is_disabled":false,"rental_uris":{"android":"levelo://app?vid=f4f068bd-5c8e-4895-aafb-b7f800d671e7","ios":"levelo://app?vid=f4f068bd-5c8e-4895-aafb-b7f800d671e7"},"vehicle_type_id":"4","last_reported":1729335993,"current_range_meters":10000,"station_id":"ce4bhhp2rcd13ifvqfm0","pricing_plan_id":"cebpf4jnsgd1na2vs0mg"},{"bike_id":"c1a1a335-46e9-478d-9cfb-90e689de6f3f","system_id":"levelo_inurba_marseille","lat":43.23968,"lon":5.3663,"is_reserved":false,"is_disabled":false,"rental_uris":{"android":"levelo://app?vid=c1a1a335-46e9-478d-9cfb-90e689de6f3f","ios":"levelo://app?vid=c1a1a335-46e9-478d-9cfb-90e689de6f3f"},"vehicle_type_id":"4","last_reported":1729335993,"current_range_meters":20400,"station_id":"ce4bhi12rcd13ifvqfp0","pricing_plan_id":"cebpf4jnsgd1na2vs0mg"},{"bike_id":"a19bbf99-57ee-4fe3-9c12-f13d9eb440e3","system_id":"levelo_inurba_marseille","lat":43.29841,"lon":5.36265,"is_reserved":false,"is_disabled":false,"rental_uris":{"android":"levelo://app?vid=a19bbf99-57ee-4fe3-9c12-f13d9eb440e3","ios":"levelo://app?vid=a19bbf99-57ee-4fe3-9c12-f13d9eb440e3"},"vehicle_type_id":"4","last_reported":1729335993,"current_range_meters":38400,"station_id":"ce4bgpp2rcd13ifvqc3g","pricing_plan_id":"cebpf4jnsgd1na2vs0mg"},{"bike_id":"dd9307fb-a903-4696-857c-e556a5e3b34e","system_id":"levelo_inurba_marseille","lat":43.24545,"lon":5.39523,"is_reserved":false,"is_disabled":false,"rental_uris":{"android":"levelo://app?vid=dd9307fb-a903-4696-857c-e556a5e3b34e","ios":"levelo://app?vid=dd9307fb-a903-4696-857c-e556a5e3b34e"},"vehicle_type_id":"4","last_reported":1729335993,"current_range_meters":38000,"station_id":"ce4bhlp2rcd13ifvqgjg","pricing_plan_id":"cebpf4jnsgd1na2vs0mg"},{"bike_id":"2140b6a3-5118-4150-823e-9225aeb56201","system_id":"levelo_inurba_marseille","lat":43.23195,"lon":5.35548,"is_reserved":false,"is_disabled":false,"rental_uris":{"android":"levelo://app?vid=2140b6a3-5118-4150-823e-9225aeb56201","ios":"levelo://app?vid=2140b6a3-5118-4150-823e-9225aeb56201"},"vehicle_type_id":"4","last_reported":1729335993,"current_range_meters":28000,"station_id":"ce4bhu92rcd13ifvqi70","pricing_plan_id":"cebpf4jnsgd1na2vs0mg"},{"bike_id":"c544977c-8b57-44a0-ab76-f9f60a80a73d","system_id":"levelo_inurba_marseille","lat":43.3237,"lon":5.38884,"is_reserved":false,"is_disabled":false,"rental_uris":{"android":"levelo://app?vid=c544977c-8b57-44a0-ab76-f9f60a80a73d","ios":"levelo://app?vid=c544977c-8b57-44a0-ab76-f9f60a80a73d"},"vehicle_type_id":"4","last_reported":1729335993,"current_range_meters":22000,"station_id":"ce4bhqp2rcd13ifvqhog","pricing_plan_id":"cebpf4jnsgd1na2vs0mg"},{"bike_id":"2b3024c0-eb18-423a-8204-a06fea8f96bd","system_id":"levelo_inurba_marseille","lat":43.29532,"lon":5.38544,"is_reserved":false,"is_disabled":false,"rental_uris":{"android":"levelo://app?vid=2b3024c0-eb18-423a-8204-a06fea8f96bd","ios":"levelo://app?vid=2b3024c0-eb18-423a-8204-a06fea8f96bd"},"vehicle_type_id":"4","last_reported":1729335993,"current_range_meters":36400,"station_id":"ce4bgih2rcd13ifvqba0","pricing_plan_id":"cebpf4jnsgd1na2vs0mg"},{"bike_id":"40589edc-baeb-4043-9212-ab10116ce0d0","system_id":"levelo_inurba_marseille","lat":43.28468,"lon":5.35887,"is_reserved":false,"is_disabled":false,"rental_uris":{"android":"levelo://app?vid=40589edc-baeb-4043-9212-ab10116ce0d0","ios":"levelo://app?vid=40589edc-baeb-4043-9212-ab10116ce0d0"},"vehicle_type_id":"4","last_reported":1729335993,"current_range_meters":36800,"station_id":"ce4bhah2rcd13ifvqei0","pricing_plan_id":"cebpf4jnsgd1na2vs0mg"},{"bike_id":"d116ab63-54e5-422b-8ef9-2c8c31901cde","system_id":"levelo_inurba_marseille","lat":43.26037,"lon":5.37553,"is_reserved":false,"is_disabled":false,"rental_uris":{"android":"levelo://app?vid=d116ab63-54e5-422b-8ef9-2c8c31901cde","ios":"levelo://app?vid=d116ab63-54e5-422b-8ef9-2c8c31901cde"},"vehicle_type_id":"4","last_reported":1729335993,"current_range_meters":39200,"station_id":"ce4bhgh2rcd13ifvqfa0","pricing_plan_id":"cebpf4jnsgd1na2vs0mg"},{"bike_id":"1bed2458-0917-4185-92b3-f951212aad7b","system_id":"levelo_inurba_marseille","lat":43.29299,"lon":5.37459,"is_reserved":false,"is_disabled":false,"rental_uris":{"android":"levelo://app?vid=1bed2458-0917-4185-92b3-f951212aad7b","ios":"levelo://app?vid=1bed2458-0917-4185-92b3-f951212aad7b"},"vehicle_type_id":"4","last_reported":1729335993,"current_range_meters":13600,"station_id":"ce4bgi12rcd13ifvqb70","pricing_plan_id":"cebpf4jnsgd1na2vs0mg"},{"bike_id":"a723a768-ad98-4339-8ff6-1b86a69a8f17","system_id":"levelo_inurba_marseille","lat":43.30309,"lon":5.369,"is_reserved":false,"is_disabled":false,"rental_uris":{"android":"levelo://app?vid=a723a768-ad98-4339-8ff6-1b86a69a8f17","ios":"levelo://app?vid=a723a768-ad98-4339-8ff6-1b86a69a8f17"},"vehicle_type_id":"4","last_reported":1729335993,"current_range_meters":16800,"station_id":"ce4bgqh2rcd13ifvqc5g","pricing_plan_id":"cebpf4jnsgd1na2vs0mg"},{"bike_id":"6e706dcb-6e41-41b6-a172-73765c66fdaa","system_id":"levelo_inurba_marseille","lat":43.26248,"lon":5.37591,"is_reserved":false,"is_disabled":false,"rental_uris":{"android":"levelo://app?vid=6e706dcb-6e41-41b6-a172-73765c66fdaa","ios":"levelo://app?vid=6e706dcb-6e41-41b6-a172-73765c66fdaa"},"vehicle_type_id":"4","last_reported":1729335993,"current_range_meters":38000,"station_id":"ce4bhhp2rcd13ifvqfm0","pricing_plan_id":"cebpf4jnsgd1na2vs0mg"},{"bike_id":"6cb7a3ce-6d5f-4dc0-ab7f-5cafce2cff2e","system_id":"levelo_inurba_marseille","lat":43.29584,"lon":5.36739,"is_reserved":false,"is_disabled":false,"rental_uris":{"android":"levelo://app?vid=6cb7a3ce-6d5f-4dc0-ab7f-5cafce2cff2e","ios":"levelo://app?vid=6cb7a3ce-6d5f-4dc0-ab7f-5cafce2cff2e"},"vehicle_type_id":"4","last_reported":1729335993,"current_range_meters":32400,"station_id":"ce4bgph2rcd13ifvqc2g","pricing_plan_id":"cebpf4jnsgd1na2vs0mg"},{"bike_id":"35cd31d0-e834-4434-a949-35cf2fbd1d2c","system_id":"levelo_inurba_marseille","lat":43.22937,"lon":5.35381,"is_reserved":false,"is_disabled":false,"rental_uris":{"android":"levelo://app?vid=35cd31d0-e834-4434-a949-35cf2fbd1d2c","ios":"levelo://app?vid=35cd31d0-e834-4434-a949-35cf2fbd1d2c"},"vehicle_type_id":"4","last_reported":1729335993,"current_range_meters":17200,"station_id":"cpo3532slgdg3j2ikp40","pricing_plan_id":"cebpf4jnsgd1na2vs0mg"},{"bike_id":"49043c40-c1c2-4550-a5d2-c8ca785a8e4a","system_id":"levelo_inurba_marseille","lat":43.30185,"lon":5.36613,"is_reserved":false,"is_disabled":false,"rental_uris":{"android":"levelo://app?vid=49043c40-c1c2-4550-a5d2-c8ca785a8e4a","ios":"levelo://app?vid=49043c40-c1c2-4550-a5d2-c8ca785a8e4a"},"vehicle_type_id":"4","last_reported":1729335993,"current_range_meters":38800,"station_id":"ce4bgrh2rcd13ifvqc8g","pricing_plan_id":"cebpf4jnsgd1na2vs0mg"},{"bike_id":"49b9a587-444d-405a-b8dd-aae0f8996f2f","system_id":"levelo_inurba_marseille","lat":43.30896,"lon":5.37193,"is_reserved":false,"is_disabled":false,"rental_uris":{"android":"levelo://app?vid=49b9a587-444d-405a-b8dd-aae0f8996f2f","ios":"levelo://app?vid=49b9a587-444d-405a-b8dd-aae0f8996f2f"},"vehicle_type_id":"4","last_reported":1729335993,"current_range_meters":24000,"station_id":"ce4bguh2rcd13ifvqckg","pricing_plan_id":"cebpf4jnsgd1na2vs0mg"},{"bike_id":"7772d39f-5e28-445c-af91-069b0cf63793","system_id":"levelo_inurba_marseille","lat":43.33765,"lon":5.37438,"is_reserved":false,"is_disabled":false,"rental_uris":{"android":"levelo://app?vid=7772d39f-5e28-445c-af91-069b0cf63793","ios":"levelo://app?vid=7772d39f-5e28-445c-af91-069b0cf63793"},"vehicle_type_id":"4","last_reported":1729335993,"current_range_meters":9200,"station_id":"","pricing_plan_id":"cebpf4jnsgd1na2vs0mg"},{"bike_id":"c4efa82e-6b51-4a08-9257-369f0e693674","system_id":"levelo_inurba_marseille","lat":43.25001,"lon":5.38935,"is_reserved":false,"is_disabled":false,"rental_uris":{"android":"levelo://app?vid=c4efa82e-6b51-4a08-9257-369f0e693674","ios":"levelo://app?vid=c4efa82e-6b51-4a08-9257-369f0e693674"},"vehicle_type_id":"4","last_reported":1729335993,"current_range_meters":12000,"station_id":"ce4bhgp2rcd13ifvqfd0","pricing_plan_id":"cebpf4jnsgd1na2vs0mg"},{"bike_id":"48376d10-fe56-48b9-8a68-84925bdf0a7c","system_id":"levelo_inurba_marseille","lat":43.32488,"lon":5.3656,"is_reserved":false,"is_disabled":false,"rental_uris":{"android":"levelo://app?vid=48376d10-fe56-48b9-8a68-84925bdf0a7c","ios":"levelo://app?vid=48376d10-fe56-48b9-8a68-84925bdf0a7c"},"vehicle_type_id":"4","last_reported":1729335993,"current_range_meters":31200,"station_id":"ce4bhs12rcd13ifvqhvg","pricing_plan_id":"cebpf4jnsgd1na2vs0mg"},{"bike_id":"3213665e-989c-4d22-9f5a-31c8522597dd","system_id":"levelo_inurba_marseille","lat":43.296,"lon":5.36142,"is_reserved":false,"is_disabled":false,"rental_uris":{"android":"levelo://app?vid=3213665e-989c-4d22-9f5a-31c8522597dd","ios":"levelo://app?vid=3213665e-989c-4d22-9f5a-31c8522597dd"},"vehicle_type_id":"4","last_reported":1729335993,"current_range_meters":19600,"station_id":"","pricing_plan_id":"cebpf4jnsgd1na2vs0mg"},{"bike_id":"28a4e345-9d30-4d08-9b2a-70587a7eba7c","system_id":"levelo_inurba_marseille","lat":43.29588,"lon":5.36737,"is_reserved":false,"is_disabled":false,"rental_uris":{"android":"levelo://app?vid=28a4e345-9d30-4d08-9b2a-70587a7eba7c","ios":"levelo://app?vid=28a4e345-9d30-4d08-9b2a-70587a7eba7c"},"vehicle_type_id":"4","last_reported":1729335993,"current_range_meters":30000,"station_id":"ce4bgph2rcd13ifvqc2g","pricing_plan_id":"cebpf4jnsgd1na2vs0mg"},{"bike_id":"57b209a6-076f-4fe9-9e50-8d35d1d4533f","system_id":"levelo_inurba_marseille","lat":43.28153,"lon":5.42646,"is_reserved":false,"is_disabled":false,"rental_uris":{"android":"levelo://app?vid=57b209a6-076f-4fe9-9e50-8d35d1d4533f","ios":"levelo://app?vid=57b209a6-076f-4fe9-9e50-8d35d1d4533f"},"vehicle_type_id":"4","last_reported":1729335993,"current_range_meters":24400,"station_id":"ce4bhnh2rcd13ifvqgug","pricing_plan_id":"cebpf4jnsgd1na2vs0mg"},{"bike_id":"4fbbfab7-5970-4a84-85d1-212875289a2b","system_id":"levelo_inurba_marseille","lat":43.28853,"lon":5.35848,"is_reserved":false,"is_disabled":false,"rental_uris":{"android":"levelo://app?vid=4fbbfab7-5970-4a84-85d1-212875289a2b","ios":"levelo://app?vid=4fbbfab7-5970-4a84-85d1-212875289a2b"},"vehicle_type_id":"4","last_reported":1729335993,"current_range_meters":38400,"station_id":"ce4bhb12rcd13ifvqem0","pricing_plan_id":"cebpf4jnsgd1na2vs0mg"},{"bike_id":"85978b2d-96a1-4496-a15d-3917a97b0613","system_id":"levelo_inurba_marseille","lat":43.32368,"lon":5.38883,"is_reserved":false,"is_disabled":false,"rental_uris":{"android":"levelo://app?vid=85978b2d-96a1-4496-a15d-3917a97b0613","ios":"levelo://app?vid=85978b2d-96a1-4496-a15d-3917a97b0613"},"vehicle_type_id":"4","last_reported":1729335993,"current_range_meters":37600,"station_id":"ce4bhqp2rcd13ifvqhog","pricing_plan_id":"cebpf4jnsgd1na2vs0mg"},{"bike_id":"4073ae12-a9a2-4914-98f7-3fa3c8233685","system_id":"levelo_inurba_marseille","lat":43.2656,"lon":5.37284,"is_reserved":false,"is_disabled":false,"rental_uris":{"android":"levelo://app?vid=4073ae12-a9a2-4914-98f7-3fa3c8233685","ios":"levelo://app?vid=4073ae12-a9a2-4914-98f7-3fa3c8233685"},"vehicle_type_id":"4","last_reported":1729335993,"current_range_meters":24400,"station_id":"ce4bhg12rcd13ifvqf70","pricing_plan_id":"cebpf4jnsgd1na2vs0mg"},{"bike_id":"01f05d29-53d0-4fc3-aaac-355e5acc2ab2","system_id":"levelo_inurba_marseille","lat":43.303636,"lon":5.41877,"is_reserved":false,"is_disabled":false,"rental_uris":{"android":"levelo://app?vid=01f05d29-53d0-4fc3-aaac-355e5acc2ab2","ios":"levelo://app?vid=01f05d29-53d0-4fc3-aaac-355e5acc2ab2"},"vehicle_type_id":"4","last_reported":1729335993,"current_range_meters":38800,"station_id":"ce4bhop2rcd13ifvqh7g","pricing_plan_id":"cebpf4jnsgd1na2vs0mg"},{"bike_id":"a60acd41-d6c7-4ce1-871c-9489eb2fe795","system_id":"levelo_inurba_marseille","lat":43.29234,"lon":5.36064,"is_reserved":false,"is_disabled":false,"rental_uris":{"android":"levelo://app?vid=a60acd41-d6c7-4ce1-871c-9489eb2fe795","ios":"levelo://app?vid=a60acd41-d6c7-4ce1-871c-9489eb2fe795"},"vehicle_type_id":"4","last_reported":1729335993,"current_range_meters":33200,"station_id":"ce4bhbh2rcd13ifvqeqg","pricing_plan_id":"cebpf4jnsgd1na2vs0mg"},{"bike_id":"720f32bc-f057-41f4-aebc-3fd98c4f7d49","system_id":"levelo_inurba_marseille","lat":43.304141,"lon":5.36757,"is_reserved":false,"is_disabled":false,"rental_uris":{"android":"levelo://app?vid=720f32bc-f057-41f4-aebc-3fd98c4f7d49","ios":"levelo://app?vid=720f32bc-f057-41f4-aebc-3fd98c4f7d49"},"vehicle_type_id":"4","last_reported":1729335993,"current_range_meters":8000,"station_id":"","pricing_plan_id":"cebpf4jnsgd1na2vs0mg"},{"bike_id":"0cb2ff1d-75b8-48e9-8163-d51e41677760","system_id":"levelo_inurba_marseille","lat":43.23068,"lon":5.35493,"is_reserved":false,"is_disabled":false,"rental_uris":{"android":"levelo://app?vid=0cb2ff1d-75b8-48e9-8163-d51e41677760","ios":"levelo://app?vid=0cb2ff1d-75b8-48e9-8163-d51e41677760"},"vehicle_type_id":"4","last_reported":1729335993,"current_range_meters":11600,"station_id":"cpo3342slgdg3j2ifvpg","pricing_plan_id":"cebpf4jnsgd1na2vs0mg"},{"bike_id":"61b671b1-65f8-44e8-99cd-4f11d9efb498","system_id":"levelo_inurba_marseille","lat":43.3108,"lon":5.38348,"is_reserved":false,"is_disabled":false,"rental_uris":{"android":"levelo://app?vid=61b671b1-65f8-44e8-99cd-4f11d9efb498","ios":"levelo://app?vid=61b671b1-65f8-44e8-99cd-4f11d9efb498"},"vehicle_type_id":"4","last_reported":1729335993,"current_range_meters":30800,"station_id":"ce4bgv92rcd13ifvqcr0","pricing_plan_id":"cebpf4jnsgd1na2vs0mg"},{"bike_id":"6a1e31b6-d029-4b53-901f-4bdc7b2141ad","system_id":"levelo_inurba_marseille","lat":43.33029,"lon":5.39025,"is_reserved":false,"is_disabled":false,"rental_uris":{"android":"levelo://app?vid=6a1e31b6-d029-4b53-901f-4bdc7b2141ad","ios":"levelo://app?vid=6a1e31b6-d029-4b53-901f-4bdc7b2141ad"},"vehicle_type_id":"4","last_reported":1729335993,"current_range_meters":24800,"station_id":"ce4bhr92rcd13ifvqhrg","pricing_plan_id":"cebpf4jnsgd1na2vs0mg"},{"bike_id":"2256b100-ed1e-4bce-a234-de002a93daeb","system_id":"levelo_inurba_marseille","lat":43.28858,"lon":5.39307,"is_reserved":false,"is_disabled":false,"rental_uris":{"android":"levelo://app?vid=2256b100-ed1e-4bce-a234-de002a93daeb","ios":"levelo://app?vid=2256b100-ed1e-4bce-a234-de002a93daeb"},"vehicle_type_id":"4","last_reported":1729335993,"current_range_meters":23200,"station_id":"ce4bh2p2rcd13ifvqdi0","pricing_plan_id":"cebpf4jnsgd1na2vs0mg"},{"bike_id":"60e5d882-0396-4567-9dd1-7257b842a7e3","system_id":"levelo_inurba_marseille","lat":43.29851,"lon":5.36282,"is_reserved":false,"is_disabled":false,"rental_uris":{"android":"levelo://app?vid=60e5d882-0396-4567-9dd1-7257b842a7e3","ios":"levelo://app?vid=60e5d882-0396-4567-9dd1-7257b842a7e3"},"vehicle_type_id":"4","last_reported":1729335993,"current_range_meters":38800,"station_id":"ce4bgpp2rcd13ifvqc3g","pricing_plan_id":"cebpf4jnsgd1na2vs0mg"},{"bike_id":"f28821c9-7999-40df-9445-8ad0ddd340db","system_id":"levelo_inurba_marseille","lat":43.29299,"lon":5.37449,"is_reserved":false,"is_disabled":false,"rental_uris":{"android":"levelo://app?vid=f28821c9-7999-40df-9445-8ad0ddd340db","ios":"levelo://app?vid=f28821c9-7999-40df-9445-8ad0ddd340db"},"vehicle_type_id":"4","last_reported":1729335993,"current_range_meters":25600,"station_id":"ce4bgi12rcd13ifvqb70","pricing_plan_id":"cebpf4jnsgd1na2vs0mg"},{"bike_id":"11a21bb0-f15a-49f4-8d19-d7ea309cb0d1","system_id":"levelo_inurba_marseille","lat":43.31766,"lon":5.39015,"is_reserved":false,"is_disabled":false,"rental_uris":{"android":"levelo://app?vid=11a21bb0-f15a-49f4-8d19-d7ea309cb0d1","ios":"levelo://app?vid=11a21bb0-f15a-49f4-8d19-d7ea309cb0d1"},"vehicle_type_id":"4","last_reported":1729335993,"current_range_meters":9200,"station_id":"ce4bhqp2rcd13ifvqhng","pricing_plan_id":"cebpf4jnsgd1na2vs0mg"},{"bike_id":"a09f9f09-c090-46ab-bf24-398a71564992","system_id":"levelo_inurba_marseille","lat":43.25123,"lon":5.40318,"is_reserved":false,"is_disabled":false,"rental_uris":{"android":"levelo://app?vid=a09f9f09-c090-46ab-bf24-398a71564992","ios":"levelo://app?vid=a09f9f09-c090-46ab-bf24-398a71564992"},"vehicle_type_id":"4","last_reported":1729335993,"current_range_meters":2800,"station_id":"ce4bhlh2rcd13ifvqgig","pricing_plan_id":"cebpf4jnsgd1na2vs0mg"},{"bike_id":"6097135c-08ae-4b32-ba2d-8b9d644b4f55","system_id":"levelo_inurba_marseille","lat":43.32055,"lon":5.41547,"is_reserved":false,"is_disabled":false,"rental_uris":{"android":"levelo://app?vid=6097135c-08ae-4b32-ba2d-8b9d644b4f55","ios":"levelo://app?vid=6097135c-08ae-4b32-ba2d-8b9d644b4f55"},"vehicle_type_id":"4","last_reported":1729335993,"current_range_meters":39200,"station_id":"ce4bhq92rcd13ifvqhkg","pricing_plan_id":"cebpf4jnsgd1na2vs0mg"},{"bike_id":"1a033abb-16f6-452d-8850-1323583b7cab","system_id":"levelo_inurba_marseille","lat":43.28154,"lon":5.4264,"is_reserved":false,"is_disabled":false,"rental_uris":{"android":"levelo://app?vid=1a033abb-16f6-452d-8850-1323583b7cab","ios":"levelo://app?vid=1a033abb-16f6-452d-8850-1323583b7cab"},"vehicle_type_id":"4","last_reported":1729335993,"current_range_meters":12400,"station_id":"ce4bhnh2rcd13ifvqgug","pricing_plan_id":"cebpf4jnsgd1na2vs0mg"},{"bike_id":"aa8ee93c-9a92-44d9-b191-78c51d06c65b","system_id":"levelo_inurba_marseille","lat":43.29295,"lon":5.37462,"is_reserved":false,"is_disabled":false,"rental_uris":{"android":"levelo://app?vid=aa8ee93c-9a92-44d9-b191-78c51d06c65b","ios":"levelo://app?vid=aa8ee93c-9a92-44d9-b191-78c51d06c65b"},"vehicle_type_id":"4","last_reported":1729335993,"current_range_meters":32000,"station_id":"ce4bgi12rcd13ifvqb70","pricing_plan_id":"cebpf4jnsgd1na2vs0mg"},{"bike_id":"54f8f03a-6617-4b3d-ba8e-ed5aba172181","system_id":"levelo_inurba_marseille","lat":43.29716,"lon":5.37727,"is_reserved":false,"is_disabled":false,"rental_uris":{"android":"levelo://app?vid=54f8f03a-6617-4b3d-ba8e-ed5aba172181","ios":"levelo://app?vid=54f8f03a-6617-4b3d-ba8e-ed5aba172181"},"vehicle_type_id":"4","last_reported":1729335993,"current_range_meters":38800,"station_id":"","pricing_plan_id":"cebpf4jnsgd1na2vs0mg"},{"bike_id":"4b88317a-2c71-4cfd-b616-6b36d3a67a26","system_id":"levelo_inurba_marseille","lat":43.29534,"lon":5.37461,"is_reserved":false,"is_disabled":false,"rental_uris":{"android":"levelo://app?vid=4b88317a-2c71-4cfd-b616-6b36d3a67a26","ios":"levelo://app?vid=4b88317a-2c71-4cfd-b616-6b36d3a67a26"},"vehicle_type_id":"4","last_reported":1729335993,"current_range_meters":8400,"station_id":"ce4bgkp2rcd13ifvqbmg","pricing_plan_id":"cebpf4jnsgd1na2vs0mg"},{"bike_id":"f7a24b2f-5943-4824-83d0-3767d391605f","system_id":"levelo_inurba_marseille","lat":43.29846,"lon":5.36272,"is_reserved":false,"is_disabled":false,"rental_uris":{"android":"levelo://app?vid=f7a24b2f-5943-4824-83d0-3767d391605f","ios":"levelo://app?vid=f7a24b2f-5943-4824-83d0-3767d391605f"},"vehicle_type_id":"4","last_reported":1729335993,"current_range_meters":28000,"station_id":"ce4bgpp2rcd13ifvqc3g","pricing_plan_id":"cebpf4jnsgd1na2vs0mg"},{"bike_id":"4874bceb-cd93-42bf-b28a-fcffdfbd1902","system_id":"levelo_inurba_marseille","lat":43.29023,"lon":5.3813,"is_reserved":false,"is_disabled":false,"rental_uris":{"android":"levelo://app?vid=4874bceb-cd93-42bf-b28a-fcffdfbd1902","ios":"levelo://app?vid=4874bceb-cd93-42bf-b28a-fcffdfbd1902"},"vehicle_type_id":"4","last_reported":1729335993,"current_range_meters":38800,"station_id":"ce4bh4p2rcd13ifvqe1g","pricing_plan_id":"cebpf4jnsgd1na2vs0mg"},{"bike_id":"5f030b11-c610-4dd2-9fe0-f0ffeb7f76d5","system_id":"levelo_inurba_marseille","lat":43.24078,"lon":5.37747,"is_reserved":false,"is_disabled":false,"rental_uris":{"android":"levelo://app?vid=5f030b11-c610-4dd2-9fe0-f0ffeb7f76d5","ios":"levelo://app?vid=5f030b11-c610-4dd2-9fe0-f0ffeb7f76d5"},"vehicle_type_id":"4","last_reported":1729335993,"current_range_meters":28400,"station_id":"ce4bhnp2rcd13ifvqgvg","pricing_plan_id":"cebpf4jnsgd1na2vs0mg"},{"bike_id":"067193b3-5c80-4bd0-bba0-f83eb46c9371","system_id":"levelo_inurba_marseille","lat":43.23193,"lon":5.35558,"is_reserved":false,"is_disabled":false,"rental_uris":{"android":"levelo://app?vid=067193b3-5c80-4bd0-bba0-f83eb46c9371","ios":"levelo://app?vid=067193b3-5c80-4bd0-bba0-f83eb46c9371"},"vehicle_type_id":"4","last_reported":1729335993,"current_range_meters":32400,"station_id":"ce4bhu92rcd13ifvqi70","pricing_plan_id":"cebpf4jnsgd1na2vs0mg"},{"bike_id":"ea57ffff-f769-4532-add4-4d3a7b1bffe8","system_id":"levelo_inurba_marseille","lat":43.2985,"lon":5.36279,"is_reserved":false,"is_disabled":false,"rental_uris":{"android":"levelo://app?vid=ea57ffff-f769-4532-add4-4d3a7b1bffe8","ios":"levelo://app?vid=ea57ffff-f769-4532-add4-4d3a7b1bffe8"},"vehicle_type_id":"4","last_reported":1729335993,"current_range_meters":26000,"station_id":"ce4bgpp2rcd13ifvqc3g","pricing_plan_id":"cebpf4jnsgd1na2vs0mg"},{"bike_id":"df5f0946-bffc-4b73-b9bd-3020e50d714a","system_id":"levelo_inurba_marseille","lat":43.30792,"lon":5.37648,"is_reserved":false,"is_disabled":false,"rental_uris":{"android":"levelo://app?vid=df5f0946-bffc-4b73-b9bd-3020e50d714a","ios":"levelo://app?vid=df5f0946-bffc-4b73-b9bd-3020e50d714a"},"vehicle_type_id":"4","last_reported":1729335993,"current_range_meters":30800,"station_id":"ce4bgv92rcd13ifvqcq0","pricing_plan_id":"cebpf4jnsgd1na2vs0mg"},{"bike_id":"09d74d5d-6dbb-446f-a3ab-2003f869b95f","system_id":"levelo_inurba_marseille","lat":43.29537,"lon":5.37505,"is_reserved":false,"is_disabled":false,"rental_uris":{"android":"levelo://app?vid=09d74d5d-6dbb-446f-a3ab-2003f869b95f","ios":"levelo://app?vid=09d74d5d-6dbb-446f-a3ab-2003f869b95f"},"vehicle_type_id":"4","last_reported":1729335993,"current_range_meters":39200,"station_id":"ce4bgkp2rcd13ifvqbmg","pricing_plan_id":"cebpf4jnsgd1na2vs0mg"},{"bike_id":"8e65aeb0-4132-4682-8af8-d8cd648c9e87","system_id":"levelo_inurba_marseille","lat":43.29035,"lon":5.38141,"is_reserved":false,"is_disabled":false,"rental_uris":{"android":"levelo://app?vid=8e65aeb0-4132-4682-8af8-d8cd648c9e87","ios":"levelo://app?vid=8e65aeb0-4132-4682-8af8-d8cd648c9e87"},"vehicle_type_id":"4","last_reported":1729335993,"current_range_meters":32800,"station_id":"ce4bh4p2rcd13ifvqe1g","pricing_plan_id":"cebpf4jnsgd1na2vs0mg"},{"bike_id":"006bbfd0-294d-4716-b026-030ad88cf679","system_id":"levelo_inurba_marseille","lat":43.24392,"lon":5.37056,"is_reserved":false,"is_disabled":false,"rental_uris":{"android":"levelo://app?vid=006bbfd0-294d-4716-b026-030ad88cf679","ios":"levelo://app?vid=006bbfd0-294d-4716-b026-030ad88cf679"},"vehicle_type_id":"4","last_reported":1729335993,"current_range_meters":39200,"station_id":"ce4bhhh2rcd13ifvqfk0","pricing_plan_id":"cebpf4jnsgd1na2vs0mg"},{"bike_id":"f7616f24-54df-4cda-a694-13e9c5d0779d","system_id":"levelo_inurba_marseille","lat":43.27816,"lon":5.40705,"is_reserved":false,"is_disabled":false,"rental_uris":{"android":"levelo://app?vid=f7616f24-54df-4cda-a694-13e9c5d0779d","ios":"levelo://app?vid=f7616f24-54df-4cda-a694-13e9c5d0779d"},"vehicle_type_id":"4","last_reported":1729335993,"current_range_meters":38400,"station_id":"ce4bhnh2rcd13ifvqgtg","pricing_plan_id":"cebpf4jnsgd1na2vs0mg"},{"bike_id":"f89e5a1e-8ad8-4a6e-8da5-3c97d05b5e2b","system_id":"levelo_inurba_marseille","lat":43.26062,"lon":5.394,"is_reserved":false,"is_disabled":false,"rental_uris":{"android":"levelo://app?vid=f89e5a1e-8ad8-4a6e-8da5-3c97d05b5e2b","ios":"levelo://app?vid=f89e5a1e-8ad8-4a6e-8da5-3c97d05b5e2b"},"vehicle_type_id":"4","last_reported":1729335993,"current_range_meters":11200,"station_id":"ce4bhh92rcd13ifvqfj0","pricing_plan_id":"cebpf4jnsgd1na2vs0mg"},{"bike_id":"7b5164b4-90cc-41bc-a797-681402c746de","system_id":"levelo_inurba_marseille","lat":43.25002,"lon":5.38932,"is_reserved":false,"is_disabled":false,"rental_uris":{"android":"levelo://app?vid=7b5164b4-90cc-41bc-a797-681402c746de","ios":"levelo://app?vid=7b5164b4-90cc-41bc-a797-681402c746de"},"vehicle_type_id":"4","last_reported":1729335993,"current_range_meters":35200,"station_id":"ce4bhgp2rcd13ifvqfd0","pricing_plan_id":"cebpf4jnsgd1na2vs0mg"},{"bike_id":"871a8eed-6f3c-411b-ab12-a985a459d015","system_id":"levelo_inurba_marseille","lat":43.26561,"lon":5.37287,"is_reserved":false,"is_disabled":false,"rental_uris":{"android":"levelo://app?vid=871a8eed-6f3c-411b-ab12-a985a459d015","ios":"levelo://app?vid=871a8eed-6f3c-411b-ab12-a985a459d015"},"vehicle_type_id":"4","last_reported":1729335993,"current_range_meters":35600,"station_id":"ce4bhg12rcd13ifvqf70","pricing_plan_id":"cebpf4jnsgd1na2vs0mg"},{"bike_id":"d77de414-ca1a-409e-b7a6-47916177fca8","system_id":"levelo_inurba_marseille","lat":43.24991,"lon":5.38944,"is_reserved":false,"is_disabled":false,"rental_uris":{"android":"levelo://app?vid=d77de414-ca1a-409e-b7a6-47916177fca8","ios":"levelo://app?vid=d77de414-ca1a-409e-b7a6-47916177fca8"},"vehicle_type_id":"4","last_reported":1729335993,"current_range_meters":28400,"station_id":"ce4bhgp2rcd13ifvqfd0","pricing_plan_id":"cebpf4jnsgd1na2vs0mg"},{"bike_id":"3d7339ac-bc66-458a-ab01-f593b1a63a30","system_id":"levelo_inurba_marseille","lat":43.29037,"lon":5.37559,"is_reserved":false,"is_disabled":false,"rental_uris":{"android":"levelo://app?vid=3d7339ac-bc66-458a-ab01-f593b1a63a30","ios":"levelo://app?vid=3d7339ac-bc66-458a-ab01-f593b1a63a30"},"vehicle_type_id":"4","last_reported":1729335993,"current_range_meters":34000,"station_id":"ce4bh692rcd13ifvqe90","pricing_plan_id":"cebpf4jnsgd1na2vs0mg"},{"bike_id":"c4fbd914-896e-4644-8e56-a91c7ef7902e","system_id":"levelo_inurba_marseille","lat":43.27325,"lon":5.39131,"is_reserved":false,"is_disabled":false,"rental_uris":{"android":"levelo://app?vid=c4fbd914-896e-4644-8e56-a91c7ef7902e","ios":"levelo://app?vid=c4fbd914-896e-4644-8e56-a91c7ef7902e"},"vehicle_type_id":"4","last_reported":1729335993,"current_range_meters":5600,"station_id":"ce4bhgp2rcd13ifvqfe0","pricing_plan_id":"cebpf4jnsgd1na2vs0mg"},{"bike_id":"1c9f3269-ed93-460c-8d9d-8c51506c39cc","system_id":"levelo_inurba_marseille","lat":43.29542,"lon":5.37502,"is_reserved":false,"is_disabled":false,"rental_uris":{"android":"levelo://app?vid=1c9f3269-ed93-460c-8d9d-8c51506c39cc","ios":"levelo://app?vid=1c9f3269-ed93-460c-8d9d-8c51506c39cc"},"vehicle_type_id":"4","last_reported":1729335993,"current_range_meters":26000,"station_id":"ce4bgkp2rcd13ifvqbmg","pricing_plan_id":"cebpf4jnsgd1na2vs0mg"},{"bike_id":"dd36401a-83be-4ce2-851c-12296c074af5","system_id":"levelo_inurba_marseille","lat":43.25506,"lon":5.37654,"is_reserved":false,"is_disabled":false,"rental_uris":{"android":"levelo://app?vid=dd36401a-83be-4ce2-851c-12296c074af5","ios":"levelo://app?vid=dd36401a-83be-4ce2-851c-12296c074af5"},"vehicle_type_id":"4","last_reported":1729335993,"current_range_meters":29600,"station_id":"ce4bhh12rcd13ifvqff0","pricing_plan_id":"cebpf4jnsgd1na2vs0mg"},{"bike_id":"fb8a9749-180e-4890-93f2-96b2462109ce","system_id":"levelo_inurba_marseille","lat":43.27499,"lon":5.42452,"is_reserved":false,"is_disabled":false,"rental_uris":{"android":"levelo://app?vid=fb8a9749-180e-4890-93f2-96b2462109ce","ios":"levelo://app?vid=fb8a9749-180e-4890-93f2-96b2462109ce"},"vehicle_type_id":"4","last_reported":1729335993,"current_range_meters":16800,"station_id":"ce4bhn92rcd13ifvqgrg","pricing_plan_id":"cebpf4jnsgd1na2vs0mg"},{"bike_id":"a7c0a69b-6800-4cb4-a381-f56fd1d8d67b","system_id":"levelo_inurba_marseille","lat":43.3055,"lon":5.36555,"is_reserved":false,"is_disabled":false,"rental_uris":{"android":"levelo://app?vid=a7c0a69b-6800-4cb4-a381-f56fd1d8d67b","ios":"levelo://app?vid=a7c0a69b-6800-4cb4-a381-f56fd1d8d67b"},"vehicle_type_id":"4","last_reported":1729335993,"current_range_meters":38000,"station_id":"ce4bgs12rcd13ifvqcag","pricing_plan_id":"cebpf4jnsgd1na2vs0mg"},{"bike_id":"e46d6928-14a2-41c6-8fbe-0f5903d8da8d","system_id":"levelo_inurba_marseille","lat":43.2937,"lon":5.37829,"is_reserved":false,"is_disabled":false,"rental_uris":{"android":"levelo://app?vid=e46d6928-14a2-41c6-8fbe-0f5903d8da8d","ios":"levelo://app?vid=e46d6928-14a2-41c6-8fbe-0f5903d8da8d"},"vehicle_type_id":"4","last_reported":1729335993,"current_range_meters":25200,"station_id":"ce4bgjh2rcd13ifvqbf0","pricing_plan_id":"cebpf4jnsgd1na2vs0mg"},{"bike_id":"28e49236-44e7-4e90-b493-7aa54871f440","system_id":"levelo_inurba_marseille","lat":43.29749,"lon":5.36587,"is_reserved":false,"is_disabled":false,"rental_uris":{"android":"levelo://app?vid=28e49236-44e7-4e90-b493-7aa54871f440","ios":"levelo://app?vid=28e49236-44e7-4e90-b493-7aa54871f440"},"vehicle_type_id":"4","last_reported":1729335993,"current_range_meters":37600,"station_id":"ce4bgnh2rcd13ifvqc0g","pricing_plan_id":"cebpf4jnsgd1na2vs0mg"},{"bike_id":"6b056480-82e7-4e27-817b-8e6208f7db1d","system_id":"levelo_inurba_marseille","lat":43.26504,"lon":5.39548,"is_reserved":false,"is_disabled":false,"rental_uris":{"android":"levelo://app?vid=6b056480-82e7-4e27-817b-8e6208f7db1d","ios":"levelo://app?vid=6b056480-82e7-4e27-817b-8e6208f7db1d"},"vehicle_type_id":"4","last_reported":1729335993,"current_range_meters":32800,"station_id":"ce4bhi12rcd13ifvqfq0","pricing_plan_id":"cebpf4jnsgd1na2vs0mg"},{"bike_id":"7abc3b58-848d-4f45-932b-3db4764b7378","system_id":"levelo_inurba_marseille","lat":43.24078,"lon":5.3776,"is_reserved":false,"is_disabled":false,"rental_uris":{"android":"levelo://app?vid=7abc3b58-848d-4f45-932b-3db4764b7378","ios":"levelo://app?vid=7abc3b58-848d-4f45-932b-3db4764b7378"},"vehicle_type_id":"4","last_reported":1729335993,"current_range_meters":36400,"station_id":"ce4bhnp2rcd13ifvqgvg","pricing_plan_id":"cebpf4jnsgd1na2vs0mg"},{"bike_id":"f8550026-9d66-40c7-9cd0-f63b41bf941a","system_id":"levelo_inurba_marseille","lat":43.30354,"lon":5.4188,"is_reserved":false,"is_disabled":false,"rental_uris":{"android":"levelo://app?vid=f8550026-9d66-40c7-9cd0-f63b41bf941a","ios":"levelo://app?vid=f8550026-9d66-40c7-9cd0-f63b41bf941a"},"vehicle_type_id":"4","last_reported":1729335993,"current_range_meters":38800,"station_id":"ce4bhop2rcd13ifvqh7g","pricing_plan_id":"cebpf4jnsgd1na2vs0mg"},{"bike_id":"be2bbaa1-f672-4dc8-a1c0-85466066b76d","system_id":"levelo_inurba_marseille","lat":43.232,"lon":5.35547,"is_reserved":false,"is_disabled":false,"rental_uris":{"android":"levelo://app?vid=be2bbaa1-f672-4dc8-a1c0-85466066b76d","ios":"levelo://app?vid=be2bbaa1-f672-4dc8-a1c0-85466066b76d"},"vehicle_type_id":"4","last_reported":1729335993,"current_range_meters":24800,"station_id":"ce4bhu92rcd13ifvqi70","pricing_plan_id":"cebpf4jnsgd1na2vs0mg"},{"bike_id":"a4b68d83-e5a3-486e-a921-b7a81ceaf128","system_id":"levelo_inurba_marseille","lat":43.25498,"lon":5.37648,"is_reserved":false,"is_disabled":false,"rental_uris":{"android":"levelo://app?vid=a4b68d83-e5a3-486e-a921-b7a81ceaf128","ios":"levelo://app?vid=a4b68d83-e5a3-486e-a921-b7a81ceaf128"},"vehicle_type_id":"4","last_reported":1729335993,"current_range_meters":10000,"station_id":"ce4bhh12rcd13ifvqff0","pricing_plan_id":"cebpf4jnsgd1na2vs0mg"},{"bike_id":"5715e832-098d-4c62-8619-ea0204aa01d5","system_id":"levelo_inurba_marseille","lat":43.27067,"lon":5.42272,"is_reserved":false,"is_disabled":false,"rental_uris":{"android":"levelo://app?vid=5715e832-098d-4c62-8619-ea0204aa01d5","ios":"levelo://app?vid=5715e832-098d-4c62-8619-ea0204aa01d5"},"vehicle_type_id":"4","last_reported":1729335993,"current_range_meters":30400,"station_id":"ce4bhk92rcd13ifvqgb0","pricing_plan_id":"cebpf4jnsgd1na2vs0mg"},{"bike_id":"a78c5731-b792-4768-be22-a588189b5ef4","system_id":"levelo_inurba_marseille","lat":43.29446,"lon":5.39744,"is_reserved":false,"is_disabled":false,"rental_uris":{"android":"levelo://app?vid=a78c5731-b792-4768-be22-a588189b5ef4","ios":"levelo://app?vid=a78c5731-b792-4768-be22-a588189b5ef4"},"vehicle_type_id":"4","last_reported":1729335993,"current_range_meters":39200,"station_id":"ce4bh3h2rcd13ifvqdo0","pricing_plan_id":"cebpf4jnsgd1na2vs0mg"},{"bike_id":"df488044-96a3-4195-9e5f-6032e06cb1d1","system_id":"levelo_inurba_marseille","lat":43.30527,"lon":5.36701,"is_reserved":false,"is_disabled":false,"rental_uris":{"android":"levelo://app?vid=df488044-96a3-4195-9e5f-6032e06cb1d1","ios":"levelo://app?vid=df488044-96a3-4195-9e5f-6032e06cb1d1"},"vehicle_type_id":"4","last_reported":1729335993,"current_range_meters":20800,"station_id":"ce4bgrp2rcd13ifvqc9g","pricing_plan_id":"cebpf4jnsgd1na2vs0mg"},{"bike_id":"1ba3c57d-fe8a-4cbb-b7ac-5af8e752d070","system_id":"levelo_inurba_marseille","lat":43.29845,"lon":5.36265,"is_reserved":false,"is_disabled":false,"rental_uris":{"android":"levelo://app?vid=1ba3c57d-fe8a-4cbb-b7ac-5af8e752d070","ios":"levelo://app?vid=1ba3c57d-fe8a-4cbb-b7ac-5af8e752d070"},"vehicle_type_id":"4","last_reported":1729335993,"current_range_meters":38800,"station_id":"ce4bgpp2rcd13ifvqc3g","pricing_plan_id":"cebpf4jnsgd1na2vs0mg"},{"bike_id":"4dcb83af-dfb9-49f7-9cf1-3c8998fe32e5","system_id":"levelo_inurba_marseille","lat":43.28861,"lon":5.39323,"is_reserved":false,"is_disabled":false,"rental_uris":{"android":"levelo://app?vid=4dcb83af-dfb9-49f7-9cf1-3c8998fe32e5","ios":"levelo://app?vid=4dcb83af-dfb9-49f7-9cf1-3c8998fe32e5"},"vehicle_type_id":"4","last_reported":1729335993,"current_range_meters":14800,"station_id":"ce4bh2p2rcd13ifvqdi0","pricing_plan_id":"cebpf4jnsgd1na2vs0mg"},{"bike_id":"7c76ba9e-f659-446f-bd2d-140cae35c659","system_id":"levelo_inurba_marseille","lat":43.30143,"lon":5.39866,"is_reserved":false,"is_disabled":false,"rental_uris":{"android":"levelo://app?vid=7c76ba9e-f659-446f-bd2d-140cae35c659","ios":"levelo://app?vid=7c76ba9e-f659-446f-bd2d-140cae35c659"},"vehicle_type_id":"4","last_reported":1729335993,"current_range_meters":35200,"station_id":"ce4bh0h2rcd13ifvqd40","pricing_plan_id":"cebpf4jnsgd1na2vs0mg"},{"bike_id":"9f8a2a8c-cb7d-4170-a57f-02dbe962e7cf","system_id":"levelo_inurba_marseille","lat":43.27213,"lon":5.39188,"is_reserved":false,"is_disabled":false,"rental_uris":{"android":"levelo://app?vid=9f8a2a8c-cb7d-4170-a57f-02dbe962e7cf","ios":"levelo://app?vid=9f8a2a8c-cb7d-4170-a57f-02dbe962e7cf"},"vehicle_type_id":"4","last_reported":1729335993,"current_range_meters":32000,"station_id":"ce4bhhp2rcd13ifvqfm0","pricing_plan_id":"cebpf4jnsgd1na2vs0mg"},{"bike_id":"a7f37877-e87d-4bf4-934e-1246d043031f","system_id":"levelo_inurba_marseille","lat":43.292728,"lon":5.368523,"is_reserved":false,"is_disabled":false,"rental_uris":{"android":"levelo://app?vid=a7f37877-e87d-4bf4-934e-1246d043031f","ios":"levelo://app?vid=a7f37877-e87d-4bf4-934e-1246d043031f"},"vehicle_type_id":"4","last_reported":1729335993,"current_range_meters":36000,"station_id":"ce4bhbp2rcd13ifvqesg","pricing_plan_id":"cebpf4jnsgd1na2vs0mg"},{"bike_id":"606a45e3-7cbc-4b58-93ef-27ed788846e5","system_id":"levelo_inurba_marseille","lat":43.2694,"lon":5.38929,"is_reserved":false,"is_disabled":false,"rental_uris":{"android":"levelo://app?vid=606a45e3-7cbc-4b58-93ef-27ed788846e5","ios":"levelo://app?vid=606a45e3-7cbc-4b58-93ef-27ed788846e5"},"vehicle_type_id":"4","last_reported":1729335993,"current_range_meters":32400,"station_id":"ce4bhhh2rcd13ifvqfl0","pricing_plan_id":"cebpf4jnsgd1na2vs0mg"},{"bike_id":"151c1fc6-9eb4-4157-80b1-c18d40fc9a76","system_id":"levelo_inurba_marseille","lat":43.301582,"lon":5.380871,"is_reserved":false,"is_disabled":false,"rental_uris":{"android":"levelo://app?vid=151c1fc6-9eb4-4157-80b1-c18d40fc9a76","ios":"levelo://app?vid=151c1fc6-9eb4-4157-80b1-c18d40fc9a76"},"vehicle_type_id":"4","last_reported":1729335993,"current_range_meters":34000,"station_id":"ce4bgjp2rcd13ifvqbh0","pricing_plan_id":"cebpf4jnsgd1na2vs0mg"},{"bike_id":"3664398f-378f-46f2-bd12-30042ad8db9d","system_id":"levelo_inurba_marseille","lat":43.23188,"lon":5.39977,"is_reserved":false,"is_disabled":false,"rental_uris":{"android":"levelo://app?vid=3664398f-378f-46f2-bd12-30042ad8db9d","ios":"levelo://app?vid=3664398f-378f-46f2-bd12-30042ad8db9d"},"vehicle_type_id":"4","last_reported":1729335993,"current_range_meters":25600,"station_id":"ce4bhn12rcd13ifvqgqg","pricing_plan_id":"cebpf4jnsgd1na2vs0mg"},{"bike_id":"d132410d-74e9-4e0d-9759-b467e0a2d6ad","system_id":"levelo_inurba_marseille","lat":43.2306,"lon":5.35496,"is_reserved":false,"is_disabled":false,"rental_uris":{"android":"levelo://app?vid=d132410d-74e9-4e0d-9759-b467e0a2d6ad","ios":"levelo://app?vid=d132410d-74e9-4e0d-9759-b467e0a2d6ad"},"vehicle_type_id":"4","last_reported":1729335993,"current_range_meters":6800,"station_id":"cpo3342slgdg3j2ifvpg","pricing_plan_id":"cebpf4jnsgd1na2vs0mg"},{"bike_id":"a9d80141-cb04-4f88-bcc5-9763572e3517","system_id":"levelo_inurba_marseille","lat":43.232,"lon":5.35546,"is_reserved":false,"is_disabled":false,"rental_uris":{"android":"levelo://app?vid=a9d80141-cb04-4f88-bcc5-9763572e3517","ios":"levelo://app?vid=a9d80141-cb04-4f88-bcc5-9763572e3517"},"vehicle_type_id":"4","last_reported":1729335993,"current_range_meters":24800,"station_id":"ce4bhu92rcd13ifvqi70","pricing_plan_id":"cebpf4jnsgd1na2vs0mg"},{"bike_id":"6bb6eaea-6464-4250-8b65-6f9c52c53a3f","system_id":"levelo_inurba_marseille","lat":43.31728,"lon":5.42395,"is_reserved":false,"is_disabled":false,"rental_uris":{"android":"levelo://app?vid=6bb6eaea-6464-4250-8b65-6f9c52c53a3f","ios":"levelo://app?vid=6bb6eaea-6464-4250-8b65-6f9c52c53a3f"},"vehicle_type_id":"4","last_reported":1729335993,"current_range_meters":37600,"station_id":"ce4bhp92rcd13ifvqhbg","pricing_plan_id":"cebpf4jnsgd1na2vs0mg"},{"bike_id":"2ee695c7-9522-4bcb-8a07-1987a0a063c1","system_id":"levelo_inurba_marseille","lat":43.29048,"lon":5.35921,"is_reserved":false,"is_disabled":false,"rental_uris":{"android":"levelo://app?vid=2ee695c7-9522-4bcb-8a07-1987a0a063c1","ios":"levelo://app?vid=2ee695c7-9522-4bcb-8a07-1987a0a063c1"},"vehicle_type_id":"4","last_reported":1729335993,"current_range_meters":32400,"station_id":"ce4bha92rcd13ifvqeg0","pricing_plan_id":"cebpf4jnsgd1na2vs0mg"},{"bike_id":"d91423af-4277-46e1-9106-0de25ec677f7","system_id":"levelo_inurba_marseille","lat":43.28615,"lon":5.35106,"is_reserved":false,"is_disabled":false,"rental_uris":{"android":"levelo://app?vid=d91423af-4277-46e1-9106-0de25ec677f7","ios":"levelo://app?vid=d91423af-4277-46e1-9106-0de25ec677f7"},"vehicle_type_id":"4","last_reported":1729335993,"current_range_meters":8800,"station_id":"ce4bhch2rcd13ifvqeug","pricing_plan_id":"cebpf4jnsgd1na2vs0mg"},{"bike_id":"c9bf36b3-0190-480f-9d47-ca55ed1ea5cb","system_id":"levelo_inurba_marseille","lat":43.32142,"lon":5.3701,"is_reserved":false,"is_disabled":false,"rental_uris":{"android":"levelo://app?vid=c9bf36b3-0190-480f-9d47-ca55ed1ea5cb","ios":"levelo://app?vid=c9bf36b3-0190-480f-9d47-ca55ed1ea5cb"},"vehicle_type_id":"4","last_reported":1729335993,"current_range_meters":24400,"station_id":"","pricing_plan_id":"cebpf4jnsgd1na2vs0mg"},{"bike_id":"588dde39-e157-4c52-b3b3-c22bbf4e89fe","system_id":"levelo_inurba_marseille","lat":43.28112,"lon":5.37875,"is_reserved":false,"is_disabled":false,"rental_uris":{"android":"levelo://app?vid=588dde39-e157-4c52-b3b3-c22bbf4e89fe","ios":"levelo://app?vid=588dde39-e157-4c52-b3b3-c22bbf4e89fe"},"vehicle_type_id":"4","last_reported":1729335993,"current_range_meters":22000,"station_id":"ce4bha12rcd13ifvqee0","pricing_plan_id":"cebpf4jnsgd1na2vs0mg"},{"bike_id":"7077cfe1-99d7-40fb-8023-64600da656cb","system_id":"levelo_inurba_marseille","lat":43.27071,"lon":5.42277,"is_reserved":false,"is_disabled":false,"rental_uris":{"android":"levelo://app?vid=7077cfe1-99d7-40fb-8023-64600da656cb","ios":"levelo://app?vid=7077cfe1-99d7-40fb-8023-64600da656cb"},"vehicle_type_id":"4","last_reported":1729335993,"current_range_meters":24000,"station_id":"ce4bhk92rcd13ifvqgb0","pricing_plan_id":"cebpf4jnsgd1na2vs0mg"},{"bike_id":"67f3a430-a435-476c-9f14-03933430901e","system_id":"levelo_inurba_marseille","lat":43.23077,"lon":5.35491,"is_reserved":false,"is_disabled":false,"rental_uris":{"android":"levelo://app?vid=67f3a430-a435-476c-9f14-03933430901e","ios":"levelo://app?vid=67f3a430-a435-476c-9f14-03933430901e"},"vehicle_type_id":"4","last_reported":1729335993,"current_range_meters":30800,"station_id":"cpo3342slgdg3j2ifvpg","pricing_plan_id":"cebpf4jnsgd1na2vs0mg"},{"bike_id":"5f5e6f66-20e6-4f77-9edb-af3320effb42","system_id":"levelo_inurba_marseille","lat":43.29049,"lon":5.35919,"is_reserved":false,"is_disabled":false,"rental_uris":{"android":"levelo://app?vid=5f5e6f66-20e6-4f77-9edb-af3320effb42","ios":"levelo://app?vid=5f5e6f66-20e6-4f77-9edb-af3320effb42"},"vehicle_type_id":"4","last_reported":1729335993,"current_range_meters":25200,"station_id":"ce4bha92rcd13ifvqeg0","pricing_plan_id":"cebpf4jnsgd1na2vs0mg"},{"bike_id":"2099320c-6ef0-4a30-bfc8-947809ce04a0","system_id":"levelo_inurba_marseille","lat":43.25866,"lon":5.39899,"is_reserved":false,"is_disabled":false,"rental_uris":{"android":"levelo://app?vid=2099320c-6ef0-4a30-bfc8-947809ce04a0","ios":"levelo://app?vid=2099320c-6ef0-4a30-bfc8-947809ce04a0"},"vehicle_type_id":"4","last_reported":1729335993,"current_range_meters":17200,"station_id":"ce4bhl92rcd13ifvqghg","pricing_plan_id":"cebpf4jnsgd1na2vs0mg"},{"bike_id":"b244dd59-8608-46ec-ab7b-350d7de4bd46","system_id":"levelo_inurba_marseille","lat":43.27769,"lon":5.38802,"is_reserved":false,"is_disabled":false,"rental_uris":{"android":"levelo://app?vid=b244dd59-8608-46ec-ab7b-350d7de4bd46","ios":"levelo://app?vid=b244dd59-8608-46ec-ab7b-350d7de4bd46"},"vehicle_type_id":"4","last_reported":1729335993,"current_range_meters":27600,"station_id":"ce4bgjh2rcd13ifvqbf0","pricing_plan_id":"cebpf4jnsgd1na2vs0mg"},{"bike_id":"b718bd7d-d2ba-458a-a720-e2181b562c27","system_id":"levelo_inurba_marseille","lat":43.2894,"lon":5.36646,"is_reserved":false,"is_disabled":false,"rental_uris":{"android":"levelo://app?vid=b718bd7d-d2ba-458a-a720-e2181b562c27","ios":"levelo://app?vid=b718bd7d-d2ba-458a-a720-e2181b562c27"},"vehicle_type_id":"4","last_reported":1729335993,"current_range_meters":35600,"station_id":"ce4bhap2rcd13ifvqek0","pricing_plan_id":"cebpf4jnsgd1na2vs0mg"},{"bike_id":"1bb83af2-2df1-4792-aa34-1a9604d2291a","system_id":"levelo_inurba_marseille","lat":43.31089,"lon":5.42421,"is_reserved":false,"is_disabled":false,"rental_uris":{"android":"levelo://app?vid=1bb83af2-2df1-4792-aa34-1a9604d2291a","ios":"levelo://app?vid=1bb83af2-2df1-4792-aa34-1a9604d2291a"},"vehicle_type_id":"4","last_reported":1729335993,"current_range_meters":37600,"station_id":"ce4bhp92rcd13ifvqhag","pricing_plan_id":"cebpf4jnsgd1na2vs0mg"},{"bike_id":"4172c790-3bc7-4c07-9cf7-220d2175fb6c","system_id":"levelo_inurba_marseille","lat":43.27209,"lon":5.3918,"is_reserved":false,"is_disabled":false,"rental_uris":{"android":"levelo://app?vid=4172c790-3bc7-4c07-9cf7-220d2175fb6c","ios":"levelo://app?vid=4172c790-3bc7-4c07-9cf7-220d2175fb6c"},"vehicle_type_id":"4","last_reported":1729335993,"current_range_meters":27600,"station_id":"ce4bhhp2rcd13ifvqfm0","pricing_plan_id":"cebpf4jnsgd1na2vs0mg"},{"bike_id":"ae939472-dca4-489b-9a99-70c949adc489","system_id":"levelo_inurba_marseille","lat":43.29611,"lon":5.37129,"is_reserved":false,"is_disabled":false,"rental_uris":{"android":"levelo://app?vid=ae939472-dca4-489b-9a99-70c949adc489","ios":"levelo://app?vid=ae939472-dca4-489b-9a99-70c949adc489"},"vehicle_type_id":"4","last_reported":1729335993,"current_range_meters":35600,"station_id":"ce4bgnh2rcd13ifvqc0g","pricing_plan_id":"cebpf4jnsgd1na2vs0mg"},{"bike_id":"c240c877-6c46-4223-86cf-a7f2e46d0d42","system_id":"levelo_inurba_marseille","lat":43.33028,"lon":5.39047,"is_reserved":false,"is_disabled":false,"rental_uris":{"android":"levelo://app?vid=c240c877-6c46-4223-86cf-a7f2e46d0d42","ios":"levelo://app?vid=c240c877-6c46-4223-86cf-a7f2e46d0d42"},"vehicle_type_id":"4","last_reported":1729335993,"current_range_meters":16000,"station_id":"ce4bhr92rcd13ifvqhrg","pricing_plan_id":"cebpf4jnsgd1na2vs0mg"},{"bike_id":"27beaab1-a385-4ab5-a07e-a9f8131f6d5a","system_id":"levelo_inurba_marseille","lat":43.29055,"lon":5.35908,"is_reserved":false,"is_disabled":false,"rental_uris":{"android":"levelo://app?vid=27beaab1-a385-4ab5-a07e-a9f8131f6d5a","ios":"levelo://app?vid=27beaab1-a385-4ab5-a07e-a9f8131f6d5a"},"vehicle_type_id":"4","last_reported":1729335993,"current_range_meters":36800,"station_id":"ce4bha92rcd13ifvqeg0","pricing_plan_id":"cebpf4jnsgd1na2vs0mg"},{"bike_id":"ef77a7b3-44ce-4a09-a376-f87e929dcbaa","system_id":"levelo_inurba_marseille","lat":43.29929,"lon":5.36536,"is_reserved":false,"is_disabled":false,"rental_uris":{"android":"levelo://app?vid=ef77a7b3-44ce-4a09-a376-f87e929dcbaa","ios":"levelo://app?vid=ef77a7b3-44ce-4a09-a376-f87e929dcbaa"},"vehicle_type_id":"4","last_reported":1729335993,"current_range_meters":31200,"station_id":"ce4bgm92rcd13ifvqbr0","pricing_plan_id":"cebpf4jnsgd1na2vs0mg"},{"bike_id":"90621aa1-67b3-4c04-92dc-91290ad232c6","system_id":"levelo_inurba_marseille","lat":43.32044,"lon":5.41545,"is_reserved":false,"is_disabled":false,"rental_uris":{"android":"levelo://app?vid=90621aa1-67b3-4c04-92dc-91290ad232c6","ios":"levelo://app?vid=90621aa1-67b3-4c04-92dc-91290ad232c6"},"vehicle_type_id":"4","last_reported":1729335993,"current_range_meters":20000,"station_id":"ce4bhq92rcd13ifvqhkg","pricing_plan_id":"cebpf4jnsgd1na2vs0mg"},{"bike_id":"dcec9aa3-23d0-4741-a3a6-60e591d7c290","system_id":"levelo_inurba_marseille","lat":43.2878,"lon":5.35226,"is_reserved":false,"is_disabled":false,"rental_uris":{"android":"levelo://app?vid=dcec9aa3-23d0-4741-a3a6-60e591d7c290","ios":"levelo://app?vid=dcec9aa3-23d0-4741-a3a6-60e591d7c290"},"vehicle_type_id":"4","last_reported":1729335993,"current_range_meters":17200,"station_id":"","pricing_plan_id":"cebpf4jnsgd1na2vs0mg"},{"bike_id":"f3a96a4d-bc6d-460f-a415-db98973047b8","system_id":"levelo_inurba_marseille","lat":43.299,"lon":5.43668,"is_reserved":false,"is_disabled":false,"rental_uris":{"android":"levelo://app?vid=f3a96a4d-bc6d-460f-a415-db98973047b8","ios":"levelo://app?vid=f3a96a4d-bc6d-460f-a415-db98973047b8"},"vehicle_type_id":"4","last_reported":1729335993,"current_range_meters":32800,"station_id":"ce4bhpp2rcd13ifvqhfg","pricing_plan_id":"cebpf4jnsgd1na2vs0mg"},{"bike_id":"ad853ee6-4b44-4af9-98b8-ea3528893d74","system_id":"levelo_inurba_marseille","lat":43.29782,"lon":5.37106,"is_reserved":false,"is_disabled":false,"rental_uris":{"android":"levelo://app?vid=ad853ee6-4b44-4af9-98b8-ea3528893d74","ios":"levelo://app?vid=ad853ee6-4b44-4af9-98b8-ea3528893d74"},"vehicle_type_id":"4","last_reported":1729335993,"current_range_meters":10000,"station_id":"ce4bgop2rcd13ifvqc1g","pricing_plan_id":"cebpf4jnsgd1na2vs0mg"},