{"last_updated":1732122523,"ttl":60,"version":"2.2","data":{"bikes":[{"bike_id":"11b4c29f-4a30-429c-9e8e-b4086d58e565","system_id":"levelo_inurba_marseille","lat":43.30206,"lon":5.39461,"is_reserved":false,"is_disabled":false,"rental_uris":{"android":"levelo://app?vid=11b4c29f-4a30-429c-9e8e-b4086d58e565","ios":"levelo://app?vid=11b4c29f-4a30-429c-9e8e-b4086d58e565"},"vehicle_type_id":"4","last_reported":1732122524,"current_range_meters":35600,"station_id":"ce4bh0p2rcd13ifvqd70","pricing_plan_id":"cebpf4jnsgd1na2vs0mg"},{"bike_id":"eb1fd276-641d-4de0-bfa8-6c1377f03001","system_id":"levelo_inurba_marseille","lat":43.24662,"lon":5.38166,"is_reserved":false,"is_disabled":false,"rental_uris":{"android":"levelo://app?vid=eb1fd276-641d-4de0-bfa8-6c1377f03001","ios":"levelo://app?vid=eb1fd276-641d-4de0-bfa8-6c1377f03001"},"vehicle_type_id":"4","last_reported":1732122524,"current_range_meters":30800,"station_id":"ce4bhih2rcd13ifvqfr0","pricing_plan_id":"cebpf4jnsgd1na2vs0mg"},{"bike_id":"faaa07fe-d059-4c7c-8d3a-4406c48468a3","system_id":"levelo_inurba_marseille","lat":43.25109,"lon":5.40327,"is_reserved":false,"is_disabled":false,"rental_uris":{"android":"levelo://app?vid=faaa07fe-d059-4c7c-8d3a-4406c48468a3","ios":"levelo://app?vid=faaa07fe-d059-4c7c-8d3a-4406c48468a3"},"vehicle_type_id":"4","last_reported":1732122524,"current_range_meters":39200,"station_id":"ce4bhlh2rcd13ifvqgig","pricing_plan_id":"cebpf4jnsgd1na2vs0mg"},{"bike_id":"6b5d45a4-09e9-46d0-bbda-123049c0e03a","system_id":"levelo_inurba_marseille","lat":43.2315,"lon":5.43717,"is_reserved":false,"is_disabled":true,"rental_uris":{"android":"levelo://app?vid=6b5d45a4-09e9-46d0-bbda-123049c0e03a","ios":"levelo://app?vid=6b5d45a4-09e9-46d0-bbda-123049c0e03a"},"vehicle_type_id":"4","last_reported":1732122524,"current_range_meters":0,"station_id":"ce4bhmp2rcd13ifvqgog","pricing_plan_id":"cebpf4jnsgd1na2vs0mg"},{"bike_id":"2da228d0-cd33-4249-b0a9-afe9a3bdb35f","system_id":"levelo_inurba_marseille","lat":43.295195,"lon":5.375073,"is_reserved":false,"is_disabled":false,"rental_uris":{"android":"levelo://app?vid=2da228d0-cd33-4249-b0a9-afe9a3bdb35f","ios":"levelo://app?vid=2da228d0-cd33-4249-b0a9-afe9a3bdb35f"},"vehicle_type_id":"4","last_reported":1732122524,"current_range_meters":39200,"station_id":"ce4bgkp2rcd13ifvqbmg","pricing_plan_id":"cebpf4jnsgd1na2vs0mg"},{"bike_id":"efa3445d-2a68-4f6c-a741-070af9897f81","system_id":"levelo_inurba_marseille","lat":43.25869,"lon":5.39899,"is_reserved":false,"is_disabled":false,"rental_uris":{"android":"levelo://app?vid=efa3445d-2a68-4f6c-a741-070af9897f81","ios":"levelo://app?vid=efa3445d-2a68-4f6c-a741-070af9897f81"},"vehicle_type_id":"4","last_reported":1732122524,"current_range_meters":10000,"station_id":"ce4bhl92rcd13ifvqghg","pricing_plan_id":"cebpf4jnsgd1na2vs0mg"},{"bike_id":"6686a329-719d-4d7f-8d96-538c319ae80c","system_id":"levelo_inurba_marseille","lat":43.26563,"lon":5.39014,"is_reserved":false,"is_disabled":false,"rental_uris":{"android":"levelo://app?vid=6686a329-719d-4d7f-8d96-538c319ae80c","ios":"levelo://app?vid=6686a329-719d-4d7f-8d96-538c319ae80c"},"vehicle_type_id":"4","last_reported":1732122524,"current_range_meters":11600,"station_id":"ce4bhe12rcd13ifvqf30","pricing_plan_id":"cebpf4jnsgd1na2vs0mg"},{"bike_id":"730321d2-de66-475f-920a-cd577dc02cf8","system_id":"levelo_inurba_marseille","lat":43.31751,"lon":5.39033,"is_reserved":false,"is_disabled":false,"rental_uris":{"android":"levelo://app?vid=730321d2-de66-475f-920a-cd577dc02cf8","ios":"levelo://app?vid=730321d2-de66-475f-920a-cd577dc02cf8"},"vehicle_type_id":"4","last_reported":1732122524,"current_range_meters":32400,"station_id":"ce4bhqp2rcd13ifvqhng","pricing_plan_id":"cebpf4jnsgd1na2vs0mg"},{"bike_id":"6ceb7a2c-5393-4967-b1f0-4498af0864a8","system_id":"levelo_inurba_marseille","lat":43.27062,"lon":5.38528,"is_reserved":false,"is_disabled":false,"rental_uris":{"android":"levelo://app?vid=6ceb7a2c-5393-4967-b1f0-4498af0864a8","ios":"levelo://app?vid=6ceb7a2c-5393-4967-b1f0-4498af0864a8"},"vehicle_type_id":"4","last_reported":1732122524,"current_range_meters":37600,"station_id":"","pricing_plan_id":"cebpf4jnsgd1na2vs0mg"},{"bike_id":"dd140313-4f2e-459e-a30b-b563af1fa2ff","system_id":"levelo_inurba_marseille","lat":43.27615,"lon":5.36105,"is_reserved":false,"is_disabled":false,"rental_uris":{"android":"levelo://app?vid=dd140313-4f2e-459e-a30b-b563af1fa2ff","ios":"levelo://app?vid=dd140313-4f2e-459e-a30b-b563af1fa2ff"},"vehicle_type_id":"4","last_reported":1732122524,"current_range_meters":19600,"station_id":"ce4bgj92rcd13ifvqbe0","pricing_plan_id":"cebpf4jnsgd1na2vs0mg"},{"bike_id":"aaa68104-60d6-454b-9438-4e38b46ffb6c","system_id":"levelo_inurba_marseille","lat":43.30815,"lon":5.37055,"is_reserved":false,"is_disabled":false,"rental_uris":{"android":"levelo://app?vid=aaa68104-60d6-454b-9438-4e38b46ffb6c","ios":"levelo://app?vid=aaa68104-60d6-454b-9438-4e38b46ffb6c"},"vehicle_type_id":"4","last_reported":1732122524,"current_range_meters":22800,"station_id":"","pricing_plan_id":"cebpf4jnsgd1na2vs0mg"},{"bike_id":"ca60ab6f-3d90-4392-8793-5c0ab60a4a7f","system_id":"levelo_inurba_marseille","lat":43.33022,"lon":5.39037,"is_reserved":false,"is_disabled":false,"rental_uris":{"android":"levelo://app?vid=ca60ab6f-3d90-4392-8793-5c0ab60a4a7f","ios":"levelo://app?vid=ca60ab6f-3d90-4392-8793-5c0ab60a4a7f"},"vehicle_type_id":"4","last_reported":1732122524,"current_range_meters":4800,"station_id":"ce4bhr92rcd13ifvqhrg","pricing_plan_id":"cebpf4jnsgd1na2vs0mg"},{"bike_id":"07ea669b-a977-4627-a0d2-66aab8e60fc7","system_id":"levelo_inurba_marseille","lat":43.315282,"lon":5.380291,"is_reserved":false,"is_disabled":false,"rental_uris":{"android":"levelo://app?vid=07ea669b-a977-4627-a0d2-66aab8e60fc7","ios":"levelo://app?vid=07ea669b-a977-4627-a0d2-66aab8e60fc7"},"vehicle_type_id":"4","last_reported":1732122524,"current_range_meters":18800,"station_id":"ce4bhsp2rcd13ifvqi50","pricing_plan_id":"cebpf4jnsgd1na2vs0mg"},{"bike_id":"1a2b45b6-17d7-4592-8140-142385f04b6a","system_id":"levelo_inurba_marseille","lat":43.25088,"lon":5.39518,"is_reserved":false,"is_disabled":false,"rental_uris":{"android":"levelo://app?vid=1a2b45b6-17d7-4592-8140-142385f04b6a","ios":"levelo://app?vid=1a2b45b6-17d7-4592-8140-142385f04b6a"},"vehicle_type_id":"4","last_reported":1732122524,"current_range_meters":10800,"station_id":"ce4bhm12rcd13ifvqgkg","pricing_plan_id":"cebpf4jnsgd1na2vs0mg"},{"bike_id":"616f4c06-6c06-46ee-be99-4446ba8b4918","system_id":"levelo_inurba_marseille","lat":43.28617,"lon":5.35108,"is_reserved":false,"is_disabled":false,"rental_uris":{"android":"levelo://app?vid=616f4c06-6c06-46ee-be99-4446ba8b4918","ios":"levelo://app?vid=616f4c06-6c06-46ee-be99-4446ba8b4918"},"vehicle_type_id":"4","last_reported":1732122524,"current_range_meters":800,"station_id":"ce4bhch2rcd13ifvqeug","pricing_plan_id":"cebpf4jnsgd1na2vs0mg"},{"bike_id":"bffd9f2b-1ad6-450c-8979-d72efd607836","system_id":"levelo_inurba_marseille","lat":43.2827,"lon":5.35066,"is_reserved":false,"is_disabled":false,"rental_uris":{"android":"levelo://app?vid=bffd9f2b-1ad6-450c-8979-d72efd607836","ios":"levelo://app?vid=bffd9f2b-1ad6-450c-8979-d72efd607836"},"vehicle_type_id":"4","last_reported":1732122524,"current_range_meters":3600,"station_id":"ce4bhbp2rcd13ifvqerg","pricing_plan_id":"cebpf4jnsgd1na2vs0mg"},{"bike_id":"5c3000a0-a190-4007-a723-aa2707fd1ce3","system_id":"levelo_inurba_marseille","lat":43.22934,"lon":5.35395,"is_reserved":false,"is_disabled":false,"rental_uris":{"android":"levelo://app?vid=5c3000a0-a190-4007-a723-aa2707fd1ce3","ios":"levelo://app?vid=5c3000a0-a190-4007-a723-aa2707fd1ce3"},"vehicle_type_id":"4","last_reported":1732122524,"current_range_meters":39200,"station_id":"cpo3532slgdg3j2ikp40","pricing_plan_id":"cebpf4jnsgd1na2vs0mg"},{"bike_id":"584d8245-8a55-4fdc-96be-420f48a77361","system_id":"levelo_inurba_marseille","lat":43.2958,"lon":5.36743,"is_reserved":false,"is_disabled":false,"rental_uris":{"android":"levelo://app?vid=584d8245-8a55-4fdc-96be-420f48a77361","ios":"levelo://app?vid=584d8245-8a55-4fdc-96be-420f48a77361"},"vehicle_type_id":"4","last_reported":1732122524,"current_range_meters":22000,"station_id":"ce4bgph2rcd13ifvqc2g","pricing_plan_id":"cebpf4jnsgd1na2vs0mg"},{"bike_id":"07dfa307-72b1-4fd3-aaec-cc158bba164b","system_id":"levelo_inurba_marseille","lat":43.319223,"lon":5.374562,"is_reserved":false,"is_disabled":false,"rental_uris":{"android":"levelo://app?vid=07dfa307-72b1-4fd3-aaec-cc158bba164b","ios":"levelo://app?vid=07dfa307-72b1-4fd3-aaec-cc158bba164b"},"vehicle_type_id":"4","last_reported":1732122524,"current_range_meters":38000,"station_id":"","pricing_plan_id":"cebpf4jnsgd1na2vs0mg"},{"bike_id":"616dff2c-175a-4d85-833d-b302d7d54d27","system_id":"levelo_inurba_marseille","lat":43.27995,"lon":5.40018,"is_reserved":false,"is_disabled":false,"rental_uris":{"android":"levelo://app?vid=616dff2c-175a-4d85-833d-b302d7d54d27","ios":"levelo://app?vid=616dff2c-175a-4d85-833d-b302d7d54d27"},"vehicle_type_id":"4","last_reported":1732122524,"current_range_meters":39200,"station_id":"ce4bho92rcd13ifvqh4g","pricing_plan_id":"cebpf4jnsgd1na2vs0mg"},{"bike_id":"b12f91e0-3e39-4777-9347-b648e4178fc1","system_id":"levelo_inurba_marseille","lat":43.28688,"lon":5.374,"is_reserved":false,"is_disabled":false,"rental_uris":{"android":"levelo://app?vid=b12f91e0-3e39-4777-9347-b648e4178fc1","ios":"levelo://app?vid=b12f91e0-3e39-4777-9347-b648e4178fc1"},"vehicle_type_id":"4","last_reported":1732122524,"current_range_meters":22400,"station_id":"ce4bh3p2rcd13ifvqdq0","pricing_plan_id":"cebpf4jnsgd1na2vs0mg"},{"bike_id":"54be5fba-4529-431b-9dfe-2507bc08215c","system_id":"levelo_inurba_marseille","lat":43.28461,"lon":5.35897,"is_reserved":false,"is_disabled":false,"rental_uris":{"android":"levelo://app?vid=54be5fba-4529-431b-9dfe-2507bc08215c","ios":"levelo://app?vid=54be5fba-4529-431b-9dfe-2507bc08215c"},"vehicle_type_id":"4","last_reported":1732122524,"current_range_meters":20000,"station_id":"ce4bhah2rcd13ifvqei0","pricing_plan_id":"cebpf4jnsgd1na2vs0mg"},{"bike_id":"bb2e9ad3-4315-4a14-9663-7b483eb175d6","system_id":"levelo_inurba_marseille","lat":43.28076,"lon":5.39658,"is_reserved":false,"is_disabled":false,"rental_uris":{"android":"levelo://app?vid=bb2e9ad3-4315-4a14-9663-7b483eb175d6","ios":"levelo://app?vid=bb2e9ad3-4315-4a14-9663-7b483eb175d6"},"vehicle_type_id":"4","last_reported":1732122524,"current_range_meters":28800,"station_id":"ce4bho12rcd13ifvqh2g","pricing_plan_id":"cebpf4jnsgd1na2vs0mg"},{"bike_id":"f3422fe8-7983-4455-8518-bcf3b189f5b0","system_id":"levelo_inurba_marseille","lat":43.29718,"lon":5.37691,"is_reserved":false,"is_disabled":true,"rental_uris":{"android":"levelo://app?vid=f3422fe8-7983-4455-8518-bcf3b189f5b0","ios":"levelo://app?vid=f3422fe8-7983-4455-8518-bcf3b189f5b0"},"vehicle_type_id":"4","last_reported":1732122524,"current_range_meters":0,"station_id":"ce4bgkh2rcd13ifvqbl0","pricing_plan_id":"cebpf4jnsgd1na2vs0mg"},{"bike_id":"1cd0daee-d68a-4e66-9883-fbe67fd8260f","system_id":"levelo_inurba_marseille","lat":43.30598,"lon":5.37235,"is_reserved":false,"is_disabled":true,"rental_uris":{"android":"levelo://app?vid=1cd0daee-d68a-4e66-9883-fbe67fd8260f","ios":"levelo://app?vid=1cd0daee-d68a-4e66-9883-fbe67fd8260f"},"vehicle_type_id":"4","last_reported":1732122524,"current_range_meters":0,"station_id":"ce4bgqh2rcd13ifvqc4g","pricing_plan_id":"cebpf4jnsgd1na2vs0mg"},{"bike_id":"bc14e463-5825-4071-9c45-e0187e501788","system_id":"levelo_inurba_marseille","lat":43.24805,"lon":5.37457,"is_reserved":false,"is_disabled":false,"rental_uris":{"android":"levelo://app?vid=bc14e463-5825-4071-9c45-e0187e501788","ios":"levelo://app?vid=bc14e463-5825-4071-9c45-e0187e501788"},"vehicle_type_id":"4","last_reported":1732122524,"current_range_meters":38000,"station_id":"ce4bhgh2rcd13ifvqfb0","pricing_plan_id":"cebpf4jnsgd1na2vs0mg"},{"bike_id":"772ce743-8958-4198-b3ba-b6e0d96fa296","system_id":"levelo_inurba_marseille","lat":43.24168,"lon":5.36404,"is_reserved":false,"is_disabled":false,"rental_uris":{"android":"levelo://app?vid=772ce743-8958-4198-b3ba-b6e0d96fa296","ios":"levelo://app?vid=772ce743-8958-4198-b3ba-b6e0d96fa296"},"vehicle_type_id":"4","last_reported":1732122524,"current_range_meters":9600,"station_id":"cpo36qri1sfpv3e86is0","pricing_plan_id":"cebpf4jnsgd1na2vs0mg"},{"bike_id":"a2e6a41a-f518-4e71-836b-a7c6b61d3f26","system_id":"levelo_inurba_marseille","lat":43.29906,"lon":5.38929,"is_reserved":false,"is_disabled":true,"rental_uris":{"android":"levelo://app?vid=a2e6a41a-f518-4e71-836b-a7c6b61d3f26","ios":"levelo://app?vid=a2e6a41a-f518-4e71-836b-a7c6b61d3f26"},"vehicle_type_id":"4","last_reported":1732122524,"current_range_meters":2000,"station_id":"ce4bh392rcd13ifvqdl0","pricing_plan_id":"cebpf4jnsgd1na2vs0mg"},{"bike_id":"597cb1c5-c680-49ef-9a1a-84a53b157037","system_id":"levelo_inurba_marseille","lat":43.32363,"lon":5.38886,"is_reserved":false,"is_disabled":false,"rental_uris":{"android":"levelo://app?vid=597cb1c5-c680-49ef-9a1a-84a53b157037","ios":"levelo://app?vid=597cb1c5-c680-49ef-9a1a-84a53b157037"},"vehicle_type_id":"4","last_reported":1732122524,"current_range_meters":21600,"station_id":"ce4bhqp2rcd13ifvqhog","pricing_plan_id":"cebpf4jnsgd1na2vs0mg"},{"bike_id":"271d005b-08e5-449a-9ecc-19dda8997147","system_id":"levelo_inurba_marseille","lat":43.31334,"lon":5.39697,"is_reserved":false,"is_disabled":false,"rental_uris":{"android":"levelo://app?vid=271d005b-08e5-449a-9ecc-19dda8997147","ios":"levelo://app?vid=271d005b-08e5-449a-9ecc-19dda8997147"},"vehicle_type_id":"4","last_reported":1732122524,"current_range_meters":34000,"station_id":"ce4bgvp2rcd13ifvqcu0","pricing_plan_id":"cebpf4jnsgd1na2vs0mg"},{"bike_id":"02330a79-2e93-42f9-a52a-47c8f49bf28e","system_id":"levelo_inurba_marseille","lat":43.2842,"lon":5.37516,"is_reserved":false,"is_disabled":false,"rental_uris":{"android":"levelo://app?vid=02330a79-2e93-42f9-a52a-47c8f49bf28e","ios":"levelo://app?vid=02330a79-2e93-42f9-a52a-47c8f49bf28e"},"vehicle_type_id":"4","last_reported":1732122524,"current_range_meters":32800,"station_id":"ce4bh412rcd13ifvqds0","pricing_plan_id":"cebpf4jnsgd1na2vs0mg"},{"bike_id":"482b0482-a357-4e25-a2a6-aaacd51a2e6f","system_id":"levelo_inurba_marseille","lat":43.28563,"lon":5.395,"is_reserved":false,"is_disabled":false,"rental_uris":{"android":"levelo://app?vid=482b0482-a357-4e25-a2a6-aaacd51a2e6f","ios":"levelo://app?vid=482b0482-a357-4e25-a2a6-aaacd51a2e6f"},"vehicle_type_id":"4","last_reported":1732122524,"current_range_meters":28800,"station_id":"ce4bh292rcd13ifvqdg0","pricing_plan_id":"cebpf4jnsgd1na2vs0mg"},{"bike_id":"c8e78444-aed0-42c2-bd60-bd5ebc177c5c","system_id":"levelo_inurba_marseille","lat":43.29936,"lon":5.36543,"is_reserved":false,"is_disabled":true,"rental_uris":{"android":"levelo://app?vid=c8e78444-aed0-42c2-bd60-bd5ebc177c5c","ios":"levelo://app?vid=c8e78444-aed0-42c2-bd60-bd5ebc177c5c"},"vehicle_type_id":"4","last_reported":1732122524,"current_range_meters":27600,"station_id":"ce4bgm92rcd13ifvqbr0","pricing_plan_id":"cebpf4jnsgd1na2vs0mg"},{"bike_id":"4a8334a5-4056-497e-8082-55e7a74e4c36","system_id":"levelo_inurba_marseille","lat":43.30131,"lon":5.39837,"is_reserved":false,"is_disabled":false,"rental_uris":{"android":"levelo://app?vid=4a8334a5-4056-497e-8082-55e7a74e4c36","ios":"levelo://app?vid=4a8334a5-4056-497e-8082-55e7a74e4c36"},"vehicle_type_id":"4","last_reported":1732122524,"current_range_meters":38800,"station_id":"ce4bh0h2rcd13ifvqd40","pricing_plan_id":"cebpf4jnsgd1na2vs0mg"},{"bike_id":"9a401885-21a4-49d1-a4ad-3ae3e7a4ee61","system_id":"levelo_inurba_marseille","lat":43.27958,"lon":5.41052,"is_reserved":false,"is_disabled":false,"rental_uris":{"android":"levelo://app?vid=9a401885-21a4-49d1-a4ad-3ae3e7a4ee61","ios":"levelo://app?vid=9a401885-21a4-49d1-a4ad-3ae3e7a4ee61"},"vehicle_type_id":"4","last_reported":1732122524,"current_range_meters":28400,"station_id":"ce4bhnp2rcd13ifvqh0g","pricing_plan_id":"cebpf4jnsgd1na2vs0mg"},{"bike_id":"fcaed669-f051-4d98-953f-5fab599b58ef","system_id":"levelo_inurba_marseille","lat":43.2952,"lon":5.39408,"is_reserved":false,"is_disabled":false,"rental_uris":{"android":"levelo://app?vid=fcaed669-f051-4d98-953f-5fab599b58ef","ios":"levelo://app?vid=fcaed669-f051-4d98-953f-5fab599b58ef"},"vehicle_type_id":"4","last_reported":1732122524,"current_range_meters":10000,"station_id":"ce4bh292rcd13ifvqdf0","pricing_plan_id":"cebpf4jnsgd1na2vs0mg"},{"bike_id":"10815b4d-f630-46e4-b054-3a315a68514f","system_id":"levelo_inurba_marseille","lat":43.33733,"lon":5.39184,"is_reserved":false,"is_disabled":false,"rental_uris":{"android":"levelo://app?vid=10815b4d-f630-46e4-b054-3a315a68514f","ios":"levelo://app?vid=10815b4d-f630-46e4-b054-3a315a68514f"},"vehicle_type_id":"4","last_reported":1732122524,"current_range_meters":38800,"station_id":"ce4bhr92rcd13ifvqhsg","pricing_plan_id":"cebpf4jnsgd1na2vs0mg"},{"bike_id":"d111e22a-86dc-44e2-9398-1c41a0931a88","system_id":"levelo_inurba_marseille","lat":43.30417,"lon":5.41289,"is_reserved":false,"is_disabled":true,"rental_uris":{"android":"levelo://app?vid=d111e22a-86dc-44e2-9398-1c41a0931a88","ios":"levelo://app?vid=d111e22a-86dc-44e2-9398-1c41a0931a88"},"vehicle_type_id":"4","last_reported":1732122524,"current_range_meters":1200,"station_id":"ce4bhop2rcd13ifvqh8g","pricing_plan_id":"cebpf4jnsgd1na2vs0mg"},{"bike_id":"3d5f783e-5d22-4c2a-bfbc-6a78b9eee958","system_id":"levelo_inurba_marseille","lat":43.29265,"lon":5.38445,"is_reserved":false,"is_disabled":false,"rental_uris":{"android":"levelo://app?vid=3d5f783e-5d22-4c2a-bfbc-6a78b9eee958","ios":"levelo://app?vid=3d5f783e-5d22-4c2a-bfbc-6a78b9eee958"},"vehicle_type_id":"4","last_reported":1732122524,"current_range_meters":36800,"station_id":"ce4bh692rcd13ifvqea0","pricing_plan_id":"cebpf4jnsgd1na2vs0mg"},{"bike_id":"efa924b8-3b7e-4a41-913c-fc64a7c8728e","system_id":"levelo_inurba_marseille","lat":43.28457,"lon":5.35895,"is_reserved":false,"is_disabled":false,"rental_uris":{"android":"levelo://app?vid=efa924b8-3b7e-4a41-913c-fc64a7c8728e","ios":"levelo://app?vid=efa924b8-3b7e-4a41-913c-fc64a7c8728e"},"vehicle_type_id":"4","last_reported":1732122524,"current_range_meters":37600,"station_id":"ce4bhah2rcd13ifvqei0","pricing_plan_id":"cebpf4jnsgd1na2vs0mg"},{"bike_id":"ec6f5527-4903-49da-98fe-7c850cffaf28","system_id":"levelo_inurba_marseille","lat":43.2621,"lon":5.37442,"is_reserved":false,"is_disabled":false,"rental_uris":{"android":"levelo://app?vid=ec6f5527-4903-49da-98fe-7c850cffaf28","ios":"levelo://app?vid=ec6f5527-4903-49da-98fe-7c850cffaf28"},"vehicle_type_id":"4","last_reported":1732122524,"current_range_meters":21600,"station_id":"ce4bhgp2rcd13ifvqfc0","pricing_plan_id":"cebpf4jnsgd1na2vs0mg"},{"bike_id":"92cdecdf-a42e-40e0-9023-228e059ca804","system_id":"levelo_inurba_marseille","lat":43.28034,"lon":5.36956,"is_reserved":false,"is_disabled":true,"rental_uris":{"android":"levelo://app?vid=92cdecdf-a42e-40e0-9023-228e059ca804","ios":"levelo://app?vid=92cdecdf-a42e-40e0-9023-228e059ca804"},"vehicle_type_id":"4","last_reported":1732122524,"current_range_meters":1600,"station_id":"ce4bha12rcd13ifvqef0","pricing_plan_id":"cebpf4jnsgd1na2vs0mg"},{"bike_id":"a294dff0-fd60-4b5a-a5bb-f8c183996e85","system_id":"levelo_inurba_marseille","lat":43.30605,"lon":5.37223,"is_reserved":false,"is_disabled":false,"rental_uris":{"android":"levelo://app?vid=a294dff0-fd60-4b5a-a5bb-f8c183996e85","ios":"levelo://app?vid=a294dff0-fd60-4b5a-a5bb-f8c183996e85"},"vehicle_type_id":"4","last_reported":1732122524,"current_range_meters":38800,"station_id":"ce4bgqh2rcd13ifvqc4g","pricing_plan_id":"cebpf4jnsgd1na2vs0mg"},{"bike_id":"17a1ee21-a849-4433-badc-5af1a287346d","system_id":"levelo_inurba_marseille","lat":43.24587,"lon":5.37416,"is_reserved":false,"is_disabled":true,"rental_uris":{"android":"levelo://app?vid=17a1ee21-a849-4433-badc-5af1a287346d","ios":"levelo://app?vid=17a1ee21-a849-4433-badc-5af1a287346d"},"vehicle_type_id":"4","last_reported":1732122524,"current_range_meters":0,"station_id":"","pricing_plan_id":"cebpf4jnsgd1na2vs0mg"},{"bike_id":"72988ed8-3b21-48f9-9313-4c219313a03b","system_id":"levelo_inurba_marseille","lat":43.25106,"lon":5.40325,"is_reserved":false,"is_disabled":false,"rental_uris":{"android":"levelo://app?vid=72988ed8-3b21-48f9-9313-4c219313a03b","ios":"levelo://app?vid=72988ed8-3b21-48f9-9313-4c219313a03b"},"vehicle_type_id":"4","last_reported":1732122524,"current_range_meters":20000,"station_id":"ce4bhlh2rcd13ifvqgig","pricing_plan_id":"cebpf4jnsgd1na2vs0mg"},{"bike_id":"d23ab81f-236d-45ff-9866-e362caac5f35","system_id":"levelo_inurba_marseille","lat":43.32659,"lon":5.40995,"is_reserved":false,"is_disabled":false,"rental_uris":{"android":"levelo://app?vid=d23ab81f-236d-45ff-9866-e362caac5f35","ios":"levelo://app?vid=d23ab81f-236d-45ff-9866-e362caac5f35"},"vehicle_type_id":"4","last_reported":1732122524,"current_range_meters":29600,"station_id":"ce4bhpp2rcd13ifvqhgg","pricing_plan_id":"cebpf4jnsgd1na2vs0mg"},{"bike_id":"5c5222dc-c9e9-4134-9926-f13e5276b66c","system_id":"levelo_inurba_marseille","lat":43.32363,"lon":5.38881,"is_reserved":false,"is_disabled":false,"rental_uris":{"android":"levelo://app?vid=5c5222dc-c9e9-4134-9926-f13e5276b66c","ios":"levelo://app?vid=5c5222dc-c9e9-4134-9926-f13e5276b66c"},"vehicle_type_id":"4","last_reported":1732122524,"current_range_meters":6000,"station_id":"ce4bhqp2rcd13ifvqhog","pricing_plan_id":"cebpf4jnsgd1na2vs0mg"},{"bike_id":"4005d8e1-fa43-481d-ae78-4d1086280c6f","system_id":"levelo_inurba_marseille","lat":43.29265,"lon":5.38431,"is_reserved":false,"is_disabled":false,"rental_uris":{"android":"levelo://app?vid=4005d8e1-fa43-481d-ae78-4d1086280c6f","ios":"levelo://app?vid=4005d8e1-fa43-481d-ae78-4d1086280c6f"},"vehicle_type_id":"4","last_reported":1732122524,"current_range_meters":9200,"station_id":"ce4bh692rcd13ifvqea0","pricing_plan_id":"cebpf4jnsgd1na2vs0mg"},{"bike_id":"f5cf085e-8694-4c6f-ba9c-aa6e0d3c58c6","system_id":"levelo_inurba_marseille","lat":43.33653,"lon":5.35555,"is_reserved":false,"is_disabled":true,"rental_uris":{"android":"levelo://app?vid=f5cf085e-8694-4c6f-ba9c-aa6e0d3c58c6","ios":"levelo://app?vid=f5cf085e-8694-4c6f-ba9c-aa6e0d3c58c6"},"vehicle_type_id":"4","last_reported":1732122524,"current_range_meters":10800,"station_id":"","pricing_plan_id":"cebpf4jnsgd1na2vs0mg"},{"bike_id":"3d2beca7-eef0-4bae-98e1-8b3de347272c","system_id":"levelo_inurba_marseille","lat":43.23192,"lon":5.35554,"is_reserved":false,"is_disabled":false,"rental_uris":{"android":"levelo://app?vid=3d2beca7-eef0-4bae-98e1-8b3de347272c","ios":"levelo://app?vid=3d2beca7-eef0-4bae-98e1-8b3de347272c"},"vehicle_type_id":"4","last_reported":1732122524,"current_range_meters":36800,"station_id":"ce4bhu92rcd13ifvqi70","pricing_plan_id":"cebpf4jnsgd1na2vs0mg"},{"bike_id":"ccd50d75-83ba-44e8-8889-51c560c2d710","system_id":"levelo_inurba_marseille","lat":43.31223,"lon":5.36863,"is_reserved":false,"is_disabled":false,"rental_uris":{"android":"levelo://app?vid=ccd50d75-83ba-44e8-8889-51c560c2d710","ios":"levelo://app?vid=ccd50d75-83ba-44e8-8889-51c560c2d710"},"vehicle_type_id":"4","last_reported":1732122524,"current_range_meters":28800,"station_id":"ce4bgl92rcd13ifvqbq0","pricing_plan_id":"cebpf4jnsgd1na2vs0mg"},{"bike_id":"2c0403cf-6952-4b51-b277-405286f2aaa5","system_id":"levelo_inurba_marseille","lat":43.3302,"lon":5.39043,"is_reserved":false,"is_disabled":false,"rental_uris":{"android":"levelo://app?vid=2c0403cf-6952-4b51-b277-405286f2aaa5","ios":"levelo://app?vid=2c0403cf-6952-4b51-b277-405286f2aaa5"},"vehicle_type_id":"4","last_reported":1732122524,"current_range_meters":38800,"station_id":"ce4bhr92rcd13ifvqhrg","pricing_plan_id":"cebpf4jnsgd1na2vs0mg"},{"bike_id":"e57590cc-a844-462b-b95c-023047b497c3","system_id":"levelo_inurba_marseille","lat":43.26024,"lon":5.37551,"is_reserved":false,"is_disabled":true,"rental_uris":{"android":"levelo://app?vid=e57590cc-a844-462b-b95c-023047b497c3","ios":"levelo://app?vid=e57590cc-a844-462b-b95c-023047b497c3"},"vehicle_type_id":"4","last_reported":1732122524,"current_range_meters":0,"station_id":"ce4bhgh2rcd13ifvqfa0","pricing_plan_id":"cebpf4jnsgd1na2vs0mg"},{"bike_id":"02548de1-a79f-4bc6-8c03-f2b86f8bd8f9","system_id":"levelo_inurba_marseille","lat":43.32364,"lon":5.38879,"is_reserved":false,"is_disabled":false,"rental_uris":{"android":"levelo://app?vid=02548de1-a79f-4bc6-8c03-f2b86f8bd8f9","ios":"levelo://app?vid=02548de1-a79f-4bc6-8c03-f2b86f8bd8f9"},"vehicle_type_id":"4","last_reported":1732122524,"current_range_meters":12000,"station_id":"ce4bhqp2rcd13ifvqhog","pricing_plan_id":"cebpf4jnsgd1na2vs0mg"},{"bike_id":"9cd6ea89-ea25-40eb-bda0-1ce1cefa2379","system_id":"levelo_inurba_marseille","lat":43.30545,"lon":5.36708,"is_reserved":false,"is_disabled":false,"rental_uris":{"android":"levelo://app?vid=9cd6ea89-ea25-40eb-bda0-1ce1cefa2379","ios":"levelo://app?vid=9cd6ea89-ea25-40eb-bda0-1ce1cefa2379"},"vehicle_type_id":"4","last_reported":1732122524,"current_range_meters":38000,"station_id":"ce4bgrp2rcd13ifvqc9g","pricing_plan_id":"cebpf4jnsgd1na2vs0mg"},{"bike_id":"8dd9b3eb-6af0-46fe-8a17-1995d56010fa","system_id":"levelo_inurba_marseille","lat":43.28662,"lon":5.36352,"is_reserved":false,"is_disabled":false,"rental_uris":{"android":"levelo://app?vid=8dd9b3eb-6af0-46fe-8a17-1995d56010fa","ios":"levelo://app?vid=8dd9b3eb-6af0-46fe-8a17-1995d56010fa"},"vehicle_type_id":"4","last_reported":1732122524,"current_range_meters":8800,"station_id":"ce4bhah2rcd13ifvqej0","pricing_plan_id":"cebpf4jnsgd1na2vs0mg"},{"bike_id":"b06d2de1-ec8f-49cf-a7e9-69d9d6e10c7d","system_id":"levelo_inurba_marseille","lat":43.2867,"lon":5.38631,"is_reserved":false,"is_disabled":false,"rental_uris":{"android":"levelo://app?vid=b06d2de1-ec8f-49cf-a7e9-69d9d6e10c7d","ios":"levelo://app?vid=b06d2de1-ec8f-49cf-a7e9-69d9d6e10c7d"},"vehicle_type_id":"4","last_reported":1732122524,"current_range_meters":38800,"station_id":"ce4bh492rcd13ifvqdug","pricing_plan_id":"cebpf4jnsgd1na2vs0mg"},{"bike_id":"e13cce31-b0d1-48fa-8587-701556318d3b","system_id":"levelo_inurba_marseille","lat":43.29283,"lon":5.36845,"is_reserved":false,"is_disabled":false,"rental_uris":{"android":"levelo://app?vid=e13cce31-b0d1-48fa-8587-701556318d3b","ios":"levelo://app?vid=e13cce31-b0d1-48fa-8587-701556318d3b"},"vehicle_type_id":"4","last_reported":1732122524,"current_range_meters":5600,"station_id":"ce4bhbp2rcd13ifvqesg","pricing_plan_id":"cebpf4jnsgd1na2vs0mg"},{"bike_id":"18f48537-054c-4640-8a0a-8b55bc8044f4","system_id":"levelo_inurba_marseille","lat":43.29041,"lon":5.359,"is_reserved":false,"is_disabled":false,"rental_uris":{"android":"levelo://app?vid=18f48537-054c-4640-8a0a-8b55bc8044f4","ios":"levelo://app?vid=18f48537-054c-4640-8a0a-8b55bc8044f4"},"vehicle_type_id":"4","last_reported":1732122524,"current_range_meters":20400,"station_id":"ce4bha92rcd13ifvqeg0","pricing_plan_id":"cebpf4jnsgd1na2vs0mg"},{"bike_id":"8d5e8e54-f87c-49b3-8720-7e21078f8fcd","system_id":"levelo_inurba_marseille","lat":43.26483,"lon":5.39548,"is_reserved":false,"is_disabled":true,"rental_uris":{"android":"levelo://app?vid=8d5e8e54-f87c-49b3-8720-7e21078f8fcd","ios":"levelo://app?vid=8d5e8e54-f87c-49b3-8720-7e21078f8fcd"},"vehicle_type_id":"4","last_reported":1732122524,"current_range_meters":400,"station_id":"ce4bhi12rcd13ifvqfq0","pricing_plan_id":"cebpf4jnsgd1na2vs0mg"},{"bike_id":"5690c847-eebc-4781-b7ed-1541559b0f9f","system_id":"levelo_inurba_marseille","lat":43.30642,"lon":5.40087,"is_reserved":false,"is_disabled":false,"rental_uris":{"android":"levelo://app?vid=5690c847-eebc-4781-b7ed-1541559b0f9f","ios":"levelo://app?vid=5690c847-eebc-4781-b7ed-1541559b0f9f"},"vehicle_type_id":"4","last_reported":1732122524,"current_range_meters":32000,"station_id":"ce4bh112rcd13ifvqda0","pricing_plan_id":"cebpf4jnsgd1na2vs0mg"},{"bike_id":"b4f02e4a-4d59-45fe-9b2f-fd72201cc0b2","system_id":"levelo_inurba_marseille","lat":43.29567,"lon":5.37538,"is_reserved":false,"is_disabled":false,"rental_uris":{"android":"levelo://app?vid=b4f02e4a-4d59-45fe-9b2f-fd72201cc0b2","ios":"levelo://app?vid=b4f02e4a-4d59-45fe-9b2f-fd72201cc0b2"},"vehicle_type_id":"4","last_reported":1732122524,"current_range_meters":16000,"station_id":"ce4bgh92rcd13ifvqb50","pricing_plan_id":"cebpf4jnsgd1na2vs0mg"},{"bike_id":"d30253e3-7147-4450-b388-214797d06878","system_id":"levelo_inurba_marseille","lat":43.27621,"lon":5.36116,"is_reserved":false,"is_disabled":false,"rental_uris":{"android":"levelo://app?vid=d30253e3-7147-4450-b388-214797d06878","ios":"levelo://app?vid=d30253e3-7147-4450-b388-214797d06878"},"vehicle_type_id":"4","last_reported":1732122524,"current_range_meters":15200,"station_id":"ce4bgj92rcd13ifvqbe0","pricing_plan_id":"cebpf4jnsgd1na2vs0mg"},{"bike_id":"2594e531-4b82-4891-8d78-f21ece4435eb","system_id":"levelo_inurba_marseille","lat":43.27207,"lon":5.39184,"is_reserved":false,"is_disabled":true,"rental_uris":{"android":"levelo://app?vid=2594e531-4b82-4891-8d78-f21ece4435eb","ios":"levelo://app?vid=2594e531-4b82-4891-8d78-f21ece4435eb"},"vehicle_type_id":"4","last_reported":1732122524,"current_range_meters":1200,"station_id":"ce4bhhp2rcd13ifvqfm0","pricing_plan_id":"cebpf4jnsgd1na2vs0mg"},{"bike_id":"8940c8da-24b9-400b-a5b2-cdc6ccc3bcc8","system_id":"levelo_inurba_marseille","lat":43.29727,"lon":5.37697,"is_reserved":false,"is_disabled":false,"rental_uris":{"android":"levelo://app?vid=8940c8da-24b9-400b-a5b2-cdc6ccc3bcc8","ios":"levelo://app?vid=8940c8da-24b9-400b-a5b2-cdc6ccc3bcc8"},"vehicle_type_id":"4","last_reported":1732122524,"current_range_meters":36800,"station_id":"ce4bgkh2rcd13ifvqbl0","pricing_plan_id":"cebpf4jnsgd1na2vs0mg"},{"bike_id":"f5ffb3e5-f141-4e49-961d-7f0ec0b77112","system_id":"levelo_inurba_marseille","lat":43.28071,"lon":5.3965,"is_reserved":false,"is_disabled":false,"rental_uris":{"android":"levelo://app?vid=f5ffb3e5-f141-4e49-961d-7f0ec0b77112","ios":"levelo://app?vid=f5ffb3e5-f141-4e49-961d-7f0ec0b77112"},"vehicle_type_id":"4","last_reported":1732122524,"current_range_meters":32000,"station_id":"ce4bho12rcd13ifvqh2g","pricing_plan_id":"cebpf4jnsgd1na2vs0mg"},{"bike_id":"cdaafd2d-0da1-4fac-9881-15c66a7cd7c0","system_id":"levelo_inurba_marseille","lat":43.23159,"lon":5.43706,"is_reserved":false,"is_disabled":true,"rental_uris":{"android":"levelo://app?vid=cdaafd2d-0da1-4fac-9881-15c66a7cd7c0","ios":"levelo://app?vid=cdaafd2d-0da1-4fac-9881-15c66a7cd7c0"},"vehicle_type_id":"4","last_reported":1732122524,"current_range_meters":0,"station_id":"ce4bhmp2rcd13ifvqgog","pricing_plan_id":"cebpf4jnsgd1na2vs0mg"},{"bike_id":"571ebf17-9551-4693-af9a-d47668470fe6","system_id":"levelo_inurba_marseille","lat":43.32361,"lon":5.3888,"is_reserved":false,"is_disabled":false,"rental_uris":{"android":"levelo://app?vid=571ebf17-9551-4693-af9a-d47668470fe6","ios":"levelo://app?vid=571ebf17-9551-4693-af9a-d47668470fe6"},"vehicle_type_id":"4","last_reported":1732122524,"current_range_meters":8000,"station_id":"ce4bhqp2rcd13ifvqhog","pricing_plan_id":"cebpf4jnsgd1na2vs0mg"},{"bike_id":"f4ed55cd-02da-4b2f-8727-f10076e6b1f6","system_id":"levelo_inurba_marseille","lat":43.29374,"lon":5.37853,"is_reserved":false,"is_disabled":false,"rental_uris":{"android":"levelo://app?vid=f4ed55cd-02da-4b2f-8727-f10076e6b1f6","ios":"levelo://app?vid=f4ed55cd-02da-4b2f-8727-f10076e6b1f6"},"vehicle_type_id":"4","last_reported":1732122524,"current_range_meters":38800,"station_id":"ce4bgjh2rcd13ifvqbf0","pricing_plan_id":"cebpf4jnsgd1na2vs0mg"},{"bike_id":"8d5ad0a8-268e-4afd-be61-7919f93826c7","system_id":"levelo_inurba_marseille","lat":43.29908,"lon":5.37474,"is_reserved":false,"is_disabled":true,"rental_uris":{"android":"levelo://app?vid=8d5ad0a8-268e-4afd-be61-7919f93826c7","ios":"levelo://app?vid=8d5ad0a8-268e-4afd-be61-7919f93826c7"},"vehicle_type_id":"4","last_reported":1732122524,"current_range_meters":37600,"station_id":"ce4bgjh2rcd13ifvqbg0","pricing_plan_id":"cebpf4jnsgd1na2vs0mg"},{"bike_id":"f198b97b-88d4-49aa-b205-4610520421a6","system_id":"levelo_inurba_marseille","lat":43.33026,"lon":5.39039,"is_reserved":false,"is_disabled":false,"rental_uris":{"android":"levelo://app?vid=f198b97b-88d4-49aa-b205-4610520421a6","ios":"levelo://app?vid=f198b97b-88d4-49aa-b205-4610520421a6"},"vehicle_type_id":"4","last_reported":1732122524,"current_range_meters":40000,"station_id":"ce4bhr92rcd13ifvqhrg","pricing_plan_id":"cebpf4jnsgd1na2vs0mg"},{"bike_id":"e09b3cc5-0121-4fec-96c5-babd0fc9fb5f","system_id":"levelo_inurba_marseille","lat":43.283215,"lon":5.387248,"is_reserved":false,"is_disabled":false,"rental_uris":{"android":"levelo://app?vid=e09b3cc5-0121-4fec-96c5-babd0fc9fb5f","ios":"levelo://app?vid=e09b3cc5-0121-4fec-96c5-babd0fc9fb5f"},"vehicle_type_id":"4","last_reported":1732122524,"current_range_meters":3600,"station_id":"ce4bh492rcd13ifvqdvg","pricing_plan_id":"cebpf4jnsgd1na2vs0mg"},{"bike_id":"eddaf43f-4a9b-4ec3-8737-51566357e9f0","system_id":"levelo_inurba_marseille","lat":43.27205,"lon":5.39184,"is_reserved":false,"is_disabled":true,"rental_uris":{"android":"levelo://app?vid=eddaf43f-4a9b-4ec3-8737-51566357e9f0","ios":"levelo://app?vid=eddaf43f-4a9b-4ec3-8737-51566357e9f0"},"vehicle_type_id":"4","last_reported":1732122524,"current_range_meters":400,"station_id":"ce4bhhp2rcd13ifvqfm0","pricing_plan_id":"cebpf4jnsgd1na2vs0mg"},{"bike_id":"9df16021-471e-4ef6-9340-e233fcc32213","system_id":"levelo_inurba_marseille","lat":43.25117,"lon":5.40317,"is_reserved":false,"is_disabled":false,"rental_uris":{"android":"levelo://app?vid=9df16021-471e-4ef6-9340-e233fcc32213","ios":"levelo://app?vid=9df16021-471e-4ef6-9340-e233fcc32213"},"vehicle_type_id":"4","last_reported":1732122524,"current_range_meters":8400,"station_id":"ce4bhlh2rcd13ifvqgig","pricing_plan_id":"cebpf4jnsgd1na2vs0mg"},{"bike_id":"38f3fec8-84ae-4e3a-a814-0f064741c0b5","system_id":"levelo_inurba_marseille","lat":43.26779,"lon":5.39417,"is_reserved":false,"is_disabled":false,"rental_uris":{"android":"levelo://app?vid=38f3fec8-84ae-4e3a-a814-0f064741c0b5","ios":"levelo://app?vid=38f3fec8-84ae-4e3a-a814-0f064741c0b5"},"vehicle_type_id":"4","last_reported":1732122524,"current_range_meters":8000,"station_id":"ce4bhh12rcd13ifvqfg0","pricing_plan_id":"cebpf4jnsgd1na2vs0mg"},{"bike_id":"73b0b97d-9ee8-41bd-bca8-de78f4220440","system_id":"levelo_inurba_marseille","lat":43.28934,"lon":5.36399,"is_reserved":false,"is_disabled":false,"rental_uris":{"android":"levelo://app?vid=73b0b97d-9ee8-41bd-bca8-de78f4220440","ios":"levelo://app?vid=73b0b97d-9ee8-41bd-bca8-de78f4220440"},"vehicle_type_id":"4","last_reported":1732122524,"current_range_meters":38800,"station_id":"ce4bhc92rcd13ifvqetg","pricing_plan_id":"cebpf4jnsgd1na2vs0mg"},{"bike_id":"319639f6-c364-407e-9612-56f449d4d076","system_id":"levelo_inurba_marseille","lat":43.28073,"lon":5.39652,"is_reserved":false,"is_disabled":true,"rental_uris":{"android":"levelo://app?vid=319639f6-c364-407e-9612-56f449d4d076","ios":"levelo://app?vid=319639f6-c364-407e-9612-56f449d4d076"},"vehicle_type_id":"4","last_reported":1732122524,"current_range_meters":0,"station_id":"ce4bho12rcd13ifvqh2g","pricing_plan_id":"cebpf4jnsgd1na2vs0mg"},{"bike_id":"c0012f6e-2024-411a-8dba-c1ece747d333","system_id":"levelo_inurba_marseille","lat":43.29559,"lon":5.42294,"is_reserved":false,"is_disabled":false,"rental_uris":{"android":"levelo://app?vid=c0012f6e-2024-411a-8dba-c1ece747d333","ios":"levelo://app?vid=c0012f6e-2024-411a-8dba-c1ece747d333"},"vehicle_type_id":"4","last_reported":1732122524,"current_range_meters":20000,"station_id":"ce4bhph2rcd13ifvqhdg","pricing_plan_id":"cebpf4jnsgd1na2vs0mg"},{"bike_id":"1951da77-c259-424b-b12e-3b8bb4eeaeca","system_id":"levelo_inurba_marseille","lat":43.2906,"lon":5.37155,"is_reserved":false,"is_disabled":true,"rental_uris":{"android":"levelo://app?vid=1951da77-c259-424b-b12e-3b8bb4eeaeca","ios":"levelo://app?vid=1951da77-c259-424b-b12e-3b8bb4eeaeca"},"vehicle_type_id":"4","last_reported":1732122524,"current_range_meters":28400,"station_id":"ce4bh5p2rcd13ifvqe4g","pricing_plan_id":"cebpf4jnsgd1na2vs0mg"},{"bike_id":"b74b4c08-eae7-46db-b871-12fe4d1e5b2e","system_id":"levelo_inurba_marseille","lat":43.29896,"lon":5.43658,"is_reserved":false,"is_disabled":false,"rental_uris":{"android":"levelo://app?vid=b74b4c08-eae7-46db-b871-12fe4d1e5b2e","ios":"levelo://app?vid=b74b4c08-eae7-46db-b871-12fe4d1e5b2e"},"vehicle_type_id":"4","last_reported":1732122524,"current_range_meters":26000,"station_id":"ce4bhpp2rcd13ifvqhfg","pricing_plan_id":"cebpf4jnsgd1na2vs0mg"},{"bike_id":"38ba1c24-c2e9-4336-bdae-5964fc0b16d6","system_id":"levelo_inurba_marseille","lat":43.26566,"lon":5.39002,"is_reserved":false,"is_disabled":false,"rental_uris":{"android":"levelo://app?vid=38ba1c24-c2e9-4336-bdae-5964fc0b16d6","ios":"levelo://app?vid=38ba1c24-c2e9-4336-bdae-5964fc0b16d6"},"vehicle_type_id":"4","last_reported":1732122524,"current_range_meters":38000,"station_id":"ce4bhe12rcd13ifvqf30","pricing_plan_id":"cebpf4jnsgd1na2vs0mg"},{"bike_id":"c5f1db54-11ea-4990-b832-555ec10080b9","system_id":"levelo_inurba_marseille","lat":43.26556,"lon":5.39041,"is_reserved":false,"is_disabled":true,"rental_uris":{"android":"levelo://app?vid=c5f1db54-11ea-4990-b832-555ec10080b9","ios":"levelo://app?vid=c5f1db54-11ea-4990-b832-555ec10080b9"},"vehicle_type_id":"4","last_reported":1732122524,"current_range_meters":0,"station_id":"ce4bhe12rcd13ifvqf30","pricing_plan_id":"cebpf4jnsgd1na2vs0mg"},{"bike_id":"56735ea6-a1ac-4042-9d32-0979f1a3d5bc","system_id":"levelo_inurba_marseille","lat":43.2886,"lon":5.39321,"is_reserved":false,"is_disabled":false,"rental_uris":{"android":"levelo://app?vid=56735ea6-a1ac-4042-9d32-0979f1a3d5bc","ios":"levelo://app?vid=56735ea6-a1ac-4042-9d32-0979f1a3d5bc"},"vehicle_type_id":"4","last_reported":1732122524,"current_range_meters":32000,"station_id":"ce4bh2p2rcd13ifvqdi0","pricing_plan_id":"cebpf4jnsgd1na2vs0mg"},{"bike_id":"6d653764-db90-4954-809b-76073d42ea74","system_id":"levelo_inurba_marseille","lat":43.30463,"lon":5.37908,"is_reserved":false,"is_disabled":true,"rental_uris":{"android":"levelo://app?vid=6d653764-db90-4954-809b-76073d42ea74","ios":"levelo://app?vid=6d653764-db90-4954-809b-76073d42ea74"},"vehicle_type_id":"4","last_reported":1732122524,"current_range_meters":400,"station_id":"ce4bgup2rcd13ifvqcn0","pricing_plan_id":"cebpf4jnsgd1na2vs0mg"},{"bike_id":"a858d3c9-f611-4d50-9c6e-5d3eb791536e","system_id":"levelo_inurba_marseille","lat":43.32955,"lon":5.41901,"is_reserved":false,"is_disabled":false,"rental_uris":{"android":"levelo://app?vid=a858d3c9-f611-4d50-9c6e-5d3eb791536e","ios":"levelo://app?vid=a858d3c9-f611-4d50-9c6e-5d3eb791536e"},"vehicle_type_id":"4","last_reported":1732122524,"current_range_meters":18800,"station_id":"","pricing_plan_id":"cebpf4jnsgd1na2vs0mg"},{"bike_id":"9b4d52a8-a22b-418c-a556-65afaca3a235","system_id":"levelo_inurba_marseille","lat":43.33746,"lon":5.37443,"is_reserved":false,"is_disabled":false,"rental_uris":{"android":"levelo://app?vid=9b4d52a8-a22b-418c-a556-65afaca3a235","ios":"levelo://app?vid=9b4d52a8-a22b-418c-a556-65afaca3a235"},"vehicle_type_id":"4","last_reported":1732122524,"current_range_meters":15200,"station_id":"","pricing_plan_id":"cebpf4jnsgd1na2vs0mg"},{"bike_id":"7c237d27-c4b4-4697-a229-4df88d3cfdce","system_id":"levelo_inurba_marseille","lat":43.29512,"lon":5.37508,"is_reserved":false,"is_disabled":false,"rental_uris":{"android":"levelo://app?vid=7c237d27-c4b4-4697-a229-4df88d3cfdce","ios":"levelo://app?vid=7c237d27-c4b4-4697-a229-4df88d3cfdce"},"vehicle_type_id":"4","last_reported":1732122524,"current_range_meters":24000,"station_id":"ce4bgkp2rcd13ifvqbmg","pricing_plan_id":"cebpf4jnsgd1na2vs0mg"},{"bike_id":"f44d6666-6316-49f4-b4bb-6d4e865d47a6","system_id":"levelo_inurba_marseille","lat":43.3265,"lon":5.40996,"is_reserved":false,"is_disabled":false,"rental_uris":{"android":"levelo://app?vid=f44d6666-6316-49f4-b4bb-6d4e865d47a6","ios":"levelo://app?vid=f44d6666-6316-49f4-b4bb-6d4e865d47a6"},"vehicle_type_id":"4","last_reported":1732122524,"current_range_meters":22800,"station_id":"ce4bhpp2rcd13ifvqhgg","pricing_plan_id":"cebpf4jnsgd1na2vs0mg"},{"bike_id":"2af4d00b-5050-4935-b5d1-08b4e90f04bf","system_id":"levelo_inurba_marseille","lat":43.28889,"lon":5.39472,"is_reserved":false,"is_disabled":false,"rental_uris":{"android":"levelo://app?vid=2af4d00b-5050-4935-b5d1-08b4e90f04bf","ios":"levelo://app?vid=2af4d00b-5050-4935-b5d1-08b4e90f04bf"},"vehicle_type_id":"4","last_reported":1732122524,"current_range_meters":38800,"station_id":"ce4bh4p2rcd13ifvqe0g","pricing_plan_id":"cebpf4jnsgd1na2vs0mg"},{"bike_id":"9f1124d1-9376-4e05-8e3b-d52adbcd7f97","system_id":"levelo_inurba_marseille","lat":43.28155,"lon":5.42637,"is_reserved":false,"is_disabled":false,"rental_uris":{"android":"levelo://app?vid=9f1124d1-9376-4e05-8e3b-d52adbcd7f97","ios":"levelo://app?vid=9f1124d1-9376-4e05-8e3b-d52adbcd7f97"},"vehicle_type_id":"4","last_reported":1732122524,"current_range_meters":9600,"station_id":"ce4bhnh2rcd13ifvqgug","pricing_plan_id":"cebpf4jnsgd1na2vs0mg"},{"bike_id":"8ae288fe-7f9e-4636-bc68-3daa0c790f34","system_id":"levelo_inurba_marseille","lat":43.24663,"lon":5.38171,"is_reserved":false,"is_disabled":true,"rental_uris":{"android":"levelo://app?vid=8ae288fe-7f9e-4636-bc68-3daa0c790f34","ios":"levelo://app?vid=8ae288fe-7f9e-4636-bc68-3daa0c790f34"},"vehicle_type_id":"4","last_reported":1732122524,"current_range_meters":400,"station_id":"ce4bhih2rcd13ifvqfr0","pricing_plan_id":"cebpf4jnsgd1na2vs0mg"},{"bike_id":"34db620f-76f5-4d04-b6de-33b93f9d9c0b","system_id":"levelo_inurba_marseille","lat":43.282675,"lon":5.350621,"is_reserved":false,"is_disabled":true,"rental_uris":{"android":"levelo://app?vid=34db620f-76f5-4d04-b6de-33b93f9d9c0b","ios":"levelo://app?vid=34db620f-76f5-4d04-b6de-33b93f9d9c0b"},"vehicle_type_id":"4","last_reported":1732122524,"current_range_meters":0,"station_id":"ce4bhbp2rcd13ifvqerg","pricing_plan_id":"cebpf4jnsgd1na2vs0mg"},{"bike_id":"f8d773ad-6117-441c-8a1f-2ad7889ac928","system_id":"levelo_inurba_marseille","lat":43.337444,"lon":5.374475,"is_reserved":false,"is_disabled":false,"rental_uris":{"android":"levelo://app?vid=f8d773ad-6117-441c-8a1f-2ad7889ac928","ios":"levelo://app?vid=f8d773ad-6117-441c-8a1f-2ad7889ac928"},"vehicle_type_id":"4","last_reported":1732122524,"current_range_meters":32400,"station_id":"","pricing_plan_id":"cebpf4jnsgd1na2vs0mg"},{"bike_id":"2196e330-a7aa-4092-bb99-58cef0d5e930","system_id":"levelo_inurba_marseille","lat":43.25092,"lon":5.39522,"is_reserved":false,"is_disabled":true,"rental_uris":{"android":"levelo://app?vid=2196e330-a7aa-4092-bb99-58cef0d5e930","ios":"levelo://app?vid=2196e330-a7aa-4092-bb99-58cef0d5e930"},"vehicle_type_id":"4","last_reported":1732122524,"current_range_meters":1600,"station_id":"ce4bhm12rcd13ifvqgkg","pricing_plan_id":"cebpf4jnsgd1na2vs0mg"},{"bike_id":"a32613c2-ce23-4c6b-99d9-f02f377bc95a","system_id":"levelo_inurba_marseille","lat":43.337444,"lon":5.374475,"is_reserved":false,"is_disabled":false,"rental_uris":{"android":"levelo://app?vid=a32613c2-ce23-4c6b-99d9-f02f377bc95a","ios":"levelo://app?vid=a32613c2-ce23-4c6b-99d9-f02f377bc95a"},"vehicle_type_id":"4","last_reported":1732122524,"current_range_meters":38000,"station_id":"","pricing_plan_id":"cebpf4jnsgd1na2vs0mg"},{"bike_id":"b62331f6-ed4a-4f1e-a5bd-22858541b98f","system_id":"levelo_inurba_marseille","lat":43.29533,"lon":5.38541,"is_reserved":false,"is_disabled":false,"rental_uris":{"android":"levelo://app?vid=b62331f6-ed4a-4f1e-a5bd-22858541b98f","ios":"levelo://app?vid=b62331f6-ed4a-4f1e-a5bd-22858541b98f"},"vehicle_type_id":"4","last_reported":1732122524,"current_range_meters":37600,"station_id":"ce4bgih2rcd13ifvqba0","pricing_plan_id":"cebpf4jnsgd1na2vs0mg"},{"bike_id":"b776332e-40d1-4fd6-9c65-32803e6de98b","system_id":"levelo_inurba_marseille","lat":43.30136,"lon":5.37417,"is_reserved":false,"is_disabled":true,"rental_uris":{"android":"levelo://app?vid=b776332e-40d1-4fd6-9c65-32803e6de98b","ios":"levelo://app?vid=b776332e-40d1-4fd6-9c65-32803e6de98b"},"vehicle_type_id":"4","last_reported":1732122524,"current_range_meters":0,"station_id":"ce4bgs92rcd13ifvqcc0","pricing_plan_id":"cebpf4jnsgd1na2vs0mg"},{"bike_id":"2cfda785-50ce-445c-a487-b10eb3d9c72a","system_id":"levelo_inurba_marseille","lat":43.29964,"lon":5.38498,"is_reserved":false,"is_disabled":false,"rental_uris":{"android":"levelo://app?vid=2cfda785-50ce-445c-a487-b10eb3d9c72a","ios":"levelo://app?vid=2cfda785-50ce-445c-a487-b10eb3d9c72a"},"vehicle_type_id":"4","last_reported":1732122524,"current_range_meters":25200,"station_id":"ce4bgj92rcd13ifvqbd0","pricing_plan_id":"cebpf4jnsgd1na2vs0mg"},{"bike_id":"1af5dacd-d7fc-458c-abd2-475041dc5f77","system_id":"levelo_inurba_marseille","lat":43.30416,"lon":5.41287,"is_reserved":false,"is_disabled":false,"rental_uris":{"android":"levelo://app?vid=1af5dacd-d7fc-458c-abd2-475041dc5f77","ios":"levelo://app?vid=1af5dacd-d7fc-458c-abd2-475041dc5f77"},"vehicle_type_id":"4","last_reported":1732122524,"current_range_meters":8000,"station_id":"ce4bhop2rcd13ifvqh8g","pricing_plan_id":"cebpf4jnsgd1na2vs0mg"},{"bike_id":"5d436f52-a822-4e6c-90b6-3720cb098923","system_id":"levelo_inurba_marseille","lat":43.32289,"lon":5.38271,"is_reserved":false,"is_disabled":false,"rental_uris":{"android":"levelo://app?vid=5d436f52-a822-4e6c-90b6-3720cb098923","ios":"levelo://app?vid=5d436f52-a822-4e6c-90b6-3720cb098923"},"vehicle_type_id":"4","last_reported":1732122524,"current_range_meters":32000,"station_id":"ce4bhr12rcd13ifvqhqg","pricing_plan_id":"cebpf4jnsgd1na2vs0mg"},{"bike_id":"1b758113-6a51-491b-b678-620870512093","system_id":"levelo_inurba_marseille","lat":43.33023,"lon":5.39037,"is_reserved":false,"is_disabled":false,"rental_uris":{"android":"levelo://app?vid=1b758113-6a51-491b-b678-620870512093","ios":"levelo://app?vid=1b758113-6a51-491b-b678-620870512093"},"vehicle_type_id":"4","last_reported":1732122524,"current_range_meters":14400,"station_id":"ce4bhr92rcd13ifvqhrg","pricing_plan_id":"cebpf4jnsgd1na2vs0mg"},{"bike_id":"7a03fe2c-2501-4593-945f-c4181e6082d2","system_id":"levelo_inurba_marseille","lat":43.2993,"lon":5.36526,"is_reserved":false,"is_disabled":false,"rental_uris":{"android":"levelo://app?vid=7a03fe2c-2501-4593-945f-c4181e6082d2","ios":"levelo://app?vid=7a03fe2c-2501-4593-945f-c4181e6082d2"},"vehicle_type_id":"4","last_reported":1732122524,"current_range_meters":34000,"station_id":"ce4bgm92rcd13ifvqbr0","pricing_plan_id":"cebpf4jnsgd1na2vs0mg"},{"bike_id":"530c154e-1d4e-4a70-97c0-f859dfe64043","system_id":"levelo_inurba_marseille","lat":43.30429,"lon":5.38889,"is_reserved":false,"is_disabled":false,"rental_uris":{"android":"levelo://app?vid=530c154e-1d4e-4a70-97c0-f859dfe64043","ios":"levelo://app?vid=530c154e-1d4e-4a70-97c0-f859dfe64043"},"vehicle_type_id":"4","last_reported":1732122524,"current_range_meters":6400,"station_id":"ce4bgk12rcd13ifvqbi0","pricing_plan_id":"cebpf4jnsgd1na2vs0mg"},{"bike_id":"5d65b627-3435-4723-9775-b5218e9b2a7a","system_id":"levelo_inurba_marseille","lat":43.27207,"lon":5.39195,"is_reserved":false,"is_disabled":true,"rental_uris":{"android":"levelo://app?vid=5d65b627-3435-4723-9775-b5218e9b2a7a","ios":"levelo://app?vid=5d65b627-3435-4723-9775-b5218e9b2a7a"},"vehicle_type_id":"4","last_reported":1732122524,"current_range_meters":10800,"station_id":"ce4bhhp2rcd13ifvqfm0","pricing_plan_id":"cebpf4jnsgd1na2vs0mg"},{"bike_id":"8818b0a7-c814-4461-bb43-5fd8c33bac08","system_id":"levelo_inurba_marseille","lat":43.3302,"lon":5.39033,"is_reserved":false,"is_disabled":false,"rental_uris":{"android":"levelo://app?vid=8818b0a7-c814-4461-bb43-5fd8c33bac08","ios":"levelo://app?vid=8818b0a7-c814-4461-bb43-5fd8c33bac08"},"vehicle_type_id":"4","last_reported":1732122524,"current_range_meters":30000,"station_id":"ce4bhr92rcd13ifvqhrg","pricing_plan_id":"cebpf4jnsgd1na2vs0mg"},{"bike_id":"d57b3e1c-bd5f-4a9d-9956-5ccc24c08055","system_id":"levelo_inurba_marseille","lat":43.29273,"lon":5.36846,"is_reserved":false,"is_disabled":false,"rental_uris":{"android":"levelo://app?vid=d57b3e1c-bd5f-4a9d-9956-5ccc24c08055","ios":"levelo://app?vid=d57b3e1c-bd5f-4a9d-9956-5ccc24c08055"},"vehicle_type_id":"4","last_reported":1732122524,"current_range_meters":2800,"station_id":"ce4bhbp2rcd13ifvqesg","pricing_plan_id":"cebpf4jnsgd1na2vs0mg"},{"bike_id":"1904e4d6-e1e0-456f-9800-8b0e0e7107b4","system_id":"levelo_inurba_marseille","lat":43.23153,"lon":5.4371,"is_reserved":false,"is_disabled":true,"rental_uris":{"android":"levelo://app?vid=1904e4d6-e1e0-456f-9800-8b0e0e7107b4","ios":"levelo://app?vid=1904e4d6-e1e0-456f-9800-8b0e0e7107b4"},"vehicle_type_id":"4","last_reported":1732122524,"current_range_meters":800,"station_id":"ce4bhmp2rcd13ifvqgog","pricing_plan_id":"cebpf4jnsgd1na2vs0mg"},{"bike_id":"e415812a-7024-42de-ab79-9c4ab731366b","system_id":"levelo_inurba_marseille","lat":43.28847,"lon":5.35843,"is_reserved":false,"is_disabled":false,"rental_uris":{"android":"levelo://app?vid=e415812a-7024-42de-ab79-9c4ab731366b","ios":"levelo://app?vid=e415812a-7024-42de-ab79-9c4ab731366b"},"vehicle_type_id":"4","last_reported":1732122524,"current_range_meters":8000,"station_id":"ce4bhb12rcd13ifvqem0","pricing_plan_id":"cebpf4jnsgd1na2vs0mg"},{"bike_id":"779e214f-7843-4aa0-8330-edc73a249c9c","system_id":"levelo_inurba_marseille","lat":43.32111,"lon":5.36773,"is_reserved":false,"is_disabled":false,"rental_uris":{"android":"levelo://app?vid=779e214f-7843-4aa0-8330-edc73a249c9c","ios":"levelo://app?vid=779e214f-7843-4aa0-8330-edc73a249c9c"},"vehicle_type_id":"4","last_reported":1732122524,"current_range_meters":25200,"station_id":"ce4bhrh2rcd13ifvqhug","pricing_plan_id":"cebpf4jnsgd1na2vs0mg"},{"bike_id":"1eff5ce5-2d56-4465-a12c-60db9ec2175a","system_id":"levelo_inurba_marseille","lat":43.22937,"lon":5.35378,"is_reserved":false,"is_disabled":false,"rental_uris":{"android":"levelo://app?vid=1eff5ce5-2d56-4465-a12c-60db9ec2175a","ios":"levelo://app?vid=1eff5ce5-2d56-4465-a12c-60db9ec2175a"},"vehicle_type_id":"4","last_reported":1732122524,"current_range_meters":15200,"station_id":"cpo3532slgdg3j2ikp40","pricing_plan_id":"cebpf4jnsgd1na2vs0mg"},{"bike_id":"f1126846-151c-41db-a723-1b5f4b356b87","system_id":"levelo_inurba_marseille","lat":43.32363,"lon":5.38884,"is_reserved":false,"is_disabled":true,"rental_uris":{"android":"levelo://app?vid=f1126846-151c-41db-a723-1b5f4b356b87","ios":"levelo://app?vid=f1126846-151c-41db-a723-1b5f4b356b87"},"vehicle_type_id":"4","last_reported":1732122524,"current_range_meters":12800,"station_id":"ce4bhqp2rcd13ifvqhog","pricing_plan_id":"cebpf4jnsgd1na2vs0mg"},{"bike_id":"46247a99-4c87-4967-bba2-1c8a185060b7","system_id":"levelo_inurba_marseille","lat":43.30878,"lon":5.3965,"is_reserved":false,"is_disabled":false,"rental_uris":{"android":"levelo://app?vid=46247a99-4c87-4967-bba2-1c8a185060b7","ios":"levelo://app?vid=46247a99-4c87-4967-bba2-1c8a185060b7"},"vehicle_type_id":"4","last_reported":1732122524,"current_range_meters":8800,"station_id":"ce4bh012rcd13ifvqcv0","pricing_plan_id":"cebpf4jnsgd1na2vs0mg"},{"bike_id":"954054ad-77ac-46c3-a1b5-c8fc266a522b","system_id":"levelo_inurba_marseille","lat":43.31725,"lon":5.42397,"is_reserved":false,"is_disabled":false,"rental_uris":{"android":"levelo://app?vid=954054ad-77ac-46c3-a1b5-c8fc266a522b","ios":"levelo://app?vid=954054ad-77ac-46c3-a1b5-c8fc266a522b"},"vehicle_type_id":"4","last_reported":1732122524,"current_range_meters":39200,"station_id":"ce4bhp92rcd13ifvqhbg","pricing_plan_id":"cebpf4jnsgd1na2vs0mg"},{"bike_id":"9c4a655e-2680-4a60-a844-6a2ea62fb4b1","system_id":"levelo_inurba_marseille","lat":43.26066,"lon":5.39389,"is_reserved":false,"is_disabled":false,"rental_uris":{"android":"levelo://app?vid=9c4a655e-2680-4a60-a844-6a2ea62fb4b1","ios":"levelo://app?vid=9c4a655e-2680-4a60-a844-6a2ea62fb4b1"},"vehicle_type_id":"4","last_reported":1732122524,"current_range_meters":24400,"station_id":"ce4bhh92rcd13ifvqfj0","pricing_plan_id":"cebpf4jnsgd1na2vs0mg"},{"bike_id":"b2b27ad0-252a-441b-a256-835f73d53486","system_id":"levelo_inurba_marseille","lat":43.24804,"lon":5.37454,"is_reserved":false,"is_disabled":false,"rental_uris":{"android":"levelo://app?vid=b2b27ad0-252a-441b-a256-835f73d53486","ios":"levelo://app?vid=b2b27ad0-252a-441b-a256-835f73d53486"},"vehicle_type_id":"4","last_reported":1732122524,"current_range_meters":36400,"station_id":"ce4bhgh2rcd13ifvqfb0","pricing_plan_id":"cebpf4jnsgd1na2vs0mg"},{"bike_id":"743afb3c-ce2e-4fdc-b337-d11277ea7e6a","system_id":"levelo_inurba_marseille","lat":43.28726,"lon":5.36092,"is_reserved":false,"is_disabled":false,"rental_uris":{"android":"levelo://app?vid=743afb3c-ce2e-4fdc-b337-d11277ea7e6a","ios":"levelo://app?vid=743afb3c-ce2e-4fdc-b337-d11277ea7e6a"},"vehicle_type_id":"4","last_reported":1732122524,"current_range_meters":16000,"station_id":"cki0cbj6b192h4jlfktg","pricing_plan_id":"cebpf4jnsgd1na2vs0mg"},{"bike_id":"e840fe4f-47a0-4d31-8133-7c332a3d517a","system_id":"levelo_inurba_marseille","lat":43.31078,"lon":5.42432,"is_reserved":false,"is_disabled":true,"rental_uris":{"android":"levelo://app?vid=e840fe4f-47a0-4d31-8133-7c332a3d517a","ios":"levelo://app?vid=e840fe4f-47a0-4d31-8133-7c332a3d517a"},"vehicle_type_id":"4","last_reported":1732122524,"current_range_meters":10800,"station_id":"ce4bhp92rcd13ifvqhag","pricing_plan_id":"cebpf4jnsgd1na2vs0mg"},{"bike_id":"285ae4e5-779f-42ed-a2ff-7e78942a0fb9","system_id":"levelo_inurba_marseille","lat":43.28156,"lon":5.42644,"is_reserved":false,"is_disabled":false,"rental_uris":{"android":"levelo://app?vid=285ae4e5-779f-42ed-a2ff-7e78942a0fb9","ios":"levelo://app?vid=285ae4e5-779f-42ed-a2ff-7e78942a0fb9"},"vehicle_type_id":"4","last_reported":1732122524,"current_range_meters":3600,"station_id":"ce4bhnh2rcd13ifvqgug","pricing_plan_id":"cebpf4jnsgd1na2vs0mg"},{"bike_id":"0bdfdbbb-e50b-4324-9eb7-fd982c03b288","system_id":"levelo_inurba_marseille","lat":43.28722,"lon":5.37942,"is_reserved":false,"is_disabled":false,"rental_uris":{"android":"levelo://app?vid=0bdfdbbb-e50b-4324-9eb7-fd982c03b288","ios":"levelo://app?vid=0bdfdbbb-e50b-4324-9eb7-fd982c03b288"},"vehicle_type_id":"4","last_reported":1732122524,"current_range_meters":20000,"station_id":"ce4bh9p2rcd13ifvqec0","pricing_plan_id":"cebpf4jnsgd1na2vs0mg"},{"bike_id":"d0b25063-484d-4898-a808-84974f7eed8c","system_id":"levelo_inurba_marseille","lat":43.3171,"lon":5.37747,"is_reserved":false,"is_disabled":false,"rental_uris":{"android":"levelo://app?vid=d0b25063-484d-4898-a808-84974f7eed8c","ios":"levelo://app?vid=d0b25063-484d-4898-a808-84974f7eed8c"},"vehicle_type_id":"4","last_reported":1732122524,"current_range_meters":10800,"station_id":"ce4bgth2rcd13ifvqch0","pricing_plan_id":"cebpf4jnsgd1na2vs0mg"},{"bike_id":"60603660-d34b-4a0f-ace6-4c169e01eab7","system_id":"levelo_inurba_marseille","lat":43.26503,"lon":5.39535,"is_reserved":false,"is_disabled":true,"rental_uris":{"android":"levelo://app?vid=60603660-d34b-4a0f-ace6-4c169e01eab7","ios":"levelo://app?vid=60603660-d34b-4a0f-ace6-4c169e01eab7"},"vehicle_type_id":"4","last_reported":1732122524,"current_range_meters":0,"station_id":"ce4bhi12rcd13ifvqfq0","pricing_plan_id":"cebpf4jnsgd1na2vs0mg"},{"bike_id":"6424d650-d91d-448c-bd70-d142c8c0b822","system_id":"levelo_inurba_marseille","lat":43.29551,"lon":5.42293,"is_reserved":false,"is_disabled":false,"rental_uris":{"android":"levelo://app?vid=6424d650-d91d-448c-bd70-d142c8c0b822","ios":"levelo://app?vid=6424d650-d91d-448c-bd70-d142c8c0b822"},"vehicle_type_id":"4","last_reported":1732122524,"current_range_meters":28400,"station_id":"ce4bhph2rcd13ifvqhdg","pricing_plan_id":"cebpf4jnsgd1na2vs0mg"},{"bike_id":"98b32e58-9186-4741-afff-13e77a09e04c","system_id":"levelo_inurba_marseille","lat":43.25083,"lon":5.39511,"is_reserved":false,"is_disabled":false,"rental_uris":{"android":"levelo://app?vid=98b32e58-9186-4741-afff-13e77a09e04c","ios":"levelo://app?vid=98b32e58-9186-4741-afff-13e77a09e04c"},"vehicle_type_id":"4","last_reported":1732122524,"current_range_meters":26000,"station_id":"ce4bhm12rcd13ifvqgkg","pricing_plan_id":"cebpf4jnsgd1na2vs0mg"},{"bike_id":"9b3fbf62-4f4c-46b4-9c62-9854a41b7d49","system_id":"levelo_inurba_marseille","lat":43.31712,"lon":5.37763,"is_reserved":false,"is_disabled":false,"rental_uris":{"android":"levelo://app?vid=9b3fbf62-4f4c-46b4-9c62-9854a41b7d49","ios":"levelo://app?vid=9b3fbf62-4f4c-46b4-9c62-9854a41b7d49"},"vehicle_type_id":"4","last_reported":1732122524,"current_range_meters":15200,"station_id":"ce4bgth2rcd13ifvqch0","pricing_plan_id":"cebpf4jnsgd1na2vs0mg"},{"bike_id":"7eaf5910-b4db-4259-961f-d6ce83b4b295","system_id":"levelo_inurba_marseille","lat":43.337444,"lon":5.374475,"is_reserved":false,"is_disabled":false,"rental_uris":{"android":"levelo://app?vid=7eaf5910-b4db-4259-961f-d6ce83b4b295","ios":"levelo://app?vid=7eaf5910-b4db-4259-961f-d6ce83b4b295"},"vehicle_type_id":"4","last_reported":1732122524,"current_range_meters":37600,"station_id":"","pricing_plan_id":"cebpf4jnsgd1na2vs0mg"},{"bike_id":"1f0c69a5-060c-4033-a08c-9814f7ef27e4","system_id":"levelo_inurba_marseille","lat":43.29275,"lon":5.36847,"is_reserved":false,"is_disabled":false,"rental_uris":{"android":"levelo://app?vid=1f0c69a5-060c-4033-a08c-9814f7ef27e4","ios":"levelo://app?vid=1f0c69a5-060c-4033-a08c-9814f7ef27e4"},"vehicle_type_id":"4","last_reported":1732122524,"current_range_meters":30800,"station_id":"ce4bhbp2rcd13ifvqesg","pricing_plan_id":"cebpf4jnsgd1na2vs0mg"},{"bike_id":"36664ebb-4ca8-4637-b42b-d46c14de65dd","system_id":"levelo_inurba_marseille","lat":43.30602,"lon":5.37218,"is_reserved":false,"is_disabled":false,"rental_uris":{"android":"levelo://app?vid=36664ebb-4ca8-4637-b42b-d46c14de65dd","ios":"levelo://app?vid=36664ebb-4ca8-4637-b42b-d46c14de65dd"},"vehicle_type_id":"4","last_reported":1732122524,"current_range_meters":38800,"station_id":"ce4bgqh2rcd13ifvqc4g","pricing_plan_id":"cebpf4jnsgd1na2vs0mg"},{"bike_id":"144b7443-439b-4eb3-a8bb-304f595a9422","system_id":"levelo_inurba_marseille","lat":43.27999,"lon":5.40014,"is_reserved":false,"is_disabled":false,"rental_uris":{"android":"levelo://app?vid=144b7443-439b-4eb3-a8bb-304f595a9422","ios":"levelo://app?vid=144b7443-439b-4eb3-a8bb-304f595a9422"},"vehicle_type_id":"4","last_reported":1732122524,"current_range_meters":39200,"station_id":"ce4bho92rcd13ifvqh4g","pricing_plan_id":"cebpf4jnsgd1na2vs0mg"},{"bike_id":"c760bd59-c9e7-4b02-bbb5-7bde1fb1ac25","system_id":"levelo_inurba_marseille","lat":43.29265,"lon":5.38448,"is_reserved":false,"is_disabled":false,"rental_uris":{"android":"levelo://app?vid=c760bd59-c9e7-4b02-bbb5-7bde1fb1ac25","ios":"levelo://app?vid=c760bd59-c9e7-4b02-bbb5-7bde1fb1ac25"},"vehicle_type_id":"4","last_reported":1732122524,"current_range_meters":38800,"station_id":"ce4bh692rcd13ifvqea0","pricing_plan_id":"cebpf4jnsgd1na2vs0mg"},{"bike_id":"ffe4e9fb-1745-4a7f-bf2d-14037baef2a7","system_id":"levelo_inurba_marseille","lat":43.29228,"lon":5.40885,"is_reserved":false,"is_disabled":false,"rental_uris":{"android":"levelo://app?vid=ffe4e9fb-1745-4a7f-bf2d-14037baef2a7","ios":"levelo://app?vid=ffe4e9fb-1745-4a7f-bf2d-14037baef2a7"},"vehicle_type_id":"4","last_reported":1732122524,"current_range_meters":38000,"station_id":"ce4bh192rcd13ifvqdc0","pricing_plan_id":"cebpf4jnsgd1na2vs0mg"},{"bike_id":"355652fe-5b40-4fa8-84ba-669e96205bc5","system_id":"levelo_inurba_marseille","lat":43.31998,"lon":5.38146,"is_reserved":false,"is_disabled":false,"rental_uris":{"android":"levelo://app?vid=355652fe-5b40-4fa8-84ba-669e96205bc5","ios":"levelo://app?vid=355652fe-5b40-4fa8-84ba-669e96205bc5"},"vehicle_type_id":"4","last_reported":1732122524,"current_range_meters":38800,"station_id":"ce4bhr12rcd13ifvqhpg","pricing_plan_id":"cebpf4jnsgd1na2vs0mg"},{"bike_id":"da92100c-6198-499c-bcb4-ce99352a2a85","system_id":"levelo_inurba_marseille","lat":43.24181,"lon":5.39728,"is_reserved":false,"is_disabled":true,"rental_uris":{"android":"levelo://app?vid=da92100c-6198-499c-bcb4-ce99352a2a85","ios":"levelo://app?vid=da92100c-6198-499c-bcb4-ce99352a2a85"},"vehicle_type_id":"4","last_reported":1732122524,"current_range_meters":0,"station_id":"ce4bhn12rcd13ifvqgpg","pricing_plan_id":"cebpf4jnsgd1na2vs0mg"},{"bike_id":"5b5f4604-3a82-4584-a08b-4bc79bf3d12b","system_id":"levelo_inurba_marseille","lat":43.30913,"lon":5.37167,"is_reserved":false,"is_disabled":false,"rental_uris":{"android":"levelo://app?vid=5b5f4604-3a82-4584-a08b-4bc79bf3d12b","ios":"levelo://app?vid=5b5f4604-3a82-4584-a08b-4bc79bf3d12b"},"vehicle_type_id":"4","last_reported":1732122524,"current_range_meters":13600,"station_id":"ce4bguh2rcd13ifvqckg","pricing_plan_id":"cebpf4jnsgd1na2vs0mg"},{"bike_id":"9578ee9f-beb9-42e9-a863-107df67e6c7b","system_id":"levelo_inurba_marseille","lat":43.25866,"lon":5.39896,"is_reserved":false,"is_disabled":false,"rental_uris":{"android":"levelo://app?vid=9578ee9f-beb9-42e9-a863-107df67e6c7b","ios":"levelo://app?vid=9578ee9f-beb9-42e9-a863-107df67e6c7b"},"vehicle_type_id":"4","last_reported":1732122524,"current_range_meters":20400,"station_id":"ce4bhl92rcd13ifvqghg","pricing_plan_id":"cebpf4jnsgd1na2vs0mg"},{"bike_id":"955c2a7e-a3d7-4b22-b18a-82c322f42be2","system_id":"levelo_inurba_marseille","lat":43.24802,"lon":5.37454,"is_reserved":false,"is_disabled":false,"rental_uris":{"android":"levelo://app?vid=955c2a7e-a3d7-4b22-b18a-82c322f42be2","ios":"levelo://app?vid=955c2a7e-a3d7-4b22-b18a-82c322f42be2"},"vehicle_type_id":"4","last_reported":1732122524,"current_range_meters":7200,"station_id":"ce4bhgh2rcd13ifvqfb0","pricing_plan_id":"cebpf4jnsgd1na2vs0mg"},{"bike_id":"05da2104-af20-4977-8ba0-3d720dca0f09","system_id":"levelo_inurba_marseille","lat":43.29524,"lon":5.39049,"is_reserved":false,"is_disabled":false,"rental_uris":{"android":"levelo://app?vid=05da2104-af20-4977-8ba0-3d720dca0f09","ios":"levelo://app?vid=05da2104-af20-4977-8ba0-3d720dca0f09"},"vehicle_type_id":"4","last_reported":1732122524,"current_range_meters":38400,"station_id":"ce4bh3p2rcd13ifvqdp0","pricing_plan_id":"cebpf4jnsgd1na2vs0mg"},{"bike_id":"fa903a4d-e65a-41f9-bb07-869331be61e5","system_id":"levelo_inurba_marseille","lat":43.27994,"lon":5.40016,"is_reserved":false,"is_disabled":false,"rental_uris":{"android":"levelo://app?vid=fa903a4d-e65a-41f9-bb07-869331be61e5","ios":"levelo://app?vid=fa903a4d-e65a-41f9-bb07-869331be61e5"},"vehicle_type_id":"4","last_reported":1732122524,"current_range_meters":37600,"station_id":"ce4bho92rcd13ifvqh4g","pricing_plan_id":"cebpf4jnsgd1na2vs0mg"},{"bike_id":"efaa20f7-d2fb-4778-9ca3-b17e9193d440","system_id":"levelo_inurba_marseille","lat":43.337172,"lon":5.391703,"is_reserved":false,"is_disabled":false,"rental_uris":{"android":"levelo://app?vid=efaa20f7-d2fb-4778-9ca3-b17e9193d440","ios":"levelo://app?vid=efaa20f7-d2fb-4778-9ca3-b17e9193d440"},"vehicle_type_id":"4","last_reported":1732122524,"current_range_meters":34000,"station_id":"ce4bhr92rcd13ifvqhsg","pricing_plan_id":"cebpf4jnsgd1na2vs0mg"},{"bike_id":"542d48e5-0ccd-4299-9913-9cf1a44ab16c","system_id":"levelo_inurba_marseille","lat":43.29554,"lon":5.42292,"is_reserved":false,"is_disabled":false,"rental_uris":{"android":"levelo://app?vid=542d48e5-0ccd-4299-9913-9cf1a44ab16c","ios":"levelo://app?vid=542d48e5-0ccd-4299-9913-9cf1a44ab16c"},"vehicle_type_id":"4","last_reported":1732122524,"current_range_meters":33600,"station_id":"ce4bhph2rcd13ifvqhdg","pricing_plan_id":"cebpf4jnsgd1na2vs0mg"},{"bike_id":"a0daef74-73a0-43a2-b486-0a544dda7f8b","system_id":"levelo_inurba_marseille","lat":43.26125,"lon":5.37516,"is_reserved":false,"is_disabled":true,"rental_uris":{"android":"levelo://app?vid=a0daef74-73a0-43a2-b486-0a544dda7f8b","ios":"levelo://app?vid=a0daef74-73a0-43a2-b486-0a544dda7f8b"},"vehicle_type_id":"4","last_reported":1732122524,"current_range_meters":1200,"station_id":"ce4bhgh2rcd13ifvqfb0","pricing_plan_id":"cebpf4jnsgd1na2vs0mg"},{"bike_id":"cbb19e09-aa20-4763-8e71-dc123172ec07","system_id":"levelo_inurba_marseille","lat":43.23152,"lon":5.4371,"is_reserved":false,"is_disabled":false,"rental_uris":{"android":"levelo://app?vid=cbb19e09-aa20-4763-8e71-dc123172ec07","ios":"levelo://app?vid=cbb19e09-aa20-4763-8e71-dc123172ec07"},"vehicle_type_id":"4","last_reported":1732122524,"current_range_meters":40000,"station_id":"ce4bhmp2rcd13ifvqgog","pricing_plan_id":"cebpf4jnsgd1na2vs0mg"},{"bike_id":"7a560e3c-e5a2-4699-b46a-d3263809167c","system_id":"levelo_inurba_marseille","lat":43.29571,"lon":5.39981,"is_reserved":false,"is_disabled":false,"rental_uris":{"android":"levelo://app?vid=7a560e3c-e5a2-4699-b46a-d3263809167c","ios":"levelo://app?vid=7a560e3c-e5a2-4699-b46a-d3263809167c"},"vehicle_type_id":"4","last_reported":1732122524,"current_range_meters":38400,"station_id":"ce4bh312rcd13ifvqdj0","pricing_plan_id":"cebpf4jnsgd1na2vs0mg"},{"bike_id":"028e5427-36e2-49e1-b3db-260058fffb58","system_id":"levelo_inurba_marseille","lat":43.25572,"lon":5.38238,"is_reserved":false,"is_disabled":false,"rental_uris":{"android":"levelo://app?vid=028e5427-36e2-49e1-b3db-260058fffb58","ios":"levelo://app?vid=028e5427-36e2-49e1-b3db-260058fffb58"},"vehicle_type_id":"4","last_reported":1732122524,"current_range_meters":27200,"station_id":"ce4bhih2rcd13ifvqfs0","pricing_plan_id":"cebpf4jnsgd1na2vs0mg"},{"bike_id":"91f0893f-6c9c-447a-87d6-53127af86d60","system_id":"levelo_inurba_marseille","lat":43.25093,"lon":5.39521,"is_reserved":false,"is_disabled":false,"rental_uris":{"android":"levelo://app?vid=91f0893f-6c9c-447a-87d6-53127af86d60","ios":"levelo://app?vid=91f0893f-6c9c-447a-87d6-53127af86d60"},"vehicle_type_id":"4","last_reported":1732122524,"current_range_meters":20400,"station_id":"ce4bhm12rcd13ifvqgkg","pricing_plan_id":"cebpf4jnsgd1na2vs0mg"},{"bike_id":"767c16c0-e3f9-471d-920a-c3faaf36934a","system_id":"levelo_inurba_marseille","lat":43.28727,"lon":5.3608,"is_reserved":false,"is_disabled":true,"rental_uris":{"android":"levelo://app?vid=767c16c0-e3f9-471d-920a-c3faaf36934a","ios":"levelo://app?vid=767c16c0-e3f9-471d-920a-c3faaf36934a"},"vehicle_type_id":"4","last_reported":1732122524,"current_range_meters":0,"station_id":"cki0cbj6b192h4jlfktg","pricing_plan_id":"cebpf4jnsgd1na2vs0mg"},{"bike_id":"25505d9f-fe34-436e-81c8-fdd691f6194f","system_id":"levelo_inurba_marseille","lat":43.29028,"lon":5.38652,"is_reserved":false,"is_disabled":false,"rental_uris":{"android":"levelo://app?vid=25505d9f-fe34-436e-81c8-fdd691f6194f","ios":"levelo://app?vid=25505d9f-fe34-436e-81c8-fdd691f6194f"},"vehicle_type_id":"4","last_reported":1732122524,"current_range_meters":16000,"station_id":"ce4bh4p2rcd13ifvqe0g","pricing_plan_id":"cebpf4jnsgd1na2vs0mg"},{"bike_id":"5d7a7e55-32fa-448b-b70d-0afab6f69b51","system_id":"levelo_inurba_marseille","lat":43.283616,"lon":5.386372,"is_reserved":false,"is_disabled":false,"rental_uris":{"android":"levelo://app?vid=5d7a7e55-32fa-448b-b70d-0afab6f69b51","ios":"levelo://app?vid=5d7a7e55-32fa-448b-b70d-0afab6f69b51"},"vehicle_type_id":"4","last_reported":1732122524,"current_range_meters":16800,"station_id":"ce4bh2p2rcd13ifvqdi0","pricing_plan_id":"cebpf4jnsgd1na2vs0mg"},{"bike_id":"41b66025-5082-421d-922c-552de41f1f1b","system_id":"levelo_inurba_marseille","lat":43.33795,"lon":5.37474,"is_reserved":false,"is_disabled":false,"rental_uris":{"android":"levelo://app?vid=41b66025-5082-421d-922c-552de41f1f1b","ios":"levelo://app?vid=41b66025-5082-421d-922c-552de41f1f1b"},"vehicle_type_id":"4","last_reported":1732122524,"current_range_meters":35600,"station_id":"","pricing_plan_id":"cebpf4jnsgd1na2vs0mg"},{"bike_id":"009ac959-e326-4fa0-a654-75e82873a609","system_id":"levelo_inurba_marseille","lat":43.31755,"lon":5.39018,"is_reserved":false,"is_disabled":false,"rental_uris":{"android":"levelo://app?vid=009ac959-e326-4fa0-a654-75e82873a609","ios":"levelo://app?vid=009ac959-e326-4fa0-a654-75e82873a609"},"vehicle_type_id":"4","last_reported":1732122524,"current_range_meters":39200,"station_id":"ce4bhqp2rcd13ifvqhng","pricing_plan_id":"cebpf4jnsgd1na2vs0mg"},{"bike_id":"7577f7b0-3986-4964-af34-9253d0a52f4b","system_id":"levelo_inurba_marseille","lat":43.30353,"lon":5.41888,"is_reserved":false,"is_disabled":true,"rental_uris":{"android":"levelo://app?vid=7577f7b0-3986-4964-af34-9253d0a52f4b","ios":"levelo://app?vid=7577f7b0-3986-4964-af34-9253d0a52f4b"},"vehicle_type_id":"4","last_reported":1732122524,"current_range_meters":0,"station_id":"ce4bhop2rcd13ifvqh7g","pricing_plan_id":"cebpf4jnsgd1na2vs0mg"},{"bike_id":"9eac26c8-7f9c-4c64-880c-cdc50f9dba28","system_id":"levelo_inurba_marseille","lat":43.29413,"lon":5.39763,"is_reserved":false,"is_disabled":false,"rental_uris":{"android":"levelo://app?vid=9eac26c8-7f9c-4c64-880c-cdc50f9dba28","ios":"levelo://app?vid=9eac26c8-7f9c-4c64-880c-cdc50f9dba28"},"vehicle_type_id":"4","last_reported":1732122524,"current_range_meters":14000,"station_id":"ce4bh3h2rcd13ifvqdo0","pricing_plan_id":"cebpf4jnsgd1na2vs0mg"},{"bike_id":"b6a5dd45-3299-4794-bb3d-6c5c2b5a78a1","system_id":"levelo_inurba_marseille","lat":43.33023,"lon":5.39041,"is_reserved":false,"is_disabled":false,"rental_uris":{"android":"levelo://app?vid=b6a5dd45-3299-4794-bb3d-6c5c2b5a78a1","ios":"levelo://app?vid=b6a5dd45-3299-4794-bb3d-6c5c2b5a78a1"},"vehicle_type_id":"4","last_reported":1732122524,"current_range_meters":40000,"station_id":"ce4bhr92rcd13ifvqhrg","pricing_plan_id":"cebpf4jnsgd1na2vs0mg"},{"bike_id":"db1d1edd-8dfa-4d7a-937b-795d1182274e","system_id":"levelo_inurba_marseille","lat":43.29203,"lon":5.39322,"is_reserved":false,"is_disabled":false,"rental_uris":{"android":"levelo://app?vid=db1d1edd-8dfa-4d7a-937b-795d1182274e","ios":"levelo://app?vid=db1d1edd-8dfa-4d7a-937b-795d1182274e"},"vehicle_type_id":"4","last_reported":1732122524,"current_range_meters":34800,"station_id":"ce4bh192rcd13ifvqdd0","pricing_plan_id":"cebpf4jnsgd1na2vs0mg"},{"bike_id":"07809f3f-bd95-4c1e-90f5-a5456dec6aaa","system_id":"levelo_inurba_marseille","lat":43.3064,"lon":5.40086,"is_reserved":false,"is_disabled":false,"rental_uris":{"android":"levelo://app?vid=07809f3f-bd95-4c1e-90f5-a5456dec6aaa","ios":"levelo://app?vid=07809f3f-bd95-4c1e-90f5-a5456dec6aaa"},"vehicle_type_id":"4","last_reported":1732122524,"current_range_meters":30000,"station_id":"ce4bh112rcd13ifvqda0","pricing_plan_id":"cebpf4jnsgd1na2vs0mg"},{"bike_id":"0b067f3c-e55c-4de2-897c-3d262d3f1f7e","system_id":"levelo_inurba_marseille","lat":43.3133,"lon":5.39695,"is_reserved":false,"is_disabled":false,"rental_uris":{"android":"levelo://app?vid=0b067f3c-e55c-4de2-897c-3d262d3f1f7e","ios":"levelo://app?vid=0b067f3c-e55c-4de2-897c-3d262d3f1f7e"},"vehicle_type_id":"4","last_reported":1732122524,"current_range_meters":38000,"station_id":"ce4bgvp2rcd13ifvqcu0","pricing_plan_id":"cebpf4jnsgd1na2vs0mg"},{"bike_id":"e5951ee3-4a5a-4ebb-b469-096c5188dfa3","system_id":"levelo_inurba_marseille","lat":43.23191,"lon":5.35558,"is_reserved":false,"is_disabled":true,"rental_uris":{"android":"levelo://app?vid=e5951ee3-4a5a-4ebb-b469-096c5188dfa3","ios":"levelo://app?vid=e5951ee3-4a5a-4ebb-b469-096c5188dfa3"},"vehicle_type_id":"4","last_reported":1732122524,"current_range_meters":0,"station_id":"ce4bhu92rcd13ifvqi70","pricing_plan_id":"cebpf4jnsgd1na2vs0mg"},{"bike_id":"b2f6b9cf-69db-40ab-8230-689c41a2c16c","system_id":"levelo_inurba_marseille","lat":43.24166,"lon":5.36393,"is_reserved":false,"is_disabled":false,"rental_uris":{"android":"levelo://app?vid=b2f6b9cf-69db-40ab-8230-689c41a2c16c","ios":"levelo://app?vid=b2f6b9cf-69db-40ab-8230-689c41a2c16c"},"vehicle_type_id":"4","last_reported":1732122524,"current_range_meters":37600,"station_id":"cpo36qri1sfpv3e86is0","pricing_plan_id":"cebpf4jnsgd1na2vs0mg"},{"bike_id":"5088d695-0e9f-4773-b57e-f02f32e7ed76","system_id":"levelo_inurba_marseille","lat":43.33026,"lon":5.39043,"is_reserved":false,"is_disabled":false,"rental_uris":{"android":"levelo://app?vid=5088d695-0e9f-4773-b57e-f02f32e7ed76","ios":"levelo://app?vid=5088d695-0e9f-4773-b57e-f02f32e7ed76"},"vehicle_type_id":"4","last_reported":1732122524,"current_range_meters":11600,"station_id":"ce4bhr92rcd13ifvqhrg","pricing_plan_id":"cebpf4jnsgd1na2vs0mg"},{"bike_id":"9c1892be-248b-4e9f-850a-c27ea9582b3b","system_id":"levelo_inurba_marseille","lat":43.26553,"lon":5.37288,"is_reserved":false,"is_disabled":false,"rental_uris":{"android":"levelo://app?vid=9c1892be-248b-4e9f-850a-c27ea9582b3b","ios":"levelo://app?vid=9c1892be-248b-4e9f-850a-c27ea9582b3b"},"vehicle_type_id":"4","last_reported":1732122524,"current_range_meters":36000,"station_id":"ce4bhg12rcd13ifvqf70","pricing_plan_id":"cebpf4jnsgd1na2vs0mg"},{"bike_id":"9c2f2764-6c98-4600-8b7b-4a479e36ad6f","system_id":"levelo_inurba_marseille","lat":43.28656,"lon":5.36355,"is_reserved":false,"is_disabled":false,"rental_uris":{"android":"levelo://app?vid=9c2f2764-6c98-4600-8b7b-4a479e36ad6f","ios":"levelo://app?vid=9c2f2764-6c98-4600-8b7b-4a479e36ad6f"},"vehicle_type_id":"4","last_reported":1732122524,"current_range_meters":40000,"station_id":"ce4bhah2rcd13ifvqej0","pricing_plan_id":"cebpf4jnsgd1na2vs0mg"},{"bike_id":"2fdc2020-285e-4a6a-a71d-c29abfc6593b","system_id":"levelo_inurba_marseille","lat":43.29574,"lon":5.37512,"is_reserved":false,"is_disabled":true,"rental_uris":{"android":"levelo://app?vid=2fdc2020-285e-4a6a-a71d-c29abfc6593b","ios":"levelo://app?vid=2fdc2020-285e-4a6a-a71d-c29abfc6593b"},"vehicle_type_id":"4","last_reported":1732122524,"current_range_meters":10000,"station_id":"ce4bgh92rcd13ifvqb50","pricing_plan_id":"cebpf4jnsgd1na2vs0mg"},{"bike_id":"cce3c01b-5efd-464e-a383-7ff6f6faa608","system_id":"levelo_inurba_marseille","lat":43.31083,"lon":5.42431,"is_reserved":false,"is_disabled":false,"rental_uris":{"android":"levelo://app?vid=cce3c01b-5efd-464e-a383-7ff6f6faa608","ios":"levelo://app?vid=cce3c01b-5efd-464e-a383-7ff6f6faa608"},"vehicle_type_id":"4","last_reported":1732122524,"current_range_meters":38800,"station_id":"ce4bhp92rcd13ifvqhag","pricing_plan_id":"cebpf4jnsgd1na2vs0mg"},{"bike_id":"036145f2-25f3-431d-8452-bf74254a5141","system_id":"levelo_inurba_marseille","lat":43.31759,"lon":5.39013,"is_reserved":false,"is_disabled":false,"rental_uris":{"android":"levelo://app?vid=036145f2-25f3-431d-8452-bf74254a5141","ios":"levelo://app?vid=036145f2-25f3-431d-8452-bf74254a5141"},"vehicle_type_id":"4","last_reported":1732122524,"current_range_meters":39200,"station_id":"ce4bhqp2rcd13ifvqhng","pricing_plan_id":"cebpf4jnsgd1na2vs0mg"},{"bike_id":"9616b26f-f1fc-442b-b02b-64cc98b7fd11","system_id":"levelo_inurba_marseille","lat":43.26786,"lon":5.39417,"is_reserved":false,"is_disabled":false,"rental_uris":{"android":"levelo://app?vid=9616b26f-f1fc-442b-b02b-64cc98b7fd11","ios":"levelo://app?vid=9616b26f-f1fc-442b-b02b-64cc98b7fd11"},"vehicle_type_id":"4","last_reported":1732122524,"current_range_meters":10800,"station_id":"ce4bhh12rcd13ifvqfg0","pricing_plan_id":"cebpf4jnsgd1na2vs0mg"},{"bike_id":"773422f8-bebc-4caf-b2e8-559f796cc856","system_id":"levelo_inurba_marseille","lat":43.29621,"lon":5.37156,"is_reserved":false,"is_disabled":false,"rental_uris":{"android":"levelo://app?vid=773422f8-bebc-4caf-b2e8-559f796cc856","ios":"levelo://app?vid=773422f8-bebc-4caf-b2e8-559f796cc856"},"vehicle_type_id":"4","last_reported":1732122524,"current_range_meters":7200,"station_id":"ce4bgnh2rcd13ifvqc0g","pricing_plan_id":"cebpf4jnsgd1na2vs0mg"},{"bike_id":"53a9dc86-eeb4-40f9-b170-b8108cd18322","system_id":"levelo_inurba_marseille","lat":43.29529,"lon":5.38543,"is_reserved":false,"is_disabled":false,"rental_uris":{"android":"levelo://app?vid=53a9dc86-eeb4-40f9-b170-b8108cd18322","ios":"levelo://app?vid=53a9dc86-eeb4-40f9-b170-b8108cd18322"},"vehicle_type_id":"4","last_reported":1732122524,"current_range_meters":26000,"station_id":"ce4bgih2rcd13ifvqba0","pricing_plan_id":"cebpf4jnsgd1na2vs0mg"},{"bike_id":"4685a58e-5086-455f-bb83-95e644c7a2cf","system_id":"levelo_inurba_marseille","lat":43.30439,"lon":5.38891,"is_reserved":false,"is_disabled":false,"rental_uris":{"android":"levelo://app?vid=4685a58e-5086-455f-bb83-95e644c7a2cf","ios":"levelo://app?vid=4685a58e-5086-455f-bb83-95e644c7a2cf"},"vehicle_type_id":"4","last_reported":1732122524,"current_range_meters":34000,"station_id":"ce4bgk12rcd13ifvqbi0","pricing_plan_id":"cebpf4jnsgd1na2vs0mg"},{"bike_id":"4674a573-a71e-41c0-a925-5c021c5e6c25","system_id":"levelo_inurba_marseille","lat":43.29427,"lon":5.37463,"is_reserved":false,"is_disabled":true,"rental_uris":{"android":"levelo://app?vid=4674a573-a71e-41c0-a925-5c021c5e6c25","ios":"levelo://app?vid=4674a573-a71e-41c0-a925-5c021c5e6c25"},"vehicle_type_id":"4","last_reported":1732122524,"current_range_meters":0,"station_id":"","pricing_plan_id":"cebpf4jnsgd1na2vs0mg"},{"bike_id":"1f6184e6-16e9-423d-b3e0-a3aa386ef26b","system_id":"levelo_inurba_marseille","lat":43.33023,"lon":5.39036,"is_reserved":false,"is_disabled":false,"rental_uris":{"android":"levelo://app?vid=1f6184e6-16e9-423d-b3e0-a3aa386ef26b","ios":"levelo://app?vid=1f6184e6-16e9-423d-b3e0-a3aa386ef26b"},"vehicle_type_id":"4","last_reported":1732122524,"current_range_meters":36000,"station_id":"ce4bhr92rcd13ifvqhrg","pricing_plan_id":"cebpf4jnsgd1na2vs0mg"},{"bike_id":"3cd84749-4c1a-4b50-aa18-9d8d08a2f930","system_id":"levelo_inurba_marseille","lat":43.27374,"lon":5.36259,"is_reserved":false,"is_disabled":true,"rental_uris":{"android":"levelo://app?vid=3cd84749-4c1a-4b50-aa18-9d8d08a2f930","ios":"levelo://app?vid=3cd84749-4c1a-4b50-aa18-9d8d08a2f930"},"vehicle_type_id":"4","last_reported":1732122524,"current_range_meters":0,"station_id":"ce4bhbh2rcd13ifvqeo0","pricing_plan_id":"cebpf4jnsgd1na2vs0mg"},{"bike_id":"cde5eb04-35f5-4971-aec4-8004f9b2dcd9","system_id":"levelo_inurba_marseille","lat":43.28273,"lon":5.3507,"is_reserved":false,"is_disabled":true,"rental_uris":{"android":"levelo://app?vid=cde5eb04-35f5-4971-aec4-8004f9b2dcd9","ios":"levelo://app?vid=cde5eb04-35f5-4971-aec4-8004f9b2dcd9"},"vehicle_type_id":"4","last_reported":1732122524,"current_range_meters":0,"station_id":"ce4bhbp2rcd13ifvqerg","pricing_plan_id":"cebpf4jnsgd1na2vs0mg"},{"bike_id":"a74c7588-aa69-4ec0-ad68-1b2e3ad53630","system_id":"levelo_inurba_marseille","lat":43.28106,"lon":5.37841,"is_reserved":false,"is_disabled":false,"rental_uris":{"android":"levelo://app?vid=a74c7588-aa69-4ec0-ad68-1b2e3ad53630","ios":"levelo://app?vid=a74c7588-aa69-4ec0-ad68-1b2e3ad53630"},"vehicle_type_id":"4","last_reported":1732122524,"current_range_meters":30400,"station_id":"ce4bha12rcd13ifvqee0","pricing_plan_id":"cebpf4jnsgd1na2vs0mg"},{"bike_id":"af742731-7026-4f13-87bb-4c4f77211439","system_id":"levelo_inurba_marseille","lat":43.28717,"lon":5.36095,"is_reserved":false,"is_disabled":false,"rental_uris":{"android":"levelo://app?vid=af742731-7026-4f13-87bb-4c4f77211439","ios":"levelo://app?vid=af742731-7026-4f13-87bb-4c4f77211439"},"vehicle_type_id":"4","last_reported":1732122524,"current_range_meters":27600,"station_id":"cki0cbj6b192h4jlfktg","pricing_plan_id":"cebpf4jnsgd1na2vs0mg"},{"bike_id":"e4a63538-6805-482c-9a07-d98638b69e78","system_id":"levelo_inurba_marseille","lat":43.30647,"lon":5.40082,"is_reserved":false,"is_disabled":true,"rental_uris":{"android":"levelo://app?vid=e4a63538-6805-482c-9a07-d98638b69e78","ios":"levelo://app?vid=e4a63538-6805-482c-9a07-d98638b69e78"},"vehicle_type_id":"4","last_reported":1732122524,"current_range_meters":2800,"station_id":"ce4bh112rcd13ifvqda0","pricing_plan_id":"cebpf4jnsgd1na2vs0mg"},{"bike_id":"d5750002-dd6e-46f2-9ac2-e4dd11ae2297","system_id":"levelo_inurba_marseille","lat":43.2994,"lon":5.36544,"is_reserved":false,"is_disabled":false,"rental_uris":{"android":"levelo://app?vid=d5750002-dd6e-46f2-9ac2-e4dd11ae2297","ios":"levelo://app?vid=d5750002-dd6e-46f2-9ac2-e4dd11ae2297"},"vehicle_type_id":"4","last_reported":1732122524,"current_range_meters":38800,"station_id":"ce4bgm92rcd13ifvqbr0","pricing_plan_id":"cebpf4jnsgd1na2vs0mg"},{"bike_id":"bbf8487a-d295-4dc7-9627-c9fc18da9faa","system_id":"levelo_inurba_marseille","lat":43.32333,"lon":5.40618,"is_reserved":false,"is_disabled":false,"rental_uris":{"android":"levelo://app?vid=bbf8487a-d295-4dc7-9627-c9fc18da9faa","ios":"levelo://app?vid=bbf8487a-d295-4dc7-9627-c9fc18da9faa"},"vehicle_type_id":"4","last_reported":1732122524,"current_range_meters":25600,"station_id":"ce4bhq92rcd13ifvqhjg","pricing_plan_id":"cebpf4jnsgd1na2vs0mg"},{"bike_id":"89429ed2-f839-4749-bcb9-3e5230fe3bfb","system_id":"levelo_inurba_marseille","lat":43.33721,"lon":5.39179,"is_reserved":false,"is_disabled":false,"rental_uris":{"android":"levelo://app?vid=89429ed2-f839-4749-bcb9-3e5230fe3bfb","ios":"levelo://app?vid=89429ed2-f839-4749-bcb9-3e5230fe3bfb"},"vehicle_type_id":"4","last_reported":1732122524,"current_range_meters":33200,"station_id":"ce4bhr92rcd13ifvqhsg","pricing_plan_id":"cebpf4jnsgd1na2vs0mg"},{"bike_id":"4d7daa92-098a-4d38-b26f-4629da77392e","system_id":"levelo_inurba_marseille","lat":43.30886,"lon":5.39647,"is_reserved":false,"is_disabled":false,"rental_uris":{"android":"levelo://app?vid=4d7daa92-098a-4d38-b26f-4629da77392e","ios":"levelo://app?vid=4d7daa92-098a-4d38-b26f-4629da77392e"},"vehicle_type_id":"4","last_reported":1732122524,"current_range_meters":40000,"station_id":"ce4bh012rcd13ifvqcv0","pricing_plan_id":"cebpf4jnsgd1na2vs0mg"},{"bike_id":"36ec56f6-ba30-4e3a-bd9c-6db5307b2964","system_id":"levelo_inurba_marseille","lat":43.29527,"lon":5.38551,"is_reserved":false,"is_disabled":false,"rental_uris":{"android":"levelo://app?vid=36ec56f6-ba30-4e3a-bd9c-6db5307b2964","ios":"levelo://app?vid=36ec56f6-ba30-4e3a-bd9c-6db5307b2964"},"vehicle_type_id":"4","last_reported":1732122524,"current_range_meters":23200,"station_id":"ce4bgih2rcd13ifvqba0","pricing_plan_id":"cebpf4jnsgd1na2vs0mg"},{"bike_id":"09069445-3630-4783-a223-c9fd063d7c96","system_id":"levelo_inurba_marseille","lat":43.337444,"lon":5.374475,"is_reserved":false,"is_disabled":false,"rental_uris":{"android":"levelo://app?vid=09069445-3630-4783-a223-c9fd063d7c96","ios":"levelo://app?vid=09069445-3630-4783-a223-c9fd063d7c96"},"vehicle_type_id":"4","last_reported":1732122524,"current_range_meters":37600,"station_id":"","pricing_plan_id":"cebpf4jnsgd1na2vs0mg"},{"bike_id":"219b35e0-27a5-43a6-99fe-52bbe8904813","system_id":"levelo_inurba_marseille","lat":43.28365,"lon":5.44383,"is_reserved":false,"is_disabled":false,"rental_uris":{"android":"levelo://app?vid=219b35e0-27a5-43a6-99fe-52bbe8904813","ios":"levelo://app?vid=219b35e0-27a5-43a6-99fe-52bbe8904813"},"vehicle_type_id":"4","last_reported":1732122524,"current_range_meters":17600,"station_id":"","pricing_plan_id":"cebpf4jnsgd1na2vs0mg"},{"bike_id":"915aa87d-390b-4864-a535-b2d3eb5fce62","system_id":"levelo_inurba_marseille","lat":43.32657,"lon":5.40997,"is_reserved":false,"is_disabled":false,"rental_uris":{"android":"levelo://app?vid=915aa87d-390b-4864-a535-b2d3eb5fce62","ios":"levelo://app?vid=915aa87d-390b-4864-a535-b2d3eb5fce62"},"vehicle_type_id":"4","last_reported":1732122524,"current_range_meters":38400,"station_id":"ce4bhpp2rcd13ifvqhgg","pricing_plan_id":"cebpf4jnsgd1na2vs0mg"},{"bike_id":"a288582f-e609-4b1f-9e1f-4b407176785e","system_id":"levelo_inurba_marseille","lat":43.29915,"lon":5.37459,"is_reserved":false,"is_disabled":true,"rental_uris":{"android":"levelo://app?vid=a288582f-e609-4b1f-9e1f-4b407176785e","ios":"levelo://app?vid=a288582f-e609-4b1f-9e1f-4b407176785e"},"vehicle_type_id":"4","last_reported":1732122524,"current_range_meters":0,"station_id":"ce4bgjh2rcd13ifvqbg0","pricing_plan_id":"cebpf4jnsgd1na2vs0mg"},{"bike_id":"79d8c574-9062-423c-8a03-76b3dbc58333","system_id":"levelo_inurba_marseille","lat":43.27829,"lon":5.39206,"is_reserved":false,"is_disabled":true,"rental_uris":{"android":"levelo://app?vid=79d8c574-9062-423c-8a03-76b3dbc58333","ios":"levelo://app?vid=79d8c574-9062-423c-8a03-76b3dbc58333"},"vehicle_type_id":"4","last_reported":1732122524,"current_range_meters":0,"station_id":"ce4bhjp2rcd13ifvqga0","pricing_plan_id":"cebpf4jnsgd1na2vs0mg"},{"bike_id":"7770b1cc-2a54-4d08-8255-6bed2fc397aa","system_id":"levelo_inurba_marseille","lat":43.23195,"lon":5.35549,"is_reserved":false,"is_disabled":false,"rental_uris":{"android":"levelo://app?vid=7770b1cc-2a54-4d08-8255-6bed2fc397aa","ios":"levelo://app?vid=7770b1cc-2a54-4d08-8255-6bed2fc397aa"},"vehicle_type_id":"4","last_reported":1732122524,"current_range_meters":24400,"station_id":"ce4bhu92rcd13ifvqi70","pricing_plan_id":"cebpf4jnsgd1na2vs0mg"},{"bike_id":"d3803c13-668e-4ae2-8e50-f3664312baef","system_id":"levelo_inurba_marseille","lat":43.24812,"lon":5.3746,"is_reserved":false,"is_disabled":false,"rental_uris":{"android":"levelo://app?vid=d3803c13-668e-4ae2-8e50-f3664312baef","ios":"levelo://app?vid=d3803c13-668e-4ae2-8e50-f3664312baef"},"vehicle_type_id":"4","last_reported":1732122524,"current_range_meters":23200,"station_id":"ce4bhgh2rcd13ifvqfb0","pricing_plan_id":"cebpf4jnsgd1na2vs0mg"},{"bike_id":"ae09a5b5-e00a-48d1-abe3-f88e4ac103a9","system_id":"levelo_inurba_marseille","lat":43.28426,"lon":5.34991,"is_reserved":false,"is_disabled":false,"rental_uris":{"android":"levelo://app?vid=ae09a5b5-e00a-48d1-abe3-f88e4ac103a9","ios":"levelo://app?vid=ae09a5b5-e00a-48d1-abe3-f88e4ac103a9"},"vehicle_type_id":"4","last_reported":1732122524,"current_range_meters":38000,"station_id":"ce4bhbh2rcd13ifvqepg","pricing_plan_id":"cebpf4jnsgd1na2vs0mg"},{"bike_id":"15d77772-a703-448f-ae19-f04e445b29e0","system_id":"levelo_inurba_marseille","lat":43.31331,"lon":5.39694,"is_reserved":false,"is_disabled":false,"rental_uris":{"android":"levelo://app?vid=15d77772-a703-448f-ae19-f04e445b29e0","ios":"levelo://app?vid=15d77772-a703-448f-ae19-f04e445b29e0"},"vehicle_type_id":"4","last_reported":1732122524,"current_range_meters":6800,"station_id":"ce4bgvp2rcd13ifvqcu0","pricing_plan_id":"cebpf4jnsgd1na2vs0mg"},{"bike_id":"75afbc83-41fa-4972-a251-8f7abf3d0a52","system_id":"levelo_inurba_marseille","lat":43.29266,"lon":5.38448,"is_reserved":false,"is_disabled":false,"rental_uris":{"android":"levelo://app?vid=75afbc83-41fa-4972-a251-8f7abf3d0a52","ios":"levelo://app?vid=75afbc83-41fa-4972-a251-8f7abf3d0a52"},"vehicle_type_id":"4","last_reported":1732122524,"current_range_meters":35200,"station_id":"ce4bh692rcd13ifvqea0","pricing_plan_id":"cebpf4jnsgd1na2vs0mg"},{"bike_id":"3d25d818-80cf-415a-996a-afc2d01ce97b","system_id":"levelo_inurba_marseille","lat":43.27789,"lon":5.40728,"is_reserved":false,"is_disabled":false,"rental_uris":{"android":"levelo://app?vid=3d25d818-80cf-415a-996a-afc2d01ce97b","ios":"levelo://app?vid=3d25d818-80cf-415a-996a-afc2d01ce97b"},"vehicle_type_id":"4","last_reported":1732122524,"current_range_meters":9200,"station_id":"ce4bhnh2rcd13ifvqgtg","pricing_plan_id":"cebpf4jnsgd1na2vs0mg"},{"bike_id":"d15a0486-510d-421c-8c10-672b1158b421","system_id":"levelo_inurba_marseille","lat":43.30643,"lon":5.4008,"is_reserved":false,"is_disabled":false,"rental_uris":{"android":"levelo://app?vid=d15a0486-510d-421c-8c10-672b1158b421","ios":"levelo://app?vid=d15a0486-510d-421c-8c10-672b1158b421"},"vehicle_type_id":"4","last_reported":1732122524,"current_range_meters":23200,"station_id":"ce4bh112rcd13ifvqda0","pricing_plan_id":"cebpf4jnsgd1na2vs0mg"},{"bike_id":"5752b272-e1a5-462b-9ea7-aac7fb51bbe5","system_id":"levelo_inurba_marseille","lat":43.28155,"lon":5.42648,"is_reserved":false,"is_disabled":false,"rental_uris":{"android":"levelo://app?vid=5752b272-e1a5-462b-9ea7-aac7fb51bbe5","ios":"levelo://app?vid=5752b272-e1a5-462b-9ea7-aac7fb51bbe5"},"vehicle_type_id":"4","last_reported":1732122524,"current_range_meters":25200,"station_id":"ce4bhnh2rcd13ifvqgug","pricing_plan_id":"cebpf4jnsgd1na2vs0mg"},{"bike_id":"f0b6f83f-6fe9-43b3-9276-a6de541a3598","system_id":"levelo_inurba_marseille","lat":43.32109,"lon":5.36772,"is_reserved":false,"is_disabled":false,"rental_uris":{"android":"levelo://app?vid=f0b6f83f-6fe9-43b3-9276-a6de541a3598","ios":"levelo://app?vid=f0b6f83f-6fe9-43b3-9276-a6de541a3598"},"vehicle_type_id":"4","last_reported":1732122524,"current_range_meters":37600,"station_id":"ce4bhrh2rcd13ifvqhug","pricing_plan_id":"cebpf4jnsgd1na2vs0mg"},{"bike_id":"b579d5c0-df5e-4f35-a1c6-84ea6b930c43","system_id":"levelo_inurba_marseille","lat":43.27814,"lon":5.40713,"is_reserved":false,"is_disabled":false,"rental_uris":{"android":"levelo://app?vid=b579d5c0-df5e-4f35-a1c6-84ea6b930c43","ios":"levelo://app?vid=b579d5c0-df5e-4f35-a1c6-84ea6b930c43"},"vehicle_type_id":"4","last_reported":1732122524,"current_range_meters":5600,"station_id":"ce4bhnh2rcd13ifvqgtg","pricing_plan_id":"cebpf4jnsgd1na2vs0mg"},{"bike_id":"3d02e5ae-0919-4552-8385-35fe4492e1a8","system_id":"levelo_inurba_marseille","lat":43.28656,"lon":5.36366,"is_reserved":false,"is_disabled":false,"rental_uris":{"android":"levelo://app?vid=3d02e5ae-0919-4552-8385-35fe4492e1a8","ios":"levelo://app?vid=3d02e5ae-0919-4552-8385-35fe4492e1a8"},"vehicle_type_id":"4","last_reported":1732122524,"current_range_meters":14400,"station_id":"ce4bhah2rcd13ifvqej0","pricing_plan_id":"cebpf4jnsgd1na2vs0mg"},{"bike_id":"ac60df4b-3d61-4462-ab2d-7d00ce671f4f","system_id":"levelo_inurba_marseille","lat":43.29602,"lon":5.381,"is_reserved":false,"is_disabled":false,"rental_uris":{"android":"levelo://app?vid=ac60df4b-3d61-4462-ab2d-7d00ce671f4f","ios":"levelo://app?vid=ac60df4b-3d61-4462-ab2d-7d00ce671f4f"},"vehicle_type_id":"4","last_reported":1732122524,"current_range_meters":32000,"station_id":"ce4bgl12rcd13ifvqbo0","pricing_plan_id":"cebpf4jnsgd1na2vs0mg"},{"bike_id":"e961ea26-f109-4a92-a884-fbeecd5e33af","system_id":"levelo_inurba_marseille","lat":43.30327,"lon":5.40329,"is_reserved":false,"is_disabled":false,"rental_uris":{"android":"levelo://app?vid=e961ea26-f109-4a92-a884-fbeecd5e33af","ios":"levelo://app?vid=e961ea26-f109-4a92-a884-fbeecd5e33af"},"vehicle_type_id":"4","last_reported":1732122524,"current_range_meters":36400,"station_id":"ce4bh012rcd13ifvqd10","pricing_plan_id":"cebpf4jnsgd1na2vs0mg"},{"bike_id":"93e46142-5dc2-48ce-826c-5d358b2a1cce","system_id":"levelo_inurba_marseille","lat":43.32035,"lon":5.41568,"is_reserved":false,"is_disabled":true,"rental_uris":{"android":"levelo://app?vid=93e46142-5dc2-48ce-826c-5d358b2a1cce","ios":"levelo://app?vid=93e46142-5dc2-48ce-826c-5d358b2a1cce"},"vehicle_type_id":"4","last_reported":1732122524,"current_range_meters":1600,"station_id":"ce4bhq92rcd13ifvqhkg","pricing_plan_id":"cebpf4jnsgd1na2vs0mg"},{"bike_id":"4ec7e66d-7890-4546-a1a6-d1f7c171c326","system_id":"levelo_inurba_marseille","lat":43.31332,"lon":5.3969,"is_reserved":false,"is_disabled":false,"rental_uris":{"android":"levelo://app?vid=4ec7e66d-7890-4546-a1a6-d1f7c171c326","ios":"levelo://app?vid=4ec7e66d-7890-4546-a1a6-d1f7c171c326"},"vehicle_type_id":"4","last_reported":1732122524,"current_range_meters":29600,"station_id":"ce4bgvp2rcd13ifvqcu0","pricing_plan_id":"cebpf4jnsgd1na2vs0mg"},{"bike_id":"b1f6881e-7318-4a75-90e8-fac75fb95399","system_id":"levelo_inurba_marseille","lat":43.28614,"lon":5.46093,"is_reserved":false,"is_disabled":false,"rental_uris":{"android":"levelo://app?vid=b1f6881e-7318-4a75-90e8-fac75fb95399","ios":"levelo://app?vid=b1f6881e-7318-4a75-90e8-fac75fb95399"},"vehicle_type_id":"4","last_reported":1732122524,"current_range_meters":16800,"station_id":"","pricing_plan_id":"cebpf4jnsgd1na2vs0mg"},{"bike_id":"5d835d4d-6eec-4f63-8215-9a50d98a57a5","system_id":"levelo_inurba_marseille","lat":43.29715,"lon":5.3662,"is_reserved":false,"is_disabled":false,"rental_uris":{"android":"levelo://app?vid=5d835d4d-6eec-4f63-8215-9a50d98a57a5","ios":"levelo://app?vid=5d835d4d-6eec-4f63-8215-9a50d98a57a5"},"vehicle_type_id":"4","last_reported":1732122524,"current_range_meters":20800,"station_id":"ce4bgn12rcd13ifvqbt0","pricing_plan_id":"cebpf4jnsgd1na2vs0mg"},{"bike_id":"18b8f091-c34a-472c-8dc3-5f3caf056c58","system_id":"levelo_inurba_marseille","lat":43.337444,"lon":5.374475,"is_reserved":false,"is_disabled":true,"rental_uris":{"android":"levelo://app?vid=18b8f091-c34a-472c-8dc3-5f3caf056c58","ios":"levelo://app?vid=18b8f091-c34a-472c-8dc3-5f3caf056c58"},"vehicle_type_id":"4","last_reported":1732122524,"current_range_meters":34000,"station_id":"","pricing_plan_id":"cebpf4jnsgd1na2vs0mg"},{"bike_id":"9044f75c-15b5-4f34-bbd2-226c9f41adac","system_id":"levelo_inurba_marseille","lat":43.27619,"lon":5.36101,"is_reserved":false,"is_disabled":true,"rental_uris":{"android":"levelo://app?vid=9044f75c-15b5-4f34-bbd2-226c9f41adac","ios":"levelo://app?vid=9044f75c-15b5-4f34-bbd2-226c9f41adac"},"vehicle_type_id":"4","last_reported":1732122524,"current_range_meters":28400,"station_id":"ce4bgj92rcd13ifvqbe0","pricing_plan_id":"cebpf4jnsgd1na2vs0mg"},{"bike_id":"444c967d-1606-4b4d-a18f-f83a09a800b5","system_id":"levelo_inurba_marseille","lat":43.304627,"lon":5.379034,"is_reserved":false,"is_disabled":false,"rental_uris":{"android":"levelo://app?vid=444c967d-1606-4b4d-a18f-f83a09a800b5","ios":"levelo://app?vid=444c967d-1606-4b4d-a18f-f83a09a800b5"},"vehicle_type_id":"4","last_reported":1732122524,"current_range_meters":28000,"station_id":"ce4bgup2rcd13ifvqcn0","pricing_plan_id":"cebpf4jnsgd1na2vs0mg"},{"bike_id":"2c0e5bb0-ceb9-42a2-8ebb-60869b3ee1d0","system_id":"levelo_inurba_marseille","lat":43.30549,"lon":5.3672,"is_reserved":false,"is_disabled":false,"rental_uris":{"android":"levelo://app?vid=2c0e5bb0-ceb9-42a2-8ebb-60869b3ee1d0","ios":"levelo://app?vid=2c0e5bb0-ceb9-42a2-8ebb-60869b3ee1d0"},"vehicle_type_id":"4","last_reported":1732122524,"current_range_meters":22800,"station_id":"ce4bgrp2rcd13ifvqc9g","pricing_plan_id":"cebpf4jnsgd1na2vs0mg"},{"bike_id":"ed4fa43e-dd2f-4930-a2c4-ce2c15717717","system_id":"levelo_inurba_marseille","lat":43.247,"lon":5.38213,"is_reserved":false,"is_disabled":false,"rental_uris":{"android":"levelo://app?vid=ed4fa43e-dd2f-4930-a2c4-ce2c15717717","ios":"levelo://app?vid=ed4fa43e-dd2f-4930-a2c4-ce2c15717717"},"vehicle_type_id":"4","last_reported":1732122524,"current_range_meters":28000,"station_id":"ce4bhih2rcd13ifvqfr0","pricing_plan_id":"cebpf4jnsgd1na2vs0mg"},{"bike_id":"ccf5e94a-251f-4f68-a88b-51e5313a6d6e","system_id":"levelo_inurba_marseille","lat":43.3237,"lon":5.38885,"is_reserved":false,"is_disabled":false,"rental_uris":{"android":"levelo://app?vid=ccf5e94a-251f-4f68-a88b-51e5313a6d6e","ios":"levelo://app?vid=ccf5e94a-251f-4f68-a88b-51e5313a6d6e"},"vehicle_type_id":"4","last_reported":1732122524,"current_range_meters":38800,"station_id":"ce4bhqp2rcd13ifvqhog","pricing_plan_id":"cebpf4jnsgd1na2vs0mg"},{"bike_id":"fe88ffb9-a922-4ffb-8548-baafe21b73fb","system_id":"levelo_inurba_marseille","lat":43.2707,"lon":5.42281,"is_reserved":false,"is_disabled":false,"rental_uris":{"android":"levelo://app?vid=fe88ffb9-a922-4ffb-8548-baafe21b73fb","ios":"levelo://app?vid=fe88ffb9-a922-4ffb-8548-baafe21b73fb"},"vehicle_type_id":"4","last_reported":1732122524,"current_range_meters":10000,"station_id":"ce4bhk92rcd13ifvqgb0","pricing_plan_id":"cebpf4jnsgd1na2vs0mg"},{"bike_id":"5620a6a2-93e2-463b-9cda-0798e67effc4","system_id":"levelo_inurba_marseille","lat":43.255919,"lon":5.382166,"is_reserved":false,"is_disabled":false,"rental_uris":{"android":"levelo://app?vid=5620a6a2-93e2-463b-9cda-0798e67effc4","ios":"levelo://app?vid=5620a6a2-93e2-463b-9cda-0798e67effc4"},"vehicle_type_id":"4","last_reported":1732122524,"current_range_meters":12000,"station_id":"ce4bhih2rcd13ifvqfs0","pricing_plan_id":"cebpf4jnsgd1na2vs0mg"},{"bike_id":"989e5522-fd39-4b70-8d00-bdad770d60aa","system_id":"levelo_inurba_marseille","lat":43.29764,"lon":5.37689,"is_reserved":false,"is_disabled":false,"rental_uris":{"android":"levelo://app?vid=989e5522-fd39-4b70-8d00-bdad770d60aa","ios":"levelo://app?vid=989e5522-fd39-4b70-8d00-bdad770d60aa"},"vehicle_type_id":"4","last_reported":1732122524,"current_range_meters":38800,"station_id":"","pricing_plan_id":"cebpf4jnsgd1na2vs0mg"},{"bike_id":"65aab5d3-1292-4249-8b94-174feae8adf2","system_id":"levelo_inurba_marseille","lat":43.28847,"lon":5.39328,"is_reserved":false,"is_disabled":false,"rental_uris":{"android":"levelo://app?vid=65aab5d3-1292-4249-8b94-174feae8adf2","ios":"levelo://app?vid=65aab5d3-1292-4249-8b94-174feae8adf2"},"vehicle_type_id":"4","last_reported":1732122524,"current_range_meters":30000,"station_id":"ce4bh2p2rcd13ifvqdi0","pricing_plan_id":"cebpf4jnsgd1na2vs0mg"},{"bike_id":"4afcb87e-de90-4cce-b462-c028bdd89b67","system_id":"levelo_inurba_marseille","lat":43.30609,"lon":5.37227,"is_reserved":false,"is_disabled":false,"rental_uris":{"android":"levelo://app?vid=4afcb87e-de90-4cce-b462-c028bdd89b67","ios":"levelo://app?vid=4afcb87e-de90-4cce-b462-c028bdd89b67"},"vehicle_type_id":"4","last_reported":1732122524,"current_range_meters":27200,"station_id":"ce4bgqh2rcd13ifvqc4g","pricing_plan_id":"cebpf4jnsgd1na2vs0mg"},{"bike_id":"ba98b08c-f206-4cda-a7bc-9934906fc530","system_id":"levelo_inurba_marseille","lat":43.27996,"lon":5.40003,"is_reserved":false,"is_disabled":false,"rental_uris":{"android":"levelo://app?vid=ba98b08c-f206-4cda-a7bc-9934906fc530","ios":"levelo://app?vid=ba98b08c-f206-4cda-a7bc-9934906fc530"},"vehicle_type_id":"4","last_reported":1732122524,"current_range_meters":27600,"station_id":"ce4bho92rcd13ifvqh4g","pricing_plan_id":"cebpf4jnsgd1na2vs0mg"},{"bike_id":"cd149460-378c-40d3-9234-a7fb47842ce7","system_id":"levelo_inurba_marseille","lat":43.28671,"lon":5.3866,"is_reserved":false,"is_disabled":false,"rental_uris":{"android":"levelo://app?vid=cd149460-378c-40d3-9234-a7fb47842ce7","ios":"levelo://app?vid=cd149460-378c-40d3-9234-a7fb47842ce7"},"vehicle_type_id":"4","last_reported":1732122524,"current_range_meters":38800,"station_id":"ce4bh492rcd13ifvqdug","pricing_plan_id":"cebpf4jnsgd1na2vs0mg"},{"bike_id":"50f65782-312d-4ef5-afc1-123b69a23cad","system_id":"levelo_inurba_marseille","lat":43.28035,"lon":5.36937,"is_reserved":false,"is_disabled":true,"rental_uris":{"android":"levelo://app?vid=50f65782-312d-4ef5-afc1-123b69a23cad","ios":"levelo://app?vid=50f65782-312d-4ef5-afc1-123b69a23cad"},"vehicle_type_id":"4","last_reported":1732122524,"current_range_meters":0,"station_id":"ce4bha12rcd13ifvqef0","pricing_plan_id":"cebpf4jnsgd1na2vs0mg"},{"bike_id":"7ef4e782-9b03-4e44-a63d-c57509055e74","system_id":"levelo_inurba_marseille","lat":43.27995,"lon":5.40011,"is_reserved":false,"is_disabled":false,"rental_uris":{"android":"levelo://app?vid=7ef4e782-9b03-4e44-a63d-c57509055e74","ios":"levelo://app?vid=7ef4e782-9b03-4e44-a63d-c57509055e74"},"vehicle_type_id":"4","last_reported":1732122524,"current_range_meters":39200,"station_id":"ce4bho92rcd13ifvqh4g","pricing_plan_id":"cebpf4jnsgd1na2vs0mg"},{"bike_id":"aed96a67-e199-4fb3-8b67-6105421620ed","system_id":"levelo_inurba_marseille","lat":43.30612,"lon":5.37218,"is_reserved":false,"is_disabled":false,"rental_uris":{"android":"levelo://app?vid=aed96a67-e199-4fb3-8b67-6105421620ed","ios":"levelo://app?vid=aed96a67-e199-4fb3-8b67-6105421620ed"},"vehicle_type_id":"4","last_reported":1732122524,"current_range_meters":24000,"station_id":"ce4bgqh2rcd13ifvqc4g","pricing_plan_id":"cebpf4jnsgd1na2vs0mg"},{"bike_id":"8fe6a51b-0d3b-427f-b644-613c94bb74d5","system_id":"levelo_inurba_marseille","lat":43.28359,"lon":5.38642,"is_reserved":false,"is_disabled":true,"rental_uris":{"android":"levelo://app?vid=8fe6a51b-0d3b-427f-b644-613c94bb74d5","ios":"levelo://app?vid=8fe6a51b-0d3b-427f-b644-613c94bb74d5"},"vehicle_type_id":"4","last_reported":1732122524,"current_range_meters":400,"station_id":"ce4bh492rcd13ifvqdvg","pricing_plan_id":"cebpf4jnsgd1na2vs0mg"},{"bike_id":"8d79d61c-b52d-45c5-a6a0-596d2591df1d","system_id":"levelo_inurba_marseille","lat":43.27999,"lon":5.40015,"is_reserved":false,"is_disabled":false,"rental_uris":{"android":"levelo://app?vid=8d79d61c-b52d-45c5-a6a0-596d2591df1d","ios":"levelo://app?vid=8d79d61c-b52d-45c5-a6a0-596d2591df1d"},"vehicle_type_id":"4","last_reported":1732122524,"current_range_meters":20000,"station_id":"ce4bho92rcd13ifvqh4g","pricing_plan_id":"cebpf4jnsgd1na2vs0mg"},{"bike_id":"12ee9e8c-3c71-4d4c-a9c7-0cd7b36f8be7","system_id":"levelo_inurba_marseille","lat":43.30804,"lon":5.43528,"is_reserved":false,"is_disabled":false,"rental_uris":{"android":"levelo://app?vid=12ee9e8c-3c71-4d4c-a9c7-0cd7b36f8be7","ios":"levelo://app?vid=12ee9e8c-3c71-4d4c-a9c7-0cd7b36f8be7"},