{"last_updated":1731082243,"ttl":60,"version":"2.2","data":{"bikes":[{"bike_id":"9c2044e9-c8a7-4617-827b-124a7dd3cb08","system_id":"levelo_inurba_marseille","lat":43.28655,"lon":5.36346,"is_reserved":false,"is_disabled":false,"rental_uris":{"android":"levelo://app?vid=9c2044e9-c8a7-4617-827b-124a7dd3cb08","ios":"levelo://app?vid=9c2044e9-c8a7-4617-827b-124a7dd3cb08"},"vehicle_type_id":"4","last_reported":1731082243,"current_range_meters":28000,"station_id":"ce4bhah2rcd13ifvqej0","pricing_plan_id":"cebpf4jnsgd1na2vs0mg"},{"bike_id":"f3227e3a-ceac-4ed3-847f-c74cad60db68","system_id":"levelo_inurba_marseille","lat":43.30419,"lon":5.41287,"is_reserved":false,"is_disabled":false,"rental_uris":{"android":"levelo://app?vid=f3227e3a-ceac-4ed3-847f-c74cad60db68","ios":"levelo://app?vid=f3227e3a-ceac-4ed3-847f-c74cad60db68"},"vehicle_type_id":"4","last_reported":1731082243,"current_range_meters":39200,"station_id":"ce4bhop2rcd13ifvqh8g","pricing_plan_id":"cebpf4jnsgd1na2vs0mg"},{"bike_id":"0295dfd2-60af-4942-a888-a068f26546a1","system_id":"levelo_inurba_marseille","lat":43.27374,"lon":5.36264,"is_reserved":false,"is_disabled":false,"rental_uris":{"android":"levelo://app?vid=0295dfd2-60af-4942-a888-a068f26546a1","ios":"levelo://app?vid=0295dfd2-60af-4942-a888-a068f26546a1"},"vehicle_type_id":"4","last_reported":1731082243,"current_range_meters":21600,"station_id":"ce4bhbh2rcd13ifvqeo0","pricing_plan_id":"cebpf4jnsgd1na2vs0mg"},{"bike_id":"53668a99-6202-43b6-8788-664040b218ca","system_id":"levelo_inurba_marseille","lat":43.29624,"lon":5.40602,"is_reserved":false,"is_disabled":false,"rental_uris":{"android":"levelo://app?vid=53668a99-6202-43b6-8788-664040b218ca","ios":"levelo://app?vid=53668a99-6202-43b6-8788-664040b218ca"},"vehicle_type_id":"4","last_reported":1731082243,"current_range_meters":6800,"station_id":"ce4bh0h2rcd13ifvqd60","pricing_plan_id":"cebpf4jnsgd1na2vs0mg"},{"bike_id":"50acb78d-907c-4335-958f-fa62e97de57b","system_id":"levelo_inurba_marseille","lat":43.3041,"lon":5.38807,"is_reserved":false,"is_disabled":false,"rental_uris":{"android":"levelo://app?vid=50acb78d-907c-4335-958f-fa62e97de57b","ios":"levelo://app?vid=50acb78d-907c-4335-958f-fa62e97de57b"},"vehicle_type_id":"4","last_reported":1731082243,"current_range_meters":36000,"station_id":"","pricing_plan_id":"cebpf4jnsgd1na2vs0mg"},{"bike_id":"8c6945ea-8559-4f32-b1aa-69eeb2cefe2f","system_id":"levelo_inurba_marseille","lat":43.30668,"lon":5.40074,"is_reserved":false,"is_disabled":false,"rental_uris":{"android":"levelo://app?vid=8c6945ea-8559-4f32-b1aa-69eeb2cefe2f","ios":"levelo://app?vid=8c6945ea-8559-4f32-b1aa-69eeb2cefe2f"},"vehicle_type_id":"4","last_reported":1731082243,"current_range_meters":38800,"station_id":"ce4bh112rcd13ifvqda0","pricing_plan_id":"cebpf4jnsgd1na2vs0mg"},{"bike_id":"4cb9f69a-731f-450e-9856-bcae6fde0d16","system_id":"levelo_inurba_marseille","lat":43.29914,"lon":5.38135,"is_reserved":false,"is_disabled":false,"rental_uris":{"android":"levelo://app?vid=4cb9f69a-731f-450e-9856-bcae6fde0d16","ios":"levelo://app?vid=4cb9f69a-731f-450e-9856-bcae6fde0d16"},"vehicle_type_id":"4","last_reported":1731082243,"current_range_meters":38800,"station_id":"ce4bgj12rcd13ifvqbc0","pricing_plan_id":"cebpf4jnsgd1na2vs0mg"},{"bike_id":"3f8e9100-8f64-42ec-b328-73d6145177de","system_id":"levelo_inurba_marseille","lat":43.337444,"lon":5.374475,"is_reserved":false,"is_disabled":false,"rental_uris":{"android":"levelo://app?vid=3f8e9100-8f64-42ec-b328-73d6145177de","ios":"levelo://app?vid=3f8e9100-8f64-42ec-b328-73d6145177de"},"vehicle_type_id":"4","last_reported":1731082243,"current_range_meters":20400,"station_id":"","pricing_plan_id":"cebpf4jnsgd1na2vs0mg"},{"bike_id":"91c05fd6-7b54-467f-a1ed-9349406e6b9b","system_id":"levelo_inurba_marseille","lat":43.29541,"lon":5.37499,"is_reserved":false,"is_disabled":false,"rental_uris":{"android":"levelo://app?vid=91c05fd6-7b54-467f-a1ed-9349406e6b9b","ios":"levelo://app?vid=91c05fd6-7b54-467f-a1ed-9349406e6b9b"},"vehicle_type_id":"4","last_reported":1731082243,"current_range_meters":24800,"station_id":"ce4bgkp2rcd13ifvqbmg","pricing_plan_id":"cebpf4jnsgd1na2vs0mg"},{"bike_id":"41dc0cdc-e2a3-4364-9502-e92dd8e24227","system_id":"levelo_inurba_marseille","lat":43.3136,"lon":5.36714,"is_reserved":false,"is_disabled":false,"rental_uris":{"android":"levelo://app?vid=41dc0cdc-e2a3-4364-9502-e92dd8e24227","ios":"levelo://app?vid=41dc0cdc-e2a3-4364-9502-e92dd8e24227"},"vehicle_type_id":"4","last_reported":1731082243,"current_range_meters":12000,"station_id":"ce4bgr92rcd13ifvqc6g","pricing_plan_id":"cebpf4jnsgd1na2vs0mg"},{"bike_id":"85ec6972-2474-4903-af30-b7a390d3db72","system_id":"levelo_inurba_marseille","lat":43.26205,"lon":5.37462,"is_reserved":false,"is_disabled":false,"rental_uris":{"android":"levelo://app?vid=85ec6972-2474-4903-af30-b7a390d3db72","ios":"levelo://app?vid=85ec6972-2474-4903-af30-b7a390d3db72"},"vehicle_type_id":"4","last_reported":1731082243,"current_range_meters":35200,"station_id":"ce4bhgp2rcd13ifvqfc0","pricing_plan_id":"cebpf4jnsgd1na2vs0mg"},{"bike_id":"c88f1b31-dd3c-4e82-a81a-152198c83c26","system_id":"levelo_inurba_marseille","lat":43.31224,"lon":5.36863,"is_reserved":false,"is_disabled":false,"rental_uris":{"android":"levelo://app?vid=c88f1b31-dd3c-4e82-a81a-152198c83c26","ios":"levelo://app?vid=c88f1b31-dd3c-4e82-a81a-152198c83c26"},"vehicle_type_id":"4","last_reported":1731082243,"current_range_meters":8800,"station_id":"ce4bgl92rcd13ifvqbq0","pricing_plan_id":"cebpf4jnsgd1na2vs0mg"},{"bike_id":"d4ddc17c-a5a4-4ba9-ad4a-e9f523b267da","system_id":"levelo_inurba_marseille","lat":43.30136,"lon":5.37431,"is_reserved":false,"is_disabled":false,"rental_uris":{"android":"levelo://app?vid=d4ddc17c-a5a4-4ba9-ad4a-e9f523b267da","ios":"levelo://app?vid=d4ddc17c-a5a4-4ba9-ad4a-e9f523b267da"},"vehicle_type_id":"4","last_reported":1731082243,"current_range_meters":38800,"station_id":"ce4bgs92rcd13ifvqcc0","pricing_plan_id":"cebpf4jnsgd1na2vs0mg"},{"bike_id":"504e5d62-7828-485f-b5c5-e0859c494a6c","system_id":"levelo_inurba_marseille","lat":43.32448,"lon":5.36567,"is_reserved":false,"is_disabled":false,"rental_uris":{"android":"levelo://app?vid=504e5d62-7828-485f-b5c5-e0859c494a6c","ios":"levelo://app?vid=504e5d62-7828-485f-b5c5-e0859c494a6c"},"vehicle_type_id":"4","last_reported":1731082243,"current_range_meters":36000,"station_id":"ce4bhs12rcd13ifvqhvg","pricing_plan_id":"cebpf4jnsgd1na2vs0mg"},{"bike_id":"7a61aa54-4124-4dcd-858b-db846d80c8c4","system_id":"levelo_inurba_marseille","lat":43.27618,"lon":5.36112,"is_reserved":false,"is_disabled":false,"rental_uris":{"android":"levelo://app?vid=7a61aa54-4124-4dcd-858b-db846d80c8c4","ios":"levelo://app?vid=7a61aa54-4124-4dcd-858b-db846d80c8c4"},"vehicle_type_id":"4","last_reported":1731082243,"current_range_meters":8000,"station_id":"ce4bgj92rcd13ifvqbe0","pricing_plan_id":"cebpf4jnsgd1na2vs0mg"},{"bike_id":"e29a0183-58c0-470a-a10e-606cd91916c2","system_id":"levelo_inurba_marseille","lat":43.31755,"lon":5.39018,"is_reserved":false,"is_disabled":false,"rental_uris":{"android":"levelo://app?vid=e29a0183-58c0-470a-a10e-606cd91916c2","ios":"levelo://app?vid=e29a0183-58c0-470a-a10e-606cd91916c2"},"vehicle_type_id":"4","last_reported":1731082243,"current_range_meters":19600,"station_id":"ce4bhqp2rcd13ifvqhng","pricing_plan_id":"cebpf4jnsgd1na2vs0mg"},{"bike_id":"9c7716c5-c689-40f6-8522-7c1f2700888f","system_id":"levelo_inurba_marseille","lat":43.24799,"lon":5.37454,"is_reserved":false,"is_disabled":false,"rental_uris":{"android":"levelo://app?vid=9c7716c5-c689-40f6-8522-7c1f2700888f","ios":"levelo://app?vid=9c7716c5-c689-40f6-8522-7c1f2700888f"},"vehicle_type_id":"4","last_reported":1731082243,"current_range_meters":34000,"station_id":"ce4bhgh2rcd13ifvqfb0","pricing_plan_id":"cebpf4jnsgd1na2vs0mg"},{"bike_id":"e1a4474d-9067-4dc4-94dc-ae39102e8554","system_id":"levelo_inurba_marseille","lat":43.31225,"lon":5.36859,"is_reserved":false,"is_disabled":false,"rental_uris":{"android":"levelo://app?vid=e1a4474d-9067-4dc4-94dc-ae39102e8554","ios":"levelo://app?vid=e1a4474d-9067-4dc4-94dc-ae39102e8554"},"vehicle_type_id":"4","last_reported":1731082243,"current_range_meters":24400,"station_id":"ce4bgl92rcd13ifvqbq0","pricing_plan_id":"cebpf4jnsgd1na2vs0mg"},{"bike_id":"b3f2ab2f-dad5-4dce-b8a5-79177bd2966d","system_id":"levelo_inurba_marseille","lat":43.33737,"lon":5.37437,"is_reserved":false,"is_disabled":false,"rental_uris":{"android":"levelo://app?vid=b3f2ab2f-dad5-4dce-b8a5-79177bd2966d","ios":"levelo://app?vid=b3f2ab2f-dad5-4dce-b8a5-79177bd2966d"},"vehicle_type_id":"4","last_reported":1731082243,"current_range_meters":36000,"station_id":"","pricing_plan_id":"cebpf4jnsgd1na2vs0mg"},{"bike_id":"e22b98a5-9773-4f71-85ed-e74c4dff6249","system_id":"levelo_inurba_marseille","lat":43.30546,"lon":5.36707,"is_reserved":false,"is_disabled":false,"rental_uris":{"android":"levelo://app?vid=e22b98a5-9773-4f71-85ed-e74c4dff6249","ios":"levelo://app?vid=e22b98a5-9773-4f71-85ed-e74c4dff6249"},"vehicle_type_id":"4","last_reported":1731082243,"current_range_meters":38400,"station_id":"ce4bgrp2rcd13ifvqc9g","pricing_plan_id":"cebpf4jnsgd1na2vs0mg"},{"bike_id":"1a92279e-1152-4bb1-a030-ac5c06a6a547","system_id":"levelo_inurba_marseille","lat":43.30797,"lon":5.43527,"is_reserved":false,"is_disabled":false,"rental_uris":{"android":"levelo://app?vid=1a92279e-1152-4bb1-a030-ac5c06a6a547","ios":"levelo://app?vid=1a92279e-1152-4bb1-a030-ac5c06a6a547"},"vehicle_type_id":"4","last_reported":1731082243,"current_range_meters":24000,"station_id":"ce4bhph2rcd13ifvqheg","pricing_plan_id":"cebpf4jnsgd1na2vs0mg"},{"bike_id":"3e3fd28d-608a-4adb-b7b0-a820ff2f09b1","system_id":"levelo_inurba_marseille","lat":43.30141,"lon":5.37428,"is_reserved":false,"is_disabled":false,"rental_uris":{"android":"levelo://app?vid=3e3fd28d-608a-4adb-b7b0-a820ff2f09b1","ios":"levelo://app?vid=3e3fd28d-608a-4adb-b7b0-a820ff2f09b1"},"vehicle_type_id":"4","last_reported":1731082243,"current_range_meters":8000,"station_id":"ce4bgs92rcd13ifvqcc0","pricing_plan_id":"cebpf4jnsgd1na2vs0mg"},{"bike_id":"5fbea78d-2b24-46c2-8bc2-425d98ddaca2","system_id":"levelo_inurba_marseille","lat":43.29275,"lon":5.40117,"is_reserved":false,"is_disabled":false,"rental_uris":{"android":"levelo://app?vid=5fbea78d-2b24-46c2-8bc2-425d98ddaca2","ios":"levelo://app?vid=5fbea78d-2b24-46c2-8bc2-425d98ddaca2"},"vehicle_type_id":"4","last_reported":1731082243,"current_range_meters":25200,"station_id":"ce4bh312rcd13ifvqdk0","pricing_plan_id":"cebpf4jnsgd1na2vs0mg"},{"bike_id":"b9059161-bc2a-4853-8231-de961bd5f1e7","system_id":"levelo_inurba_marseille","lat":43.33723,"lon":5.39179,"is_reserved":false,"is_disabled":false,"rental_uris":{"android":"levelo://app?vid=b9059161-bc2a-4853-8231-de961bd5f1e7","ios":"levelo://app?vid=b9059161-bc2a-4853-8231-de961bd5f1e7"},"vehicle_type_id":"4","last_reported":1731082243,"current_range_meters":26800,"station_id":"ce4bhr92rcd13ifvqhsg","pricing_plan_id":"cebpf4jnsgd1na2vs0mg"},{"bike_id":"be6de5f5-70b8-4e62-b539-d24821b02350","system_id":"levelo_inurba_marseille","lat":43.26033,"lon":5.37546,"is_reserved":false,"is_disabled":false,"rental_uris":{"android":"levelo://app?vid=be6de5f5-70b8-4e62-b539-d24821b02350","ios":"levelo://app?vid=be6de5f5-70b8-4e62-b539-d24821b02350"},"vehicle_type_id":"4","last_reported":1731082243,"current_range_meters":19200,"station_id":"ce4bhgh2rcd13ifvqfa0","pricing_plan_id":"cebpf4jnsgd1na2vs0mg"},{"bike_id":"3d32f789-a044-47cc-8444-b1887a88a83f","system_id":"levelo_inurba_marseille","lat":43.30554,"lon":5.36715,"is_reserved":false,"is_disabled":false,"rental_uris":{"android":"levelo://app?vid=3d32f789-a044-47cc-8444-b1887a88a83f","ios":"levelo://app?vid=3d32f789-a044-47cc-8444-b1887a88a83f"},"vehicle_type_id":"4","last_reported":1731082243,"current_range_meters":37600,"station_id":"ce4bgrp2rcd13ifvqc9g","pricing_plan_id":"cebpf4jnsgd1na2vs0mg"},{"bike_id":"e64e0549-96f5-4750-884b-aae6203de19c","system_id":"levelo_inurba_marseille","lat":43.3176,"lon":5.39021,"is_reserved":false,"is_disabled":false,"rental_uris":{"android":"levelo://app?vid=e64e0549-96f5-4750-884b-aae6203de19c","ios":"levelo://app?vid=e64e0549-96f5-4750-884b-aae6203de19c"},"vehicle_type_id":"4","last_reported":1731082243,"current_range_meters":9200,"station_id":"ce4bhqp2rcd13ifvqhng","pricing_plan_id":"cebpf4jnsgd1na2vs0mg"},{"bike_id":"22c2910c-c395-401a-9c60-3a72ab53ce1d","system_id":"levelo_inurba_marseille","lat":43.26548,"lon":5.39502,"is_reserved":false,"is_disabled":false,"rental_uris":{"android":"levelo://app?vid=22c2910c-c395-401a-9c60-3a72ab53ce1d","ios":"levelo://app?vid=22c2910c-c395-401a-9c60-3a72ab53ce1d"},"vehicle_type_id":"4","last_reported":1731082243,"current_range_meters":30800,"station_id":"ce4bhh12rcd13ifvqfg0","pricing_plan_id":"cebpf4jnsgd1na2vs0mg"},{"bike_id":"f4ef053d-e709-4411-bdd9-de1d0f41e46f","system_id":"levelo_inurba_marseille","lat":43.2293,"lon":5.35374,"is_reserved":false,"is_disabled":false,"rental_uris":{"android":"levelo://app?vid=f4ef053d-e709-4411-bdd9-de1d0f41e46f","ios":"levelo://app?vid=f4ef053d-e709-4411-bdd9-de1d0f41e46f"},"vehicle_type_id":"4","last_reported":1731082243,"current_range_meters":38800,"station_id":"cpo3532slgdg3j2ikp40","pricing_plan_id":"cebpf4jnsgd1na2vs0mg"},{"bike_id":"7b28e8d2-008b-42bf-8db3-b456cc7125ae","system_id":"levelo_inurba_marseille","lat":43.31328,"lon":5.39699,"is_reserved":false,"is_disabled":false,"rental_uris":{"android":"levelo://app?vid=7b28e8d2-008b-42bf-8db3-b456cc7125ae","ios":"levelo://app?vid=7b28e8d2-008b-42bf-8db3-b456cc7125ae"},"vehicle_type_id":"4","last_reported":1731082243,"current_range_meters":38000,"station_id":"ce4bgvp2rcd13ifvqcu0","pricing_plan_id":"cebpf4jnsgd1na2vs0mg"},{"bike_id":"21829016-f6a6-4935-b470-f51c2f02c646","system_id":"levelo_inurba_marseille","lat":43.29042,"lon":5.39949,"is_reserved":false,"is_disabled":false,"rental_uris":{"android":"levelo://app?vid=21829016-f6a6-4935-b470-f51c2f02c646","ios":"levelo://app?vid=21829016-f6a6-4935-b470-f51c2f02c646"},"vehicle_type_id":"4","last_reported":1731082243,"current_range_meters":6400,"station_id":"ce4bh392rcd13ifvqdm0","pricing_plan_id":"cebpf4jnsgd1na2vs0mg"},{"bike_id":"707defd1-f536-4b0b-8df9-45bced001472","system_id":"levelo_inurba_marseille","lat":43.31335,"lon":5.39697,"is_reserved":false,"is_disabled":false,"rental_uris":{"android":"levelo://app?vid=707defd1-f536-4b0b-8df9-45bced001472","ios":"levelo://app?vid=707defd1-f536-4b0b-8df9-45bced001472"},"vehicle_type_id":"4","last_reported":1731082243,"current_range_meters":25200,"station_id":"ce4bgvp2rcd13ifvqcu0","pricing_plan_id":"cebpf4jnsgd1na2vs0mg"},{"bike_id":"80590553-7a60-4301-a5bc-0f28a55be41a","system_id":"levelo_inurba_marseille","lat":43.26808,"lon":5.4027,"is_reserved":false,"is_disabled":false,"rental_uris":{"android":"levelo://app?vid=80590553-7a60-4301-a5bc-0f28a55be41a","ios":"levelo://app?vid=80590553-7a60-4301-a5bc-0f28a55be41a"},"vehicle_type_id":"4","last_reported":1731082243,"current_range_meters":7200,"station_id":"ce501612rcd8frsf0b60","pricing_plan_id":"cebpf4jnsgd1na2vs0mg"},{"bike_id":"321b6cf8-4393-4e31-9d28-27a248629a9c","system_id":"levelo_inurba_marseille","lat":43.29198,"lon":5.39324,"is_reserved":false,"is_disabled":false,"rental_uris":{"android":"levelo://app?vid=321b6cf8-4393-4e31-9d28-27a248629a9c","ios":"levelo://app?vid=321b6cf8-4393-4e31-9d28-27a248629a9c"},"vehicle_type_id":"4","last_reported":1731082243,"current_range_meters":8400,"station_id":"ce4bh192rcd13ifvqdd0","pricing_plan_id":"cebpf4jnsgd1na2vs0mg"},{"bike_id":"e81ddd89-fb0a-4760-b89c-e61e1d3dab1e","system_id":"levelo_inurba_marseille","lat":43.2586,"lon":5.39902,"is_reserved":false,"is_disabled":false,"rental_uris":{"android":"levelo://app?vid=e81ddd89-fb0a-4760-b89c-e61e1d3dab1e","ios":"levelo://app?vid=e81ddd89-fb0a-4760-b89c-e61e1d3dab1e"},"vehicle_type_id":"4","last_reported":1731082243,"current_range_meters":32400,"station_id":"ce4bhl92rcd13ifvqghg","pricing_plan_id":"cebpf4jnsgd1na2vs0mg"},{"bike_id":"ca10a5c3-f3ce-4f91-8de9-8bcbe8db6bbe","system_id":"levelo_inurba_marseille","lat":43.24367,"lon":5.38584,"is_reserved":false,"is_disabled":false,"rental_uris":{"android":"levelo://app?vid=ca10a5c3-f3ce-4f91-8de9-8bcbe8db6bbe","ios":"levelo://app?vid=ca10a5c3-f3ce-4f91-8de9-8bcbe8db6bbe"},"vehicle_type_id":"4","last_reported":1731082243,"current_range_meters":27600,"station_id":"","pricing_plan_id":"cebpf4jnsgd1na2vs0mg"},{"bike_id":"0068481c-09a4-465d-a885-c578d3b25bf9","system_id":"levelo_inurba_marseille","lat":43.294192,"lon":5.386227,"is_reserved":false,"is_disabled":false,"rental_uris":{"android":"levelo://app?vid=0068481c-09a4-465d-a885-c578d3b25bf9","ios":"levelo://app?vid=0068481c-09a4-465d-a885-c578d3b25bf9"},"vehicle_type_id":"4","last_reported":1731082243,"current_range_meters":14800,"station_id":"ce4bh2h2rcd13ifvqdh0","pricing_plan_id":"cebpf4jnsgd1na2vs0mg"},{"bike_id":"8d7e5922-664a-4a28-aea6-8506137867d9","system_id":"levelo_inurba_marseille","lat":43.26219,"lon":5.3744,"is_reserved":false,"is_disabled":false,"rental_uris":{"android":"levelo://app?vid=8d7e5922-664a-4a28-aea6-8506137867d9","ios":"levelo://app?vid=8d7e5922-664a-4a28-aea6-8506137867d9"},"vehicle_type_id":"4","last_reported":1731082243,"current_range_meters":18000,"station_id":"ce4bhgp2rcd13ifvqfc0","pricing_plan_id":"cebpf4jnsgd1na2vs0mg"},{"bike_id":"a129532d-e108-4272-ade2-898ad26ecbc7","system_id":"levelo_inurba_marseille","lat":43.26509,"lon":5.39545,"is_reserved":false,"is_disabled":false,"rental_uris":{"android":"levelo://app?vid=a129532d-e108-4272-ade2-898ad26ecbc7","ios":"levelo://app?vid=a129532d-e108-4272-ade2-898ad26ecbc7"},"vehicle_type_id":"4","last_reported":1731082243,"current_range_meters":9200,"station_id":"ce4bhi12rcd13ifvqfq0","pricing_plan_id":"cebpf4jnsgd1na2vs0mg"},{"bike_id":"de14aefe-f5f8-43b7-987c-863a99539a6c","system_id":"levelo_inurba_marseille","lat":43.29007,"lon":5.38135,"is_reserved":false,"is_disabled":false,"rental_uris":{"android":"levelo://app?vid=de14aefe-f5f8-43b7-987c-863a99539a6c","ios":"levelo://app?vid=de14aefe-f5f8-43b7-987c-863a99539a6c"},"vehicle_type_id":"4","last_reported":1731082243,"current_range_meters":34000,"station_id":"ce4bh4p2rcd13ifvqe1g","pricing_plan_id":"cebpf4jnsgd1na2vs0mg"},{"bike_id":"f4292f41-9b23-42da-bc1d-b4df47b83d0f","system_id":"levelo_inurba_marseille","lat":43.23182,"lon":5.39995,"is_reserved":false,"is_disabled":false,"rental_uris":{"android":"levelo://app?vid=f4292f41-9b23-42da-bc1d-b4df47b83d0f","ios":"levelo://app?vid=f4292f41-9b23-42da-bc1d-b4df47b83d0f"},"vehicle_type_id":"4","last_reported":1731082243,"current_range_meters":32400,"station_id":"ce4bhn12rcd13ifvqgqg","pricing_plan_id":"cebpf4jnsgd1na2vs0mg"},{"bike_id":"b8fdd341-0697-41ca-82c9-e4253415f4e6","system_id":"levelo_inurba_marseille","lat":43.23055,"lon":5.35495,"is_reserved":false,"is_disabled":false,"rental_uris":{"android":"levelo://app?vid=b8fdd341-0697-41ca-82c9-e4253415f4e6","ios":"levelo://app?vid=b8fdd341-0697-41ca-82c9-e4253415f4e6"},"vehicle_type_id":"4","last_reported":1731082243,"current_range_meters":36800,"station_id":"cpo3342slgdg3j2ifvpg","pricing_plan_id":"cebpf4jnsgd1na2vs0mg"},{"bike_id":"6989bfde-8bb8-4915-a20a-c91f22daae5d","system_id":"levelo_inurba_marseille","lat":43.26941,"lon":5.4026,"is_reserved":false,"is_disabled":false,"rental_uris":{"android":"levelo://app?vid=6989bfde-8bb8-4915-a20a-c91f22daae5d","ios":"levelo://app?vid=6989bfde-8bb8-4915-a20a-c91f22daae5d"},"vehicle_type_id":"4","last_reported":1731082243,"current_range_meters":5600,"station_id":"cjm6bp8fraef2m0cb0m0","pricing_plan_id":"cebpf4jnsgd1na2vs0mg"},{"bike_id":"ffa6a709-cf7b-41fd-acb6-77573eab6973","system_id":"levelo_inurba_marseille","lat":43.32481,"lon":5.36566,"is_reserved":false,"is_disabled":false,"rental_uris":{"android":"levelo://app?vid=ffa6a709-cf7b-41fd-acb6-77573eab6973","ios":"levelo://app?vid=ffa6a709-cf7b-41fd-acb6-77573eab6973"},"vehicle_type_id":"4","last_reported":1731082243,"current_range_meters":12800,"station_id":"ce4bhs12rcd13ifvqhvg","pricing_plan_id":"cebpf4jnsgd1na2vs0mg"},{"bike_id":"8c326b26-9203-4a12-8c49-2dc336785955","system_id":"levelo_inurba_marseille","lat":43.29533,"lon":5.38541,"is_reserved":false,"is_disabled":false,"rental_uris":{"android":"levelo://app?vid=8c326b26-9203-4a12-8c49-2dc336785955","ios":"levelo://app?vid=8c326b26-9203-4a12-8c49-2dc336785955"},"vehicle_type_id":"4","last_reported":1731082243,"current_range_meters":14400,"station_id":"ce4bgih2rcd13ifvqba0","pricing_plan_id":"cebpf4jnsgd1na2vs0mg"},{"bike_id":"bb734a49-fff9-4217-9a09-aa4166e9165f","system_id":"levelo_inurba_marseille","lat":43.28074,"lon":5.39662,"is_reserved":false,"is_disabled":false,"rental_uris":{"android":"levelo://app?vid=bb734a49-fff9-4217-9a09-aa4166e9165f","ios":"levelo://app?vid=bb734a49-fff9-4217-9a09-aa4166e9165f"},"vehicle_type_id":"4","last_reported":1731082243,"current_range_meters":12800,"station_id":"ce4bho12rcd13ifvqh2g","pricing_plan_id":"cebpf4jnsgd1na2vs0mg"},{"bike_id":"d276e9e9-8e08-4716-aa34-eb0e2e6e02b7","system_id":"levelo_inurba_marseille","lat":43.30122,"lon":5.38787,"is_reserved":false,"is_disabled":false,"rental_uris":{"android":"levelo://app?vid=d276e9e9-8e08-4716-aa34-eb0e2e6e02b7","ios":"levelo://app?vid=d276e9e9-8e08-4716-aa34-eb0e2e6e02b7"},"vehicle_type_id":"4","last_reported":1731082243,"current_range_meters":24400,"station_id":"ce4bghh2rcd13ifvqb60","pricing_plan_id":"cebpf4jnsgd1na2vs0mg"},{"bike_id":"f97ddace-1e35-4c27-8ab1-e63f983a4b0f","system_id":"levelo_inurba_marseille","lat":43.2953,"lon":5.39049,"is_reserved":false,"is_disabled":false,"rental_uris":{"android":"levelo://app?vid=f97ddace-1e35-4c27-8ab1-e63f983a4b0f","ios":"levelo://app?vid=f97ddace-1e35-4c27-8ab1-e63f983a4b0f"},"vehicle_type_id":"4","last_reported":1731082243,"current_range_meters":38800,"station_id":"ce4bh3p2rcd13ifvqdp0","pricing_plan_id":"cebpf4jnsgd1na2vs0mg"},{"bike_id":"b0e61fc7-5d53-4447-abd0-29cd05d8c8ee","system_id":"levelo_inurba_marseille","lat":43.28344,"lon":5.38111,"is_reserved":false,"is_disabled":false,"rental_uris":{"android":"levelo://app?vid=b0e61fc7-5d53-4447-abd0-29cd05d8c8ee","ios":"levelo://app?vid=b0e61fc7-5d53-4447-abd0-29cd05d8c8ee"},"vehicle_type_id":"4","last_reported":1731082243,"current_range_meters":17200,"station_id":"ce4bh412rcd13ifvqdr0","pricing_plan_id":"cebpf4jnsgd1na2vs0mg"},{"bike_id":"9bd46380-faec-48ac-99ee-51d791b630e0","system_id":"levelo_inurba_marseille","lat":43.2681,"lon":5.40272,"is_reserved":false,"is_disabled":false,"rental_uris":{"android":"levelo://app?vid=9bd46380-faec-48ac-99ee-51d791b630e0","ios":"levelo://app?vid=9bd46380-faec-48ac-99ee-51d791b630e0"},"vehicle_type_id":"4","last_reported":1731082243,"current_range_meters":16000,"station_id":"ce501612rcd8frsf0b60","pricing_plan_id":"cebpf4jnsgd1na2vs0mg"},{"bike_id":"0e306ee8-d925-41d1-b49a-1978dbf1f3ae","system_id":"levelo_inurba_marseille","lat":43.29911,"lon":5.37478,"is_reserved":false,"is_disabled":false,"rental_uris":{"android":"levelo://app?vid=0e306ee8-d925-41d1-b49a-1978dbf1f3ae","ios":"levelo://app?vid=0e306ee8-d925-41d1-b49a-1978dbf1f3ae"},"vehicle_type_id":"4","last_reported":1731082243,"current_range_meters":36400,"station_id":"ce4bgjh2rcd13ifvqbg0","pricing_plan_id":"cebpf4jnsgd1na2vs0mg"},{"bike_id":"ac1ceaa2-30d9-46ba-979d-5486e08ff315","system_id":"levelo_inurba_marseille","lat":43.3171,"lon":5.43703,"is_reserved":false,"is_disabled":false,"rental_uris":{"android":"levelo://app?vid=ac1ceaa2-30d9-46ba-979d-5486e08ff315","ios":"levelo://app?vid=ac1ceaa2-30d9-46ba-979d-5486e08ff315"},"vehicle_type_id":"4","last_reported":1731082243,"current_range_meters":10000,"station_id":"ce4bhp92rcd13ifvqhcg","pricing_plan_id":"cebpf4jnsgd1na2vs0mg"},{"bike_id":"84734344-4100-498f-90db-13a43f921e51","system_id":"levelo_inurba_marseille","lat":43.29621,"lon":5.37152,"is_reserved":false,"is_disabled":false,"rental_uris":{"android":"levelo://app?vid=84734344-4100-498f-90db-13a43f921e51","ios":"levelo://app?vid=84734344-4100-498f-90db-13a43f921e51"},"vehicle_type_id":"4","last_reported":1731082243,"current_range_meters":28800,"station_id":"ce4bgnh2rcd13ifvqc0g","pricing_plan_id":"cebpf4jnsgd1na2vs0mg"},{"bike_id":"82bcb5cc-eff7-40fa-ae6c-a3c17f56dccf","system_id":"levelo_inurba_marseille","lat":43.31997,"lon":5.38158,"is_reserved":false,"is_disabled":false,"rental_uris":{"android":"levelo://app?vid=82bcb5cc-eff7-40fa-ae6c-a3c17f56dccf","ios":"levelo://app?vid=82bcb5cc-eff7-40fa-ae6c-a3c17f56dccf"},"vehicle_type_id":"4","last_reported":1731082243,"current_range_meters":14800,"station_id":"ce4bhr12rcd13ifvqhpg","pricing_plan_id":"cebpf4jnsgd1na2vs0mg"},{"bike_id":"2e7a99c4-bb49-4d11-b5ea-bbbe88aeab49","system_id":"levelo_inurba_marseille","lat":43.32479,"lon":5.36567,"is_reserved":false,"is_disabled":false,"rental_uris":{"android":"levelo://app?vid=2e7a99c4-bb49-4d11-b5ea-bbbe88aeab49","ios":"levelo://app?vid=2e7a99c4-bb49-4d11-b5ea-bbbe88aeab49"},"vehicle_type_id":"4","last_reported":1731082243,"current_range_meters":38800,"station_id":"ce4bhs12rcd13ifvqhvg","pricing_plan_id":"cebpf4jnsgd1na2vs0mg"},{"bike_id":"a77d95f8-1237-461c-b90c-b3583a177300","system_id":"levelo_inurba_marseille","lat":43.29195,"lon":5.39333,"is_reserved":false,"is_disabled":false,"rental_uris":{"android":"levelo://app?vid=a77d95f8-1237-461c-b90c-b3583a177300","ios":"levelo://app?vid=a77d95f8-1237-461c-b90c-b3583a177300"},"vehicle_type_id":"4","last_reported":1731082243,"current_range_meters":37600,"station_id":"ce4bh192rcd13ifvqdd0","pricing_plan_id":"cebpf4jnsgd1na2vs0mg"},{"bike_id":"be074bbf-7203-48e7-a1b1-50a075eef0c3","system_id":"levelo_inurba_marseille","lat":43.28442,"lon":5.39209,"is_reserved":false,"is_disabled":false,"rental_uris":{"android":"levelo://app?vid=be074bbf-7203-48e7-a1b1-50a075eef0c3","ios":"levelo://app?vid=be074bbf-7203-48e7-a1b1-50a075eef0c3"},"vehicle_type_id":"4","last_reported":1731082243,"current_range_meters":25200,"station_id":"ce4bhoh2rcd13ifvqh5g","pricing_plan_id":"cebpf4jnsgd1na2vs0mg"},{"bike_id":"bc2d6971-e395-4768-9fc5-d20d0fa99369","system_id":"levelo_inurba_marseille","lat":43.28003,"lon":5.40011,"is_reserved":false,"is_disabled":false,"rental_uris":{"android":"levelo://app?vid=bc2d6971-e395-4768-9fc5-d20d0fa99369","ios":"levelo://app?vid=bc2d6971-e395-4768-9fc5-d20d0fa99369"},"vehicle_type_id":"4","last_reported":1731082243,"current_range_meters":19600,"station_id":"ce4bho92rcd13ifvqh4g","pricing_plan_id":"cebpf4jnsgd1na2vs0mg"},{"bike_id":"cc6b1fc4-de62-4ff1-8259-c68ca26d03e6","system_id":"levelo_inurba_marseille","lat":43.30539,"lon":5.36709,"is_reserved":false,"is_disabled":false,"rental_uris":{"android":"levelo://app?vid=cc6b1fc4-de62-4ff1-8259-c68ca26d03e6","ios":"levelo://app?vid=cc6b1fc4-de62-4ff1-8259-c68ca26d03e6"},"vehicle_type_id":"4","last_reported":1731082243,"current_range_meters":38800,"station_id":"ce4bgrp2rcd13ifvqc9g","pricing_plan_id":"cebpf4jnsgd1na2vs0mg"},{"bike_id":"d9b21735-e392-43ef-afc4-0e80b69eeead","system_id":"levelo_inurba_marseille","lat":43.282637,"lon":5.350724,"is_reserved":false,"is_disabled":false,"rental_uris":{"android":"levelo://app?vid=d9b21735-e392-43ef-afc4-0e80b69eeead","ios":"levelo://app?vid=d9b21735-e392-43ef-afc4-0e80b69eeead"},"vehicle_type_id":"4","last_reported":1731082243,"current_range_meters":12800,"station_id":"ce4bhbp2rcd13ifvqerg","pricing_plan_id":"cebpf4jnsgd1na2vs0mg"},{"bike_id":"87653979-0050-4dec-b731-c693e4858b90","system_id":"levelo_inurba_marseille","lat":43.26556,"lon":5.37279,"is_reserved":false,"is_disabled":false,"rental_uris":{"android":"levelo://app?vid=87653979-0050-4dec-b731-c693e4858b90","ios":"levelo://app?vid=87653979-0050-4dec-b731-c693e4858b90"},"vehicle_type_id":"4","last_reported":1731082243,"current_range_meters":38800,"station_id":"ce4bhg12rcd13ifvqf70","pricing_plan_id":"cebpf4jnsgd1na2vs0mg"},{"bike_id":"f3169692-b6ec-41e5-94a5-955164da9ecc","system_id":"levelo_inurba_marseille","lat":43.293103,"lon":5.401361,"is_reserved":false,"is_disabled":false,"rental_uris":{"android":"levelo://app?vid=f3169692-b6ec-41e5-94a5-955164da9ecc","ios":"levelo://app?vid=f3169692-b6ec-41e5-94a5-955164da9ecc"},"vehicle_type_id":"4","last_reported":1731082243,"current_range_meters":21600,"station_id":"ce4bgk12rcd13ifvqbi0","pricing_plan_id":"cebpf4jnsgd1na2vs0mg"},{"bike_id":"f2b88fdd-2e0b-4b5e-888c-35155555732c","system_id":"levelo_inurba_marseille","lat":43.31998,"lon":5.38148,"is_reserved":false,"is_disabled":false,"rental_uris":{"android":"levelo://app?vid=f2b88fdd-2e0b-4b5e-888c-35155555732c","ios":"levelo://app?vid=f2b88fdd-2e0b-4b5e-888c-35155555732c"},"vehicle_type_id":"4","last_reported":1731082243,"current_range_meters":38800,"station_id":"ce4bhr12rcd13ifvqhpg","pricing_plan_id":"cebpf4jnsgd1na2vs0mg"},{"bike_id":"8860a1ae-d54a-4fc4-bba7-31a81b95a526","system_id":"levelo_inurba_marseille","lat":43.296,"lon":5.3811,"is_reserved":false,"is_disabled":false,"rental_uris":{"android":"levelo://app?vid=8860a1ae-d54a-4fc4-bba7-31a81b95a526","ios":"levelo://app?vid=8860a1ae-d54a-4fc4-bba7-31a81b95a526"},"vehicle_type_id":"4","last_reported":1731082243,"current_range_meters":33600,"station_id":"ce4bgl12rcd13ifvqbo0","pricing_plan_id":"cebpf4jnsgd1na2vs0mg"},{"bike_id":"b9478b1d-79e3-44c9-ae60-496dd5151f62","system_id":"levelo_inurba_marseille","lat":43.29161,"lon":5.3715,"is_reserved":false,"is_disabled":false,"rental_uris":{"android":"levelo://app?vid=b9478b1d-79e3-44c9-ae60-496dd5151f62","ios":"levelo://app?vid=b9478b1d-79e3-44c9-ae60-496dd5151f62"},"vehicle_type_id":"4","last_reported":1731082243,"current_range_meters":38800,"station_id":"ce4bha92rcd13ifvqeh0","pricing_plan_id":"cebpf4jnsgd1na2vs0mg"},{"bike_id":"d3608781-7a95-4a80-9c45-48f596cb3e4b","system_id":"levelo_inurba_marseille","lat":43.3375,"lon":5.37451,"is_reserved":false,"is_disabled":false,"rental_uris":{"android":"levelo://app?vid=d3608781-7a95-4a80-9c45-48f596cb3e4b","ios":"levelo://app?vid=d3608781-7a95-4a80-9c45-48f596cb3e4b"},"vehicle_type_id":"4","last_reported":1731082243,"current_range_meters":17200,"station_id":"","pricing_plan_id":"cebpf4jnsgd1na2vs0mg"},{"bike_id":"319fd376-89aa-470d-b030-d573ff0139e4","system_id":"levelo_inurba_marseille","lat":43.30784,"lon":5.37658,"is_reserved":false,"is_disabled":false,"rental_uris":{"android":"levelo://app?vid=319fd376-89aa-470d-b030-d573ff0139e4","ios":"levelo://app?vid=319fd376-89aa-470d-b030-d573ff0139e4"},"vehicle_type_id":"4","last_reported":1731082243,"current_range_meters":36800,"station_id":"ce4bgv92rcd13ifvqcq0","pricing_plan_id":"cebpf4jnsgd1na2vs0mg"},{"bike_id":"04cd3841-a84b-4b91-bc27-bb10f63e2a0f","system_id":"levelo_inurba_marseille","lat":43.26802,"lon":5.40263,"is_reserved":false,"is_disabled":false,"rental_uris":{"android":"levelo://app?vid=04cd3841-a84b-4b91-bc27-bb10f63e2a0f","ios":"levelo://app?vid=04cd3841-a84b-4b91-bc27-bb10f63e2a0f"},"vehicle_type_id":"4","last_reported":1731082243,"current_range_meters":28000,"station_id":"ce501612rcd8frsf0b60","pricing_plan_id":"cebpf4jnsgd1na2vs0mg"},{"bike_id":"d070148f-8ecc-4c75-8cb1-c8bc85f50390","system_id":"levelo_inurba_marseille","lat":43.33021,"lon":5.39044,"is_reserved":false,"is_disabled":false,"rental_uris":{"android":"levelo://app?vid=d070148f-8ecc-4c75-8cb1-c8bc85f50390","ios":"levelo://app?vid=d070148f-8ecc-4c75-8cb1-c8bc85f50390"},"vehicle_type_id":"4","last_reported":1731082243,"current_range_meters":15200,"station_id":"ce4bhr92rcd13ifvqhrg","pricing_plan_id":"cebpf4jnsgd1na2vs0mg"},{"bike_id":"67973970-2aba-4325-9179-eeb15979f4bc","system_id":"levelo_inurba_marseille","lat":43.2781,"lon":5.40717,"is_reserved":false,"is_disabled":false,"rental_uris":{"android":"levelo://app?vid=67973970-2aba-4325-9179-eeb15979f4bc","ios":"levelo://app?vid=67973970-2aba-4325-9179-eeb15979f4bc"},"vehicle_type_id":"4","last_reported":1731082243,"current_range_meters":22800,"station_id":"ce4bhnh2rcd13ifvqgtg","pricing_plan_id":"cebpf4jnsgd1na2vs0mg"},{"bike_id":"29824cde-4cdc-4355-9b22-a5922a403deb","system_id":"levelo_inurba_marseille","lat":43.337444,"lon":5.374475,"is_reserved":false,"is_disabled":false,"rental_uris":{"android":"levelo://app?vid=29824cde-4cdc-4355-9b22-a5922a403deb","ios":"levelo://app?vid=29824cde-4cdc-4355-9b22-a5922a403deb"},"vehicle_type_id":"4","last_reported":1731082243,"current_range_meters":37600,"station_id":"","pricing_plan_id":"cebpf4jnsgd1na2vs0mg"},{"bike_id":"136548bd-9b2c-4d98-84ce-36d39467f2b3","system_id":"levelo_inurba_marseille","lat":43.26942,"lon":5.40246,"is_reserved":false,"is_disabled":false,"rental_uris":{"android":"levelo://app?vid=136548bd-9b2c-4d98-84ce-36d39467f2b3","ios":"levelo://app?vid=136548bd-9b2c-4d98-84ce-36d39467f2b3"},"vehicle_type_id":"4","last_reported":1731082243,"current_range_meters":22800,"station_id":"cjm6bp8fraef2m0cb0m0","pricing_plan_id":"cebpf4jnsgd1na2vs0mg"},{"bike_id":"8b03156e-cd0c-47f1-a907-b31b0fdecac4","system_id":"levelo_inurba_marseille","lat":43.3122,"lon":5.36853,"is_reserved":false,"is_disabled":false,"rental_uris":{"android":"levelo://app?vid=8b03156e-cd0c-47f1-a907-b31b0fdecac4","ios":"levelo://app?vid=8b03156e-cd0c-47f1-a907-b31b0fdecac4"},"vehicle_type_id":"4","last_reported":1731082243,"current_range_meters":29600,"station_id":"ce4bgl92rcd13ifvqbq0","pricing_plan_id":"cebpf4jnsgd1na2vs0mg"},{"bike_id":"eccb9bf1-4a0c-4df5-8229-bf46f21c4329","system_id":"levelo_inurba_marseille","lat":43.31717,"lon":5.42407,"is_reserved":false,"is_disabled":false,"rental_uris":{"android":"levelo://app?vid=eccb9bf1-4a0c-4df5-8229-bf46f21c4329","ios":"levelo://app?vid=eccb9bf1-4a0c-4df5-8229-bf46f21c4329"},"vehicle_type_id":"4","last_reported":1731082243,"current_range_meters":37600,"station_id":"ce4bhp92rcd13ifvqhbg","pricing_plan_id":"cebpf4jnsgd1na2vs0mg"},{"bike_id":"ef288286-229d-4b9a-a189-8d61840dcffb","system_id":"levelo_inurba_marseille","lat":43.23189,"lon":5.35564,"is_reserved":false,"is_disabled":false,"rental_uris":{"android":"levelo://app?vid=ef288286-229d-4b9a-a189-8d61840dcffb","ios":"levelo://app?vid=ef288286-229d-4b9a-a189-8d61840dcffb"},"vehicle_type_id":"4","last_reported":1731082243,"current_range_meters":38000,"station_id":"ce4bhu92rcd13ifvqi70","pricing_plan_id":"cebpf4jnsgd1na2vs0mg"},{"bike_id":"68a16cb1-5aff-45bf-9786-11e01f81ed1f","system_id":"levelo_inurba_marseille","lat":43.26211,"lon":5.37444,"is_reserved":false,"is_disabled":false,"rental_uris":{"android":"levelo://app?vid=68a16cb1-5aff-45bf-9786-11e01f81ed1f","ios":"levelo://app?vid=68a16cb1-5aff-45bf-9786-11e01f81ed1f"},"vehicle_type_id":"4","last_reported":1731082243,"current_range_meters":37600,"station_id":"ce4bhgp2rcd13ifvqfc0","pricing_plan_id":"cebpf4jnsgd1na2vs0mg"},{"bike_id":"2c8eb9c1-2f7c-4269-9a2f-ed25a79933ac","system_id":"levelo_inurba_marseille","lat":43.25586,"lon":5.38227,"is_reserved":false,"is_disabled":false,"rental_uris":{"android":"levelo://app?vid=2c8eb9c1-2f7c-4269-9a2f-ed25a79933ac","ios":"levelo://app?vid=2c8eb9c1-2f7c-4269-9a2f-ed25a79933ac"},"vehicle_type_id":"4","last_reported":1731082243,"current_range_meters":28400,"station_id":"ce4bhih2rcd13ifvqfs0","pricing_plan_id":"cebpf4jnsgd1na2vs0mg"},{"bike_id":"dca1f214-5601-4638-b107-45697c9de4e2","system_id":"levelo_inurba_marseille","lat":43.29798,"lon":5.3985,"is_reserved":false,"is_disabled":false,"rental_uris":{"android":"levelo://app?vid=dca1f214-5601-4638-b107-45697c9de4e2","ios":"levelo://app?vid=dca1f214-5601-4638-b107-45697c9de4e2"},"vehicle_type_id":"4","last_reported":1731082243,"current_range_meters":9200,"station_id":"ce4bh0h2rcd13ifvqd50","pricing_plan_id":"cebpf4jnsgd1na2vs0mg"},{"bike_id":"a6151016-4537-4f5c-962a-688033c7b30d","system_id":"levelo_inurba_marseille","lat":43.31364,"lon":5.38477,"is_reserved":false,"is_disabled":false,"rental_uris":{"android":"levelo://app?vid=a6151016-4537-4f5c-962a-688033c7b30d","ios":"levelo://app?vid=a6151016-4537-4f5c-962a-688033c7b30d"},"vehicle_type_id":"4","last_reported":1731082243,"current_range_meters":17200,"station_id":"ce4bgt92rcd13ifvqcf0","pricing_plan_id":"cebpf4jnsgd1na2vs0mg"},{"bike_id":"87aab627-0f86-4693-aea1-8a46d1a5989f","system_id":"levelo_inurba_marseille","lat":43.25859,"lon":5.39907,"is_reserved":false,"is_disabled":false,"rental_uris":{"android":"levelo://app?vid=87aab627-0f86-4693-aea1-8a46d1a5989f","ios":"levelo://app?vid=87aab627-0f86-4693-aea1-8a46d1a5989f"},"vehicle_type_id":"4","last_reported":1731082243,"current_range_meters":35600,"station_id":"ce4bhl92rcd13ifvqghg","pricing_plan_id":"cebpf4jnsgd1na2vs0mg"},{"bike_id":"32ab6043-a52d-423d-8119-fe1bdcc529d7","system_id":"levelo_inurba_marseille","lat":43.30174,"lon":5.36638,"is_reserved":false,"is_disabled":false,"rental_uris":{"android":"levelo://app?vid=32ab6043-a52d-423d-8119-fe1bdcc529d7","ios":"levelo://app?vid=32ab6043-a52d-423d-8119-fe1bdcc529d7"},"vehicle_type_id":"4","last_reported":1731082243,"current_range_meters":2800,"station_id":"ce4bgrh2rcd13ifvqc8g","pricing_plan_id":"cebpf4jnsgd1na2vs0mg"},{"bike_id":"45421d28-9850-4beb-9674-e7f78c23d387","system_id":"levelo_inurba_marseille","lat":43.30768,"lon":5.37658,"is_reserved":false,"is_disabled":false,"rental_uris":{"android":"levelo://app?vid=45421d28-9850-4beb-9674-e7f78c23d387","ios":"levelo://app?vid=45421d28-9850-4beb-9674-e7f78c23d387"},"vehicle_type_id":"4","last_reported":1731082243,"current_range_meters":21600,"station_id":"ce4bgv92rcd13ifvqcq0","pricing_plan_id":"cebpf4jnsgd1na2vs0mg"},{"bike_id":"717ab83a-6f01-4af7-a0f3-3c0c83225ece","system_id":"levelo_inurba_marseille","lat":43.31172,"lon":5.38725,"is_reserved":false,"is_disabled":false,"rental_uris":{"android":"levelo://app?vid=717ab83a-6f01-4af7-a0f3-3c0c83225ece","ios":"levelo://app?vid=717ab83a-6f01-4af7-a0f3-3c0c83225ece"},"vehicle_type_id":"4","last_reported":1731082243,"current_range_meters":27600,"station_id":"ce4bgv12rcd13ifvqcp0","pricing_plan_id":"cebpf4jnsgd1na2vs0mg"},{"bike_id":"12ab8a2b-bf2e-44a7-8096-67ee8e37b5b1","system_id":"levelo_inurba_marseille","lat":43.26947,"lon":5.40255,"is_reserved":false,"is_disabled":false,"rental_uris":{"android":"levelo://app?vid=12ab8a2b-bf2e-44a7-8096-67ee8e37b5b1","ios":"levelo://app?vid=12ab8a2b-bf2e-44a7-8096-67ee8e37b5b1"},"vehicle_type_id":"4","last_reported":1731082243,"current_range_meters":38800,"station_id":"cjm6bp8fraef2m0cb0m0","pricing_plan_id":"cebpf4jnsgd1na2vs0mg"},{"bike_id":"c0b0244e-d43e-46aa-a1c9-86c34fd228aa","system_id":"levelo_inurba_marseille","lat":43.31493,"lon":5.37309,"is_reserved":false,"is_disabled":false,"rental_uris":{"android":"levelo://app?vid=c0b0244e-d43e-46aa-a1c9-86c34fd228aa","ios":"levelo://app?vid=c0b0244e-d43e-46aa-a1c9-86c34fd228aa"},"vehicle_type_id":"4","last_reported":1731082243,"current_range_meters":30000,"station_id":"ce4bgt12rcd13ifvqcd0","pricing_plan_id":"cebpf4jnsgd1na2vs0mg"},{"bike_id":"841c9df1-f0db-4c1b-b9a9-575f56c5769d","system_id":"levelo_inurba_marseille","lat":43.29194,"lon":5.39327,"is_reserved":false,"is_disabled":false,"rental_uris":{"android":"levelo://app?vid=841c9df1-f0db-4c1b-b9a9-575f56c5769d","ios":"levelo://app?vid=841c9df1-f0db-4c1b-b9a9-575f56c5769d"},"vehicle_type_id":"4","last_reported":1731082243,"current_range_meters":37600,"station_id":"ce4bh192rcd13ifvqdd0","pricing_plan_id":"cebpf4jnsgd1na2vs0mg"},{"bike_id":"a5d87a3f-6c01-43c1-a3ca-2c774e8c9636","system_id":"levelo_inurba_marseille","lat":43.31079,"lon":5.42434,"is_reserved":false,"is_disabled":false,"rental_uris":{"android":"levelo://app?vid=a5d87a3f-6c01-43c1-a3ca-2c774e8c9636","ios":"levelo://app?vid=a5d87a3f-6c01-43c1-a3ca-2c774e8c9636"},"vehicle_type_id":"4","last_reported":1731082243,"current_range_meters":6800,"station_id":"ce4bhp92rcd13ifvqhag","pricing_plan_id":"cebpf4jnsgd1na2vs0mg"},{"bike_id":"8faa22dc-5f3c-4af6-b84b-f554e09d6313","system_id":"levelo_inurba_marseille","lat":43.337444,"lon":5.374475,"is_reserved":false,"is_disabled":false,"rental_uris":{"android":"levelo://app?vid=8faa22dc-5f3c-4af6-b84b-f554e09d6313","ios":"levelo://app?vid=8faa22dc-5f3c-4af6-b84b-f554e09d6313"},"vehicle_type_id":"4","last_reported":1731082243,"current_range_meters":37600,"station_id":"","pricing_plan_id":"cebpf4jnsgd1na2vs0mg"},{"bike_id":"22a21434-6031-47be-8568-25c2979ed55a","system_id":"levelo_inurba_marseille","lat":43.28451,"lon":5.35893,"is_reserved":false,"is_disabled":false,"rental_uris":{"android":"levelo://app?vid=22a21434-6031-47be-8568-25c2979ed55a","ios":"levelo://app?vid=22a21434-6031-47be-8568-25c2979ed55a"},"vehicle_type_id":"4","last_reported":1731082243,"current_range_meters":36400,"station_id":"ce4bhah2rcd13ifvqei0","pricing_plan_id":"cebpf4jnsgd1na2vs0mg"},{"bike_id":"61892a9e-576b-4a39-a5c5-aa7b307c3d49","system_id":"levelo_inurba_marseille","lat":43.28003,"lon":5.40005,"is_reserved":false,"is_disabled":false,"rental_uris":{"android":"levelo://app?vid=61892a9e-576b-4a39-a5c5-aa7b307c3d49","ios":"levelo://app?vid=61892a9e-576b-4a39-a5c5-aa7b307c3d49"},"vehicle_type_id":"4","last_reported":1731082243,"current_range_meters":20400,"station_id":"ce4bho92rcd13ifvqh4g","pricing_plan_id":"cebpf4jnsgd1na2vs0mg"},{"bike_id":"91fb6241-98d3-48f3-a23b-a3cc88b38086","system_id":"levelo_inurba_marseille","lat":43.29793,"lon":5.38111,"is_reserved":false,"is_disabled":false,"rental_uris":{"android":"levelo://app?vid=91fb6241-98d3-48f3-a23b-a3cc88b38086","ios":"levelo://app?vid=91fb6241-98d3-48f3-a23b-a3cc88b38086"},"vehicle_type_id":"4","last_reported":1731082243,"current_range_meters":16000,"station_id":"ce4bgip2rcd13ifvqbb0","pricing_plan_id":"cebpf4jnsgd1na2vs0mg"},{"bike_id":"2e5ea6b7-4bfd-466b-9c99-a67ba4dcdcf5","system_id":"levelo_inurba_marseille","lat":43.29529,"lon":5.38549,"is_reserved":false,"is_disabled":false,"rental_uris":{"android":"levelo://app?vid=2e5ea6b7-4bfd-466b-9c99-a67ba4dcdcf5","ios":"levelo://app?vid=2e5ea6b7-4bfd-466b-9c99-a67ba4dcdcf5"},"vehicle_type_id":"4","last_reported":1731082243,"current_range_meters":34000,"station_id":"ce4bgih2rcd13ifvqba0","pricing_plan_id":"cebpf4jnsgd1na2vs0mg"},{"bike_id":"7c919a5a-41a9-48ba-af91-29d9150449ce","system_id":"levelo_inurba_marseille","lat":43.29903,"lon":5.37476,"is_reserved":false,"is_disabled":false,"rental_uris":{"android":"levelo://app?vid=7c919a5a-41a9-48ba-af91-29d9150449ce","ios":"levelo://app?vid=7c919a5a-41a9-48ba-af91-29d9150449ce"},"vehicle_type_id":"4","last_reported":1731082243,"current_range_meters":36400,"station_id":"ce4bgjh2rcd13ifvqbg0","pricing_plan_id":"cebpf4jnsgd1na2vs0mg"},{"bike_id":"3be941a1-392c-4751-be3d-e2e50120b06e","system_id":"levelo_inurba_marseille","lat":43.2694,"lon":5.40248,"is_reserved":false,"is_disabled":false,"rental_uris":{"android":"levelo://app?vid=3be941a1-392c-4751-be3d-e2e50120b06e","ios":"levelo://app?vid=3be941a1-392c-4751-be3d-e2e50120b06e"},"vehicle_type_id":"4","last_reported":1731082243,"current_range_meters":2000,"station_id":"cjm6bp8fraef2m0cb0m0","pricing_plan_id":"cebpf4jnsgd1na2vs0mg"},{"bike_id":"c7022000-40bb-4946-aca4-3a5058fa7b80","system_id":"levelo_inurba_marseille","lat":43.26568,"lon":5.37282,"is_reserved":false,"is_disabled":false,"rental_uris":{"android":"levelo://app?vid=c7022000-40bb-4946-aca4-3a5058fa7b80","ios":"levelo://app?vid=c7022000-40bb-4946-aca4-3a5058fa7b80"},"vehicle_type_id":"4","last_reported":1731082243,"current_range_meters":8800,"station_id":"ce4bhg12rcd13ifvqf70","pricing_plan_id":"cebpf4jnsgd1na2vs0mg"},{"bike_id":"eefd0687-4492-41ad-9368-b877bab02ae1","system_id":"levelo_inurba_marseille","lat":43.31231,"lon":5.36851,"is_reserved":false,"is_disabled":false,"rental_uris":{"android":"levelo://app?vid=eefd0687-4492-41ad-9368-b877bab02ae1","ios":"levelo://app?vid=eefd0687-4492-41ad-9368-b877bab02ae1"},"vehicle_type_id":"4","last_reported":1731082243,"current_range_meters":38000,"station_id":"ce4bgl92rcd13ifvqbq0","pricing_plan_id":"cebpf4jnsgd1na2vs0mg"},{"bike_id":"02b791d4-f84e-431f-8c3b-148e817c9504","system_id":"levelo_inurba_marseille","lat":43.29275,"lon":5.36853,"is_reserved":false,"is_disabled":false,"rental_uris":{"android":"levelo://app?vid=02b791d4-f84e-431f-8c3b-148e817c9504","ios":"levelo://app?vid=02b791d4-f84e-431f-8c3b-148e817c9504"},"vehicle_type_id":"4","last_reported":1731082243,"current_range_meters":36400,"station_id":"ce4bhbp2rcd13ifvqesg","pricing_plan_id":"cebpf4jnsgd1na2vs0mg"},{"bike_id":"4994e379-2737-433a-b3f6-27e388151f58","system_id":"levelo_inurba_marseille","lat":43.26952,"lon":5.38637,"is_reserved":false,"is_disabled":false,"rental_uris":{"android":"levelo://app?vid=4994e379-2737-433a-b3f6-27e388151f58","ios":"levelo://app?vid=4994e379-2737-433a-b3f6-27e388151f58"},"vehicle_type_id":"4","last_reported":1731082243,"current_range_meters":9200,"station_id":"ce4bhh92rcd13ifvqfh0","pricing_plan_id":"cebpf4jnsgd1na2vs0mg"},{"bike_id":"1f3ba906-6e07-4370-b207-43e1aae1c14a","system_id":"levelo_inurba_marseille","lat":43.31367,"lon":5.36701,"is_reserved":false,"is_disabled":false,"rental_uris":{"android":"levelo://app?vid=1f3ba906-6e07-4370-b207-43e1aae1c14a","ios":"levelo://app?vid=1f3ba906-6e07-4370-b207-43e1aae1c14a"},"vehicle_type_id":"4","last_reported":1731082243,"current_range_meters":11200,"station_id":"ce4bgr92rcd13ifvqc6g","pricing_plan_id":"cebpf4jnsgd1na2vs0mg"},{"bike_id":"18c037c7-a546-4a31-b37c-87cac18972e2","system_id":"levelo_inurba_marseille","lat":43.28037,"lon":5.36945,"is_reserved":false,"is_disabled":false,"rental_uris":{"android":"levelo://app?vid=18c037c7-a546-4a31-b37c-87cac18972e2","ios":"levelo://app?vid=18c037c7-a546-4a31-b37c-87cac18972e2"},"vehicle_type_id":"4","last_reported":1731082243,"current_range_meters":4000,"station_id":"ce4bha12rcd13ifvqef0","pricing_plan_id":"cebpf4jnsgd1na2vs0mg"},{"bike_id":"d6fdae69-642e-4d84-a8fd-edeb75ed0ef4","system_id":"levelo_inurba_marseille","lat":43.22932,"lon":5.35376,"is_reserved":false,"is_disabled":false,"rental_uris":{"android":"levelo://app?vid=d6fdae69-642e-4d84-a8fd-edeb75ed0ef4","ios":"levelo://app?vid=d6fdae69-642e-4d84-a8fd-edeb75ed0ef4"},"vehicle_type_id":"4","last_reported":1731082243,"current_range_meters":38800,"station_id":"cpo3532slgdg3j2ikp40","pricing_plan_id":"cebpf4jnsgd1na2vs0mg"},{"bike_id":"d1f91482-6dd3-42d8-bdfe-55d1874ef8bf","system_id":"levelo_inurba_marseille","lat":43.29974,"lon":5.37186,"is_reserved":false,"is_disabled":false,"rental_uris":{"android":"levelo://app?vid=d1f91482-6dd3-42d8-bdfe-55d1874ef8bf","ios":"levelo://app?vid=d1f91482-6dd3-42d8-bdfe-55d1874ef8bf"},"vehicle_type_id":"4","last_reported":1731082243,"current_range_meters":36800,"station_id":"ce4bgr92rcd13ifvqc7g","pricing_plan_id":"cebpf4jnsgd1na2vs0mg"},{"bike_id":"e445b42a-d1c3-4e43-95d9-39f5d0b7fcd9","system_id":"levelo_inurba_marseille","lat":43.25873,"lon":5.399,"is_reserved":false,"is_disabled":false,"rental_uris":{"android":"levelo://app?vid=e445b42a-d1c3-4e43-95d9-39f5d0b7fcd9","ios":"levelo://app?vid=e445b42a-d1c3-4e43-95d9-39f5d0b7fcd9"},"vehicle_type_id":"4","last_reported":1731082243,"current_range_meters":7200,"station_id":"ce4bhl92rcd13ifvqghg","pricing_plan_id":"cebpf4jnsgd1na2vs0mg"},{"bike_id":"730b0531-13b2-417a-8ecc-a792465576d5","system_id":"levelo_inurba_marseille","lat":43.2794,"lon":5.41051,"is_reserved":false,"is_disabled":false,"rental_uris":{"android":"levelo://app?vid=730b0531-13b2-417a-8ecc-a792465576d5","ios":"levelo://app?vid=730b0531-13b2-417a-8ecc-a792465576d5"},"vehicle_type_id":"4","last_reported":1731082243,"current_range_meters":14800,"station_id":"ce4bhnp2rcd13ifvqh0g","pricing_plan_id":"cebpf4jnsgd1na2vs0mg"},{"bike_id":"86d64521-d332-4842-b4fb-5fa4820d8c81","system_id":"levelo_inurba_marseille","lat":43.337444,"lon":5.374475,"is_reserved":false,"is_disabled":false,"rental_uris":{"android":"levelo://app?vid=86d64521-d332-4842-b4fb-5fa4820d8c81","ios":"levelo://app?vid=86d64521-d332-4842-b4fb-5fa4820d8c81"},"vehicle_type_id":"4","last_reported":1731082243,"current_range_meters":36800,"station_id":"","pricing_plan_id":"cebpf4jnsgd1na2vs0mg"},{"bike_id":"4f82e426-2001-4837-ac32-a462833cde87","system_id":"levelo_inurba_marseille","lat":43.29301,"lon":5.37181,"is_reserved":false,"is_disabled":false,"rental_uris":{"android":"levelo://app?vid=4f82e426-2001-4837-ac32-a462833cde87","ios":"levelo://app?vid=4f82e426-2001-4837-ac32-a462833cde87"},"vehicle_type_id":"4","last_reported":1731082243,"current_range_meters":9200,"station_id":"ce4bgh92rcd13ifvqb40","pricing_plan_id":"cebpf4jnsgd1na2vs0mg"},{"bike_id":"516fd39d-7578-49d1-bf84-850c48ca7346","system_id":"levelo_inurba_marseille","lat":43.284584,"lon":5.358844,"is_reserved":false,"is_disabled":false,"rental_uris":{"android":"levelo://app?vid=516fd39d-7578-49d1-bf84-850c48ca7346","ios":"levelo://app?vid=516fd39d-7578-49d1-bf84-850c48ca7346"},"vehicle_type_id":"4","last_reported":1731082243,"current_range_meters":10000,"station_id":"ce4bhah2rcd13ifvqei0","pricing_plan_id":"cebpf4jnsgd1na2vs0mg"},{"bike_id":"bc1124c3-6344-405c-89bb-711ee5ab8f44","system_id":"levelo_inurba_marseille","lat":43.3133,"lon":5.3972,"is_reserved":false,"is_disabled":false,"rental_uris":{"android":"levelo://app?vid=bc1124c3-6344-405c-89bb-711ee5ab8f44","ios":"levelo://app?vid=bc1124c3-6344-405c-89bb-711ee5ab8f44"},"vehicle_type_id":"4","last_reported":1731082243,"current_range_meters":36800,"station_id":"ce4bgvp2rcd13ifvqcu0","pricing_plan_id":"cebpf4jnsgd1na2vs0mg"},{"bike_id":"859ba7e1-4ce6-4bf1-9171-d5331bee279d","system_id":"levelo_inurba_marseille","lat":43.26058,"lon":5.39404,"is_reserved":false,"is_disabled":false,"rental_uris":{"android":"levelo://app?vid=859ba7e1-4ce6-4bf1-9171-d5331bee279d","ios":"levelo://app?vid=859ba7e1-4ce6-4bf1-9171-d5331bee279d"},"vehicle_type_id":"4","last_reported":1731082243,"current_range_meters":28400,"station_id":"ce4bhh92rcd13ifvqfj0","pricing_plan_id":"cebpf4jnsgd1na2vs0mg"},{"bike_id":"448d3bf9-78cb-439a-a23b-0e48f1b89013","system_id":"levelo_inurba_marseille","lat":43.32355,"lon":5.38939,"is_reserved":false,"is_disabled":false,"rental_uris":{"android":"levelo://app?vid=448d3bf9-78cb-439a-a23b-0e48f1b89013","ios":"levelo://app?vid=448d3bf9-78cb-439a-a23b-0e48f1b89013"},"vehicle_type_id":"4","last_reported":1731082243,"current_range_meters":16400,"station_id":"ce4bhqp2rcd13ifvqhog","pricing_plan_id":"cebpf4jnsgd1na2vs0mg"},{"bike_id":"803f8648-1a3f-489d-93c1-c149938aa54c","system_id":"levelo_inurba_marseille","lat":43.29843,"lon":5.36269,"is_reserved":false,"is_disabled":false,"rental_uris":{"android":"levelo://app?vid=803f8648-1a3f-489d-93c1-c149938aa54c","ios":"levelo://app?vid=803f8648-1a3f-489d-93c1-c149938aa54c"},"vehicle_type_id":"4","last_reported":1731082243,"current_range_meters":19200,"station_id":"ce4bgpp2rcd13ifvqc3g","pricing_plan_id":"cebpf4jnsgd1na2vs0mg"},{"bike_id":"e6764491-0022-499f-be8b-b972412c0009","system_id":"levelo_inurba_marseille","lat":43.27809,"lon":5.40712,"is_reserved":false,"is_disabled":false,"rental_uris":{"android":"levelo://app?vid=e6764491-0022-499f-be8b-b972412c0009","ios":"levelo://app?vid=e6764491-0022-499f-be8b-b972412c0009"},"vehicle_type_id":"4","last_reported":1731082243,"current_range_meters":7200,"station_id":"ce4bhnh2rcd13ifvqgtg","pricing_plan_id":"cebpf4jnsgd1na2vs0mg"},{"bike_id":"4c898810-84f9-4557-9f55-1e7665e6cd3c","system_id":"levelo_inurba_marseille","lat":43.26961,"lon":5.38636,"is_reserved":false,"is_disabled":false,"rental_uris":{"android":"levelo://app?vid=4c898810-84f9-4557-9f55-1e7665e6cd3c","ios":"levelo://app?vid=4c898810-84f9-4557-9f55-1e7665e6cd3c"},"vehicle_type_id":"4","last_reported":1731082243,"current_range_meters":25200,"station_id":"ce4bhh92rcd13ifvqfh0","pricing_plan_id":"cebpf4jnsgd1na2vs0mg"},{"bike_id":"30c759a2-6df1-49dd-8b4a-2f09b3c85fab","system_id":"levelo_inurba_marseille","lat":43.2811,"lon":5.37842,"is_reserved":false,"is_disabled":false,"rental_uris":{"android":"levelo://app?vid=30c759a2-6df1-49dd-8b4a-2f09b3c85fab","ios":"levelo://app?vid=30c759a2-6df1-49dd-8b4a-2f09b3c85fab"},"vehicle_type_id":"4","last_reported":1731082243,"current_range_meters":27200,"station_id":"ce4bha12rcd13ifvqee0","pricing_plan_id":"cebpf4jnsgd1na2vs0mg"},{"bike_id":"88e356ff-4066-4bc1-ae5f-470d814a99f1","system_id":"levelo_inurba_marseille","lat":43.301355,"lon":5.398551,"is_reserved":false,"is_disabled":false,"rental_uris":{"android":"levelo://app?vid=88e356ff-4066-4bc1-ae5f-470d814a99f1","ios":"levelo://app?vid=88e356ff-4066-4bc1-ae5f-470d814a99f1"},"vehicle_type_id":"4","last_reported":1731082243,"current_range_meters":32800,"station_id":"ce4bh0h2rcd13ifvqd40","pricing_plan_id":"cebpf4jnsgd1na2vs0mg"},{"bike_id":"632139ea-0e1f-451f-a858-ad984afe5975","system_id":"levelo_inurba_marseille","lat":43.29021,"lon":5.38129,"is_reserved":false,"is_disabled":false,"rental_uris":{"android":"levelo://app?vid=632139ea-0e1f-451f-a858-ad984afe5975","ios":"levelo://app?vid=632139ea-0e1f-451f-a858-ad984afe5975"},"vehicle_type_id":"4","last_reported":1731082243,"current_range_meters":8400,"station_id":"ce4bh4p2rcd13ifvqe1g","pricing_plan_id":"cebpf4jnsgd1na2vs0mg"},{"bike_id":"f6762cfa-9682-44e6-ab14-e1186ac13749","system_id":"levelo_inurba_marseille","lat":43.30136,"lon":5.37424,"is_reserved":false,"is_disabled":false,"rental_uris":{"android":"levelo://app?vid=f6762cfa-9682-44e6-ab14-e1186ac13749","ios":"levelo://app?vid=f6762cfa-9682-44e6-ab14-e1186ac13749"},"vehicle_type_id":"4","last_reported":1731082243,"current_range_meters":38800,"station_id":"ce4bgs92rcd13ifvqcc0","pricing_plan_id":"cebpf4jnsgd1na2vs0mg"},{"bike_id":"7fc30109-231e-43de-a1dd-8deb3c30d0a6","system_id":"levelo_inurba_marseille","lat":43.29897,"lon":5.37478,"is_reserved":false,"is_disabled":false,"rental_uris":{"android":"levelo://app?vid=7fc30109-231e-43de-a1dd-8deb3c30d0a6","ios":"levelo://app?vid=7fc30109-231e-43de-a1dd-8deb3c30d0a6"},"vehicle_type_id":"4","last_reported":1731082243,"current_range_meters":36400,"station_id":"ce4bgjh2rcd13ifvqbg0","pricing_plan_id":"cebpf4jnsgd1na2vs0mg"},{"bike_id":"33a67bb6-975c-437c-8497-00d6f62299e7","system_id":"levelo_inurba_marseille","lat":43.26946,"lon":5.40255,"is_reserved":false,"is_disabled":false,"rental_uris":{"android":"levelo://app?vid=33a67bb6-975c-437c-8497-00d6f62299e7","ios":"levelo://app?vid=33a67bb6-975c-437c-8497-00d6f62299e7"},"vehicle_type_id":"4","last_reported":1731082243,"current_range_meters":27600,"station_id":"cjm6bp8fraef2m0cb0m0","pricing_plan_id":"cebpf4jnsgd1na2vs0mg"},{"bike_id":"cb4396ef-aa9f-4b95-987f-fef819ce83d3","system_id":"levelo_inurba_marseille","lat":43.31879,"lon":5.40741,"is_reserved":false,"is_disabled":false,"rental_uris":{"android":"levelo://app?vid=cb4396ef-aa9f-4b95-987f-fef819ce83d3","ios":"levelo://app?vid=cb4396ef-aa9f-4b95-987f-fef819ce83d3"},"vehicle_type_id":"4","last_reported":1731082243,"current_range_meters":12000,"station_id":"ce4bhq12rcd13ifvqhig","pricing_plan_id":"cebpf4jnsgd1na2vs0mg"},{"bike_id":"a0d9d5ae-de17-4341-bed9-edfa4e4e8139","system_id":"levelo_inurba_marseille","lat":43.30446,"lon":5.36633,"is_reserved":false,"is_disabled":false,"rental_uris":{"android":"levelo://app?vid=a0d9d5ae-de17-4341-bed9-edfa4e4e8139","ios":"levelo://app?vid=a0d9d5ae-de17-4341-bed9-edfa4e4e8139"},"vehicle_type_id":"4","last_reported":1731082243,"current_range_meters":7200,"station_id":"","pricing_plan_id":"cebpf4jnsgd1na2vs0mg"},{"bike_id":"0dec49ff-bc09-4a50-bbae-8a5d88ef0e0b","system_id":"levelo_inurba_marseille","lat":43.30138,"lon":5.38785,"is_reserved":false,"is_disabled":false,"rental_uris":{"android":"levelo://app?vid=0dec49ff-bc09-4a50-bbae-8a5d88ef0e0b","ios":"levelo://app?vid=0dec49ff-bc09-4a50-bbae-8a5d88ef0e0b"},"vehicle_type_id":"4","last_reported":1731082243,"current_range_meters":22000,"station_id":"ce4bghh2rcd13ifvqb60","pricing_plan_id":"cebpf4jnsgd1na2vs0mg"},{"bike_id":"ff72051d-7e8f-46d3-bc5a-ce8f35154003","system_id":"levelo_inurba_marseille","lat":43.28627,"lon":5.35101,"is_reserved":false,"is_disabled":false,"rental_uris":{"android":"levelo://app?vid=ff72051d-7e8f-46d3-bc5a-ce8f35154003","ios":"levelo://app?vid=ff72051d-7e8f-46d3-bc5a-ce8f35154003"},"vehicle_type_id":"4","last_reported":1731082243,"current_range_meters":38400,"station_id":"ce4bhch2rcd13ifvqeug","pricing_plan_id":"cebpf4jnsgd1na2vs0mg"},{"bike_id":"b9bbcc56-b4ca-4451-b6cd-5d55532a753a","system_id":"levelo_inurba_marseille","lat":43.29516,"lon":5.39052,"is_reserved":false,"is_disabled":false,"rental_uris":{"android":"levelo://app?vid=b9bbcc56-b4ca-4451-b6cd-5d55532a753a","ios":"levelo://app?vid=b9bbcc56-b4ca-4451-b6cd-5d55532a753a"},"vehicle_type_id":"4","last_reported":1731082243,"current_range_meters":12400,"station_id":"ce4bh3p2rcd13ifvqdp0","pricing_plan_id":"cebpf4jnsgd1na2vs0mg"},{"bike_id":"99e03d11-763b-4e9c-ba9a-0c9a2185b360","system_id":"levelo_inurba_marseille","lat":43.32484,"lon":5.3657,"is_reserved":false,"is_disabled":false,"rental_uris":{"android":"levelo://app?vid=99e03d11-763b-4e9c-ba9a-0c9a2185b360","ios":"levelo://app?vid=99e03d11-763b-4e9c-ba9a-0c9a2185b360"},"vehicle_type_id":"4","last_reported":1731082243,"current_range_meters":36000,"station_id":"ce4bhs12rcd13ifvqhvg","pricing_plan_id":"cebpf4jnsgd1na2vs0mg"},{"bike_id":"1d7c7472-07e9-478e-9770-7d1bbe4b462d","system_id":"levelo_inurba_marseille","lat":43.33741,"lon":5.37465,"is_reserved":false,"is_disabled":false,"rental_uris":{"android":"levelo://app?vid=1d7c7472-07e9-478e-9770-7d1bbe4b462d","ios":"levelo://app?vid=1d7c7472-07e9-478e-9770-7d1bbe4b462d"},"vehicle_type_id":"4","last_reported":1731082243,"current_range_meters":35600,"station_id":"","pricing_plan_id":"cebpf4jnsgd1na2vs0mg"},{"bike_id":"8df1ecf7-aff1-4816-83c4-de902c6a1bc5","system_id":"levelo_inurba_marseille","lat":43.27311,"lon":5.39086,"is_reserved":false,"is_disabled":false,"rental_uris":{"android":"levelo://app?vid=8df1ecf7-aff1-4816-83c4-de902c6a1bc5","ios":"levelo://app?vid=8df1ecf7-aff1-4816-83c4-de902c6a1bc5"},"vehicle_type_id":"4","last_reported":1731082243,"current_range_meters":17200,"station_id":"ce4bhgp2rcd13ifvqfe0","pricing_plan_id":"cebpf4jnsgd1na2vs0mg"},{"bike_id":"35426de2-4a17-4702-9932-5965b3b4627b","system_id":"levelo_inurba_marseille","lat":43.27322,"lon":5.39079,"is_reserved":false,"is_disabled":false,"rental_uris":{"android":"levelo://app?vid=35426de2-4a17-4702-9932-5965b3b4627b","ios":"levelo://app?vid=35426de2-4a17-4702-9932-5965b3b4627b"},"vehicle_type_id":"4","last_reported":1731082243,"current_range_meters":18000,"station_id":"ce4bhgp2rcd13ifvqfe0","pricing_plan_id":"cebpf4jnsgd1na2vs0mg"},{"bike_id":"9948fe99-c849-4325-b4f5-4a0727ba3775","system_id":"levelo_inurba_marseille","lat":43.33025,"lon":5.39039,"is_reserved":false,"is_disabled":false,"rental_uris":{"android":"levelo://app?vid=9948fe99-c849-4325-b4f5-4a0727ba3775","ios":"levelo://app?vid=9948fe99-c849-4325-b4f5-4a0727ba3775"},"vehicle_type_id":"4","last_reported":1731082243,"current_range_meters":24400,"station_id":"ce4bhr92rcd13ifvqhrg","pricing_plan_id":"cebpf4jnsgd1na2vs0mg"},{"bike_id":"af4daf64-18f9-41ec-b8bd-1df711ac30af","system_id":"levelo_inurba_marseille","lat":43.31218,"lon":5.3685,"is_reserved":false,"is_disabled":false,"rental_uris":{"android":"levelo://app?vid=af4daf64-18f9-41ec-b8bd-1df711ac30af","ios":"levelo://app?vid=af4daf64-18f9-41ec-b8bd-1df711ac30af"},"vehicle_type_id":"4","last_reported":1731082243,"current_range_meters":29600,"station_id":"ce4bgl92rcd13ifvqbq0","pricing_plan_id":"cebpf4jnsgd1na2vs0mg"},{"bike_id":"b777b9b1-cf98-401d-a093-556c18763b2a","system_id":"levelo_inurba_marseille","lat":43.2731,"lon":5.3908,"is_reserved":false,"is_disabled":false,"rental_uris":{"android":"levelo://app?vid=b777b9b1-cf98-401d-a093-556c18763b2a","ios":"levelo://app?vid=b777b9b1-cf98-401d-a093-556c18763b2a"},"vehicle_type_id":"4","last_reported":1731082243,"current_range_meters":3600,"station_id":"ce4bhgp2rcd13ifvqfe0","pricing_plan_id":"cebpf4jnsgd1na2vs0mg"},{"bike_id":"92bbe5af-b5d9-48fc-afb8-3b15fc8d3190","system_id":"levelo_inurba_marseille","lat":43.3172,"lon":5.42408,"is_reserved":false,"is_disabled":false,"rental_uris":{"android":"levelo://app?vid=92bbe5af-b5d9-48fc-afb8-3b15fc8d3190","ios":"levelo://app?vid=92bbe5af-b5d9-48fc-afb8-3b15fc8d3190"},"vehicle_type_id":"4","last_reported":1731082243,"current_range_meters":28000,"station_id":"ce4bhp92rcd13ifvqhbg","pricing_plan_id":"cebpf4jnsgd1na2vs0mg"},{"bike_id":"41a55890-4616-4e75-8fdf-4d4a29268d91","system_id":"levelo_inurba_marseille","lat":43.3083,"lon":5.38188,"is_reserved":false,"is_disabled":false,"rental_uris":{"android":"levelo://app?vid=41a55890-4616-4e75-8fdf-4d4a29268d91","ios":"levelo://app?vid=41a55890-4616-4e75-8fdf-4d4a29268d91"},"vehicle_type_id":"4","last_reported":1731082243,"current_range_meters":4800,"station_id":"ce4bgt12rcd13ifvqce0","pricing_plan_id":"cebpf4jnsgd1na2vs0mg"},{"bike_id":"ae6411f3-ae31-4f90-8975-cbb8b6d77600","system_id":"levelo_inurba_marseille","lat":43.32482,"lon":5.36574,"is_reserved":false,"is_disabled":false,"rental_uris":{"android":"levelo://app?vid=ae6411f3-ae31-4f90-8975-cbb8b6d77600","ios":"levelo://app?vid=ae6411f3-ae31-4f90-8975-cbb8b6d77600"},"vehicle_type_id":"4","last_reported":1731082243,"current_range_meters":10000,"station_id":"ce4bhs12rcd13ifvqhvg","pricing_plan_id":"cebpf4jnsgd1na2vs0mg"},{"bike_id":"23ac81b5-bda5-4b70-881c-ed4bfe6e779e","system_id":"levelo_inurba_marseille","lat":43.30139,"lon":5.38787,"is_reserved":false,"is_disabled":false,"rental_uris":{"android":"levelo://app?vid=23ac81b5-bda5-4b70-881c-ed4bfe6e779e","ios":"levelo://app?vid=23ac81b5-bda5-4b70-881c-ed4bfe6e779e"},"vehicle_type_id":"4","last_reported":1731082243,"current_range_meters":32800,"station_id":"ce4bghh2rcd13ifvqb60","pricing_plan_id":"cebpf4jnsgd1na2vs0mg"},{"bike_id":"78e2afd0-7745-4714-9a20-5afb9710687d","system_id":"levelo_inurba_marseille","lat":43.28242,"lon":5.37258,"is_reserved":false,"is_disabled":false,"rental_uris":{"android":"levelo://app?vid=78e2afd0-7745-4714-9a20-5afb9710687d","ios":"levelo://app?vid=78e2afd0-7745-4714-9a20-5afb9710687d"},"vehicle_type_id":"4","last_reported":1731082243,"current_range_meters":38800,"station_id":"","pricing_plan_id":"cebpf4jnsgd1na2vs0mg"},{"bike_id":"4adc051b-cab2-444f-a4c6-933d4708baf0","system_id":"levelo_inurba_marseille","lat":43.31716,"lon":5.42395,"is_reserved":false,"is_disabled":false,"rental_uris":{"android":"levelo://app?vid=4adc051b-cab2-444f-a4c6-933d4708baf0","ios":"levelo://app?vid=4adc051b-cab2-444f-a4c6-933d4708baf0"},"vehicle_type_id":"4","last_reported":1731082243,"current_range_meters":13600,"station_id":"ce4bhp92rcd13ifvqhbg","pricing_plan_id":"cebpf4jnsgd1na2vs0mg"},{"bike_id":"865624fb-3d85-4ce1-b135-d88cbdbbde39","system_id":"levelo_inurba_marseille","lat":43.24651,"lon":5.38894,"is_reserved":false,"is_disabled":false,"rental_uris":{"android":"levelo://app?vid=865624fb-3d85-4ce1-b135-d88cbdbbde39","ios":"levelo://app?vid=865624fb-3d85-4ce1-b135-d88cbdbbde39"},"vehicle_type_id":"4","last_reported":1731082243,"current_range_meters":32400,"station_id":"ce4bhg12rcd13ifvqf60","pricing_plan_id":"cebpf4jnsgd1na2vs0mg"},{"bike_id":"712e4f2a-5cfe-4d8d-9cd8-052c2394481a","system_id":"levelo_inurba_marseille","lat":43.28567,"lon":5.39503,"is_reserved":false,"is_disabled":false,"rental_uris":{"android":"levelo://app?vid=712e4f2a-5cfe-4d8d-9cd8-052c2394481a","ios":"levelo://app?vid=712e4f2a-5cfe-4d8d-9cd8-052c2394481a"},"vehicle_type_id":"4","last_reported":1731082243,"current_range_meters":18000,"station_id":"ce4bh292rcd13ifvqdg0","pricing_plan_id":"cebpf4jnsgd1na2vs0mg"},{"bike_id":"d2c6fe6b-6a82-4f8c-9110-57cbef2b97a7","system_id":"levelo_inurba_marseille","lat":43.26801,"lon":5.40268,"is_reserved":false,"is_disabled":false,"rental_uris":{"android":"levelo://app?vid=d2c6fe6b-6a82-4f8c-9110-57cbef2b97a7","ios":"levelo://app?vid=d2c6fe6b-6a82-4f8c-9110-57cbef2b97a7"},"vehicle_type_id":"4","last_reported":1731082243,"current_range_meters":25600,"station_id":"ce501612rcd8frsf0b60","pricing_plan_id":"cebpf4jnsgd1na2vs0mg"},{"bike_id":"d7b9432b-a8cc-4de7-b8ab-5769c92c4a3d","system_id":"levelo_inurba_marseille","lat":43.31713,"lon":5.37742,"is_reserved":false,"is_disabled":false,"rental_uris":{"android":"levelo://app?vid=d7b9432b-a8cc-4de7-b8ab-5769c92c4a3d","ios":"levelo://app?vid=d7b9432b-a8cc-4de7-b8ab-5769c92c4a3d"},"vehicle_type_id":"4","last_reported":1731082243,"current_range_meters":4400,"station_id":"ce4bgth2rcd13ifvqch0","pricing_plan_id":"cebpf4jnsgd1na2vs0mg"},{"bike_id":"d3840fd7-1d42-4d5f-b7fb-3230111c257d","system_id":"levelo_inurba_marseille","lat":43.27909,"lon":5.3917,"is_reserved":false,"is_disabled":false,"rental_uris":{"android":"levelo://app?vid=d3840fd7-1d42-4d5f-b7fb-3230111c257d","ios":"levelo://app?vid=d3840fd7-1d42-4d5f-b7fb-3230111c257d"},"vehicle_type_id":"4","last_reported":1731082243,"current_range_meters":38800,"station_id":"ce4bhjp2rcd13ifvqga0","pricing_plan_id":"cebpf4jnsgd1na2vs0mg"},{"bike_id":"477744f6-ba4e-4bb4-8b68-dd5d37a3b30c","system_id":"levelo_inurba_marseille","lat":43.29303,"lon":5.37451,"is_reserved":false,"is_disabled":false,"rental_uris":{"android":"levelo://app?vid=477744f6-ba4e-4bb4-8b68-dd5d37a3b30c","ios":"levelo://app?vid=477744f6-ba4e-4bb4-8b68-dd5d37a3b30c"},"vehicle_type_id":"4","last_reported":1731082243,"current_range_meters":25200,"station_id":"ce4bgi12rcd13ifvqb70","pricing_plan_id":"cebpf4jnsgd1na2vs0mg"},{"bike_id":"aeb7681f-30ab-46dc-b014-deef13aaa9b7","system_id":"levelo_inurba_marseille","lat":43.290195,"lon":5.386564,"is_reserved":false,"is_disabled":false,"rental_uris":{"android":"levelo://app?vid=aeb7681f-30ab-46dc-b014-deef13aaa9b7","ios":"levelo://app?vid=aeb7681f-30ab-46dc-b014-deef13aaa9b7"},"vehicle_type_id":"4","last_reported":1731082243,"current_range_meters":18800,"station_id":"ce4bh4p2rcd13ifvqe0g","pricing_plan_id":"cebpf4jnsgd1na2vs0mg"},{"bike_id":"5a5935d0-aa23-4fd6-ba9f-e61767594960","system_id":"levelo_inurba_marseille","lat":43.29419,"lon":5.38627,"is_reserved":false,"is_disabled":false,"rental_uris":{"android":"levelo://app?vid=5a5935d0-aa23-4fd6-ba9f-e61767594960","ios":"levelo://app?vid=5a5935d0-aa23-4fd6-ba9f-e61767594960"},"vehicle_type_id":"4","last_reported":1731082243,"current_range_meters":38400,"station_id":"ce4bh2h2rcd13ifvqdh0","pricing_plan_id":"cebpf4jnsgd1na2vs0mg"},{"bike_id":"2bbcb9cc-f8b8-4b14-879a-f3df66920005","system_id":"levelo_inurba_marseille","lat":43.31229,"lon":5.36862,"is_reserved":false,"is_disabled":false,"rental_uris":{"android":"levelo://app?vid=2bbcb9cc-f8b8-4b14-879a-f3df66920005","ios":"levelo://app?vid=2bbcb9cc-f8b8-4b14-879a-f3df66920005"},"vehicle_type_id":"4","last_reported":1731082243,"current_range_meters":19600,"station_id":"ce4bgl92rcd13ifvqbq0","pricing_plan_id":"cebpf4jnsgd1na2vs0mg"},{"bike_id":"1f358bda-90fc-43ae-befa-11454a70c1cb","system_id":"levelo_inurba_marseille","lat":43.29576,"lon":5.37512,"is_reserved":false,"is_disabled":false,"rental_uris":{"android":"levelo://app?vid=1f358bda-90fc-43ae-befa-11454a70c1cb","ios":"levelo://app?vid=1f358bda-90fc-43ae-befa-11454a70c1cb"},"vehicle_type_id":"4","last_reported":1731082243,"current_range_meters":35600,"station_id":"ce4bgh92rcd13ifvqb50","pricing_plan_id":"cebpf4jnsgd1na2vs0mg"},{"bike_id":"9d20488a-c7c6-4d24-b3ce-ca2bcd270088","system_id":"levelo_inurba_marseille","lat":43.26203,"lon":5.37452,"is_reserved":false,"is_disabled":false,"rental_uris":{"android":"levelo://app?vid=9d20488a-c7c6-4d24-b3ce-ca2bcd270088","ios":"levelo://app?vid=9d20488a-c7c6-4d24-b3ce-ca2bcd270088"},"vehicle_type_id":"4","last_reported":1731082243,"current_range_meters":36800,"station_id":"ce4bhgp2rcd13ifvqfc0","pricing_plan_id":"cebpf4jnsgd1na2vs0mg"},{"bike_id":"f94bdcbe-9a46-4c5f-879c-d5fc8c43084c","system_id":"levelo_inurba_marseille","lat":43.33026,"lon":5.39039,"is_reserved":false,"is_disabled":false,"rental_uris":{"android":"levelo://app?vid=f94bdcbe-9a46-4c5f-879c-d5fc8c43084c","ios":"levelo://app?vid=f94bdcbe-9a46-4c5f-879c-d5fc8c43084c"},"vehicle_type_id":"4","last_reported":1731082243,"current_range_meters":38800,"station_id":"ce4bhr92rcd13ifvqhrg","pricing_plan_id":"cebpf4jnsgd1na2vs0mg"},{"bike_id":"d2ad444b-6f7f-4297-b914-189dc8ddab69","system_id":"levelo_inurba_marseille","lat":43.2454,"lon":5.39533,"is_reserved":false,"is_disabled":false,"rental_uris":{"android":"levelo://app?vid=d2ad444b-6f7f-4297-b914-189dc8ddab69","ios":"levelo://app?vid=d2ad444b-6f7f-4297-b914-189dc8ddab69"},"vehicle_type_id":"4","last_reported":1731082243,"current_range_meters":14800,"station_id":"ce4bhlp2rcd13ifvqgjg","pricing_plan_id":"cebpf4jnsgd1na2vs0mg"},{"bike_id":"ea6c9fa9-abb0-442a-b2ca-631121ef75ae","system_id":"levelo_inurba_marseille","lat":43.31122,"lon":5.3777,"is_reserved":false,"is_disabled":false,"rental_uris":{"android":"levelo://app?vid=ea6c9fa9-abb0-442a-b2ca-631121ef75ae","ios":"levelo://app?vid=ea6c9fa9-abb0-442a-b2ca-631121ef75ae"},"vehicle_type_id":"4","last_reported":1731082243,"current_range_meters":18800,"station_id":"ce4bgt92rcd13ifvqcg0","pricing_plan_id":"cebpf4jnsgd1na2vs0mg"},{"bike_id":"82c3d7bb-3159-490e-a47b-7aba220691e7","system_id":"levelo_inurba_marseille","lat":43.31363,"lon":5.3849,"is_reserved":false,"is_disabled":false,"rental_uris":{"android":"levelo://app?vid=82c3d7bb-3159-490e-a47b-7aba220691e7","ios":"levelo://app?vid=82c3d7bb-3159-490e-a47b-7aba220691e7"},"vehicle_type_id":"4","last_reported":1731082243,"current_range_meters":9600,"station_id":"ce4bgt92rcd13ifvqcf0","pricing_plan_id":"cebpf4jnsgd1na2vs0mg"},{"bike_id":"e05b1cf1-54c8-4be0-b8f8-d2cc1f5e8f56","system_id":"levelo_inurba_marseille","lat":43.29916,"lon":5.38139,"is_reserved":false,"is_disabled":false,"rental_uris":{"android":"levelo://app?vid=e05b1cf1-54c8-4be0-b8f8-d2cc1f5e8f56","ios":"levelo://app?vid=e05b1cf1-54c8-4be0-b8f8-d2cc1f5e8f56"},"vehicle_type_id":"4","last_reported":1731082243,"current_range_meters":32800,"station_id":"ce4bgj12rcd13ifvqbc0","pricing_plan_id":"cebpf4jnsgd1na2vs0mg"},{"bike_id":"80972d04-b98e-4160-be5c-ad2a1e3c8d94","system_id":"levelo_inurba_marseille","lat":43.24814,"lon":5.37462,"is_reserved":false,"is_disabled":false,"rental_uris":{"android":"levelo://app?vid=80972d04-b98e-4160-be5c-ad2a1e3c8d94","ios":"levelo://app?vid=80972d04-b98e-4160-be5c-ad2a1e3c8d94"},"vehicle_type_id":"4","last_reported":1731082243,"current_range_meters":15200,"station_id":"ce4bhgh2rcd13ifvqfb0","pricing_plan_id":"cebpf4jnsgd1na2vs0mg"},{"bike_id":"b2058fb3-d28b-4a40-87ff-1e2e5505aa63","system_id":"levelo_inurba_marseille","lat":43.29532,"lon":5.38545,"is_reserved":false,"is_disabled":false,"rental_uris":{"android":"levelo://app?vid=b2058fb3-d28b-4a40-87ff-1e2e5505aa63","ios":"levelo://app?vid=b2058fb3-d28b-4a40-87ff-1e2e5505aa63"},"vehicle_type_id":"4","last_reported":1731082243,"current_range_meters":13600,"station_id":"ce4bgih2rcd13ifvqba0","pricing_plan_id":"cebpf4jnsgd1na2vs0mg"},{"bike_id":"68c01669-f30f-491a-9194-f097e5fb8989","system_id":"levelo_inurba_marseille","lat":43.30789,"lon":5.37651,"is_reserved":false,"is_disabled":false,"rental_uris":{"android":"levelo://app?vid=68c01669-f30f-491a-9194-f097e5fb8989","ios":"levelo://app?vid=68c01669-f30f-491a-9194-f097e5fb8989"},"vehicle_type_id":"4","last_reported":1731082243,"current_range_meters":21600,"station_id":"ce4bgv92rcd13ifvqcq0","pricing_plan_id":"cebpf4jnsgd1na2vs0mg"},{"bike_id":"08b463db-29e6-4613-a60c-67368daa91d1","system_id":"levelo_inurba_marseille","lat":43.29631,"lon":5.40592,"is_reserved":false,"is_disabled":false,"rental_uris":{"android":"levelo://app?vid=08b463db-29e6-4613-a60c-67368daa91d1","ios":"levelo://app?vid=08b463db-29e6-4613-a60c-67368daa91d1"},"vehicle_type_id":"4","last_reported":1731082243,"current_range_meters":20000,"station_id":"ce4bh0h2rcd13ifvqd60","pricing_plan_id":"cebpf4jnsgd1na2vs0mg"},{"bike_id":"498762ca-a96b-45f1-a52e-35efd3fef939","system_id":"levelo_inurba_marseille","lat":43.27427,"lon":5.3942,"is_reserved":false,"is_disabled":false,"rental_uris":{"android":"levelo://app?vid=498762ca-a96b-45f1-a52e-35efd3fef939","ios":"levelo://app?vid=498762ca-a96b-45f1-a52e-35efd3fef939"},"vehicle_type_id":"4","last_reported":1731082243,"current_range_meters":38400,"station_id":"ce4bhdp2rcd13ifvqf20","pricing_plan_id":"cebpf4jnsgd1na2vs0mg"},{"bike_id":"20539c2c-6317-43ca-815d-be5a46c9f02b","system_id":"levelo_inurba_marseille","lat":43.29968,"lon":5.38504,"is_reserved":false,"is_disabled":false,"rental_uris":{"android":"levelo://app?vid=20539c2c-6317-43ca-815d-be5a46c9f02b","ios":"levelo://app?vid=20539c2c-6317-43ca-815d-be5a46c9f02b"},"vehicle_type_id":"4","last_reported":1731082243,"current_range_meters":33200,"station_id":"ce4bgj92rcd13ifvqbd0","pricing_plan_id":"cebpf4jnsgd1na2vs0mg"},{"bike_id":"ff989801-f59b-46d1-867b-7c2b6eab1cca","system_id":"levelo_inurba_marseille","lat":43.337444,"lon":5.374475,"is_reserved":false,"is_disabled":false,"rental_uris":{"android":"levelo://app?vid=ff989801-f59b-46d1-867b-7c2b6eab1cca","ios":"levelo://app?vid=ff989801-f59b-46d1-867b-7c2b6eab1cca"},"vehicle_type_id":"4","last_reported":1731082243,"current_range_meters":37600,"station_id":"","pricing_plan_id":"cebpf4jnsgd1na2vs0mg"},{"bike_id":"6e1c4e6e-24f1-4e56-8f2b-a2e4ddc87b0e","system_id":"levelo_inurba_marseille","lat":43.30335,"lon":5.40432,"is_reserved":false,"is_disabled":false,"rental_uris":{"android":"levelo://app?vid=6e1c4e6e-24f1-4e56-8f2b-a2e4ddc87b0e","ios":"levelo://app?vid=6e1c4e6e-24f1-4e56-8f2b-a2e4ddc87b0e"},"vehicle_type_id":"4","last_reported":1731082243,"current_range_meters":16000,"station_id":"ce4bh012rcd13ifvqd10","pricing_plan_id":"cebpf4jnsgd1na2vs0mg"},{"bike_id":"7a111f95-0e6e-4864-809a-a23d3dc8fce5","system_id":"levelo_inurba_marseille","lat":43.27999,"lon":5.40035,"is_reserved":false,"is_disabled":false,"rental_uris":{"android":"levelo://app?vid=7a111f95-0e6e-4864-809a-a23d3dc8fce5","ios":"levelo://app?vid=7a111f95-0e6e-4864-809a-a23d3dc8fce5"},"vehicle_type_id":"4","last_reported":1731082243,"current_range_meters":38800,"station_id":"ce4bho92rcd13ifvqh4g","pricing_plan_id":"cebpf4jnsgd1na2vs0mg"},{"bike_id":"cfe894de-4a81-4056-877f-ac9953747d71","system_id":"levelo_inurba_marseille","lat":43.27432,"lon":5.39411,"is_reserved":false,"is_disabled":false,"rental_uris":{"android":"levelo://app?vid=cfe894de-4a81-4056-877f-ac9953747d71","ios":"levelo://app?vid=cfe894de-4a81-4056-877f-ac9953747d71"},"vehicle_type_id":"4","last_reported":1731082243,"current_range_meters":35200,"station_id":"ce4bhdp2rcd13ifvqf20","pricing_plan_id":"cebpf4jnsgd1na2vs0mg"},{"bike_id":"1ab7e98a-93ec-42a9-a1d3-86f79bc25158","system_id":"levelo_inurba_marseille","lat":43.25084,"lon":5.39525,"is_reserved":false,"is_disabled":false,"rental_uris":{"android":"levelo://app?vid=1ab7e98a-93ec-42a9-a1d3-86f79bc25158","ios":"levelo://app?vid=1ab7e98a-93ec-42a9-a1d3-86f79bc25158"},"vehicle_type_id":"4","last_reported":1731082243,"current_range_meters":16000,"station_id":"ce4bhm12rcd13ifvqgkg","pricing_plan_id":"cebpf4jnsgd1na2vs0mg"},{"bike_id":"d115c69c-dc61-4019-86ca-8f3ef1285cfb","system_id":"levelo_inurba_marseille","lat":43.22929,"lon":5.3538,"is_reserved":false,"is_disabled":false,"rental_uris":{"android":"levelo://app?vid=d115c69c-dc61-4019-86ca-8f3ef1285cfb","ios":"levelo://app?vid=d115c69c-dc61-4019-86ca-8f3ef1285cfb"},"vehicle_type_id":"4","last_reported":1731082243,"current_range_meters":36400,"station_id":"cpo3532slgdg3j2ikp40","pricing_plan_id":"cebpf4jnsgd1na2vs0mg"},{"bike_id":"9db7b814-b582-4f49-b295-3c393805fb08","system_id":"levelo_inurba_marseille","lat":43.30136,"lon":5.38774,"is_reserved":false,"is_disabled":false,"rental_uris":{"android":"levelo://app?vid=9db7b814-b582-4f49-b295-3c393805fb08","ios":"levelo://app?vid=9db7b814-b582-4f49-b295-3c393805fb08"},"vehicle_type_id":"4","last_reported":1731082243,"current_range_meters":30800,"station_id":"ce4bghh2rcd13ifvqb60","pricing_plan_id":"cebpf4jnsgd1na2vs0mg"},{"bike_id":"29aa344b-8768-443c-a81d-2664717e3539","system_id":"levelo_inurba_marseille","lat":43.30141,"lon":5.37423,"is_reserved":false,"is_disabled":false,"rental_uris":{"android":"levelo://app?vid=29aa344b-8768-443c-a81d-2664717e3539","ios":"levelo://app?vid=29aa344b-8768-443c-a81d-2664717e3539"},"vehicle_type_id":"4","last_reported":1731082243,"current_range_meters":38800,"station_id":"ce4bgs92rcd13ifvqcc0","pricing_plan_id":"cebpf4jnsgd1na2vs0mg"},{"bike_id":"bdc0e56f-8ec1-460e-8532-2976e16b80ef","system_id":"levelo_inurba_marseille","lat":43.33748,"lon":5.37456,"is_reserved":false,"is_disabled":false,"rental_uris":{"android":"levelo://app?vid=bdc0e56f-8ec1-460e-8532-2976e16b80ef","ios":"levelo://app?vid=bdc0e56f-8ec1-460e-8532-2976e16b80ef"},"vehicle_type_id":"4","last_reported":1731082243,"current_range_meters":33600,"station_id":"","pricing_plan_id":"cebpf4jnsgd1na2vs0mg"},{"bike_id":"3a180623-7881-41d7-b46f-aa90796c4e85","system_id":"levelo_inurba_marseille","lat":43.29906,"lon":5.37473,"is_reserved":false,"is_disabled":false,"rental_uris":{"android":"levelo://app?vid=3a180623-7881-41d7-b46f-aa90796c4e85","ios":"levelo://app?vid=3a180623-7881-41d7-b46f-aa90796c4e85"},"vehicle_type_id":"4","last_reported":1731082243,"current_range_meters":37600,"station_id":"ce4bgjh2rcd13ifvqbg0","pricing_plan_id":"cebpf4jnsgd1na2vs0mg"},{"bike_id":"6ba9ca98-cdab-46e8-bcb3-d22861a3b09f","system_id":"levelo_inurba_marseille","lat":43.26212,"lon":5.37442,"is_reserved":false,"is_disabled":false,"rental_uris":{"android":"levelo://app?vid=6ba9ca98-cdab-46e8-bcb3-d22861a3b09f","ios":"levelo://app?vid=6ba9ca98-cdab-46e8-bcb3-d22861a3b09f"},"vehicle_type_id":"4","last_reported":1731082243,"current_range_meters":36800,"station_id":"ce4bhgp2rcd13ifvqfc0","pricing_plan_id":"cebpf4jnsgd1na2vs0mg"},{"bike_id":"f4adc443-9eb9-429b-9d88-1a65eab53e90","system_id":"levelo_inurba_marseille","lat":43.31077,"lon":5.3835,"is_reserved":false,"is_disabled":false,"rental_uris":{"android":"levelo://app?vid=f4adc443-9eb9-429b-9d88-1a65eab53e90","ios":"levelo://app?vid=f4adc443-9eb9-429b-9d88-1a65eab53e90"},"vehicle_type_id":"4","last_reported":1731082243,"current_range_meters":14400,"station_id":"ce4bgv92rcd13ifvqcr0","pricing_plan_id":"cebpf4jnsgd1na2vs0mg"},{"bike_id":"2f82a30a-0372-47a7-b098-a7a565caea15","system_id":"levelo_inurba_marseille","lat":43.3057,"lon":5.367107,"is_reserved":false,"is_disabled":false,"rental_uris":{"android":"levelo://app?vid=2f82a30a-0372-47a7-b098-a7a565caea15","ios":"levelo://app?vid=2f82a30a-0372-47a7-b098-a7a565caea15"},"vehicle_type_id":"4","last_reported":1731082243,"current_range_meters":32000,"station_id":"ce4bgrp2rcd13ifvqc9g","pricing_plan_id":"cebpf4jnsgd1na2vs0mg"},{"bike_id":"765aaf09-5b45-4dd6-a702-763ab5a3f306","system_id":"levelo_inurba_marseille","lat":43.27942,"lon":5.41045,"is_reserved":false,"is_disabled":false,"rental_uris":{"android":"levelo://app?vid=765aaf09-5b45-4dd6-a702-763ab5a3f306","ios":"levelo://app?vid=765aaf09-5b45-4dd6-a702-763ab5a3f306"},"vehicle_type_id":"4","last_reported":1731082243,"current_range_meters":35600,"station_id":"ce4bhnp2rcd13ifvqh0g","pricing_plan_id":"cebpf4jnsgd1na2vs0mg"},{"bike_id":"ed366f95-9ba9-4569-a29b-9d8d122c6858","system_id":"levelo_inurba_marseille","lat":43.27815,"lon":5.40711,"is_reserved":false,"is_disabled":false,"rental_uris":{"android":"levelo://app?vid=ed366f95-9ba9-4569-a29b-9d8d122c6858","ios":"levelo://app?vid=ed366f95-9ba9-4569-a29b-9d8d122c6858"},"vehicle_type_id":"4","last_reported":1731082243,"current_range_meters":30400,"station_id":"ce4bhnh2rcd13ifvqgtg","pricing_plan_id":"cebpf4jnsgd1na2vs0mg"},{"bike_id":"6486caed-19f4-4ef5-a5f6-596517b91cb3","system_id":"levelo_inurba_marseille","lat":43.29003,"lon":5.35613,"is_reserved":false,"is_disabled":false,"rental_uris":{"android":"levelo://app?vid=6486caed-19f4-4ef5-a5f6-596517b91cb3","ios":"levelo://app?vid=6486caed-19f4-4ef5-a5f6-596517b91cb3"},"vehicle_type_id":"4","last_reported":1731082243,"current_range_meters":33600,"station_id":"ce4bhb92rcd13ifvqen0","pricing_plan_id":"cebpf4jnsgd1na2vs0mg"},{"bike_id":"0cd0e20b-ac9d-4a96-9e6a-f20be668e72a","system_id":"levelo_inurba_marseille","lat":43.29285,"lon":5.40127,"is_reserved":false,"is_disabled":false,"rental_uris":{"android":"levelo://app?vid=0cd0e20b-ac9d-4a96-9e6a-f20be668e72a","ios":"levelo://app?vid=0cd0e20b-ac9d-4a96-9e6a-f20be668e72a"},"vehicle_type_id":"4","last_reported":1731082243,"current_range_meters":6400,"station_id":"ce4bh312rcd13ifvqdk0","pricing_plan_id":"cebpf4jnsgd1na2vs0mg"},{"bike_id":"83911239-3b87-47ee-ae2b-43c72d717d42","system_id":"levelo_inurba_marseille","lat":43.30815,"lon":5.38137,"is_reserved":false,"is_disabled":false,"rental_uris":{"android":"levelo://app?vid=83911239-3b87-47ee-ae2b-43c72d717d42","ios":"levelo://app?vid=83911239-3b87-47ee-ae2b-43c72d717d42"},"vehicle_type_id":"4","last_reported":1731082243,"current_range_meters":22800,"station_id":"ce4bgt12rcd13ifvqce0","pricing_plan_id":"cebpf4jnsgd1na2vs0mg"},{"bike_id":"5a393a2c-3a15-4b17-ae79-7066b85b308b","system_id":"levelo_inurba_marseille","lat":43.27944,"lon":5.41045,"is_reserved":false,"is_disabled":false,"rental_uris":{"android":"levelo://app?vid=5a393a2c-3a15-4b17-ae79-7066b85b308b","ios":"levelo://app?vid=5a393a2c-3a15-4b17-ae79-7066b85b308b"},"vehicle_type_id":"4","last_reported":1731082243,"current_range_meters":8000,"station_id":"ce4bhnp2rcd13ifvqh0g","pricing_plan_id":"cebpf4jnsgd1na2vs0mg"},{"bike_id":"9b77be9c-0094-4fea-bb34-6f484a8d4294","system_id":"levelo_inurba_marseille","lat":43.298365,"lon":5.389228,"is_reserved":false,"is_disabled":false,"rental_uris":{"android":"levelo://app?vid=9b77be9c-0094-4fea-bb34-6f484a8d4294","ios":"levelo://app?vid=9b77be9c-0094-4fea-bb34-6f484a8d4294"},"vehicle_type_id":"4","last_reported":1731082243,"current_range_meters":30400,"station_id":"ce4bh392rcd13ifvqdl0","pricing_plan_id":"cebpf4jnsgd1na2vs0mg"},{"bike_id":"a4aaefd0-c8fe-4ac7-8415-a63e15d48ac1","system_id":"levelo_inurba_marseille","lat":43.28463,"lon":5.35895,"is_reserved":false,"is_disabled":false,"rental_uris":{"android":"levelo://app?vid=a4aaefd0-c8fe-4ac7-8415-a63e15d48ac1","ios":"levelo://app?vid=a4aaefd0-c8fe-4ac7-8415-a63e15d48ac1"},"vehicle_type_id":"4","last_reported":1731082243,"current_range_meters":30800,"station_id":"ce4bhah2rcd13ifvqei0","pricing_plan_id":"cebpf4jnsgd1na2vs0mg"},{"bike_id":"02f3bd69-c440-439f-96d2-1f56246cbb70","system_id":"levelo_inurba_marseille","lat":43.23055,"lon":5.35489,"is_reserved":false,"is_disabled":false,"rental_uris":{"android":"levelo://app?vid=02f3bd69-c440-439f-96d2-1f56246cbb70","ios":"levelo://app?vid=02f3bd69-c440-439f-96d2-1f56246cbb70"},"vehicle_type_id":"4","last_reported":1731082243,"current_range_meters":32000,"station_id":"cpo3342slgdg3j2ifvpg","pricing_plan_id":"cebpf4jnsgd1na2vs0mg"},{"bike_id":"bf910532-c36d-4142-b790-0993375eb461","system_id":"levelo_inurba_marseille","lat":43.29582,"lon":5.38108,"is_reserved":false,"is_disabled":false,"rental_uris":{"android":"levelo://app?vid=bf910532-c36d-4142-b790-0993375eb461","ios":"levelo://app?vid=bf910532-c36d-4142-b790-0993375eb461"},"vehicle_type_id":"4","last_reported":1731082243,"current_range_meters":30400,"station_id":"ce4bgl12rcd13ifvqbo0","pricing_plan_id":"cebpf4jnsgd1na2vs0mg"},{"bike_id":"68998f7d-edb7-4542-a952-137d9acda999","system_id":"levelo_inurba_marseille","lat":43.26213,"lon":5.37447,"is_reserved":false,"is_disabled":false,"rental_uris":{"android":"levelo://app?vid=68998f7d-edb7-4542-a952-137d9acda999","ios":"levelo://app?vid=68998f7d-edb7-4542-a952-137d9acda999"},"vehicle_type_id":"4","last_reported":1731082243,"current_range_meters":38800,"station_id":"ce4bhgp2rcd13ifvqfc0","pricing_plan_id":"cebpf4jnsgd1na2vs0mg"},{"bike_id":"2b374239-ac0a-45ee-a505-fc21977b9366","system_id":"levelo_inurba_marseille","lat":43.292969,"lon":5.374501,"is_reserved":false,"is_disabled":false,"rental_uris":{"android":"levelo://app?vid=2b374239-ac0a-45ee-a505-fc21977b9366","ios":"levelo://app?vid=2b374239-ac0a-45ee-a505-fc21977b9366"},"vehicle_type_id":"4","last_reported":1731082243,"current_range_meters":27600,"station_id":"ce4bgi12rcd13ifvqb70","pricing_plan_id":"cebpf4jnsgd1na2vs0mg"},{"bike_id":"04c33c41-7d2c-4ad1-9547-7c592fdb82f1","system_id":"levelo_inurba_marseille","lat":43.31752,"lon":5.39021,"is_reserved":false,"is_disabled":false,"rental_uris":{"android":"levelo://app?vid=04c33c41-7d2c-4ad1-9547-7c592fdb82f1","ios":"levelo://app?vid=04c33c41-7d2c-4ad1-9547-7c592fdb82f1"},"vehicle_type_id":"4","last_reported":1731082243,"current_range_meters":38000,"station_id":"ce4bhqp2rcd13ifvqhng","pricing_plan_id":"cebpf4jnsgd1na2vs0mg"},{"bike_id":"0ecd6369-c2d3-4465-b211-943511c7d064","system_id":"levelo_inurba_marseille","lat":43.28447,"lon":5.392,"is_reserved":false,"is_disabled":false,"rental_uris":{"android":"levelo://app?vid=0ecd6369-c2d3-4465-b211-943511c7d064","ios":"levelo://app?vid=0ecd6369-c2d3-4465-b211-943511c7d064"},"vehicle_type_id":"4","last_reported":1731082243,"current_range_meters":12400,"station_id":"ce4bhoh2rcd13ifvqh5g","pricing_plan_id":"cebpf4jnsgd1na2vs0mg"},{"bike_id":"8236f739-6b0b-43a8-81b4-6c64cd4f16fa","system_id":"levelo_inurba_marseille","lat":43.2315,"lon":5.43717,"is_reserved":false,"is_disabled":false,"rental_uris":{"android":"levelo://app?vid=8236f739-6b0b-43a8-81b4-6c64cd4f16fa","ios":"levelo://app?vid=8236f739-6b0b-43a8-81b4-6c64cd4f16fa"},"vehicle_type_id":"4","last_reported":1731082243,"current_range_meters":7200,"station_id":"ce4bhmp2rcd13ifvqgog","pricing_plan_id":"cebpf4jnsgd1na2vs0mg"},{"bike_id":"a28cfdeb-e930-467b-915e-09543549bbe8","system_id":"levelo_inurba_marseille","lat":43.31223,"lon":5.36861,"is_reserved":false,"is_disabled":false,"rental_uris":{"android":"levelo://app?vid=a28cfdeb-e930-467b-915e-09543549bbe8","ios":"levelo://app?vid=a28cfdeb-e930-467b-915e-09543549bbe8"},"vehicle_type_id":"4","last_reported":1731082243,"current_range_meters":8000,"station_id":"ce4bgl92rcd13ifvqbq0","pricing_plan_id":"cebpf4jnsgd1na2vs0mg"},{"bike_id":"bf363700-7681-4fc5-83f1-5924fd1a7342","system_id":"levelo_inurba_marseille","lat":43.28661,"lon":5.3636,"is_reserved":false,"is_disabled":false,"rental_uris":{"android":"levelo://app?vid=bf363700-7681-4fc5-83f1-5924fd1a7342","ios":"levelo://app?vid=bf363700-7681-4fc5-83f1-5924fd1a7342"},"vehicle_type_id":"4","last_reported":1731082243,"current_range_meters":28800,"station_id":"ce4bhah2rcd13ifvqej0","pricing_plan_id":"cebpf4jnsgd1na2vs0mg"},{"bike_id":"cc8749de-82dc-42fd-b35f-d7db78b55cd6","system_id":"levelo_inurba_marseille","lat":43.26806,"lon":5.4027,"is_reserved":false,"is_disabled":false,"rental_uris":{"android":"levelo://app?vid=cc8749de-82dc-42fd-b35f-d7db78b55cd6","ios":"levelo://app?vid=cc8749de-82dc-42fd-b35f-d7db78b55cd6"},"vehicle_type_id":"4","last_reported":1731082243,"current_range_meters":17600,"station_id":"ce501612rcd8frsf0b60","pricing_plan_id":"cebpf4jnsgd1na2vs0mg"},{"bike_id":"2a586882-6b4c-4bbd-9c37-15494c7a9a19","system_id":"levelo_inurba_marseille","lat":43.31166,"lon":5.3873,"is_reserved":false,"is_disabled":false,"rental_uris":{"android":"levelo://app?vid=2a586882-6b4c-4bbd-9c37-15494c7a9a19","ios":"levelo://app?vid=2a586882-6b4c-4bbd-9c37-15494c7a9a19"},"vehicle_type_id":"4","last_reported":1731082243,"current_range_meters":32800,"station_id":"ce4bgv12rcd13ifvqcp0","pricing_plan_id":"cebpf4jnsgd1na2vs0mg"},{"bike_id":"86217953-8a59-44a5-b368-6b46c5c5f2a1","system_id":"levelo_inurba_marseille","lat":43.27624,"lon":5.36109,"is_reserved":false,"is_disabled":false,"rental_uris":{"android":"levelo://app?vid=86217953-8a59-44a5-b368-6b46c5c5f2a1","ios":"levelo://app?vid=86217953-8a59-44a5-b368-6b46c5c5f2a1"},"vehicle_type_id":"4","last_reported":1731082243,"current_range_meters":23200,"station_id":"ce4bgj92rcd13ifvqbe0","pricing_plan_id":"cebpf4jnsgd1na2vs0mg"},{"bike_id":"ce246a3f-f7de-488b-b55f-a1aa2c51e196","system_id":"levelo_inurba_marseille","lat":43.30791,"lon":5.37637,"is_reserved":false,"is_disabled":false,"rental_uris":{"android":"levelo://app?vid=ce246a3f-f7de-488b-b55f-a1aa2c51e196","ios":"levelo://app?vid=ce246a3f-f7de-488b-b55f-a1aa2c51e196"},"vehicle_type_id":"4","last_reported":1731082243,"current_range_meters":8400,"station_id":"ce4bgv92rcd13ifvqcq0","pricing_plan_id":"cebpf4jnsgd1na2vs0mg"},{"bike_id":"b9fc255a-0a15-4b84-911f-48dda45c1dae","system_id":"levelo_inurba_marseille","lat":43.29516,"lon":5.39402,"is_reserved":false,"is_disabled":false,"rental_uris":{"android":"levelo://app?vid=b9fc255a-0a15-4b84-911f-48dda45c1dae","ios":"levelo://app?vid=b9fc255a-0a15-4b84-911f-48dda45c1dae"},"vehicle_type_id":"4","last_reported":1731082243,"current_range_meters":16800,"station_id":"ce4bh292rcd13ifvqdf0","pricing_plan_id":"cebpf4jnsgd1na2vs0mg"},{"bike_id":"38010d2d-8266-4c9a-8dea-6a8b0d6fea4e","system_id":"levelo_inurba_marseille","lat":43.27747,"lon":5.38869,"is_reserved":false,"is_disabled":false,"rental_uris":{"android":"levelo://app?vid=38010d2d-8266-4c9a-8dea-6a8b0d6fea4e","ios":"levelo://app?vid=38010d2d-8266-4c9a-8dea-6a8b0d6fea4e"},"vehicle_type_id":"4","last_reported":1731082243,"current_range_meters":6400,"station_id":"ce4bh292rcd13ifvqdg0","pricing_plan_id":"cebpf4jnsgd1na2vs0mg"},{"bike_id":"5a5ae5f3-dee7-4af5-82c9-56d3e182d8c3","system_id":"levelo_inurba_marseille","lat":43.27311,"lon":5.39104,"is_reserved":false,"is_disabled":false,"rental_uris":{"android":"levelo://app?vid=5a5ae5f3-dee7-4af5-82c9-56d3e182d8c3","ios":"levelo://app?vid=5a5ae5f3-dee7-4af5-82c9-56d3e182d8c3"},"vehicle_type_id":"4","last_reported":1731082243,"current_range_meters":28000,"station_id":"ce4bhgp2rcd13ifvqfe0","pricing_plan_id":"cebpf4jnsgd1na2vs0mg"},{"bike_id":"882687a6-cc39-4573-9966-6add6db651f5","system_id":"levelo_inurba_marseille","lat":43.3016,"lon":5.38083,"is_reserved":false,"is_disabled":false,"rental_uris":{"android":"levelo://app?vid=882687a6-cc39-4573-9966-6add6db651f5","ios":"levelo://app?vid=882687a6-cc39-4573-9966-6add6db651f5"},"vehicle_type_id":"4","last_reported":1731082243,"current_range_meters":24000,"station_id":"ce4bgjp2rcd13ifvqbh0","pricing_plan_id":"cebpf4jnsgd1na2vs0mg"},{"bike_id":"11916bc5-c662-4e28-b0c0-4403f2293fbb","system_id":"levelo_inurba_marseille","lat":43.33745,"lon":5.37437,"is_reserved":false,"is_disabled":false,"rental_uris":{"android":"levelo://app?vid=11916bc5-c662-4e28-b0c0-4403f2293fbb","ios":"levelo://app?vid=11916bc5-c662-4e28-b0c0-4403f2293fbb"},"vehicle_type_id":"4","last_reported":1731082243,"current_range_meters":36000,"station_id":"","pricing_plan_id":"cebpf4jnsgd1na2vs0mg"},{"bike_id":"615594e7-e865-46bc-968c-635d10b75564","system_id":"levelo_inurba_marseille","lat":43.29258,"lon":5.38451,"is_reserved":false,"is_disabled":false,"rental_uris":{"android":"levelo://app?vid=615594e7-e865-46bc-968c-635d10b75564","ios":"levelo://app?vid=615594e7-e865-46bc-968c-635d10b75564"},"vehicle_type_id":"4","last_reported":1731082243,"current_range_meters":30800,"station_id":"ce4bh692rcd13ifvqea0","pricing_plan_id":"cebpf4jnsgd1na2vs0mg"},{"bike_id":"3bc8915d-f4f5-4187-b35f-8debcbac44e1","system_id":"levelo_inurba_marseille","lat":43.30799,"lon":5.43523,"is_reserved":false,"is_disabled":false,"rental_uris":{"android":"levelo://app?vid=3bc8915d-f4f5-4187-b35f-8debcbac44e1","ios":"levelo://app?vid=3bc8915d-f4f5-4187-b35f-8debcbac44e1"},"vehicle_type_id":"4","last_reported":1731082243,"current_range_meters":19200,"station_id":"ce4bhph2rcd13ifvqheg","pricing_plan_id":"cebpf4jnsgd1na2vs0mg"},{"bike_id":"3f1bf6e3-38c2-43b6-b9e5-5aa51a6e6cc6","system_id":"levelo_inurba_marseille","lat":43.27664,"lon":5.38913,"is_reserved":false,"is_disabled":false,"rental_uris":{"android":"levelo://app?vid=3f1bf6e3-38c2-43b6-b9e5-5aa51a6e6cc6","ios":"levelo://app?vid=3f1bf6e3-38c2-43b6-b9e5-5aa51a6e6cc6"},"vehicle_type_id":"4","last_reported":1731082243,"current_range_meters":10000,"station_id":"ce4bhi12rcd13ifvqfo0","pricing_plan_id":"cebpf4jnsgd1na2vs0mg"},{"bike_id":"82ee39fb-80cb-45e2-96fc-f298d0e6d2de","system_id":"levelo_inurba_marseille","lat":43.32479,"lon":5.36567,"is_reserved":false,"is_disabled":false,"rental_uris":{"android":"levelo://app?vid=82ee39fb-80cb-45e2-96fc-f298d0e6d2de","ios":"levelo://app?vid=82ee39fb-80cb-45e2-96fc-f298d0e6d2de"},"vehicle_type_id":"4","last_reported":1731082243,"current_range_meters":38800,"station_id":"ce4bhs12rcd13ifvqhvg","pricing_plan_id":"cebpf4jnsgd1na2vs0mg"},{"bike_id":"df26e2c3-33af-4b59-be82-7c16afed2ed3","system_id":"levelo_inurba_marseille","lat":43.29423,"lon":5.3862,"is_reserved":false,"is_disabled":false,"rental_uris":{"android":"levelo://app?vid=df26e2c3-33af-4b59-be82-7c16afed2ed3","ios":"levelo://app?vid=df26e2c3-33af-4b59-be82-7c16afed2ed3"},"vehicle_type_id":"4","last_reported":1731082243,"current_range_meters":4400,"station_id":"ce4bh2h2rcd13ifvqdh0","pricing_plan_id":"cebpf4jnsgd1na2vs0mg"},{"bike_id":"ace39036-9a2e-402b-ad6a-d8e65c709673","system_id":"levelo_inurba_marseille","lat":43.3078,"lon":5.37645,"is_reserved":false,"is_disabled":false,"rental_uris":{"android":"levelo://app?vid=ace39036-9a2e-402b-ad6a-d8e65c709673","ios":"levelo://app?vid=ace39036-9a2e-402b-ad6a-d8e65c709673"},"vehicle_type_id":"4","last_reported":1731082243,"current_range_meters":32800,"station_id":"ce4bgv92rcd13ifvqcq0","pricing_plan_id":"cebpf4jnsgd1na2vs0mg"},{"bike_id":"c4fd43a2-e21a-45bf-b13f-a1eaa8cf09d2","system_id":"levelo_inurba_marseille","lat":43.23182,"lon":5.39989,"is_reserved":false,"is_disabled":false,"rental_uris":{"android":"levelo://app?vid=c4fd43a2-e21a-45bf-b13f-a1eaa8cf09d2","ios":"levelo://app?vid=c4fd43a2-e21a-45bf-b13f-a1eaa8cf09d2"},"vehicle_type_id":"4","last_reported":1731082243,"current_range_meters":36800,"station_id":"ce4bhn12rcd13ifvqgqg","pricing_plan_id":"cebpf4jnsgd1na2vs0mg"},{"bike_id":"ac617b5d-0d15-4bb4-b27e-9ec19ef5040e","system_id":"levelo_inurba_marseille","lat":43.31069,"lon":5.38349,"is_reserved":false,"is_disabled":false,"rental_uris":{"android":"levelo://app?vid=ac617b5d-0d15-4bb4-b27e-9ec19ef5040e","ios":"levelo://app?vid=ac617b5d-0d15-4bb4-b27e-9ec19ef5040e"},"vehicle_type_id":"4","last_reported":1731082243,"current_range_meters":34000,"station_id":"ce4bgv92rcd13ifvqcr0","pricing_plan_id":"cebpf4jnsgd1na2vs0mg"},{"bike_id":"a3c48287-7626-4841-ae59-dd6e1c210444","system_id":"levelo_inurba_marseille","lat":43.2998,"lon":5.37181,"is_reserved":false,"is_disabled":false,"rental_uris":{"android":"levelo://app?vid=a3c48287-7626-4841-ae59-dd6e1c210444","ios":"levelo://app?vid=a3c48287-7626-4841-ae59-dd6e1c210444"},"vehicle_type_id":"4","last_reported":1731082243,"current_range_meters":20800,"station_id":"ce4bgr92rcd13ifvqc7g","pricing_plan_id":"cebpf4jnsgd1na2vs0mg"},{"bike_id":"16ec5dfc-fb75-414e-9811-533faf974649","system_id":"levelo_inurba_marseille","lat":43.29302,"lon":5.37179,"is_reserved":false,"is_disabled":false,"rental_uris":{"android":"levelo://app?vid=16ec5dfc-fb75-414e-9811-533faf974649","ios":"levelo://app?vid=16ec5dfc-fb75-414e-9811-533faf974649"},"vehicle_type_id":"4","last_reported":1731082243,"current_range_meters":30400,"station_id":"ce4bgh92rcd13ifvqb40","pricing_plan_id":"cebpf4jnsgd1na2vs0mg"},{"bike_id":"5055f467-3004-4ec7-b7ca-bea43d31b66e","system_id":"levelo_inurba_marseille","lat":43.28468,"lon":5.38421,"is_reserved":false,"is_disabled":false,"rental_uris":{"android":"levelo://app?vid=5055f467-3004-4ec7-b7ca-bea43d31b66e","ios":"levelo://app?vid=5055f467-3004-4ec7-b7ca-bea43d31b66e"},"vehicle_type_id":"4","last_reported":1731082243,"current_range_meters":25200,"station_id":"ce4bh512rcd13ifvqe3g","pricing_plan_id":"cebpf4jnsgd1na2vs0mg"},{"bike_id":"8981c85d-4583-4def-9f28-cc068178d91d","system_id":"levelo_inurba_marseille","lat":43.29278,"lon":5.40124,"is_reserved":false,"is_disabled":false,"rental_uris":{"android":"levelo://app?vid=8981c85d-4583-4def-9f28-cc068178d91d","ios":"levelo://app?vid=8981c85d-4583-4def-9f28-cc068178d91d"},"vehicle_type_id":"4","last_reported":1731082243,"current_range_meters":32400,"station_id":"ce4bh312rcd13ifvqdk0","pricing_plan_id":"cebpf4jnsgd1na2vs0mg"},{"bike_id":"a1792392-d9d0-40a6-82a7-c66203f56b0f","system_id":"levelo_inurba_marseille","lat":43.32264,"lon":5.40667,"is_reserved":false,"is_disabled":false,"rental_uris":{"android":"levelo://app?vid=a1792392-d9d0-40a6-82a7-c66203f56b0f","ios":"levelo://app?vid=a1792392-d9d0-40a6-82a7-c66203f56b0f"},"vehicle_type_id":"4","last_reported":1731082243,"current_range_meters":36400,"station_id":"ce4bhq92rcd13ifvqhjg","pricing_plan_id":"cebpf4jnsgd1na2vs0mg"},{"bike_id":"4ef11a7e-5741-4137-93db-9843a378e6ee","system_id":"levelo_inurba_marseille","lat":43.31705,"lon":5.43714,"is_reserved":false,"is_disabled":false,"rental_uris":{"android":"levelo://app?vid=4ef11a7e-5741-4137-93db-9843a378e6ee","ios":"levelo://app?vid=4ef11a7e-5741-4137-93db-9843a378e6ee"},"vehicle_type_id":"4","last_reported":1731082243,"current_range_meters":14800,"station_id":"ce4bhp92rcd13ifvqhcg","pricing_plan_id":"cebpf4jnsgd1na2vs0mg"},{"bike_id":"84ca48f2-67f1-4ef1-a7d2-13213d002d0d","system_id":"levelo_inurba_marseille","lat":43.23184,"lon":5.39988,"is_reserved":false,"is_disabled":false,"rental_uris":{"android":"levelo://app?vid=84ca48f2-67f1-4ef1-a7d2-13213d002d0d","ios":"levelo://app?vid=84ca48f2-67f1-4ef1-a7d2-13213d002d0d"},"vehicle_type_id":"4","last_reported":1731082243,"current_range_meters":27600,"station_id":"ce4bhn12rcd13ifvqgqg","pricing_plan_id":"cebpf4jnsgd1na2vs0mg"},{"bike_id":"75f97213-661c-4354-87c9-aa3fc07274a6","system_id":"levelo_inurba_marseille","lat":43.30537,"lon":5.36542,"is_reserved":false,"is_disabled":false,"rental_uris":{"android":"levelo://app?vid=75f97213-661c-4354-87c9-aa3fc07274a6","ios":"levelo://app?vid=75f97213-661c-4354-87c9-aa3fc07274a6"},"vehicle_type_id":"4","last_reported":1731082243,"current_range_meters":36400,"station_id":"ce4bgs12rcd13ifvqcag","pricing_plan_id":"cebpf4jnsgd1na2vs0mg"},{"bike_id":"a697c59c-211c-4f5d-878f-a22982045104","system_id":"levelo_inurba_marseille","lat":43.27991,"lon":5.40013,"is_reserved":false,"is_disabled":false,"rental_uris":{"android":"levelo://app?vid=a697c59c-211c-4f5d-878f-a22982045104","ios":"levelo://app?vid=a697c59c-211c-4f5d-878f-a22982045104"},"vehicle_type_id":"4","last_reported":1731082243,"current_range_meters":17200,"station_id":"ce4bho92rcd13ifvqh4g","pricing_plan_id":"cebpf4jnsgd1na2vs0mg"},{"bike_id":"3fdb3797-cee9-4db8-9c12-e10b99641be6","system_id":"levelo_inurba_marseille","lat":43.27496,"lon":5.42452,"is_reserved":false,"is_disabled":false,"rental_uris":{"android":"levelo://app?vid=3fdb3797-cee9-4db8-9c12-e10b99641be6","ios":"levelo://app?vid=3fdb3797-cee9-4db8-9c12-e10b99641be6"},"vehicle_type_id":"4","last_reported":1731082243,"current_range_meters":30800,"station_id":"ce4bhn92rcd13ifvqgrg","pricing_plan_id":"cebpf4jnsgd1na2vs0mg"},{"bike_id":"0dc4a8bd-c2ff-46f1-ac10-39a11b336e68","system_id":"levelo_inurba_marseille","lat":43.28689,"lon":5.3866,"is_reserved":false,"is_disabled":false,"rental_uris":{"android":"levelo://app?vid=0dc4a8bd-c2ff-46f1-ac10-39a11b336e68","ios":"levelo://app?vid=0dc4a8bd-c2ff-46f1-ac10-39a11b336e68"},"vehicle_type_id":"4","last_reported":1731082243,"current_range_meters":38000,"station_id":"ce4bh492rcd13ifvqdug","pricing_plan_id":"cebpf4jnsgd1na2vs0mg"},{"bike_id":"7fd951f6-187e-4263-8412-492911afbc2d","system_id":"levelo_inurba_marseille","lat":43.28693,"lon":5.3739,"is_reserved":false,"is_disabled":false,"rental_uris":{"android":"levelo://app?vid=7fd951f6-187e-4263-8412-492911afbc2d","ios":"levelo://app?vid=7fd951f6-187e-4263-8412-492911afbc2d"},"vehicle_type_id":"4","last_reported":1731082243,"current_range_meters":25600,"station_id":"ce4bh3p2rcd13ifvqdq0","pricing_plan_id":"cebpf4jnsgd1na2vs0mg"},{"bike_id":"c4a1fe4b-1a4e-443e-bb1d-dcafac62682e","system_id":"levelo_inurba_marseille","lat":43.2792,"lon":5.39581,"is_reserved":false,"is_disabled":false,"rental_uris":{"android":"levelo://app?vid=c4a1fe4b-1a4e-443e-bb1d-dcafac62682e","ios":"levelo://app?vid=c4a1fe4b-1a4e-443e-bb1d-dcafac62682e"},"vehicle_type_id":"4","last_reported":1731082243,"current_range_meters":16000,"station_id":"ce4bhf92rcd13ifvqf40","pricing_plan_id":"cebpf4jnsgd1na2vs0mg"},