{"last_updated":1769966133,"ttl":60,"version":"2.2","data":{"bikes":[{"bike_id":"a591b198-ffd8-42c1-96f8-07f7188eff82","system_id":"levelo_inurba_marseille","lat":43.25594,"lon":5.38216,"is_reserved":false,"is_disabled":false,"rental_uris":{"android":"levelo://app?vid=a591b198-ffd8-42c1-96f8-07f7188eff82","ios":"levelo://app?vid=a591b198-ffd8-42c1-96f8-07f7188eff82"},"vehicle_type_id":"4","last_reported":1769966134,"current_range_meters":2800,"station_id":"ce4bhih2rcd13ifvqfs0","pricing_plan_id":"cebpf4jnsgd1na2vs0mg"},{"bike_id":"bd8b8a27-6822-4582-9ca1-acf6c4210a7d","system_id":"levelo_inurba_marseille","lat":43.28024,"lon":5.36941,"is_reserved":false,"is_disabled":false,"rental_uris":{"android":"levelo://app?vid=bd8b8a27-6822-4582-9ca1-acf6c4210a7d","ios":"levelo://app?vid=bd8b8a27-6822-4582-9ca1-acf6c4210a7d"},"vehicle_type_id":"4","last_reported":1769966134,"current_range_meters":2800,"station_id":"ce4bha12rcd13ifvqef0","pricing_plan_id":"cebpf4jnsgd1na2vs0mg"},{"bike_id":"3a018445-7fc8-4338-a2fe-4c4c2c7f595b","system_id":"levelo_inurba_marseille","lat":43.24172,"lon":5.36403,"is_reserved":false,"is_disabled":false,"rental_uris":{"android":"levelo://app?vid=3a018445-7fc8-4338-a2fe-4c4c2c7f595b","ios":"levelo://app?vid=3a018445-7fc8-4338-a2fe-4c4c2c7f595b"},"vehicle_type_id":"4","last_reported":1769966134,"current_range_meters":2800,"station_id":"cpo36qri1sfpv3e86is0","pricing_plan_id":"cebpf4jnsgd1na2vs0mg"},{"bike_id":"f166bf0e-2812-4cff-b671-1683fce2c0ae","system_id":"levelo_inurba_marseille","lat":43.305993,"lon":5.393649,"is_reserved":false,"is_disabled":true,"rental_uris":{"android":"levelo://app?vid=f166bf0e-2812-4cff-b671-1683fce2c0ae","ios":"levelo://app?vid=f166bf0e-2812-4cff-b671-1683fce2c0ae"},"vehicle_type_id":"4","last_reported":1769966134,"current_range_meters":2800,"station_id":"ce4bh0p2rcd13ifvqd80","pricing_plan_id":"cebpf4jnsgd1na2vs0mg"},{"bike_id":"96113c6c-5474-48f6-bb6b-c57482b2da18","system_id":"levelo_inurba_marseille","lat":43.293634,"lon":5.378276,"is_reserved":false,"is_disabled":false,"rental_uris":{"android":"levelo://app?vid=96113c6c-5474-48f6-bb6b-c57482b2da18","ios":"levelo://app?vid=96113c6c-5474-48f6-bb6b-c57482b2da18"},"vehicle_type_id":"4","last_reported":1769966134,"current_range_meters":2800,"station_id":"ce4bgjh2rcd13ifvqbf0","pricing_plan_id":"cebpf4jnsgd1na2vs0mg"},{"bike_id":"73026031-5d91-43d6-aeac-86563e016f93","system_id":"levelo_inurba_marseille","lat":43.290039,"lon":5.356107,"is_reserved":false,"is_disabled":false,"rental_uris":{"android":"levelo://app?vid=73026031-5d91-43d6-aeac-86563e016f93","ios":"levelo://app?vid=73026031-5d91-43d6-aeac-86563e016f93"},"vehicle_type_id":"4","last_reported":1769966134,"current_range_meters":2800,"station_id":"ce4bhb92rcd13ifvqen0","pricing_plan_id":"cebpf4jnsgd1na2vs0mg"},{"bike_id":"8246e12c-8725-4590-b952-5539803f9559","system_id":"levelo_inurba_marseille","lat":43.24359,"lon":5.37076,"is_reserved":false,"is_disabled":false,"rental_uris":{"android":"levelo://app?vid=8246e12c-8725-4590-b952-5539803f9559","ios":"levelo://app?vid=8246e12c-8725-4590-b952-5539803f9559"},"vehicle_type_id":"4","last_reported":1769966134,"current_range_meters":2800,"station_id":"ce4bhhh2rcd13ifvqfk0","pricing_plan_id":"cebpf4jnsgd1na2vs0mg"},{"bike_id":"0a7451cb-af55-4cb9-a7f3-2cbe55d068b0","system_id":"levelo_inurba_marseille","lat":43.28374,"lon":5.38647,"is_reserved":false,"is_disabled":false,"rental_uris":{"android":"levelo://app?vid=0a7451cb-af55-4cb9-a7f3-2cbe55d068b0","ios":"levelo://app?vid=0a7451cb-af55-4cb9-a7f3-2cbe55d068b0"},"vehicle_type_id":"4","last_reported":1769966134,"current_range_meters":2800,"station_id":"ce4bh492rcd13ifvqdvg","pricing_plan_id":"cebpf4jnsgd1na2vs0mg"},{"bike_id":"112b1e21-bd3a-4255-8abc-185d02b80389","system_id":"levelo_inurba_marseille","lat":43.2866,"lon":5.38661,"is_reserved":false,"is_disabled":false,"rental_uris":{"android":"levelo://app?vid=112b1e21-bd3a-4255-8abc-185d02b80389","ios":"levelo://app?vid=112b1e21-bd3a-4255-8abc-185d02b80389"},"vehicle_type_id":"4","last_reported":1769966134,"current_range_meters":2800,"station_id":"ce4bh492rcd13ifvqdug","pricing_plan_id":"cebpf4jnsgd1na2vs0mg"},{"bike_id":"a0562751-3de6-4894-a347-7ca171031e56","system_id":"levelo_inurba_marseille","lat":43.290575,"lon":5.37178,"is_reserved":false,"is_disabled":false,"rental_uris":{"android":"levelo://app?vid=a0562751-3de6-4894-a347-7ca171031e56","ios":"levelo://app?vid=a0562751-3de6-4894-a347-7ca171031e56"},"vehicle_type_id":"4","last_reported":1769966134,"current_range_meters":2800,"station_id":"ce4bh5p2rcd13ifvqe4g","pricing_plan_id":"cebpf4jnsgd1na2vs0mg"},{"bike_id":"7dc92568-a96c-433d-8f98-d4f8c606a6e3","system_id":"levelo_inurba_marseille","lat":43.29234,"lon":5.4017,"is_reserved":false,"is_disabled":false,"rental_uris":{"android":"levelo://app?vid=7dc92568-a96c-433d-8f98-d4f8c606a6e3","ios":"levelo://app?vid=7dc92568-a96c-433d-8f98-d4f8c606a6e3"},"vehicle_type_id":"4","last_reported":1769966134,"current_range_meters":2800,"station_id":"ce4bh312rcd13ifvqdk0","pricing_plan_id":"cebpf4jnsgd1na2vs0mg"},{"bike_id":"e1b9d24f-2421-486f-a00c-01e9adfdba49","system_id":"levelo_inurba_marseille","lat":43.2318,"lon":5.39994,"is_reserved":false,"is_disabled":false,"rental_uris":{"android":"levelo://app?vid=e1b9d24f-2421-486f-a00c-01e9adfdba49","ios":"levelo://app?vid=e1b9d24f-2421-486f-a00c-01e9adfdba49"},"vehicle_type_id":"4","last_reported":1769966134,"current_range_meters":2800,"station_id":"ce4bhn12rcd13ifvqgqg","pricing_plan_id":"cebpf4jnsgd1na2vs0mg"},{"bike_id":"c7a73a37-ff34-4e05-b204-74ee8e4e675d","system_id":"levelo_inurba_marseille","lat":43.273803,"lon":5.362538,"is_reserved":false,"is_disabled":false,"rental_uris":{"android":"levelo://app?vid=c7a73a37-ff34-4e05-b204-74ee8e4e675d","ios":"levelo://app?vid=c7a73a37-ff34-4e05-b204-74ee8e4e675d"},"vehicle_type_id":"4","last_reported":1769966134,"current_range_meters":2800,"station_id":"ce4bhbh2rcd13ifvqeo0","pricing_plan_id":"cebpf4jnsgd1na2vs0mg"},{"bike_id":"1dc97b2e-d1f5-4f3f-bf58-ab267d00c025","system_id":"levelo_inurba_marseille","lat":43.23198,"lon":5.35539,"is_reserved":false,"is_disabled":false,"rental_uris":{"android":"levelo://app?vid=1dc97b2e-d1f5-4f3f-bf58-ab267d00c025","ios":"levelo://app?vid=1dc97b2e-d1f5-4f3f-bf58-ab267d00c025"},"vehicle_type_id":"4","last_reported":1769966134,"current_range_meters":3200,"station_id":"ce4bhu92rcd13ifvqi70","pricing_plan_id":"cebpf4jnsgd1na2vs0mg"},{"bike_id":"d8ad58c2-1203-4015-8476-69a224977c61","system_id":"levelo_inurba_marseille","lat":43.26694,"lon":5.38275,"is_reserved":false,"is_disabled":false,"rental_uris":{"android":"levelo://app?vid=d8ad58c2-1203-4015-8476-69a224977c61","ios":"levelo://app?vid=d8ad58c2-1203-4015-8476-69a224977c61"},"vehicle_type_id":"4","last_reported":1769966134,"current_range_meters":3200,"station_id":"ce4bhg92rcd13ifvqf90","pricing_plan_id":"cebpf4jnsgd1na2vs0mg"},{"bike_id":"882e2e52-ceb0-4c2c-bf80-6eb15522fc68","system_id":"levelo_inurba_marseille","lat":43.26561,"lon":5.39015,"is_reserved":false,"is_disabled":false,"rental_uris":{"android":"levelo://app?vid=882e2e52-ceb0-4c2c-bf80-6eb15522fc68","ios":"levelo://app?vid=882e2e52-ceb0-4c2c-bf80-6eb15522fc68"},"vehicle_type_id":"4","last_reported":1769966134,"current_range_meters":3200,"station_id":"ce4bhe12rcd13ifvqf30","pricing_plan_id":"cebpf4jnsgd1na2vs0mg"},{"bike_id":"0bd3810f-30fa-4e98-9a39-09edbec77204","system_id":"levelo_inurba_marseille","lat":43.24164,"lon":5.364065,"is_reserved":false,"is_disabled":false,"rental_uris":{"android":"levelo://app?vid=0bd3810f-30fa-4e98-9a39-09edbec77204","ios":"levelo://app?vid=0bd3810f-30fa-4e98-9a39-09edbec77204"},"vehicle_type_id":"4","last_reported":1769966134,"current_range_meters":3200,"station_id":"cpo36qri1sfpv3e86is0","pricing_plan_id":"cebpf4jnsgd1na2vs0mg"},{"bike_id":"73e765b4-783b-4d08-a7e9-b42fcd60b230","system_id":"levelo_inurba_marseille","lat":43.229294,"lon":5.353761,"is_reserved":false,"is_disabled":false,"rental_uris":{"android":"levelo://app?vid=73e765b4-783b-4d08-a7e9-b42fcd60b230","ios":"levelo://app?vid=73e765b4-783b-4d08-a7e9-b42fcd60b230"},"vehicle_type_id":"4","last_reported":1769966134,"current_range_meters":3200,"station_id":"cpo3532slgdg3j2ikp40","pricing_plan_id":"cebpf4jnsgd1na2vs0mg"},{"bike_id":"6259a571-4c97-41bc-9e30-1f15710670c6","system_id":"levelo_inurba_marseille","lat":43.24692,"lon":5.40122,"is_reserved":false,"is_disabled":false,"rental_uris":{"android":"levelo://app?vid=6259a571-4c97-41bc-9e30-1f15710670c6","ios":"levelo://app?vid=6259a571-4c97-41bc-9e30-1f15710670c6"},"vehicle_type_id":"4","last_reported":1769966134,"current_range_meters":3200,"station_id":"","pricing_plan_id":"cebpf4jnsgd1na2vs0mg"},{"bike_id":"581ce60f-5f73-418f-b6cd-f362decf7a25","system_id":"levelo_inurba_marseille","lat":43.27944,"lon":5.41042,"is_reserved":false,"is_disabled":false,"rental_uris":{"android":"levelo://app?vid=581ce60f-5f73-418f-b6cd-f362decf7a25","ios":"levelo://app?vid=581ce60f-5f73-418f-b6cd-f362decf7a25"},"vehicle_type_id":"4","last_reported":1769966134,"current_range_meters":3200,"station_id":"ce4bhnp2rcd13ifvqh0g","pricing_plan_id":"cebpf4jnsgd1na2vs0mg"},{"bike_id":"318133aa-3b05-4452-b847-cf5a32021652","system_id":"levelo_inurba_marseille","lat":43.25088,"lon":5.39524,"is_reserved":false,"is_disabled":false,"rental_uris":{"android":"levelo://app?vid=318133aa-3b05-4452-b847-cf5a32021652","ios":"levelo://app?vid=318133aa-3b05-4452-b847-cf5a32021652"},"vehicle_type_id":"4","last_reported":1769966134,"current_range_meters":3200,"station_id":"ce4bhm12rcd13ifvqgkg","pricing_plan_id":"cebpf4jnsgd1na2vs0mg"},{"bike_id":"4ae21097-68ff-4a44-bcb7-3e142e11d517","system_id":"levelo_inurba_marseille","lat":43.2419,"lon":5.3638,"is_reserved":false,"is_disabled":false,"rental_uris":{"android":"levelo://app?vid=4ae21097-68ff-4a44-bcb7-3e142e11d517","ios":"levelo://app?vid=4ae21097-68ff-4a44-bcb7-3e142e11d517"},"vehicle_type_id":"4","last_reported":1769966134,"current_range_meters":3200,"station_id":"cpo36qri1sfpv3e86is0","pricing_plan_id":"cebpf4jnsgd1na2vs0mg"},{"bike_id":"6e0a481c-a64c-45c7-9102-05b01d382fee","system_id":"levelo_inurba_marseille","lat":43.27217,"lon":5.39156,"is_reserved":false,"is_disabled":false,"rental_uris":{"android":"levelo://app?vid=6e0a481c-a64c-45c7-9102-05b01d382fee","ios":"levelo://app?vid=6e0a481c-a64c-45c7-9102-05b01d382fee"},"vehicle_type_id":"4","last_reported":1769966134,"current_range_meters":3200,"station_id":"ce4bhhp2rcd13ifvqfm0","pricing_plan_id":"cebpf4jnsgd1na2vs0mg"},{"bike_id":"0ebf6093-2d2d-453d-84a6-c92acfc7b71f","system_id":"levelo_inurba_marseille","lat":43.28213,"lon":5.3906,"is_reserved":false,"is_disabled":false,"rental_uris":{"android":"levelo://app?vid=0ebf6093-2d2d-453d-84a6-c92acfc7b71f","ios":"levelo://app?vid=0ebf6093-2d2d-453d-84a6-c92acfc7b71f"},"vehicle_type_id":"4","last_reported":1769966134,"current_range_meters":3200,"station_id":"ce4bhn92rcd13ifvqgsg","pricing_plan_id":"cebpf4jnsgd1na2vs0mg"},{"bike_id":"2aa1b855-a67e-44a5-9e87-0b767dbf6e7a","system_id":"levelo_inurba_marseille","lat":43.273752,"lon":5.3626,"is_reserved":false,"is_disabled":false,"rental_uris":{"android":"levelo://app?vid=2aa1b855-a67e-44a5-9e87-0b767dbf6e7a","ios":"levelo://app?vid=2aa1b855-a67e-44a5-9e87-0b767dbf6e7a"},"vehicle_type_id":"4","last_reported":1769966134,"current_range_meters":3200,"station_id":"ce4bhbh2rcd13ifvqeo0","pricing_plan_id":"cebpf4jnsgd1na2vs0mg"},{"bike_id":"3c1717b0-a92d-42af-9281-b5792a0358cc","system_id":"levelo_inurba_marseille","lat":43.292774,"lon":5.368419,"is_reserved":false,"is_disabled":false,"rental_uris":{"android":"levelo://app?vid=3c1717b0-a92d-42af-9281-b5792a0358cc","ios":"levelo://app?vid=3c1717b0-a92d-42af-9281-b5792a0358cc"},"vehicle_type_id":"4","last_reported":1769966134,"current_range_meters":3200,"station_id":"ce4bhbp2rcd13ifvqesg","pricing_plan_id":"cebpf4jnsgd1na2vs0mg"},{"bike_id":"01cd4626-3afe-4e4a-8b73-afe6f91a42be","system_id":"levelo_inurba_marseille","lat":43.24669,"lon":5.38151,"is_reserved":false,"is_disabled":false,"rental_uris":{"android":"levelo://app?vid=01cd4626-3afe-4e4a-8b73-afe6f91a42be","ios":"levelo://app?vid=01cd4626-3afe-4e4a-8b73-afe6f91a42be"},"vehicle_type_id":"4","last_reported":1769966134,"current_range_meters":3200,"station_id":"ce4bhih2rcd13ifvqfr0","pricing_plan_id":"cebpf4jnsgd1na2vs0mg"},{"bike_id":"0ad4cdd5-1c53-45d3-9a66-81b7c96ac2c3","system_id":"levelo_inurba_marseille","lat":43.26557,"lon":5.37281,"is_reserved":false,"is_disabled":false,"rental_uris":{"android":"levelo://app?vid=0ad4cdd5-1c53-45d3-9a66-81b7c96ac2c3","ios":"levelo://app?vid=0ad4cdd5-1c53-45d3-9a66-81b7c96ac2c3"},"vehicle_type_id":"4","last_reported":1769966134,"current_range_meters":3200,"station_id":"ce4bhg12rcd13ifvqf70","pricing_plan_id":"cebpf4jnsgd1na2vs0mg"},{"bike_id":"f1f865b1-1e12-4926-b234-efbbdf77501b","system_id":"levelo_inurba_marseille","lat":43.272114,"lon":5.391836,"is_reserved":false,"is_disabled":false,"rental_uris":{"android":"levelo://app?vid=f1f865b1-1e12-4926-b234-efbbdf77501b","ios":"levelo://app?vid=f1f865b1-1e12-4926-b234-efbbdf77501b"},"vehicle_type_id":"4","last_reported":1769966134,"current_range_meters":3600,"station_id":"ce4bhhp2rcd13ifvqfm0","pricing_plan_id":"cebpf4jnsgd1na2vs0mg"},{"bike_id":"92c215de-bdc8-4a14-ac51-64657304d1bf","system_id":"levelo_inurba_marseille","lat":43.30907,"lon":5.36845,"is_reserved":false,"is_disabled":false,"rental_uris":{"android":"levelo://app?vid=92c215de-bdc8-4a14-ac51-64657304d1bf","ios":"levelo://app?vid=92c215de-bdc8-4a14-ac51-64657304d1bf"},"vehicle_type_id":"4","last_reported":1769966134,"current_range_meters":3600,"station_id":"ce4bgn92rcd13ifvqbvg","pricing_plan_id":"cebpf4jnsgd1na2vs0mg"},{"bike_id":"a066c3c1-9e66-4002-8e77-b70375860c72","system_id":"levelo_inurba_marseille","lat":43.304166,"lon":5.413005,"is_reserved":false,"is_disabled":false,"rental_uris":{"android":"levelo://app?vid=a066c3c1-9e66-4002-8e77-b70375860c72","ios":"levelo://app?vid=a066c3c1-9e66-4002-8e77-b70375860c72"},"vehicle_type_id":"4","last_reported":1769966134,"current_range_meters":3600,"station_id":"ce4bhop2rcd13ifvqh8g","pricing_plan_id":"cebpf4jnsgd1na2vs0mg"},{"bike_id":"1ce878eb-4071-417b-affe-e9036002f1a6","system_id":"levelo_inurba_marseille","lat":43.2481,"lon":5.37462,"is_reserved":false,"is_disabled":false,"rental_uris":{"android":"levelo://app?vid=1ce878eb-4071-417b-affe-e9036002f1a6","ios":"levelo://app?vid=1ce878eb-4071-417b-affe-e9036002f1a6"},"vehicle_type_id":"4","last_reported":1769966134,"current_range_meters":3600,"station_id":"ce4bhgh2rcd13ifvqfb0","pricing_plan_id":"cebpf4jnsgd1na2vs0mg"},{"bike_id":"9ed00dae-a9d7-4182-a35a-35ade70ca925","system_id":"levelo_inurba_marseille","lat":43.2293,"lon":5.35376,"is_reserved":false,"is_disabled":false,"rental_uris":{"android":"levelo://app?vid=9ed00dae-a9d7-4182-a35a-35ade70ca925","ios":"levelo://app?vid=9ed00dae-a9d7-4182-a35a-35ade70ca925"},"vehicle_type_id":"4","last_reported":1769966134,"current_range_meters":3600,"station_id":"cpo3532slgdg3j2ikp40","pricing_plan_id":"cebpf4jnsgd1na2vs0mg"},{"bike_id":"ef3ac042-6517-4112-9988-08ee387cbd2b","system_id":"levelo_inurba_marseille","lat":43.28972,"lon":5.3905,"is_reserved":false,"is_disabled":false,"rental_uris":{"android":"levelo://app?vid=ef3ac042-6517-4112-9988-08ee387cbd2b","ios":"levelo://app?vid=ef3ac042-6517-4112-9988-08ee387cbd2b"},"vehicle_type_id":"4","last_reported":1769966134,"current_range_meters":3600,"station_id":"","pricing_plan_id":"cebpf4jnsgd1na2vs0mg"},{"bike_id":"ae9455a0-cefc-4d5e-b9ef-a184dcd08edb","system_id":"levelo_inurba_marseille","lat":43.26544,"lon":5.37314,"is_reserved":false,"is_disabled":true,"rental_uris":{"android":"levelo://app?vid=ae9455a0-cefc-4d5e-b9ef-a184dcd08edb","ios":"levelo://app?vid=ae9455a0-cefc-4d5e-b9ef-a184dcd08edb"},"vehicle_type_id":"4","last_reported":1769966134,"current_range_meters":3600,"station_id":"ce4bhg12rcd13ifvqf70","pricing_plan_id":"cebpf4jnsgd1na2vs0mg"},{"bike_id":"453fe672-5a41-4d12-973c-7e4c9e8618f4","system_id":"levelo_inurba_marseille","lat":43.29514,"lon":5.39388,"is_reserved":false,"is_disabled":false,"rental_uris":{"android":"levelo://app?vid=453fe672-5a41-4d12-973c-7e4c9e8618f4","ios":"levelo://app?vid=453fe672-5a41-4d12-973c-7e4c9e8618f4"},"vehicle_type_id":"4","last_reported":1769966134,"current_range_meters":3600,"station_id":"ce4bh292rcd13ifvqdf0","pricing_plan_id":"cebpf4jnsgd1na2vs0mg"},{"bike_id":"a84fef70-2baf-4f8b-bb80-b60e2479a49a","system_id":"levelo_inurba_marseille","lat":43.30781,"lon":5.37641,"is_reserved":false,"is_disabled":false,"rental_uris":{"android":"levelo://app?vid=a84fef70-2baf-4f8b-bb80-b60e2479a49a","ios":"levelo://app?vid=a84fef70-2baf-4f8b-bb80-b60e2479a49a"},"vehicle_type_id":"4","last_reported":1769966134,"current_range_meters":3600,"station_id":"ce4bgv92rcd13ifvqcq0","pricing_plan_id":"cebpf4jnsgd1na2vs0mg"},{"bike_id":"d5adadd6-c8d1-47dc-803a-7b8824b33f80","system_id":"levelo_inurba_marseille","lat":43.27207,"lon":5.39178,"is_reserved":false,"is_disabled":false,"rental_uris":{"android":"levelo://app?vid=d5adadd6-c8d1-47dc-803a-7b8824b33f80","ios":"levelo://app?vid=d5adadd6-c8d1-47dc-803a-7b8824b33f80"},"vehicle_type_id":"4","last_reported":1769966134,"current_range_meters":3600,"station_id":"ce4bhhp2rcd13ifvqfm0","pricing_plan_id":"cebpf4jnsgd1na2vs0mg"},{"bike_id":"79f65e29-7407-4585-a4e9-ab99c432fdef","system_id":"levelo_inurba_marseille","lat":43.29711,"lon":5.36569,"is_reserved":false,"is_disabled":false,"rental_uris":{"android":"levelo://app?vid=79f65e29-7407-4585-a4e9-ab99c432fdef","ios":"levelo://app?vid=79f65e29-7407-4585-a4e9-ab99c432fdef"},"vehicle_type_id":"4","last_reported":1769966134,"current_range_meters":3600,"station_id":"ce4bgn12rcd13ifvqbt0","pricing_plan_id":"cebpf4jnsgd1na2vs0mg"},{"bike_id":"0526157e-5b8e-4f88-bbde-e0f0c3daa224","system_id":"levelo_inurba_marseille","lat":43.26502,"lon":5.39532,"is_reserved":false,"is_disabled":false,"rental_uris":{"android":"levelo://app?vid=0526157e-5b8e-4f88-bbde-e0f0c3daa224","ios":"levelo://app?vid=0526157e-5b8e-4f88-bbde-e0f0c3daa224"},"vehicle_type_id":"4","last_reported":1769966134,"current_range_meters":3600,"station_id":"ce4bhi12rcd13ifvqfq0","pricing_plan_id":"cebpf4jnsgd1na2vs0mg"},{"bike_id":"0fee7723-8bc4-4b05-8a12-a92adf2422f4","system_id":"levelo_inurba_marseille","lat":43.25118,"lon":5.40318,"is_reserved":false,"is_disabled":false,"rental_uris":{"android":"levelo://app?vid=0fee7723-8bc4-4b05-8a12-a92adf2422f4","ios":"levelo://app?vid=0fee7723-8bc4-4b05-8a12-a92adf2422f4"},"vehicle_type_id":"4","last_reported":1769966134,"current_range_meters":3600,"station_id":"ce4bhlh2rcd13ifvqgig","pricing_plan_id":"cebpf4jnsgd1na2vs0mg"},{"bike_id":"d3215a18-ac25-47b2-bc57-dcaef897eb36","system_id":"levelo_inurba_marseille","lat":43.31409,"lon":5.38579,"is_reserved":false,"is_disabled":false,"rental_uris":{"android":"levelo://app?vid=d3215a18-ac25-47b2-bc57-dcaef897eb36","ios":"levelo://app?vid=d3215a18-ac25-47b2-bc57-dcaef897eb36"},"vehicle_type_id":"4","last_reported":1769966134,"current_range_meters":4000,"station_id":"","pricing_plan_id":"cebpf4jnsgd1na2vs0mg"},{"bike_id":"f1afac7b-3a1b-4cac-a9fd-69907f58ad17","system_id":"levelo_inurba_marseille","lat":43.26935,"lon":5.40266,"is_reserved":false,"is_disabled":false,"rental_uris":{"android":"levelo://app?vid=f1afac7b-3a1b-4cac-a9fd-69907f58ad17","ios":"levelo://app?vid=f1afac7b-3a1b-4cac-a9fd-69907f58ad17"},"vehicle_type_id":"4","last_reported":1769966134,"current_range_meters":4000,"station_id":"cjm6bp8fraef2m0cb0m0","pricing_plan_id":"cebpf4jnsgd1na2vs0mg"},{"bike_id":"12e105d3-eb75-4ebb-911a-071821c8261a","system_id":"levelo_inurba_marseille","lat":43.28487,"lon":5.38411,"is_reserved":false,"is_disabled":false,"rental_uris":{"android":"levelo://app?vid=12e105d3-eb75-4ebb-911a-071821c8261a","ios":"levelo://app?vid=12e105d3-eb75-4ebb-911a-071821c8261a"},"vehicle_type_id":"4","last_reported":1769966134,"current_range_meters":4000,"station_id":"ce4bh512rcd13ifvqe3g","pricing_plan_id":"cebpf4jnsgd1na2vs0mg"},{"bike_id":"ddcbae43-31a1-4a2a-a439-401aedcebd53","system_id":"levelo_inurba_marseille","lat":43.2846,"lon":5.35888,"is_reserved":false,"is_disabled":false,"rental_uris":{"android":"levelo://app?vid=ddcbae43-31a1-4a2a-a439-401aedcebd53","ios":"levelo://app?vid=ddcbae43-31a1-4a2a-a439-401aedcebd53"},"vehicle_type_id":"4","last_reported":1769966134,"current_range_meters":4000,"station_id":"ce4bhah2rcd13ifvqei0","pricing_plan_id":"cebpf4jnsgd1na2vs0mg"},{"bike_id":"8d6b07a9-24ee-496f-8698-1aac6fb65f3c","system_id":"levelo_inurba_marseille","lat":43.29709,"lon":5.3662,"is_reserved":false,"is_disabled":false,"rental_uris":{"android":"levelo://app?vid=8d6b07a9-24ee-496f-8698-1aac6fb65f3c","ios":"levelo://app?vid=8d6b07a9-24ee-496f-8698-1aac6fb65f3c"},"vehicle_type_id":"4","last_reported":1769966134,"current_range_meters":4000,"station_id":"ce4bgn12rcd13ifvqbt0","pricing_plan_id":"cebpf4jnsgd1na2vs0mg"},{"bike_id":"1b46784a-1250-4910-bf43-38f5cf56ddbe","system_id":"levelo_inurba_marseille","lat":43.29025,"lon":5.38644,"is_reserved":false,"is_disabled":false,"rental_uris":{"android":"levelo://app?vid=1b46784a-1250-4910-bf43-38f5cf56ddbe","ios":"levelo://app?vid=1b46784a-1250-4910-bf43-38f5cf56ddbe"},"vehicle_type_id":"4","last_reported":1769966134,"current_range_meters":4000,"station_id":"ce4bh4p2rcd13ifvqe0g","pricing_plan_id":"cebpf4jnsgd1na2vs0mg"},{"bike_id":"21a72a69-9fba-4c92-b534-96b106992f8a","system_id":"levelo_inurba_marseille","lat":43.31219,"lon":5.380777,"is_reserved":false,"is_disabled":false,"rental_uris":{"android":"levelo://app?vid=21a72a69-9fba-4c92-b534-96b106992f8a","ios":"levelo://app?vid=21a72a69-9fba-4c92-b534-96b106992f8a"},"vehicle_type_id":"4","last_reported":1769966134,"current_range_meters":4000,"station_id":"","pricing_plan_id":"cebpf4jnsgd1na2vs0mg"},{"bike_id":"b4bca822-2224-46af-8537-509b9b9db457","system_id":"levelo_inurba_marseille","lat":43.26787,"lon":5.39404,"is_reserved":false,"is_disabled":false,"rental_uris":{"android":"levelo://app?vid=b4bca822-2224-46af-8537-509b9b9db457","ios":"levelo://app?vid=b4bca822-2224-46af-8537-509b9b9db457"},"vehicle_type_id":"4","last_reported":1769966134,"current_range_meters":4000,"station_id":"ce4bhh12rcd13ifvqfg0","pricing_plan_id":"cebpf4jnsgd1na2vs0mg"},{"bike_id":"d4d18011-2bf0-4a2b-a896-7a5c21af3b9d","system_id":"levelo_inurba_marseille","lat":43.28479,"lon":5.48384,"is_reserved":false,"is_disabled":false,"rental_uris":{"android":"levelo://app?vid=d4d18011-2bf0-4a2b-a896-7a5c21af3b9d","ios":"levelo://app?vid=d4d18011-2bf0-4a2b-a896-7a5c21af3b9d"},"vehicle_type_id":"4","last_reported":1769966134,"current_range_meters":4000,"station_id":"st_d3svhcjqgbts73a3dn0g","pricing_plan_id":"cebpf4jnsgd1na2vs0mg"},{"bike_id":"21522f99-dafa-492b-b818-d95281042aa2","system_id":"levelo_inurba_marseille","lat":43.3014,"lon":5.38782,"is_reserved":false,"is_disabled":false,"rental_uris":{"android":"levelo://app?vid=21522f99-dafa-492b-b818-d95281042aa2","ios":"levelo://app?vid=21522f99-dafa-492b-b818-d95281042aa2"},"vehicle_type_id":"4","last_reported":1769966134,"current_range_meters":4000,"station_id":"ce4bghh2rcd13ifvqb60","pricing_plan_id":"cebpf4jnsgd1na2vs0mg"},{"bike_id":"fcf4ceda-cb1e-401e-96be-47bfbd7c81c1","system_id":"levelo_inurba_marseille","lat":43.30648,"lon":5.40098,"is_reserved":false,"is_disabled":false,"rental_uris":{"android":"levelo://app?vid=fcf4ceda-cb1e-401e-96be-47bfbd7c81c1","ios":"levelo://app?vid=fcf4ceda-cb1e-401e-96be-47bfbd7c81c1"},"vehicle_type_id":"4","last_reported":1769966134,"current_range_meters":4000,"station_id":"ce4bh112rcd13ifvqda0","pricing_plan_id":"cebpf4jnsgd1na2vs0mg"},{"bike_id":"5be20501-8e04-4673-9119-891aadf1acc1","system_id":"levelo_inurba_marseille","lat":43.28485,"lon":5.48391,"is_reserved":false,"is_disabled":false,"rental_uris":{"android":"levelo://app?vid=5be20501-8e04-4673-9119-891aadf1acc1","ios":"levelo://app?vid=5be20501-8e04-4673-9119-891aadf1acc1"},"vehicle_type_id":"4","last_reported":1769966134,"current_range_meters":4000,"station_id":"","pricing_plan_id":"cebpf4jnsgd1na2vs0mg"},{"bike_id":"ef5cdbbf-7f51-4c3d-afa2-ff57da42e253","system_id":"levelo_inurba_marseille","lat":43.2854,"lon":5.44089,"is_reserved":false,"is_disabled":false,"rental_uris":{"android":"levelo://app?vid=ef5cdbbf-7f51-4c3d-afa2-ff57da42e253","ios":"levelo://app?vid=ef5cdbbf-7f51-4c3d-afa2-ff57da42e253"},"vehicle_type_id":"4","last_reported":1769966134,"current_range_meters":4000,"station_id":"","pricing_plan_id":"cebpf4jnsgd1na2vs0mg"},{"bike_id":"d5e67bfe-03c5-4643-9903-6eac267b87da","system_id":"levelo_inurba_marseille","lat":43.23989,"lon":5.37805,"is_reserved":false,"is_disabled":false,"rental_uris":{"android":"levelo://app?vid=d5e67bfe-03c5-4643-9903-6eac267b87da","ios":"levelo://app?vid=d5e67bfe-03c5-4643-9903-6eac267b87da"},"vehicle_type_id":"4","last_reported":1769966134,"current_range_meters":4000,"station_id":"","pricing_plan_id":"cebpf4jnsgd1na2vs0mg"},{"bike_id":"7ca4b8ef-87ac-4d6e-9fbd-ac18975448d5","system_id":"levelo_inurba_marseille","lat":43.27359,"lon":5.36249,"is_reserved":false,"is_disabled":false,"rental_uris":{"android":"levelo://app?vid=7ca4b8ef-87ac-4d6e-9fbd-ac18975448d5","ios":"levelo://app?vid=7ca4b8ef-87ac-4d6e-9fbd-ac18975448d5"},"vehicle_type_id":"4","last_reported":1769966134,"current_range_meters":4400,"station_id":"ce4bhbh2rcd13ifvqeo0","pricing_plan_id":"cebpf4jnsgd1na2vs0mg"},{"bike_id":"a0f4c4d9-b17d-4551-87f4-b3e192df9153","system_id":"levelo_inurba_marseille","lat":43.23038,"lon":5.35484,"is_reserved":false,"is_disabled":false,"rental_uris":{"android":"levelo://app?vid=a0f4c4d9-b17d-4551-87f4-b3e192df9153","ios":"levelo://app?vid=a0f4c4d9-b17d-4551-87f4-b3e192df9153"},"vehicle_type_id":"4","last_reported":1769966134,"current_range_meters":4400,"station_id":"cpo3342slgdg3j2ifvpg","pricing_plan_id":"cebpf4jnsgd1na2vs0mg"},{"bike_id":"2c87ecac-0fb0-4aed-b96f-c94f3d8eb77c","system_id":"levelo_inurba_marseille","lat":43.306023,"lon":5.372323,"is_reserved":false,"is_disabled":false,"rental_uris":{"android":"levelo://app?vid=2c87ecac-0fb0-4aed-b96f-c94f3d8eb77c","ios":"levelo://app?vid=2c87ecac-0fb0-4aed-b96f-c94f3d8eb77c"},"vehicle_type_id":"4","last_reported":1769966134,"current_range_meters":4400,"station_id":"ce4bgqh2rcd13ifvqc4g","pricing_plan_id":"cebpf4jnsgd1na2vs0mg"},{"bike_id":"91e5e456-fed7-4170-8574-f1dd77ef6fa3","system_id":"levelo_inurba_marseille","lat":43.24168,"lon":5.36389,"is_reserved":false,"is_disabled":false,"rental_uris":{"android":"levelo://app?vid=91e5e456-fed7-4170-8574-f1dd77ef6fa3","ios":"levelo://app?vid=91e5e456-fed7-4170-8574-f1dd77ef6fa3"},"vehicle_type_id":"4","last_reported":1769966134,"current_range_meters":4400,"station_id":"cpo36qri1sfpv3e86is0","pricing_plan_id":"cebpf4jnsgd1na2vs0mg"},{"bike_id":"636a151d-0f92-4294-84df-1f1a05db34c7","system_id":"levelo_inurba_marseille","lat":43.32478,"lon":5.36559,"is_reserved":false,"is_disabled":false,"rental_uris":{"android":"levelo://app?vid=636a151d-0f92-4294-84df-1f1a05db34c7","ios":"levelo://app?vid=636a151d-0f92-4294-84df-1f1a05db34c7"},"vehicle_type_id":"4","last_reported":1769966134,"current_range_meters":4400,"station_id":"ce4bhs12rcd13ifvqhvg","pricing_plan_id":"cebpf4jnsgd1na2vs0mg"},{"bike_id":"8c0be225-2286-4fd4-866d-a46f1deb5865","system_id":"levelo_inurba_marseille","lat":43.27368,"lon":5.36256,"is_reserved":false,"is_disabled":false,"rental_uris":{"android":"levelo://app?vid=8c0be225-2286-4fd4-866d-a46f1deb5865","ios":"levelo://app?vid=8c0be225-2286-4fd4-866d-a46f1deb5865"},"vehicle_type_id":"4","last_reported":1769966134,"current_range_meters":4400,"station_id":"","pricing_plan_id":"cebpf4jnsgd1na2vs0mg"},{"bike_id":"519cc48e-d066-4eae-ab86-d197d14dc892","system_id":"levelo_inurba_marseille","lat":43.298847,"lon":5.397296,"is_reserved":false,"is_disabled":false,"rental_uris":{"android":"levelo://app?vid=519cc48e-d066-4eae-ab86-d197d14dc892","ios":"levelo://app?vid=519cc48e-d066-4eae-ab86-d197d14dc892"},"vehicle_type_id":"4","last_reported":1769966134,"current_range_meters":4400,"station_id":"ce4bh312rcd13ifvqdj0","pricing_plan_id":"cebpf4jnsgd1na2vs0mg"},{"bike_id":"0824a0f9-c6b3-479c-a130-174bae5588f2","system_id":"levelo_inurba_marseille","lat":43.29036,"lon":5.38645,"is_reserved":false,"is_disabled":false,"rental_uris":{"android":"levelo://app?vid=0824a0f9-c6b3-479c-a130-174bae5588f2","ios":"levelo://app?vid=0824a0f9-c6b3-479c-a130-174bae5588f2"},"vehicle_type_id":"4","last_reported":1769966134,"current_range_meters":4400,"station_id":"ce4bh4p2rcd13ifvqe0g","pricing_plan_id":"cebpf4jnsgd1na2vs0mg"},{"bike_id":"7725ea14-335e-4d54-91ac-40d50e39e00e","system_id":"levelo_inurba_marseille","lat":43.23183,"lon":5.39989,"is_reserved":false,"is_disabled":false,"rental_uris":{"android":"levelo://app?vid=7725ea14-335e-4d54-91ac-40d50e39e00e","ios":"levelo://app?vid=7725ea14-335e-4d54-91ac-40d50e39e00e"},"vehicle_type_id":"4","last_reported":1769966134,"current_range_meters":4400,"station_id":"ce4bhn12rcd13ifvqgqg","pricing_plan_id":"cebpf4jnsgd1na2vs0mg"},{"bike_id":"ea996b6a-e4df-4475-a81a-600ad94271b6","system_id":"levelo_inurba_marseille","lat":43.30289,"lon":5.39785,"is_reserved":false,"is_disabled":false,"rental_uris":{"android":"levelo://app?vid=ea996b6a-e4df-4475-a81a-600ad94271b6","ios":"levelo://app?vid=ea996b6a-e4df-4475-a81a-600ad94271b6"},"vehicle_type_id":"4","last_reported":1769966134,"current_range_meters":4400,"station_id":"","pricing_plan_id":"cebpf4jnsgd1na2vs0mg"},{"bike_id":"d5d1ca85-9a51-4ace-b60d-21723599388e","system_id":"levelo_inurba_marseille","lat":43.296484,"lon":5.376582,"is_reserved":false,"is_disabled":false,"rental_uris":{"android":"levelo://app?vid=d5d1ca85-9a51-4ace-b60d-21723599388e","ios":"levelo://app?vid=d5d1ca85-9a51-4ace-b60d-21723599388e"},"vehicle_type_id":"4","last_reported":1769966134,"current_range_meters":4400,"station_id":"ce4bgkh2rcd13ifvqbl0","pricing_plan_id":"cebpf4jnsgd1na2vs0mg"},{"bike_id":"9793b84d-9eb4-4d22-8eec-fae4bbb0768d","system_id":"levelo_inurba_marseille","lat":43.27938,"lon":5.41048,"is_reserved":false,"is_disabled":false,"rental_uris":{"android":"levelo://app?vid=9793b84d-9eb4-4d22-8eec-fae4bbb0768d","ios":"levelo://app?vid=9793b84d-9eb4-4d22-8eec-fae4bbb0768d"},"vehicle_type_id":"4","last_reported":1769966134,"current_range_meters":4400,"station_id":"ce4bhnp2rcd13ifvqh0g","pricing_plan_id":"cebpf4jnsgd1na2vs0mg"},{"bike_id":"37785abb-a50f-40a9-a610-a2d983a2f7a0","system_id":"levelo_inurba_marseille","lat":43.29269,"lon":5.37627,"is_reserved":false,"is_disabled":false,"rental_uris":{"android":"levelo://app?vid=37785abb-a50f-40a9-a610-a2d983a2f7a0","ios":"levelo://app?vid=37785abb-a50f-40a9-a610-a2d983a2f7a0"},"vehicle_type_id":"4","last_reported":1769966134,"current_range_meters":4400,"station_id":"ce4bgi12rcd13ifvqb80","pricing_plan_id":"cebpf4jnsgd1na2vs0mg"},{"bike_id":"eaeabde4-5c5c-474c-86c3-827d9c4aefed","system_id":"levelo_inurba_marseille","lat":43.29526,"lon":5.38546,"is_reserved":false,"is_disabled":false,"rental_uris":{"android":"levelo://app?vid=eaeabde4-5c5c-474c-86c3-827d9c4aefed","ios":"levelo://app?vid=eaeabde4-5c5c-474c-86c3-827d9c4aefed"},"vehicle_type_id":"4","last_reported":1769966134,"current_range_meters":4400,"station_id":"ce4bgih2rcd13ifvqba0","pricing_plan_id":"cebpf4jnsgd1na2vs0mg"},{"bike_id":"0e681b67-3fdf-40b6-b942-590e1536d0c5","system_id":"levelo_inurba_marseille","lat":43.24386,"lon":5.37072,"is_reserved":false,"is_disabled":false,"rental_uris":{"android":"levelo://app?vid=0e681b67-3fdf-40b6-b942-590e1536d0c5","ios":"levelo://app?vid=0e681b67-3fdf-40b6-b942-590e1536d0c5"},"vehicle_type_id":"4","last_reported":1769966134,"current_range_meters":4400,"station_id":"ce4bhhh2rcd13ifvqfk0","pricing_plan_id":"cebpf4jnsgd1na2vs0mg"},{"bike_id":"74856cd2-f709-469e-b628-27ee18812e7c","system_id":"levelo_inurba_marseille","lat":43.28155,"lon":5.42639,"is_reserved":false,"is_disabled":false,"rental_uris":{"android":"levelo://app?vid=74856cd2-f709-469e-b628-27ee18812e7c","ios":"levelo://app?vid=74856cd2-f709-469e-b628-27ee18812e7c"},"vehicle_type_id":"4","last_reported":1769966134,"current_range_meters":4400,"station_id":"ce4bhnh2rcd13ifvqgug","pricing_plan_id":"cebpf4jnsgd1na2vs0mg"},{"bike_id":"71cc088e-ef37-4568-9897-0c81ea57fe1c","system_id":"levelo_inurba_marseille","lat":43.29971,"lon":5.3719,"is_reserved":false,"is_disabled":false,"rental_uris":{"android":"levelo://app?vid=71cc088e-ef37-4568-9897-0c81ea57fe1c","ios":"levelo://app?vid=71cc088e-ef37-4568-9897-0c81ea57fe1c"},"vehicle_type_id":"4","last_reported":1769966134,"current_range_meters":4400,"station_id":"ce4bgr92rcd13ifvqc7g","pricing_plan_id":"cebpf4jnsgd1na2vs0mg"},{"bike_id":"bd0b3557-9fd7-4e9c-b122-eda4f40b316d","system_id":"levelo_inurba_marseille","lat":43.24792,"lon":5.37466,"is_reserved":false,"is_disabled":false,"rental_uris":{"android":"levelo://app?vid=bd0b3557-9fd7-4e9c-b122-eda4f40b316d","ios":"levelo://app?vid=bd0b3557-9fd7-4e9c-b122-eda4f40b316d"},"vehicle_type_id":"4","last_reported":1769966134,"current_range_meters":4800,"station_id":"ce4bhgh2rcd13ifvqfb0","pricing_plan_id":"cebpf4jnsgd1na2vs0mg"},{"bike_id":"f63ad825-b273-458f-bf2e-2ef630e3fede","system_id":"levelo_inurba_marseille","lat":43.22571,"lon":5.41601,"is_reserved":false,"is_disabled":false,"rental_uris":{"android":"levelo://app?vid=f63ad825-b273-458f-bf2e-2ef630e3fede","ios":"levelo://app?vid=f63ad825-b273-458f-bf2e-2ef630e3fede"},"vehicle_type_id":"4","last_reported":1769966134,"current_range_meters":4800,"station_id":"st_d2o4gvlbi1j2169b742g","pricing_plan_id":"cebpf4jnsgd1na2vs0mg"},{"bike_id":"7ab8a857-b8b2-481a-bc62-16c3ef910d21","system_id":"levelo_inurba_marseille","lat":43.27371,"lon":5.36248,"is_reserved":false,"is_disabled":false,"rental_uris":{"android":"levelo://app?vid=7ab8a857-b8b2-481a-bc62-16c3ef910d21","ios":"levelo://app?vid=7ab8a857-b8b2-481a-bc62-16c3ef910d21"},"vehicle_type_id":"4","last_reported":1769966134,"current_range_meters":4800,"station_id":"ce4bhbh2rcd13ifvqeo0","pricing_plan_id":"cebpf4jnsgd1na2vs0mg"},{"bike_id":"7a4412cf-c498-4121-be46-049419c026d4","system_id":"levelo_inurba_marseille","lat":43.27936,"lon":5.41045,"is_reserved":false,"is_disabled":false,"rental_uris":{"android":"levelo://app?vid=7a4412cf-c498-4121-be46-049419c026d4","ios":"levelo://app?vid=7a4412cf-c498-4121-be46-049419c026d4"},"vehicle_type_id":"4","last_reported":1769966134,"current_range_meters":4800,"station_id":"ce4bhnp2rcd13ifvqh0g","pricing_plan_id":"cebpf4jnsgd1na2vs0mg"},{"bike_id":"e66c0050-63ae-4842-902f-7ed4f4ed8737","system_id":"levelo_inurba_marseille","lat":43.22553,"lon":5.41625,"is_reserved":false,"is_disabled":false,"rental_uris":{"android":"levelo://app?vid=e66c0050-63ae-4842-902f-7ed4f4ed8737","ios":"levelo://app?vid=e66c0050-63ae-4842-902f-7ed4f4ed8737"},"vehicle_type_id":"4","last_reported":1769966134,"current_range_meters":4800,"station_id":"st_d2o4gvlbi1j2169b742g","pricing_plan_id":"cebpf4jnsgd1na2vs0mg"},{"bike_id":"d0765df0-cc90-4cba-8b79-61ce95080b49","system_id":"levelo_inurba_marseille","lat":43.22566,"lon":5.41631,"is_reserved":false,"is_disabled":false,"rental_uris":{"android":"levelo://app?vid=d0765df0-cc90-4cba-8b79-61ce95080b49","ios":"levelo://app?vid=d0765df0-cc90-4cba-8b79-61ce95080b49"},"vehicle_type_id":"4","last_reported":1769966134,"current_range_meters":4800,"station_id":"st_d2o4gvlbi1j2169b742g","pricing_plan_id":"cebpf4jnsgd1na2vs0mg"},{"bike_id":"5e2934ee-b4b3-497b-bbab-14113f6432e2","system_id":"levelo_inurba_marseille","lat":43.27367,"lon":5.36251,"is_reserved":false,"is_disabled":false,"rental_uris":{"android":"levelo://app?vid=5e2934ee-b4b3-497b-bbab-14113f6432e2","ios":"levelo://app?vid=5e2934ee-b4b3-497b-bbab-14113f6432e2"},"vehicle_type_id":"4","last_reported":1769966134,"current_range_meters":4800,"station_id":"ce4bhbh2rcd13ifvqeo0","pricing_plan_id":"cebpf4jnsgd1na2vs0mg"},{"bike_id":"3e35de9d-8173-4751-8dbe-347b29ba5d1b","system_id":"levelo_inurba_marseille","lat":43.2842,"lon":5.34996,"is_reserved":false,"is_disabled":false,"rental_uris":{"android":"levelo://app?vid=3e35de9d-8173-4751-8dbe-347b29ba5d1b","ios":"levelo://app?vid=3e35de9d-8173-4751-8dbe-347b29ba5d1b"},"vehicle_type_id":"4","last_reported":1769966134,"current_range_meters":4800,"station_id":"ce4bhbh2rcd13ifvqepg","pricing_plan_id":"cebpf4jnsgd1na2vs0mg"},{"bike_id":"44706e4f-eefc-44f2-bedd-4b6229aeb269","system_id":"levelo_inurba_marseille","lat":43.23053,"lon":5.35487,"is_reserved":false,"is_disabled":false,"rental_uris":{"android":"levelo://app?vid=44706e4f-eefc-44f2-bedd-4b6229aeb269","ios":"levelo://app?vid=44706e4f-eefc-44f2-bedd-4b6229aeb269"},"vehicle_type_id":"4","last_reported":1769966134,"current_range_meters":4800,"station_id":"cpo3342slgdg3j2ifvpg","pricing_plan_id":"cebpf4jnsgd1na2vs0mg"},{"bike_id":"bcd58453-c6d3-458d-8c23-f0e115fa2945","system_id":"levelo_inurba_marseille","lat":43.28868,"lon":5.42502,"is_reserved":false,"is_disabled":false,"rental_uris":{"android":"levelo://app?vid=bcd58453-c6d3-458d-8c23-f0e115fa2945","ios":"levelo://app?vid=bcd58453-c6d3-458d-8c23-f0e115fa2945"},"vehicle_type_id":"4","last_reported":1769966134,"current_range_meters":4800,"station_id":"st_d3b462108ojc7389ooeg","pricing_plan_id":"cebpf4jnsgd1na2vs0mg"},{"bike_id":"3a9d9d6b-764f-4558-a4a3-5611921af6a1","system_id":"levelo_inurba_marseille","lat":43.27943,"lon":5.41034,"is_reserved":false,"is_disabled":false,"rental_uris":{"android":"levelo://app?vid=3a9d9d6b-764f-4558-a4a3-5611921af6a1","ios":"levelo://app?vid=3a9d9d6b-764f-4558-a4a3-5611921af6a1"},"vehicle_type_id":"4","last_reported":1769966134,"current_range_meters":4800,"station_id":"ce4bhnp2rcd13ifvqh0g","pricing_plan_id":"cebpf4jnsgd1na2vs0mg"},{"bike_id":"e701a3f7-2e1f-487e-bad5-83c9140f1723","system_id":"levelo_inurba_marseille","lat":43.3179,"lon":5.37355,"is_reserved":false,"is_disabled":false,"rental_uris":{"android":"levelo://app?vid=e701a3f7-2e1f-487e-bad5-83c9140f1723","ios":"levelo://app?vid=e701a3f7-2e1f-487e-bad5-83c9140f1723"},"vehicle_type_id":"4","last_reported":1769966134,"current_range_meters":4800,"station_id":"","pricing_plan_id":"cebpf4jnsgd1na2vs0mg"},{"bike_id":"1b09edf9-541b-4249-ac37-201f8705eced","system_id":"levelo_inurba_marseille","lat":43.286029,"lon":5.351106,"is_reserved":false,"is_disabled":false,"rental_uris":{"android":"levelo://app?vid=1b09edf9-541b-4249-ac37-201f8705eced","ios":"levelo://app?vid=1b09edf9-541b-4249-ac37-201f8705eced"},"vehicle_type_id":"4","last_reported":1769966134,"current_range_meters":4800,"station_id":"ce4bhch2rcd13ifvqeug","pricing_plan_id":"cebpf4jnsgd1na2vs0mg"},{"bike_id":"920d39e3-f4ce-4948-aff6-ce612b8fd6d5","system_id":"levelo_inurba_marseille","lat":43.30884,"lon":5.39638,"is_reserved":false,"is_disabled":false,"rental_uris":{"android":"levelo://app?vid=920d39e3-f4ce-4948-aff6-ce612b8fd6d5","ios":"levelo://app?vid=920d39e3-f4ce-4948-aff6-ce612b8fd6d5"},"vehicle_type_id":"4","last_reported":1769966134,"current_range_meters":4800,"station_id":"ce4bh012rcd13ifvqcv0","pricing_plan_id":"cebpf4jnsgd1na2vs0mg"},{"bike_id":"cda423b0-114c-4365-aeb1-89fb80c8de39","system_id":"levelo_inurba_marseille","lat":43.24802,"lon":5.37453,"is_reserved":false,"is_disabled":false,"rental_uris":{"android":"levelo://app?vid=cda423b0-114c-4365-aeb1-89fb80c8de39","ios":"levelo://app?vid=cda423b0-114c-4365-aeb1-89fb80c8de39"},"vehicle_type_id":"4","last_reported":1769966134,"current_range_meters":5600,"station_id":"ce4bhgh2rcd13ifvqfb0","pricing_plan_id":"cebpf4jnsgd1na2vs0mg"},{"bike_id":"071d422e-bf78-4543-b080-48c21b7250ce","system_id":"levelo_inurba_marseille","lat":43.24791,"lon":5.37442,"is_reserved":false,"is_disabled":false,"rental_uris":{"android":"levelo://app?vid=071d422e-bf78-4543-b080-48c21b7250ce","ios":"levelo://app?vid=071d422e-bf78-4543-b080-48c21b7250ce"},"vehicle_type_id":"4","last_reported":1769966134,"current_range_meters":5600,"station_id":"ce4bhgh2rcd13ifvqfb0","pricing_plan_id":"cebpf4jnsgd1na2vs0mg"},{"bike_id":"fb793f9e-27c8-4aa6-9e5b-d172f980944b","system_id":"levelo_inurba_marseille","lat":43.27952,"lon":5.41021,"is_reserved":false,"is_disabled":true,"rental_uris":{"android":"levelo://app?vid=fb793f9e-27c8-4aa6-9e5b-d172f980944b","ios":"levelo://app?vid=fb793f9e-27c8-4aa6-9e5b-d172f980944b"},"vehicle_type_id":"4","last_reported":1769966134,"current_range_meters":5600,"station_id":"ce4bhnp2rcd13ifvqh0g","pricing_plan_id":"cebpf4jnsgd1na2vs0mg"},{"bike_id":"e46d3769-6465-42b3-b73c-80c3c7f8c13f","system_id":"levelo_inurba_marseille","lat":43.28867,"lon":5.35836,"is_reserved":false,"is_disabled":false,"rental_uris":{"android":"levelo://app?vid=e46d3769-6465-42b3-b73c-80c3c7f8c13f","ios":"levelo://app?vid=e46d3769-6465-42b3-b73c-80c3c7f8c13f"},"vehicle_type_id":"4","last_reported":1769966134,"current_range_meters":5600,"station_id":"ce4bhb12rcd13ifvqem0","pricing_plan_id":"cebpf4jnsgd1na2vs0mg"},{"bike_id":"2618561d-cd06-4493-b916-9511a3eac222","system_id":"levelo_inurba_marseille","lat":43.27377,"lon":5.36253,"is_reserved":false,"is_disabled":false,"rental_uris":{"android":"levelo://app?vid=2618561d-cd06-4493-b916-9511a3eac222","ios":"levelo://app?vid=2618561d-cd06-4493-b916-9511a3eac222"},"vehicle_type_id":"4","last_reported":1769966134,"current_range_meters":5600,"station_id":"ce4bhbh2rcd13ifvqeo0","pricing_plan_id":"cebpf4jnsgd1na2vs0mg"},{"bike_id":"494debd8-6aa2-444b-839e-b5ba32a8416e","system_id":"levelo_inurba_marseille","lat":43.31168,"lon":5.38711,"is_reserved":false,"is_disabled":false,"rental_uris":{"android":"levelo://app?vid=494debd8-6aa2-444b-839e-b5ba32a8416e","ios":"levelo://app?vid=494debd8-6aa2-444b-839e-b5ba32a8416e"},"vehicle_type_id":"4","last_reported":1769966134,"current_range_meters":5600,"station_id":"ce4bgv12rcd13ifvqcp0","pricing_plan_id":"cebpf4jnsgd1na2vs0mg"},{"bike_id":"928a5b5c-a13f-47f5-89d0-7cd1422010e6","system_id":"levelo_inurba_marseille","lat":43.31103,"lon":5.38463,"is_reserved":false,"is_disabled":false,"rental_uris":{"android":"levelo://app?vid=928a5b5c-a13f-47f5-89d0-7cd1422010e6","ios":"levelo://app?vid=928a5b5c-a13f-47f5-89d0-7cd1422010e6"},"vehicle_type_id":"4","last_reported":1769966134,"current_range_meters":5600,"station_id":"","pricing_plan_id":"cebpf4jnsgd1na2vs0mg"},{"bike_id":"e0b44c1c-04e2-471b-bac1-da8d114d1096","system_id":"levelo_inurba_marseille","lat":43.2902,"lon":5.38637,"is_reserved":false,"is_disabled":false,"rental_uris":{"android":"levelo://app?vid=e0b44c1c-04e2-471b-bac1-da8d114d1096","ios":"levelo://app?vid=e0b44c1c-04e2-471b-bac1-da8d114d1096"},"vehicle_type_id":"4","last_reported":1769966134,"current_range_meters":6000,"station_id":"ce4bh4p2rcd13ifvqe0g","pricing_plan_id":"cebpf4jnsgd1na2vs0mg"},{"bike_id":"7ef55636-fee8-4ab8-a52c-8c2dea059a4f","system_id":"levelo_inurba_marseille","lat":43.26667,"lon":5.38258,"is_reserved":false,"is_disabled":false,"rental_uris":{"android":"levelo://app?vid=7ef55636-fee8-4ab8-a52c-8c2dea059a4f","ios":"levelo://app?vid=7ef55636-fee8-4ab8-a52c-8c2dea059a4f"},"vehicle_type_id":"4","last_reported":1769966134,"current_range_meters":6000,"station_id":"ce4bhg92rcd13ifvqf90","pricing_plan_id":"cebpf4jnsgd1na2vs0mg"},{"bike_id":"1b85baa8-054d-452c-96ac-e14de5f87229","system_id":"levelo_inurba_marseille","lat":43.2656,"lon":5.403343,"is_reserved":false,"is_disabled":false,"rental_uris":{"android":"levelo://app?vid=1b85baa8-054d-452c-96ac-e14de5f87229","ios":"levelo://app?vid=1b85baa8-054d-452c-96ac-e14de5f87229"},"vehicle_type_id":"4","last_reported":1769966134,"current_range_meters":6000,"station_id":"ce4bhmp2rcd13ifvqgng","pricing_plan_id":"cebpf4jnsgd1na2vs0mg"},{"bike_id":"33300528-b1d1-4582-8023-ad1ac37187c4","system_id":"levelo_inurba_marseille","lat":43.28951,"lon":5.36406,"is_reserved":false,"is_disabled":false,"rental_uris":{"android":"levelo://app?vid=33300528-b1d1-4582-8023-ad1ac37187c4","ios":"levelo://app?vid=33300528-b1d1-4582-8023-ad1ac37187c4"},"vehicle_type_id":"4","last_reported":1769966134,"current_range_meters":6000,"station_id":"ce4bhc92rcd13ifvqetg","pricing_plan_id":"cebpf4jnsgd1na2vs0mg"},{"bike_id":"edc941b1-f353-445c-9d94-872b4e912ef7","system_id":"levelo_inurba_marseille","lat":43.26791,"lon":5.39403,"is_reserved":false,"is_disabled":false,"rental_uris":{"android":"levelo://app?vid=edc941b1-f353-445c-9d94-872b4e912ef7","ios":"levelo://app?vid=edc941b1-f353-445c-9d94-872b4e912ef7"},"vehicle_type_id":"4","last_reported":1769966134,"current_range_meters":6000,"station_id":"ce4bhh12rcd13ifvqfg0","pricing_plan_id":"cebpf4jnsgd1na2vs0mg"},{"bike_id":"1b262235-a4c8-42b2-9b62-c37b9e14300f","system_id":"levelo_inurba_marseille","lat":43.27809,"lon":5.40711,"is_reserved":false,"is_disabled":false,"rental_uris":{"android":"levelo://app?vid=1b262235-a4c8-42b2-9b62-c37b9e14300f","ios":"levelo://app?vid=1b262235-a4c8-42b2-9b62-c37b9e14300f"},"vehicle_type_id":"4","last_reported":1769966134,"current_range_meters":6000,"station_id":"ce4bhnh2rcd13ifvqgtg","pricing_plan_id":"cebpf4jnsgd1na2vs0mg"},{"bike_id":"e82de12d-1dfa-4bdc-9218-00233e39fec7","system_id":"levelo_inurba_marseille","lat":43.276755,"lon":5.388556,"is_reserved":false,"is_disabled":false,"rental_uris":{"android":"levelo://app?vid=e82de12d-1dfa-4bdc-9218-00233e39fec7","ios":"levelo://app?vid=e82de12d-1dfa-4bdc-9218-00233e39fec7"},"vehicle_type_id":"4","last_reported":1769966134,"current_range_meters":6000,"station_id":"ce4bhi12rcd13ifvqfo0","pricing_plan_id":"cebpf4jnsgd1na2vs0mg"},{"bike_id":"9b5aafe9-c3b4-45f6-a25d-e4b12cc19e2b","system_id":"levelo_inurba_marseille","lat":43.30421,"lon":5.39746,"is_reserved":false,"is_disabled":false,"rental_uris":{"android":"levelo://app?vid=9b5aafe9-c3b4-45f6-a25d-e4b12cc19e2b","ios":"levelo://app?vid=9b5aafe9-c3b4-45f6-a25d-e4b12cc19e2b"},"vehicle_type_id":"4","last_reported":1769966134,"current_range_meters":6000,"station_id":"ce4bh092rcd13ifvqd20","pricing_plan_id":"cebpf4jnsgd1na2vs0mg"},{"bike_id":"6dfc5e9c-2d14-4bd7-8e91-5bb08f562ed9","system_id":"levelo_inurba_marseille","lat":43.250873,"lon":5.395325,"is_reserved":false,"is_disabled":false,"rental_uris":{"android":"levelo://app?vid=6dfc5e9c-2d14-4bd7-8e91-5bb08f562ed9","ios":"levelo://app?vid=6dfc5e9c-2d14-4bd7-8e91-5bb08f562ed9"},"vehicle_type_id":"4","last_reported":1769966134,"current_range_meters":6000,"station_id":"ce4bhm12rcd13ifvqgkg","pricing_plan_id":"cebpf4jnsgd1na2vs0mg"},{"bike_id":"b760b7b6-f80a-4fe9-9f23-209ecf39222e","system_id":"levelo_inurba_marseille","lat":43.271769,"lon":5.391611,"is_reserved":false,"is_disabled":false,"rental_uris":{"android":"levelo://app?vid=b760b7b6-f80a-4fe9-9f23-209ecf39222e","ios":"levelo://app?vid=b760b7b6-f80a-4fe9-9f23-209ecf39222e"},"vehicle_type_id":"4","last_reported":1769966134,"current_range_meters":6000,"station_id":"ce4bh2p2rcd13ifvqdi0","pricing_plan_id":"cebpf4jnsgd1na2vs0mg"},{"bike_id":"e4a2b34f-3e0f-4ab6-a35b-ce2d05803c95","system_id":"levelo_inurba_marseille","lat":43.31522,"lon":5.38027,"is_reserved":false,"is_disabled":false,"rental_uris":{"android":"levelo://app?vid=e4a2b34f-3e0f-4ab6-a35b-ce2d05803c95","ios":"levelo://app?vid=e4a2b34f-3e0f-4ab6-a35b-ce2d05803c95"},"vehicle_type_id":"4","last_reported":1769966134,"current_range_meters":6000,"station_id":"ce4bhsp2rcd13ifvqi50","pricing_plan_id":"cebpf4jnsgd1na2vs0mg"},{"bike_id":"bdb82bc8-914c-4abd-bd13-c99b9e09e659","system_id":"levelo_inurba_marseille","lat":43.25103,"lon":5.40321,"is_reserved":false,"is_disabled":false,"rental_uris":{"android":"levelo://app?vid=bdb82bc8-914c-4abd-bd13-c99b9e09e659","ios":"levelo://app?vid=bdb82bc8-914c-4abd-bd13-c99b9e09e659"},"vehicle_type_id":"4","last_reported":1769966134,"current_range_meters":6000,"station_id":"ce4bhlh2rcd13ifvqgig","pricing_plan_id":"cebpf4jnsgd1na2vs0mg"},{"bike_id":"79479160-05a6-47d1-9d42-838443764917","system_id":"levelo_inurba_marseille","lat":43.281084,"lon":5.378295,"is_reserved":false,"is_disabled":false,"rental_uris":{"android":"levelo://app?vid=79479160-05a6-47d1-9d42-838443764917","ios":"levelo://app?vid=79479160-05a6-47d1-9d42-838443764917"},"vehicle_type_id":"4","last_reported":1769966134,"current_range_meters":6000,"station_id":"ce4bha12rcd13ifvqee0","pricing_plan_id":"cebpf4jnsgd1na2vs0mg"},{"bike_id":"0a8bd2b9-8f66-47cb-8794-72cdd9e9bbcd","system_id":"levelo_inurba_marseille","lat":43.27796,"lon":5.40709,"is_reserved":false,"is_disabled":false,"rental_uris":{"android":"levelo://app?vid=0a8bd2b9-8f66-47cb-8794-72cdd9e9bbcd","ios":"levelo://app?vid=0a8bd2b9-8f66-47cb-8794-72cdd9e9bbcd"},"vehicle_type_id":"4","last_reported":1769966134,"current_range_meters":6000,"station_id":"ce4bhnh2rcd13ifvqgtg","pricing_plan_id":"cebpf4jnsgd1na2vs0mg"},{"bike_id":"330c12fd-c2e6-4d08-99ec-879b5993a4b6","system_id":"levelo_inurba_marseille","lat":43.26204,"lon":5.37439,"is_reserved":false,"is_disabled":false,"rental_uris":{"android":"levelo://app?vid=330c12fd-c2e6-4d08-99ec-879b5993a4b6","ios":"levelo://app?vid=330c12fd-c2e6-4d08-99ec-879b5993a4b6"},"vehicle_type_id":"4","last_reported":1769966134,"current_range_meters":6000,"station_id":"ce4bhgp2rcd13ifvqfc0","pricing_plan_id":"cebpf4jnsgd1na2vs0mg"},{"bike_id":"d8d7d7c6-6bfe-4fb0-85f9-b02b994f2a2a","system_id":"levelo_inurba_marseille","lat":43.29229,"lon":5.36053,"is_reserved":false,"is_disabled":true,"rental_uris":{"android":"levelo://app?vid=d8d7d7c6-6bfe-4fb0-85f9-b02b994f2a2a","ios":"levelo://app?vid=d8d7d7c6-6bfe-4fb0-85f9-b02b994f2a2a"},"vehicle_type_id":"4","last_reported":1769966134,"current_range_meters":6400,"station_id":"ce4bhbh2rcd13ifvqeqg","pricing_plan_id":"cebpf4jnsgd1na2vs0mg"},{"bike_id":"3f016251-f617-46a2-8e71-d5c73095e4c4","system_id":"levelo_inurba_marseille","lat":43.28995,"lon":5.35594,"is_reserved":false,"is_disabled":true,"rental_uris":{"android":"levelo://app?vid=3f016251-f617-46a2-8e71-d5c73095e4c4","ios":"levelo://app?vid=3f016251-f617-46a2-8e71-d5c73095e4c4"},"vehicle_type_id":"4","last_reported":1769966134,"current_range_meters":6400,"station_id":"ce4bhb92rcd13ifvqen0","pricing_plan_id":"cebpf4jnsgd1na2vs0mg"},{"bike_id":"4b538e95-d67b-4c55-8519-1ec597c2ad3f","system_id":"levelo_inurba_marseille","lat":43.240697,"lon":5.377581,"is_reserved":false,"is_disabled":false,"rental_uris":{"android":"levelo://app?vid=4b538e95-d67b-4c55-8519-1ec597c2ad3f","ios":"levelo://app?vid=4b538e95-d67b-4c55-8519-1ec597c2ad3f"},"vehicle_type_id":"4","last_reported":1769966134,"current_range_meters":6400,"station_id":"ce4bhnp2rcd13ifvqgvg","pricing_plan_id":"cebpf4jnsgd1na2vs0mg"},{"bike_id":"c0a4045a-cbde-4921-811d-9edf57dbc355","system_id":"levelo_inurba_marseille","lat":43.2886,"lon":5.35836,"is_reserved":false,"is_disabled":false,"rental_uris":{"android":"levelo://app?vid=c0a4045a-cbde-4921-811d-9edf57dbc355","ios":"levelo://app?vid=c0a4045a-cbde-4921-811d-9edf57dbc355"},"vehicle_type_id":"4","last_reported":1769966134,"current_range_meters":6400,"station_id":"ce4bhb12rcd13ifvqem0","pricing_plan_id":"cebpf4jnsgd1na2vs0mg"},{"bike_id":"c9ded565-6fe2-4c06-b0dd-052e5890e1bb","system_id":"levelo_inurba_marseille","lat":43.29902,"lon":5.38138,"is_reserved":false,"is_disabled":false,"rental_uris":{"android":"levelo://app?vid=c9ded565-6fe2-4c06-b0dd-052e5890e1bb","ios":"levelo://app?vid=c9ded565-6fe2-4c06-b0dd-052e5890e1bb"},"vehicle_type_id":"4","last_reported":1769966134,"current_range_meters":6400,"station_id":"ce4bgj12rcd13ifvqbc0","pricing_plan_id":"cebpf4jnsgd1na2vs0mg"},{"bike_id":"0b5f9fc5-8273-481b-9666-e5c93a6eddc0","system_id":"levelo_inurba_marseille","lat":43.261953,"lon":5.374473,"is_reserved":false,"is_disabled":false,"rental_uris":{"android":"levelo://app?vid=0b5f9fc5-8273-481b-9666-e5c93a6eddc0","ios":"levelo://app?vid=0b5f9fc5-8273-481b-9666-e5c93a6eddc0"},"vehicle_type_id":"4","last_reported":1769966134,"current_range_meters":6400,"station_id":"ce4bhgp2rcd13ifvqfc0","pricing_plan_id":"cebpf4jnsgd1na2vs0mg"},{"bike_id":"19c92590-b315-4323-91b9-c843fd3c6cdd","system_id":"levelo_inurba_marseille","lat":43.30249,"lon":5.40068,"is_reserved":false,"is_disabled":false,"rental_uris":{"android":"levelo://app?vid=19c92590-b315-4323-91b9-c843fd3c6cdd","ios":"levelo://app?vid=19c92590-b315-4323-91b9-c843fd3c6cdd"},"vehicle_type_id":"4","last_reported":1769966134,"current_range_meters":6400,"station_id":"ce4bgvh2rcd13ifvqcs0","pricing_plan_id":"cebpf4jnsgd1na2vs0mg"},{"bike_id":"cb7519a4-8960-4ca7-af4e-d507aa683438","system_id":"levelo_inurba_marseille","lat":43.29797,"lon":5.38096,"is_reserved":false,"is_disabled":false,"rental_uris":{"android":"levelo://app?vid=cb7519a4-8960-4ca7-af4e-d507aa683438","ios":"levelo://app?vid=cb7519a4-8960-4ca7-af4e-d507aa683438"},"vehicle_type_id":"4","last_reported":1769966134,"current_range_meters":6400,"station_id":"ce4bgip2rcd13ifvqbb0","pricing_plan_id":"cebpf4jnsgd1na2vs0mg"},{"bike_id":"5e1c4385-fefc-40d8-9043-9539df7efdd8","system_id":"levelo_inurba_marseille","lat":43.337444,"lon":5.374475,"is_reserved":false,"is_disabled":false,"rental_uris":{"android":"levelo://app?vid=5e1c4385-fefc-40d8-9043-9539df7efdd8","ios":"levelo://app?vid=5e1c4385-fefc-40d8-9043-9539df7efdd8"},"vehicle_type_id":"4","last_reported":1769966134,"current_range_meters":6400,"station_id":"ce4bhbp2rcd13ifvqesg","pricing_plan_id":"cebpf4jnsgd1na2vs0mg"},{"bike_id":"004df261-4f08-4a49-a173-244244948504","system_id":"levelo_inurba_marseille","lat":43.29773,"lon":5.3777,"is_reserved":false,"is_disabled":false,"rental_uris":{"android":"levelo://app?vid=004df261-4f08-4a49-a173-244244948504","ios":"levelo://app?vid=004df261-4f08-4a49-a173-244244948504"},"vehicle_type_id":"4","last_reported":1769966134,"current_range_meters":6400,"station_id":"","pricing_plan_id":"cebpf4jnsgd1na2vs0mg"},{"bike_id":"046d40af-eaad-49bd-b5ba-fecd321681ea","system_id":"levelo_inurba_marseille","lat":43.29594,"lon":5.38094,"is_reserved":false,"is_disabled":false,"rental_uris":{"android":"levelo://app?vid=046d40af-eaad-49bd-b5ba-fecd321681ea","ios":"levelo://app?vid=046d40af-eaad-49bd-b5ba-fecd321681ea"},"vehicle_type_id":"4","last_reported":1769966134,"current_range_meters":6400,"station_id":"ce4bgl12rcd13ifvqbo0","pricing_plan_id":"cebpf4jnsgd1na2vs0mg"},{"bike_id":"9de6bef6-a218-4a67-adfe-67b62194bb96","system_id":"levelo_inurba_marseille","lat":43.22122,"lon":5.34563,"is_reserved":false,"is_disabled":false,"rental_uris":{"android":"levelo://app?vid=9de6bef6-a218-4a67-adfe-67b62194bb96","ios":"levelo://app?vid=9de6bef6-a218-4a67-adfe-67b62194bb96"},"vehicle_type_id":"4","last_reported":1769966134,"current_range_meters":6400,"station_id":"","pricing_plan_id":"cebpf4jnsgd1na2vs0mg"},{"bike_id":"ff6065a2-0e71-4d35-8eda-c24b991ceb70","system_id":"levelo_inurba_marseille","lat":43.2737,"lon":5.36252,"is_reserved":false,"is_disabled":false,"rental_uris":{"android":"levelo://app?vid=ff6065a2-0e71-4d35-8eda-c24b991ceb70","ios":"levelo://app?vid=ff6065a2-0e71-4d35-8eda-c24b991ceb70"},"vehicle_type_id":"4","last_reported":1769966134,"current_range_meters":6400,"station_id":"ce4bhbh2rcd13ifvqeo0","pricing_plan_id":"cebpf4jnsgd1na2vs0mg"},{"bike_id":"ea1df3c1-9343-4144-ac64-189b145334cf","system_id":"levelo_inurba_marseille","lat":43.31328,"lon":5.39692,"is_reserved":false,"is_disabled":false,"rental_uris":{"android":"levelo://app?vid=ea1df3c1-9343-4144-ac64-189b145334cf","ios":"levelo://app?vid=ea1df3c1-9343-4144-ac64-189b145334cf"},"vehicle_type_id":"4","last_reported":1769966134,"current_range_meters":6400,"station_id":"ce4bgvp2rcd13ifvqcu0","pricing_plan_id":"cebpf4jnsgd1na2vs0mg"},{"bike_id":"26bd2557-3046-4212-82fc-da1fdbd42b2c","system_id":"levelo_inurba_marseille","lat":43.28544,"lon":5.44103,"is_reserved":false,"is_disabled":false,"rental_uris":{"android":"levelo://app?vid=26bd2557-3046-4212-82fc-da1fdbd42b2c","ios":"levelo://app?vid=26bd2557-3046-4212-82fc-da1fdbd42b2c"},"vehicle_type_id":"4","last_reported":1769966134,"current_range_meters":6400,"station_id":"st_d3j3df2ikq2c7380ej80","pricing_plan_id":"cebpf4jnsgd1na2vs0mg"},{"bike_id":"ba6a133f-76aa-4864-be18-79dc6d1657fb","system_id":"levelo_inurba_marseille","lat":43.278509,"lon":5.39217,"is_reserved":false,"is_disabled":false,"rental_uris":{"android":"levelo://app?vid=ba6a133f-76aa-4864-be18-79dc6d1657fb","ios":"levelo://app?vid=ba6a133f-76aa-4864-be18-79dc6d1657fb"},"vehicle_type_id":"4","last_reported":1769966134,"current_range_meters":6400,"station_id":"ce4bhjp2rcd13ifvqga0","pricing_plan_id":"cebpf4jnsgd1na2vs0mg"},{"bike_id":"e19dcbee-55f5-4a14-8d7c-7f5193d4d389","system_id":"levelo_inurba_marseille","lat":43.27941,"lon":5.4105,"is_reserved":false,"is_disabled":false,"rental_uris":{"android":"levelo://app?vid=e19dcbee-55f5-4a14-8d7c-7f5193d4d389","ios":"levelo://app?vid=e19dcbee-55f5-4a14-8d7c-7f5193d4d389"},"vehicle_type_id":"4","last_reported":1769966134,"current_range_meters":6400,"station_id":"ce4bhnp2rcd13ifvqh0g","pricing_plan_id":"cebpf4jnsgd1na2vs0mg"},{"bike_id":"3aa89707-9dd3-4b7b-95be-c356f7c6b549","system_id":"levelo_inurba_marseille","lat":43.29978,"lon":5.37175,"is_reserved":false,"is_disabled":false,"rental_uris":{"android":"levelo://app?vid=3aa89707-9dd3-4b7b-95be-c356f7c6b549","ios":"levelo://app?vid=3aa89707-9dd3-4b7b-95be-c356f7c6b549"},"vehicle_type_id":"4","last_reported":1769966134,"current_range_meters":6400,"station_id":"ce4bgr92rcd13ifvqc7g","pricing_plan_id":"cebpf4jnsgd1na2vs0mg"},{"bike_id":"70abed10-0baf-47f4-bae5-7da06f6bf3cc","system_id":"levelo_inurba_marseille","lat":43.25003,"lon":5.38933,"is_reserved":false,"is_disabled":false,"rental_uris":{"android":"levelo://app?vid=70abed10-0baf-47f4-bae5-7da06f6bf3cc","ios":"levelo://app?vid=70abed10-0baf-47f4-bae5-7da06f6bf3cc"},"vehicle_type_id":"4","last_reported":1769966134,"current_range_meters":6400,"station_id":"ce4bhgp2rcd13ifvqfd0","pricing_plan_id":"cebpf4jnsgd1na2vs0mg"},{"bike_id":"0b595329-88a5-4dab-8a2c-b70bbda22e84","system_id":"levelo_inurba_marseille","lat":43.2796,"lon":5.41036,"is_reserved":false,"is_disabled":false,"rental_uris":{"android":"levelo://app?vid=0b595329-88a5-4dab-8a2c-b70bbda22e84","ios":"levelo://app?vid=0b595329-88a5-4dab-8a2c-b70bbda22e84"},"vehicle_type_id":"4","last_reported":1769966134,"current_range_meters":6400,"station_id":"ce4bhnp2rcd13ifvqh0g","pricing_plan_id":"cebpf4jnsgd1na2vs0mg"},{"bike_id":"a28177b5-7b26-44da-9533-9a571619cf2f","system_id":"levelo_inurba_marseille","lat":43.28607,"lon":5.39869,"is_reserved":false,"is_disabled":false,"rental_uris":{"android":"levelo://app?vid=a28177b5-7b26-44da-9533-9a571619cf2f","ios":"levelo://app?vid=a28177b5-7b26-44da-9533-9a571619cf2f"},"vehicle_type_id":"4","last_reported":1769966134,"current_range_meters":6400,"station_id":"st_d4a7ka997mjs738ck50g","pricing_plan_id":"cebpf4jnsgd1na2vs0mg"},{"bike_id":"cf18b6c0-2bf9-4cd1-9a2b-0a1dcbe268f3","system_id":"levelo_inurba_marseille","lat":43.24165,"lon":5.36387,"is_reserved":false,"is_disabled":false,"rental_uris":{"android":"levelo://app?vid=cf18b6c0-2bf9-4cd1-9a2b-0a1dcbe268f3","ios":"levelo://app?vid=cf18b6c0-2bf9-4cd1-9a2b-0a1dcbe268f3"},"vehicle_type_id":"4","last_reported":1769966134,"current_range_meters":6400,"station_id":"cpo36qri1sfpv3e86is0","pricing_plan_id":"cebpf4jnsgd1na2vs0mg"},{"bike_id":"ee39f90f-3222-4732-9961-b784c72f0999","system_id":"levelo_inurba_marseille","lat":43.2319,"lon":5.35555,"is_reserved":false,"is_disabled":false,"rental_uris":{"android":"levelo://app?vid=ee39f90f-3222-4732-9961-b784c72f0999","ios":"levelo://app?vid=ee39f90f-3222-4732-9961-b784c72f0999"},"vehicle_type_id":"4","last_reported":1769966134,"current_range_meters":6400,"station_id":"ce4bhu92rcd13ifvqi70","pricing_plan_id":"cebpf4jnsgd1na2vs0mg"},{"bike_id":"87a354e2-aacd-4ec9-ade6-6f6c8860ce28","system_id":"levelo_inurba_marseille","lat":43.280317,"lon":5.369503,"is_reserved":false,"is_disabled":false,"rental_uris":{"android":"levelo://app?vid=87a354e2-aacd-4ec9-ade6-6f6c8860ce28","ios":"levelo://app?vid=87a354e2-aacd-4ec9-ade6-6f6c8860ce28"},"vehicle_type_id":"4","last_reported":1769966134,"current_range_meters":6800,"station_id":"ce4bha12rcd13ifvqef0","pricing_plan_id":"cebpf4jnsgd1na2vs0mg"},{"bike_id":"41c59c0a-832f-43b3-a5c3-56fef93669c2","system_id":"levelo_inurba_marseille","lat":43.28152,"lon":5.42645,"is_reserved":false,"is_disabled":false,"rental_uris":{"android":"levelo://app?vid=41c59c0a-832f-43b3-a5c3-56fef93669c2","ios":"levelo://app?vid=41c59c0a-832f-43b3-a5c3-56fef93669c2"},"vehicle_type_id":"4","last_reported":1769966134,"current_range_meters":6800,"station_id":"ce4bhnh2rcd13ifvqgug","pricing_plan_id":"cebpf4jnsgd1na2vs0mg"},{"bike_id":"d431d2dc-fe64-4d55-be3e-18b6291747e9","system_id":"levelo_inurba_marseille","lat":43.23062,"lon":5.35487,"is_reserved":false,"is_disabled":false,"rental_uris":{"android":"levelo://app?vid=d431d2dc-fe64-4d55-be3e-18b6291747e9","ios":"levelo://app?vid=d431d2dc-fe64-4d55-be3e-18b6291747e9"},"vehicle_type_id":"4","last_reported":1769966134,"current_range_meters":6800,"station_id":"cpo3342slgdg3j2ifvpg","pricing_plan_id":"cebpf4jnsgd1na2vs0mg"},{"bike_id":"93c577b9-d79e-4839-b45b-79163ba3f610","system_id":"levelo_inurba_marseille","lat":43.2658,"lon":5.39088,"is_reserved":false,"is_disabled":false,"rental_uris":{"android":"levelo://app?vid=93c577b9-d79e-4839-b45b-79163ba3f610","ios":"levelo://app?vid=93c577b9-d79e-4839-b45b-79163ba3f610"},"vehicle_type_id":"4","last_reported":1769966134,"current_range_meters":6800,"station_id":"","pricing_plan_id":"cebpf4jnsgd1na2vs0mg"},{"bike_id":"8d19955e-e09c-4b47-a6e3-ae607dbe5088","system_id":"levelo_inurba_marseille","lat":43.26215,"lon":5.37441,"is_reserved":false,"is_disabled":true,"rental_uris":{"android":"levelo://app?vid=8d19955e-e09c-4b47-a6e3-ae607dbe5088","ios":"levelo://app?vid=8d19955e-e09c-4b47-a6e3-ae607dbe5088"},"vehicle_type_id":"4","last_reported":1769966134,"current_range_meters":6800,"station_id":"ce4bhgp2rcd13ifvqfc0","pricing_plan_id":"cebpf4jnsgd1na2vs0mg"},{"bike_id":"93e60425-8aae-4f4b-b447-57ef8147db67","system_id":"levelo_inurba_marseille","lat":43.28488,"lon":5.48386,"is_reserved":false,"is_disabled":false,"rental_uris":{"android":"levelo://app?vid=93e60425-8aae-4f4b-b447-57ef8147db67","ios":"levelo://app?vid=93e60425-8aae-4f4b-b447-57ef8147db67"},"vehicle_type_id":"4","last_reported":1769966134,"current_range_meters":6800,"station_id":"","pricing_plan_id":"cebpf4jnsgd1na2vs0mg"},{"bike_id":"2c9d9ec4-87d2-4a0f-9375-615bf9c41c46","system_id":"levelo_inurba_marseille","lat":43.26237,"lon":5.37413,"is_reserved":false,"is_disabled":false,"rental_uris":{"android":"levelo://app?vid=2c9d9ec4-87d2-4a0f-9375-615bf9c41c46","ios":"levelo://app?vid=2c9d9ec4-87d2-4a0f-9375-615bf9c41c46"},"vehicle_type_id":"4","last_reported":1769966134,"current_range_meters":6800,"station_id":"","pricing_plan_id":"cebpf4jnsgd1na2vs0mg"},{"bike_id":"5fcb29b6-1f24-42b1-beed-0a4ada03f31e","system_id":"levelo_inurba_marseille","lat":43.2894,"lon":5.36637,"is_reserved":false,"is_disabled":false,"rental_uris":{"android":"levelo://app?vid=5fcb29b6-1f24-42b1-beed-0a4ada03f31e","ios":"levelo://app?vid=5fcb29b6-1f24-42b1-beed-0a4ada03f31e"},"vehicle_type_id":"4","last_reported":1769966134,"current_range_meters":6800,"station_id":"ce4bhap2rcd13ifvqek0","pricing_plan_id":"cebpf4jnsgd1na2vs0mg"},{"bike_id":"767dc731-f365-45e9-b7a0-0144ed9ff9a5","system_id":"levelo_inurba_marseille","lat":43.31183,"lon":5.36837,"is_reserved":false,"is_disabled":false,"rental_uris":{"android":"levelo://app?vid=767dc731-f365-45e9-b7a0-0144ed9ff9a5","ios":"levelo://app?vid=767dc731-f365-45e9-b7a0-0144ed9ff9a5"},"vehicle_type_id":"4","last_reported":1769966134,"current_range_meters":6800,"station_id":"ce4bgl92rcd13ifvqbq0","pricing_plan_id":"cebpf4jnsgd1na2vs0mg"},{"bike_id":"35f4884f-60f2-4aa1-beef-c2cbed3599fa","system_id":"levelo_inurba_marseille","lat":43.29618,"lon":5.37151,"is_reserved":false,"is_disabled":false,"rental_uris":{"android":"levelo://app?vid=35f4884f-60f2-4aa1-beef-c2cbed3599fa","ios":"levelo://app?vid=35f4884f-60f2-4aa1-beef-c2cbed3599fa"},"vehicle_type_id":"4","last_reported":1769966134,"current_range_meters":6800,"station_id":"ce4bgnh2rcd13ifvqc0g","pricing_plan_id":"cebpf4jnsgd1na2vs0mg"},{"bike_id":"74ac2feb-a7ae-41ed-97e6-16a7d353da55","system_id":"levelo_inurba_marseille","lat":43.248,"lon":5.37464,"is_reserved":false,"is_disabled":true,"rental_uris":{"android":"levelo://app?vid=74ac2feb-a7ae-41ed-97e6-16a7d353da55","ios":"levelo://app?vid=74ac2feb-a7ae-41ed-97e6-16a7d353da55"},"vehicle_type_id":"4","last_reported":1769966134,"current_range_meters":6800,"station_id":"ce4bhgh2rcd13ifvqfb0","pricing_plan_id":"cebpf4jnsgd1na2vs0mg"},{"bike_id":"6049a592-7f81-4361-b3f1-36c9f8281baf","system_id":"levelo_inurba_marseille","lat":43.2962,"lon":5.37713,"is_reserved":false,"is_disabled":false,"rental_uris":{"android":"levelo://app?vid=6049a592-7f81-4361-b3f1-36c9f8281baf","ios":"levelo://app?vid=6049a592-7f81-4361-b3f1-36c9f8281baf"},"vehicle_type_id":"4","last_reported":1769966134,"current_range_meters":6800,"station_id":"ce4bgi92rcd13ifvqb90","pricing_plan_id":"cebpf4jnsgd1na2vs0mg"},{"bike_id":"7b0fdf04-02d7-480f-b5b8-ce5e44bde997","system_id":"levelo_inurba_marseille","lat":43.28703,"lon":5.37393,"is_reserved":false,"is_disabled":false,"rental_uris":{"android":"levelo://app?vid=7b0fdf04-02d7-480f-b5b8-ce5e44bde997","ios":"levelo://app?vid=7b0fdf04-02d7-480f-b5b8-ce5e44bde997"},"vehicle_type_id":"4","last_reported":1769966134,"current_range_meters":6800,"station_id":"ce4bh3p2rcd13ifvqdq0","pricing_plan_id":"cebpf4jnsgd1na2vs0mg"},{"bike_id":"805345ab-3978-4981-a131-2ebf39ffd742","system_id":"levelo_inurba_marseille","lat":43.32103,"lon":5.36773,"is_reserved":false,"is_disabled":false,"rental_uris":{"android":"levelo://app?vid=805345ab-3978-4981-a131-2ebf39ffd742","ios":"levelo://app?vid=805345ab-3978-4981-a131-2ebf39ffd742"},"vehicle_type_id":"4","last_reported":1769966134,"current_range_meters":6800,"station_id":"ce4bhrh2rcd13ifvqhug","pricing_plan_id":"cebpf4jnsgd1na2vs0mg"},{"bike_id":"de033dbf-142b-49fe-b4c6-60fa5aaa4dcc","system_id":"levelo_inurba_marseille","lat":43.29191,"lon":5.35787,"is_reserved":false,"is_disabled":false,"rental_uris":{"android":"levelo://app?vid=de033dbf-142b-49fe-b4c6-60fa5aaa4dcc","ios":"levelo://app?vid=de033dbf-142b-49fe-b4c6-60fa5aaa4dcc"},"vehicle_type_id":"4","last_reported":1769966134,"current_range_meters":6800,"station_id":"ce4bhb12rcd13ifvqel0","pricing_plan_id":"cebpf4jnsgd1na2vs0mg"},{"bike_id":"ed68d2ce-7cec-4fec-b883-b0e5726fd2f9","system_id":"levelo_inurba_marseille","lat":43.31326,"lon":5.39697,"is_reserved":false,"is_disabled":false,"rental_uris":{"android":"levelo://app?vid=ed68d2ce-7cec-4fec-b883-b0e5726fd2f9","ios":"levelo://app?vid=ed68d2ce-7cec-4fec-b883-b0e5726fd2f9"},"vehicle_type_id":"4","last_reported":1769966134,"current_range_meters":6800,"station_id":"ce4bgvp2rcd13ifvqcu0","pricing_plan_id":"cebpf4jnsgd1na2vs0mg"},{"bike_id":"c655664f-38bd-47a7-b88a-bbfe7efc4062","system_id":"levelo_inurba_marseille","lat":43.3117,"lon":5.38717,"is_reserved":false,"is_disabled":false,"rental_uris":{"android":"levelo://app?vid=c655664f-38bd-47a7-b88a-bbfe7efc4062","ios":"levelo://app?vid=c655664f-38bd-47a7-b88a-bbfe7efc4062"},"vehicle_type_id":"4","last_reported":1769966134,"current_range_meters":6800,"station_id":"ce4bgv12rcd13ifvqcp0","pricing_plan_id":"cebpf4jnsgd1na2vs0mg"},{"bike_id":"5b4c0c7a-c0c9-4273-96c2-faded5f9cc26","system_id":"levelo_inurba_marseille","lat":43.27934,"lon":5.41041,"is_reserved":false,"is_disabled":false,"rental_uris":{"android":"levelo://app?vid=5b4c0c7a-c0c9-4273-96c2-faded5f9cc26","ios":"levelo://app?vid=5b4c0c7a-c0c9-4273-96c2-faded5f9cc26"},"vehicle_type_id":"4","last_reported":1769966134,"current_range_meters":7200,"station_id":"ce4bhnp2rcd13ifvqh0g","pricing_plan_id":"cebpf4jnsgd1na2vs0mg"},{"bike_id":"a825a34e-c66c-4578-9dd4-68f63a09f21e","system_id":"levelo_inurba_marseille","lat":43.27368,"lon":5.36245,"is_reserved":false,"is_disabled":false,"rental_uris":{"android":"levelo://app?vid=a825a34e-c66c-4578-9dd4-68f63a09f21e","ios":"levelo://app?vid=a825a34e-c66c-4578-9dd4-68f63a09f21e"},"vehicle_type_id":"4","last_reported":1769966134,"current_range_meters":7200,"station_id":"ce4bhbh2rcd13ifvqeo0","pricing_plan_id":"cebpf4jnsgd1na2vs0mg"},{"bike_id":"6f8455de-cdcb-4115-8f9f-1a1c57d7cc8a","system_id":"levelo_inurba_marseille","lat":43.24972,"lon":5.38938,"is_reserved":false,"is_disabled":false,"rental_uris":{"android":"levelo://app?vid=6f8455de-cdcb-4115-8f9f-1a1c57d7cc8a","ios":"levelo://app?vid=6f8455de-cdcb-4115-8f9f-1a1c57d7cc8a"},"vehicle_type_id":"4","last_reported":1769966134,"current_range_meters":7200,"station_id":"ce4bhgp2rcd13ifvqfd0","pricing_plan_id":"cebpf4jnsgd1na2vs0mg"},{"bike_id":"da93398c-e3ee-474a-868c-4886f7b288d2","system_id":"levelo_inurba_marseille","lat":43.31082,"lon":5.42414,"is_reserved":false,"is_disabled":false,"rental_uris":{"android":"levelo://app?vid=da93398c-e3ee-474a-868c-4886f7b288d2","ios":"levelo://app?vid=da93398c-e3ee-474a-868c-4886f7b288d2"},"vehicle_type_id":"4","last_reported":1769966134,"current_range_meters":7200,"station_id":"ce4bhp92rcd13ifvqhag","pricing_plan_id":"cebpf4jnsgd1na2vs0mg"},{"bike_id":"ab6ae000-c0dc-45ff-b0d1-e1163a58839c","system_id":"levelo_inurba_marseille","lat":43.29617,"lon":5.37154,"is_reserved":false,"is_disabled":false,"rental_uris":{"android":"levelo://app?vid=ab6ae000-c0dc-45ff-b0d1-e1163a58839c","ios":"levelo://app?vid=ab6ae000-c0dc-45ff-b0d1-e1163a58839c"},"vehicle_type_id":"4","last_reported":1769966134,"current_range_meters":7200,"station_id":"ce4bgnh2rcd13ifvqc0g","pricing_plan_id":"cebpf4jnsgd1na2vs0mg"},{"bike_id":"dc68db14-c906-4c81-af24-38ade0c0fe18","system_id":"levelo_inurba_marseille","lat":43.22555,"lon":5.41625,"is_reserved":false,"is_disabled":false,"rental_uris":{"android":"levelo://app?vid=dc68db14-c906-4c81-af24-38ade0c0fe18","ios":"levelo://app?vid=dc68db14-c906-4c81-af24-38ade0c0fe18"},"vehicle_type_id":"4","last_reported":1769966134,"current_range_meters":7200,"station_id":"st_d2o4gvlbi1j2169b742g","pricing_plan_id":"cebpf4jnsgd1na2vs0mg"},{"bike_id":"55821144-4cea-4c88-a4ef-ac2c18f1fa0e","system_id":"levelo_inurba_marseille","lat":43.24063,"lon":5.37762,"is_reserved":false,"is_disabled":false,"rental_uris":{"android":"levelo://app?vid=55821144-4cea-4c88-a4ef-ac2c18f1fa0e","ios":"levelo://app?vid=55821144-4cea-4c88-a4ef-ac2c18f1fa0e"},"vehicle_type_id":"4","last_reported":1769966134,"current_range_meters":7200,"station_id":"ce4bhnp2rcd13ifvqgvg","pricing_plan_id":"cebpf4jnsgd1na2vs0mg"},{"bike_id":"1c1f8539-b1ae-43f7-94e2-f9ba91100b64","system_id":"levelo_inurba_marseille","lat":43.3171,"lon":5.37743,"is_reserved":false,"is_disabled":false,"rental_uris":{"android":"levelo://app?vid=1c1f8539-b1ae-43f7-94e2-f9ba91100b64","ios":"levelo://app?vid=1c1f8539-b1ae-43f7-94e2-f9ba91100b64"},"vehicle_type_id":"4","last_reported":1769966134,"current_range_meters":7200,"station_id":"ce4bgth2rcd13ifvqch0","pricing_plan_id":"cebpf4jnsgd1na2vs0mg"},{"bike_id":"2caf4245-4c80-4c6f-92a5-3e6c2e8b6216","system_id":"levelo_inurba_marseille","lat":43.3088,"lon":5.39656,"is_reserved":false,"is_disabled":false,"rental_uris":{"android":"levelo://app?vid=2caf4245-4c80-4c6f-92a5-3e6c2e8b6216","ios":"levelo://app?vid=2caf4245-4c80-4c6f-92a5-3e6c2e8b6216"},"vehicle_type_id":"4","last_reported":1769966134,"current_range_meters":7200,"station_id":"ce4bh012rcd13ifvqcv0","pricing_plan_id":"cebpf4jnsgd1na2vs0mg"},{"bike_id":"5ef0f896-d85c-4938-a00f-da8e3137998c","system_id":"levelo_inurba_marseille","lat":43.28439,"lon":5.39192,"is_reserved":false,"is_disabled":false,"rental_uris":{"android":"levelo://app?vid=5ef0f896-d85c-4938-a00f-da8e3137998c","ios":"levelo://app?vid=5ef0f896-d85c-4938-a00f-da8e3137998c"},"vehicle_type_id":"4","last_reported":1769966134,"current_range_meters":7200,"station_id":"ce4bhoh2rcd13ifvqh5g","pricing_plan_id":"cebpf4jnsgd1na2vs0mg"},{"bike_id":"b921a248-a1fe-4c7f-910f-df00866a1305","system_id":"levelo_inurba_marseille","lat":43.25813,"lon":5.39432,"is_reserved":false,"is_disabled":false,"rental_uris":{"android":"levelo://app?vid=b921a248-a1fe-4c7f-910f-df00866a1305","ios":"levelo://app?vid=b921a248-a1fe-4c7f-910f-df00866a1305"},"vehicle_type_id":"4","last_reported":1769966134,"current_range_meters":7200,"station_id":"ce4bhip2rcd13ifvqft0","pricing_plan_id":"cebpf4jnsgd1na2vs0mg"},{"bike_id":"cec514c3-7ecb-423b-80b5-18639cf7781d","system_id":"levelo_inurba_marseille","lat":43.25633,"lon":5.37643,"is_reserved":false,"is_disabled":false,"rental_uris":{"android":"levelo://app?vid=cec514c3-7ecb-423b-80b5-18639cf7781d","ios":"levelo://app?vid=cec514c3-7ecb-423b-80b5-18639cf7781d"},"vehicle_type_id":"4","last_reported":1769966134,"current_range_meters":7200,"station_id":"","pricing_plan_id":"cebpf4jnsgd1na2vs0mg"},{"bike_id":"35c22f07-07bd-4f76-b036-89bb8f41bdb4","system_id":"levelo_inurba_marseille","lat":43.28571,"lon":5.39502,"is_reserved":false,"is_disabled":false,"rental_uris":{"android":"levelo://app?vid=35c22f07-07bd-4f76-b036-89bb8f41bdb4","ios":"levelo://app?vid=35c22f07-07bd-4f76-b036-89bb8f41bdb4"},"vehicle_type_id":"4","last_reported":1769966134,"current_range_meters":7200,"station_id":"ce4bh292rcd13ifvqdg0","pricing_plan_id":"cebpf4jnsgd1na2vs0mg"},{"bike_id":"d0bd045f-56f5-4292-829e-46e03c23a736","system_id":"levelo_inurba_marseille","lat":43.28702,"lon":5.37393,"is_reserved":false,"is_disabled":false,"rental_uris":{"android":"levelo://app?vid=d0bd045f-56f5-4292-829e-46e03c23a736","ios":"levelo://app?vid=d0bd045f-56f5-4292-829e-46e03c23a736"},"vehicle_type_id":"4","last_reported":1769966134,"current_range_meters":7200,"station_id":"ce4bh3p2rcd13ifvqdq0","pricing_plan_id":"cebpf4jnsgd1na2vs0mg"},{"bike_id":"e685b8e3-afce-4dcd-a202-86a08c955aff","system_id":"levelo_inurba_marseille","lat":43.23197,"lon":5.35541,"is_reserved":false,"is_disabled":false,"rental_uris":{"android":"levelo://app?vid=e685b8e3-afce-4dcd-a202-86a08c955aff","ios":"levelo://app?vid=e685b8e3-afce-4dcd-a202-86a08c955aff"},"vehicle_type_id":"4","last_reported":1769966134,"current_range_meters":7200,"station_id":"ce4bhu92rcd13ifvqi70","pricing_plan_id":"cebpf4jnsgd1na2vs0mg"},{"bike_id":"064b8bc8-52f1-41a1-98a8-692ee47c9995","system_id":"levelo_inurba_marseille","lat":43.21749,"lon":5.34603,"is_reserved":false,"is_disabled":true,"rental_uris":{"android":"levelo://app?vid=064b8bc8-52f1-41a1-98a8-692ee47c9995","ios":"levelo://app?vid=064b8bc8-52f1-41a1-98a8-692ee47c9995"},"vehicle_type_id":"4","last_reported":1769966134,"current_range_meters":7200,"station_id":"","pricing_plan_id":"cebpf4jnsgd1na2vs0mg"},{"bike_id":"58982c61-2f00-4e02-b620-223b4d372a1d","system_id":"levelo_inurba_marseille","lat":43.25584,"lon":5.38218,"is_reserved":false,"is_disabled":false,"rental_uris":{"android":"levelo://app?vid=58982c61-2f00-4e02-b620-223b4d372a1d","ios":"levelo://app?vid=58982c61-2f00-4e02-b620-223b4d372a1d"},"vehicle_type_id":"4","last_reported":1769966134,"current_range_meters":7200,"station_id":"ce4bhih2rcd13ifvqfs0","pricing_plan_id":"cebpf4jnsgd1na2vs0mg"},{"bike_id":"53336c15-c4a9-4afd-ad5c-4a4cebf6f0c1","system_id":"levelo_inurba_marseille","lat":43.2418,"lon":5.36377,"is_reserved":false,"is_disabled":false,"rental_uris":{"android":"levelo://app?vid=53336c15-c4a9-4afd-ad5c-4a4cebf6f0c1","ios":"levelo://app?vid=53336c15-c4a9-4afd-ad5c-4a4cebf6f0c1"},"vehicle_type_id":"4","last_reported":1769966134,"current_range_meters":7200,"station_id":"cpo36qri1sfpv3e86is0","pricing_plan_id":"cebpf4jnsgd1na2vs0mg"},{"bike_id":"5abec86c-dad6-43f1-a3f4-aae181aca07b","system_id":"levelo_inurba_marseille","lat":43.29546,"lon":5.38527,"is_reserved":false,"is_disabled":false,"rental_uris":{"android":"levelo://app?vid=5abec86c-dad6-43f1-a3f4-aae181aca07b","ios":"levelo://app?vid=5abec86c-dad6-43f1-a3f4-aae181aca07b"},"vehicle_type_id":"4","last_reported":1769966134,"current_range_meters":7200,"station_id":"ce4bgih2rcd13ifvqba0","pricing_plan_id":"cebpf4jnsgd1na2vs0mg"},{"bike_id":"4c3c3cef-9caa-474d-89a5-f5635143746a","system_id":"levelo_inurba_marseille","lat":43.29061,"lon":5.37156,"is_reserved":false,"is_disabled":false,"rental_uris":{"android":"levelo://app?vid=4c3c3cef-9caa-474d-89a5-f5635143746a","ios":"levelo://app?vid=4c3c3cef-9caa-474d-89a5-f5635143746a"},"vehicle_type_id":"4","last_reported":1769966134,"current_range_meters":8000,"station_id":"ce4bh5p2rcd13ifvqe4g","pricing_plan_id":"cebpf4jnsgd1na2vs0mg"},{"bike_id":"0a0d558e-7698-4c76-9579-fd855d1ed701","system_id":"levelo_inurba_marseille","lat":43.28492,"lon":5.38431,"is_reserved":false,"is_disabled":false,"rental_uris":{"android":"levelo://app?vid=0a0d558e-7698-4c76-9579-fd855d1ed701","ios":"levelo://app?vid=0a0d558e-7698-4c76-9579-fd855d1ed701"},"vehicle_type_id":"4","last_reported":1769966134,"current_range_meters":8000,"station_id":"ce4bh512rcd13ifvqe3g","pricing_plan_id":"cebpf4jnsgd1na2vs0mg"},{"bike_id":"0a1300ad-2f14-46b7-8956-d36a4a430b42","system_id":"levelo_inurba_marseille","lat":43.24797,"lon":5.37446,"is_reserved":false,"is_disabled":false,"rental_uris":{"android":"levelo://app?vid=0a1300ad-2f14-46b7-8956-d36a4a430b42","ios":"levelo://app?vid=0a1300ad-2f14-46b7-8956-d36a4a430b42"},"vehicle_type_id":"4","last_reported":1769966134,"current_range_meters":8000,"station_id":"ce4bhgh2rcd13ifvqfb0","pricing_plan_id":"cebpf4jnsgd1na2vs0mg"},{"bike_id":"d2ee53f1-49b6-44a6-a171-d364ff8162cf","system_id":"levelo_inurba_marseille","lat":43.33365,"lon":5.4312,"is_reserved":false,"is_disabled":false,"rental_uris":{"android":"levelo://app?vid=d2ee53f1-49b6-44a6-a171-d364ff8162cf","ios":"levelo://app?vid=d2ee53f1-49b6-44a6-a171-d364ff8162cf"},"vehicle_type_id":"4","last_reported":1769966134,"current_range_meters":8000,"station_id":"","pricing_plan_id":"cebpf4jnsgd1na2vs0mg"},{"bike_id":"cb16a0fb-a0f9-4601-ab2a-91a6d88760fa","system_id":"levelo_inurba_marseille","lat":43.26558,"lon":5.40302,"is_reserved":false,"is_disabled":false,"rental_uris":{"android":"levelo://app?vid=cb16a0fb-a0f9-4601-ab2a-91a6d88760fa","ios":"levelo://app?vid=cb16a0fb-a0f9-4601-ab2a-91a6d88760fa"},"vehicle_type_id":"4","last_reported":1769966134,"current_range_meters":8000,"station_id":"ce4bhmp2rcd13ifvqgng","pricing_plan_id":"cebpf4jnsgd1na2vs0mg"},{"bike_id":"c8d9051a-fa34-460b-9571-1ad74b3c32c4","system_id":"levelo_inurba_marseille","lat":43.26553,"lon":5.3728,"is_reserved":false,"is_disabled":false,"rental_uris":{"android":"levelo://app?vid=c8d9051a-fa34-460b-9571-1ad74b3c32c4","ios":"levelo://app?vid=c8d9051a-fa34-460b-9571-1ad74b3c32c4"},"vehicle_type_id":"4","last_reported":1769966134,"current_range_meters":8000,"station_id":"ce4bhg12rcd13ifvqf70","pricing_plan_id":"cebpf4jnsgd1na2vs0mg"},{"bike_id":"53593590-554d-4eaa-b86c-6c12374ebb9d","system_id":"levelo_inurba_marseille","lat":43.29196,"lon":5.35799,"is_reserved":false,"is_disabled":false,"rental_uris":{"android":"levelo://app?vid=53593590-554d-4eaa-b86c-6c12374ebb9d","ios":"levelo://app?vid=53593590-554d-4eaa-b86c-6c12374ebb9d"},"vehicle_type_id":"4","last_reported":1769966134,"current_range_meters":8000,"station_id":"ce4bhb12rcd13ifvqel0","pricing_plan_id":"cebpf4jnsgd1na2vs0mg"},{"bike_id":"ab6c83e0-5dad-4068-933a-4059e6467edb","system_id":"levelo_inurba_marseille","lat":43.265811,"lon":5.403191,"is_reserved":false,"is_disabled":false,"rental_uris":{"android":"levelo://app?vid=ab6c83e0-5dad-4068-933a-4059e6467edb","ios":"levelo://app?vid=ab6c83e0-5dad-4068-933a-4059e6467edb"},"vehicle_type_id":"4","last_reported":1769966134,"current_range_meters":8000,"station_id":"ce4bhmp2rcd13ifvqgng","pricing_plan_id":"cebpf4jnsgd1na2vs0mg"},{"bike_id":"b00753f6-9e43-40ef-9959-628446071746","system_id":"levelo_inurba_marseille","lat":43.27819,"lon":5.40705,"is_reserved":false,"is_disabled":true,"rental_uris":{"android":"levelo://app?vid=b00753f6-9e43-40ef-9959-628446071746","ios":"levelo://app?vid=b00753f6-9e43-40ef-9959-628446071746"},"vehicle_type_id":"4","last_reported":1769966134,"current_range_meters":8000,"station_id":"ce4bhnh2rcd13ifvqgtg","pricing_plan_id":"cebpf4jnsgd1na2vs0mg"},{"bike_id":"12e57557-c8f6-495c-93bd-34dffc11460c","system_id":"levelo_inurba_marseille","lat":43.29514,"lon":5.38534,"is_reserved":false,"is_disabled":false,"rental_uris":{"android":"levelo://app?vid=12e57557-c8f6-495c-93bd-34dffc11460c","ios":"levelo://app?vid=12e57557-c8f6-495c-93bd-34dffc11460c"},"vehicle_type_id":"4","last_reported":1769966134,"current_range_meters":8000,"station_id":"ce4bgih2rcd13ifvqba0","pricing_plan_id":"cebpf4jnsgd1na2vs0mg"},{"bike_id":"615b8291-cc6b-490d-8a9b-45966fd447d9","system_id":"levelo_inurba_marseille","lat":43.2621,"lon":5.3792,"is_reserved":false,"is_disabled":false,"rental_uris":{"android":"levelo://app?vid=615b8291-cc6b-490d-8a9b-45966fd447d9","ios":"levelo://app?vid=615b8291-cc6b-490d-8a9b-45966fd447d9"},"vehicle_type_id":"4","last_reported":1769966134,"current_range_meters":8000,"station_id":"ce4bhjp2rcd13ifvqg90","pricing_plan_id":"cebpf4jnsgd1na2vs0mg"},{"bike_id":"3e8b1266-017b-4f4a-9316-c257fbef9be1","system_id":"levelo_inurba_marseille","lat":43.25114,"lon":5.40327,"is_reserved":false,"is_disabled":false,"rental_uris":{"android":"levelo://app?vid=3e8b1266-017b-4f4a-9316-c257fbef9be1","ios":"levelo://app?vid=3e8b1266-017b-4f4a-9316-c257fbef9be1"},"vehicle_type_id":"4","last_reported":1769966134,"current_range_meters":8000,"station_id":"ce4bhlh2rcd13ifvqgig","pricing_plan_id":"cebpf4jnsgd1na2vs0mg"},{"bike_id":"2cfe0b76-7fe5-4fd9-b3a3-329506bfba9f","system_id":"levelo_inurba_marseille","lat":43.26571,"lon":5.39027,"is_reserved":false,"is_disabled":false,"rental_uris":{"android":"levelo://app?vid=2cfe0b76-7fe5-4fd9-b3a3-329506bfba9f","ios":"levelo://app?vid=2cfe0b76-7fe5-4fd9-b3a3-329506bfba9f"},"vehicle_type_id":"4","last_reported":1769966134,"current_range_meters":8000,"station_id":"ce4bhe12rcd13ifvqf30","pricing_plan_id":"cebpf4jnsgd1na2vs0mg"},{"bike_id":"32173cef-f42c-43e4-994f-533a4d348258","system_id":"levelo_inurba_marseille","lat":43.286739,"lon":5.386619,"is_reserved":false,"is_disabled":false,"rental_uris":{"android":"levelo://app?vid=32173cef-f42c-43e4-994f-533a4d348258","ios":"levelo://app?vid=32173cef-f42c-43e4-994f-533a4d348258"},"vehicle_type_id":"4","last_reported":1769966134,"current_range_meters":8000,"station_id":"ce4bh492rcd13ifvqdug","pricing_plan_id":"cebpf4jnsgd1na2vs0mg"},{"bike_id":"8cd49f6f-cba4-4603-93b4-96456ab775a4","system_id":"levelo_inurba_marseille","lat":43.28405,"lon":5.37523,"is_reserved":false,"is_disabled":false,"rental_uris":{"android":"levelo://app?vid=8cd49f6f-cba4-4603-93b4-96456ab775a4","ios":"levelo://app?vid=8cd49f6f-cba4-4603-93b4-96456ab775a4"},"vehicle_type_id":"4","last_reported":1769966134,"current_range_meters":8000,"station_id":"ce4bh412rcd13ifvqds0","pricing_plan_id":"cebpf4jnsgd1na2vs0mg"},{"bike_id":"62e9c37a-ca50-4b70-bcc7-f006bfe39dd9","system_id":"levelo_inurba_marseille","lat":43.2926,"lon":5.38437,"is_reserved":false,"is_disabled":false,"rental_uris":{"android":"levelo://app?vid=62e9c37a-ca50-4b70-bcc7-f006bfe39dd9","ios":"levelo://app?vid=62e9c37a-ca50-4b70-bcc7-f006bfe39dd9"},"vehicle_type_id":"4","last_reported":1769966134,"current_range_meters":8000,"station_id":"ce4bh692rcd13ifvqea0","pricing_plan_id":"cebpf4jnsgd1na2vs0mg"},{"bike_id":"bafe06f4-691a-42ad-b544-2647048d76df","system_id":"levelo_inurba_marseille","lat":43.23029,"lon":5.35501,"is_reserved":false,"is_disabled":false,"rental_uris":{"android":"levelo://app?vid=bafe06f4-691a-42ad-b544-2647048d76df","ios":"levelo://app?vid=bafe06f4-691a-42ad-b544-2647048d76df"},"vehicle_type_id":"4","last_reported":1769966134,"current_range_meters":8000,"station_id":"cpo3342slgdg3j2ifvpg","pricing_plan_id":"cebpf4jnsgd1na2vs0mg"},{"bike_id":"2b052603-1775-4258-80ad-ae63b6286ef5","system_id":"levelo_inurba_marseille","lat":43.29756,"lon":5.3594,"is_reserved":false,"is_disabled":true,"rental_uris":{"android":"levelo://app?vid=2b052603-1775-4258-80ad-ae63b6286ef5","ios":"levelo://app?vid=2b052603-1775-4258-80ad-ae63b6286ef5"},"vehicle_type_id":"4","last_reported":1769966134,"current_range_meters":8000,"station_id":"","pricing_plan_id":"cebpf4jnsgd1na2vs0mg"},{"bike_id":"bd017aa8-2152-41cc-a7dd-47de87c6dc39","system_id":"levelo_inurba_marseille","lat":43.28231,"lon":5.39062,"is_reserved":false,"is_disabled":false,"rental_uris":{"android":"levelo://app?vid=bd017aa8-2152-41cc-a7dd-47de87c6dc39","ios":"levelo://app?vid=bd017aa8-2152-41cc-a7dd-47de87c6dc39"},"vehicle_type_id":"4","last_reported":1769966134,"current_range_meters":8000,"station_id":"ce4bhn92rcd13ifvqgsg","pricing_plan_id":"cebpf4jnsgd1na2vs0mg"},{"bike_id":"3f500d05-8463-4c4d-9c31-3b28c9166c77","system_id":"levelo_inurba_marseille","lat":43.25496,"lon":5.37648,"is_reserved":false,"is_disabled":false,"rental_uris":{"android":"levelo://app?vid=3f500d05-8463-4c4d-9c31-3b28c9166c77","ios":"levelo://app?vid=3f500d05-8463-4c4d-9c31-3b28c9166c77"},"vehicle_type_id":"4","last_reported":1769966134,"current_range_meters":8000,"station_id":"ce4bhh12rcd13ifvqff0","pricing_plan_id":"cebpf4jnsgd1na2vs0mg"},{"bike_id":"ef7394c4-2156-4b9c-9d8c-159e5222bedb","system_id":"levelo_inurba_marseille","lat":43.2988,"lon":5.38907,"is_reserved":false,"is_disabled":false,"rental_uris":{"android":"levelo://app?vid=ef7394c4-2156-4b9c-9d8c-159e5222bedb","ios":"levelo://app?vid=ef7394c4-2156-4b9c-9d8c-159e5222bedb"},"vehicle_type_id":"4","last_reported":1769966134,"current_range_meters":8000,"station_id":"ce4bh392rcd13ifvqdl0","pricing_plan_id":"cebpf4jnsgd1na2vs0mg"},{"bike_id":"669cbfea-a557-4cea-af48-034865d30cc0","system_id":"levelo_inurba_marseille","lat":43.25329,"lon":5.42167,"is_reserved":false,"is_disabled":true,"rental_uris":{"android":"levelo://app?vid=669cbfea-a557-4cea-af48-034865d30cc0","ios":"levelo://app?vid=669cbfea-a557-4cea-af48-034865d30cc0"},"vehicle_type_id":"4","last_reported":1769966134,"current_range_meters":8000,"station_id":"st_d2m65c5bi1j21697t3ng","pricing_plan_id":"cebpf4jnsgd1na2vs0mg"},{"bike_id":"77885ac6-5bc3-4d5e-b14c-f5d8952185b2","system_id":"levelo_inurba_marseille","lat":43.26557,"lon":5.40319,"is_reserved":false,"is_disabled":false,"rental_uris":{"android":"levelo://app?vid=77885ac6-5bc3-4d5e-b14c-f5d8952185b2","ios":"levelo://app?vid=77885ac6-5bc3-4d5e-b14c-f5d8952185b2"},"vehicle_type_id":"4","last_reported":1769966134,"current_range_meters":8000,"station_id":"ce4bhmp2rcd13ifvqgng","pricing_plan_id":"cebpf4jnsgd1na2vs0mg"},{"bike_id":"ae6076f5-67fa-439f-8c52-3710dfc4ce50","system_id":"levelo_inurba_marseille","lat":43.27805,"lon":5.40696,"is_reserved":false,"is_disabled":false,"rental_uris":{"android":"levelo://app?vid=ae6076f5-67fa-439f-8c52-3710dfc4ce50","ios":"levelo://app?vid=ae6076f5-67fa-439f-8c52-3710dfc4ce50"},"vehicle_type_id":"4","last_reported":1769966134,"current_range_meters":8000,"station_id":"ce4bhnh2rcd13ifvqgtg","pricing_plan_id":"cebpf4jnsgd1na2vs0mg"},{"bike_id":"13a78465-a453-433f-a41a-bc195cdd923e","system_id":"levelo_inurba_marseille","lat":43.29425,"lon":5.38197,"is_reserved":false,"is_disabled":false,"rental_uris":{"android":"levelo://app?vid=13a78465-a453-433f-a41a-bc195cdd923e","ios":"levelo://app?vid=13a78465-a453-433f-a41a-bc195cdd923e"},"vehicle_type_id":"4","last_reported":1769966134,"current_range_meters":8000,"station_id":"","pricing_plan_id":"cebpf4jnsgd1na2vs0mg"},{"bike_id":"5a46f343-f8c0-4bd7-9859-14e3ca910ba6","system_id":"levelo_inurba_marseille","lat":43.29488,"lon":5.43302,"is_reserved":false,"is_disabled":false,"rental_uris":{"android":"levelo://app?vid=5a46f343-f8c0-4bd7-9859-14e3ca910ba6","ios":"levelo://app?vid=5a46f343-f8c0-4bd7-9859-14e3ca910ba6"},"vehicle_type_id":"4","last_reported":1769966134,"current_range_meters":8000,"station_id":"st_d3j5ugp08ojc73fj9d10","pricing_plan_id":"cebpf4jnsgd1na2vs0mg"},{"bike_id":"d1a4c207-5791-4015-8c48-e9fcda8077be","system_id":"levelo_inurba_marseille","lat":43.33162,"lon":5.3769,"is_reserved":false,"is_disabled":false,"rental_uris":{"android":"levelo://app?vid=d1a4c207-5791-4015-8c48-e9fcda8077be","ios":"levelo://app?vid=d1a4c207-5791-4015-8c48-e9fcda8077be"},"vehicle_type_id":"4","last_reported":1769966134,"current_range_meters":8400,"station_id":"st_d46cu089ee8s73dldbu0","pricing_plan_id":"cebpf4jnsgd1na2vs0mg"},{"bike_id":"eae001be-3b34-469f-b5f5-7615da95a4ed","system_id":"levelo_inurba_marseille","lat":43.27818,"lon":5.406935,"is_reserved":false,"is_disabled":false,"rental_uris":{"android":"levelo://app?vid=eae001be-3b34-469f-b5f5-7615da95a4ed","ios":"levelo://app?vid=eae001be-3b34-469f-b5f5-7615da95a4ed"},"vehicle_type_id":"4","last_reported":1769966134,"current_range_meters":8400,"station_id":"ce4bhnh2rcd13ifvqgtg","pricing_plan_id":"cebpf4jnsgd1na2vs0mg"},{"bike_id":"0517a75b-6043-4b2e-add4-a996952921a8","system_id":"levelo_inurba_marseille","lat":43.26566,"lon":5.39015,"is_reserved":false,"is_disabled":false,"rental_uris":{"android":"levelo://app?vid=0517a75b-6043-4b2e-add4-a996952921a8","ios":"levelo://app?vid=0517a75b-6043-4b2e-add4-a996952921a8"},"vehicle_type_id":"4","last_reported":1769966134,"current_range_meters":8400,"station_id":"ce4bhe12rcd13ifvqf30","pricing_plan_id":"cebpf4jnsgd1na2vs0mg"},{"bike_id":"51487434-2c5b-44ec-b6f1-b2d802fd5baf","system_id":"levelo_inurba_marseille","lat":43.295842,"lon":5.367472,"is_reserved":false,"is_disabled":false,"rental_uris":{"android":"levelo://app?vid=51487434-2c5b-44ec-b6f1-b2d802fd5baf","ios":"levelo://app?vid=51487434-2c5b-44ec-b6f1-b2d802fd5baf"},"vehicle_type_id":"4","last_reported":1769966134,"current_range_meters":8400,"station_id":"ce4bgph2rcd13ifvqc2g","pricing_plan_id":"cebpf4jnsgd1na2vs0mg"},{"bike_id":"4c50b102-00aa-40e2-83bd-5e90d2e54b17","system_id":"levelo_inurba_marseille","lat":43.279932,"lon":5.400059,"is_reserved":false,"is_disabled":false,"rental_uris":{"android":"levelo://app?vid=4c50b102-00aa-40e2-83bd-5e90d2e54b17","ios":"levelo://app?vid=4c50b102-00aa-40e2-83bd-5e90d2e54b17"},"vehicle_type_id":"4","last_reported":1769966134,"current_range_meters":8400,"station_id":"ce4bho92rcd13ifvqh4g","pricing_plan_id":"cebpf4jnsgd1na2vs0mg"},{"bike_id":"8e363efe-3adc-41ae-8bca-39d30477fecc","system_id":"levelo_inurba_marseille","lat":43.305368,"lon":5.365456,"is_reserved":false,"is_disabled":false,"rental_uris":{"android":"levelo://app?vid=8e363efe-3adc-41ae-8bca-39d30477fecc","ios":"levelo://app?vid=8e363efe-3adc-41ae-8bca-39d30477fecc"},"vehicle_type_id":"4","last_reported":1769966134,"current_range_meters":8400,"station_id":"ce4bgs12rcd13ifvqcag","pricing_plan_id":"cebpf4jnsgd1na2vs0mg"},{"bike_id":"38ee3112-a872-414a-bdcc-7e3f6d39cb4d","system_id":"levelo_inurba_marseille","lat":43.25031,"lon":5.39631,"is_reserved":false,"is_disabled":false,"rental_uris":{"android":"levelo://app?vid=38ee3112-a872-414a-bdcc-7e3f6d39cb4d","ios":"levelo://app?vid=38ee3112-a872-414a-bdcc-7e3f6d39cb4d"},"vehicle_type_id":"4","last_reported":1769966134,"current_range_meters":8400,"station_id":"ce4bhm12rcd13ifvqgkg","pricing_plan_id":"cebpf4jnsgd1na2vs0mg"},{"bike_id":"788f77db-29f2-4216-9217-66041090fc76","system_id":"levelo_inurba_marseille","lat":43.26216,"lon":5.37436,"is_reserved":false,"is_disabled":false,"rental_uris":{"android":"levelo://app?vid=788f77db-29f2-4216-9217-66041090fc76","ios":"levelo://app?vid=788f77db-29f2-4216-9217-66041090fc76"},"vehicle_type_id":"4","last_reported":1769966134,"current_range_meters":8400,"station_id":"ce4bhgp2rcd13ifvqfc0","pricing_plan_id":"cebpf4jnsgd1na2vs0mg"},{"bike_id":"7499785d-acdd-4d7d-bbd1-2740108f97a0","system_id":"levelo_inurba_marseille","lat":43.24801,"lon":5.37454,"is_reserved":false,"is_disabled":false,"rental_uris":{"android":"levelo://app?vid=7499785d-acdd-4d7d-bbd1-2740108f97a0","ios":"levelo://app?vid=7499785d-acdd-4d7d-bbd1-2740108f97a0"},"vehicle_type_id":"4","last_reported":1769966134,"current_range_meters":8400,"station_id":"ce4bhgh2rcd13ifvqfb0","pricing_plan_id":"cebpf4jnsgd1na2vs0mg"},{"bike_id":"6632b7eb-39fd-4ac6-ab18-a3a8fd79732f","system_id":"levelo_inurba_marseille","lat":43.30879,"lon":5.37158,"is_reserved":false,"is_disabled":false,"rental_uris":{"android":"levelo://app?vid=6632b7eb-39fd-4ac6-ab18-a3a8fd79732f","ios":"levelo://app?vid=6632b7eb-39fd-4ac6-ab18-a3a8fd79732f"},"vehicle_type_id":"4","last_reported":1769966134,"current_range_meters":8400,"station_id":"ce4bguh2rcd13ifvqckg","pricing_plan_id":"cebpf4jnsgd1na2vs0mg"},{"bike_id":"33071fe1-6c34-4925-b977-f1eb5ecbfd7c","system_id":"levelo_inurba_marseille","lat":43.33024,"lon":5.39038,"is_reserved":false,"is_disabled":false,"rental_uris":{"android":"levelo://app?vid=33071fe1-6c34-4925-b977-f1eb5ecbfd7c","ios":"levelo://app?vid=33071fe1-6c34-4925-b977-f1eb5ecbfd7c"},"vehicle_type_id":"4","last_reported":1769966134,"current_range_meters":8400,"station_id":"ce4bhr92rcd13ifvqhrg","pricing_plan_id":"cebpf4jnsgd1na2vs0mg"},{"bike_id":"48defe86-fd01-4bdf-bb58-0b96240d5da2","system_id":"levelo_inurba_marseille","lat":43.28488,"lon":5.48371,"is_reserved":false,"is_disabled":false,"rental_uris":{"android":"levelo://app?vid=48defe86-fd01-4bdf-bb58-0b96240d5da2","ios":"levelo://app?vid=48defe86-fd01-4bdf-bb58-0b96240d5da2"},"vehicle_type_id":"4","last_reported":1769966134,"current_range_meters":8400,"station_id":"st_d3svhcjqgbts73a3dn0g","pricing_plan_id":"cebpf4jnsgd1na2vs0mg"},{"bike_id":"915f07f8-71e8-442d-9fd7-f7e4f42ace83","system_id":"levelo_inurba_marseille","lat":43.2377,"lon":5.36618,"is_reserved":false,"is_disabled":false,"rental_uris":{"android":"levelo://app?vid=915f07f8-71e8-442d-9fd7-f7e4f42ace83","ios":"levelo://app?vid=915f07f8-71e8-442d-9fd7-f7e4f42ace83"},"vehicle_type_id":"4","last_reported":1769966134,"current_range_meters":8800,"station_id":"st_d3nk18o9ro0c73en2l3g","pricing_plan_id":"cebpf4jnsgd1na2vs0mg"},{"bike_id":"476feb6d-7d5a-42c9-9961-a9ba014aa5a6","system_id":"levelo_inurba_marseille","lat":43.25006,"lon":5.38934,"is_reserved":false,"is_disabled":false,"rental_uris":{"android":"levelo://app?vid=476feb6d-7d5a-42c9-9961-a9ba014aa5a6","ios":"levelo://app?vid=476feb6d-7d5a-42c9-9961-a9ba014aa5a6"},"vehicle_type_id":"4","last_reported":1769966134,"current_range_meters":8800,"station_id":"ce4bhgp2rcd13ifvqfd0","pricing_plan_id":"cebpf4jnsgd1na2vs0mg"},{"bike_id":"8ca19586-9711-40da-8c9a-861a1c6afcae","system_id":"levelo_inurba_marseille","lat":43.27677,"lon":5.38887,"is_reserved":false,"is_disabled":false,"rental_uris":{"android":"levelo://app?vid=8ca19586-9711-40da-8c9a-861a1c6afcae","ios":"levelo://app?vid=8ca19586-9711-40da-8c9a-861a1c6afcae"},"vehicle_type_id":"4","last_reported":1769966134,"current_range_meters":8800,"station_id":"ce4bhi12rcd13ifvqfo0","pricing_plan_id":"cebpf4jnsgd1na2vs0mg"},{"bike_id":"101284fd-eaed-4e1a-80cb-9e3f4a395c0e","system_id":"levelo_inurba_marseille","lat":43.26204,"lon":5.37904,"is_reserved":false,"is_disabled":false,"rental_uris":{"android":"levelo://app?vid=101284fd-eaed-4e1a-80cb-9e3f4a395c0e","ios":"levelo://app?vid=101284fd-eaed-4e1a-80cb-9e3f4a395c0e"},"vehicle_type_id":"4","last_reported":1769966134,"current_range_meters":8800,"station_id":"ce4bhjp2rcd13ifvqg90","pricing_plan_id":"cebpf4jnsgd1na2vs0mg"},{"bike_id":"79c9dd55-eeb2-42a0-9eeb-986c46e3eff3","system_id":"levelo_inurba_marseille","lat":43.28225,"lon":5.3907,"is_reserved":false,"is_disabled":false,"rental_uris":{"android":"levelo://app?vid=79c9dd55-eeb2-42a0-9eeb-986c46e3eff3","ios":"levelo://app?vid=79c9dd55-eeb2-42a0-9eeb-986c46e3eff3"},"vehicle_type_id":"4","last_reported":1769966134,"current_range_meters":8800,"station_id":"ce4bhn92rcd13ifvqgsg","pricing_plan_id":"cebpf4jnsgd1na2vs0mg"},{"bike_id":"a2bd4f28-8680-4e21-87dd-c222603afde6","system_id":"levelo_inurba_marseille","lat":43.28104,"lon":5.3784,"is_reserved":false,"is_disabled":false,"rental_uris":{"android":"levelo://app?vid=a2bd4f28-8680-4e21-87dd-c222603afde6","ios":"levelo://app?vid=a2bd4f28-8680-4e21-87dd-c222603afde6"},"vehicle_type_id":"4","last_reported":1769966134,"current_range_meters":8800,"station_id":"ce4bha12rcd13ifvqee0","pricing_plan_id":"cebpf4jnsgd1na2vs0mg"},{"bike_id":"e1d85e8f-816e-43e5-832f-fa3bb6c7d9fd","system_id":"levelo_inurba_marseille","lat":43.29797,"lon":5.44043,"is_reserved":false,"is_disabled":false,"rental_uris":{"android":"levelo://app?vid=e1d85e8f-816e-43e5-832f-fa3bb6c7d9fd","ios":"levelo://app?vid=e1d85e8f-816e-43e5-832f-fa3bb6c7d9fd"},"vehicle_type_id":"4","last_reported":1769966134,"current_range_meters":8800,"station_id":"st_d3jp68qikq2c7381ktn0","pricing_plan_id":"cebpf4jnsgd1na2vs0mg"},{"bike_id":"efbc8cca-7100-4c22-ae2d-1f9f0ea26da1","system_id":"levelo_inurba_marseille","lat":43.28416,"lon":5.34977,"is_reserved":false,"is_disabled":false,"rental_uris":{"android":"levelo://app?vid=efbc8cca-7100-4c22-ae2d-1f9f0ea26da1","ios":"levelo://app?vid=efbc8cca-7100-4c22-ae2d-1f9f0ea26da1"},"vehicle_type_id":"4","last_reported":1769966134,"current_range_meters":8800,"station_id":"ce4bhbh2rcd13ifvqepg","pricing_plan_id":"cebpf4jnsgd1na2vs0mg"},{"bike_id":"4d614b31-2487-459c-80b4-20568895cab0","system_id":"levelo_inurba_marseille","lat":43.24023,"lon":5.37783,"is_reserved":false,"is_disabled":true,"rental_uris":{"android":"levelo://app?vid=4d614b31-2487-459c-80b4-20568895cab0","ios":"levelo://app?vid=4d614b31-2487-459c-80b4-20568895cab0"},"vehicle_type_id":"4","last_reported":1769966134,"current_range_meters":8800,"station_id":"ce4bhnp2rcd13ifvqgvg","pricing_plan_id":"cebpf4jnsgd1na2vs0mg"},{"bike_id":"ead9d525-178d-43f7-b202-498aac541976","system_id":"levelo_inurba_marseille","lat":43.22551,"lon":5.41644,"is_reserved":false,"is_disabled":false,"rental_uris":{"android":"levelo://app?vid=ead9d525-178d-43f7-b202-498aac541976","ios":"levelo://app?vid=ead9d525-178d-43f7-b202-498aac541976"},"vehicle_type_id":"4","last_reported":1769966134,"current_range_meters":8800,"station_id":"st_d2o4gvlbi1j2169b742g","pricing_plan_id":"cebpf4jnsgd1na2vs0mg"},{"bike_id":"42d56f77-ee7c-4b01-bede-3482212d0280","system_id":"levelo_inurba_marseille","lat":43.232,"lon":5.35576,"is_reserved":false,"is_disabled":false,"rental_uris":{"android":"levelo://app?vid=42d56f77-ee7c-4b01-bede-3482212d0280","ios":"levelo://app?vid=42d56f77-ee7c-4b01-bede-3482212d0280"},"vehicle_type_id":"4","last_reported":1769966134,"current_range_meters":8800,"station_id":"ce4bhu92rcd13ifvqi70","pricing_plan_id":"cebpf4jnsgd1na2vs0mg"},{"bike_id":"3a58788c-4a23-4531-9872-db4b04a34512","system_id":"levelo_inurba_marseille","lat":43.250084,"lon":5.389179,"is_reserved":false,"is_disabled":false,"rental_uris":{"android":"levelo://app?vid=3a58788c-4a23-4531-9872-db4b04a34512","ios":"levelo://app?vid=3a58788c-4a23-4531-9872-db4b04a34512"},"vehicle_type_id":"4","last_reported":1769966134,"current_range_meters":8800,"station_id":"ce4bhgp2rcd13ifvqfd0","pricing_plan_id":"cebpf4jnsgd1na2vs0mg"},{"bike_id":"b53f1af9-f3d6-44da-ab7a-25ec74bbd813","system_id":"levelo_inurba_marseille","lat":43.29027,"lon":5.39988,"is_reserved":false,"is_disabled":false,"rental_uris":{"android":"levelo://app?vid=b53f1af9-f3d6-44da-ab7a-25ec74bbd813","ios":"levelo://app?vid=b53f1af9-f3d6-44da-ab7a-25ec74bbd813"},"vehicle_type_id":"4","last_reported":1769966134,"current_range_meters":8800,"station_id":"ce4bh392rcd13ifvqdm0","pricing_plan_id":"cebpf4jnsgd1na2vs0mg"},{"bike_id":"bad2142d-9f55-4621-b045-df305d11c2d1","system_id":"levelo_inurba_marseille","lat":43.31226,"lon":5.36811,"is_reserved":false,"is_disabled":false,"rental_uris":{"android":"levelo://app?vid=bad2142d-9f55-4621-b045-df305d11c2d1","ios":"levelo://app?vid=bad2142d-9f55-4621-b045-df305d11c2d1"},"vehicle_type_id":"4","last_reported":1769966134,"current_range_meters":8800,"station_id":"ce4bgl92rcd13ifvqbq0","pricing_plan_id":"cebpf4jnsgd1na2vs0mg"},{"bike_id":"ef304c1b-726e-438e-a200-390c6e24ed14","system_id":"levelo_inurba_marseille","lat":43.29779,"lon":5.39333,"is_reserved":false,"is_disabled":false,"rental_uris":{"android":"levelo://app?vid=ef304c1b-726e-438e-a200-390c6e24ed14","ios":"levelo://app?vid=ef304c1b-726e-438e-a200-390c6e24ed14"},