{"last_updated":1752865791,"ttl":60,"version":"2.2","data":{"bikes":[{"bike_id":"53b742a7-31ae-4272-9bba-7740339e2a2f","system_id":"levelo_inurba_marseille","lat":43.33747,"lon":5.37463,"is_reserved":false,"is_disabled":false,"rental_uris":{"android":"levelo://app?vid=53b742a7-31ae-4272-9bba-7740339e2a2f","ios":"levelo://app?vid=53b742a7-31ae-4272-9bba-7740339e2a2f"},"vehicle_type_id":"1","last_reported":1752865791,"current_range_meters":18800,"station_id":"","pricing_plan_id":"cebpf4jnsgd1na2vs0mg"},{"bike_id":"db3ea02b-0ae9-496f-86ef-4b3ead40e920","system_id":"levelo_inurba_marseille","lat":43.27376,"lon":5.3626,"is_reserved":false,"is_disabled":false,"rental_uris":{"android":"levelo://app?vid=db3ea02b-0ae9-496f-86ef-4b3ead40e920","ios":"levelo://app?vid=db3ea02b-0ae9-496f-86ef-4b3ead40e920"},"vehicle_type_id":"4","last_reported":1752865791,"current_range_meters":2800,"station_id":"ce4bhbh2rcd13ifvqeo0","pricing_plan_id":"cebpf4jnsgd1na2vs0mg"},{"bike_id":"99e5c1fa-baad-486e-9399-698ba12bdfd0","system_id":"levelo_inurba_marseille","lat":43.25495,"lon":5.37648,"is_reserved":false,"is_disabled":false,"rental_uris":{"android":"levelo://app?vid=99e5c1fa-baad-486e-9399-698ba12bdfd0","ios":"levelo://app?vid=99e5c1fa-baad-486e-9399-698ba12bdfd0"},"vehicle_type_id":"4","last_reported":1752865791,"current_range_meters":2800,"station_id":"ce4bhh12rcd13ifvqff0","pricing_plan_id":"cebpf4jnsgd1na2vs0mg"},{"bike_id":"55fc289f-0bd8-4d39-8409-66b68bfa75a8","system_id":"levelo_inurba_marseille","lat":43.30793,"lon":5.38158,"is_reserved":false,"is_disabled":false,"rental_uris":{"android":"levelo://app?vid=55fc289f-0bd8-4d39-8409-66b68bfa75a8","ios":"levelo://app?vid=55fc289f-0bd8-4d39-8409-66b68bfa75a8"},"vehicle_type_id":"4","last_reported":1752865791,"current_range_meters":2800,"station_id":"ce4bgt12rcd13ifvqce0","pricing_plan_id":"cebpf4jnsgd1na2vs0mg"},{"bike_id":"7d0ae768-ff08-4e01-8cb3-2c4cdcaea1b1","system_id":"levelo_inurba_marseille","lat":43.26547,"lon":5.37282,"is_reserved":false,"is_disabled":false,"rental_uris":{"android":"levelo://app?vid=7d0ae768-ff08-4e01-8cb3-2c4cdcaea1b1","ios":"levelo://app?vid=7d0ae768-ff08-4e01-8cb3-2c4cdcaea1b1"},"vehicle_type_id":"4","last_reported":1752865791,"current_range_meters":3200,"station_id":"ce4bhg12rcd13ifvqf70","pricing_plan_id":"cebpf4jnsgd1na2vs0mg"},{"bike_id":"0b20fa29-a471-4228-bcdb-bbd4f74dc3c2","system_id":"levelo_inurba_marseille","lat":43.28284,"lon":5.35092,"is_reserved":false,"is_disabled":true,"rental_uris":{"android":"levelo://app?vid=0b20fa29-a471-4228-bcdb-bbd4f74dc3c2","ios":"levelo://app?vid=0b20fa29-a471-4228-bcdb-bbd4f74dc3c2"},"vehicle_type_id":"4","last_reported":1752865791,"current_range_meters":3200,"station_id":"ce4bhbp2rcd13ifvqerg","pricing_plan_id":"cebpf4jnsgd1na2vs0mg"},{"bike_id":"fe4a6ec5-5517-4524-9e4a-14beab2744af","system_id":"levelo_inurba_marseille","lat":43.29687,"lon":5.37287,"is_reserved":false,"is_disabled":false,"rental_uris":{"android":"levelo://app?vid=fe4a6ec5-5517-4524-9e4a-14beab2744af","ios":"levelo://app?vid=fe4a6ec5-5517-4524-9e4a-14beab2744af"},"vehicle_type_id":"4","last_reported":1752865791,"current_range_meters":3200,"station_id":"ce4bgk12rcd13ifvqbj0","pricing_plan_id":"cebpf4jnsgd1na2vs0mg"},{"bike_id":"2b9a7e57-727b-44aa-9a5f-725e93b43f8a","system_id":"levelo_inurba_marseille","lat":43.30548,"lon":5.36547,"is_reserved":false,"is_disabled":false,"rental_uris":{"android":"levelo://app?vid=2b9a7e57-727b-44aa-9a5f-725e93b43f8a","ios":"levelo://app?vid=2b9a7e57-727b-44aa-9a5f-725e93b43f8a"},"vehicle_type_id":"4","last_reported":1752865791,"current_range_meters":2800,"station_id":"ce4bgs12rcd13ifvqcag","pricing_plan_id":"cebpf4jnsgd1na2vs0mg"},{"bike_id":"a0295cbe-71b2-4da2-baad-15f1a639b17f","system_id":"levelo_inurba_marseille","lat":43.26939,"lon":5.40246,"is_reserved":false,"is_disabled":false,"rental_uris":{"android":"levelo://app?vid=a0295cbe-71b2-4da2-baad-15f1a639b17f","ios":"levelo://app?vid=a0295cbe-71b2-4da2-baad-15f1a639b17f"},"vehicle_type_id":"4","last_reported":1752865791,"current_range_meters":3600,"station_id":"cjm6bp8fraef2m0cb0m0","pricing_plan_id":"cebpf4jnsgd1na2vs0mg"},{"bike_id":"6315b3cf-2a94-45cd-87ee-6aaa113136ed","system_id":"levelo_inurba_marseille","lat":43.25586,"lon":5.38218,"is_reserved":false,"is_disabled":false,"rental_uris":{"android":"levelo://app?vid=6315b3cf-2a94-45cd-87ee-6aaa113136ed","ios":"levelo://app?vid=6315b3cf-2a94-45cd-87ee-6aaa113136ed"},"vehicle_type_id":"4","last_reported":1752865791,"current_range_meters":3600,"station_id":"ce4bhih2rcd13ifvqfs0","pricing_plan_id":"cebpf4jnsgd1na2vs0mg"},{"bike_id":"e2880e28-3a80-48ee-b414-3ad3db5a86cb","system_id":"levelo_inurba_marseille","lat":43.284143,"lon":5.349791,"is_reserved":false,"is_disabled":true,"rental_uris":{"android":"levelo://app?vid=e2880e28-3a80-48ee-b414-3ad3db5a86cb","ios":"levelo://app?vid=e2880e28-3a80-48ee-b414-3ad3db5a86cb"},"vehicle_type_id":"4","last_reported":1752865791,"current_range_meters":4400,"station_id":"ce4bhbh2rcd13ifvqepg","pricing_plan_id":"cebpf4jnsgd1na2vs0mg"},{"bike_id":"83ad0abd-8943-4804-a515-02bf0fa6068a","system_id":"levelo_inurba_marseille","lat":43.2955,"lon":5.42282,"is_reserved":false,"is_disabled":false,"rental_uris":{"android":"levelo://app?vid=83ad0abd-8943-4804-a515-02bf0fa6068a","ios":"levelo://app?vid=83ad0abd-8943-4804-a515-02bf0fa6068a"},"vehicle_type_id":"4","last_reported":1752865791,"current_range_meters":4800,"station_id":"ce4bhph2rcd13ifvqhdg","pricing_plan_id":"cebpf4jnsgd1na2vs0mg"},{"bike_id":"b77e4113-c088-4891-9430-1d03b43b0076","system_id":"levelo_inurba_marseille","lat":43.29053,"lon":5.35918,"is_reserved":false,"is_disabled":false,"rental_uris":{"android":"levelo://app?vid=b77e4113-c088-4891-9430-1d03b43b0076","ios":"levelo://app?vid=b77e4113-c088-4891-9430-1d03b43b0076"},"vehicle_type_id":"4","last_reported":1752865791,"current_range_meters":4800,"station_id":"ce4bha92rcd13ifvqeg0","pricing_plan_id":"cebpf4jnsgd1na2vs0mg"},{"bike_id":"bd76ec84-2b41-41e3-907c-c3157aa0cb8f","system_id":"levelo_inurba_marseille","lat":43.31185,"lon":5.38691,"is_reserved":false,"is_disabled":true,"rental_uris":{"android":"levelo://app?vid=bd76ec84-2b41-41e3-907c-c3157aa0cb8f","ios":"levelo://app?vid=bd76ec84-2b41-41e3-907c-c3157aa0cb8f"},"vehicle_type_id":"4","last_reported":1752865791,"current_range_meters":5600,"station_id":"","pricing_plan_id":"cebpf4jnsgd1na2vs0mg"},{"bike_id":"20e1cc30-ccbe-478e-bcb7-dc20e13576d1","system_id":"levelo_inurba_marseille","lat":43.28435,"lon":5.34976,"is_reserved":false,"is_disabled":true,"rental_uris":{"android":"levelo://app?vid=20e1cc30-ccbe-478e-bcb7-dc20e13576d1","ios":"levelo://app?vid=20e1cc30-ccbe-478e-bcb7-dc20e13576d1"},"vehicle_type_id":"4","last_reported":1752865791,"current_range_meters":6000,"station_id":"ce4bhbh2rcd13ifvqepg","pricing_plan_id":"cebpf4jnsgd1na2vs0mg"},{"bike_id":"9042c2e5-b70c-470c-b250-ab450dc4048e","system_id":"levelo_inurba_marseille","lat":43.33758,"lon":5.37452,"is_reserved":false,"is_disabled":false,"rental_uris":{"android":"levelo://app?vid=9042c2e5-b70c-470c-b250-ab450dc4048e","ios":"levelo://app?vid=9042c2e5-b70c-470c-b250-ab450dc4048e"},"vehicle_type_id":"4","last_reported":1752865791,"current_range_meters":6000,"station_id":"ce4bhbp2rcd13ifvqesg","pricing_plan_id":"cebpf4jnsgd1na2vs0mg"},{"bike_id":"30553487-de29-429c-82f1-9ae8dc4ac512","system_id":"levelo_inurba_marseille","lat":43.26048,"lon":5.394041,"is_reserved":false,"is_disabled":false,"rental_uris":{"android":"levelo://app?vid=30553487-de29-429c-82f1-9ae8dc4ac512","ios":"levelo://app?vid=30553487-de29-429c-82f1-9ae8dc4ac512"},"vehicle_type_id":"4","last_reported":1752865791,"current_range_meters":5600,"station_id":"ce4bhh92rcd13ifvqfj0","pricing_plan_id":"cebpf4jnsgd1na2vs0mg"},{"bike_id":"672e62be-08f7-4b44-a8c9-5f8d0b5b7450","system_id":"levelo_inurba_marseille","lat":43.22506,"lon":5.34793,"is_reserved":false,"is_disabled":false,"rental_uris":{"android":"levelo://app?vid=672e62be-08f7-4b44-a8c9-5f8d0b5b7450","ios":"levelo://app?vid=672e62be-08f7-4b44-a8c9-5f8d0b5b7450"},"vehicle_type_id":"4","last_reported":1752865791,"current_range_meters":6000,"station_id":"st_cvj5dfep6f1abm77gieg","pricing_plan_id":"cebpf4jnsgd1na2vs0mg"},{"bike_id":"faf7f36a-0a00-487e-a29c-5148aeab9c58","system_id":"levelo_inurba_marseille","lat":43.29567,"lon":5.39972,"is_reserved":false,"is_disabled":false,"rental_uris":{"android":"levelo://app?vid=faf7f36a-0a00-487e-a29c-5148aeab9c58","ios":"levelo://app?vid=faf7f36a-0a00-487e-a29c-5148aeab9c58"},"vehicle_type_id":"4","last_reported":1752865791,"current_range_meters":6000,"station_id":"ce4bh312rcd13ifvqdj0","pricing_plan_id":"cebpf4jnsgd1na2vs0mg"},{"bike_id":"ea899e66-33e2-4705-be9d-6aed800b5078","system_id":"levelo_inurba_marseille","lat":43.30789,"lon":5.38157,"is_reserved":false,"is_disabled":false,"rental_uris":{"android":"levelo://app?vid=ea899e66-33e2-4705-be9d-6aed800b5078","ios":"levelo://app?vid=ea899e66-33e2-4705-be9d-6aed800b5078"},"vehicle_type_id":"4","last_reported":1752865791,"current_range_meters":6400,"station_id":"ce4bgt12rcd13ifvqce0","pricing_plan_id":"cebpf4jnsgd1na2vs0mg"},{"bike_id":"2fca4e88-c3a5-4936-80fa-cecdc63e470a","system_id":"levelo_inurba_marseille","lat":43.29563,"lon":5.37526,"is_reserved":false,"is_disabled":false,"rental_uris":{"android":"levelo://app?vid=2fca4e88-c3a5-4936-80fa-cecdc63e470a","ios":"levelo://app?vid=2fca4e88-c3a5-4936-80fa-cecdc63e470a"},"vehicle_type_id":"4","last_reported":1752865791,"current_range_meters":6800,"station_id":"ce4bgh92rcd13ifvqb50","pricing_plan_id":"cebpf4jnsgd1na2vs0mg"},{"bike_id":"66151852-03e7-46c4-a5e5-dae9d7a4f21f","system_id":"levelo_inurba_marseille","lat":43.26212,"lon":5.37439,"is_reserved":false,"is_disabled":false,"rental_uris":{"android":"levelo://app?vid=66151852-03e7-46c4-a5e5-dae9d7a4f21f","ios":"levelo://app?vid=66151852-03e7-46c4-a5e5-dae9d7a4f21f"},"vehicle_type_id":"4","last_reported":1752865791,"current_range_meters":6800,"station_id":"ce4bhgp2rcd13ifvqfc0","pricing_plan_id":"cebpf4jnsgd1na2vs0mg"},{"bike_id":"0321fd01-6df1-4c81-88dd-6f3fe0e5c21d","system_id":"levelo_inurba_marseille","lat":43.28479,"lon":5.38402,"is_reserved":false,"is_disabled":false,"rental_uris":{"android":"levelo://app?vid=0321fd01-6df1-4c81-88dd-6f3fe0e5c21d","ios":"levelo://app?vid=0321fd01-6df1-4c81-88dd-6f3fe0e5c21d"},"vehicle_type_id":"4","last_reported":1752865791,"current_range_meters":4000,"station_id":"ce4bh512rcd13ifvqe3g","pricing_plan_id":"cebpf4jnsgd1na2vs0mg"},{"bike_id":"e95b1477-33a1-48a7-a021-3878a6895222","system_id":"levelo_inurba_marseille","lat":43.21756,"lon":5.345969,"is_reserved":false,"is_disabled":false,"rental_uris":{"android":"levelo://app?vid=e95b1477-33a1-48a7-a021-3878a6895222","ios":"levelo://app?vid=e95b1477-33a1-48a7-a021-3878a6895222"},"vehicle_type_id":"4","last_reported":1752865791,"current_range_meters":6800,"station_id":"st_cvj6r9ubvosntc0bgbag","pricing_plan_id":"cebpf4jnsgd1na2vs0mg"},{"bike_id":"32e12846-9249-41d7-ab75-984e4755c6ad","system_id":"levelo_inurba_marseille","lat":43.30948,"lon":5.39027,"is_reserved":false,"is_disabled":false,"rental_uris":{"android":"levelo://app?vid=32e12846-9249-41d7-ab75-984e4755c6ad","ios":"levelo://app?vid=32e12846-9249-41d7-ab75-984e4755c6ad"},"vehicle_type_id":"4","last_reported":1752865791,"current_range_meters":6800,"station_id":"ce4bgup2rcd13ifvqco0","pricing_plan_id":"cebpf4jnsgd1na2vs0mg"},{"bike_id":"d2fd2e94-1f9d-40a9-9988-3a1ee295f5b4","system_id":"levelo_inurba_marseille","lat":43.309445,"lon":5.39029,"is_reserved":false,"is_disabled":false,"rental_uris":{"android":"levelo://app?vid=d2fd2e94-1f9d-40a9-9988-3a1ee295f5b4","ios":"levelo://app?vid=d2fd2e94-1f9d-40a9-9988-3a1ee295f5b4"},"vehicle_type_id":"4","last_reported":1752865791,"current_range_meters":7200,"station_id":"ce4bgup2rcd13ifvqco0","pricing_plan_id":"cebpf4jnsgd1na2vs0mg"},{"bike_id":"04d15a50-cb94-495c-969c-c09473f1fcda","system_id":"levelo_inurba_marseille","lat":43.296196,"lon":5.377039,"is_reserved":false,"is_disabled":true,"rental_uris":{"android":"levelo://app?vid=04d15a50-cb94-495c-969c-c09473f1fcda","ios":"levelo://app?vid=04d15a50-cb94-495c-969c-c09473f1fcda"},"vehicle_type_id":"4","last_reported":1752865791,"current_range_meters":7200,"station_id":"","pricing_plan_id":"cebpf4jnsgd1na2vs0mg"},{"bike_id":"3444bdc6-514a-4ba6-9650-f9073305e33d","system_id":"levelo_inurba_marseille","lat":43.29682,"lon":5.3698,"is_reserved":false,"is_disabled":false,"rental_uris":{"android":"levelo://app?vid=3444bdc6-514a-4ba6-9650-f9073305e33d","ios":"levelo://app?vid=3444bdc6-514a-4ba6-9650-f9073305e33d"},"vehicle_type_id":"4","last_reported":1752865791,"current_range_meters":7200,"station_id":"","pricing_plan_id":"cebpf4jnsgd1na2vs0mg"},{"bike_id":"e2eb2645-df1e-4f06-a1c2-c75f49481566","system_id":"levelo_inurba_marseille","lat":43.29275,"lon":5.40958,"is_reserved":false,"is_disabled":false,"rental_uris":{"android":"levelo://app?vid=e2eb2645-df1e-4f06-a1c2-c75f49481566","ios":"levelo://app?vid=e2eb2645-df1e-4f06-a1c2-c75f49481566"},"vehicle_type_id":"4","last_reported":1752865791,"current_range_meters":7200,"station_id":"ce4bh192rcd13ifvqdc0","pricing_plan_id":"cebpf4jnsgd1na2vs0mg"},{"bike_id":"015e2317-6c66-4d52-9650-fc42e795f182","system_id":"levelo_inurba_marseille","lat":43.30595,"lon":5.39355,"is_reserved":false,"is_disabled":true,"rental_uris":{"android":"levelo://app?vid=015e2317-6c66-4d52-9650-fc42e795f182","ios":"levelo://app?vid=015e2317-6c66-4d52-9650-fc42e795f182"},"vehicle_type_id":"4","last_reported":1752865791,"current_range_meters":7200,"station_id":"ce4bh0p2rcd13ifvqd80","pricing_plan_id":"cebpf4jnsgd1na2vs0mg"},{"bike_id":"839be544-43f2-4e89-a83d-9af477586133","system_id":"levelo_inurba_marseille","lat":43.28928,"lon":5.38395,"is_reserved":false,"is_disabled":false,"rental_uris":{"android":"levelo://app?vid=839be544-43f2-4e89-a83d-9af477586133","ios":"levelo://app?vid=839be544-43f2-4e89-a83d-9af477586133"},"vehicle_type_id":"4","last_reported":1752865791,"current_range_meters":7200,"station_id":"ce4bh612rcd13ifvqe6g","pricing_plan_id":"cebpf4jnsgd1na2vs0mg"},{"bike_id":"fcb43646-13dd-4cea-b3e4-460cae3cbed7","system_id":"levelo_inurba_marseille","lat":43.225149,"lon":5.347742,"is_reserved":false,"is_disabled":false,"rental_uris":{"android":"levelo://app?vid=fcb43646-13dd-4cea-b3e4-460cae3cbed7","ios":"levelo://app?vid=fcb43646-13dd-4cea-b3e4-460cae3cbed7"},"vehicle_type_id":"4","last_reported":1752865791,"current_range_meters":7200,"station_id":"st_cvj5dfep6f1abm77gieg","pricing_plan_id":"cebpf4jnsgd1na2vs0mg"},{"bike_id":"555bc53e-5286-4fb6-9154-af42b3fd9792","system_id":"levelo_inurba_marseille","lat":43.300736,"lon":5.372819,"is_reserved":false,"is_disabled":false,"rental_uris":{"android":"levelo://app?vid=555bc53e-5286-4fb6-9154-af42b3fd9792","ios":"levelo://app?vid=555bc53e-5286-4fb6-9154-af42b3fd9792"},"vehicle_type_id":"4","last_reported":1752865791,"current_range_meters":7200,"station_id":"","pricing_plan_id":"cebpf4jnsgd1na2vs0mg"},{"bike_id":"32800b46-02aa-4578-93eb-4f21d3d44ba7","system_id":"levelo_inurba_marseille","lat":43.28832,"lon":5.400199,"is_reserved":false,"is_disabled":false,"rental_uris":{"android":"levelo://app?vid=32800b46-02aa-4578-93eb-4f21d3d44ba7","ios":"levelo://app?vid=32800b46-02aa-4578-93eb-4f21d3d44ba7"},"vehicle_type_id":"4","last_reported":1752865791,"current_range_meters":7200,"station_id":"","pricing_plan_id":"cebpf4jnsgd1na2vs0mg"},{"bike_id":"ad043432-48f1-424f-b84d-cf43522e7131","system_id":"levelo_inurba_marseille","lat":43.2737,"lon":5.36259,"is_reserved":false,"is_disabled":false,"rental_uris":{"android":"levelo://app?vid=ad043432-48f1-424f-b84d-cf43522e7131","ios":"levelo://app?vid=ad043432-48f1-424f-b84d-cf43522e7131"},"vehicle_type_id":"4","last_reported":1752865791,"current_range_meters":7200,"station_id":"ce4bhbh2rcd13ifvqeo0","pricing_plan_id":"cebpf4jnsgd1na2vs0mg"},{"bike_id":"18665a3d-1eec-4392-9623-a615275afd9c","system_id":"levelo_inurba_marseille","lat":43.32355,"lon":5.36753,"is_reserved":false,"is_disabled":false,"rental_uris":{"android":"levelo://app?vid=18665a3d-1eec-4392-9623-a615275afd9c","ios":"levelo://app?vid=18665a3d-1eec-4392-9623-a615275afd9c"},"vehicle_type_id":"4","last_reported":1752865791,"current_range_meters":7200,"station_id":"ce4bhsh2rcd13ifvqi2g","pricing_plan_id":"cebpf4jnsgd1na2vs0mg"},{"bike_id":"9be48a1c-239f-4750-9c85-d2e637ee0168","system_id":"levelo_inurba_marseille","lat":43.27618,"lon":5.36107,"is_reserved":false,"is_disabled":false,"rental_uris":{"android":"levelo://app?vid=9be48a1c-239f-4750-9c85-d2e637ee0168","ios":"levelo://app?vid=9be48a1c-239f-4750-9c85-d2e637ee0168"},"vehicle_type_id":"4","last_reported":1752865791,"current_range_meters":7200,"station_id":"ce4bgj92rcd13ifvqbe0","pricing_plan_id":"cebpf4jnsgd1na2vs0mg"},{"bike_id":"80376873-e696-4387-b31d-fa867bfbe982","system_id":"levelo_inurba_marseille","lat":43.308713,"lon":5.389843,"is_reserved":false,"is_disabled":false,"rental_uris":{"android":"levelo://app?vid=80376873-e696-4387-b31d-fa867bfbe982","ios":"levelo://app?vid=80376873-e696-4387-b31d-fa867bfbe982"},"vehicle_type_id":"4","last_reported":1752865791,"current_range_meters":7200,"station_id":"","pricing_plan_id":"cebpf4jnsgd1na2vs0mg"},{"bike_id":"c18e2a18-58ff-4b5b-974f-6671b9b1dc2e","system_id":"levelo_inurba_marseille","lat":43.30953,"lon":5.39039,"is_reserved":false,"is_disabled":false,"rental_uris":{"android":"levelo://app?vid=c18e2a18-58ff-4b5b-974f-6671b9b1dc2e","ios":"levelo://app?vid=c18e2a18-58ff-4b5b-974f-6671b9b1dc2e"},"vehicle_type_id":"4","last_reported":1752865791,"current_range_meters":8000,"station_id":"ce4bgup2rcd13ifvqco0","pricing_plan_id":"cebpf4jnsgd1na2vs0mg"},{"bike_id":"a92e488b-afb3-4b41-9659-7805cb9d7b5c","system_id":"levelo_inurba_marseille","lat":43.30784,"lon":5.37638,"is_reserved":false,"is_disabled":false,"rental_uris":{"android":"levelo://app?vid=a92e488b-afb3-4b41-9659-7805cb9d7b5c","ios":"levelo://app?vid=a92e488b-afb3-4b41-9659-7805cb9d7b5c"},"vehicle_type_id":"4","last_reported":1752865791,"current_range_meters":7200,"station_id":"ce4bgv92rcd13ifvqcq0","pricing_plan_id":"cebpf4jnsgd1na2vs0mg"},{"bike_id":"d1b1ae6f-562f-42f0-a958-cbc912a1619d","system_id":"levelo_inurba_marseille","lat":43.27629,"lon":5.36084,"is_reserved":false,"is_disabled":true,"rental_uris":{"android":"levelo://app?vid=d1b1ae6f-562f-42f0-a958-cbc912a1619d","ios":"levelo://app?vid=d1b1ae6f-562f-42f0-a958-cbc912a1619d"},"vehicle_type_id":"4","last_reported":1752865791,"current_range_meters":8000,"station_id":"ce4bgj92rcd13ifvqbe0","pricing_plan_id":"cebpf4jnsgd1na2vs0mg"},{"bike_id":"28d27c17-e6ca-4cec-aec9-f1f6696b8a12","system_id":"levelo_inurba_marseille","lat":43.29918,"lon":5.43647,"is_reserved":false,"is_disabled":true,"rental_uris":{"android":"levelo://app?vid=28d27c17-e6ca-4cec-aec9-f1f6696b8a12","ios":"levelo://app?vid=28d27c17-e6ca-4cec-aec9-f1f6696b8a12"},"vehicle_type_id":"4","last_reported":1752865791,"current_range_meters":8000,"station_id":"ce4bhpp2rcd13ifvqhfg","pricing_plan_id":"cebpf4jnsgd1na2vs0mg"},{"bike_id":"1c151c81-0f12-431e-9c2f-f1c3d073e902","system_id":"levelo_inurba_marseille","lat":43.31177,"lon":5.38716,"is_reserved":false,"is_disabled":false,"rental_uris":{"android":"levelo://app?vid=1c151c81-0f12-431e-9c2f-f1c3d073e902","ios":"levelo://app?vid=1c151c81-0f12-431e-9c2f-f1c3d073e902"},"vehicle_type_id":"4","last_reported":1752865791,"current_range_meters":4000,"station_id":"ce4bgv12rcd13ifvqcp0","pricing_plan_id":"cebpf4jnsgd1na2vs0mg"},{"bike_id":"1d800599-6c53-4282-af6f-34f9f85fd515","system_id":"levelo_inurba_marseille","lat":43.30949,"lon":5.3904,"is_reserved":false,"is_disabled":false,"rental_uris":{"android":"levelo://app?vid=1d800599-6c53-4282-af6f-34f9f85fd515","ios":"levelo://app?vid=1d800599-6c53-4282-af6f-34f9f85fd515"},"vehicle_type_id":"4","last_reported":1752865791,"current_range_meters":8400,"station_id":"ce4bgup2rcd13ifvqco0","pricing_plan_id":"cebpf4jnsgd1na2vs0mg"},{"bike_id":"c2495178-f557-4b30-b46f-0341c51cce8c","system_id":"levelo_inurba_marseille","lat":43.31871,"lon":5.37362,"is_reserved":false,"is_disabled":false,"rental_uris":{"android":"levelo://app?vid=c2495178-f557-4b30-b46f-0341c51cce8c","ios":"levelo://app?vid=c2495178-f557-4b30-b46f-0341c51cce8c"},"vehicle_type_id":"4","last_reported":1752865791,"current_range_meters":8400,"station_id":"","pricing_plan_id":"cebpf4jnsgd1na2vs0mg"},{"bike_id":"f1514e40-c022-4238-9831-96025bee9238","system_id":"levelo_inurba_marseille","lat":43.30592,"lon":5.393435,"is_reserved":false,"is_disabled":false,"rental_uris":{"android":"levelo://app?vid=f1514e40-c022-4238-9831-96025bee9238","ios":"levelo://app?vid=f1514e40-c022-4238-9831-96025bee9238"},"vehicle_type_id":"4","last_reported":1752865791,"current_range_meters":8400,"station_id":"ce4bh0p2rcd13ifvqd80","pricing_plan_id":"cebpf4jnsgd1na2vs0mg"},{"bike_id":"09c73347-5077-4395-8b92-ee94d41e0a24","system_id":"levelo_inurba_marseille","lat":43.28656,"lon":5.36354,"is_reserved":false,"is_disabled":true,"rental_uris":{"android":"levelo://app?vid=09c73347-5077-4395-8b92-ee94d41e0a24","ios":"levelo://app?vid=09c73347-5077-4395-8b92-ee94d41e0a24"},"vehicle_type_id":"4","last_reported":1752865791,"current_range_meters":8400,"station_id":"ce4bhah2rcd13ifvqej0","pricing_plan_id":"cebpf4jnsgd1na2vs0mg"},{"bike_id":"8d0bf0e5-fe87-4fd8-a7e2-3461a230be70","system_id":"levelo_inurba_marseille","lat":43.217415,"lon":5.346029,"is_reserved":false,"is_disabled":false,"rental_uris":{"android":"levelo://app?vid=8d0bf0e5-fe87-4fd8-a7e2-3461a230be70","ios":"levelo://app?vid=8d0bf0e5-fe87-4fd8-a7e2-3461a230be70"},"vehicle_type_id":"4","last_reported":1752865791,"current_range_meters":8400,"station_id":"","pricing_plan_id":"cebpf4jnsgd1na2vs0mg"},{"bike_id":"f897316b-05ba-46b0-b0d4-12469937bce4","system_id":"levelo_inurba_marseille","lat":43.33014,"lon":5.39041,"is_reserved":false,"is_disabled":false,"rental_uris":{"android":"levelo://app?vid=f897316b-05ba-46b0-b0d4-12469937bce4","ios":"levelo://app?vid=f897316b-05ba-46b0-b0d4-12469937bce4"},"vehicle_type_id":"4","last_reported":1752865791,"current_range_meters":8400,"station_id":"ce4bhr92rcd13ifvqhrg","pricing_plan_id":"cebpf4jnsgd1na2vs0mg"},{"bike_id":"4e9d2d21-b41a-461b-9713-e3790cb757a3","system_id":"levelo_inurba_marseille","lat":43.30948,"lon":5.39022,"is_reserved":false,"is_disabled":false,"rental_uris":{"android":"levelo://app?vid=4e9d2d21-b41a-461b-9713-e3790cb757a3","ios":"levelo://app?vid=4e9d2d21-b41a-461b-9713-e3790cb757a3"},"vehicle_type_id":"4","last_reported":1752865791,"current_range_meters":8800,"station_id":"ce4bgup2rcd13ifvqco0","pricing_plan_id":"cebpf4jnsgd1na2vs0mg"},{"bike_id":"bc1fa6bc-fd3f-43dd-82cf-1c7858fa8950","system_id":"levelo_inurba_marseille","lat":43.2975,"lon":5.37715,"is_reserved":false,"is_disabled":false,"rental_uris":{"android":"levelo://app?vid=bc1fa6bc-fd3f-43dd-82cf-1c7858fa8950","ios":"levelo://app?vid=bc1fa6bc-fd3f-43dd-82cf-1c7858fa8950"},"vehicle_type_id":"4","last_reported":1752865791,"current_range_meters":8800,"station_id":"","pricing_plan_id":"cebpf4jnsgd1na2vs0mg"},{"bike_id":"f7fbbde8-fe8b-4a95-b249-f700175d7312","system_id":"levelo_inurba_marseille","lat":43.31221,"lon":5.368528,"is_reserved":false,"is_disabled":false,"rental_uris":{"android":"levelo://app?vid=f7fbbde8-fe8b-4a95-b249-f700175d7312","ios":"levelo://app?vid=f7fbbde8-fe8b-4a95-b249-f700175d7312"},"vehicle_type_id":"4","last_reported":1752865791,"current_range_meters":8800,"station_id":"ce4bgl92rcd13ifvqbq0","pricing_plan_id":"cebpf4jnsgd1na2vs0mg"},{"bike_id":"56d35fb4-c3fa-422a-a14b-9ed987a4f56f","system_id":"levelo_inurba_marseille","lat":43.24809,"lon":5.37457,"is_reserved":false,"is_disabled":true,"rental_uris":{"android":"levelo://app?vid=56d35fb4-c3fa-422a-a14b-9ed987a4f56f","ios":"levelo://app?vid=56d35fb4-c3fa-422a-a14b-9ed987a4f56f"},"vehicle_type_id":"4","last_reported":1752865791,"current_range_meters":8800,"station_id":"ce4bhgh2rcd13ifvqfb0","pricing_plan_id":"cebpf4jnsgd1na2vs0mg"},{"bike_id":"acc64b0b-088a-4c30-b09b-236e5d6dd721","system_id":"levelo_inurba_marseille","lat":43.29545,"lon":5.42284,"is_reserved":false,"is_disabled":false,"rental_uris":{"android":"levelo://app?vid=acc64b0b-088a-4c30-b09b-236e5d6dd721","ios":"levelo://app?vid=acc64b0b-088a-4c30-b09b-236e5d6dd721"},"vehicle_type_id":"4","last_reported":1752865791,"current_range_meters":8800,"station_id":"ce4bhph2rcd13ifvqhdg","pricing_plan_id":"cebpf4jnsgd1na2vs0mg"},{"bike_id":"07f5ae19-0925-43ef-aab4-48ec58bc62b9","system_id":"levelo_inurba_marseille","lat":43.31461,"lon":5.37414,"is_reserved":false,"is_disabled":false,"rental_uris":{"android":"levelo://app?vid=07f5ae19-0925-43ef-aab4-48ec58bc62b9","ios":"levelo://app?vid=07f5ae19-0925-43ef-aab4-48ec58bc62b9"},"vehicle_type_id":"4","last_reported":1752865791,"current_range_meters":8800,"station_id":"","pricing_plan_id":"cebpf4jnsgd1na2vs0mg"},{"bike_id":"79e00cba-979b-4370-b320-7e4857db9893","system_id":"levelo_inurba_marseille","lat":43.33775,"lon":5.37446,"is_reserved":false,"is_disabled":false,"rental_uris":{"android":"levelo://app?vid=79e00cba-979b-4370-b320-7e4857db9893","ios":"levelo://app?vid=79e00cba-979b-4370-b320-7e4857db9893"},"vehicle_type_id":"4","last_reported":1752865791,"current_range_meters":9200,"station_id":"","pricing_plan_id":"cebpf4jnsgd1na2vs0mg"},{"bike_id":"06991f0f-4509-4b15-8923-34f6ebba820e","system_id":"levelo_inurba_marseille","lat":43.29618,"lon":5.37709,"is_reserved":false,"is_disabled":false,"rental_uris":{"android":"levelo://app?vid=06991f0f-4509-4b15-8923-34f6ebba820e","ios":"levelo://app?vid=06991f0f-4509-4b15-8923-34f6ebba820e"},"vehicle_type_id":"4","last_reported":1752865791,"current_range_meters":9200,"station_id":"ce4bgi92rcd13ifvqb90","pricing_plan_id":"cebpf4jnsgd1na2vs0mg"},{"bike_id":"a150815f-2b0e-423a-a18d-bbfb69cc2efa","system_id":"levelo_inurba_marseille","lat":43.30947,"lon":5.39032,"is_reserved":false,"is_disabled":false,"rental_uris":{"android":"levelo://app?vid=a150815f-2b0e-423a-a18d-bbfb69cc2efa","ios":"levelo://app?vid=a150815f-2b0e-423a-a18d-bbfb69cc2efa"},"vehicle_type_id":"4","last_reported":1752865791,"current_range_meters":9200,"station_id":"ce4bgup2rcd13ifvqco0","pricing_plan_id":"cebpf4jnsgd1na2vs0mg"},{"bike_id":"5a7c9b10-5c8d-4a98-9684-e198367b0f3d","system_id":"levelo_inurba_marseille","lat":43.23967,"lon":5.36624,"is_reserved":false,"is_disabled":false,"rental_uris":{"android":"levelo://app?vid=5a7c9b10-5c8d-4a98-9684-e198367b0f3d","ios":"levelo://app?vid=5a7c9b10-5c8d-4a98-9684-e198367b0f3d"},"vehicle_type_id":"4","last_reported":1752865791,"current_range_meters":8800,"station_id":"ce4bhi12rcd13ifvqfp0","pricing_plan_id":"cebpf4jnsgd1na2vs0mg"},{"bike_id":"8e21a18c-6795-4cdf-a392-eb2e38eee4fe","system_id":"levelo_inurba_marseille","lat":43.29306,"lon":5.37172,"is_reserved":false,"is_disabled":false,"rental_uris":{"android":"levelo://app?vid=8e21a18c-6795-4cdf-a392-eb2e38eee4fe","ios":"levelo://app?vid=8e21a18c-6795-4cdf-a392-eb2e38eee4fe"},"vehicle_type_id":"4","last_reported":1752865791,"current_range_meters":9200,"station_id":"ce4bgh92rcd13ifvqb40","pricing_plan_id":"cebpf4jnsgd1na2vs0mg"},{"bike_id":"216d24a7-f5f2-4542-85fa-d4864cc2ddd5","system_id":"levelo_inurba_marseille","lat":43.26228,"lon":5.40454,"is_reserved":false,"is_disabled":false,"rental_uris":{"android":"levelo://app?vid=216d24a7-f5f2-4542-85fa-d4864cc2ddd5","ios":"levelo://app?vid=216d24a7-f5f2-4542-85fa-d4864cc2ddd5"},"vehicle_type_id":"4","last_reported":1752865791,"current_range_meters":9200,"station_id":"ce4bhmh2rcd13ifvqgmg","pricing_plan_id":"cebpf4jnsgd1na2vs0mg"},{"bike_id":"5d185e51-10e8-4231-a34d-fc93c2e91b9b","system_id":"levelo_inurba_marseille","lat":43.2925,"lon":5.40896,"is_reserved":false,"is_disabled":false,"rental_uris":{"android":"levelo://app?vid=5d185e51-10e8-4231-a34d-fc93c2e91b9b","ios":"levelo://app?vid=5d185e51-10e8-4231-a34d-fc93c2e91b9b"},"vehicle_type_id":"4","last_reported":1752865791,"current_range_meters":9600,"station_id":"ce4bh192rcd13ifvqdc0","pricing_plan_id":"cebpf4jnsgd1na2vs0mg"},{"bike_id":"a2383e8d-3424-401d-a4cb-642771c27b94","system_id":"levelo_inurba_marseille","lat":43.29529,"lon":5.38547,"is_reserved":false,"is_disabled":false,"rental_uris":{"android":"levelo://app?vid=a2383e8d-3424-401d-a4cb-642771c27b94","ios":"levelo://app?vid=a2383e8d-3424-401d-a4cb-642771c27b94"},"vehicle_type_id":"4","last_reported":1752865791,"current_range_meters":9600,"station_id":"ce4bgih2rcd13ifvqba0","pricing_plan_id":"cebpf4jnsgd1na2vs0mg"},{"bike_id":"255f63b3-d391-461e-9168-7b692342f2c5","system_id":"levelo_inurba_marseille","lat":43.211959,"lon":5.350682,"is_reserved":false,"is_disabled":false,"rental_uris":{"android":"levelo://app?vid=255f63b3-d391-461e-9168-7b692342f2c5","ios":"levelo://app?vid=255f63b3-d391-461e-9168-7b692342f2c5"},"vehicle_type_id":"4","last_reported":1752865791,"current_range_meters":9600,"station_id":"st_cvj6sg6p6f1abm77japg","pricing_plan_id":"cebpf4jnsgd1na2vs0mg"},{"bike_id":"51aeafc8-a51a-482d-b191-95c8803412bd","system_id":"levelo_inurba_marseille","lat":43.25114,"lon":5.40309,"is_reserved":false,"is_disabled":false,"rental_uris":{"android":"levelo://app?vid=51aeafc8-a51a-482d-b191-95c8803412bd","ios":"levelo://app?vid=51aeafc8-a51a-482d-b191-95c8803412bd"},"vehicle_type_id":"4","last_reported":1752865791,"current_range_meters":9600,"station_id":"ce4bhlh2rcd13ifvqgig","pricing_plan_id":"cebpf4jnsgd1na2vs0mg"},{"bike_id":"2ac93549-5c94-4228-8eea-782a21384d10","system_id":"levelo_inurba_marseille","lat":43.29634,"lon":5.37793,"is_reserved":false,"is_disabled":false,"rental_uris":{"android":"levelo://app?vid=2ac93549-5c94-4228-8eea-782a21384d10","ios":"levelo://app?vid=2ac93549-5c94-4228-8eea-782a21384d10"},"vehicle_type_id":"4","last_reported":1752865791,"current_range_meters":9600,"station_id":"","pricing_plan_id":"cebpf4jnsgd1na2vs0mg"},{"bike_id":"e8f674dc-4768-4d82-9761-b1aacbeaad14","system_id":"levelo_inurba_marseille","lat":43.32542,"lon":5.41431,"is_reserved":false,"is_disabled":false,"rental_uris":{"android":"levelo://app?vid=e8f674dc-4768-4d82-9761-b1aacbeaad14","ios":"levelo://app?vid=e8f674dc-4768-4d82-9761-b1aacbeaad14"},"vehicle_type_id":"4","last_reported":1752865791,"current_range_meters":9600,"station_id":"ce4bhq12rcd13ifvqhhg","pricing_plan_id":"cebpf4jnsgd1na2vs0mg"},{"bike_id":"bd6c3dfb-55f3-4e43-87de-54e117775a82","system_id":"levelo_inurba_marseille","lat":43.29577,"lon":5.37523,"is_reserved":false,"is_disabled":false,"rental_uris":{"android":"levelo://app?vid=bd6c3dfb-55f3-4e43-87de-54e117775a82","ios":"levelo://app?vid=bd6c3dfb-55f3-4e43-87de-54e117775a82"},"vehicle_type_id":"4","last_reported":1752865791,"current_range_meters":10000,"station_id":"ce4bgh92rcd13ifvqb50","pricing_plan_id":"cebpf4jnsgd1na2vs0mg"},{"bike_id":"da891840-0cec-4ccc-961c-48903736c6fa","system_id":"levelo_inurba_marseille","lat":43.31139,"lon":5.37692,"is_reserved":false,"is_disabled":false,"rental_uris":{"android":"levelo://app?vid=da891840-0cec-4ccc-961c-48903736c6fa","ios":"levelo://app?vid=da891840-0cec-4ccc-961c-48903736c6fa"},"vehicle_type_id":"4","last_reported":1752865791,"current_range_meters":10000,"station_id":"","pricing_plan_id":"cebpf4jnsgd1na2vs0mg"},{"bike_id":"3d88934d-3780-4bd0-bec3-c443fe2fa1e1","system_id":"levelo_inurba_marseille","lat":43.24797,"lon":5.37438,"is_reserved":false,"is_disabled":false,"rental_uris":{"android":"levelo://app?vid=3d88934d-3780-4bd0-bec3-c443fe2fa1e1","ios":"levelo://app?vid=3d88934d-3780-4bd0-bec3-c443fe2fa1e1"},"vehicle_type_id":"4","last_reported":1752865791,"current_range_meters":10000,"station_id":"ce4bhgh2rcd13ifvqfb0","pricing_plan_id":"cebpf4jnsgd1na2vs0mg"},{"bike_id":"e555b545-304c-4dce-8496-1643c0f2600e","system_id":"levelo_inurba_marseille","lat":43.337444,"lon":5.374475,"is_reserved":false,"is_disabled":false,"rental_uris":{"android":"levelo://app?vid=e555b545-304c-4dce-8496-1643c0f2600e","ios":"levelo://app?vid=e555b545-304c-4dce-8496-1643c0f2600e"},"vehicle_type_id":"4","last_reported":1752865791,"current_range_meters":10000,"station_id":"","pricing_plan_id":"cebpf4jnsgd1na2vs0mg"},{"bike_id":"ecb79b01-e9b6-4a2c-92c8-b9142d4d7e1f","system_id":"levelo_inurba_marseille","lat":43.27379,"lon":5.36254,"is_reserved":false,"is_disabled":false,"rental_uris":{"android":"levelo://app?vid=ecb79b01-e9b6-4a2c-92c8-b9142d4d7e1f","ios":"levelo://app?vid=ecb79b01-e9b6-4a2c-92c8-b9142d4d7e1f"},"vehicle_type_id":"4","last_reported":1752865791,"current_range_meters":10000,"station_id":"ce4bhbh2rcd13ifvqeo0","pricing_plan_id":"cebpf4jnsgd1na2vs0mg"},{"bike_id":"0af88599-6653-4379-a21b-d902e6c6ea7c","system_id":"levelo_inurba_marseille","lat":43.28425,"lon":5.3499,"is_reserved":false,"is_disabled":false,"rental_uris":{"android":"levelo://app?vid=0af88599-6653-4379-a21b-d902e6c6ea7c","ios":"levelo://app?vid=0af88599-6653-4379-a21b-d902e6c6ea7c"},"vehicle_type_id":"4","last_reported":1752865791,"current_range_meters":10800,"station_id":"ce4bhbh2rcd13ifvqepg","pricing_plan_id":"cebpf4jnsgd1na2vs0mg"},{"bike_id":"d045b52a-b4cb-44f3-9ab5-c5907043ce5f","system_id":"levelo_inurba_marseille","lat":43.29574,"lon":5.37519,"is_reserved":false,"is_disabled":false,"rental_uris":{"android":"levelo://app?vid=d045b52a-b4cb-44f3-9ab5-c5907043ce5f","ios":"levelo://app?vid=d045b52a-b4cb-44f3-9ab5-c5907043ce5f"},"vehicle_type_id":"4","last_reported":1752865791,"current_range_meters":10800,"station_id":"ce4bgh92rcd13ifvqb50","pricing_plan_id":"cebpf4jnsgd1na2vs0mg"},{"bike_id":"f53db6d1-119e-43b2-adf6-117aa5548b0e","system_id":"levelo_inurba_marseille","lat":43.2971,"lon":5.36614,"is_reserved":false,"is_disabled":false,"rental_uris":{"android":"levelo://app?vid=f53db6d1-119e-43b2-adf6-117aa5548b0e","ios":"levelo://app?vid=f53db6d1-119e-43b2-adf6-117aa5548b0e"},"vehicle_type_id":"4","last_reported":1752865791,"current_range_meters":10800,"station_id":"ce4bgn12rcd13ifvqbt0","pricing_plan_id":"cebpf4jnsgd1na2vs0mg"},{"bike_id":"81b8982e-0de9-4985-b907-712e742b4afd","system_id":"levelo_inurba_marseille","lat":43.29754,"lon":5.37903,"is_reserved":false,"is_disabled":false,"rental_uris":{"android":"levelo://app?vid=81b8982e-0de9-4985-b907-712e742b4afd","ios":"levelo://app?vid=81b8982e-0de9-4985-b907-712e742b4afd"},"vehicle_type_id":"4","last_reported":1752865791,"current_range_meters":10800,"station_id":"","pricing_plan_id":"cebpf4jnsgd1na2vs0mg"},{"bike_id":"7cdc0f74-21ff-463c-956e-138e9bcfb900","system_id":"levelo_inurba_marseille","lat":43.29515,"lon":5.37503,"is_reserved":false,"is_disabled":false,"rental_uris":{"android":"levelo://app?vid=7cdc0f74-21ff-463c-956e-138e9bcfb900","ios":"levelo://app?vid=7cdc0f74-21ff-463c-956e-138e9bcfb900"},"vehicle_type_id":"4","last_reported":1752865791,"current_range_meters":10800,"station_id":"ce4bgkp2rcd13ifvqbmg","pricing_plan_id":"cebpf4jnsgd1na2vs0mg"},{"bike_id":"531dca68-8617-41b0-a6cd-abffc94e1d45","system_id":"levelo_inurba_marseille","lat":43.31209,"lon":5.37326,"is_reserved":false,"is_disabled":false,"rental_uris":{"android":"levelo://app?vid=531dca68-8617-41b0-a6cd-abffc94e1d45","ios":"levelo://app?vid=531dca68-8617-41b0-a6cd-abffc94e1d45"},"vehicle_type_id":"4","last_reported":1752865791,"current_range_meters":10800,"station_id":"","pricing_plan_id":"cebpf4jnsgd1na2vs0mg"},{"bike_id":"0c655707-bf47-4eaa-b08f-0b43e99f56ac","system_id":"levelo_inurba_marseille","lat":43.257284,"lon":5.411094,"is_reserved":false,"is_disabled":false,"rental_uris":{"android":"levelo://app?vid=0c655707-bf47-4eaa-b08f-0b43e99f56ac","ios":"levelo://app?vid=0c655707-bf47-4eaa-b08f-0b43e99f56ac"},"vehicle_type_id":"4","last_reported":1752865791,"current_range_meters":10000,"station_id":"ce4bhkp2rcd13ifvqgd0","pricing_plan_id":"cebpf4jnsgd1na2vs0mg"},{"bike_id":"c4482a79-5623-48c2-a8f8-5b58df29e6e7","system_id":"levelo_inurba_marseille","lat":43.30948,"lon":5.39035,"is_reserved":false,"is_disabled":false,"rental_uris":{"android":"levelo://app?vid=c4482a79-5623-48c2-a8f8-5b58df29e6e7","ios":"levelo://app?vid=c4482a79-5623-48c2-a8f8-5b58df29e6e7"},"vehicle_type_id":"4","last_reported":1752865791,"current_range_meters":10800,"station_id":"ce4bgup2rcd13ifvqco0","pricing_plan_id":"cebpf4jnsgd1na2vs0mg"},{"bike_id":"08d7ef87-4199-4137-931e-8c2a99c24a2d","system_id":"levelo_inurba_marseille","lat":43.30729,"lon":5.42433,"is_reserved":false,"is_disabled":false,"rental_uris":{"android":"levelo://app?vid=08d7ef87-4199-4137-931e-8c2a99c24a2d","ios":"levelo://app?vid=08d7ef87-4199-4137-931e-8c2a99c24a2d"},"vehicle_type_id":"4","last_reported":1752865791,"current_range_meters":11200,"station_id":"st_cvj6ca6bvosntc0bfgr0","pricing_plan_id":"cebpf4jnsgd1na2vs0mg"},{"bike_id":"e332125e-6159-42a4-a81f-9578929b9959","system_id":"levelo_inurba_marseille","lat":43.28415,"lon":5.34994,"is_reserved":false,"is_disabled":false,"rental_uris":{"android":"levelo://app?vid=e332125e-6159-42a4-a81f-9578929b9959","ios":"levelo://app?vid=e332125e-6159-42a4-a81f-9578929b9959"},"vehicle_type_id":"4","last_reported":1752865791,"current_range_meters":11200,"station_id":"ce4bhbh2rcd13ifvqepg","pricing_plan_id":"cebpf4jnsgd1na2vs0mg"},{"bike_id":"19a132eb-eabe-4458-b51a-290475376a1e","system_id":"levelo_inurba_marseille","lat":43.29029,"lon":5.38131,"is_reserved":false,"is_disabled":false,"rental_uris":{"android":"levelo://app?vid=19a132eb-eabe-4458-b51a-290475376a1e","ios":"levelo://app?vid=19a132eb-eabe-4458-b51a-290475376a1e"},"vehicle_type_id":"4","last_reported":1752865791,"current_range_meters":11200,"station_id":"ce4bh4p2rcd13ifvqe1g","pricing_plan_id":"cebpf4jnsgd1na2vs0mg"},{"bike_id":"cd632b59-0e3a-4e0b-9999-f0250b7098b5","system_id":"levelo_inurba_marseille","lat":43.270705,"lon":5.42279,"is_reserved":false,"is_disabled":false,"rental_uris":{"android":"levelo://app?vid=cd632b59-0e3a-4e0b-9999-f0250b7098b5","ios":"levelo://app?vid=cd632b59-0e3a-4e0b-9999-f0250b7098b5"},"vehicle_type_id":"4","last_reported":1752865791,"current_range_meters":11200,"station_id":"ce4bhk92rcd13ifvqgb0","pricing_plan_id":"cebpf4jnsgd1na2vs0mg"},{"bike_id":"faf97bef-ed3e-4e34-ba6b-a9713c79155c","system_id":"levelo_inurba_marseille","lat":43.21743,"lon":5.34602,"is_reserved":false,"is_disabled":false,"rental_uris":{"android":"levelo://app?vid=faf97bef-ed3e-4e34-ba6b-a9713c79155c","ios":"levelo://app?vid=faf97bef-ed3e-4e34-ba6b-a9713c79155c"},"vehicle_type_id":"4","last_reported":1752865791,"current_range_meters":11200,"station_id":"st_cvj6r9ubvosntc0bgbag","pricing_plan_id":"cebpf4jnsgd1na2vs0mg"},{"bike_id":"e733f3ef-6dfc-43dd-9799-b7bd8a5de382","system_id":"levelo_inurba_marseille","lat":43.29302,"lon":5.37173,"is_reserved":false,"is_disabled":false,"rental_uris":{"android":"levelo://app?vid=e733f3ef-6dfc-43dd-9799-b7bd8a5de382","ios":"levelo://app?vid=e733f3ef-6dfc-43dd-9799-b7bd8a5de382"},"vehicle_type_id":"4","last_reported":1752865791,"current_range_meters":11200,"station_id":"ce4bgh92rcd13ifvqb40","pricing_plan_id":"cebpf4jnsgd1na2vs0mg"},{"bike_id":"aec74d05-87db-4019-a15b-f438d3f26ba8","system_id":"levelo_inurba_marseille","lat":43.295557,"lon":5.422907,"is_reserved":false,"is_disabled":false,"rental_uris":{"android":"levelo://app?vid=aec74d05-87db-4019-a15b-f438d3f26ba8","ios":"levelo://app?vid=aec74d05-87db-4019-a15b-f438d3f26ba8"},"vehicle_type_id":"4","last_reported":1752865791,"current_range_meters":11200,"station_id":"ce4bhph2rcd13ifvqhdg","pricing_plan_id":"cebpf4jnsgd1na2vs0mg"},{"bike_id":"8cbf67ac-351a-483f-a8fe-dcc5448138a6","system_id":"levelo_inurba_marseille","lat":43.27282,"lon":5.39169,"is_reserved":false,"is_disabled":false,"rental_uris":{"android":"levelo://app?vid=8cbf67ac-351a-483f-a8fe-dcc5448138a6","ios":"levelo://app?vid=8cbf67ac-351a-483f-a8fe-dcc5448138a6"},"vehicle_type_id":"4","last_reported":1752865791,"current_range_meters":11600,"station_id":"","pricing_plan_id":"cebpf4jnsgd1na2vs0mg"},{"bike_id":"e7050217-aeaf-4498-9dda-11a6bd5f32db","system_id":"levelo_inurba_marseille","lat":43.27208,"lon":5.39177,"is_reserved":false,"is_disabled":false,"rental_uris":{"android":"levelo://app?vid=e7050217-aeaf-4498-9dda-11a6bd5f32db","ios":"levelo://app?vid=e7050217-aeaf-4498-9dda-11a6bd5f32db"},"vehicle_type_id":"4","last_reported":1752865791,"current_range_meters":11200,"station_id":"ce4bhhp2rcd13ifvqfm0","pricing_plan_id":"cebpf4jnsgd1na2vs0mg"},{"bike_id":"537df271-1e3d-4ffc-ad70-ada379266803","system_id":"levelo_inurba_marseille","lat":43.21749,"lon":5.34597,"is_reserved":false,"is_disabled":false,"rental_uris":{"android":"levelo://app?vid=537df271-1e3d-4ffc-ad70-ada379266803","ios":"levelo://app?vid=537df271-1e3d-4ffc-ad70-ada379266803"},"vehicle_type_id":"4","last_reported":1752865791,"current_range_meters":11600,"station_id":"st_cvj6r9ubvosntc0bgbag","pricing_plan_id":"cebpf4jnsgd1na2vs0mg"},{"bike_id":"98346365-b12c-465d-8190-519d590db70f","system_id":"levelo_inurba_marseille","lat":43.26211,"lon":5.37437,"is_reserved":false,"is_disabled":false,"rental_uris":{"android":"levelo://app?vid=98346365-b12c-465d-8190-519d590db70f","ios":"levelo://app?vid=98346365-b12c-465d-8190-519d590db70f"},"vehicle_type_id":"4","last_reported":1752865791,"current_range_meters":11600,"station_id":"ce4bhgp2rcd13ifvqfc0","pricing_plan_id":"cebpf4jnsgd1na2vs0mg"},{"bike_id":"18e58cc3-c237-43e5-8d52-2e4a3624b70d","system_id":"levelo_inurba_marseille","lat":43.295459,"lon":5.422995,"is_reserved":false,"is_disabled":false,"rental_uris":{"android":"levelo://app?vid=18e58cc3-c237-43e5-8d52-2e4a3624b70d","ios":"levelo://app?vid=18e58cc3-c237-43e5-8d52-2e4a3624b70d"},"vehicle_type_id":"4","last_reported":1752865791,"current_range_meters":11600,"station_id":"ce4bhph2rcd13ifvqhdg","pricing_plan_id":"cebpf4jnsgd1na2vs0mg"},{"bike_id":"b18457b6-b744-4542-873e-ebb7266cf94f","system_id":"levelo_inurba_marseille","lat":43.28607,"lon":5.37065,"is_reserved":false,"is_disabled":false,"rental_uris":{"android":"levelo://app?vid=b18457b6-b744-4542-873e-ebb7266cf94f","ios":"levelo://app?vid=b18457b6-b744-4542-873e-ebb7266cf94f"},"vehicle_type_id":"4","last_reported":1752865791,"current_range_meters":11600,"station_id":"ce4bht12rcd13ifvqi60","pricing_plan_id":"cebpf4jnsgd1na2vs0mg"},{"bike_id":"b004baab-db70-453e-84a5-9312df4bd1d6","system_id":"levelo_inurba_marseille","lat":43.22512,"lon":5.34782,"is_reserved":false,"is_disabled":false,"rental_uris":{"android":"levelo://app?vid=b004baab-db70-453e-84a5-9312df4bd1d6","ios":"levelo://app?vid=b004baab-db70-453e-84a5-9312df4bd1d6"},"vehicle_type_id":"4","last_reported":1752865791,"current_range_meters":11600,"station_id":"st_cvj5dfep6f1abm77gieg","pricing_plan_id":"cebpf4jnsgd1na2vs0mg"},{"bike_id":"00200085-a7f8-4b07-9428-8d0e79ca8ddb","system_id":"levelo_inurba_marseille","lat":43.30952,"lon":5.39031,"is_reserved":false,"is_disabled":false,"rental_uris":{"android":"levelo://app?vid=00200085-a7f8-4b07-9428-8d0e79ca8ddb","ios":"levelo://app?vid=00200085-a7f8-4b07-9428-8d0e79ca8ddb"},"vehicle_type_id":"4","last_reported":1752865791,"current_range_meters":11600,"station_id":"ce4bgup2rcd13ifvqco0","pricing_plan_id":"cebpf4jnsgd1na2vs0mg"},{"bike_id":"39d7d374-8f29-40c7-914e-279403706bf0","system_id":"levelo_inurba_marseille","lat":43.325416,"lon":5.414243,"is_reserved":false,"is_disabled":false,"rental_uris":{"android":"levelo://app?vid=39d7d374-8f29-40c7-914e-279403706bf0","ios":"levelo://app?vid=39d7d374-8f29-40c7-914e-279403706bf0"},"vehicle_type_id":"4","last_reported":1752865791,"current_range_meters":11600,"station_id":"ce4bhq12rcd13ifvqhhg","pricing_plan_id":"cebpf4jnsgd1na2vs0mg"},{"bike_id":"4330fe22-2909-44f8-9027-e8fa37165e50","system_id":"levelo_inurba_marseille","lat":43.29295,"lon":5.37145,"is_reserved":false,"is_disabled":false,"rental_uris":{"android":"levelo://app?vid=4330fe22-2909-44f8-9027-e8fa37165e50","ios":"levelo://app?vid=4330fe22-2909-44f8-9027-e8fa37165e50"},"vehicle_type_id":"4","last_reported":1752865791,"current_range_meters":11600,"station_id":"ce4bgh92rcd13ifvqb40","pricing_plan_id":"cebpf4jnsgd1na2vs0mg"},{"bike_id":"87a703d2-f3e6-494b-9d10-c69ca2e07322","system_id":"levelo_inurba_marseille","lat":43.27941,"lon":5.41045,"is_reserved":false,"is_disabled":false,"rental_uris":{"android":"levelo://app?vid=87a703d2-f3e6-494b-9d10-c69ca2e07322","ios":"levelo://app?vid=87a703d2-f3e6-494b-9d10-c69ca2e07322"},"vehicle_type_id":"4","last_reported":1752865791,"current_range_meters":11600,"station_id":"ce4bhnp2rcd13ifvqh0g","pricing_plan_id":"cebpf4jnsgd1na2vs0mg"},{"bike_id":"5bfc8020-5eeb-4f55-8590-07a9066e573e","system_id":"levelo_inurba_marseille","lat":43.322725,"lon":5.375345,"is_reserved":false,"is_disabled":false,"rental_uris":{"android":"levelo://app?vid=5bfc8020-5eeb-4f55-8590-07a9066e573e","ios":"levelo://app?vid=5bfc8020-5eeb-4f55-8590-07a9066e573e"},"vehicle_type_id":"4","last_reported":1752865791,"current_range_meters":12000,"station_id":"ce4bgv92rcd13ifvqcq0","pricing_plan_id":"cebpf4jnsgd1na2vs0mg"},{"bike_id":"2d95b47d-d06f-40a4-bb6e-c13e954e3c8f","system_id":"levelo_inurba_marseille","lat":43.277199,"lon":5.414214,"is_reserved":false,"is_disabled":false,"rental_uris":{"android":"levelo://app?vid=2d95b47d-d06f-40a4-bb6e-c13e954e3c8f","ios":"levelo://app?vid=2d95b47d-d06f-40a4-bb6e-c13e954e3c8f"},"vehicle_type_id":"4","last_reported":1752865791,"current_range_meters":12000,"station_id":"","pricing_plan_id":"cebpf4jnsgd1na2vs0mg"},{"bike_id":"ce7bd25b-5213-4881-a28b-f582e6a1d712","system_id":"levelo_inurba_marseille","lat":43.31373,"lon":5.36775,"is_reserved":false,"is_disabled":true,"rental_uris":{"android":"levelo://app?vid=ce7bd25b-5213-4881-a28b-f582e6a1d712","ios":"levelo://app?vid=ce7bd25b-5213-4881-a28b-f582e6a1d712"},"vehicle_type_id":"4","last_reported":1752865791,"current_range_meters":12000,"station_id":"ce4bgr92rcd13ifvqc6g","pricing_plan_id":"cebpf4jnsgd1na2vs0mg"},{"bike_id":"00ecada3-8577-4c51-98e2-f760bc2bb718","system_id":"levelo_inurba_marseille","lat":43.29413,"lon":5.4323,"is_reserved":false,"is_disabled":false,"rental_uris":{"android":"levelo://app?vid=00ecada3-8577-4c51-98e2-f760bc2bb718","ios":"levelo://app?vid=00ecada3-8577-4c51-98e2-f760bc2bb718"},"vehicle_type_id":"4","last_reported":1752865791,"current_range_meters":12000,"station_id":"","pricing_plan_id":"cebpf4jnsgd1na2vs0mg"},{"bike_id":"b5796d6a-464e-46ce-8efb-d20718f1afa3","system_id":"levelo_inurba_marseille","lat":43.28846,"lon":5.39319,"is_reserved":false,"is_disabled":false,"rental_uris":{"android":"levelo://app?vid=b5796d6a-464e-46ce-8efb-d20718f1afa3","ios":"levelo://app?vid=b5796d6a-464e-46ce-8efb-d20718f1afa3"},"vehicle_type_id":"4","last_reported":1752865791,"current_range_meters":12400,"station_id":"ce4bh2p2rcd13ifvqdi0","pricing_plan_id":"cebpf4jnsgd1na2vs0mg"},{"bike_id":"c6db0f6a-96fe-4e1d-8ded-c2ef38c9bab4","system_id":"levelo_inurba_marseille","lat":43.304183,"lon":5.412838,"is_reserved":false,"is_disabled":true,"rental_uris":{"android":"levelo://app?vid=c6db0f6a-96fe-4e1d-8ded-c2ef38c9bab4","ios":"levelo://app?vid=c6db0f6a-96fe-4e1d-8ded-c2ef38c9bab4"},"vehicle_type_id":"4","last_reported":1752865791,"current_range_meters":12400,"station_id":"ce4bhop2rcd13ifvqh8g","pricing_plan_id":"cebpf4jnsgd1na2vs0mg"},{"bike_id":"28279007-0cad-4da0-95f8-c058a3457363","system_id":"levelo_inurba_marseille","lat":43.28432,"lon":5.34976,"is_reserved":false,"is_disabled":false,"rental_uris":{"android":"levelo://app?vid=28279007-0cad-4da0-95f8-c058a3457363","ios":"levelo://app?vid=28279007-0cad-4da0-95f8-c058a3457363"},"vehicle_type_id":"4","last_reported":1752865791,"current_range_meters":12400,"station_id":"ce4bhbh2rcd13ifvqepg","pricing_plan_id":"cebpf4jnsgd1na2vs0mg"},{"bike_id":"3a0f1fe1-54c9-43f9-8fe1-1708ed7ae544","system_id":"levelo_inurba_marseille","lat":43.28237,"lon":5.37244,"is_reserved":false,"is_disabled":false,"rental_uris":{"android":"levelo://app?vid=3a0f1fe1-54c9-43f9-8fe1-1708ed7ae544","ios":"levelo://app?vid=3a0f1fe1-54c9-43f9-8fe1-1708ed7ae544"},"vehicle_type_id":"4","last_reported":1752865791,"current_range_meters":12400,"station_id":"","pricing_plan_id":"cebpf4jnsgd1na2vs0mg"},{"bike_id":"b4a98468-1c4d-48b7-8148-71efc67381e9","system_id":"levelo_inurba_marseille","lat":43.284058,"lon":5.349791,"is_reserved":false,"is_disabled":false,"rental_uris":{"android":"levelo://app?vid=b4a98468-1c4d-48b7-8148-71efc67381e9","ios":"levelo://app?vid=b4a98468-1c4d-48b7-8148-71efc67381e9"},"vehicle_type_id":"4","last_reported":1752865791,"current_range_meters":12400,"station_id":"","pricing_plan_id":"cebpf4jnsgd1na2vs0mg"},{"bike_id":"ee5510ee-8e3d-4783-a4e9-9921b4c6b7c1","system_id":"levelo_inurba_marseille","lat":43.29584,"lon":5.375133,"is_reserved":false,"is_disabled":false,"rental_uris":{"android":"levelo://app?vid=ee5510ee-8e3d-4783-a4e9-9921b4c6b7c1","ios":"levelo://app?vid=ee5510ee-8e3d-4783-a4e9-9921b4c6b7c1"},"vehicle_type_id":"4","last_reported":1752865791,"current_range_meters":12400,"station_id":"ce4bgh92rcd13ifvqb50","pricing_plan_id":"cebpf4jnsgd1na2vs0mg"},{"bike_id":"c76aaf0f-5997-43b1-be40-116d600c1958","system_id":"levelo_inurba_marseille","lat":43.29001,"lon":5.35612,"is_reserved":false,"is_disabled":false,"rental_uris":{"android":"levelo://app?vid=c76aaf0f-5997-43b1-be40-116d600c1958","ios":"levelo://app?vid=c76aaf0f-5997-43b1-be40-116d600c1958"},"vehicle_type_id":"4","last_reported":1752865791,"current_range_meters":12400,"station_id":"ce4bhb92rcd13ifvqen0","pricing_plan_id":"cebpf4jnsgd1na2vs0mg"},{"bike_id":"f800f272-2096-43d2-9adb-f69df8c17de1","system_id":"levelo_inurba_marseille","lat":43.30943,"lon":5.39035,"is_reserved":false,"is_disabled":false,"rental_uris":{"android":"levelo://app?vid=f800f272-2096-43d2-9adb-f69df8c17de1","ios":"levelo://app?vid=f800f272-2096-43d2-9adb-f69df8c17de1"},"vehicle_type_id":"4","last_reported":1752865791,"current_range_meters":12400,"station_id":"ce4bgup2rcd13ifvqco0","pricing_plan_id":"cebpf4jnsgd1na2vs0mg"},{"bike_id":"925b96b6-c323-4917-a3b9-15aadd396dd7","system_id":"levelo_inurba_marseille","lat":43.31171,"lon":5.38715,"is_reserved":false,"is_disabled":false,"rental_uris":{"android":"levelo://app?vid=925b96b6-c323-4917-a3b9-15aadd396dd7","ios":"levelo://app?vid=925b96b6-c323-4917-a3b9-15aadd396dd7"},"vehicle_type_id":"4","last_reported":1752865791,"current_range_meters":12400,"station_id":"ce4bgv12rcd13ifvqcp0","pricing_plan_id":"cebpf4jnsgd1na2vs0mg"},{"bike_id":"b7036cae-0371-4f43-8b12-b820f48b2f44","system_id":"levelo_inurba_marseille","lat":43.24809,"lon":5.37453,"is_reserved":false,"is_disabled":false,"rental_uris":{"android":"levelo://app?vid=b7036cae-0371-4f43-8b12-b820f48b2f44","ios":"levelo://app?vid=b7036cae-0371-4f43-8b12-b820f48b2f44"},"vehicle_type_id":"4","last_reported":1752865791,"current_range_meters":12400,"station_id":"ce4bhgh2rcd13ifvqfb0","pricing_plan_id":"cebpf4jnsgd1na2vs0mg"},{"bike_id":"7232080a-0ab9-449d-8847-765fcd2dad4f","system_id":"levelo_inurba_marseille","lat":43.311718,"lon":5.387095,"is_reserved":false,"is_disabled":false,"rental_uris":{"android":"levelo://app?vid=7232080a-0ab9-449d-8847-765fcd2dad4f","ios":"levelo://app?vid=7232080a-0ab9-449d-8847-765fcd2dad4f"},"vehicle_type_id":"4","last_reported":1752865791,"current_range_meters":12400,"station_id":"ce4bgv12rcd13ifvqcp0","pricing_plan_id":"cebpf4jnsgd1na2vs0mg"},{"bike_id":"5fcc917c-2c45-421c-8eeb-f93d0001458d","system_id":"levelo_inurba_marseille","lat":43.25502,"lon":5.37646,"is_reserved":false,"is_disabled":false,"rental_uris":{"android":"levelo://app?vid=5fcc917c-2c45-421c-8eeb-f93d0001458d","ios":"levelo://app?vid=5fcc917c-2c45-421c-8eeb-f93d0001458d"},"vehicle_type_id":"4","last_reported":1752865791,"current_range_meters":12400,"station_id":"ce4bhh12rcd13ifvqff0","pricing_plan_id":"cebpf4jnsgd1na2vs0mg"},{"bike_id":"5ac93e7c-286a-4c1e-b6c0-4e9963e5a9f8","system_id":"levelo_inurba_marseille","lat":43.21174,"lon":5.35088,"is_reserved":false,"is_disabled":false,"rental_uris":{"android":"levelo://app?vid=5ac93e7c-286a-4c1e-b6c0-4e9963e5a9f8","ios":"levelo://app?vid=5ac93e7c-286a-4c1e-b6c0-4e9963e5a9f8"},"vehicle_type_id":"4","last_reported":1752865791,"current_range_meters":12400,"station_id":"st_cvj6sg6p6f1abm77japg","pricing_plan_id":"cebpf4jnsgd1na2vs0mg"},{"bike_id":"39f4ac1b-400c-4a6d-aea4-256a9f6c8df2","system_id":"levelo_inurba_marseille","lat":43.30147,"lon":5.38073,"is_reserved":false,"is_disabled":false,"rental_uris":{"android":"levelo://app?vid=39f4ac1b-400c-4a6d-aea4-256a9f6c8df2","ios":"levelo://app?vid=39f4ac1b-400c-4a6d-aea4-256a9f6c8df2"},"vehicle_type_id":"4","last_reported":1752865791,"current_range_meters":12800,"station_id":"ce4bgjp2rcd13ifvqbh0","pricing_plan_id":"cebpf4jnsgd1na2vs0mg"},{"bike_id":"4607398c-5481-406b-ba58-548c4b76f331","system_id":"levelo_inurba_marseille","lat":43.271854,"lon":5.362776,"is_reserved":false,"is_disabled":false,"rental_uris":{"android":"levelo://app?vid=4607398c-5481-406b-ba58-548c4b76f331","ios":"levelo://app?vid=4607398c-5481-406b-ba58-548c4b76f331"},"vehicle_type_id":"4","last_reported":1752865791,"current_range_meters":12800,"station_id":"","pricing_plan_id":"cebpf4jnsgd1na2vs0mg"},{"bike_id":"35965273-4af4-457c-87a3-4f7523a4ce80","system_id":"levelo_inurba_marseille","lat":43.29009,"lon":5.35619,"is_reserved":false,"is_disabled":true,"rental_uris":{"android":"levelo://app?vid=35965273-4af4-457c-87a3-4f7523a4ce80","ios":"levelo://app?vid=35965273-4af4-457c-87a3-4f7523a4ce80"},"vehicle_type_id":"4","last_reported":1752865791,"current_range_meters":12800,"station_id":"ce4bhb92rcd13ifvqen0","pricing_plan_id":"cebpf4jnsgd1na2vs0mg"},{"bike_id":"9e46aa88-7b19-47c3-b789-71b8902b53cb","system_id":"levelo_inurba_marseille","lat":43.281493,"lon":5.426358,"is_reserved":false,"is_disabled":false,"rental_uris":{"android":"levelo://app?vid=9e46aa88-7b19-47c3-b789-71b8902b53cb","ios":"levelo://app?vid=9e46aa88-7b19-47c3-b789-71b8902b53cb"},"vehicle_type_id":"4","last_reported":1752865791,"current_range_meters":12800,"station_id":"ce4bhnh2rcd13ifvqgug","pricing_plan_id":"cebpf4jnsgd1na2vs0mg"},{"bike_id":"7232ee08-5003-42ae-9f5f-daf96cb6b66e","system_id":"levelo_inurba_marseille","lat":43.24807,"lon":5.37441,"is_reserved":false,"is_disabled":false,"rental_uris":{"android":"levelo://app?vid=7232ee08-5003-42ae-9f5f-daf96cb6b66e","ios":"levelo://app?vid=7232ee08-5003-42ae-9f5f-daf96cb6b66e"},"vehicle_type_id":"4","last_reported":1752865791,"current_range_meters":12800,"station_id":"ce4bhgh2rcd13ifvqfb0","pricing_plan_id":"cebpf4jnsgd1na2vs0mg"},{"bike_id":"be60c88c-1453-4626-be80-200258f79626","system_id":"levelo_inurba_marseille","lat":43.23191,"lon":5.35548,"is_reserved":false,"is_disabled":false,"rental_uris":{"android":"levelo://app?vid=be60c88c-1453-4626-be80-200258f79626","ios":"levelo://app?vid=be60c88c-1453-4626-be80-200258f79626"},"vehicle_type_id":"4","last_reported":1752865791,"current_range_meters":12800,"station_id":"ce4bhu92rcd13ifvqi70","pricing_plan_id":"cebpf4jnsgd1na2vs0mg"},{"bike_id":"ef8bfc52-abb6-4e5d-9e17-c2920f2a8e00","system_id":"levelo_inurba_marseille","lat":43.28425,"lon":5.34992,"is_reserved":false,"is_disabled":false,"rental_uris":{"android":"levelo://app?vid=ef8bfc52-abb6-4e5d-9e17-c2920f2a8e00","ios":"levelo://app?vid=ef8bfc52-abb6-4e5d-9e17-c2920f2a8e00"},"vehicle_type_id":"4","last_reported":1752865791,"current_range_meters":12800,"station_id":"ce4bhbh2rcd13ifvqepg","pricing_plan_id":"cebpf4jnsgd1na2vs0mg"},{"bike_id":"04f2246f-8871-48ec-8d92-d2e598ade6c7","system_id":"levelo_inurba_marseille","lat":43.259614,"lon":5.374075,"is_reserved":false,"is_disabled":false,"rental_uris":{"android":"levelo://app?vid=04f2246f-8871-48ec-8d92-d2e598ade6c7","ios":"levelo://app?vid=04f2246f-8871-48ec-8d92-d2e598ade6c7"},"vehicle_type_id":"4","last_reported":1752865791,"current_range_meters":12800,"station_id":"ce4bhg12rcd13ifvqf70","pricing_plan_id":"cebpf4jnsgd1na2vs0mg"},{"bike_id":"428a1c24-f5b8-4fa6-ac34-d878aa141dc8","system_id":"levelo_inurba_marseille","lat":43.293087,"lon":5.371775,"is_reserved":false,"is_disabled":false,"rental_uris":{"android":"levelo://app?vid=428a1c24-f5b8-4fa6-ac34-d878aa141dc8","ios":"levelo://app?vid=428a1c24-f5b8-4fa6-ac34-d878aa141dc8"},"vehicle_type_id":"4","last_reported":1752865791,"current_range_meters":13600,"station_id":"ce4bgh92rcd13ifvqb40","pricing_plan_id":"cebpf4jnsgd1na2vs0mg"},{"bike_id":"17c76267-52dd-40e4-8752-e830056aab75","system_id":"levelo_inurba_marseille","lat":43.33605,"lon":5.41032,"is_reserved":false,"is_disabled":false,"rental_uris":{"android":"levelo://app?vid=17c76267-52dd-40e4-8752-e830056aab75","ios":"levelo://app?vid=17c76267-52dd-40e4-8752-e830056aab75"},"vehicle_type_id":"4","last_reported":1752865791,"current_range_meters":13600,"station_id":"ce4bhqh2rcd13ifvqhmg","pricing_plan_id":"cebpf4jnsgd1na2vs0mg"},{"bike_id":"f872da29-3864-433e-9d64-838334e7d10f","system_id":"levelo_inurba_marseille","lat":43.26212,"lon":5.37441,"is_reserved":false,"is_disabled":false,"rental_uris":{"android":"levelo://app?vid=f872da29-3864-433e-9d64-838334e7d10f","ios":"levelo://app?vid=f872da29-3864-433e-9d64-838334e7d10f"},"vehicle_type_id":"4","last_reported":1752865791,"current_range_meters":13600,"station_id":"ce4bhgp2rcd13ifvqfc0","pricing_plan_id":"cebpf4jnsgd1na2vs0mg"},{"bike_id":"0f50f91d-b1a4-4c34-9f38-624326b8c320","system_id":"levelo_inurba_marseille","lat":43.26209,"lon":5.3743,"is_reserved":false,"is_disabled":false,"rental_uris":{"android":"levelo://app?vid=0f50f91d-b1a4-4c34-9f38-624326b8c320","ios":"levelo://app?vid=0f50f91d-b1a4-4c34-9f38-624326b8c320"},"vehicle_type_id":"4","last_reported":1752865791,"current_range_meters":13600,"station_id":"ce4bhgp2rcd13ifvqfc0","pricing_plan_id":"cebpf4jnsgd1na2vs0mg"},{"bike_id":"9ffb9a4e-9204-4c02-845b-b7934f9ddae9","system_id":"levelo_inurba_marseille","lat":43.2842,"lon":5.34983,"is_reserved":false,"is_disabled":false,"rental_uris":{"android":"levelo://app?vid=9ffb9a4e-9204-4c02-845b-b7934f9ddae9","ios":"levelo://app?vid=9ffb9a4e-9204-4c02-845b-b7934f9ddae9"},"vehicle_type_id":"4","last_reported":1752865791,"current_range_meters":13600,"station_id":"ce4bhbh2rcd13ifvqepg","pricing_plan_id":"cebpf4jnsgd1na2vs0mg"},{"bike_id":"0cd592d2-b626-4f5b-b154-753a877dad4e","system_id":"levelo_inurba_marseille","lat":43.293004,"lon":5.374605,"is_reserved":false,"is_disabled":false,"rental_uris":{"android":"levelo://app?vid=0cd592d2-b626-4f5b-b154-753a877dad4e","ios":"levelo://app?vid=0cd592d2-b626-4f5b-b154-753a877dad4e"},"vehicle_type_id":"4","last_reported":1752865791,"current_range_meters":13600,"station_id":"ce4bgi12rcd13ifvqb70","pricing_plan_id":"cebpf4jnsgd1na2vs0mg"},{"bike_id":"5c0132f9-4427-4648-b178-caf09d2eddca","system_id":"levelo_inurba_marseille","lat":43.29712,"lon":5.36609,"is_reserved":false,"is_disabled":false,"rental_uris":{"android":"levelo://app?vid=5c0132f9-4427-4648-b178-caf09d2eddca","ios":"levelo://app?vid=5c0132f9-4427-4648-b178-caf09d2eddca"},"vehicle_type_id":"4","last_reported":1752865791,"current_range_meters":13600,"station_id":"ce4bgn12rcd13ifvqbt0","pricing_plan_id":"cebpf4jnsgd1na2vs0mg"},{"bike_id":"75d2ae78-e24b-40b8-baae-d3e60f2314f9","system_id":"levelo_inurba_marseille","lat":43.29424,"lon":5.38597,"is_reserved":false,"is_disabled":false,"rental_uris":{"android":"levelo://app?vid=75d2ae78-e24b-40b8-baae-d3e60f2314f9","ios":"levelo://app?vid=75d2ae78-e24b-40b8-baae-d3e60f2314f9"},"vehicle_type_id":"4","last_reported":1752865791,"current_range_meters":13600,"station_id":"ce4bh2h2rcd13ifvqdh0","pricing_plan_id":"cebpf4jnsgd1na2vs0mg"},{"bike_id":"f258ff73-2a49-4a60-9ce6-6f7708c10850","system_id":"levelo_inurba_marseille","lat":43.302292,"lon":5.387098,"is_reserved":false,"is_disabled":false,"rental_uris":{"android":"levelo://app?vid=f258ff73-2a49-4a60-9ce6-6f7708c10850","ios":"levelo://app?vid=f258ff73-2a49-4a60-9ce6-6f7708c10850"},"vehicle_type_id":"4","last_reported":1752865791,"current_range_meters":13600,"station_id":"","pricing_plan_id":"cebpf4jnsgd1na2vs0mg"},{"bike_id":"7c3ac51b-08b2-4631-8db9-0fe9e1c855ce","system_id":"levelo_inurba_marseille","lat":43.276219,"lon":5.361035,"is_reserved":false,"is_disabled":false,"rental_uris":{"android":"levelo://app?vid=7c3ac51b-08b2-4631-8db9-0fe9e1c855ce","ios":"levelo://app?vid=7c3ac51b-08b2-4631-8db9-0fe9e1c855ce"},"vehicle_type_id":"4","last_reported":1752865791,"current_range_meters":13600,"station_id":"ce4bgj92rcd13ifvqbe0","pricing_plan_id":"cebpf4jnsgd1na2vs0mg"},{"bike_id":"cfb52d04-9134-4c86-8269-771716b20f27","system_id":"levelo_inurba_marseille","lat":43.21188,"lon":5.35081,"is_reserved":false,"is_disabled":false,"rental_uris":{"android":"levelo://app?vid=cfb52d04-9134-4c86-8269-771716b20f27","ios":"levelo://app?vid=cfb52d04-9134-4c86-8269-771716b20f27"},"vehicle_type_id":"4","last_reported":1752865791,"current_range_meters":13600,"station_id":"st_cvj6sg6p6f1abm77japg","pricing_plan_id":"cebpf4jnsgd1na2vs0mg"},{"bike_id":"df3ac3d5-b38e-48e5-8016-6b94ffcd8782","system_id":"levelo_inurba_marseille","lat":43.29933,"lon":5.36539,"is_reserved":false,"is_disabled":false,"rental_uris":{"android":"levelo://app?vid=df3ac3d5-b38e-48e5-8016-6b94ffcd8782","ios":"levelo://app?vid=df3ac3d5-b38e-48e5-8016-6b94ffcd8782"},"vehicle_type_id":"4","last_reported":1752865791,"current_range_meters":14000,"station_id":"ce4bgm92rcd13ifvqbr0","pricing_plan_id":"cebpf4jnsgd1na2vs0mg"},{"bike_id":"0b250332-c99a-4726-ac2a-74deb04ffed3","system_id":"levelo_inurba_marseille","lat":43.27924,"lon":5.39554,"is_reserved":false,"is_disabled":true,"rental_uris":{"android":"levelo://app?vid=0b250332-c99a-4726-ac2a-74deb04ffed3","ios":"levelo://app?vid=0b250332-c99a-4726-ac2a-74deb04ffed3"},"vehicle_type_id":"4","last_reported":1752865791,"current_range_meters":14000,"station_id":"ce4bhf92rcd13ifvqf40","pricing_plan_id":"cebpf4jnsgd1na2vs0mg"},{"bike_id":"797e03c8-9856-46a2-bf76-6e379de6361f","system_id":"levelo_inurba_marseille","lat":43.24812,"lon":5.37459,"is_reserved":false,"is_disabled":true,"rental_uris":{"android":"levelo://app?vid=797e03c8-9856-46a2-bf76-6e379de6361f","ios":"levelo://app?vid=797e03c8-9856-46a2-bf76-6e379de6361f"},"vehicle_type_id":"4","last_reported":1752865791,"current_range_meters":14000,"station_id":"ce4bhgh2rcd13ifvqfb0","pricing_plan_id":"cebpf4jnsgd1na2vs0mg"},{"bike_id":"e99b7f11-7256-4f7b-ab4b-8ab888f22522","system_id":"levelo_inurba_marseille","lat":43.30946,"lon":5.3904,"is_reserved":false,"is_disabled":false,"rental_uris":{"android":"levelo://app?vid=e99b7f11-7256-4f7b-ab4b-8ab888f22522","ios":"levelo://app?vid=e99b7f11-7256-4f7b-ab4b-8ab888f22522"},"vehicle_type_id":"4","last_reported":1752865791,"current_range_meters":14000,"station_id":"ce4bgup2rcd13ifvqco0","pricing_plan_id":"cebpf4jnsgd1na2vs0mg"},{"bike_id":"3a51bba3-9430-4789-9ea4-5c7316f8ee5f","system_id":"levelo_inurba_marseille","lat":43.28849,"lon":5.39293,"is_reserved":false,"is_disabled":false,"rental_uris":{"android":"levelo://app?vid=3a51bba3-9430-4789-9ea4-5c7316f8ee5f","ios":"levelo://app?vid=3a51bba3-9430-4789-9ea4-5c7316f8ee5f"},"vehicle_type_id":"4","last_reported":1752865791,"current_range_meters":14000,"station_id":"ce4bh2p2rcd13ifvqdi0","pricing_plan_id":"cebpf4jnsgd1na2vs0mg"},{"bike_id":"d6a716d6-742e-403e-9c78-02403911bb45","system_id":"levelo_inurba_marseille","lat":43.29528,"lon":5.37481,"is_reserved":false,"is_disabled":false,"rental_uris":{"android":"levelo://app?vid=d6a716d6-742e-403e-9c78-02403911bb45","ios":"levelo://app?vid=d6a716d6-742e-403e-9c78-02403911bb45"},"vehicle_type_id":"4","last_reported":1752865791,"current_range_meters":14000,"station_id":"ce4bgkp2rcd13ifvqbmg","pricing_plan_id":"cebpf4jnsgd1na2vs0mg"},{"bike_id":"b7fe52dd-f025-4212-9e78-19e7f6f09593","system_id":"levelo_inurba_marseille","lat":43.21208,"lon":5.35082,"is_reserved":false,"is_disabled":false,"rental_uris":{"android":"levelo://app?vid=b7fe52dd-f025-4212-9e78-19e7f6f09593","ios":"levelo://app?vid=b7fe52dd-f025-4212-9e78-19e7f6f09593"},"vehicle_type_id":"4","last_reported":1752865791,"current_range_meters":14000,"station_id":"st_cvj6sg6p6f1abm77japg","pricing_plan_id":"cebpf4jnsgd1na2vs0mg"},{"bike_id":"70a3940c-c40a-4ef4-8e48-8b68d4968bc7","system_id":"levelo_inurba_marseille","lat":43.23963,"lon":5.36624,"is_reserved":false,"is_disabled":true,"rental_uris":{"android":"levelo://app?vid=70a3940c-c40a-4ef4-8e48-8b68d4968bc7","ios":"levelo://app?vid=70a3940c-c40a-4ef4-8e48-8b68d4968bc7"},"vehicle_type_id":"4","last_reported":1752865791,"current_range_meters":14400,"station_id":"ce4bhi12rcd13ifvqfp0","pricing_plan_id":"cebpf4jnsgd1na2vs0mg"},{"bike_id":"ed363eca-5d4f-421a-9a90-2a6a6c1b16f5","system_id":"levelo_inurba_marseille","lat":43.31325,"lon":5.39686,"is_reserved":false,"is_disabled":false,"rental_uris":{"android":"levelo://app?vid=ed363eca-5d4f-421a-9a90-2a6a6c1b16f5","ios":"levelo://app?vid=ed363eca-5d4f-421a-9a90-2a6a6c1b16f5"},"vehicle_type_id":"4","last_reported":1752865791,"current_range_meters":14000,"station_id":"ce4bgvp2rcd13ifvqcu0","pricing_plan_id":"cebpf4jnsgd1na2vs0mg"},{"bike_id":"c3ac509c-e93b-452a-bc2a-82079aaa6a85","system_id":"levelo_inurba_marseille","lat":43.30602,"lon":5.4043,"is_reserved":false,"is_disabled":false,"rental_uris":{"android":"levelo://app?vid=c3ac509c-e93b-452a-bc2a-82079aaa6a85","ios":"levelo://app?vid=c3ac509c-e93b-452a-bc2a-82079aaa6a85"},"vehicle_type_id":"4","last_reported":1752865791,"current_range_meters":14400,"station_id":"","pricing_plan_id":"cebpf4jnsgd1na2vs0mg"},{"bike_id":"6bc46352-3613-4111-9c1c-0f3e32161845","system_id":"levelo_inurba_marseille","lat":43.31704,"lon":5.3764,"is_reserved":false,"is_disabled":false,"rental_uris":{"android":"levelo://app?vid=6bc46352-3613-4111-9c1c-0f3e32161845","ios":"levelo://app?vid=6bc46352-3613-4111-9c1c-0f3e32161845"},"vehicle_type_id":"4","last_reported":1752865791,"current_range_meters":14400,"station_id":"","pricing_plan_id":"cebpf4jnsgd1na2vs0mg"},{"bike_id":"2132c597-e825-4845-8e46-a75cb64c9c65","system_id":"levelo_inurba_marseille","lat":43.29686,"lon":5.37289,"is_reserved":false,"is_disabled":false,"rental_uris":{"android":"levelo://app?vid=2132c597-e825-4845-8e46-a75cb64c9c65","ios":"levelo://app?vid=2132c597-e825-4845-8e46-a75cb64c9c65"},"vehicle_type_id":"4","last_reported":1752865791,"current_range_meters":14000,"station_id":"ce4bgk12rcd13ifvqbj0","pricing_plan_id":"cebpf4jnsgd1na2vs0mg"},{"bike_id":"875c54d1-d482-41a0-a842-ab403fef70c7","system_id":"levelo_inurba_marseille","lat":43.30461,"lon":5.379,"is_reserved":false,"is_disabled":false,"rental_uris":{"android":"levelo://app?vid=875c54d1-d482-41a0-a842-ab403fef70c7","ios":"levelo://app?vid=875c54d1-d482-41a0-a842-ab403fef70c7"},"vehicle_type_id":"4","last_reported":1752865791,"current_range_meters":14000,"station_id":"ce4bgup2rcd13ifvqcn0","pricing_plan_id":"cebpf4jnsgd1na2vs0mg"},{"bike_id":"d98bfa48-c937-409e-98df-f145d25cd84d","system_id":"levelo_inurba_marseille","lat":43.27618,"lon":5.36102,"is_reserved":false,"is_disabled":false,"rental_uris":{"android":"levelo://app?vid=d98bfa48-c937-409e-98df-f145d25cd84d","ios":"levelo://app?vid=d98bfa48-c937-409e-98df-f145d25cd84d"},"vehicle_type_id":"4","last_reported":1752865791,"current_range_meters":14400,"station_id":"ce4bgj92rcd13ifvqbe0","pricing_plan_id":"cebpf4jnsgd1na2vs0mg"},{"bike_id":"a67156ae-789e-45f5-ab3f-ed7d95b24540","system_id":"levelo_inurba_marseille","lat":43.21189,"lon":5.35078,"is_reserved":false,"is_disabled":false,"rental_uris":{"android":"levelo://app?vid=a67156ae-789e-45f5-ab3f-ed7d95b24540","ios":"levelo://app?vid=a67156ae-789e-45f5-ab3f-ed7d95b24540"},"vehicle_type_id":"4","last_reported":1752865791,"current_range_meters":14400,"station_id":"st_cvj6sg6p6f1abm77japg","pricing_plan_id":"cebpf4jnsgd1na2vs0mg"},{"bike_id":"bbeb3073-8962-402f-94b3-bf11b62d3173","system_id":"levelo_inurba_marseille","lat":43.26189,"lon":5.37444,"is_reserved":false,"is_disabled":false,"rental_uris":{"android":"levelo://app?vid=bbeb3073-8962-402f-94b3-bf11b62d3173","ios":"levelo://app?vid=bbeb3073-8962-402f-94b3-bf11b62d3173"},"vehicle_type_id":"4","last_reported":1752865791,"current_range_meters":14800,"station_id":"ce4bhgp2rcd13ifvqfc0","pricing_plan_id":"cebpf4jnsgd1na2vs0mg"},{"bike_id":"9a062c18-1339-4369-bc49-a6216ea5caff","system_id":"levelo_inurba_marseille","lat":43.29198,"lon":5.35792,"is_reserved":false,"is_disabled":false,"rental_uris":{"android":"levelo://app?vid=9a062c18-1339-4369-bc49-a6216ea5caff","ios":"levelo://app?vid=9a062c18-1339-4369-bc49-a6216ea5caff"},"vehicle_type_id":"4","last_reported":1752865791,"current_range_meters":14800,"station_id":"ce4bhb12rcd13ifvqel0","pricing_plan_id":"cebpf4jnsgd1na2vs0mg"},{"bike_id":"75c88da5-20ef-4c0c-95d0-3bdd619c760d","system_id":"levelo_inurba_marseille","lat":43.29574,"lon":5.37519,"is_reserved":false,"is_disabled":false,"rental_uris":{"android":"levelo://app?vid=75c88da5-20ef-4c0c-95d0-3bdd619c760d","ios":"levelo://app?vid=75c88da5-20ef-4c0c-95d0-3bdd619c760d"},"vehicle_type_id":"4","last_reported":1752865791,"current_range_meters":14800,"station_id":"ce4bgh92rcd13ifvqb50","pricing_plan_id":"cebpf4jnsgd1na2vs0mg"},{"bike_id":"ac0ed4be-466c-4caa-b855-3c6bbe5a11b5","system_id":"levelo_inurba_marseille","lat":43.267582,"lon":5.371789,"is_reserved":false,"is_disabled":false,"rental_uris":{"android":"levelo://app?vid=ac0ed4be-466c-4caa-b855-3c6bbe5a11b5","ios":"levelo://app?vid=ac0ed4be-466c-4caa-b855-3c6bbe5a11b5"},"vehicle_type_id":"4","last_reported":1752865791,"current_range_meters":14800,"station_id":"","pricing_plan_id":"cebpf4jnsgd1na2vs0mg"},{"bike_id":"1cf1df1f-05bb-4d2e-98ae-aaacfefd3df9","system_id":"levelo_inurba_marseille","lat":43.29216,"lon":5.36074,"is_reserved":false,"is_disabled":false,"rental_uris":{"android":"levelo://app?vid=1cf1df1f-05bb-4d2e-98ae-aaacfefd3df9","ios":"levelo://app?vid=1cf1df1f-05bb-4d2e-98ae-aaacfefd3df9"},"vehicle_type_id":"4","last_reported":1752865791,"current_range_meters":14800,"station_id":"ce4bhbh2rcd13ifvqeqg","pricing_plan_id":"cebpf4jnsgd1na2vs0mg"},{"bike_id":"edd0079d-996b-4ae3-9a31-d781f3a059ec","system_id":"levelo_inurba_marseille","lat":43.33786,"lon":5.37426,"is_reserved":false,"is_disabled":false,"rental_uris":{"android":"levelo://app?vid=edd0079d-996b-4ae3-9a31-d781f3a059ec","ios":"levelo://app?vid=edd0079d-996b-4ae3-9a31-d781f3a059ec"},"vehicle_type_id":"4","last_reported":1752865791,"current_range_meters":14800,"station_id":"","pricing_plan_id":"cebpf4jnsgd1na2vs0mg"},{"bike_id":"9f772b38-3864-4bba-8e9f-486b4cae4e82","system_id":"levelo_inurba_marseille","lat":43.31162,"lon":5.38711,"is_reserved":false,"is_disabled":false,"rental_uris":{"android":"levelo://app?vid=9f772b38-3864-4bba-8e9f-486b4cae4e82","ios":"levelo://app?vid=9f772b38-3864-4bba-8e9f-486b4cae4e82"},"vehicle_type_id":"4","last_reported":1752865791,"current_range_meters":14800,"station_id":"ce4bgv12rcd13ifvqcp0","pricing_plan_id":"cebpf4jnsgd1na2vs0mg"},{"bike_id":"1c241712-06a7-43bc-bf72-9059fef99fdc","system_id":"levelo_inurba_marseille","lat":43.25503,"lon":5.37651,"is_reserved":false,"is_disabled":false,"rental_uris":{"android":"levelo://app?vid=1c241712-06a7-43bc-bf72-9059fef99fdc","ios":"levelo://app?vid=1c241712-06a7-43bc-bf72-9059fef99fdc"},"vehicle_type_id":"4","last_reported":1752865791,"current_range_meters":15200,"station_id":"ce4bhh12rcd13ifvqff0","pricing_plan_id":"cebpf4jnsgd1na2vs0mg"},{"bike_id":"1ec5a8b9-6c71-4d1e-95be-e71a3adc55d2","system_id":"levelo_inurba_marseille","lat":43.21729,"lon":5.34587,"is_reserved":false,"is_disabled":false,"rental_uris":{"android":"levelo://app?vid=1ec5a8b9-6c71-4d1e-95be-e71a3adc55d2","ios":"levelo://app?vid=1ec5a8b9-6c71-4d1e-95be-e71a3adc55d2"},"vehicle_type_id":"4","last_reported":1752865791,"current_range_meters":15200,"station_id":"st_cvj6r9ubvosntc0bgbag","pricing_plan_id":"cebpf4jnsgd1na2vs0mg"},{"bike_id":"ca830025-215f-414c-8edc-96487caf324e","system_id":"levelo_inurba_marseille","lat":43.32276,"lon":5.38284,"is_reserved":false,"is_disabled":false,"rental_uris":{"android":"levelo://app?vid=ca830025-215f-414c-8edc-96487caf324e","ios":"levelo://app?vid=ca830025-215f-414c-8edc-96487caf324e"},"vehicle_type_id":"4","last_reported":1752865791,"current_range_meters":15200,"station_id":"ce4bhr12rcd13ifvqhqg","pricing_plan_id":"cebpf4jnsgd1na2vs0mg"},{"bike_id":"90437366-ee74-49a8-abc4-e285a8ba06f3","system_id":"levelo_inurba_marseille","lat":43.30951,"lon":5.39033,"is_reserved":false,"is_disabled":false,"rental_uris":{"android":"levelo://app?vid=90437366-ee74-49a8-abc4-e285a8ba06f3","ios":"levelo://app?vid=90437366-ee74-49a8-abc4-e285a8ba06f3"},"vehicle_type_id":"4","last_reported":1752865791,"current_range_meters":15200,"station_id":"ce4bgup2rcd13ifvqco0","pricing_plan_id":"cebpf4jnsgd1na2vs0mg"},{"bike_id":"0ffec689-ea73-4886-a8a8-e9075fc0366f","system_id":"levelo_inurba_marseille","lat":43.307334,"lon":5.424514,"is_reserved":false,"is_disabled":true,"rental_uris":{"android":"levelo://app?vid=0ffec689-ea73-4886-a8a8-e9075fc0366f","ios":"levelo://app?vid=0ffec689-ea73-4886-a8a8-e9075fc0366f"},"vehicle_type_id":"4","last_reported":1752865791,"current_range_meters":15200,"station_id":"st_cvj6ca6bvosntc0bfgr0","pricing_plan_id":"cebpf4jnsgd1na2vs0mg"},{"bike_id":"1417ce74-accc-485b-ac2a-bbef2a6f212a","system_id":"levelo_inurba_marseille","lat":43.28396,"lon":5.34968,"is_reserved":false,"is_disabled":false,"rental_uris":{"android":"levelo://app?vid=1417ce74-accc-485b-ac2a-bbef2a6f212a","ios":"levelo://app?vid=1417ce74-accc-485b-ac2a-bbef2a6f212a"},"vehicle_type_id":"4","last_reported":1752865791,"current_range_meters":15200,"station_id":"ce4bhbh2rcd13ifvqepg","pricing_plan_id":"cebpf4jnsgd1na2vs0mg"},{"bike_id":"2d607d82-141c-4902-9d17-a78f2b814556","system_id":"levelo_inurba_marseille","lat":43.30648,"lon":5.40099,"is_reserved":false,"is_disabled":false,"rental_uris":{"android":"levelo://app?vid=2d607d82-141c-4902-9d17-a78f2b814556","ios":"levelo://app?vid=2d607d82-141c-4902-9d17-a78f2b814556"},"vehicle_type_id":"4","last_reported":1752865791,"current_range_meters":14800,"station_id":"ce4bh112rcd13ifvqda0","pricing_plan_id":"cebpf4jnsgd1na2vs0mg"},{"bike_id":"b02a6540-0522-40e0-bdb3-8b4e728cc8c2","system_id":"levelo_inurba_marseille","lat":43.29804,"lon":5.40408,"is_reserved":false,"is_disabled":false,"rental_uris":{"android":"levelo://app?vid=b02a6540-0522-40e0-bdb3-8b4e728cc8c2","ios":"levelo://app?vid=b02a6540-0522-40e0-bdb3-8b4e728cc8c2"},"vehicle_type_id":"4","last_reported":1752865791,"current_range_meters":15200,"station_id":"ce4bh112rcd13ifvqd90","pricing_plan_id":"cebpf4jnsgd1na2vs0mg"},{"bike_id":"5b0aeb4e-ed1e-4834-aca3-0ab8e1052a50","system_id":"levelo_inurba_marseille","lat":43.30098,"lon":5.39065,"is_reserved":false,"is_disabled":false,"rental_uris":{"android":"levelo://app?vid=5b0aeb4e-ed1e-4834-aca3-0ab8e1052a50","ios":"levelo://app?vid=5b0aeb4e-ed1e-4834-aca3-0ab8e1052a50"},"vehicle_type_id":"4","last_reported":1752865791,"current_range_meters":15200,"station_id":"ce4bh192rcd13ifvqdb0","pricing_plan_id":"cebpf4jnsgd1na2vs0mg"},{"bike_id":"0d0de0b9-303c-4307-b3f3-2c356bd89484","system_id":"levelo_inurba_marseille","lat":43.2511,"lon":5.40317,"is_reserved":false,"is_disabled":false,"rental_uris":{"android":"levelo://app?vid=0d0de0b9-303c-4307-b3f3-2c356bd89484","ios":"levelo://app?vid=0d0de0b9-303c-4307-b3f3-2c356bd89484"},"vehicle_type_id":"4","last_reported":1752865791,"current_range_meters":15200,"station_id":"ce4bhlh2rcd13ifvqgig","pricing_plan_id":"cebpf4jnsgd1na2vs0mg"},{"bike_id":"d201e469-7d1d-4ba9-afaa-a7be1bb5c975","system_id":"levelo_inurba_marseille","lat":43.28154,"lon":5.42635,"is_reserved":false,"is_disabled":false,"rental_uris":{"android":"levelo://app?vid=d201e469-7d1d-4ba9-afaa-a7be1bb5c975","ios":"levelo://app?vid=d201e469-7d1d-4ba9-afaa-a7be1bb5c975"},"vehicle_type_id":"4","last_reported":1752865791,"current_range_meters":14800,"station_id":"ce4bhnh2rcd13ifvqgug","pricing_plan_id":"cebpf4jnsgd1na2vs0mg"},{"bike_id":"076a7b82-4934-4b2d-a63c-ec47e05fa63e","system_id":"levelo_inurba_marseille","lat":43.28418,"lon":5.34998,"is_reserved":false,"is_disabled":false,"rental_uris":{"android":"levelo://app?vid=076a7b82-4934-4b2d-a63c-ec47e05fa63e","ios":"levelo://app?vid=076a7b82-4934-4b2d-a63c-ec47e05fa63e"},"vehicle_type_id":"4","last_reported":1752865791,"current_range_meters":16000,"station_id":"ce4bhbh2rcd13ifvqepg","pricing_plan_id":"cebpf4jnsgd1na2vs0mg"},{"bike_id":"5ed7e33c-75eb-4f80-9ced-f5eee5190af4","system_id":"levelo_inurba_marseille","lat":43.295689,"lon":5.422786,"is_reserved":false,"is_disabled":false,"rental_uris":{"android":"levelo://app?vid=5ed7e33c-75eb-4f80-9ced-f5eee5190af4","ios":"levelo://app?vid=5ed7e33c-75eb-4f80-9ced-f5eee5190af4"},"vehicle_type_id":"4","last_reported":1752865791,"current_range_meters":16000,"station_id":"ce4bhph2rcd13ifvqhdg","pricing_plan_id":"cebpf4jnsgd1na2vs0mg"},{"bike_id":"e3406812-3eba-4736-a562-85b146910b8d","system_id":"levelo_inurba_marseille","lat":43.24811,"lon":5.37457,"is_reserved":false,"is_disabled":false,"rental_uris":{"android":"levelo://app?vid=e3406812-3eba-4736-a562-85b146910b8d","ios":"levelo://app?vid=e3406812-3eba-4736-a562-85b146910b8d"},"vehicle_type_id":"4","last_reported":1752865791,"current_range_meters":16000,"station_id":"ce4bhgh2rcd13ifvqfb0","pricing_plan_id":"cebpf4jnsgd1na2vs0mg"},{"bike_id":"08a94e68-7279-4c26-9ca7-7cd2e2f2fe4c","system_id":"levelo_inurba_marseille","lat":43.24166,"lon":5.36386,"is_reserved":false,"is_disabled":true,"rental_uris":{"android":"levelo://app?vid=08a94e68-7279-4c26-9ca7-7cd2e2f2fe4c","ios":"levelo://app?vid=08a94e68-7279-4c26-9ca7-7cd2e2f2fe4c"},"vehicle_type_id":"4","last_reported":1752865791,"current_range_meters":16000,"station_id":"cpo36qri1sfpv3e86is0","pricing_plan_id":"cebpf4jnsgd1na2vs0mg"},{"bike_id":"8e79a85b-71cd-44e2-9769-4ad285ff7c49","system_id":"levelo_inurba_marseille","lat":43.217482,"lon":5.34604,"is_reserved":false,"is_disabled":false,"rental_uris":{"android":"levelo://app?vid=8e79a85b-71cd-44e2-9769-4ad285ff7c49","ios":"levelo://app?vid=8e79a85b-71cd-44e2-9769-4ad285ff7c49"},"vehicle_type_id":"4","last_reported":1752865791,"current_range_meters":16000,"station_id":"st_cvj6r9ubvosntc0bgbag","pricing_plan_id":"cebpf4jnsgd1na2vs0mg"},{"bike_id":"f761a9af-5d64-48c9-a3b3-6f88efdc1f7c","system_id":"levelo_inurba_marseille","lat":43.29909,"lon":5.38149,"is_reserved":false,"is_disabled":false,"rental_uris":{"android":"levelo://app?vid=f761a9af-5d64-48c9-a3b3-6f88efdc1f7c","ios":"levelo://app?vid=f761a9af-5d64-48c9-a3b3-6f88efdc1f7c"},"vehicle_type_id":"4","last_reported":1752865791,"current_range_meters":15200,"station_id":"ce4bgj12rcd13ifvqbc0","pricing_plan_id":"cebpf4jnsgd1na2vs0mg"},{"bike_id":"7bbf4b9c-15d6-4068-aa05-43314952de15","system_id":"levelo_inurba_marseille","lat":43.305629,"lon":5.365323,"is_reserved":false,"is_disabled":false,"rental_uris":{"android":"levelo://app?vid=7bbf4b9c-15d6-4068-aa05-43314952de15","ios":"levelo://app?vid=7bbf4b9c-15d6-4068-aa05-43314952de15"},"vehicle_type_id":"4","last_reported":1752865791,"current_range_meters":15200,"station_id":"ce4bgs12rcd13ifvqcag","pricing_plan_id":"cebpf4jnsgd1na2vs0mg"},{"bike_id":"a95d15e7-1bee-480b-b478-1172ece5ec65","system_id":"levelo_inurba_marseille","lat":43.29567,"lon":5.37522,"is_reserved":false,"is_disabled":false,"rental_uris":{"android":"levelo://app?vid=a95d15e7-1bee-480b-b478-1172ece5ec65","ios":"levelo://app?vid=a95d15e7-1bee-480b-b478-1172ece5ec65"},"vehicle_type_id":"4","last_reported":1752865791,"current_range_meters":16000,"station_id":"ce4bgh92rcd13ifvqb50","pricing_plan_id":"cebpf4jnsgd1na2vs0mg"},{"bike_id":"5722a078-64aa-4789-9f72-f571755e92fd","system_id":"levelo_inurba_marseille","lat":43.2844,"lon":5.34996,"is_reserved":false,"is_disabled":false,"rental_uris":{"android":"levelo://app?vid=5722a078-64aa-4789-9f72-f571755e92fd","ios":"levelo://app?vid=5722a078-64aa-4789-9f72-f571755e92fd"},"vehicle_type_id":"4","last_reported":1752865791,"current_range_meters":16000,"station_id":"ce4bhbh2rcd13ifvqepg","pricing_plan_id":"cebpf4jnsgd1na2vs0mg"},{"bike_id":"137677d1-4023-4569-b26f-01e6b5072a65","system_id":"levelo_inurba_marseille","lat":43.31185,"lon":5.38676,"is_reserved":false,"is_disabled":false,"rental_uris":{"android":"levelo://app?vid=137677d1-4023-4569-b26f-01e6b5072a65","ios":"levelo://app?vid=137677d1-4023-4569-b26f-01e6b5072a65"},"vehicle_type_id":"4","last_reported":1752865791,"current_range_meters":16400,"station_id":"ce4bgv12rcd13ifvqcp0","pricing_plan_id":"cebpf4jnsgd1na2vs0mg"},{"bike_id":"e2848f10-f5a5-47e2-b7cf-419a4ca592bd","system_id":"levelo_inurba_marseille","lat":43.3059,"lon":5.39354,"is_reserved":false,"is_disabled":false,"rental_uris":{"android":"levelo://app?vid=e2848f10-f5a5-47e2-b7cf-419a4ca592bd","ios":"levelo://app?vid=e2848f10-f5a5-47e2-b7cf-419a4ca592bd"},"vehicle_type_id":"4","last_reported":1752865791,"current_range_meters":16400,"station_id":"ce4bh0p2rcd13ifvqd80","pricing_plan_id":"cebpf4jnsgd1na2vs0mg"},{"bike_id":"b8a63fe0-8b58-4bad-86aa-8179ef5291c8","system_id":"levelo_inurba_marseille","lat":43.296,"lon":5.38099,"is_reserved":false,"is_disabled":false,"rental_uris":{"android":"levelo://app?vid=b8a63fe0-8b58-4bad-86aa-8179ef5291c8","ios":"levelo://app?vid=b8a63fe0-8b58-4bad-86aa-8179ef5291c8"},"vehicle_type_id":"4","last_reported":1752865791,"current_range_meters":16400,"station_id":"ce4bgl12rcd13ifvqbo0","pricing_plan_id":"cebpf4jnsgd1na2vs0mg"},{"bike_id":"92e1d5b6-86da-42c2-95b9-b164a907ba3c","system_id":"levelo_inurba_marseille","lat":43.29519,"lon":5.37501,"is_reserved":false,"is_disabled":false,"rental_uris":{"android":"levelo://app?vid=92e1d5b6-86da-42c2-95b9-b164a907ba3c","ios":"levelo://app?vid=92e1d5b6-86da-42c2-95b9-b164a907ba3c"},"vehicle_type_id":"4","last_reported":1752865791,"current_range_meters":16400,"station_id":"ce4bgkp2rcd13ifvqbmg","pricing_plan_id":"cebpf4jnsgd1na2vs0mg"},{"bike_id":"ad17d94f-1b99-4eef-8f5b-d95baf1f20e4","system_id":"levelo_inurba_marseille","lat":43.26576,"lon":5.39005,"is_reserved":false,"is_disabled":false,"rental_uris":{"android":"levelo://app?vid=ad17d94f-1b99-4eef-8f5b-d95baf1f20e4","ios":"levelo://app?vid=ad17d94f-1b99-4eef-8f5b-d95baf1f20e4"},"vehicle_type_id":"4","last_reported":1752865791,"current_range_meters":16400,"station_id":"ce4bhe12rcd13ifvqf30","pricing_plan_id":"cebpf4jnsgd1na2vs0mg"},{"bike_id":"6e7fdf49-e424-46c1-b02b-628c0ea0e41b","system_id":"levelo_inurba_marseille","lat":43.26208,"lon":5.37438,"is_reserved":false,"is_disabled":false,"rental_uris":{"android":"levelo://app?vid=6e7fdf49-e424-46c1-b02b-628c0ea0e41b","ios":"levelo://app?vid=6e7fdf49-e424-46c1-b02b-628c0ea0e41b"},"vehicle_type_id":"4","last_reported":1752865791,"current_range_meters":16400,"station_id":"ce4bhgp2rcd13ifvqfc0","pricing_plan_id":"cebpf4jnsgd1na2vs0mg"},{"bike_id":"262bba80-9a85-4074-97aa-225c3aedc3b7","system_id":"levelo_inurba_marseille","lat":43.30658,"lon":5.40076,"is_reserved":false,"is_disabled":true,"rental_uris":{"android":"levelo://app?vid=262bba80-9a85-4074-97aa-225c3aedc3b7","ios":"levelo://app?vid=262bba80-9a85-4074-97aa-225c3aedc3b7"},"vehicle_type_id":"4","last_reported":1752865791,"current_range_meters":16400,"station_id":"ce4bh112rcd13ifvqda0","pricing_plan_id":"cebpf4jnsgd1na2vs0mg"},{"bike_id":"0916292f-c60f-4ec2-a3c5-bb862cec8507","system_id":"levelo_inurba_marseille","lat":43.23194,"lon":5.35541,"is_reserved":false,"is_disabled":false,"rental_uris":{"android":"levelo://app?vid=0916292f-c60f-4ec2-a3c5-bb862cec8507","ios":"levelo://app?vid=0916292f-c60f-4ec2-a3c5-bb862cec8507"},"vehicle_type_id":"4","last_reported":1752865791,"current_range_meters":16400,"station_id":"ce4bhu92rcd13ifvqi70","pricing_plan_id":"cebpf4jnsgd1na2vs0mg"},{"bike_id":"1a794689-0399-4bd8-871c-778f85fe0438","system_id":"levelo_inurba_marseille","lat":43.27486,"lon":5.42445,"is_reserved":false,"is_disabled":false,"rental_uris":{"android":"levelo://app?vid=1a794689-0399-4bd8-871c-778f85fe0438","ios":"levelo://app?vid=1a794689-0399-4bd8-871c-778f85fe0438"},"vehicle_type_id":"4","last_reported":1752865791,"current_range_meters":16000,"station_id":"ce4bhn92rcd13ifvqgrg","pricing_plan_id":"cebpf4jnsgd1na2vs0mg"},{"bike_id":"e04643ac-8091-492e-84a0-a953a55c5725","system_id":"levelo_inurba_marseille","lat":43.309448,"lon":5.390299,"is_reserved":false,"is_disabled":false,"rental_uris":{"android":"levelo://app?vid=e04643ac-8091-492e-84a0-a953a55c5725","ios":"levelo://app?vid=e04643ac-8091-492e-84a0-a953a55c5725"},"vehicle_type_id":"4","last_reported":1752865791,"current_range_meters":16400,"station_id":"ce4bgup2rcd13ifvqco0","pricing_plan_id":"cebpf4jnsgd1na2vs0mg"},{"bike_id":"7808e552-e227-406b-b291-4f472904be38","system_id":"levelo_inurba_marseille","lat":43.26211,"lon":5.37439,"is_reserved":false,"is_disabled":false,"rental_uris":{"android":"levelo://app?vid=7808e552-e227-406b-b291-4f472904be38","ios":"levelo://app?vid=7808e552-e227-406b-b291-4f472904be38"},"vehicle_type_id":"4","last_reported":1752865791,"current_range_meters":16400,"station_id":"ce4bhgp2rcd13ifvqfc0","pricing_plan_id":"cebpf4jnsgd1na2vs0mg"},{"bike_id":"9ff1fd3c-c920-4dba-94c3-c5ca49db834d","system_id":"levelo_inurba_marseille","lat":43.25582,"lon":5.3822,"is_reserved":false,"is_disabled":false,"rental_uris":{"android":"levelo://app?vid=9ff1fd3c-c920-4dba-94c3-c5ca49db834d","ios":"levelo://app?vid=9ff1fd3c-c920-4dba-94c3-c5ca49db834d"},"vehicle_type_id":"4","last_reported":1752865791,"current_range_meters":16800,"station_id":"ce4bhih2rcd13ifvqfs0","pricing_plan_id":"cebpf4jnsgd1na2vs0mg"},{"bike_id":"e6ed5a81-2a33-4c37-a36e-2bb390f1a720","system_id":"levelo_inurba_marseille","lat":43.276154,"lon":5.361022,"is_reserved":false,"is_disabled":false,"rental_uris":{"android":"levelo://app?vid=e6ed5a81-2a33-4c37-a36e-2bb390f1a720","ios":"levelo://app?vid=e6ed5a81-2a33-4c37-a36e-2bb390f1a720"},"vehicle_type_id":"4","last_reported":1752865791,"current_range_meters":16800,"station_id":"ce4bgj92rcd13ifvqbe0","pricing_plan_id":"cebpf4jnsgd1na2vs0mg"},{"bike_id":"7f02cd16-abf2-40a4-97c2-19dc0dd97d66","system_id":"levelo_inurba_marseille","lat":43.26226,"lon":5.40454,"is_reserved":false,"is_disabled":false,"rental_uris":{"android":"levelo://app?vid=7f02cd16-abf2-40a4-97c2-19dc0dd97d66","ios":"levelo://app?vid=7f02cd16-abf2-40a4-97c2-19dc0dd97d66"},"vehicle_type_id":"4","last_reported":1752865791,"current_range_meters":16800,"station_id":"ce4bhmh2rcd13ifvqgmg","pricing_plan_id":"cebpf4jnsgd1na2vs0mg"},{"bike_id":"ea800a80-510c-40d0-9f4f-7d793b829af7","system_id":"levelo_inurba_marseille","lat":43.30947,"lon":5.39022,"is_reserved":false,"is_disabled":false,"rental_uris":{"android":"levelo://app?vid=ea800a80-510c-40d0-9f4f-7d793b829af7","ios":"levelo://app?vid=ea800a80-510c-40d0-9f4f-7d793b829af7"},"vehicle_type_id":"4","last_reported":1752865791,"current_range_meters":16800,"station_id":"ce4bgup2rcd13ifvqco0","pricing_plan_id":"cebpf4jnsgd1na2vs0mg"},{"bike_id":"afc91c81-7042-4270-a28e-07e325ae83c9","system_id":"levelo_inurba_marseille","lat":43.21193,"lon":5.35067,"is_reserved":false,"is_disabled":false,"rental_uris":{"android":"levelo://app?vid=afc91c81-7042-4270-a28e-07e325ae83c9","ios":"levelo://app?vid=afc91c81-7042-4270-a28e-07e325ae83c9"},"vehicle_type_id":"4","last_reported":1752865791,"current_range_meters":16800,"station_id":"st_cvj6sg6p6f1abm77japg","pricing_plan_id":"cebpf4jnsgd1na2vs0mg"},{"bike_id":"7cdbdc4c-b89d-4059-8dd3-82886d9ba55a","system_id":"levelo_inurba_marseille","lat":43.2922,"lon":5.36062,"is_reserved":false,"is_disabled":false,"rental_uris":{"android":"levelo://app?vid=7cdbdc4c-b89d-4059-8dd3-82886d9ba55a","ios":"levelo://app?vid=7cdbdc4c-b89d-4059-8dd3-82886d9ba55a"},"vehicle_type_id":"4","last_reported":1752865791,"current_range_meters":16800,"station_id":"ce4bhbh2rcd13ifvqeqg","pricing_plan_id":"cebpf4jnsgd1na2vs0mg"},{"bike_id":"90f1924f-336d-4405-b5b1-03dcfd5afe7c","system_id":"levelo_inurba_marseille","lat":43.27838,"lon":5.38507,"is_reserved":false,"is_disabled":false,"rental_uris":{"android":"levelo://app?vid=90f1924f-336d-4405-b5b1-03dcfd5afe7c","ios":"levelo://app?vid=90f1924f-336d-4405-b5b1-03dcfd5afe7c"},"vehicle_type_id":"4","last_reported":1752865791,"current_range_meters":16800,"station_id":"","pricing_plan_id":"cebpf4jnsgd1na2vs0mg"},{"bike_id":"62c491ba-b22a-42d7-a5e1-b94307cc1c48","system_id":"levelo_inurba_marseille","lat":43.2951,"lon":5.37497,"is_reserved":false,"is_disabled":false,"rental_uris":{"android":"levelo://app?vid=62c491ba-b22a-42d7-a5e1-b94307cc1c48","ios":"levelo://app?vid=62c491ba-b22a-42d7-a5e1-b94307cc1c48"},"vehicle_type_id":"4","last_reported":1752865791,"current_range_meters":16800,"station_id":"ce4bgkp2rcd13ifvqbmg","pricing_plan_id":"cebpf4jnsgd1na2vs0mg"},{"bike_id":"06b46bd1-38ed-44f7-9ba1-67361d8158e7","system_id":"levelo_inurba_marseille","lat":43.2843,"lon":5.34979,"is_reserved":false,"is_disabled":false,"rental_uris":{"android":"levelo://app?vid=06b46bd1-38ed-44f7-9ba1-67361d8158e7","ios":"levelo://app?vid=06b46bd1-38ed-44f7-9ba1-67361d8158e7"},"vehicle_type_id":"4","last_reported":1752865791,"current_range_meters":16800,"station_id":"ce4bhbh2rcd13ifvqepg","pricing_plan_id":"cebpf4jnsgd1na2vs0mg"},{"bike_id":"8a7f0316-7ffa-4975-b205-ba117cd77538","system_id":"levelo_inurba_marseille","lat":43.27209,"lon":5.39175,"is_reserved":false,"is_disabled":false,"rental_uris":{"android":"levelo://app?vid=8a7f0316-7ffa-4975-b205-ba117cd77538","ios":"levelo://app?vid=8a7f0316-7ffa-4975-b205-ba117cd77538"},"vehicle_type_id":"4","last_reported":1752865791,"current_range_meters":16800,"station_id":"ce4bhhp2rcd13ifvqfm0","pricing_plan_id":"cebpf4jnsgd1na2vs0mg"},{"bike_id":"70932949-0810-4f53-a300-723f5bcb3ae5","system_id":"levelo_inurba_marseille","lat":43.22522,"lon":5.34767,"is_reserved":false,"is_disabled":false,"rental_uris":{"android":"levelo://app?vid=70932949-0810-4f53-a300-723f5bcb3ae5","ios":"levelo://app?vid=70932949-0810-4f53-a300-723f5bcb3ae5"},"vehicle_type_id":"4","last_reported":1752865791,"current_range_meters":16800,"station_id":"st_cvj5dfep6f1abm77gieg","pricing_plan_id":"cebpf4jnsgd1na2vs0mg"},{"bike_id":"83a58fe8-eeff-4a92-856b-d25c4e809f7b","system_id":"levelo_inurba_marseille","lat":43.26022,"lon":5.37548,"is_reserved":false,"is_disabled":false,"rental_uris":{"android":"levelo://app?vid=83a58fe8-eeff-4a92-856b-d25c4e809f7b","ios":"levelo://app?vid=83a58fe8-eeff-4a92-856b-d25c4e809f7b"},"vehicle_type_id":"4","last_reported":1752865791,"current_range_meters":16800,"station_id":"ce4bhgh2rcd13ifvqfa0","pricing_plan_id":"cebpf4jnsgd1na2vs0mg"},{"bike_id":"2fd3d782-24a7-42a3-b248-8e69e5a88f8a","system_id":"levelo_inurba_marseille","lat":43.3169,"lon":5.4047,"is_reserved":false,"is_disabled":false,"rental_uris":{"android":"levelo://app?vid=2fd3d782-24a7-42a3-b248-8e69e5a88f8a","ios":"levelo://app?vid=2fd3d782-24a7-42a3-b248-8e69e5a88f8a"},"vehicle_type_id":"4","last_reported":1752865791,"current_range_meters":16800,"station_id":"ce4bh012rcd13ifvqd00","pricing_plan_id":"cebpf4jnsgd1na2vs0mg"},{"bike_id":"f6c97062-23b3-48e2-a347-34f6f8f3d30c","system_id":"levelo_inurba_marseille","lat":43.304208,"lon":5.412853,"is_reserved":false,"is_disabled":false,"rental_uris":{"android":"levelo://app?vid=f6c97062-23b3-48e2-a347-34f6f8f3d30c","ios":"levelo://app?vid=f6c97062-23b3-48e2-a347-34f6f8f3d30c"},"vehicle_type_id":"4","last_reported":1752865791,"current_range_meters":16800,"station_id":"ce4bhop2rcd13ifvqh8g","pricing_plan_id":"cebpf4jnsgd1na2vs0mg"},{"bike_id":"94c07cb2-0943-4d24-99f2-97bdab47aa3f","system_id":"levelo_inurba_marseille","lat":43.337444,"lon":5.374475,"is_reserved":false,"is_disabled":false,"rental_uris":{"android":"levelo://app?vid=94c07cb2-0943-4d24-99f2-97bdab47aa3f","ios":"levelo://app?vid=94c07cb2-0943-4d24-99f2-97bdab47aa3f"},"vehicle_type_id":"4","last_reported":1752865791,"current_range_meters":16800,"station_id":"","pricing_plan_id":"cebpf4jnsgd1na2vs0mg"},{"bike_id":"1520ef08-0c20-4cef-993c-7cb3bc66be6a","system_id":"levelo_inurba_marseille","lat":43.27496,"lon":5.42451,"is_reserved":false,"is_disabled":false,"rental_uris":{"android":"levelo://app?vid=1520ef08-0c20-4cef-993c-7cb3bc66be6a","ios":"levelo://app?vid=1520ef08-0c20-4cef-993c-7cb3bc66be6a"},"vehicle_type_id":"4","last_reported":1752865791,"current_range_meters":17200,"station_id":"ce4bhn92rcd13ifvqgrg","pricing_plan_id":"cebpf4jnsgd1na2vs0mg"},{"bike_id":"5ca3c0eb-05c9-4c75-b91e-ebda8e45a9db","system_id":"levelo_inurba_marseille","lat":43.28833,"lon":5.3585,"is_reserved":false,"is_disabled":false,"rental_uris":{"android":"levelo://app?vid=5ca3c0eb-05c9-4c75-b91e-ebda8e45a9db","ios":"levelo://app?vid=5ca3c0eb-05c9-4c75-b91e-ebda8e45a9db"},"vehicle_type_id":"4","last_reported":1752865791,"current_range_meters":17200,"station_id":"ce4bhb12rcd13ifvqem0","pricing_plan_id":"cebpf4jnsgd1na2vs0mg"},{"bike_id":"c8d7e060-7dd7-4f31-8996-d569319d7592","system_id":"levelo_inurba_marseille","lat":43.28266,"lon":5.35054,"is_reserved":false,"is_disabled":false,"rental_uris":{"android":"levelo://app?vid=c8d7e060-7dd7-4f31-8996-d569319d7592","ios":"levelo://app?vid=c8d7e060-7dd7-4f31-8996-d569319d7592"},"vehicle_type_id":"4","last_reported":1752865791,"current_range_meters":17200,"station_id":"ce4bhbp2rcd13ifvqerg","pricing_plan_id":"cebpf4jnsgd1na2vs0mg"},{"bike_id":"0968f27e-c428-41d4-9f78-fcc43feabd44","system_id":"levelo_inurba_marseille","lat":43.23192,"lon":5.35554,"is_reserved":false,"is_disabled":false,"rental_uris":{"android":"levelo://app?vid=0968f27e-c428-41d4-9f78-fcc43feabd44","ios":"levelo://app?vid=0968f27e-c428-41d4-9f78-fcc43feabd44"},"vehicle_type_id":"4","last_reported":1752865791,"current_range_meters":17200,"station_id":"ce4bhu92rcd13ifvqi70","pricing_plan_id":"cebpf4jnsgd1na2vs0mg"},{"bike_id":"221a8f03-67cb-485b-8573-9abcf816d5d5","system_id":"levelo_inurba_marseille","lat":43.29868,"lon":5.39734,"is_reserved":false,"is_disabled":false,"rental_uris":{"android":"levelo://app?vid=221a8f03-67cb-485b-8573-9abcf816d5d5","ios":"levelo://app?vid=221a8f03-67cb-485b-8573-9abcf816d5d5"},"vehicle_type_id":"4","last_reported":1752865791,"current_range_meters":17200,"station_id":"","pricing_plan_id":"cebpf4jnsgd1na2vs0mg"},{"bike_id":"bc657ebf-6d7c-472d-b72e-3cc059def981","system_id":"levelo_inurba_marseille","lat":43.25105,"lon":5.40318,"is_reserved":false,"is_disabled":false,"rental_uris":{"android":"levelo://app?vid=bc657ebf-6d7c-472d-b72e-3cc059def981","ios":"levelo://app?vid=bc657ebf-6d7c-472d-b72e-3cc059def981"},"vehicle_type_id":"4","last_reported":1752865791,"current_range_meters":17200,"station_id":"ce4bhlh2rcd13ifvqgig","pricing_plan_id":"cebpf4jnsgd1na2vs0mg"},{"bike_id":"1503dbeb-f2aa-440b-95fc-353f66960f30","system_id":"levelo_inurba_marseille","lat":43.2794,"lon":5.41043,"is_reserved":false,"is_disabled":true,"rental_uris":{"android":"levelo://app?vid=1503dbeb-f2aa-440b-95fc-353f66960f30","ios":"levelo://app?vid=1503dbeb-f2aa-440b-95fc-353f66960f30"},"vehicle_type_id":"4","last_reported":1752865791,"current_range_meters":17200,"station_id":"ce4bhnp2rcd13ifvqh0g","pricing_plan_id":"cebpf4jnsgd1na2vs0mg"},{"bike_id":"9d79822c-ba64-4798-8630-701a49bde2a9","system_id":"levelo_inurba_marseille","lat":43.293,"lon":5.37454,"is_reserved":false,"is_disabled":false,"rental_uris":{"android":"levelo://app?vid=9d79822c-ba64-4798-8630-701a49bde2a9","ios":"levelo://app?vid=9d79822c-ba64-4798-8630-701a49bde2a9"},"vehicle_type_id":"4","last_reported":1752865791,"current_range_meters":17200,"station_id":"ce4bgi12rcd13ifvqb70","pricing_plan_id":"cebpf4jnsgd1na2vs0mg"},{"bike_id":"b6d9338b-2f4e-4350-82a3-207560bfbc16","system_id":"levelo_inurba_marseille","lat":43.29575,"lon":5.37496,"is_reserved":false,"is_disabled":false,"rental_uris":{"android":"levelo://app?vid=b6d9338b-2f4e-4350-82a3-207560bfbc16","ios":"levelo://app?vid=b6d9338b-2f4e-4350-82a3-207560bfbc16"},"vehicle_type_id":"4","last_reported":1752865791,"current_range_meters":17200,"station_id":"ce4bgh92rcd13ifvqb50","pricing_plan_id":"cebpf4jnsgd1na2vs0mg"},{"bike_id":"22e7b474-e1f6-4375-82bf-78b6688926a7","system_id":"levelo_inurba_marseille","lat":43.28269,"lon":5.35064,"is_reserved":false,"is_disabled":false,"rental_uris":{"android":"levelo://app?vid=22e7b474-e1f6-4375-82bf-78b6688926a7","ios":"levelo://app?vid=22e7b474-e1f6-4375-82bf-78b6688926a7"},"vehicle_type_id":"4","last_reported":1752865791,"current_range_meters":17200,"station_id":"ce4bhbp2rcd13ifvqerg","pricing_plan_id":"cebpf4jnsgd1na2vs0mg"},{"bike_id":"e1d6897a-d614-4838-9258-6dedb52c67c1","system_id":"levelo_inurba_marseille","lat":43.29373,"lon":5.37864,"is_reserved":false,"is_disabled":false,"rental_uris":{"android":"levelo://app?vid=e1d6897a-d614-4838-9258-6dedb52c67c1","ios":"levelo://app?vid=e1d6897a-d614-4838-9258-6dedb52c67c1"},"vehicle_type_id":"4","last_reported":1752865791,"current_range_meters":17200,"station_id":"ce4bgjh2rcd13ifvqbf0","pricing_plan_id":"cebpf4jnsgd1na2vs0mg"},{"bike_id":"cd5a9591-6e46-4776-8003-ff3824872e9f","system_id":"levelo_inurba_marseille","lat":43.28997,"lon":5.35634,"is_reserved":false,"is_disabled":true,"rental_uris":{"android":"levelo://app?vid=cd5a9591-6e46-4776-8003-ff3824872e9f","ios":"levelo://app?vid=cd5a9591-6e46-4776-8003-ff3824872e9f"},"vehicle_type_id":"4","last_reported":1752865791,"current_range_meters":17200,"station_id":"ce4bhb92rcd13ifvqen0","pricing_plan_id":"cebpf4jnsgd1na2vs0mg"},{"bike_id":"7360b2c1-827d-4a45-ba07-948ef7d2fc35","system_id":"levelo_inurba_marseille","lat":43.229295,"lon":5.353761,"is_reserved":false,"is_disabled":false,"rental_uris":{"android":"levelo://app?vid=7360b2c1-827d-4a45-ba07-948ef7d2fc35","ios":"levelo://app?vid=7360b2c1-827d-4a45-ba07-948ef7d2fc35"},"vehicle_type_id":"4","last_reported":1752865791,"current_range_meters":17200,"station_id":"","pricing_plan_id":"cebpf4jnsgd1na2vs0mg"},{"bike_id":"96579d04-b9e9-484c-9b9a-af500e5e8552","system_id":"levelo_inurba_marseille","lat":43.32697,"lon":5.36414,"is_reserved":false,"is_disabled":false,"rental_uris":{"android":"levelo://app?vid=96579d04-b9e9-484c-9b9a-af500e5e8552","ios":"levelo://app?vid=96579d04-b9e9-484c-9b9a-af500e5e8552"},"vehicle_type_id":"4","last_reported":1752865791,"current_range_meters":17200,"station_id":"","pricing_plan_id":"cebpf4jnsgd1na2vs0mg"},{"bike_id":"ba295cca-1b63-4efd-a302-0aafa9a6c60e","system_id":"levelo_inurba_marseille","lat":43.29555,"lon":5.42293,"is_reserved":false,"is_disabled":false,"rental_uris":{"android":"levelo://app?vid=ba295cca-1b63-4efd-a302-0aafa9a6c60e","ios":"levelo://app?vid=ba295cca-1b63-4efd-a302-0aafa9a6c60e"},"vehicle_type_id":"4","last_reported":1752865791,"current_range_meters":17200,"station_id":"ce4bhph2rcd13ifvqhdg","pricing_plan_id":"cebpf4jnsgd1na2vs0mg"},{"bike_id":"b7f96c45-a300-4f35-b4a9-3c09c88cf0cd","system_id":"levelo_inurba_marseille","lat":43.29523,"lon":5.39024,"is_reserved":false,"is_disabled":false,"rental_uris":{"android":"levelo://app?vid=b7f96c45-a300-4f35-b4a9-3c09c88cf0cd","ios":"levelo://app?vid=b7f96c45-a300-4f35-b4a9-3c09c88cf0cd"},"vehicle_type_id":"4","last_reported":1752865791,"current_range_meters":17200,"station_id":"ce4bh3p2rcd13ifvqdp0","pricing_plan_id":"cebpf4jnsgd1na2vs0mg"},{"bike_id":"d5cf0ddb-4301-4e01-9253-a4393d968d0a","system_id":"levelo_inurba_marseille","lat":43.22502,"lon":5.34763,"is_reserved":false,"is_disabled":false,"rental_uris":{"android":"levelo://app?vid=d5cf0ddb-4301-4e01-9253-a4393d968d0a","ios":"levelo://app?vid=d5cf0ddb-4301-4e01-9253-a4393d968d0a"},"vehicle_type_id":"4","last_reported":1752865791,"current_range_meters":17600,"station_id":"st_cvj5dfep6f1abm77gieg","pricing_plan_id":"cebpf4jnsgd1na2vs0mg"},{"bike_id":"b9d4c0b5-3cbf-4a89-a51e-beb79e1325a1","system_id":"levelo_inurba_marseille","lat":43.28456,"lon":5.35877,"is_reserved":false,"is_disabled":false,"rental_uris":{"android":"levelo://app?vid=b9d4c0b5-3cbf-4a89-a51e-beb79e1325a1","ios":"levelo://app?vid=b9d4c0b5-3cbf-4a89-a51e-beb79e1325a1"},"vehicle_type_id":"4","last_reported":1752865791,"current_range_meters":17600,"station_id":"ce4bhah2rcd13ifvqei0","pricing_plan_id":"cebpf4jnsgd1na2vs0mg"},