{"last_updated":1770157171,"ttl":60,"version":"2.2","data":{"bikes":[{"bike_id":"b3dcd506-0846-4445-88c7-7f7bf3b428ab","system_id":"levelo_inurba_marseille","lat":43.26238,"lon":5.40531,"is_reserved":false,"is_disabled":false,"rental_uris":{"android":"levelo://app?vid=b3dcd506-0846-4445-88c7-7f7bf3b428ab","ios":"levelo://app?vid=b3dcd506-0846-4445-88c7-7f7bf3b428ab"},"vehicle_type_id":"4","last_reported":1770157171,"current_range_meters":2800,"station_id":"ce4bhmh2rcd13ifvqgmg","pricing_plan_id":"cebpf4jnsgd1na2vs0mg"},{"bike_id":"8fc65fb1-9081-468b-b988-8f1c0039a5c9","system_id":"levelo_inurba_marseille","lat":43.28171,"lon":5.42644,"is_reserved":false,"is_disabled":false,"rental_uris":{"android":"levelo://app?vid=8fc65fb1-9081-468b-b988-8f1c0039a5c9","ios":"levelo://app?vid=8fc65fb1-9081-468b-b988-8f1c0039a5c9"},"vehicle_type_id":"4","last_reported":1770157171,"current_range_meters":2800,"station_id":"ce4bhnh2rcd13ifvqgug","pricing_plan_id":"cebpf4jnsgd1na2vs0mg"},{"bike_id":"162bb3aa-b91c-4589-8f52-3c2f679bbffa","system_id":"levelo_inurba_marseille","lat":43.28146,"lon":5.42636,"is_reserved":false,"is_disabled":false,"rental_uris":{"android":"levelo://app?vid=162bb3aa-b91c-4589-8f52-3c2f679bbffa","ios":"levelo://app?vid=162bb3aa-b91c-4589-8f52-3c2f679bbffa"},"vehicle_type_id":"4","last_reported":1770157171,"current_range_meters":2800,"station_id":"ce4bhnh2rcd13ifvqgug","pricing_plan_id":"cebpf4jnsgd1na2vs0mg"},{"bike_id":"b2a069de-9f0a-4088-8229-e92966604fb4","system_id":"levelo_inurba_marseille","lat":43.24411,"lon":5.3707,"is_reserved":false,"is_disabled":false,"rental_uris":{"android":"levelo://app?vid=b2a069de-9f0a-4088-8229-e92966604fb4","ios":"levelo://app?vid=b2a069de-9f0a-4088-8229-e92966604fb4"},"vehicle_type_id":"4","last_reported":1770157171,"current_range_meters":2800,"station_id":"ce4bhhh2rcd13ifvqfk0","pricing_plan_id":"cebpf4jnsgd1na2vs0mg"},{"bike_id":"9205b891-ee66-4882-bfec-3785668d7c2d","system_id":"levelo_inurba_marseille","lat":43.26039,"lon":5.37569,"is_reserved":false,"is_disabled":false,"rental_uris":{"android":"levelo://app?vid=9205b891-ee66-4882-bfec-3785668d7c2d","ios":"levelo://app?vid=9205b891-ee66-4882-bfec-3785668d7c2d"},"vehicle_type_id":"4","last_reported":1770157171,"current_range_meters":2800,"station_id":"ce4bhgh2rcd13ifvqfa0","pricing_plan_id":"cebpf4jnsgd1na2vs0mg"},{"bike_id":"6a12a917-cd86-40fb-9e14-0fecb9358fe0","system_id":"levelo_inurba_marseille","lat":43.299142,"lon":5.374753,"is_reserved":false,"is_disabled":true,"rental_uris":{"android":"levelo://app?vid=6a12a917-cd86-40fb-9e14-0fecb9358fe0","ios":"levelo://app?vid=6a12a917-cd86-40fb-9e14-0fecb9358fe0"},"vehicle_type_id":"4","last_reported":1770157171,"current_range_meters":2800,"station_id":"ce4bgjh2rcd13ifvqbg0","pricing_plan_id":"cebpf4jnsgd1na2vs0mg"},{"bike_id":"75d6e842-cbda-4b63-9ab8-49199bf74e6e","system_id":"levelo_inurba_marseille","lat":43.24652,"lon":5.38184,"is_reserved":false,"is_disabled":false,"rental_uris":{"android":"levelo://app?vid=75d6e842-cbda-4b63-9ab8-49199bf74e6e","ios":"levelo://app?vid=75d6e842-cbda-4b63-9ab8-49199bf74e6e"},"vehicle_type_id":"4","last_reported":1770157171,"current_range_meters":2800,"station_id":"ce4bhih2rcd13ifvqfr0","pricing_plan_id":"cebpf4jnsgd1na2vs0mg"},{"bike_id":"0a6292f7-50dd-43c2-b393-e08dde080051","system_id":"levelo_inurba_marseille","lat":43.26613,"lon":5.39002,"is_reserved":false,"is_disabled":false,"rental_uris":{"android":"levelo://app?vid=0a6292f7-50dd-43c2-b393-e08dde080051","ios":"levelo://app?vid=0a6292f7-50dd-43c2-b393-e08dde080051"},"vehicle_type_id":"4","last_reported":1770157171,"current_range_meters":2800,"station_id":"","pricing_plan_id":"cebpf4jnsgd1na2vs0mg"},{"bike_id":"9507fa88-b2b3-4ab7-a45c-4c86ed644dfa","system_id":"levelo_inurba_marseille","lat":43.229306,"lon":5.35382,"is_reserved":false,"is_disabled":false,"rental_uris":{"android":"levelo://app?vid=9507fa88-b2b3-4ab7-a45c-4c86ed644dfa","ios":"levelo://app?vid=9507fa88-b2b3-4ab7-a45c-4c86ed644dfa"},"vehicle_type_id":"4","last_reported":1770157171,"current_range_meters":3200,"station_id":"cpo3532slgdg3j2ikp40","pricing_plan_id":"cebpf4jnsgd1na2vs0mg"},{"bike_id":"180b7fce-0dd3-4292-95b6-e2078299b016","system_id":"levelo_inurba_marseille","lat":43.25107,"lon":5.40316,"is_reserved":false,"is_disabled":false,"rental_uris":{"android":"levelo://app?vid=180b7fce-0dd3-4292-95b6-e2078299b016","ios":"levelo://app?vid=180b7fce-0dd3-4292-95b6-e2078299b016"},"vehicle_type_id":"4","last_reported":1770157171,"current_range_meters":3200,"station_id":"ce4bhlh2rcd13ifvqgig","pricing_plan_id":"cebpf4jnsgd1na2vs0mg"},{"bike_id":"1572ab15-e737-43b7-8cfe-40ce15540b0d","system_id":"levelo_inurba_marseille","lat":43.33541,"lon":5.37471,"is_reserved":false,"is_disabled":false,"rental_uris":{"android":"levelo://app?vid=1572ab15-e737-43b7-8cfe-40ce15540b0d","ios":"levelo://app?vid=1572ab15-e737-43b7-8cfe-40ce15540b0d"},"vehicle_type_id":"4","last_reported":1770157171,"current_range_meters":3200,"station_id":"st_d46tts09ee8s73dlu43g","pricing_plan_id":"cebpf4jnsgd1na2vs0mg"},{"bike_id":"ce24aee7-35fa-4a11-bc8f-4e8ab67f92b4","system_id":"levelo_inurba_marseille","lat":43.31504,"lon":5.37309,"is_reserved":false,"is_disabled":false,"rental_uris":{"android":"levelo://app?vid=ce24aee7-35fa-4a11-bc8f-4e8ab67f92b4","ios":"levelo://app?vid=ce24aee7-35fa-4a11-bc8f-4e8ab67f92b4"},"vehicle_type_id":"4","last_reported":1770157171,"current_range_meters":3200,"station_id":"ce4bgt12rcd13ifvqcd0","pricing_plan_id":"cebpf4jnsgd1na2vs0mg"},{"bike_id":"eda11006-539d-4ac5-b351-07bd6d27fd10","system_id":"levelo_inurba_marseille","lat":43.27917,"lon":5.39598,"is_reserved":false,"is_disabled":false,"rental_uris":{"android":"levelo://app?vid=eda11006-539d-4ac5-b351-07bd6d27fd10","ios":"levelo://app?vid=eda11006-539d-4ac5-b351-07bd6d27fd10"},"vehicle_type_id":"4","last_reported":1770157171,"current_range_meters":3200,"station_id":"ce4bhf92rcd13ifvqf40","pricing_plan_id":"cebpf4jnsgd1na2vs0mg"},{"bike_id":"b2f70f55-f0e0-4c5f-acf0-29a830760c19","system_id":"levelo_inurba_marseille","lat":43.28574,"lon":5.37092,"is_reserved":false,"is_disabled":false,"rental_uris":{"android":"levelo://app?vid=b2f70f55-f0e0-4c5f-acf0-29a830760c19","ios":"levelo://app?vid=b2f70f55-f0e0-4c5f-acf0-29a830760c19"},"vehicle_type_id":"4","last_reported":1770157171,"current_range_meters":3200,"station_id":"ce4bht12rcd13ifvqi60","pricing_plan_id":"cebpf4jnsgd1na2vs0mg"},{"bike_id":"4dd6841e-e470-4207-bb73-65a47c0e81c5","system_id":"levelo_inurba_marseille","lat":43.3112,"lon":5.3803,"is_reserved":false,"is_disabled":false,"rental_uris":{"android":"levelo://app?vid=4dd6841e-e470-4207-bb73-65a47c0e81c5","ios":"levelo://app?vid=4dd6841e-e470-4207-bb73-65a47c0e81c5"},"vehicle_type_id":"4","last_reported":1770157171,"current_range_meters":3200,"station_id":"","pricing_plan_id":"cebpf4jnsgd1na2vs0mg"},{"bike_id":"5dae8e7a-771c-417a-921b-2f019b85b891","system_id":"levelo_inurba_marseille","lat":43.29881,"lon":5.4366,"is_reserved":false,"is_disabled":false,"rental_uris":{"android":"levelo://app?vid=5dae8e7a-771c-417a-921b-2f019b85b891","ios":"levelo://app?vid=5dae8e7a-771c-417a-921b-2f019b85b891"},"vehicle_type_id":"4","last_reported":1770157171,"current_range_meters":3200,"station_id":"ce4bhpp2rcd13ifvqhfg","pricing_plan_id":"cebpf4jnsgd1na2vs0mg"},{"bike_id":"0b9e68ad-1180-45f9-895d-613290aafa5c","system_id":"levelo_inurba_marseille","lat":43.29189,"lon":5.39319,"is_reserved":false,"is_disabled":false,"rental_uris":{"android":"levelo://app?vid=0b9e68ad-1180-45f9-895d-613290aafa5c","ios":"levelo://app?vid=0b9e68ad-1180-45f9-895d-613290aafa5c"},"vehicle_type_id":"4","last_reported":1770157171,"current_range_meters":3600,"station_id":"ce4bh192rcd13ifvqdd0","pricing_plan_id":"cebpf4jnsgd1na2vs0mg"},{"bike_id":"bbe31551-c256-4391-87b7-e9fb9646bad8","system_id":"levelo_inurba_marseille","lat":43.27182,"lon":5.41041,"is_reserved":false,"is_disabled":false,"rental_uris":{"android":"levelo://app?vid=bbe31551-c256-4391-87b7-e9fb9646bad8","ios":"levelo://app?vid=bbe31551-c256-4391-87b7-e9fb9646bad8"},"vehicle_type_id":"4","last_reported":1770157171,"current_range_meters":3600,"station_id":"ce4bhl12rcd13ifvqgf0","pricing_plan_id":"cebpf4jnsgd1na2vs0mg"},{"bike_id":"33155caa-8021-4913-a666-e828c4426fe1","system_id":"levelo_inurba_marseille","lat":43.23216,"lon":5.35556,"is_reserved":false,"is_disabled":false,"rental_uris":{"android":"levelo://app?vid=33155caa-8021-4913-a666-e828c4426fe1","ios":"levelo://app?vid=33155caa-8021-4913-a666-e828c4426fe1"},"vehicle_type_id":"4","last_reported":1770157171,"current_range_meters":3600,"station_id":"ce4bhu92rcd13ifvqi70","pricing_plan_id":"cebpf4jnsgd1na2vs0mg"},{"bike_id":"3188355f-6083-4464-859b-9ed5b4f3cf11","system_id":"levelo_inurba_marseille","lat":43.253902,"lon":5.383707,"is_reserved":false,"is_disabled":false,"rental_uris":{"android":"levelo://app?vid=3188355f-6083-4464-859b-9ed5b4f3cf11","ios":"levelo://app?vid=3188355f-6083-4464-859b-9ed5b4f3cf11"},"vehicle_type_id":"4","last_reported":1770157171,"current_range_meters":3600,"station_id":"","pricing_plan_id":"cebpf4jnsgd1na2vs0mg"},{"bike_id":"9a3b8e40-230b-4af8-bb6c-46b914bd1153","system_id":"levelo_inurba_marseille","lat":43.244,"lon":5.37061,"is_reserved":false,"is_disabled":false,"rental_uris":{"android":"levelo://app?vid=9a3b8e40-230b-4af8-bb6c-46b914bd1153","ios":"levelo://app?vid=9a3b8e40-230b-4af8-bb6c-46b914bd1153"},"vehicle_type_id":"4","last_reported":1770157171,"current_range_meters":3600,"station_id":"ce4bhhh2rcd13ifvqfk0","pricing_plan_id":"cebpf4jnsgd1na2vs0mg"},{"bike_id":"5c00c68f-a50e-4933-afcc-64efff93418b","system_id":"levelo_inurba_marseille","lat":43.25337,"lon":5.4218,"is_reserved":false,"is_disabled":false,"rental_uris":{"android":"levelo://app?vid=5c00c68f-a50e-4933-afcc-64efff93418b","ios":"levelo://app?vid=5c00c68f-a50e-4933-afcc-64efff93418b"},"vehicle_type_id":"4","last_reported":1770157171,"current_range_meters":3600,"station_id":"st_d2m65c5bi1j21697t3ng","pricing_plan_id":"cebpf4jnsgd1na2vs0mg"},{"bike_id":"37efd0a4-f92f-48f6-8c63-84553350d9a1","system_id":"levelo_inurba_marseille","lat":43.33548,"lon":5.37472,"is_reserved":false,"is_disabled":false,"rental_uris":{"android":"levelo://app?vid=37efd0a4-f92f-48f6-8c63-84553350d9a1","ios":"levelo://app?vid=37efd0a4-f92f-48f6-8c63-84553350d9a1"},"vehicle_type_id":"4","last_reported":1770157171,"current_range_meters":3600,"station_id":"st_d46tts09ee8s73dlu43g","pricing_plan_id":"cebpf4jnsgd1na2vs0mg"},{"bike_id":"96335a61-8bfb-4348-ad51-fca767ccfa98","system_id":"levelo_inurba_marseille","lat":43.27999,"lon":5.40013,"is_reserved":false,"is_disabled":false,"rental_uris":{"android":"levelo://app?vid=96335a61-8bfb-4348-ad51-fca767ccfa98","ios":"levelo://app?vid=96335a61-8bfb-4348-ad51-fca767ccfa98"},"vehicle_type_id":"4","last_reported":1770157171,"current_range_meters":3600,"station_id":"ce4bho92rcd13ifvqh4g","pricing_plan_id":"cebpf4jnsgd1na2vs0mg"},{"bike_id":"c04d02e9-4522-4664-80d1-72f19e30f66b","system_id":"levelo_inurba_marseille","lat":43.25309,"lon":5.38606,"is_reserved":false,"is_disabled":false,"rental_uris":{"android":"levelo://app?vid=c04d02e9-4522-4664-80d1-72f19e30f66b","ios":"levelo://app?vid=c04d02e9-4522-4664-80d1-72f19e30f66b"},"vehicle_type_id":"4","last_reported":1770157171,"current_range_meters":3600,"station_id":"","pricing_plan_id":"cebpf4jnsgd1na2vs0mg"},{"bike_id":"46a6cc9f-7cc4-4c36-98fa-d2337377bf24","system_id":"levelo_inurba_marseille","lat":43.31153,"lon":5.38664,"is_reserved":false,"is_disabled":false,"rental_uris":{"android":"levelo://app?vid=46a6cc9f-7cc4-4c36-98fa-d2337377bf24","ios":"levelo://app?vid=46a6cc9f-7cc4-4c36-98fa-d2337377bf24"},"vehicle_type_id":"4","last_reported":1770157171,"current_range_meters":4000,"station_id":"ce4bgv12rcd13ifvqcp0","pricing_plan_id":"cebpf4jnsgd1na2vs0mg"},{"bike_id":"825d0377-73f4-4c37-b256-e3c2000d226a","system_id":"levelo_inurba_marseille","lat":43.31092,"lon":5.3719,"is_reserved":false,"is_disabled":false,"rental_uris":{"android":"levelo://app?vid=825d0377-73f4-4c37-b256-e3c2000d226a","ios":"levelo://app?vid=825d0377-73f4-4c37-b256-e3c2000d226a"},"vehicle_type_id":"4","last_reported":1770157171,"current_range_meters":4000,"station_id":"st_d4kl2rp97mjs73e7tdfg","pricing_plan_id":"cebpf4jnsgd1na2vs0mg"},{"bike_id":"02b06200-6f0c-4fbe-a288-f34e85c983a1","system_id":"levelo_inurba_marseille","lat":43.23783,"lon":5.36633,"is_reserved":false,"is_disabled":false,"rental_uris":{"android":"levelo://app?vid=02b06200-6f0c-4fbe-a288-f34e85c983a1","ios":"levelo://app?vid=02b06200-6f0c-4fbe-a288-f34e85c983a1"},"vehicle_type_id":"4","last_reported":1770157171,"current_range_meters":4000,"station_id":"st_d3nk18o9ro0c73en2l3g","pricing_plan_id":"cebpf4jnsgd1na2vs0mg"},{"bike_id":"59af2a1f-529f-4907-9f3a-a914cae26c64","system_id":"levelo_inurba_marseille","lat":43.3093,"lon":5.40148,"is_reserved":false,"is_disabled":false,"rental_uris":{"android":"levelo://app?vid=59af2a1f-529f-4907-9f3a-a914cae26c64","ios":"levelo://app?vid=59af2a1f-529f-4907-9f3a-a914cae26c64"},"vehicle_type_id":"4","last_reported":1770157171,"current_range_meters":4000,"station_id":"ce4bgvp2rcd13ifvqct0","pricing_plan_id":"cebpf4jnsgd1na2vs0mg"},{"bike_id":"3ad37aec-ce6a-40cc-8ced-df11df727632","system_id":"levelo_inurba_marseille","lat":43.31755,"lon":5.3872,"is_reserved":false,"is_disabled":false,"rental_uris":{"android":"levelo://app?vid=3ad37aec-ce6a-40cc-8ced-df11df727632","ios":"levelo://app?vid=3ad37aec-ce6a-40cc-8ced-df11df727632"},"vehicle_type_id":"4","last_reported":1770157171,"current_range_meters":4000,"station_id":"","pricing_plan_id":"cebpf4jnsgd1na2vs0mg"},{"bike_id":"6ddf7e79-fc33-436a-9f2e-0297899e5607","system_id":"levelo_inurba_marseille","lat":43.28483,"lon":5.48407,"is_reserved":false,"is_disabled":false,"rental_uris":{"android":"levelo://app?vid=6ddf7e79-fc33-436a-9f2e-0297899e5607","ios":"levelo://app?vid=6ddf7e79-fc33-436a-9f2e-0297899e5607"},"vehicle_type_id":"4","last_reported":1770157171,"current_range_meters":4000,"station_id":"","pricing_plan_id":"cebpf4jnsgd1na2vs0mg"},{"bike_id":"2ccce929-95a7-42ec-84b9-1fc8efbe658b","system_id":"levelo_inurba_marseille","lat":43.26948,"lon":5.38659,"is_reserved":false,"is_disabled":false,"rental_uris":{"android":"levelo://app?vid=2ccce929-95a7-42ec-84b9-1fc8efbe658b","ios":"levelo://app?vid=2ccce929-95a7-42ec-84b9-1fc8efbe658b"},"vehicle_type_id":"4","last_reported":1770157171,"current_range_meters":4000,"station_id":"ce4bhh92rcd13ifvqfh0","pricing_plan_id":"cebpf4jnsgd1na2vs0mg"},{"bike_id":"56e0dd43-db59-4a14-ac0c-d950e7030a9a","system_id":"levelo_inurba_marseille","lat":43.33356,"lon":5.41108,"is_reserved":false,"is_disabled":false,"rental_uris":{"android":"levelo://app?vid=56e0dd43-db59-4a14-ac0c-d950e7030a9a","ios":"levelo://app?vid=56e0dd43-db59-4a14-ac0c-d950e7030a9a"},"vehicle_type_id":"4","last_reported":1770157171,"current_range_meters":4000,"station_id":"","pricing_plan_id":"cebpf4jnsgd1na2vs0mg"},{"bike_id":"5d69f597-9ac6-4f09-a170-06c031c56455","system_id":"levelo_inurba_marseille","lat":43.30889,"lon":5.39629,"is_reserved":false,"is_disabled":false,"rental_uris":{"android":"levelo://app?vid=5d69f597-9ac6-4f09-a170-06c031c56455","ios":"levelo://app?vid=5d69f597-9ac6-4f09-a170-06c031c56455"},"vehicle_type_id":"4","last_reported":1770157171,"current_range_meters":4000,"station_id":"ce4bh012rcd13ifvqcv0","pricing_plan_id":"cebpf4jnsgd1na2vs0mg"},{"bike_id":"c5cba592-c8ea-4299-867c-e35aceae73bc","system_id":"levelo_inurba_marseille","lat":43.31761,"lon":5.39025,"is_reserved":false,"is_disabled":false,"rental_uris":{"android":"levelo://app?vid=c5cba592-c8ea-4299-867c-e35aceae73bc","ios":"levelo://app?vid=c5cba592-c8ea-4299-867c-e35aceae73bc"},"vehicle_type_id":"4","last_reported":1770157171,"current_range_meters":4000,"station_id":"ce4bhqp2rcd13ifvqhng","pricing_plan_id":"cebpf4jnsgd1na2vs0mg"},{"bike_id":"a0b65a93-6465-4400-8b38-bcb6f41a734c","system_id":"levelo_inurba_marseille","lat":43.2791,"lon":5.39599,"is_reserved":false,"is_disabled":true,"rental_uris":{"android":"levelo://app?vid=a0b65a93-6465-4400-8b38-bcb6f41a734c","ios":"levelo://app?vid=a0b65a93-6465-4400-8b38-bcb6f41a734c"},"vehicle_type_id":"4","last_reported":1770157171,"current_range_meters":4000,"station_id":"ce4bhf92rcd13ifvqf40","pricing_plan_id":"cebpf4jnsgd1na2vs0mg"},{"bike_id":"d72910d6-bf97-416e-991b-8f8a39cb5495","system_id":"levelo_inurba_marseille","lat":43.28929,"lon":5.39625,"is_reserved":false,"is_disabled":false,"rental_uris":{"android":"levelo://app?vid=d72910d6-bf97-416e-991b-8f8a39cb5495","ios":"levelo://app?vid=d72910d6-bf97-416e-991b-8f8a39cb5495"},"vehicle_type_id":"4","last_reported":1770157171,"current_range_meters":4000,"station_id":"ce4bh3h2rcd13ifvqdn0","pricing_plan_id":"cebpf4jnsgd1na2vs0mg"},{"bike_id":"896b2c47-65cf-4eb2-a8e2-c3b6ff7fbbd6","system_id":"levelo_inurba_marseille","lat":43.27992,"lon":5.41674,"is_reserved":false,"is_disabled":false,"rental_uris":{"android":"levelo://app?vid=896b2c47-65cf-4eb2-a8e2-c3b6ff7fbbd6","ios":"levelo://app?vid=896b2c47-65cf-4eb2-a8e2-c3b6ff7fbbd6"},"vehicle_type_id":"4","last_reported":1770157171,"current_range_meters":4000,"station_id":"ce4bho12rcd13ifvqh1g","pricing_plan_id":"cebpf4jnsgd1na2vs0mg"},{"bike_id":"cc7d6a58-2c60-4246-b3ec-60b87c8871b8","system_id":"levelo_inurba_marseille","lat":43.28411,"lon":5.3751,"is_reserved":false,"is_disabled":true,"rental_uris":{"android":"levelo://app?vid=cc7d6a58-2c60-4246-b3ec-60b87c8871b8","ios":"levelo://app?vid=cc7d6a58-2c60-4246-b3ec-60b87c8871b8"},"vehicle_type_id":"4","last_reported":1770157171,"current_range_meters":4000,"station_id":"ce4bh412rcd13ifvqds0","pricing_plan_id":"cebpf4jnsgd1na2vs0mg"},{"bike_id":"7830c5a0-6716-49ce-9fb9-030a83055837","system_id":"levelo_inurba_marseille","lat":43.30327,"lon":5.36906,"is_reserved":false,"is_disabled":true,"rental_uris":{"android":"levelo://app?vid=7830c5a0-6716-49ce-9fb9-030a83055837","ios":"levelo://app?vid=7830c5a0-6716-49ce-9fb9-030a83055837"},"vehicle_type_id":"4","last_reported":1770157171,"current_range_meters":4400,"station_id":"ce4bgqh2rcd13ifvqc5g","pricing_plan_id":"cebpf4jnsgd1na2vs0mg"},{"bike_id":"03cfe8ff-bad7-4324-a169-164f68b4c260","system_id":"levelo_inurba_marseille","lat":43.337444,"lon":5.374475,"is_reserved":false,"is_disabled":false,"rental_uris":{"android":"levelo://app?vid=03cfe8ff-bad7-4324-a169-164f68b4c260","ios":"levelo://app?vid=03cfe8ff-bad7-4324-a169-164f68b4c260"},"vehicle_type_id":"4","last_reported":1770157171,"current_range_meters":4400,"station_id":"","pricing_plan_id":"cebpf4jnsgd1na2vs0mg"},{"bike_id":"77ee2386-41ea-476e-b76b-f435873f6247","system_id":"levelo_inurba_marseille","lat":43.243876,"lon":5.370565,"is_reserved":false,"is_disabled":false,"rental_uris":{"android":"levelo://app?vid=77ee2386-41ea-476e-b76b-f435873f6247","ios":"levelo://app?vid=77ee2386-41ea-476e-b76b-f435873f6247"},"vehicle_type_id":"4","last_reported":1770157171,"current_range_meters":4400,"station_id":"ce4bhhh2rcd13ifvqfk0","pricing_plan_id":"cebpf4jnsgd1na2vs0mg"},{"bike_id":"b9e3fc66-fb1e-4c7e-9acb-b26163b020c4","system_id":"levelo_inurba_marseille","lat":43.3063,"lon":5.40067,"is_reserved":false,"is_disabled":false,"rental_uris":{"android":"levelo://app?vid=b9e3fc66-fb1e-4c7e-9acb-b26163b020c4","ios":"levelo://app?vid=b9e3fc66-fb1e-4c7e-9acb-b26163b020c4"},"vehicle_type_id":"4","last_reported":1770157171,"current_range_meters":4400,"station_id":"ce4bh112rcd13ifvqda0","pricing_plan_id":"cebpf4jnsgd1na2vs0mg"},{"bike_id":"62393bef-3a20-4c4b-9a55-6ad7e3b93507","system_id":"levelo_inurba_marseille","lat":43.24065,"lon":5.37756,"is_reserved":false,"is_disabled":false,"rental_uris":{"android":"levelo://app?vid=62393bef-3a20-4c4b-9a55-6ad7e3b93507","ios":"levelo://app?vid=62393bef-3a20-4c4b-9a55-6ad7e3b93507"},"vehicle_type_id":"4","last_reported":1770157171,"current_range_meters":4400,"station_id":"ce4bhnp2rcd13ifvqgvg","pricing_plan_id":"cebpf4jnsgd1na2vs0mg"},{"bike_id":"7b7f0ad7-ada7-4254-a760-2d2b6774a69a","system_id":"levelo_inurba_marseille","lat":43.293,"lon":5.3716,"is_reserved":false,"is_disabled":false,"rental_uris":{"android":"levelo://app?vid=7b7f0ad7-ada7-4254-a760-2d2b6774a69a","ios":"levelo://app?vid=7b7f0ad7-ada7-4254-a760-2d2b6774a69a"},"vehicle_type_id":"4","last_reported":1770157171,"current_range_meters":4400,"station_id":"ce4bgh92rcd13ifvqb40","pricing_plan_id":"cebpf4jnsgd1na2vs0mg"},{"bike_id":"e946741c-d595-418e-9109-5e232da3e437","system_id":"levelo_inurba_marseille","lat":43.26384,"lon":5.41064,"is_reserved":false,"is_disabled":false,"rental_uris":{"android":"levelo://app?vid=e946741c-d595-418e-9109-5e232da3e437","ios":"levelo://app?vid=e946741c-d595-418e-9109-5e232da3e437"},"vehicle_type_id":"4","last_reported":1770157171,"current_range_meters":4400,"station_id":"st_d4e5ca6na9uc73bfl5fg","pricing_plan_id":"cebpf4jnsgd1na2vs0mg"},{"bike_id":"7ca83133-8918-4ca6-88d8-c5bdca144b76","system_id":"levelo_inurba_marseille","lat":43.26227,"lon":5.37483,"is_reserved":false,"is_disabled":false,"rental_uris":{"android":"levelo://app?vid=7ca83133-8918-4ca6-88d8-c5bdca144b76","ios":"levelo://app?vid=7ca83133-8918-4ca6-88d8-c5bdca144b76"},"vehicle_type_id":"4","last_reported":1770157171,"current_range_meters":4400,"station_id":"","pricing_plan_id":"cebpf4jnsgd1na2vs0mg"},{"bike_id":"cdbeddab-9e8d-4f62-a029-53297e623021","system_id":"levelo_inurba_marseille","lat":43.29251,"lon":5.40126,"is_reserved":false,"is_disabled":false,"rental_uris":{"android":"levelo://app?vid=cdbeddab-9e8d-4f62-a029-53297e623021","ios":"levelo://app?vid=cdbeddab-9e8d-4f62-a029-53297e623021"},"vehicle_type_id":"4","last_reported":1770157171,"current_range_meters":4400,"station_id":"ce4bh312rcd13ifvqdk0","pricing_plan_id":"cebpf4jnsgd1na2vs0mg"},{"bike_id":"d41e3e28-1534-41be-96c3-e8b8727f203a","system_id":"levelo_inurba_marseille","lat":43.25109,"lon":5.40321,"is_reserved":false,"is_disabled":false,"rental_uris":{"android":"levelo://app?vid=d41e3e28-1534-41be-96c3-e8b8727f203a","ios":"levelo://app?vid=d41e3e28-1534-41be-96c3-e8b8727f203a"},"vehicle_type_id":"4","last_reported":1770157171,"current_range_meters":4400,"station_id":"ce4bhlh2rcd13ifvqgig","pricing_plan_id":"cebpf4jnsgd1na2vs0mg"},{"bike_id":"787f2090-8b23-48ea-8a1d-206355857513","system_id":"levelo_inurba_marseille","lat":43.28417,"lon":5.37521,"is_reserved":false,"is_disabled":false,"rental_uris":{"android":"levelo://app?vid=787f2090-8b23-48ea-8a1d-206355857513","ios":"levelo://app?vid=787f2090-8b23-48ea-8a1d-206355857513"},"vehicle_type_id":"4","last_reported":1770157171,"current_range_meters":4400,"station_id":"ce4bh412rcd13ifvqds0","pricing_plan_id":"cebpf4jnsgd1na2vs0mg"},{"bike_id":"ed16150d-e242-4c3b-8666-03414f56dd12","system_id":"levelo_inurba_marseille","lat":43.2482,"lon":5.37459,"is_reserved":false,"is_disabled":false,"rental_uris":{"android":"levelo://app?vid=ed16150d-e242-4c3b-8666-03414f56dd12","ios":"levelo://app?vid=ed16150d-e242-4c3b-8666-03414f56dd12"},"vehicle_type_id":"4","last_reported":1770157171,"current_range_meters":4400,"station_id":"ce4bhgh2rcd13ifvqfb0","pricing_plan_id":"cebpf4jnsgd1na2vs0mg"},{"bike_id":"702fa35f-ea9c-4728-a822-3c2a01d1cb71","system_id":"levelo_inurba_marseille","lat":43.289252,"lon":5.38394,"is_reserved":false,"is_disabled":false,"rental_uris":{"android":"levelo://app?vid=702fa35f-ea9c-4728-a822-3c2a01d1cb71","ios":"levelo://app?vid=702fa35f-ea9c-4728-a822-3c2a01d1cb71"},"vehicle_type_id":"4","last_reported":1770157171,"current_range_meters":4800,"station_id":"ce4bh612rcd13ifvqe6g","pricing_plan_id":"cebpf4jnsgd1na2vs0mg"},{"bike_id":"2591904e-06ba-41fc-9be8-a05710181037","system_id":"levelo_inurba_marseille","lat":43.29867,"lon":5.38905,"is_reserved":false,"is_disabled":false,"rental_uris":{"android":"levelo://app?vid=2591904e-06ba-41fc-9be8-a05710181037","ios":"levelo://app?vid=2591904e-06ba-41fc-9be8-a05710181037"},"vehicle_type_id":"4","last_reported":1770157171,"current_range_meters":4800,"station_id":"ce4bh392rcd13ifvqdl0","pricing_plan_id":"cebpf4jnsgd1na2vs0mg"},{"bike_id":"bcec4f6c-e07c-44d5-955d-2402cc53b633","system_id":"levelo_inurba_marseille","lat":43.29541,"lon":5.39067,"is_reserved":false,"is_disabled":false,"rental_uris":{"android":"levelo://app?vid=bcec4f6c-e07c-44d5-955d-2402cc53b633","ios":"levelo://app?vid=bcec4f6c-e07c-44d5-955d-2402cc53b633"},"vehicle_type_id":"4","last_reported":1770157171,"current_range_meters":4800,"station_id":"ce4bh3p2rcd13ifvqdp0","pricing_plan_id":"cebpf4jnsgd1na2vs0mg"},{"bike_id":"c15cd4e0-6228-4ec0-8abb-497f27aecdb2","system_id":"levelo_inurba_marseille","lat":43.31266,"lon":5.37755,"is_reserved":false,"is_disabled":false,"rental_uris":{"android":"levelo://app?vid=c15cd4e0-6228-4ec0-8abb-497f27aecdb2","ios":"levelo://app?vid=c15cd4e0-6228-4ec0-8abb-497f27aecdb2"},"vehicle_type_id":"4","last_reported":1770157171,"current_range_meters":4800,"station_id":"","pricing_plan_id":"cebpf4jnsgd1na2vs0mg"},{"bike_id":"5d2a7df9-4ddf-4885-8075-b7755ef05fb8","system_id":"levelo_inurba_marseille","lat":43.23047,"lon":5.40291,"is_reserved":false,"is_disabled":false,"rental_uris":{"android":"levelo://app?vid=5d2a7df9-4ddf-4885-8075-b7755ef05fb8","ios":"levelo://app?vid=5d2a7df9-4ddf-4885-8075-b7755ef05fb8"},"vehicle_type_id":"4","last_reported":1770157171,"current_range_meters":4800,"station_id":"","pricing_plan_id":"cebpf4jnsgd1na2vs0mg"},{"bike_id":"9e057795-08d0-428c-a4d6-14e223435515","system_id":"levelo_inurba_marseille","lat":43.24601,"lon":5.37372,"is_reserved":false,"is_disabled":false,"rental_uris":{"android":"levelo://app?vid=9e057795-08d0-428c-a4d6-14e223435515","ios":"levelo://app?vid=9e057795-08d0-428c-a4d6-14e223435515"},"vehicle_type_id":"4","last_reported":1770157171,"current_range_meters":4800,"station_id":"","pricing_plan_id":"cebpf4jnsgd1na2vs0mg"},{"bike_id":"141bd124-c814-48f9-b2f7-d0b84fea7cf1","system_id":"levelo_inurba_marseille","lat":43.24819,"lon":5.3746,"is_reserved":false,"is_disabled":false,"rental_uris":{"android":"levelo://app?vid=141bd124-c814-48f9-b2f7-d0b84fea7cf1","ios":"levelo://app?vid=141bd124-c814-48f9-b2f7-d0b84fea7cf1"},"vehicle_type_id":"4","last_reported":1770157171,"current_range_meters":4800,"station_id":"ce4bhgh2rcd13ifvqfb0","pricing_plan_id":"cebpf4jnsgd1na2vs0mg"},{"bike_id":"2360117f-e14f-4f9c-b273-a3b0a85bbecc","system_id":"levelo_inurba_marseille","lat":43.31175,"lon":5.38718,"is_reserved":false,"is_disabled":false,"rental_uris":{"android":"levelo://app?vid=2360117f-e14f-4f9c-b273-a3b0a85bbecc","ios":"levelo://app?vid=2360117f-e14f-4f9c-b273-a3b0a85bbecc"},"vehicle_type_id":"4","last_reported":1770157171,"current_range_meters":4800,"station_id":"ce4bgv12rcd13ifvqcp0","pricing_plan_id":"cebpf4jnsgd1na2vs0mg"},{"bike_id":"e38f544f-f996-477c-b7d2-6313026ffb89","system_id":"levelo_inurba_marseille","lat":43.24828,"lon":5.37473,"is_reserved":false,"is_disabled":false,"rental_uris":{"android":"levelo://app?vid=e38f544f-f996-477c-b7d2-6313026ffb89","ios":"levelo://app?vid=e38f544f-f996-477c-b7d2-6313026ffb89"},"vehicle_type_id":"4","last_reported":1770157171,"current_range_meters":4800,"station_id":"ce4bhgh2rcd13ifvqfb0","pricing_plan_id":"cebpf4jnsgd1na2vs0mg"},{"bike_id":"a3d3a949-e6a8-49ab-9f8a-4cfb992af1b3","system_id":"levelo_inurba_marseille","lat":43.21202,"lon":5.35098,"is_reserved":false,"is_disabled":false,"rental_uris":{"android":"levelo://app?vid=a3d3a949-e6a8-49ab-9f8a-4cfb992af1b3","ios":"levelo://app?vid=a3d3a949-e6a8-49ab-9f8a-4cfb992af1b3"},"vehicle_type_id":"4","last_reported":1770157171,"current_range_meters":4800,"station_id":"","pricing_plan_id":"cebpf4jnsgd1na2vs0mg"},{"bike_id":"fdb878e6-ff79-4674-9a93-540ade0a2317","system_id":"levelo_inurba_marseille","lat":43.31084,"lon":5.38343,"is_reserved":false,"is_disabled":false,"rental_uris":{"android":"levelo://app?vid=fdb878e6-ff79-4674-9a93-540ade0a2317","ios":"levelo://app?vid=fdb878e6-ff79-4674-9a93-540ade0a2317"},"vehicle_type_id":"4","last_reported":1770157171,"current_range_meters":4800,"station_id":"ce4bgv92rcd13ifvqcr0","pricing_plan_id":"cebpf4jnsgd1na2vs0mg"},{"bike_id":"ab5b4f9f-ad6f-4b21-896b-3d7e4bb28591","system_id":"levelo_inurba_marseille","lat":43.26191,"lon":5.37452,"is_reserved":false,"is_disabled":false,"rental_uris":{"android":"levelo://app?vid=ab5b4f9f-ad6f-4b21-896b-3d7e4bb28591","ios":"levelo://app?vid=ab5b4f9f-ad6f-4b21-896b-3d7e4bb28591"},"vehicle_type_id":"4","last_reported":1770157171,"current_range_meters":5600,"station_id":"ce4bhgp2rcd13ifvqfc0","pricing_plan_id":"cebpf4jnsgd1na2vs0mg"},{"bike_id":"fd4003f9-ae57-43d9-af54-09e855d38b22","system_id":"levelo_inurba_marseille","lat":43.28534,"lon":5.44108,"is_reserved":false,"is_disabled":false,"rental_uris":{"android":"levelo://app?vid=fd4003f9-ae57-43d9-af54-09e855d38b22","ios":"levelo://app?vid=fd4003f9-ae57-43d9-af54-09e855d38b22"},"vehicle_type_id":"4","last_reported":1770157171,"current_range_meters":5600,"station_id":"st_d3j3df2ikq2c7380ej80","pricing_plan_id":"cebpf4jnsgd1na2vs0mg"},{"bike_id":"eb1b2124-84d2-467d-b1f5-56516dcfd958","system_id":"levelo_inurba_marseille","lat":43.21206,"lon":5.35093,"is_reserved":false,"is_disabled":false,"rental_uris":{"android":"levelo://app?vid=eb1b2124-84d2-467d-b1f5-56516dcfd958","ios":"levelo://app?vid=eb1b2124-84d2-467d-b1f5-56516dcfd958"},"vehicle_type_id":"4","last_reported":1770157171,"current_range_meters":5600,"station_id":"","pricing_plan_id":"cebpf4jnsgd1na2vs0mg"},{"bike_id":"0e834074-a264-4771-9012-2dbbbdaa43fb","system_id":"levelo_inurba_marseille","lat":43.28097,"lon":5.37814,"is_reserved":false,"is_disabled":false,"rental_uris":{"android":"levelo://app?vid=0e834074-a264-4771-9012-2dbbbdaa43fb","ios":"levelo://app?vid=0e834074-a264-4771-9012-2dbbbdaa43fb"},"vehicle_type_id":"4","last_reported":1770157171,"current_range_meters":5600,"station_id":"ce4bha12rcd13ifvqee0","pricing_plan_id":"cebpf4jnsgd1na2vs0mg"},{"bike_id":"7de714e1-e1e3-4cef-a665-bf94e4caea8c","system_id":"levelo_inurba_marseille","lat":43.22589,"lon":5.41651,"is_reserved":false,"is_disabled":false,"rental_uris":{"android":"levelo://app?vid=7de714e1-e1e3-4cef-a665-bf94e4caea8c","ios":"levelo://app?vid=7de714e1-e1e3-4cef-a665-bf94e4caea8c"},"vehicle_type_id":"4","last_reported":1770157171,"current_range_meters":5600,"station_id":"st_d2o4gvlbi1j2169b742g","pricing_plan_id":"cebpf4jnsgd1na2vs0mg"},{"bike_id":"413ca1e5-515a-4601-b78b-8729f8f0fbfd","system_id":"levelo_inurba_marseille","lat":43.30117,"lon":5.4313,"is_reserved":false,"is_disabled":false,"rental_uris":{"android":"levelo://app?vid=413ca1e5-515a-4601-b78b-8729f8f0fbfd","ios":"levelo://app?vid=413ca1e5-515a-4601-b78b-8729f8f0fbfd"},"vehicle_type_id":"4","last_reported":1770157171,"current_range_meters":5600,"station_id":"st_d3js3co5814s73ftftug","pricing_plan_id":"cebpf4jnsgd1na2vs0mg"},{"bike_id":"d96b5276-ddb9-4dda-bf61-4ae90512437d","system_id":"levelo_inurba_marseille","lat":43.2419,"lon":5.36442,"is_reserved":false,"is_disabled":false,"rental_uris":{"android":"levelo://app?vid=d96b5276-ddb9-4dda-bf61-4ae90512437d","ios":"levelo://app?vid=d96b5276-ddb9-4dda-bf61-4ae90512437d"},"vehicle_type_id":"4","last_reported":1770157171,"current_range_meters":5600,"station_id":"cpo36qri1sfpv3e86is0","pricing_plan_id":"cebpf4jnsgd1na2vs0mg"},{"bike_id":"549d637b-91c5-48ec-83fa-865a463b6a4b","system_id":"levelo_inurba_marseille","lat":43.23198,"lon":5.35553,"is_reserved":false,"is_disabled":false,"rental_uris":{"android":"levelo://app?vid=549d637b-91c5-48ec-83fa-865a463b6a4b","ios":"levelo://app?vid=549d637b-91c5-48ec-83fa-865a463b6a4b"},"vehicle_type_id":"4","last_reported":1770157171,"current_range_meters":5600,"station_id":"ce4bhu92rcd13ifvqi70","pricing_plan_id":"cebpf4jnsgd1na2vs0mg"},{"bike_id":"c6e97c37-12bb-45e3-8247-eb1b633be568","system_id":"levelo_inurba_marseille","lat":43.28677,"lon":5.38673,"is_reserved":false,"is_disabled":false,"rental_uris":{"android":"levelo://app?vid=c6e97c37-12bb-45e3-8247-eb1b633be568","ios":"levelo://app?vid=c6e97c37-12bb-45e3-8247-eb1b633be568"},"vehicle_type_id":"4","last_reported":1770157171,"current_range_meters":5600,"station_id":"ce4bh492rcd13ifvqdug","pricing_plan_id":"cebpf4jnsgd1na2vs0mg"},{"bike_id":"f64844b7-2d65-4e29-9f8c-ab35b85fa35a","system_id":"levelo_inurba_marseille","lat":43.285747,"lon":5.394941,"is_reserved":false,"is_disabled":false,"rental_uris":{"android":"levelo://app?vid=f64844b7-2d65-4e29-9f8c-ab35b85fa35a","ios":"levelo://app?vid=f64844b7-2d65-4e29-9f8c-ab35b85fa35a"},"vehicle_type_id":"4","last_reported":1770157171,"current_range_meters":5600,"station_id":"ce4bhn92rcd13ifvqgrg","pricing_plan_id":"cebpf4jnsgd1na2vs0mg"},{"bike_id":"34e4497e-004e-4d33-b563-df43c3f1dff0","system_id":"levelo_inurba_marseille","lat":43.29164,"lon":5.38827,"is_reserved":false,"is_disabled":false,"rental_uris":{"android":"levelo://app?vid=34e4497e-004e-4d33-b563-df43c3f1dff0","ios":"levelo://app?vid=34e4497e-004e-4d33-b563-df43c3f1dff0"},"vehicle_type_id":"4","last_reported":1770157171,"current_range_meters":5600,"station_id":"ce4bh4p2rcd13ifvqe0g","pricing_plan_id":"cebpf4jnsgd1na2vs0mg"},{"bike_id":"34d60330-3f7e-4aeb-acc6-eff17043fba2","system_id":"levelo_inurba_marseille","lat":43.29602,"lon":5.38781,"is_reserved":false,"is_disabled":false,"rental_uris":{"android":"levelo://app?vid=34d60330-3f7e-4aeb-acc6-eff17043fba2","ios":"levelo://app?vid=34d60330-3f7e-4aeb-acc6-eff17043fba2"},"vehicle_type_id":"4","last_reported":1770157171,"current_range_meters":5600,"station_id":"","pricing_plan_id":"cebpf4jnsgd1na2vs0mg"},{"bike_id":"f8e7e4d9-f87a-42a2-9144-b6886b943f25","system_id":"levelo_inurba_marseille","lat":43.24996,"lon":5.38944,"is_reserved":false,"is_disabled":false,"rental_uris":{"android":"levelo://app?vid=f8e7e4d9-f87a-42a2-9144-b6886b943f25","ios":"levelo://app?vid=f8e7e4d9-f87a-42a2-9144-b6886b943f25"},"vehicle_type_id":"4","last_reported":1770157171,"current_range_meters":6000,"station_id":"ce4bhgp2rcd13ifvqfd0","pricing_plan_id":"cebpf4jnsgd1na2vs0mg"},{"bike_id":"151047fe-b117-41cf-9416-4f91d0d3c1a9","system_id":"levelo_inurba_marseille","lat":43.31856,"lon":5.36908,"is_reserved":false,"is_disabled":false,"rental_uris":{"android":"levelo://app?vid=151047fe-b117-41cf-9416-4f91d0d3c1a9","ios":"levelo://app?vid=151047fe-b117-41cf-9416-4f91d0d3c1a9"},"vehicle_type_id":"4","last_reported":1770157171,"current_range_meters":6000,"station_id":"","pricing_plan_id":"cebpf4jnsgd1na2vs0mg"},{"bike_id":"67949cb0-ad73-42aa-8494-c2a7d6735f87","system_id":"levelo_inurba_marseille","lat":43.31207,"lon":5.36879,"is_reserved":false,"is_disabled":false,"rental_uris":{"android":"levelo://app?vid=67949cb0-ad73-42aa-8494-c2a7d6735f87","ios":"levelo://app?vid=67949cb0-ad73-42aa-8494-c2a7d6735f87"},"vehicle_type_id":"4","last_reported":1770157171,"current_range_meters":6000,"station_id":"ce4bgl92rcd13ifvqbq0","pricing_plan_id":"cebpf4jnsgd1na2vs0mg"},{"bike_id":"fbc14697-d33e-4b04-a9df-8f5a4db3a670","system_id":"levelo_inurba_marseille","lat":43.30528,"lon":5.36716,"is_reserved":false,"is_disabled":false,"rental_uris":{"android":"levelo://app?vid=fbc14697-d33e-4b04-a9df-8f5a4db3a670","ios":"levelo://app?vid=fbc14697-d33e-4b04-a9df-8f5a4db3a670"},"vehicle_type_id":"4","last_reported":1770157171,"current_range_meters":6000,"station_id":"ce4bgrp2rcd13ifvqc9g","pricing_plan_id":"cebpf4jnsgd1na2vs0mg"},{"bike_id":"c3ba0fed-3d29-4191-b8a3-c899b1e9e5ad","system_id":"levelo_inurba_marseille","lat":43.25572,"lon":5.38241,"is_reserved":false,"is_disabled":false,"rental_uris":{"android":"levelo://app?vid=c3ba0fed-3d29-4191-b8a3-c899b1e9e5ad","ios":"levelo://app?vid=c3ba0fed-3d29-4191-b8a3-c899b1e9e5ad"},"vehicle_type_id":"4","last_reported":1770157171,"current_range_meters":6000,"station_id":"ce4bhih2rcd13ifvqfs0","pricing_plan_id":"cebpf4jnsgd1na2vs0mg"},{"bike_id":"30018880-defb-4e1d-b4b9-524f673acfb8","system_id":"levelo_inurba_marseille","lat":43.29738,"lon":5.42797,"is_reserved":false,"is_disabled":false,"rental_uris":{"android":"levelo://app?vid=30018880-defb-4e1d-b4b9-524f673acfb8","ios":"levelo://app?vid=30018880-defb-4e1d-b4b9-524f673acfb8"},"vehicle_type_id":"4","last_reported":1770157171,"current_range_meters":6000,"station_id":"st_d3md5207bmas73dh9klg","pricing_plan_id":"cebpf4jnsgd1na2vs0mg"},{"bike_id":"e0dbfbca-ec96-436a-aa53-81521e31b965","system_id":"levelo_inurba_marseille","lat":43.28696,"lon":5.37417,"is_reserved":false,"is_disabled":false,"rental_uris":{"android":"levelo://app?vid=e0dbfbca-ec96-436a-aa53-81521e31b965","ios":"levelo://app?vid=e0dbfbca-ec96-436a-aa53-81521e31b965"},"vehicle_type_id":"4","last_reported":1770157171,"current_range_meters":6000,"station_id":"ce4bh3p2rcd13ifvqdq0","pricing_plan_id":"cebpf4jnsgd1na2vs0mg"},{"bike_id":"d46ff533-0eee-4665-b81c-0e20854ee49c","system_id":"levelo_inurba_marseille","lat":43.29942,"lon":5.36526,"is_reserved":false,"is_disabled":false,"rental_uris":{"android":"levelo://app?vid=d46ff533-0eee-4665-b81c-0e20854ee49c","ios":"levelo://app?vid=d46ff533-0eee-4665-b81c-0e20854ee49c"},"vehicle_type_id":"4","last_reported":1770157171,"current_range_meters":6000,"station_id":"ce4bgm92rcd13ifvqbr0","pricing_plan_id":"cebpf4jnsgd1na2vs0mg"},{"bike_id":"d709c60c-8cf9-4df8-8ca5-62381d83bfab","system_id":"levelo_inurba_marseille","lat":43.26488,"lon":5.39546,"is_reserved":false,"is_disabled":false,"rental_uris":{"android":"levelo://app?vid=d709c60c-8cf9-4df8-8ca5-62381d83bfab","ios":"levelo://app?vid=d709c60c-8cf9-4df8-8ca5-62381d83bfab"},"vehicle_type_id":"4","last_reported":1770157171,"current_range_meters":6000,"station_id":"ce4bhi12rcd13ifvqfq0","pricing_plan_id":"cebpf4jnsgd1na2vs0mg"},{"bike_id":"edcb87a3-89fd-4c81-b16f-a9efdb1bc6b7","system_id":"levelo_inurba_marseille","lat":43.27253,"lon":5.38277,"is_reserved":false,"is_disabled":true,"rental_uris":{"android":"levelo://app?vid=edcb87a3-89fd-4c81-b16f-a9efdb1bc6b7","ios":"levelo://app?vid=edcb87a3-89fd-4c81-b16f-a9efdb1bc6b7"},"vehicle_type_id":"4","last_reported":1770157171,"current_range_meters":6000,"station_id":"","pricing_plan_id":"cebpf4jnsgd1na2vs0mg"},{"bike_id":"ae829aa0-a378-4f8e-8bdb-39cf39c29d8a","system_id":"levelo_inurba_marseille","lat":43.273425,"lon":5.390781,"is_reserved":false,"is_disabled":false,"rental_uris":{"android":"levelo://app?vid=ae829aa0-a378-4f8e-8bdb-39cf39c29d8a","ios":"levelo://app?vid=ae829aa0-a378-4f8e-8bdb-39cf39c29d8a"},"vehicle_type_id":"4","last_reported":1770157171,"current_range_meters":6000,"station_id":"ce4bhgp2rcd13ifvqfe0","pricing_plan_id":"cebpf4jnsgd1na2vs0mg"},{"bike_id":"deb9e4eb-a481-4dbd-9838-7e21c4114a77","system_id":"levelo_inurba_marseille","lat":43.24632,"lon":5.38912,"is_reserved":false,"is_disabled":false,"rental_uris":{"android":"levelo://app?vid=deb9e4eb-a481-4dbd-9838-7e21c4114a77","ios":"levelo://app?vid=deb9e4eb-a481-4dbd-9838-7e21c4114a77"},"vehicle_type_id":"4","last_reported":1770157171,"current_range_meters":6000,"station_id":"ce4bhg12rcd13ifvqf60","pricing_plan_id":"cebpf4jnsgd1na2vs0mg"},{"bike_id":"c285e92b-5019-4730-a51c-37bd07f5927e","system_id":"levelo_inurba_marseille","lat":43.284887,"lon":5.383984,"is_reserved":false,"is_disabled":false,"rental_uris":{"android":"levelo://app?vid=c285e92b-5019-4730-a51c-37bd07f5927e","ios":"levelo://app?vid=c285e92b-5019-4730-a51c-37bd07f5927e"},"vehicle_type_id":"4","last_reported":1770157171,"current_range_meters":6000,"station_id":"ce4bh512rcd13ifvqe3g","pricing_plan_id":"cebpf4jnsgd1na2vs0mg"},{"bike_id":"26e2dbb7-466a-42a8-964a-0557cc18613b","system_id":"levelo_inurba_marseille","lat":43.273261,"lon":5.390794,"is_reserved":false,"is_disabled":false,"rental_uris":{"android":"levelo://app?vid=26e2dbb7-466a-42a8-964a-0557cc18613b","ios":"levelo://app?vid=26e2dbb7-466a-42a8-964a-0557cc18613b"},"vehicle_type_id":"4","last_reported":1770157171,"current_range_meters":6000,"station_id":"ce4bgip2rcd13ifvqbb0","pricing_plan_id":"cebpf4jnsgd1na2vs0mg"},{"bike_id":"3f65ac82-07e9-43d7-ad5b-47792d8a4550","system_id":"levelo_inurba_marseille","lat":43.28153,"lon":5.42643,"is_reserved":false,"is_disabled":false,"rental_uris":{"android":"levelo://app?vid=3f65ac82-07e9-43d7-ad5b-47792d8a4550","ios":"levelo://app?vid=3f65ac82-07e9-43d7-ad5b-47792d8a4550"},"vehicle_type_id":"4","last_reported":1770157171,"current_range_meters":6000,"station_id":"ce4bhnh2rcd13ifvqgug","pricing_plan_id":"cebpf4jnsgd1na2vs0mg"},{"bike_id":"40c4bd28-bd00-4ad6-9a95-78f147c53e6a","system_id":"levelo_inurba_marseille","lat":43.27441,"lon":5.39412,"is_reserved":false,"is_disabled":false,"rental_uris":{"android":"levelo://app?vid=40c4bd28-bd00-4ad6-9a95-78f147c53e6a","ios":"levelo://app?vid=40c4bd28-bd00-4ad6-9a95-78f147c53e6a"},"vehicle_type_id":"4","last_reported":1770157171,"current_range_meters":6000,"station_id":"ce4bhdp2rcd13ifvqf20","pricing_plan_id":"cebpf4jnsgd1na2vs0mg"},{"bike_id":"046cbdeb-0034-4bf7-a8f7-6f44c90a617b","system_id":"levelo_inurba_marseille","lat":43.29353,"lon":5.38327,"is_reserved":false,"is_disabled":false,"rental_uris":{"android":"levelo://app?vid=046cbdeb-0034-4bf7-a8f7-6f44c90a617b","ios":"levelo://app?vid=046cbdeb-0034-4bf7-a8f7-6f44c90a617b"},"vehicle_type_id":"4","last_reported":1770157171,"current_range_meters":6000,"station_id":"","pricing_plan_id":"cebpf4jnsgd1na2vs0mg"},{"bike_id":"5ae76a3b-874b-4b31-b859-bbf19cfc30a2","system_id":"levelo_inurba_marseille","lat":43.295288,"lon":5.390517,"is_reserved":false,"is_disabled":false,"rental_uris":{"android":"levelo://app?vid=5ae76a3b-874b-4b31-b859-bbf19cfc30a2","ios":"levelo://app?vid=5ae76a3b-874b-4b31-b859-bbf19cfc30a2"},"vehicle_type_id":"4","last_reported":1770157171,"current_range_meters":6400,"station_id":"ce4bh3p2rcd13ifvqdp0","pricing_plan_id":"cebpf4jnsgd1na2vs0mg"},{"bike_id":"56a1b9ba-7d3b-4d4d-816d-8ff70d14355a","system_id":"levelo_inurba_marseille","lat":43.24661,"lon":5.38163,"is_reserved":false,"is_disabled":false,"rental_uris":{"android":"levelo://app?vid=56a1b9ba-7d3b-4d4d-816d-8ff70d14355a","ios":"levelo://app?vid=56a1b9ba-7d3b-4d4d-816d-8ff70d14355a"},"vehicle_type_id":"4","last_reported":1770157171,"current_range_meters":6400,"station_id":"ce4bhih2rcd13ifvqfr0","pricing_plan_id":"cebpf4jnsgd1na2vs0mg"},{"bike_id":"2bf19671-0061-46e9-83e3-55d71bb70148","system_id":"levelo_inurba_marseille","lat":43.22953,"lon":5.3542,"is_reserved":false,"is_disabled":false,"rental_uris":{"android":"levelo://app?vid=2bf19671-0061-46e9-83e3-55d71bb70148","ios":"levelo://app?vid=2bf19671-0061-46e9-83e3-55d71bb70148"},"vehicle_type_id":"4","last_reported":1770157171,"current_range_meters":6400,"station_id":"cpo3532slgdg3j2ikp40","pricing_plan_id":"cebpf4jnsgd1na2vs0mg"},{"bike_id":"aaf22886-8931-43f5-890d-fc99243945fc","system_id":"levelo_inurba_marseille","lat":43.24176,"lon":5.39712,"is_reserved":false,"is_disabled":false,"rental_uris":{"android":"levelo://app?vid=aaf22886-8931-43f5-890d-fc99243945fc","ios":"levelo://app?vid=aaf22886-8931-43f5-890d-fc99243945fc"},"vehicle_type_id":"4","last_reported":1770157171,"current_range_meters":6400,"station_id":"ce4bhn12rcd13ifvqgpg","pricing_plan_id":"cebpf4jnsgd1na2vs0mg"},{"bike_id":"0132a3cf-69fe-4c36-a3f5-853ddb5ead41","system_id":"levelo_inurba_marseille","lat":43.24812,"lon":5.37443,"is_reserved":false,"is_disabled":false,"rental_uris":{"android":"levelo://app?vid=0132a3cf-69fe-4c36-a3f5-853ddb5ead41","ios":"levelo://app?vid=0132a3cf-69fe-4c36-a3f5-853ddb5ead41"},"vehicle_type_id":"4","last_reported":1770157171,"current_range_meters":6400,"station_id":"ce4bhgh2rcd13ifvqfb0","pricing_plan_id":"cebpf4jnsgd1na2vs0mg"},{"bike_id":"530b3fec-7af4-45eb-bf12-cc02b58eae44","system_id":"levelo_inurba_marseille","lat":43.246682,"lon":5.381525,"is_reserved":false,"is_disabled":false,"rental_uris":{"android":"levelo://app?vid=530b3fec-7af4-45eb-bf12-cc02b58eae44","ios":"levelo://app?vid=530b3fec-7af4-45eb-bf12-cc02b58eae44"},"vehicle_type_id":"4","last_reported":1770157171,"current_range_meters":6400,"station_id":"ce4bhih2rcd13ifvqfr0","pricing_plan_id":"cebpf4jnsgd1na2vs0mg"},{"bike_id":"33b4983b-12f9-44d8-b800-0a8b8c975eef","system_id":"levelo_inurba_marseille","lat":43.281576,"lon":5.42663,"is_reserved":false,"is_disabled":false,"rental_uris":{"android":"levelo://app?vid=33b4983b-12f9-44d8-b800-0a8b8c975eef","ios":"levelo://app?vid=33b4983b-12f9-44d8-b800-0a8b8c975eef"},"vehicle_type_id":"4","last_reported":1770157171,"current_range_meters":6400,"station_id":"ce4bhnh2rcd13ifvqgug","pricing_plan_id":"cebpf4jnsgd1na2vs0mg"},{"bike_id":"bcbaa8a6-886f-4091-ae26-8ec7b68ef274","system_id":"levelo_inurba_marseille","lat":43.23812,"lon":5.36657,"is_reserved":false,"is_disabled":false,"rental_uris":{"android":"levelo://app?vid=bcbaa8a6-886f-4091-ae26-8ec7b68ef274","ios":"levelo://app?vid=bcbaa8a6-886f-4091-ae26-8ec7b68ef274"},"vehicle_type_id":"4","last_reported":1770157171,"current_range_meters":6400,"station_id":"st_d3nk18o9ro0c73en2l3g","pricing_plan_id":"cebpf4jnsgd1na2vs0mg"},{"bike_id":"b420895b-0efa-4e27-b05b-8564aace2dfd","system_id":"levelo_inurba_marseille","lat":43.28612,"lon":5.35122,"is_reserved":false,"is_disabled":false,"rental_uris":{"android":"levelo://app?vid=b420895b-0efa-4e27-b05b-8564aace2dfd","ios":"levelo://app?vid=b420895b-0efa-4e27-b05b-8564aace2dfd"},"vehicle_type_id":"4","last_reported":1770157171,"current_range_meters":6400,"station_id":"","pricing_plan_id":"cebpf4jnsgd1na2vs0mg"},{"bike_id":"40954e61-dd73-4b29-8cc4-cc138532c8aa","system_id":"levelo_inurba_marseille","lat":43.29228,"lon":5.42519,"is_reserved":false,"is_disabled":false,"rental_uris":{"android":"levelo://app?vid=40954e61-dd73-4b29-8cc4-cc138532c8aa","ios":"levelo://app?vid=40954e61-dd73-4b29-8cc4-cc138532c8aa"},"vehicle_type_id":"4","last_reported":1770157171,"current_range_meters":6400,"station_id":"","pricing_plan_id":"cebpf4jnsgd1na2vs0mg"},{"bike_id":"d6fcfbb6-741a-47e6-b08d-f5036f90a3ce","system_id":"levelo_inurba_marseille","lat":43.24467,"lon":5.42537,"is_reserved":false,"is_disabled":false,"rental_uris":{"android":"levelo://app?vid=d6fcfbb6-741a-47e6-b08d-f5036f90a3ce","ios":"levelo://app?vid=d6fcfbb6-741a-47e6-b08d-f5036f90a3ce"},"vehicle_type_id":"4","last_reported":1770157171,"current_range_meters":6400,"station_id":"st_d4a3vfp97mjs738cd8kg","pricing_plan_id":"cebpf4jnsgd1na2vs0mg"},{"bike_id":"bfec0d79-485a-4bd0-9d67-db1ad8521994","system_id":"levelo_inurba_marseille","lat":43.24799,"lon":5.37457,"is_reserved":false,"is_disabled":false,"rental_uris":{"android":"levelo://app?vid=bfec0d79-485a-4bd0-9d67-db1ad8521994","ios":"levelo://app?vid=bfec0d79-485a-4bd0-9d67-db1ad8521994"},"vehicle_type_id":"4","last_reported":1770157171,"current_range_meters":6400,"station_id":"ce4bhgh2rcd13ifvqfb0","pricing_plan_id":"cebpf4jnsgd1na2vs0mg"},{"bike_id":"5396fda1-c3a0-4d51-8ba0-cfe497a166d7","system_id":"levelo_inurba_marseille","lat":43.26557,"lon":5.38986,"is_reserved":false,"is_disabled":false,"rental_uris":{"android":"levelo://app?vid=5396fda1-c3a0-4d51-8ba0-cfe497a166d7","ios":"levelo://app?vid=5396fda1-c3a0-4d51-8ba0-cfe497a166d7"},"vehicle_type_id":"4","last_reported":1770157171,"current_range_meters":6400,"station_id":"ce4bhe12rcd13ifvqf30","pricing_plan_id":"cebpf4jnsgd1na2vs0mg"},{"bike_id":"0311d9b7-b04a-4a40-82b0-0ccc400ecadf","system_id":"levelo_inurba_marseille","lat":43.310634,"lon":5.389295,"is_reserved":false,"is_disabled":false,"rental_uris":{"android":"levelo://app?vid=0311d9b7-b04a-4a40-82b0-0ccc400ecadf","ios":"levelo://app?vid=0311d9b7-b04a-4a40-82b0-0ccc400ecadf"},"vehicle_type_id":"4","last_reported":1770157171,"current_range_meters":6400,"station_id":"ce4bh192rcd13ifvqdb0","pricing_plan_id":"cebpf4jnsgd1na2vs0mg"},{"bike_id":"a3187843-b85c-41a1-aa14-9274fed66704","system_id":"levelo_inurba_marseille","lat":43.29038,"lon":5.37559,"is_reserved":false,"is_disabled":true,"rental_uris":{"android":"levelo://app?vid=a3187843-b85c-41a1-aa14-9274fed66704","ios":"levelo://app?vid=a3187843-b85c-41a1-aa14-9274fed66704"},"vehicle_type_id":"4","last_reported":1770157171,"current_range_meters":6400,"station_id":"ce4bh692rcd13ifvqe90","pricing_plan_id":"cebpf4jnsgd1na2vs0mg"},{"bike_id":"dcaa4a8f-eeeb-4a65-b90b-db85565e00da","system_id":"levelo_inurba_marseille","lat":43.24129,"lon":5.36396,"is_reserved":false,"is_disabled":false,"rental_uris":{"android":"levelo://app?vid=dcaa4a8f-eeeb-4a65-b90b-db85565e00da","ios":"levelo://app?vid=dcaa4a8f-eeeb-4a65-b90b-db85565e00da"},"vehicle_type_id":"4","last_reported":1770157171,"current_range_meters":6800,"station_id":"cpo36qri1sfpv3e86is0","pricing_plan_id":"cebpf4jnsgd1na2vs0mg"},{"bike_id":"d0242e5c-0183-4272-a3e7-75cd0bff3484","system_id":"levelo_inurba_marseille","lat":43.27697,"lon":5.38926,"is_reserved":false,"is_disabled":false,"rental_uris":{"android":"levelo://app?vid=d0242e5c-0183-4272-a3e7-75cd0bff3484","ios":"levelo://app?vid=d0242e5c-0183-4272-a3e7-75cd0bff3484"},"vehicle_type_id":"4","last_reported":1770157171,"current_range_meters":6800,"station_id":"ce4bhi12rcd13ifvqfo0","pricing_plan_id":"cebpf4jnsgd1na2vs0mg"},{"bike_id":"3496e3d5-ade9-4ef3-89c7-6224a9796381","system_id":"levelo_inurba_marseille","lat":43.2319,"lon":5.35547,"is_reserved":false,"is_disabled":false,"rental_uris":{"android":"levelo://app?vid=3496e3d5-ade9-4ef3-89c7-6224a9796381","ios":"levelo://app?vid=3496e3d5-ade9-4ef3-89c7-6224a9796381"},"vehicle_type_id":"4","last_reported":1770157171,"current_range_meters":6800,"station_id":"ce4bhu92rcd13ifvqi70","pricing_plan_id":"cebpf4jnsgd1na2vs0mg"},{"bike_id":"31d6b64e-48b2-4cc2-af49-c56a6b394847","system_id":"levelo_inurba_marseille","lat":43.2791,"lon":5.38006,"is_reserved":false,"is_disabled":true,"rental_uris":{"android":"levelo://app?vid=31d6b64e-48b2-4cc2-af49-c56a6b394847","ios":"levelo://app?vid=31d6b64e-48b2-4cc2-af49-c56a6b394847"},"vehicle_type_id":"4","last_reported":1770157171,"current_range_meters":6800,"station_id":"ce4bhf92rcd13ifvqf50","pricing_plan_id":"cebpf4jnsgd1na2vs0mg"},{"bike_id":"ec12566a-9d48-438d-80ed-97edb63a2c03","system_id":"levelo_inurba_marseille","lat":43.244737,"lon":5.425284,"is_reserved":false,"is_disabled":false,"rental_uris":{"android":"levelo://app?vid=ec12566a-9d48-438d-80ed-97edb63a2c03","ios":"levelo://app?vid=ec12566a-9d48-438d-80ed-97edb63a2c03"},"vehicle_type_id":"4","last_reported":1770157171,"current_range_meters":6800,"station_id":"st_d4a3vfp97mjs738cd8kg","pricing_plan_id":"cebpf4jnsgd1na2vs0mg"},{"bike_id":"81f974fe-76a7-4b0a-927b-0f80730a75ae","system_id":"levelo_inurba_marseille","lat":43.29551,"lon":5.38003,"is_reserved":false,"is_disabled":false,"rental_uris":{"android":"levelo://app?vid=81f974fe-76a7-4b0a-927b-0f80730a75ae","ios":"levelo://app?vid=81f974fe-76a7-4b0a-927b-0f80730a75ae"},"vehicle_type_id":"4","last_reported":1770157171,"current_range_meters":6800,"station_id":"","pricing_plan_id":"cebpf4jnsgd1na2vs0mg"},{"bike_id":"e1b3cad6-dccc-4f80-892b-59b83fe43b75","system_id":"levelo_inurba_marseille","lat":43.29572,"lon":5.36721,"is_reserved":false,"is_disabled":false,"rental_uris":{"android":"levelo://app?vid=e1b3cad6-dccc-4f80-892b-59b83fe43b75","ios":"levelo://app?vid=e1b3cad6-dccc-4f80-892b-59b83fe43b75"},"vehicle_type_id":"4","last_reported":1770157171,"current_range_meters":6800,"station_id":"ce4bgph2rcd13ifvqc2g","pricing_plan_id":"cebpf4jnsgd1na2vs0mg"},{"bike_id":"7f77f6a6-911c-44cf-97f5-71224b3633e0","system_id":"levelo_inurba_marseille","lat":43.25226,"lon":5.38019,"is_reserved":false,"is_disabled":false,"rental_uris":{"android":"levelo://app?vid=7f77f6a6-911c-44cf-97f5-71224b3633e0","ios":"levelo://app?vid=7f77f6a6-911c-44cf-97f5-71224b3633e0"},"vehicle_type_id":"4","last_reported":1770157171,"current_range_meters":6800,"station_id":"","pricing_plan_id":"cebpf4jnsgd1na2vs0mg"},{"bike_id":"c3d3473b-1395-4d7f-8e03-78f93a7e24c6","system_id":"levelo_inurba_marseille","lat":43.2836,"lon":5.38111,"is_reserved":false,"is_disabled":false,"rental_uris":{"android":"levelo://app?vid=c3d3473b-1395-4d7f-8e03-78f93a7e24c6","ios":"levelo://app?vid=c3d3473b-1395-4d7f-8e03-78f93a7e24c6"},"vehicle_type_id":"4","last_reported":1770157171,"current_range_meters":6800,"station_id":"ce4bh412rcd13ifvqdr0","pricing_plan_id":"cebpf4jnsgd1na2vs0mg"},{"bike_id":"3492d7e4-2dea-4cd5-b457-298b87f5c159","system_id":"levelo_inurba_marseille","lat":43.24468,"lon":5.42526,"is_reserved":false,"is_disabled":false,"rental_uris":{"android":"levelo://app?vid=3492d7e4-2dea-4cd5-b457-298b87f5c159","ios":"levelo://app?vid=3492d7e4-2dea-4cd5-b457-298b87f5c159"},"vehicle_type_id":"4","last_reported":1770157171,"current_range_meters":6800,"station_id":"st_d4a3vfp97mjs738cd8kg","pricing_plan_id":"cebpf4jnsgd1na2vs0mg"},{"bike_id":"6a477e8f-6e48-4c73-8f9d-5703baa48dd3","system_id":"levelo_inurba_marseille","lat":43.29963,"lon":5.38489,"is_reserved":false,"is_disabled":false,"rental_uris":{"android":"levelo://app?vid=6a477e8f-6e48-4c73-8f9d-5703baa48dd3","ios":"levelo://app?vid=6a477e8f-6e48-4c73-8f9d-5703baa48dd3"},"vehicle_type_id":"4","last_reported":1770157171,"current_range_meters":6800,"station_id":"ce4bgj92rcd13ifvqbd0","pricing_plan_id":"cebpf4jnsgd1na2vs0mg"},{"bike_id":"5b3811ef-5681-4c18-aac4-a62920f9a85c","system_id":"levelo_inurba_marseille","lat":43.28477,"lon":5.51492,"is_reserved":false,"is_disabled":false,"rental_uris":{"android":"levelo://app?vid=5b3811ef-5681-4c18-aac4-a62920f9a85c","ios":"levelo://app?vid=5b3811ef-5681-4c18-aac4-a62920f9a85c"},"vehicle_type_id":"4","last_reported":1770157171,"current_range_meters":6800,"station_id":"","pricing_plan_id":"cebpf4jnsgd1na2vs0mg"},{"bike_id":"3a311b2a-3a28-4f7b-b899-6356039d4a1b","system_id":"levelo_inurba_marseille","lat":43.27804,"lon":5.39216,"is_reserved":false,"is_disabled":false,"rental_uris":{"android":"levelo://app?vid=3a311b2a-3a28-4f7b-b899-6356039d4a1b","ios":"levelo://app?vid=3a311b2a-3a28-4f7b-b899-6356039d4a1b"},"vehicle_type_id":"4","last_reported":1770157171,"current_range_meters":6800,"station_id":"ce4bhjp2rcd13ifvqga0","pricing_plan_id":"cebpf4jnsgd1na2vs0mg"},{"bike_id":"b15b1c70-6e04-4cd9-ad82-1227f95199f3","system_id":"levelo_inurba_marseille","lat":43.27054,"lon":5.40261,"is_reserved":false,"is_disabled":false,"rental_uris":{"android":"levelo://app?vid=b15b1c70-6e04-4cd9-ad82-1227f95199f3","ios":"levelo://app?vid=b15b1c70-6e04-4cd9-ad82-1227f95199f3"},"vehicle_type_id":"4","last_reported":1770157171,"current_range_meters":6800,"station_id":"ce4bhk92rcd13ifvqgc0","pricing_plan_id":"cebpf4jnsgd1na2vs0mg"},{"bike_id":"bdd7615b-4ffa-44b3-82ed-802ac709fa57","system_id":"levelo_inurba_marseille","lat":43.30311,"lon":5.39213,"is_reserved":false,"is_disabled":false,"rental_uris":{"android":"levelo://app?vid=bdd7615b-4ffa-44b3-82ed-802ac709fa57","ios":"levelo://app?vid=bdd7615b-4ffa-44b3-82ed-802ac709fa57"},"vehicle_type_id":"4","last_reported":1770157171,"current_range_meters":6800,"station_id":"ce4bgkh2rcd13ifvqbk0","pricing_plan_id":"cebpf4jnsgd1na2vs0mg"},{"bike_id":"4651bd72-2cc4-46af-9f28-98a50310723a","system_id":"levelo_inurba_marseille","lat":43.31695,"lon":5.39386,"is_reserved":false,"is_disabled":false,"rental_uris":{"android":"levelo://app?vid=4651bd72-2cc4-46af-9f28-98a50310723a","ios":"levelo://app?vid=4651bd72-2cc4-46af-9f28-98a50310723a"},"vehicle_type_id":"4","last_reported":1770157171,"current_range_meters":6800,"station_id":"","pricing_plan_id":"cebpf4jnsgd1na2vs0mg"},{"bike_id":"c269eff6-7414-4fb8-b35a-8132e5c63b79","system_id":"levelo_inurba_marseille","lat":43.25005,"lon":5.38954,"is_reserved":false,"is_disabled":false,"rental_uris":{"android":"levelo://app?vid=c269eff6-7414-4fb8-b35a-8132e5c63b79","ios":"levelo://app?vid=c269eff6-7414-4fb8-b35a-8132e5c63b79"},"vehicle_type_id":"4","last_reported":1770157171,"current_range_meters":6800,"station_id":"ce4bhgp2rcd13ifvqfd0","pricing_plan_id":"cebpf4jnsgd1na2vs0mg"},{"bike_id":"d0b59fd4-6758-4158-b731-7b62c9fb06fe","system_id":"levelo_inurba_marseille","lat":43.28852,"lon":5.3587,"is_reserved":false,"is_disabled":false,"rental_uris":{"android":"levelo://app?vid=d0b59fd4-6758-4158-b731-7b62c9fb06fe","ios":"levelo://app?vid=d0b59fd4-6758-4158-b731-7b62c9fb06fe"},"vehicle_type_id":"4","last_reported":1770157171,"current_range_meters":7200,"station_id":"ce4bhb12rcd13ifvqem0","pricing_plan_id":"cebpf4jnsgd1na2vs0mg"},{"bike_id":"a94d9717-9684-448a-a4f3-6cd6c0871bfe","system_id":"levelo_inurba_marseille","lat":43.31329,"lon":5.39709,"is_reserved":false,"is_disabled":false,"rental_uris":{"android":"levelo://app?vid=a94d9717-9684-448a-a4f3-6cd6c0871bfe","ios":"levelo://app?vid=a94d9717-9684-448a-a4f3-6cd6c0871bfe"},"vehicle_type_id":"4","last_reported":1770157171,"current_range_meters":7200,"station_id":"ce4bgvp2rcd13ifvqcu0","pricing_plan_id":"cebpf4jnsgd1na2vs0mg"},{"bike_id":"7b5a0dfb-765e-4342-b899-346eb4eaaa2e","system_id":"levelo_inurba_marseille","lat":43.296,"lon":5.38106,"is_reserved":false,"is_disabled":false,"rental_uris":{"android":"levelo://app?vid=7b5a0dfb-765e-4342-b899-346eb4eaaa2e","ios":"levelo://app?vid=7b5a0dfb-765e-4342-b899-346eb4eaaa2e"},"vehicle_type_id":"4","last_reported":1770157171,"current_range_meters":7200,"station_id":"ce4bgl12rcd13ifvqbo0","pricing_plan_id":"cebpf4jnsgd1na2vs0mg"},{"bike_id":"59d22411-f372-43da-a2ac-d95b37b8122f","system_id":"levelo_inurba_marseille","lat":43.273209,"lon":5.390858,"is_reserved":false,"is_disabled":false,"rental_uris":{"android":"levelo://app?vid=59d22411-f372-43da-a2ac-d95b37b8122f","ios":"levelo://app?vid=59d22411-f372-43da-a2ac-d95b37b8122f"},"vehicle_type_id":"4","last_reported":1770157171,"current_range_meters":7200,"station_id":"ce4bhgp2rcd13ifvqfe0","pricing_plan_id":"cebpf4jnsgd1na2vs0mg"},{"bike_id":"659b2fe8-8a06-4a27-93de-c9d7bd01e359","system_id":"levelo_inurba_marseille","lat":43.29678,"lon":5.37641,"is_reserved":false,"is_disabled":false,"rental_uris":{"android":"levelo://app?vid=659b2fe8-8a06-4a27-93de-c9d7bd01e359","ios":"levelo://app?vid=659b2fe8-8a06-4a27-93de-c9d7bd01e359"},"vehicle_type_id":"4","last_reported":1770157171,"current_range_meters":7200,"station_id":"ce4bgkh2rcd13ifvqbl0","pricing_plan_id":"cebpf4jnsgd1na2vs0mg"},{"bike_id":"5268a57b-c5c9-446a-87ff-ede823dc6bfa","system_id":"levelo_inurba_marseille","lat":43.28565,"lon":5.39492,"is_reserved":false,"is_disabled":false,"rental_uris":{"android":"levelo://app?vid=5268a57b-c5c9-446a-87ff-ede823dc6bfa","ios":"levelo://app?vid=5268a57b-c5c9-446a-87ff-ede823dc6bfa"},"vehicle_type_id":"4","last_reported":1770157171,"current_range_meters":7200,"station_id":"ce4bh292rcd13ifvqdg0","pricing_plan_id":"cebpf4jnsgd1na2vs0mg"},{"bike_id":"191a99ed-49ff-4737-8f82-7264bf56cc6c","system_id":"levelo_inurba_marseille","lat":43.25011,"lon":5.38933,"is_reserved":false,"is_disabled":false,"rental_uris":{"android":"levelo://app?vid=191a99ed-49ff-4737-8f82-7264bf56cc6c","ios":"levelo://app?vid=191a99ed-49ff-4737-8f82-7264bf56cc6c"},"vehicle_type_id":"4","last_reported":1770157171,"current_range_meters":7200,"station_id":"ce4bhgp2rcd13ifvqfd0","pricing_plan_id":"cebpf4jnsgd1na2vs0mg"},{"bike_id":"5de5e604-6504-4a1a-966a-dc6c49a789b3","system_id":"levelo_inurba_marseille","lat":43.29581,"lon":5.36734,"is_reserved":false,"is_disabled":false,"rental_uris":{"android":"levelo://app?vid=5de5e604-6504-4a1a-966a-dc6c49a789b3","ios":"levelo://app?vid=5de5e604-6504-4a1a-966a-dc6c49a789b3"},"vehicle_type_id":"4","last_reported":1770157171,"current_range_meters":7200,"station_id":"ce4bgph2rcd13ifvqc2g","pricing_plan_id":"cebpf4jnsgd1na2vs0mg"},{"bike_id":"30b0a66c-3c65-486d-80e4-7dd9acfc4ef3","system_id":"levelo_inurba_marseille","lat":43.2656,"lon":5.373,"is_reserved":false,"is_disabled":false,"rental_uris":{"android":"levelo://app?vid=30b0a66c-3c65-486d-80e4-7dd9acfc4ef3","ios":"levelo://app?vid=30b0a66c-3c65-486d-80e4-7dd9acfc4ef3"},"vehicle_type_id":"4","last_reported":1770157171,"current_range_meters":7200,"station_id":"ce4bhg12rcd13ifvqf70","pricing_plan_id":"cebpf4jnsgd1na2vs0mg"},{"bike_id":"1b5a9ce0-a712-4e6e-83a1-5b3d08083ec7","system_id":"levelo_inurba_marseille","lat":43.23207,"lon":5.35554,"is_reserved":false,"is_disabled":false,"rental_uris":{"android":"levelo://app?vid=1b5a9ce0-a712-4e6e-83a1-5b3d08083ec7","ios":"levelo://app?vid=1b5a9ce0-a712-4e6e-83a1-5b3d08083ec7"},"vehicle_type_id":"4","last_reported":1770157171,"current_range_meters":7200,"station_id":"ce4bhu92rcd13ifvqi70","pricing_plan_id":"cebpf4jnsgd1na2vs0mg"},{"bike_id":"ccad5bb8-727e-4e27-b0cc-7b2f496ea109","system_id":"levelo_inurba_marseille","lat":43.29546,"lon":5.42293,"is_reserved":false,"is_disabled":false,"rental_uris":{"android":"levelo://app?vid=ccad5bb8-727e-4e27-b0cc-7b2f496ea109","ios":"levelo://app?vid=ccad5bb8-727e-4e27-b0cc-7b2f496ea109"},"vehicle_type_id":"4","last_reported":1770157171,"current_range_meters":7200,"station_id":"ce4bhph2rcd13ifvqhdg","pricing_plan_id":"cebpf4jnsgd1na2vs0mg"},{"bike_id":"003a19d5-9083-46f1-954b-8756c99a38b5","system_id":"levelo_inurba_marseille","lat":43.31945,"lon":5.38019,"is_reserved":false,"is_disabled":false,"rental_uris":{"android":"levelo://app?vid=003a19d5-9083-46f1-954b-8756c99a38b5","ios":"levelo://app?vid=003a19d5-9083-46f1-954b-8756c99a38b5"},"vehicle_type_id":"4","last_reported":1770157171,"current_range_meters":7200,"station_id":"ce4bhr12rcd13ifvqhpg","pricing_plan_id":"cebpf4jnsgd1na2vs0mg"},{"bike_id":"b76b0812-c1ce-4144-9b78-716e1fd3e796","system_id":"levelo_inurba_marseille","lat":43.28617,"lon":5.35108,"is_reserved":false,"is_disabled":false,"rental_uris":{"android":"levelo://app?vid=b76b0812-c1ce-4144-9b78-716e1fd3e796","ios":"levelo://app?vid=b76b0812-c1ce-4144-9b78-716e1fd3e796"},"vehicle_type_id":"4","last_reported":1770157171,"current_range_meters":7200,"station_id":"ce4bhch2rcd13ifvqeug","pricing_plan_id":"cebpf4jnsgd1na2vs0mg"},{"bike_id":"ebb15815-1365-488d-a98b-a0d234ebb784","system_id":"levelo_inurba_marseille","lat":43.29554,"lon":5.38553,"is_reserved":false,"is_disabled":false,"rental_uris":{"android":"levelo://app?vid=ebb15815-1365-488d-a98b-a0d234ebb784","ios":"levelo://app?vid=ebb15815-1365-488d-a98b-a0d234ebb784"},"vehicle_type_id":"4","last_reported":1770157171,"current_range_meters":7200,"station_id":"ce4bgih2rcd13ifvqba0","pricing_plan_id":"cebpf4jnsgd1na2vs0mg"},{"bike_id":"10f7a738-c950-4147-bce6-61a9962a70b5","system_id":"levelo_inurba_marseille","lat":43.25093,"lon":5.39513,"is_reserved":false,"is_disabled":false,"rental_uris":{"android":"levelo://app?vid=10f7a738-c950-4147-bce6-61a9962a70b5","ios":"levelo://app?vid=10f7a738-c950-4147-bce6-61a9962a70b5"},"vehicle_type_id":"4","last_reported":1770157171,"current_range_meters":7200,"station_id":"ce4bhm12rcd13ifvqgkg","pricing_plan_id":"cebpf4jnsgd1na2vs0mg"},{"bike_id":"8e312380-e745-433d-90b9-ff07a309073d","system_id":"levelo_inurba_marseille","lat":43.24811,"lon":5.37448,"is_reserved":false,"is_disabled":false,"rental_uris":{"android":"levelo://app?vid=8e312380-e745-433d-90b9-ff07a309073d","ios":"levelo://app?vid=8e312380-e745-433d-90b9-ff07a309073d"},"vehicle_type_id":"4","last_reported":1770157171,"current_range_meters":8000,"station_id":"ce4bhgh2rcd13ifvqfb0","pricing_plan_id":"cebpf4jnsgd1na2vs0mg"},{"bike_id":"c056efdd-bfd4-4d90-a2c4-30f136ba140c","system_id":"levelo_inurba_marseille","lat":43.33496,"lon":5.37477,"is_reserved":false,"is_disabled":false,"rental_uris":{"android":"levelo://app?vid=c056efdd-bfd4-4d90-a2c4-30f136ba140c","ios":"levelo://app?vid=c056efdd-bfd4-4d90-a2c4-30f136ba140c"},"vehicle_type_id":"4","last_reported":1770157171,"current_range_meters":8000,"station_id":"","pricing_plan_id":"cebpf4jnsgd1na2vs0mg"},{"bike_id":"a65e0754-d795-41c0-8808-e1e6a51033a7","system_id":"levelo_inurba_marseille","lat":43.26718,"lon":5.39611,"is_reserved":false,"is_disabled":false,"rental_uris":{"android":"levelo://app?vid=a65e0754-d795-41c0-8808-e1e6a51033a7","ios":"levelo://app?vid=a65e0754-d795-41c0-8808-e1e6a51033a7"},"vehicle_type_id":"4","last_reported":1770157171,"current_range_meters":8000,"station_id":"","pricing_plan_id":"cebpf4jnsgd1na2vs0mg"},{"bike_id":"06efda88-b77e-46c3-96a2-10877feaaf19","system_id":"levelo_inurba_marseille","lat":43.306467,"lon":5.400949,"is_reserved":false,"is_disabled":false,"rental_uris":{"android":"levelo://app?vid=06efda88-b77e-46c3-96a2-10877feaaf19","ios":"levelo://app?vid=06efda88-b77e-46c3-96a2-10877feaaf19"},"vehicle_type_id":"4","last_reported":1770157171,"current_range_meters":8000,"station_id":"ce4bh112rcd13ifvqda0","pricing_plan_id":"cebpf4jnsgd1na2vs0mg"},{"bike_id":"574b46f0-3f1e-4de0-961b-a840353bfcf3","system_id":"levelo_inurba_marseille","lat":43.23797,"lon":5.36631,"is_reserved":false,"is_disabled":false,"rental_uris":{"android":"levelo://app?vid=574b46f0-3f1e-4de0-961b-a840353bfcf3","ios":"levelo://app?vid=574b46f0-3f1e-4de0-961b-a840353bfcf3"},"vehicle_type_id":"4","last_reported":1770157171,"current_range_meters":8000,"station_id":"st_d3nk18o9ro0c73en2l3g","pricing_plan_id":"cebpf4jnsgd1na2vs0mg"},{"bike_id":"242256f5-f0bd-4204-9565-2087ceacdda5","system_id":"levelo_inurba_marseille","lat":43.22556,"lon":5.41634,"is_reserved":false,"is_disabled":false,"rental_uris":{"android":"levelo://app?vid=242256f5-f0bd-4204-9565-2087ceacdda5","ios":"levelo://app?vid=242256f5-f0bd-4204-9565-2087ceacdda5"},"vehicle_type_id":"4","last_reported":1770157171,"current_range_meters":8000,"station_id":"st_d2o4gvlbi1j2169b742g","pricing_plan_id":"cebpf4jnsgd1na2vs0mg"},{"bike_id":"73d7fb99-d853-42ce-a7a8-f1ef6eca6976","system_id":"levelo_inurba_marseille","lat":43.30885,"lon":5.39651,"is_reserved":false,"is_disabled":false,"rental_uris":{"android":"levelo://app?vid=73d7fb99-d853-42ce-a7a8-f1ef6eca6976","ios":"levelo://app?vid=73d7fb99-d853-42ce-a7a8-f1ef6eca6976"},"vehicle_type_id":"4","last_reported":1770157171,"current_range_meters":8000,"station_id":"ce4bh012rcd13ifvqcv0","pricing_plan_id":"cebpf4jnsgd1na2vs0mg"},{"bike_id":"ba3390f5-14ed-4160-abcf-8bea19885613","system_id":"levelo_inurba_marseille","lat":43.28495,"lon":5.48406,"is_reserved":false,"is_disabled":false,"rental_uris":{"android":"levelo://app?vid=ba3390f5-14ed-4160-abcf-8bea19885613","ios":"levelo://app?vid=ba3390f5-14ed-4160-abcf-8bea19885613"},"vehicle_type_id":"4","last_reported":1770157171,"current_range_meters":8000,"station_id":"st_d3svhcjqgbts73a3dn0g","pricing_plan_id":"cebpf4jnsgd1na2vs0mg"},{"bike_id":"fba83296-cf08-4ba9-8267-d1dc13133a44","system_id":"levelo_inurba_marseille","lat":43.26222,"lon":5.40521,"is_reserved":false,"is_disabled":false,"rental_uris":{"android":"levelo://app?vid=fba83296-cf08-4ba9-8267-d1dc13133a44","ios":"levelo://app?vid=fba83296-cf08-4ba9-8267-d1dc13133a44"},"vehicle_type_id":"4","last_reported":1770157171,"current_range_meters":8000,"station_id":"","pricing_plan_id":"cebpf4jnsgd1na2vs0mg"},{"bike_id":"fdc74734-8708-4513-9519-5478f60a2254","system_id":"levelo_inurba_marseille","lat":43.2481,"lon":5.37481,"is_reserved":false,"is_disabled":false,"rental_uris":{"android":"levelo://app?vid=fdc74734-8708-4513-9519-5478f60a2254","ios":"levelo://app?vid=fdc74734-8708-4513-9519-5478f60a2254"},"vehicle_type_id":"4","last_reported":1770157171,"current_range_meters":8000,"station_id":"ce4bhgh2rcd13ifvqfb0","pricing_plan_id":"cebpf4jnsgd1na2vs0mg"},{"bike_id":"4db1d12f-5792-4368-a47d-ff062863d759","system_id":"levelo_inurba_marseille","lat":43.29186,"lon":5.38609,"is_reserved":false,"is_disabled":false,"rental_uris":{"android":"levelo://app?vid=4db1d12f-5792-4368-a47d-ff062863d759","ios":"levelo://app?vid=4db1d12f-5792-4368-a47d-ff062863d759"},"vehicle_type_id":"4","last_reported":1770157171,"current_range_meters":8000,"station_id":"","pricing_plan_id":"cebpf4jnsgd1na2vs0mg"},{"bike_id":"068098b6-2917-46c3-bbcd-2f4568f90c7b","system_id":"levelo_inurba_marseille","lat":43.2864,"lon":5.35085,"is_reserved":false,"is_disabled":true,"rental_uris":{"android":"levelo://app?vid=068098b6-2917-46c3-bbcd-2f4568f90c7b","ios":"levelo://app?vid=068098b6-2917-46c3-bbcd-2f4568f90c7b"},"vehicle_type_id":"4","last_reported":1770157171,"current_range_meters":8000,"station_id":"","pricing_plan_id":"cebpf4jnsgd1na2vs0mg"},{"bike_id":"03957cd6-ee2d-47d1-948d-c3da3284d226","system_id":"levelo_inurba_marseille","lat":43.28942,"lon":5.36412,"is_reserved":false,"is_disabled":true,"rental_uris":{"android":"levelo://app?vid=03957cd6-ee2d-47d1-948d-c3da3284d226","ios":"levelo://app?vid=03957cd6-ee2d-47d1-948d-c3da3284d226"},"vehicle_type_id":"4","last_reported":1770157171,"current_range_meters":8000,"station_id":"ce4bhc92rcd13ifvqetg","pricing_plan_id":"cebpf4jnsgd1na2vs0mg"},{"bike_id":"9c7711da-5dad-44a8-8560-b03a82c64417","system_id":"levelo_inurba_marseille","lat":43.253373,"lon":5.421653,"is_reserved":false,"is_disabled":false,"rental_uris":{"android":"levelo://app?vid=9c7711da-5dad-44a8-8560-b03a82c64417","ios":"levelo://app?vid=9c7711da-5dad-44a8-8560-b03a82c64417"},"vehicle_type_id":"4","last_reported":1770157171,"current_range_meters":8000,"station_id":"st_d2m65c5bi1j21697t3ng","pricing_plan_id":"cebpf4jnsgd1na2vs0mg"},{"bike_id":"a1d40264-31fa-4368-a92c-3f50c8a64b96","system_id":"levelo_inurba_marseille","lat":43.23152,"lon":5.43704,"is_reserved":false,"is_disabled":false,"rental_uris":{"android":"levelo://app?vid=a1d40264-31fa-4368-a92c-3f50c8a64b96","ios":"levelo://app?vid=a1d40264-31fa-4368-a92c-3f50c8a64b96"},"vehicle_type_id":"4","last_reported":1770157171,"current_range_meters":8000,"station_id":"ce4bhmp2rcd13ifvqgog","pricing_plan_id":"cebpf4jnsgd1na2vs0mg"},{"bike_id":"efea85db-b1c8-46f7-b3e0-9fa246910aa6","system_id":"levelo_inurba_marseille","lat":43.23189,"lon":5.39992,"is_reserved":false,"is_disabled":false,"rental_uris":{"android":"levelo://app?vid=efea85db-b1c8-46f7-b3e0-9fa246910aa6","ios":"levelo://app?vid=efea85db-b1c8-46f7-b3e0-9fa246910aa6"},"vehicle_type_id":"4","last_reported":1770157171,"current_range_meters":8000,"station_id":"ce4bhn12rcd13ifvqgqg","pricing_plan_id":"cebpf4jnsgd1na2vs0mg"},{"bike_id":"6d514f0c-1866-4b4d-91f3-b070fee6c5e1","system_id":"levelo_inurba_marseille","lat":43.29179,"lon":5.39327,"is_reserved":false,"is_disabled":false,"rental_uris":{"android":"levelo://app?vid=6d514f0c-1866-4b4d-91f3-b070fee6c5e1","ios":"levelo://app?vid=6d514f0c-1866-4b4d-91f3-b070fee6c5e1"},"vehicle_type_id":"4","last_reported":1770157171,"current_range_meters":8000,"station_id":"ce4bh192rcd13ifvqdd0","pricing_plan_id":"cebpf4jnsgd1na2vs0mg"},{"bike_id":"b0de10e1-c8dd-4794-bb07-685c2b13619b","system_id":"levelo_inurba_marseille","lat":43.24955,"lon":5.40492,"is_reserved":false,"is_disabled":false,"rental_uris":{"android":"levelo://app?vid=b0de10e1-c8dd-4794-bb07-685c2b13619b","ios":"levelo://app?vid=b0de10e1-c8dd-4794-bb07-685c2b13619b"},"vehicle_type_id":"4","last_reported":1770157171,"current_range_meters":8000,"station_id":"st_d2ngiaodas8pm72gd1h0","pricing_plan_id":"cebpf4jnsgd1na2vs0mg"},{"bike_id":"a30779c7-3b67-4646-b428-8a9315b15af9","system_id":"levelo_inurba_marseille","lat":43.28917,"lon":5.38396,"is_reserved":false,"is_disabled":false,"rental_uris":{"android":"levelo://app?vid=a30779c7-3b67-4646-b428-8a9315b15af9","ios":"levelo://app?vid=a30779c7-3b67-4646-b428-8a9315b15af9"},"vehicle_type_id":"4","last_reported":1770157171,"current_range_meters":8000,"station_id":"ce4bh612rcd13ifvqe6g","pricing_plan_id":"cebpf4jnsgd1na2vs0mg"},{"bike_id":"f1510834-4f72-4738-aa6c-02f6ddaa6ac3","system_id":"levelo_inurba_marseille","lat":43.24814,"lon":5.37486,"is_reserved":false,"is_disabled":false,"rental_uris":{"android":"levelo://app?vid=f1510834-4f72-4738-aa6c-02f6ddaa6ac3","ios":"levelo://app?vid=f1510834-4f72-4738-aa6c-02f6ddaa6ac3"},"vehicle_type_id":"4","last_reported":1770157171,"current_range_meters":8000,"station_id":"ce4bhgh2rcd13ifvqfb0","pricing_plan_id":"cebpf4jnsgd1na2vs0mg"},{"bike_id":"d25c30ce-208a-4865-aa8f-61a37bd60365","system_id":"levelo_inurba_marseille","lat":43.29561,"lon":5.38144,"is_reserved":false,"is_disabled":false,"rental_uris":{"android":"levelo://app?vid=d25c30ce-208a-4865-aa8f-61a37bd60365","ios":"levelo://app?vid=d25c30ce-208a-4865-aa8f-61a37bd60365"},"vehicle_type_id":"4","last_reported":1770157171,"current_range_meters":8000,"station_id":"ce4bgl12rcd13ifvqbo0","pricing_plan_id":"cebpf4jnsgd1na2vs0mg"},{"bike_id":"b3a54eab-b946-460c-8d1b-dbc0ce5bc3c5","system_id":"levelo_inurba_marseille","lat":43.2815,"lon":5.42676,"is_reserved":false,"is_disabled":false,"rental_uris":{"android":"levelo://app?vid=b3a54eab-b946-460c-8d1b-dbc0ce5bc3c5","ios":"levelo://app?vid=b3a54eab-b946-460c-8d1b-dbc0ce5bc3c5"},"vehicle_type_id":"4","last_reported":1770157171,"current_range_meters":8000,"station_id":"ce4bhnh2rcd13ifvqgug","pricing_plan_id":"cebpf4jnsgd1na2vs0mg"},{"bike_id":"5db40262-c973-4b13-b2a9-ee1639ccf6b3","system_id":"levelo_inurba_marseille","lat":43.24811,"lon":5.37459,"is_reserved":false,"is_disabled":false,"rental_uris":{"android":"levelo://app?vid=5db40262-c973-4b13-b2a9-ee1639ccf6b3","ios":"levelo://app?vid=5db40262-c973-4b13-b2a9-ee1639ccf6b3"},"vehicle_type_id":"4","last_reported":1770157171,"current_range_meters":8400,"station_id":"ce4bhgh2rcd13ifvqfb0","pricing_plan_id":"cebpf4jnsgd1na2vs0mg"},{"bike_id":"da80b9ad-386b-4c70-a2af-dab01c3d7e83","system_id":"levelo_inurba_marseille","lat":43.26048,"lon":5.37549,"is_reserved":false,"is_disabled":false,"rental_uris":{"android":"levelo://app?vid=da80b9ad-386b-4c70-a2af-dab01c3d7e83","ios":"levelo://app?vid=da80b9ad-386b-4c70-a2af-dab01c3d7e83"},"vehicle_type_id":"4","last_reported":1770157171,"current_range_meters":8400,"station_id":"ce4bhgh2rcd13ifvqfa0","pricing_plan_id":"cebpf4jnsgd1na2vs0mg"},{"bike_id":"25ed47fc-271f-4de7-a2a6-6e589391bb92","system_id":"levelo_inurba_marseille","lat":43.28403,"lon":5.34998,"is_reserved":false,"is_disabled":false,"rental_uris":{"android":"levelo://app?vid=25ed47fc-271f-4de7-a2a6-6e589391bb92","ios":"levelo://app?vid=25ed47fc-271f-4de7-a2a6-6e589391bb92"},"vehicle_type_id":"4","last_reported":1770157171,"current_range_meters":8400,"station_id":"ce4bhbh2rcd13ifvqepg","pricing_plan_id":"cebpf4jnsgd1na2vs0mg"},{"bike_id":"30a564fc-cc84-4416-a8a0-217a2d812352","system_id":"levelo_inurba_marseille","lat":43.31711,"lon":5.40468,"is_reserved":false,"is_disabled":false,"rental_uris":{"android":"levelo://app?vid=30a564fc-cc84-4416-a8a0-217a2d812352","ios":"levelo://app?vid=30a564fc-cc84-4416-a8a0-217a2d812352"},"vehicle_type_id":"4","last_reported":1770157171,"current_range_meters":8400,"station_id":"ce4bh012rcd13ifvqd00","pricing_plan_id":"cebpf4jnsgd1na2vs0mg"},{"bike_id":"0753ef66-4b67-4d38-846b-63a28cc9793a","system_id":"levelo_inurba_marseille","lat":43.251478,"lon":5.394839,"is_reserved":false,"is_disabled":false,"rental_uris":{"android":"levelo://app?vid=0753ef66-4b67-4d38-846b-63a28cc9793a","ios":"levelo://app?vid=0753ef66-4b67-4d38-846b-63a28cc9793a"},"vehicle_type_id":"4","last_reported":1770157171,"current_range_meters":8400,"station_id":"ce4bhm12rcd13ifvqgkg","pricing_plan_id":"cebpf4jnsgd1na2vs0mg"},{"bike_id":"b886faeb-2ae5-4849-a4c7-c906741f8bf1","system_id":"levelo_inurba_marseille","lat":43.26574,"lon":5.40311,"is_reserved":false,"is_disabled":false,"rental_uris":{"android":"levelo://app?vid=b886faeb-2ae5-4849-a4c7-c906741f8bf1","ios":"levelo://app?vid=b886faeb-2ae5-4849-a4c7-c906741f8bf1"},"vehicle_type_id":"4","last_reported":1770157171,"current_range_meters":8400,"station_id":"ce4bhmp2rcd13ifvqgng","pricing_plan_id":"cebpf4jnsgd1na2vs0mg"},{"bike_id":"965fe77e-2880-48ae-9b04-83329f901992","system_id":"levelo_inurba_marseille","lat":43.25862,"lon":5.39885,"is_reserved":false,"is_disabled":false,"rental_uris":{"android":"levelo://app?vid=965fe77e-2880-48ae-9b04-83329f901992","ios":"levelo://app?vid=965fe77e-2880-48ae-9b04-83329f901992"},"vehicle_type_id":"4","last_reported":1770157171,"current_range_meters":8400,"station_id":"ce4bhl92rcd13ifvqghg","pricing_plan_id":"cebpf4jnsgd1na2vs0mg"},{"bike_id":"8fb4838b-c5bd-4cb2-8c92-fceeea48a889","system_id":"levelo_inurba_marseille","lat":43.29556,"lon":5.42282,"is_reserved":false,"is_disabled":false,"rental_uris":{"android":"levelo://app?vid=8fb4838b-c5bd-4cb2-8c92-fceeea48a889","ios":"levelo://app?vid=8fb4838b-c5bd-4cb2-8c92-fceeea48a889"},"vehicle_type_id":"4","last_reported":1770157171,"current_range_meters":8400,"station_id":"ce4bhph2rcd13ifvqhdg","pricing_plan_id":"cebpf4jnsgd1na2vs0mg"},{"bike_id":"04ab4868-a773-4da8-b9a9-f5fedd6e47ae","system_id":"levelo_inurba_marseille","lat":43.25728,"lon":5.41113,"is_reserved":false,"is_disabled":false,"rental_uris":{"android":"levelo://app?vid=04ab4868-a773-4da8-b9a9-f5fedd6e47ae","ios":"levelo://app?vid=04ab4868-a773-4da8-b9a9-f5fedd6e47ae"},"vehicle_type_id":"4","last_reported":1770157171,"current_range_meters":8400,"station_id":"ce4bhkp2rcd13ifvqgd0","pricing_plan_id":"cebpf4jnsgd1na2vs0mg"},{"bike_id":"ef4aafd7-31d8-4f9b-97f1-b8af2e53c15d","system_id":"levelo_inurba_marseille","lat":43.2991,"lon":5.43671,"is_reserved":false,"is_disabled":false,"rental_uris":{"android":"levelo://app?vid=ef4aafd7-31d8-4f9b-97f1-b8af2e53c15d","ios":"levelo://app?vid=ef4aafd7-31d8-4f9b-97f1-b8af2e53c15d"},"vehicle_type_id":"4","last_reported":1770157171,"current_range_meters":8400,"station_id":"ce4bhpp2rcd13ifvqhfg","pricing_plan_id":"cebpf4jnsgd1na2vs0mg"},{"bike_id":"d4d04fe6-644e-4e9e-b6d2-1aad5cffa50d","system_id":"levelo_inurba_marseille","lat":43.30722,"lon":5.42462,"is_reserved":false,"is_disabled":false,"rental_uris":{"android":"levelo://app?vid=d4d04fe6-644e-4e9e-b6d2-1aad5cffa50d","ios":"levelo://app?vid=d4d04fe6-644e-4e9e-b6d2-1aad5cffa50d"},"vehicle_type_id":"4","last_reported":1770157171,"current_range_meters":8400,"station_id":"st_cvj6ca6bvosntc0bfgr0","pricing_plan_id":"cebpf4jnsgd1na2vs0mg"},{"bike_id":"d5d98457-3377-411c-bbd5-111f6add1380","system_id":"levelo_inurba_marseille","lat":43.25896,"lon":5.39412,"is_reserved":false,"is_disabled":false,"rental_uris":{"android":"levelo://app?vid=d5d98457-3377-411c-bbd5-111f6add1380","ios":"levelo://app?vid=d5d98457-3377-411c-bbd5-111f6add1380"},"vehicle_type_id":"4","last_reported":1770157171,"current_range_meters":8400,"station_id":"","pricing_plan_id":"cebpf4jnsgd1na2vs0mg"},{"bike_id":"5ffc162c-3876-4a49-af02-3661f44effbb","system_id":"levelo_inurba_marseille","lat":43.28463,"lon":5.48454,"is_reserved":false,"is_disabled":false,"rental_uris":{"android":"levelo://app?vid=5ffc162c-3876-4a49-af02-3661f44effbb","ios":"levelo://app?vid=5ffc162c-3876-4a49-af02-3661f44effbb"},"vehicle_type_id":"4","last_reported":1770157171,"current_range_meters":8400,"station_id":"st_d3svhcjqgbts73a3dn0g","pricing_plan_id":"cebpf4jnsgd1na2vs0mg"},{"bike_id":"988afa8e-d306-4003-baf9-728102144f56","system_id":"levelo_inurba_marseille","lat":43.26753,"lon":5.38288,"is_reserved":false,"is_disabled":false,"rental_uris":{"android":"levelo://app?vid=988afa8e-d306-4003-baf9-728102144f56","ios":"levelo://app?vid=988afa8e-d306-4003-baf9-728102144f56"},"vehicle_type_id":"4","last_reported":1770157171,"current_range_meters":8800,"station_id":"","pricing_plan_id":"cebpf4jnsgd1na2vs0mg"},{"bike_id":"38e3e07b-adce-40ab-bc41-3d9f50c90e39","system_id":"levelo_inurba_marseille","lat":43.31305,"lon":5.40165,"is_reserved":false,"is_disabled":false,"rental_uris":{"android":"levelo://app?vid=38e3e07b-adce-40ab-bc41-3d9f50c90e39","ios":"levelo://app?vid=38e3e07b-adce-40ab-bc41-3d9f50c90e39"},"vehicle_type_id":"4","last_reported":1770157171,"current_range_meters":8800,"station_id":"ce4bh092rcd13ifvqd30","pricing_plan_id":"cebpf4jnsgd1na2vs0mg"},{"bike_id":"4671fb6c-cdd2-4f46-9ff0-243c805d5954","system_id":"levelo_inurba_marseille","lat":43.29686,"lon":5.36593,"is_reserved":false,"is_disabled":false,"rental_uris":{"android":"levelo://app?vid=4671fb6c-cdd2-4f46-9ff0-243c805d5954","ios":"levelo://app?vid=4671fb6c-cdd2-4f46-9ff0-243c805d5954"},"vehicle_type_id":"4","last_reported":1770157171,"current_range_meters":8800,"station_id":"ce4bgn12rcd13ifvqbt0","pricing_plan_id":"cebpf4jnsgd1na2vs0mg"},{"bike_id":"5892fc85-7848-4ac6-9041-3115ffbc60b4","system_id":"levelo_inurba_marseille","lat":43.24696,"lon":5.38152,"is_reserved":false,"is_disabled":false,"rental_uris":{"android":"levelo://app?vid=5892fc85-7848-4ac6-9041-3115ffbc60b4","ios":"levelo://app?vid=5892fc85-7848-4ac6-9041-3115ffbc60b4"},"vehicle_type_id":"4","last_reported":1770157171,"current_range_meters":8800,"station_id":"ce4bhih2rcd13ifvqfr0","pricing_plan_id":"cebpf4jnsgd1na2vs0mg"},{"bike_id":"ae4a16ba-5fc2-4e6e-86f1-52b891522f3b","system_id":"levelo_inurba_marseille","lat":43.29782,"lon":5.39353,"is_reserved":false,"is_disabled":false,"rental_uris":{"android":"levelo://app?vid=ae4a16ba-5fc2-4e6e-86f1-52b891522f3b","ios":"levelo://app?vid=ae4a16ba-5fc2-4e6e-86f1-52b891522f3b"},"vehicle_type_id":"4","last_reported":1770157171,"current_range_meters":8800,"station_id":"chh1huq6cuj3fo74tm60","pricing_plan_id":"cebpf4jnsgd1na2vs0mg"},{"bike_id":"06a32b71-6b5d-422f-9ffa-33d30a61072f","system_id":"levelo_inurba_marseille","lat":43.29701,"lon":5.36604,"is_reserved":false,"is_disabled":false,"rental_uris":{"android":"levelo://app?vid=06a32b71-6b5d-422f-9ffa-33d30a61072f","ios":"levelo://app?vid=06a32b71-6b5d-422f-9ffa-33d30a61072f"},"vehicle_type_id":"4","last_reported":1770157171,"current_range_meters":8800,"station_id":"ce4bgn12rcd13ifvqbt0","pricing_plan_id":"cebpf4jnsgd1na2vs0mg"},{"bike_id":"9d79ec10-3ed1-4035-8609-ff591e4f54d3","system_id":"levelo_inurba_marseille","lat":43.25576,"lon":5.3823,"is_reserved":false,"is_disabled":false,"rental_uris":{"android":"levelo://app?vid=9d79ec10-3ed1-4035-8609-ff591e4f54d3","ios":"levelo://app?vid=9d79ec10-3ed1-4035-8609-ff591e4f54d3"},"vehicle_type_id":"4","last_reported":1770157171,"current_range_meters":8800,"station_id":"ce4bhih2rcd13ifvqfs0","pricing_plan_id":"cebpf4jnsgd1na2vs0mg"},{"bike_id":"c7f54c04-a218-42d0-8644-fc599814cfde","system_id":"levelo_inurba_marseille","lat":43.2828,"lon":5.35057,"is_reserved":false,"is_disabled":false,"rental_uris":{"android":"levelo://app?vid=c7f54c04-a218-42d0-8644-fc599814cfde","ios":"levelo://app?vid=c7f54c04-a218-42d0-8644-fc599814cfde"},"vehicle_type_id":"4","last_reported":1770157171,"current_range_meters":8800,"station_id":"ce4bhbp2rcd13ifvqerg","pricing_plan_id":"cebpf4jnsgd1na2vs0mg"},{"bike_id":"2ca71d95-1987-485e-9bec-d8e651039ff3","system_id":"levelo_inurba_marseille","lat":43.31718,"lon":5.43723,"is_reserved":false,"is_disabled":false,"rental_uris":{"android":"levelo://app?vid=2ca71d95-1987-485e-9bec-d8e651039ff3","ios":"levelo://app?vid=2ca71d95-1987-485e-9bec-d8e651039ff3"},"vehicle_type_id":"4","last_reported":1770157171,"current_range_meters":8800,"station_id":"ce4bhp92rcd13ifvqhcg","pricing_plan_id":"cebpf4jnsgd1na2vs0mg"},{"bike_id":"d58020f3-57b5-4be6-b9d2-2cdc1c2e89f6","system_id":"levelo_inurba_marseille","lat":43.23967,"lon":5.36634,"is_reserved":false,"is_disabled":false,"rental_uris":{"android":"levelo://app?vid=d58020f3-57b5-4be6-b9d2-2cdc1c2e89f6","ios":"levelo://app?vid=d58020f3-57b5-4be6-b9d2-2cdc1c2e89f6"},"vehicle_type_id":"4","last_reported":1770157171,"current_range_meters":8800,"station_id":"ce4bhi12rcd13ifvqfp0","pricing_plan_id":"cebpf4jnsgd1na2vs0mg"},{"bike_id":"6911c53c-b00c-45fb-be18-12fed0f35fcb","system_id":"levelo_inurba_marseille","lat":43.29042,"lon":5.40015,"is_reserved":false,"is_disabled":false,"rental_uris":{"android":"levelo://app?vid=6911c53c-b00c-45fb-be18-12fed0f35fcb","ios":"levelo://app?vid=6911c53c-b00c-45fb-be18-12fed0f35fcb"},"vehicle_type_id":"4","last_reported":1770157171,"current_range_meters":8800,"station_id":"ce4bh392rcd13ifvqdm0","pricing_plan_id":"cebpf4jnsgd1na2vs0mg"},{"bike_id":"9a41c992-8ec6-4c5f-9787-da9fbb815a48","system_id":"levelo_inurba_marseille","lat":43.25578,"lon":5.38252,"is_reserved":false,"is_disabled":false,"rental_uris":{"android":"levelo://app?vid=9a41c992-8ec6-4c5f-9787-da9fbb815a48","ios":"levelo://app?vid=9a41c992-8ec6-4c5f-9787-da9fbb815a48"},"vehicle_type_id":"4","last_reported":1770157171,"current_range_meters":8800,"station_id":"ce4bhih2rcd13ifvqfs0","pricing_plan_id":"cebpf4jnsgd1na2vs0mg"},{"bike_id":"ef30bb24-f45f-400c-9967-a2a3b2da1488","system_id":"levelo_inurba_marseille","lat":43.282871,"lon":5.394313,"is_reserved":false,"is_disabled":false,"rental_uris":{"android":"levelo://app?vid=ef30bb24-f45f-400c-9967-a2a3b2da1488","ios":"levelo://app?vid=ef30bb24-f45f-400c-9967-a2a3b2da1488"},"vehicle_type_id":"4","last_reported":1770157171,"current_range_meters":8800,"station_id":"","pricing_plan_id":"cebpf4jnsgd1na2vs0mg"},{"bike_id":"c214f81c-e58b-4475-ad7c-a9d63d7d79c5","system_id":"levelo_inurba_marseille","lat":43.29547,"lon":5.42294,"is_reserved":false,"is_disabled":false,"rental_uris":{"android":"levelo://app?vid=c214f81c-e58b-4475-ad7c-a9d63d7d79c5","ios":"levelo://app?vid=c214f81c-e58b-4475-ad7c-a9d63d7d79c5"},"vehicle_type_id":"4","last_reported":1770157171,"current_range_meters":8800,"station_id":"ce4bhph2rcd13ifvqhdg","pricing_plan_id":"cebpf4jnsgd1na2vs0mg"},{"bike_id":"7b2df10f-d97d-4068-9983-8f53d0a78517","system_id":"levelo_inurba_marseille","lat":43.2888,"lon":5.42522,"is_reserved":false,"is_disabled":false,"rental_uris":{"android":"levelo://app?vid=7b2df10f-d97d-4068-9983-8f53d0a78517","ios":"levelo://app?vid=7b2df10f-d97d-4068-9983-8f53d0a78517"},"vehicle_type_id":"4","last_reported":1770157171,"current_range_meters":8800,"station_id":"st_d3b462108ojc7389ooeg","pricing_plan_id":"cebpf4jnsgd1na2vs0mg"},{"bike_id":"b4959117-dde4-4349-ae80-78726090a6a9","system_id":"levelo_inurba_marseille","lat":43.28835,"lon":5.35869,"is_reserved":false,"is_disabled":false,"rental_uris":{"android":"levelo://app?vid=b4959117-dde4-4349-ae80-78726090a6a9","ios":"levelo://app?vid=b4959117-dde4-4349-ae80-78726090a6a9"},"vehicle_type_id":"4","last_reported":1770157171,"current_range_meters":8800,"station_id":"ce4bhb12rcd13ifvqem0","pricing_plan_id":"cebpf4jnsgd1na2vs0mg"},{"bike_id":"55a26406-35c2-412b-b866-aef6eb4960c3","system_id":"levelo_inurba_marseille","lat":43.301201,"lon":5.367571,"is_reserved":false,"is_disabled":false,"rental_uris":{"android":"levelo://app?vid=55a26406-35c2-412b-b866-aef6eb4960c3","ios":"levelo://app?vid=55a26406-35c2-412b-b866-aef6eb4960c3"},"vehicle_type_id":"4","last_reported":1770157171,"current_range_meters":8800,"station_id":"","pricing_plan_id":"cebpf4jnsgd1na2vs0mg"},{"bike_id":"69cee04c-a87b-4f70-a6c8-b651de79778e","system_id":"levelo_inurba_marseille","lat":43.27426,"lon":5.39417,"is_reserved":false,"is_disabled":false,"rental_uris":{"android":"levelo://app?vid=69cee04c-a87b-4f70-a6c8-b651de79778e","ios":"levelo://app?vid=69cee04c-a87b-4f70-a6c8-b651de79778e"},"vehicle_type_id":"4","last_reported":1770157171,"current_range_meters":8800,"station_id":"ce4bhdp2rcd13ifvqf20","pricing_plan_id":"cebpf4jnsgd1na2vs0mg"},{"bike_id":"6be43c1f-db2c-43c9-a648-234cc72c5193","system_id":"levelo_inurba_marseille","lat":43.31596,"lon":5.40643,"is_reserved":false,"is_disabled":false,"rental_uris":{"android":"levelo://app?vid=6be43c1f-db2c-43c9-a648-234cc72c5193","ios":"levelo://app?vid=6be43c1f-db2c-43c9-a648-234cc72c5193"},"vehicle_type_id":"4","last_reported":1770157171,"current_range_meters":8800,"station_id":"","pricing_plan_id":"cebpf4jnsgd1na2vs0mg"},{"bike_id":"f57600aa-3553-4c5b-8eb9-2131032f6811","system_id":"levelo_inurba_marseille","lat":43.28206,"lon":5.39091,"is_reserved":false,"is_disabled":true,"rental_uris":{"android":"levelo://app?vid=f57600aa-3553-4c5b-8eb9-2131032f6811","ios":"levelo://app?vid=f57600aa-3553-4c5b-8eb9-2131032f6811"},"vehicle_type_id":"4","last_reported":1770157171,"current_range_meters":8800,"station_id":"ce4bhn92rcd13ifvqgsg","pricing_plan_id":"cebpf4jnsgd1na2vs0mg"},{"bike_id":"73b6626a-125d-4b63-8d66-3e6a9851d390","system_id":"levelo_inurba_marseille","lat":43.22564,"lon":5.41643,"is_reserved":false,"is_disabled":false,"rental_uris":{"android":"levelo://app?vid=73b6626a-125d-4b63-8d66-3e6a9851d390","ios":"levelo://app?vid=73b6626a-125d-4b63-8d66-3e6a9851d390"},"vehicle_type_id":"4","last_reported":1770157171,"current_range_meters":9200,"station_id":"st_d2o4gvlbi1j2169b742g","pricing_plan_id":"cebpf4jnsgd1na2vs0mg"},{"bike_id":"3c99789b-6c82-4ce6-99da-375aef3d9931","system_id":"levelo_inurba_marseille","lat":43.32664,"lon":5.41,"is_reserved":false,"is_disabled":false,"rental_uris":{"android":"levelo://app?vid=3c99789b-6c82-4ce6-99da-375aef3d9931","ios":"levelo://app?vid=3c99789b-6c82-4ce6-99da-375aef3d9931"},"vehicle_type_id":"4","last_reported":1770157171,"current_range_meters":9200,"station_id":"ce4bhpp2rcd13ifvqhgg","pricing_plan_id":"cebpf4jnsgd1na2vs0mg"},{"bike_id":"97439aa1-31ad-4375-8f64-db4b0521352b","system_id":"levelo_inurba_marseille","lat":43.293041,"lon":5.371744,"is_reserved":false,"is_disabled":false,"rental_uris":{"android":"levelo://app?vid=97439aa1-31ad-4375-8f64-db4b0521352b","ios":"levelo://app?vid=97439aa1-31ad-4375-8f64-db4b0521352b"},"vehicle_type_id":"4","last_reported":1770157171,"current_range_meters":9200,"station_id":"ce4bgh92rcd13ifvqb40","pricing_plan_id":"cebpf4jnsgd1na2vs0mg"},{"bike_id":"61c4cbe2-eed4-41e6-a6ff-be907a5d72ed","system_id":"levelo_inurba_marseille","lat":43.25,"lon":5.38954,"is_reserved":false,"is_disabled":false,"rental_uris":{"android":"levelo://app?vid=61c4cbe2-eed4-41e6-a6ff-be907a5d72ed","ios":"levelo://app?vid=61c4cbe2-eed4-41e6-a6ff-be907a5d72ed"},"vehicle_type_id":"4","last_reported":1770157171,"current_range_meters":9200,"station_id":"ce4bhgp2rcd13ifvqfd0","pricing_plan_id":"cebpf4jnsgd1na2vs0mg"},{"bike_id":"1b876b25-6b22-4962-82d4-862e433d9f63","system_id":"levelo_inurba_marseille","lat":43.286698,"lon":5.386674,"is_reserved":false,"is_disabled":true,"rental_uris":{"android":"levelo://app?vid=1b876b25-6b22-4962-82d4-862e433d9f63","ios":"levelo://app?vid=1b876b25-6b22-4962-82d4-862e433d9f63"},"vehicle_type_id":"4","last_reported":1770157171,"current_range_meters":9200,"station_id":"ce4bh492rcd13ifvqdug","pricing_plan_id":"cebpf4jnsgd1na2vs0mg"},{"bike_id":"db0bf10f-0510-4045-9fc0-c8e77a7bc5e7","system_id":"levelo_inurba_marseille","lat":43.27319,"lon":5.39117,"is_reserved":false,"is_disabled":false,"rental_uris":{"android":"levelo://app?vid=db0bf10f-0510-4045-9fc0-c8e77a7bc5e7","ios":"levelo://app?vid=db0bf10f-0510-4045-9fc0-c8e77a7bc5e7"},"vehicle_type_id":"4","last_reported":1770157171,"current_range_meters":9200,"station_id":"ce4bhgp2rcd13ifvqfe0","pricing_plan_id":"cebpf4jnsgd1na2vs0mg"},{"bike_id":"8e2f4441-d4a9-421a-863a-8c4e85979fa3","system_id":"levelo_inurba_marseille","lat":43.28622,"lon":5.3513,"is_reserved":false,"is_disabled":false,"rental_uris":{"android":"levelo://app?vid=8e2f4441-d4a9-421a-863a-8c4e85979fa3","ios":"levelo://app?vid=8e2f4441-d4a9-421a-863a-8c4e85979fa3"},"vehicle_type_id":"4","last_reported":1770157171,"current_range_meters":9200,"station_id":"ce4bhch2rcd13ifvqeug","pricing_plan_id":"cebpf4jnsgd1na2vs0mg"},{"bike_id":"708d8107-a502-4715-8ee8-97e259938ef7","system_id":"levelo_inurba_marseille","lat":43.24183,"lon":5.364,"is_reserved":false,"is_disabled":false,"rental_uris":{"android":"levelo://app?vid=708d8107-a502-4715-8ee8-97e259938ef7","ios":"levelo://app?vid=708d8107-a502-4715-8ee8-97e259938ef7"},"vehicle_type_id":"4","last_reported":1770157171,"current_range_meters":9200,"station_id":"cpo36qri1sfpv3e86is0","pricing_plan_id":"cebpf4jnsgd1na2vs0mg"},{"bike_id":"52c5e029-0e2a-4e71-8973-674c07954cbb","system_id":"levelo_inurba_marseille","lat":43.29043,"lon":5.36979,"is_reserved":false,"is_disabled":false,"rental_uris":{"android":"levelo://app?vid=52c5e029-0e2a-4e71-8973-674c07954cbb","ios":"levelo://app?vid=52c5e029-0e2a-4e71-8973-674c07954cbb"},"vehicle_type_id":"4","last_reported":1770157171,"current_range_meters":9200,"station_id":"","pricing_plan_id":"cebpf4jnsgd1na2vs0mg"},{"bike_id":"d01f427f-c980-49c6-90a0-08f64d22530d","system_id":"levelo_inurba_marseille","lat":43.27078,"lon":5.40324,"is_reserved":false,"is_disabled":false,"rental_uris":{"android":"levelo://app?vid=d01f427f-c980-49c6-90a0-08f64d22530d","ios":"levelo://app?vid=d01f427f-c980-49c6-90a0-08f64d22530d"},"vehicle_type_id":"4","last_reported":1770157171,"current_range_meters":9200,"station_id":"","pricing_plan_id":"cebpf4jnsgd1na2vs0mg"},{"bike_id":"aa564873-f5e8-4548-81a8-1254bc1b5f86","system_id":"levelo_inurba_marseille","lat":43.30215,"lon":5.39475,"is_reserved":false,"is_disabled":false,"rental_uris":{"android":"levelo://app?vid=aa564873-f5e8-4548-81a8-1254bc1b5f86","ios":"levelo://app?vid=aa564873-f5e8-4548-81a8-1254bc1b5f86"},"vehicle_type_id":"4","last_reported":1770157171,"current_range_meters":9200,"station_id":"ce4bh0p2rcd13ifvqd70","pricing_plan_id":"cebpf4jnsgd1na2vs0mg"},{"bike_id":"425b6705-005a-49d5-9d47-e6a239d20f8c","system_id":"levelo_inurba_marseille","lat":43.26566,"lon":5.37319,"is_reserved":false,"is_disabled":false,"rental_uris":{"android":"levelo://app?vid=425b6705-005a-49d5-9d47-e6a239d20f8c","ios":"levelo://app?vid=425b6705-005a-49d5-9d47-e6a239d20f8c"},"vehicle_type_id":"4","last_reported":1770157171,"current_range_meters":9200,"station_id":"ce4bhg12rcd13ifvqf70","pricing_plan_id":"cebpf4jnsgd1na2vs0mg"},{"bike_id":"97259061-f08f-497c-ad93-5a24dc67386d","system_id":"levelo_inurba_marseille","lat":43.29935,"lon":5.36534,"is_reserved":false,"is_disabled":false,"rental_uris":{"android":"levelo://app?vid=97259061-f08f-497c-ad93-5a24dc67386d","ios":"levelo://app?vid=97259061-f08f-497c-ad93-5a24dc67386d"},"vehicle_type_id":"4","last_reported":1770157171,"current_range_meters":9200,"station_id":"ce4bgm92rcd13ifvqbr0","pricing_plan_id":"cebpf4jnsgd1na2vs0mg"},{"bike_id":"a6125214-d924-44df-8fce-3d9098bf6941","system_id":"levelo_inurba_marseille","lat":43.29905,"lon":5.38133,"is_reserved":false,"is_disabled":false,"rental_uris":{"android":"levelo://app?vid=a6125214-d924-44df-8fce-3d9098bf6941","ios":"levelo://app?vid=a6125214-d924-44df-8fce-3d9098bf6941"},"vehicle_type_id":"4","last_reported":1770157171,"current_range_meters":9200,"station_id":"ce4bgj12rcd13ifvqbc0","pricing_plan_id":"cebpf4jnsgd1na2vs0mg"},{"bike_id":"da4d19a5-63fa-471e-bc87-bb23db14643b","system_id":"levelo_inurba_marseille","lat":43.29555,"lon":5.42514,"is_reserved":false,"is_disabled":false,"rental_uris":{"android":"levelo://app?vid=da4d19a5-63fa-471e-bc87-bb23db14643b","ios":"levelo://app?vid=da4d19a5-63fa-471e-bc87-bb23db14643b"},"vehicle_type_id":"4","last_reported":1770157171,"current_range_meters":9200,"station_id":"","pricing_plan_id":"cebpf4jnsgd1na2vs0mg"},{"bike_id":"809dfd22-afa1-4754-8327-1cac66519aa2","system_id":"levelo_inurba_marseille","lat":43.28281,"lon":5.35076,"is_reserved":false,"is_disabled":true,"rental_uris":{"android":"levelo://app?vid=809dfd22-afa1-4754-8327-1cac66519aa2","ios":"levelo://app?vid=809dfd22-afa1-4754-8327-1cac66519aa2"},"vehicle_type_id":"4","last_reported":1770157171,"current_range_meters":9200,"station_id":"ce4bhbp2rcd13ifvqerg","pricing_plan_id":"cebpf4jnsgd1na2vs0mg"},{"bike_id":"75ab3889-45d3-494d-9cc0-0f2df3be031a","system_id":"levelo_inurba_marseille","lat":43.26799,"lon":5.4024,"is_reserved":false,"is_disabled":false,"rental_uris":{"android":"levelo://app?vid=75ab3889-45d3-494d-9cc0-0f2df3be031a","ios":"levelo://app?vid=75ab3889-45d3-494d-9cc0-0f2df3be031a"},"vehicle_type_id":"4","last_reported":1770157171,"current_range_meters":9200,"station_id":"ce501612rcd8frsf0b60","pricing_plan_id":"cebpf4jnsgd1na2vs0mg"},{"bike_id":"a5c1703c-0b2d-4e6b-b820-25e716f1e211","system_id":"levelo_inurba_marseille","lat":43.28501,"lon":5.48407,"is_reserved":false,"is_disabled":false,"rental_uris":{"android":"levelo://app?vid=a5c1703c-0b2d-4e6b-b820-25e716f1e211","ios":"levelo://app?vid=a5c1703c-0b2d-4e6b-b820-25e716f1e211"},"vehicle_type_id":"4","last_reported":1770157171,"current_range_meters":9200,"station_id":"st_d3svhcjqgbts73a3dn0g","pricing_plan_id":"cebpf4jnsgd1na2vs0mg"},{"bike_id":"0020ff85-02f4-4576-ab79-cb9c15460d7c","system_id":"levelo_inurba_marseille","lat":43.25893,"lon":5.39902,"is_reserved":false,"is_disabled":false,"rental_uris":{"android":"levelo://app?vid=0020ff85-02f4-4576-ab79-cb9c15460d7c","ios":"levelo://app?vid=0020ff85-02f4-4576-ab79-cb9c15460d7c"},"vehicle_type_id":"4","last_reported":1770157171,"current_range_meters":9200,"station_id":"ce4bhl92rcd13ifvqghg","pricing_plan_id":"cebpf4jnsgd1na2vs0mg"},{"bike_id":"9b6e396c-31d2-4f7b-a485-6fe05d2df667","system_id":"levelo_inurba_marseille","lat":43.25053,"lon":5.39494,"is_reserved":false,"is_disabled":false,"rental_uris":{"android":"levelo://app?vid=9b6e396c-31d2-4f7b-a485-6fe05d2df667","ios":"levelo://app?vid=9b6e396c-31d2-4f7b-a485-6fe05d2df667"},"vehicle_type_id":"4","last_reported":1770157171,"current_range_meters":9600,"station_id":"ce4bhm12rcd13ifvqgkg","pricing_plan_id":"cebpf4jnsgd1na2vs0mg"},{"bike_id":"626974d3-ace9-41dd-9dbe-f4621ca953aa","system_id":"levelo_inurba_marseille","lat":43.29449,"lon":5.40996,"is_reserved":false,"is_disabled":false,"rental_uris":{"android":"levelo://app?vid=626974d3-ace9-41dd-9dbe-f4621ca953aa","ios":"levelo://app?vid=626974d3-ace9-41dd-9dbe-f4621ca953aa"},"vehicle_type_id":"4","last_reported":1770157171,"current_range_meters":9600,"station_id":"","pricing_plan_id":"cebpf4jnsgd1na2vs0mg"},{"bike_id":"31a22661-eea5-4387-90b0-8b86565c6826","system_id":"levelo_inurba_marseille","lat":43.297088,"lon":5.366127,"is_reserved":false,"is_disabled":false,"rental_uris":{"android":"levelo://app?vid=31a22661-eea5-4387-90b0-8b86565c6826","ios":"levelo://app?vid=31a22661-eea5-4387-90b0-8b86565c6826"},"vehicle_type_id":"4","last_reported":1770157171,"current_range_meters":9600,"station_id":"ce4bgn12rcd13ifvqbt0","pricing_plan_id":"cebpf4jnsgd1na2vs0mg"},{"bike_id":"cd8e0617-ef72-4ca2-8019-85ce734df0f9","system_id":"levelo_inurba_marseille","lat":43.24651,"lon":5.38157,"is_reserved":false,"is_disabled":false,"rental_uris":{"android":"levelo://app?vid=cd8e0617-ef72-4ca2-8019-85ce734df0f9","ios":"levelo://app?vid=cd8e0617-ef72-4ca2-8019-85ce734df0f9"},"vehicle_type_id":"4","last_reported":1770157171,"current_range_meters":9600,"station_id":"ce4bhih2rcd13ifvqfr0","pricing_plan_id":"cebpf4jnsgd1na2vs0mg"},{"bike_id":"6db922d0-a066-49c9-8c98-476035aaa96d","system_id":"levelo_inurba_marseille","lat":43.2928,"lon":5.37998,"is_reserved":false,"is_disabled":false,"rental_uris":{"android":"levelo://app?vid=6db922d0-a066-49c9-8c98-476035aaa96d","ios":"levelo://app?vid=6db922d0-a066-49c9-8c98-476035aaa96d"},"vehicle_type_id":"4","last_reported":1770157171,"current_range_meters":9600,"station_id":"","pricing_plan_id":"cebpf4jnsgd1na2vs0mg"},{"bike_id":"d72c8d0b-6864-4eb2-b074-4484e5b3c2c1","system_id":"levelo_inurba_marseille","lat":43.28475,"lon":5.48398,"is_reserved":false,"is_disabled":false,"rental_uris":{"android":"levelo://app?vid=d72c8d0b-6864-4eb2-b074-4484e5b3c2c1","ios":"levelo://app?vid=d72c8d0b-6864-4eb2-b074-4484e5b3c2c1"},"vehicle_type_id":"4","last_reported":1770157171,"current_range_meters":9600,"station_id":"st_d3svhcjqgbts73a3dn0g","pricing_plan_id":"cebpf4jnsgd1na2vs0mg"},{"bike_id":"68b12eb7-cbac-4d21-9d68-9311fe198434","system_id":"levelo_inurba_marseille","lat":43.29028,"lon":5.38641,"is_reserved":false,"is_disabled":true,"rental_uris":{"android":"levelo://app?vid=68b12eb7-cbac-4d21-9d68-9311fe198434","ios":"levelo://app?vid=68b12eb7-cbac-4d21-9d68-9311fe198434"},"vehicle_type_id":"4","last_reported":1770157171,"current_range_meters":9600,"station_id":"ce4bh4p2rcd13ifvqe0g","pricing_plan_id":"cebpf4jnsgd1na2vs0mg"},{"bike_id":"3558c073-f882-44cf-87f3-c4518685ecb3","system_id":"levelo_inurba_marseille","lat":43.28169,"lon":5.42655,"is_reserved":false,"is_disabled":true,"rental_uris":{"android":"levelo://app?vid=3558c073-f882-44cf-87f3-c4518685ecb3","ios":"levelo://app?vid=3558c073-f882-44cf-87f3-c4518685ecb3"},"vehicle_type_id":"4","last_reported":1770157171,"current_range_meters":9600,"station_id":"ce4bhnh2rcd13ifvqgug","pricing_plan_id":"cebpf4jnsgd1na2vs0mg"},{"bike_id":"7c65d8a4-3bb8-4534-9506-49fc01052868","system_id":"levelo_inurba_marseille","lat":43.29629,"lon":5.38042,"is_reserved":false,"is_disabled":false,"rental_uris":{"android":"levelo://app?vid=7c65d8a4-3bb8-4534-9506-49fc01052868","ios":"levelo://app?vid=7c65d8a4-3bb8-4534-9506-49fc01052868"},