{"last_updated":1779444868,"ttl":60,"version":"2.2","data":{"bikes":[{"bike_id":"7d641315-6110-49cb-a9dd-d637ff032de1","system_id":"levelo_inurba_marseille","lat":43.337444,"lon":5.374475,"is_reserved":false,"is_disabled":false,"rental_uris":{"android":"levelo://app?vid=7d641315-6110-49cb-a9dd-d637ff032de1","ios":"levelo://app?vid=7d641315-6110-49cb-a9dd-d637ff032de1"},"vehicle_type_id":"4","last_reported":1779444869,"current_range_meters":0,"station_id":"","pricing_plan_id":"cebpf4jnsgd1na2vs0mg"},{"bike_id":"fbcdd9ff-3e47-4b72-9c3a-bc99d2663269","system_id":"levelo_inurba_marseille","lat":43.26381,"lon":5.41042,"is_reserved":false,"is_disabled":false,"rental_uris":{"android":"levelo://app?vid=fbcdd9ff-3e47-4b72-9c3a-bc99d2663269","ios":"levelo://app?vid=fbcdd9ff-3e47-4b72-9c3a-bc99d2663269"},"vehicle_type_id":"4","last_reported":1779444869,"current_range_meters":2800,"station_id":"st_d4e5ca6na9uc73bfl5fg","pricing_plan_id":"cebpf4jnsgd1na2vs0mg"},{"bike_id":"94c49980-82e9-40c1-8742-79af726fe66b","system_id":"levelo_inurba_marseille","lat":43.29891,"lon":5.42089,"is_reserved":false,"is_disabled":false,"rental_uris":{"android":"levelo://app?vid=94c49980-82e9-40c1-8742-79af726fe66b","ios":"levelo://app?vid=94c49980-82e9-40c1-8742-79af726fe66b"},"vehicle_type_id":"4","last_reported":1779444869,"current_range_meters":2800,"station_id":"st_d6tc004otcvc738tfe70","pricing_plan_id":"cebpf4jnsgd1na2vs0mg"},{"bike_id":"0ab330e1-b8b5-45c1-a03b-0c3ca07321fe","system_id":"levelo_inurba_marseille","lat":43.31719,"lon":5.42405,"is_reserved":false,"is_disabled":false,"rental_uris":{"android":"levelo://app?vid=0ab330e1-b8b5-45c1-a03b-0c3ca07321fe","ios":"levelo://app?vid=0ab330e1-b8b5-45c1-a03b-0c3ca07321fe"},"vehicle_type_id":"4","last_reported":1779444869,"current_range_meters":2800,"station_id":"ce4bhp92rcd13ifvqhbg","pricing_plan_id":"cebpf4jnsgd1na2vs0mg"},{"bike_id":"e7b2834d-0414-4c8b-95bb-dbeba87a5cba","system_id":"levelo_inurba_marseille","lat":43.32928,"lon":5.38936,"is_reserved":false,"is_disabled":false,"rental_uris":{"android":"levelo://app?vid=e7b2834d-0414-4c8b-95bb-dbeba87a5cba","ios":"levelo://app?vid=e7b2834d-0414-4c8b-95bb-dbeba87a5cba"},"vehicle_type_id":"4","last_reported":1779444869,"current_range_meters":2800,"station_id":"","pricing_plan_id":"cebpf4jnsgd1na2vs0mg"},{"bike_id":"9f851e0d-2bc6-43e8-9dbb-3054f97344b0","system_id":"levelo_inurba_marseille","lat":43.30091,"lon":5.37254,"is_reserved":false,"is_disabled":false,"rental_uris":{"android":"levelo://app?vid=9f851e0d-2bc6-43e8-9dbb-3054f97344b0","ios":"levelo://app?vid=9f851e0d-2bc6-43e8-9dbb-3054f97344b0"},"vehicle_type_id":"4","last_reported":1779444869,"current_range_meters":2800,"station_id":"","pricing_plan_id":"cebpf4jnsgd1na2vs0mg"},{"bike_id":"89250258-8d9a-44bb-b78e-4f99f97d8072","system_id":"levelo_inurba_marseille","lat":43.28254,"lon":5.35051,"is_reserved":false,"is_disabled":false,"rental_uris":{"android":"levelo://app?vid=89250258-8d9a-44bb-b78e-4f99f97d8072","ios":"levelo://app?vid=89250258-8d9a-44bb-b78e-4f99f97d8072"},"vehicle_type_id":"4","last_reported":1779444869,"current_range_meters":2800,"station_id":"ce4bhbp2rcd13ifvqerg","pricing_plan_id":"cebpf4jnsgd1na2vs0mg"},{"bike_id":"ba500815-2af2-4949-a01a-ce2c02f73453","system_id":"levelo_inurba_marseille","lat":43.26903,"lon":5.38918,"is_reserved":false,"is_disabled":false,"rental_uris":{"android":"levelo://app?vid=ba500815-2af2-4949-a01a-ce2c02f73453","ios":"levelo://app?vid=ba500815-2af2-4949-a01a-ce2c02f73453"},"vehicle_type_id":"4","last_reported":1779444869,"current_range_meters":2800,"station_id":"ce4bhhh2rcd13ifvqfl0","pricing_plan_id":"cebpf4jnsgd1na2vs0mg"},{"bike_id":"54414197-7a79-46ce-891d-758db7720b8c","system_id":"levelo_inurba_marseille","lat":43.2732,"lon":5.39087,"is_reserved":false,"is_disabled":false,"rental_uris":{"android":"levelo://app?vid=54414197-7a79-46ce-891d-758db7720b8c","ios":"levelo://app?vid=54414197-7a79-46ce-891d-758db7720b8c"},"vehicle_type_id":"4","last_reported":1779444869,"current_range_meters":2800,"station_id":"ce4bhgp2rcd13ifvqfe0","pricing_plan_id":"cebpf4jnsgd1na2vs0mg"},{"bike_id":"68986c92-ec46-4237-b3e9-d052e2c06ff6","system_id":"levelo_inurba_marseille","lat":43.29921,"lon":5.36539,"is_reserved":false,"is_disabled":false,"rental_uris":{"android":"levelo://app?vid=68986c92-ec46-4237-b3e9-d052e2c06ff6","ios":"levelo://app?vid=68986c92-ec46-4237-b3e9-d052e2c06ff6"},"vehicle_type_id":"4","last_reported":1779444869,"current_range_meters":2800,"station_id":"ce4bgm92rcd13ifvqbr0","pricing_plan_id":"cebpf4jnsgd1na2vs0mg"},{"bike_id":"2417956b-f325-4b75-806c-e42e7b7f598c","system_id":"levelo_inurba_marseille","lat":43.24951,"lon":5.41749,"is_reserved":false,"is_disabled":false,"rental_uris":{"android":"levelo://app?vid=2417956b-f325-4b75-806c-e42e7b7f598c","ios":"levelo://app?vid=2417956b-f325-4b75-806c-e42e7b7f598c"},"vehicle_type_id":"4","last_reported":1779444869,"current_range_meters":2800,"station_id":"","pricing_plan_id":"cebpf4jnsgd1na2vs0mg"},{"bike_id":"dc2fbefa-07ae-49d6-920f-d2512506b1a6","system_id":"levelo_inurba_marseille","lat":43.331526,"lon":5.377342,"is_reserved":false,"is_disabled":false,"rental_uris":{"android":"levelo://app?vid=dc2fbefa-07ae-49d6-920f-d2512506b1a6","ios":"levelo://app?vid=dc2fbefa-07ae-49d6-920f-d2512506b1a6"},"vehicle_type_id":"4","last_reported":1779444869,"current_range_meters":2800,"station_id":"st_d46cu089ee8s73dldbu0","pricing_plan_id":"cebpf4jnsgd1na2vs0mg"},{"bike_id":"616259e1-99b9-477f-9be8-a931d2e539ff","system_id":"levelo_inurba_marseille","lat":43.231941,"lon":5.355529,"is_reserved":false,"is_disabled":false,"rental_uris":{"android":"levelo://app?vid=616259e1-99b9-477f-9be8-a931d2e539ff","ios":"levelo://app?vid=616259e1-99b9-477f-9be8-a931d2e539ff"},"vehicle_type_id":"4","last_reported":1779444869,"current_range_meters":3200,"station_id":"ce4bgi92rcd13ifvqb90","pricing_plan_id":"cebpf4jnsgd1na2vs0mg"},{"bike_id":"87003848-f357-4583-9d4c-21b82d2e79a5","system_id":"levelo_inurba_marseille","lat":43.27618,"lon":5.36102,"is_reserved":false,"is_disabled":false,"rental_uris":{"android":"levelo://app?vid=87003848-f357-4583-9d4c-21b82d2e79a5","ios":"levelo://app?vid=87003848-f357-4583-9d4c-21b82d2e79a5"},"vehicle_type_id":"4","last_reported":1779444869,"current_range_meters":3200,"station_id":"ce4bgj92rcd13ifvqbe0","pricing_plan_id":"cebpf4jnsgd1na2vs0mg"},{"bike_id":"8e7115e5-afd0-482b-bfd7-f75a7925e115","system_id":"levelo_inurba_marseille","lat":43.30263,"lon":5.41234,"is_reserved":false,"is_disabled":false,"rental_uris":{"android":"levelo://app?vid=8e7115e5-afd0-482b-bfd7-f75a7925e115","ios":"levelo://app?vid=8e7115e5-afd0-482b-bfd7-f75a7925e115"},"vehicle_type_id":"4","last_reported":1779444869,"current_range_meters":3200,"station_id":"","pricing_plan_id":"cebpf4jnsgd1na2vs0mg"},{"bike_id":"cf5ce9c7-929a-49cd-a7d0-517c53fae08f","system_id":"levelo_inurba_marseille","lat":43.28364,"lon":5.35005,"is_reserved":false,"is_disabled":false,"rental_uris":{"android":"levelo://app?vid=cf5ce9c7-929a-49cd-a7d0-517c53fae08f","ios":"levelo://app?vid=cf5ce9c7-929a-49cd-a7d0-517c53fae08f"},"vehicle_type_id":"4","last_reported":1779444869,"current_range_meters":3200,"station_id":"","pricing_plan_id":"cebpf4jnsgd1na2vs0mg"},{"bike_id":"b9886a38-37d7-4c62-a56d-ea966413b93c","system_id":"levelo_inurba_marseille","lat":43.32022,"lon":5.41514,"is_reserved":false,"is_disabled":false,"rental_uris":{"android":"levelo://app?vid=b9886a38-37d7-4c62-a56d-ea966413b93c","ios":"levelo://app?vid=b9886a38-37d7-4c62-a56d-ea966413b93c"},"vehicle_type_id":"4","last_reported":1779444869,"current_range_meters":3200,"station_id":"ce4bhq92rcd13ifvqhkg","pricing_plan_id":"cebpf4jnsgd1na2vs0mg"},{"bike_id":"64c0a3a9-816e-45ef-91b2-3e6618de8efe","system_id":"levelo_inurba_marseille","lat":43.23189,"lon":5.35551,"is_reserved":false,"is_disabled":false,"rental_uris":{"android":"levelo://app?vid=64c0a3a9-816e-45ef-91b2-3e6618de8efe","ios":"levelo://app?vid=64c0a3a9-816e-45ef-91b2-3e6618de8efe"},"vehicle_type_id":"4","last_reported":1779444869,"current_range_meters":3200,"station_id":"ce4bhu92rcd13ifvqi70","pricing_plan_id":"cebpf4jnsgd1na2vs0mg"},{"bike_id":"bd6864bb-c074-4fe7-b863-12369d6725c5","system_id":"levelo_inurba_marseille","lat":43.31362,"lon":5.38488,"is_reserved":false,"is_disabled":false,"rental_uris":{"android":"levelo://app?vid=bd6864bb-c074-4fe7-b863-12369d6725c5","ios":"levelo://app?vid=bd6864bb-c074-4fe7-b863-12369d6725c5"},"vehicle_type_id":"4","last_reported":1779444869,"current_range_meters":3200,"station_id":"ce4bgt92rcd13ifvqcf0","pricing_plan_id":"cebpf4jnsgd1na2vs0mg"},{"bike_id":"70bd1697-29a9-464f-a79a-74a540437e6e","system_id":"levelo_inurba_marseille","lat":43.33754,"lon":5.37469,"is_reserved":false,"is_disabled":false,"rental_uris":{"android":"levelo://app?vid=70bd1697-29a9-464f-a79a-74a540437e6e","ios":"levelo://app?vid=70bd1697-29a9-464f-a79a-74a540437e6e"},"vehicle_type_id":"4","last_reported":1779444869,"current_range_meters":3600,"station_id":"","pricing_plan_id":"cebpf4jnsgd1na2vs0mg"},{"bike_id":"3de0a22c-f7a1-4ff6-8efb-126f6ce78565","system_id":"levelo_inurba_marseille","lat":43.217419,"lon":5.346088,"is_reserved":false,"is_disabled":false,"rental_uris":{"android":"levelo://app?vid=3de0a22c-f7a1-4ff6-8efb-126f6ce78565","ios":"levelo://app?vid=3de0a22c-f7a1-4ff6-8efb-126f6ce78565"},"vehicle_type_id":"4","last_reported":1779444869,"current_range_meters":3600,"station_id":"st_cvj6r9ubvosntc0bgbag","pricing_plan_id":"cebpf4jnsgd1na2vs0mg"},{"bike_id":"b7ba57bc-1a2e-43cc-aaab-8b9044eef032","system_id":"levelo_inurba_marseille","lat":43.27563,"lon":5.38394,"is_reserved":false,"is_disabled":false,"rental_uris":{"android":"levelo://app?vid=b7ba57bc-1a2e-43cc-aaab-8b9044eef032","ios":"levelo://app?vid=b7ba57bc-1a2e-43cc-aaab-8b9044eef032"},"vehicle_type_id":"4","last_reported":1779444869,"current_range_meters":3600,"station_id":"ce4bhh92rcd13ifvqfi0","pricing_plan_id":"cebpf4jnsgd1na2vs0mg"},{"bike_id":"17680e4e-5d73-49bb-9608-cbce26d1ada0","system_id":"levelo_inurba_marseille","lat":43.22542,"lon":5.34828,"is_reserved":false,"is_disabled":false,"rental_uris":{"android":"levelo://app?vid=17680e4e-5d73-49bb-9608-cbce26d1ada0","ios":"levelo://app?vid=17680e4e-5d73-49bb-9608-cbce26d1ada0"},"vehicle_type_id":"4","last_reported":1779444869,"current_range_meters":3600,"station_id":"st_cvj5dfep6f1abm77gieg","pricing_plan_id":"cebpf4jnsgd1na2vs0mg"},{"bike_id":"d05f390d-a946-43b4-ac90-23c52aa5a44a","system_id":"levelo_inurba_marseille","lat":43.292103,"lon":5.38279,"is_reserved":false,"is_disabled":false,"rental_uris":{"android":"levelo://app?vid=d05f390d-a946-43b4-ac90-23c52aa5a44a","ios":"levelo://app?vid=d05f390d-a946-43b4-ac90-23c52aa5a44a"},"vehicle_type_id":"4","last_reported":1779444869,"current_range_meters":3600,"station_id":"ce4bh612rcd13ifvqe6g","pricing_plan_id":"cebpf4jnsgd1na2vs0mg"},{"bike_id":"d876f250-8123-419d-a895-9645003d3c01","system_id":"levelo_inurba_marseille","lat":43.27264,"lon":5.41647,"is_reserved":false,"is_disabled":false,"rental_uris":{"android":"levelo://app?vid=d876f250-8123-419d-a895-9645003d3c01","ios":"levelo://app?vid=d876f250-8123-419d-a895-9645003d3c01"},"vehicle_type_id":"4","last_reported":1779444869,"current_range_meters":3600,"station_id":"","pricing_plan_id":"cebpf4jnsgd1na2vs0mg"},{"bike_id":"e27feea1-9bc4-4f71-870f-9ba99b38e6d2","system_id":"levelo_inurba_marseille","lat":43.29149,"lon":5.37269,"is_reserved":false,"is_disabled":false,"rental_uris":{"android":"levelo://app?vid=e27feea1-9bc4-4f71-870f-9ba99b38e6d2","ios":"levelo://app?vid=e27feea1-9bc4-4f71-870f-9ba99b38e6d2"},"vehicle_type_id":"4","last_reported":1779444869,"current_range_meters":3600,"station_id":"","pricing_plan_id":"cebpf4jnsgd1na2vs0mg"},{"bike_id":"16d96bd7-76f5-4ba6-befa-e655fb34c21b","system_id":"levelo_inurba_marseille","lat":43.27318,"lon":5.39052,"is_reserved":false,"is_disabled":false,"rental_uris":{"android":"levelo://app?vid=16d96bd7-76f5-4ba6-befa-e655fb34c21b","ios":"levelo://app?vid=16d96bd7-76f5-4ba6-befa-e655fb34c21b"},"vehicle_type_id":"4","last_reported":1779444869,"current_range_meters":3600,"station_id":"ce4bhgp2rcd13ifvqfe0","pricing_plan_id":"cebpf4jnsgd1na2vs0mg"},{"bike_id":"1f23276f-640a-45b0-96ab-5c9b5282ccf4","system_id":"levelo_inurba_marseille","lat":43.31264,"lon":5.38936,"is_reserved":false,"is_disabled":false,"rental_uris":{"android":"levelo://app?vid=1f23276f-640a-45b0-96ab-5c9b5282ccf4","ios":"levelo://app?vid=1f23276f-640a-45b0-96ab-5c9b5282ccf4"},"vehicle_type_id":"4","last_reported":1779444869,"current_range_meters":4000,"station_id":"","pricing_plan_id":"cebpf4jnsgd1na2vs0mg"},{"bike_id":"e4e5531b-336f-47df-9057-f15c6eb23342","system_id":"levelo_inurba_marseille","lat":43.283729,"lon":5.386286,"is_reserved":false,"is_disabled":false,"rental_uris":{"android":"levelo://app?vid=e4e5531b-336f-47df-9057-f15c6eb23342","ios":"levelo://app?vid=e4e5531b-336f-47df-9057-f15c6eb23342"},"vehicle_type_id":"4","last_reported":1779444869,"current_range_meters":4000,"station_id":"ce4bh492rcd13ifvqdvg","pricing_plan_id":"cebpf4jnsgd1na2vs0mg"},{"bike_id":"0caa08f3-8034-41ae-b21d-19550693d3a3","system_id":"levelo_inurba_marseille","lat":43.25888,"lon":5.39865,"is_reserved":false,"is_disabled":false,"rental_uris":{"android":"levelo://app?vid=0caa08f3-8034-41ae-b21d-19550693d3a3","ios":"levelo://app?vid=0caa08f3-8034-41ae-b21d-19550693d3a3"},"vehicle_type_id":"4","last_reported":1779444869,"current_range_meters":4000,"station_id":"ce4bhl92rcd13ifvqghg","pricing_plan_id":"cebpf4jnsgd1na2vs0mg"},{"bike_id":"12481d7b-ca53-44d2-a72d-3641cbe06950","system_id":"levelo_inurba_marseille","lat":43.29919,"lon":5.41029,"is_reserved":false,"is_disabled":false,"rental_uris":{"android":"levelo://app?vid=12481d7b-ca53-44d2-a72d-3641cbe06950","ios":"levelo://app?vid=12481d7b-ca53-44d2-a72d-3641cbe06950"},"vehicle_type_id":"4","last_reported":1779444869,"current_range_meters":4000,"station_id":"","pricing_plan_id":"cebpf4jnsgd1na2vs0mg"},{"bike_id":"69aa8499-09e2-46fa-992b-1b1cdc841c1f","system_id":"levelo_inurba_marseille","lat":43.24556,"lon":5.39523,"is_reserved":false,"is_disabled":false,"rental_uris":{"android":"levelo://app?vid=69aa8499-09e2-46fa-992b-1b1cdc841c1f","ios":"levelo://app?vid=69aa8499-09e2-46fa-992b-1b1cdc841c1f"},"vehicle_type_id":"4","last_reported":1779444869,"current_range_meters":4000,"station_id":"ce4bhlp2rcd13ifvqgjg","pricing_plan_id":"cebpf4jnsgd1na2vs0mg"},{"bike_id":"5bbf293c-f2e4-47be-af57-cab6143e65a7","system_id":"levelo_inurba_marseille","lat":43.26671,"lon":5.38257,"is_reserved":false,"is_disabled":false,"rental_uris":{"android":"levelo://app?vid=5bbf293c-f2e4-47be-af57-cab6143e65a7","ios":"levelo://app?vid=5bbf293c-f2e4-47be-af57-cab6143e65a7"},"vehicle_type_id":"4","last_reported":1779444869,"current_range_meters":4000,"station_id":"ce4bhg92rcd13ifvqf90","pricing_plan_id":"cebpf4jnsgd1na2vs0mg"},{"bike_id":"97492b0b-74c1-4827-a532-98af63c388a4","system_id":"levelo_inurba_marseille","lat":43.290973,"lon":5.38133,"is_reserved":false,"is_disabled":false,"rental_uris":{"android":"levelo://app?vid=97492b0b-74c1-4827-a532-98af63c388a4","ios":"levelo://app?vid=97492b0b-74c1-4827-a532-98af63c388a4"},"vehicle_type_id":"4","last_reported":1779444869,"current_range_meters":4000,"station_id":"ce4bh512rcd13ifvqe2g","pricing_plan_id":"cebpf4jnsgd1na2vs0mg"},{"bike_id":"3164d9e8-c839-4029-b458-2d3d9b344e5f","system_id":"levelo_inurba_marseille","lat":43.275716,"lon":5.396434,"is_reserved":false,"is_disabled":false,"rental_uris":{"android":"levelo://app?vid=3164d9e8-c839-4029-b458-2d3d9b344e5f","ios":"levelo://app?vid=3164d9e8-c839-4029-b458-2d3d9b344e5f"},"vehicle_type_id":"4","last_reported":1779444869,"current_range_meters":4000,"station_id":"","pricing_plan_id":"cebpf4jnsgd1na2vs0mg"},{"bike_id":"3b3648bc-114e-4573-b5a4-e0750016f792","system_id":"levelo_inurba_marseille","lat":43.23833,"lon":5.4133,"is_reserved":false,"is_disabled":false,"rental_uris":{"android":"levelo://app?vid=3b3648bc-114e-4573-b5a4-e0750016f792","ios":"levelo://app?vid=3b3648bc-114e-4573-b5a4-e0750016f792"},"vehicle_type_id":"4","last_reported":1779444869,"current_range_meters":4000,"station_id":"","pricing_plan_id":"cebpf4jnsgd1na2vs0mg"},{"bike_id":"db01bb2b-ecef-411a-aa24-35032111b6f3","system_id":"levelo_inurba_marseille","lat":43.28607,"lon":5.39878,"is_reserved":false,"is_disabled":false,"rental_uris":{"android":"levelo://app?vid=db01bb2b-ecef-411a-aa24-35032111b6f3","ios":"levelo://app?vid=db01bb2b-ecef-411a-aa24-35032111b6f3"},"vehicle_type_id":"4","last_reported":1779444869,"current_range_meters":4000,"station_id":"st_d4a7ka997mjs738ck50g","pricing_plan_id":"cebpf4jnsgd1na2vs0mg"},{"bike_id":"ad6d8b73-6259-410d-979f-09e40ec16dc9","system_id":"levelo_inurba_marseille","lat":43.3082,"lon":5.37198,"is_reserved":false,"is_disabled":false,"rental_uris":{"android":"levelo://app?vid=ad6d8b73-6259-410d-979f-09e40ec16dc9","ios":"levelo://app?vid=ad6d8b73-6259-410d-979f-09e40ec16dc9"},"vehicle_type_id":"4","last_reported":1779444869,"current_range_meters":4400,"station_id":"","pricing_plan_id":"cebpf4jnsgd1na2vs0mg"},{"bike_id":"2d089a2d-d5f5-4191-8f2a-2b792b1bc617","system_id":"levelo_inurba_marseille","lat":43.30758,"lon":5.36847,"is_reserved":false,"is_disabled":false,"rental_uris":{"android":"levelo://app?vid=2d089a2d-d5f5-4191-8f2a-2b792b1bc617","ios":"levelo://app?vid=2d089a2d-d5f5-4191-8f2a-2b792b1bc617"},"vehicle_type_id":"4","last_reported":1779444869,"current_range_meters":4400,"station_id":"","pricing_plan_id":"cebpf4jnsgd1na2vs0mg"},{"bike_id":"6ecace9b-c16d-43aa-9c1a-0ebc2e7bcfc4","system_id":"levelo_inurba_marseille","lat":43.32116,"lon":5.36766,"is_reserved":false,"is_disabled":false,"rental_uris":{"android":"levelo://app?vid=6ecace9b-c16d-43aa-9c1a-0ebc2e7bcfc4","ios":"levelo://app?vid=6ecace9b-c16d-43aa-9c1a-0ebc2e7bcfc4"},"vehicle_type_id":"4","last_reported":1779444869,"current_range_meters":4400,"station_id":"ce4bhrh2rcd13ifvqhug","pricing_plan_id":"cebpf4jnsgd1na2vs0mg"},{"bike_id":"678c2486-f208-445a-a253-9dfac60b0dc7","system_id":"levelo_inurba_marseille","lat":43.32433,"lon":5.36919,"is_reserved":false,"is_disabled":false,"rental_uris":{"android":"levelo://app?vid=678c2486-f208-445a-a253-9dfac60b0dc7","ios":"levelo://app?vid=678c2486-f208-445a-a253-9dfac60b0dc7"},"vehicle_type_id":"4","last_reported":1779444869,"current_range_meters":4400,"station_id":"","pricing_plan_id":"cebpf4jnsgd1na2vs0mg"},{"bike_id":"7ec93175-8d9c-4b31-b534-34e06405c4e0","system_id":"levelo_inurba_marseille","lat":43.29638,"lon":5.44693,"is_reserved":false,"is_disabled":false,"rental_uris":{"android":"levelo://app?vid=7ec93175-8d9c-4b31-b534-34e06405c4e0","ios":"levelo://app?vid=7ec93175-8d9c-4b31-b534-34e06405c4e0"},"vehicle_type_id":"4","last_reported":1779444869,"current_range_meters":4400,"station_id":"","pricing_plan_id":"cebpf4jnsgd1na2vs0mg"},{"bike_id":"4c73ac5b-f848-44b9-9488-246344552796","system_id":"levelo_inurba_marseille","lat":43.28536,"lon":5.44091,"is_reserved":false,"is_disabled":false,"rental_uris":{"android":"levelo://app?vid=4c73ac5b-f848-44b9-9488-246344552796","ios":"levelo://app?vid=4c73ac5b-f848-44b9-9488-246344552796"},"vehicle_type_id":"4","last_reported":1779444869,"current_range_meters":4400,"station_id":"st_d3j3df2ikq2c7380ej80","pricing_plan_id":"cebpf4jnsgd1na2vs0mg"},{"bike_id":"5267da96-d436-4f1c-b278-4742722a9cfa","system_id":"levelo_inurba_marseille","lat":43.27057,"lon":5.42255,"is_reserved":false,"is_disabled":false,"rental_uris":{"android":"levelo://app?vid=5267da96-d436-4f1c-b278-4742722a9cfa","ios":"levelo://app?vid=5267da96-d436-4f1c-b278-4742722a9cfa"},"vehicle_type_id":"4","last_reported":1779444869,"current_range_meters":4400,"station_id":"ce4bhk92rcd13ifvqgb0","pricing_plan_id":"cebpf4jnsgd1na2vs0mg"},{"bike_id":"5416487f-97e0-4bc7-9925-89e8c1ecbb51","system_id":"levelo_inurba_marseille","lat":43.239675,"lon":5.366273,"is_reserved":false,"is_disabled":false,"rental_uris":{"android":"levelo://app?vid=5416487f-97e0-4bc7-9925-89e8c1ecbb51","ios":"levelo://app?vid=5416487f-97e0-4bc7-9925-89e8c1ecbb51"},"vehicle_type_id":"4","last_reported":1779444869,"current_range_meters":4400,"station_id":"ce4bhi12rcd13ifvqfp0","pricing_plan_id":"cebpf4jnsgd1na2vs0mg"},{"bike_id":"16d022fa-200c-4ea0-9049-717593d001c2","system_id":"levelo_inurba_marseille","lat":43.26342,"lon":5.41116,"is_reserved":false,"is_disabled":false,"rental_uris":{"android":"levelo://app?vid=16d022fa-200c-4ea0-9049-717593d001c2","ios":"levelo://app?vid=16d022fa-200c-4ea0-9049-717593d001c2"},"vehicle_type_id":"4","last_reported":1779444869,"current_range_meters":4400,"station_id":"st_d4e5ca6na9uc73bfl5fg","pricing_plan_id":"cebpf4jnsgd1na2vs0mg"},{"bike_id":"2348c46f-85dd-4367-9b2f-74115919ad74","system_id":"levelo_inurba_marseille","lat":43.27372,"lon":5.36256,"is_reserved":false,"is_disabled":false,"rental_uris":{"android":"levelo://app?vid=2348c46f-85dd-4367-9b2f-74115919ad74","ios":"levelo://app?vid=2348c46f-85dd-4367-9b2f-74115919ad74"},"vehicle_type_id":"4","last_reported":1779444869,"current_range_meters":4400,"station_id":"ce4bhbh2rcd13ifvqeo0","pricing_plan_id":"cebpf4jnsgd1na2vs0mg"},{"bike_id":"3936af97-ef4d-4f58-a35e-a0221d7e9a6c","system_id":"levelo_inurba_marseille","lat":43.22563,"lon":5.41646,"is_reserved":false,"is_disabled":false,"rental_uris":{"android":"levelo://app?vid=3936af97-ef4d-4f58-a35e-a0221d7e9a6c","ios":"levelo://app?vid=3936af97-ef4d-4f58-a35e-a0221d7e9a6c"},"vehicle_type_id":"4","last_reported":1779444869,"current_range_meters":4800,"station_id":"st_d2o4gvlbi1j2169b742g","pricing_plan_id":"cebpf4jnsgd1na2vs0mg"},{"bike_id":"3483fe55-95c5-444f-b8c6-a93ebd0922c2","system_id":"levelo_inurba_marseille","lat":43.27216,"lon":5.3919,"is_reserved":false,"is_disabled":false,"rental_uris":{"android":"levelo://app?vid=3483fe55-95c5-444f-b8c6-a93ebd0922c2","ios":"levelo://app?vid=3483fe55-95c5-444f-b8c6-a93ebd0922c2"},"vehicle_type_id":"4","last_reported":1779444869,"current_range_meters":4800,"station_id":"ce4bhhp2rcd13ifvqfm0","pricing_plan_id":"cebpf4jnsgd1na2vs0mg"},{"bike_id":"b32c51f9-6a34-41b7-8629-f95d22a1bb6a","system_id":"levelo_inurba_marseille","lat":43.301519,"lon":5.380828,"is_reserved":false,"is_disabled":false,"rental_uris":{"android":"levelo://app?vid=b32c51f9-6a34-41b7-8629-f95d22a1bb6a","ios":"levelo://app?vid=b32c51f9-6a34-41b7-8629-f95d22a1bb6a"},"vehicle_type_id":"4","last_reported":1779444869,"current_range_meters":4800,"station_id":"ce4bgjp2rcd13ifvqbh0","pricing_plan_id":"cebpf4jnsgd1na2vs0mg"},{"bike_id":"54f92a54-181a-4ca1-94ac-4e8012c97aa4","system_id":"levelo_inurba_marseille","lat":43.30153,"lon":5.38077,"is_reserved":false,"is_disabled":false,"rental_uris":{"android":"levelo://app?vid=54f92a54-181a-4ca1-94ac-4e8012c97aa4","ios":"levelo://app?vid=54f92a54-181a-4ca1-94ac-4e8012c97aa4"},"vehicle_type_id":"4","last_reported":1779444869,"current_range_meters":4800,"station_id":"ce4bgjp2rcd13ifvqbh0","pricing_plan_id":"cebpf4jnsgd1na2vs0mg"},{"bike_id":"8a60cce2-9cd1-44df-9ed5-7786eedbf70a","system_id":"levelo_inurba_marseille","lat":43.30142,"lon":5.38087,"is_reserved":false,"is_disabled":false,"rental_uris":{"android":"levelo://app?vid=8a60cce2-9cd1-44df-9ed5-7786eedbf70a","ios":"levelo://app?vid=8a60cce2-9cd1-44df-9ed5-7786eedbf70a"},"vehicle_type_id":"4","last_reported":1779444869,"current_range_meters":4800,"station_id":"ce4bgjp2rcd13ifvqbh0","pricing_plan_id":"cebpf4jnsgd1na2vs0mg"},{"bike_id":"f3907118-3fe5-4874-82a7-08cfa10c9800","system_id":"levelo_inurba_marseille","lat":43.29813,"lon":5.38102,"is_reserved":false,"is_disabled":false,"rental_uris":{"android":"levelo://app?vid=f3907118-3fe5-4874-82a7-08cfa10c9800","ios":"levelo://app?vid=f3907118-3fe5-4874-82a7-08cfa10c9800"},"vehicle_type_id":"4","last_reported":1779444869,"current_range_meters":4800,"station_id":"ce4bgip2rcd13ifvqbb0","pricing_plan_id":"cebpf4jnsgd1na2vs0mg"},{"bike_id":"029a160f-0a40-4d51-b6c0-d78f0ead933f","system_id":"levelo_inurba_marseille","lat":43.26921,"lon":5.3892,"is_reserved":false,"is_disabled":false,"rental_uris":{"android":"levelo://app?vid=029a160f-0a40-4d51-b6c0-d78f0ead933f","ios":"levelo://app?vid=029a160f-0a40-4d51-b6c0-d78f0ead933f"},"vehicle_type_id":"4","last_reported":1779444869,"current_range_meters":5600,"station_id":"ce4bhhh2rcd13ifvqfl0","pricing_plan_id":"cebpf4jnsgd1na2vs0mg"},{"bike_id":"0522b0f6-e0f1-45ee-8db4-085de60aaff5","system_id":"levelo_inurba_marseille","lat":43.28268,"lon":5.37243,"is_reserved":false,"is_disabled":false,"rental_uris":{"android":"levelo://app?vid=0522b0f6-e0f1-45ee-8db4-085de60aaff5","ios":"levelo://app?vid=0522b0f6-e0f1-45ee-8db4-085de60aaff5"},"vehicle_type_id":"4","last_reported":1779444869,"current_range_meters":5600,"station_id":"","pricing_plan_id":"cebpf4jnsgd1na2vs0mg"},{"bike_id":"3f246bfd-20c7-4833-8aa4-3291b90a11bd","system_id":"levelo_inurba_marseille","lat":43.26356,"lon":5.41072,"is_reserved":false,"is_disabled":false,"rental_uris":{"android":"levelo://app?vid=3f246bfd-20c7-4833-8aa4-3291b90a11bd","ios":"levelo://app?vid=3f246bfd-20c7-4833-8aa4-3291b90a11bd"},"vehicle_type_id":"4","last_reported":1779444869,"current_range_meters":5600,"station_id":"st_d4e5ca6na9uc73bfl5fg","pricing_plan_id":"cebpf4jnsgd1na2vs0mg"},{"bike_id":"fad71679-2dc3-4c61-9034-a8d77542050c","system_id":"levelo_inurba_marseille","lat":43.27056,"lon":5.38305,"is_reserved":false,"is_disabled":false,"rental_uris":{"android":"levelo://app?vid=fad71679-2dc3-4c61-9034-a8d77542050c","ios":"levelo://app?vid=fad71679-2dc3-4c61-9034-a8d77542050c"},"vehicle_type_id":"4","last_reported":1779444869,"current_range_meters":5600,"station_id":"st_d3n2fo6cfp8s73cte1j0","pricing_plan_id":"cebpf4jnsgd1na2vs0mg"},{"bike_id":"be3e0a86-9d8a-4b52-8d0d-1b47e4a2b48b","system_id":"levelo_inurba_marseille","lat":43.29004,"lon":5.35606,"is_reserved":false,"is_disabled":false,"rental_uris":{"android":"levelo://app?vid=be3e0a86-9d8a-4b52-8d0d-1b47e4a2b48b","ios":"levelo://app?vid=be3e0a86-9d8a-4b52-8d0d-1b47e4a2b48b"},"vehicle_type_id":"4","last_reported":1779444869,"current_range_meters":5600,"station_id":"ce4bhb92rcd13ifvqen0","pricing_plan_id":"cebpf4jnsgd1na2vs0mg"},{"bike_id":"013939bc-c53d-4e6f-be2a-05c79303cd52","system_id":"levelo_inurba_marseille","lat":43.30987,"lon":5.36646,"is_reserved":false,"is_disabled":false,"rental_uris":{"android":"levelo://app?vid=013939bc-c53d-4e6f-be2a-05c79303cd52","ios":"levelo://app?vid=013939bc-c53d-4e6f-be2a-05c79303cd52"},"vehicle_type_id":"4","last_reported":1779444869,"current_range_meters":5600,"station_id":"","pricing_plan_id":"cebpf4jnsgd1na2vs0mg"},{"bike_id":"e3173d37-ecdf-4c5a-bc18-3aeb139c07cd","system_id":"levelo_inurba_marseille","lat":43.29715,"lon":5.3769,"is_reserved":false,"is_disabled":false,"rental_uris":{"android":"levelo://app?vid=e3173d37-ecdf-4c5a-bc18-3aeb139c07cd","ios":"levelo://app?vid=e3173d37-ecdf-4c5a-bc18-3aeb139c07cd"},"vehicle_type_id":"4","last_reported":1779444869,"current_range_meters":5600,"station_id":"ce4bgkh2rcd13ifvqbl0","pricing_plan_id":"cebpf4jnsgd1na2vs0mg"},{"bike_id":"b90c4810-bc71-435f-9454-1d991656a084","system_id":"levelo_inurba_marseille","lat":43.32488,"lon":5.3829,"is_reserved":false,"is_disabled":false,"rental_uris":{"android":"levelo://app?vid=b90c4810-bc71-435f-9454-1d991656a084","ios":"levelo://app?vid=b90c4810-bc71-435f-9454-1d991656a084"},"vehicle_type_id":"4","last_reported":1779444869,"current_range_meters":5600,"station_id":"st_d4asgbiv49dc73anf9m0","pricing_plan_id":"cebpf4jnsgd1na2vs0mg"},{"bike_id":"7eebbda7-66b3-4973-bb8a-7ba5bc875a88","system_id":"levelo_inurba_marseille","lat":43.27185,"lon":5.40989,"is_reserved":false,"is_disabled":false,"rental_uris":{"android":"levelo://app?vid=7eebbda7-66b3-4973-bb8a-7ba5bc875a88","ios":"levelo://app?vid=7eebbda7-66b3-4973-bb8a-7ba5bc875a88"},"vehicle_type_id":"4","last_reported":1779444869,"current_range_meters":5600,"station_id":"ce4bhl12rcd13ifvqgf0","pricing_plan_id":"cebpf4jnsgd1na2vs0mg"},{"bike_id":"1eb79db5-59a8-43a8-a2ae-66cf4260b475","system_id":"levelo_inurba_marseille","lat":43.30424,"lon":5.39744,"is_reserved":false,"is_disabled":false,"rental_uris":{"android":"levelo://app?vid=1eb79db5-59a8-43a8-a2ae-66cf4260b475","ios":"levelo://app?vid=1eb79db5-59a8-43a8-a2ae-66cf4260b475"},"vehicle_type_id":"4","last_reported":1779444869,"current_range_meters":5600,"station_id":"ce4bh092rcd13ifvqd20","pricing_plan_id":"cebpf4jnsgd1na2vs0mg"},{"bike_id":"4b1c898a-0291-4064-9e8c-cdcdec0a0cca","system_id":"levelo_inurba_marseille","lat":43.30534,"lon":5.36691,"is_reserved":false,"is_disabled":false,"rental_uris":{"android":"levelo://app?vid=4b1c898a-0291-4064-9e8c-cdcdec0a0cca","ios":"levelo://app?vid=4b1c898a-0291-4064-9e8c-cdcdec0a0cca"},"vehicle_type_id":"4","last_reported":1779444869,"current_range_meters":5600,"station_id":"ce4bgrp2rcd13ifvqc9g","pricing_plan_id":"cebpf4jnsgd1na2vs0mg"},{"bike_id":"e8098ed0-2546-4fa6-8f8b-6848a438908b","system_id":"levelo_inurba_marseille","lat":43.28414,"lon":5.34979,"is_reserved":false,"is_disabled":false,"rental_uris":{"android":"levelo://app?vid=e8098ed0-2546-4fa6-8f8b-6848a438908b","ios":"levelo://app?vid=e8098ed0-2546-4fa6-8f8b-6848a438908b"},"vehicle_type_id":"4","last_reported":1779444869,"current_range_meters":5600,"station_id":"ce4bhbh2rcd13ifvqepg","pricing_plan_id":"cebpf4jnsgd1na2vs0mg"},{"bike_id":"f5ddfd47-1379-40f7-88f5-238af06fb36c","system_id":"levelo_inurba_marseille","lat":43.28864,"lon":5.42511,"is_reserved":false,"is_disabled":false,"rental_uris":{"android":"levelo://app?vid=f5ddfd47-1379-40f7-88f5-238af06fb36c","ios":"levelo://app?vid=f5ddfd47-1379-40f7-88f5-238af06fb36c"},"vehicle_type_id":"4","last_reported":1779444869,"current_range_meters":5600,"station_id":"st_d3b462108ojc7389ooeg","pricing_plan_id":"cebpf4jnsgd1na2vs0mg"},{"bike_id":"25567174-0674-4025-8810-54a2d6ca1860","system_id":"levelo_inurba_marseille","lat":43.30544,"lon":5.36687,"is_reserved":false,"is_disabled":false,"rental_uris":{"android":"levelo://app?vid=25567174-0674-4025-8810-54a2d6ca1860","ios":"levelo://app?vid=25567174-0674-4025-8810-54a2d6ca1860"},"vehicle_type_id":"4","last_reported":1779444869,"current_range_meters":6000,"station_id":"ce4bgrp2rcd13ifvqc9g","pricing_plan_id":"cebpf4jnsgd1na2vs0mg"},{"bike_id":"c97309d8-44c6-4946-84f5-9a696edce419","system_id":"levelo_inurba_marseille","lat":43.3171,"lon":5.37742,"is_reserved":false,"is_disabled":false,"rental_uris":{"android":"levelo://app?vid=c97309d8-44c6-4946-84f5-9a696edce419","ios":"levelo://app?vid=c97309d8-44c6-4946-84f5-9a696edce419"},"vehicle_type_id":"4","last_reported":1779444869,"current_range_meters":6000,"station_id":"ce4bgth2rcd13ifvqch0","pricing_plan_id":"cebpf4jnsgd1na2vs0mg"},{"bike_id":"b64e9c0d-4003-4ce3-9a77-7ea68878e4b9","system_id":"levelo_inurba_marseille","lat":43.28122,"lon":5.39824,"is_reserved":false,"is_disabled":false,"rental_uris":{"android":"levelo://app?vid=b64e9c0d-4003-4ce3-9a77-7ea68878e4b9","ios":"levelo://app?vid=b64e9c0d-4003-4ce3-9a77-7ea68878e4b9"},"vehicle_type_id":"4","last_reported":1779444869,"current_range_meters":6000,"station_id":"","pricing_plan_id":"cebpf4jnsgd1na2vs0mg"},{"bike_id":"f14b2d37-33da-4abe-b00f-78dc278ca5ed","system_id":"levelo_inurba_marseille","lat":43.30561,"lon":5.37182,"is_reserved":false,"is_disabled":false,"rental_uris":{"android":"levelo://app?vid=f14b2d37-33da-4abe-b00f-78dc278ca5ed","ios":"levelo://app?vid=f14b2d37-33da-4abe-b00f-78dc278ca5ed"},"vehicle_type_id":"4","last_reported":1779444869,"current_range_meters":6000,"station_id":"","pricing_plan_id":"cebpf4jnsgd1na2vs0mg"},{"bike_id":"53060755-7fd3-4e7f-8e29-3eb945aa468e","system_id":"levelo_inurba_marseille","lat":43.29209,"lon":5.36026,"is_reserved":false,"is_disabled":false,"rental_uris":{"android":"levelo://app?vid=53060755-7fd3-4e7f-8e29-3eb945aa468e","ios":"levelo://app?vid=53060755-7fd3-4e7f-8e29-3eb945aa468e"},"vehicle_type_id":"4","last_reported":1779444869,"current_range_meters":6000,"station_id":"ce4bhbh2rcd13ifvqeqg","pricing_plan_id":"cebpf4jnsgd1na2vs0mg"},{"bike_id":"e01e9a76-7559-40e0-bc65-36123416e7b0","system_id":"levelo_inurba_marseille","lat":43.31223,"lon":5.36877,"is_reserved":false,"is_disabled":false,"rental_uris":{"android":"levelo://app?vid=e01e9a76-7559-40e0-bc65-36123416e7b0","ios":"levelo://app?vid=e01e9a76-7559-40e0-bc65-36123416e7b0"},"vehicle_type_id":"4","last_reported":1779444869,"current_range_meters":6000,"station_id":"ce4bgl92rcd13ifvqbq0","pricing_plan_id":"cebpf4jnsgd1na2vs0mg"},{"bike_id":"129d1c1e-a4ec-4956-9f3f-d6961f012ff9","system_id":"levelo_inurba_marseille","lat":43.28854,"lon":5.36647,"is_reserved":false,"is_disabled":false,"rental_uris":{"android":"levelo://app?vid=129d1c1e-a4ec-4956-9f3f-d6961f012ff9","ios":"levelo://app?vid=129d1c1e-a4ec-4956-9f3f-d6961f012ff9"},"vehicle_type_id":"4","last_reported":1779444869,"current_range_meters":6000,"station_id":"","pricing_plan_id":"cebpf4jnsgd1na2vs0mg"},{"bike_id":"126b2292-34b3-48ba-852f-c961ead28df8","system_id":"levelo_inurba_marseille","lat":43.29024,"lon":5.35623,"is_reserved":false,"is_disabled":true,"rental_uris":{"android":"levelo://app?vid=126b2292-34b3-48ba-852f-c961ead28df8","ios":"levelo://app?vid=126b2292-34b3-48ba-852f-c961ead28df8"},"vehicle_type_id":"4","last_reported":1779444869,"current_range_meters":6000,"station_id":"ce4bhb92rcd13ifvqen0","pricing_plan_id":"cebpf4jnsgd1na2vs0mg"},{"bike_id":"60a16368-519a-4aa5-889a-f31cdc0a5be1","system_id":"levelo_inurba_marseille","lat":43.31982,"lon":5.41508,"is_reserved":false,"is_disabled":false,"rental_uris":{"android":"levelo://app?vid=60a16368-519a-4aa5-889a-f31cdc0a5be1","ios":"levelo://app?vid=60a16368-519a-4aa5-889a-f31cdc0a5be1"},"vehicle_type_id":"4","last_reported":1779444869,"current_range_meters":6000,"station_id":"","pricing_plan_id":"cebpf4jnsgd1na2vs0mg"},{"bike_id":"0a452bd8-d344-48d6-9e9a-ffed30ed6dbb","system_id":"levelo_inurba_marseille","lat":43.3051,"lon":5.36574,"is_reserved":false,"is_disabled":false,"rental_uris":{"android":"levelo://app?vid=0a452bd8-d344-48d6-9e9a-ffed30ed6dbb","ios":"levelo://app?vid=0a452bd8-d344-48d6-9e9a-ffed30ed6dbb"},"vehicle_type_id":"4","last_reported":1779444869,"current_range_meters":6000,"station_id":"ce4bgs12rcd13ifvqcag","pricing_plan_id":"cebpf4jnsgd1na2vs0mg"},{"bike_id":"e8a75273-514f-4f16-a563-b56ad4b99309","system_id":"levelo_inurba_marseille","lat":43.255,"lon":5.37641,"is_reserved":false,"is_disabled":false,"rental_uris":{"android":"levelo://app?vid=e8a75273-514f-4f16-a563-b56ad4b99309","ios":"levelo://app?vid=e8a75273-514f-4f16-a563-b56ad4b99309"},"vehicle_type_id":"4","last_reported":1779444869,"current_range_meters":6000,"station_id":"ce4bhh12rcd13ifvqff0","pricing_plan_id":"cebpf4jnsgd1na2vs0mg"},{"bike_id":"9b0e1355-cfa6-4246-8dd4-5abd1c2ff8a9","system_id":"levelo_inurba_marseille","lat":43.3095,"lon":5.39046,"is_reserved":false,"is_disabled":true,"rental_uris":{"android":"levelo://app?vid=9b0e1355-cfa6-4246-8dd4-5abd1c2ff8a9","ios":"levelo://app?vid=9b0e1355-cfa6-4246-8dd4-5abd1c2ff8a9"},"vehicle_type_id":"4","last_reported":1779444869,"current_range_meters":6000,"station_id":"ce4bgup2rcd13ifvqco0","pricing_plan_id":"cebpf4jnsgd1na2vs0mg"},{"bike_id":"4b6d8ac1-48e5-4d0a-aa78-d991efe39842","system_id":"levelo_inurba_marseille","lat":43.27173,"lon":5.40988,"is_reserved":false,"is_disabled":false,"rental_uris":{"android":"levelo://app?vid=4b6d8ac1-48e5-4d0a-aa78-d991efe39842","ios":"levelo://app?vid=4b6d8ac1-48e5-4d0a-aa78-d991efe39842"},"vehicle_type_id":"4","last_reported":1779444869,"current_range_meters":6000,"station_id":"ce4bhl12rcd13ifvqgf0","pricing_plan_id":"cebpf4jnsgd1na2vs0mg"},{"bike_id":"5637424f-2dcd-4533-b573-0c60f9232b4d","system_id":"levelo_inurba_marseille","lat":43.27359,"lon":5.36246,"is_reserved":false,"is_disabled":false,"rental_uris":{"android":"levelo://app?vid=5637424f-2dcd-4533-b573-0c60f9232b4d","ios":"levelo://app?vid=5637424f-2dcd-4533-b573-0c60f9232b4d"},"vehicle_type_id":"4","last_reported":1779444869,"current_range_meters":6000,"station_id":"ce4bhbh2rcd13ifvqeo0","pricing_plan_id":"cebpf4jnsgd1na2vs0mg"},{"bike_id":"d9253dea-1990-4790-b842-8d9ae5ade1e4","system_id":"levelo_inurba_marseille","lat":43.29965,"lon":5.41304,"is_reserved":false,"is_disabled":false,"rental_uris":{"android":"levelo://app?vid=d9253dea-1990-4790-b842-8d9ae5ade1e4","ios":"levelo://app?vid=d9253dea-1990-4790-b842-8d9ae5ade1e4"},"vehicle_type_id":"4","last_reported":1779444869,"current_range_meters":6000,"station_id":"ce4bhp12rcd13ifvqh9g","pricing_plan_id":"cebpf4jnsgd1na2vs0mg"},{"bike_id":"ebf5f3bd-a497-43a9-b4b3-3cc64788050f","system_id":"levelo_inurba_marseille","lat":43.28943,"lon":5.36629,"is_reserved":false,"is_disabled":false,"rental_uris":{"android":"levelo://app?vid=ebf5f3bd-a497-43a9-b4b3-3cc64788050f","ios":"levelo://app?vid=ebf5f3bd-a497-43a9-b4b3-3cc64788050f"},"vehicle_type_id":"4","last_reported":1779444869,"current_range_meters":6000,"station_id":"ce4bhap2rcd13ifvqek0","pricing_plan_id":"cebpf4jnsgd1na2vs0mg"},{"bike_id":"691d522d-8565-4a91-bffc-e987d9a10e4a","system_id":"levelo_inurba_marseille","lat":43.25827,"lon":5.39437,"is_reserved":false,"is_disabled":false,"rental_uris":{"android":"levelo://app?vid=691d522d-8565-4a91-bffc-e987d9a10e4a","ios":"levelo://app?vid=691d522d-8565-4a91-bffc-e987d9a10e4a"},"vehicle_type_id":"4","last_reported":1779444869,"current_range_meters":6400,"station_id":"ce4bhip2rcd13ifvqft0","pricing_plan_id":"cebpf4jnsgd1na2vs0mg"},{"bike_id":"e17cc7a4-bf6e-4ebf-a0c5-d8a0975488f8","system_id":"levelo_inurba_marseille","lat":43.30124,"lon":5.39869,"is_reserved":false,"is_disabled":false,"rental_uris":{"android":"levelo://app?vid=e17cc7a4-bf6e-4ebf-a0c5-d8a0975488f8","ios":"levelo://app?vid=e17cc7a4-bf6e-4ebf-a0c5-d8a0975488f8"},"vehicle_type_id":"4","last_reported":1779444869,"current_range_meters":6400,"station_id":"ce4bh0h2rcd13ifvqd40","pricing_plan_id":"cebpf4jnsgd1na2vs0mg"},{"bike_id":"018f6bc0-ebc7-4e44-beac-baaed80ca849","system_id":"levelo_inurba_marseille","lat":43.29883,"lon":5.39725,"is_reserved":false,"is_disabled":true,"rental_uris":{"android":"levelo://app?vid=018f6bc0-ebc7-4e44-beac-baaed80ca849","ios":"levelo://app?vid=018f6bc0-ebc7-4e44-beac-baaed80ca849"},"vehicle_type_id":"4","last_reported":1779444869,"current_range_meters":6400,"station_id":"ce4bh0h2rcd13ifvqd50","pricing_plan_id":"cebpf4jnsgd1na2vs0mg"},{"bike_id":"ae73dd5f-c448-475f-be97-7d9f664d23a6","system_id":"levelo_inurba_marseille","lat":43.28539,"lon":5.38444,"is_reserved":false,"is_disabled":false,"rental_uris":{"android":"levelo://app?vid=ae73dd5f-c448-475f-be97-7d9f664d23a6","ios":"levelo://app?vid=ae73dd5f-c448-475f-be97-7d9f664d23a6"},"vehicle_type_id":"4","last_reported":1779444869,"current_range_meters":6400,"station_id":"","pricing_plan_id":"cebpf4jnsgd1na2vs0mg"},{"bike_id":"63d35d01-5acd-4b8c-b490-4f7436cc53c2","system_id":"levelo_inurba_marseille","lat":43.26198,"lon":5.37446,"is_reserved":false,"is_disabled":false,"rental_uris":{"android":"levelo://app?vid=63d35d01-5acd-4b8c-b490-4f7436cc53c2","ios":"levelo://app?vid=63d35d01-5acd-4b8c-b490-4f7436cc53c2"},"vehicle_type_id":"4","last_reported":1779444869,"current_range_meters":6400,"station_id":"","pricing_plan_id":"cebpf4jnsgd1na2vs0mg"},{"bike_id":"3d436a0d-575b-42d3-8681-5c87057b3b7f","system_id":"levelo_inurba_marseille","lat":43.2797,"lon":5.43607,"is_reserved":false,"is_disabled":false,"rental_uris":{"android":"levelo://app?vid=3d436a0d-575b-42d3-8681-5c87057b3b7f","ios":"levelo://app?vid=3d436a0d-575b-42d3-8681-5c87057b3b7f"},"vehicle_type_id":"4","last_reported":1779444869,"current_range_meters":6400,"station_id":"","pricing_plan_id":"cebpf4jnsgd1na2vs0mg"},{"bike_id":"e4fd2b5f-8c1e-4148-9edb-b582666b9eac","system_id":"levelo_inurba_marseille","lat":43.31362,"lon":5.3848,"is_reserved":false,"is_disabled":false,"rental_uris":{"android":"levelo://app?vid=e4fd2b5f-8c1e-4148-9edb-b582666b9eac","ios":"levelo://app?vid=e4fd2b5f-8c1e-4148-9edb-b582666b9eac"},"vehicle_type_id":"4","last_reported":1779444869,"current_range_meters":6400,"station_id":"ce4bgt92rcd13ifvqcf0","pricing_plan_id":"cebpf4jnsgd1na2vs0mg"},{"bike_id":"1a424fb3-63f8-4781-aa25-9a328360cbcd","system_id":"levelo_inurba_marseille","lat":43.30528,"lon":5.36702,"is_reserved":false,"is_disabled":false,"rental_uris":{"android":"levelo://app?vid=1a424fb3-63f8-4781-aa25-9a328360cbcd","ios":"levelo://app?vid=1a424fb3-63f8-4781-aa25-9a328360cbcd"},"vehicle_type_id":"4","last_reported":1779444869,"current_range_meters":6400,"station_id":"ce4bgrp2rcd13ifvqc9g","pricing_plan_id":"cebpf4jnsgd1na2vs0mg"},{"bike_id":"b3a0ea34-5f1e-4676-b3d7-e0ae2d7ea170","system_id":"levelo_inurba_marseille","lat":43.30175,"lon":5.38078,"is_reserved":false,"is_disabled":false,"rental_uris":{"android":"levelo://app?vid=b3a0ea34-5f1e-4676-b3d7-e0ae2d7ea170","ios":"levelo://app?vid=b3a0ea34-5f1e-4676-b3d7-e0ae2d7ea170"},"vehicle_type_id":"4","last_reported":1779444869,"current_range_meters":6800,"station_id":"ce4bgjp2rcd13ifvqbh0","pricing_plan_id":"cebpf4jnsgd1na2vs0mg"},{"bike_id":"d523bcad-98ea-47e7-a65b-05f23aafd12a","system_id":"levelo_inurba_marseille","lat":43.29835,"lon":5.38062,"is_reserved":false,"is_disabled":false,"rental_uris":{"android":"levelo://app?vid=d523bcad-98ea-47e7-a65b-05f23aafd12a","ios":"levelo://app?vid=d523bcad-98ea-47e7-a65b-05f23aafd12a"},"vehicle_type_id":"4","last_reported":1779444869,"current_range_meters":6800,"station_id":"","pricing_plan_id":"cebpf4jnsgd1na2vs0mg"},{"bike_id":"5c530a9e-7c4a-4aa6-adac-4172a237ef4e","system_id":"levelo_inurba_marseille","lat":43.28608,"lon":5.35018,"is_reserved":false,"is_disabled":false,"rental_uris":{"android":"levelo://app?vid=5c530a9e-7c4a-4aa6-adac-4172a237ef4e","ios":"levelo://app?vid=5c530a9e-7c4a-4aa6-adac-4172a237ef4e"},"vehicle_type_id":"4","last_reported":1779444869,"current_range_meters":6800,"station_id":"","pricing_plan_id":"cebpf4jnsgd1na2vs0mg"},{"bike_id":"23fa46e4-55ce-41df-8541-d2c93a318a28","system_id":"levelo_inurba_marseille","lat":43.30949,"lon":5.39035,"is_reserved":false,"is_disabled":false,"rental_uris":{"android":"levelo://app?vid=23fa46e4-55ce-41df-8541-d2c93a318a28","ios":"levelo://app?vid=23fa46e4-55ce-41df-8541-d2c93a318a28"},"vehicle_type_id":"4","last_reported":1779444869,"current_range_meters":6800,"station_id":"ce4bgup2rcd13ifvqco0","pricing_plan_id":"cebpf4jnsgd1na2vs0mg"},{"bike_id":"c21a6c17-c423-4de4-98d3-16527efa5566","system_id":"levelo_inurba_marseille","lat":43.30138,"lon":5.38765,"is_reserved":false,"is_disabled":false,"rental_uris":{"android":"levelo://app?vid=c21a6c17-c423-4de4-98d3-16527efa5566","ios":"levelo://app?vid=c21a6c17-c423-4de4-98d3-16527efa5566"},"vehicle_type_id":"4","last_reported":1779444869,"current_range_meters":6800,"station_id":"ce4bghh2rcd13ifvqb60","pricing_plan_id":"cebpf4jnsgd1na2vs0mg"},{"bike_id":"ca8270b4-d39a-47bc-a5ba-46cea51aa1f5","system_id":"levelo_inurba_marseille","lat":43.28068,"lon":5.35251,"is_reserved":false,"is_disabled":false,"rental_uris":{"android":"levelo://app?vid=ca8270b4-d39a-47bc-a5ba-46cea51aa1f5","ios":"levelo://app?vid=ca8270b4-d39a-47bc-a5ba-46cea51aa1f5"},"vehicle_type_id":"4","last_reported":1779444869,"current_range_meters":6800,"station_id":"","pricing_plan_id":"cebpf4jnsgd1na2vs0mg"},{"bike_id":"9bd2c99d-831a-4bd4-9d28-b381a9585878","system_id":"levelo_inurba_marseille","lat":43.23962,"lon":5.36633,"is_reserved":false,"is_disabled":false,"rental_uris":{"android":"levelo://app?vid=9bd2c99d-831a-4bd4-9d28-b381a9585878","ios":"levelo://app?vid=9bd2c99d-831a-4bd4-9d28-b381a9585878"},"vehicle_type_id":"4","last_reported":1779444869,"current_range_meters":6800,"station_id":"ce4bhi12rcd13ifvqfp0","pricing_plan_id":"cebpf4jnsgd1na2vs0mg"},{"bike_id":"6e81fdce-03a3-4989-a884-8ea3a64f9dfc","system_id":"levelo_inurba_marseille","lat":43.27812,"lon":5.40705,"is_reserved":false,"is_disabled":false,"rental_uris":{"android":"levelo://app?vid=6e81fdce-03a3-4989-a884-8ea3a64f9dfc","ios":"levelo://app?vid=6e81fdce-03a3-4989-a884-8ea3a64f9dfc"},"vehicle_type_id":"4","last_reported":1779444869,"current_range_meters":6800,"station_id":"ce4bhnh2rcd13ifvqgtg","pricing_plan_id":"cebpf4jnsgd1na2vs0mg"},{"bike_id":"311a32a2-9584-4040-a54a-5150e9ba9d1f","system_id":"levelo_inurba_marseille","lat":43.287,"lon":5.46691,"is_reserved":false,"is_disabled":false,"rental_uris":{"android":"levelo://app?vid=311a32a2-9584-4040-a54a-5150e9ba9d1f","ios":"levelo://app?vid=311a32a2-9584-4040-a54a-5150e9ba9d1f"},"vehicle_type_id":"4","last_reported":1779444869,"current_range_meters":6800,"station_id":"st_d6tc3vkotcvc738tfjhg","pricing_plan_id":"cebpf4jnsgd1na2vs0mg"},{"bike_id":"e1e8d0c5-7cff-4a52-a548-b6f5342738ad","system_id":"levelo_inurba_marseille","lat":43.31362,"lon":5.36708,"is_reserved":false,"is_disabled":false,"rental_uris":{"android":"levelo://app?vid=e1e8d0c5-7cff-4a52-a548-b6f5342738ad","ios":"levelo://app?vid=e1e8d0c5-7cff-4a52-a548-b6f5342738ad"},"vehicle_type_id":"4","last_reported":1779444869,"current_range_meters":6800,"station_id":"ce4bgr92rcd13ifvqc6g","pricing_plan_id":"cebpf4jnsgd1na2vs0mg"},{"bike_id":"e7fef7d1-f7fd-42b0-b2f9-f9bf87b14d3a","system_id":"levelo_inurba_marseille","lat":43.26373,"lon":5.41078,"is_reserved":false,"is_disabled":false,"rental_uris":{"android":"levelo://app?vid=e7fef7d1-f7fd-42b0-b2f9-f9bf87b14d3a","ios":"levelo://app?vid=e7fef7d1-f7fd-42b0-b2f9-f9bf87b14d3a"},"vehicle_type_id":"4","last_reported":1779444869,"current_range_meters":6800,"station_id":"st_d4e5ca6na9uc73bfl5fg","pricing_plan_id":"cebpf4jnsgd1na2vs0mg"},{"bike_id":"a71f5bef-55a3-4a03-8967-606ca5b052fd","system_id":"levelo_inurba_marseille","lat":43.29993,"lon":5.3715,"is_reserved":false,"is_disabled":false,"rental_uris":{"android":"levelo://app?vid=a71f5bef-55a3-4a03-8967-606ca5b052fd","ios":"levelo://app?vid=a71f5bef-55a3-4a03-8967-606ca5b052fd"},"vehicle_type_id":"4","last_reported":1779444869,"current_range_meters":6800,"station_id":"ce4bgr92rcd13ifvqc7g","pricing_plan_id":"cebpf4jnsgd1na2vs0mg"},{"bike_id":"481802dc-4e11-4793-b31f-d1ceb7371a2e","system_id":"levelo_inurba_marseille","lat":43.25939,"lon":5.40887,"is_reserved":false,"is_disabled":false,"rental_uris":{"android":"levelo://app?vid=481802dc-4e11-4793-b31f-d1ceb7371a2e","ios":"levelo://app?vid=481802dc-4e11-4793-b31f-d1ceb7371a2e"},"vehicle_type_id":"4","last_reported":1779444869,"current_range_meters":6800,"station_id":"ce4bhm92rcd13ifvqglg","pricing_plan_id":"cebpf4jnsgd1na2vs0mg"},{"bike_id":"5d370724-77a2-4752-996e-f01dda7a3379","system_id":"levelo_inurba_marseille","lat":43.22571,"lon":5.41617,"is_reserved":false,"is_disabled":false,"rental_uris":{"android":"levelo://app?vid=5d370724-77a2-4752-996e-f01dda7a3379","ios":"levelo://app?vid=5d370724-77a2-4752-996e-f01dda7a3379"},"vehicle_type_id":"4","last_reported":1779444869,"current_range_meters":6800,"station_id":"st_d2o4gvlbi1j2169b742g","pricing_plan_id":"cebpf4jnsgd1na2vs0mg"},{"bike_id":"ff81b650-ce5d-4751-998e-45140acffa66","system_id":"levelo_inurba_marseille","lat":43.28975,"lon":5.37846,"is_reserved":false,"is_disabled":false,"rental_uris":{"android":"levelo://app?vid=ff81b650-ce5d-4751-998e-45140acffa66","ios":"levelo://app?vid=ff81b650-ce5d-4751-998e-45140acffa66"},"vehicle_type_id":"4","last_reported":1779444869,"current_range_meters":6800,"station_id":"ce4bh9p2rcd13ifvqed0","pricing_plan_id":"cebpf4jnsgd1na2vs0mg"},{"bike_id":"217aa53c-45fa-4209-9adc-64080b5db7a1","system_id":"levelo_inurba_marseille","lat":43.25511,"lon":5.37649,"is_reserved":false,"is_disabled":false,"rental_uris":{"android":"levelo://app?vid=217aa53c-45fa-4209-9adc-64080b5db7a1","ios":"levelo://app?vid=217aa53c-45fa-4209-9adc-64080b5db7a1"},"vehicle_type_id":"4","last_reported":1779444869,"current_range_meters":7200,"station_id":"ce4bhh12rcd13ifvqff0","pricing_plan_id":"cebpf4jnsgd1na2vs0mg"},{"bike_id":"b36f6250-7319-4924-8bcd-74f03836ee41","system_id":"levelo_inurba_marseille","lat":43.23965,"lon":5.36604,"is_reserved":false,"is_disabled":false,"rental_uris":{"android":"levelo://app?vid=b36f6250-7319-4924-8bcd-74f03836ee41","ios":"levelo://app?vid=b36f6250-7319-4924-8bcd-74f03836ee41"},"vehicle_type_id":"4","last_reported":1779444869,"current_range_meters":7200,"station_id":"ce4bhi12rcd13ifvqfp0","pricing_plan_id":"cebpf4jnsgd1na2vs0mg"},{"bike_id":"d6ef5181-9c65-4b14-a132-bd2560a893a3","system_id":"levelo_inurba_marseille","lat":43.25826,"lon":5.39428,"is_reserved":false,"is_disabled":false,"rental_uris":{"android":"levelo://app?vid=d6ef5181-9c65-4b14-a132-bd2560a893a3","ios":"levelo://app?vid=d6ef5181-9c65-4b14-a132-bd2560a893a3"},"vehicle_type_id":"4","last_reported":1779444869,"current_range_meters":7200,"station_id":"ce4bhip2rcd13ifvqft0","pricing_plan_id":"cebpf4jnsgd1na2vs0mg"},{"bike_id":"2d09449d-df92-4d3e-9412-ea34f0e8afc0","system_id":"levelo_inurba_marseille","lat":43.29653,"lon":5.38523,"is_reserved":false,"is_disabled":false,"rental_uris":{"android":"levelo://app?vid=2d09449d-df92-4d3e-9412-ea34f0e8afc0","ios":"levelo://app?vid=2d09449d-df92-4d3e-9412-ea34f0e8afc0"},"vehicle_type_id":"4","last_reported":1779444869,"current_range_meters":7200,"station_id":"","pricing_plan_id":"cebpf4jnsgd1na2vs0mg"},{"bike_id":"7cef59ac-e670-4cc6-9d1c-d823b8a2b396","system_id":"levelo_inurba_marseille","lat":43.30484,"lon":5.37883,"is_reserved":false,"is_disabled":false,"rental_uris":{"android":"levelo://app?vid=7cef59ac-e670-4cc6-9d1c-d823b8a2b396","ios":"levelo://app?vid=7cef59ac-e670-4cc6-9d1c-d823b8a2b396"},"vehicle_type_id":"4","last_reported":1779444869,"current_range_meters":7200,"station_id":"ce4bgup2rcd13ifvqcn0","pricing_plan_id":"cebpf4jnsgd1na2vs0mg"},{"bike_id":"ea991d34-c381-473f-b083-576b846027e5","system_id":"levelo_inurba_marseille","lat":43.25858,"lon":5.39932,"is_reserved":false,"is_disabled":false,"rental_uris":{"android":"levelo://app?vid=ea991d34-c381-473f-b083-576b846027e5","ios":"levelo://app?vid=ea991d34-c381-473f-b083-576b846027e5"},"vehicle_type_id":"4","last_reported":1779444869,"current_range_meters":7200,"station_id":"ce4bhl92rcd13ifvqghg","pricing_plan_id":"cebpf4jnsgd1na2vs0mg"},{"bike_id":"3200b978-002a-4bf0-9ea7-51cc9e75e711","system_id":"levelo_inurba_marseille","lat":43.27165,"lon":5.40996,"is_reserved":false,"is_disabled":false,"rental_uris":{"android":"levelo://app?vid=3200b978-002a-4bf0-9ea7-51cc9e75e711","ios":"levelo://app?vid=3200b978-002a-4bf0-9ea7-51cc9e75e711"},"vehicle_type_id":"4","last_reported":1779444869,"current_range_meters":7200,"station_id":"ce4bhl12rcd13ifvqgf0","pricing_plan_id":"cebpf4jnsgd1na2vs0mg"},{"bike_id":"3a8d208c-31b9-44aa-9295-f0807d450622","system_id":"levelo_inurba_marseille","lat":43.304613,"lon":5.379106,"is_reserved":false,"is_disabled":false,"rental_uris":{"android":"levelo://app?vid=3a8d208c-31b9-44aa-9295-f0807d450622","ios":"levelo://app?vid=3a8d208c-31b9-44aa-9295-f0807d450622"},"vehicle_type_id":"4","last_reported":1779444869,"current_range_meters":7200,"station_id":"ce4bgup2rcd13ifvqcn0","pricing_plan_id":"cebpf4jnsgd1na2vs0mg"},{"bike_id":"0bb8cc03-1ffc-4d63-9aff-1e9985ec2a04","system_id":"levelo_inurba_marseille","lat":43.28632,"lon":5.39845,"is_reserved":false,"is_disabled":false,"rental_uris":{"android":"levelo://app?vid=0bb8cc03-1ffc-4d63-9aff-1e9985ec2a04","ios":"levelo://app?vid=0bb8cc03-1ffc-4d63-9aff-1e9985ec2a04"},"vehicle_type_id":"4","last_reported":1779444869,"current_range_meters":7200,"station_id":"st_d4a7ka997mjs738ck50g","pricing_plan_id":"cebpf4jnsgd1na2vs0mg"},{"bike_id":"6a572d56-f8a9-43f3-aab7-62e7edcd2b70","system_id":"levelo_inurba_marseille","lat":43.24802,"lon":5.37451,"is_reserved":false,"is_disabled":false,"rental_uris":{"android":"levelo://app?vid=6a572d56-f8a9-43f3-aab7-62e7edcd2b70","ios":"levelo://app?vid=6a572d56-f8a9-43f3-aab7-62e7edcd2b70"},"vehicle_type_id":"4","last_reported":1779444869,"current_range_meters":7200,"station_id":"ce4bhgh2rcd13ifvqfb0","pricing_plan_id":"cebpf4jnsgd1na2vs0mg"},{"bike_id":"aa71664e-fae7-4d97-8515-ddae352558ad","system_id":"levelo_inurba_marseille","lat":43.292713,"lon":5.401127,"is_reserved":false,"is_disabled":true,"rental_uris":{"android":"levelo://app?vid=aa71664e-fae7-4d97-8515-ddae352558ad","ios":"levelo://app?vid=aa71664e-fae7-4d97-8515-ddae352558ad"},"vehicle_type_id":"4","last_reported":1779444869,"current_range_meters":7200,"station_id":"ce4bh312rcd13ifvqdk0","pricing_plan_id":"cebpf4jnsgd1na2vs0mg"},{"bike_id":"55ff971c-f753-4ef7-83e4-054f84d32949","system_id":"levelo_inurba_marseille","lat":43.29936,"lon":5.36639,"is_reserved":false,"is_disabled":true,"rental_uris":{"android":"levelo://app?vid=55ff971c-f753-4ef7-83e4-054f84d32949","ios":"levelo://app?vid=55ff971c-f753-4ef7-83e4-054f84d32949"},"vehicle_type_id":"4","last_reported":1779444869,"current_range_meters":7200,"station_id":"","pricing_plan_id":"cebpf4jnsgd1na2vs0mg"},{"bike_id":"ad0ce0a0-b313-407e-b7d9-63b7147a0c85","system_id":"levelo_inurba_marseille","lat":43.24459,"lon":5.42535,"is_reserved":false,"is_disabled":false,"rental_uris":{"android":"levelo://app?vid=ad0ce0a0-b313-407e-b7d9-63b7147a0c85","ios":"levelo://app?vid=ad0ce0a0-b313-407e-b7d9-63b7147a0c85"},"vehicle_type_id":"4","last_reported":1779444869,"current_range_meters":7200,"station_id":"st_d4a3vfp97mjs738cd8kg","pricing_plan_id":"cebpf4jnsgd1na2vs0mg"},{"bike_id":"125c4d5b-9f0c-4f70-b053-7773cea0e270","system_id":"levelo_inurba_marseille","lat":43.28158,"lon":5.43793,"is_reserved":false,"is_disabled":false,"rental_uris":{"android":"levelo://app?vid=125c4d5b-9f0c-4f70-b053-7773cea0e270","ios":"levelo://app?vid=125c4d5b-9f0c-4f70-b053-7773cea0e270"},"vehicle_type_id":"4","last_reported":1779444869,"current_range_meters":7200,"station_id":"","pricing_plan_id":"cebpf4jnsgd1na2vs0mg"},{"bike_id":"410a99b2-7ee8-4bc4-8c53-f26a60e84de8","system_id":"levelo_inurba_marseille","lat":43.24653,"lon":5.38897,"is_reserved":false,"is_disabled":false,"rental_uris":{"android":"levelo://app?vid=410a99b2-7ee8-4bc4-8c53-f26a60e84de8","ios":"levelo://app?vid=410a99b2-7ee8-4bc4-8c53-f26a60e84de8"},"vehicle_type_id":"4","last_reported":1779444869,"current_range_meters":7200,"station_id":"ce4bhg12rcd13ifvqf60","pricing_plan_id":"cebpf4jnsgd1na2vs0mg"},{"bike_id":"eb674502-a68e-4cc8-ae7a-4c5b7fd5cd17","system_id":"levelo_inurba_marseille","lat":43.2655,"lon":5.40312,"is_reserved":false,"is_disabled":false,"rental_uris":{"android":"levelo://app?vid=eb674502-a68e-4cc8-ae7a-4c5b7fd5cd17","ios":"levelo://app?vid=eb674502-a68e-4cc8-ae7a-4c5b7fd5cd17"},"vehicle_type_id":"4","last_reported":1779444869,"current_range_meters":7200,"station_id":"ce4bhmp2rcd13ifvqgng","pricing_plan_id":"cebpf4jnsgd1na2vs0mg"},{"bike_id":"cf419152-a2bb-4b9a-9467-17f5c110e9ff","system_id":"levelo_inurba_marseille","lat":43.26063,"lon":5.39392,"is_reserved":false,"is_disabled":false,"rental_uris":{"android":"levelo://app?vid=cf419152-a2bb-4b9a-9467-17f5c110e9ff","ios":"levelo://app?vid=cf419152-a2bb-4b9a-9467-17f5c110e9ff"},"vehicle_type_id":"4","last_reported":1779444869,"current_range_meters":7200,"station_id":"ce4bhh92rcd13ifvqfj0","pricing_plan_id":"cebpf4jnsgd1na2vs0mg"},{"bike_id":"103c3925-0fed-4670-8dde-c29c1ddbe606","system_id":"levelo_inurba_marseille","lat":43.246323,"lon":5.431301,"is_reserved":false,"is_disabled":false,"rental_uris":{"android":"levelo://app?vid=103c3925-0fed-4670-8dde-c29c1ddbe606","ios":"levelo://app?vid=103c3925-0fed-4670-8dde-c29c1ddbe606"},"vehicle_type_id":"4","last_reported":1779444869,"current_range_meters":7200,"station_id":"st_d2m6c4gdas8pm72e190g","pricing_plan_id":"cebpf4jnsgd1na2vs0mg"},{"bike_id":"875ff3ec-3d53-4289-87d8-004996e2dc85","system_id":"levelo_inurba_marseille","lat":43.292646,"lon":5.38435,"is_reserved":false,"is_disabled":false,"rental_uris":{"android":"levelo://app?vid=875ff3ec-3d53-4289-87d8-004996e2dc85","ios":"levelo://app?vid=875ff3ec-3d53-4289-87d8-004996e2dc85"},"vehicle_type_id":"4","last_reported":1779444869,"current_range_meters":7200,"station_id":"ce4bh692rcd13ifvqea0","pricing_plan_id":"cebpf4jnsgd1na2vs0mg"},{"bike_id":"e5d7f090-dc6d-405b-aab1-3f204edf5169","system_id":"levelo_inurba_marseille","lat":43.29,"lon":5.356,"is_reserved":false,"is_disabled":false,"rental_uris":{"android":"levelo://app?vid=e5d7f090-dc6d-405b-aab1-3f204edf5169","ios":"levelo://app?vid=e5d7f090-dc6d-405b-aab1-3f204edf5169"},"vehicle_type_id":"4","last_reported":1779444869,"current_range_meters":7200,"station_id":"ce4bhb92rcd13ifvqen0","pricing_plan_id":"cebpf4jnsgd1na2vs0mg"},{"bike_id":"ca5b8b13-5373-4377-b925-1d87c55b34ee","system_id":"levelo_inurba_marseille","lat":43.27374,"lon":5.36263,"is_reserved":false,"is_disabled":false,"rental_uris":{"android":"levelo://app?vid=ca5b8b13-5373-4377-b925-1d87c55b34ee","ios":"levelo://app?vid=ca5b8b13-5373-4377-b925-1d87c55b34ee"},"vehicle_type_id":"4","last_reported":1779444869,"current_range_meters":8000,"station_id":"ce4bhbh2rcd13ifvqeo0","pricing_plan_id":"cebpf4jnsgd1na2vs0mg"},{"bike_id":"615bca33-3437-4795-bcbd-912c713a7af8","system_id":"levelo_inurba_marseille","lat":43.29912,"lon":5.37476,"is_reserved":false,"is_disabled":false,"rental_uris":{"android":"levelo://app?vid=615bca33-3437-4795-bcbd-912c713a7af8","ios":"levelo://app?vid=615bca33-3437-4795-bcbd-912c713a7af8"},"vehicle_type_id":"4","last_reported":1779444869,"current_range_meters":8000,"station_id":"ce4bgjh2rcd13ifvqbg0","pricing_plan_id":"cebpf4jnsgd1na2vs0mg"},{"bike_id":"3b326105-ca6d-4f73-8cac-8527fdd59fa6","system_id":"levelo_inurba_marseille","lat":43.25015,"lon":5.38892,"is_reserved":false,"is_disabled":false,"rental_uris":{"android":"levelo://app?vid=3b326105-ca6d-4f73-8cac-8527fdd59fa6","ios":"levelo://app?vid=3b326105-ca6d-4f73-8cac-8527fdd59fa6"},"vehicle_type_id":"4","last_reported":1779444869,"current_range_meters":8000,"station_id":"ce4bhgp2rcd13ifvqfd0","pricing_plan_id":"cebpf4jnsgd1na2vs0mg"},{"bike_id":"ca7bec4c-c9ce-4816-988f-528f79a7e440","system_id":"levelo_inurba_marseille","lat":43.32054,"lon":5.41582,"is_reserved":false,"is_disabled":false,"rental_uris":{"android":"levelo://app?vid=ca7bec4c-c9ce-4816-988f-528f79a7e440","ios":"levelo://app?vid=ca7bec4c-c9ce-4816-988f-528f79a7e440"},"vehicle_type_id":"4","last_reported":1779444869,"current_range_meters":8000,"station_id":"ce4bhq92rcd13ifvqhkg","pricing_plan_id":"cebpf4jnsgd1na2vs0mg"},{"bike_id":"f2fea1c2-4b61-43eb-8316-459751289416","system_id":"levelo_inurba_marseille","lat":43.32476,"lon":5.36558,"is_reserved":false,"is_disabled":false,"rental_uris":{"android":"levelo://app?vid=f2fea1c2-4b61-43eb-8316-459751289416","ios":"levelo://app?vid=f2fea1c2-4b61-43eb-8316-459751289416"},"vehicle_type_id":"4","last_reported":1779444869,"current_range_meters":8000,"station_id":"ce4bhs12rcd13ifvqhvg","pricing_plan_id":"cebpf4jnsgd1na2vs0mg"},{"bike_id":"2aa43b8a-e8a0-4968-87ae-d3fd74283d5c","system_id":"levelo_inurba_marseille","lat":43.30465,"lon":5.37898,"is_reserved":false,"is_disabled":false,"rental_uris":{"android":"levelo://app?vid=2aa43b8a-e8a0-4968-87ae-d3fd74283d5c","ios":"levelo://app?vid=2aa43b8a-e8a0-4968-87ae-d3fd74283d5c"},"vehicle_type_id":"4","last_reported":1779444869,"current_range_meters":8000,"station_id":"ce4bgup2rcd13ifvqcn0","pricing_plan_id":"cebpf4jnsgd1na2vs0mg"},{"bike_id":"9b006e36-24f8-4e78-9b1f-942b956bf9bf","system_id":"levelo_inurba_marseille","lat":43.299821,"lon":5.371715,"is_reserved":false,"is_disabled":true,"rental_uris":{"android":"levelo://app?vid=9b006e36-24f8-4e78-9b1f-942b956bf9bf","ios":"levelo://app?vid=9b006e36-24f8-4e78-9b1f-942b956bf9bf"},"vehicle_type_id":"4","last_reported":1779444869,"current_range_meters":8000,"station_id":"","pricing_plan_id":"cebpf4jnsgd1na2vs0mg"},{"bike_id":"7796a593-36ed-4c84-981b-4656719fa948","system_id":"levelo_inurba_marseille","lat":43.30451,"lon":5.37912,"is_reserved":false,"is_disabled":false,"rental_uris":{"android":"levelo://app?vid=7796a593-36ed-4c84-981b-4656719fa948","ios":"levelo://app?vid=7796a593-36ed-4c84-981b-4656719fa948"},"vehicle_type_id":"4","last_reported":1779444869,"current_range_meters":8000,"station_id":"ce4bgup2rcd13ifvqcn0","pricing_plan_id":"cebpf4jnsgd1na2vs0mg"},{"bike_id":"15abc4bd-ab5b-416c-86fe-eba6fd10907d","system_id":"levelo_inurba_marseille","lat":43.29253,"lon":5.37609,"is_reserved":false,"is_disabled":true,"rental_uris":{"android":"levelo://app?vid=15abc4bd-ab5b-416c-86fe-eba6fd10907d","ios":"levelo://app?vid=15abc4bd-ab5b-416c-86fe-eba6fd10907d"},"vehicle_type_id":"4","last_reported":1779444869,"current_range_meters":8000,"station_id":"ce4bgi12rcd13ifvqb80","pricing_plan_id":"cebpf4jnsgd1na2vs0mg"},{"bike_id":"63d4176d-657c-4512-b2f4-611faebe95ad","system_id":"levelo_inurba_marseille","lat":43.29729,"lon":5.37688,"is_reserved":false,"is_disabled":false,"rental_uris":{"android":"levelo://app?vid=63d4176d-657c-4512-b2f4-611faebe95ad","ios":"levelo://app?vid=63d4176d-657c-4512-b2f4-611faebe95ad"},"vehicle_type_id":"4","last_reported":1779444869,"current_range_meters":8000,"station_id":"ce4bgkh2rcd13ifvqbl0","pricing_plan_id":"cebpf4jnsgd1na2vs0mg"},{"bike_id":"53dd7cdb-6117-45dc-8b37-13f8b499ea1c","system_id":"levelo_inurba_marseille","lat":43.30138,"lon":5.37397,"is_reserved":false,"is_disabled":false,"rental_uris":{"android":"levelo://app?vid=53dd7cdb-6117-45dc-8b37-13f8b499ea1c","ios":"levelo://app?vid=53dd7cdb-6117-45dc-8b37-13f8b499ea1c"},"vehicle_type_id":"4","last_reported":1779444869,"current_range_meters":8400,"station_id":"ce4bgs92rcd13ifvqcc0","pricing_plan_id":"cebpf4jnsgd1na2vs0mg"},{"bike_id":"919c87d0-eac0-4861-808b-9ce0e3f86fe7","system_id":"levelo_inurba_marseille","lat":43.23149,"lon":5.4371,"is_reserved":false,"is_disabled":false,"rental_uris":{"android":"levelo://app?vid=919c87d0-eac0-4861-808b-9ce0e3f86fe7","ios":"levelo://app?vid=919c87d0-eac0-4861-808b-9ce0e3f86fe7"},"vehicle_type_id":"4","last_reported":1779444869,"current_range_meters":8400,"station_id":"ce4bhmp2rcd13ifvqgog","pricing_plan_id":"cebpf4jnsgd1na2vs0mg"},{"bike_id":"60026c6b-f225-466b-bd3f-3103775685c7","system_id":"levelo_inurba_marseille","lat":43.31338,"lon":5.36676,"is_reserved":false,"is_disabled":false,"rental_uris":{"android":"levelo://app?vid=60026c6b-f225-466b-bd3f-3103775685c7","ios":"levelo://app?vid=60026c6b-f225-466b-bd3f-3103775685c7"},"vehicle_type_id":"4","last_reported":1779444869,"current_range_meters":8400,"station_id":"ce4bgr92rcd13ifvqc6g","pricing_plan_id":"cebpf4jnsgd1na2vs0mg"},{"bike_id":"fa4fbea3-00c7-4c52-b9ee-0a2a60c97ef7","system_id":"levelo_inurba_marseille","lat":43.24968,"lon":5.40486,"is_reserved":false,"is_disabled":false,"rental_uris":{"android":"levelo://app?vid=fa4fbea3-00c7-4c52-b9ee-0a2a60c97ef7","ios":"levelo://app?vid=fa4fbea3-00c7-4c52-b9ee-0a2a60c97ef7"},"vehicle_type_id":"4","last_reported":1779444869,"current_range_meters":8400,"station_id":"st_d2ngiaodas8pm72gd1h0","pricing_plan_id":"cebpf4jnsgd1na2vs0mg"},{"bike_id":"b9b84d59-7f7c-47a0-b2b8-055f7224abba","system_id":"levelo_inurba_marseille","lat":43.26952,"lon":5.38615,"is_reserved":false,"is_disabled":false,"rental_uris":{"android":"levelo://app?vid=b9b84d59-7f7c-47a0-b2b8-055f7224abba","ios":"levelo://app?vid=b9b84d59-7f7c-47a0-b2b8-055f7224abba"},"vehicle_type_id":"4","last_reported":1779444869,"current_range_meters":8400,"station_id":"ce4bhh92rcd13ifvqfh0","pricing_plan_id":"cebpf4jnsgd1na2vs0mg"},{"bike_id":"21365cae-86d6-4d77-a777-80caf46a8b04","system_id":"levelo_inurba_marseille","lat":43.33756,"lon":5.37472,"is_reserved":false,"is_disabled":false,"rental_uris":{"android":"levelo://app?vid=21365cae-86d6-4d77-a777-80caf46a8b04","ios":"levelo://app?vid=21365cae-86d6-4d77-a777-80caf46a8b04"},"vehicle_type_id":"4","last_reported":1779444869,"current_range_meters":8400,"station_id":"st_d46tts09ee8s73dlu43g","pricing_plan_id":"cebpf4jnsgd1na2vs0mg"},{"bike_id":"bdf836a6-2c07-477e-835b-465127acd103","system_id":"levelo_inurba_marseille","lat":43.32109,"lon":5.36783,"is_reserved":false,"is_disabled":false,"rental_uris":{"android":"levelo://app?vid=bdf836a6-2c07-477e-835b-465127acd103","ios":"levelo://app?vid=bdf836a6-2c07-477e-835b-465127acd103"},"vehicle_type_id":"4","last_reported":1779444869,"current_range_meters":8400,"station_id":"ce4bhrh2rcd13ifvqhug","pricing_plan_id":"cebpf4jnsgd1na2vs0mg"},{"bike_id":"d46cd600-c517-473f-a415-b105cb4dab68","system_id":"levelo_inurba_marseille","lat":43.26569,"lon":5.38984,"is_reserved":false,"is_disabled":false,"rental_uris":{"android":"levelo://app?vid=d46cd600-c517-473f-a415-b105cb4dab68","ios":"levelo://app?vid=d46cd600-c517-473f-a415-b105cb4dab68"},"vehicle_type_id":"4","last_reported":1779444869,"current_range_meters":8400,"station_id":"ce4bhe12rcd13ifvqf30","pricing_plan_id":"cebpf4jnsgd1na2vs0mg"},{"bike_id":"a24c5b9c-25e5-4872-8a32-16bb1a08adbe","system_id":"levelo_inurba_marseille","lat":43.31241,"lon":5.36847,"is_reserved":false,"is_disabled":false,"rental_uris":{"android":"levelo://app?vid=a24c5b9c-25e5-4872-8a32-16bb1a08adbe","ios":"levelo://app?vid=a24c5b9c-25e5-4872-8a32-16bb1a08adbe"},"vehicle_type_id":"4","last_reported":1779444869,"current_range_meters":8400,"station_id":"ce4bgl92rcd13ifvqbq0","pricing_plan_id":"cebpf4jnsgd1na2vs0mg"},{"bike_id":"4276ef89-f835-4053-bc32-8536bb2d75bc","system_id":"levelo_inurba_marseille","lat":43.30337,"lon":5.37375,"is_reserved":false,"is_disabled":false,"rental_uris":{"android":"levelo://app?vid=4276ef89-f835-4053-bc32-8536bb2d75bc","ios":"levelo://app?vid=4276ef89-f835-4053-bc32-8536bb2d75bc"},"vehicle_type_id":"4","last_reported":1779444869,"current_range_meters":8400,"station_id":"","pricing_plan_id":"cebpf4jnsgd1na2vs0mg"},{"bike_id":"045e4822-5497-4b31-a1db-53aad98941e8","system_id":"levelo_inurba_marseille","lat":43.21193,"lon":5.35079,"is_reserved":false,"is_disabled":false,"rental_uris":{"android":"levelo://app?vid=045e4822-5497-4b31-a1db-53aad98941e8","ios":"levelo://app?vid=045e4822-5497-4b31-a1db-53aad98941e8"},"vehicle_type_id":"4","last_reported":1779444869,"current_range_meters":8400,"station_id":"st_cvj6sg6p6f1abm77japg","pricing_plan_id":"cebpf4jnsgd1na2vs0mg"},{"bike_id":"132b5c78-5793-4ded-bbe9-a5374224841f","system_id":"levelo_inurba_marseille","lat":43.27175,"lon":5.40979,"is_reserved":false,"is_disabled":false,"rental_uris":{"android":"levelo://app?vid=132b5c78-5793-4ded-bbe9-a5374224841f","ios":"levelo://app?vid=132b5c78-5793-4ded-bbe9-a5374224841f"},"vehicle_type_id":"4","last_reported":1779444869,"current_range_meters":8400,"station_id":"ce4bhl12rcd13ifvqgf0","pricing_plan_id":"cebpf4jnsgd1na2vs0mg"},{"bike_id":"52471f4c-5af8-4dee-9f35-7569e683de32","system_id":"levelo_inurba_marseille","lat":43.26214,"lon":5.37436,"is_reserved":false,"is_disabled":false,"rental_uris":{"android":"levelo://app?vid=52471f4c-5af8-4dee-9f35-7569e683de32","ios":"levelo://app?vid=52471f4c-5af8-4dee-9f35-7569e683de32"},"vehicle_type_id":"4","last_reported":1779444869,"current_range_meters":8400,"station_id":"ce4bhgp2rcd13ifvqfc0","pricing_plan_id":"cebpf4jnsgd1na2vs0mg"},{"bike_id":"3c4a616d-c746-452e-8065-8c3138f09557","system_id":"levelo_inurba_marseille","lat":43.29255,"lon":5.37615,"is_reserved":false,"is_disabled":false,"rental_uris":{"android":"levelo://app?vid=3c4a616d-c746-452e-8065-8c3138f09557","ios":"levelo://app?vid=3c4a616d-c746-452e-8065-8c3138f09557"},"vehicle_type_id":"4","last_reported":1779444869,"current_range_meters":8400,"station_id":"ce4bgi12rcd13ifvqb80","pricing_plan_id":"cebpf4jnsgd1na2vs0mg"},{"bike_id":"e03410ed-56f5-4ff4-b874-4c4955ee26b5","system_id":"levelo_inurba_marseille","lat":43.29036,"lon":5.375777,"is_reserved":false,"is_disabled":false,"rental_uris":{"android":"levelo://app?vid=e03410ed-56f5-4ff4-b874-4c4955ee26b5","ios":"levelo://app?vid=e03410ed-56f5-4ff4-b874-4c4955ee26b5"},"vehicle_type_id":"4","last_reported":1779444869,"current_range_meters":8400,"station_id":"ce4bh692rcd13ifvqe90","pricing_plan_id":"cebpf4jnsgd1na2vs0mg"},{"bike_id":"6a94ba67-44c6-4208-b305-a9f0a5c4db3e","system_id":"levelo_inurba_marseille","lat":43.22565,"lon":5.41609,"is_reserved":false,"is_disabled":false,"rental_uris":{"android":"levelo://app?vid=6a94ba67-44c6-4208-b305-a9f0a5c4db3e","ios":"levelo://app?vid=6a94ba67-44c6-4208-b305-a9f0a5c4db3e"},"vehicle_type_id":"4","last_reported":1779444869,"current_range_meters":8400,"station_id":"st_d2o4gvlbi1j2169b742g","pricing_plan_id":"cebpf4jnsgd1na2vs0mg"},{"bike_id":"29f177f7-be7f-4da8-8bcc-664e10bce6bf","system_id":"levelo_inurba_marseille","lat":43.28536,"lon":5.44107,"is_reserved":false,"is_disabled":false,"rental_uris":{"android":"levelo://app?vid=29f177f7-be7f-4da8-8bcc-664e10bce6bf","ios":"levelo://app?vid=29f177f7-be7f-4da8-8bcc-664e10bce6bf"},"vehicle_type_id":"4","last_reported":1779444869,"current_range_meters":8400,"station_id":"st_d3j3df2ikq2c7380ej80","pricing_plan_id":"cebpf4jnsgd1na2vs0mg"},{"bike_id":"a468becb-cfcc-4425-88fd-08f2a5a23757","system_id":"levelo_inurba_marseille","lat":43.29278,"lon":5.36831,"is_reserved":false,"is_disabled":false,"rental_uris":{"android":"levelo://app?vid=a468becb-cfcc-4425-88fd-08f2a5a23757","ios":"levelo://app?vid=a468becb-cfcc-4425-88fd-08f2a5a23757"},"vehicle_type_id":"4","last_reported":1779444869,"current_range_meters":8400,"station_id":"ce4bhbp2rcd13ifvqesg","pricing_plan_id":"cebpf4jnsgd1na2vs0mg"},{"bike_id":"dd357c81-d9b4-4717-bad8-2faf75a5ee0a","system_id":"levelo_inurba_marseille","lat":43.28326,"lon":5.38099,"is_reserved":false,"is_disabled":false,"rental_uris":{"android":"levelo://app?vid=dd357c81-d9b4-4717-bad8-2faf75a5ee0a","ios":"levelo://app?vid=dd357c81-d9b4-4717-bad8-2faf75a5ee0a"},"vehicle_type_id":"4","last_reported":1779444869,"current_range_meters":8400,"station_id":"ce4bh412rcd13ifvqdr0","pricing_plan_id":"cebpf4jnsgd1na2vs0mg"},{"bike_id":"5df77e36-21e5-4643-b405-f160908d1200","system_id":"levelo_inurba_marseille","lat":43.24807,"lon":5.37448,"is_reserved":false,"is_disabled":false,"rental_uris":{"android":"levelo://app?vid=5df77e36-21e5-4643-b405-f160908d1200","ios":"levelo://app?vid=5df77e36-21e5-4643-b405-f160908d1200"},"vehicle_type_id":"4","last_reported":1779444869,"current_range_meters":8400,"station_id":"ce4bhgh2rcd13ifvqfb0","pricing_plan_id":"cebpf4jnsgd1na2vs0mg"},{"bike_id":"3e743161-c848-4714-b9b7-e951f7d0523e","system_id":"levelo_inurba_marseille","lat":43.26792,"lon":5.39386,"is_reserved":false,"is_disabled":false,"rental_uris":{"android":"levelo://app?vid=3e743161-c848-4714-b9b7-e951f7d0523e","ios":"levelo://app?vid=3e743161-c848-4714-b9b7-e951f7d0523e"},"vehicle_type_id":"4","last_reported":1779444869,"current_range_meters":8400,"station_id":"ce4bhh12rcd13ifvqfg0","pricing_plan_id":"cebpf4jnsgd1na2vs0mg"},{"bike_id":"caff8efd-f900-43b2-b438-664f06709cc9","system_id":"levelo_inurba_marseille","lat":43.23153,"lon":5.43711,"is_reserved":false,"is_disabled":false,"rental_uris":{"android":"levelo://app?vid=caff8efd-f900-43b2-b438-664f06709cc9","ios":"levelo://app?vid=caff8efd-f900-43b2-b438-664f06709cc9"},"vehicle_type_id":"4","last_reported":1779444869,"current_range_meters":8400,"station_id":"ce4bhmp2rcd13ifvqgog","pricing_plan_id":"cebpf4jnsgd1na2vs0mg"},{"bike_id":"e8bd13bf-3fca-4f3b-89e4-0674a7d02d62","system_id":"levelo_inurba_marseille","lat":43.29957,"lon":5.37738,"is_reserved":false,"is_disabled":false,"rental_uris":{"android":"levelo://app?vid=e8bd13bf-3fca-4f3b-89e4-0674a7d02d62","ios":"levelo://app?vid=e8bd13bf-3fca-4f3b-89e4-0674a7d02d62"},"vehicle_type_id":"4","last_reported":1779444869,"current_range_meters":8800,"station_id":"","pricing_plan_id":"cebpf4jnsgd1na2vs0mg"},{"bike_id":"475f771e-e1c2-4934-bf49-10c1080ab60b","system_id":"levelo_inurba_marseille","lat":43.28703,"lon":5.37947,"is_reserved":false,"is_disabled":false,"rental_uris":{"android":"levelo://app?vid=475f771e-e1c2-4934-bf49-10c1080ab60b","ios":"levelo://app?vid=475f771e-e1c2-4934-bf49-10c1080ab60b"},"vehicle_type_id":"4","last_reported":1779444869,"current_range_meters":8800,"station_id":"ce4bh9p2rcd13ifvqec0","pricing_plan_id":"cebpf4jnsgd1na2vs0mg"},{"bike_id":"244520a0-2210-40bc-bbe7-4ae802080004","system_id":"levelo_inurba_marseille","lat":43.26058,"lon":5.39391,"is_reserved":false,"is_disabled":false,"rental_uris":{"android":"levelo://app?vid=244520a0-2210-40bc-bbe7-4ae802080004","ios":"levelo://app?vid=244520a0-2210-40bc-bbe7-4ae802080004"},"vehicle_type_id":"4","last_reported":1779444869,"current_range_meters":8800,"station_id":"ce4bhh92rcd13ifvqfj0","pricing_plan_id":"cebpf4jnsgd1na2vs0mg"},{"bike_id":"4f44697e-6507-423b-8319-85f3ba489440","system_id":"levelo_inurba_marseille","lat":43.23151,"lon":5.43708,"is_reserved":false,"is_disabled":false,"rental_uris":{"android":"levelo://app?vid=4f44697e-6507-423b-8319-85f3ba489440","ios":"levelo://app?vid=4f44697e-6507-423b-8319-85f3ba489440"},"vehicle_type_id":"4","last_reported":1779444869,"current_range_meters":8800,"station_id":"ce4bhmp2rcd13ifvqgog","pricing_plan_id":"cebpf4jnsgd1na2vs0mg"},{"bike_id":"ab8f95c1-0bf5-41ad-99a6-bd4b086cb8f1","system_id":"levelo_inurba_marseille","lat":43.30479,"lon":5.37891,"is_reserved":false,"is_disabled":false,"rental_uris":{"android":"levelo://app?vid=ab8f95c1-0bf5-41ad-99a6-bd4b086cb8f1","ios":"levelo://app?vid=ab8f95c1-0bf5-41ad-99a6-bd4b086cb8f1"},"vehicle_type_id":"4","last_reported":1779444869,"current_range_meters":8800,"station_id":"ce4bgup2rcd13ifvqcn0","pricing_plan_id":"cebpf4jnsgd1na2vs0mg"},{"bike_id":"b2a92131-4a84-40b4-8737-30358727c0c2","system_id":"levelo_inurba_marseille","lat":43.25784,"lon":5.38268,"is_reserved":false,"is_disabled":false,"rental_uris":{"android":"levelo://app?vid=b2a92131-4a84-40b4-8737-30358727c0c2","ios":"levelo://app?vid=b2a92131-4a84-40b4-8737-30358727c0c2"},"vehicle_type_id":"4","last_reported":1779444869,"current_range_meters":8800,"station_id":"","pricing_plan_id":"cebpf4jnsgd1na2vs0mg"},{"bike_id":"b4dd30e1-9e04-4d9a-a715-66e3257eefc8","system_id":"levelo_inurba_marseille","lat":43.31709,"lon":5.40462,"is_reserved":false,"is_disabled":false,"rental_uris":{"android":"levelo://app?vid=b4dd30e1-9e04-4d9a-a715-66e3257eefc8","ios":"levelo://app?vid=b4dd30e1-9e04-4d9a-a715-66e3257eefc8"},"vehicle_type_id":"4","last_reported":1779444869,"current_range_meters":8800,"station_id":"ce4bh012rcd13ifvqd00","pricing_plan_id":"cebpf4jnsgd1na2vs0mg"},{"bike_id":"b136b22c-bd11-4f33-ac25-6cd5883b144e","system_id":"levelo_inurba_marseille","lat":43.28519,"lon":5.44078,"is_reserved":false,"is_disabled":false,"rental_uris":{"android":"levelo://app?vid=b136b22c-bd11-4f33-ac25-6cd5883b144e","ios":"levelo://app?vid=b136b22c-bd11-4f33-ac25-6cd5883b144e"},"vehicle_type_id":"4","last_reported":1779444869,"current_range_meters":8800,"station_id":"st_d3j3df2ikq2c7380ej80","pricing_plan_id":"cebpf4jnsgd1na2vs0mg"},{"bike_id":"8427844d-261e-4516-825c-ea067288dec8","system_id":"levelo_inurba_marseille","lat":43.25888,"lon":5.39871,"is_reserved":false,"is_disabled":false,"rental_uris":{"android":"levelo://app?vid=8427844d-261e-4516-825c-ea067288dec8","ios":"levelo://app?vid=8427844d-261e-4516-825c-ea067288dec8"},"vehicle_type_id":"4","last_reported":1779444869,"current_range_meters":8800,"station_id":"ce4bhl92rcd13ifvqghg","pricing_plan_id":"cebpf4jnsgd1na2vs0mg"},{"bike_id":"d1bb9fe7-73f9-4c36-af34-310bf124240b","system_id":"levelo_inurba_marseille","lat":43.30962,"lon":5.39019,"is_reserved":false,"is_disabled":false,"rental_uris":{"android":"levelo://app?vid=d1bb9fe7-73f9-4c36-af34-310bf124240b","ios":"levelo://app?vid=d1bb9fe7-73f9-4c36-af34-310bf124240b"},"vehicle_type_id":"4","last_reported":1779444869,"current_range_meters":8800,"station_id":"ce4bgup2rcd13ifvqco0","pricing_plan_id":"cebpf4jnsgd1na2vs0mg"},{"bike_id":"0deb2d9d-cc56-402d-a6be-c62bebfbd360","system_id":"levelo_inurba_marseille","lat":43.31389,"lon":5.38481,"is_reserved":false,"is_disabled":false,"rental_uris":{"android":"levelo://app?vid=0deb2d9d-cc56-402d-a6be-c62bebfbd360","ios":"levelo://app?vid=0deb2d9d-cc56-402d-a6be-c62bebfbd360"},"vehicle_type_id":"4","last_reported":1779444869,"current_range_meters":8800,"station_id":"ce4bgt92rcd13ifvqcf0","pricing_plan_id":"cebpf4jnsgd1na2vs0mg"},{"bike_id":"5e051e24-c473-476f-9619-7bb2396bd51a","system_id":"levelo_inurba_marseille","lat":43.30545,"lon":5.36529,"is_reserved":false,"is_disabled":false,"rental_uris":{"android":"levelo://app?vid=5e051e24-c473-476f-9619-7bb2396bd51a","ios":"levelo://app?vid=5e051e24-c473-476f-9619-7bb2396bd51a"},"vehicle_type_id":"4","last_reported":1779444869,"current_range_meters":8800,"station_id":"ce4bgs12rcd13ifvqcag","pricing_plan_id":"cebpf4jnsgd1na2vs0mg"},{"bike_id":"f4c0b23e-43a3-4715-8696-99bddc13e830","system_id":"levelo_inurba_marseille","lat":43.30818,"lon":5.44603,"is_reserved":false,"is_disabled":false,"rental_uris":{"android":"levelo://app?vid=f4c0b23e-43a3-4715-8696-99bddc13e830","ios":"levelo://app?vid=f4c0b23e-43a3-4715-8696-99bddc13e830"},"vehicle_type_id":"4","last_reported":1779444869,"current_range_meters":8800,"station_id":"","pricing_plan_id":"cebpf4jnsgd1na2vs0mg"},{"bike_id":"9ced391d-d6c4-4b1a-9afc-5ae53d5a3340","system_id":"levelo_inurba_marseille","lat":43.28709,"lon":5.37935,"is_reserved":false,"is_disabled":false,"rental_uris":{"android":"levelo://app?vid=9ced391d-d6c4-4b1a-9afc-5ae53d5a3340","ios":"levelo://app?vid=9ced391d-d6c4-4b1a-9afc-5ae53d5a3340"},"vehicle_type_id":"4","last_reported":1779444869,"current_range_meters":8800,"station_id":"ce4bh9p2rcd13ifvqec0","pricing_plan_id":"cebpf4jnsgd1na2vs0mg"},{"bike_id":"d3a4978e-800d-43f9-a8ce-91d235644bfe","system_id":"levelo_inurba_marseille","lat":43.29713,"lon":5.37691,"is_reserved":false,"is_disabled":false,"rental_uris":{"android":"levelo://app?vid=d3a4978e-800d-43f9-a8ce-91d235644bfe","ios":"levelo://app?vid=d3a4978e-800d-43f9-a8ce-91d235644bfe"},"vehicle_type_id":"4","last_reported":1779444869,"current_range_meters":8800,"station_id":"ce4bgkh2rcd13ifvqbl0","pricing_plan_id":"cebpf4jnsgd1na2vs0mg"},{"bike_id":"68ac68d6-2126-43c3-b973-b79162a38fae","system_id":"levelo_inurba_marseille","lat":43.2733,"lon":5.39113,"is_reserved":false,"is_disabled":false,"rental_uris":{"android":"levelo://app?vid=68ac68d6-2126-43c3-b973-b79162a38fae","ios":"levelo://app?vid=68ac68d6-2126-43c3-b973-b79162a38fae"},"vehicle_type_id":"4","last_reported":1779444869,"current_range_meters":8800,"station_id":"ce4bhgp2rcd13ifvqfe0","pricing_plan_id":"cebpf4jnsgd1na2vs0mg"},{"bike_id":"3b0721ef-ea94-49f1-bbf6-ec815f24d903","system_id":"levelo_inurba_marseille","lat":43.29231,"lon":5.36068,"is_reserved":false,"is_disabled":false,"rental_uris":{"android":"levelo://app?vid=3b0721ef-ea94-49f1-bbf6-ec815f24d903","ios":"levelo://app?vid=3b0721ef-ea94-49f1-bbf6-ec815f24d903"},"vehicle_type_id":"4","last_reported":1779444869,"current_range_meters":8800,"station_id":"ce4bhbh2rcd13ifvqeqg","pricing_plan_id":"cebpf4jnsgd1na2vs0mg"},{"bike_id":"0fb5db5e-d5c1-4557-80fd-2765ca68f93d","system_id":"levelo_inurba_marseille","lat":43.30584,"lon":5.37204,"is_reserved":false,"is_disabled":false,"rental_uris":{"android":"levelo://app?vid=0fb5db5e-d5c1-4557-80fd-2765ca68f93d","ios":"levelo://app?vid=0fb5db5e-d5c1-4557-80fd-2765ca68f93d"},"vehicle_type_id":"4","last_reported":1779444869,"current_range_meters":8800,"station_id":"ce4bgqh2rcd13ifvqc4g","pricing_plan_id":"cebpf4jnsgd1na2vs0mg"},{"bike_id":"999d3ebd-e3d7-4530-b990-3ec06b375240","system_id":"levelo_inurba_marseille","lat":43.28106,"lon":5.37823,"is_reserved":false,"is_disabled":true,"rental_uris":{"android":"levelo://app?vid=999d3ebd-e3d7-4530-b990-3ec06b375240","ios":"levelo://app?vid=999d3ebd-e3d7-4530-b990-3ec06b375240"},"vehicle_type_id":"4","last_reported":1779444869,"current_range_meters":8800,"station_id":"ce4bha12rcd13ifvqee0","pricing_plan_id":"cebpf4jnsgd1na2vs0mg"},{"bike_id":"999c6034-2b26-4387-b10e-876eb416f9e2","system_id":"levelo_inurba_marseille","lat":43.28316,"lon":5.38516,"is_reserved":false,"is_disabled":false,"rental_uris":{"android":"levelo://app?vid=999c6034-2b26-4387-b10e-876eb416f9e2","ios":"levelo://app?vid=999c6034-2b26-4387-b10e-876eb416f9e2"},"vehicle_type_id":"4","last_reported":1779444869,"current_range_meters":8800,"station_id":"","pricing_plan_id":"cebpf4jnsgd1na2vs0mg"},{"bike_id":"e4c94e47-39a0-43c1-ab5f-0515505a0edd","system_id":"levelo_inurba_marseille","lat":43.29407,"lon":5.4132,"is_reserved":false,"is_disabled":false,"rental_uris":{"android":"levelo://app?vid=e4c94e47-39a0-43c1-ab5f-0515505a0edd","ios":"levelo://app?vid=e4c94e47-39a0-43c1-ab5f-0515505a0edd"},"vehicle_type_id":"4","last_reported":1779444869,"current_range_meters":8800,"station_id":"","pricing_plan_id":"cebpf4jnsgd1na2vs0mg"},{"bike_id":"07cc4e86-47fd-4ca6-8e9c-f76a2251e1b2","system_id":"levelo_inurba_marseille","lat":43.24703,"lon":5.38116,"is_reserved":false,"is_disabled":false,"rental_uris":{"android":"levelo://app?vid=07cc4e86-47fd-4ca6-8e9c-f76a2251e1b2","ios":"levelo://app?vid=07cc4e86-47fd-4ca6-8e9c-f76a2251e1b2"},"vehicle_type_id":"4","last_reported":1779444869,"current_range_meters":8800,"station_id":"","pricing_plan_id":"cebpf4jnsgd1na2vs0mg"},{"bike_id":"3dbc04d3-90f8-45fc-ad5d-7725b95b96cc","system_id":"levelo_inurba_marseille","lat":43.30113,"lon":5.374,"is_reserved":false,"is_disabled":false,"rental_uris":{"android":"levelo://app?vid=3dbc04d3-90f8-45fc-ad5d-7725b95b96cc","ios":"levelo://app?vid=3dbc04d3-90f8-45fc-ad5d-7725b95b96cc"},"vehicle_type_id":"4","last_reported":1779444869,"current_range_meters":8800,"station_id":"ce4bgs92rcd13ifvqcc0","pricing_plan_id":"cebpf4jnsgd1na2vs0mg"},{"bike_id":"6b1a68bb-4b8e-4efb-930c-9adc9305c06d","system_id":"levelo_inurba_marseille","lat":43.26494,"lon":5.39536,"is_reserved":false,"is_disabled":false,"rental_uris":{"android":"levelo://app?vid=6b1a68bb-4b8e-4efb-930c-9adc9305c06d","ios":"levelo://app?vid=6b1a68bb-4b8e-4efb-930c-9adc9305c06d"},"vehicle_type_id":"4","last_reported":1779444869,"current_range_meters":8800,"station_id":"ce4bhi12rcd13ifvqfq0","pricing_plan_id":"cebpf4jnsgd1na2vs0mg"},{"bike_id":"090ea485-a382-4f4e-80fd-05d7ca1c545f","system_id":"levelo_inurba_marseille","lat":43.2844,"lon":5.39187,"is_reserved":false,"is_disabled":false,"rental_uris":{"android":"levelo://app?vid=090ea485-a382-4f4e-80fd-05d7ca1c545f","ios":"levelo://app?vid=090ea485-a382-4f4e-80fd-05d7ca1c545f"},"vehicle_type_id":"4","last_reported":1779444869,"current_range_meters":8800,"station_id":"ce4bhoh2rcd13ifvqh5g","pricing_plan_id":"cebpf4jnsgd1na2vs0mg"},{"bike_id":"2a129d80-7020-439f-8113-ddc133998453","system_id":"levelo_inurba_marseille","lat":43.27426,"lon":5.39411,"is_reserved":false,"is_disabled":false,"rental_uris":{"android":"levelo://app?vid=2a129d80-7020-439f-8113-ddc133998453","ios":"levelo://app?vid=2a129d80-7020-439f-8113-ddc133998453"},"vehicle_type_id":"4","last_reported":1779444869,"current_range_meters":8800,"station_id":"ce4bhdp2rcd13ifvqf20","pricing_plan_id":"cebpf4jnsgd1na2vs0mg"},{"bike_id":"fc2d06ad-8752-4359-a000-05cbff6dafe2","system_id":"levelo_inurba_marseille","lat":43.29799,"lon":5.38074,"is_reserved":false,"is_disabled":false,"rental_uris":{"android":"levelo://app?vid=fc2d06ad-8752-4359-a000-05cbff6dafe2","ios":"levelo://app?vid=fc2d06ad-8752-4359-a000-05cbff6dafe2"},"vehicle_type_id":"4","last_reported":1779444869,"current_range_meters":8800,"station_id":"ce4bgip2rcd13ifvqbb0","pricing_plan_id":"cebpf4jnsgd1na2vs0mg"},{"bike_id":"cb9a4150-4ffd-48ad-bd6f-5ce7c87d7767","system_id":"levelo_inurba_marseille","lat":43.26358,"lon":5.41071,"is_reserved":false,"is_disabled":false,"rental_uris":{"android":"levelo://app?vid=cb9a4150-4ffd-48ad-bd6f-5ce7c87d7767","ios":"levelo://app?vid=cb9a4150-4ffd-48ad-bd6f-5ce7c87d7767"},"vehicle_type_id":"4","last_reported":1779444869,"current_range_meters":8800,"station_id":"st_d4e5ca6na9uc73bfl5fg","pricing_plan_id":"cebpf4jnsgd1na2vs0mg"},{"bike_id":"5c4c9897-0e38-4fc6-b8a5-25b72a544434","system_id":"levelo_inurba_marseille","lat":43.26557,"lon":5.39026,"is_reserved":false,"is_disabled":false,"rental_uris":{"android":"levelo://app?vid=5c4c9897-0e38-4fc6-b8a5-25b72a544434","ios":"levelo://app?vid=5c4c9897-0e38-4fc6-b8a5-25b72a544434"},"vehicle_type_id":"4","last_reported":1779444869,"current_range_meters":8800,"station_id":"ce4bhe12rcd13ifvqf30","pricing_plan_id":"cebpf4jnsgd1na2vs0mg"},{"bike_id":"5f76ad78-d5d7-467c-9720-a1e4c9c3bad8","system_id":"levelo_inurba_marseille","lat":43.3096,"lon":5.39038,"is_reserved":false,"is_disabled":false,"rental_uris":{"android":"levelo://app?vid=5f76ad78-d5d7-467c-9720-a1e4c9c3bad8","ios":"levelo://app?vid=5f76ad78-d5d7-467c-9720-a1e4c9c3bad8"},"vehicle_type_id":"4","last_reported":1779444869,"current_range_meters":8800,"station_id":"ce4bgup2rcd13ifvqco0","pricing_plan_id":"cebpf4jnsgd1na2vs0mg"},{"bike_id":"f306b0b8-7247-41a9-b31e-fa35685bb229","system_id":"levelo_inurba_marseille","lat":43.2961,"lon":5.37702,"is_reserved":false,"is_disabled":false,"rental_uris":{"android":"levelo://app?vid=f306b0b8-7247-41a9-b31e-fa35685bb229","ios":"levelo://app?vid=f306b0b8-7247-41a9-b31e-fa35685bb229"},"vehicle_type_id":"4","last_reported":1779444869,"current_range_meters":8800,"station_id":"ce4bgi92rcd13ifvqb90","pricing_plan_id":"cebpf4jnsgd1na2vs0mg"},{"bike_id":"53053b43-2112-407f-b93a-4e9742d40e3d","system_id":"levelo_inurba_marseille","lat":43.29045,"lon":5.35918,"is_reserved":false,"is_disabled":false,"rental_uris":{"android":"levelo://app?vid=53053b43-2112-407f-b93a-4e9742d40e3d","ios":"levelo://app?vid=53053b43-2112-407f-b93a-4e9742d40e3d"},"vehicle_type_id":"4","last_reported":1779444869,"current_range_meters":8800,"station_id":"ce4bha92rcd13ifvqeg0","pricing_plan_id":"cebpf4jnsgd1na2vs0mg"},{"bike_id":"0e358368-a857-4223-9d42-0ffb724b9bde","system_id":"levelo_inurba_marseille","lat":43.28464,"lon":5.35899,"is_reserved":false,"is_disabled":false,"rental_uris":{"android":"levelo://app?vid=0e358368-a857-4223-9d42-0ffb724b9bde","ios":"levelo://app?vid=0e358368-a857-4223-9d42-0ffb724b9bde"},"vehicle_type_id":"4","last_reported":1779444869,"current_range_meters":8800,"station_id":"ce4bhah2rcd13ifvqei0","pricing_plan_id":"cebpf4jnsgd1na2vs0mg"},{"bike_id":"d6410086-ca6a-473b-bb1b-1bae78607c1f","system_id":"levelo_inurba_marseille","lat":43.293,"lon":5.44015,"is_reserved":false,"is_disabled":false,"rental_uris":{"android":"levelo://app?vid=d6410086-ca6a-473b-bb1b-1bae78607c1f","ios":"levelo://app?vid=d6410086-ca6a-473b-bb1b-1bae78607c1f"},"vehicle_type_id":"4","last_reported":1779444869,"current_range_meters":9200,"station_id":"","pricing_plan_id":"cebpf4jnsgd1na2vs0mg"},{"bike_id":"d9f34cd7-db53-4524-acb0-2c77548b2904","system_id":"levelo_inurba_marseille","lat":43.32024,"lon":5.41575,"is_reserved":false,"is_disabled":false,"rental_uris":{"android":"levelo://app?vid=d9f34cd7-db53-4524-acb0-2c77548b2904","ios":"levelo://app?vid=d9f34cd7-db53-4524-acb0-2c77548b2904"},"vehicle_type_id":"4","last_reported":1779444869,"current_range_meters":9200,"station_id":"ce4bhq92rcd13ifvqhkg","pricing_plan_id":"cebpf4jnsgd1na2vs0mg"},{"bike_id":"9653c4ab-a0df-49c8-b791-8276708be5df","system_id":"levelo_inurba_marseille","lat":43.27207,"lon":5.39179,"is_reserved":false,"is_disabled":false,"rental_uris":{"android":"levelo://app?vid=9653c4ab-a0df-49c8-b791-8276708be5df","ios":"levelo://app?vid=9653c4ab-a0df-49c8-b791-8276708be5df"},"vehicle_type_id":"4","last_reported":1779444869,"current_range_meters":9200,"station_id":"ce4bhhp2rcd13ifvqfm0","pricing_plan_id":"cebpf4jnsgd1na2vs0mg"},{"bike_id":"7599ffc6-dc43-4406-88d9-4cbef6140eff","system_id":"levelo_inurba_marseille","lat":43.29465,"lon":5.42379,"is_reserved":false,"is_disabled":false,"rental_uris":{"android":"levelo://app?vid=7599ffc6-dc43-4406-88d9-4cbef6140eff","ios":"levelo://app?vid=7599ffc6-dc43-4406-88d9-4cbef6140eff"},"vehicle_type_id":"4","last_reported":1779444869,"current_range_meters":9200,"station_id":"","pricing_plan_id":"cebpf4jnsgd1na2vs0mg"},{"bike_id":"41ccabef-708d-4a67-a727-68b0eb1b445f","system_id":"levelo_inurba_marseille","lat":43.30555,"lon":5.36695,"is_reserved":false,"is_disabled":false,"rental_uris":{"android":"levelo://app?vid=41ccabef-708d-4a67-a727-68b0eb1b445f","ios":"levelo://app?vid=41ccabef-708d-4a67-a727-68b0eb1b445f"},"vehicle_type_id":"4","last_reported":1779444869,"current_range_meters":9200,"station_id":"ce4bgrp2rcd13ifvqc9g","pricing_plan_id":"cebpf4jnsgd1na2vs0mg"},{"bike_id":"ffed0736-25b9-4317-8c54-743728953ed0","system_id":"levelo_inurba_marseille","lat":43.25824,"lon":5.39432,"is_reserved":false,"is_disabled":false,"rental_uris":{"android":"levelo://app?vid=ffed0736-25b9-4317-8c54-743728953ed0","ios":"levelo://app?vid=ffed0736-25b9-4317-8c54-743728953ed0"},"vehicle_type_id":"4","last_reported":1779444869,"current_range_meters":9200,"station_id":"ce4bhip2rcd13ifvqft0","pricing_plan_id":"cebpf4jnsgd1na2vs0mg"},{"bike_id":"5dd6c169-fb74-4491-ad2e-3cbac9a3a657","system_id":"levelo_inurba_marseille","lat":43.30305,"lon":5.3921,"is_reserved":false,"is_disabled":false,"rental_uris":{"android":"levelo://app?vid=5dd6c169-fb74-4491-ad2e-3cbac9a3a657","ios":"levelo://app?vid=5dd6c169-fb74-4491-ad2e-3cbac9a3a657"},"vehicle_type_id":"4","last_reported":1779444869,"current_range_meters":9200,"station_id":"ce4bgkh2rcd13ifvqbk0","pricing_plan_id":"cebpf4jnsgd1na2vs0mg"},{"bike_id":"7734071c-deeb-43a6-88d6-f30859c2208e","system_id":"levelo_inurba_marseille","lat":43.2587,"lon":5.39892,"is_reserved":false,"is_disabled":false,"rental_uris":{"android":"levelo://app?vid=7734071c-deeb-43a6-88d6-f30859c2208e","ios":"levelo://app?vid=7734071c-deeb-43a6-88d6-f30859c2208e"},"vehicle_type_id":"4","last_reported":1779444869,"current_range_meters":9200,"station_id":"ce4bhl92rcd13ifvqghg","pricing_plan_id":"cebpf4jnsgd1na2vs0mg"},{"bike_id":"73285c0c-b8e6-420d-948c-f7a51d3435ba","system_id":"levelo_inurba_marseille","lat":43.30133,"lon":5.37413,"is_reserved":false,"is_disabled":false,"rental_uris":{"android":"levelo://app?vid=73285c0c-b8e6-420d-948c-f7a51d3435ba","ios":"levelo://app?vid=73285c0c-b8e6-420d-948c-f7a51d3435ba"},"vehicle_type_id":"4","last_reported":1779444869,"current_range_meters":9200,"station_id":"ce4bgs92rcd13ifvqcc0","pricing_plan_id":"cebpf4jnsgd1na2vs0mg"},{"bike_id":"753aa280-747b-4a56-8204-f688799dc487","system_id":"levelo_inurba_marseille","lat":43.31086,"lon":5.42419,"is_reserved":false,"is_disabled":false,"rental_uris":{"android":"levelo://app?vid=753aa280-747b-4a56-8204-f688799dc487","ios":"levelo://app?vid=753aa280-747b-4a56-8204-f688799dc487"},"vehicle_type_id":"4","last_reported":1779444869,"current_range_meters":9200,"station_id":"ce4bhp92rcd13ifvqhag","pricing_plan_id":"cebpf4jnsgd1na2vs0mg"},{"bike_id":"39829c30-740f-4a3a-818c-3f15403420c4","system_id":"levelo_inurba_marseille","lat":43.27214,"lon":5.3918,"is_reserved":false,"is_disabled":false,"rental_uris":{"android":"levelo://app?vid=39829c30-740f-4a3a-818c-3f15403420c4","ios":"levelo://app?vid=39829c30-740f-4a3a-818c-3f15403420c4"},"vehicle_type_id":"4","last_reported":1779444869,"current_range_meters":9200,"station_id":"ce4bhhp2rcd13ifvqfm0","pricing_plan_id":"cebpf4jnsgd1na2vs0mg"},{"bike_id":"030e7cd9-076a-42ff-8135-bd066c9cc6a4","system_id":"levelo_inurba_marseille","lat":43.24171,"lon":5.3639,"is_reserved":false,"is_disabled":false,"rental_uris":{"android":"levelo://app?vid=030e7cd9-076a-42ff-8135-bd066c9cc6a4","ios":"levelo://app?vid=030e7cd9-076a-42ff-8135-bd066c9cc6a4"},"vehicle_type_id":"4","last_reported":1779444869,"current_range_meters":9200,"station_id":"cpo36qri1sfpv3e86is0","pricing_plan_id":"cebpf4jnsgd1na2vs0mg"},{"bike_id":"01242046-4e3c-49b3-a191-d07c5efb8b3d","system_id":"levelo_inurba_marseille","lat":43.29796,"lon":5.38089,"is_reserved":false,"is_disabled":false,"rental_uris":{"android":"levelo://app?vid=01242046-4e3c-49b3-a191-d07c5efb8b3d","ios":"levelo://app?vid=01242046-4e3c-49b3-a191-d07c5efb8b3d"},"vehicle_type_id":"4","last_reported":1779444869,"current_range_meters":9200,"station_id":"ce4bgip2rcd13ifvqbb0","pricing_plan_id":"cebpf4jnsgd1na2vs0mg"},{"bike_id":"60ef4f67-c540-486c-b6cf-a2aaea8b43d8","system_id":"levelo_inurba_marseille","lat":43.24814,"lon":5.37476,"is_reserved":false,"is_disabled":false,"rental_uris":{"android":"levelo://app?vid=60ef4f67-c540-486c-b6cf-a2aaea8b43d8","ios":"levelo://app?vid=60ef4f67-c540-486c-b6cf-a2aaea8b43d8"},"vehicle_type_id":"4","last_reported":1779444869,"current_range_meters":9200,"station_id":"ce4bhgh2rcd13ifvqfb0","pricing_plan_id":"cebpf4jnsgd1na2vs0mg"},{"bike_id":"431f45fd-de3c-4d65-84d7-6d66e8969081","system_id":"levelo_inurba_marseille","lat":43.29731,"lon":5.36995,"is_reserved":false,"is_disabled":false,"rental_uris":{"android":"levelo://app?vid=431f45fd-de3c-4d65-84d7-6d66e8969081","ios":"levelo://app?vid=431f45fd-de3c-4d65-84d7-6d66e8969081"},"vehicle_type_id":"4","last_reported":1779444869,"current_range_meters":9200,"station_id":"","pricing_plan_id":"cebpf4jnsgd1na2vs0mg"},{"bike_id":"287abfa1-df42-4557-99c1-c8c36259310e","system_id":"levelo_inurba_marseille","lat":43.29044,"lon":5.39957,"is_reserved":false,"is_disabled":false,"rental_uris":{"android":"levelo://app?vid=287abfa1-df42-4557-99c1-c8c36259310e","ios":"levelo://app?vid=287abfa1-df42-4557-99c1-c8c36259310e"},"vehicle_type_id":"4","last_reported":1779444869,"current_range_meters":9200,"station_id":"ce4bh392rcd13ifvqdm0","pricing_plan_id":"cebpf4jnsgd1na2vs0mg"},{"bike_id":"846503e1-53bf-4e15-8f8b-a43c93976ed6","system_id":"levelo_inurba_marseille","lat":43.27347,"lon":5.39103,"is_reserved":false,"is_disabled":false,"rental_uris":{"android":"levelo://app?vid=846503e1-53bf-4e15-8f8b-a43c93976ed6","ios":"levelo://app?vid=846503e1-53bf-4e15-8f8b-a43c93976ed6"},"vehicle_type_id":"4","last_reported":1779444869,"current_range_meters":9200,"station_id":"ce4bhgp2rcd13ifvqfe0","pricing_plan_id":"cebpf4jnsgd1na2vs0mg"},{"bike_id":"ea140294-2609-4b86-a9d0-883d08d0a224","system_id":"levelo_inurba_marseille","lat":43.298,"lon":5.38123,"is_reserved":false,"is_disabled":false,"rental_uris":{"android":"levelo://app?vid=ea140294-2609-4b86-a9d0-883d08d0a224","ios":"levelo://app?vid=ea140294-2609-4b86-a9d0-883d08d0a224"},"vehicle_type_id":"4","last_reported":1779444869,"current_range_meters":9200,"station_id":"ce4bgip2rcd13ifvqbb0","pricing_plan_id":"cebpf4jnsgd1na2vs0mg"},{"bike_id":"c60e1c70-a8e6-4f0e-9624-ac060ed3e05b","system_id":"levelo_inurba_marseille","lat":43.28372,"lon":5.42391,"is_reserved":false,"is_disabled":false,"rental_uris":{"android":"levelo://app?vid=c60e1c70-a8e6-4f0e-9624-ac060ed3e05b","ios":"levelo://app?vid=c60e1c70-a8e6-4f0e-9624-ac060ed3e05b"},"vehicle_type_id":"4","last_reported":1779444869,"current_range_meters":9200,"station_id":"","pricing_plan_id":"cebpf4jnsgd1na2vs0mg"},{"bike_id":"61fbd8a5-b38c-4bec-8b19-1053d4fe308a","system_id":"levelo_inurba_marseille","lat":43.26523,"lon":5.41568,"is_reserved":false,"is_disabled":false,"rental_uris":{"android":"levelo://app?vid=61fbd8a5-b38c-4bec-8b19-1053d4fe308a","ios":"levelo://app?vid=61fbd8a5-b38c-4bec-8b19-1053d4fe308a"},"vehicle_type_id":"4","last_reported":1779444869,"current_range_meters":9200,"station_id":"","pricing_plan_id":"cebpf4jnsgd1na2vs0mg"},{"bike_id":"32f57c13-d906-4af9-acb3-9f5f9e4cc628","system_id":"levelo_inurba_marseille","lat":43.265839,"lon":5.39012,"is_reserved":false,"is_disabled":false,"rental_uris":{"android":"levelo://app?vid=32f57c13-d906-4af9-acb3-9f5f9e4cc628","ios":"levelo://app?vid=32f57c13-d906-4af9-acb3-9f5f9e4cc628"},"vehicle_type_id":"4","last_reported":1779444869,"current_range_meters":9200,"station_id":"ce4bhe12rcd13ifvqf30","pricing_plan_id":"cebpf4jnsgd1na2vs0mg"},{"bike_id":"700e631d-e01f-4e66-b0ca-5cce085f6ae3","system_id":"levelo_inurba_marseille","lat":43.31436,"lon":5.36629,"is_reserved":false,"is_disabled":false,"rental_uris":{"android":"levelo://app?vid=700e631d-e01f-4e66-b0ca-5cce085f6ae3","ios":"levelo://app?vid=700e631d-e01f-4e66-b0ca-5cce085f6ae3"},"vehicle_type_id":"4","last_reported":1779444869,"current_range_meters":9200,"station_id":"ce4bgr92rcd13ifvqc6g","pricing_plan_id":"cebpf4jnsgd1na2vs0mg"},{"bike_id":"6129e4e2-a2c6-449c-bbd5-fc3c21851baa","system_id":"levelo_inurba_marseille","lat":43.24046,"lon":5.37746,"is_reserved":false,"is_disabled":false,"rental_uris":{"android":"levelo://app?vid=6129e4e2-a2c6-449c-bbd5-fc3c21851baa","ios":"levelo://app?vid=6129e4e2-a2c6-449c-bbd5-fc3c21851baa"},"vehicle_type_id":"4","last_reported":1779444869,"current_range_meters":9200,"station_id":"ce4bhnp2rcd13ifvqgvg","pricing_plan_id":"cebpf4jnsgd1na2vs0mg"},{"bike_id":"5c50edd3-198c-42d7-b430-dac0a7cd60fa","system_id":"levelo_inurba_marseille","lat":43.2623,"lon":5.38764,"is_reserved":false,"is_disabled":false,"rental_uris":{"android":"levelo://app?vid=5c50edd3-198c-42d7-b430-dac0a7cd60fa","ios":"levelo://app?vid=5c50edd3-198c-42d7-b430-dac0a7cd60fa"},"vehicle_type_id":"4","last_reported":1779444869,"current_range_meters":9600,"station_id":"","pricing_plan_id":"cebpf4jnsgd1na2vs0mg"},{"bike_id":"c74ec902-abbe-4683-9ab4-6137019d0f68","system_id":"levelo_inurba_marseille","lat":43.2533,"lon":5.42153,"is_reserved":false,"is_disabled":false,"rental_uris":{"android":"levelo://app?vid=c74ec902-abbe-4683-9ab4-6137019d0f68","ios":"levelo://app?vid=c74ec902-abbe-4683-9ab4-6137019d0f68"},"vehicle_type_id":"4","last_reported":1779444869,"current_range_meters":9600,"station_id":"st_d2m65c5bi1j21697t3ng","pricing_plan_id":"cebpf4jnsgd1na2vs0mg"},{"bike_id":"14f54c15-08fc-47a2-9bbf-0a51244ca552","system_id":"levelo_inurba_marseille","lat":43.29285,"lon":5.3682,"is_reserved":false,"is_disabled":false,"rental_uris":{"android":"levelo://app?vid=14f54c15-08fc-47a2-9bbf-0a51244ca552","ios":"levelo://app?vid=14f54c15-08fc-47a2-9bbf-0a51244ca552"},"vehicle_type_id":"4","last_reported":1779444869,"current_range_meters":9600,"station_id":"ce4bhbp2rcd13ifvqesg","pricing_plan_id":"cebpf4jnsgd1na2vs0mg"},{"bike_id":"02abd5df-b69c-4716-9b72-4c3c52a9b3a2","system_id":"levelo_inurba_marseille","lat":43.26032,"lon":5.37536,"is_reserved":false,"is_disabled":false,"rental_uris":{"android":"levelo://app?vid=02abd5df-b69c-4716-9b72-4c3c52a9b3a2","ios":"levelo://app?vid=02abd5df-b69c-4716-9b72-4c3c52a9b3a2"},"vehicle_type_id":"4","last_reported":1779444869,"current_range_meters":9600,"station_id":"ce4bhgh2rcd13ifvqfa0","pricing_plan_id":"cebpf4jnsgd1na2vs0mg"},{"bike_id":"d35291db-0fca-447c-b42d-070b403a995f","system_id":"levelo_inurba_marseille","lat":43.33027,"lon":5.39027,"is_reserved":false,"is_disabled":false,"rental_uris":{"android":"levelo://app?vid=d35291db-0fca-447c-b42d-070b403a995f","ios":"levelo://app?vid=d35291db-0fca-447c-b42d-070b403a995f"},"vehicle_type_id":"4","last_reported":1779444869,"current_range_meters":9600,"station_id":"ce4bhr92rcd13ifvqhrg","pricing_plan_id":"cebpf4jnsgd1na2vs0mg"},{"bike_id":"70262431-cb39-492e-9e6a-c4bcff4d5155","system_id":"levelo_inurba_marseille","lat":43.32105,"lon":5.36772,"is_reserved":false,"is_disabled":false,"rental_uris":{"android":"levelo://app?vid=70262431-cb39-492e-9e6a-c4bcff4d5155","ios":"levelo://app?vid=70262431-cb39-492e-9e6a-c4bcff4d5155"},"vehicle_type_id":"4","last_reported":1779444869,"current_range_meters":9600,"station_id":"ce4bhrh2rcd13ifvqhug","pricing_plan_id":"cebpf4jnsgd1na2vs0mg"},{"bike_id":"9527c833-8ca4-48e4-a360-b52c7004d0dc","system_id":"levelo_inurba_marseille","lat":43.232,"lon":5.35563,"is_reserved":false,"is_disabled":false,"rental_uris":{"android":"levelo://app?vid=9527c833-8ca4-48e4-a360-b52c7004d0dc","ios":"levelo://app?vid=9527c833-8ca4-48e4-a360-b52c7004d0dc"},"vehicle_type_id":"4","last_reported":1779444869,"current_range_meters":9600,"station_id":"ce4bhu92rcd13ifvqi70","pricing_plan_id":"cebpf4jnsgd1na2vs0mg"},{"bike_id":"5837ceae-087f-4e23-bb97-aed9bf7eb07f","system_id":"levelo_inurba_marseille","lat":43.26363,"lon":5.41065,"is_reserved":false,"is_disabled":true,"rental_uris":{"android":"levelo://app?vid=5837ceae-087f-4e23-bb97-aed9bf7eb07f","ios":"levelo://app?vid=5837ceae-087f-4e23-bb97-aed9bf7eb07f"},"vehicle_type_id":"4","last_reported":1779444869,"current_range_meters":9600,"station_id":"st_d4e5ca6na9uc73bfl5fg","pricing_plan_id":"cebpf4jnsgd1na2vs0mg"},