{"last_updated":1703696773,"ttl":30,"version":"2.2","data":{"bikes":[{"bike_id":"94800107-a208-4a4f-9c76-c6f42dc2601a","system_id":"levelo_inurba_marseille","lat":43.312239,"lon":5.368562,"is_reserved":false,"is_disabled":false,"rental_uris":{"android":"levelo://app?vid=94800107-a208-4a4f-9c76-c6f42dc2601a","ios":"levelo://app?vid=94800107-a208-4a4f-9c76-c6f42dc2601a"},"vehicle_type_id":"4","last_reported":1703696773,"current_range_meters":24400,"station_id":"ce4bgl92rcd13ifvqbq0","pricing_plan_id":"free"},{"bike_id":"735e8f97-227f-4c4a-a71b-ccf7fff59e16","system_id":"levelo_inurba_marseille","lat":43.314287,"lon":5.369343,"is_reserved":false,"is_disabled":false,"rental_uris":{"android":"levelo://app?vid=735e8f97-227f-4c4a-a71b-ccf7fff59e16","ios":"levelo://app?vid=735e8f97-227f-4c4a-a71b-ccf7fff59e16"},"vehicle_type_id":"4","last_reported":1703696773,"current_range_meters":4000,"station_id":"","pricing_plan_id":"free"},{"bike_id":"a2232786-bfc0-43cc-ae30-cc8908c32545","system_id":"levelo_inurba_marseille","lat":43.309076,"lon":5.368465,"is_reserved":false,"is_disabled":false,"rental_uris":{"android":"levelo://app?vid=a2232786-bfc0-43cc-ae30-cc8908c32545","ios":"levelo://app?vid=a2232786-bfc0-43cc-ae30-cc8908c32545"},"vehicle_type_id":"4","last_reported":1703696773,"current_range_meters":22800,"station_id":"ce4bgn92rcd13ifvqbvg","pricing_plan_id":"free"},{"bike_id":"1663f493-965d-48fa-9f86-db7cfb0b7e6f","system_id":"levelo_inurba_marseille","lat":43.309039,"lon":5.371797,"is_reserved":false,"is_disabled":false,"rental_uris":{"android":"levelo://app?vid=1663f493-965d-48fa-9f86-db7cfb0b7e6f","ios":"levelo://app?vid=1663f493-965d-48fa-9f86-db7cfb0b7e6f"},"vehicle_type_id":"4","last_reported":1703696773,"current_range_meters":30400,"station_id":"ce4bguh2rcd13ifvqckg","pricing_plan_id":"free"},{"bike_id":"437be774-9347-4f56-865e-861017296255","system_id":"levelo_inurba_marseille","lat":43.318964,"lon":5.36877,"is_reserved":false,"is_disabled":false,"rental_uris":{"android":"levelo://app?vid=437be774-9347-4f56-865e-861017296255","ios":"levelo://app?vid=437be774-9347-4f56-865e-861017296255"},"vehicle_type_id":"4","last_reported":1703696773,"current_range_meters":7600,"station_id":"","pricing_plan_id":"free"},{"bike_id":"5d7049f3-2163-4dcf-bd79-6c1b3f34c0aa","system_id":"levelo_inurba_marseille","lat":43.30537,"lon":5.367345,"is_reserved":false,"is_disabled":false,"rental_uris":{"android":"levelo://app?vid=5d7049f3-2163-4dcf-bd79-6c1b3f34c0aa","ios":"levelo://app?vid=5d7049f3-2163-4dcf-bd79-6c1b3f34c0aa"},"vehicle_type_id":"4","last_reported":1703696773,"current_range_meters":29600,"station_id":"ce4bgrp2rcd13ifvqc9g","pricing_plan_id":"free"},{"bike_id":"5f513f02-d0f8-4a1b-bb55-465786a9cba2","system_id":"levelo_inurba_marseille","lat":43.305714,"lon":5.365633,"is_reserved":false,"is_disabled":false,"rental_uris":{"android":"levelo://app?vid=5f513f02-d0f8-4a1b-bb55-465786a9cba2","ios":"levelo://app?vid=5f513f02-d0f8-4a1b-bb55-465786a9cba2"},"vehicle_type_id":"4","last_reported":1703696773,"current_range_meters":15600,"station_id":"ce4bgs12rcd13ifvqcag","pricing_plan_id":"free"},{"bike_id":"93e3c49d-5739-4411-8e33-b520715011ee","system_id":"levelo_inurba_marseille","lat":43.30537,"lon":5.367345,"is_reserved":false,"is_disabled":false,"rental_uris":{"android":"levelo://app?vid=93e3c49d-5739-4411-8e33-b520715011ee","ios":"levelo://app?vid=93e3c49d-5739-4411-8e33-b520715011ee"},"vehicle_type_id":"4","last_reported":1703696773,"current_range_meters":17200,"station_id":"ce4bgrp2rcd13ifvqc9g","pricing_plan_id":"free"},{"bike_id":"006c237e-9c60-46e7-9b56-e39bd53b3c68","system_id":"levelo_inurba_marseille","lat":43.305368,"lon":5.367343,"is_reserved":false,"is_disabled":false,"rental_uris":{"android":"levelo://app?vid=006c237e-9c60-46e7-9b56-e39bd53b3c68","ios":"levelo://app?vid=006c237e-9c60-46e7-9b56-e39bd53b3c68"},"vehicle_type_id":"4","last_reported":1703696773,"current_range_meters":0,"station_id":"ce4bgrp2rcd13ifvqc9g","pricing_plan_id":"free"},{"bike_id":"adc14d48-e478-4d9e-8f67-d01fb24e38b0","system_id":"levelo_inurba_marseille","lat":43.30614,"lon":5.37225,"is_reserved":false,"is_disabled":false,"rental_uris":{"android":"levelo://app?vid=adc14d48-e478-4d9e-8f67-d01fb24e38b0","ios":"levelo://app?vid=adc14d48-e478-4d9e-8f67-d01fb24e38b0"},"vehicle_type_id":"4","last_reported":1703696773,"current_range_meters":30800,"station_id":"ce4bgqh2rcd13ifvqc4g","pricing_plan_id":"free"},{"bike_id":"4d4aaf5c-4a58-47af-9984-4e83661b2f3a","system_id":"levelo_inurba_marseille","lat":43.30606,"lon":5.37231,"is_reserved":false,"is_disabled":false,"rental_uris":{"android":"levelo://app?vid=4d4aaf5c-4a58-47af-9984-4e83661b2f3a","ios":"levelo://app?vid=4d4aaf5c-4a58-47af-9984-4e83661b2f3a"},"vehicle_type_id":"4","last_reported":1703696773,"current_range_meters":22400,"station_id":"ce4bgqh2rcd13ifvqc4g","pricing_plan_id":"free"},{"bike_id":"6f274941-b879-4d7d-a0d1-09325d0f98ee","system_id":"levelo_inurba_marseille","lat":43.307945,"lon":5.376487,"is_reserved":false,"is_disabled":false,"rental_uris":{"android":"levelo://app?vid=6f274941-b879-4d7d-a0d1-09325d0f98ee","ios":"levelo://app?vid=6f274941-b879-4d7d-a0d1-09325d0f98ee"},"vehicle_type_id":"4","last_reported":1703696773,"current_range_meters":10400,"station_id":"ce4bgv92rcd13ifvqcq0","pricing_plan_id":"free"},{"bike_id":"5c986a06-9fb2-48d8-84ba-15b5e242690a","system_id":"levelo_inurba_marseille","lat":43.307945,"lon":5.376487,"is_reserved":false,"is_disabled":false,"rental_uris":{"android":"levelo://app?vid=5c986a06-9fb2-48d8-84ba-15b5e242690a","ios":"levelo://app?vid=5c986a06-9fb2-48d8-84ba-15b5e242690a"},"vehicle_type_id":"4","last_reported":1703696773,"current_range_meters":4800,"station_id":"ce4bgv92rcd13ifvqcq0","pricing_plan_id":"free"},{"bike_id":"a2494595-1d92-47e5-9f06-11b0434aa231","system_id":"levelo_inurba_marseille","lat":43.307945,"lon":5.376487,"is_reserved":false,"is_disabled":false,"rental_uris":{"android":"levelo://app?vid=a2494595-1d92-47e5-9f06-11b0434aa231","ios":"levelo://app?vid=a2494595-1d92-47e5-9f06-11b0434aa231"},"vehicle_type_id":"4","last_reported":1703696773,"current_range_meters":4800,"station_id":"ce4bgv92rcd13ifvqcq0","pricing_plan_id":"free"},{"bike_id":"029017bf-c904-48ec-8cca-0904d27b3220","system_id":"levelo_inurba_marseille","lat":43.317,"lon":5.377443,"is_reserved":false,"is_disabled":false,"rental_uris":{"android":"levelo://app?vid=029017bf-c904-48ec-8cca-0904d27b3220","ios":"levelo://app?vid=029017bf-c904-48ec-8cca-0904d27b3220"},"vehicle_type_id":"4","last_reported":1703696773,"current_range_meters":28400,"station_id":"ce4bgth2rcd13ifvqch0","pricing_plan_id":"free"},{"bike_id":"51a91549-292c-43e7-8ca8-03b1c733aad6","system_id":"levelo_inurba_marseille","lat":43.303046,"lon":5.368981,"is_reserved":false,"is_disabled":false,"rental_uris":{"android":"levelo://app?vid=51a91549-292c-43e7-8ca8-03b1c733aad6","ios":"levelo://app?vid=51a91549-292c-43e7-8ca8-03b1c733aad6"},"vehicle_type_id":"4","last_reported":1703696773,"current_range_meters":30000,"station_id":"ce4bgqh2rcd13ifvqc5g","pricing_plan_id":"free"},{"bike_id":"bff04b7e-7ad8-4300-b34d-1c1ef9a1072f","system_id":"levelo_inurba_marseille","lat":43.303046,"lon":5.368981,"is_reserved":false,"is_disabled":false,"rental_uris":{"android":"levelo://app?vid=bff04b7e-7ad8-4300-b34d-1c1ef9a1072f","ios":"levelo://app?vid=bff04b7e-7ad8-4300-b34d-1c1ef9a1072f"},"vehicle_type_id":"4","last_reported":1703696773,"current_range_meters":14000,"station_id":"ce4bgqh2rcd13ifvqc5g","pricing_plan_id":"free"},{"bike_id":"4135f16a-ef63-49ff-928d-1f5fb6ac8253","system_id":"levelo_inurba_marseille","lat":43.303046,"lon":5.368981,"is_reserved":false,"is_disabled":false,"rental_uris":{"android":"levelo://app?vid=4135f16a-ef63-49ff-928d-1f5fb6ac8253","ios":"levelo://app?vid=4135f16a-ef63-49ff-928d-1f5fb6ac8253"},"vehicle_type_id":"4","last_reported":1703696773,"current_range_meters":22000,"station_id":"ce4bgqh2rcd13ifvqc5g","pricing_plan_id":"free"},{"bike_id":"15c1ce93-7c4f-42f2-8eef-e21ddbeb6a92","system_id":"levelo_inurba_marseille","lat":43.30185,"lon":5.366,"is_reserved":false,"is_disabled":false,"rental_uris":{"android":"levelo://app?vid=15c1ce93-7c4f-42f2-8eef-e21ddbeb6a92","ios":"levelo://app?vid=15c1ce93-7c4f-42f2-8eef-e21ddbeb6a92"},"vehicle_type_id":"4","last_reported":1703696773,"current_range_meters":22000,"station_id":"ce4bgrh2rcd13ifvqc8g","pricing_plan_id":"free"},{"bike_id":"5810a51d-900e-4f21-b011-504985336ccb","system_id":"levelo_inurba_marseille","lat":43.324771,"lon":5.36557,"is_reserved":false,"is_disabled":false,"rental_uris":{"android":"levelo://app?vid=5810a51d-900e-4f21-b011-504985336ccb","ios":"levelo://app?vid=5810a51d-900e-4f21-b011-504985336ccb"},"vehicle_type_id":"4","last_reported":1703696773,"current_range_meters":26400,"station_id":"ce4bhs12rcd13ifvqhvg","pricing_plan_id":"free"},{"bike_id":"5499922b-b93b-45f7-8b53-087646da974a","system_id":"levelo_inurba_marseille","lat":43.302784,"lon":5.377158,"is_reserved":false,"is_disabled":false,"rental_uris":{"android":"levelo://app?vid=5499922b-b93b-45f7-8b53-087646da974a","ios":"levelo://app?vid=5499922b-b93b-45f7-8b53-087646da974a"},"vehicle_type_id":"4","last_reported":1703696773,"current_range_meters":22800,"station_id":"ce4bguh2rcd13ifvqcj0","pricing_plan_id":"free"},{"bike_id":"0fa9138b-1f55-4a0d-a908-98664f004dc1","system_id":"levelo_inurba_marseille","lat":43.302784,"lon":5.377158,"is_reserved":false,"is_disabled":false,"rental_uris":{"android":"levelo://app?vid=0fa9138b-1f55-4a0d-a908-98664f004dc1","ios":"levelo://app?vid=0fa9138b-1f55-4a0d-a908-98664f004dc1"},"vehicle_type_id":"4","last_reported":1703696773,"current_range_meters":22400,"station_id":"ce4bguh2rcd13ifvqcj0","pricing_plan_id":"free"},{"bike_id":"28d6e447-c994-4674-8a6d-d7fe15ef129a","system_id":"levelo_inurba_marseille","lat":43.302784,"lon":5.377158,"is_reserved":false,"is_disabled":false,"rental_uris":{"android":"levelo://app?vid=28d6e447-c994-4674-8a6d-d7fe15ef129a","ios":"levelo://app?vid=28d6e447-c994-4674-8a6d-d7fe15ef129a"},"vehicle_type_id":"4","last_reported":1703696773,"current_range_meters":21600,"station_id":"ce4bguh2rcd13ifvqcj0","pricing_plan_id":"free"},{"bike_id":"d3dfba77-2e59-4aa7-b80c-e731b6a5983c","system_id":"levelo_inurba_marseille","lat":43.30275,"lon":5.37686,"is_reserved":false,"is_disabled":false,"rental_uris":{"android":"levelo://app?vid=d3dfba77-2e59-4aa7-b80c-e731b6a5983c","ios":"levelo://app?vid=d3dfba77-2e59-4aa7-b80c-e731b6a5983c"},"vehicle_type_id":"4","last_reported":1703696773,"current_range_meters":0,"station_id":"ce4bguh2rcd13ifvqcj0","pricing_plan_id":"free"},{"bike_id":"eb75f652-373e-4726-9e33-c05a085e4a2d","system_id":"levelo_inurba_marseille","lat":43.301453,"lon":5.37416,"is_reserved":false,"is_disabled":false,"rental_uris":{"android":"levelo://app?vid=eb75f652-373e-4726-9e33-c05a085e4a2d","ios":"levelo://app?vid=eb75f652-373e-4726-9e33-c05a085e4a2d"},"vehicle_type_id":"4","last_reported":1703696773,"current_range_meters":8800,"station_id":"","pricing_plan_id":"free"},{"bike_id":"6fa9613b-1944-4bf5-87f2-ee1ed7d14e91","system_id":"levelo_inurba_marseille","lat":43.30143,"lon":5.37413,"is_reserved":false,"is_disabled":false,"rental_uris":{"android":"levelo://app?vid=6fa9613b-1944-4bf5-87f2-ee1ed7d14e91","ios":"levelo://app?vid=6fa9613b-1944-4bf5-87f2-ee1ed7d14e91"},"vehicle_type_id":"4","last_reported":1703696773,"current_range_meters":27600,"station_id":"ce4bgs92rcd13ifvqcc0","pricing_plan_id":"free"},{"bike_id":"2ceb04f0-24c2-47e4-8db8-3959bf84ebbc","system_id":"levelo_inurba_marseille","lat":43.319935,"lon":5.381699,"is_reserved":false,"is_disabled":false,"rental_uris":{"android":"levelo://app?vid=2ceb04f0-24c2-47e4-8db8-3959bf84ebbc","ios":"levelo://app?vid=2ceb04f0-24c2-47e4-8db8-3959bf84ebbc"},"vehicle_type_id":"4","last_reported":1703696773,"current_range_meters":30400,"station_id":"ce4bhr12rcd13ifvqhpg","pricing_plan_id":"free"},{"bike_id":"80c4faa7-ee26-40ac-80f6-b6c1d8a6be11","system_id":"levelo_inurba_marseille","lat":43.319935,"lon":5.381699,"is_reserved":false,"is_disabled":false,"rental_uris":{"android":"levelo://app?vid=80c4faa7-ee26-40ac-80f6-b6c1d8a6be11","ios":"levelo://app?vid=80c4faa7-ee26-40ac-80f6-b6c1d8a6be11"},"vehicle_type_id":"4","last_reported":1703696773,"current_range_meters":13600,"station_id":"ce4bhr12rcd13ifvqhpg","pricing_plan_id":"free"},{"bike_id":"ff626801-e822-4fc9-a7f6-f37f28ffd723","system_id":"levelo_inurba_marseille","lat":43.313571,"lon":5.384829,"is_reserved":false,"is_disabled":false,"rental_uris":{"android":"levelo://app?vid=ff626801-e822-4fc9-a7f6-f37f28ffd723","ios":"levelo://app?vid=ff626801-e822-4fc9-a7f6-f37f28ffd723"},"vehicle_type_id":"4","last_reported":1703696773,"current_range_meters":1200,"station_id":"ce4bgt92rcd13ifvqcf0","pricing_plan_id":"free"},{"bike_id":"a133d840-79c0-4b7e-bd8f-0000676d9426","system_id":"levelo_inurba_marseille","lat":43.29601,"lon":5.381084,"is_reserved":false,"is_disabled":false,"rental_uris":{"android":"levelo://app?vid=a133d840-79c0-4b7e-bd8f-0000676d9426","ios":"levelo://app?vid=a133d840-79c0-4b7e-bd8f-0000676d9426"},"vehicle_type_id":"4","last_reported":1703696773,"current_range_meters":22400,"station_id":"ce4bgl12rcd13ifvqbo0","pricing_plan_id":"free"},{"bike_id":"95a55cb6-c83f-4299-b45b-9890df52e54d","system_id":"levelo_inurba_marseille","lat":43.305364,"lon":5.384119,"is_reserved":false,"is_disabled":false,"rental_uris":{"android":"levelo://app?vid=95a55cb6-c83f-4299-b45b-9890df52e54d","ios":"levelo://app?vid=95a55cb6-c83f-4299-b45b-9890df52e54d"},"vehicle_type_id":"4","last_reported":1703696773,"current_range_meters":11200,"station_id":"ce4bgg92rcd13ifvqb30","pricing_plan_id":"free"},{"bike_id":"a115211b-4cc7-4f92-84b5-dfe951d12aca","system_id":"levelo_inurba_marseille","lat":43.29913,"lon":5.374833,"is_reserved":false,"is_disabled":false,"rental_uris":{"android":"levelo://app?vid=a115211b-4cc7-4f92-84b5-dfe951d12aca","ios":"levelo://app?vid=a115211b-4cc7-4f92-84b5-dfe951d12aca"},"vehicle_type_id":"4","last_reported":1703696773,"current_range_meters":26400,"station_id":"ce4bgjh2rcd13ifvqbg0","pricing_plan_id":"free"},{"bike_id":"4800549f-fb60-4621-955f-d2adc89ee6da","system_id":"levelo_inurba_marseille","lat":43.299243,"lon":5.37481,"is_reserved":false,"is_disabled":false,"rental_uris":{"android":"levelo://app?vid=4800549f-fb60-4621-955f-d2adc89ee6da","ios":"levelo://app?vid=4800549f-fb60-4621-955f-d2adc89ee6da"},"vehicle_type_id":"4","last_reported":1703696773,"current_range_meters":26400,"station_id":"ce4bgjh2rcd13ifvqbg0","pricing_plan_id":"free"},{"bike_id":"7119845d-00aa-4d9f-be8c-fc97d41f1380","system_id":"levelo_inurba_marseille","lat":43.325987,"lon":5.376377,"is_reserved":false,"is_disabled":false,"rental_uris":{"android":"levelo://app?vid=7119845d-00aa-4d9f-be8c-fc97d41f1380","ios":"levelo://app?vid=7119845d-00aa-4d9f-be8c-fc97d41f1380"},"vehicle_type_id":"4","last_reported":1703696773,"current_range_meters":20800,"station_id":"","pricing_plan_id":"free"},{"bike_id":"161a83b5-284e-4129-9b31-8635f32ff1b6","system_id":"levelo_inurba_marseille","lat":43.297774,"lon":5.370875,"is_reserved":false,"is_disabled":false,"rental_uris":{"android":"levelo://app?vid=161a83b5-284e-4129-9b31-8635f32ff1b6","ios":"levelo://app?vid=161a83b5-284e-4129-9b31-8635f32ff1b6"},"vehicle_type_id":"4","last_reported":1703696773,"current_range_meters":6000,"station_id":"ce4bgop2rcd13ifvqc1g","pricing_plan_id":"free"},{"bike_id":"53ebaeaf-237f-4905-a9d6-6792e5bec45e","system_id":"levelo_inurba_marseille","lat":43.297794,"lon":5.370888,"is_reserved":false,"is_disabled":false,"rental_uris":{"android":"levelo://app?vid=53ebaeaf-237f-4905-a9d6-6792e5bec45e","ios":"levelo://app?vid=53ebaeaf-237f-4905-a9d6-6792e5bec45e"},"vehicle_type_id":"4","last_reported":1703696773,"current_range_meters":29200,"station_id":"ce4bgop2rcd13ifvqc1g","pricing_plan_id":"free"},{"bike_id":"0a0a41d2-3c00-48f6-882d-b27afb73fe78","system_id":"levelo_inurba_marseille","lat":43.322872,"lon":5.382756,"is_reserved":false,"is_disabled":false,"rental_uris":{"android":"levelo://app?vid=0a0a41d2-3c00-48f6-882d-b27afb73fe78","ios":"levelo://app?vid=0a0a41d2-3c00-48f6-882d-b27afb73fe78"},"vehicle_type_id":"4","last_reported":1703696773,"current_range_meters":15200,"station_id":"ce4bhr12rcd13ifvqhqg","pricing_plan_id":"free"},{"bike_id":"3270f28d-7b09-46cb-ba43-f40752fc3385","system_id":"levelo_inurba_marseille","lat":43.322872,"lon":5.382756,"is_reserved":false,"is_disabled":false,"rental_uris":{"android":"levelo://app?vid=3270f28d-7b09-46cb-ba43-f40752fc3385","ios":"levelo://app?vid=3270f28d-7b09-46cb-ba43-f40752fc3385"},"vehicle_type_id":"4","last_reported":1703696773,"current_range_meters":31600,"station_id":"ce4bhr12rcd13ifvqhqg","pricing_plan_id":"free"},{"bike_id":"a677cd10-a09b-4b2e-bffd-45b05d2c9229","system_id":"levelo_inurba_marseille","lat":43.32822,"lon":5.36679,"is_reserved":false,"is_disabled":false,"rental_uris":{"android":"levelo://app?vid=a677cd10-a09b-4b2e-bffd-45b05d2c9229","ios":"levelo://app?vid=a677cd10-a09b-4b2e-bffd-45b05d2c9229"},"vehicle_type_id":"4","last_reported":1703696773,"current_range_meters":29200,"station_id":"ce4bhs92rcd13ifvqi0g","pricing_plan_id":"free"},{"bike_id":"5c89eee7-6e83-42b4-bd81-efdcf68f6666","system_id":"levelo_inurba_marseille","lat":43.32822,"lon":5.36674,"is_reserved":false,"is_disabled":false,"rental_uris":{"android":"levelo://app?vid=5c89eee7-6e83-42b4-bd81-efdcf68f6666","ios":"levelo://app?vid=5c89eee7-6e83-42b4-bd81-efdcf68f6666"},"vehicle_type_id":"4","last_reported":1703696773,"current_range_meters":27200,"station_id":"ce4bhs92rcd13ifvqi0g","pricing_plan_id":"free"},{"bike_id":"1ea82e61-37ea-4b15-a6ef-01d29683b9fd","system_id":"levelo_inurba_marseille","lat":43.32825,"lon":5.36683,"is_reserved":false,"is_disabled":false,"rental_uris":{"android":"levelo://app?vid=1ea82e61-37ea-4b15-a6ef-01d29683b9fd","ios":"levelo://app?vid=1ea82e61-37ea-4b15-a6ef-01d29683b9fd"},"vehicle_type_id":"4","last_reported":1703696773,"current_range_meters":25600,"station_id":"ce4bhs92rcd13ifvqi0g","pricing_plan_id":"free"},{"bike_id":"51714c4a-3132-4951-88ec-80e85fa125e8","system_id":"levelo_inurba_marseille","lat":43.328277,"lon":5.366882,"is_reserved":false,"is_disabled":false,"rental_uris":{"android":"levelo://app?vid=51714c4a-3132-4951-88ec-80e85fa125e8","ios":"levelo://app?vid=51714c4a-3132-4951-88ec-80e85fa125e8"},"vehicle_type_id":"4","last_reported":1703696773,"current_range_meters":23200,"station_id":"ce4bhs92rcd13ifvqi0g","pricing_plan_id":"free"},{"bike_id":"a448ca86-2b35-41e1-89c4-32a99bab0563","system_id":"levelo_inurba_marseille","lat":43.328371,"lon":5.366912,"is_reserved":false,"is_disabled":false,"rental_uris":{"android":"levelo://app?vid=a448ca86-2b35-41e1-89c4-32a99bab0563","ios":"levelo://app?vid=a448ca86-2b35-41e1-89c4-32a99bab0563"},"vehicle_type_id":"4","last_reported":1703696773,"current_range_meters":27600,"station_id":"ce4bhs92rcd13ifvqi0g","pricing_plan_id":"free"},{"bike_id":"6f67326a-1664-406f-9978-902e013e2357","system_id":"levelo_inurba_marseille","lat":43.32829,"lon":5.36675,"is_reserved":false,"is_disabled":false,"rental_uris":{"android":"levelo://app?vid=6f67326a-1664-406f-9978-902e013e2357","ios":"levelo://app?vid=6f67326a-1664-406f-9978-902e013e2357"},"vehicle_type_id":"4","last_reported":1703696773,"current_range_meters":26800,"station_id":"ce4bhs92rcd13ifvqi0g","pricing_plan_id":"free"},{"bike_id":"b33e79d7-85bd-413c-801b-bcd1df69d847","system_id":"levelo_inurba_marseille","lat":43.32833,"lon":5.3668,"is_reserved":false,"is_disabled":false,"rental_uris":{"android":"levelo://app?vid=b33e79d7-85bd-413c-801b-bcd1df69d847","ios":"levelo://app?vid=b33e79d7-85bd-413c-801b-bcd1df69d847"},"vehicle_type_id":"4","last_reported":1703696773,"current_range_meters":21200,"station_id":"ce4bhs92rcd13ifvqi0g","pricing_plan_id":"free"},{"bike_id":"de708f00-7118-4d7c-9021-d7dcbd798473","system_id":"levelo_inurba_marseille","lat":43.328371,"lon":5.366909,"is_reserved":false,"is_disabled":false,"rental_uris":{"android":"levelo://app?vid=de708f00-7118-4d7c-9021-d7dcbd798473","ios":"levelo://app?vid=de708f00-7118-4d7c-9021-d7dcbd798473"},"vehicle_type_id":"4","last_reported":1703696773,"current_range_meters":20400,"station_id":"ce4bhs92rcd13ifvqi0g","pricing_plan_id":"free"},{"bike_id":"6516e11b-ff9a-4979-b85a-a42584b5c933","system_id":"levelo_inurba_marseille","lat":43.32833,"lon":5.36671,"is_reserved":false,"is_disabled":false,"rental_uris":{"android":"levelo://app?vid=6516e11b-ff9a-4979-b85a-a42584b5c933","ios":"levelo://app?vid=6516e11b-ff9a-4979-b85a-a42584b5c933"},"vehicle_type_id":"4","last_reported":1703696773,"current_range_meters":27600,"station_id":"ce4bhs92rcd13ifvqi0g","pricing_plan_id":"free"},{"bike_id":"904f83aa-e9ab-401d-84c1-9edfed82b884","system_id":"levelo_inurba_marseille","lat":43.328371,"lon":5.366909,"is_reserved":false,"is_disabled":false,"rental_uris":{"android":"levelo://app?vid=904f83aa-e9ab-401d-84c1-9edfed82b884","ios":"levelo://app?vid=904f83aa-e9ab-401d-84c1-9edfed82b884"},"vehicle_type_id":"4","last_reported":1703696773,"current_range_meters":14000,"station_id":"ce4bhs92rcd13ifvqi0g","pricing_plan_id":"free"},{"bike_id":"ea7074d7-b7c9-4941-82c2-dff391bae9cb","system_id":"levelo_inurba_marseille","lat":43.328349,"lon":5.366849,"is_reserved":false,"is_disabled":false,"rental_uris":{"android":"levelo://app?vid=ea7074d7-b7c9-4941-82c2-dff391bae9cb","ios":"levelo://app?vid=ea7074d7-b7c9-4941-82c2-dff391bae9cb"},"vehicle_type_id":"4","last_reported":1703696773,"current_range_meters":19200,"station_id":"ce4bhs92rcd13ifvqi0g","pricing_plan_id":"free"},{"bike_id":"be72c8fa-57ca-4b39-a06f-106528121e53","system_id":"levelo_inurba_marseille","lat":43.32835,"lon":5.36681,"is_reserved":false,"is_disabled":false,"rental_uris":{"android":"levelo://app?vid=be72c8fa-57ca-4b39-a06f-106528121e53","ios":"levelo://app?vid=be72c8fa-57ca-4b39-a06f-106528121e53"},"vehicle_type_id":"4","last_reported":1703696773,"current_range_meters":4400,"station_id":"ce4bhs92rcd13ifvqi0g","pricing_plan_id":"free"},{"bike_id":"3da4dc66-e3ee-43ca-a4d4-f97ed7c17af9","system_id":"levelo_inurba_marseille","lat":43.297163,"lon":5.365866,"is_reserved":false,"is_disabled":false,"rental_uris":{"android":"levelo://app?vid=3da4dc66-e3ee-43ca-a4d4-f97ed7c17af9","ios":"levelo://app?vid=3da4dc66-e3ee-43ca-a4d4-f97ed7c17af9"},"vehicle_type_id":"4","last_reported":1703696773,"current_range_meters":22000,"station_id":"ce4bgn12rcd13ifvqbt0","pricing_plan_id":"free"},{"bike_id":"5c4da61a-4a66-4911-aa14-038a72ab09c9","system_id":"levelo_inurba_marseille","lat":43.297163,"lon":5.365866,"is_reserved":false,"is_disabled":false,"rental_uris":{"android":"levelo://app?vid=5c4da61a-4a66-4911-aa14-038a72ab09c9","ios":"levelo://app?vid=5c4da61a-4a66-4911-aa14-038a72ab09c9"},"vehicle_type_id":"4","last_reported":1703696773,"current_range_meters":18000,"station_id":"ce4bgn12rcd13ifvqbt0","pricing_plan_id":"free"},{"bike_id":"921b424d-ad0d-4c7a-9d74-66e3a49bfa19","system_id":"levelo_inurba_marseille","lat":43.32934,"lon":5.36612,"is_reserved":false,"is_disabled":false,"rental_uris":{"android":"levelo://app?vid=921b424d-ad0d-4c7a-9d74-66e3a49bfa19","ios":"levelo://app?vid=921b424d-ad0d-4c7a-9d74-66e3a49bfa19"},"vehicle_type_id":"4","last_reported":1703696773,"current_range_meters":16800,"station_id":"","pricing_plan_id":"free"},{"bike_id":"2171bcb3-24cc-4d06-8ae2-90e8c4a71b77","system_id":"levelo_inurba_marseille","lat":43.29573,"lon":5.367355,"is_reserved":false,"is_disabled":false,"rental_uris":{"android":"levelo://app?vid=2171bcb3-24cc-4d06-8ae2-90e8c4a71b77","ios":"levelo://app?vid=2171bcb3-24cc-4d06-8ae2-90e8c4a71b77"},"vehicle_type_id":"4","last_reported":1703696773,"current_range_meters":16000,"station_id":"ce4bgph2rcd13ifvqc2g","pricing_plan_id":"free"},{"bike_id":"92ee36e4-f0f7-4150-8032-01388277222a","system_id":"levelo_inurba_marseille","lat":43.29573,"lon":5.367355,"is_reserved":false,"is_disabled":false,"rental_uris":{"android":"levelo://app?vid=92ee36e4-f0f7-4150-8032-01388277222a","ios":"levelo://app?vid=92ee36e4-f0f7-4150-8032-01388277222a"},"vehicle_type_id":"4","last_reported":1703696773,"current_range_meters":26400,"station_id":"ce4bgph2rcd13ifvqc2g","pricing_plan_id":"free"},{"bike_id":"405bb3b8-cc49-42ff-8061-c5cc3f33dfa1","system_id":"levelo_inurba_marseille","lat":43.29573,"lon":5.367355,"is_reserved":false,"is_disabled":false,"rental_uris":{"android":"levelo://app?vid=405bb3b8-cc49-42ff-8061-c5cc3f33dfa1","ios":"levelo://app?vid=405bb3b8-cc49-42ff-8061-c5cc3f33dfa1"},"vehicle_type_id":"4","last_reported":1703696773,"current_range_meters":18800,"station_id":"ce4bgph2rcd13ifvqc2g","pricing_plan_id":"free"},{"bike_id":"7793ffed-4a6f-42af-8057-4e94aed7e642","system_id":"levelo_inurba_marseille","lat":43.29573,"lon":5.367355,"is_reserved":false,"is_disabled":false,"rental_uris":{"android":"levelo://app?vid=7793ffed-4a6f-42af-8057-4e94aed7e642","ios":"levelo://app?vid=7793ffed-4a6f-42af-8057-4e94aed7e642"},"vehicle_type_id":"4","last_reported":1703696773,"current_range_meters":14800,"station_id":"ce4bgph2rcd13ifvqc2g","pricing_plan_id":"free"},{"bike_id":"760f82b7-35a1-43d5-bd99-d8fd8ca9dd2f","system_id":"levelo_inurba_marseille","lat":43.29573,"lon":5.367355,"is_reserved":false,"is_disabled":false,"rental_uris":{"android":"levelo://app?vid=760f82b7-35a1-43d5-bd99-d8fd8ca9dd2f","ios":"levelo://app?vid=760f82b7-35a1-43d5-bd99-d8fd8ca9dd2f"},"vehicle_type_id":"4","last_reported":1703696773,"current_range_meters":20800,"station_id":"ce4bgph2rcd13ifvqc2g","pricing_plan_id":"free"},{"bike_id":"47b8429b-3d28-4c61-9513-60fe482b659b","system_id":"levelo_inurba_marseille","lat":43.299028,"lon":5.381509,"is_reserved":false,"is_disabled":false,"rental_uris":{"android":"levelo://app?vid=47b8429b-3d28-4c61-9513-60fe482b659b","ios":"levelo://app?vid=47b8429b-3d28-4c61-9513-60fe482b659b"},"vehicle_type_id":"4","last_reported":1703696773,"current_range_meters":20800,"station_id":"ce4bgj12rcd13ifvqbc0","pricing_plan_id":"free"},{"bike_id":"36d704c3-eb06-4a73-aa87-88e30c33eb72","system_id":"levelo_inurba_marseille","lat":43.29711,"lon":5.37692,"is_reserved":false,"is_disabled":false,"rental_uris":{"android":"levelo://app?vid=36d704c3-eb06-4a73-aa87-88e30c33eb72","ios":"levelo://app?vid=36d704c3-eb06-4a73-aa87-88e30c33eb72"},"vehicle_type_id":"4","last_reported":1703696773,"current_range_meters":21600,"station_id":"ce4bgkh2rcd13ifvqbl0","pricing_plan_id":"free"},{"bike_id":"f1ce9a4e-f4a7-4e95-9623-d3413113fd44","system_id":"levelo_inurba_marseille","lat":43.295748,"lon":5.37522,"is_reserved":false,"is_disabled":false,"rental_uris":{"android":"levelo://app?vid=f1ce9a4e-f4a7-4e95-9623-d3413113fd44","ios":"levelo://app?vid=f1ce9a4e-f4a7-4e95-9623-d3413113fd44"},"vehicle_type_id":"4","last_reported":1703696773,"current_range_meters":10400,"station_id":"ce4bgh92rcd13ifvqb50","pricing_plan_id":"free"},{"bike_id":"33b3e734-f41b-460a-b9ba-f318957814e5","system_id":"levelo_inurba_marseille","lat":43.295748,"lon":5.37522,"is_reserved":false,"is_disabled":false,"rental_uris":{"android":"levelo://app?vid=33b3e734-f41b-460a-b9ba-f318957814e5","ios":"levelo://app?vid=33b3e734-f41b-460a-b9ba-f318957814e5"},"vehicle_type_id":"4","last_reported":1703696773,"current_range_meters":18400,"station_id":"ce4bgh92rcd13ifvqb50","pricing_plan_id":"free"},{"bike_id":"47d7586e-ed57-491d-9837-f0c413a75012","system_id":"levelo_inurba_marseille","lat":43.304278,"lon":5.388868,"is_reserved":false,"is_disabled":false,"rental_uris":{"android":"levelo://app?vid=47d7586e-ed57-491d-9837-f0c413a75012","ios":"levelo://app?vid=47d7586e-ed57-491d-9837-f0c413a75012"},"vehicle_type_id":"4","last_reported":1703696773,"current_range_meters":20000,"station_id":"ce4bgk12rcd13ifvqbi0","pricing_plan_id":"free"},{"bike_id":"e702a7bb-e172-4da8-adf0-36810cb8d3bb","system_id":"levelo_inurba_marseille","lat":43.296263,"lon":5.377094,"is_reserved":false,"is_disabled":false,"rental_uris":{"android":"levelo://app?vid=e702a7bb-e172-4da8-adf0-36810cb8d3bb","ios":"levelo://app?vid=e702a7bb-e172-4da8-adf0-36810cb8d3bb"},"vehicle_type_id":"4","last_reported":1703696773,"current_range_meters":3600,"station_id":"ce4bgi92rcd13ifvqb90","pricing_plan_id":"free"},{"bike_id":"453cf3fe-914f-47d7-bb0b-9e3076dc1b66","system_id":"levelo_inurba_marseille","lat":43.32368,"lon":5.38859,"is_reserved":false,"is_disabled":false,"rental_uris":{"android":"levelo://app?vid=453cf3fe-914f-47d7-bb0b-9e3076dc1b66","ios":"levelo://app?vid=453cf3fe-914f-47d7-bb0b-9e3076dc1b66"},"vehicle_type_id":"4","last_reported":1703696773,"current_range_meters":7600,"station_id":"ce4bhqp2rcd13ifvqhog","pricing_plan_id":"free"},{"bike_id":"edc571ac-79f5-429a-89f8-86fa7ab8f6ba","system_id":"levelo_inurba_marseille","lat":43.32369,"lon":5.38926,"is_reserved":false,"is_disabled":false,"rental_uris":{"android":"levelo://app?vid=edc571ac-79f5-429a-89f8-86fa7ab8f6ba","ios":"levelo://app?vid=edc571ac-79f5-429a-89f8-86fa7ab8f6ba"},"vehicle_type_id":"4","last_reported":1703696773,"current_range_meters":21600,"station_id":"ce4bhqp2rcd13ifvqhog","pricing_plan_id":"free"},{"bike_id":"b9ddbc22-f162-44d6-a28d-eeb0e7687c58","system_id":"levelo_inurba_marseille","lat":43.292749,"lon":5.368402,"is_reserved":false,"is_disabled":false,"rental_uris":{"android":"levelo://app?vid=b9ddbc22-f162-44d6-a28d-eeb0e7687c58","ios":"levelo://app?vid=b9ddbc22-f162-44d6-a28d-eeb0e7687c58"},"vehicle_type_id":"4","last_reported":1703696773,"current_range_meters":23200,"station_id":"ce4bhbp2rcd13ifvqesg","pricing_plan_id":"free"},{"bike_id":"779bc754-a34c-4437-b495-4700cfbcb086","system_id":"levelo_inurba_marseille","lat":43.293009,"lon":5.374584,"is_reserved":false,"is_disabled":false,"rental_uris":{"android":"levelo://app?vid=779bc754-a34c-4437-b495-4700cfbcb086","ios":"levelo://app?vid=779bc754-a34c-4437-b495-4700cfbcb086"},"vehicle_type_id":"4","last_reported":1703696773,"current_range_meters":15600,"station_id":"ce4bgi12rcd13ifvqb70","pricing_plan_id":"free"},{"bike_id":"61c650ad-486f-4b3f-9350-83305ef7c978","system_id":"levelo_inurba_marseille","lat":43.303002,"lon":5.392142,"is_reserved":false,"is_disabled":false,"rental_uris":{"android":"levelo://app?vid=61c650ad-486f-4b3f-9350-83305ef7c978","ios":"levelo://app?vid=61c650ad-486f-4b3f-9350-83305ef7c978"},"vehicle_type_id":"4","last_reported":1703696773,"current_range_meters":26800,"station_id":"ce4bgkh2rcd13ifvqbk0","pricing_plan_id":"free"},{"bike_id":"94f84f5e-075b-42fd-8135-cd274618530b","system_id":"levelo_inurba_marseille","lat":43.30316,"lon":5.3921,"is_reserved":false,"is_disabled":false,"rental_uris":{"android":"levelo://app?vid=94f84f5e-075b-42fd-8135-cd274618530b","ios":"levelo://app?vid=94f84f5e-075b-42fd-8135-cd274618530b"},"vehicle_type_id":"4","last_reported":1703696773,"current_range_meters":24400,"station_id":"ce4bgkh2rcd13ifvqbk0","pricing_plan_id":"free"},{"bike_id":"3ae8f86b-75b0-4492-b47a-63b9fea28b08","system_id":"levelo_inurba_marseille","lat":43.30305,"lon":5.39208,"is_reserved":false,"is_disabled":false,"rental_uris":{"android":"levelo://app?vid=3ae8f86b-75b0-4492-b47a-63b9fea28b08","ios":"levelo://app?vid=3ae8f86b-75b0-4492-b47a-63b9fea28b08"},"vehicle_type_id":"4","last_reported":1703696773,"current_range_meters":12000,"station_id":"ce4bgkh2rcd13ifvqbk0","pricing_plan_id":"free"},{"bike_id":"3b6ae1ae-2738-4db4-b0cf-4ef1d01111c1","system_id":"levelo_inurba_marseille","lat":43.303002,"lon":5.392142,"is_reserved":false,"is_disabled":false,"rental_uris":{"android":"levelo://app?vid=3b6ae1ae-2738-4db4-b0cf-4ef1d01111c1","ios":"levelo://app?vid=3b6ae1ae-2738-4db4-b0cf-4ef1d01111c1"},"vehicle_type_id":"4","last_reported":1703696773,"current_range_meters":28000,"station_id":"ce4bgkh2rcd13ifvqbk0","pricing_plan_id":"free"},{"bike_id":"5a5d3ace-8197-4ff1-813b-0f6435ef4371","system_id":"levelo_inurba_marseille","lat":43.30295,"lon":5.39207,"is_reserved":false,"is_disabled":false,"rental_uris":{"android":"levelo://app?vid=5a5d3ace-8197-4ff1-813b-0f6435ef4371","ios":"levelo://app?vid=5a5d3ace-8197-4ff1-813b-0f6435ef4371"},"vehicle_type_id":"4","last_reported":1703696773,"current_range_meters":17200,"station_id":"ce4bgkh2rcd13ifvqbk0","pricing_plan_id":"free"},{"bike_id":"8539d5cb-fdc2-4180-a7eb-3f84d1eed41e","system_id":"levelo_inurba_marseille","lat":43.300852,"lon":5.390859,"is_reserved":false,"is_disabled":false,"rental_uris":{"android":"levelo://app?vid=8539d5cb-fdc2-4180-a7eb-3f84d1eed41e","ios":"levelo://app?vid=8539d5cb-fdc2-4180-a7eb-3f84d1eed41e"},"vehicle_type_id":"4","last_reported":1703696773,"current_range_meters":28800,"station_id":"ce4bh192rcd13ifvqdb0","pricing_plan_id":"free"},{"bike_id":"7050f572-d064-40a3-9ec0-2740371fff5a","system_id":"levelo_inurba_marseille","lat":43.290327,"lon":5.375711,"is_reserved":false,"is_disabled":false,"rental_uris":{"android":"levelo://app?vid=7050f572-d064-40a3-9ec0-2740371fff5a","ios":"levelo://app?vid=7050f572-d064-40a3-9ec0-2740371fff5a"},"vehicle_type_id":"4","last_reported":1703696773,"current_range_meters":27600,"station_id":"ce4bh692rcd13ifvqe90","pricing_plan_id":"free"},{"bike_id":"bfcd52db-70c7-418d-b86f-93e9f86df8e9","system_id":"levelo_inurba_marseille","lat":43.291675,"lon":5.371583,"is_reserved":false,"is_disabled":false,"rental_uris":{"android":"levelo://app?vid=bfcd52db-70c7-418d-b86f-93e9f86df8e9","ios":"levelo://app?vid=bfcd52db-70c7-418d-b86f-93e9f86df8e9"},"vehicle_type_id":"4","last_reported":1703696773,"current_range_meters":2400,"station_id":"ce4bha92rcd13ifvqeh0","pricing_plan_id":"free"},{"bike_id":"1ca85318-3844-4c28-a474-ff1336369378","system_id":"levelo_inurba_marseille","lat":43.291671,"lon":5.371575,"is_reserved":false,"is_disabled":false,"rental_uris":{"android":"levelo://app?vid=1ca85318-3844-4c28-a474-ff1336369378","ios":"levelo://app?vid=1ca85318-3844-4c28-a474-ff1336369378"},"vehicle_type_id":"4","last_reported":1703696773,"current_range_meters":30800,"station_id":"ce4bha92rcd13ifvqeh0","pricing_plan_id":"free"},{"bike_id":"b36cb058-91d0-4fa9-bd48-5ece9470dd3f","system_id":"levelo_inurba_marseille","lat":43.291671,"lon":5.371575,"is_reserved":false,"is_disabled":false,"rental_uris":{"android":"levelo://app?vid=b36cb058-91d0-4fa9-bd48-5ece9470dd3f","ios":"levelo://app?vid=b36cb058-91d0-4fa9-bd48-5ece9470dd3f"},"vehicle_type_id":"4","last_reported":1703696773,"current_range_meters":10000,"station_id":"ce4bha92rcd13ifvqeh0","pricing_plan_id":"free"},{"bike_id":"8658ef6f-32ee-4aa6-8a3c-9e4140d64bd6","system_id":"levelo_inurba_marseille","lat":43.313291,"lon":5.396838,"is_reserved":false,"is_disabled":false,"rental_uris":{"android":"levelo://app?vid=8658ef6f-32ee-4aa6-8a3c-9e4140d64bd6","ios":"levelo://app?vid=8658ef6f-32ee-4aa6-8a3c-9e4140d64bd6"},"vehicle_type_id":"4","last_reported":1703696773,"current_range_meters":1600,"station_id":"ce4bgvp2rcd13ifvqcu0","pricing_plan_id":"free"},{"bike_id":"9259255d-5fda-4d03-9814-c2d65e12bb51","system_id":"levelo_inurba_marseille","lat":43.309047,"lon":5.396551,"is_reserved":false,"is_disabled":false,"rental_uris":{"android":"levelo://app?vid=9259255d-5fda-4d03-9814-c2d65e12bb51","ios":"levelo://app?vid=9259255d-5fda-4d03-9814-c2d65e12bb51"},"vehicle_type_id":"4","last_reported":1703696773,"current_range_meters":15600,"station_id":"ce4bh012rcd13ifvqcv0","pricing_plan_id":"free"},{"bike_id":"20803b52-2480-44ab-8456-2ce0d21e2ed5","system_id":"levelo_inurba_marseille","lat":43.309038,"lon":5.396546,"is_reserved":false,"is_disabled":false,"rental_uris":{"android":"levelo://app?vid=20803b52-2480-44ab-8456-2ce0d21e2ed5","ios":"levelo://app?vid=20803b52-2480-44ab-8456-2ce0d21e2ed5"},"vehicle_type_id":"4","last_reported":1703696773,"current_range_meters":10400,"station_id":"ce4bh012rcd13ifvqcv0","pricing_plan_id":"free"},{"bike_id":"c5d930b1-6c32-494d-8494-67d43a770f4b","system_id":"levelo_inurba_marseille","lat":43.290779,"lon":5.371482,"is_reserved":false,"is_disabled":false,"rental_uris":{"android":"levelo://app?vid=c5d930b1-6c32-494d-8494-67d43a770f4b","ios":"levelo://app?vid=c5d930b1-6c32-494d-8494-67d43a770f4b"},"vehicle_type_id":"4","last_reported":1703696773,"current_range_meters":26800,"station_id":"ce4bh5p2rcd13ifvqe4g","pricing_plan_id":"free"},{"bike_id":"4c792193-5361-42c9-a97a-f37f29a2a5e3","system_id":"levelo_inurba_marseille","lat":43.290779,"lon":5.371482,"is_reserved":false,"is_disabled":false,"rental_uris":{"android":"levelo://app?vid=4c792193-5361-42c9-a97a-f37f29a2a5e3","ios":"levelo://app?vid=4c792193-5361-42c9-a97a-f37f29a2a5e3"},"vehicle_type_id":"4","last_reported":1703696773,"current_range_meters":26800,"station_id":"ce4bh5p2rcd13ifvqe4g","pricing_plan_id":"free"},{"bike_id":"57e9791f-a6df-4848-a1d2-106e904458b5","system_id":"levelo_inurba_marseille","lat":43.302187,"lon":5.394835,"is_reserved":false,"is_disabled":false,"rental_uris":{"android":"levelo://app?vid=57e9791f-a6df-4848-a1d2-106e904458b5","ios":"levelo://app?vid=57e9791f-a6df-4848-a1d2-106e904458b5"},"vehicle_type_id":"4","last_reported":1703696773,"current_range_meters":1600,"station_id":"ce4bh0p2rcd13ifvqd70","pricing_plan_id":"free"},{"bike_id":"07969c66-b026-483e-8d65-c03cec06ce15","system_id":"levelo_inurba_marseille","lat":43.289184,"lon":5.366408,"is_reserved":false,"is_disabled":false,"rental_uris":{"android":"levelo://app?vid=07969c66-b026-483e-8d65-c03cec06ce15","ios":"levelo://app?vid=07969c66-b026-483e-8d65-c03cec06ce15"},"vehicle_type_id":"4","last_reported":1703696773,"current_range_meters":24400,"station_id":"ce4bhap2rcd13ifvqek0","pricing_plan_id":"free"},{"bike_id":"6baacb77-1a0a-48f7-9778-7ea30268c4c2","system_id":"levelo_inurba_marseille","lat":43.289184,"lon":5.366408,"is_reserved":false,"is_disabled":false,"rental_uris":{"android":"levelo://app?vid=6baacb77-1a0a-48f7-9778-7ea30268c4c2","ios":"levelo://app?vid=6baacb77-1a0a-48f7-9778-7ea30268c4c2"},"vehicle_type_id":"4","last_reported":1703696773,"current_range_meters":25600,"station_id":"ce4bhap2rcd13ifvqek0","pricing_plan_id":"free"},{"bike_id":"a3cd87f5-d292-4ec6-b1c6-439ca3a04be4","system_id":"levelo_inurba_marseille","lat":43.289184,"lon":5.366408,"is_reserved":false,"is_disabled":false,"rental_uris":{"android":"levelo://app?vid=a3cd87f5-d292-4ec6-b1c6-439ca3a04be4","ios":"levelo://app?vid=a3cd87f5-d292-4ec6-b1c6-439ca3a04be4"},"vehicle_type_id":"4","last_reported":1703696773,"current_range_meters":6400,"station_id":"ce4bhap2rcd13ifvqek0","pricing_plan_id":"free"},{"bike_id":"e1c5e337-9e53-41ee-8c10-fb31bc73ea42","system_id":"levelo_inurba_marseille","lat":43.2894,"lon":5.3641,"is_reserved":false,"is_disabled":false,"rental_uris":{"android":"levelo://app?vid=e1c5e337-9e53-41ee-8c10-fb31bc73ea42","ios":"levelo://app?vid=e1c5e337-9e53-41ee-8c10-fb31bc73ea42"},"vehicle_type_id":"4","last_reported":1703696773,"current_range_meters":0,"station_id":"ce4bhc92rcd13ifvqetg","pricing_plan_id":"free"},{"bike_id":"15737e5b-07be-42e3-ad98-3d74cb3a9fd2","system_id":"levelo_inurba_marseille","lat":43.291994,"lon":5.392907,"is_reserved":false,"is_disabled":false,"rental_uris":{"android":"levelo://app?vid=15737e5b-07be-42e3-ad98-3d74cb3a9fd2","ios":"levelo://app?vid=15737e5b-07be-42e3-ad98-3d74cb3a9fd2"},"vehicle_type_id":"4","last_reported":1703696773,"current_range_meters":18800,"station_id":"ce4bh192rcd13ifvqdd0","pricing_plan_id":"free"},{"bike_id":"7c57a884-cdc3-4042-b4f8-63bfdbf2e4d0","system_id":"levelo_inurba_marseille","lat":43.304296,"lon":5.397513,"is_reserved":false,"is_disabled":false,"rental_uris":{"android":"levelo://app?vid=7c57a884-cdc3-4042-b4f8-63bfdbf2e4d0","ios":"levelo://app?vid=7c57a884-cdc3-4042-b4f8-63bfdbf2e4d0"},"vehicle_type_id":"4","last_reported":1703696773,"current_range_meters":7200,"station_id":"ce4bh092rcd13ifvqd20","pricing_plan_id":"free"},{"bike_id":"88ca9bbf-180c-4671-98d9-d9b061e093f1","system_id":"levelo_inurba_marseille","lat":43.304296,"lon":5.397513,"is_reserved":false,"is_disabled":false,"rental_uris":{"android":"levelo://app?vid=88ca9bbf-180c-4671-98d9-d9b061e093f1","ios":"levelo://app?vid=88ca9bbf-180c-4671-98d9-d9b061e093f1"},"vehicle_type_id":"4","last_reported":1703696773,"current_range_meters":17200,"station_id":"ce4bh092rcd13ifvqd20","pricing_plan_id":"free"},{"bike_id":"3133c04b-cb04-4429-8f04-0d1fa21705de","system_id":"levelo_inurba_marseille","lat":43.292644,"lon":5.384257,"is_reserved":false,"is_disabled":false,"rental_uris":{"android":"levelo://app?vid=3133c04b-cb04-4429-8f04-0d1fa21705de","ios":"levelo://app?vid=3133c04b-cb04-4429-8f04-0d1fa21705de"},"vehicle_type_id":"4","last_reported":1703696773,"current_range_meters":24000,"station_id":"ce4bh692rcd13ifvqea0","pricing_plan_id":"free"},{"bike_id":"676f924f-beab-47c0-a993-1bf61f8a60fe","system_id":"levelo_inurba_marseille","lat":43.292644,"lon":5.384257,"is_reserved":false,"is_disabled":false,"rental_uris":{"android":"levelo://app?vid=676f924f-beab-47c0-a993-1bf61f8a60fe","ios":"levelo://app?vid=676f924f-beab-47c0-a993-1bf61f8a60fe"},"vehicle_type_id":"4","last_reported":1703696773,"current_range_meters":18400,"station_id":"ce4bh692rcd13ifvqea0","pricing_plan_id":"free"},{"bike_id":"2bc5084b-d8ce-40b2-b5f0-dde007c25bcc","system_id":"levelo_inurba_marseille","lat":43.292644,"lon":5.384257,"is_reserved":false,"is_disabled":false,"rental_uris":{"android":"levelo://app?vid=2bc5084b-d8ce-40b2-b5f0-dde007c25bcc","ios":"levelo://app?vid=2bc5084b-d8ce-40b2-b5f0-dde007c25bcc"},"vehicle_type_id":"4","last_reported":1703696773,"current_range_meters":21200,"station_id":"ce4bh692rcd13ifvqea0","pricing_plan_id":"free"},{"bike_id":"2cf8dce7-3a70-42ac-ae3e-d0cf87205e7f","system_id":"levelo_inurba_marseille","lat":43.304274,"lon":5.397513,"is_reserved":false,"is_disabled":false,"rental_uris":{"android":"levelo://app?vid=2cf8dce7-3a70-42ac-ae3e-d0cf87205e7f","ios":"levelo://app?vid=2cf8dce7-3a70-42ac-ae3e-d0cf87205e7f"},"vehicle_type_id":"4","last_reported":1703696773,"current_range_meters":20800,"station_id":"ce4bh092rcd13ifvqd20","pricing_plan_id":"free"},{"bike_id":"da8858aa-bf07-4051-8769-276784a2a77d","system_id":"levelo_inurba_marseille","lat":43.292642,"lon":5.384254,"is_reserved":false,"is_disabled":false,"rental_uris":{"android":"levelo://app?vid=da8858aa-bf07-4051-8769-276784a2a77d","ios":"levelo://app?vid=da8858aa-bf07-4051-8769-276784a2a77d"},"vehicle_type_id":"4","last_reported":1703696773,"current_range_meters":23200,"station_id":"ce4bh692rcd13ifvqea0","pricing_plan_id":"free"},{"bike_id":"ba9ff484-22c9-4de9-9832-2d07c68350a3","system_id":"levelo_inurba_marseille","lat":43.292628,"lon":5.384444,"is_reserved":false,"is_disabled":false,"rental_uris":{"android":"levelo://app?vid=ba9ff484-22c9-4de9-9832-2d07c68350a3","ios":"levelo://app?vid=ba9ff484-22c9-4de9-9832-2d07c68350a3"},"vehicle_type_id":"4","last_reported":1703696773,"current_range_meters":6400,"station_id":"ce4bh3p2rcd13ifvqdq0","pricing_plan_id":"free"},{"bike_id":"3e34be2c-0ea7-4c17-a189-be7d1ed722d3","system_id":"levelo_inurba_marseille","lat":43.292642,"lon":5.384254,"is_reserved":false,"is_disabled":false,"rental_uris":{"android":"levelo://app?vid=3e34be2c-0ea7-4c17-a189-be7d1ed722d3","ios":"levelo://app?vid=3e34be2c-0ea7-4c17-a189-be7d1ed722d3"},"vehicle_type_id":"4","last_reported":1703696773,"current_range_meters":21600,"station_id":"ce4bh692rcd13ifvqea0","pricing_plan_id":"free"},{"bike_id":"1c02557e-a008-4238-94d4-bcf443e8ac10","system_id":"levelo_inurba_marseille","lat":43.292644,"lon":5.384257,"is_reserved":false,"is_disabled":false,"rental_uris":{"android":"levelo://app?vid=1c02557e-a008-4238-94d4-bcf443e8ac10","ios":"levelo://app?vid=1c02557e-a008-4238-94d4-bcf443e8ac10"},"vehicle_type_id":"4","last_reported":1703696773,"current_range_meters":13600,"station_id":"ce4bh692rcd13ifvqea0","pricing_plan_id":"free"},{"bike_id":"787efe3d-9cd2-4623-9f2f-04afcfb4c8fc","system_id":"levelo_inurba_marseille","lat":43.290103,"lon":5.356114,"is_reserved":false,"is_disabled":false,"rental_uris":{"android":"levelo://app?vid=787efe3d-9cd2-4623-9f2f-04afcfb4c8fc","ios":"levelo://app?vid=787efe3d-9cd2-4623-9f2f-04afcfb4c8fc"},"vehicle_type_id":"4","last_reported":1703696773,"current_range_meters":8400,"station_id":"ce4bhb92rcd13ifvqen0","pricing_plan_id":"free"},{"bike_id":"d5016b73-80c5-439d-83c7-e73508ef91bb","system_id":"levelo_inurba_marseille","lat":43.290995,"lon":5.381361,"is_reserved":false,"is_disabled":false,"rental_uris":{"android":"levelo://app?vid=d5016b73-80c5-439d-83c7-e73508ef91bb","ios":"levelo://app?vid=d5016b73-80c5-439d-83c7-e73508ef91bb"},"vehicle_type_id":"4","last_reported":1703696773,"current_range_meters":23200,"station_id":"ce4bh512rcd13ifvqe2g","pricing_plan_id":"free"},{"bike_id":"f5299bbc-3543-4cf6-ac4c-7a8cc9a44b73","system_id":"levelo_inurba_marseille","lat":43.290995,"lon":5.381361,"is_reserved":false,"is_disabled":false,"rental_uris":{"android":"levelo://app?vid=f5299bbc-3543-4cf6-ac4c-7a8cc9a44b73","ios":"levelo://app?vid=f5299bbc-3543-4cf6-ac4c-7a8cc9a44b73"},"vehicle_type_id":"4","last_reported":1703696773,"current_range_meters":24000,"station_id":"ce4bh512rcd13ifvqe2g","pricing_plan_id":"free"},{"bike_id":"0e114505-aa0f-4879-887b-84948344e023","system_id":"levelo_inurba_marseille","lat":43.29782,"lon":5.39332,"is_reserved":false,"is_disabled":false,"rental_uris":{"android":"levelo://app?vid=0e114505-aa0f-4879-887b-84948344e023","ios":"levelo://app?vid=0e114505-aa0f-4879-887b-84948344e023"},"vehicle_type_id":"4","last_reported":1703696773,"current_range_meters":5600,"station_id":"chh1huq6cuj3fo74tm60","pricing_plan_id":"free"},{"bike_id":"d81cb5f0-bcd9-4b6d-8102-5bc2044ea89a","system_id":"levelo_inurba_marseille","lat":43.295169,"lon":5.390426,"is_reserved":false,"is_disabled":false,"rental_uris":{"android":"levelo://app?vid=d81cb5f0-bcd9-4b6d-8102-5bc2044ea89a","ios":"levelo://app?vid=d81cb5f0-bcd9-4b6d-8102-5bc2044ea89a"},"vehicle_type_id":"4","last_reported":1703696773,"current_range_meters":24400,"station_id":"ce4bh3p2rcd13ifvqdp0","pricing_plan_id":"free"},{"bike_id":"495faf64-a935-4c6e-b77f-2b296d14493a","system_id":"levelo_inurba_marseille","lat":43.331017,"lon":5.389194,"is_reserved":false,"is_disabled":false,"rental_uris":{"android":"levelo://app?vid=495faf64-a935-4c6e-b77f-2b296d14493a","ios":"levelo://app?vid=495faf64-a935-4c6e-b77f-2b296d14493a"},"vehicle_type_id":"4","last_reported":1703696773,"current_range_meters":15600,"station_id":"","pricing_plan_id":"free"},{"bike_id":"da82727f-5090-4dcc-9a39-e49701b0afae","system_id":"levelo_inurba_marseille","lat":43.330442,"lon":5.389148,"is_reserved":false,"is_disabled":false,"rental_uris":{"android":"levelo://app?vid=da82727f-5090-4dcc-9a39-e49701b0afae","ios":"levelo://app?vid=da82727f-5090-4dcc-9a39-e49701b0afae"},"vehicle_type_id":"4","last_reported":1703696773,"current_range_meters":17600,"station_id":"ce4bhr92rcd13ifvqhrg","pricing_plan_id":"free"},{"bike_id":"469e8840-6743-4691-9d74-e5171534955a","system_id":"levelo_inurba_marseille","lat":43.330442,"lon":5.389148,"is_reserved":false,"is_disabled":false,"rental_uris":{"android":"levelo://app?vid=469e8840-6743-4691-9d74-e5171534955a","ios":"levelo://app?vid=469e8840-6743-4691-9d74-e5171534955a"},"vehicle_type_id":"4","last_reported":1703696773,"current_range_meters":21200,"station_id":"ce4bhr92rcd13ifvqhrg","pricing_plan_id":"free"},{"bike_id":"837e4840-f9f0-42f2-896f-fa90e31fab8a","system_id":"levelo_inurba_marseille","lat":43.330442,"lon":5.389148,"is_reserved":false,"is_disabled":false,"rental_uris":{"android":"levelo://app?vid=837e4840-f9f0-42f2-896f-fa90e31fab8a","ios":"levelo://app?vid=837e4840-f9f0-42f2-896f-fa90e31fab8a"},"vehicle_type_id":"4","last_reported":1703696773,"current_range_meters":26000,"station_id":"ce4bhr92rcd13ifvqhrg","pricing_plan_id":"free"},{"bike_id":"df1f1678-6b4a-4ae4-bcf4-08c4b3cf1263","system_id":"levelo_inurba_marseille","lat":43.28856,"lon":5.358371,"is_reserved":false,"is_disabled":false,"rental_uris":{"android":"levelo://app?vid=df1f1678-6b4a-4ae4-bcf4-08c4b3cf1263","ios":"levelo://app?vid=df1f1678-6b4a-4ae4-bcf4-08c4b3cf1263"},"vehicle_type_id":"4","last_reported":1703696773,"current_range_meters":30400,"station_id":"ce4bhb12rcd13ifvqem0","pricing_plan_id":"free"},{"bike_id":"96a1dbc7-fd25-474d-aa49-27646a0f56af","system_id":"levelo_inurba_marseille","lat":43.28856,"lon":5.358371,"is_reserved":false,"is_disabled":false,"rental_uris":{"android":"levelo://app?vid=96a1dbc7-fd25-474d-aa49-27646a0f56af","ios":"levelo://app?vid=96a1dbc7-fd25-474d-aa49-27646a0f56af"},"vehicle_type_id":"4","last_reported":1703696773,"current_range_meters":22400,"station_id":"ce4bhb12rcd13ifvqem0","pricing_plan_id":"free"},{"bike_id":"d9a766c5-d5c1-4062-b65d-782ed0d7cf7b","system_id":"levelo_inurba_marseille","lat":43.33742,"lon":5.374425,"is_reserved":false,"is_disabled":false,"rental_uris":{"android":"levelo://app?vid=d9a766c5-d5c1-4062-b65d-782ed0d7cf7b","ios":"levelo://app?vid=d9a766c5-d5c1-4062-b65d-782ed0d7cf7b"},"vehicle_type_id":"4","last_reported":1703696773,"current_range_meters":22800,"station_id":"","pricing_plan_id":"free"},{"bike_id":"24504415-10a0-4a06-b578-922f2763da5b","system_id":"levelo_inurba_marseille","lat":43.312609,"lon":5.401662,"is_reserved":false,"is_disabled":false,"rental_uris":{"android":"levelo://app?vid=24504415-10a0-4a06-b578-922f2763da5b","ios":"levelo://app?vid=24504415-10a0-4a06-b578-922f2763da5b"},"vehicle_type_id":"4","last_reported":1703696773,"current_range_meters":0,"station_id":"ce4bh092rcd13ifvqd30","pricing_plan_id":"free"},{"bike_id":"f9fb4047-bb87-40c2-8a6f-8fa489e9e1b3","system_id":"levelo_inurba_marseille","lat":43.33753,"lon":5.37435,"is_reserved":false,"is_disabled":false,"rental_uris":{"android":"levelo://app?vid=f9fb4047-bb87-40c2-8a6f-8fa489e9e1b3","ios":"levelo://app?vid=f9fb4047-bb87-40c2-8a6f-8fa489e9e1b3"},"vehicle_type_id":"4","last_reported":1703696773,"current_range_meters":28000,"station_id":"","pricing_plan_id":"free"},{"bike_id":"4d80e7d4-48db-4dc1-9f4d-36e78183ddb5","system_id":"levelo_inurba_marseille","lat":43.309371,"lon":5.401449,"is_reserved":false,"is_disabled":false,"rental_uris":{"android":"levelo://app?vid=4d80e7d4-48db-4dc1-9f4d-36e78183ddb5","ios":"levelo://app?vid=4d80e7d4-48db-4dc1-9f4d-36e78183ddb5"},"vehicle_type_id":"4","last_reported":1703696773,"current_range_meters":25600,"station_id":"ce4bgvp2rcd13ifvqct0","pricing_plan_id":"free"},{"bike_id":"6d41b425-3215-44e4-927d-b157abe36e73","system_id":"levelo_inurba_marseille","lat":43.33764,"lon":5.3743,"is_reserved":false,"is_disabled":false,"rental_uris":{"android":"levelo://app?vid=6d41b425-3215-44e4-927d-b157abe36e73","ios":"levelo://app?vid=6d41b425-3215-44e4-927d-b157abe36e73"},"vehicle_type_id":"4","last_reported":1703696773,"current_range_meters":27200,"station_id":"","pricing_plan_id":"free"},{"bike_id":"dff46759-2bce-459f-83ab-b34702e6efa5","system_id":"levelo_inurba_marseille","lat":43.337707,"lon":5.37425,"is_reserved":false,"is_disabled":false,"rental_uris":{"android":"levelo://app?vid=dff46759-2bce-459f-83ab-b34702e6efa5","ios":"levelo://app?vid=dff46759-2bce-459f-83ab-b34702e6efa5"},"vehicle_type_id":"4","last_reported":1703696773,"current_range_meters":28800,"station_id":"","pricing_plan_id":"free"},{"bike_id":"7da39ea9-88ff-4b97-9baa-22c9d2fcc9ee","system_id":"levelo_inurba_marseille","lat":43.306412,"lon":5.401035,"is_reserved":false,"is_disabled":false,"rental_uris":{"android":"levelo://app?vid=7da39ea9-88ff-4b97-9baa-22c9d2fcc9ee","ios":"levelo://app?vid=7da39ea9-88ff-4b97-9baa-22c9d2fcc9ee"},"vehicle_type_id":"4","last_reported":1703696773,"current_range_meters":11600,"station_id":"ce4bh112rcd13ifvqda0","pricing_plan_id":"free"},{"bike_id":"ead907ae-faae-4bad-876e-f22db35aa701","system_id":"levelo_inurba_marseille","lat":43.30642,"lon":5.401031,"is_reserved":false,"is_disabled":false,"rental_uris":{"android":"levelo://app?vid=ead907ae-faae-4bad-876e-f22db35aa701","ios":"levelo://app?vid=ead907ae-faae-4bad-876e-f22db35aa701"},"vehicle_type_id":"4","last_reported":1703696773,"current_range_meters":30400,"station_id":"ce4bh112rcd13ifvqda0","pricing_plan_id":"free"},{"bike_id":"395b4c6b-2846-48f8-adf3-a7b6e4defa20","system_id":"levelo_inurba_marseille","lat":43.28727,"lon":5.36078,"is_reserved":false,"is_disabled":false,"rental_uris":{"android":"levelo://app?vid=395b4c6b-2846-48f8-adf3-a7b6e4defa20","ios":"levelo://app?vid=395b4c6b-2846-48f8-adf3-a7b6e4defa20"},"vehicle_type_id":"4","last_reported":1703696773,"current_range_meters":30800,"station_id":"cki0cbj6b192h4jlfktg","pricing_plan_id":"free"},{"bike_id":"eb9bd097-3330-45a1-ae78-588472a80dd1","system_id":"levelo_inurba_marseille","lat":43.286591,"lon":5.363346,"is_reserved":false,"is_disabled":false,"rental_uris":{"android":"levelo://app?vid=eb9bd097-3330-45a1-ae78-588472a80dd1","ios":"levelo://app?vid=eb9bd097-3330-45a1-ae78-588472a80dd1"},"vehicle_type_id":"4","last_reported":1703696773,"current_range_meters":22400,"station_id":"ce4bhah2rcd13ifvqej0","pricing_plan_id":"free"},{"bike_id":"ccadf523-6d9a-4010-b484-a1a17bf5869c","system_id":"levelo_inurba_marseille","lat":43.298681,"lon":5.397225,"is_reserved":false,"is_disabled":false,"rental_uris":{"android":"levelo://app?vid=ccadf523-6d9a-4010-b484-a1a17bf5869c","ios":"levelo://app?vid=ccadf523-6d9a-4010-b484-a1a17bf5869c"},"vehicle_type_id":"4","last_reported":1703696773,"current_range_meters":23600,"station_id":"ce4bh0h2rcd13ifvqd50","pricing_plan_id":"free"},{"bike_id":"c84460bb-45ee-4b97-b1bf-1661ec22c3ae","system_id":"levelo_inurba_marseille","lat":43.286961,"lon":5.373785,"is_reserved":false,"is_disabled":false,"rental_uris":{"android":"levelo://app?vid=c84460bb-45ee-4b97-b1bf-1661ec22c3ae","ios":"levelo://app?vid=c84460bb-45ee-4b97-b1bf-1661ec22c3ae"},"vehicle_type_id":"4","last_reported":1703696773,"current_range_meters":22800,"station_id":"ce4bh3p2rcd13ifvqdq0","pricing_plan_id":"free"},{"bike_id":"a661346b-99a4-4270-90f7-8af66185126a","system_id":"levelo_inurba_marseille","lat":43.286591,"lon":5.363346,"is_reserved":false,"is_disabled":false,"rental_uris":{"android":"levelo://app?vid=a661346b-99a4-4270-90f7-8af66185126a","ios":"levelo://app?vid=a661346b-99a4-4270-90f7-8af66185126a"},"vehicle_type_id":"4","last_reported":1703696773,"current_range_meters":16800,"station_id":"ce4bhah2rcd13ifvqej0","pricing_plan_id":"free"},{"bike_id":"0f54a86c-2453-4630-b086-f022060b2739","system_id":"levelo_inurba_marseille","lat":43.295196,"lon":5.39397,"is_reserved":false,"is_disabled":false,"rental_uris":{"android":"levelo://app?vid=0f54a86c-2453-4630-b086-f022060b2739","ios":"levelo://app?vid=0f54a86c-2453-4630-b086-f022060b2739"},"vehicle_type_id":"4","last_reported":1703696773,"current_range_meters":21200,"station_id":"ce4bh292rcd13ifvqdf0","pricing_plan_id":"free"},{"bike_id":"48896360-dcf1-4449-9e34-3fb5d8700185","system_id":"levelo_inurba_marseille","lat":43.286961,"lon":5.373785,"is_reserved":false,"is_disabled":false,"rental_uris":{"android":"levelo://app?vid=48896360-dcf1-4449-9e34-3fb5d8700185","ios":"levelo://app?vid=48896360-dcf1-4449-9e34-3fb5d8700185"},"vehicle_type_id":"4","last_reported":1703696773,"current_range_meters":26000,"station_id":"ce4bh3p2rcd13ifvqdq0","pricing_plan_id":"free"},{"bike_id":"64194f69-83e6-42ee-9195-e95153f15492","system_id":"levelo_inurba_marseille","lat":43.286961,"lon":5.373785,"is_reserved":false,"is_disabled":false,"rental_uris":{"android":"levelo://app?vid=64194f69-83e6-42ee-9195-e95153f15492","ios":"levelo://app?vid=64194f69-83e6-42ee-9195-e95153f15492"},"vehicle_type_id":"4","last_reported":1703696773,"current_range_meters":10800,"station_id":"ce4bh3p2rcd13ifvqdq0","pricing_plan_id":"free"},{"bike_id":"008dd0c0-6bb4-402a-bc0d-60add2c1126c","system_id":"levelo_inurba_marseille","lat":43.295196,"lon":5.39397,"is_reserved":false,"is_disabled":false,"rental_uris":{"android":"levelo://app?vid=008dd0c0-6bb4-402a-bc0d-60add2c1126c","ios":"levelo://app?vid=008dd0c0-6bb4-402a-bc0d-60add2c1126c"},"vehicle_type_id":"4","last_reported":1703696773,"current_range_meters":20800,"station_id":"ce4bh292rcd13ifvqdf0","pricing_plan_id":"free"},{"bike_id":"9af5165f-ed6f-4b7e-a3ff-c14a8dc213c2","system_id":"levelo_inurba_marseille","lat":43.290345,"lon":5.38646,"is_reserved":false,"is_disabled":false,"rental_uris":{"android":"levelo://app?vid=9af5165f-ed6f-4b7e-a3ff-c14a8dc213c2","ios":"levelo://app?vid=9af5165f-ed6f-4b7e-a3ff-c14a8dc213c2"},"vehicle_type_id":"4","last_reported":1703696773,"current_range_meters":28000,"station_id":"ce4bh4p2rcd13ifvqe0g","pricing_plan_id":"free"},{"bike_id":"7e715c6e-291d-450b-8d2d-20c30ab2589b","system_id":"levelo_inurba_marseille","lat":43.289307,"lon":5.38406,"is_reserved":false,"is_disabled":false,"rental_uris":{"android":"levelo://app?vid=7e715c6e-291d-450b-8d2d-20c30ab2589b","ios":"levelo://app?vid=7e715c6e-291d-450b-8d2d-20c30ab2589b"},"vehicle_type_id":"4","last_reported":1703696773,"current_range_meters":4400,"station_id":"ce4bh612rcd13ifvqe6g","pricing_plan_id":"free"},{"bike_id":"b50c5c19-be63-4534-9ab4-a40a33398cb0","system_id":"levelo_inurba_marseille","lat":43.302759,"lon":5.400793,"is_reserved":false,"is_disabled":false,"rental_uris":{"android":"levelo://app?vid=b50c5c19-be63-4534-9ab4-a40a33398cb0","ios":"levelo://app?vid=b50c5c19-be63-4534-9ab4-a40a33398cb0"},"vehicle_type_id":"4","last_reported":1703696773,"current_range_meters":11600,"station_id":"ce4bgvh2rcd13ifvqcs0","pricing_plan_id":"free"},{"bike_id":"7b6756e4-e98d-40f2-a874-70634179c430","system_id":"levelo_inurba_marseille","lat":43.289307,"lon":5.38406,"is_reserved":false,"is_disabled":false,"rental_uris":{"android":"levelo://app?vid=7b6756e4-e98d-40f2-a874-70634179c430","ios":"levelo://app?vid=7b6756e4-e98d-40f2-a874-70634179c430"},"vehicle_type_id":"4","last_reported":1703696773,"current_range_meters":26400,"station_id":"ce4bh612rcd13ifvqe6g","pricing_plan_id":"free"},{"bike_id":"6002a6bf-62bd-4d84-bb26-3390cc28981d","system_id":"levelo_inurba_marseille","lat":43.290323,"lon":5.386467,"is_reserved":false,"is_disabled":false,"rental_uris":{"android":"levelo://app?vid=6002a6bf-62bd-4d84-bb26-3390cc28981d","ios":"levelo://app?vid=6002a6bf-62bd-4d84-bb26-3390cc28981d"},"vehicle_type_id":"4","last_reported":1703696773,"current_range_meters":17200,"station_id":"","pricing_plan_id":"free"},{"bike_id":"03250356-99e2-4cd9-978f-9d2b1cf61834","system_id":"levelo_inurba_marseille","lat":43.302759,"lon":5.400793,"is_reserved":false,"is_disabled":false,"rental_uris":{"android":"levelo://app?vid=03250356-99e2-4cd9-978f-9d2b1cf61834","ios":"levelo://app?vid=03250356-99e2-4cd9-978f-9d2b1cf61834"},"vehicle_type_id":"4","last_reported":1703696773,"current_range_meters":19200,"station_id":"ce4bgvh2rcd13ifvqcs0","pricing_plan_id":"free"},{"bike_id":"6934aee3-1d96-4c6b-91c1-57d6ca95361e","system_id":"levelo_inurba_marseille","lat":43.302759,"lon":5.400793,"is_reserved":false,"is_disabled":false,"rental_uris":{"android":"levelo://app?vid=6934aee3-1d96-4c6b-91c1-57d6ca95361e","ios":"levelo://app?vid=6934aee3-1d96-4c6b-91c1-57d6ca95361e"},"vehicle_type_id":"4","last_reported":1703696773,"current_range_meters":7200,"station_id":"ce4bgvh2rcd13ifvqcs0","pricing_plan_id":"free"},{"bike_id":"6eac4fb1-2e39-4019-83c3-b414927d94dd","system_id":"levelo_inurba_marseille","lat":43.286039,"lon":5.370681,"is_reserved":false,"is_disabled":false,"rental_uris":{"android":"levelo://app?vid=6eac4fb1-2e39-4019-83c3-b414927d94dd","ios":"levelo://app?vid=6eac4fb1-2e39-4019-83c3-b414927d94dd"},"vehicle_type_id":"4","last_reported":1703696773,"current_range_meters":26000,"station_id":"ce4bht12rcd13ifvqi60","pricing_plan_id":"free"},{"bike_id":"0a417a43-5140-4a33-9aaa-064c6134ebe4","system_id":"levelo_inurba_marseille","lat":43.286039,"lon":5.370679,"is_reserved":false,"is_disabled":false,"rental_uris":{"android":"levelo://app?vid=0a417a43-5140-4a33-9aaa-064c6134ebe4","ios":"levelo://app?vid=0a417a43-5140-4a33-9aaa-064c6134ebe4"},"vehicle_type_id":"4","last_reported":1703696773,"current_range_meters":32000,"station_id":"ce4bht12rcd13ifvqi60","pricing_plan_id":"free"},{"bike_id":"4692a5b3-492e-4a6f-9e7e-7f2fae58ddd0","system_id":"levelo_inurba_marseille","lat":43.286039,"lon":5.370681,"is_reserved":false,"is_disabled":false,"rental_uris":{"android":"levelo://app?vid=4692a5b3-492e-4a6f-9e7e-7f2fae58ddd0","ios":"levelo://app?vid=4692a5b3-492e-4a6f-9e7e-7f2fae58ddd0"},"vehicle_type_id":"4","last_reported":1703696773,"current_range_meters":11200,"station_id":"ce4bht12rcd13ifvqi60","pricing_plan_id":"free"},{"bike_id":"2e41ddd3-5539-4fd4-91cb-2b475651dfd9","system_id":"levelo_inurba_marseille","lat":43.286039,"lon":5.370679,"is_reserved":false,"is_disabled":false,"rental_uris":{"android":"levelo://app?vid=2e41ddd3-5539-4fd4-91cb-2b475651dfd9","ios":"levelo://app?vid=2e41ddd3-5539-4fd4-91cb-2b475651dfd9"},"vehicle_type_id":"4","last_reported":1703696773,"current_range_meters":800,"station_id":"ce4bht12rcd13ifvqi60","pricing_plan_id":"free"},{"bike_id":"b7fdfbba-e7df-4062-8e1b-fcfbf27ddd1c","system_id":"levelo_inurba_marseille","lat":43.286039,"lon":5.370679,"is_reserved":false,"is_disabled":false,"rental_uris":{"android":"levelo://app?vid=b7fdfbba-e7df-4062-8e1b-fcfbf27ddd1c","ios":"levelo://app?vid=b7fdfbba-e7df-4062-8e1b-fcfbf27ddd1c"},"vehicle_type_id":"4","last_reported":1703696773,"current_range_meters":23200,"station_id":"ce4bht12rcd13ifvqi60","pricing_plan_id":"free"},{"bike_id":"2894883c-b0bb-453e-b4a5-f945273e5dfa","system_id":"levelo_inurba_marseille","lat":43.286039,"lon":5.370681,"is_reserved":false,"is_disabled":false,"rental_uris":{"android":"levelo://app?vid=2894883c-b0bb-453e-b4a5-f945273e5dfa","ios":"levelo://app?vid=2894883c-b0bb-453e-b4a5-f945273e5dfa"},"vehicle_type_id":"4","last_reported":1703696773,"current_range_meters":16400,"station_id":"ce4bht12rcd13ifvqi60","pricing_plan_id":"free"},{"bike_id":"38d8412b-e1eb-44d4-a17e-b0db5dad2402","system_id":"levelo_inurba_marseille","lat":43.286039,"lon":5.370679,"is_reserved":false,"is_disabled":false,"rental_uris":{"android":"levelo://app?vid=38d8412b-e1eb-44d4-a17e-b0db5dad2402","ios":"levelo://app?vid=38d8412b-e1eb-44d4-a17e-b0db5dad2402"},"vehicle_type_id":"4","last_reported":1703696773,"current_range_meters":31600,"station_id":"ce4bht12rcd13ifvqi60","pricing_plan_id":"free"},{"bike_id":"23709f5c-9109-481b-a6c5-29f3e262869c","system_id":"levelo_inurba_marseille","lat":43.287184,"lon":5.37937,"is_reserved":false,"is_disabled":false,"rental_uris":{"android":"levelo://app?vid=23709f5c-9109-481b-a6c5-29f3e262869c","ios":"levelo://app?vid=23709f5c-9109-481b-a6c5-29f3e262869c"},"vehicle_type_id":"4","last_reported":1703696773,"current_range_meters":16000,"station_id":"ce4bh9p2rcd13ifvqec0","pricing_plan_id":"free"},{"bike_id":"5ca28f22-e835-4044-9c28-43a41a6d8445","system_id":"levelo_inurba_marseille","lat":43.287184,"lon":5.37937,"is_reserved":false,"is_disabled":false,"rental_uris":{"android":"levelo://app?vid=5ca28f22-e835-4044-9c28-43a41a6d8445","ios":"levelo://app?vid=5ca28f22-e835-4044-9c28-43a41a6d8445"},"vehicle_type_id":"4","last_reported":1703696773,"current_range_meters":27200,"station_id":"ce4bh9p2rcd13ifvqec0","pricing_plan_id":"free"},{"bike_id":"b462560e-3d7e-427b-a3a6-c4a89af87d5c","system_id":"levelo_inurba_marseille","lat":43.287185,"lon":5.379373,"is_reserved":false,"is_disabled":false,"rental_uris":{"android":"levelo://app?vid=b462560e-3d7e-427b-a3a6-c4a89af87d5c","ios":"levelo://app?vid=b462560e-3d7e-427b-a3a6-c4a89af87d5c"},"vehicle_type_id":"4","last_reported":1703696773,"current_range_meters":18400,"station_id":"ce4bh9p2rcd13ifvqec0","pricing_plan_id":"free"},{"bike_id":"eb6936fb-2b7b-4075-a57d-7be19a3ee0cc","system_id":"levelo_inurba_marseille","lat":43.287185,"lon":5.379373,"is_reserved":false,"is_disabled":false,"rental_uris":{"android":"levelo://app?vid=eb6936fb-2b7b-4075-a57d-7be19a3ee0cc","ios":"levelo://app?vid=eb6936fb-2b7b-4075-a57d-7be19a3ee0cc"},"vehicle_type_id":"4","last_reported":1703696773,"current_range_meters":10000,"station_id":"ce4bh9p2rcd13ifvqec0","pricing_plan_id":"free"},{"bike_id":"60b8c358-113c-45e9-945a-1f67dba53cec","system_id":"levelo_inurba_marseille","lat":43.291994,"lon":5.392907,"is_reserved":false,"is_disabled":false,"rental_uris":{"android":"levelo://app?vid=60b8c358-113c-45e9-945a-1f67dba53cec","ios":"levelo://app?vid=60b8c358-113c-45e9-945a-1f67dba53cec"},"vehicle_type_id":"4","last_reported":1703696773,"current_range_meters":21600,"station_id":"ce4bh192rcd13ifvqdd0","pricing_plan_id":"free"},{"bike_id":"e2adfa7c-882e-48a1-9ee4-b36e6186ebbf","system_id":"levelo_inurba_marseille","lat":43.330912,"lon":5.396935,"is_reserved":false,"is_disabled":false,"rental_uris":{"android":"levelo://app?vid=e2adfa7c-882e-48a1-9ee4-b36e6186ebbf","ios":"levelo://app?vid=e2adfa7c-882e-48a1-9ee4-b36e6186ebbf"},"vehicle_type_id":"4","last_reported":1703696773,"current_range_meters":0,"station_id":"","pricing_plan_id":"free"},{"bike_id":"d7969ba6-7f9b-434b-a6d1-4356015e812d","system_id":"levelo_inurba_marseille","lat":43.284538,"lon":5.358657,"is_reserved":false,"is_disabled":false,"rental_uris":{"android":"levelo://app?vid=d7969ba6-7f9b-434b-a6d1-4356015e812d","ios":"levelo://app?vid=d7969ba6-7f9b-434b-a6d1-4356015e812d"},"vehicle_type_id":"4","last_reported":1703696773,"current_range_meters":21200,"station_id":"ce4bhah2rcd13ifvqei0","pricing_plan_id":"free"},{"bike_id":"92c65f2f-fd71-4c2b-9b84-0f1a1b0d5d10","system_id":"levelo_inurba_marseille","lat":43.284538,"lon":5.358657,"is_reserved":false,"is_disabled":false,"rental_uris":{"android":"levelo://app?vid=92c65f2f-fd71-4c2b-9b84-0f1a1b0d5d10","ios":"levelo://app?vid=92c65f2f-fd71-4c2b-9b84-0f1a1b0d5d10"},"vehicle_type_id":"4","last_reported":1703696773,"current_range_meters":11600,"station_id":"ce4bhah2rcd13ifvqei0","pricing_plan_id":"free"},{"bike_id":"073ed384-4488-4f6c-b37d-730b3dcc87e6","system_id":"levelo_inurba_marseille","lat":43.294314,"lon":5.397498,"is_reserved":false,"is_disabled":false,"rental_uris":{"android":"levelo://app?vid=073ed384-4488-4f6c-b37d-730b3dcc87e6","ios":"levelo://app?vid=073ed384-4488-4f6c-b37d-730b3dcc87e6"},"vehicle_type_id":"4","last_reported":1703696773,"current_range_meters":18800,"station_id":"ce4bh3h2rcd13ifvqdo0","pricing_plan_id":"free"},{"bike_id":"015ae716-072b-42bd-afed-84a0da422e90","system_id":"levelo_inurba_marseille","lat":43.294314,"lon":5.397498,"is_reserved":false,"is_disabled":false,"rental_uris":{"android":"levelo://app?vid=015ae716-072b-42bd-afed-84a0da422e90","ios":"levelo://app?vid=015ae716-072b-42bd-afed-84a0da422e90"},"vehicle_type_id":"4","last_reported":1703696773,"current_range_meters":24800,"station_id":"ce4bh3h2rcd13ifvqdo0","pricing_plan_id":"free"},{"bike_id":"650cb123-9408-400f-88cd-6d2a2b83d786","system_id":"levelo_inurba_marseille","lat":43.284534,"lon":5.358662,"is_reserved":false,"is_disabled":false,"rental_uris":{"android":"levelo://app?vid=650cb123-9408-400f-88cd-6d2a2b83d786","ios":"levelo://app?vid=650cb123-9408-400f-88cd-6d2a2b83d786"},"vehicle_type_id":"4","last_reported":1703696773,"current_range_meters":17600,"station_id":"ce4bhah2rcd13ifvqei0","pricing_plan_id":"free"},{"bike_id":"4cbcdfa0-0384-462c-8599-2a72400c5252","system_id":"levelo_inurba_marseille","lat":43.284538,"lon":5.358657,"is_reserved":false,"is_disabled":false,"rental_uris":{"android":"levelo://app?vid=4cbcdfa0-0384-462c-8599-2a72400c5252","ios":"levelo://app?vid=4cbcdfa0-0384-462c-8599-2a72400c5252"},"vehicle_type_id":"4","last_reported":1703696773,"current_range_meters":2000,"station_id":"ce4bhah2rcd13ifvqei0","pricing_plan_id":"free"},{"bike_id":"653cc390-f554-4b40-b516-481d3cf5e380","system_id":"levelo_inurba_marseille","lat":43.285856,"lon":5.350771,"is_reserved":false,"is_disabled":false,"rental_uris":{"android":"levelo://app?vid=653cc390-f554-4b40-b516-481d3cf5e380","ios":"levelo://app?vid=653cc390-f554-4b40-b516-481d3cf5e380"},"vehicle_type_id":"4","last_reported":1703696773,"current_range_meters":14000,"station_id":"ce4bhch2rcd13ifvqeug","pricing_plan_id":"free"},{"bike_id":"0edd4ab1-21ac-455f-974a-ef70fa29950a","system_id":"levelo_inurba_marseille","lat":43.285856,"lon":5.350771,"is_reserved":false,"is_disabled":false,"rental_uris":{"android":"levelo://app?vid=0edd4ab1-21ac-455f-974a-ef70fa29950a","ios":"levelo://app?vid=0edd4ab1-21ac-455f-974a-ef70fa29950a"},"vehicle_type_id":"4","last_reported":1703696773,"current_range_meters":15200,"station_id":"ce4bhch2rcd13ifvqeug","pricing_plan_id":"free"},{"bike_id":"774c18f5-2070-4236-8e10-6e3669bd8f11","system_id":"levelo_inurba_marseille","lat":43.285856,"lon":5.350771,"is_reserved":false,"is_disabled":false,"rental_uris":{"android":"levelo://app?vid=774c18f5-2070-4236-8e10-6e3669bd8f11","ios":"levelo://app?vid=774c18f5-2070-4236-8e10-6e3669bd8f11"},"vehicle_type_id":"4","last_reported":1703696773,"current_range_meters":14800,"station_id":"ce4bhch2rcd13ifvqeug","pricing_plan_id":"free"},{"bike_id":"48667880-3f3e-4360-a6f9-282b68fed078","system_id":"levelo_inurba_marseille","lat":43.283998,"lon":5.375062,"is_reserved":false,"is_disabled":false,"rental_uris":{"android":"levelo://app?vid=48667880-3f3e-4360-a6f9-282b68fed078","ios":"levelo://app?vid=48667880-3f3e-4360-a6f9-282b68fed078"},"vehicle_type_id":"4","last_reported":1703696773,"current_range_meters":12800,"station_id":"ce4bh412rcd13ifvqds0","pricing_plan_id":"free"},{"bike_id":"3826199f-0e7e-4cba-9e2a-0d83c3e88a76","system_id":"levelo_inurba_marseille","lat":43.283998,"lon":5.375062,"is_reserved":false,"is_disabled":false,"rental_uris":{"android":"levelo://app?vid=3826199f-0e7e-4cba-9e2a-0d83c3e88a76","ios":"levelo://app?vid=3826199f-0e7e-4cba-9e2a-0d83c3e88a76"},"vehicle_type_id":"4","last_reported":1703696773,"current_range_meters":23200,"station_id":"ce4bh412rcd13ifvqds0","pricing_plan_id":"free"},{"bike_id":"0316090b-c9d7-4467-915a-295b044fbfee","system_id":"levelo_inurba_marseille","lat":43.283998,"lon":5.375062,"is_reserved":false,"is_disabled":false,"rental_uris":{"android":"levelo://app?vid=0316090b-c9d7-4467-915a-295b044fbfee","ios":"levelo://app?vid=0316090b-c9d7-4467-915a-295b044fbfee"},"vehicle_type_id":"4","last_reported":1703696773,"current_range_meters":31200,"station_id":"ce4bh412rcd13ifvqds0","pricing_plan_id":"free"},{"bike_id":"70187e51-f572-4e2a-9e11-b13fdf2cc7c2","system_id":"levelo_inurba_marseille","lat":43.283998,"lon":5.375062,"is_reserved":false,"is_disabled":false,"rental_uris":{"android":"levelo://app?vid=70187e51-f572-4e2a-9e11-b13fdf2cc7c2","ios":"levelo://app?vid=70187e51-f572-4e2a-9e11-b13fdf2cc7c2"},"vehicle_type_id":"4","last_reported":1703696773,"current_range_meters":10800,"station_id":"ce4bh412rcd13ifvqds0","pricing_plan_id":"free"},{"bike_id":"cdb63b9a-d087-4bcc-9202-4f3862241a13","system_id":"levelo_inurba_marseille","lat":43.283998,"lon":5.375062,"is_reserved":false,"is_disabled":false,"rental_uris":{"android":"levelo://app?vid=cdb63b9a-d087-4bcc-9202-4f3862241a13","ios":"levelo://app?vid=cdb63b9a-d087-4bcc-9202-4f3862241a13"},"vehicle_type_id":"4","last_reported":1703696773,"current_range_meters":25200,"station_id":"ce4bh412rcd13ifvqds0","pricing_plan_id":"free"},{"bike_id":"d7bea775-b801-4a8d-a719-34d127f24d01","system_id":"levelo_inurba_marseille","lat":43.283998,"lon":5.375062,"is_reserved":false,"is_disabled":false,"rental_uris":{"android":"levelo://app?vid=d7bea775-b801-4a8d-a719-34d127f24d01","ios":"levelo://app?vid=d7bea775-b801-4a8d-a719-34d127f24d01"},"vehicle_type_id":"4","last_reported":1703696773,"current_range_meters":17200,"station_id":"ce4bh412rcd13ifvqds0","pricing_plan_id":"free"},{"bike_id":"6fbc9c50-be58-4384-bc30-8dddc0da215f","system_id":"levelo_inurba_marseille","lat":43.283998,"lon":5.375062,"is_reserved":false,"is_disabled":false,"rental_uris":{"android":"levelo://app?vid=6fbc9c50-be58-4384-bc30-8dddc0da215f","ios":"levelo://app?vid=6fbc9c50-be58-4384-bc30-8dddc0da215f"},"vehicle_type_id":"4","last_reported":1703696773,"current_range_meters":9600,"station_id":"ce4bh412rcd13ifvqds0","pricing_plan_id":"free"},{"bike_id":"621c9702-aa25-48b3-bffc-79eaf80e89a1","system_id":"levelo_inurba_marseille","lat":43.295713,"lon":5.399639,"is_reserved":false,"is_disabled":false,"rental_uris":{"android":"levelo://app?vid=621c9702-aa25-48b3-bffc-79eaf80e89a1","ios":"levelo://app?vid=621c9702-aa25-48b3-bffc-79eaf80e89a1"},"vehicle_type_id":"4","last_reported":1703696773,"current_range_meters":14800,"station_id":"ce4bh312rcd13ifvqdj0","pricing_plan_id":"free"},{"bike_id":"54e18001-19c5-4c47-8d36-a917ed94e9d5","system_id":"levelo_inurba_marseille","lat":43.295713,"lon":5.399639,"is_reserved":false,"is_disabled":false,"rental_uris":{"android":"levelo://app?vid=54e18001-19c5-4c47-8d36-a917ed94e9d5","ios":"levelo://app?vid=54e18001-19c5-4c47-8d36-a917ed94e9d5"},"vehicle_type_id":"4","last_reported":1703696773,"current_range_meters":16400,"station_id":"ce4bh312rcd13ifvqdj0","pricing_plan_id":"free"},{"bike_id":"2356c314-a82b-4528-b1e1-3ca261035721","system_id":"levelo_inurba_marseille","lat":43.286595,"lon":5.386795,"is_reserved":false,"is_disabled":false,"rental_uris":{"android":"levelo://app?vid=2356c314-a82b-4528-b1e1-3ca261035721","ios":"levelo://app?vid=2356c314-a82b-4528-b1e1-3ca261035721"},"vehicle_type_id":"4","last_reported":1703696773,"current_range_meters":20800,"station_id":"ce4bh492rcd13ifvqdug","pricing_plan_id":"free"},{"bike_id":"833964c8-8ec1-4d92-91bb-9c5bfd6e54d7","system_id":"levelo_inurba_marseille","lat":43.286595,"lon":5.386795,"is_reserved":false,"is_disabled":false,"rental_uris":{"android":"levelo://app?vid=833964c8-8ec1-4d92-91bb-9c5bfd6e54d7","ios":"levelo://app?vid=833964c8-8ec1-4d92-91bb-9c5bfd6e54d7"},"vehicle_type_id":"4","last_reported":1703696773,"current_range_meters":20800,"station_id":"ce4bh492rcd13ifvqdug","pricing_plan_id":"free"},{"bike_id":"370cccf7-c9ba-46c2-819b-c8e8cacc4c21","system_id":"levelo_inurba_marseille","lat":43.33208,"lon":5.39823,"is_reserved":false,"is_disabled":false,"rental_uris":{"android":"levelo://app?vid=370cccf7-c9ba-46c2-819b-c8e8cacc4c21","ios":"levelo://app?vid=370cccf7-c9ba-46c2-819b-c8e8cacc4c21"},"vehicle_type_id":"4","last_reported":1703696773,"current_range_meters":18000,"station_id":"","pricing_plan_id":"free"},{"bike_id":"64945d1b-908e-4b8b-bd5d-32697c4610cc","system_id":"levelo_inurba_marseille","lat":43.319179,"lon":5.407725,"is_reserved":false,"is_disabled":false,"rental_uris":{"android":"levelo://app?vid=64945d1b-908e-4b8b-bd5d-32697c4610cc","ios":"levelo://app?vid=64945d1b-908e-4b8b-bd5d-32697c4610cc"},"vehicle_type_id":"4","last_reported":1703696773,"current_range_meters":20800,"station_id":"ce4bhq12rcd13ifvqhig","pricing_plan_id":"free"},{"bike_id":"c56fa5c4-bd28-4d63-a8a5-ae1a58f0c655","system_id":"levelo_inurba_marseille","lat":43.28741,"lon":5.38986,"is_reserved":false,"is_disabled":false,"rental_uris":{"android":"levelo://app?vid=c56fa5c4-bd28-4d63-a8a5-ae1a58f0c655","ios":"levelo://app?vid=c56fa5c4-bd28-4d63-a8a5-ae1a58f0c655"},"vehicle_type_id":"4","last_reported":1703696773,"current_range_meters":2400,"station_id":"","pricing_plan_id":"free"},{"bike_id":"381844c3-e025-4ad4-8b5b-45e3143ae1c8","system_id":"levelo_inurba_marseille","lat":43.323464,"lon":5.406297,"is_reserved":false,"is_disabled":false,"rental_uris":{"android":"levelo://app?vid=381844c3-e025-4ad4-8b5b-45e3143ae1c8","ios":"levelo://app?vid=381844c3-e025-4ad4-8b5b-45e3143ae1c8"},"vehicle_type_id":"4","last_reported":1703696773,"current_range_meters":15600,"station_id":"ce4bhq92rcd13ifvqhjg","pricing_plan_id":"free"},{"bike_id":"49b1c88b-18f4-45e6-8539-960a1d0da850","system_id":"levelo_inurba_marseille","lat":43.33717,"lon":5.391857,"is_reserved":false,"is_disabled":false,"rental_uris":{"android":"levelo://app?vid=49b1c88b-18f4-45e6-8539-960a1d0da850","ios":"levelo://app?vid=49b1c88b-18f4-45e6-8539-960a1d0da850"},"vehicle_type_id":"4","last_reported":1703696773,"current_range_meters":29200,"station_id":"ce4bhr92rcd13ifvqhsg","pricing_plan_id":"free"},{"bike_id":"1b3f0559-ed93-4f22-a880-1c93c5450d4f","system_id":"levelo_inurba_marseille","lat":43.283494,"lon":5.380945,"is_reserved":false,"is_disabled":false,"rental_uris":{"android":"levelo://app?vid=1b3f0559-ed93-4f22-a880-1c93c5450d4f","ios":"levelo://app?vid=1b3f0559-ed93-4f22-a880-1c93c5450d4f"},"vehicle_type_id":"4","last_reported":1703696773,"current_range_meters":18400,"station_id":"ce4bh412rcd13ifvqdr0","pricing_plan_id":"free"},{"bike_id":"e2c58987-b087-406e-ab3f-a64b2a9cf9fc","system_id":"levelo_inurba_marseille","lat":43.284787,"lon":5.384116,"is_reserved":false,"is_disabled":false,"rental_uris":{"android":"levelo://app?vid=e2c58987-b087-406e-ab3f-a64b2a9cf9fc","ios":"levelo://app?vid=e2c58987-b087-406e-ab3f-a64b2a9cf9fc"},"vehicle_type_id":"4","last_reported":1703696773,"current_range_meters":15600,"station_id":"ce4bh512rcd13ifvqe3g","pricing_plan_id":"free"},{"bike_id":"e8e61739-ba3a-46f2-9b50-8cfd836905bc","system_id":"levelo_inurba_marseille","lat":43.297946,"lon":5.404063,"is_reserved":false,"is_disabled":false,"rental_uris":{"android":"levelo://app?vid=e8e61739-ba3a-46f2-9b50-8cfd836905bc","ios":"levelo://app?vid=e8e61739-ba3a-46f2-9b50-8cfd836905bc"},"vehicle_type_id":"4","last_reported":1703696773,"current_range_meters":17200,"station_id":"ce4bh112rcd13ifvqd90","pricing_plan_id":"free"},{"bike_id":"d60802d6-4f47-444a-b234-883690eec05b","system_id":"levelo_inurba_marseille","lat":43.3327,"lon":5.39912,"is_reserved":false,"is_disabled":false,"rental_uris":{"android":"levelo://app?vid=d60802d6-4f47-444a-b234-883690eec05b","ios":"levelo://app?vid=d60802d6-4f47-444a-b234-883690eec05b"},"vehicle_type_id":"4","last_reported":1703696773,"current_range_meters":31200,"station_id":"","pricing_plan_id":"free"},{"bike_id":"db409e8d-b5f7-42b2-9ea5-5ce1a96baa17","system_id":"levelo_inurba_marseille","lat":43.29795,"lon":5.404086,"is_reserved":false,"is_disabled":false,"rental_uris":{"android":"levelo://app?vid=db409e8d-b5f7-42b2-9ea5-5ce1a96baa17","ios":"levelo://app?vid=db409e8d-b5f7-42b2-9ea5-5ce1a96baa17"},"vehicle_type_id":"4","last_reported":1703696773,"current_range_meters":30800,"station_id":"ce4bh112rcd13ifvqd90","pricing_plan_id":"free"},{"bike_id":"8cd5b04f-95e7-42f1-baed-0fd1f33834ec","system_id":"levelo_inurba_marseille","lat":43.297946,"lon":5.404063,"is_reserved":false,"is_disabled":false,"rental_uris":{"android":"levelo://app?vid=8cd5b04f-95e7-42f1-baed-0fd1f33834ec","ios":"levelo://app?vid=8cd5b04f-95e7-42f1-baed-0fd1f33834ec"},"vehicle_type_id":"4","last_reported":1703696773,"current_range_meters":25200,"station_id":"ce4bh112rcd13ifvqd90","pricing_plan_id":"free"},{"bike_id":"b879f201-00bb-4129-9ce6-dd36b3bdef5d","system_id":"levelo_inurba_marseille","lat":43.283494,"lon":5.380945,"is_reserved":false,"is_disabled":false,"rental_uris":{"android":"levelo://app?vid=b879f201-00bb-4129-9ce6-dd36b3bdef5d","ios":"levelo://app?vid=b879f201-00bb-4129-9ce6-dd36b3bdef5d"},"vehicle_type_id":"4","last_reported":1703696773,"current_range_meters":22800,"station_id":"ce4bh412rcd13ifvqdr0","pricing_plan_id":"free"},{"bike_id":"0204802c-7b21-4d81-a463-05eef6116782","system_id":"levelo_inurba_marseille","lat":43.283498,"lon":5.380948,"is_reserved":false,"is_disabled":false,"rental_uris":{"android":"levelo://app?vid=0204802c-7b21-4d81-a463-05eef6116782","ios":"levelo://app?vid=0204802c-7b21-4d81-a463-05eef6116782"},"vehicle_type_id":"4","last_reported":1703696773,"current_range_meters":31200,"station_id":"ce4bh412rcd13ifvqdr0","pricing_plan_id":"free"},{"bike_id":"e485450b-2736-4f4c-b94b-0da5a69b88aa","system_id":"levelo_inurba_marseille","lat":43.33385,"lon":5.39822,"is_reserved":false,"is_disabled":false,"rental_uris":{"android":"levelo://app?vid=e485450b-2736-4f4c-b94b-0da5a69b88aa","ios":"levelo://app?vid=e485450b-2736-4f4c-b94b-0da5a69b88aa"},"vehicle_type_id":"4","last_reported":1703696773,"current_range_meters":18000,"station_id":"","pricing_plan_id":"free"},{"bike_id":"b5c6f71d-8038-4cc3-acb9-4741dd10c5e6","system_id":"levelo_inurba_marseille","lat":43.284214,"lon":5.349706,"is_reserved":false,"is_disabled":false,"rental_uris":{"android":"levelo://app?vid=b5c6f71d-8038-4cc3-acb9-4741dd10c5e6","ios":"levelo://app?vid=b5c6f71d-8038-4cc3-acb9-4741dd10c5e6"},"vehicle_type_id":"4","last_reported":1703696773,"current_range_meters":30800,"station_id":"ce4bhbh2rcd13ifvqepg","pricing_plan_id":"free"},{"bike_id":"a003fbbd-1d07-4c8b-8266-7ebfa850a9a9","system_id":"levelo_inurba_marseille","lat":43.284217,"lon":5.349697,"is_reserved":false,"is_disabled":false,"rental_uris":{"android":"levelo://app?vid=a003fbbd-1d07-4c8b-8266-7ebfa850a9a9","ios":"levelo://app?vid=a003fbbd-1d07-4c8b-8266-7ebfa850a9a9"},"vehicle_type_id":"4","last_reported":1703696773,"current_range_meters":29600,"station_id":"ce4bhbh2rcd13ifvqepg","pricing_plan_id":"free"},{"bike_id":"d4855756-550a-4785-a45e-45bd3c17e076","system_id":"levelo_inurba_marseille","lat":43.284217,"lon":5.349697,"is_reserved":false,"is_disabled":false,"rental_uris":{"android":"levelo://app?vid=d4855756-550a-4785-a45e-45bd3c17e076","ios":"levelo://app?vid=d4855756-550a-4785-a45e-45bd3c17e076"},"vehicle_type_id":"4","last_reported":1703696773,"current_range_meters":24000,"station_id":"ce4bhbh2rcd13ifvqepg","pricing_plan_id":"free"},{"bike_id":"d4f67be5-a519-4fd5-a0aa-19d76fd430ea","system_id":"levelo_inurba_marseille","lat":43.284214,"lon":5.349706,"is_reserved":false,"is_disabled":false,"rental_uris":{"android":"levelo://app?vid=d4f67be5-a519-4fd5-a0aa-19d76fd430ea","ios":"levelo://app?vid=d4f67be5-a519-4fd5-a0aa-19d76fd430ea"},"vehicle_type_id":"4","last_reported":1703696773,"current_range_meters":28400,"station_id":"ce4bhbh2rcd13ifvqepg","pricing_plan_id":"free"},{"bike_id":"10f78c7d-4db4-4cee-9406-f0c186f8bd9b","system_id":"levelo_inurba_marseille","lat":43.284217,"lon":5.349697,"is_reserved":false,"is_disabled":false,"rental_uris":{"android":"levelo://app?vid=10f78c7d-4db4-4cee-9406-f0c186f8bd9b","ios":"levelo://app?vid=10f78c7d-4db4-4cee-9406-f0c186f8bd9b"},"vehicle_type_id":"4","last_reported":1703696773,"current_range_meters":30000,"station_id":"ce4bhbh2rcd13ifvqepg","pricing_plan_id":"free"},{"bike_id":"5721af70-5384-4698-bad4-5c0c8073ab43","system_id":"levelo_inurba_marseille","lat":43.28415,"lon":5.34975,"is_reserved":false,"is_disabled":false,"rental_uris":{"android":"levelo://app?vid=5721af70-5384-4698-bad4-5c0c8073ab43","ios":"levelo://app?vid=5721af70-5384-4698-bad4-5c0c8073ab43"},"vehicle_type_id":"4","last_reported":1703696773,"current_range_meters":20800,"station_id":"ce4bhbh2rcd13ifvqepg","pricing_plan_id":"free"},{"bike_id":"64e05ef8-c925-487e-8260-a8aa4ac24aed","system_id":"levelo_inurba_marseille","lat":43.28411,"lon":5.34983,"is_reserved":false,"is_disabled":false,"rental_uris":{"android":"levelo://app?vid=64e05ef8-c925-487e-8260-a8aa4ac24aed","ios":"levelo://app?vid=64e05ef8-c925-487e-8260-a8aa4ac24aed"},"vehicle_type_id":"4","last_reported":1703696773,"current_range_meters":0,"station_id":"ce4bhbh2rcd13ifvqepg","pricing_plan_id":"free"},{"bike_id":"3938d839-30dc-4204-9018-35ce6953c955","system_id":"levelo_inurba_marseille","lat":43.284214,"lon":5.349706,"is_reserved":false,"is_disabled":false,"rental_uris":{"android":"levelo://app?vid=3938d839-30dc-4204-9018-35ce6953c955","ios":"levelo://app?vid=3938d839-30dc-4204-9018-35ce6953c955"},"vehicle_type_id":"4","last_reported":1703696773,"current_range_meters":7200,"station_id":"ce4bhbh2rcd13ifvqepg","pricing_plan_id":"free"},{"bike_id":"8f9355a9-bd82-4ae9-8bc8-4cc7619c510e","system_id":"levelo_inurba_marseille","lat":43.283502,"lon":5.386471,"is_reserved":false,"is_disabled":false,"rental_uris":{"android":"levelo://app?vid=8f9355a9-bd82-4ae9-8bc8-4cc7619c510e","ios":"levelo://app?vid=8f9355a9-bd82-4ae9-8bc8-4cc7619c510e"},"vehicle_type_id":"4","last_reported":1703696773,"current_range_meters":17200,"station_id":"ce4bh492rcd13ifvqdvg","pricing_plan_id":"free"},{"bike_id":"cd7e87c1-ac87-42cd-9c71-dbe446701dff","system_id":"levelo_inurba_marseille","lat":43.296263,"lon":5.40601,"is_reserved":false,"is_disabled":false,"rental_uris":{"android":"levelo://app?vid=cd7e87c1-ac87-42cd-9c71-dbe446701dff","ios":"levelo://app?vid=cd7e87c1-ac87-42cd-9c71-dbe446701dff"},"vehicle_type_id":"4","last_reported":1703696773,"current_range_meters":24800,"station_id":"ce4bh0h2rcd13ifvqd60","pricing_plan_id":"free"},{"bike_id":"d216c555-0672-4c51-a164-1f19423a3b92","system_id":"levelo_inurba_marseille","lat":43.296263,"lon":5.40601,"is_reserved":false,"is_disabled":false,"rental_uris":{"android":"levelo://app?vid=d216c555-0672-4c51-a164-1f19423a3b92","ios":"levelo://app?vid=d216c555-0672-4c51-a164-1f19423a3b92"},"vehicle_type_id":"4","last_reported":1703696773,"current_range_meters":23600,"station_id":"ce4bh0h2rcd13ifvqd60","pricing_plan_id":"free"},{"bike_id":"e0f7ddc5-e2c0-46b9-939c-2058ac2ba8a0","system_id":"levelo_inurba_marseille","lat":43.281044,"lon":5.378308,"is_reserved":false,"is_disabled":false,"rental_uris":{"android":"levelo://app?vid=e0f7ddc5-e2c0-46b9-939c-2058ac2ba8a0","ios":"levelo://app?vid=e0f7ddc5-e2c0-46b9-939c-2058ac2ba8a0"},"vehicle_type_id":"4","last_reported":1703696773,"current_range_meters":18400,"station_id":"ce4bha12rcd13ifvqee0","pricing_plan_id":"free"},{"bike_id":"41c03c81-ceb4-4058-adae-8b786bab4303","system_id":"levelo_inurba_marseille","lat":43.289433,"lon":5.39998,"is_reserved":false,"is_disabled":false,"rental_uris":{"android":"levelo://app?vid=41c03c81-ceb4-4058-adae-8b786bab4303","ios":"levelo://app?vid=41c03c81-ceb4-4058-adae-8b786bab4303"},"vehicle_type_id":"4","last_reported":1703696773,"current_range_meters":0,"station_id":"","pricing_plan_id":"free"},{"bike_id":"a4e98aa9-f1b2-433a-97c5-10547a34712b","system_id":"levelo_inurba_marseille","lat":43.284462,"lon":5.392121,"is_reserved":false,"is_disabled":false,"rental_uris":{"android":"levelo://app?vid=a4e98aa9-f1b2-433a-97c5-10547a34712b","ios":"levelo://app?vid=a4e98aa9-f1b2-433a-97c5-10547a34712b"},"vehicle_type_id":"4","last_reported":1703696773,"current_range_meters":26400,"station_id":"ce4bhoh2rcd13ifvqh5g","pricing_plan_id":"free"},{"bike_id":"50f5f9f1-88bd-4e16-9dd2-87d1d8a558fa","system_id":"levelo_inurba_marseille","lat":43.326605,"lon":5.409903,"is_reserved":false,"is_disabled":false,"rental_uris":{"android":"levelo://app?vid=50f5f9f1-88bd-4e16-9dd2-87d1d8a558fa","ios":"levelo://app?vid=50f5f9f1-88bd-4e16-9dd2-87d1d8a558fa"},"vehicle_type_id":"4","last_reported":1703696773,"current_range_meters":26800,"station_id":"ce4bhpp2rcd13ifvqhgg","pricing_plan_id":"free"},{"bike_id":"4db615f4-c98b-4d77-b0dc-096fb7fedc50","system_id":"levelo_inurba_marseille","lat":43.304188,"lon":5.412904,"is_reserved":false,"is_disabled":false,"rental_uris":{"android":"levelo://app?vid=4db615f4-c98b-4d77-b0dc-096fb7fedc50","ios":"levelo://app?vid=4db615f4-c98b-4d77-b0dc-096fb7fedc50"},"vehicle_type_id":"4","last_reported":1703696773,"current_range_meters":800,"station_id":"ce4bhop2rcd13ifvqh8g","pricing_plan_id":"free"},{"bike_id":"c9d73eed-5888-4e39-be0e-da9a3b48d0b3","system_id":"levelo_inurba_marseille","lat":43.283633,"lon":5.392028,"is_reserved":false,"is_disabled":false,"rental_uris":{"android":"levelo://app?vid=c9d73eed-5888-4e39-be0e-da9a3b48d0b3","ios":"levelo://app?vid=c9d73eed-5888-4e39-be0e-da9a3b48d0b3"},"vehicle_type_id":"4","last_reported":1703696773,"current_range_meters":22400,"station_id":"","pricing_plan_id":"free"},{"bike_id":"edc92465-6d00-4372-be19-bd8de723b1a6","system_id":"levelo_inurba_marseille","lat":43.304188,"lon":5.412904,"is_reserved":false,"is_disabled":false,"rental_uris":{"android":"levelo://app?vid=edc92465-6d00-4372-be19-bd8de723b1a6","ios":"levelo://app?vid=edc92465-6d00-4372-be19-bd8de723b1a6"},"vehicle_type_id":"4","last_reported":1703696773,"current_range_meters":9600,"station_id":"ce4bhop2rcd13ifvqh8g","pricing_plan_id":"free"},{"bike_id":"41b59856-6d85-4403-af7d-51e6d1cd4c98","system_id":"levelo_inurba_marseille","lat":43.304188,"lon":5.412904,"is_reserved":false,"is_disabled":false,"rental_uris":{"android":"levelo://app?vid=41b59856-6d85-4403-af7d-51e6d1cd4c98","ios":"levelo://app?vid=41b59856-6d85-4403-af7d-51e6d1cd4c98"},"vehicle_type_id":"4","last_reported":1703696773,"current_range_meters":30000,"station_id":"ce4bhop2rcd13ifvqh8g","pricing_plan_id":"free"},{"bike_id":"a4a5ccde-62af-4c28-95c1-d68b50703509","system_id":"levelo_inurba_marseille","lat":43.3268,"lon":5.41042,"is_reserved":false,"is_disabled":false,"rental_uris":{"android":"levelo://app?vid=a4a5ccde-62af-4c28-95c1-d68b50703509","ios":"levelo://app?vid=a4a5ccde-62af-4c28-95c1-d68b50703509"},"vehicle_type_id":"4","last_reported":1703696773,"current_range_meters":25600,"station_id":"ce4bhpp2rcd13ifvqhgg","pricing_plan_id":"free"},{"bike_id":"5be22316-6688-4f89-9f56-e96d2622db96","system_id":"levelo_inurba_marseille","lat":43.279087,"lon":5.380114,"is_reserved":false,"is_disabled":false,"rental_uris":{"android":"levelo://app?vid=5be22316-6688-4f89-9f56-e96d2622db96","ios":"levelo://app?vid=5be22316-6688-4f89-9f56-e96d2622db96"},"vehicle_type_id":"4","last_reported":1703696773,"current_range_meters":27200,"station_id":"ce4bhf92rcd13ifvqf50","pricing_plan_id":"free"},{"bike_id":"824649d1-68f8-4079-abff-ba8c25239c33","system_id":"levelo_inurba_marseille","lat":43.279087,"lon":5.380114,"is_reserved":false,"is_disabled":false,"rental_uris":{"android":"levelo://app?vid=824649d1-68f8-4079-abff-ba8c25239c33","ios":"levelo://app?vid=824649d1-68f8-4079-abff-ba8c25239c33"},"vehicle_type_id":"4","last_reported":1703696773,"current_range_meters":23200,"station_id":"ce4bhf92rcd13ifvqf50","pricing_plan_id":"free"},{"bike_id":"4f84dfb2-17ce-4eeb-80a3-d8c7a7b52a19","system_id":"levelo_inurba_marseille","lat":43.320045,"lon":5.415046,"is_reserved":false,"is_disabled":false,"rental_uris":{"android":"levelo://app?vid=4f84dfb2-17ce-4eeb-80a3-d8c7a7b52a19","ios":"levelo://app?vid=4f84dfb2-17ce-4eeb-80a3-d8c7a7b52a19"},"vehicle_type_id":"4","last_reported":1703696773,"current_range_meters":30000,"station_id":"ce4bhq92rcd13ifvqhkg","pricing_plan_id":"free"},{"bike_id":"dd786b42-9928-45d3-a7d5-8961c9927dd4","system_id":"levelo_inurba_marseille","lat":43.279742,"lon":5.38744,"is_reserved":false,"is_disabled":false,"rental_uris":{"android":"levelo://app?vid=dd786b42-9928-45d3-a7d5-8961c9927dd4","ios":"levelo://app?vid=dd786b42-9928-45d3-a7d5-8961c9927dd4"},"vehicle_type_id":"4","last_reported":1703696773,"current_range_meters":1200,"station_id":"ce4bhg12rcd13ifvqf80","pricing_plan_id":"free"},{"bike_id":"36d6eb99-343a-49b1-aa20-f72100ccf5aa","system_id":"levelo_inurba_marseille","lat":43.32541,"lon":5.414252,"is_reserved":false,"is_disabled":false,"rental_uris":{"android":"levelo://app?vid=36d6eb99-343a-49b1-aa20-f72100ccf5aa","ios":"levelo://app?vid=36d6eb99-343a-49b1-aa20-f72100ccf5aa"},"vehicle_type_id":"4","last_reported":1703696773,"current_range_meters":22400,"station_id":"ce4bhq12rcd13ifvqhhg","pricing_plan_id":"free"},{"bike_id":"fb4f0c97-97e8-4b4a-b237-4c0c33c1a919","system_id":"levelo_inurba_marseille","lat":43.292569,"lon":5.409107,"is_reserved":false,"is_disabled":false,"rental_uris":{"android":"levelo://app?vid=fb4f0c97-97e8-4b4a-b237-4c0c33c1a919","ios":"levelo://app?vid=fb4f0c97-97e8-4b4a-b237-4c0c33c1a919"},"vehicle_type_id":"4","last_reported":1703696773,"current_range_meters":15600,"station_id":"ce4bh192rcd13ifvqdc0","pricing_plan_id":"free"},{"bike_id":"3c7e87f6-2cbe-41c0-b771-7933c9afa5dc","system_id":"levelo_inurba_marseille","lat":43.27617,"lon":5.36113,"is_reserved":false,"is_disabled":false,"rental_uris":{"android":"levelo://app?vid=3c7e87f6-2cbe-41c0-b771-7933c9afa5dc","ios":"levelo://app?vid=3c7e87f6-2cbe-41c0-b771-7933c9afa5dc"},"vehicle_type_id":"4","last_reported":1703696773,"current_range_meters":16400,"station_id":"ce4bgj92rcd13ifvqbe0","pricing_plan_id":"free"},{"bike_id":"0b732704-7607-429e-84f5-3138fba41d2c","system_id":"levelo_inurba_marseille","lat":43.325463,"lon":5.414487,"is_reserved":false,"is_disabled":false,"rental_uris":{"android":"levelo://app?vid=0b732704-7607-429e-84f5-3138fba41d2c","ios":"levelo://app?vid=0b732704-7607-429e-84f5-3138fba41d2c"},"vehicle_type_id":"4","last_reported":1703696773,"current_range_meters":3600,"station_id":"ce4bhq12rcd13ifvqhhg","pricing_plan_id":"free"},{"bike_id":"3929e1ec-867a-4d6c-adc3-24dddfa58694","system_id":"levelo_inurba_marseille","lat":43.280784,"lon":5.396622,"is_reserved":false,"is_disabled":false,"rental_uris":{"android":"levelo://app?vid=3929e1ec-867a-4d6c-adc3-24dddfa58694","ios":"levelo://app?vid=3929e1ec-867a-4d6c-adc3-24dddfa58694"},"vehicle_type_id":"4","last_reported":1703696773,"current_range_meters":20000,"station_id":"ce4bho12rcd13ifvqh2g","pricing_plan_id":"free"},{"bike_id":"7fe023ff-e0ac-4f01-9f56-563010cc4eb9","system_id":"levelo_inurba_marseille","lat":43.28076,"lon":5.39651,"is_reserved":false,"is_disabled":false,"rental_uris":{"android":"levelo://app?vid=7fe023ff-e0ac-4f01-9f56-563010cc4eb9","ios":"levelo://app?vid=7fe023ff-e0ac-4f01-9f56-563010cc4eb9"},"vehicle_type_id":"4","last_reported":1703696773,"current_range_meters":23200,"station_id":"ce4bho12rcd13ifvqh2g","pricing_plan_id":"free"},{"bike_id":"1662ed30-92da-4bd8-b020-58892e4ee964","system_id":"levelo_inurba_marseille","lat":43.303837,"lon":5.418724,"is_reserved":false,"is_disabled":false,"rental_uris":{"android":"levelo://app?vid=1662ed30-92da-4bd8-b020-58892e4ee964","ios":"levelo://app?vid=1662ed30-92da-4bd8-b020-58892e4ee964"},"vehicle_type_id":"4","last_reported":1703696773,"current_range_meters":18800,"station_id":"ce4bhop2rcd13ifvqh7g","pricing_plan_id":"free"},{"bike_id":"c75b935c-1cc8-40a2-80fc-eb1552a967d9","system_id":"levelo_inurba_marseille","lat":43.278399,"lon":5.392139,"is_reserved":false,"is_disabled":false,"rental_uris":{"android":"levelo://app?vid=c75b935c-1cc8-40a2-80fc-eb1552a967d9","ios":"levelo://app?vid=c75b935c-1cc8-40a2-80fc-eb1552a967d9"},"vehicle_type_id":"4","last_reported":1703696773,"current_range_meters":22400,"station_id":"ce4bhjp2rcd13ifvqga0","pricing_plan_id":"free"},{"bike_id":"bce971a3-64f1-48fa-9358-4951202341f4","system_id":"levelo_inurba_marseille","lat":43.278399,"lon":5.392139,"is_reserved":false,"is_disabled":false,"rental_uris":{"android":"levelo://app?vid=bce971a3-64f1-48fa-9358-4951202341f4","ios":"levelo://app?vid=bce971a3-64f1-48fa-9358-4951202341f4"},"vehicle_type_id":"4","last_reported":1703696773,"current_range_meters":27600,"station_id":"ce4bhjp2rcd13ifvqga0","pricing_plan_id":"free"},{"bike_id":"cf29302a-01b6-4f79-9ba1-84566982813c","system_id":"levelo_inurba_marseille","lat":43.273609,"lon":5.362708,"is_reserved":false,"is_disabled":false,"rental_uris":{"android":"levelo://app?vid=cf29302a-01b6-4f79-9ba1-84566982813c","ios":"levelo://app?vid=cf29302a-01b6-4f79-9ba1-84566982813c"},"vehicle_type_id":"4","last_reported":1703696773,"current_range_meters":4000,"station_id":"ce4bhbh2rcd13ifvqeo0","pricing_plan_id":"free"},{"bike_id":"121d116b-26c2-4484-8758-9938a1f15e3c","system_id":"levelo_inurba_marseille","lat":43.273613,"lon":5.362705,"is_reserved":false,"is_disabled":false,"rental_uris":{"android":"levelo://app?vid=121d116b-26c2-4484-8758-9938a1f15e3c","ios":"levelo://app?vid=121d116b-26c2-4484-8758-9938a1f15e3c"},"vehicle_type_id":"4","last_reported":1703696773,"current_range_meters":26000,"station_id":"ce4bhbh2rcd13ifvqeo0","pricing_plan_id":"free"},{"bike_id":"c9bbc152-836f-4fc5-a885-a99cb37918d7","system_id":"levelo_inurba_marseille","lat":43.273609,"lon":5.362708,"is_reserved":false,"is_disabled":false,"rental_uris":{"android":"levelo://app?vid=c9bbc152-836f-4fc5-a885-a99cb37918d7","ios":"levelo://app?vid=c9bbc152-836f-4fc5-a885-a99cb37918d7"},"vehicle_type_id":"4","last_reported":1703696773,"current_range_meters":0,"station_id":"ce4bhbh2rcd13ifvqeo0","pricing_plan_id":"free"},{"bike_id":"f6df298a-6dda-4377-bece-fc4648f4fef7","system_id":"levelo_inurba_marseille","lat":43.275625,"lon":5.384392,"is_reserved":false,"is_disabled":false,"rental_uris":{"android":"levelo://app?vid=f6df298a-6dda-4377-bece-fc4648f4fef7","ios":"levelo://app?vid=f6df298a-6dda-4377-bece-fc4648f4fef7"},"vehicle_type_id":"4","last_reported":1703696773,"current_range_meters":26400,"station_id":"ce4bhh92rcd13ifvqfi0","pricing_plan_id":"free"},{"bike_id":"5a8b82f8-9994-4874-89a9-1e647a91eaf0","system_id":"levelo_inurba_marseille","lat":43.273609,"lon":5.362708,"is_reserved":false,"is_disabled":false,"rental_uris":{"android":"levelo://app?vid=5a8b82f8-9994-4874-89a9-1e647a91eaf0","ios":"levelo://app?vid=5a8b82f8-9994-4874-89a9-1e647a91eaf0"},"vehicle_type_id":"4","last_reported":1703696773,"current_range_meters":21600,"station_id":"ce4bhbh2rcd13ifvqeo0","pricing_plan_id":"free"},{"bike_id":"21a768c4-2547-4264-9a1a-4aba25bafa90","system_id":"levelo_inurba_marseille","lat":43.276769,"lon":5.388787,"is_reserved":false,"is_disabled":false,"rental_uris":{"android":"levelo://app?vid=21a768c4-2547-4264-9a1a-4aba25bafa90","ios":"levelo://app?vid=21a768c4-2547-4264-9a1a-4aba25bafa90"},"vehicle_type_id":"4","last_reported":1703696773,"current_range_meters":6400,"station_id":"ce4bhi12rcd13ifvqfo0","pricing_plan_id":"free"},{"bike_id":"6c5909c6-a912-4d86-b3b0-940b0d2846a8","system_id":"levelo_inurba_marseille","lat":43.2767,"lon":5.388765,"is_reserved":false,"is_disabled":false,"rental_uris":{"android":"levelo://app?vid=6c5909c6-a912-4d86-b3b0-940b0d2846a8","ios":"levelo://app?vid=6c5909c6-a912-4d86-b3b0-940b0d2846a8"},"vehicle_type_id":"4","last_reported":1703696773,"current_range_meters":20400,"station_id":"ce4bhi12rcd13ifvqfo0","pricing_plan_id":"free"},{"bike_id":"c1799fba-a19f-40ef-ac5d-156f0f4a188e","system_id":"levelo_inurba_marseille","lat":43.276771,"lon":5.388799,"is_reserved":false,"is_disabled":false,"rental_uris":{"android":"levelo://app?vid=c1799fba-a19f-40ef-ac5d-156f0f4a188e","ios":"levelo://app?vid=c1799fba-a19f-40ef-ac5d-156f0f4a188e"},"vehicle_type_id":"4","last_reported":1703696773,"current_range_meters":22800,"station_id":"ce4bhi12rcd13ifvqfo0","pricing_plan_id":"free"},{"bike_id":"f916fbba-c060-4b71-a738-114a223b8ac0","system_id":"levelo_inurba_marseille","lat":43.27656,"lon":5.38884,"is_reserved":false,"is_disabled":false,"rental_uris":{"android":"levelo://app?vid=f916fbba-c060-4b71-a738-114a223b8ac0","ios":"levelo://app?vid=f916fbba-c060-4b71-a738-114a223b8ac0"},"vehicle_type_id":"4","last_reported":1703696773,"current_range_meters":7600,"station_id":"ce4bhi12rcd13ifvqfo0","pricing_plan_id":"free"},{"bike_id":"69cc87d1-3018-4537-ac7b-6024dd11ca80","system_id":"levelo_inurba_marseille","lat":43.317121,"lon":5.423936,"is_reserved":false,"is_disabled":false,"rental_uris":{"android":"levelo://app?vid=69cc87d1-3018-4537-ac7b-6024dd11ca80","ios":"levelo://app?vid=69cc87d1-3018-4537-ac7b-6024dd11ca80"},"vehicle_type_id":"4","last_reported":1703696773,"current_range_meters":30800,"station_id":"ce4bhp92rcd13ifvqhbg","pricing_plan_id":"free"},{"bike_id":"c45558ca-9652-41ec-8da9-2fc8b14361f1","system_id":"levelo_inurba_marseille","lat":43.304096,"lon":5.425385,"is_reserved":false,"is_disabled":false,"rental_uris":{"android":"levelo://app?vid=c45558ca-9652-41ec-8da9-2fc8b14361f1","ios":"levelo://app?vid=c45558ca-9652-41ec-8da9-2fc8b14361f1"},"vehicle_type_id":"4","last_reported":1703696773,"current_range_meters":28800,"station_id":"ce4bhoh2rcd13ifvqh6g","pricing_plan_id":"free"},{"bike_id":"6716a25a-23f6-4a30-9242-2fb39a727322","system_id":"levelo_inurba_marseille","lat":43.304096,"lon":5.425385,"is_reserved":false,"is_disabled":false,"rental_uris":{"android":"levelo://app?vid=6716a25a-23f6-4a30-9242-2fb39a727322","ios":"levelo://app?vid=6716a25a-23f6-4a30-9242-2fb39a727322"},"vehicle_type_id":"4","last_reported":1703696773,"current_range_meters":31200,"station_id":"ce4bhoh2rcd13ifvqh6g","pricing_plan_id":"free"},{"bike_id":"3f4121fe-0fed-4216-90c6-3d3cf8f2061e","system_id":"levelo_inurba_marseille","lat":43.304096,"lon":5.425385,"is_reserved":false,"is_disabled":false,"rental_uris":{"android":"levelo://app?vid=3f4121fe-0fed-4216-90c6-3d3cf8f2061e","ios":"levelo://app?vid=3f4121fe-0fed-4216-90c6-3d3cf8f2061e"},