{"last_updated":1746482964,"ttl":60,"version":"2.2","data":{"bikes":[{"bike_id":"545631c8-05b7-4070-95e3-52dc096addb5","system_id":"levelo_inurba_marseille","lat":43.27192,"lon":5.36477,"is_reserved":false,"is_disabled":true,"rental_uris":{"android":"levelo://app?vid=545631c8-05b7-4070-95e3-52dc096addb5","ios":"levelo://app?vid=545631c8-05b7-4070-95e3-52dc096addb5"},"vehicle_type_id":"4","last_reported":1746482964,"current_range_meters":0,"station_id":"","pricing_plan_id":"cebpf4jnsgd1na2vs0mg"},{"bike_id":"22ae6528-78c6-4310-bdb9-3cd141efe0b9","system_id":"levelo_inurba_marseille","lat":43.29287,"lon":5.38267,"is_reserved":false,"is_disabled":true,"rental_uris":{"android":"levelo://app?vid=22ae6528-78c6-4310-bdb9-3cd141efe0b9","ios":"levelo://app?vid=22ae6528-78c6-4310-bdb9-3cd141efe0b9"},"vehicle_type_id":"4","last_reported":1746482964,"current_range_meters":0,"station_id":"","pricing_plan_id":"cebpf4jnsgd1na2vs0mg"},{"bike_id":"64a99dee-e5f5-406c-bb57-3c1dd0084469","system_id":"levelo_inurba_marseille","lat":43.23667,"lon":5.39143,"is_reserved":false,"is_disabled":true,"rental_uris":{"android":"levelo://app?vid=64a99dee-e5f5-406c-bb57-3c1dd0084469","ios":"levelo://app?vid=64a99dee-e5f5-406c-bb57-3c1dd0084469"},"vehicle_type_id":"4","last_reported":1746482964,"current_range_meters":0,"station_id":"","pricing_plan_id":"cebpf4jnsgd1na2vs0mg"},{"bike_id":"ad57ec13-5579-443d-bb00-7cc895a80821","system_id":"levelo_inurba_marseille","lat":43.29098,"lon":5.38356,"is_reserved":false,"is_disabled":true,"rental_uris":{"android":"levelo://app?vid=ad57ec13-5579-443d-bb00-7cc895a80821","ios":"levelo://app?vid=ad57ec13-5579-443d-bb00-7cc895a80821"},"vehicle_type_id":"4","last_reported":1746482964,"current_range_meters":0,"station_id":"","pricing_plan_id":"cebpf4jnsgd1na2vs0mg"},{"bike_id":"4a2906fd-25b2-4be5-811e-9d84d28e283d","system_id":"levelo_inurba_marseille","lat":43.25319,"lon":5.42427,"is_reserved":false,"is_disabled":true,"rental_uris":{"android":"levelo://app?vid=4a2906fd-25b2-4be5-811e-9d84d28e283d","ios":"levelo://app?vid=4a2906fd-25b2-4be5-811e-9d84d28e283d"},"vehicle_type_id":"4","last_reported":1746482964,"current_range_meters":0,"station_id":"","pricing_plan_id":"cebpf4jnsgd1na2vs0mg"},{"bike_id":"869b2040-c183-47ae-81b2-e5b23bb7c168","system_id":"levelo_inurba_marseille","lat":43.28144,"lon":5.42643,"is_reserved":false,"is_disabled":true,"rental_uris":{"android":"levelo://app?vid=869b2040-c183-47ae-81b2-e5b23bb7c168","ios":"levelo://app?vid=869b2040-c183-47ae-81b2-e5b23bb7c168"},"vehicle_type_id":"4","last_reported":1746482964,"current_range_meters":0,"station_id":"ce4bhnh2rcd13ifvqgug","pricing_plan_id":"cebpf4jnsgd1na2vs0mg"},{"bike_id":"280374ca-084b-4d79-89a4-e41997f49b2b","system_id":"levelo_inurba_marseille","lat":43.279976,"lon":5.416574,"is_reserved":false,"is_disabled":true,"rental_uris":{"android":"levelo://app?vid=280374ca-084b-4d79-89a4-e41997f49b2b","ios":"levelo://app?vid=280374ca-084b-4d79-89a4-e41997f49b2b"},"vehicle_type_id":"4","last_reported":1746482964,"current_range_meters":0,"station_id":"ce4bho12rcd13ifvqh1g","pricing_plan_id":"cebpf4jnsgd1na2vs0mg"},{"bike_id":"a0ce76ea-4a3e-456b-8981-6ea420463480","system_id":"levelo_inurba_marseille","lat":43.30099,"lon":5.3767,"is_reserved":false,"is_disabled":true,"rental_uris":{"android":"levelo://app?vid=a0ce76ea-4a3e-456b-8981-6ea420463480","ios":"levelo://app?vid=a0ce76ea-4a3e-456b-8981-6ea420463480"},"vehicle_type_id":"4","last_reported":1746482964,"current_range_meters":1200,"station_id":"","pricing_plan_id":"cebpf4jnsgd1na2vs0mg"},{"bike_id":"a3780d41-741a-48e7-ac87-3aebcd2a048d","system_id":"levelo_inurba_marseille","lat":43.30486,"lon":5.37084,"is_reserved":false,"is_disabled":false,"rental_uris":{"android":"levelo://app?vid=a3780d41-741a-48e7-ac87-3aebcd2a048d","ios":"levelo://app?vid=a3780d41-741a-48e7-ac87-3aebcd2a048d"},"vehicle_type_id":"4","last_reported":1746482964,"current_range_meters":2800,"station_id":"","pricing_plan_id":"cebpf4jnsgd1na2vs0mg"},{"bike_id":"963c14e4-e8f8-4cce-bd33-84990bd09520","system_id":"levelo_inurba_marseille","lat":43.280324,"lon":5.369425,"is_reserved":false,"is_disabled":false,"rental_uris":{"android":"levelo://app?vid=963c14e4-e8f8-4cce-bd33-84990bd09520","ios":"levelo://app?vid=963c14e4-e8f8-4cce-bd33-84990bd09520"},"vehicle_type_id":"4","last_reported":1746482964,"current_range_meters":2800,"station_id":"ce4bha12rcd13ifvqef0","pricing_plan_id":"cebpf4jnsgd1na2vs0mg"},{"bike_id":"4b5668b0-1b21-42df-bf79-2e3850a6fa60","system_id":"levelo_inurba_marseille","lat":43.28342,"lon":5.38088,"is_reserved":false,"is_disabled":false,"rental_uris":{"android":"levelo://app?vid=4b5668b0-1b21-42df-bf79-2e3850a6fa60","ios":"levelo://app?vid=4b5668b0-1b21-42df-bf79-2e3850a6fa60"},"vehicle_type_id":"4","last_reported":1746482964,"current_range_meters":3200,"station_id":"ce4bh412rcd13ifvqdr0","pricing_plan_id":"cebpf4jnsgd1na2vs0mg"},{"bike_id":"1e3195f6-106c-4dd3-8852-0494cfce0d2f","system_id":"levelo_inurba_marseille","lat":43.28613,"lon":5.37062,"is_reserved":false,"is_disabled":false,"rental_uris":{"android":"levelo://app?vid=1e3195f6-106c-4dd3-8852-0494cfce0d2f","ios":"levelo://app?vid=1e3195f6-106c-4dd3-8852-0494cfce0d2f"},"vehicle_type_id":"4","last_reported":1746482964,"current_range_meters":3600,"station_id":"ce4bht12rcd13ifvqi60","pricing_plan_id":"cebpf4jnsgd1na2vs0mg"},{"bike_id":"d21a1bf2-ff47-419b-9fda-93647c68b552","system_id":"levelo_inurba_marseille","lat":43.281039,"lon":5.378363,"is_reserved":false,"is_disabled":false,"rental_uris":{"android":"levelo://app?vid=d21a1bf2-ff47-419b-9fda-93647c68b552","ios":"levelo://app?vid=d21a1bf2-ff47-419b-9fda-93647c68b552"},"vehicle_type_id":"4","last_reported":1746482964,"current_range_meters":4800,"station_id":"ce4bha12rcd13ifvqee0","pricing_plan_id":"cebpf4jnsgd1na2vs0mg"},{"bike_id":"0c6712bb-c246-4d03-b305-0f5d0e9a0657","system_id":"levelo_inurba_marseille","lat":43.24678,"lon":5.38149,"is_reserved":false,"is_disabled":false,"rental_uris":{"android":"levelo://app?vid=0c6712bb-c246-4d03-b305-0f5d0e9a0657","ios":"levelo://app?vid=0c6712bb-c246-4d03-b305-0f5d0e9a0657"},"vehicle_type_id":"4","last_reported":1746482964,"current_range_meters":4800,"station_id":"ce4bhih2rcd13ifvqfr0","pricing_plan_id":"cebpf4jnsgd1na2vs0mg"},{"bike_id":"9bdb1e25-57b3-48da-80e8-bbc154b7785a","system_id":"levelo_inurba_marseille","lat":43.287201,"lon":5.379375,"is_reserved":false,"is_disabled":false,"rental_uris":{"android":"levelo://app?vid=9bdb1e25-57b3-48da-80e8-bbc154b7785a","ios":"levelo://app?vid=9bdb1e25-57b3-48da-80e8-bbc154b7785a"},"vehicle_type_id":"4","last_reported":1746482964,"current_range_meters":5600,"station_id":"ce4bh9p2rcd13ifvqec0","pricing_plan_id":"cebpf4jnsgd1na2vs0mg"},{"bike_id":"80cc809d-274e-4e03-8f3c-0459e4b88ed3","system_id":"levelo_inurba_marseille","lat":43.2797,"lon":5.38725,"is_reserved":false,"is_disabled":false,"rental_uris":{"android":"levelo://app?vid=80cc809d-274e-4e03-8f3c-0459e4b88ed3","ios":"levelo://app?vid=80cc809d-274e-4e03-8f3c-0459e4b88ed3"},"vehicle_type_id":"4","last_reported":1746482964,"current_range_meters":5600,"station_id":"ce4bhg12rcd13ifvqf80","pricing_plan_id":"cebpf4jnsgd1na2vs0mg"},{"bike_id":"19cc5d4a-3669-481b-add7-2079b93dcf06","system_id":"levelo_inurba_marseille","lat":43.27943,"lon":5.41042,"is_reserved":false,"is_disabled":false,"rental_uris":{"android":"levelo://app?vid=19cc5d4a-3669-481b-add7-2079b93dcf06","ios":"levelo://app?vid=19cc5d4a-3669-481b-add7-2079b93dcf06"},"vehicle_type_id":"4","last_reported":1746482964,"current_range_meters":5600,"station_id":"ce4bhnp2rcd13ifvqh0g","pricing_plan_id":"cebpf4jnsgd1na2vs0mg"},{"bike_id":"b315a341-1b0c-4a43-901f-7ff8a489a0b3","system_id":"levelo_inurba_marseille","lat":43.276653,"lon":5.388967,"is_reserved":false,"is_disabled":false,"rental_uris":{"android":"levelo://app?vid=b315a341-1b0c-4a43-901f-7ff8a489a0b3","ios":"levelo://app?vid=b315a341-1b0c-4a43-901f-7ff8a489a0b3"},"vehicle_type_id":"4","last_reported":1746482964,"current_range_meters":6000,"station_id":"ce4bhi12rcd13ifvqfo0","pricing_plan_id":"cebpf4jnsgd1na2vs0mg"},{"bike_id":"66b646b3-6352-44bb-9bfb-21570512e3e5","system_id":"levelo_inurba_marseille","lat":43.28139,"lon":5.40404,"is_reserved":false,"is_disabled":false,"rental_uris":{"android":"levelo://app?vid=66b646b3-6352-44bb-9bfb-21570512e3e5","ios":"levelo://app?vid=66b646b3-6352-44bb-9bfb-21570512e3e5"},"vehicle_type_id":"4","last_reported":1746482964,"current_range_meters":6400,"station_id":"","pricing_plan_id":"cebpf4jnsgd1na2vs0mg"},{"bike_id":"5ed25235-2c54-4555-9b77-e5696daaf187","system_id":"levelo_inurba_marseille","lat":43.2843,"lon":5.37517,"is_reserved":false,"is_disabled":false,"rental_uris":{"android":"levelo://app?vid=5ed25235-2c54-4555-9b77-e5696daaf187","ios":"levelo://app?vid=5ed25235-2c54-4555-9b77-e5696daaf187"},"vehicle_type_id":"4","last_reported":1746482964,"current_range_meters":6400,"station_id":"ce4bh412rcd13ifvqds0","pricing_plan_id":"cebpf4jnsgd1na2vs0mg"},{"bike_id":"f39d8186-06aa-4174-a5ee-ff6bf04f13a7","system_id":"levelo_inurba_marseille","lat":43.32653,"lon":5.40953,"is_reserved":false,"is_disabled":false,"rental_uris":{"android":"levelo://app?vid=f39d8186-06aa-4174-a5ee-ff6bf04f13a7","ios":"levelo://app?vid=f39d8186-06aa-4174-a5ee-ff6bf04f13a7"},"vehicle_type_id":"4","last_reported":1746482964,"current_range_meters":6400,"station_id":"ce4bhpp2rcd13ifvqhgg","pricing_plan_id":"cebpf4jnsgd1na2vs0mg"},{"bike_id":"c7569f25-9bc2-4a7b-94d5-25bad92fcfaa","system_id":"levelo_inurba_marseille","lat":43.2793,"lon":5.38244,"is_reserved":false,"is_disabled":false,"rental_uris":{"android":"levelo://app?vid=c7569f25-9bc2-4a7b-94d5-25bad92fcfaa","ios":"levelo://app?vid=c7569f25-9bc2-4a7b-94d5-25bad92fcfaa"},"vehicle_type_id":"4","last_reported":1746482964,"current_range_meters":6800,"station_id":"","pricing_plan_id":"cebpf4jnsgd1na2vs0mg"},{"bike_id":"9064d971-3a4c-4284-ab13-670f9e6ead80","system_id":"levelo_inurba_marseille","lat":43.23973,"lon":5.36624,"is_reserved":false,"is_disabled":false,"rental_uris":{"android":"levelo://app?vid=9064d971-3a4c-4284-ab13-670f9e6ead80","ios":"levelo://app?vid=9064d971-3a4c-4284-ab13-670f9e6ead80"},"vehicle_type_id":"4","last_reported":1746482964,"current_range_meters":6800,"station_id":"ce4bhi12rcd13ifvqfp0","pricing_plan_id":"cebpf4jnsgd1na2vs0mg"},{"bike_id":"e8d3c57f-002a-4ddc-8c08-58b239aae800","system_id":"levelo_inurba_marseille","lat":43.26227,"lon":5.40443,"is_reserved":false,"is_disabled":false,"rental_uris":{"android":"levelo://app?vid=e8d3c57f-002a-4ddc-8c08-58b239aae800","ios":"levelo://app?vid=e8d3c57f-002a-4ddc-8c08-58b239aae800"},"vehicle_type_id":"4","last_reported":1746482964,"current_range_meters":6800,"station_id":"ce4bhmh2rcd13ifvqgmg","pricing_plan_id":"cebpf4jnsgd1na2vs0mg"},{"bike_id":"ee0ea65e-75b6-4ade-92e9-3b812fcd3f77","system_id":"levelo_inurba_marseille","lat":43.29559,"lon":5.37524,"is_reserved":false,"is_disabled":false,"rental_uris":{"android":"levelo://app?vid=ee0ea65e-75b6-4ade-92e9-3b812fcd3f77","ios":"levelo://app?vid=ee0ea65e-75b6-4ade-92e9-3b812fcd3f77"},"vehicle_type_id":"4","last_reported":1746482964,"current_range_meters":7200,"station_id":"ce4bgh92rcd13ifvqb50","pricing_plan_id":"cebpf4jnsgd1na2vs0mg"},{"bike_id":"a564814d-612a-4672-a9dd-f9719d2b6023","system_id":"levelo_inurba_marseille","lat":43.28405,"lon":5.37497,"is_reserved":false,"is_disabled":false,"rental_uris":{"android":"levelo://app?vid=a564814d-612a-4672-a9dd-f9719d2b6023","ios":"levelo://app?vid=a564814d-612a-4672-a9dd-f9719d2b6023"},"vehicle_type_id":"4","last_reported":1746482964,"current_range_meters":7200,"station_id":"ce4bh412rcd13ifvqds0","pricing_plan_id":"cebpf4jnsgd1na2vs0mg"},{"bike_id":"f4058794-639c-4973-ab5d-8009a25ee731","system_id":"levelo_inurba_marseille","lat":43.23961,"lon":5.36621,"is_reserved":false,"is_disabled":false,"rental_uris":{"android":"levelo://app?vid=f4058794-639c-4973-ab5d-8009a25ee731","ios":"levelo://app?vid=f4058794-639c-4973-ab5d-8009a25ee731"},"vehicle_type_id":"4","last_reported":1746482964,"current_range_meters":7200,"station_id":"ce4bhi12rcd13ifvqfp0","pricing_plan_id":"cebpf4jnsgd1na2vs0mg"},{"bike_id":"75e8ec7b-b97d-4041-ba4c-e6403b45949f","system_id":"levelo_inurba_marseille","lat":43.23964,"lon":5.36628,"is_reserved":false,"is_disabled":false,"rental_uris":{"android":"levelo://app?vid=75e8ec7b-b97d-4041-ba4c-e6403b45949f","ios":"levelo://app?vid=75e8ec7b-b97d-4041-ba4c-e6403b45949f"},"vehicle_type_id":"4","last_reported":1746482964,"current_range_meters":8000,"station_id":"ce4bhi12rcd13ifvqfp0","pricing_plan_id":"cebpf4jnsgd1na2vs0mg"},{"bike_id":"d08e881c-4ac2-413a-af9c-5ff0285ab7f6","system_id":"levelo_inurba_marseille","lat":43.2792,"lon":5.41013,"is_reserved":false,"is_disabled":false,"rental_uris":{"android":"levelo://app?vid=d08e881c-4ac2-413a-af9c-5ff0285ab7f6","ios":"levelo://app?vid=d08e881c-4ac2-413a-af9c-5ff0285ab7f6"},"vehicle_type_id":"4","last_reported":1746482964,"current_range_meters":8000,"station_id":"ce4bhnp2rcd13ifvqh0g","pricing_plan_id":"cebpf4jnsgd1na2vs0mg"},{"bike_id":"cc657362-d2bd-4447-ba18-161d37bf885b","system_id":"levelo_inurba_marseille","lat":43.28673,"lon":5.38681,"is_reserved":false,"is_disabled":false,"rental_uris":{"android":"levelo://app?vid=cc657362-d2bd-4447-ba18-161d37bf885b","ios":"levelo://app?vid=cc657362-d2bd-4447-ba18-161d37bf885b"},"vehicle_type_id":"4","last_reported":1746482964,"current_range_meters":8400,"station_id":"ce4bh492rcd13ifvqdug","pricing_plan_id":"cebpf4jnsgd1na2vs0mg"},{"bike_id":"3fe14760-50d4-43a8-b058-218490851f16","system_id":"levelo_inurba_marseille","lat":43.288602,"lon":5.358763,"is_reserved":false,"is_disabled":false,"rental_uris":{"android":"levelo://app?vid=3fe14760-50d4-43a8-b058-218490851f16","ios":"levelo://app?vid=3fe14760-50d4-43a8-b058-218490851f16"},"vehicle_type_id":"4","last_reported":1746482964,"current_range_meters":8400,"station_id":"ce4bhb12rcd13ifvqem0","pricing_plan_id":"cebpf4jnsgd1na2vs0mg"},{"bike_id":"d9ebccfe-dd7b-4132-a6f6-002262765ed4","system_id":"levelo_inurba_marseille","lat":43.27996,"lon":5.40003,"is_reserved":false,"is_disabled":false,"rental_uris":{"android":"levelo://app?vid=d9ebccfe-dd7b-4132-a6f6-002262765ed4","ios":"levelo://app?vid=d9ebccfe-dd7b-4132-a6f6-002262765ed4"},"vehicle_type_id":"4","last_reported":1746482964,"current_range_meters":8400,"station_id":"ce4bho92rcd13ifvqh4g","pricing_plan_id":"cebpf4jnsgd1na2vs0mg"},{"bike_id":"5c7249a3-596f-4101-8dbd-1087a1f3b438","system_id":"levelo_inurba_marseille","lat":43.231969,"lon":5.355814,"is_reserved":false,"is_disabled":false,"rental_uris":{"android":"levelo://app?vid=5c7249a3-596f-4101-8dbd-1087a1f3b438","ios":"levelo://app?vid=5c7249a3-596f-4101-8dbd-1087a1f3b438"},"vehicle_type_id":"4","last_reported":1746482964,"current_range_meters":8400,"station_id":"ce4bhu92rcd13ifvqi70","pricing_plan_id":"cebpf4jnsgd1na2vs0mg"},{"bike_id":"482344f1-460c-48ea-83dd-01b9a385e5cf","system_id":"levelo_inurba_marseille","lat":43.3066,"lon":5.36843,"is_reserved":false,"is_disabled":false,"rental_uris":{"android":"levelo://app?vid=482344f1-460c-48ea-83dd-01b9a385e5cf","ios":"levelo://app?vid=482344f1-460c-48ea-83dd-01b9a385e5cf"},"vehicle_type_id":"4","last_reported":1746482964,"current_range_meters":8800,"station_id":"","pricing_plan_id":"cebpf4jnsgd1na2vs0mg"},{"bike_id":"2306010e-85bf-4d9b-a6bc-107f35580834","system_id":"levelo_inurba_marseille","lat":43.258286,"lon":5.394314,"is_reserved":false,"is_disabled":false,"rental_uris":{"android":"levelo://app?vid=2306010e-85bf-4d9b-a6bc-107f35580834","ios":"levelo://app?vid=2306010e-85bf-4d9b-a6bc-107f35580834"},"vehicle_type_id":"4","last_reported":1746482964,"current_range_meters":8800,"station_id":"ce4bhip2rcd13ifvqft0","pricing_plan_id":"cebpf4jnsgd1na2vs0mg"},{"bike_id":"b73c5f22-57c3-42fb-a428-749049909d64","system_id":"levelo_inurba_marseille","lat":43.27942,"lon":5.41036,"is_reserved":false,"is_disabled":false,"rental_uris":{"android":"levelo://app?vid=b73c5f22-57c3-42fb-a428-749049909d64","ios":"levelo://app?vid=b73c5f22-57c3-42fb-a428-749049909d64"},"vehicle_type_id":"4","last_reported":1746482964,"current_range_meters":8800,"station_id":"ce4bhnp2rcd13ifvqh0g","pricing_plan_id":"cebpf4jnsgd1na2vs0mg"},{"bike_id":"08d06c84-d9e9-43f6-aa7a-603249ac6ecd","system_id":"levelo_inurba_marseille","lat":43.28009,"lon":5.40006,"is_reserved":false,"is_disabled":false,"rental_uris":{"android":"levelo://app?vid=08d06c84-d9e9-43f6-aa7a-603249ac6ecd","ios":"levelo://app?vid=08d06c84-d9e9-43f6-aa7a-603249ac6ecd"},"vehicle_type_id":"4","last_reported":1746482964,"current_range_meters":8800,"station_id":"ce4bho92rcd13ifvqh4g","pricing_plan_id":"cebpf4jnsgd1na2vs0mg"},{"bike_id":"0df6ff4a-d789-4276-8939-264863baa64d","system_id":"levelo_inurba_marseille","lat":43.31789,"lon":5.38981,"is_reserved":false,"is_disabled":false,"rental_uris":{"android":"levelo://app?vid=0df6ff4a-d789-4276-8939-264863baa64d","ios":"levelo://app?vid=0df6ff4a-d789-4276-8939-264863baa64d"},"vehicle_type_id":"4","last_reported":1746482964,"current_range_meters":8800,"station_id":"ce4bhqp2rcd13ifvqhng","pricing_plan_id":"cebpf4jnsgd1na2vs0mg"},{"bike_id":"1e84e465-2e14-47ac-91f0-53a839d6422a","system_id":"levelo_inurba_marseille","lat":43.313587,"lon":5.384977,"is_reserved":false,"is_disabled":false,"rental_uris":{"android":"levelo://app?vid=1e84e465-2e14-47ac-91f0-53a839d6422a","ios":"levelo://app?vid=1e84e465-2e14-47ac-91f0-53a839d6422a"},"vehicle_type_id":"4","last_reported":1746482964,"current_range_meters":9200,"station_id":"ce4bgt92rcd13ifvqcf0","pricing_plan_id":"cebpf4jnsgd1na2vs0mg"},{"bike_id":"a105130d-2c0b-47d7-ad9e-26b35e0360b8","system_id":"levelo_inurba_marseille","lat":43.23963,"lon":5.36634,"is_reserved":false,"is_disabled":false,"rental_uris":{"android":"levelo://app?vid=a105130d-2c0b-47d7-ad9e-26b35e0360b8","ios":"levelo://app?vid=a105130d-2c0b-47d7-ad9e-26b35e0360b8"},"vehicle_type_id":"4","last_reported":1746482964,"current_range_meters":9200,"station_id":"ce4bhi12rcd13ifvqfp0","pricing_plan_id":"cebpf4jnsgd1na2vs0mg"},{"bike_id":"bda5329c-0ca8-4429-8276-953c6ccd9961","system_id":"levelo_inurba_marseille","lat":43.279956,"lon":5.416617,"is_reserved":false,"is_disabled":false,"rental_uris":{"android":"levelo://app?vid=bda5329c-0ca8-4429-8276-953c6ccd9961","ios":"levelo://app?vid=bda5329c-0ca8-4429-8276-953c6ccd9961"},"vehicle_type_id":"4","last_reported":1746482964,"current_range_meters":9200,"station_id":"ce4bho12rcd13ifvqh1g","pricing_plan_id":"cebpf4jnsgd1na2vs0mg"},{"bike_id":"7a2589c6-a8c1-46f5-a962-7daecd246db4","system_id":"levelo_inurba_marseille","lat":43.31542,"lon":5.38027,"is_reserved":false,"is_disabled":false,"rental_uris":{"android":"levelo://app?vid=7a2589c6-a8c1-46f5-a962-7daecd246db4","ios":"levelo://app?vid=7a2589c6-a8c1-46f5-a962-7daecd246db4"},"vehicle_type_id":"4","last_reported":1746482964,"current_range_meters":9200,"station_id":"ce4bhsp2rcd13ifvqi50","pricing_plan_id":"cebpf4jnsgd1na2vs0mg"},{"bike_id":"2f25eff5-6c19-4e87-a4b7-84914327c4b4","system_id":"levelo_inurba_marseille","lat":43.30801,"lon":5.3817,"is_reserved":false,"is_disabled":false,"rental_uris":{"android":"levelo://app?vid=2f25eff5-6c19-4e87-a4b7-84914327c4b4","ios":"levelo://app?vid=2f25eff5-6c19-4e87-a4b7-84914327c4b4"},"vehicle_type_id":"4","last_reported":1746482964,"current_range_meters":9600,"station_id":"ce4bgt12rcd13ifvqce0","pricing_plan_id":"cebpf4jnsgd1na2vs0mg"},{"bike_id":"7bac376f-17c2-4484-a95b-9218bce59ef6","system_id":"levelo_inurba_marseille","lat":43.24681,"lon":5.3816,"is_reserved":false,"is_disabled":false,"rental_uris":{"android":"levelo://app?vid=7bac376f-17c2-4484-a95b-9218bce59ef6","ios":"levelo://app?vid=7bac376f-17c2-4484-a95b-9218bce59ef6"},"vehicle_type_id":"4","last_reported":1746482964,"current_range_meters":9600,"station_id":"ce4bhih2rcd13ifvqfr0","pricing_plan_id":"cebpf4jnsgd1na2vs0mg"},{"bike_id":"33e48a61-b681-49b6-9f4c-c501fbecaaba","system_id":"levelo_inurba_marseille","lat":43.31713,"lon":5.43706,"is_reserved":false,"is_disabled":false,"rental_uris":{"android":"levelo://app?vid=33e48a61-b681-49b6-9f4c-c501fbecaaba","ios":"levelo://app?vid=33e48a61-b681-49b6-9f4c-c501fbecaaba"},"vehicle_type_id":"4","last_reported":1746482964,"current_range_meters":9600,"station_id":"ce4bhp92rcd13ifvqhcg","pricing_plan_id":"cebpf4jnsgd1na2vs0mg"},{"bike_id":"0516f56f-d6da-4619-b60f-e7bb507cb1e3","system_id":"levelo_inurba_marseille","lat":43.32354,"lon":5.38898,"is_reserved":false,"is_disabled":false,"rental_uris":{"android":"levelo://app?vid=0516f56f-d6da-4619-b60f-e7bb507cb1e3","ios":"levelo://app?vid=0516f56f-d6da-4619-b60f-e7bb507cb1e3"},"vehicle_type_id":"4","last_reported":1746482964,"current_range_meters":9600,"station_id":"ce4bhqp2rcd13ifvqhog","pricing_plan_id":"cebpf4jnsgd1na2vs0mg"},{"bike_id":"18fac1a9-fda6-48d8-9aa6-1f61711dea16","system_id":"levelo_inurba_marseille","lat":43.31357,"lon":5.384875,"is_reserved":false,"is_disabled":false,"rental_uris":{"android":"levelo://app?vid=18fac1a9-fda6-48d8-9aa6-1f61711dea16","ios":"levelo://app?vid=18fac1a9-fda6-48d8-9aa6-1f61711dea16"},"vehicle_type_id":"4","last_reported":1746482964,"current_range_meters":10000,"station_id":"ce4bgt92rcd13ifvqcf0","pricing_plan_id":"cebpf4jnsgd1na2vs0mg"},{"bike_id":"996b6168-a05d-48a0-af5f-f3a95295abf0","system_id":"levelo_inurba_marseille","lat":43.24064,"lon":5.37744,"is_reserved":false,"is_disabled":false,"rental_uris":{"android":"levelo://app?vid=996b6168-a05d-48a0-af5f-f3a95295abf0","ios":"levelo://app?vid=996b6168-a05d-48a0-af5f-f3a95295abf0"},"vehicle_type_id":"4","last_reported":1746482964,"current_range_meters":10000,"station_id":"ce4bhnp2rcd13ifvqgvg","pricing_plan_id":"cebpf4jnsgd1na2vs0mg"},{"bike_id":"f9cec597-af13-4a8a-be1d-b7cf54819d4d","system_id":"levelo_inurba_marseille","lat":43.28965,"lon":5.40728,"is_reserved":false,"is_disabled":false,"rental_uris":{"android":"levelo://app?vid=f9cec597-af13-4a8a-be1d-b7cf54819d4d","ios":"levelo://app?vid=f9cec597-af13-4a8a-be1d-b7cf54819d4d"},"vehicle_type_id":"4","last_reported":1746482964,"current_range_meters":10800,"station_id":"","pricing_plan_id":"cebpf4jnsgd1na2vs0mg"},{"bike_id":"08ff2bcf-7233-4803-aa19-4c645279e28a","system_id":"levelo_inurba_marseille","lat":43.29251,"lon":5.40909,"is_reserved":false,"is_disabled":false,"rental_uris":{"android":"levelo://app?vid=08ff2bcf-7233-4803-aa19-4c645279e28a","ios":"levelo://app?vid=08ff2bcf-7233-4803-aa19-4c645279e28a"},"vehicle_type_id":"4","last_reported":1746482964,"current_range_meters":10800,"station_id":"ce4bh192rcd13ifvqdc0","pricing_plan_id":"cebpf4jnsgd1na2vs0mg"},{"bike_id":"7b602b1d-e420-4acb-b3b4-4b63bb884ab4","system_id":"levelo_inurba_marseille","lat":43.289333,"lon":5.366385,"is_reserved":false,"is_disabled":false,"rental_uris":{"android":"levelo://app?vid=7b602b1d-e420-4acb-b3b4-4b63bb884ab4","ios":"levelo://app?vid=7b602b1d-e420-4acb-b3b4-4b63bb884ab4"},"vehicle_type_id":"4","last_reported":1746482964,"current_range_meters":10800,"station_id":"ce4bhap2rcd13ifvqek0","pricing_plan_id":"cebpf4jnsgd1na2vs0mg"},{"bike_id":"9d4cc952-e455-4fba-8b3f-d5cacd90c8d5","system_id":"levelo_inurba_marseille","lat":43.25069,"lon":5.395,"is_reserved":false,"is_disabled":false,"rental_uris":{"android":"levelo://app?vid=9d4cc952-e455-4fba-8b3f-d5cacd90c8d5","ios":"levelo://app?vid=9d4cc952-e455-4fba-8b3f-d5cacd90c8d5"},"vehicle_type_id":"4","last_reported":1746482964,"current_range_meters":10800,"station_id":"ce4bhm12rcd13ifvqgkg","pricing_plan_id":"cebpf4jnsgd1na2vs0mg"},{"bike_id":"7430b6cc-b229-4c9f-aeae-8e2c8fcf43c9","system_id":"levelo_inurba_marseille","lat":43.24181,"lon":5.3973,"is_reserved":false,"is_disabled":false,"rental_uris":{"android":"levelo://app?vid=7430b6cc-b229-4c9f-aeae-8e2c8fcf43c9","ios":"levelo://app?vid=7430b6cc-b229-4c9f-aeae-8e2c8fcf43c9"},"vehicle_type_id":"4","last_reported":1746482964,"current_range_meters":10800,"station_id":"ce4bhn12rcd13ifvqgpg","pricing_plan_id":"cebpf4jnsgd1na2vs0mg"},{"bike_id":"1858d475-64c1-4a30-a90d-6e80fdac193d","system_id":"levelo_inurba_marseille","lat":43.27941,"lon":5.41023,"is_reserved":false,"is_disabled":false,"rental_uris":{"android":"levelo://app?vid=1858d475-64c1-4a30-a90d-6e80fdac193d","ios":"levelo://app?vid=1858d475-64c1-4a30-a90d-6e80fdac193d"},"vehicle_type_id":"4","last_reported":1746482964,"current_range_meters":10800,"station_id":"ce4bhnp2rcd13ifvqh0g","pricing_plan_id":"cebpf4jnsgd1na2vs0mg"},{"bike_id":"4567db42-a456-48b6-bc7d-8dd13247fcc0","system_id":"levelo_inurba_marseille","lat":43.27948,"lon":5.41038,"is_reserved":false,"is_disabled":false,"rental_uris":{"android":"levelo://app?vid=4567db42-a456-48b6-bc7d-8dd13247fcc0","ios":"levelo://app?vid=4567db42-a456-48b6-bc7d-8dd13247fcc0"},"vehicle_type_id":"4","last_reported":1746482964,"current_range_meters":10800,"station_id":"ce4bhnp2rcd13ifvqh0g","pricing_plan_id":"cebpf4jnsgd1na2vs0mg"},{"bike_id":"bd0f5d5e-963b-4fe6-aa82-9fc047b0ac51","system_id":"levelo_inurba_marseille","lat":43.299042,"lon":5.388155,"is_reserved":false,"is_disabled":false,"rental_uris":{"android":"levelo://app?vid=bd0f5d5e-963b-4fe6-aa82-9fc047b0ac51","ios":"levelo://app?vid=bd0f5d5e-963b-4fe6-aa82-9fc047b0ac51"},"vehicle_type_id":"4","last_reported":1746482964,"current_range_meters":11200,"station_id":"","pricing_plan_id":"cebpf4jnsgd1na2vs0mg"},{"bike_id":"62bfa9fa-531f-4d2b-9e57-eb50b2d48c8c","system_id":"levelo_inurba_marseille","lat":43.24284,"lon":5.38015,"is_reserved":false,"is_disabled":false,"rental_uris":{"android":"levelo://app?vid=62bfa9fa-531f-4d2b-9e57-eb50b2d48c8c","ios":"levelo://app?vid=62bfa9fa-531f-4d2b-9e57-eb50b2d48c8c"},"vehicle_type_id":"4","last_reported":1746482964,"current_range_meters":11200,"station_id":"","pricing_plan_id":"cebpf4jnsgd1na2vs0mg"},{"bike_id":"9d8f73eb-df09-4699-86a7-d631e2319093","system_id":"levelo_inurba_marseille","lat":43.26268,"lon":5.37441,"is_reserved":false,"is_disabled":false,"rental_uris":{"android":"levelo://app?vid=9d8f73eb-df09-4699-86a7-d631e2319093","ios":"levelo://app?vid=9d8f73eb-df09-4699-86a7-d631e2319093"},"vehicle_type_id":"4","last_reported":1746482964,"current_range_meters":11600,"station_id":"","pricing_plan_id":"cebpf4jnsgd1na2vs0mg"},{"bike_id":"8de468c6-9e73-4fff-9ec1-822aa1e3ad27","system_id":"levelo_inurba_marseille","lat":43.28975,"lon":5.36695,"is_reserved":false,"is_disabled":false,"rental_uris":{"android":"levelo://app?vid=8de468c6-9e73-4fff-9ec1-822aa1e3ad27","ios":"levelo://app?vid=8de468c6-9e73-4fff-9ec1-822aa1e3ad27"},"vehicle_type_id":"4","last_reported":1746482964,"current_range_meters":11600,"station_id":"ce4bhap2rcd13ifvqek0","pricing_plan_id":"cebpf4jnsgd1na2vs0mg"},{"bike_id":"b486f5fd-1209-4352-985e-d268bb97a482","system_id":"levelo_inurba_marseille","lat":43.28419,"lon":5.3498,"is_reserved":false,"is_disabled":false,"rental_uris":{"android":"levelo://app?vid=b486f5fd-1209-4352-985e-d268bb97a482","ios":"levelo://app?vid=b486f5fd-1209-4352-985e-d268bb97a482"},"vehicle_type_id":"4","last_reported":1746482964,"current_range_meters":11600,"station_id":"ce4bhbh2rcd13ifvqepg","pricing_plan_id":"cebpf4jnsgd1na2vs0mg"},{"bike_id":"5b8d1337-a035-4531-8ae9-843647d6f95e","system_id":"levelo_inurba_marseille","lat":43.23182,"lon":5.39962,"is_reserved":false,"is_disabled":false,"rental_uris":{"android":"levelo://app?vid=5b8d1337-a035-4531-8ae9-843647d6f95e","ios":"levelo://app?vid=5b8d1337-a035-4531-8ae9-843647d6f95e"},"vehicle_type_id":"4","last_reported":1746482964,"current_range_meters":11600,"station_id":"ce4bhn12rcd13ifvqgqg","pricing_plan_id":"cebpf4jnsgd1na2vs0mg"},{"bike_id":"b60c17f5-436e-489e-8f3c-790e6084ac64","system_id":"levelo_inurba_marseille","lat":43.2119,"lon":5.35076,"is_reserved":false,"is_disabled":false,"rental_uris":{"android":"levelo://app?vid=b60c17f5-436e-489e-8f3c-790e6084ac64","ios":"levelo://app?vid=b60c17f5-436e-489e-8f3c-790e6084ac64"},"vehicle_type_id":"4","last_reported":1746482964,"current_range_meters":12000,"station_id":"st_cvj6sg6p6f1abm77japg","pricing_plan_id":"cebpf4jnsgd1na2vs0mg"},{"bike_id":"0c377d9d-9a3a-47a7-9944-6039314b5e15","system_id":"levelo_inurba_marseille","lat":43.245975,"lon":5.404882,"is_reserved":false,"is_disabled":false,"rental_uris":{"android":"levelo://app?vid=0c377d9d-9a3a-47a7-9944-6039314b5e15","ios":"levelo://app?vid=0c377d9d-9a3a-47a7-9944-6039314b5e15"},"vehicle_type_id":"4","last_reported":1746482964,"current_range_meters":12400,"station_id":"","pricing_plan_id":"cebpf4jnsgd1na2vs0mg"},{"bike_id":"05a84f69-0592-442a-b098-6253d0b70e9e","system_id":"levelo_inurba_marseille","lat":43.29994,"lon":5.37223,"is_reserved":false,"is_disabled":false,"rental_uris":{"android":"levelo://app?vid=05a84f69-0592-442a-b098-6253d0b70e9e","ios":"levelo://app?vid=05a84f69-0592-442a-b098-6253d0b70e9e"},"vehicle_type_id":"4","last_reported":1746482964,"current_range_meters":12400,"station_id":"ce4bgr92rcd13ifvqc7g","pricing_plan_id":"cebpf4jnsgd1na2vs0mg"},{"bike_id":"fbda12d9-6999-44a5-a236-2a288c2ac07c","system_id":"levelo_inurba_marseille","lat":43.24147,"lon":5.37694,"is_reserved":false,"is_disabled":false,"rental_uris":{"android":"levelo://app?vid=fbda12d9-6999-44a5-a236-2a288c2ac07c","ios":"levelo://app?vid=fbda12d9-6999-44a5-a236-2a288c2ac07c"},"vehicle_type_id":"4","last_reported":1746482964,"current_range_meters":12400,"station_id":"ce4bhnp2rcd13ifvqgvg","pricing_plan_id":"cebpf4jnsgd1na2vs0mg"},{"bike_id":"763c412a-22fd-426f-a46a-b5235da371a1","system_id":"levelo_inurba_marseille","lat":43.27952,"lon":5.41043,"is_reserved":false,"is_disabled":false,"rental_uris":{"android":"levelo://app?vid=763c412a-22fd-426f-a46a-b5235da371a1","ios":"levelo://app?vid=763c412a-22fd-426f-a46a-b5235da371a1"},"vehicle_type_id":"4","last_reported":1746482964,"current_range_meters":12400,"station_id":"ce4bhnp2rcd13ifvqh0g","pricing_plan_id":"cebpf4jnsgd1na2vs0mg"},{"bike_id":"bfd18729-234a-4c72-b47b-2cff574b2dc5","system_id":"levelo_inurba_marseille","lat":43.292376,"lon":5.383089,"is_reserved":false,"is_disabled":false,"rental_uris":{"android":"levelo://app?vid=bfd18729-234a-4c72-b47b-2cff574b2dc5","ios":"levelo://app?vid=bfd18729-234a-4c72-b47b-2cff574b2dc5"},"vehicle_type_id":"4","last_reported":1746482964,"current_range_meters":12800,"station_id":"","pricing_plan_id":"cebpf4jnsgd1na2vs0mg"},{"bike_id":"89984d3c-249e-4fb0-8f70-1fb75b48d7e6","system_id":"levelo_inurba_marseille","lat":43.30805,"lon":5.38128,"is_reserved":false,"is_disabled":false,"rental_uris":{"android":"levelo://app?vid=89984d3c-249e-4fb0-8f70-1fb75b48d7e6","ios":"levelo://app?vid=89984d3c-249e-4fb0-8f70-1fb75b48d7e6"},"vehicle_type_id":"4","last_reported":1746482964,"current_range_meters":12800,"station_id":"ce4bgt12rcd13ifvqce0","pricing_plan_id":"cebpf4jnsgd1na2vs0mg"},{"bike_id":"db607aba-0db6-423b-a818-c23224727203","system_id":"levelo_inurba_marseille","lat":43.231528,"lon":5.436953,"is_reserved":false,"is_disabled":false,"rental_uris":{"android":"levelo://app?vid=db607aba-0db6-423b-a818-c23224727203","ios":"levelo://app?vid=db607aba-0db6-423b-a818-c23224727203"},"vehicle_type_id":"4","last_reported":1746482964,"current_range_meters":12800,"station_id":"ce4bhmp2rcd13ifvqgog","pricing_plan_id":"cebpf4jnsgd1na2vs0mg"},{"bike_id":"156b2893-1935-4e6b-a870-c55ec5e1824b","system_id":"levelo_inurba_marseille","lat":43.30799,"lon":5.435178,"is_reserved":false,"is_disabled":false,"rental_uris":{"android":"levelo://app?vid=156b2893-1935-4e6b-a870-c55ec5e1824b","ios":"levelo://app?vid=156b2893-1935-4e6b-a870-c55ec5e1824b"},"vehicle_type_id":"4","last_reported":1746482964,"current_range_meters":12800,"station_id":"ce4bhph2rcd13ifvqheg","pricing_plan_id":"cebpf4jnsgd1na2vs0mg"},{"bike_id":"a46b5721-597c-404e-8ddb-3ba6469f967d","system_id":"levelo_inurba_marseille","lat":43.23181,"lon":5.35558,"is_reserved":false,"is_disabled":false,"rental_uris":{"android":"levelo://app?vid=a46b5721-597c-404e-8ddb-3ba6469f967d","ios":"levelo://app?vid=a46b5721-597c-404e-8ddb-3ba6469f967d"},"vehicle_type_id":"4","last_reported":1746482964,"current_range_meters":12800,"station_id":"ce4bhu92rcd13ifvqi70","pricing_plan_id":"cebpf4jnsgd1na2vs0mg"},{"bike_id":"311ec4e0-482e-4b83-a693-e6b86a1abb04","system_id":"levelo_inurba_marseille","lat":43.331421,"lon":5.413833,"is_reserved":false,"is_disabled":false,"rental_uris":{"android":"levelo://app?vid=311ec4e0-482e-4b83-a693-e6b86a1abb04","ios":"levelo://app?vid=311ec4e0-482e-4b83-a693-e6b86a1abb04"},"vehicle_type_id":"4","last_reported":1746482964,"current_range_meters":13600,"station_id":"","pricing_plan_id":"cebpf4jnsgd1na2vs0mg"},{"bike_id":"adf5dfc5-5664-4b0f-8d86-0129f9858272","system_id":"levelo_inurba_marseille","lat":43.3078,"lon":5.37649,"is_reserved":false,"is_disabled":false,"rental_uris":{"android":"levelo://app?vid=adf5dfc5-5664-4b0f-8d86-0129f9858272","ios":"levelo://app?vid=adf5dfc5-5664-4b0f-8d86-0129f9858272"},"vehicle_type_id":"4","last_reported":1746482964,"current_range_meters":13600,"station_id":"ce4bgv92rcd13ifvqcq0","pricing_plan_id":"cebpf4jnsgd1na2vs0mg"},{"bike_id":"d4f2e70f-e58a-4dfd-9cee-99b40b41e19d","system_id":"levelo_inurba_marseille","lat":43.30931,"lon":5.40146,"is_reserved":false,"is_disabled":false,"rental_uris":{"android":"levelo://app?vid=d4f2e70f-e58a-4dfd-9cee-99b40b41e19d","ios":"levelo://app?vid=d4f2e70f-e58a-4dfd-9cee-99b40b41e19d"},"vehicle_type_id":"4","last_reported":1746482964,"current_range_meters":13600,"station_id":"ce4bgvp2rcd13ifvqct0","pricing_plan_id":"cebpf4jnsgd1na2vs0mg"},{"bike_id":"6f4127eb-374b-4f8f-b349-140704b35e50","system_id":"levelo_inurba_marseille","lat":43.31327,"lon":5.39684,"is_reserved":false,"is_disabled":false,"rental_uris":{"android":"levelo://app?vid=6f4127eb-374b-4f8f-b349-140704b35e50","ios":"levelo://app?vid=6f4127eb-374b-4f8f-b349-140704b35e50"},"vehicle_type_id":"4","last_reported":1746482964,"current_range_meters":13600,"station_id":"ce4bgvp2rcd13ifvqcu0","pricing_plan_id":"cebpf4jnsgd1na2vs0mg"},{"bike_id":"e59f121e-ba4f-4890-a742-2d0c49eae7d8","system_id":"levelo_inurba_marseille","lat":43.315439,"lon":5.380313,"is_reserved":false,"is_disabled":false,"rental_uris":{"android":"levelo://app?vid=e59f121e-ba4f-4890-a742-2d0c49eae7d8","ios":"levelo://app?vid=e59f121e-ba4f-4890-a742-2d0c49eae7d8"},"vehicle_type_id":"4","last_reported":1746482964,"current_range_meters":13600,"station_id":"ce4bhsp2rcd13ifvqi50","pricing_plan_id":"cebpf4jnsgd1na2vs0mg"},{"bike_id":"936a637d-a079-4ff8-ae5b-41a138df9f05","system_id":"levelo_inurba_marseille","lat":43.27973,"lon":5.38725,"is_reserved":false,"is_disabled":false,"rental_uris":{"android":"levelo://app?vid=936a637d-a079-4ff8-ae5b-41a138df9f05","ios":"levelo://app?vid=936a637d-a079-4ff8-ae5b-41a138df9f05"},"vehicle_type_id":"4","last_reported":1746482964,"current_range_meters":14000,"station_id":"ce4bhg12rcd13ifvqf80","pricing_plan_id":"cebpf4jnsgd1na2vs0mg"},{"bike_id":"44d1a496-4f16-46a6-b178-f49cec17003e","system_id":"levelo_inurba_marseille","lat":43.27202,"lon":5.40968,"is_reserved":false,"is_disabled":false,"rental_uris":{"android":"levelo://app?vid=44d1a496-4f16-46a6-b178-f49cec17003e","ios":"levelo://app?vid=44d1a496-4f16-46a6-b178-f49cec17003e"},"vehicle_type_id":"4","last_reported":1746482964,"current_range_meters":14000,"station_id":"ce4bhl12rcd13ifvqgf0","pricing_plan_id":"cebpf4jnsgd1na2vs0mg"},{"bike_id":"a9b78ccc-48f0-4502-b89e-0369c4bf7b0b","system_id":"levelo_inurba_marseille","lat":43.23183,"lon":5.39982,"is_reserved":false,"is_disabled":false,"rental_uris":{"android":"levelo://app?vid=a9b78ccc-48f0-4502-b89e-0369c4bf7b0b","ios":"levelo://app?vid=a9b78ccc-48f0-4502-b89e-0369c4bf7b0b"},"vehicle_type_id":"4","last_reported":1746482964,"current_range_meters":14000,"station_id":"ce4bhn12rcd13ifvqgqg","pricing_plan_id":"cebpf4jnsgd1na2vs0mg"},{"bike_id":"7e86d21d-45f2-4214-8268-1894a29d6870","system_id":"levelo_inurba_marseille","lat":43.27815,"lon":5.40721,"is_reserved":false,"is_disabled":false,"rental_uris":{"android":"levelo://app?vid=7e86d21d-45f2-4214-8268-1894a29d6870","ios":"levelo://app?vid=7e86d21d-45f2-4214-8268-1894a29d6870"},"vehicle_type_id":"4","last_reported":1746482964,"current_range_meters":14000,"station_id":"ce4bhnh2rcd13ifvqgtg","pricing_plan_id":"cebpf4jnsgd1na2vs0mg"},{"bike_id":"39aa275e-d157-4bd3-b8c5-b8344765c5be","system_id":"levelo_inurba_marseille","lat":43.287304,"lon":5.36077,"is_reserved":false,"is_disabled":false,"rental_uris":{"android":"levelo://app?vid=39aa275e-d157-4bd3-b8c5-b8344765c5be","ios":"levelo://app?vid=39aa275e-d157-4bd3-b8c5-b8344765c5be"},"vehicle_type_id":"4","last_reported":1746482964,"current_range_meters":14000,"station_id":"cki0cbj6b192h4jlfktg","pricing_plan_id":"cebpf4jnsgd1na2vs0mg"},{"bike_id":"c9592205-9409-4f74-aed1-7c4141a58caa","system_id":"levelo_inurba_marseille","lat":43.27137,"lon":5.36366,"is_reserved":false,"is_disabled":false,"rental_uris":{"android":"levelo://app?vid=c9592205-9409-4f74-aed1-7c4141a58caa","ios":"levelo://app?vid=c9592205-9409-4f74-aed1-7c4141a58caa"},"vehicle_type_id":"4","last_reported":1746482964,"current_range_meters":14400,"station_id":"","pricing_plan_id":"cebpf4jnsgd1na2vs0mg"},{"bike_id":"d1aa6e5d-6beb-440c-afb6-1d488c12e5a1","system_id":"levelo_inurba_marseille","lat":43.32074,"lon":5.36758,"is_reserved":false,"is_disabled":false,"rental_uris":{"android":"levelo://app?vid=d1aa6e5d-6beb-440c-afb6-1d488c12e5a1","ios":"levelo://app?vid=d1aa6e5d-6beb-440c-afb6-1d488c12e5a1"},"vehicle_type_id":"4","last_reported":1746482964,"current_range_meters":14400,"station_id":"","pricing_plan_id":"cebpf4jnsgd1na2vs0mg"},{"bike_id":"ff98988f-b7b5-4b59-aafa-108198aebfdf","system_id":"levelo_inurba_marseille","lat":43.31175,"lon":5.38702,"is_reserved":false,"is_disabled":false,"rental_uris":{"android":"levelo://app?vid=ff98988f-b7b5-4b59-aafa-108198aebfdf","ios":"levelo://app?vid=ff98988f-b7b5-4b59-aafa-108198aebfdf"},"vehicle_type_id":"4","last_reported":1746482964,"current_range_meters":14400,"station_id":"ce4bgv12rcd13ifvqcp0","pricing_plan_id":"cebpf4jnsgd1na2vs0mg"},{"bike_id":"b5f7bc11-c20e-47a9-b1c4-f4cb5c293a0c","system_id":"levelo_inurba_marseille","lat":43.27909,"lon":5.38031,"is_reserved":false,"is_disabled":false,"rental_uris":{"android":"levelo://app?vid=b5f7bc11-c20e-47a9-b1c4-f4cb5c293a0c","ios":"levelo://app?vid=b5f7bc11-c20e-47a9-b1c4-f4cb5c293a0c"},"vehicle_type_id":"4","last_reported":1746482964,"current_range_meters":14400,"station_id":"ce4bhf92rcd13ifvqf50","pricing_plan_id":"cebpf4jnsgd1na2vs0mg"},{"bike_id":"7ae923fd-583b-405f-968d-fb1bcede32b7","system_id":"levelo_inurba_marseille","lat":43.25085,"lon":5.39514,"is_reserved":false,"is_disabled":false,"rental_uris":{"android":"levelo://app?vid=7ae923fd-583b-405f-968d-fb1bcede32b7","ios":"levelo://app?vid=7ae923fd-583b-405f-968d-fb1bcede32b7"},"vehicle_type_id":"4","last_reported":1746482964,"current_range_meters":14800,"station_id":"ce4bhm12rcd13ifvqgkg","pricing_plan_id":"cebpf4jnsgd1na2vs0mg"},{"bike_id":"34b1efd4-48c2-4719-84d4-6a6a73d11d34","system_id":"levelo_inurba_marseille","lat":43.31521,"lon":5.37271,"is_reserved":false,"is_disabled":false,"rental_uris":{"android":"levelo://app?vid=34b1efd4-48c2-4719-84d4-6a6a73d11d34","ios":"levelo://app?vid=34b1efd4-48c2-4719-84d4-6a6a73d11d34"},"vehicle_type_id":"4","last_reported":1746482964,"current_range_meters":15200,"station_id":"","pricing_plan_id":"cebpf4jnsgd1na2vs0mg"},{"bike_id":"e3bb4c0a-ea28-4d8b-a92a-340ecfdd5f1d","system_id":"levelo_inurba_marseille","lat":43.310613,"lon":5.37546,"is_reserved":false,"is_disabled":false,"rental_uris":{"android":"levelo://app?vid=e3bb4c0a-ea28-4d8b-a92a-340ecfdd5f1d","ios":"levelo://app?vid=e3bb4c0a-ea28-4d8b-a92a-340ecfdd5f1d"},"vehicle_type_id":"4","last_reported":1746482964,"current_range_meters":16000,"station_id":"","pricing_plan_id":"cebpf4jnsgd1na2vs0mg"},{"bike_id":"5cf9bea3-9c42-4bef-a5e8-cfcc39d36971","system_id":"levelo_inurba_marseille","lat":43.31115,"lon":5.37761,"is_reserved":false,"is_disabled":false,"rental_uris":{"android":"levelo://app?vid=5cf9bea3-9c42-4bef-a5e8-cfcc39d36971","ios":"levelo://app?vid=5cf9bea3-9c42-4bef-a5e8-cfcc39d36971"},"vehicle_type_id":"4","last_reported":1746482964,"current_range_meters":16000,"station_id":"ce4bgt92rcd13ifvqcg0","pricing_plan_id":"cebpf4jnsgd1na2vs0mg"},{"bike_id":"f923bc7e-7ddd-48e1-9a5c-e4b11899f853","system_id":"levelo_inurba_marseille","lat":43.30888,"lon":5.39647,"is_reserved":false,"is_disabled":false,"rental_uris":{"android":"levelo://app?vid=f923bc7e-7ddd-48e1-9a5c-e4b11899f853","ios":"levelo://app?vid=f923bc7e-7ddd-48e1-9a5c-e4b11899f853"},"vehicle_type_id":"4","last_reported":1746482964,"current_range_meters":16000,"station_id":"ce4bh012rcd13ifvqcv0","pricing_plan_id":"cebpf4jnsgd1na2vs0mg"},{"bike_id":"5a5b350c-dd96-4859-866b-1a6e41e7a8eb","system_id":"levelo_inurba_marseille","lat":43.2925,"lon":5.40914,"is_reserved":false,"is_disabled":false,"rental_uris":{"android":"levelo://app?vid=5a5b350c-dd96-4859-866b-1a6e41e7a8eb","ios":"levelo://app?vid=5a5b350c-dd96-4859-866b-1a6e41e7a8eb"},"vehicle_type_id":"4","last_reported":1746482964,"current_range_meters":16000,"station_id":"ce4bh192rcd13ifvqdc0","pricing_plan_id":"cebpf4jnsgd1na2vs0mg"},{"bike_id":"bedea05d-d78e-49aa-a496-3f51d4ea594b","system_id":"levelo_inurba_marseille","lat":43.28468,"lon":5.35883,"is_reserved":false,"is_disabled":false,"rental_uris":{"android":"levelo://app?vid=bedea05d-d78e-49aa-a496-3f51d4ea594b","ios":"levelo://app?vid=bedea05d-d78e-49aa-a496-3f51d4ea594b"},"vehicle_type_id":"4","last_reported":1746482964,"current_range_meters":16000,"station_id":"ce4bhah2rcd13ifvqei0","pricing_plan_id":"cebpf4jnsgd1na2vs0mg"},{"bike_id":"2df614bf-145f-44cd-b174-f8bd8326963c","system_id":"levelo_inurba_marseille","lat":43.31548,"lon":5.38018,"is_reserved":false,"is_disabled":false,"rental_uris":{"android":"levelo://app?vid=2df614bf-145f-44cd-b174-f8bd8326963c","ios":"levelo://app?vid=2df614bf-145f-44cd-b174-f8bd8326963c"},"vehicle_type_id":"4","last_reported":1746482964,"current_range_meters":16000,"station_id":"ce4bhsp2rcd13ifvqi50","pricing_plan_id":"cebpf4jnsgd1na2vs0mg"},{"bike_id":"5a7d2749-ecbc-4351-94f2-8339d95d4c06","system_id":"levelo_inurba_marseille","lat":43.3154,"lon":5.38035,"is_reserved":false,"is_disabled":false,"rental_uris":{"android":"levelo://app?vid=5a7d2749-ecbc-4351-94f2-8339d95d4c06","ios":"levelo://app?vid=5a7d2749-ecbc-4351-94f2-8339d95d4c06"},"vehicle_type_id":"4","last_reported":1746482964,"current_range_meters":16000,"station_id":"ce4bhsp2rcd13ifvqi50","pricing_plan_id":"cebpf4jnsgd1na2vs0mg"},{"bike_id":"f7f685cd-3f69-4e28-b1ba-dd267fb3831d","system_id":"levelo_inurba_marseille","lat":43.28714,"lon":5.36084,"is_reserved":false,"is_disabled":false,"rental_uris":{"android":"levelo://app?vid=f7f685cd-3f69-4e28-b1ba-dd267fb3831d","ios":"levelo://app?vid=f7f685cd-3f69-4e28-b1ba-dd267fb3831d"},"vehicle_type_id":"4","last_reported":1746482964,"current_range_meters":16000,"station_id":"cki0cbj6b192h4jlfktg","pricing_plan_id":"cebpf4jnsgd1na2vs0mg"},{"bike_id":"3f84d55c-f7b3-443f-a8ba-1f83ba8291a2","system_id":"levelo_inurba_marseille","lat":43.21183,"lon":5.35071,"is_reserved":false,"is_disabled":false,"rental_uris":{"android":"levelo://app?vid=3f84d55c-f7b3-443f-a8ba-1f83ba8291a2","ios":"levelo://app?vid=3f84d55c-f7b3-443f-a8ba-1f83ba8291a2"},"vehicle_type_id":"4","last_reported":1746482964,"current_range_meters":16000,"station_id":"st_cvj6sg6p6f1abm77japg","pricing_plan_id":"cebpf4jnsgd1na2vs0mg"},{"bike_id":"99097e50-dd2e-47c3-a879-f48655baf4d9","system_id":"levelo_inurba_marseille","lat":43.245964,"lon":5.408324,"is_reserved":false,"is_disabled":false,"rental_uris":{"android":"levelo://app?vid=99097e50-dd2e-47c3-a879-f48655baf4d9","ios":"levelo://app?vid=99097e50-dd2e-47c3-a879-f48655baf4d9"},"vehicle_type_id":"4","last_reported":1746482964,"current_range_meters":16400,"station_id":"","pricing_plan_id":"cebpf4jnsgd1na2vs0mg"},{"bike_id":"6170821d-7cb2-4d01-8797-fc2576276a6a","system_id":"levelo_inurba_marseille","lat":43.29979,"lon":5.37142,"is_reserved":false,"is_disabled":false,"rental_uris":{"android":"levelo://app?vid=6170821d-7cb2-4d01-8797-fc2576276a6a","ios":"levelo://app?vid=6170821d-7cb2-4d01-8797-fc2576276a6a"},"vehicle_type_id":"4","last_reported":1746482964,"current_range_meters":16400,"station_id":"ce4bgr92rcd13ifvqc7g","pricing_plan_id":"cebpf4jnsgd1na2vs0mg"},{"bike_id":"53244cb6-fb82-4872-b855-d7022e098455","system_id":"levelo_inurba_marseille","lat":43.28936,"lon":5.36637,"is_reserved":false,"is_disabled":false,"rental_uris":{"android":"levelo://app?vid=53244cb6-fb82-4872-b855-d7022e098455","ios":"levelo://app?vid=53244cb6-fb82-4872-b855-d7022e098455"},"vehicle_type_id":"4","last_reported":1746482964,"current_range_meters":16400,"station_id":"ce4bhap2rcd13ifvqek0","pricing_plan_id":"cebpf4jnsgd1na2vs0mg"},{"bike_id":"3197ddd3-4517-4af6-bb00-13de6162c073","system_id":"levelo_inurba_marseille","lat":43.271813,"lon":5.40992,"is_reserved":false,"is_disabled":false,"rental_uris":{"android":"levelo://app?vid=3197ddd3-4517-4af6-bb00-13de6162c073","ios":"levelo://app?vid=3197ddd3-4517-4af6-bb00-13de6162c073"},"vehicle_type_id":"4","last_reported":1746482964,"current_range_meters":16400,"station_id":"ce4bhl12rcd13ifvqgf0","pricing_plan_id":"cebpf4jnsgd1na2vs0mg"},{"bike_id":"7a0a4cf5-0936-4801-9468-a954ccbbdb39","system_id":"levelo_inurba_marseille","lat":43.31524,"lon":5.38033,"is_reserved":false,"is_disabled":false,"rental_uris":{"android":"levelo://app?vid=7a0a4cf5-0936-4801-9468-a954ccbbdb39","ios":"levelo://app?vid=7a0a4cf5-0936-4801-9468-a954ccbbdb39"},"vehicle_type_id":"4","last_reported":1746482964,"current_range_meters":16400,"station_id":"ce4bhsp2rcd13ifvqi50","pricing_plan_id":"cebpf4jnsgd1na2vs0mg"},{"bike_id":"bfb768d4-db43-4db8-8659-afeb33dd4edd","system_id":"levelo_inurba_marseille","lat":43.30735,"lon":5.42436,"is_reserved":false,"is_disabled":false,"rental_uris":{"android":"levelo://app?vid=bfb768d4-db43-4db8-8659-afeb33dd4edd","ios":"levelo://app?vid=bfb768d4-db43-4db8-8659-afeb33dd4edd"},"vehicle_type_id":"4","last_reported":1746482964,"current_range_meters":16400,"station_id":"st_cvj6ca6bvosntc0bfgr0","pricing_plan_id":"cebpf4jnsgd1na2vs0mg"},{"bike_id":"7e1b45ec-b845-476d-955d-74c50dc59ccd","system_id":"levelo_inurba_marseille","lat":43.313599,"lon":5.384929,"is_reserved":false,"is_disabled":false,"rental_uris":{"android":"levelo://app?vid=7e1b45ec-b845-476d-955d-74c50dc59ccd","ios":"levelo://app?vid=7e1b45ec-b845-476d-955d-74c50dc59ccd"},"vehicle_type_id":"4","last_reported":1746482964,"current_range_meters":16800,"station_id":"ce4bgt92rcd13ifvqcf0","pricing_plan_id":"cebpf4jnsgd1na2vs0mg"},{"bike_id":"68db1e13-3b7e-40af-83a2-a4203eac9c02","system_id":"levelo_inurba_marseille","lat":43.28123,"lon":5.37871,"is_reserved":false,"is_disabled":false,"rental_uris":{"android":"levelo://app?vid=68db1e13-3b7e-40af-83a2-a4203eac9c02","ios":"levelo://app?vid=68db1e13-3b7e-40af-83a2-a4203eac9c02"},"vehicle_type_id":"4","last_reported":1746482964,"current_range_meters":16800,"station_id":"ce4bha12rcd13ifvqee0","pricing_plan_id":"cebpf4jnsgd1na2vs0mg"},{"bike_id":"3b5668cd-eac2-45fb-abc3-ddaee77b5d46","system_id":"levelo_inurba_marseille","lat":43.29556,"lon":5.42296,"is_reserved":false,"is_disabled":false,"rental_uris":{"android":"levelo://app?vid=3b5668cd-eac2-45fb-abc3-ddaee77b5d46","ios":"levelo://app?vid=3b5668cd-eac2-45fb-abc3-ddaee77b5d46"},"vehicle_type_id":"4","last_reported":1746482964,"current_range_meters":16800,"station_id":"ce4bhph2rcd13ifvqhdg","pricing_plan_id":"cebpf4jnsgd1na2vs0mg"},{"bike_id":"354896b6-fd25-4ba1-b0fe-28146e4c014b","system_id":"levelo_inurba_marseille","lat":43.29317,"lon":5.37181,"is_reserved":false,"is_disabled":false,"rental_uris":{"android":"levelo://app?vid=354896b6-fd25-4ba1-b0fe-28146e4c014b","ios":"levelo://app?vid=354896b6-fd25-4ba1-b0fe-28146e4c014b"},"vehicle_type_id":"4","last_reported":1746482964,"current_range_meters":17200,"station_id":"ce4bgh92rcd13ifvqb40","pricing_plan_id":"cebpf4jnsgd1na2vs0mg"},{"bike_id":"cb6ccff5-9303-48a0-aad4-d64bb519b6b5","system_id":"levelo_inurba_marseille","lat":43.29582,"lon":5.39965,"is_reserved":false,"is_disabled":false,"rental_uris":{"android":"levelo://app?vid=cb6ccff5-9303-48a0-aad4-d64bb519b6b5","ios":"levelo://app?vid=cb6ccff5-9303-48a0-aad4-d64bb519b6b5"},"vehicle_type_id":"4","last_reported":1746482964,"current_range_meters":17200,"station_id":"ce4bh312rcd13ifvqdj0","pricing_plan_id":"cebpf4jnsgd1na2vs0mg"},{"bike_id":"9175d517-3c9f-4a9d-9359-bc5552cd94b8","system_id":"levelo_inurba_marseille","lat":43.2862,"lon":5.35096,"is_reserved":false,"is_disabled":false,"rental_uris":{"android":"levelo://app?vid=9175d517-3c9f-4a9d-9359-bc5552cd94b8","ios":"levelo://app?vid=9175d517-3c9f-4a9d-9359-bc5552cd94b8"},"vehicle_type_id":"4","last_reported":1746482964,"current_range_meters":17200,"station_id":"ce4bhch2rcd13ifvqeug","pricing_plan_id":"cebpf4jnsgd1na2vs0mg"},{"bike_id":"3aff1407-0ea3-4a74-8f80-879c2b039819","system_id":"levelo_inurba_marseille","lat":43.28711,"lon":5.39976,"is_reserved":false,"is_disabled":false,"rental_uris":{"android":"levelo://app?vid=3aff1407-0ea3-4a74-8f80-879c2b039819","ios":"levelo://app?vid=3aff1407-0ea3-4a74-8f80-879c2b039819"},"vehicle_type_id":"4","last_reported":1746482964,"current_range_meters":17200,"station_id":"ce4bho92rcd13ifvqh3g","pricing_plan_id":"cebpf4jnsgd1na2vs0mg"},{"bike_id":"6ce81efa-e8f3-477a-b7a1-a1c58c727c56","system_id":"levelo_inurba_marseille","lat":43.21193,"lon":5.35064,"is_reserved":false,"is_disabled":false,"rental_uris":{"android":"levelo://app?vid=6ce81efa-e8f3-477a-b7a1-a1c58c727c56","ios":"levelo://app?vid=6ce81efa-e8f3-477a-b7a1-a1c58c727c56"},"vehicle_type_id":"4","last_reported":1746482964,"current_range_meters":17600,"station_id":"","pricing_plan_id":"cebpf4jnsgd1na2vs0mg"},{"bike_id":"8089a7f7-6677-45a4-9140-6ad780ae044e","system_id":"levelo_inurba_marseille","lat":43.31374,"lon":5.38494,"is_reserved":false,"is_disabled":false,"rental_uris":{"android":"levelo://app?vid=8089a7f7-6677-45a4-9140-6ad780ae044e","ios":"levelo://app?vid=8089a7f7-6677-45a4-9140-6ad780ae044e"},"vehicle_type_id":"4","last_reported":1746482964,"current_range_meters":17600,"station_id":"ce4bgt92rcd13ifvqcf0","pricing_plan_id":"cebpf4jnsgd1na2vs0mg"},{"bike_id":"62abd1a7-7a0b-4601-b7d9-44b92d8d2d1e","system_id":"levelo_inurba_marseille","lat":43.28109,"lon":5.37842,"is_reserved":false,"is_disabled":false,"rental_uris":{"android":"levelo://app?vid=62abd1a7-7a0b-4601-b7d9-44b92d8d2d1e","ios":"levelo://app?vid=62abd1a7-7a0b-4601-b7d9-44b92d8d2d1e"},"vehicle_type_id":"4","last_reported":1746482964,"current_range_meters":17600,"station_id":"ce4bha12rcd13ifvqee0","pricing_plan_id":"cebpf4jnsgd1na2vs0mg"},{"bike_id":"d1783a15-debe-404c-a8f0-9f34baa66f87","system_id":"levelo_inurba_marseille","lat":43.29275,"lon":5.36853,"is_reserved":false,"is_disabled":false,"rental_uris":{"android":"levelo://app?vid=d1783a15-debe-404c-a8f0-9f34baa66f87","ios":"levelo://app?vid=d1783a15-debe-404c-a8f0-9f34baa66f87"},"vehicle_type_id":"4","last_reported":1746482964,"current_range_meters":17600,"station_id":"ce4bhbp2rcd13ifvqesg","pricing_plan_id":"cebpf4jnsgd1na2vs0mg"},{"bike_id":"f8951e71-e6d6-4079-85a7-64eca3dfb50c","system_id":"levelo_inurba_marseille","lat":43.24175,"lon":5.39726,"is_reserved":false,"is_disabled":false,"rental_uris":{"android":"levelo://app?vid=f8951e71-e6d6-4079-85a7-64eca3dfb50c","ios":"levelo://app?vid=f8951e71-e6d6-4079-85a7-64eca3dfb50c"},"vehicle_type_id":"4","last_reported":1746482964,"current_range_meters":17600,"station_id":"ce4bhn12rcd13ifvqgpg","pricing_plan_id":"cebpf4jnsgd1na2vs0mg"},{"bike_id":"d513f5ec-f86d-479a-93e5-097919a76000","system_id":"levelo_inurba_marseille","lat":43.28725,"lon":5.39989,"is_reserved":false,"is_disabled":false,"rental_uris":{"android":"levelo://app?vid=d513f5ec-f86d-479a-93e5-097919a76000","ios":"levelo://app?vid=d513f5ec-f86d-479a-93e5-097919a76000"},"vehicle_type_id":"4","last_reported":1746482964,"current_range_meters":17600,"station_id":"ce4bho92rcd13ifvqh3g","pricing_plan_id":"cebpf4jnsgd1na2vs0mg"},{"bike_id":"a327ed7c-cb3d-44b1-bb3d-7951cd226f01","system_id":"levelo_inurba_marseille","lat":43.293396,"lon":5.371296,"is_reserved":false,"is_disabled":false,"rental_uris":{"android":"levelo://app?vid=a327ed7c-cb3d-44b1-bb3d-7951cd226f01","ios":"levelo://app?vid=a327ed7c-cb3d-44b1-bb3d-7951cd226f01"},"vehicle_type_id":"4","last_reported":1746482964,"current_range_meters":18000,"station_id":"","pricing_plan_id":"cebpf4jnsgd1na2vs0mg"},{"bike_id":"f7477c38-2af0-442f-85f6-2721ab0cc799","system_id":"levelo_inurba_marseille","lat":43.29293,"lon":5.37442,"is_reserved":false,"is_disabled":false,"rental_uris":{"android":"levelo://app?vid=f7477c38-2af0-442f-85f6-2721ab0cc799","ios":"levelo://app?vid=f7477c38-2af0-442f-85f6-2721ab0cc799"},"vehicle_type_id":"4","last_reported":1746482964,"current_range_meters":18000,"station_id":"ce4bgi12rcd13ifvqb70","pricing_plan_id":"cebpf4jnsgd1na2vs0mg"},{"bike_id":"82f4dc22-101f-465e-a26a-59bc1ffb8cd4","system_id":"levelo_inurba_marseille","lat":43.28438,"lon":5.37513,"is_reserved":false,"is_disabled":false,"rental_uris":{"android":"levelo://app?vid=82f4dc22-101f-465e-a26a-59bc1ffb8cd4","ios":"levelo://app?vid=82f4dc22-101f-465e-a26a-59bc1ffb8cd4"},"vehicle_type_id":"4","last_reported":1746482964,"current_range_meters":18000,"station_id":"ce4bh412rcd13ifvqds0","pricing_plan_id":"cebpf4jnsgd1na2vs0mg"},{"bike_id":"6ddb90f6-4587-4feb-9901-3dcd0e047bc2","system_id":"levelo_inurba_marseille","lat":43.28994,"lon":5.36674,"is_reserved":false,"is_disabled":false,"rental_uris":{"android":"levelo://app?vid=6ddb90f6-4587-4feb-9901-3dcd0e047bc2","ios":"levelo://app?vid=6ddb90f6-4587-4feb-9901-3dcd0e047bc2"},"vehicle_type_id":"4","last_reported":1746482964,"current_range_meters":18000,"station_id":"ce4bhap2rcd13ifvqek0","pricing_plan_id":"cebpf4jnsgd1na2vs0mg"},{"bike_id":"48a787ef-bb7e-466c-aebb-ff2a53ecaf1d","system_id":"levelo_inurba_marseille","lat":43.29274,"lon":5.36841,"is_reserved":false,"is_disabled":false,"rental_uris":{"android":"levelo://app?vid=48a787ef-bb7e-466c-aebb-ff2a53ecaf1d","ios":"levelo://app?vid=48a787ef-bb7e-466c-aebb-ff2a53ecaf1d"},"vehicle_type_id":"4","last_reported":1746482964,"current_range_meters":18000,"station_id":"ce4bhbp2rcd13ifvqesg","pricing_plan_id":"cebpf4jnsgd1na2vs0mg"},{"bike_id":"03bb5049-51e5-461e-8353-3cc13edfbfb8","system_id":"levelo_inurba_marseille","lat":43.23949,"lon":5.36629,"is_reserved":false,"is_disabled":false,"rental_uris":{"android":"levelo://app?vid=03bb5049-51e5-461e-8353-3cc13edfbfb8","ios":"levelo://app?vid=03bb5049-51e5-461e-8353-3cc13edfbfb8"},"vehicle_type_id":"4","last_reported":1746482964,"current_range_meters":18000,"station_id":"ce4bhi12rcd13ifvqfp0","pricing_plan_id":"cebpf4jnsgd1na2vs0mg"},{"bike_id":"b123c34e-cdf0-4e23-bb77-0e910c6e51c4","system_id":"levelo_inurba_marseille","lat":43.31757,"lon":5.39012,"is_reserved":false,"is_disabled":false,"rental_uris":{"android":"levelo://app?vid=b123c34e-cdf0-4e23-bb77-0e910c6e51c4","ios":"levelo://app?vid=b123c34e-cdf0-4e23-bb77-0e910c6e51c4"},"vehicle_type_id":"4","last_reported":1746482964,"current_range_meters":18000,"station_id":"ce4bhqp2rcd13ifvqhng","pricing_plan_id":"cebpf4jnsgd1na2vs0mg"},{"bike_id":"13d72c90-097d-44e3-a161-c92142027aeb","system_id":"levelo_inurba_marseille","lat":43.32098,"lon":5.36754,"is_reserved":false,"is_disabled":false,"rental_uris":{"android":"levelo://app?vid=13d72c90-097d-44e3-a161-c92142027aeb","ios":"levelo://app?vid=13d72c90-097d-44e3-a161-c92142027aeb"},"vehicle_type_id":"4","last_reported":1746482964,"current_range_meters":18000,"station_id":"ce4bhrh2rcd13ifvqhug","pricing_plan_id":"cebpf4jnsgd1na2vs0mg"},{"bike_id":"e0a0fb85-9539-4fb6-b21f-392540fb8a26","system_id":"levelo_inurba_marseille","lat":43.3236,"lon":5.36744,"is_reserved":false,"is_disabled":false,"rental_uris":{"android":"levelo://app?vid=e0a0fb85-9539-4fb6-b21f-392540fb8a26","ios":"levelo://app?vid=e0a0fb85-9539-4fb6-b21f-392540fb8a26"},"vehicle_type_id":"4","last_reported":1746482964,"current_range_meters":18000,"station_id":"ce4bhsh2rcd13ifvqi2g","pricing_plan_id":"cebpf4jnsgd1na2vs0mg"},{"bike_id":"27563f88-1268-4b98-bc06-44e98c7ca400","system_id":"levelo_inurba_marseille","lat":43.32093,"lon":5.44084,"is_reserved":false,"is_disabled":false,"rental_uris":{"android":"levelo://app?vid=27563f88-1268-4b98-bc06-44e98c7ca400","ios":"levelo://app?vid=27563f88-1268-4b98-bc06-44e98c7ca400"},"vehicle_type_id":"4","last_reported":1746482964,"current_range_meters":18800,"station_id":"","pricing_plan_id":"cebpf4jnsgd1na2vs0mg"},{"bike_id":"144c51af-426b-42d7-b56e-922177862b14","system_id":"levelo_inurba_marseille","lat":43.31087,"lon":5.38354,"is_reserved":false,"is_disabled":false,"rental_uris":{"android":"levelo://app?vid=144c51af-426b-42d7-b56e-922177862b14","ios":"levelo://app?vid=144c51af-426b-42d7-b56e-922177862b14"},"vehicle_type_id":"4","last_reported":1746482964,"current_range_meters":18800,"station_id":"ce4bgv92rcd13ifvqcr0","pricing_plan_id":"cebpf4jnsgd1na2vs0mg"},{"bike_id":"b70db859-0fe3-472e-b40b-94fab5da1bfc","system_id":"levelo_inurba_marseille","lat":43.29205,"lon":5.39315,"is_reserved":false,"is_disabled":false,"rental_uris":{"android":"levelo://app?vid=b70db859-0fe3-472e-b40b-94fab5da1bfc","ios":"levelo://app?vid=b70db859-0fe3-472e-b40b-94fab5da1bfc"},"vehicle_type_id":"4","last_reported":1746482964,"current_range_meters":18800,"station_id":"ce4bh192rcd13ifvqdd0","pricing_plan_id":"cebpf4jnsgd1na2vs0mg"},{"bike_id":"e913cf30-eb5e-4abe-8900-12e0ae6d43b8","system_id":"levelo_inurba_marseille","lat":43.286804,"lon":5.373956,"is_reserved":false,"is_disabled":false,"rental_uris":{"android":"levelo://app?vid=e913cf30-eb5e-4abe-8900-12e0ae6d43b8","ios":"levelo://app?vid=e913cf30-eb5e-4abe-8900-12e0ae6d43b8"},"vehicle_type_id":"4","last_reported":1746482964,"current_range_meters":18800,"station_id":"ce4bh3p2rcd13ifvqdq0","pricing_plan_id":"cebpf4jnsgd1na2vs0mg"},{"bike_id":"11d2e29b-feef-4701-a16c-d2e00712dbd8","system_id":"levelo_inurba_marseille","lat":43.26497,"lon":5.395436,"is_reserved":false,"is_disabled":false,"rental_uris":{"android":"levelo://app?vid=11d2e29b-feef-4701-a16c-d2e00712dbd8","ios":"levelo://app?vid=11d2e29b-feef-4701-a16c-d2e00712dbd8"},"vehicle_type_id":"4","last_reported":1746482964,"current_range_meters":18800,"station_id":"ce4bhi12rcd13ifvqfq0","pricing_plan_id":"cebpf4jnsgd1na2vs0mg"},{"bike_id":"46a428a1-3a45-4310-8fc1-8ac5239110b0","system_id":"levelo_inurba_marseille","lat":43.25822,"lon":5.39419,"is_reserved":false,"is_disabled":false,"rental_uris":{"android":"levelo://app?vid=46a428a1-3a45-4310-8fc1-8ac5239110b0","ios":"levelo://app?vid=46a428a1-3a45-4310-8fc1-8ac5239110b0"},"vehicle_type_id":"4","last_reported":1746482964,"current_range_meters":18800,"station_id":"ce4bhip2rcd13ifvqft0","pricing_plan_id":"cebpf4jnsgd1na2vs0mg"},{"bike_id":"bb57f667-396d-4003-ae12-13bf8f696902","system_id":"levelo_inurba_marseille","lat":43.27944,"lon":5.41025,"is_reserved":false,"is_disabled":false,"rental_uris":{"android":"levelo://app?vid=bb57f667-396d-4003-ae12-13bf8f696902","ios":"levelo://app?vid=bb57f667-396d-4003-ae12-13bf8f696902"},"vehicle_type_id":"4","last_reported":1746482964,"current_range_meters":19200,"station_id":"ce4bhnp2rcd13ifvqh0g","pricing_plan_id":"cebpf4jnsgd1na2vs0mg"},{"bike_id":"4bdbfa2a-ffc0-4860-819c-6326869a5a0f","system_id":"levelo_inurba_marseille","lat":43.28724,"lon":5.36082,"is_reserved":false,"is_disabled":false,"rental_uris":{"android":"levelo://app?vid=4bdbfa2a-ffc0-4860-819c-6326869a5a0f","ios":"levelo://app?vid=4bdbfa2a-ffc0-4860-819c-6326869a5a0f"},"vehicle_type_id":"4","last_reported":1746482964,"current_range_meters":19200,"station_id":"cki0cbj6b192h4jlfktg","pricing_plan_id":"cebpf4jnsgd1na2vs0mg"},{"bike_id":"c68c6456-dba5-40f7-8477-0cd5b17abb93","system_id":"levelo_inurba_marseille","lat":43.286926,"lon":5.373923,"is_reserved":false,"is_disabled":false,"rental_uris":{"android":"levelo://app?vid=c68c6456-dba5-40f7-8477-0cd5b17abb93","ios":"levelo://app?vid=c68c6456-dba5-40f7-8477-0cd5b17abb93"},"vehicle_type_id":"4","last_reported":1746482964,"current_range_meters":19600,"station_id":"ce4bh3p2rcd13ifvqdq0","pricing_plan_id":"cebpf4jnsgd1na2vs0mg"},{"bike_id":"e04ad357-2bee-4391-9dd4-80dc0107267b","system_id":"levelo_inurba_marseille","lat":43.23195,"lon":5.39977,"is_reserved":false,"is_disabled":false,"rental_uris":{"android":"levelo://app?vid=e04ad357-2bee-4391-9dd4-80dc0107267b","ios":"levelo://app?vid=e04ad357-2bee-4391-9dd4-80dc0107267b"},"vehicle_type_id":"4","last_reported":1746482964,"current_range_meters":19600,"station_id":"ce4bhn12rcd13ifvqgqg","pricing_plan_id":"cebpf4jnsgd1na2vs0mg"},{"bike_id":"a51eea62-80fa-4b6a-b2bf-7a993dcf0fcb","system_id":"levelo_inurba_marseille","lat":43.323565,"lon":5.367597,"is_reserved":false,"is_disabled":false,"rental_uris":{"android":"levelo://app?vid=a51eea62-80fa-4b6a-b2bf-7a993dcf0fcb","ios":"levelo://app?vid=a51eea62-80fa-4b6a-b2bf-7a993dcf0fcb"},"vehicle_type_id":"4","last_reported":1746482964,"current_range_meters":19600,"station_id":"ce4bhsh2rcd13ifvqi2g","pricing_plan_id":"cebpf4jnsgd1na2vs0mg"},{"bike_id":"2714f713-c769-4f6a-ac44-441a635e9cba","system_id":"levelo_inurba_marseille","lat":43.21609,"lon":5.34212,"is_reserved":false,"is_disabled":false,"rental_uris":{"android":"levelo://app?vid=2714f713-c769-4f6a-ac44-441a635e9cba","ios":"levelo://app?vid=2714f713-c769-4f6a-ac44-441a635e9cba"},"vehicle_type_id":"4","last_reported":1746482964,"current_range_meters":20000,"station_id":"","pricing_plan_id":"cebpf4jnsgd1na2vs0mg"},{"bike_id":"ded8571d-0d9e-40d1-95cf-24f9e26e201c","system_id":"levelo_inurba_marseille","lat":43.25822,"lon":5.39442,"is_reserved":false,"is_disabled":false,"rental_uris":{"android":"levelo://app?vid=ded8571d-0d9e-40d1-95cf-24f9e26e201c","ios":"levelo://app?vid=ded8571d-0d9e-40d1-95cf-24f9e26e201c"},"vehicle_type_id":"4","last_reported":1746482964,"current_range_meters":20000,"station_id":"ce4bhip2rcd13ifvqft0","pricing_plan_id":"cebpf4jnsgd1na2vs0mg"},{"bike_id":"6754dd71-95b8-439b-aa68-2ee1fd4c8732","system_id":"levelo_inurba_marseille","lat":43.28711,"lon":5.36094,"is_reserved":false,"is_disabled":false,"rental_uris":{"android":"levelo://app?vid=6754dd71-95b8-439b-aa68-2ee1fd4c8732","ios":"levelo://app?vid=6754dd71-95b8-439b-aa68-2ee1fd4c8732"},"vehicle_type_id":"4","last_reported":1746482964,"current_range_meters":20000,"station_id":"cki0cbj6b192h4jlfktg","pricing_plan_id":"cebpf4jnsgd1na2vs0mg"},{"bike_id":"c1c6c54a-ab0a-40f0-a3fa-84bc2d9068fc","system_id":"levelo_inurba_marseille","lat":43.290363,"lon":5.44052,"is_reserved":false,"is_disabled":false,"rental_uris":{"android":"levelo://app?vid=c1c6c54a-ab0a-40f0-a3fa-84bc2d9068fc","ios":"levelo://app?vid=c1c6c54a-ab0a-40f0-a3fa-84bc2d9068fc"},"vehicle_type_id":"4","last_reported":1746482964,"current_range_meters":20400,"station_id":"","pricing_plan_id":"cebpf4jnsgd1na2vs0mg"},{"bike_id":"b4bac287-3615-423a-bca2-a11fb80cb066","system_id":"levelo_inurba_marseille","lat":43.23058,"lon":5.35473,"is_reserved":false,"is_disabled":false,"rental_uris":{"android":"levelo://app?vid=b4bac287-3615-423a-bca2-a11fb80cb066","ios":"levelo://app?vid=b4bac287-3615-423a-bca2-a11fb80cb066"},"vehicle_type_id":"4","last_reported":1746482964,"current_range_meters":20400,"station_id":"cpo3342slgdg3j2ifvpg","pricing_plan_id":"cebpf4jnsgd1na2vs0mg"},{"bike_id":"4ada2e7d-daee-413a-a43f-0bb0b33e4cce","system_id":"levelo_inurba_marseille","lat":43.30781,"lon":5.37639,"is_reserved":false,"is_disabled":false,"rental_uris":{"android":"levelo://app?vid=4ada2e7d-daee-413a-a43f-0bb0b33e4cce","ios":"levelo://app?vid=4ada2e7d-daee-413a-a43f-0bb0b33e4cce"},"vehicle_type_id":"4","last_reported":1746482964,"current_range_meters":20800,"station_id":"ce4bgv92rcd13ifvqcq0","pricing_plan_id":"cebpf4jnsgd1na2vs0mg"},{"bike_id":"ddfa808c-4809-4966-b47f-f7a012348876","system_id":"levelo_inurba_marseille","lat":43.24805,"lon":5.37452,"is_reserved":false,"is_disabled":false,"rental_uris":{"android":"levelo://app?vid=ddfa808c-4809-4966-b47f-f7a012348876","ios":"levelo://app?vid=ddfa808c-4809-4966-b47f-f7a012348876"},"vehicle_type_id":"4","last_reported":1746482964,"current_range_meters":20800,"station_id":"ce4bhgh2rcd13ifvqfb0","pricing_plan_id":"cebpf4jnsgd1na2vs0mg"},{"bike_id":"ac700e2e-c129-4f82-a3c3-f628077933a6","system_id":"levelo_inurba_marseille","lat":43.211825,"lon":5.350799,"is_reserved":false,"is_disabled":false,"rental_uris":{"android":"levelo://app?vid=ac700e2e-c129-4f82-a3c3-f628077933a6","ios":"levelo://app?vid=ac700e2e-c129-4f82-a3c3-f628077933a6"},"vehicle_type_id":"4","last_reported":1746482964,"current_range_meters":20800,"station_id":"st_cvj6sg6p6f1abm77japg","pricing_plan_id":"cebpf4jnsgd1na2vs0mg"},{"bike_id":"cb86654f-a478-4b4e-a07c-7068b41b87e9","system_id":"levelo_inurba_marseille","lat":43.29915,"lon":5.37476,"is_reserved":false,"is_disabled":false,"rental_uris":{"android":"levelo://app?vid=cb86654f-a478-4b4e-a07c-7068b41b87e9","ios":"levelo://app?vid=cb86654f-a478-4b4e-a07c-7068b41b87e9"},"vehicle_type_id":"4","last_reported":1746482964,"current_range_meters":21600,"station_id":"ce4bgjh2rcd13ifvqbg0","pricing_plan_id":"cebpf4jnsgd1na2vs0mg"},{"bike_id":"5a9b784f-97c2-4214-8d28-61bf379c2caf","system_id":"levelo_inurba_marseille","lat":43.31333,"lon":5.39689,"is_reserved":false,"is_disabled":false,"rental_uris":{"android":"levelo://app?vid=5a9b784f-97c2-4214-8d28-61bf379c2caf","ios":"levelo://app?vid=5a9b784f-97c2-4214-8d28-61bf379c2caf"},"vehicle_type_id":"4","last_reported":1746482964,"current_range_meters":21600,"station_id":"ce4bgvp2rcd13ifvqcu0","pricing_plan_id":"cebpf4jnsgd1na2vs0mg"},{"bike_id":"c65850d4-e20b-47ef-9a62-21e7d886f9dd","system_id":"levelo_inurba_marseille","lat":43.24697,"lon":5.38139,"is_reserved":false,"is_disabled":false,"rental_uris":{"android":"levelo://app?vid=c65850d4-e20b-47ef-9a62-21e7d886f9dd","ios":"levelo://app?vid=c65850d4-e20b-47ef-9a62-21e7d886f9dd"},"vehicle_type_id":"4","last_reported":1746482964,"current_range_meters":21600,"station_id":"ce4bhih2rcd13ifvqfr0","pricing_plan_id":"cebpf4jnsgd1na2vs0mg"},{"bike_id":"112a7165-0cd3-4212-a24a-608863e7cdb6","system_id":"levelo_inurba_marseille","lat":43.27059,"lon":5.42282,"is_reserved":false,"is_disabled":false,"rental_uris":{"android":"levelo://app?vid=112a7165-0cd3-4212-a24a-608863e7cdb6","ios":"levelo://app?vid=112a7165-0cd3-4212-a24a-608863e7cdb6"},"vehicle_type_id":"4","last_reported":1746482964,"current_range_meters":21600,"station_id":"ce4bhk92rcd13ifvqgb0","pricing_plan_id":"cebpf4jnsgd1na2vs0mg"},{"bike_id":"b4216838-733b-46cd-aae7-8693e0287a61","system_id":"levelo_inurba_marseille","lat":43.22927,"lon":5.35372,"is_reserved":false,"is_disabled":false,"rental_uris":{"android":"levelo://app?vid=b4216838-733b-46cd-aae7-8693e0287a61","ios":"levelo://app?vid=b4216838-733b-46cd-aae7-8693e0287a61"},"vehicle_type_id":"4","last_reported":1746482964,"current_range_meters":21600,"station_id":"cpo3532slgdg3j2ikp40","pricing_plan_id":"cebpf4jnsgd1na2vs0mg"},{"bike_id":"8fa70930-3d89-410a-8a0d-ae58e85113d9","system_id":"levelo_inurba_marseille","lat":43.33751,"lon":5.37494,"is_reserved":false,"is_disabled":false,"rental_uris":{"android":"levelo://app?vid=8fa70930-3d89-410a-8a0d-ae58e85113d9","ios":"levelo://app?vid=8fa70930-3d89-410a-8a0d-ae58e85113d9"},"vehicle_type_id":"4","last_reported":1746482964,"current_range_meters":22000,"station_id":"","pricing_plan_id":"cebpf4jnsgd1na2vs0mg"},{"bike_id":"1933fafe-49a1-43e7-8ab7-588a3f081fb2","system_id":"levelo_inurba_marseille","lat":43.27916,"lon":5.39576,"is_reserved":false,"is_disabled":false,"rental_uris":{"android":"levelo://app?vid=1933fafe-49a1-43e7-8ab7-588a3f081fb2","ios":"levelo://app?vid=1933fafe-49a1-43e7-8ab7-588a3f081fb2"},"vehicle_type_id":"4","last_reported":1746482964,"current_range_meters":22000,"station_id":"ce4bhf92rcd13ifvqf40","pricing_plan_id":"cebpf4jnsgd1na2vs0mg"},{"bike_id":"85fe12a7-92f0-41fa-ae12-56154e1eae9f","system_id":"levelo_inurba_marseille","lat":43.281586,"lon":5.426591,"is_reserved":false,"is_disabled":false,"rental_uris":{"android":"levelo://app?vid=85fe12a7-92f0-41fa-ae12-56154e1eae9f","ios":"levelo://app?vid=85fe12a7-92f0-41fa-ae12-56154e1eae9f"},"vehicle_type_id":"4","last_reported":1746482964,"current_range_meters":22000,"station_id":"ce4bhnh2rcd13ifvqgug","pricing_plan_id":"cebpf4jnsgd1na2vs0mg"},{"bike_id":"a3dc441c-3dd7-42dc-913a-7db783432e14","system_id":"levelo_inurba_marseille","lat":43.28624,"lon":5.37044,"is_reserved":false,"is_disabled":false,"rental_uris":{"android":"levelo://app?vid=a3dc441c-3dd7-42dc-913a-7db783432e14","ios":"levelo://app?vid=a3dc441c-3dd7-42dc-913a-7db783432e14"},"vehicle_type_id":"4","last_reported":1746482964,"current_range_meters":22000,"station_id":"ce4bht12rcd13ifvqi60","pricing_plan_id":"cebpf4jnsgd1na2vs0mg"},{"bike_id":"47ea6c46-5c8b-4d49-ba1b-c36ddb77ac5c","system_id":"levelo_inurba_marseille","lat":43.33068,"lon":5.40814,"is_reserved":false,"is_disabled":false,"rental_uris":{"android":"levelo://app?vid=47ea6c46-5c8b-4d49-ba1b-c36ddb77ac5c","ios":"levelo://app?vid=47ea6c46-5c8b-4d49-ba1b-c36ddb77ac5c"},"vehicle_type_id":"4","last_reported":1746482964,"current_range_meters":22400,"station_id":"","pricing_plan_id":"cebpf4jnsgd1na2vs0mg"},{"bike_id":"ea4762e8-256b-4c73-a917-b8c3e12612ed","system_id":"levelo_inurba_marseille","lat":43.2612,"lon":5.41457,"is_reserved":false,"is_disabled":false,"rental_uris":{"android":"levelo://app?vid=ea4762e8-256b-4c73-a917-b8c3e12612ed","ios":"levelo://app?vid=ea4762e8-256b-4c73-a917-b8c3e12612ed"},"vehicle_type_id":"4","last_reported":1746482964,"current_range_meters":22400,"station_id":"","pricing_plan_id":"cebpf4jnsgd1na2vs0mg"},{"bike_id":"2fa0b816-7ec6-4882-9376-089f3a9e406c","system_id":"levelo_inurba_marseille","lat":43.337569,"lon":5.374828,"is_reserved":false,"is_disabled":false,"rental_uris":{"android":"levelo://app?vid=2fa0b816-7ec6-4882-9376-089f3a9e406c","ios":"levelo://app?vid=2fa0b816-7ec6-4882-9376-089f3a9e406c"},"vehicle_type_id":"4","last_reported":1746482964,"current_range_meters":22400,"station_id":"","pricing_plan_id":"cebpf4jnsgd1na2vs0mg"},{"bike_id":"dd3c02c6-cb3b-483e-a5d3-3f1c108028c2","system_id":"levelo_inurba_marseille","lat":43.29265,"lon":5.40905,"is_reserved":false,"is_disabled":false,"rental_uris":{"android":"levelo://app?vid=dd3c02c6-cb3b-483e-a5d3-3f1c108028c2","ios":"levelo://app?vid=dd3c02c6-cb3b-483e-a5d3-3f1c108028c2"},"vehicle_type_id":"4","last_reported":1746482964,"current_range_meters":22400,"station_id":"ce4bh192rcd13ifvqdc0","pricing_plan_id":"cebpf4jnsgd1na2vs0mg"},{"bike_id":"2c41ce9b-2318-4ef8-a4c8-cb5551a16620","system_id":"levelo_inurba_marseille","lat":43.32368,"lon":5.38883,"is_reserved":false,"is_disabled":false,"rental_uris":{"android":"levelo://app?vid=2c41ce9b-2318-4ef8-a4c8-cb5551a16620","ios":"levelo://app?vid=2c41ce9b-2318-4ef8-a4c8-cb5551a16620"},"vehicle_type_id":"4","last_reported":1746482964,"current_range_meters":22400,"station_id":"ce4bhqp2rcd13ifvqhog","pricing_plan_id":"cebpf4jnsgd1na2vs0mg"},{"bike_id":"3ffc9422-c08c-4354-ae04-94f20c056ada","system_id":"levelo_inurba_marseille","lat":43.26821,"lon":5.40251,"is_reserved":false,"is_disabled":false,"rental_uris":{"android":"levelo://app?vid=3ffc9422-c08c-4354-ae04-94f20c056ada","ios":"levelo://app?vid=3ffc9422-c08c-4354-ae04-94f20c056ada"},"vehicle_type_id":"4","last_reported":1746482964,"current_range_meters":22400,"station_id":"ce501612rcd8frsf0b60","pricing_plan_id":"cebpf4jnsgd1na2vs0mg"},{"bike_id":"afac6972-47be-44a9-9b16-e544ef1aba9d","system_id":"levelo_inurba_marseille","lat":43.23154,"lon":5.3993,"is_reserved":false,"is_disabled":false,"rental_uris":{"android":"levelo://app?vid=afac6972-47be-44a9-9b16-e544ef1aba9d","ios":"levelo://app?vid=afac6972-47be-44a9-9b16-e544ef1aba9d"},"vehicle_type_id":"4","last_reported":1746482964,"current_range_meters":22800,"station_id":"","pricing_plan_id":"cebpf4jnsgd1na2vs0mg"},{"bike_id":"08729567-1803-4a3a-b335-fdd95b127ecd","system_id":"levelo_inurba_marseille","lat":43.31175,"lon":5.38708,"is_reserved":false,"is_disabled":false,"rental_uris":{"android":"levelo://app?vid=08729567-1803-4a3a-b335-fdd95b127ecd","ios":"levelo://app?vid=08729567-1803-4a3a-b335-fdd95b127ecd"},"vehicle_type_id":"4","last_reported":1746482964,"current_range_meters":22800,"station_id":"ce4bgv12rcd13ifvqcp0","pricing_plan_id":"cebpf4jnsgd1na2vs0mg"},{"bike_id":"4b09065a-7f80-405a-ad33-3454b64bfb71","system_id":"levelo_inurba_marseille","lat":43.31325,"lon":5.39686,"is_reserved":false,"is_disabled":false,"rental_uris":{"android":"levelo://app?vid=4b09065a-7f80-405a-ad33-3454b64bfb71","ios":"levelo://app?vid=4b09065a-7f80-405a-ad33-3454b64bfb71"},"vehicle_type_id":"4","last_reported":1746482964,"current_range_meters":22800,"station_id":"ce4bgvp2rcd13ifvqcu0","pricing_plan_id":"cebpf4jnsgd1na2vs0mg"},{"bike_id":"5b506e31-2051-4025-974d-f26d24337a21","system_id":"levelo_inurba_marseille","lat":43.30333,"lon":5.40425,"is_reserved":false,"is_disabled":false,"rental_uris":{"android":"levelo://app?vid=5b506e31-2051-4025-974d-f26d24337a21","ios":"levelo://app?vid=5b506e31-2051-4025-974d-f26d24337a21"},"vehicle_type_id":"4","last_reported":1746482964,"current_range_meters":22800,"station_id":"ce4bh012rcd13ifvqd10","pricing_plan_id":"cebpf4jnsgd1na2vs0mg"},{"bike_id":"490a6c88-aa4a-4217-90ce-0172da0b19d2","system_id":"levelo_inurba_marseille","lat":43.23181,"lon":5.39992,"is_reserved":false,"is_disabled":false,"rental_uris":{"android":"levelo://app?vid=490a6c88-aa4a-4217-90ce-0172da0b19d2","ios":"levelo://app?vid=490a6c88-aa4a-4217-90ce-0172da0b19d2"},"vehicle_type_id":"4","last_reported":1746482964,"current_range_meters":22800,"station_id":"ce4bhn12rcd13ifvqgqg","pricing_plan_id":"cebpf4jnsgd1na2vs0mg"},{"bike_id":"4fa44a4d-c738-41bc-9022-213fbeae4065","system_id":"levelo_inurba_marseille","lat":43.23189,"lon":5.39972,"is_reserved":false,"is_disabled":false,"rental_uris":{"android":"levelo://app?vid=4fa44a4d-c738-41bc-9022-213fbeae4065","ios":"levelo://app?vid=4fa44a4d-c738-41bc-9022-213fbeae4065"},"vehicle_type_id":"4","last_reported":1746482964,"current_range_meters":22800,"station_id":"ce4bhn12rcd13ifvqgqg","pricing_plan_id":"cebpf4jnsgd1na2vs0mg"},{"bike_id":"8a4b30e0-b491-4f8b-b56b-65294a62c555","system_id":"levelo_inurba_marseille","lat":43.25464,"lon":5.41884,"is_reserved":false,"is_disabled":false,"rental_uris":{"android":"levelo://app?vid=8a4b30e0-b491-4f8b-b56b-65294a62c555","ios":"levelo://app?vid=8a4b30e0-b491-4f8b-b56b-65294a62c555"},"vehicle_type_id":"4","last_reported":1746482964,"current_range_meters":23200,"station_id":"","pricing_plan_id":"cebpf4jnsgd1na2vs0mg"},{"bike_id":"d5ef6ad8-1242-44b6-9125-49309ae65236","system_id":"levelo_inurba_marseille","lat":43.30935,"lon":5.40139,"is_reserved":false,"is_disabled":false,"rental_uris":{"android":"levelo://app?vid=d5ef6ad8-1242-44b6-9125-49309ae65236","ios":"levelo://app?vid=d5ef6ad8-1242-44b6-9125-49309ae65236"},"vehicle_type_id":"4","last_reported":1746482964,"current_range_meters":23200,"station_id":"ce4bgvp2rcd13ifvqct0","pricing_plan_id":"cebpf4jnsgd1na2vs0mg"},{"bike_id":"cea70e1d-1987-460b-8f27-968c4814a0c8","system_id":"levelo_inurba_marseille","lat":43.29294,"lon":5.40106,"is_reserved":false,"is_disabled":false,"rental_uris":{"android":"levelo://app?vid=cea70e1d-1987-460b-8f27-968c4814a0c8","ios":"levelo://app?vid=cea70e1d-1987-460b-8f27-968c4814a0c8"},"vehicle_type_id":"4","last_reported":1746482964,"current_range_meters":23200,"station_id":"ce4bh312rcd13ifvqdk0","pricing_plan_id":"cebpf4jnsgd1na2vs0mg"},{"bike_id":"d912aaf0-9efd-4ef0-b1ab-763b2afabfe0","system_id":"levelo_inurba_marseille","lat":43.2906,"lon":5.37162,"is_reserved":false,"is_disabled":false,"rental_uris":{"android":"levelo://app?vid=d912aaf0-9efd-4ef0-b1ab-763b2afabfe0","ios":"levelo://app?vid=d912aaf0-9efd-4ef0-b1ab-763b2afabfe0"},"vehicle_type_id":"4","last_reported":1746482964,"current_range_meters":23200,"station_id":"ce4bh5p2rcd13ifvqe4g","pricing_plan_id":"cebpf4jnsgd1na2vs0mg"},{"bike_id":"722c1cb3-31f6-49fd-8369-b5e0a7a256b2","system_id":"levelo_inurba_marseille","lat":43.281,"lon":5.3787,"is_reserved":false,"is_disabled":false,"rental_uris":{"android":"levelo://app?vid=722c1cb3-31f6-49fd-8369-b5e0a7a256b2","ios":"levelo://app?vid=722c1cb3-31f6-49fd-8369-b5e0a7a256b2"},"vehicle_type_id":"4","last_reported":1746482964,"current_range_meters":23200,"station_id":"ce4bha12rcd13ifvqee0","pricing_plan_id":"cebpf4jnsgd1na2vs0mg"},{"bike_id":"2e656d16-02e6-4eba-9b70-3abb7c377d6f","system_id":"levelo_inurba_marseille","lat":43.28461,"lon":5.35883,"is_reserved":false,"is_disabled":false,"rental_uris":{"android":"levelo://app?vid=2e656d16-02e6-4eba-9b70-3abb7c377d6f","ios":"levelo://app?vid=2e656d16-02e6-4eba-9b70-3abb7c377d6f"},"vehicle_type_id":"4","last_reported":1746482964,"current_range_meters":23200,"station_id":"ce4bhah2rcd13ifvqei0","pricing_plan_id":"cebpf4jnsgd1na2vs0mg"},{"bike_id":"249a255a-a762-4d7c-91d1-e38b413ba4f5","system_id":"levelo_inurba_marseille","lat":43.28459,"lon":5.35877,"is_reserved":false,"is_disabled":false,"rental_uris":{"android":"levelo://app?vid=249a255a-a762-4d7c-91d1-e38b413ba4f5","ios":"levelo://app?vid=249a255a-a762-4d7c-91d1-e38b413ba4f5"},"vehicle_type_id":"4","last_reported":1746482964,"current_range_meters":23200,"station_id":"ce4bhah2rcd13ifvqei0","pricing_plan_id":"cebpf4jnsgd1na2vs0mg"},{"bike_id":"1b5c9130-7e5c-4d9e-b45d-e358c3f71ba5","system_id":"levelo_inurba_marseille","lat":43.28833,"lon":5.35857,"is_reserved":false,"is_disabled":false,"rental_uris":{"android":"levelo://app?vid=1b5c9130-7e5c-4d9e-b45d-e358c3f71ba5","ios":"levelo://app?vid=1b5c9130-7e5c-4d9e-b45d-e358c3f71ba5"},"vehicle_type_id":"4","last_reported":1746482964,"current_range_meters":23200,"station_id":"ce4bhb12rcd13ifvqem0","pricing_plan_id":"cebpf4jnsgd1na2vs0mg"},{"bike_id":"a0fcebb9-adb3-4214-a4cd-919fcb7c5c33","system_id":"levelo_inurba_marseille","lat":43.28626,"lon":5.35097,"is_reserved":false,"is_disabled":false,"rental_uris":{"android":"levelo://app?vid=a0fcebb9-adb3-4214-a4cd-919fcb7c5c33","ios":"levelo://app?vid=a0fcebb9-adb3-4214-a4cd-919fcb7c5c33"},"vehicle_type_id":"4","last_reported":1746482964,"current_range_meters":23200,"station_id":"ce4bhch2rcd13ifvqeug","pricing_plan_id":"cebpf4jnsgd1na2vs0mg"},{"bike_id":"197b6bfa-4958-45f1-827f-50f81cbef7b8","system_id":"levelo_inurba_marseille","lat":43.24679,"lon":5.38154,"is_reserved":false,"is_disabled":false,"rental_uris":{"android":"levelo://app?vid=197b6bfa-4958-45f1-827f-50f81cbef7b8","ios":"levelo://app?vid=197b6bfa-4958-45f1-827f-50f81cbef7b8"},"vehicle_type_id":"4","last_reported":1746482964,"current_range_meters":23200,"station_id":"ce4bhih2rcd13ifvqfr0","pricing_plan_id":"cebpf4jnsgd1na2vs0mg"},{"bike_id":"7ea9b8bc-827d-4aed-92c9-7aeee53fcbcd","system_id":"levelo_inurba_marseille","lat":43.26227,"lon":5.40451,"is_reserved":false,"is_disabled":false,"rental_uris":{"android":"levelo://app?vid=7ea9b8bc-827d-4aed-92c9-7aeee53fcbcd","ios":"levelo://app?vid=7ea9b8bc-827d-4aed-92c9-7aeee53fcbcd"},"vehicle_type_id":"4","last_reported":1746482964,"current_range_meters":23200,"station_id":"ce4bhmh2rcd13ifvqgmg","pricing_plan_id":"cebpf4jnsgd1na2vs0mg"},{"bike_id":"f5774a0b-ba08-4a39-beee-b3ec8dcb2483","system_id":"levelo_inurba_marseille","lat":43.2397,"lon":5.36615,"is_reserved":false,"is_disabled":false,"rental_uris":{"android":"levelo://app?vid=f5774a0b-ba08-4a39-beee-b3ec8dcb2483","ios":"levelo://app?vid=f5774a0b-ba08-4a39-beee-b3ec8dcb2483"},"vehicle_type_id":"4","last_reported":1746482964,"current_range_meters":24000,"station_id":"ce4bhi12rcd13ifvqfp0","pricing_plan_id":"cebpf4jnsgd1na2vs0mg"},{"bike_id":"1d4ad047-6a0f-405c-ba0b-262195f4889b","system_id":"levelo_inurba_marseille","lat":43.30425,"lon":5.3976,"is_reserved":false,"is_disabled":false,"rental_uris":{"android":"levelo://app?vid=1d4ad047-6a0f-405c-ba0b-262195f4889b","ios":"levelo://app?vid=1d4ad047-6a0f-405c-ba0b-262195f4889b"},"vehicle_type_id":"4","last_reported":1746482964,"current_range_meters":24400,"station_id":"ce4bh092rcd13ifvqd20","pricing_plan_id":"cebpf4jnsgd1na2vs0mg"},{"bike_id":"8d7d5b8c-c952-4052-8621-cdaba390b166","system_id":"levelo_inurba_marseille","lat":43.29443,"lon":5.38612,"is_reserved":false,"is_disabled":false,"rental_uris":{"android":"levelo://app?vid=8d7d5b8c-c952-4052-8621-cdaba390b166","ios":"levelo://app?vid=8d7d5b8c-c952-4052-8621-cdaba390b166"},"vehicle_type_id":"4","last_reported":1746482964,"current_range_meters":24400,"station_id":"ce4bh2h2rcd13ifvqdh0","pricing_plan_id":"cebpf4jnsgd1na2vs0mg"},{"bike_id":"d84fa2e0-c71a-4467-b21e-d2ec41a097b6","system_id":"levelo_inurba_marseille","lat":43.248008,"lon":5.374571,"is_reserved":false,"is_disabled":false,"rental_uris":{"android":"levelo://app?vid=d84fa2e0-c71a-4467-b21e-d2ec41a097b6","ios":"levelo://app?vid=d84fa2e0-c71a-4467-b21e-d2ec41a097b6"},"vehicle_type_id":"4","last_reported":1746482964,"current_range_meters":24400,"station_id":"ce4bhgh2rcd13ifvqfb0","pricing_plan_id":"cebpf4jnsgd1na2vs0mg"},{"bike_id":"9ac5c42f-1908-4706-b651-4c25ce5c57b0","system_id":"levelo_inurba_marseille","lat":43.30867,"lon":5.39642,"is_reserved":false,"is_disabled":false,"rental_uris":{"android":"levelo://app?vid=9ac5c42f-1908-4706-b651-4c25ce5c57b0","ios":"levelo://app?vid=9ac5c42f-1908-4706-b651-4c25ce5c57b0"},"vehicle_type_id":"4","last_reported":1746482964,"current_range_meters":24800,"station_id":"ce4bh012rcd13ifvqcv0","pricing_plan_id":"cebpf4jnsgd1na2vs0mg"},{"bike_id":"f3a35506-97fa-42ff-b934-98d4b2d65cd8","system_id":"levelo_inurba_marseille","lat":43.287,"lon":5.37385,"is_reserved":false,"is_disabled":false,"rental_uris":{"android":"levelo://app?vid=f3a35506-97fa-42ff-b934-98d4b2d65cd8","ios":"levelo://app?vid=f3a35506-97fa-42ff-b934-98d4b2d65cd8"},"vehicle_type_id":"4","last_reported":1746482964,"current_range_meters":24800,"station_id":"ce4bh3p2rcd13ifvqdq0","pricing_plan_id":"cebpf4jnsgd1na2vs0mg"},{"bike_id":"e1af84df-3d5c-4099-beab-8242473e39ed","system_id":"levelo_inurba_marseille","lat":43.2657,"lon":5.39005,"is_reserved":false,"is_disabled":false,"rental_uris":{"android":"levelo://app?vid=e1af84df-3d5c-4099-beab-8242473e39ed","ios":"levelo://app?vid=e1af84df-3d5c-4099-beab-8242473e39ed"},"vehicle_type_id":"4","last_reported":1746482964,"current_range_meters":24800,"station_id":"ce4bhe12rcd13ifvqf30","pricing_plan_id":"cebpf4jnsgd1na2vs0mg"},{"bike_id":"ebad895e-16ab-4861-af58-e61a781cbe8d","system_id":"levelo_inurba_marseille","lat":43.26064,"lon":5.3939,"is_reserved":false,"is_disabled":false,"rental_uris":{"android":"levelo://app?vid=ebad895e-16ab-4861-af58-e61a781cbe8d","ios":"levelo://app?vid=ebad895e-16ab-4861-af58-e61a781cbe8d"},"vehicle_type_id":"4","last_reported":1746482964,"current_range_meters":24800,"station_id":"ce4bhh92rcd13ifvqfj0","pricing_plan_id":"cebpf4jnsgd1na2vs0mg"},{"bike_id":"e2b2fa55-386f-4fbb-991b-cc2b8bf7afac","system_id":"levelo_inurba_marseille","lat":43.27942,"lon":5.41034,"is_reserved":false,"is_disabled":false,"rental_uris":{"android":"levelo://app?vid=e2b2fa55-386f-4fbb-991b-cc2b8bf7afac","ios":"levelo://app?vid=e2b2fa55-386f-4fbb-991b-cc2b8bf7afac"},"vehicle_type_id":"4","last_reported":1746482964,"current_range_meters":24800,"station_id":"ce4bhnp2rcd13ifvqh0g","pricing_plan_id":"cebpf4jnsgd1na2vs0mg"},{"bike_id":"817ecf69-3041-407d-9f73-2b7342a4c608","system_id":"levelo_inurba_marseille","lat":43.299667,"lon":5.371443,"is_reserved":false,"is_disabled":false,"rental_uris":{"android":"levelo://app?vid=817ecf69-3041-407d-9f73-2b7342a4c608","ios":"levelo://app?vid=817ecf69-3041-407d-9f73-2b7342a4c608"},"vehicle_type_id":"4","last_reported":1746482964,"current_range_meters":25200,"station_id":"ce4bgr92rcd13ifvqc7g","pricing_plan_id":"cebpf4jnsgd1na2vs0mg"},{"bike_id":"f337ae3b-9238-4523-b038-ffc2307dcf95","system_id":"levelo_inurba_marseille","lat":43.31489,"lon":5.37296,"is_reserved":false,"is_disabled":false,"rental_uris":{"android":"levelo://app?vid=f337ae3b-9238-4523-b038-ffc2307dcf95","ios":"levelo://app?vid=f337ae3b-9238-4523-b038-ffc2307dcf95"},"vehicle_type_id":"4","last_reported":1746482964,"current_range_meters":25200,"station_id":"ce4bgt12rcd13ifvqcd0","pricing_plan_id":"cebpf4jnsgd1na2vs0mg"},{"bike_id":"498f0352-ce23-4398-9480-73714d258dd3","system_id":"levelo_inurba_marseille","lat":43.30865,"lon":5.39634,"is_reserved":false,"is_disabled":false,"rental_uris":{"android":"levelo://app?vid=498f0352-ce23-4398-9480-73714d258dd3","ios":"levelo://app?vid=498f0352-ce23-4398-9480-73714d258dd3"},"vehicle_type_id":"4","last_reported":1746482964,"current_range_meters":25200,"station_id":"ce4bh012rcd13ifvqcv0","pricing_plan_id":"cebpf4jnsgd1na2vs0mg"},{"bike_id":"0651055b-4cd9-473f-b345-19ba549189cf","system_id":"levelo_inurba_marseille","lat":43.2797,"lon":5.38734,"is_reserved":false,"is_disabled":false,"rental_uris":{"android":"levelo://app?vid=0651055b-4cd9-473f-b345-19ba549189cf","ios":"levelo://app?vid=0651055b-4cd9-473f-b345-19ba549189cf"},"vehicle_type_id":"4","last_reported":1746482964,"current_range_meters":25200,"station_id":"ce4bhg12rcd13ifvqf80","pricing_plan_id":"cebpf4jnsgd1na2vs0mg"},{"bike_id":"0df3111c-fd99-4e63-915e-e7763d46bb1b","system_id":"levelo_inurba_marseille","lat":43.28507,"lon":5.37072,"is_reserved":false,"is_disabled":false,"rental_uris":{"android":"levelo://app?vid=0df3111c-fd99-4e63-915e-e7763d46bb1b","ios":"levelo://app?vid=0df3111c-fd99-4e63-915e-e7763d46bb1b"},"vehicle_type_id":"4","last_reported":1746482964,"current_range_meters":25600,"station_id":"","pricing_plan_id":"cebpf4jnsgd1na2vs0mg"},{"bike_id":"d60b5ff3-d886-4755-9de3-7142bffaad36","system_id":"levelo_inurba_marseille","lat":43.29518,"lon":5.39406,"is_reserved":false,"is_disabled":false,"rental_uris":{"android":"levelo://app?vid=d60b5ff3-d886-4755-9de3-7142bffaad36","ios":"levelo://app?vid=d60b5ff3-d886-4755-9de3-7142bffaad36"},"vehicle_type_id":"4","last_reported":1746482964,"current_range_meters":25600,"station_id":"","pricing_plan_id":"cebpf4jnsgd1na2vs0mg"},{"bike_id":"47d7cd24-557e-49e0-a612-20dfd107c495","system_id":"levelo_inurba_marseille","lat":43.29281,"lon":5.40107,"is_reserved":false,"is_disabled":false,"rental_uris":{"android":"levelo://app?vid=47d7cd24-557e-49e0-a612-20dfd107c495","ios":"levelo://app?vid=47d7cd24-557e-49e0-a612-20dfd107c495"},"vehicle_type_id":"4","last_reported":1746482964,"current_range_meters":25600,"station_id":"ce4bh312rcd13ifvqdk0","pricing_plan_id":"cebpf4jnsgd1na2vs0mg"},{"bike_id":"d26d0d25-d963-426f-97a8-42ddba8547f5","system_id":"levelo_inurba_marseille","lat":43.29463,"lon":5.39735,"is_reserved":false,"is_disabled":false,"rental_uris":{"android":"levelo://app?vid=d26d0d25-d963-426f-97a8-42ddba8547f5","ios":"levelo://app?vid=d26d0d25-d963-426f-97a8-42ddba8547f5"},"vehicle_type_id":"4","last_reported":1746482964,"current_range_meters":25600,"station_id":"ce4bh3h2rcd13ifvqdo0","pricing_plan_id":"cebpf4jnsgd1na2vs0mg"},{"bike_id":"60eb618b-d287-4963-8139-c94a7d23a966","system_id":"levelo_inurba_marseille","lat":43.28413,"lon":5.37529,"is_reserved":false,"is_disabled":false,"rental_uris":{"android":"levelo://app?vid=60eb618b-d287-4963-8139-c94a7d23a966","ios":"levelo://app?vid=60eb618b-d287-4963-8139-c94a7d23a966"},"vehicle_type_id":"4","last_reported":1746482964,"current_range_meters":25600,"station_id":"ce4bh412rcd13ifvqds0","pricing_plan_id":"cebpf4jnsgd1na2vs0mg"},{"bike_id":"062c704a-40d5-43ce-87e6-dc407d9a622e","system_id":"levelo_inurba_marseille","lat":43.28468,"lon":5.35869,"is_reserved":false,"is_disabled":false,"rental_uris":{"android":"levelo://app?vid=062c704a-40d5-43ce-87e6-dc407d9a622e","ios":"levelo://app?vid=062c704a-40d5-43ce-87e6-dc407d9a622e"},"vehicle_type_id":"4","last_reported":1746482964,"current_range_meters":25600,"station_id":"ce4bhah2rcd13ifvqei0","pricing_plan_id":"cebpf4jnsgd1na2vs0mg"},{"bike_id":"c80142a8-b1dc-4cbf-9e1a-ebcdd603d5cc","system_id":"levelo_inurba_marseille","lat":43.25111,"lon":5.4032,"is_reserved":false,"is_disabled":false,"rental_uris":{"android":"levelo://app?vid=c80142a8-b1dc-4cbf-9e1a-ebcdd603d5cc","ios":"levelo://app?vid=c80142a8-b1dc-4cbf-9e1a-ebcdd603d5cc"},"vehicle_type_id":"4","last_reported":1746482964,"current_range_meters":25600,"station_id":"ce4bhlh2rcd13ifvqgig","pricing_plan_id":"cebpf4jnsgd1na2vs0mg"},{"bike_id":"91cb3c59-479e-437f-97db-87bca3df8149","system_id":"levelo_inurba_marseille","lat":43.232,"lon":5.39968,"is_reserved":false,"is_disabled":false,"rental_uris":{"android":"levelo://app?vid=91cb3c59-479e-437f-97db-87bca3df8149","ios":"levelo://app?vid=91cb3c59-479e-437f-97db-87bca3df8149"},"vehicle_type_id":"4","last_reported":1746482964,"current_range_meters":25600,"station_id":"ce4bhn12rcd13ifvqgqg","pricing_plan_id":"cebpf4jnsgd1na2vs0mg"},{"bike_id":"167790c4-9d54-42c9-8cbd-48eab951c8d7","system_id":"levelo_inurba_marseille","lat":43.3265,"lon":5.4099,"is_reserved":false,"is_disabled":false,"rental_uris":{"android":"levelo://app?vid=167790c4-9d54-42c9-8cbd-48eab951c8d7","ios":"levelo://app?vid=167790c4-9d54-42c9-8cbd-48eab951c8d7"},"vehicle_type_id":"4","last_reported":1746482964,"current_range_meters":25600,"station_id":"ce4bhpp2rcd13ifvqhgg","pricing_plan_id":"cebpf4jnsgd1na2vs0mg"},{"bike_id":"08f76fd4-3499-4a1e-b036-aeae5fa3296f","system_id":"levelo_inurba_marseille","lat":43.25732,"lon":5.41099,"is_reserved":false,"is_disabled":false,"rental_uris":{"android":"levelo://app?vid=08f76fd4-3499-4a1e-b036-aeae5fa3296f","ios":"levelo://app?vid=08f76fd4-3499-4a1e-b036-aeae5fa3296f"},"vehicle_type_id":"4","last_reported":1746482964,"current_range_meters":26000,"station_id":"ce4bhkp2rcd13ifvqgd0","pricing_plan_id":"cebpf4jnsgd1na2vs0mg"},{"bike_id":"5f9c9d5f-ff65-4e14-a4be-a2bb36cfce01","system_id":"levelo_inurba_marseille","lat":43.24557,"lon":5.39522,"is_reserved":false,"is_disabled":false,"rental_uris":{"android":"levelo://app?vid=5f9c9d5f-ff65-4e14-a4be-a2bb36cfce01","ios":"levelo://app?vid=5f9c9d5f-ff65-4e14-a4be-a2bb36cfce01"},"vehicle_type_id":"4","last_reported":1746482964,"current_range_meters":26000,"station_id":"ce4bhlp2rcd13ifvqgjg","pricing_plan_id":"cebpf4jnsgd1na2vs0mg"},{"bike_id":"3d3d12dd-dd80-439b-82cc-f899337631b4","system_id":"levelo_inurba_marseille","lat":43.29896,"lon":5.43668,"is_reserved":false,"is_disabled":false,"rental_uris":{"android":"levelo://app?vid=3d3d12dd-dd80-439b-82cc-f899337631b4","ios":"levelo://app?vid=3d3d12dd-dd80-439b-82cc-f899337631b4"},"vehicle_type_id":"4","last_reported":1746482964,"current_range_meters":26000,"station_id":"ce4bhpp2rcd13ifvqhfg","pricing_plan_id":"cebpf4jnsgd1na2vs0mg"},{"bike_id":"2b27ee22-a0ec-4dd2-bd83-71725ace945f","system_id":"levelo_inurba_marseille","lat":43.31256,"lon":5.40164,"is_reserved":false,"is_disabled":false,"rental_uris":{"android":"levelo://app?vid=2b27ee22-a0ec-4dd2-bd83-71725ace945f","ios":"levelo://app?vid=2b27ee22-a0ec-4dd2-bd83-71725ace945f"},"vehicle_type_id":"4","last_reported":1746482964,"current_range_meters":26800,"station_id":"","pricing_plan_id":"cebpf4jnsgd1na2vs0mg"},{"bike_id":"f0d6e860-bae2-41d7-8598-c2308788a440","system_id":"levelo_inurba_marseille","lat":43.30935,"lon":5.40136,"is_reserved":false,"is_disabled":false,"rental_uris":{"android":"levelo://app?vid=f0d6e860-bae2-41d7-8598-c2308788a440","ios":"levelo://app?vid=f0d6e860-bae2-41d7-8598-c2308788a440"},"vehicle_type_id":"4","last_reported":1746482964,"current_range_meters":26800,"station_id":"ce4bgvp2rcd13ifvqct0","pricing_plan_id":"cebpf4jnsgd1na2vs0mg"},{"bike_id":"a5c7e65a-613d-453f-a52f-8d677d40a327","system_id":"levelo_inurba_marseille","lat":43.28039,"lon":5.36927,"is_reserved":false,"is_disabled":false,"rental_uris":{"android":"levelo://app?vid=a5c7e65a-613d-453f-a52f-8d677d40a327","ios":"levelo://app?vid=a5c7e65a-613d-453f-a52f-8d677d40a327"},"vehicle_type_id":"4","last_reported":1746482964,"current_range_meters":26800,"station_id":"ce4bha12rcd13ifvqef0","pricing_plan_id":"cebpf4jnsgd1na2vs0mg"},{"bike_id":"fc85b5b2-011b-459a-b24e-05accf509e72","system_id":"levelo_inurba_marseille","lat":43.2894,"lon":5.36617,"is_reserved":false,"is_disabled":false,"rental_uris":{"android":"levelo://app?vid=fc85b5b2-011b-459a-b24e-05accf509e72","ios":"levelo://app?vid=fc85b5b2-011b-459a-b24e-05accf509e72"},"vehicle_type_id":"4","last_reported":1746482964,"current_range_meters":26800,"station_id":"ce4bhap2rcd13ifvqek0","pricing_plan_id":"cebpf4jnsgd1na2vs0mg"},{"bike_id":"86efce73-d764-463e-8080-c05d126201bb","system_id":"levelo_inurba_marseille","lat":43.23193,"lon":5.39972,"is_reserved":false,"is_disabled":false,"rental_uris":{"android":"levelo://app?vid=86efce73-d764-463e-8080-c05d126201bb","ios":"levelo://app?vid=86efce73-d764-463e-8080-c05d126201bb"},"vehicle_type_id":"4","last_reported":1746482964,"current_range_meters":26800,"station_id":"ce4bhn12rcd13ifvqgqg","pricing_plan_id":"cebpf4jnsgd1na2vs0mg"},{"bike_id":"7b0e4b53-63e2-4bfc-84b0-013f07b8ed0e","system_id":"levelo_inurba_marseille","lat":43.30796,"lon":5.38153,"is_reserved":false,"is_disabled":false,"rental_uris":{"android":"levelo://app?vid=7b0e4b53-63e2-4bfc-84b0-013f07b8ed0e","ios":"levelo://app?vid=7b0e4b53-63e2-4bfc-84b0-013f07b8ed0e"},"vehicle_type_id":"4","last_reported":1746482964,"current_range_meters":27200,"station_id":"ce4bgt12rcd13ifvqce0","pricing_plan_id":"cebpf4jnsgd1na2vs0mg"},{"bike_id":"965d9a68-35d6-4b3e-beea-cec1f338cad2","system_id":"levelo_inurba_marseille","lat":43.282675,"lon":5.350685,"is_reserved":false,"is_disabled":false,"rental_uris":{"android":"levelo://app?vid=965d9a68-35d6-4b3e-beea-cec1f338cad2","ios":"levelo://app?vid=965d9a68-35d6-4b3e-beea-cec1f338cad2"},"vehicle_type_id":"4","last_reported":1746482964,"current_range_meters":27200,"station_id":"ce4bhbp2rcd13ifvqerg","pricing_plan_id":"cebpf4jnsgd1na2vs0mg"},{"bike_id":"24af6922-dfd5-46aa-8384-163cd670dd4f","system_id":"levelo_inurba_marseille","lat":43.27427,"lon":5.39423,"is_reserved":false,"is_disabled":false,"rental_uris":{"android":"levelo://app?vid=24af6922-dfd5-46aa-8384-163cd670dd4f","ios":"levelo://app?vid=24af6922-dfd5-46aa-8384-163cd670dd4f"},"vehicle_type_id":"4","last_reported":1746482964,"current_range_meters":27200,"station_id":"ce4bhdp2rcd13ifvqf20","pricing_plan_id":"cebpf4jnsgd1na2vs0mg"},{"bike_id":"f656443d-94df-4397-aea7-ca424a7bde36","system_id":"levelo_inurba_marseille","lat":43.27989,"lon":5.41655,"is_reserved":false,"is_disabled":false,"rental_uris":{"android":"levelo://app?vid=f656443d-94df-4397-aea7-ca424a7bde36","ios":"levelo://app?vid=f656443d-94df-4397-aea7-ca424a7bde36"},"vehicle_type_id":"4","last_reported":1746482964,"current_range_meters":27200,"station_id":"ce4bho12rcd13ifvqh1g","pricing_plan_id":"cebpf4jnsgd1na2vs0mg"},{"bike_id":"7ad09e24-4e7d-4280-b631-6ae13d406f33","system_id":"levelo_inurba_marseille","lat":43.28417,"lon":5.37513,"is_reserved":false,"is_disabled":false,"rental_uris":{"android":"levelo://app?vid=7ad09e24-4e7d-4280-b631-6ae13d406f33","ios":"levelo://app?vid=7ad09e24-4e7d-4280-b631-6ae13d406f33"},"vehicle_type_id":"4","last_reported":1746482964,"current_range_meters":27600,"station_id":"ce4bh412rcd13ifvqds0","pricing_plan_id":"cebpf4jnsgd1na2vs0mg"},{"bike_id":"68d0c351-3a7f-461c-a2d6-f13542d4eb55","system_id":"levelo_inurba_marseille","lat":43.28945,"lon":5.36626,"is_reserved":false,"is_disabled":false,"rental_uris":{"android":"levelo://app?vid=68d0c351-3a7f-461c-a2d6-f13542d4eb55","ios":"levelo://app?vid=68d0c351-3a7f-461c-a2d6-f13542d4eb55"},"vehicle_type_id":"4","last_reported":1746482964,"current_range_meters":27600,"station_id":"ce4bhap2rcd13ifvqek0","pricing_plan_id":"cebpf4jnsgd1na2vs0mg"},{"bike_id":"861d3177-b3d5-4576-9453-d88deff810cc","system_id":"levelo_inurba_marseille","lat":43.25721,"lon":5.41101,"is_reserved":false,"is_disabled":false,"rental_uris":{"android":"levelo://app?vid=861d3177-b3d5-4576-9453-d88deff810cc","ios":"levelo://app?vid=861d3177-b3d5-4576-9453-d88deff810cc"},"vehicle_type_id":"4","last_reported":1746482964,"current_range_meters":27600,"station_id":"ce4bhkp2rcd13ifvqgd0","pricing_plan_id":"cebpf4jnsgd1na2vs0mg"},{"bike_id":"6016196f-a9d8-44fc-9e97-e590e0903040","system_id":"levelo_inurba_marseille","lat":43.24176,"lon":5.39721,"is_reserved":false,"is_disabled":false,"rental_uris":{"android":"levelo://app?vid=6016196f-a9d8-44fc-9e97-e590e0903040","ios":"levelo://app?vid=6016196f-a9d8-44fc-9e97-e590e0903040"},"vehicle_type_id":"4","last_reported":1746482964,"current_range_meters":27600,"station_id":"ce4bhn12rcd13ifvqgpg","pricing_plan_id":"cebpf4jnsgd1na2vs0mg"},{"bike_id":"53dd013d-8b16-4a78-b2c0-24bc09125c90","system_id":"levelo_inurba_marseille","lat":43.29968,"lon":5.41326,"is_reserved":false,"is_disabled":false,"rental_uris":{"android":"levelo://app?vid=53dd013d-8b16-4a78-b2c0-24bc09125c90","ios":"levelo://app?vid=53dd013d-8b16-4a78-b2c0-24bc09125c90"},"vehicle_type_id":"4","last_reported":1746482964,"current_range_meters":27600,"station_id":"ce4bhp12rcd13ifvqh9g","pricing_plan_id":"cebpf4jnsgd1na2vs0mg"},{"bike_id":"ed127033-3451-406f-8413-96ba005748d1","system_id":"levelo_inurba_marseille","lat":43.31703,"lon":5.43703,"is_reserved":false,"is_disabled":false,"rental_uris":{"android":"levelo://app?vid=ed127033-3451-406f-8413-96ba005748d1","ios":"levelo://app?vid=ed127033-3451-406f-8413-96ba005748d1"},"vehicle_type_id":"4","last_reported":1746482964,"current_range_meters":27600,"station_id":"ce4bhp92rcd13ifvqhcg","pricing_plan_id":"cebpf4jnsgd1na2vs0mg"},{"bike_id":"2e3c6edf-cae7-400d-a4dd-fd657e169952","system_id":"levelo_inurba_marseille","lat":43.29825,"lon":5.39323,"is_reserved":false,"is_disabled":false,"rental_uris":{"android":"levelo://app?vid=2e3c6edf-cae7-400d-a4dd-fd657e169952","ios":"levelo://app?vid=2e3c6edf-cae7-400d-a4dd-fd657e169952"},"vehicle_type_id":"4","last_reported":1746482964,"current_range_meters":27600,"station_id":"chh1huq6cuj3fo74tm60","pricing_plan_id":"cebpf4jnsgd1na2vs0mg"},{"bike_id":"be14af02-7701-4605-b2d6-5fd0439029d8","system_id":"levelo_inurba_marseille","lat":43.21191,"lon":5.35071,"is_reserved":false,"is_disabled":false,"rental_uris":{"android":"levelo://app?vid=be14af02-7701-4605-b2d6-5fd0439029d8","ios":"levelo://app?vid=be14af02-7701-4605-b2d6-5fd0439029d8"},"vehicle_type_id":"4","last_reported":1746482964,"current_range_meters":27600,"station_id":"st_cvj6sg6p6f1abm77japg","pricing_plan_id":"cebpf4jnsgd1na2vs0mg"},{"bike_id":"b58e123a-3d53-4b64-a38c-a7ba21a7164f","system_id":"levelo_inurba_marseille","lat":43.28456,"lon":5.35906,"is_reserved":false,"is_disabled":false,"rental_uris":{"android":"levelo://app?vid=b58e123a-3d53-4b64-a38c-a7ba21a7164f","ios":"levelo://app?vid=b58e123a-3d53-4b64-a38c-a7ba21a7164f"},"vehicle_type_id":"4","last_reported":1746482964,"current_range_meters":28000,"station_id":"ce4bhah2rcd13ifvqei0","pricing_plan_id":"cebpf4jnsgd1na2vs0mg"},{"bike_id":"36bc2b0f-1c72-4a0d-8aa3-863eb06f12e6","system_id":"levelo_inurba_marseille","lat":43.28955,"lon":5.36621,"is_reserved":false,"is_disabled":false,"rental_uris":{"android":"levelo://app?vid=36bc2b0f-1c72-4a0d-8aa3-863eb06f12e6","ios":"levelo://app?vid=36bc2b0f-1c72-4a0d-8aa3-863eb06f12e6"},"vehicle_type_id":"4","last_reported":1746482964,"current_range_meters":28000,"station_id":"ce4bhap2rcd13ifvqek0","pricing_plan_id":"cebpf4jnsgd1na2vs0mg"},{"bike_id":"6b76be45-67af-4c32-bd75-3866518d1452","system_id":"levelo_inurba_marseille","lat":43.28267,"lon":5.35062,"is_reserved":false,"is_disabled":false,"rental_uris":{"android":"levelo://app?vid=6b76be45-67af-4c32-bd75-3866518d1452","ios":"levelo://app?vid=6b76be45-67af-4c32-bd75-3866518d1452"},"vehicle_type_id":"4","last_reported":1746482964,"current_range_meters":28000,"station_id":"ce4bhbp2rcd13ifvqerg","pricing_plan_id":"cebpf4jnsgd1na2vs0mg"},