{"last_updated":1728889796,"ttl":60,"version":"2.2","data":{"bikes":[{"bike_id":"79d6d2a6-01c8-46e7-8618-793d521dfaaf","system_id":"levelo_inurba_marseille","lat":43.23152,"lon":5.43715,"is_reserved":false,"is_disabled":false,"rental_uris":{"android":"levelo://app?vid=79d6d2a6-01c8-46e7-8618-793d521dfaaf","ios":"levelo://app?vid=79d6d2a6-01c8-46e7-8618-793d521dfaaf"},"vehicle_type_id":"4","last_reported":1728889796,"current_range_meters":9600,"station_id":"ce4bhmp2rcd13ifvqgog","pricing_plan_id":"cebpf4jnsgd1na2vs0mg"},{"bike_id":"d9a92d49-75fa-47ec-be2d-525eb43beb0f","system_id":"levelo_inurba_marseille","lat":43.31232,"lon":5.36876,"is_reserved":false,"is_disabled":false,"rental_uris":{"android":"levelo://app?vid=d9a92d49-75fa-47ec-be2d-525eb43beb0f","ios":"levelo://app?vid=d9a92d49-75fa-47ec-be2d-525eb43beb0f"},"vehicle_type_id":"4","last_reported":1728889796,"current_range_meters":6000,"station_id":"ce4bgl92rcd13ifvqbq0","pricing_plan_id":"cebpf4jnsgd1na2vs0mg"},{"bike_id":"0b046677-604c-4274-acba-e1029fc3f54f","system_id":"levelo_inurba_marseille","lat":43.30552,"lon":5.36706,"is_reserved":false,"is_disabled":false,"rental_uris":{"android":"levelo://app?vid=0b046677-604c-4274-acba-e1029fc3f54f","ios":"levelo://app?vid=0b046677-604c-4274-acba-e1029fc3f54f"},"vehicle_type_id":"4","last_reported":1728889796,"current_range_meters":8400,"station_id":"ce4bgrp2rcd13ifvqc9g","pricing_plan_id":"cebpf4jnsgd1na2vs0mg"},{"bike_id":"5000f225-e468-4f5f-aaf3-6a4b5f001ae8","system_id":"levelo_inurba_marseille","lat":43.30478,"lon":5.37903,"is_reserved":false,"is_disabled":false,"rental_uris":{"android":"levelo://app?vid=5000f225-e468-4f5f-aaf3-6a4b5f001ae8","ios":"levelo://app?vid=5000f225-e468-4f5f-aaf3-6a4b5f001ae8"},"vehicle_type_id":"4","last_reported":1728889796,"current_range_meters":38800,"station_id":"ce4bgup2rcd13ifvqcn0","pricing_plan_id":"cebpf4jnsgd1na2vs0mg"},{"bike_id":"2edcc1fa-6e71-455d-9f75-36356255befd","system_id":"levelo_inurba_marseille","lat":43.23145,"lon":5.43728,"is_reserved":false,"is_disabled":false,"rental_uris":{"android":"levelo://app?vid=2edcc1fa-6e71-455d-9f75-36356255befd","ios":"levelo://app?vid=2edcc1fa-6e71-455d-9f75-36356255befd"},"vehicle_type_id":"4","last_reported":1728889796,"current_range_meters":28800,"station_id":"ce4bhmp2rcd13ifvqgog","pricing_plan_id":"cebpf4jnsgd1na2vs0mg"},{"bike_id":"599c09fe-085f-4c4d-bcb2-98da69515aba","system_id":"levelo_inurba_marseille","lat":43.23064,"lon":5.35491,"is_reserved":false,"is_disabled":false,"rental_uris":{"android":"levelo://app?vid=599c09fe-085f-4c4d-bcb2-98da69515aba","ios":"levelo://app?vid=599c09fe-085f-4c4d-bcb2-98da69515aba"},"vehicle_type_id":"4","last_reported":1728889796,"current_range_meters":38000,"station_id":"cpo3342slgdg3j2ifvpg","pricing_plan_id":"cebpf4jnsgd1na2vs0mg"},{"bike_id":"ffb55efd-081e-4c1c-bc47-bf70f765f418","system_id":"levelo_inurba_marseille","lat":43.30165,"lon":5.38078,"is_reserved":false,"is_disabled":false,"rental_uris":{"android":"levelo://app?vid=ffb55efd-081e-4c1c-bc47-bf70f765f418","ios":"levelo://app?vid=ffb55efd-081e-4c1c-bc47-bf70f765f418"},"vehicle_type_id":"4","last_reported":1728889796,"current_range_meters":20400,"station_id":"ce4bgjp2rcd13ifvqbh0","pricing_plan_id":"cebpf4jnsgd1na2vs0mg"},{"bike_id":"b3cb1ebe-adff-4053-9fe9-5e84838ab48c","system_id":"levelo_inurba_marseille","lat":43.269558,"lon":5.386244,"is_reserved":false,"is_disabled":false,"rental_uris":{"android":"levelo://app?vid=b3cb1ebe-adff-4053-9fe9-5e84838ab48c","ios":"levelo://app?vid=b3cb1ebe-adff-4053-9fe9-5e84838ab48c"},"vehicle_type_id":"4","last_reported":1728889796,"current_range_meters":20400,"station_id":"ce4bgh92rcd13ifvqb40","pricing_plan_id":"cebpf4jnsgd1na2vs0mg"},{"bike_id":"1d6e7aba-8711-44ea-ac19-c6c1c874f9a6","system_id":"levelo_inurba_marseille","lat":43.30474,"lon":5.37893,"is_reserved":false,"is_disabled":false,"rental_uris":{"android":"levelo://app?vid=1d6e7aba-8711-44ea-ac19-c6c1c874f9a6","ios":"levelo://app?vid=1d6e7aba-8711-44ea-ac19-c6c1c874f9a6"},"vehicle_type_id":"4","last_reported":1728889796,"current_range_meters":38000,"station_id":"ce4bgup2rcd13ifvqcn0","pricing_plan_id":"cebpf4jnsgd1na2vs0mg"},{"bike_id":"6b0f4a35-c6ae-4bae-b986-bcdae458746d","system_id":"levelo_inurba_marseille","lat":43.30279,"lon":5.37728,"is_reserved":false,"is_disabled":false,"rental_uris":{"android":"levelo://app?vid=6b0f4a35-c6ae-4bae-b986-bcdae458746d","ios":"levelo://app?vid=6b0f4a35-c6ae-4bae-b986-bcdae458746d"},"vehicle_type_id":"4","last_reported":1728889796,"current_range_meters":36400,"station_id":"ce4bguh2rcd13ifvqcj0","pricing_plan_id":"cebpf4jnsgd1na2vs0mg"},{"bike_id":"231c9d2d-fb56-4064-a155-4053d1ba64f5","system_id":"levelo_inurba_marseille","lat":43.27494,"lon":5.42455,"is_reserved":false,"is_disabled":false,"rental_uris":{"android":"levelo://app?vid=231c9d2d-fb56-4064-a155-4053d1ba64f5","ios":"levelo://app?vid=231c9d2d-fb56-4064-a155-4053d1ba64f5"},"vehicle_type_id":"4","last_reported":1728889796,"current_range_meters":28400,"station_id":"ce4bhn92rcd13ifvqgrg","pricing_plan_id":"cebpf4jnsgd1na2vs0mg"},{"bike_id":"c1526f14-0f53-47fd-bc6e-2dc8711b4bf6","system_id":"levelo_inurba_marseille","lat":43.29902,"lon":5.43666,"is_reserved":false,"is_disabled":false,"rental_uris":{"android":"levelo://app?vid=c1526f14-0f53-47fd-bc6e-2dc8711b4bf6","ios":"levelo://app?vid=c1526f14-0f53-47fd-bc6e-2dc8711b4bf6"},"vehicle_type_id":"4","last_reported":1728889796,"current_range_meters":16800,"station_id":"ce4bhpp2rcd13ifvqhfg","pricing_plan_id":"cebpf4jnsgd1na2vs0mg"},{"bike_id":"fff926e7-1806-450c-84b7-f9e767d4ea3e","system_id":"levelo_inurba_marseille","lat":43.28227,"lon":5.39524,"is_reserved":false,"is_disabled":false,"rental_uris":{"android":"levelo://app?vid=fff926e7-1806-450c-84b7-f9e767d4ea3e","ios":"levelo://app?vid=fff926e7-1806-450c-84b7-f9e767d4ea3e"},"vehicle_type_id":"4","last_reported":1728889796,"current_range_meters":8400,"station_id":"","pricing_plan_id":"cebpf4jnsgd1na2vs0mg"},{"bike_id":"1577fecb-cfb2-4506-83a8-2cd8ebbde5be","system_id":"levelo_inurba_marseille","lat":43.2921,"lon":5.37302,"is_reserved":false,"is_disabled":false,"rental_uris":{"android":"levelo://app?vid=1577fecb-cfb2-4506-83a8-2cd8ebbde5be","ios":"levelo://app?vid=1577fecb-cfb2-4506-83a8-2cd8ebbde5be"},"vehicle_type_id":"4","last_reported":1728889796,"current_range_meters":3200,"station_id":"","pricing_plan_id":"cebpf4jnsgd1na2vs0mg"},{"bike_id":"fe361580-3fb0-4f6f-96bd-f3fe3a459c90","system_id":"levelo_inurba_marseille","lat":43.279763,"lon":5.387416,"is_reserved":false,"is_disabled":false,"rental_uris":{"android":"levelo://app?vid=fe361580-3fb0-4f6f-96bd-f3fe3a459c90","ios":"levelo://app?vid=fe361580-3fb0-4f6f-96bd-f3fe3a459c90"},"vehicle_type_id":"4","last_reported":1728889796,"current_range_meters":31200,"station_id":"ce4bhg12rcd13ifvqf80","pricing_plan_id":"cebpf4jnsgd1na2vs0mg"},{"bike_id":"3fc88a7a-0e00-43b1-89ed-8339351a43c5","system_id":"levelo_inurba_marseille","lat":43.2868,"lon":5.36375,"is_reserved":false,"is_disabled":false,"rental_uris":{"android":"levelo://app?vid=3fc88a7a-0e00-43b1-89ed-8339351a43c5","ios":"levelo://app?vid=3fc88a7a-0e00-43b1-89ed-8339351a43c5"},"vehicle_type_id":"4","last_reported":1728889796,"current_range_meters":38800,"station_id":"ce4bhah2rcd13ifvqej0","pricing_plan_id":"cebpf4jnsgd1na2vs0mg"},{"bike_id":"ebcb7d14-ae1e-4ddc-982a-4aadf7782bfe","system_id":"levelo_inurba_marseille","lat":43.30282,"lon":5.37695,"is_reserved":false,"is_disabled":false,"rental_uris":{"android":"levelo://app?vid=ebcb7d14-ae1e-4ddc-982a-4aadf7782bfe","ios":"levelo://app?vid=ebcb7d14-ae1e-4ddc-982a-4aadf7782bfe"},"vehicle_type_id":"4","last_reported":1728889796,"current_range_meters":15200,"station_id":"ce4bguh2rcd13ifvqcj0","pricing_plan_id":"cebpf4jnsgd1na2vs0mg"},{"bike_id":"39634801-3992-4757-b78d-79f79dc472db","system_id":"levelo_inurba_marseille","lat":43.29073,"lon":5.37152,"is_reserved":false,"is_disabled":false,"rental_uris":{"android":"levelo://app?vid=39634801-3992-4757-b78d-79f79dc472db","ios":"levelo://app?vid=39634801-3992-4757-b78d-79f79dc472db"},"vehicle_type_id":"4","last_reported":1728889796,"current_range_meters":28000,"station_id":"ce4bh5p2rcd13ifvqe4g","pricing_plan_id":"cebpf4jnsgd1na2vs0mg"},{"bike_id":"9d00497d-9a3b-4c20-8796-b6eabbab85a5","system_id":"levelo_inurba_marseille","lat":43.27493,"lon":5.42454,"is_reserved":false,"is_disabled":false,"rental_uris":{"android":"levelo://app?vid=9d00497d-9a3b-4c20-8796-b6eabbab85a5","ios":"levelo://app?vid=9d00497d-9a3b-4c20-8796-b6eabbab85a5"},"vehicle_type_id":"4","last_reported":1728889796,"current_range_meters":16000,"station_id":"ce4bhn92rcd13ifvqgrg","pricing_plan_id":"cebpf4jnsgd1na2vs0mg"},{"bike_id":"1e710047-c8ac-484f-9272-98de01436394","system_id":"levelo_inurba_marseille","lat":43.34148,"lon":5.40912,"is_reserved":false,"is_disabled":false,"rental_uris":{"android":"levelo://app?vid=1e710047-c8ac-484f-9272-98de01436394","ios":"levelo://app?vid=1e710047-c8ac-484f-9272-98de01436394"},"vehicle_type_id":"4","last_reported":1728889796,"current_range_meters":29600,"station_id":"ce4bhqh2rcd13ifvqhlg","pricing_plan_id":"cebpf4jnsgd1na2vs0mg"},{"bike_id":"0780ac7d-9792-4174-aa59-880eb7317276","system_id":"levelo_inurba_marseille","lat":43.29094,"lon":5.38137,"is_reserved":false,"is_disabled":false,"rental_uris":{"android":"levelo://app?vid=0780ac7d-9792-4174-aa59-880eb7317276","ios":"levelo://app?vid=0780ac7d-9792-4174-aa59-880eb7317276"},"vehicle_type_id":"4","last_reported":1728889796,"current_range_meters":23200,"station_id":"ce4bh512rcd13ifvqe2g","pricing_plan_id":"cebpf4jnsgd1na2vs0mg"},{"bike_id":"3e43a9b4-4b0d-44de-97cd-dd18bf9fc04f","system_id":"levelo_inurba_marseille","lat":43.27611,"lon":5.36114,"is_reserved":false,"is_disabled":false,"rental_uris":{"android":"levelo://app?vid=3e43a9b4-4b0d-44de-97cd-dd18bf9fc04f","ios":"levelo://app?vid=3e43a9b4-4b0d-44de-97cd-dd18bf9fc04f"},"vehicle_type_id":"4","last_reported":1728889796,"current_range_meters":37600,"station_id":"ce4bgj92rcd13ifvqbe0","pricing_plan_id":"cebpf4jnsgd1na2vs0mg"},{"bike_id":"6b2daff3-9851-4dff-9081-e0ec010599e4","system_id":"levelo_inurba_marseille","lat":43.314515,"lon":5.37384,"is_reserved":false,"is_disabled":false,"rental_uris":{"android":"levelo://app?vid=6b2daff3-9851-4dff-9081-e0ec010599e4","ios":"levelo://app?vid=6b2daff3-9851-4dff-9081-e0ec010599e4"},"vehicle_type_id":"4","last_reported":1728889796,"current_range_meters":28800,"station_id":"","pricing_plan_id":"cebpf4jnsgd1na2vs0mg"},{"bike_id":"57a4a871-f7fa-453b-b34f-e15921e491bf","system_id":"levelo_inurba_marseille","lat":43.29599,"lon":5.38096,"is_reserved":false,"is_disabled":false,"rental_uris":{"android":"levelo://app?vid=57a4a871-f7fa-453b-b34f-e15921e491bf","ios":"levelo://app?vid=57a4a871-f7fa-453b-b34f-e15921e491bf"},"vehicle_type_id":"4","last_reported":1728889796,"current_range_meters":11600,"station_id":"ce4bgl12rcd13ifvqbo0","pricing_plan_id":"cebpf4jnsgd1na2vs0mg"},{"bike_id":"610f1ba5-1af1-4052-8331-ade5cfc94332","system_id":"levelo_inurba_marseille","lat":43.337444,"lon":5.374475,"is_reserved":false,"is_disabled":false,"rental_uris":{"android":"levelo://app?vid=610f1ba5-1af1-4052-8331-ade5cfc94332","ios":"levelo://app?vid=610f1ba5-1af1-4052-8331-ade5cfc94332"},"vehicle_type_id":"4","last_reported":1728889796,"current_range_meters":4400,"station_id":"","pricing_plan_id":"cebpf4jnsgd1na2vs0mg"},{"bike_id":"9271f80f-bc9e-4430-ac85-62ad2e2ff437","system_id":"levelo_inurba_marseille","lat":43.29037,"lon":5.39951,"is_reserved":false,"is_disabled":false,"rental_uris":{"android":"levelo://app?vid=9271f80f-bc9e-4430-ac85-62ad2e2ff437","ios":"levelo://app?vid=9271f80f-bc9e-4430-ac85-62ad2e2ff437"},"vehicle_type_id":"4","last_reported":1728889796,"current_range_meters":28400,"station_id":"ce4bh392rcd13ifvqdm0","pricing_plan_id":"cebpf4jnsgd1na2vs0mg"},{"bike_id":"5ba8d952-f4f0-4705-94d2-bdc18ff02186","system_id":"levelo_inurba_marseille","lat":43.25485,"lon":5.37642,"is_reserved":false,"is_disabled":false,"rental_uris":{"android":"levelo://app?vid=5ba8d952-f4f0-4705-94d2-bdc18ff02186","ios":"levelo://app?vid=5ba8d952-f4f0-4705-94d2-bdc18ff02186"},"vehicle_type_id":"4","last_reported":1728889796,"current_range_meters":33600,"station_id":"ce4bhh12rcd13ifvqff0","pricing_plan_id":"cebpf4jnsgd1na2vs0mg"},{"bike_id":"a1aeeebe-11af-4a18-8e40-3d48bba0a98f","system_id":"levelo_inurba_marseille","lat":43.31357,"lon":5.36699,"is_reserved":false,"is_disabled":false,"rental_uris":{"android":"levelo://app?vid=a1aeeebe-11af-4a18-8e40-3d48bba0a98f","ios":"levelo://app?vid=a1aeeebe-11af-4a18-8e40-3d48bba0a98f"},"vehicle_type_id":"4","last_reported":1728889796,"current_range_meters":36400,"station_id":"ce4bgr92rcd13ifvqc6g","pricing_plan_id":"cebpf4jnsgd1na2vs0mg"},{"bike_id":"2651f8e5-e279-4329-be5c-b2437cbbb1f0","system_id":"levelo_inurba_marseille","lat":43.28612,"lon":5.37063,"is_reserved":false,"is_disabled":false,"rental_uris":{"android":"levelo://app?vid=2651f8e5-e279-4329-be5c-b2437cbbb1f0","ios":"levelo://app?vid=2651f8e5-e279-4329-be5c-b2437cbbb1f0"},"vehicle_type_id":"4","last_reported":1728889796,"current_range_meters":38800,"station_id":"ce4bht12rcd13ifvqi60","pricing_plan_id":"cebpf4jnsgd1na2vs0mg"},{"bike_id":"e3732206-c79d-4b43-9bb5-3448806fb7dd","system_id":"levelo_inurba_marseille","lat":43.30929,"lon":5.40165,"is_reserved":false,"is_disabled":false,"rental_uris":{"android":"levelo://app?vid=e3732206-c79d-4b43-9bb5-3448806fb7dd","ios":"levelo://app?vid=e3732206-c79d-4b43-9bb5-3448806fb7dd"},"vehicle_type_id":"4","last_reported":1728889796,"current_range_meters":34800,"station_id":"ce4bgvp2rcd13ifvqct0","pricing_plan_id":"cebpf4jnsgd1na2vs0mg"},{"bike_id":"beeaba17-7ac7-4ebf-a6ad-f5496a2eaa8c","system_id":"levelo_inurba_marseille","lat":43.28269,"lon":5.35061,"is_reserved":false,"is_disabled":false,"rental_uris":{"android":"levelo://app?vid=beeaba17-7ac7-4ebf-a6ad-f5496a2eaa8c","ios":"levelo://app?vid=beeaba17-7ac7-4ebf-a6ad-f5496a2eaa8c"},"vehicle_type_id":"4","last_reported":1728889796,"current_range_meters":35200,"station_id":"ce4bhbp2rcd13ifvqerg","pricing_plan_id":"cebpf4jnsgd1na2vs0mg"},{"bike_id":"c4e00525-4827-47ca-b735-73244a089261","system_id":"levelo_inurba_marseille","lat":43.31697,"lon":5.40456,"is_reserved":false,"is_disabled":false,"rental_uris":{"android":"levelo://app?vid=c4e00525-4827-47ca-b735-73244a089261","ios":"levelo://app?vid=c4e00525-4827-47ca-b735-73244a089261"},"vehicle_type_id":"4","last_reported":1728889796,"current_range_meters":22000,"station_id":"ce4bh012rcd13ifvqd00","pricing_plan_id":"cebpf4jnsgd1na2vs0mg"},{"bike_id":"57326c50-88af-4209-96b5-22dd09504b92","system_id":"levelo_inurba_marseille","lat":43.29597,"lon":5.38103,"is_reserved":false,"is_disabled":false,"rental_uris":{"android":"levelo://app?vid=57326c50-88af-4209-96b5-22dd09504b92","ios":"levelo://app?vid=57326c50-88af-4209-96b5-22dd09504b92"},"vehicle_type_id":"4","last_reported":1728889796,"current_range_meters":37600,"station_id":"ce4bgl12rcd13ifvqbo0","pricing_plan_id":"cebpf4jnsgd1na2vs0mg"},{"bike_id":"f501b8a4-3cf6-44c2-882e-960d67b61d66","system_id":"levelo_inurba_marseille","lat":43.2669,"lon":5.38288,"is_reserved":false,"is_disabled":false,"rental_uris":{"android":"levelo://app?vid=f501b8a4-3cf6-44c2-882e-960d67b61d66","ios":"levelo://app?vid=f501b8a4-3cf6-44c2-882e-960d67b61d66"},"vehicle_type_id":"4","last_reported":1728889796,"current_range_meters":7200,"station_id":"ce4bhg92rcd13ifvqf90","pricing_plan_id":"cebpf4jnsgd1na2vs0mg"},{"bike_id":"a2250062-a954-4cbd-a9cb-5eb8aa76e710","system_id":"levelo_inurba_marseille","lat":43.31395,"lon":5.40282,"is_reserved":false,"is_disabled":false,"rental_uris":{"android":"levelo://app?vid=a2250062-a954-4cbd-a9cb-5eb8aa76e710","ios":"levelo://app?vid=a2250062-a954-4cbd-a9cb-5eb8aa76e710"},"vehicle_type_id":"4","last_reported":1728889796,"current_range_meters":26000,"station_id":"","pricing_plan_id":"cebpf4jnsgd1na2vs0mg"},{"bike_id":"2459f49e-0adc-475e-b192-8b7a615d0c40","system_id":"levelo_inurba_marseille","lat":43.29263,"lon":5.40125,"is_reserved":false,"is_disabled":false,"rental_uris":{"android":"levelo://app?vid=2459f49e-0adc-475e-b192-8b7a615d0c40","ios":"levelo://app?vid=2459f49e-0adc-475e-b192-8b7a615d0c40"},"vehicle_type_id":"4","last_reported":1728889796,"current_range_meters":24800,"station_id":"ce4bh312rcd13ifvqdk0","pricing_plan_id":"cebpf4jnsgd1na2vs0mg"},{"bike_id":"549e1c45-71fd-459d-addb-4aa7f1fed92b","system_id":"levelo_inurba_marseille","lat":43.304657,"lon":5.379064,"is_reserved":false,"is_disabled":false,"rental_uris":{"android":"levelo://app?vid=549e1c45-71fd-459d-addb-4aa7f1fed92b","ios":"levelo://app?vid=549e1c45-71fd-459d-addb-4aa7f1fed92b"},"vehicle_type_id":"4","last_reported":1728889796,"current_range_meters":28000,"station_id":"ce4bgup2rcd13ifvqcn0","pricing_plan_id":"cebpf4jnsgd1na2vs0mg"},{"bike_id":"87e2071f-e4ff-48d2-acf9-a1b6820399c3","system_id":"levelo_inurba_marseille","lat":43.23066,"lon":5.35487,"is_reserved":false,"is_disabled":false,"rental_uris":{"android":"levelo://app?vid=87e2071f-e4ff-48d2-acf9-a1b6820399c3","ios":"levelo://app?vid=87e2071f-e4ff-48d2-acf9-a1b6820399c3"},"vehicle_type_id":"4","last_reported":1728889796,"current_range_meters":38400,"station_id":"cpo3342slgdg3j2ifvpg","pricing_plan_id":"cebpf4jnsgd1na2vs0mg"},{"bike_id":"844bf2ea-d3f6-47e6-bdf5-1e1909814a7d","system_id":"levelo_inurba_marseille","lat":43.30557,"lon":5.36535,"is_reserved":false,"is_disabled":false,"rental_uris":{"android":"levelo://app?vid=844bf2ea-d3f6-47e6-bdf5-1e1909814a7d","ios":"levelo://app?vid=844bf2ea-d3f6-47e6-bdf5-1e1909814a7d"},"vehicle_type_id":"4","last_reported":1728889796,"current_range_meters":36400,"station_id":"ce4bgs12rcd13ifvqcag","pricing_plan_id":"cebpf4jnsgd1na2vs0mg"},{"bike_id":"124bcadb-0047-4081-821e-eec9c7c733b7","system_id":"levelo_inurba_marseille","lat":43.33607,"lon":5.41027,"is_reserved":false,"is_disabled":false,"rental_uris":{"android":"levelo://app?vid=124bcadb-0047-4081-821e-eec9c7c733b7","ios":"levelo://app?vid=124bcadb-0047-4081-821e-eec9c7c733b7"},"vehicle_type_id":"4","last_reported":1728889796,"current_range_meters":10800,"station_id":"ce4bhqh2rcd13ifvqhmg","pricing_plan_id":"cebpf4jnsgd1na2vs0mg"},{"bike_id":"1843a9a1-6898-40ba-a9ee-63f9ba453ecd","system_id":"levelo_inurba_marseille","lat":43.24076,"lon":5.3776,"is_reserved":false,"is_disabled":false,"rental_uris":{"android":"levelo://app?vid=1843a9a1-6898-40ba-a9ee-63f9ba453ecd","ios":"levelo://app?vid=1843a9a1-6898-40ba-a9ee-63f9ba453ecd"},"vehicle_type_id":"4","last_reported":1728889796,"current_range_meters":30000,"station_id":"ce4bhnp2rcd13ifvqgvg","pricing_plan_id":"cebpf4jnsgd1na2vs0mg"},{"bike_id":"19080501-1abc-45e9-af44-147edea6ac08","system_id":"levelo_inurba_marseille","lat":43.26572,"lon":5.39009,"is_reserved":false,"is_disabled":false,"rental_uris":{"android":"levelo://app?vid=19080501-1abc-45e9-af44-147edea6ac08","ios":"levelo://app?vid=19080501-1abc-45e9-af44-147edea6ac08"},"vehicle_type_id":"4","last_reported":1728889796,"current_range_meters":28800,"station_id":"ce4bhe12rcd13ifvqf30","pricing_plan_id":"cebpf4jnsgd1na2vs0mg"},{"bike_id":"e91a309e-c8b6-417e-b8c2-38f330b63722","system_id":"levelo_inurba_marseille","lat":43.29922,"lon":5.37481,"is_reserved":false,"is_disabled":false,"rental_uris":{"android":"levelo://app?vid=e91a309e-c8b6-417e-b8c2-38f330b63722","ios":"levelo://app?vid=e91a309e-c8b6-417e-b8c2-38f330b63722"},"vehicle_type_id":"4","last_reported":1728889796,"current_range_meters":38400,"station_id":"ce4bgjh2rcd13ifvqbg0","pricing_plan_id":"cebpf4jnsgd1na2vs0mg"},{"bike_id":"9251a825-857d-4d0f-832c-59dd351109f5","system_id":"levelo_inurba_marseille","lat":43.28926,"lon":5.36644,"is_reserved":false,"is_disabled":false,"rental_uris":{"android":"levelo://app?vid=9251a825-857d-4d0f-832c-59dd351109f5","ios":"levelo://app?vid=9251a825-857d-4d0f-832c-59dd351109f5"},"vehicle_type_id":"4","last_reported":1728889796,"current_range_meters":34800,"station_id":"ce4bhap2rcd13ifvqek0","pricing_plan_id":"cebpf4jnsgd1na2vs0mg"},{"bike_id":"decd1d94-f77a-4388-abc4-b0197b25c7ee","system_id":"levelo_inurba_marseille","lat":43.27492,"lon":5.42454,"is_reserved":false,"is_disabled":false,"rental_uris":{"android":"levelo://app?vid=decd1d94-f77a-4388-abc4-b0197b25c7ee","ios":"levelo://app?vid=decd1d94-f77a-4388-abc4-b0197b25c7ee"},"vehicle_type_id":"4","last_reported":1728889796,"current_range_meters":38800,"station_id":"ce4bhn92rcd13ifvqgrg","pricing_plan_id":"cebpf4jnsgd1na2vs0mg"},{"bike_id":"8bfaa15a-82fc-4b50-80b7-2b46771c82b3","system_id":"levelo_inurba_marseille","lat":43.291718,"lon":5.373179,"is_reserved":false,"is_disabled":false,"rental_uris":{"android":"levelo://app?vid=8bfaa15a-82fc-4b50-80b7-2b46771c82b3","ios":"levelo://app?vid=8bfaa15a-82fc-4b50-80b7-2b46771c82b3"},"vehicle_type_id":"4","last_reported":1728889796,"current_range_meters":38800,"station_id":"","pricing_plan_id":"cebpf4jnsgd1na2vs0mg"},{"bike_id":"e30e517c-441c-44c1-acde-090f38b1e1e0","system_id":"levelo_inurba_marseille","lat":43.29597,"lon":5.38096,"is_reserved":false,"is_disabled":false,"rental_uris":{"android":"levelo://app?vid=e30e517c-441c-44c1-acde-090f38b1e1e0","ios":"levelo://app?vid=e30e517c-441c-44c1-acde-090f38b1e1e0"},"vehicle_type_id":"4","last_reported":1728889796,"current_range_meters":26800,"station_id":"ce4bgl12rcd13ifvqbo0","pricing_plan_id":"cebpf4jnsgd1na2vs0mg"},{"bike_id":"3e2860d3-364a-4409-b9f0-1abaf01c3522","system_id":"levelo_inurba_marseille","lat":43.31491,"lon":5.37313,"is_reserved":false,"is_disabled":false,"rental_uris":{"android":"levelo://app?vid=3e2860d3-364a-4409-b9f0-1abaf01c3522","ios":"levelo://app?vid=3e2860d3-364a-4409-b9f0-1abaf01c3522"},"vehicle_type_id":"4","last_reported":1728889796,"current_range_meters":6000,"station_id":"ce4bgt12rcd13ifvqcd0","pricing_plan_id":"cebpf4jnsgd1na2vs0mg"},{"bike_id":"ec55d3e7-94df-434c-b44a-b63bfd1a142d","system_id":"levelo_inurba_marseille","lat":43.31755,"lon":5.3902,"is_reserved":false,"is_disabled":false,"rental_uris":{"android":"levelo://app?vid=ec55d3e7-94df-434c-b44a-b63bfd1a142d","ios":"levelo://app?vid=ec55d3e7-94df-434c-b44a-b63bfd1a142d"},"vehicle_type_id":"4","last_reported":1728889796,"current_range_meters":32800,"station_id":"ce4bhqp2rcd13ifvqhng","pricing_plan_id":"cebpf4jnsgd1na2vs0mg"},{"bike_id":"e9548929-3116-4076-aa8f-1e7080bf5296","system_id":"levelo_inurba_marseille","lat":43.30915,"lon":5.3685,"is_reserved":false,"is_disabled":false,"rental_uris":{"android":"levelo://app?vid=e9548929-3116-4076-aa8f-1e7080bf5296","ios":"levelo://app?vid=e9548929-3116-4076-aa8f-1e7080bf5296"},"vehicle_type_id":"4","last_reported":1728889796,"current_range_meters":32800,"station_id":"ce4bgn92rcd13ifvqbvg","pricing_plan_id":"cebpf4jnsgd1na2vs0mg"},{"bike_id":"53b4741e-482b-4006-90c3-db5c3c54ffe6","system_id":"levelo_inurba_marseille","lat":43.31358,"lon":5.38485,"is_reserved":false,"is_disabled":false,"rental_uris":{"android":"levelo://app?vid=53b4741e-482b-4006-90c3-db5c3c54ffe6","ios":"levelo://app?vid=53b4741e-482b-4006-90c3-db5c3c54ffe6"},"vehicle_type_id":"4","last_reported":1728889796,"current_range_meters":6800,"station_id":"ce4bgt92rcd13ifvqcf0","pricing_plan_id":"cebpf4jnsgd1na2vs0mg"},{"bike_id":"79b56f75-98c1-485b-b9f1-0c03f3ebac42","system_id":"levelo_inurba_marseille","lat":43.30313,"lon":5.36892,"is_reserved":false,"is_disabled":false,"rental_uris":{"android":"levelo://app?vid=79b56f75-98c1-485b-b9f1-0c03f3ebac42","ios":"levelo://app?vid=79b56f75-98c1-485b-b9f1-0c03f3ebac42"},"vehicle_type_id":"4","last_reported":1728889796,"current_range_meters":33200,"station_id":"ce4bgqh2rcd13ifvqc5g","pricing_plan_id":"cebpf4jnsgd1na2vs0mg"},{"bike_id":"8ab6d7e1-df8a-43cb-a407-ab26d6fb58aa","system_id":"levelo_inurba_marseille","lat":43.33751,"lon":5.37429,"is_reserved":false,"is_disabled":false,"rental_uris":{"android":"levelo://app?vid=8ab6d7e1-df8a-43cb-a407-ab26d6fb58aa","ios":"levelo://app?vid=8ab6d7e1-df8a-43cb-a407-ab26d6fb58aa"},"vehicle_type_id":"4","last_reported":1728889796,"current_range_meters":8400,"station_id":"","pricing_plan_id":"cebpf4jnsgd1na2vs0mg"},{"bike_id":"a7a60d12-45ed-4e23-920d-61de9c684680","system_id":"levelo_inurba_marseille","lat":43.23963,"lon":5.36628,"is_reserved":false,"is_disabled":false,"rental_uris":{"android":"levelo://app?vid=a7a60d12-45ed-4e23-920d-61de9c684680","ios":"levelo://app?vid=a7a60d12-45ed-4e23-920d-61de9c684680"},"vehicle_type_id":"4","last_reported":1728889796,"current_range_meters":19600,"station_id":"ce4bhi12rcd13ifvqfp0","pricing_plan_id":"cebpf4jnsgd1na2vs0mg"},{"bike_id":"ff198842-7b48-420f-8708-6b3f6239678a","system_id":"levelo_inurba_marseille","lat":43.3254,"lon":5.41448,"is_reserved":false,"is_disabled":false,"rental_uris":{"android":"levelo://app?vid=ff198842-7b48-420f-8708-6b3f6239678a","ios":"levelo://app?vid=ff198842-7b48-420f-8708-6b3f6239678a"},"vehicle_type_id":"4","last_reported":1728889796,"current_range_meters":22000,"station_id":"ce4bhq12rcd13ifvqhhg","pricing_plan_id":"cebpf4jnsgd1na2vs0mg"},{"bike_id":"f628470c-65a5-4616-a6ae-d18af5dd64ce","system_id":"levelo_inurba_marseille","lat":43.30141,"lon":5.37411,"is_reserved":false,"is_disabled":false,"rental_uris":{"android":"levelo://app?vid=f628470c-65a5-4616-a6ae-d18af5dd64ce","ios":"levelo://app?vid=f628470c-65a5-4616-a6ae-d18af5dd64ce"},"vehicle_type_id":"4","last_reported":1728889796,"current_range_meters":36800,"station_id":"ce4bgs92rcd13ifvqcc0","pricing_plan_id":"cebpf4jnsgd1na2vs0mg"},{"bike_id":"345e8470-4bde-478c-a8a3-f4b875d8998b","system_id":"levelo_inurba_marseille","lat":43.33606,"lon":5.410387,"is_reserved":false,"is_disabled":false,"rental_uris":{"android":"levelo://app?vid=345e8470-4bde-478c-a8a3-f4b875d8998b","ios":"levelo://app?vid=345e8470-4bde-478c-a8a3-f4b875d8998b"},"vehicle_type_id":"4","last_reported":1728889796,"current_range_meters":38000,"station_id":"ce4bhqh2rcd13ifvqhmg","pricing_plan_id":"cebpf4jnsgd1na2vs0mg"},{"bike_id":"26ef0f82-778d-44d7-ad89-5daefc08a1a4","system_id":"levelo_inurba_marseille","lat":43.314569,"lon":5.373776,"is_reserved":false,"is_disabled":false,"rental_uris":{"android":"levelo://app?vid=26ef0f82-778d-44d7-ad89-5daefc08a1a4","ios":"levelo://app?vid=26ef0f82-778d-44d7-ad89-5daefc08a1a4"},"vehicle_type_id":"4","last_reported":1728889796,"current_range_meters":17200,"station_id":"","pricing_plan_id":"cebpf4jnsgd1na2vs0mg"},{"bike_id":"ded01493-c253-4e1a-bc49-668a4447abf6","system_id":"levelo_inurba_marseille","lat":43.28976,"lon":5.37835,"is_reserved":false,"is_disabled":false,"rental_uris":{"android":"levelo://app?vid=ded01493-c253-4e1a-bc49-668a4447abf6","ios":"levelo://app?vid=ded01493-c253-4e1a-bc49-668a4447abf6"},"vehicle_type_id":"4","last_reported":1728889796,"current_range_meters":28000,"station_id":"ce4bh9p2rcd13ifvqed0","pricing_plan_id":"cebpf4jnsgd1na2vs0mg"},{"bike_id":"4c2e9890-6322-4e56-ae01-e74d95a0e309","system_id":"levelo_inurba_marseille","lat":43.304962,"lon":5.379756,"is_reserved":false,"is_disabled":false,"rental_uris":{"android":"levelo://app?vid=4c2e9890-6322-4e56-ae01-e74d95a0e309","ios":"levelo://app?vid=4c2e9890-6322-4e56-ae01-e74d95a0e309"},"vehicle_type_id":"4","last_reported":1728889796,"current_range_meters":36800,"station_id":"ce4bh312rcd13ifvqdj0","pricing_plan_id":"cebpf4jnsgd1na2vs0mg"},{"bike_id":"fd4593ae-5639-4d08-b938-a816b9790cfc","system_id":"levelo_inurba_marseille","lat":43.29979,"lon":5.38471,"is_reserved":false,"is_disabled":false,"rental_uris":{"android":"levelo://app?vid=fd4593ae-5639-4d08-b938-a816b9790cfc","ios":"levelo://app?vid=fd4593ae-5639-4d08-b938-a816b9790cfc"},"vehicle_type_id":"4","last_reported":1728889796,"current_range_meters":16400,"station_id":"ce4bgj92rcd13ifvqbd0","pricing_plan_id":"cebpf4jnsgd1na2vs0mg"},{"bike_id":"dd56f152-3d24-4964-8294-96aaf213e366","system_id":"levelo_inurba_marseille","lat":43.292851,"lon":5.368404,"is_reserved":false,"is_disabled":false,"rental_uris":{"android":"levelo://app?vid=dd56f152-3d24-4964-8294-96aaf213e366","ios":"levelo://app?vid=dd56f152-3d24-4964-8294-96aaf213e366"},"vehicle_type_id":"4","last_reported":1728889796,"current_range_meters":16000,"station_id":"","pricing_plan_id":"cebpf4jnsgd1na2vs0mg"},{"bike_id":"6775debe-3572-4de6-be18-c3de80cd7673","system_id":"levelo_inurba_marseille","lat":43.2408,"lon":5.37756,"is_reserved":false,"is_disabled":false,"rental_uris":{"android":"levelo://app?vid=6775debe-3572-4de6-be18-c3de80cd7673","ios":"levelo://app?vid=6775debe-3572-4de6-be18-c3de80cd7673"},"vehicle_type_id":"4","last_reported":1728889796,"current_range_meters":36000,"station_id":"ce4bhnp2rcd13ifvqgvg","pricing_plan_id":"cebpf4jnsgd1na2vs0mg"},{"bike_id":"64f37d16-8b3a-420d-a466-1dafb235d27a","system_id":"levelo_inurba_marseille","lat":43.2557,"lon":5.3824,"is_reserved":false,"is_disabled":false,"rental_uris":{"android":"levelo://app?vid=64f37d16-8b3a-420d-a466-1dafb235d27a","ios":"levelo://app?vid=64f37d16-8b3a-420d-a466-1dafb235d27a"},"vehicle_type_id":"4","last_reported":1728889796,"current_range_meters":38000,"station_id":"ce4bhih2rcd13ifvqfs0","pricing_plan_id":"cebpf4jnsgd1na2vs0mg"},{"bike_id":"22e7022a-25e3-4486-9d0c-46be1cc1f7c0","system_id":"levelo_inurba_marseille","lat":43.298,"lon":5.38101,"is_reserved":false,"is_disabled":false,"rental_uris":{"android":"levelo://app?vid=22e7022a-25e3-4486-9d0c-46be1cc1f7c0","ios":"levelo://app?vid=22e7022a-25e3-4486-9d0c-46be1cc1f7c0"},"vehicle_type_id":"4","last_reported":1728889796,"current_range_meters":38400,"station_id":"ce4bgip2rcd13ifvqbb0","pricing_plan_id":"cebpf4jnsgd1na2vs0mg"},{"bike_id":"25ed2710-8c35-44e6-81fd-8fc7cf6b54a8","system_id":"levelo_inurba_marseille","lat":43.274948,"lon":5.424466,"is_reserved":false,"is_disabled":false,"rental_uris":{"android":"levelo://app?vid=25ed2710-8c35-44e6-81fd-8fc7cf6b54a8","ios":"levelo://app?vid=25ed2710-8c35-44e6-81fd-8fc7cf6b54a8"},"vehicle_type_id":"4","last_reported":1728889796,"current_range_meters":17600,"station_id":"ce4bhn92rcd13ifvqgrg","pricing_plan_id":"cebpf4jnsgd1na2vs0mg"},{"bike_id":"71d3f488-c925-46a2-93e5-07e6faaba818","system_id":"levelo_inurba_marseille","lat":43.30552,"lon":5.36565,"is_reserved":false,"is_disabled":false,"rental_uris":{"android":"levelo://app?vid=71d3f488-c925-46a2-93e5-07e6faaba818","ios":"levelo://app?vid=71d3f488-c925-46a2-93e5-07e6faaba818"},"vehicle_type_id":"4","last_reported":1728889796,"current_range_meters":32000,"station_id":"ce4bgs12rcd13ifvqcag","pricing_plan_id":"cebpf4jnsgd1na2vs0mg"},{"bike_id":"b9b18d1e-08b0-4d2d-ae4b-c6ff6e5bb0fe","system_id":"levelo_inurba_marseille","lat":43.29646,"lon":5.37271,"is_reserved":false,"is_disabled":false,"rental_uris":{"android":"levelo://app?vid=b9b18d1e-08b0-4d2d-ae4b-c6ff6e5bb0fe","ios":"levelo://app?vid=b9b18d1e-08b0-4d2d-ae4b-c6ff6e5bb0fe"},"vehicle_type_id":"4","last_reported":1728889796,"current_range_meters":12000,"station_id":"ce4bgk12rcd13ifvqbj0","pricing_plan_id":"cebpf4jnsgd1na2vs0mg"},{"bike_id":"bda036fb-92b4-4963-a81c-e0672c943b56","system_id":"levelo_inurba_marseille","lat":43.32547,"lon":5.41456,"is_reserved":false,"is_disabled":false,"rental_uris":{"android":"levelo://app?vid=bda036fb-92b4-4963-a81c-e0672c943b56","ios":"levelo://app?vid=bda036fb-92b4-4963-a81c-e0672c943b56"},"vehicle_type_id":"4","last_reported":1728889796,"current_range_meters":5600,"station_id":"ce4bhq12rcd13ifvqhhg","pricing_plan_id":"cebpf4jnsgd1na2vs0mg"},{"bike_id":"aea1d7d9-ad77-4f63-b2e5-d880d881127f","system_id":"levelo_inurba_marseille","lat":43.342527,"lon":5.445643,"is_reserved":false,"is_disabled":false,"rental_uris":{"android":"levelo://app?vid=aea1d7d9-ad77-4f63-b2e5-d880d881127f","ios":"levelo://app?vid=aea1d7d9-ad77-4f63-b2e5-d880d881127f"},"vehicle_type_id":"4","last_reported":1728889796,"current_range_meters":28800,"station_id":"","pricing_plan_id":"cebpf4jnsgd1na2vs0mg"},{"bike_id":"4a3d94d1-9861-4490-afca-263b865f6b03","system_id":"levelo_inurba_marseille","lat":43.32541,"lon":5.41451,"is_reserved":false,"is_disabled":false,"rental_uris":{"android":"levelo://app?vid=4a3d94d1-9861-4490-afca-263b865f6b03","ios":"levelo://app?vid=4a3d94d1-9861-4490-afca-263b865f6b03"},"vehicle_type_id":"4","last_reported":1728889796,"current_range_meters":21600,"station_id":"ce4bhq12rcd13ifvqhhg","pricing_plan_id":"cebpf4jnsgd1na2vs0mg"},{"bike_id":"1967c2cd-0a52-4bae-a040-a23f7d771766","system_id":"levelo_inurba_marseille","lat":43.273808,"lon":5.3625,"is_reserved":false,"is_disabled":false,"rental_uris":{"android":"levelo://app?vid=1967c2cd-0a52-4bae-a040-a23f7d771766","ios":"levelo://app?vid=1967c2cd-0a52-4bae-a040-a23f7d771766"},"vehicle_type_id":"4","last_reported":1728889796,"current_range_meters":38000,"station_id":"ce4bhbh2rcd13ifvqeo0","pricing_plan_id":"cebpf4jnsgd1na2vs0mg"},{"bike_id":"94fa31dd-ece9-492a-8cbb-dd2f7fa8e620","system_id":"levelo_inurba_marseille","lat":43.301422,"lon":5.374192,"is_reserved":false,"is_disabled":false,"rental_uris":{"android":"levelo://app?vid=94fa31dd-ece9-492a-8cbb-dd2f7fa8e620","ios":"levelo://app?vid=94fa31dd-ece9-492a-8cbb-dd2f7fa8e620"},"vehicle_type_id":"4","last_reported":1728889796,"current_range_meters":19200,"station_id":"ce4bgvp2rcd13ifvqcu0","pricing_plan_id":"cebpf4jnsgd1na2vs0mg"},{"bike_id":"23ba8b85-9e81-4627-a8fe-3b64f6259aa8","system_id":"levelo_inurba_marseille","lat":43.2928,"lon":5.36851,"is_reserved":false,"is_disabled":false,"rental_uris":{"android":"levelo://app?vid=23ba8b85-9e81-4627-a8fe-3b64f6259aa8","ios":"levelo://app?vid=23ba8b85-9e81-4627-a8fe-3b64f6259aa8"},"vehicle_type_id":"4","last_reported":1728889796,"current_range_meters":29600,"station_id":"ce4bhbp2rcd13ifvqesg","pricing_plan_id":"cebpf4jnsgd1na2vs0mg"},{"bike_id":"64d319f2-164b-4ef6-a30c-055db2ee446a","system_id":"levelo_inurba_marseille","lat":43.24068,"lon":5.37757,"is_reserved":false,"is_disabled":false,"rental_uris":{"android":"levelo://app?vid=64d319f2-164b-4ef6-a30c-055db2ee446a","ios":"levelo://app?vid=64d319f2-164b-4ef6-a30c-055db2ee446a"},"vehicle_type_id":"4","last_reported":1728889796,"current_range_meters":12800,"station_id":"ce4bhnp2rcd13ifvqgvg","pricing_plan_id":"cebpf4jnsgd1na2vs0mg"},{"bike_id":"5305c128-26e8-4602-8fb9-9cf7f4c25370","system_id":"levelo_inurba_marseille","lat":43.32535,"lon":5.41443,"is_reserved":false,"is_disabled":false,"rental_uris":{"android":"levelo://app?vid=5305c128-26e8-4602-8fb9-9cf7f4c25370","ios":"levelo://app?vid=5305c128-26e8-4602-8fb9-9cf7f4c25370"},"vehicle_type_id":"4","last_reported":1728889796,"current_range_meters":19200,"station_id":"ce4bhq12rcd13ifvqhhg","pricing_plan_id":"cebpf4jnsgd1na2vs0mg"},{"bike_id":"b42b57a2-8088-4fdd-a817-cdc570948cca","system_id":"levelo_inurba_marseille","lat":43.31348,"lon":5.36722,"is_reserved":false,"is_disabled":false,"rental_uris":{"android":"levelo://app?vid=b42b57a2-8088-4fdd-a817-cdc570948cca","ios":"levelo://app?vid=b42b57a2-8088-4fdd-a817-cdc570948cca"},"vehicle_type_id":"4","last_reported":1728889796,"current_range_meters":36800,"station_id":"ce4bgr92rcd13ifvqc6g","pricing_plan_id":"cebpf4jnsgd1na2vs0mg"},{"bike_id":"a3259243-c228-447a-b2c6-f4b01bf32d0d","system_id":"levelo_inurba_marseille","lat":43.26048,"lon":5.39794,"is_reserved":false,"is_disabled":false,"rental_uris":{"android":"levelo://app?vid=a3259243-c228-447a-b2c6-f4b01bf32d0d","ios":"levelo://app?vid=a3259243-c228-447a-b2c6-f4b01bf32d0d"},"vehicle_type_id":"4","last_reported":1728889796,"current_range_meters":22400,"station_id":"ce4bhn12rcd13ifvqgpg","pricing_plan_id":"cebpf4jnsgd1na2vs0mg"},{"bike_id":"8a8f8834-af69-4cef-becd-b20226175aba","system_id":"levelo_inurba_marseille","lat":43.27372,"lon":5.36262,"is_reserved":false,"is_disabled":false,"rental_uris":{"android":"levelo://app?vid=8a8f8834-af69-4cef-becd-b20226175aba","ios":"levelo://app?vid=8a8f8834-af69-4cef-becd-b20226175aba"},"vehicle_type_id":"4","last_reported":1728889796,"current_range_meters":38000,"station_id":"ce4bhbh2rcd13ifvqeo0","pricing_plan_id":"cebpf4jnsgd1na2vs0mg"},{"bike_id":"744d7d46-a030-452d-827a-600610e2a098","system_id":"levelo_inurba_marseille","lat":43.23185,"lon":5.3999,"is_reserved":false,"is_disabled":false,"rental_uris":{"android":"levelo://app?vid=744d7d46-a030-452d-827a-600610e2a098","ios":"levelo://app?vid=744d7d46-a030-452d-827a-600610e2a098"},"vehicle_type_id":"4","last_reported":1728889796,"current_range_meters":30000,"station_id":"ce4bhn12rcd13ifvqgqg","pricing_plan_id":"cebpf4jnsgd1na2vs0mg"},{"bike_id":"d269f004-6f8f-438a-9017-6d6b6da4f8cd","system_id":"levelo_inurba_marseille","lat":43.28355,"lon":5.38103,"is_reserved":false,"is_disabled":false,"rental_uris":{"android":"levelo://app?vid=d269f004-6f8f-438a-9017-6d6b6da4f8cd","ios":"levelo://app?vid=d269f004-6f8f-438a-9017-6d6b6da4f8cd"},"vehicle_type_id":"4","last_reported":1728889796,"current_range_meters":31200,"station_id":"ce4bh412rcd13ifvqdr0","pricing_plan_id":"cebpf4jnsgd1na2vs0mg"},{"bike_id":"4ad9c84c-685e-4f1a-b238-9f190cafcbe4","system_id":"levelo_inurba_marseille","lat":43.3014,"lon":5.37416,"is_reserved":false,"is_disabled":false,"rental_uris":{"android":"levelo://app?vid=4ad9c84c-685e-4f1a-b238-9f190cafcbe4","ios":"levelo://app?vid=4ad9c84c-685e-4f1a-b238-9f190cafcbe4"},"vehicle_type_id":"4","last_reported":1728889796,"current_range_meters":20000,"station_id":"ce4bgs92rcd13ifvqcc0","pricing_plan_id":"cebpf4jnsgd1na2vs0mg"},{"bike_id":"621b7c4e-8aa0-41dd-814b-66770078b276","system_id":"levelo_inurba_marseille","lat":43.3372,"lon":5.39179,"is_reserved":false,"is_disabled":false,"rental_uris":{"android":"levelo://app?vid=621b7c4e-8aa0-41dd-814b-66770078b276","ios":"levelo://app?vid=621b7c4e-8aa0-41dd-814b-66770078b276"},"vehicle_type_id":"4","last_reported":1728889796,"current_range_meters":37600,"station_id":"ce4bhr92rcd13ifvqhsg","pricing_plan_id":"cebpf4jnsgd1na2vs0mg"},{"bike_id":"7a40a5f2-4d25-461b-986f-5e99b606253c","system_id":"levelo_inurba_marseille","lat":43.2963,"lon":5.40596,"is_reserved":false,"is_disabled":false,"rental_uris":{"android":"levelo://app?vid=7a40a5f2-4d25-461b-986f-5e99b606253c","ios":"levelo://app?vid=7a40a5f2-4d25-461b-986f-5e99b606253c"},"vehicle_type_id":"4","last_reported":1728889796,"current_range_meters":6400,"station_id":"ce4bh0h2rcd13ifvqd60","pricing_plan_id":"cebpf4jnsgd1na2vs0mg"},{"bike_id":"734ed08e-6ab3-457f-b6eb-fbdb4bb81a32","system_id":"levelo_inurba_marseille","lat":43.313416,"lon":5.374968,"is_reserved":false,"is_disabled":false,"rental_uris":{"android":"levelo://app?vid=734ed08e-6ab3-457f-b6eb-fbdb4bb81a32","ios":"levelo://app?vid=734ed08e-6ab3-457f-b6eb-fbdb4bb81a32"},"vehicle_type_id":"4","last_reported":1728889796,"current_range_meters":33200,"station_id":"ce4bgt12rcd13ifvqcd0","pricing_plan_id":"cebpf4jnsgd1na2vs0mg"},{"bike_id":"845804fa-aebf-466f-ae57-df292c2b342f","system_id":"levelo_inurba_marseille","lat":43.31347,"lon":5.3673,"is_reserved":false,"is_disabled":false,"rental_uris":{"android":"levelo://app?vid=845804fa-aebf-466f-ae57-df292c2b342f","ios":"levelo://app?vid=845804fa-aebf-466f-ae57-df292c2b342f"},"vehicle_type_id":"4","last_reported":1728889796,"current_range_meters":24400,"station_id":"ce4bgr92rcd13ifvqc6g","pricing_plan_id":"cebpf4jnsgd1na2vs0mg"},{"bike_id":"f6f41400-1d47-4639-8a3f-1b0ffeacdff9","system_id":"levelo_inurba_marseille","lat":43.28443,"lon":5.39198,"is_reserved":false,"is_disabled":false,"rental_uris":{"android":"levelo://app?vid=f6f41400-1d47-4639-8a3f-1b0ffeacdff9","ios":"levelo://app?vid=f6f41400-1d47-4639-8a3f-1b0ffeacdff9"},"vehicle_type_id":"4","last_reported":1728889796,"current_range_meters":30000,"station_id":"ce4bhoh2rcd13ifvqh5g","pricing_plan_id":"cebpf4jnsgd1na2vs0mg"},{"bike_id":"d64c76a9-b37d-4857-b09f-918a8d971621","system_id":"levelo_inurba_marseille","lat":43.25929,"lon":5.40901,"is_reserved":false,"is_disabled":false,"rental_uris":{"android":"levelo://app?vid=d64c76a9-b37d-4857-b09f-918a8d971621","ios":"levelo://app?vid=d64c76a9-b37d-4857-b09f-918a8d971621"},"vehicle_type_id":"4","last_reported":1728889796,"current_range_meters":30400,"station_id":"ce4bhm92rcd13ifvqglg","pricing_plan_id":"cebpf4jnsgd1na2vs0mg"},{"bike_id":"942837a5-e4b4-4105-9399-8e4f3be4d6cf","system_id":"levelo_inurba_marseille","lat":43.30322,"lon":5.36896,"is_reserved":false,"is_disabled":false,"rental_uris":{"android":"levelo://app?vid=942837a5-e4b4-4105-9399-8e4f3be4d6cf","ios":"levelo://app?vid=942837a5-e4b4-4105-9399-8e4f3be4d6cf"},"vehicle_type_id":"4","last_reported":1728889796,"current_range_meters":38800,"station_id":"ce4bgqh2rcd13ifvqc5g","pricing_plan_id":"cebpf4jnsgd1na2vs0mg"},{"bike_id":"52ee70bf-1493-492e-8e40-4150b7083c25","system_id":"levelo_inurba_marseille","lat":43.30156,"lon":5.3808,"is_reserved":false,"is_disabled":false,"rental_uris":{"android":"levelo://app?vid=52ee70bf-1493-492e-8e40-4150b7083c25","ios":"levelo://app?vid=52ee70bf-1493-492e-8e40-4150b7083c25"},"vehicle_type_id":"4","last_reported":1728889796,"current_range_meters":36000,"station_id":"ce4bgjp2rcd13ifvqbh0","pricing_plan_id":"cebpf4jnsgd1na2vs0mg"},{"bike_id":"e084f833-022f-4cea-bf4e-fc335d17dd46","system_id":"levelo_inurba_marseille","lat":43.30543,"lon":5.36571,"is_reserved":false,"is_disabled":false,"rental_uris":{"android":"levelo://app?vid=e084f833-022f-4cea-bf4e-fc335d17dd46","ios":"levelo://app?vid=e084f833-022f-4cea-bf4e-fc335d17dd46"},"vehicle_type_id":"4","last_reported":1728889796,"current_range_meters":35600,"station_id":"ce4bgs12rcd13ifvqcag","pricing_plan_id":"cebpf4jnsgd1na2vs0mg"},{"bike_id":"f652f837-fbc5-4210-a9ec-80495a53596f","system_id":"levelo_inurba_marseille","lat":43.24073,"lon":5.37759,"is_reserved":false,"is_disabled":false,"rental_uris":{"android":"levelo://app?vid=f652f837-fbc5-4210-a9ec-80495a53596f","ios":"levelo://app?vid=f652f837-fbc5-4210-a9ec-80495a53596f"},"vehicle_type_id":"4","last_reported":1728889796,"current_range_meters":37600,"station_id":"ce4bhnp2rcd13ifvqgvg","pricing_plan_id":"cebpf4jnsgd1na2vs0mg"},{"bike_id":"b607a881-1656-4ea2-9f9a-59482023e9a5","system_id":"levelo_inurba_marseille","lat":43.31353,"lon":5.36716,"is_reserved":false,"is_disabled":false,"rental_uris":{"android":"levelo://app?vid=b607a881-1656-4ea2-9f9a-59482023e9a5","ios":"levelo://app?vid=b607a881-1656-4ea2-9f9a-59482023e9a5"},"vehicle_type_id":"4","last_reported":1728889796,"current_range_meters":38800,"station_id":"ce4bgr92rcd13ifvqc6g","pricing_plan_id":"cebpf4jnsgd1na2vs0mg"},{"bike_id":"450561aa-1be6-4eb5-839f-fae604a51bfc","system_id":"levelo_inurba_marseille","lat":43.29905,"lon":5.37482,"is_reserved":false,"is_disabled":false,"rental_uris":{"android":"levelo://app?vid=450561aa-1be6-4eb5-839f-fae604a51bfc","ios":"levelo://app?vid=450561aa-1be6-4eb5-839f-fae604a51bfc"},"vehicle_type_id":"4","last_reported":1728889796,"current_range_meters":26000,"station_id":"ce4bgjh2rcd13ifvqbg0","pricing_plan_id":"cebpf4jnsgd1na2vs0mg"},{"bike_id":"6d45e2e1-f520-4d39-b919-7453d5eb68a9","system_id":"levelo_inurba_marseille","lat":43.30139,"lon":5.37393,"is_reserved":false,"is_disabled":false,"rental_uris":{"android":"levelo://app?vid=6d45e2e1-f520-4d39-b919-7453d5eb68a9","ios":"levelo://app?vid=6d45e2e1-f520-4d39-b919-7453d5eb68a9"},"vehicle_type_id":"4","last_reported":1728889796,"current_range_meters":23200,"station_id":"ce4bgs92rcd13ifvqcc0","pricing_plan_id":"cebpf4jnsgd1na2vs0mg"},{"bike_id":"997e4765-593d-49ca-ba6b-41756d6aec40","system_id":"levelo_inurba_marseille","lat":43.30464,"lon":5.379,"is_reserved":false,"is_disabled":false,"rental_uris":{"android":"levelo://app?vid=997e4765-593d-49ca-ba6b-41756d6aec40","ios":"levelo://app?vid=997e4765-593d-49ca-ba6b-41756d6aec40"},"vehicle_type_id":"4","last_reported":1728889796,"current_range_meters":33600,"station_id":"ce4bgup2rcd13ifvqcn0","pricing_plan_id":"cebpf4jnsgd1na2vs0mg"},{"bike_id":"4e0df961-8424-4df2-976b-76e8c2a464c9","system_id":"levelo_inurba_marseille","lat":43.25863,"lon":5.39896,"is_reserved":false,"is_disabled":false,"rental_uris":{"android":"levelo://app?vid=4e0df961-8424-4df2-976b-76e8c2a464c9","ios":"levelo://app?vid=4e0df961-8424-4df2-976b-76e8c2a464c9"},"vehicle_type_id":"4","last_reported":1728889796,"current_range_meters":37600,"station_id":"ce4bhl92rcd13ifvqghg","pricing_plan_id":"cebpf4jnsgd1na2vs0mg"},{"bike_id":"ad9c5125-2869-46bb-aaef-342aebc9bc00","system_id":"levelo_inurba_marseille","lat":43.31109,"lon":5.38064,"is_reserved":false,"is_disabled":false,"rental_uris":{"android":"levelo://app?vid=ad9c5125-2869-46bb-aaef-342aebc9bc00","ios":"levelo://app?vid=ad9c5125-2869-46bb-aaef-342aebc9bc00"},"vehicle_type_id":"4","last_reported":1728889796,"current_range_meters":20800,"station_id":"ce4bgt92rcd13ifvqcf0","pricing_plan_id":"cebpf4jnsgd1na2vs0mg"},{"bike_id":"e4466214-3e23-4e6f-83e4-483fcb19c7d9","system_id":"levelo_inurba_marseille","lat":43.30905,"lon":5.36845,"is_reserved":false,"is_disabled":false,"rental_uris":{"android":"levelo://app?vid=e4466214-3e23-4e6f-83e4-483fcb19c7d9","ios":"levelo://app?vid=e4466214-3e23-4e6f-83e4-483fcb19c7d9"},"vehicle_type_id":"4","last_reported":1728889796,"current_range_meters":26800,"station_id":"ce4bgn92rcd13ifvqbvg","pricing_plan_id":"cebpf4jnsgd1na2vs0mg"},{"bike_id":"5f2342ae-8d4c-4077-b871-5a4565f7416e","system_id":"levelo_inurba_marseille","lat":43.24074,"lon":5.37761,"is_reserved":false,"is_disabled":false,"rental_uris":{"android":"levelo://app?vid=5f2342ae-8d4c-4077-b871-5a4565f7416e","ios":"levelo://app?vid=5f2342ae-8d4c-4077-b871-5a4565f7416e"},"vehicle_type_id":"4","last_reported":1728889796,"current_range_meters":31200,"station_id":"ce4bhnp2rcd13ifvqgvg","pricing_plan_id":"cebpf4jnsgd1na2vs0mg"},{"bike_id":"69563718-4bc2-40ef-855e-a5d3318b6758","system_id":"levelo_inurba_marseille","lat":43.28157,"lon":5.42638,"is_reserved":false,"is_disabled":false,"rental_uris":{"android":"levelo://app?vid=69563718-4bc2-40ef-855e-a5d3318b6758","ios":"levelo://app?vid=69563718-4bc2-40ef-855e-a5d3318b6758"},"vehicle_type_id":"4","last_reported":1728889796,"current_range_meters":38800,"station_id":"ce4bhnh2rcd13ifvqgug","pricing_plan_id":"cebpf4jnsgd1na2vs0mg"},{"bike_id":"6b101a3d-ed8e-4a63-99b4-834d2c7bef86","system_id":"levelo_inurba_marseille","lat":43.3254,"lon":5.41454,"is_reserved":false,"is_disabled":false,"rental_uris":{"android":"levelo://app?vid=6b101a3d-ed8e-4a63-99b4-834d2c7bef86","ios":"levelo://app?vid=6b101a3d-ed8e-4a63-99b4-834d2c7bef86"},"vehicle_type_id":"4","last_reported":1728889796,"current_range_meters":33600,"station_id":"ce4bhq12rcd13ifvqhhg","pricing_plan_id":"cebpf4jnsgd1na2vs0mg"},{"bike_id":"91bf7418-d30b-4703-8999-0f5cc334e406","system_id":"levelo_inurba_marseille","lat":43.26196,"lon":5.40443,"is_reserved":false,"is_disabled":false,"rental_uris":{"android":"levelo://app?vid=91bf7418-d30b-4703-8999-0f5cc334e406","ios":"levelo://app?vid=91bf7418-d30b-4703-8999-0f5cc334e406"},"vehicle_type_id":"4","last_reported":1728889796,"current_range_meters":6400,"station_id":"","pricing_plan_id":"cebpf4jnsgd1na2vs0mg"},{"bike_id":"bc4fad8c-9618-4470-8df4-98cd5ecfa994","system_id":"levelo_inurba_marseille","lat":43.31341,"lon":5.36721,"is_reserved":false,"is_disabled":false,"rental_uris":{"android":"levelo://app?vid=bc4fad8c-9618-4470-8df4-98cd5ecfa994","ios":"levelo://app?vid=bc4fad8c-9618-4470-8df4-98cd5ecfa994"},"vehicle_type_id":"4","last_reported":1728889796,"current_range_meters":16800,"station_id":"ce4bgr92rcd13ifvqc6g","pricing_plan_id":"cebpf4jnsgd1na2vs0mg"},{"bike_id":"7d77f729-90ca-4a5e-9ca6-88301f21e21e","system_id":"levelo_inurba_marseille","lat":43.30542,"lon":5.3655,"is_reserved":false,"is_disabled":false,"rental_uris":{"android":"levelo://app?vid=7d77f729-90ca-4a5e-9ca6-88301f21e21e","ios":"levelo://app?vid=7d77f729-90ca-4a5e-9ca6-88301f21e21e"},"vehicle_type_id":"4","last_reported":1728889796,"current_range_meters":36400,"station_id":"ce4bgs12rcd13ifvqcag","pricing_plan_id":"cebpf4jnsgd1na2vs0mg"},{"bike_id":"1bd954b5-82cc-4ed8-81c9-6fee4b9e034c","system_id":"levelo_inurba_marseille","lat":43.30152,"lon":5.38092,"is_reserved":false,"is_disabled":false,"rental_uris":{"android":"levelo://app?vid=1bd954b5-82cc-4ed8-81c9-6fee4b9e034c","ios":"levelo://app?vid=1bd954b5-82cc-4ed8-81c9-6fee4b9e034c"},"vehicle_type_id":"4","last_reported":1728889796,"current_range_meters":38000,"station_id":"ce4bgjp2rcd13ifvqbh0","pricing_plan_id":"cebpf4jnsgd1na2vs0mg"},{"bike_id":"cea6aa04-23c8-49a8-a305-74af0c950605","system_id":"levelo_inurba_marseille","lat":43.25494,"lon":5.37646,"is_reserved":false,"is_disabled":false,"rental_uris":{"android":"levelo://app?vid=cea6aa04-23c8-49a8-a305-74af0c950605","ios":"levelo://app?vid=cea6aa04-23c8-49a8-a305-74af0c950605"},"vehicle_type_id":"4","last_reported":1728889796,"current_range_meters":37600,"station_id":"ce4bhh12rcd13ifvqff0","pricing_plan_id":"cebpf4jnsgd1na2vs0mg"},{"bike_id":"782978e3-b888-4527-91a9-8496f64285f7","system_id":"levelo_inurba_marseille","lat":43.30463,"lon":5.37898,"is_reserved":false,"is_disabled":false,"rental_uris":{"android":"levelo://app?vid=782978e3-b888-4527-91a9-8496f64285f7","ios":"levelo://app?vid=782978e3-b888-4527-91a9-8496f64285f7"},"vehicle_type_id":"4","last_reported":1728889796,"current_range_meters":33600,"station_id":"ce4bgup2rcd13ifvqcn0","pricing_plan_id":"cebpf4jnsgd1na2vs0mg"},{"bike_id":"77807a8d-0379-4d07-b56c-d0871dfb1820","system_id":"levelo_inurba_marseille","lat":43.30903,"lon":5.36853,"is_reserved":false,"is_disabled":false,"rental_uris":{"android":"levelo://app?vid=77807a8d-0379-4d07-b56c-d0871dfb1820","ios":"levelo://app?vid=77807a8d-0379-4d07-b56c-d0871dfb1820"},"vehicle_type_id":"4","last_reported":1728889796,"current_range_meters":23200,"station_id":"ce4bgn92rcd13ifvqbvg","pricing_plan_id":"cebpf4jnsgd1na2vs0mg"},{"bike_id":"a439e9c1-eb99-42fa-a16e-00182dec1edc","system_id":"levelo_inurba_marseille","lat":43.29034,"lon":5.39968,"is_reserved":false,"is_disabled":false,"rental_uris":{"android":"levelo://app?vid=a439e9c1-eb99-42fa-a16e-00182dec1edc","ios":"levelo://app?vid=a439e9c1-eb99-42fa-a16e-00182dec1edc"},"vehicle_type_id":"4","last_reported":1728889796,"current_range_meters":30000,"station_id":"ce4bh392rcd13ifvqdm0","pricing_plan_id":"cebpf4jnsgd1na2vs0mg"},{"bike_id":"11702197-bd9c-4164-8c2e-badf381d0ff3","system_id":"levelo_inurba_marseille","lat":43.33749,"lon":5.3747,"is_reserved":false,"is_disabled":false,"rental_uris":{"android":"levelo://app?vid=11702197-bd9c-4164-8c2e-badf381d0ff3","ios":"levelo://app?vid=11702197-bd9c-4164-8c2e-badf381d0ff3"},"vehicle_type_id":"4","last_reported":1728889796,"current_range_meters":38800,"station_id":"","pricing_plan_id":"cebpf4jnsgd1na2vs0mg"},{"bike_id":"fd267284-ecd3-4d57-ba7d-24ee0a3b8f56","system_id":"levelo_inurba_marseille","lat":43.24172,"lon":5.39738,"is_reserved":false,"is_disabled":false,"rental_uris":{"android":"levelo://app?vid=fd267284-ecd3-4d57-ba7d-24ee0a3b8f56","ios":"levelo://app?vid=fd267284-ecd3-4d57-ba7d-24ee0a3b8f56"},"vehicle_type_id":"4","last_reported":1728889796,"current_range_meters":35600,"station_id":"ce4bhn12rcd13ifvqgpg","pricing_plan_id":"cebpf4jnsgd1na2vs0mg"},{"bike_id":"7c722ccf-af4f-4ddf-a648-b67890f609c9","system_id":"levelo_inurba_marseille","lat":43.24081,"lon":5.37762,"is_reserved":false,"is_disabled":false,"rental_uris":{"android":"levelo://app?vid=7c722ccf-af4f-4ddf-a648-b67890f609c9","ios":"levelo://app?vid=7c722ccf-af4f-4ddf-a648-b67890f609c9"},"vehicle_type_id":"4","last_reported":1728889796,"current_range_meters":33600,"station_id":"ce4bhnp2rcd13ifvqgvg","pricing_plan_id":"cebpf4jnsgd1na2vs0mg"},{"bike_id":"56444637-be0e-4a68-9432-89e3b1c423b0","system_id":"levelo_inurba_marseille","lat":43.29981,"lon":5.37181,"is_reserved":false,"is_disabled":false,"rental_uris":{"android":"levelo://app?vid=56444637-be0e-4a68-9432-89e3b1c423b0","ios":"levelo://app?vid=56444637-be0e-4a68-9432-89e3b1c423b0"},"vehicle_type_id":"4","last_reported":1728889796,"current_range_meters":25600,"station_id":"ce4bgr92rcd13ifvqc7g","pricing_plan_id":"cebpf4jnsgd1na2vs0mg"},{"bike_id":"dee3f50f-c93b-45b4-8e4a-dbdb45f55e9d","system_id":"levelo_inurba_marseille","lat":43.29559,"lon":5.42296,"is_reserved":false,"is_disabled":false,"rental_uris":{"android":"levelo://app?vid=dee3f50f-c93b-45b4-8e4a-dbdb45f55e9d","ios":"levelo://app?vid=dee3f50f-c93b-45b4-8e4a-dbdb45f55e9d"},"vehicle_type_id":"4","last_reported":1728889796,"current_range_meters":9600,"station_id":"ce4bhph2rcd13ifvqhdg","pricing_plan_id":"cebpf4jnsgd1na2vs0mg"},{"bike_id":"4028ca6a-8032-412a-b69c-cb37e429838c","system_id":"levelo_inurba_marseille","lat":43.30146,"lon":5.37412,"is_reserved":false,"is_disabled":false,"rental_uris":{"android":"levelo://app?vid=4028ca6a-8032-412a-b69c-cb37e429838c","ios":"levelo://app?vid=4028ca6a-8032-412a-b69c-cb37e429838c"},"vehicle_type_id":"4","last_reported":1728889796,"current_range_meters":14400,"station_id":"ce4bgs92rcd13ifvqcc0","pricing_plan_id":"cebpf4jnsgd1na2vs0mg"},{"bike_id":"56ecfab2-c002-4d76-a8fc-8516f392880c","system_id":"levelo_inurba_marseille","lat":43.29078,"lon":5.37175,"is_reserved":false,"is_disabled":false,"rental_uris":{"android":"levelo://app?vid=56ecfab2-c002-4d76-a8fc-8516f392880c","ios":"levelo://app?vid=56ecfab2-c002-4d76-a8fc-8516f392880c"},"vehicle_type_id":"4","last_reported":1728889796,"current_range_meters":27200,"station_id":"ce4bh5p2rcd13ifvqe4g","pricing_plan_id":"cebpf4jnsgd1na2vs0mg"},{"bike_id":"362bf30a-13e2-4373-a5f5-6ac888b4e115","system_id":"levelo_inurba_marseille","lat":43.24079,"lon":5.37754,"is_reserved":false,"is_disabled":false,"rental_uris":{"android":"levelo://app?vid=362bf30a-13e2-4373-a5f5-6ac888b4e115","ios":"levelo://app?vid=362bf30a-13e2-4373-a5f5-6ac888b4e115"},"vehicle_type_id":"4","last_reported":1728889796,"current_range_meters":24000,"station_id":"ce4bhnp2rcd13ifvqgvg","pricing_plan_id":"cebpf4jnsgd1na2vs0mg"},{"bike_id":"402e2b18-2493-4b09-a5dd-0f549fefaf7a","system_id":"levelo_inurba_marseille","lat":43.241622,"lon":5.363999,"is_reserved":false,"is_disabled":false,"rental_uris":{"android":"levelo://app?vid=402e2b18-2493-4b09-a5dd-0f549fefaf7a","ios":"levelo://app?vid=402e2b18-2493-4b09-a5dd-0f549fefaf7a"},"vehicle_type_id":"4","last_reported":1728889796,"current_range_meters":38400,"station_id":"cpo36qri1sfpv3e86is0","pricing_plan_id":"cebpf4jnsgd1na2vs0mg"},{"bike_id":"349cd232-f880-4e8b-b980-0192f8c85142","system_id":"levelo_inurba_marseille","lat":43.30141,"lon":5.37417,"is_reserved":false,"is_disabled":false,"rental_uris":{"android":"levelo://app?vid=349cd232-f880-4e8b-b980-0192f8c85142","ios":"levelo://app?vid=349cd232-f880-4e8b-b980-0192f8c85142"},"vehicle_type_id":"4","last_reported":1728889796,"current_range_meters":31200,"station_id":"ce4bgs92rcd13ifvqcc0","pricing_plan_id":"cebpf4jnsgd1na2vs0mg"},{"bike_id":"49bd0704-31bd-4e7b-824e-55a02be00f57","system_id":"levelo_inurba_marseille","lat":43.31687,"lon":5.40475,"is_reserved":false,"is_disabled":false,"rental_uris":{"android":"levelo://app?vid=49bd0704-31bd-4e7b-824e-55a02be00f57","ios":"levelo://app?vid=49bd0704-31bd-4e7b-824e-55a02be00f57"},"vehicle_type_id":"4","last_reported":1728889796,"current_range_meters":24000,"station_id":"ce4bh012rcd13ifvqd00","pricing_plan_id":"cebpf4jnsgd1na2vs0mg"},{"bike_id":"b7e84f83-7f07-4548-a52d-d37446dda807","system_id":"levelo_inurba_marseille","lat":43.27956,"lon":5.41053,"is_reserved":false,"is_disabled":false,"rental_uris":{"android":"levelo://app?vid=b7e84f83-7f07-4548-a52d-d37446dda807","ios":"levelo://app?vid=b7e84f83-7f07-4548-a52d-d37446dda807"},"vehicle_type_id":"4","last_reported":1728889796,"current_range_meters":27600,"station_id":"ce4bhnp2rcd13ifvqh0g","pricing_plan_id":"cebpf4jnsgd1na2vs0mg"},{"bike_id":"477919e4-dd1e-4f4d-8d53-6d7df821e964","system_id":"levelo_inurba_marseille","lat":43.33726,"lon":5.39176,"is_reserved":false,"is_disabled":false,"rental_uris":{"android":"levelo://app?vid=477919e4-dd1e-4f4d-8d53-6d7df821e964","ios":"levelo://app?vid=477919e4-dd1e-4f4d-8d53-6d7df821e964"},"vehicle_type_id":"4","last_reported":1728889796,"current_range_meters":38800,"station_id":"ce4bhr92rcd13ifvqhsg","pricing_plan_id":"cebpf4jnsgd1na2vs0mg"},{"bike_id":"5bc9b78b-9615-45c0-a888-79c429dfa74a","system_id":"levelo_inurba_marseille","lat":43.33728,"lon":5.39188,"is_reserved":false,"is_disabled":false,"rental_uris":{"android":"levelo://app?vid=5bc9b78b-9615-45c0-a888-79c429dfa74a","ios":"levelo://app?vid=5bc9b78b-9615-45c0-a888-79c429dfa74a"},"vehicle_type_id":"4","last_reported":1728889796,"current_range_meters":12000,"station_id":"ce4bhr92rcd13ifvqhsg","pricing_plan_id":"cebpf4jnsgd1na2vs0mg"},{"bike_id":"d78c27bf-97c1-420b-82fb-48ca2bea5d28","system_id":"levelo_inurba_marseille","lat":43.26204,"lon":5.37934,"is_reserved":false,"is_disabled":false,"rental_uris":{"android":"levelo://app?vid=d78c27bf-97c1-420b-82fb-48ca2bea5d28","ios":"levelo://app?vid=d78c27bf-97c1-420b-82fb-48ca2bea5d28"},"vehicle_type_id":"4","last_reported":1728889796,"current_range_meters":38800,"station_id":"ce4bhjp2rcd13ifvqg90","pricing_plan_id":"cebpf4jnsgd1na2vs0mg"},{"bike_id":"3915f9a2-e1d0-4998-ba05-2eda806b8904","system_id":"levelo_inurba_marseille","lat":43.27495,"lon":5.4245,"is_reserved":false,"is_disabled":false,"rental_uris":{"android":"levelo://app?vid=3915f9a2-e1d0-4998-ba05-2eda806b8904","ios":"levelo://app?vid=3915f9a2-e1d0-4998-ba05-2eda806b8904"},"vehicle_type_id":"4","last_reported":1728889796,"current_range_meters":25600,"station_id":"ce4bhn92rcd13ifvqgrg","pricing_plan_id":"cebpf4jnsgd1na2vs0mg"},{"bike_id":"ab7f5af8-cb0c-45d6-b50a-c0534953c58a","system_id":"levelo_inurba_marseille","lat":43.26494,"lon":5.39547,"is_reserved":false,"is_disabled":false,"rental_uris":{"android":"levelo://app?vid=ab7f5af8-cb0c-45d6-b50a-c0534953c58a","ios":"levelo://app?vid=ab7f5af8-cb0c-45d6-b50a-c0534953c58a"},"vehicle_type_id":"4","last_reported":1728889796,"current_range_meters":38800,"station_id":"ce4bhi12rcd13ifvqfq0","pricing_plan_id":"cebpf4jnsgd1na2vs0mg"},{"bike_id":"79da16d0-726d-42be-b4c8-53623c5dc453","system_id":"levelo_inurba_marseille","lat":43.29077,"lon":5.37176,"is_reserved":false,"is_disabled":false,"rental_uris":{"android":"levelo://app?vid=79da16d0-726d-42be-b4c8-53623c5dc453","ios":"levelo://app?vid=79da16d0-726d-42be-b4c8-53623c5dc453"},"vehicle_type_id":"4","last_reported":1728889796,"current_range_meters":23200,"station_id":"ce4bh5p2rcd13ifvqe4g","pricing_plan_id":"cebpf4jnsgd1na2vs0mg"},{"bike_id":"b8bae329-4cbf-4d99-9603-9e22cd3fdac7","system_id":"levelo_inurba_marseille","lat":43.24079,"lon":5.3775,"is_reserved":false,"is_disabled":false,"rental_uris":{"android":"levelo://app?vid=b8bae329-4cbf-4d99-9603-9e22cd3fdac7","ios":"levelo://app?vid=b8bae329-4cbf-4d99-9603-9e22cd3fdac7"},"vehicle_type_id":"4","last_reported":1728889796,"current_range_meters":24400,"station_id":"ce4bhnp2rcd13ifvqgvg","pricing_plan_id":"cebpf4jnsgd1na2vs0mg"},{"bike_id":"33c8cb8f-4d93-4ca1-b394-19ac08e7af57","system_id":"levelo_inurba_marseille","lat":43.26208,"lon":5.37447,"is_reserved":false,"is_disabled":false,"rental_uris":{"android":"levelo://app?vid=33c8cb8f-4d93-4ca1-b394-19ac08e7af57","ios":"levelo://app?vid=33c8cb8f-4d93-4ca1-b394-19ac08e7af57"},"vehicle_type_id":"4","last_reported":1728889796,"current_range_meters":35200,"station_id":"ce4bhgp2rcd13ifvqfc0","pricing_plan_id":"cebpf4jnsgd1na2vs0mg"},{"bike_id":"1131855a-a81c-4213-bcac-527b2e5323fa","system_id":"levelo_inurba_marseille","lat":43.282687,"lon":5.350575,"is_reserved":false,"is_disabled":false,"rental_uris":{"android":"levelo://app?vid=1131855a-a81c-4213-bcac-527b2e5323fa","ios":"levelo://app?vid=1131855a-a81c-4213-bcac-527b2e5323fa"},"vehicle_type_id":"4","last_reported":1728889796,"current_range_meters":8800,"station_id":"ce4bhbp2rcd13ifvqerg","pricing_plan_id":"cebpf4jnsgd1na2vs0mg"},{"bike_id":"6272e85a-6ec5-4037-9f88-292ebef93156","system_id":"levelo_inurba_marseille","lat":43.25111,"lon":5.40319,"is_reserved":false,"is_disabled":false,"rental_uris":{"android":"levelo://app?vid=6272e85a-6ec5-4037-9f88-292ebef93156","ios":"levelo://app?vid=6272e85a-6ec5-4037-9f88-292ebef93156"},"vehicle_type_id":"4","last_reported":1728889796,"current_range_meters":4400,"station_id":"ce4bhi12rcd13ifvqfq0","pricing_plan_id":"cebpf4jnsgd1na2vs0mg"},{"bike_id":"b293547a-ff95-4089-9de3-1363fcf97ec2","system_id":"levelo_inurba_marseille","lat":43.31484,"lon":5.37304,"is_reserved":false,"is_disabled":false,"rental_uris":{"android":"levelo://app?vid=b293547a-ff95-4089-9de3-1363fcf97ec2","ios":"levelo://app?vid=b293547a-ff95-4089-9de3-1363fcf97ec2"},"vehicle_type_id":"4","last_reported":1728889796,"current_range_meters":33200,"station_id":"ce4bgt12rcd13ifvqcd0","pricing_plan_id":"cebpf4jnsgd1na2vs0mg"},{"bike_id":"dc5f317f-b2d0-4a32-9392-ed507e0764b4","system_id":"levelo_inurba_marseille","lat":43.28611,"lon":5.3707,"is_reserved":false,"is_disabled":false,"rental_uris":{"android":"levelo://app?vid=dc5f317f-b2d0-4a32-9392-ed507e0764b4","ios":"levelo://app?vid=dc5f317f-b2d0-4a32-9392-ed507e0764b4"},"vehicle_type_id":"4","last_reported":1728889796,"current_range_meters":32400,"station_id":"ce4bht12rcd13ifvqi60","pricing_plan_id":"cebpf4jnsgd1na2vs0mg"},{"bike_id":"19d14e18-ed09-42cc-861e-6ebfe8f18ad0","system_id":"levelo_inurba_marseille","lat":43.26688,"lon":5.38275,"is_reserved":false,"is_disabled":false,"rental_uris":{"android":"levelo://app?vid=19d14e18-ed09-42cc-861e-6ebfe8f18ad0","ios":"levelo://app?vid=19d14e18-ed09-42cc-861e-6ebfe8f18ad0"},"vehicle_type_id":"4","last_reported":1728889796,"current_range_meters":25600,"station_id":"ce4bhg92rcd13ifvqf90","pricing_plan_id":"cebpf4jnsgd1na2vs0mg"},{"bike_id":"c3bab586-99ec-41f5-8acb-6e3c3dcab38f","system_id":"levelo_inurba_marseille","lat":43.26561,"lon":5.37291,"is_reserved":false,"is_disabled":false,"rental_uris":{"android":"levelo://app?vid=c3bab586-99ec-41f5-8acb-6e3c3dcab38f","ios":"levelo://app?vid=c3bab586-99ec-41f5-8acb-6e3c3dcab38f"},"vehicle_type_id":"4","last_reported":1728889796,"current_range_meters":38400,"station_id":"ce4bhg12rcd13ifvqf70","pricing_plan_id":"cebpf4jnsgd1na2vs0mg"},{"bike_id":"3594e039-6fcc-4043-8f58-d086248623b7","system_id":"levelo_inurba_marseille","lat":43.29978,"lon":5.38479,"is_reserved":false,"is_disabled":false,"rental_uris":{"android":"levelo://app?vid=3594e039-6fcc-4043-8f58-d086248623b7","ios":"levelo://app?vid=3594e039-6fcc-4043-8f58-d086248623b7"},"vehicle_type_id":"4","last_reported":1728889796,"current_range_meters":19200,"station_id":"ce4bgj92rcd13ifvqbd0","pricing_plan_id":"cebpf4jnsgd1na2vs0mg"},{"bike_id":"8046e922-1111-48c4-83cf-b5e9b61cd09d","system_id":"levelo_inurba_marseille","lat":43.31359,"lon":5.38488,"is_reserved":false,"is_disabled":false,"rental_uris":{"android":"levelo://app?vid=8046e922-1111-48c4-83cf-b5e9b61cd09d","ios":"levelo://app?vid=8046e922-1111-48c4-83cf-b5e9b61cd09d"},"vehicle_type_id":"4","last_reported":1728889796,"current_range_meters":22000,"station_id":"ce4bgt92rcd13ifvqcf0","pricing_plan_id":"cebpf4jnsgd1na2vs0mg"},{"bike_id":"729b5747-2745-44f4-8e45-767e543cac8a","system_id":"levelo_inurba_marseille","lat":43.33034,"lon":5.38936,"is_reserved":false,"is_disabled":false,"rental_uris":{"android":"levelo://app?vid=729b5747-2745-44f4-8e45-767e543cac8a","ios":"levelo://app?vid=729b5747-2745-44f4-8e45-767e543cac8a"},"vehicle_type_id":"4","last_reported":1728889796,"current_range_meters":34800,"station_id":"","pricing_plan_id":"cebpf4jnsgd1na2vs0mg"},{"bike_id":"09348952-ebbd-496d-877f-54bd3e43b367","system_id":"levelo_inurba_marseille","lat":43.30555,"lon":5.36532,"is_reserved":false,"is_disabled":false,"rental_uris":{"android":"levelo://app?vid=09348952-ebbd-496d-877f-54bd3e43b367","ios":"levelo://app?vid=09348952-ebbd-496d-877f-54bd3e43b367"},"vehicle_type_id":"4","last_reported":1728889796,"current_range_meters":38000,"station_id":"ce4bgs12rcd13ifvqcag","pricing_plan_id":"cebpf4jnsgd1na2vs0mg"},{"bike_id":"c9dd9d66-5eb5-4711-8607-dc63c23673e6","system_id":"levelo_inurba_marseille","lat":43.30543,"lon":5.36702,"is_reserved":false,"is_disabled":false,"rental_uris":{"android":"levelo://app?vid=c9dd9d66-5eb5-4711-8607-dc63c23673e6","ios":"levelo://app?vid=c9dd9d66-5eb5-4711-8607-dc63c23673e6"},"vehicle_type_id":"4","last_reported":1728889796,"current_range_meters":30000,"station_id":"ce4bgrp2rcd13ifvqc9g","pricing_plan_id":"cebpf4jnsgd1na2vs0mg"},{"bike_id":"b26bd7b6-73f9-444d-b7d9-b9739e908550","system_id":"levelo_inurba_marseille","lat":43.30165,"lon":5.38078,"is_reserved":false,"is_disabled":false,"rental_uris":{"android":"levelo://app?vid=b26bd7b6-73f9-444d-b7d9-b9739e908550","ios":"levelo://app?vid=b26bd7b6-73f9-444d-b7d9-b9739e908550"},"vehicle_type_id":"4","last_reported":1728889796,"current_range_meters":34800,"station_id":"ce4bgjp2rcd13ifvqbh0","pricing_plan_id":"cebpf4jnsgd1na2vs0mg"},{"bike_id":"09c68a5f-0d71-4297-b983-b41453a9b1ae","system_id":"levelo_inurba_marseille","lat":43.34148,"lon":5.40909,"is_reserved":false,"is_disabled":false,"rental_uris":{"android":"levelo://app?vid=09c68a5f-0d71-4297-b983-b41453a9b1ae","ios":"levelo://app?vid=09c68a5f-0d71-4297-b983-b41453a9b1ae"},"vehicle_type_id":"4","last_reported":1728889796,"current_range_meters":39200,"station_id":"ce4bhqh2rcd13ifvqhlg","pricing_plan_id":"cebpf4jnsgd1na2vs0mg"},{"bike_id":"14995dfe-209b-4590-9be0-850c18c5a8af","system_id":"levelo_inurba_marseille","lat":43.24078,"lon":5.37757,"is_reserved":false,"is_disabled":false,"rental_uris":{"android":"levelo://app?vid=14995dfe-209b-4590-9be0-850c18c5a8af","ios":"levelo://app?vid=14995dfe-209b-4590-9be0-850c18c5a8af"},"vehicle_type_id":"4","last_reported":1728889796,"current_range_meters":30800,"station_id":"ce4bhnp2rcd13ifvqgvg","pricing_plan_id":"cebpf4jnsgd1na2vs0mg"},{"bike_id":"785300bd-7af6-4f10-acba-69cf1d725676","system_id":"levelo_inurba_marseille","lat":43.28481,"lon":5.38416,"is_reserved":false,"is_disabled":false,"rental_uris":{"android":"levelo://app?vid=785300bd-7af6-4f10-acba-69cf1d725676","ios":"levelo://app?vid=785300bd-7af6-4f10-acba-69cf1d725676"},"vehicle_type_id":"4","last_reported":1728889796,"current_range_meters":32000,"station_id":"ce4bh512rcd13ifvqe3g","pricing_plan_id":"cebpf4jnsgd1na2vs0mg"},{"bike_id":"55bd731b-b3aa-4c83-a9ea-60c964e5d56a","system_id":"levelo_inurba_marseille","lat":43.27492,"lon":5.42462,"is_reserved":false,"is_disabled":false,"rental_uris":{"android":"levelo://app?vid=55bd731b-b3aa-4c83-a9ea-60c964e5d56a","ios":"levelo://app?vid=55bd731b-b3aa-4c83-a9ea-60c964e5d56a"},"vehicle_type_id":"4","last_reported":1728889796,"current_range_meters":6800,"station_id":"ce4bhn92rcd13ifvqgrg","pricing_plan_id":"cebpf4jnsgd1na2vs0mg"},{"bike_id":"8639260c-1081-43eb-9a6b-f7007ee2b1c7","system_id":"levelo_inurba_marseille","lat":43.31884,"lon":5.40737,"is_reserved":false,"is_disabled":false,"rental_uris":{"android":"levelo://app?vid=8639260c-1081-43eb-9a6b-f7007ee2b1c7","ios":"levelo://app?vid=8639260c-1081-43eb-9a6b-f7007ee2b1c7"},"vehicle_type_id":"4","last_reported":1728889796,"current_range_meters":24800,"station_id":"ce4bhq12rcd13ifvqhig","pricing_plan_id":"cebpf4jnsgd1na2vs0mg"},{"bike_id":"e2b39862-ca82-4d11-85a4-4006bed200fb","system_id":"levelo_inurba_marseille","lat":43.24078,"lon":5.37756,"is_reserved":false,"is_disabled":false,"rental_uris":{"android":"levelo://app?vid=e2b39862-ca82-4d11-85a4-4006bed200fb","ios":"levelo://app?vid=e2b39862-ca82-4d11-85a4-4006bed200fb"},"vehicle_type_id":"4","last_reported":1728889796,"current_range_meters":37600,"station_id":"ce4bhnp2rcd13ifvqgvg","pricing_plan_id":"cebpf4jnsgd1na2vs0mg"},{"bike_id":"9c51286d-9bc1-4462-bb96-fd77d911114d","system_id":"levelo_inurba_marseille","lat":43.23152,"lon":5.43724,"is_reserved":false,"is_disabled":false,"rental_uris":{"android":"levelo://app?vid=9c51286d-9bc1-4462-bb96-fd77d911114d","ios":"levelo://app?vid=9c51286d-9bc1-4462-bb96-fd77d911114d"},"vehicle_type_id":"4","last_reported":1728889796,"current_range_meters":28800,"station_id":"ce4bhmp2rcd13ifvqgog","pricing_plan_id":"cebpf4jnsgd1na2vs0mg"},{"bike_id":"57cce133-9bd1-42b3-abef-5b86d7bbd24f","system_id":"levelo_inurba_marseille","lat":43.289368,"lon":5.39639,"is_reserved":false,"is_disabled":false,"rental_uris":{"android":"levelo://app?vid=57cce133-9bd1-42b3-abef-5b86d7bbd24f","ios":"levelo://app?vid=57cce133-9bd1-42b3-abef-5b86d7bbd24f"},"vehicle_type_id":"4","last_reported":1728889796,"current_range_meters":35200,"station_id":"ce4bhi12rcd13ifvqfq0","pricing_plan_id":"cebpf4jnsgd1na2vs0mg"},{"bike_id":"95abc3db-257e-43e0-b89c-14c03075b7a0","system_id":"levelo_inurba_marseille","lat":43.28154,"lon":5.4265,"is_reserved":false,"is_disabled":false,"rental_uris":{"android":"levelo://app?vid=95abc3db-257e-43e0-b89c-14c03075b7a0","ios":"levelo://app?vid=95abc3db-257e-43e0-b89c-14c03075b7a0"},"vehicle_type_id":"4","last_reported":1728889796,"current_range_meters":38800,"station_id":"ce4bhnh2rcd13ifvqgug","pricing_plan_id":"cebpf4jnsgd1na2vs0mg"},{"bike_id":"c9b8e085-97a6-486d-94d9-f245cd1b0e02","system_id":"levelo_inurba_marseille","lat":43.28348,"lon":5.381136,"is_reserved":false,"is_disabled":false,"rental_uris":{"android":"levelo://app?vid=c9b8e085-97a6-486d-94d9-f245cd1b0e02","ios":"levelo://app?vid=c9b8e085-97a6-486d-94d9-f245cd1b0e02"},"vehicle_type_id":"4","last_reported":1728889796,"current_range_meters":33600,"station_id":"ce4bh412rcd13ifvqdr0","pricing_plan_id":"cebpf4jnsgd1na2vs0mg"},{"bike_id":"58821253-536d-48f0-9016-f878c99d9361","system_id":"levelo_inurba_marseille","lat":43.23064,"lon":5.35496,"is_reserved":false,"is_disabled":false,"rental_uris":{"android":"levelo://app?vid=58821253-536d-48f0-9016-f878c99d9361","ios":"levelo://app?vid=58821253-536d-48f0-9016-f878c99d9361"},"vehicle_type_id":"4","last_reported":1728889796,"current_range_meters":38800,"station_id":"cpo3342slgdg3j2ifvpg","pricing_plan_id":"cebpf4jnsgd1na2vs0mg"},{"bike_id":"2ecf8579-658a-4a38-a1b2-56dbd8937bbd","system_id":"levelo_inurba_marseille","lat":43.27962,"lon":5.38719,"is_reserved":false,"is_disabled":false,"rental_uris":{"android":"levelo://app?vid=2ecf8579-658a-4a38-a1b2-56dbd8937bbd","ios":"levelo://app?vid=2ecf8579-658a-4a38-a1b2-56dbd8937bbd"},"vehicle_type_id":"4","last_reported":1728889796,"current_range_meters":22400,"station_id":"ce4bhg12rcd13ifvqf80","pricing_plan_id":"cebpf4jnsgd1na2vs0mg"},{"bike_id":"a6e767d2-849c-406c-a6bc-50a70a906e59","system_id":"levelo_inurba_marseille","lat":43.25938,"lon":5.40905,"is_reserved":false,"is_disabled":false,"rental_uris":{"android":"levelo://app?vid=a6e767d2-849c-406c-a6bc-50a70a906e59","ios":"levelo://app?vid=a6e767d2-849c-406c-a6bc-50a70a906e59"},"vehicle_type_id":"4","last_reported":1728889796,"current_range_meters":24400,"station_id":"ce4bhm92rcd13ifvqglg","pricing_plan_id":"cebpf4jnsgd1na2vs0mg"},{"bike_id":"6079e7aa-0ee6-4d31-aa0e-861f57578c9f","system_id":"levelo_inurba_marseille","lat":43.28944,"lon":5.36405,"is_reserved":false,"is_disabled":false,"rental_uris":{"android":"levelo://app?vid=6079e7aa-0ee6-4d31-aa0e-861f57578c9f","ios":"levelo://app?vid=6079e7aa-0ee6-4d31-aa0e-861f57578c9f"},"vehicle_type_id":"4","last_reported":1728889796,"current_range_meters":38400,"station_id":"ce4bhc92rcd13ifvqetg","pricing_plan_id":"cebpf4jnsgd1na2vs0mg"},{"bike_id":"278372b8-88f3-49c3-aec1-fe30db86cb54","system_id":"levelo_inurba_marseille","lat":43.28973,"lon":5.37833,"is_reserved":false,"is_disabled":false,"rental_uris":{"android":"levelo://app?vid=278372b8-88f3-49c3-aec1-fe30db86cb54","ios":"levelo://app?vid=278372b8-88f3-49c3-aec1-fe30db86cb54"},"vehicle_type_id":"4","last_reported":1728889796,"current_range_meters":22800,"station_id":"ce4bh9p2rcd13ifvqed0","pricing_plan_id":"cebpf4jnsgd1na2vs0mg"},{"bike_id":"06ed47e3-f254-48ec-9ac6-6c53eb0ac057","system_id":"levelo_inurba_marseille","lat":43.31327,"lon":5.36717,"is_reserved":false,"is_disabled":false,"rental_uris":{"android":"levelo://app?vid=06ed47e3-f254-48ec-9ac6-6c53eb0ac057","ios":"levelo://app?vid=06ed47e3-f254-48ec-9ac6-6c53eb0ac057"},"vehicle_type_id":"4","last_reported":1728889796,"current_range_meters":36400,"station_id":"ce4bgr92rcd13ifvqc6g","pricing_plan_id":"cebpf4jnsgd1na2vs0mg"},{"bike_id":"43104d39-5646-49bf-84a7-9c444aa3268e","system_id":"levelo_inurba_marseille","lat":43.31692,"lon":5.37761,"is_reserved":false,"is_disabled":false,"rental_uris":{"android":"levelo://app?vid=43104d39-5646-49bf-84a7-9c444aa3268e","ios":"levelo://app?vid=43104d39-5646-49bf-84a7-9c444aa3268e"},"vehicle_type_id":"4","last_reported":1728889796,"current_range_meters":30400,"station_id":"ce4bgth2rcd13ifvqch0","pricing_plan_id":"cebpf4jnsgd1na2vs0mg"},{"bike_id":"3e50785b-f2c6-46fc-a083-53a367036c56","system_id":"levelo_inurba_marseille","lat":43.2594,"lon":5.40905,"is_reserved":false,"is_disabled":false,"rental_uris":{"android":"levelo://app?vid=3e50785b-f2c6-46fc-a083-53a367036c56","ios":"levelo://app?vid=3e50785b-f2c6-46fc-a083-53a367036c56"},"vehicle_type_id":"4","last_reported":1728889796,"current_range_meters":11600,"station_id":"ce4bhm92rcd13ifvqglg","pricing_plan_id":"cebpf4jnsgd1na2vs0mg"},{"bike_id":"898f5baf-cc4b-4f96-a7ce-ba0018ba1e0b","system_id":"levelo_inurba_marseille","lat":43.30471,"lon":5.37895,"is_reserved":false,"is_disabled":false,"rental_uris":{"android":"levelo://app?vid=898f5baf-cc4b-4f96-a7ce-ba0018ba1e0b","ios":"levelo://app?vid=898f5baf-cc4b-4f96-a7ce-ba0018ba1e0b"},"vehicle_type_id":"4","last_reported":1728889796,"current_range_meters":35200,"station_id":"ce4bgup2rcd13ifvqcn0","pricing_plan_id":"cebpf4jnsgd1na2vs0mg"},{"bike_id":"7c095d3c-604a-4602-b927-64e3a8b70e01","system_id":"levelo_inurba_marseille","lat":43.29032,"lon":5.37567,"is_reserved":false,"is_disabled":false,"rental_uris":{"android":"levelo://app?vid=7c095d3c-604a-4602-b927-64e3a8b70e01","ios":"levelo://app?vid=7c095d3c-604a-4602-b927-64e3a8b70e01"},"vehicle_type_id":"4","last_reported":1728889796,"current_range_meters":32000,"station_id":"ce4bh692rcd13ifvqe90","pricing_plan_id":"cebpf4jnsgd1na2vs0mg"},{"bike_id":"cdde71fa-933f-47ef-8a23-39142a076aea","system_id":"levelo_inurba_marseille","lat":43.29552,"lon":5.42294,"is_reserved":false,"is_disabled":false,"rental_uris":{"android":"levelo://app?vid=cdde71fa-933f-47ef-8a23-39142a076aea","ios":"levelo://app?vid=cdde71fa-933f-47ef-8a23-39142a076aea"},"vehicle_type_id":"4","last_reported":1728889796,"current_range_meters":37600,"station_id":"ce4bhph2rcd13ifvqhdg","pricing_plan_id":"cebpf4jnsgd1na2vs0mg"},{"bike_id":"aae33064-4853-4bd5-9ae9-1d2a4ee45368","system_id":"levelo_inurba_marseille","lat":43.24166,"lon":5.36402,"is_reserved":false,"is_disabled":false,"rental_uris":{"android":"levelo://app?vid=aae33064-4853-4bd5-9ae9-1d2a4ee45368","ios":"levelo://app?vid=aae33064-4853-4bd5-9ae9-1d2a4ee45368"},"vehicle_type_id":"4","last_reported":1728889796,"current_range_meters":31200,"station_id":"cpo36qri1sfpv3e86is0","pricing_plan_id":"cebpf4jnsgd1na2vs0mg"},{"bike_id":"d99eeaa0-d546-45b5-8fad-00c9b30b62e5","system_id":"levelo_inurba_marseille","lat":43.26955,"lon":5.38626,"is_reserved":false,"is_disabled":false,"rental_uris":{"android":"levelo://app?vid=d99eeaa0-d546-45b5-8fad-00c9b30b62e5","ios":"levelo://app?vid=d99eeaa0-d546-45b5-8fad-00c9b30b62e5"},"vehicle_type_id":"4","last_reported":1728889796,"current_range_meters":16000,"station_id":"ce4bhh92rcd13ifvqfh0","pricing_plan_id":"cebpf4jnsgd1na2vs0mg"},{"bike_id":"9d478290-d007-4292-bc2e-170e50b123b0","system_id":"levelo_inurba_marseille","lat":43.28706,"lon":5.37944,"is_reserved":false,"is_disabled":false,"rental_uris":{"android":"levelo://app?vid=9d478290-d007-4292-bc2e-170e50b123b0","ios":"levelo://app?vid=9d478290-d007-4292-bc2e-170e50b123b0"},"vehicle_type_id":"4","last_reported":1728889796,"current_range_meters":37600,"station_id":"ce4bh9p2rcd13ifvqec0","pricing_plan_id":"cebpf4jnsgd1na2vs0mg"},{"bike_id":"38118819-5b41-45b7-b8fe-8a84fcfa5a10","system_id":"levelo_inurba_marseille","lat":43.29034,"lon":5.39958,"is_reserved":false,"is_disabled":false,"rental_uris":{"android":"levelo://app?vid=38118819-5b41-45b7-b8fe-8a84fcfa5a10","ios":"levelo://app?vid=38118819-5b41-45b7-b8fe-8a84fcfa5a10"},"vehicle_type_id":"4","last_reported":1728889796,"current_range_meters":38800,"station_id":"ce4bh392rcd13ifvqdm0","pricing_plan_id":"cebpf4jnsgd1na2vs0mg"},{"bike_id":"a68114fb-a678-4ddf-997d-c84f3a5d1c0b","system_id":"levelo_inurba_marseille","lat":43.289276,"lon":5.396079,"is_reserved":false,"is_disabled":false,"rental_uris":{"android":"levelo://app?vid=a68114fb-a678-4ddf-997d-c84f3a5d1c0b","ios":"levelo://app?vid=a68114fb-a678-4ddf-997d-c84f3a5d1c0b"},"vehicle_type_id":"4","last_reported":1728889796,"current_range_meters":32400,"station_id":"ce4bgjh2rcd13ifvqbf0","pricing_plan_id":"cebpf4jnsgd1na2vs0mg"},{"bike_id":"a63ca137-526c-4e9e-9499-f8511361c84f","system_id":"levelo_inurba_marseille","lat":43.288,"lon":5.38266,"is_reserved":false,"is_disabled":false,"rental_uris":{"android":"levelo://app?vid=a63ca137-526c-4e9e-9499-f8511361c84f","ios":"levelo://app?vid=a63ca137-526c-4e9e-9499-f8511361c84f"},"vehicle_type_id":"4","last_reported":1728889796,"current_range_meters":4800,"station_id":"ce4bhgp2rcd13ifvqfd0","pricing_plan_id":"cebpf4jnsgd1na2vs0mg"},{"bike_id":"cdf763b9-d041-445a-bd6e-8460cc8d43bc","system_id":"levelo_inurba_marseille","lat":43.30473,"lon":5.37899,"is_reserved":false,"is_disabled":false,"rental_uris":{"android":"levelo://app?vid=cdf763b9-d041-445a-bd6e-8460cc8d43bc","ios":"levelo://app?vid=cdf763b9-d041-445a-bd6e-8460cc8d43bc"},"vehicle_type_id":"4","last_reported":1728889796,"current_range_meters":25600,"station_id":"ce4bgup2rcd13ifvqcn0","pricing_plan_id":"cebpf4jnsgd1na2vs0mg"},{"bike_id":"3ebc8614-7122-4477-a27c-b50ee26fcca2","system_id":"levelo_inurba_marseille","lat":43.23195,"lon":5.35542,"is_reserved":false,"is_disabled":false,"rental_uris":{"android":"levelo://app?vid=3ebc8614-7122-4477-a27c-b50ee26fcca2","ios":"levelo://app?vid=3ebc8614-7122-4477-a27c-b50ee26fcca2"},"vehicle_type_id":"4","last_reported":1728889796,"current_range_meters":4400,"station_id":"ce4bhu92rcd13ifvqi70","pricing_plan_id":"cebpf4jnsgd1na2vs0mg"},{"bike_id":"9ce54f0f-36ec-41d6-ae7b-340cf8637579","system_id":"levelo_inurba_marseille","lat":43.24074,"lon":5.37757,"is_reserved":false,"is_disabled":false,"rental_uris":{"android":"levelo://app?vid=9ce54f0f-36ec-41d6-ae7b-340cf8637579","ios":"levelo://app?vid=9ce54f0f-36ec-41d6-ae7b-340cf8637579"},"vehicle_type_id":"4","last_reported":1728889796,"current_range_meters":38000,"station_id":"ce4bhnp2rcd13ifvqgvg","pricing_plan_id":"cebpf4jnsgd1na2vs0mg"},{"bike_id":"aad69708-28ac-43e6-945e-619f5a7c6bfd","system_id":"levelo_inurba_marseille","lat":43.33781,"lon":5.37443,"is_reserved":false,"is_disabled":false,"rental_uris":{"android":"levelo://app?vid=aad69708-28ac-43e6-945e-619f5a7c6bfd","ios":"levelo://app?vid=aad69708-28ac-43e6-945e-619f5a7c6bfd"},"vehicle_type_id":"4","last_reported":1728889796,"current_range_meters":30000,"station_id":"","pricing_plan_id":"cebpf4jnsgd1na2vs0mg"},{"bike_id":"67b30335-56ba-4658-9a0b-7ab78dc3c5aa","system_id":"levelo_inurba_marseille","lat":43.2835,"lon":5.38109,"is_reserved":false,"is_disabled":false,"rental_uris":{"android":"levelo://app?vid=67b30335-56ba-4658-9a0b-7ab78dc3c5aa","ios":"levelo://app?vid=67b30335-56ba-4658-9a0b-7ab78dc3c5aa"},"vehicle_type_id":"4","last_reported":1728889796,"current_range_meters":29600,"station_id":"ce4bh412rcd13ifvqdr0","pricing_plan_id":"cebpf4jnsgd1na2vs0mg"},{"bike_id":"92ffd6bd-fff3-48de-962d-2fccf89bc6a0","system_id":"levelo_inurba_marseille","lat":43.301462,"lon":5.380795,"is_reserved":false,"is_disabled":false,"rental_uris":{"android":"levelo://app?vid=92ffd6bd-fff3-48de-962d-2fccf89bc6a0","ios":"levelo://app?vid=92ffd6bd-fff3-48de-962d-2fccf89bc6a0"},"vehicle_type_id":"4","last_reported":1728889796,"current_range_meters":13600,"station_id":"ce4bh412rcd13ifvqdr0","pricing_plan_id":"cebpf4jnsgd1na2vs0mg"},{"bike_id":"04f480cb-5a37-4a4f-93ef-dc131154083d","system_id":"levelo_inurba_marseille","lat":43.28361,"lon":5.38628,"is_reserved":false,"is_disabled":false,"rental_uris":{"android":"levelo://app?vid=04f480cb-5a37-4a4f-93ef-dc131154083d","ios":"levelo://app?vid=04f480cb-5a37-4a4f-93ef-dc131154083d"},"vehicle_type_id":"4","last_reported":1728889796,"current_range_meters":4000,"station_id":"ce4bh492rcd13ifvqdvg","pricing_plan_id":"cebpf4jnsgd1na2vs0mg"},{"bike_id":"aa89d08a-5963-4b35-9285-53c0ad4f999f","system_id":"levelo_inurba_marseille","lat":43.24077,"lon":5.37751,"is_reserved":false,"is_disabled":false,"rental_uris":{"android":"levelo://app?vid=aa89d08a-5963-4b35-9285-53c0ad4f999f","ios":"levelo://app?vid=aa89d08a-5963-4b35-9285-53c0ad4f999f"},"vehicle_type_id":"4","last_reported":1728889796,"current_range_meters":19200,"station_id":"ce4bhnp2rcd13ifvqgvg","pricing_plan_id":"cebpf4jnsgd1na2vs0mg"},{"bike_id":"35983d65-e7a5-415a-b102-7f0aac4b39f7","system_id":"levelo_inurba_marseille","lat":43.23193,"lon":5.35553,"is_reserved":false,"is_disabled":false,"rental_uris":{"android":"levelo://app?vid=35983d65-e7a5-415a-b102-7f0aac4b39f7","ios":"levelo://app?vid=35983d65-e7a5-415a-b102-7f0aac4b39f7"},"vehicle_type_id":"4","last_reported":1728889796,"current_range_meters":38400,"station_id":"ce4bhu92rcd13ifvqi70","pricing_plan_id":"cebpf4jnsgd1na2vs0mg"},{"bike_id":"fbf8f96e-37e8-4cc8-8c5a-7774cae603e1","system_id":"levelo_inurba_marseille","lat":43.24996,"lon":5.38939,"is_reserved":false,"is_disabled":false,"rental_uris":{"android":"levelo://app?vid=fbf8f96e-37e8-4cc8-8c5a-7774cae603e1","ios":"levelo://app?vid=fbf8f96e-37e8-4cc8-8c5a-7774cae603e1"},"vehicle_type_id":"4","last_reported":1728889796,"current_range_meters":25600,"station_id":"ce4bhgp2rcd13ifvqfd0","pricing_plan_id":"cebpf4jnsgd1na2vs0mg"},{"bike_id":"3ef1011b-94c9-404e-9194-f1036eca3cc9","system_id":"levelo_inurba_marseille","lat":43.31335,"lon":5.36717,"is_reserved":false,"is_disabled":false,"rental_uris":{"android":"levelo://app?vid=3ef1011b-94c9-404e-9194-f1036eca3cc9","ios":"levelo://app?vid=3ef1011b-94c9-404e-9194-f1036eca3cc9"},"vehicle_type_id":"4","last_reported":1728889796,"current_range_meters":25200,"station_id":"ce4bgr92rcd13ifvqc6g","pricing_plan_id":"cebpf4jnsgd1na2vs0mg"},{"bike_id":"0149b369-43b0-41a1-ba3c-1c8cf6f1d5d9","system_id":"levelo_inurba_marseille","lat":43.2997,"lon":5.37185,"is_reserved":false,"is_disabled":false,"rental_uris":{"android":"levelo://app?vid=0149b369-43b0-41a1-ba3c-1c8cf6f1d5d9","ios":"levelo://app?vid=0149b369-43b0-41a1-ba3c-1c8cf6f1d5d9"},"vehicle_type_id":"4","last_reported":1728889796,"current_range_meters":32000,"station_id":"ce4bgr92rcd13ifvqc7g","pricing_plan_id":"cebpf4jnsgd1na2vs0mg"},{"bike_id":"81b3b8c9-fa1b-49bf-8d7b-5c4711bbdedb","system_id":"levelo_inurba_marseille","lat":43.301819,"lon":5.366035,"is_reserved":false,"is_disabled":false,"rental_uris":{"android":"levelo://app?vid=81b3b8c9-fa1b-49bf-8d7b-5c4711bbdedb","ios":"levelo://app?vid=81b3b8c9-fa1b-49bf-8d7b-5c4711bbdedb"},"vehicle_type_id":"4","last_reported":1728889796,"current_range_meters":37600,"station_id":"ce4bgrh2rcd13ifvqc8g","pricing_plan_id":"cebpf4jnsgd1na2vs0mg"},{"bike_id":"96ca8c9d-9fd7-4c44-a7b9-2b71a35fc9ee","system_id":"levelo_inurba_marseille","lat":43.24082,"lon":5.37749,"is_reserved":false,"is_disabled":false,"rental_uris":{"android":"levelo://app?vid=96ca8c9d-9fd7-4c44-a7b9-2b71a35fc9ee","ios":"levelo://app?vid=96ca8c9d-9fd7-4c44-a7b9-2b71a35fc9ee"},"vehicle_type_id":"4","last_reported":1728889796,"current_range_meters":25200,"station_id":"ce4bhnp2rcd13ifvqgvg","pricing_plan_id":"cebpf4jnsgd1na2vs0mg"},{"bike_id":"27311a75-ebb6-43d6-9fb5-f3ba72a10e0e","system_id":"levelo_inurba_marseille","lat":43.29907,"lon":5.43666,"is_reserved":false,"is_disabled":false,"rental_uris":{"android":"levelo://app?vid=27311a75-ebb6-43d6-9fb5-f3ba72a10e0e","ios":"levelo://app?vid=27311a75-ebb6-43d6-9fb5-f3ba72a10e0e"},"vehicle_type_id":"4","last_reported":1728889796,"current_range_meters":16400,"station_id":"ce4bhpp2rcd13ifvqhfg","pricing_plan_id":"cebpf4jnsgd1na2vs0mg"},{"bike_id":"76352f0d-c2de-41c0-8e40-1b1abf36bd61","system_id":"levelo_inurba_marseille","lat":43.29303,"lon":5.37462,"is_reserved":false,"is_disabled":false,"rental_uris":{"android":"levelo://app?vid=76352f0d-c2de-41c0-8e40-1b1abf36bd61","ios":"levelo://app?vid=76352f0d-c2de-41c0-8e40-1b1abf36bd61"},"vehicle_type_id":"4","last_reported":1728889796,"current_range_meters":32800,"station_id":"ce4bgi12rcd13ifvqb70","pricing_plan_id":"cebpf4jnsgd1na2vs0mg"},{"bike_id":"6f55c53c-3800-44ae-a1cf-bc5df1af9b39","system_id":"levelo_inurba_marseille","lat":43.30535,"lon":5.367,"is_reserved":false,"is_disabled":false,"rental_uris":{"android":"levelo://app?vid=6f55c53c-3800-44ae-a1cf-bc5df1af9b39","ios":"levelo://app?vid=6f55c53c-3800-44ae-a1cf-bc5df1af9b39"},"vehicle_type_id":"4","last_reported":1728889796,"current_range_meters":30000,"station_id":"ce4bgrp2rcd13ifvqc9g","pricing_plan_id":"cebpf4jnsgd1na2vs0mg"},{"bike_id":"ff87e7d1-4644-494b-b06a-b0d48b4857c4","system_id":"levelo_inurba_marseille","lat":43.26194,"lon":5.37461,"is_reserved":false,"is_disabled":false,"rental_uris":{"android":"levelo://app?vid=ff87e7d1-4644-494b-b06a-b0d48b4857c4","ios":"levelo://app?vid=ff87e7d1-4644-494b-b06a-b0d48b4857c4"},"vehicle_type_id":"4","last_reported":1728889796,"current_range_meters":21600,"station_id":"ce4bhgp2rcd13ifvqfc0","pricing_plan_id":"cebpf4jnsgd1na2vs0mg"},{"bike_id":"551a20ed-cb9d-4a60-adf6-4348d5c063e9","system_id":"levelo_inurba_marseille","lat":43.23153,"lon":5.43707,"is_reserved":false,"is_disabled":false,"rental_uris":{"android":"levelo://app?vid=551a20ed-cb9d-4a60-adf6-4348d5c063e9","ios":"levelo://app?vid=551a20ed-cb9d-4a60-adf6-4348d5c063e9"},"vehicle_type_id":"4","last_reported":1728889796,"current_range_meters":17200,"station_id":"ce4bhmp2rcd13ifvqgog","pricing_plan_id":"cebpf4jnsgd1na2vs0mg"},{"bike_id":"87e5b82b-1978-49bf-92bf-413ec779c074","system_id":"levelo_inurba_marseille","lat":43.30181,"lon":5.366,"is_reserved":false,"is_disabled":false,"rental_uris":{"android":"levelo://app?vid=87e5b82b-1978-49bf-92bf-413ec779c074","ios":"levelo://app?vid=87e5b82b-1978-49bf-92bf-413ec779c074"},"vehicle_type_id":"4","last_reported":1728889796,"current_range_meters":27600,"station_id":"ce4bgrh2rcd13ifvqc8g","pricing_plan_id":"cebpf4jnsgd1na2vs0mg"},{"bike_id":"47173d9d-592d-4b3c-9ec3-fb161a8148ee","system_id":"levelo_inurba_marseille","lat":43.28399,"lon":5.38697,"is_reserved":false,"is_disabled":false,"rental_uris":{"android":"levelo://app?vid=47173d9d-592d-4b3c-9ec3-fb161a8148ee","ios":"levelo://app?vid=47173d9d-592d-4b3c-9ec3-fb161a8148ee"},"vehicle_type_id":"4","last_reported":1728889796,"current_range_meters":28800,"station_id":"","pricing_plan_id":"cebpf4jnsgd1na2vs0mg"},{"bike_id":"adb8b798-366e-4229-a12c-f4dea4d23dc5","system_id":"levelo_inurba_marseille","lat":43.24078,"lon":5.37764,"is_reserved":false,"is_disabled":false,"rental_uris":{"android":"levelo://app?vid=adb8b798-366e-4229-a12c-f4dea4d23dc5","ios":"levelo://app?vid=adb8b798-366e-4229-a12c-f4dea4d23dc5"},"vehicle_type_id":"4","last_reported":1728889796,"current_range_meters":30400,"station_id":"ce4bhnp2rcd13ifvqgvg","pricing_plan_id":"cebpf4jnsgd1na2vs0mg"},{"bike_id":"03412e9f-e5af-44a8-940e-a098b1ec2875","system_id":"levelo_inurba_marseille","lat":43.22936,"lon":5.35378,"is_reserved":false,"is_disabled":false,"rental_uris":{"android":"levelo://app?vid=03412e9f-e5af-44a8-940e-a098b1ec2875","ios":"levelo://app?vid=03412e9f-e5af-44a8-940e-a098b1ec2875"},"vehicle_type_id":"4","last_reported":1728889796,"current_range_meters":36800,"station_id":"cpo3532slgdg3j2ikp40","pricing_plan_id":"cebpf4jnsgd1na2vs0mg"},{"bike_id":"2514c3e8-0adf-47af-b777-02db04bae87e","system_id":"levelo_inurba_marseille","lat":43.28607,"lon":5.37064,"is_reserved":false,"is_disabled":false,"rental_uris":{"android":"levelo://app?vid=2514c3e8-0adf-47af-b777-02db04bae87e","ios":"levelo://app?vid=2514c3e8-0adf-47af-b777-02db04bae87e"},"vehicle_type_id":"4","last_reported":1728889796,"current_range_meters":25200,"station_id":"ce4bht12rcd13ifvqi60","pricing_plan_id":"cebpf4jnsgd1na2vs0mg"},{"bike_id":"2f8ae994-a84a-4824-ad66-697464f44ed4","system_id":"levelo_inurba_marseille","lat":43.26953,"lon":5.38629,"is_reserved":false,"is_disabled":false,"rental_uris":{"android":"levelo://app?vid=2f8ae994-a84a-4824-ad66-697464f44ed4","ios":"levelo://app?vid=2f8ae994-a84a-4824-ad66-697464f44ed4"},"vehicle_type_id":"4","last_reported":1728889796,"current_range_meters":38000,"station_id":"ce4bhh92rcd13ifvqfh0","pricing_plan_id":"cebpf4jnsgd1na2vs0mg"},{"bike_id":"ac36b94d-6f68-43c8-937e-a3ee4f6e3af7","system_id":"levelo_inurba_marseille","lat":43.29969,"lon":5.38484,"is_reserved":false,"is_disabled":false,"rental_uris":{"android":"levelo://app?vid=ac36b94d-6f68-43c8-937e-a3ee4f6e3af7","ios":"levelo://app?vid=ac36b94d-6f68-43c8-937e-a3ee4f6e3af7"},"vehicle_type_id":"4","last_reported":1728889796,"current_range_meters":11600,"station_id":"ce4bgj92rcd13ifvqbd0","pricing_plan_id":"cebpf4jnsgd1na2vs0mg"},{"bike_id":"28cd4030-6f5f-41d6-a662-75c50bb41785","system_id":"levelo_inurba_marseille","lat":43.31228,"lon":5.36855,"is_reserved":false,"is_disabled":false,"rental_uris":{"android":"levelo://app?vid=28cd4030-6f5f-41d6-a662-75c50bb41785","ios":"levelo://app?vid=28cd4030-6f5f-41d6-a662-75c50bb41785"},"vehicle_type_id":"4","last_reported":1728889796,"current_range_meters":22000,"station_id":"ce4bgl92rcd13ifvqbq0","pricing_plan_id":"cebpf4jnsgd1na2vs0mg"},{"bike_id":"e3405fc5-7732-415c-9284-fc28ecd8a454","system_id":"levelo_inurba_marseille","lat":43.29626,"lon":5.37719,"is_reserved":false,"is_disabled":false,"rental_uris":{"android":"levelo://app?vid=e3405fc5-7732-415c-9284-fc28ecd8a454","ios":"levelo://app?vid=e3405fc5-7732-415c-9284-fc28ecd8a454"},"vehicle_type_id":"4","last_reported":1728889796,"current_range_meters":28400,"station_id":"ce4bgi92rcd13ifvqb90","pricing_plan_id":"cebpf4jnsgd1na2vs0mg"},{"bike_id":"1f561518-fa31-424e-983b-7a98e4f43d4f","system_id":"levelo_inurba_marseille","lat":43.30471,"lon":5.37894,"is_reserved":false,"is_disabled":false,"rental_uris":{"android":"levelo://app?vid=1f561518-fa31-424e-983b-7a98e4f43d4f","ios":"levelo://app?vid=1f561518-fa31-424e-983b-7a98e4f43d4f"},"vehicle_type_id":"4","last_reported":1728889796,"current_range_meters":36400,"station_id":"ce4bgup2rcd13ifvqcn0","pricing_plan_id":"cebpf4jnsgd1na2vs0mg"},{"bike_id":"dbcd77b0-44bf-4ec3-a422-e9ea88bd4390","system_id":"levelo_inurba_marseille","lat":43.28352,"lon":5.38593,"is_reserved":false,"is_disabled":false,"rental_uris":{"android":"levelo://app?vid=dbcd77b0-44bf-4ec3-a422-e9ea88bd4390","ios":"levelo://app?vid=dbcd77b0-44bf-4ec3-a422-e9ea88bd4390"},"vehicle_type_id":"4","last_reported":1728889796,"current_range_meters":38000,"station_id":"ce4bh492rcd13ifvqdvg","pricing_plan_id":"cebpf4jnsgd1na2vs0mg"},{"bike_id":"cba59919-95e6-42ff-83c9-6bcf45674d60","system_id":"levelo_inurba_marseille","lat":43.32336,"lon":5.38328,"is_reserved":false,"is_disabled":false,"rental_uris":{"android":"levelo://app?vid=cba59919-95e6-42ff-83c9-6bcf45674d60","ios":"levelo://app?vid=cba59919-95e6-42ff-83c9-6bcf45674d60"},"vehicle_type_id":"4","last_reported":1728889796,"current_range_meters":36000,"station_id":"","pricing_plan_id":"cebpf4jnsgd1na2vs0mg"},{"bike_id":"7cc37743-af26-45be-8973-b3fcd777e344","system_id":"levelo_inurba_marseille","lat":43.258214,"lon":5.394455,"is_reserved":false,"is_disabled":false,"rental_uris":{"android":"levelo://app?vid=7cc37743-af26-45be-8973-b3fcd777e344","ios":"levelo://app?vid=7cc37743-af26-45be-8973-b3fcd777e344"},"vehicle_type_id":"4","last_reported":1728889796,"current_range_meters":28400,"station_id":"ce4bhip2rcd13ifvqft0","pricing_plan_id":"cebpf4jnsgd1na2vs0mg"},{"bike_id":"54aec1fc-f8f8-49b7-aa52-6ef4f1bdaf2a","system_id":"levelo_inurba_marseille","lat":43.24392,"lon":5.37065,"is_reserved":false,"is_disabled":false,"rental_uris":{"android":"levelo://app?vid=54aec1fc-f8f8-49b7-aa52-6ef4f1bdaf2a","ios":"levelo://app?vid=54aec1fc-f8f8-49b7-aa52-6ef4f1bdaf2a"},"vehicle_type_id":"4","last_reported":1728889796,"current_range_meters":17200,"station_id":"ce4bhhh2rcd13ifvqfk0","pricing_plan_id":"cebpf4jnsgd1na2vs0mg"},{"bike_id":"4eaae6d6-bbeb-4975-9fcc-16ec47dec93f","system_id":"levelo_inurba_marseille","lat":43.24179,"lon":5.39736,"is_reserved":false,"is_disabled":false,"rental_uris":{"android":"levelo://app?vid=4eaae6d6-bbeb-4975-9fcc-16ec47dec93f","ios":"levelo://app?vid=4eaae6d6-bbeb-4975-9fcc-16ec47dec93f"},"vehicle_type_id":"4","last_reported":1728889796,"current_range_meters":36800,"station_id":"ce4bhn12rcd13ifvqgpg","pricing_plan_id":"cebpf4jnsgd1na2vs0mg"},{"bike_id":"7100a5fa-27f9-4182-bc1d-c52b2fb27ec9","system_id":"levelo_inurba_marseille","lat":43.31341,"lon":5.3673,"is_reserved":false,"is_disabled":false,"rental_uris":{"android":"levelo://app?vid=7100a5fa-27f9-4182-bc1d-c52b2fb27ec9","ios":"levelo://app?vid=7100a5fa-27f9-4182-bc1d-c52b2fb27ec9"},"vehicle_type_id":"4","last_reported":1728889796,"current_range_meters":6400,"station_id":"ce4bgr92rcd13ifvqc6g","pricing_plan_id":"cebpf4jnsgd1na2vs0mg"},{"bike_id":"b429b436-6869-4b90-9163-015f345edc86","system_id":"levelo_inurba_marseille","lat":43.29046,"lon":5.39957,"is_reserved":false,"is_disabled":false,"rental_uris":{"android":"levelo://app?vid=b429b436-6869-4b90-9163-015f345edc86","ios":"levelo://app?vid=b429b436-6869-4b90-9163-015f345edc86"},"vehicle_type_id":"4","last_reported":1728889796,"current_range_meters":24000,"station_id":"ce4bh392rcd13ifvqdm0","pricing_plan_id":"cebpf4jnsgd1na2vs0mg"},{"bike_id":"2d39ff36-ddbb-4f9b-a33e-25f5444d14c0","system_id":"levelo_inurba_marseille","lat":43.2835,"lon":5.38102,"is_reserved":false,"is_disabled":false,"rental_uris":{"android":"levelo://app?vid=2d39ff36-ddbb-4f9b-a33e-25f5444d14c0","ios":"levelo://app?vid=2d39ff36-ddbb-4f9b-a33e-25f5444d14c0"},"vehicle_type_id":"4","last_reported":1728889796,"current_range_meters":32400,"station_id":"ce4bh412rcd13ifvqdr0","pricing_plan_id":"cebpf4jnsgd1na2vs0mg"},{"bike_id":"593ee10b-6249-497f-9ce3-e1bffaa2d019","system_id":"levelo_inurba_marseille","lat":43.29591,"lon":5.38097,"is_reserved":false,"is_disabled":false,"rental_uris":{"android":"levelo://app?vid=593ee10b-6249-497f-9ce3-e1bffaa2d019","ios":"levelo://app?vid=593ee10b-6249-497f-9ce3-e1bffaa2d019"},"vehicle_type_id":"4","last_reported":1728889796,"current_range_meters":31200,"station_id":"ce4bgl12rcd13ifvqbo0","pricing_plan_id":"cebpf4jnsgd1na2vs0mg"},{"bike_id":"a467464a-3cf2-4a0d-b34d-eb155a9ba689","system_id":"levelo_inurba_marseille","lat":43.30549,"lon":5.3656,"is_reserved":false,"is_disabled":false,"rental_uris":{"android":"levelo://app?vid=a467464a-3cf2-4a0d-b34d-eb155a9ba689","ios":"levelo://app?vid=a467464a-3cf2-4a0d-b34d-eb155a9ba689"},"vehicle_type_id":"4","last_reported":1728889796,"current_range_meters":25600,"station_id":"ce4bgs12rcd13ifvqcag","pricing_plan_id":"cebpf4jnsgd1na2vs0mg"},{"bike_id":"dbc62d9f-7d60-4247-a49f-c2a7e202e0de","system_id":"levelo_inurba_marseille","lat":43.29049,"lon":5.3997,"is_reserved":false,"is_disabled":false,"rental_uris":{"android":"levelo://app?vid=dbc62d9f-7d60-4247-a49f-c2a7e202e0de","ios":"levelo://app?vid=dbc62d9f-7d60-4247-a49f-c2a7e202e0de"},"vehicle_type_id":"4","last_reported":1728889796,"current_range_meters":4800,"station_id":"ce4bh392rcd13ifvqdm0","pricing_plan_id":"cebpf4jnsgd1na2vs0mg"},{"bike_id":"620cbee8-c89a-4c1c-96e3-c5d8933cdf50","system_id":"levelo_inurba_marseille","lat":43.33746,"lon":5.37438,"is_reserved":false,"is_disabled":false,"rental_uris":{"android":"levelo://app?vid=620cbee8-c89a-4c1c-96e3-c5d8933cdf50","ios":"levelo://app?vid=620cbee8-c89a-4c1c-96e3-c5d8933cdf50"},"vehicle_type_id":"4","last_reported":1728889796,"current_range_meters":16400,"station_id":"","pricing_plan_id":"cebpf4jnsgd1na2vs0mg"},{"bike_id":"fdf77082-594f-4f22-b899-8379c46bb653","system_id":"levelo_inurba_marseille","lat":43.31479,"lon":5.37303,"is_reserved":false,"is_disabled":false,"rental_uris":{"android":"levelo://app?vid=fdf77082-594f-4f22-b899-8379c46bb653","ios":"levelo://app?vid=fdf77082-594f-4f22-b899-8379c46bb653"},"vehicle_type_id":"4","last_reported":1728889796,"current_range_meters":26000,"station_id":"ce4bgt12rcd13ifvqcd0","pricing_plan_id":"cebpf4jnsgd1na2vs0mg"},{"bike_id":"f2753e99-1f0b-4156-8a86-90fa48a48929","system_id":"levelo_inurba_marseille","lat":43.259331,"lon":5.409729,"is_reserved":false,"is_disabled":false,"rental_uris":{"android":"levelo://app?vid=f2753e99-1f0b-4156-8a86-90fa48a48929","ios":"levelo://app?vid=f2753e99-1f0b-4156-8a86-90fa48a48929"},"vehicle_type_id":"4","last_reported":1728889796,"current_range_meters":27600,"station_id":"","pricing_plan_id":"cebpf4jnsgd1na2vs0mg"},{"bike_id":"eb594d84-8eb9-4e53-893a-402ca3dcfe9c","system_id":"levelo_inurba_marseille","lat":43.32482,"lon":5.36581,"is_reserved":false,"is_disabled":false,"rental_uris":{"android":"levelo://app?vid=eb594d84-8eb9-4e53-893a-402ca3dcfe9c","ios":"levelo://app?vid=eb594d84-8eb9-4e53-893a-402ca3dcfe9c"},"vehicle_type_id":"4","last_reported":1728889796,"current_range_meters":38800,"station_id":"ce4bhs12rcd13ifvqhvg","pricing_plan_id":"cebpf4jnsgd1na2vs0mg"},{"bike_id":"ace501ea-6fcd-4431-9ef2-8eaa897871d7","system_id":"levelo_inurba_marseille","lat":43.30458,"lon":5.37906,"is_reserved":false,"is_disabled":false,"rental_uris":{"android":"levelo://app?vid=ace501ea-6fcd-4431-9ef2-8eaa897871d7","ios":"levelo://app?vid=ace501ea-6fcd-4431-9ef2-8eaa897871d7"},"vehicle_type_id":"4","last_reported":1728889796,"current_range_meters":36000,"station_id":"ce4bgup2rcd13ifvqcn0","pricing_plan_id":"cebpf4jnsgd1na2vs0mg"},{"bike_id":"863511eb-36e4-4567-89d1-e1f3149b3364","system_id":"levelo_inurba_marseille","lat":43.2655,"lon":5.37287,"is_reserved":false,"is_disabled":false,"rental_uris":{"android":"levelo://app?vid=863511eb-36e4-4567-89d1-e1f3149b3364","ios":"levelo://app?vid=863511eb-36e4-4567-89d1-e1f3149b3364"},"vehicle_type_id":"4","last_reported":1728889796,"current_range_meters":38400,"station_id":"ce4bhg12rcd13ifvqf70","pricing_plan_id":"cebpf4jnsgd1na2vs0mg"},{"bike_id":"8e01cf2b-ffff-4cf1-9121-8f4979d558ba","system_id":"levelo_inurba_marseille","lat":43.23967,"lon":5.36631,"is_reserved":false,"is_disabled":false,"rental_uris":{"android":"levelo://app?vid=8e01cf2b-ffff-4cf1-9121-8f4979d558ba","ios":"levelo://app?vid=8e01cf2b-ffff-4cf1-9121-8f4979d558ba"},"vehicle_type_id":"4","last_reported":1728889796,"current_range_meters":35600,"station_id":"ce4bhi12rcd13ifvqfp0","pricing_plan_id":"cebpf4jnsgd1na2vs0mg"},{"bike_id":"f420bbad-c9f5-4e21-b1ed-e0eb88db17fe","system_id":"levelo_inurba_marseille","lat":43.27057,"lon":5.40259,"is_reserved":false,"is_disabled":false,"rental_uris":{"android":"levelo://app?vid=f420bbad-c9f5-4e21-b1ed-e0eb88db17fe","ios":"levelo://app?vid=f420bbad-c9f5-4e21-b1ed-e0eb88db17fe"},"vehicle_type_id":"4","last_reported":1728889796,"current_range_meters":25600,"station_id":"ce4bhk92rcd13ifvqgc0","pricing_plan_id":"cebpf4jnsgd1na2vs0mg"},{"bike_id":"7bcfe036-de34-4f14-b49c-b46baa36e325","system_id":"levelo_inurba_marseille","lat":43.30268,"lon":5.37713,"is_reserved":false,"is_disabled":false,"rental_uris":{"android":"levelo://app?vid=7bcfe036-de34-4f14-b49c-b46baa36e325","ios":"levelo://app?vid=7bcfe036-de34-4f14-b49c-b46baa36e325"},"vehicle_type_id":"4","last_reported":1728889796,"current_range_meters":27600,"station_id":"ce4bguh2rcd13ifvqcj0","pricing_plan_id":"cebpf4jnsgd1na2vs0mg"},{"bike_id":"dae4a4c6-add2-4a8e-a168-e570d01c84f8","system_id":"levelo_inurba_marseille","lat":43.24074,"lon":5.37761,"is_reserved":false,"is_disabled":false,"rental_uris":{"android":"levelo://app?vid=dae4a4c6-add2-4a8e-a168-e570d01c84f8","ios":"levelo://app?vid=dae4a4c6-add2-4a8e-a168-e570d01c84f8"},"vehicle_type_id":"4","last_reported":1728889796,"current_range_meters":26800,"station_id":"ce4bhnp2rcd13ifvqgvg","pricing_plan_id":"cebpf4jnsgd1na2vs0mg"},