{"last_updated":1712363631,"ttl":30,"version":"2.2","data":{"bikes":[{"bike_id":"5a97ad67-e834-4c5f-8659-d9c26e486f72","system_id":"levelo_inurba_marseille","lat":43.312239,"lon":5.368562,"is_reserved":false,"is_disabled":false,"rental_uris":{"android":"levelo://app?vid=5a97ad67-e834-4c5f-8659-d9c26e486f72","ios":"levelo://app?vid=5a97ad67-e834-4c5f-8659-d9c26e486f72"},"vehicle_type_id":"4","last_reported":1712363631,"current_range_meters":0,"station_id":"ce4bgl92rcd13ifvqbq0","pricing_plan_id":"cebpf4jnsgd1na2vs0mg"},{"bike_id":"b9b81829-b353-49ed-b6c7-bdb2f511c1ec","system_id":"levelo_inurba_marseille","lat":43.309076,"lon":5.368465,"is_reserved":false,"is_disabled":false,"rental_uris":{"android":"levelo://app?vid=b9b81829-b353-49ed-b6c7-bdb2f511c1ec","ios":"levelo://app?vid=b9b81829-b353-49ed-b6c7-bdb2f511c1ec"},"vehicle_type_id":"4","last_reported":1712363631,"current_range_meters":3200,"station_id":"ce4bgn92rcd13ifvqbvg","pricing_plan_id":"cebpf4jnsgd1na2vs0mg"},{"bike_id":"894d3235-36ab-474b-9472-33043d1ec3b2","system_id":"levelo_inurba_marseille","lat":43.314811,"lon":5.373104,"is_reserved":false,"is_disabled":false,"rental_uris":{"android":"levelo://app?vid=894d3235-36ab-474b-9472-33043d1ec3b2","ios":"levelo://app?vid=894d3235-36ab-474b-9472-33043d1ec3b2"},"vehicle_type_id":"4","last_reported":1712363631,"current_range_meters":8000,"station_id":"ce4bgt12rcd13ifvqcd0","pricing_plan_id":"cebpf4jnsgd1na2vs0mg"},{"bike_id":"69cdd3b1-9a1f-4562-bb0b-107294be1e54","system_id":"levelo_inurba_marseille","lat":43.314811,"lon":5.373104,"is_reserved":false,"is_disabled":false,"rental_uris":{"android":"levelo://app?vid=69cdd3b1-9a1f-4562-bb0b-107294be1e54","ios":"levelo://app?vid=69cdd3b1-9a1f-4562-bb0b-107294be1e54"},"vehicle_type_id":"4","last_reported":1712363631,"current_range_meters":6000,"station_id":"ce4bgt12rcd13ifvqcd0","pricing_plan_id":"cebpf4jnsgd1na2vs0mg"},{"bike_id":"014030b7-536a-4a9b-b79f-f2b0401b4aad","system_id":"levelo_inurba_marseille","lat":43.314811,"lon":5.373103,"is_reserved":false,"is_disabled":false,"rental_uris":{"android":"levelo://app?vid=014030b7-536a-4a9b-b79f-f2b0401b4aad","ios":"levelo://app?vid=014030b7-536a-4a9b-b79f-f2b0401b4aad"},"vehicle_type_id":"4","last_reported":1712363631,"current_range_meters":17200,"station_id":"ce4bgt12rcd13ifvqcd0","pricing_plan_id":"cebpf4jnsgd1na2vs0mg"},{"bike_id":"ec8875b6-6478-47e0-b612-423d8e4ebe57","system_id":"levelo_inurba_marseille","lat":43.309034,"lon":5.371783,"is_reserved":false,"is_disabled":false,"rental_uris":{"android":"levelo://app?vid=ec8875b6-6478-47e0-b612-423d8e4ebe57","ios":"levelo://app?vid=ec8875b6-6478-47e0-b612-423d8e4ebe57"},"vehicle_type_id":"4","last_reported":1712363631,"current_range_meters":7200,"station_id":"ce4bguh2rcd13ifvqckg","pricing_plan_id":"cebpf4jnsgd1na2vs0mg"},{"bike_id":"d936ddef-1e0e-46d9-ae5d-290cf828a335","system_id":"levelo_inurba_marseille","lat":43.309034,"lon":5.371783,"is_reserved":false,"is_disabled":false,"rental_uris":{"android":"levelo://app?vid=d936ddef-1e0e-46d9-ae5d-290cf828a335","ios":"levelo://app?vid=d936ddef-1e0e-46d9-ae5d-290cf828a335"},"vehicle_type_id":"4","last_reported":1712363631,"current_range_meters":6800,"station_id":"ce4bguh2rcd13ifvqckg","pricing_plan_id":"cebpf4jnsgd1na2vs0mg"},{"bike_id":"c67c410e-e5da-4d12-a94b-984486308e3a","system_id":"levelo_inurba_marseille","lat":43.309039,"lon":5.371797,"is_reserved":false,"is_disabled":false,"rental_uris":{"android":"levelo://app?vid=c67c410e-e5da-4d12-a94b-984486308e3a","ios":"levelo://app?vid=c67c410e-e5da-4d12-a94b-984486308e3a"},"vehicle_type_id":"4","last_reported":1712363631,"current_range_meters":10800,"station_id":"ce4bguh2rcd13ifvqckg","pricing_plan_id":"cebpf4jnsgd1na2vs0mg"},{"bike_id":"96cd6820-a91e-4725-bf65-94add822ddbf","system_id":"levelo_inurba_marseille","lat":43.305368,"lon":5.367343,"is_reserved":false,"is_disabled":false,"rental_uris":{"android":"levelo://app?vid=96cd6820-a91e-4725-bf65-94add822ddbf","ios":"levelo://app?vid=96cd6820-a91e-4725-bf65-94add822ddbf"},"vehicle_type_id":"4","last_reported":1712363631,"current_range_meters":15600,"station_id":"ce4bgrp2rcd13ifvqc9g","pricing_plan_id":"cebpf4jnsgd1na2vs0mg"},{"bike_id":"1e229d18-1717-43f8-8396-e11fddaa9303","system_id":"levelo_inurba_marseille","lat":43.305714,"lon":5.365633,"is_reserved":false,"is_disabled":false,"rental_uris":{"android":"levelo://app?vid=1e229d18-1717-43f8-8396-e11fddaa9303","ios":"levelo://app?vid=1e229d18-1717-43f8-8396-e11fddaa9303"},"vehicle_type_id":"4","last_reported":1712363631,"current_range_meters":19200,"station_id":"ce4bgs12rcd13ifvqcag","pricing_plan_id":"cebpf4jnsgd1na2vs0mg"},{"bike_id":"19a9701f-d372-429a-ac8b-ae61faa613b6","system_id":"levelo_inurba_marseille","lat":43.305989,"lon":5.37225,"is_reserved":false,"is_disabled":false,"rental_uris":{"android":"levelo://app?vid=19a9701f-d372-429a-ac8b-ae61faa613b6","ios":"levelo://app?vid=19a9701f-d372-429a-ac8b-ae61faa613b6"},"vehicle_type_id":"4","last_reported":1712363631,"current_range_meters":14400,"station_id":"ce4bgqh2rcd13ifvqc4g","pricing_plan_id":"cebpf4jnsgd1na2vs0mg"},{"bike_id":"63420b21-8975-4512-bce6-01b012b3f354","system_id":"levelo_inurba_marseille","lat":43.305989,"lon":5.37225,"is_reserved":false,"is_disabled":false,"rental_uris":{"android":"levelo://app?vid=63420b21-8975-4512-bce6-01b012b3f354","ios":"levelo://app?vid=63420b21-8975-4512-bce6-01b012b3f354"},"vehicle_type_id":"4","last_reported":1712363631,"current_range_meters":14000,"station_id":"ce4bgqh2rcd13ifvqc4g","pricing_plan_id":"cebpf4jnsgd1na2vs0mg"},{"bike_id":"3aa7ea6c-fc75-4cd9-9804-f949b284b4fc","system_id":"levelo_inurba_marseille","lat":43.30596,"lon":5.372412,"is_reserved":false,"is_disabled":false,"rental_uris":{"android":"levelo://app?vid=3aa7ea6c-fc75-4cd9-9804-f949b284b4fc","ios":"levelo://app?vid=3aa7ea6c-fc75-4cd9-9804-f949b284b4fc"},"vehicle_type_id":"4","last_reported":1712363631,"current_range_meters":0,"station_id":"ce4bgqh2rcd13ifvqc4g","pricing_plan_id":"cebpf4jnsgd1na2vs0mg"},{"bike_id":"c2e30974-6fe8-4a17-8e98-ce9de32616a0","system_id":"levelo_inurba_marseille","lat":43.311125,"lon":5.377624,"is_reserved":false,"is_disabled":false,"rental_uris":{"android":"levelo://app?vid=c2e30974-6fe8-4a17-8e98-ce9de32616a0","ios":"levelo://app?vid=c2e30974-6fe8-4a17-8e98-ce9de32616a0"},"vehicle_type_id":"4","last_reported":1712363631,"current_range_meters":0,"station_id":"ce4bgt92rcd13ifvqcg0","pricing_plan_id":"cebpf4jnsgd1na2vs0mg"},{"bike_id":"129cfa7e-4fd6-4982-b7f9-6cab851bfac6","system_id":"levelo_inurba_marseille","lat":43.311125,"lon":5.377624,"is_reserved":false,"is_disabled":false,"rental_uris":{"android":"levelo://app?vid=129cfa7e-4fd6-4982-b7f9-6cab851bfac6","ios":"levelo://app?vid=129cfa7e-4fd6-4982-b7f9-6cab851bfac6"},"vehicle_type_id":"4","last_reported":1712363631,"current_range_meters":21200,"station_id":"ce4bgt92rcd13ifvqcg0","pricing_plan_id":"cebpf4jnsgd1na2vs0mg"},{"bike_id":"dcd85a69-5063-4a37-821d-f63994994b4a","system_id":"levelo_inurba_marseille","lat":43.311125,"lon":5.377624,"is_reserved":false,"is_disabled":false,"rental_uris":{"android":"levelo://app?vid=dcd85a69-5063-4a37-821d-f63994994b4a","ios":"levelo://app?vid=dcd85a69-5063-4a37-821d-f63994994b4a"},"vehicle_type_id":"4","last_reported":1712363631,"current_range_meters":23600,"station_id":"ce4bgt92rcd13ifvqcg0","pricing_plan_id":"cebpf4jnsgd1na2vs0mg"},{"bike_id":"5059171a-ea82-4a8f-8f01-814856691d90","system_id":"levelo_inurba_marseille","lat":43.311125,"lon":5.377624,"is_reserved":false,"is_disabled":false,"rental_uris":{"android":"levelo://app?vid=5059171a-ea82-4a8f-8f01-814856691d90","ios":"levelo://app?vid=5059171a-ea82-4a8f-8f01-814856691d90"},"vehicle_type_id":"4","last_reported":1712363631,"current_range_meters":26400,"station_id":"ce4bgt92rcd13ifvqcg0","pricing_plan_id":"cebpf4jnsgd1na2vs0mg"},{"bike_id":"40c30c09-f01f-48a6-9b65-dc1d2cfb2c5a","system_id":"levelo_inurba_marseille","lat":43.311125,"lon":5.377624,"is_reserved":false,"is_disabled":false,"rental_uris":{"android":"levelo://app?vid=40c30c09-f01f-48a6-9b65-dc1d2cfb2c5a","ios":"levelo://app?vid=40c30c09-f01f-48a6-9b65-dc1d2cfb2c5a"},"vehicle_type_id":"4","last_reported":1712363631,"current_range_meters":1600,"station_id":"ce4bgt92rcd13ifvqcg0","pricing_plan_id":"cebpf4jnsgd1na2vs0mg"},{"bike_id":"820eb14d-e755-4d25-8abe-6db1dcb30b2a","system_id":"levelo_inurba_marseille","lat":43.311125,"lon":5.377624,"is_reserved":false,"is_disabled":false,"rental_uris":{"android":"levelo://app?vid=820eb14d-e755-4d25-8abe-6db1dcb30b2a","ios":"levelo://app?vid=820eb14d-e755-4d25-8abe-6db1dcb30b2a"},"vehicle_type_id":"4","last_reported":1712363631,"current_range_meters":22000,"station_id":"ce4bgt92rcd13ifvqcg0","pricing_plan_id":"cebpf4jnsgd1na2vs0mg"},{"bike_id":"e3fe33d8-71c7-44be-8f91-4322dcb7a0be","system_id":"levelo_inurba_marseille","lat":43.307945,"lon":5.376487,"is_reserved":false,"is_disabled":false,"rental_uris":{"android":"levelo://app?vid=e3fe33d8-71c7-44be-8f91-4322dcb7a0be","ios":"levelo://app?vid=e3fe33d8-71c7-44be-8f91-4322dcb7a0be"},"vehicle_type_id":"4","last_reported":1712363631,"current_range_meters":12000,"station_id":"ce4bgv92rcd13ifvqcq0","pricing_plan_id":"cebpf4jnsgd1na2vs0mg"},{"bike_id":"10b6e677-6f10-4220-9cdc-488f8a849cab","system_id":"levelo_inurba_marseille","lat":43.311537,"lon":5.378528,"is_reserved":false,"is_disabled":false,"rental_uris":{"android":"levelo://app?vid=10b6e677-6f10-4220-9cdc-488f8a849cab","ios":"levelo://app?vid=10b6e677-6f10-4220-9cdc-488f8a849cab"},"vehicle_type_id":"4","last_reported":1712363631,"current_range_meters":1200,"station_id":"","pricing_plan_id":"cebpf4jnsgd1na2vs0mg"},{"bike_id":"ce6b7edb-5ad7-468c-a3b2-1437ae61401f","system_id":"levelo_inurba_marseille","lat":43.307945,"lon":5.376487,"is_reserved":false,"is_disabled":false,"rental_uris":{"android":"levelo://app?vid=ce6b7edb-5ad7-468c-a3b2-1437ae61401f","ios":"levelo://app?vid=ce6b7edb-5ad7-468c-a3b2-1437ae61401f"},"vehicle_type_id":"4","last_reported":1712363631,"current_range_meters":4800,"station_id":"ce4bgv92rcd13ifvqcq0","pricing_plan_id":"cebpf4jnsgd1na2vs0mg"},{"bike_id":"0f3be81d-b940-46cb-9afa-e804290037fb","system_id":"levelo_inurba_marseille","lat":43.307945,"lon":5.376487,"is_reserved":false,"is_disabled":false,"rental_uris":{"android":"levelo://app?vid=0f3be81d-b940-46cb-9afa-e804290037fb","ios":"levelo://app?vid=0f3be81d-b940-46cb-9afa-e804290037fb"},"vehicle_type_id":"4","last_reported":1712363631,"current_range_meters":16400,"station_id":"ce4bgv92rcd13ifvqcq0","pricing_plan_id":"cebpf4jnsgd1na2vs0mg"},{"bike_id":"2676bf12-8414-43ed-9d8d-8f96fe2fab9d","system_id":"levelo_inurba_marseille","lat":43.307945,"lon":5.376487,"is_reserved":false,"is_disabled":false,"rental_uris":{"android":"levelo://app?vid=2676bf12-8414-43ed-9d8d-8f96fe2fab9d","ios":"levelo://app?vid=2676bf12-8414-43ed-9d8d-8f96fe2fab9d"},"vehicle_type_id":"4","last_reported":1712363631,"current_range_meters":28800,"station_id":"ce4bgv92rcd13ifvqcq0","pricing_plan_id":"cebpf4jnsgd1na2vs0mg"},{"bike_id":"bbfed310-f5ca-41c8-bf3a-f83cd6959697","system_id":"levelo_inurba_marseille","lat":43.313254,"lon":5.37881,"is_reserved":false,"is_disabled":false,"rental_uris":{"android":"levelo://app?vid=bbfed310-f5ca-41c8-bf3a-f83cd6959697","ios":"levelo://app?vid=bbfed310-f5ca-41c8-bf3a-f83cd6959697"},"vehicle_type_id":"4","last_reported":1712363631,"current_range_meters":3200,"station_id":"","pricing_plan_id":"cebpf4jnsgd1na2vs0mg"},{"bike_id":"538c02de-05b0-424e-8d40-87f24b26eb0e","system_id":"levelo_inurba_marseille","lat":43.317075,"lon":5.377367,"is_reserved":false,"is_disabled":false,"rental_uris":{"android":"levelo://app?vid=538c02de-05b0-424e-8d40-87f24b26eb0e","ios":"levelo://app?vid=538c02de-05b0-424e-8d40-87f24b26eb0e"},"vehicle_type_id":"4","last_reported":1712363631,"current_range_meters":7600,"station_id":"ce4bgth2rcd13ifvqch0","pricing_plan_id":"cebpf4jnsgd1na2vs0mg"},{"bike_id":"61b3f78d-ac31-4767-9497-74231f72dcbe","system_id":"levelo_inurba_marseille","lat":43.317075,"lon":5.377367,"is_reserved":false,"is_disabled":false,"rental_uris":{"android":"levelo://app?vid=61b3f78d-ac31-4767-9497-74231f72dcbe","ios":"levelo://app?vid=61b3f78d-ac31-4767-9497-74231f72dcbe"},"vehicle_type_id":"4","last_reported":1712363631,"current_range_meters":4000,"station_id":"ce4bgth2rcd13ifvqch0","pricing_plan_id":"cebpf4jnsgd1na2vs0mg"},{"bike_id":"9a2e3d8b-4b16-4b29-bafe-a8b46a2bcd5f","system_id":"levelo_inurba_marseille","lat":43.303046,"lon":5.368981,"is_reserved":false,"is_disabled":false,"rental_uris":{"android":"levelo://app?vid=9a2e3d8b-4b16-4b29-bafe-a8b46a2bcd5f","ios":"levelo://app?vid=9a2e3d8b-4b16-4b29-bafe-a8b46a2bcd5f"},"vehicle_type_id":"4","last_reported":1712363631,"current_range_meters":20800,"station_id":"ce4bgqh2rcd13ifvqc5g","pricing_plan_id":"cebpf4jnsgd1na2vs0mg"},{"bike_id":"b074d292-20e7-4b6e-9ef5-99f5afafebcb","system_id":"levelo_inurba_marseille","lat":43.303046,"lon":5.368981,"is_reserved":false,"is_disabled":false,"rental_uris":{"android":"levelo://app?vid=b074d292-20e7-4b6e-9ef5-99f5afafebcb","ios":"levelo://app?vid=b074d292-20e7-4b6e-9ef5-99f5afafebcb"},"vehicle_type_id":"4","last_reported":1712363631,"current_range_meters":7200,"station_id":"ce4bgqh2rcd13ifvqc5g","pricing_plan_id":"cebpf4jnsgd1na2vs0mg"},{"bike_id":"48003744-59f3-4730-8ffa-c89728c69cd1","system_id":"levelo_inurba_marseille","lat":43.315289,"lon":5.380349,"is_reserved":false,"is_disabled":false,"rental_uris":{"android":"levelo://app?vid=48003744-59f3-4730-8ffa-c89728c69cd1","ios":"levelo://app?vid=48003744-59f3-4730-8ffa-c89728c69cd1"},"vehicle_type_id":"4","last_reported":1712363631,"current_range_meters":22000,"station_id":"ce4bhsp2rcd13ifvqi50","pricing_plan_id":"cebpf4jnsgd1na2vs0mg"},{"bike_id":"a68ede3d-ef15-41e6-a299-458a5a2d14df","system_id":"levelo_inurba_marseille","lat":43.315289,"lon":5.380349,"is_reserved":false,"is_disabled":false,"rental_uris":{"android":"levelo://app?vid=a68ede3d-ef15-41e6-a299-458a5a2d14df","ios":"levelo://app?vid=a68ede3d-ef15-41e6-a299-458a5a2d14df"},"vehicle_type_id":"4","last_reported":1712363631,"current_range_meters":26000,"station_id":"ce4bhsp2rcd13ifvqi50","pricing_plan_id":"cebpf4jnsgd1na2vs0mg"},{"bike_id":"830aebe7-3a45-4fcd-b02e-b83afa267e20","system_id":"levelo_inurba_marseille","lat":43.315293,"lon":5.380349,"is_reserved":false,"is_disabled":false,"rental_uris":{"android":"levelo://app?vid=830aebe7-3a45-4fcd-b02e-b83afa267e20","ios":"levelo://app?vid=830aebe7-3a45-4fcd-b02e-b83afa267e20"},"vehicle_type_id":"4","last_reported":1712363631,"current_range_meters":22400,"station_id":"ce4bhsp2rcd13ifvqi50","pricing_plan_id":"cebpf4jnsgd1na2vs0mg"},{"bike_id":"3de631a9-4a95-4a1d-8d69-2bf4b675a7a7","system_id":"levelo_inurba_marseille","lat":43.315293,"lon":5.380349,"is_reserved":false,"is_disabled":false,"rental_uris":{"android":"levelo://app?vid=3de631a9-4a95-4a1d-8d69-2bf4b675a7a7","ios":"levelo://app?vid=3de631a9-4a95-4a1d-8d69-2bf4b675a7a7"},"vehicle_type_id":"4","last_reported":1712363631,"current_range_meters":20800,"station_id":"ce4bhsp2rcd13ifvqi50","pricing_plan_id":"cebpf4jnsgd1na2vs0mg"},{"bike_id":"0fde2cce-7218-4392-8c02-701f1ea479db","system_id":"levelo_inurba_marseille","lat":43.315289,"lon":5.380349,"is_reserved":false,"is_disabled":false,"rental_uris":{"android":"levelo://app?vid=0fde2cce-7218-4392-8c02-701f1ea479db","ios":"levelo://app?vid=0fde2cce-7218-4392-8c02-701f1ea479db"},"vehicle_type_id":"4","last_reported":1712363631,"current_range_meters":28800,"station_id":"ce4bhsp2rcd13ifvqi50","pricing_plan_id":"cebpf4jnsgd1na2vs0mg"},{"bike_id":"72900933-c275-4395-a43f-b5b9777a6016","system_id":"levelo_inurba_marseille","lat":43.301939,"lon":5.366286,"is_reserved":false,"is_disabled":false,"rental_uris":{"android":"levelo://app?vid=72900933-c275-4395-a43f-b5b9777a6016","ios":"levelo://app?vid=72900933-c275-4395-a43f-b5b9777a6016"},"vehicle_type_id":"4","last_reported":1712363631,"current_range_meters":21200,"station_id":"ce4bgrh2rcd13ifvqc8g","pricing_plan_id":"cebpf4jnsgd1na2vs0mg"},{"bike_id":"303a8f0d-10ec-40e8-8da8-7edecbe2a50d","system_id":"levelo_inurba_marseille","lat":43.301939,"lon":5.366286,"is_reserved":false,"is_disabled":false,"rental_uris":{"android":"levelo://app?vid=303a8f0d-10ec-40e8-8da8-7edecbe2a50d","ios":"levelo://app?vid=303a8f0d-10ec-40e8-8da8-7edecbe2a50d"},"vehicle_type_id":"4","last_reported":1712363631,"current_range_meters":21200,"station_id":"ce4bgrh2rcd13ifvqc8g","pricing_plan_id":"cebpf4jnsgd1na2vs0mg"},{"bike_id":"e5d42520-1ffe-4bec-8eee-81389bb6ee16","system_id":"levelo_inurba_marseille","lat":43.301939,"lon":5.366286,"is_reserved":false,"is_disabled":false,"rental_uris":{"android":"levelo://app?vid=e5d42520-1ffe-4bec-8eee-81389bb6ee16","ios":"levelo://app?vid=e5d42520-1ffe-4bec-8eee-81389bb6ee16"},"vehicle_type_id":"4","last_reported":1712363631,"current_range_meters":21600,"station_id":"ce4bgrh2rcd13ifvqc8g","pricing_plan_id":"cebpf4jnsgd1na2vs0mg"},{"bike_id":"377f2339-6719-4962-8f3a-606a805079ef","system_id":"levelo_inurba_marseille","lat":43.301939,"lon":5.366286,"is_reserved":false,"is_disabled":false,"rental_uris":{"android":"levelo://app?vid=377f2339-6719-4962-8f3a-606a805079ef","ios":"levelo://app?vid=377f2339-6719-4962-8f3a-606a805079ef"},"vehicle_type_id":"4","last_reported":1712363631,"current_range_meters":21600,"station_id":"ce4bgrh2rcd13ifvqc8g","pricing_plan_id":"cebpf4jnsgd1na2vs0mg"},{"bike_id":"7bf5d164-4c07-45cf-8245-2474d8a99266","system_id":"levelo_inurba_marseille","lat":43.32311,"lon":5.37426,"is_reserved":false,"is_disabled":false,"rental_uris":{"android":"levelo://app?vid=7bf5d164-4c07-45cf-8245-2474d8a99266","ios":"levelo://app?vid=7bf5d164-4c07-45cf-8245-2474d8a99266"},"vehicle_type_id":"4","last_reported":1712363631,"current_range_meters":14800,"station_id":"","pricing_plan_id":"cebpf4jnsgd1na2vs0mg"},{"bike_id":"fbc20471-682b-4ac7-9b46-365a3eedaf41","system_id":"levelo_inurba_marseille","lat":43.308012,"lon":5.381511,"is_reserved":false,"is_disabled":false,"rental_uris":{"android":"levelo://app?vid=fbc20471-682b-4ac7-9b46-365a3eedaf41","ios":"levelo://app?vid=fbc20471-682b-4ac7-9b46-365a3eedaf41"},"vehicle_type_id":"4","last_reported":1712363631,"current_range_meters":14800,"station_id":"ce4bgt12rcd13ifvqce0","pricing_plan_id":"cebpf4jnsgd1na2vs0mg"},{"bike_id":"b92a14c6-c154-4cef-a9e5-f7ca4e17235b","system_id":"levelo_inurba_marseille","lat":43.308012,"lon":5.381511,"is_reserved":false,"is_disabled":false,"rental_uris":{"android":"levelo://app?vid=b92a14c6-c154-4cef-a9e5-f7ca4e17235b","ios":"levelo://app?vid=b92a14c6-c154-4cef-a9e5-f7ca4e17235b"},"vehicle_type_id":"4","last_reported":1712363631,"current_range_meters":4000,"station_id":"ce4bgt12rcd13ifvqce0","pricing_plan_id":"cebpf4jnsgd1na2vs0mg"},{"bike_id":"34200b90-e558-43be-8d99-44a2fe58e047","system_id":"levelo_inurba_marseille","lat":43.319935,"lon":5.381699,"is_reserved":false,"is_disabled":false,"rental_uris":{"android":"levelo://app?vid=34200b90-e558-43be-8d99-44a2fe58e047","ios":"levelo://app?vid=34200b90-e558-43be-8d99-44a2fe58e047"},"vehicle_type_id":"4","last_reported":1712363631,"current_range_meters":400,"station_id":"ce4bhr12rcd13ifvqhpg","pricing_plan_id":"cebpf4jnsgd1na2vs0mg"},{"bike_id":"e7859fb1-899d-40c8-a11d-77f494852427","system_id":"levelo_inurba_marseille","lat":43.32479,"lon":5.36577,"is_reserved":false,"is_disabled":false,"rental_uris":{"android":"levelo://app?vid=e7859fb1-899d-40c8-a11d-77f494852427","ios":"levelo://app?vid=e7859fb1-899d-40c8-a11d-77f494852427"},"vehicle_type_id":"4","last_reported":1712363631,"current_range_meters":14000,"station_id":"ce4bhs12rcd13ifvqhvg","pricing_plan_id":"cebpf4jnsgd1na2vs0mg"},{"bike_id":"8ee5acd4-daf9-46ea-aea2-a4d99b213fb5","system_id":"levelo_inurba_marseille","lat":43.32479,"lon":5.36569,"is_reserved":false,"is_disabled":false,"rental_uris":{"android":"levelo://app?vid=8ee5acd4-daf9-46ea-aea2-a4d99b213fb5","ios":"levelo://app?vid=8ee5acd4-daf9-46ea-aea2-a4d99b213fb5"},"vehicle_type_id":"4","last_reported":1712363631,"current_range_meters":21600,"station_id":"ce4bhs12rcd13ifvqhvg","pricing_plan_id":"cebpf4jnsgd1na2vs0mg"},{"bike_id":"65c7febf-046b-4347-9dbb-f5eac64237c5","system_id":"levelo_inurba_marseille","lat":43.324771,"lon":5.36557,"is_reserved":false,"is_disabled":false,"rental_uris":{"android":"levelo://app?vid=65c7febf-046b-4347-9dbb-f5eac64237c5","ios":"levelo://app?vid=65c7febf-046b-4347-9dbb-f5eac64237c5"},"vehicle_type_id":"4","last_reported":1712363631,"current_range_meters":20400,"station_id":"ce4bhs12rcd13ifvqhvg","pricing_plan_id":"cebpf4jnsgd1na2vs0mg"},{"bike_id":"4b0f9170-0b82-4fd4-974d-1ab2919e60e7","system_id":"levelo_inurba_marseille","lat":43.32481,"lon":5.36567,"is_reserved":false,"is_disabled":false,"rental_uris":{"android":"levelo://app?vid=4b0f9170-0b82-4fd4-974d-1ab2919e60e7","ios":"levelo://app?vid=4b0f9170-0b82-4fd4-974d-1ab2919e60e7"},"vehicle_type_id":"4","last_reported":1712363631,"current_range_meters":17600,"station_id":"ce4bhs12rcd13ifvqhvg","pricing_plan_id":"cebpf4jnsgd1na2vs0mg"},{"bike_id":"75002fa4-3fb9-4c75-96ad-81fc00d0d7fc","system_id":"levelo_inurba_marseille","lat":43.32482,"lon":5.36576,"is_reserved":false,"is_disabled":false,"rental_uris":{"android":"levelo://app?vid=75002fa4-3fb9-4c75-96ad-81fc00d0d7fc","ios":"levelo://app?vid=75002fa4-3fb9-4c75-96ad-81fc00d0d7fc"},"vehicle_type_id":"4","last_reported":1712363631,"current_range_meters":16400,"station_id":"ce4bhs12rcd13ifvqhvg","pricing_plan_id":"cebpf4jnsgd1na2vs0mg"},{"bike_id":"e241da9c-f9b3-4258-b83a-fc8144cbf8d5","system_id":"levelo_inurba_marseille","lat":43.32482,"lon":5.36572,"is_reserved":false,"is_disabled":false,"rental_uris":{"android":"levelo://app?vid=e241da9c-f9b3-4258-b83a-fc8144cbf8d5","ios":"levelo://app?vid=e241da9c-f9b3-4258-b83a-fc8144cbf8d5"},"vehicle_type_id":"4","last_reported":1712363631,"current_range_meters":11200,"station_id":"ce4bhs12rcd13ifvqhvg","pricing_plan_id":"cebpf4jnsgd1na2vs0mg"},{"bike_id":"16102df9-2c79-4c15-a90d-9ef0aaa14a1e","system_id":"levelo_inurba_marseille","lat":43.31076,"lon":5.38352,"is_reserved":false,"is_disabled":false,"rental_uris":{"android":"levelo://app?vid=16102df9-2c79-4c15-a90d-9ef0aaa14a1e","ios":"levelo://app?vid=16102df9-2c79-4c15-a90d-9ef0aaa14a1e"},"vehicle_type_id":"4","last_reported":1712363631,"current_range_meters":0,"station_id":"ce4bgv92rcd13ifvqcr0","pricing_plan_id":"cebpf4jnsgd1na2vs0mg"},{"bike_id":"92d2fe14-7d0b-40a5-9378-de30c4c53013","system_id":"levelo_inurba_marseille","lat":43.310804,"lon":5.38359,"is_reserved":false,"is_disabled":false,"rental_uris":{"android":"levelo://app?vid=92d2fe14-7d0b-40a5-9378-de30c4c53013","ios":"levelo://app?vid=92d2fe14-7d0b-40a5-9378-de30c4c53013"},"vehicle_type_id":"4","last_reported":1712363631,"current_range_meters":0,"station_id":"ce4bgv92rcd13ifvqcr0","pricing_plan_id":"cebpf4jnsgd1na2vs0mg"},{"bike_id":"7ee018f1-4140-46f3-850e-0243e0aa9bff","system_id":"levelo_inurba_marseille","lat":43.302784,"lon":5.377158,"is_reserved":false,"is_disabled":false,"rental_uris":{"android":"levelo://app?vid=7ee018f1-4140-46f3-850e-0243e0aa9bff","ios":"levelo://app?vid=7ee018f1-4140-46f3-850e-0243e0aa9bff"},"vehicle_type_id":"4","last_reported":1712363631,"current_range_meters":28400,"station_id":"ce4bguh2rcd13ifvqcj0","pricing_plan_id":"cebpf4jnsgd1na2vs0mg"},{"bike_id":"797bb9d1-5877-40de-8034-48f2834a0948","system_id":"levelo_inurba_marseille","lat":43.30143,"lon":5.37413,"is_reserved":false,"is_disabled":false,"rental_uris":{"android":"levelo://app?vid=797bb9d1-5877-40de-8034-48f2834a0948","ios":"levelo://app?vid=797bb9d1-5877-40de-8034-48f2834a0948"},"vehicle_type_id":"4","last_reported":1712363631,"current_range_meters":20000,"station_id":"ce4bgs92rcd13ifvqcc0","pricing_plan_id":"cebpf4jnsgd1na2vs0mg"},{"bike_id":"3020cd15-a45c-44f8-b232-6920c4c1ddb0","system_id":"levelo_inurba_marseille","lat":43.319935,"lon":5.381699,"is_reserved":false,"is_disabled":false,"rental_uris":{"android":"levelo://app?vid=3020cd15-a45c-44f8-b232-6920c4c1ddb0","ios":"levelo://app?vid=3020cd15-a45c-44f8-b232-6920c4c1ddb0"},"vehicle_type_id":"4","last_reported":1712363631,"current_range_meters":28000,"station_id":"ce4bhr12rcd13ifvqhpg","pricing_plan_id":"cebpf4jnsgd1na2vs0mg"},{"bike_id":"6920eb6a-6545-46c8-ab6f-a7e0189a9542","system_id":"levelo_inurba_marseille","lat":43.31993,"lon":5.3815,"is_reserved":false,"is_disabled":false,"rental_uris":{"android":"levelo://app?vid=6920eb6a-6545-46c8-ab6f-a7e0189a9542","ios":"levelo://app?vid=6920eb6a-6545-46c8-ab6f-a7e0189a9542"},"vehicle_type_id":"4","last_reported":1712363631,"current_range_meters":2400,"station_id":"ce4bhr12rcd13ifvqhpg","pricing_plan_id":"cebpf4jnsgd1na2vs0mg"},{"bike_id":"b6033c9b-ef77-4185-acab-aabc76d44e94","system_id":"levelo_inurba_marseille","lat":43.319935,"lon":5.381699,"is_reserved":false,"is_disabled":false,"rental_uris":{"android":"levelo://app?vid=b6033c9b-ef77-4185-acab-aabc76d44e94","ios":"levelo://app?vid=b6033c9b-ef77-4185-acab-aabc76d44e94"},"vehicle_type_id":"4","last_reported":1712363631,"current_range_meters":2400,"station_id":"ce4bhr12rcd13ifvqhpg","pricing_plan_id":"cebpf4jnsgd1na2vs0mg"},{"bike_id":"07120840-63e0-42d5-a1bd-d72e479345a2","system_id":"levelo_inurba_marseille","lat":43.319935,"lon":5.381699,"is_reserved":false,"is_disabled":false,"rental_uris":{"android":"levelo://app?vid=07120840-63e0-42d5-a1bd-d72e479345a2","ios":"levelo://app?vid=07120840-63e0-42d5-a1bd-d72e479345a2"},"vehicle_type_id":"4","last_reported":1712363631,"current_range_meters":1600,"station_id":"ce4bhr12rcd13ifvqhpg","pricing_plan_id":"cebpf4jnsgd1na2vs0mg"},{"bike_id":"1829be0a-5060-4234-8f24-9857cbab0d74","system_id":"levelo_inurba_marseille","lat":43.319935,"lon":5.381699,"is_reserved":false,"is_disabled":false,"rental_uris":{"android":"levelo://app?vid=1829be0a-5060-4234-8f24-9857cbab0d74","ios":"levelo://app?vid=1829be0a-5060-4234-8f24-9857cbab0d74"},"vehicle_type_id":"4","last_reported":1712363631,"current_range_meters":5200,"station_id":"ce4bhr12rcd13ifvqhpg","pricing_plan_id":"cebpf4jnsgd1na2vs0mg"},{"bike_id":"ab206211-58e1-4548-a53d-fe240099683d","system_id":"levelo_inurba_marseille","lat":43.319935,"lon":5.381699,"is_reserved":false,"is_disabled":false,"rental_uris":{"android":"levelo://app?vid=ab206211-58e1-4548-a53d-fe240099683d","ios":"levelo://app?vid=ab206211-58e1-4548-a53d-fe240099683d"},"vehicle_type_id":"4","last_reported":1712363631,"current_range_meters":12000,"station_id":"ce4bhr12rcd13ifvqhpg","pricing_plan_id":"cebpf4jnsgd1na2vs0mg"},{"bike_id":"a5ec8e28-79b4-40d8-8da6-f8337339c058","system_id":"levelo_inurba_marseille","lat":43.313571,"lon":5.384829,"is_reserved":false,"is_disabled":false,"rental_uris":{"android":"levelo://app?vid=a5ec8e28-79b4-40d8-8da6-f8337339c058","ios":"levelo://app?vid=a5ec8e28-79b4-40d8-8da6-f8337339c058"},"vehicle_type_id":"4","last_reported":1712363631,"current_range_meters":32000,"station_id":"ce4bgt92rcd13ifvqcf0","pricing_plan_id":"cebpf4jnsgd1na2vs0mg"},{"bike_id":"4ae1a50c-e909-4394-b553-22bb2aa42c1b","system_id":"levelo_inurba_marseille","lat":43.3136,"lon":5.38485,"is_reserved":false,"is_disabled":false,"rental_uris":{"android":"levelo://app?vid=4ae1a50c-e909-4394-b553-22bb2aa42c1b","ios":"levelo://app?vid=4ae1a50c-e909-4394-b553-22bb2aa42c1b"},"vehicle_type_id":"4","last_reported":1712363631,"current_range_meters":24800,"station_id":"ce4bgt92rcd13ifvqcf0","pricing_plan_id":"cebpf4jnsgd1na2vs0mg"},{"bike_id":"fa0631bc-19db-4784-9bc0-a9a56352fccb","system_id":"levelo_inurba_marseille","lat":43.313571,"lon":5.384829,"is_reserved":false,"is_disabled":false,"rental_uris":{"android":"levelo://app?vid=fa0631bc-19db-4784-9bc0-a9a56352fccb","ios":"levelo://app?vid=fa0631bc-19db-4784-9bc0-a9a56352fccb"},"vehicle_type_id":"4","last_reported":1712363631,"current_range_meters":23200,"station_id":"ce4bgt92rcd13ifvqcf0","pricing_plan_id":"cebpf4jnsgd1na2vs0mg"},{"bike_id":"0428e8bb-2b37-431a-9ea1-4af7ddb196ae","system_id":"levelo_inurba_marseille","lat":43.313571,"lon":5.384829,"is_reserved":false,"is_disabled":false,"rental_uris":{"android":"levelo://app?vid=0428e8bb-2b37-431a-9ea1-4af7ddb196ae","ios":"levelo://app?vid=0428e8bb-2b37-431a-9ea1-4af7ddb196ae"},"vehicle_type_id":"4","last_reported":1712363631,"current_range_meters":21600,"station_id":"ce4bgt92rcd13ifvqcf0","pricing_plan_id":"cebpf4jnsgd1na2vs0mg"},{"bike_id":"2a688ca9-9dd6-416e-985d-c219b32cd5b7","system_id":"levelo_inurba_marseille","lat":43.313571,"lon":5.384829,"is_reserved":false,"is_disabled":false,"rental_uris":{"android":"levelo://app?vid=2a688ca9-9dd6-416e-985d-c219b32cd5b7","ios":"levelo://app?vid=2a688ca9-9dd6-416e-985d-c219b32cd5b7"},"vehicle_type_id":"4","last_reported":1712363631,"current_range_meters":15600,"station_id":"ce4bgt92rcd13ifvqcf0","pricing_plan_id":"cebpf4jnsgd1na2vs0mg"},{"bike_id":"49cf6464-d1d5-4ad5-9266-8e6dd33037ae","system_id":"levelo_inurba_marseille","lat":43.3136,"lon":5.38491,"is_reserved":false,"is_disabled":false,"rental_uris":{"android":"levelo://app?vid=49cf6464-d1d5-4ad5-9266-8e6dd33037ae","ios":"levelo://app?vid=49cf6464-d1d5-4ad5-9266-8e6dd33037ae"},"vehicle_type_id":"4","last_reported":1712363631,"current_range_meters":24400,"station_id":"ce4bgt92rcd13ifvqcf0","pricing_plan_id":"cebpf4jnsgd1na2vs0mg"},{"bike_id":"e39d1850-4f7e-4a96-bfcc-92ffdbc7c537","system_id":"levelo_inurba_marseille","lat":43.31361,"lon":5.38491,"is_reserved":false,"is_disabled":false,"rental_uris":{"android":"levelo://app?vid=e39d1850-4f7e-4a96-bfcc-92ffdbc7c537","ios":"levelo://app?vid=e39d1850-4f7e-4a96-bfcc-92ffdbc7c537"},"vehicle_type_id":"4","last_reported":1712363631,"current_range_meters":13600,"station_id":"ce4bgt92rcd13ifvqcf0","pricing_plan_id":"cebpf4jnsgd1na2vs0mg"},{"bike_id":"4716a25b-5974-4997-95ae-63bf9257a1fb","system_id":"levelo_inurba_marseille","lat":43.313571,"lon":5.384829,"is_reserved":false,"is_disabled":false,"rental_uris":{"android":"levelo://app?vid=4716a25b-5974-4997-95ae-63bf9257a1fb","ios":"levelo://app?vid=4716a25b-5974-4997-95ae-63bf9257a1fb"},"vehicle_type_id":"4","last_reported":1712363631,"current_range_meters":10000,"station_id":"ce4bgt92rcd13ifvqcf0","pricing_plan_id":"cebpf4jnsgd1na2vs0mg"},{"bike_id":"38807241-d82d-4884-bea4-e60f37663489","system_id":"levelo_inurba_marseille","lat":43.31361,"lon":5.38493,"is_reserved":false,"is_disabled":false,"rental_uris":{"android":"levelo://app?vid=38807241-d82d-4884-bea4-e60f37663489","ios":"levelo://app?vid=38807241-d82d-4884-bea4-e60f37663489"},"vehicle_type_id":"4","last_reported":1712363631,"current_range_meters":0,"station_id":"ce4bgt92rcd13ifvqcf0","pricing_plan_id":"cebpf4jnsgd1na2vs0mg"},{"bike_id":"ec223a8d-a99d-41e6-b193-de786475690b","system_id":"levelo_inurba_marseille","lat":43.313571,"lon":5.384829,"is_reserved":false,"is_disabled":false,"rental_uris":{"android":"levelo://app?vid=ec223a8d-a99d-41e6-b193-de786475690b","ios":"levelo://app?vid=ec223a8d-a99d-41e6-b193-de786475690b"},"vehicle_type_id":"4","last_reported":1712363631,"current_range_meters":23200,"station_id":"ce4bgt92rcd13ifvqcf0","pricing_plan_id":"cebpf4jnsgd1na2vs0mg"},{"bike_id":"5bec4855-f9a9-4caa-bd06-12aaa23ece89","system_id":"levelo_inurba_marseille","lat":43.313697,"lon":5.384937,"is_reserved":false,"is_disabled":false,"rental_uris":{"android":"levelo://app?vid=5bec4855-f9a9-4caa-bd06-12aaa23ece89","ios":"levelo://app?vid=5bec4855-f9a9-4caa-bd06-12aaa23ece89"},"vehicle_type_id":"4","last_reported":1712363631,"current_range_meters":10000,"station_id":"ce4bgt92rcd13ifvqcf0","pricing_plan_id":"cebpf4jnsgd1na2vs0mg"},{"bike_id":"c730fbfa-2da2-48f5-a725-9a069939cc48","system_id":"levelo_inurba_marseille","lat":43.31364,"lon":5.38495,"is_reserved":false,"is_disabled":false,"rental_uris":{"android":"levelo://app?vid=c730fbfa-2da2-48f5-a725-9a069939cc48","ios":"levelo://app?vid=c730fbfa-2da2-48f5-a725-9a069939cc48"},"vehicle_type_id":"4","last_reported":1712363631,"current_range_meters":14800,"station_id":"ce4bgt92rcd13ifvqcf0","pricing_plan_id":"cebpf4jnsgd1na2vs0mg"},{"bike_id":"cd608234-5d8f-4d32-b75a-190574585931","system_id":"levelo_inurba_marseille","lat":43.31376,"lon":5.38494,"is_reserved":false,"is_disabled":false,"rental_uris":{"android":"levelo://app?vid=cd608234-5d8f-4d32-b75a-190574585931","ios":"levelo://app?vid=cd608234-5d8f-4d32-b75a-190574585931"},"vehicle_type_id":"4","last_reported":1712363631,"current_range_meters":23200,"station_id":"ce4bgt92rcd13ifvqcf0","pricing_plan_id":"cebpf4jnsgd1na2vs0mg"},{"bike_id":"401af154-ffa1-4ee3-ab10-b33033c6696d","system_id":"levelo_inurba_marseille","lat":43.313571,"lon":5.384829,"is_reserved":false,"is_disabled":false,"rental_uris":{"android":"levelo://app?vid=401af154-ffa1-4ee3-ab10-b33033c6696d","ios":"levelo://app?vid=401af154-ffa1-4ee3-ab10-b33033c6696d"},"vehicle_type_id":"4","last_reported":1712363631,"current_range_meters":20000,"station_id":"ce4bgt92rcd13ifvqcf0","pricing_plan_id":"cebpf4jnsgd1na2vs0mg"},{"bike_id":"a8aa1582-e146-40fb-a67a-1d59c1bfa8e6","system_id":"levelo_inurba_marseille","lat":43.31364,"lon":5.38496,"is_reserved":false,"is_disabled":false,"rental_uris":{"android":"levelo://app?vid=a8aa1582-e146-40fb-a67a-1d59c1bfa8e6","ios":"levelo://app?vid=a8aa1582-e146-40fb-a67a-1d59c1bfa8e6"},"vehicle_type_id":"4","last_reported":1712363631,"current_range_meters":0,"station_id":"ce4bgt92rcd13ifvqcf0","pricing_plan_id":"cebpf4jnsgd1na2vs0mg"},{"bike_id":"586d204e-774d-444d-adca-7706deffa37f","system_id":"levelo_inurba_marseille","lat":43.31349,"lon":5.38498,"is_reserved":false,"is_disabled":false,"rental_uris":{"android":"levelo://app?vid=586d204e-774d-444d-adca-7706deffa37f","ios":"levelo://app?vid=586d204e-774d-444d-adca-7706deffa37f"},"vehicle_type_id":"4","last_reported":1712363631,"current_range_meters":22000,"station_id":"ce4bgt92rcd13ifvqcf0","pricing_plan_id":"cebpf4jnsgd1na2vs0mg"},{"bike_id":"7c588282-0db8-4d94-8a8b-8ec74371905d","system_id":"levelo_inurba_marseille","lat":43.31365,"lon":5.38497,"is_reserved":false,"is_disabled":false,"rental_uris":{"android":"levelo://app?vid=7c588282-0db8-4d94-8a8b-8ec74371905d","ios":"levelo://app?vid=7c588282-0db8-4d94-8a8b-8ec74371905d"},"vehicle_type_id":"4","last_reported":1712363631,"current_range_meters":0,"station_id":"ce4bgt92rcd13ifvqcf0","pricing_plan_id":"cebpf4jnsgd1na2vs0mg"},{"bike_id":"0bb752f6-7694-490d-90e0-683d19bbb3db","system_id":"levelo_inurba_marseille","lat":43.313644,"lon":5.384974,"is_reserved":false,"is_disabled":false,"rental_uris":{"android":"levelo://app?vid=0bb752f6-7694-490d-90e0-683d19bbb3db","ios":"levelo://app?vid=0bb752f6-7694-490d-90e0-683d19bbb3db"},"vehicle_type_id":"4","last_reported":1712363631,"current_range_meters":12400,"station_id":"ce4bgt92rcd13ifvqcf0","pricing_plan_id":"cebpf4jnsgd1na2vs0mg"},{"bike_id":"497d0305-936e-4727-bdda-b39ebe58002c","system_id":"levelo_inurba_marseille","lat":43.31358,"lon":5.38499,"is_reserved":false,"is_disabled":false,"rental_uris":{"android":"levelo://app?vid=497d0305-936e-4727-bdda-b39ebe58002c","ios":"levelo://app?vid=497d0305-936e-4727-bdda-b39ebe58002c"},"vehicle_type_id":"4","last_reported":1712363631,"current_range_meters":21200,"station_id":"ce4bgt92rcd13ifvqcf0","pricing_plan_id":"cebpf4jnsgd1na2vs0mg"},{"bike_id":"07381f36-2e3b-4f29-8f0a-7f9c894c5951","system_id":"levelo_inurba_marseille","lat":43.31363,"lon":5.385006,"is_reserved":false,"is_disabled":false,"rental_uris":{"android":"levelo://app?vid=07381f36-2e3b-4f29-8f0a-7f9c894c5951","ios":"levelo://app?vid=07381f36-2e3b-4f29-8f0a-7f9c894c5951"},"vehicle_type_id":"4","last_reported":1712363631,"current_range_meters":2800,"station_id":"ce4bgt92rcd13ifvqcf0","pricing_plan_id":"cebpf4jnsgd1na2vs0mg"},{"bike_id":"1fabed31-ca9d-4f12-b6e2-a93f9a63dc74","system_id":"levelo_inurba_marseille","lat":43.31362,"lon":5.385013,"is_reserved":false,"is_disabled":false,"rental_uris":{"android":"levelo://app?vid=1fabed31-ca9d-4f12-b6e2-a93f9a63dc74","ios":"levelo://app?vid=1fabed31-ca9d-4f12-b6e2-a93f9a63dc74"},"vehicle_type_id":"4","last_reported":1712363631,"current_range_meters":18400,"station_id":"ce4bgt92rcd13ifvqcf0","pricing_plan_id":"cebpf4jnsgd1na2vs0mg"},{"bike_id":"44b913eb-d3b5-4790-aba6-645c7462904f","system_id":"levelo_inurba_marseille","lat":43.313565,"lon":5.38503,"is_reserved":false,"is_disabled":false,"rental_uris":{"android":"levelo://app?vid=44b913eb-d3b5-4790-aba6-645c7462904f","ios":"levelo://app?vid=44b913eb-d3b5-4790-aba6-645c7462904f"},"vehicle_type_id":"4","last_reported":1712363631,"current_range_meters":400,"station_id":"ce4bgt92rcd13ifvqcf0","pricing_plan_id":"cebpf4jnsgd1na2vs0mg"},{"bike_id":"6fa34fbc-c05f-4a4c-96ff-170407e3bb3b","system_id":"levelo_inurba_marseille","lat":43.313571,"lon":5.384829,"is_reserved":false,"is_disabled":false,"rental_uris":{"android":"levelo://app?vid=6fa34fbc-c05f-4a4c-96ff-170407e3bb3b","ios":"levelo://app?vid=6fa34fbc-c05f-4a4c-96ff-170407e3bb3b"},"vehicle_type_id":"4","last_reported":1712363631,"current_range_meters":15200,"station_id":"ce4bgt92rcd13ifvqcf0","pricing_plan_id":"cebpf4jnsgd1na2vs0mg"},{"bike_id":"fa7097ab-7faf-453a-afe0-d4c20aafdc15","system_id":"levelo_inurba_marseille","lat":43.2994,"lon":5.36546,"is_reserved":false,"is_disabled":false,"rental_uris":{"android":"levelo://app?vid=fa7097ab-7faf-453a-afe0-d4c20aafdc15","ios":"levelo://app?vid=fa7097ab-7faf-453a-afe0-d4c20aafdc15"},"vehicle_type_id":"4","last_reported":1712363631,"current_range_meters":20800,"station_id":"ce4bgm92rcd13ifvqbr0","pricing_plan_id":"cebpf4jnsgd1na2vs0mg"},{"bike_id":"32174aea-c5ff-4764-b6a0-5d93d0226d8b","system_id":"levelo_inurba_marseille","lat":43.29939,"lon":5.36534,"is_reserved":false,"is_disabled":false,"rental_uris":{"android":"levelo://app?vid=32174aea-c5ff-4764-b6a0-5d93d0226d8b","ios":"levelo://app?vid=32174aea-c5ff-4764-b6a0-5d93d0226d8b"},"vehicle_type_id":"4","last_reported":1712363631,"current_range_meters":22000,"station_id":"ce4bgm92rcd13ifvqbr0","pricing_plan_id":"cebpf4jnsgd1na2vs0mg"},{"bike_id":"fde34722-74dd-4318-9867-95bc4861002f","system_id":"levelo_inurba_marseille","lat":43.29936,"lon":5.36527,"is_reserved":false,"is_disabled":false,"rental_uris":{"android":"levelo://app?vid=fde34722-74dd-4318-9867-95bc4861002f","ios":"levelo://app?vid=fde34722-74dd-4318-9867-95bc4861002f"},"vehicle_type_id":"4","last_reported":1712363631,"current_range_meters":19600,"station_id":"ce4bgm92rcd13ifvqbr0","pricing_plan_id":"cebpf4jnsgd1na2vs0mg"},{"bike_id":"8b7a6940-2678-4e91-9398-dc272e0aa925","system_id":"levelo_inurba_marseille","lat":43.299222,"lon":5.365554,"is_reserved":false,"is_disabled":false,"rental_uris":{"android":"levelo://app?vid=8b7a6940-2678-4e91-9398-dc272e0aa925","ios":"levelo://app?vid=8b7a6940-2678-4e91-9398-dc272e0aa925"},"vehicle_type_id":"4","last_reported":1712363631,"current_range_meters":22400,"station_id":"ce4bgm92rcd13ifvqbr0","pricing_plan_id":"cebpf4jnsgd1na2vs0mg"},{"bike_id":"3c897a04-ac52-4c46-9829-bfdc49aa0a36","system_id":"levelo_inurba_marseille","lat":43.299222,"lon":5.365554,"is_reserved":false,"is_disabled":false,"rental_uris":{"android":"levelo://app?vid=3c897a04-ac52-4c46-9829-bfdc49aa0a36","ios":"levelo://app?vid=3c897a04-ac52-4c46-9829-bfdc49aa0a36"},"vehicle_type_id":"4","last_reported":1712363631,"current_range_meters":18800,"station_id":"ce4bgm92rcd13ifvqbr0","pricing_plan_id":"cebpf4jnsgd1na2vs0mg"},{"bike_id":"c09fdbb2-c8a9-4a49-a837-8e306971a021","system_id":"levelo_inurba_marseille","lat":43.299724,"lon":5.371829,"is_reserved":false,"is_disabled":false,"rental_uris":{"android":"levelo://app?vid=c09fdbb2-c8a9-4a49-a837-8e306971a021","ios":"levelo://app?vid=c09fdbb2-c8a9-4a49-a837-8e306971a021"},"vehicle_type_id":"4","last_reported":1712363631,"current_range_meters":12400,"station_id":"ce4bgr92rcd13ifvqc7g","pricing_plan_id":"cebpf4jnsgd1na2vs0mg"},{"bike_id":"adefabf0-6ecf-487d-b8e6-e478a740cdf7","system_id":"levelo_inurba_marseille","lat":43.299222,"lon":5.365554,"is_reserved":false,"is_disabled":false,"rental_uris":{"android":"levelo://app?vid=adefabf0-6ecf-487d-b8e6-e478a740cdf7","ios":"levelo://app?vid=adefabf0-6ecf-487d-b8e6-e478a740cdf7"},"vehicle_type_id":"4","last_reported":1712363631,"current_range_meters":20400,"station_id":"ce4bgm92rcd13ifvqbr0","pricing_plan_id":"cebpf4jnsgd1na2vs0mg"},{"bike_id":"247783db-b4b3-4b2e-9069-093a36a8af42","system_id":"levelo_inurba_marseille","lat":43.299222,"lon":5.365554,"is_reserved":false,"is_disabled":false,"rental_uris":{"android":"levelo://app?vid=247783db-b4b3-4b2e-9069-093a36a8af42","ios":"levelo://app?vid=247783db-b4b3-4b2e-9069-093a36a8af42"},"vehicle_type_id":"4","last_reported":1712363631,"current_range_meters":20400,"station_id":"ce4bgm92rcd13ifvqbr0","pricing_plan_id":"cebpf4jnsgd1na2vs0mg"},{"bike_id":"6ce2d514-c3b6-4522-bfd0-275031c12dcb","system_id":"levelo_inurba_marseille","lat":43.299724,"lon":5.371829,"is_reserved":false,"is_disabled":false,"rental_uris":{"android":"levelo://app?vid=6ce2d514-c3b6-4522-bfd0-275031c12dcb","ios":"levelo://app?vid=6ce2d514-c3b6-4522-bfd0-275031c12dcb"},"vehicle_type_id":"4","last_reported":1712363631,"current_range_meters":9200,"station_id":"ce4bgr92rcd13ifvqc7g","pricing_plan_id":"cebpf4jnsgd1na2vs0mg"},{"bike_id":"e5527ad5-a2f7-4cb0-9c93-89f30ddc59f5","system_id":"levelo_inurba_marseille","lat":43.299724,"lon":5.371829,"is_reserved":false,"is_disabled":false,"rental_uris":{"android":"levelo://app?vid=e5527ad5-a2f7-4cb0-9c93-89f30ddc59f5","ios":"levelo://app?vid=e5527ad5-a2f7-4cb0-9c93-89f30ddc59f5"},"vehicle_type_id":"4","last_reported":1712363631,"current_range_meters":31200,"station_id":"ce4bgr92rcd13ifvqc7g","pricing_plan_id":"cebpf4jnsgd1na2vs0mg"},{"bike_id":"164cba2b-2460-4bf3-9062-da7cc7f88235","system_id":"levelo_inurba_marseille","lat":43.298433,"lon":5.362774,"is_reserved":false,"is_disabled":false,"rental_uris":{"android":"levelo://app?vid=164cba2b-2460-4bf3-9062-da7cc7f88235","ios":"levelo://app?vid=164cba2b-2460-4bf3-9062-da7cc7f88235"},"vehicle_type_id":"4","last_reported":1712363631,"current_range_meters":19600,"station_id":"ce4bgpp2rcd13ifvqc3g","pricing_plan_id":"cebpf4jnsgd1na2vs0mg"},{"bike_id":"07951bdd-ce03-4035-bdde-20d374310512","system_id":"levelo_inurba_marseille","lat":43.298433,"lon":5.362774,"is_reserved":false,"is_disabled":false,"rental_uris":{"android":"levelo://app?vid=07951bdd-ce03-4035-bdde-20d374310512","ios":"levelo://app?vid=07951bdd-ce03-4035-bdde-20d374310512"},"vehicle_type_id":"4","last_reported":1712363631,"current_range_meters":18800,"station_id":"ce4bgpp2rcd13ifvqc3g","pricing_plan_id":"cebpf4jnsgd1na2vs0mg"},{"bike_id":"05d3c929-6781-428b-8268-0d5f17d9cb8e","system_id":"levelo_inurba_marseille","lat":43.298433,"lon":5.362774,"is_reserved":false,"is_disabled":false,"rental_uris":{"android":"levelo://app?vid=05d3c929-6781-428b-8268-0d5f17d9cb8e","ios":"levelo://app?vid=05d3c929-6781-428b-8268-0d5f17d9cb8e"},"vehicle_type_id":"4","last_reported":1712363631,"current_range_meters":27600,"station_id":"ce4bgpp2rcd13ifvqc3g","pricing_plan_id":"cebpf4jnsgd1na2vs0mg"},{"bike_id":"15862d6e-f705-4263-b432-43e13a9d01e3","system_id":"levelo_inurba_marseille","lat":43.305364,"lon":5.384119,"is_reserved":false,"is_disabled":false,"rental_uris":{"android":"levelo://app?vid=15862d6e-f705-4263-b432-43e13a9d01e3","ios":"levelo://app?vid=15862d6e-f705-4263-b432-43e13a9d01e3"},"vehicle_type_id":"4","last_reported":1712363631,"current_range_meters":18000,"station_id":"ce4bgg92rcd13ifvqb30","pricing_plan_id":"cebpf4jnsgd1na2vs0mg"},{"bike_id":"8531113d-4ea7-43d3-8042-d5edba103cc9","system_id":"levelo_inurba_marseille","lat":43.305364,"lon":5.384119,"is_reserved":false,"is_disabled":false,"rental_uris":{"android":"levelo://app?vid=8531113d-4ea7-43d3-8042-d5edba103cc9","ios":"levelo://app?vid=8531113d-4ea7-43d3-8042-d5edba103cc9"},"vehicle_type_id":"4","last_reported":1712363631,"current_range_meters":24400,"station_id":"ce4bgg92rcd13ifvqb30","pricing_plan_id":"cebpf4jnsgd1na2vs0mg"},{"bike_id":"b2c9680f-8d96-46ab-bd78-3776179a0574","system_id":"levelo_inurba_marseille","lat":43.311722,"lon":5.387247,"is_reserved":false,"is_disabled":false,"rental_uris":{"android":"levelo://app?vid=b2c9680f-8d96-46ab-bd78-3776179a0574","ios":"levelo://app?vid=b2c9680f-8d96-46ab-bd78-3776179a0574"},"vehicle_type_id":"4","last_reported":1712363631,"current_range_meters":31200,"station_id":"ce4bgv12rcd13ifvqcp0","pricing_plan_id":"cebpf4jnsgd1na2vs0mg"},{"bike_id":"2a5771ca-ceb1-4bdb-84ee-c045cb17f2fb","system_id":"levelo_inurba_marseille","lat":43.311722,"lon":5.387247,"is_reserved":false,"is_disabled":false,"rental_uris":{"android":"levelo://app?vid=2a5771ca-ceb1-4bdb-84ee-c045cb17f2fb","ios":"levelo://app?vid=2a5771ca-ceb1-4bdb-84ee-c045cb17f2fb"},"vehicle_type_id":"4","last_reported":1712363631,"current_range_meters":5200,"station_id":"ce4bgv12rcd13ifvqcp0","pricing_plan_id":"cebpf4jnsgd1na2vs0mg"},{"bike_id":"25dea2c9-cb48-47b6-8364-ed7d05d6feb4","system_id":"levelo_inurba_marseille","lat":43.311722,"lon":5.387247,"is_reserved":false,"is_disabled":false,"rental_uris":{"android":"levelo://app?vid=25dea2c9-cb48-47b6-8364-ed7d05d6feb4","ios":"levelo://app?vid=25dea2c9-cb48-47b6-8364-ed7d05d6feb4"},"vehicle_type_id":"4","last_reported":1712363631,"current_range_meters":28000,"station_id":"ce4bgv12rcd13ifvqcp0","pricing_plan_id":"cebpf4jnsgd1na2vs0mg"},{"bike_id":"5e5c8bbb-072f-431f-9220-1204bad6297e","system_id":"levelo_inurba_marseille","lat":43.311722,"lon":5.387247,"is_reserved":false,"is_disabled":false,"rental_uris":{"android":"levelo://app?vid=5e5c8bbb-072f-431f-9220-1204bad6297e","ios":"levelo://app?vid=5e5c8bbb-072f-431f-9220-1204bad6297e"},"vehicle_type_id":"4","last_reported":1712363631,"current_range_meters":13200,"station_id":"ce4bgv12rcd13ifvqcp0","pricing_plan_id":"cebpf4jnsgd1na2vs0mg"},{"bike_id":"fdfa65f9-b654-4b73-8202-f7ffe250004f","system_id":"levelo_inurba_marseille","lat":43.311722,"lon":5.387247,"is_reserved":false,"is_disabled":false,"rental_uris":{"android":"levelo://app?vid=fdfa65f9-b654-4b73-8202-f7ffe250004f","ios":"levelo://app?vid=fdfa65f9-b654-4b73-8202-f7ffe250004f"},"vehicle_type_id":"4","last_reported":1712363631,"current_range_meters":32000,"station_id":"ce4bgv12rcd13ifvqcp0","pricing_plan_id":"cebpf4jnsgd1na2vs0mg"},{"bike_id":"63f3d29b-0ed5-4289-beb6-07c9b0a30a27","system_id":"levelo_inurba_marseille","lat":43.311722,"lon":5.387247,"is_reserved":false,"is_disabled":false,"rental_uris":{"android":"levelo://app?vid=63f3d29b-0ed5-4289-beb6-07c9b0a30a27","ios":"levelo://app?vid=63f3d29b-0ed5-4289-beb6-07c9b0a30a27"},"vehicle_type_id":"4","last_reported":1712363631,"current_range_meters":10400,"station_id":"ce4bgv12rcd13ifvqcp0","pricing_plan_id":"cebpf4jnsgd1na2vs0mg"},{"bike_id":"388717df-f0b7-49d7-a3fd-0fa086f62c9e","system_id":"levelo_inurba_marseille","lat":43.311722,"lon":5.387247,"is_reserved":false,"is_disabled":false,"rental_uris":{"android":"levelo://app?vid=388717df-f0b7-49d7-a3fd-0fa086f62c9e","ios":"levelo://app?vid=388717df-f0b7-49d7-a3fd-0fa086f62c9e"},"vehicle_type_id":"4","last_reported":1712363631,"current_range_meters":16400,"station_id":"ce4bgv12rcd13ifvqcp0","pricing_plan_id":"cebpf4jnsgd1na2vs0mg"},{"bike_id":"d364f42e-612b-4fb9-81b8-518d84a4054b","system_id":"levelo_inurba_marseille","lat":43.311722,"lon":5.387247,"is_reserved":false,"is_disabled":false,"rental_uris":{"android":"levelo://app?vid=d364f42e-612b-4fb9-81b8-518d84a4054b","ios":"levelo://app?vid=d364f42e-612b-4fb9-81b8-518d84a4054b"},"vehicle_type_id":"4","last_reported":1712363631,"current_range_meters":9600,"station_id":"ce4bgv12rcd13ifvqcp0","pricing_plan_id":"cebpf4jnsgd1na2vs0mg"},{"bike_id":"e53b5c45-3b62-458a-a937-961989edf6cd","system_id":"levelo_inurba_marseille","lat":43.311722,"lon":5.387247,"is_reserved":false,"is_disabled":false,"rental_uris":{"android":"levelo://app?vid=e53b5c45-3b62-458a-a937-961989edf6cd","ios":"levelo://app?vid=e53b5c45-3b62-458a-a937-961989edf6cd"},"vehicle_type_id":"4","last_reported":1712363631,"current_range_meters":16000,"station_id":"ce4bgv12rcd13ifvqcp0","pricing_plan_id":"cebpf4jnsgd1na2vs0mg"},{"bike_id":"fc802dc6-3bc5-477d-9725-538ec84618fe","system_id":"levelo_inurba_marseille","lat":43.311722,"lon":5.387247,"is_reserved":false,"is_disabled":false,"rental_uris":{"android":"levelo://app?vid=fc802dc6-3bc5-477d-9725-538ec84618fe","ios":"levelo://app?vid=fc802dc6-3bc5-477d-9725-538ec84618fe"},"vehicle_type_id":"4","last_reported":1712363631,"current_range_meters":12000,"station_id":"ce4bgv12rcd13ifvqcp0","pricing_plan_id":"cebpf4jnsgd1na2vs0mg"},{"bike_id":"860e2982-ead7-409e-9808-1fee1d414147","system_id":"levelo_inurba_marseille","lat":43.311722,"lon":5.387247,"is_reserved":false,"is_disabled":false,"rental_uris":{"android":"levelo://app?vid=860e2982-ead7-409e-9808-1fee1d414147","ios":"levelo://app?vid=860e2982-ead7-409e-9808-1fee1d414147"},"vehicle_type_id":"4","last_reported":1712363631,"current_range_meters":22400,"station_id":"ce4bgv12rcd13ifvqcp0","pricing_plan_id":"cebpf4jnsgd1na2vs0mg"},{"bike_id":"bb8c8b80-c9b2-4bca-bb3c-ef10f43e6943","system_id":"levelo_inurba_marseille","lat":43.322872,"lon":5.382756,"is_reserved":false,"is_disabled":false,"rental_uris":{"android":"levelo://app?vid=bb8c8b80-c9b2-4bca-bb3c-ef10f43e6943","ios":"levelo://app?vid=bb8c8b80-c9b2-4bca-bb3c-ef10f43e6943"},"vehicle_type_id":"4","last_reported":1712363631,"current_range_meters":26000,"station_id":"ce4bhr12rcd13ifvqhqg","pricing_plan_id":"cebpf4jnsgd1na2vs0mg"},{"bike_id":"66e216d3-544e-4380-a719-54269952a8b8","system_id":"levelo_inurba_marseille","lat":43.322872,"lon":5.382756,"is_reserved":false,"is_disabled":false,"rental_uris":{"android":"levelo://app?vid=66e216d3-544e-4380-a719-54269952a8b8","ios":"levelo://app?vid=66e216d3-544e-4380-a719-54269952a8b8"},"vehicle_type_id":"4","last_reported":1712363631,"current_range_meters":0,"station_id":"ce4bhr12rcd13ifvqhqg","pricing_plan_id":"cebpf4jnsgd1na2vs0mg"},{"bike_id":"c78e3508-ec59-44b9-b552-66f435a0864b","system_id":"levelo_inurba_marseille","lat":43.322872,"lon":5.382756,"is_reserved":false,"is_disabled":false,"rental_uris":{"android":"levelo://app?vid=c78e3508-ec59-44b9-b552-66f435a0864b","ios":"levelo://app?vid=c78e3508-ec59-44b9-b552-66f435a0864b"},"vehicle_type_id":"4","last_reported":1712363631,"current_range_meters":31600,"station_id":"ce4bhr12rcd13ifvqhqg","pricing_plan_id":"cebpf4jnsgd1na2vs0mg"},{"bike_id":"c66a5a8f-f4a2-412f-84b8-5170b4e7c93f","system_id":"levelo_inurba_marseille","lat":43.3269,"lon":5.3749,"is_reserved":false,"is_disabled":false,"rental_uris":{"android":"levelo://app?vid=c66a5a8f-f4a2-412f-84b8-5170b4e7c93f","ios":"levelo://app?vid=c66a5a8f-f4a2-412f-84b8-5170b4e7c93f"},"vehicle_type_id":"4","last_reported":1712363631,"current_range_meters":5600,"station_id":"","pricing_plan_id":"cebpf4jnsgd1na2vs0mg"},{"bike_id":"b2eb7d4c-bb5c-472f-9d38-ea46de522cfd","system_id":"levelo_inurba_marseille","lat":43.322872,"lon":5.382756,"is_reserved":false,"is_disabled":false,"rental_uris":{"android":"levelo://app?vid=b2eb7d4c-bb5c-472f-9d38-ea46de522cfd","ios":"levelo://app?vid=b2eb7d4c-bb5c-472f-9d38-ea46de522cfd"},"vehicle_type_id":"4","last_reported":1712363631,"current_range_meters":0,"station_id":"ce4bhr12rcd13ifvqhqg","pricing_plan_id":"cebpf4jnsgd1na2vs0mg"},{"bike_id":"18651e73-a960-43da-bdae-371146c35a92","system_id":"levelo_inurba_marseille","lat":43.322872,"lon":5.382756,"is_reserved":false,"is_disabled":false,"rental_uris":{"android":"levelo://app?vid=18651e73-a960-43da-bdae-371146c35a92","ios":"levelo://app?vid=18651e73-a960-43da-bdae-371146c35a92"},"vehicle_type_id":"4","last_reported":1712363631,"current_range_meters":32000,"station_id":"ce4bhr12rcd13ifvqhqg","pricing_plan_id":"cebpf4jnsgd1na2vs0mg"},{"bike_id":"3f2835e5-a51e-4529-8eba-48f6b95ac4a9","system_id":"levelo_inurba_marseille","lat":43.322872,"lon":5.382756,"is_reserved":false,"is_disabled":false,"rental_uris":{"android":"levelo://app?vid=3f2835e5-a51e-4529-8eba-48f6b95ac4a9","ios":"levelo://app?vid=3f2835e5-a51e-4529-8eba-48f6b95ac4a9"},"vehicle_type_id":"4","last_reported":1712363631,"current_range_meters":20000,"station_id":"ce4bhr12rcd13ifvqhqg","pricing_plan_id":"cebpf4jnsgd1na2vs0mg"},{"bike_id":"45c33a70-8dce-4732-91e5-2dc515742b4e","system_id":"levelo_inurba_marseille","lat":43.322853,"lon":5.382747,"is_reserved":false,"is_disabled":false,"rental_uris":{"android":"levelo://app?vid=45c33a70-8dce-4732-91e5-2dc515742b4e","ios":"levelo://app?vid=45c33a70-8dce-4732-91e5-2dc515742b4e"},"vehicle_type_id":"4","last_reported":1712363631,"current_range_meters":0,"station_id":"ce4bhr12rcd13ifvqhqg","pricing_plan_id":"cebpf4jnsgd1na2vs0mg"},{"bike_id":"f9cbb650-aadf-49f6-a3e7-b397f3d0f9e2","system_id":"levelo_inurba_marseille","lat":43.322872,"lon":5.382756,"is_reserved":false,"is_disabled":false,"rental_uris":{"android":"levelo://app?vid=f9cbb650-aadf-49f6-a3e7-b397f3d0f9e2","ios":"levelo://app?vid=f9cbb650-aadf-49f6-a3e7-b397f3d0f9e2"},"vehicle_type_id":"4","last_reported":1712363631,"current_range_meters":9200,"station_id":"ce4bhr12rcd13ifvqhqg","pricing_plan_id":"cebpf4jnsgd1na2vs0mg"},{"bike_id":"760cbcdc-c3dd-40c6-8fa4-2b83a3911ea4","system_id":"levelo_inurba_marseille","lat":43.322872,"lon":5.382756,"is_reserved":false,"is_disabled":false,"rental_uris":{"android":"levelo://app?vid=760cbcdc-c3dd-40c6-8fa4-2b83a3911ea4","ios":"levelo://app?vid=760cbcdc-c3dd-40c6-8fa4-2b83a3911ea4"},"vehicle_type_id":"4","last_reported":1712363631,"current_range_meters":26800,"station_id":"ce4bhr12rcd13ifvqhqg","pricing_plan_id":"cebpf4jnsgd1na2vs0mg"},{"bike_id":"12868420-cd43-4d41-9cd6-9b5eadd40bbb","system_id":"levelo_inurba_marseille","lat":43.322872,"lon":5.382756,"is_reserved":false,"is_disabled":false,"rental_uris":{"android":"levelo://app?vid=12868420-cd43-4d41-9cd6-9b5eadd40bbb","ios":"levelo://app?vid=12868420-cd43-4d41-9cd6-9b5eadd40bbb"},"vehicle_type_id":"4","last_reported":1712363631,"current_range_meters":31600,"station_id":"ce4bhr12rcd13ifvqhqg","pricing_plan_id":"cebpf4jnsgd1na2vs0mg"},{"bike_id":"dad8de42-b10d-4ad4-b426-d0016e89d810","system_id":"levelo_inurba_marseille","lat":43.322861,"lon":5.382786,"is_reserved":false,"is_disabled":false,"rental_uris":{"android":"levelo://app?vid=dad8de42-b10d-4ad4-b426-d0016e89d810","ios":"levelo://app?vid=dad8de42-b10d-4ad4-b426-d0016e89d810"},"vehicle_type_id":"4","last_reported":1712363631,"current_range_meters":21200,"station_id":"ce4bhr12rcd13ifvqhqg","pricing_plan_id":"cebpf4jnsgd1na2vs0mg"},{"bike_id":"d9d0fad4-bb5e-4fd7-aa14-bc36fdd7e62b","system_id":"levelo_inurba_marseille","lat":43.32288,"lon":5.38277,"is_reserved":false,"is_disabled":false,"rental_uris":{"android":"levelo://app?vid=d9d0fad4-bb5e-4fd7-aa14-bc36fdd7e62b","ios":"levelo://app?vid=d9d0fad4-bb5e-4fd7-aa14-bc36fdd7e62b"},"vehicle_type_id":"4","last_reported":1712363631,"current_range_meters":15600,"station_id":"ce4bhr12rcd13ifvqhqg","pricing_plan_id":"cebpf4jnsgd1na2vs0mg"},{"bike_id":"a53d3985-9e33-437a-9979-77b9c3f817ac","system_id":"levelo_inurba_marseille","lat":43.322872,"lon":5.382756,"is_reserved":false,"is_disabled":false,"rental_uris":{"android":"levelo://app?vid=a53d3985-9e33-437a-9979-77b9c3f817ac","ios":"levelo://app?vid=a53d3985-9e33-437a-9979-77b9c3f817ac"},"vehicle_type_id":"4","last_reported":1712363631,"current_range_meters":10400,"station_id":"ce4bhr12rcd13ifvqhqg","pricing_plan_id":"cebpf4jnsgd1na2vs0mg"},{"bike_id":"b6b6a3d2-78ad-414e-aaee-b4a26bc4d179","system_id":"levelo_inurba_marseille","lat":43.297163,"lon":5.365866,"is_reserved":false,"is_disabled":false,"rental_uris":{"android":"levelo://app?vid=b6b6a3d2-78ad-414e-aaee-b4a26bc4d179","ios":"levelo://app?vid=b6b6a3d2-78ad-414e-aaee-b4a26bc4d179"},"vehicle_type_id":"4","last_reported":1712363631,"current_range_meters":23200,"station_id":"ce4bgn12rcd13ifvqbt0","pricing_plan_id":"cebpf4jnsgd1na2vs0mg"},{"bike_id":"0040a6d6-9968-4586-964f-d14ecab49a3c","system_id":"levelo_inurba_marseille","lat":43.297163,"lon":5.365866,"is_reserved":false,"is_disabled":false,"rental_uris":{"android":"levelo://app?vid=0040a6d6-9968-4586-964f-d14ecab49a3c","ios":"levelo://app?vid=0040a6d6-9968-4586-964f-d14ecab49a3c"},"vehicle_type_id":"4","last_reported":1712363631,"current_range_meters":19200,"station_id":"ce4bgn12rcd13ifvqbt0","pricing_plan_id":"cebpf4jnsgd1na2vs0mg"},{"bike_id":"1e6757fd-2c53-4e86-9b37-a151c6a941bf","system_id":"levelo_inurba_marseille","lat":43.2968,"lon":5.37291,"is_reserved":false,"is_disabled":false,"rental_uris":{"android":"levelo://app?vid=1e6757fd-2c53-4e86-9b37-a151c6a941bf","ios":"levelo://app?vid=1e6757fd-2c53-4e86-9b37-a151c6a941bf"},"vehicle_type_id":"4","last_reported":1712363631,"current_range_meters":6000,"station_id":"ce4bgk12rcd13ifvqbj0","pricing_plan_id":"cebpf4jnsgd1na2vs0mg"},{"bike_id":"2bd31e64-ce49-4417-8672-8ef4034632c1","system_id":"levelo_inurba_marseille","lat":43.299028,"lon":5.381509,"is_reserved":false,"is_disabled":false,"rental_uris":{"android":"levelo://app?vid=2bd31e64-ce49-4417-8672-8ef4034632c1","ios":"levelo://app?vid=2bd31e64-ce49-4417-8672-8ef4034632c1"},"vehicle_type_id":"4","last_reported":1712363631,"current_range_meters":14800,"station_id":"ce4bgj12rcd13ifvqbc0","pricing_plan_id":"cebpf4jnsgd1na2vs0mg"},{"bike_id":"f25023ed-1377-46af-ab6e-61a32cbccb70","system_id":"levelo_inurba_marseille","lat":43.309589,"lon":5.390258,"is_reserved":false,"is_disabled":false,"rental_uris":{"android":"levelo://app?vid=f25023ed-1377-46af-ab6e-61a32cbccb70","ios":"levelo://app?vid=f25023ed-1377-46af-ab6e-61a32cbccb70"},"vehicle_type_id":"4","last_reported":1712363631,"current_range_meters":29600,"station_id":"ce4bgup2rcd13ifvqco0","pricing_plan_id":"cebpf4jnsgd1na2vs0mg"},{"bike_id":"aaa0321b-b1d2-4d83-86a9-850a5848ac86","system_id":"levelo_inurba_marseille","lat":43.309589,"lon":5.390258,"is_reserved":false,"is_disabled":false,"rental_uris":{"android":"levelo://app?vid=aaa0321b-b1d2-4d83-86a9-850a5848ac86","ios":"levelo://app?vid=aaa0321b-b1d2-4d83-86a9-850a5848ac86"},"vehicle_type_id":"4","last_reported":1712363631,"current_range_meters":29200,"station_id":"ce4bgup2rcd13ifvqco0","pricing_plan_id":"cebpf4jnsgd1na2vs0mg"},{"bike_id":"6d57e68f-b1a5-4b42-b9b8-097fe9bfc8de","system_id":"levelo_inurba_marseille","lat":43.309589,"lon":5.390258,"is_reserved":false,"is_disabled":false,"rental_uris":{"android":"levelo://app?vid=6d57e68f-b1a5-4b42-b9b8-097fe9bfc8de","ios":"levelo://app?vid=6d57e68f-b1a5-4b42-b9b8-097fe9bfc8de"},"vehicle_type_id":"4","last_reported":1712363631,"current_range_meters":1600,"station_id":"ce4bgup2rcd13ifvqco0","pricing_plan_id":"cebpf4jnsgd1na2vs0mg"},{"bike_id":"6ab43d45-1f1f-40a2-8a6e-d8e6a504817a","system_id":"levelo_inurba_marseille","lat":43.309589,"lon":5.390258,"is_reserved":false,"is_disabled":false,"rental_uris":{"android":"levelo://app?vid=6ab43d45-1f1f-40a2-8a6e-d8e6a504817a","ios":"levelo://app?vid=6ab43d45-1f1f-40a2-8a6e-d8e6a504817a"},"vehicle_type_id":"4","last_reported":1712363631,"current_range_meters":5600,"station_id":"ce4bgup2rcd13ifvqco0","pricing_plan_id":"cebpf4jnsgd1na2vs0mg"},{"bike_id":"a76116d5-3118-4315-b578-e263702d9414","system_id":"levelo_inurba_marseille","lat":43.309589,"lon":5.390258,"is_reserved":false,"is_disabled":false,"rental_uris":{"android":"levelo://app?vid=a76116d5-3118-4315-b578-e263702d9414","ios":"levelo://app?vid=a76116d5-3118-4315-b578-e263702d9414"},"vehicle_type_id":"4","last_reported":1712363631,"current_range_meters":16000,"station_id":"ce4bgup2rcd13ifvqco0","pricing_plan_id":"cebpf4jnsgd1na2vs0mg"},{"bike_id":"3cedbaf8-e3f3-4121-b252-1fe9d5f4a6ca","system_id":"levelo_inurba_marseille","lat":43.309589,"lon":5.390258,"is_reserved":false,"is_disabled":false,"rental_uris":{"android":"levelo://app?vid=3cedbaf8-e3f3-4121-b252-1fe9d5f4a6ca","ios":"levelo://app?vid=3cedbaf8-e3f3-4121-b252-1fe9d5f4a6ca"},"vehicle_type_id":"4","last_reported":1712363631,"current_range_meters":3600,"station_id":"ce4bgup2rcd13ifvqco0","pricing_plan_id":"cebpf4jnsgd1na2vs0mg"},{"bike_id":"bca04169-0c29-49c7-aa9b-aaadecdb1b93","system_id":"levelo_inurba_marseille","lat":43.309589,"lon":5.390258,"is_reserved":false,"is_disabled":false,"rental_uris":{"android":"levelo://app?vid=bca04169-0c29-49c7-aa9b-aaadecdb1b93","ios":"levelo://app?vid=bca04169-0c29-49c7-aa9b-aaadecdb1b93"},"vehicle_type_id":"4","last_reported":1712363631,"current_range_meters":10400,"station_id":"ce4bgup2rcd13ifvqco0","pricing_plan_id":"cebpf4jnsgd1na2vs0mg"},{"bike_id":"21eadeac-def1-4b3d-b235-f4703c95938d","system_id":"levelo_inurba_marseille","lat":43.309589,"lon":5.390258,"is_reserved":false,"is_disabled":false,"rental_uris":{"android":"levelo://app?vid=21eadeac-def1-4b3d-b235-f4703c95938d","ios":"levelo://app?vid=21eadeac-def1-4b3d-b235-f4703c95938d"},"vehicle_type_id":"4","last_reported":1712363631,"current_range_meters":7200,"station_id":"ce4bgup2rcd13ifvqco0","pricing_plan_id":"cebpf4jnsgd1na2vs0mg"},{"bike_id":"bd895076-86cc-4d34-86ac-db0b2a281fe6","system_id":"levelo_inurba_marseille","lat":43.309589,"lon":5.390258,"is_reserved":false,"is_disabled":false,"rental_uris":{"android":"levelo://app?vid=bd895076-86cc-4d34-86ac-db0b2a281fe6","ios":"levelo://app?vid=bd895076-86cc-4d34-86ac-db0b2a281fe6"},"vehicle_type_id":"4","last_reported":1712363631,"current_range_meters":0,"station_id":"ce4bgup2rcd13ifvqco0","pricing_plan_id":"cebpf4jnsgd1na2vs0mg"},{"bike_id":"7631a06e-3168-4875-901e-5a5b8a217319","system_id":"levelo_inurba_marseille","lat":43.309589,"lon":5.390258,"is_reserved":false,"is_disabled":false,"rental_uris":{"android":"levelo://app?vid=7631a06e-3168-4875-901e-5a5b8a217319","ios":"levelo://app?vid=7631a06e-3168-4875-901e-5a5b8a217319"},"vehicle_type_id":"4","last_reported":1712363631,"current_range_meters":24400,"station_id":"ce4bgup2rcd13ifvqco0","pricing_plan_id":"cebpf4jnsgd1na2vs0mg"},{"bike_id":"e79b7eb1-ce79-4b83-8956-a6e5641ec288","system_id":"levelo_inurba_marseille","lat":43.299028,"lon":5.381509,"is_reserved":false,"is_disabled":false,"rental_uris":{"android":"levelo://app?vid=e79b7eb1-ce79-4b83-8956-a6e5641ec288","ios":"levelo://app?vid=e79b7eb1-ce79-4b83-8956-a6e5641ec288"},"vehicle_type_id":"4","last_reported":1712363631,"current_range_meters":0,"station_id":"ce4bgj12rcd13ifvqbc0","pricing_plan_id":"cebpf4jnsgd1na2vs0mg"},{"bike_id":"cd08e694-9cba-48c4-b519-76e2466cebbf","system_id":"levelo_inurba_marseille","lat":43.309589,"lon":5.390258,"is_reserved":false,"is_disabled":false,"rental_uris":{"android":"levelo://app?vid=cd08e694-9cba-48c4-b519-76e2466cebbf","ios":"levelo://app?vid=cd08e694-9cba-48c4-b519-76e2466cebbf"},"vehicle_type_id":"4","last_reported":1712363631,"current_range_meters":1200,"station_id":"ce4bgup2rcd13ifvqco0","pricing_plan_id":"cebpf4jnsgd1na2vs0mg"},{"bike_id":"388aadf4-2186-4c44-99c1-2ab5b3bbed2a","system_id":"levelo_inurba_marseille","lat":43.309589,"lon":5.390258,"is_reserved":false,"is_disabled":false,"rental_uris":{"android":"levelo://app?vid=388aadf4-2186-4c44-99c1-2ab5b3bbed2a","ios":"levelo://app?vid=388aadf4-2186-4c44-99c1-2ab5b3bbed2a"},"vehicle_type_id":"4","last_reported":1712363631,"current_range_meters":6000,"station_id":"ce4bgup2rcd13ifvqco0","pricing_plan_id":"cebpf4jnsgd1na2vs0mg"},{"bike_id":"605b1fad-b763-4937-8803-df509f1344e9","system_id":"levelo_inurba_marseille","lat":43.309589,"lon":5.390258,"is_reserved":false,"is_disabled":false,"rental_uris":{"android":"levelo://app?vid=605b1fad-b763-4937-8803-df509f1344e9","ios":"levelo://app?vid=605b1fad-b763-4937-8803-df509f1344e9"},"vehicle_type_id":"4","last_reported":1712363631,"current_range_meters":31600,"station_id":"ce4bgup2rcd13ifvqco0","pricing_plan_id":"cebpf4jnsgd1na2vs0mg"},{"bike_id":"e9742233-36fc-42ea-b089-91990a4e6103","system_id":"levelo_inurba_marseille","lat":43.309589,"lon":5.390258,"is_reserved":false,"is_disabled":false,"rental_uris":{"android":"levelo://app?vid=e9742233-36fc-42ea-b089-91990a4e6103","ios":"levelo://app?vid=e9742233-36fc-42ea-b089-91990a4e6103"},"vehicle_type_id":"4","last_reported":1712363631,"current_range_meters":32000,"station_id":"ce4bgup2rcd13ifvqco0","pricing_plan_id":"cebpf4jnsgd1na2vs0mg"},{"bike_id":"7e24c502-7faa-4a64-97df-c3e51f562848","system_id":"levelo_inurba_marseille","lat":43.309589,"lon":5.390258,"is_reserved":false,"is_disabled":false,"rental_uris":{"android":"levelo://app?vid=7e24c502-7faa-4a64-97df-c3e51f562848","ios":"levelo://app?vid=7e24c502-7faa-4a64-97df-c3e51f562848"},"vehicle_type_id":"4","last_reported":1712363631,"current_range_meters":0,"station_id":"ce4bgup2rcd13ifvqco0","pricing_plan_id":"cebpf4jnsgd1na2vs0mg"},{"bike_id":"47502f90-311e-4214-88f4-1fd40e7728b7","system_id":"levelo_inurba_marseille","lat":43.309474,"lon":5.390422,"is_reserved":false,"is_disabled":false,"rental_uris":{"android":"levelo://app?vid=47502f90-311e-4214-88f4-1fd40e7728b7","ios":"levelo://app?vid=47502f90-311e-4214-88f4-1fd40e7728b7"},"vehicle_type_id":"4","last_reported":1712363631,"current_range_meters":29200,"station_id":"ce4bgup2rcd13ifvqco0","pricing_plan_id":"cebpf4jnsgd1na2vs0mg"},{"bike_id":"a654fbb7-9df8-44f7-93df-0f3f783e924c","system_id":"levelo_inurba_marseille","lat":43.309589,"lon":5.390258,"is_reserved":false,"is_disabled":false,"rental_uris":{"android":"levelo://app?vid=a654fbb7-9df8-44f7-93df-0f3f783e924c","ios":"levelo://app?vid=a654fbb7-9df8-44f7-93df-0f3f783e924c"},"vehicle_type_id":"4","last_reported":1712363631,"current_range_meters":26400,"station_id":"ce4bgup2rcd13ifvqco0","pricing_plan_id":"cebpf4jnsgd1na2vs0mg"},{"bike_id":"f9c78686-14a1-4c05-b257-0ec3b7cb48b5","system_id":"levelo_inurba_marseille","lat":43.30948,"lon":5.39046,"is_reserved":false,"is_disabled":false,"rental_uris":{"android":"levelo://app?vid=f9c78686-14a1-4c05-b257-0ec3b7cb48b5","ios":"levelo://app?vid=f9c78686-14a1-4c05-b257-0ec3b7cb48b5"},"vehicle_type_id":"4","last_reported":1712363631,"current_range_meters":4800,"station_id":"ce4bgup2rcd13ifvqco0","pricing_plan_id":"cebpf4jnsgd1na2vs0mg"},{"bike_id":"ac1de87b-be91-44d6-b423-b8ba8d8dd700","system_id":"levelo_inurba_marseille","lat":43.309589,"lon":5.390258,"is_reserved":false,"is_disabled":false,"rental_uris":{"android":"levelo://app?vid=ac1de87b-be91-44d6-b423-b8ba8d8dd700","ios":"levelo://app?vid=ac1de87b-be91-44d6-b423-b8ba8d8dd700"},"vehicle_type_id":"4","last_reported":1712363631,"current_range_meters":20000,"station_id":"ce4bgup2rcd13ifvqco0","pricing_plan_id":"cebpf4jnsgd1na2vs0mg"},{"bike_id":"0511a36b-09f5-4afa-ac89-0ef75f9d5ed5","system_id":"levelo_inurba_marseille","lat":43.309589,"lon":5.390258,"is_reserved":false,"is_disabled":false,"rental_uris":{"android":"levelo://app?vid=0511a36b-09f5-4afa-ac89-0ef75f9d5ed5","ios":"levelo://app?vid=0511a36b-09f5-4afa-ac89-0ef75f9d5ed5"},"vehicle_type_id":"4","last_reported":1712363631,"current_range_meters":1200,"station_id":"ce4bgup2rcd13ifvqco0","pricing_plan_id":"cebpf4jnsgd1na2vs0mg"},{"bike_id":"a1fdf148-3717-4d97-b5cb-035d8786778c","system_id":"levelo_inurba_marseille","lat":43.317557,"lon":5.390173,"is_reserved":false,"is_disabled":false,"rental_uris":{"android":"levelo://app?vid=a1fdf148-3717-4d97-b5cb-035d8786778c","ios":"levelo://app?vid=a1fdf148-3717-4d97-b5cb-035d8786778c"},"vehicle_type_id":"4","last_reported":1712363631,"current_range_meters":27600,"station_id":"ce4bhqp2rcd13ifvqhng","pricing_plan_id":"cebpf4jnsgd1na2vs0mg"},{"bike_id":"66921706-a7a6-450b-b430-8ab35ac59c36","system_id":"levelo_inurba_marseille","lat":43.317557,"lon":5.390173,"is_reserved":false,"is_disabled":false,"rental_uris":{"android":"levelo://app?vid=66921706-a7a6-450b-b430-8ab35ac59c36","ios":"levelo://app?vid=66921706-a7a6-450b-b430-8ab35ac59c36"},"vehicle_type_id":"4","last_reported":1712363631,"current_range_meters":29200,"station_id":"ce4bhqp2rcd13ifvqhng","pricing_plan_id":"cebpf4jnsgd1na2vs0mg"},{"bike_id":"9ee8775b-3245-4620-9bb3-c5b57bc94d6e","system_id":"levelo_inurba_marseille","lat":43.317557,"lon":5.390173,"is_reserved":false,"is_disabled":false,"rental_uris":{"android":"levelo://app?vid=9ee8775b-3245-4620-9bb3-c5b57bc94d6e","ios":"levelo://app?vid=9ee8775b-3245-4620-9bb3-c5b57bc94d6e"},"vehicle_type_id":"4","last_reported":1712363631,"current_range_meters":18400,"station_id":"ce4bhqp2rcd13ifvqhng","pricing_plan_id":"cebpf4jnsgd1na2vs0mg"},{"bike_id":"44f80d7c-3720-4dc5-b9cd-289d31426774","system_id":"levelo_inurba_marseille","lat":43.31491,"lon":5.39131,"is_reserved":false,"is_disabled":false,"rental_uris":{"android":"levelo://app?vid=44f80d7c-3720-4dc5-b9cd-289d31426774","ios":"levelo://app?vid=44f80d7c-3720-4dc5-b9cd-289d31426774"},"vehicle_type_id":"4","last_reported":1712363631,"current_range_meters":4000,"station_id":"","pricing_plan_id":"cebpf4jnsgd1na2vs0mg"},{"bike_id":"550665d6-5b7a-4999-bf6d-3e0273de1305","system_id":"levelo_inurba_marseille","lat":43.304274,"lon":5.388873,"is_reserved":false,"is_disabled":false,"rental_uris":{"android":"levelo://app?vid=550665d6-5b7a-4999-bf6d-3e0273de1305","ios":"levelo://app?vid=550665d6-5b7a-4999-bf6d-3e0273de1305"},"vehicle_type_id":"4","last_reported":1712363631,"current_range_meters":13600,"station_id":"ce4bgk12rcd13ifvqbi0","pricing_plan_id":"cebpf4jnsgd1na2vs0mg"},{"bike_id":"bd01601b-8455-4060-9635-b3fdccbb6c29","system_id":"levelo_inurba_marseille","lat":43.304274,"lon":5.388873,"is_reserved":false,"is_disabled":false,"rental_uris":{"android":"levelo://app?vid=bd01601b-8455-4060-9635-b3fdccbb6c29","ios":"levelo://app?vid=bd01601b-8455-4060-9635-b3fdccbb6c29"},"vehicle_type_id":"4","last_reported":1712363631,"current_range_meters":27200,"station_id":"ce4bgk12rcd13ifvqbi0","pricing_plan_id":"cebpf4jnsgd1na2vs0mg"},{"bike_id":"4c632a8b-1353-4a6e-8b11-c68b18c10975","system_id":"levelo_inurba_marseille","lat":43.30435,"lon":5.3889,"is_reserved":false,"is_disabled":false,"rental_uris":{"android":"levelo://app?vid=4c632a8b-1353-4a6e-8b11-c68b18c10975","ios":"levelo://app?vid=4c632a8b-1353-4a6e-8b11-c68b18c10975"},"vehicle_type_id":"4","last_reported":1712363631,"current_range_meters":5200,"station_id":"ce4bgk12rcd13ifvqbi0","pricing_plan_id":"cebpf4jnsgd1na2vs0mg"},{"bike_id":"24354daf-f843-4fe0-ad40-2f1fb87cda27","system_id":"levelo_inurba_marseille","lat":43.304274,"lon":5.388873,"is_reserved":false,"is_disabled":false,"rental_uris":{"android":"levelo://app?vid=24354daf-f843-4fe0-ad40-2f1fb87cda27","ios":"levelo://app?vid=24354daf-f843-4fe0-ad40-2f1fb87cda27"},"vehicle_type_id":"4","last_reported":1712363631,"current_range_meters":13200,"station_id":"ce4bgk12rcd13ifvqbi0","pricing_plan_id":"cebpf4jnsgd1na2vs0mg"},{"bike_id":"dea7ff4f-3391-43db-976f-d9692ae0b35b","system_id":"levelo_inurba_marseille","lat":43.279742,"lon":5.38744,"is_reserved":false,"is_disabled":false,"rental_uris":{"android":"levelo://app?vid=dea7ff4f-3391-43db-976f-d9692ae0b35b","ios":"levelo://app?vid=dea7ff4f-3391-43db-976f-d9692ae0b35b"},"vehicle_type_id":"4","last_reported":1712363631,"current_range_meters":0,"station_id":"ce4bhg12rcd13ifvqf80","pricing_plan_id":"cebpf4jnsgd1na2vs0mg"},{"bike_id":"baae1be4-0c8c-4753-a644-48d0e5f92639","system_id":"levelo_inurba_marseille","lat":43.29547,"lon":5.37508,"is_reserved":false,"is_disabled":false,"rental_uris":{"android":"levelo://app?vid=baae1be4-0c8c-4753-a644-48d0e5f92639","ios":"levelo://app?vid=baae1be4-0c8c-4753-a644-48d0e5f92639"},"vehicle_type_id":"4","last_reported":1712363631,"current_range_meters":0,"station_id":"ce4bgkp2rcd13ifvqbmg","pricing_plan_id":"cebpf4jnsgd1na2vs0mg"},{"bike_id":"9c4a54f0-2f25-4557-866a-74c88aaeb320","system_id":"levelo_inurba_marseille","lat":43.2953,"lon":5.375,"is_reserved":false,"is_disabled":false,"rental_uris":{"android":"levelo://app?vid=9c4a54f0-2f25-4557-866a-74c88aaeb320","ios":"levelo://app?vid=9c4a54f0-2f25-4557-866a-74c88aaeb320"},"vehicle_type_id":"4","last_reported":1712363631,"current_range_meters":24400,"station_id":"ce4bgkp2rcd13ifvqbmg","pricing_plan_id":"cebpf4jnsgd1na2vs0mg"},{"bike_id":"139abdc4-cf94-49f0-9bd8-7a44f11f1558","system_id":"levelo_inurba_marseille","lat":43.299707,"lon":5.384859,"is_reserved":false,"is_disabled":false,"rental_uris":{"android":"levelo://app?vid=139abdc4-cf94-49f0-9bd8-7a44f11f1558","ios":"levelo://app?vid=139abdc4-cf94-49f0-9bd8-7a44f11f1558"},"vehicle_type_id":"4","last_reported":1712363631,"current_range_meters":0,"station_id":"ce4bgj92rcd13ifvqbd0","pricing_plan_id":"cebpf4jnsgd1na2vs0mg"},{"bike_id":"7a246193-39e5-4453-84ec-705b499e5dc8","system_id":"levelo_inurba_marseille","lat":43.29528,"lon":5.37499,"is_reserved":false,"is_disabled":false,"rental_uris":{"android":"levelo://app?vid=7a246193-39e5-4453-84ec-705b499e5dc8","ios":"levelo://app?vid=7a246193-39e5-4453-84ec-705b499e5dc8"},"vehicle_type_id":"4","last_reported":1712363631,"current_range_meters":4400,"station_id":"ce4bgkp2rcd13ifvqbmg","pricing_plan_id":"cebpf4jnsgd1na2vs0mg"},{"bike_id":"a0cc15ff-68f8-4f5b-b623-6a163d8248de","system_id":"levelo_inurba_marseille","lat":43.29526,"lon":5.37503,"is_reserved":false,"is_disabled":false,"rental_uris":{"android":"levelo://app?vid=a0cc15ff-68f8-4f5b-b623-6a163d8248de","ios":"levelo://app?vid=a0cc15ff-68f8-4f5b-b623-6a163d8248de"},"vehicle_type_id":"4","last_reported":1712363631,"current_range_meters":0,"station_id":"ce4bgkp2rcd13ifvqbmg","pricing_plan_id":"cebpf4jnsgd1na2vs0mg"},{"bike_id":"c5ed90dd-85d0-4191-b4fa-f5b81de4b1cc","system_id":"levelo_inurba_marseille","lat":43.32365,"lon":5.38866,"is_reserved":false,"is_disabled":false,"rental_uris":{"android":"levelo://app?vid=c5ed90dd-85d0-4191-b4fa-f5b81de4b1cc","ios":"levelo://app?vid=c5ed90dd-85d0-4191-b4fa-f5b81de4b1cc"},"vehicle_type_id":"4","last_reported":1712363631,"current_range_meters":4800,"station_id":"ce4bhqp2rcd13ifvqhog","pricing_plan_id":"cebpf4jnsgd1na2vs0mg"},{"bike_id":"941a5afb-594d-47ec-8c61-fec50f33c0ee","system_id":"levelo_inurba_marseille","lat":43.32366,"lon":5.38881,"is_reserved":false,"is_disabled":false,"rental_uris":{"android":"levelo://app?vid=941a5afb-594d-47ec-8c61-fec50f33c0ee","ios":"levelo://app?vid=941a5afb-594d-47ec-8c61-fec50f33c0ee"},"vehicle_type_id":"4","last_reported":1712363631,"current_range_meters":0,"station_id":"ce4bhqp2rcd13ifvqhog","pricing_plan_id":"cebpf4jnsgd1na2vs0mg"},{"bike_id":"19a778c6-84de-43b4-9ee5-617e57525e2c","system_id":"levelo_inurba_marseille","lat":43.32365,"lon":5.38882,"is_reserved":false,"is_disabled":false,"rental_uris":{"android":"levelo://app?vid=19a778c6-84de-43b4-9ee5-617e57525e2c","ios":"levelo://app?vid=19a778c6-84de-43b4-9ee5-617e57525e2c"},"vehicle_type_id":"4","last_reported":1712363631,"current_range_meters":0,"station_id":"ce4bhqp2rcd13ifvqhog","pricing_plan_id":"cebpf4jnsgd1na2vs0mg"},{"bike_id":"c4433137-a155-4c9c-92fd-007eb25cafce","system_id":"levelo_inurba_marseille","lat":43.32365,"lon":5.38882,"is_reserved":false,"is_disabled":false,"rental_uris":{"android":"levelo://app?vid=c4433137-a155-4c9c-92fd-007eb25cafce","ios":"levelo://app?vid=c4433137-a155-4c9c-92fd-007eb25cafce"},"vehicle_type_id":"4","last_reported":1712363631,"current_range_meters":0,"station_id":"ce4bhqp2rcd13ifvqhog","pricing_plan_id":"cebpf4jnsgd1na2vs0mg"},{"bike_id":"987d0676-a1cb-45c3-ab53-3afb80b2673b","system_id":"levelo_inurba_marseille","lat":43.32367,"lon":5.388836,"is_reserved":false,"is_disabled":false,"rental_uris":{"android":"levelo://app?vid=987d0676-a1cb-45c3-ab53-3afb80b2673b","ios":"levelo://app?vid=987d0676-a1cb-45c3-ab53-3afb80b2673b"},"vehicle_type_id":"4","last_reported":1712363631,"current_range_meters":10800,"station_id":"ce4bhqp2rcd13ifvqhog","pricing_plan_id":"cebpf4jnsgd1na2vs0mg"},{"bike_id":"6d8769bb-1db6-4d70-bcd3-ab8ccccf851e","system_id":"levelo_inurba_marseille","lat":43.32365,"lon":5.38887,"is_reserved":false,"is_disabled":false,"rental_uris":{"android":"levelo://app?vid=6d8769bb-1db6-4d70-bcd3-ab8ccccf851e","ios":"levelo://app?vid=6d8769bb-1db6-4d70-bcd3-ab8ccccf851e"},"vehicle_type_id":"4","last_reported":1712363631,"current_range_meters":15600,"station_id":"ce4bhqp2rcd13ifvqhog","pricing_plan_id":"cebpf4jnsgd1na2vs0mg"},{"bike_id":"82ffb106-2f33-4466-87f2-62f79a6f7e84","system_id":"levelo_inurba_marseille","lat":43.32368,"lon":5.38885,"is_reserved":false,"is_disabled":false,"rental_uris":{"android":"levelo://app?vid=82ffb106-2f33-4466-87f2-62f79a6f7e84","ios":"levelo://app?vid=82ffb106-2f33-4466-87f2-62f79a6f7e84"},"vehicle_type_id":"4","last_reported":1712363631,"current_range_meters":11200,"station_id":"ce4bhqp2rcd13ifvqhog","pricing_plan_id":"cebpf4jnsgd1na2vs0mg"},{"bike_id":"ca489e1a-76bb-408d-a414-6afa997460b0","system_id":"levelo_inurba_marseille","lat":43.32365,"lon":5.38889,"is_reserved":false,"is_disabled":false,"rental_uris":{"android":"levelo://app?vid=ca489e1a-76bb-408d-a414-6afa997460b0","ios":"levelo://app?vid=ca489e1a-76bb-408d-a414-6afa997460b0"},"vehicle_type_id":"4","last_reported":1712363631,"current_range_meters":0,"station_id":"ce4bhqp2rcd13ifvqhog","pricing_plan_id":"cebpf4jnsgd1na2vs0mg"},{"bike_id":"cd93fb89-8201-4e6f-a051-31d7e592475f","system_id":"levelo_inurba_marseille","lat":43.32371,"lon":5.38884,"is_reserved":false,"is_disabled":false,"rental_uris":{"android":"levelo://app?vid=cd93fb89-8201-4e6f-a051-31d7e592475f","ios":"levelo://app?vid=cd93fb89-8201-4e6f-a051-31d7e592475f"},"vehicle_type_id":"4","last_reported":1712363631,"current_range_meters":19200,"station_id":"ce4bhqp2rcd13ifvqhog","pricing_plan_id":"cebpf4jnsgd1na2vs0mg"},{"bike_id":"41405296-cc57-4517-995e-a1d8f1fd6e67","system_id":"levelo_inurba_marseille","lat":43.32367,"lon":5.388836,"is_reserved":false,"is_disabled":false,"rental_uris":{"android":"levelo://app?vid=41405296-cc57-4517-995e-a1d8f1fd6e67","ios":"levelo://app?vid=41405296-cc57-4517-995e-a1d8f1fd6e67"},"vehicle_type_id":"4","last_reported":1712363631,"current_range_meters":0,"station_id":"ce4bhqp2rcd13ifvqhog","pricing_plan_id":"cebpf4jnsgd1na2vs0mg"},{"bike_id":"e63e4616-1c2b-438d-a494-bf0ec9ad537f","system_id":"levelo_inurba_marseille","lat":43.29304,"lon":5.37444,"is_reserved":false,"is_disabled":false,"rental_uris":{"android":"levelo://app?vid=e63e4616-1c2b-438d-a494-bf0ec9ad537f","ios":"levelo://app?vid=e63e4616-1c2b-438d-a494-bf0ec9ad537f"},"vehicle_type_id":"4","last_reported":1712363631,"current_range_meters":15200,"station_id":"","pricing_plan_id":"cebpf4jnsgd1na2vs0mg"},{"bike_id":"7991b26f-08e1-4179-a718-ba0c52332cf8","system_id":"levelo_inurba_marseille","lat":43.292316,"lon":5.368472,"is_reserved":false,"is_disabled":false,"rental_uris":{"android":"levelo://app?vid=7991b26f-08e1-4179-a718-ba0c52332cf8","ios":"levelo://app?vid=7991b26f-08e1-4179-a718-ba0c52332cf8"},"vehicle_type_id":"4","last_reported":1712363631,"current_range_meters":9600,"station_id":"ce4bhbp2rcd13ifvqesg","pricing_plan_id":"cebpf4jnsgd1na2vs0mg"},{"bike_id":"7a90f0d5-5b88-4ce8-8517-adcb3d25a46e","system_id":"levelo_inurba_marseille","lat":43.30602,"lon":5.3935,"is_reserved":false,"is_disabled":false,"rental_uris":{"android":"levelo://app?vid=7a90f0d5-5b88-4ce8-8517-adcb3d25a46e","ios":"levelo://app?vid=7a90f0d5-5b88-4ce8-8517-adcb3d25a46e"},"vehicle_type_id":"4","last_reported":1712363631,"current_range_meters":1600,"station_id":"ce4bh0p2rcd13ifvqd80","pricing_plan_id":"cebpf4jnsgd1na2vs0mg"},{"bike_id":"f7e351da-434a-49a7-bbf5-2a9e215ccd16","system_id":"levelo_inurba_marseille","lat":43.305994,"lon":5.393687,"is_reserved":false,"is_disabled":false,"rental_uris":{"android":"levelo://app?vid=f7e351da-434a-49a7-bbf5-2a9e215ccd16","ios":"levelo://app?vid=f7e351da-434a-49a7-bbf5-2a9e215ccd16"},"vehicle_type_id":"4","last_reported":1712363631,"current_range_meters":25200,"station_id":"ce4bh0p2rcd13ifvqd80","pricing_plan_id":"cebpf4jnsgd1na2vs0mg"},{"bike_id":"5a43c520-fa89-43ce-9885-e7b2b959e9bd","system_id":"levelo_inurba_marseille","lat":43.305994,"lon":5.393687,"is_reserved":false,"is_disabled":false,"rental_uris":{"android":"levelo://app?vid=5a43c520-fa89-43ce-9885-e7b2b959e9bd","ios":"levelo://app?vid=5a43c520-fa89-43ce-9885-e7b2b959e9bd"},"vehicle_type_id":"4","last_reported":1712363631,"current_range_meters":400,"station_id":"ce4bh0p2rcd13ifvqd80","pricing_plan_id":"cebpf4jnsgd1na2vs0mg"},{"bike_id":"f232e5a6-0b33-4141-ab21-77b4407083c4","system_id":"levelo_inurba_marseille","lat":43.305994,"lon":5.393687,"is_reserved":false,"is_disabled":false,"rental_uris":{"android":"levelo://app?vid=f232e5a6-0b33-4141-ab21-77b4407083c4","ios":"levelo://app?vid=f232e5a6-0b33-4141-ab21-77b4407083c4"},"vehicle_type_id":"4","last_reported":1712363631,"current_range_meters":7600,"station_id":"ce4bh0p2rcd13ifvqd80","pricing_plan_id":"cebpf4jnsgd1na2vs0mg"},{"bike_id":"812fb362-be5a-4465-97c0-fe92bf264de8","system_id":"levelo_inurba_marseille","lat":43.305994,"lon":5.393687,"is_reserved":false,"is_disabled":false,"rental_uris":{"android":"levelo://app?vid=812fb362-be5a-4465-97c0-fe92bf264de8","ios":"levelo://app?vid=812fb362-be5a-4465-97c0-fe92bf264de8"},"vehicle_type_id":"4","last_reported":1712363631,"current_range_meters":15200,"station_id":"ce4bh0p2rcd13ifvqd80","pricing_plan_id":"cebpf4jnsgd1na2vs0mg"},{"bike_id":"b33a8319-daf5-42fa-ac9a-11f58a5ca5d9","system_id":"levelo_inurba_marseille","lat":43.302992,"lon":5.392136,"is_reserved":false,"is_disabled":false,"rental_uris":{"android":"levelo://app?vid=b33a8319-daf5-42fa-ac9a-11f58a5ca5d9","ios":"levelo://app?vid=b33a8319-daf5-42fa-ac9a-11f58a5ca5d9"},"vehicle_type_id":"4","last_reported":1712363631,"current_range_meters":24800,"station_id":"ce4bgkh2rcd13ifvqbk0","pricing_plan_id":"cebpf4jnsgd1na2vs0mg"},{"bike_id":"2886e705-66e9-4788-887e-086aa2419d3c","system_id":"levelo_inurba_marseille","lat":43.29224,"lon":5.36067,"is_reserved":false,"is_disabled":false,"rental_uris":{"android":"levelo://app?vid=2886e705-66e9-4788-887e-086aa2419d3c","ios":"levelo://app?vid=2886e705-66e9-4788-887e-086aa2419d3c"},"vehicle_type_id":"4","last_reported":1712363631,"current_range_meters":22000,"station_id":"ce4bhbh2rcd13ifvqeqg","pricing_plan_id":"cebpf4jnsgd1na2vs0mg"},{"bike_id":"d55b600a-26a5-40c6-af3c-283408b639ae","system_id":"levelo_inurba_marseille","lat":43.29224,"lon":5.36047,"is_reserved":false,"is_disabled":false,"rental_uris":{"android":"levelo://app?vid=d55b600a-26a5-40c6-af3c-283408b639ae","ios":"levelo://app?vid=d55b600a-26a5-40c6-af3c-283408b639ae"},"vehicle_type_id":"4","last_reported":1712363631,"current_range_meters":23200,"station_id":"","pricing_plan_id":"cebpf4jnsgd1na2vs0mg"},{"bike_id":"f41803ea-7427-4a1c-b7ba-9cf78335dde4","system_id":"levelo_inurba_marseille","lat":43.30085,"lon":5.390856,"is_reserved":false,"is_disabled":false,"rental_uris":{"android":"levelo://app?vid=f41803ea-7427-4a1c-b7ba-9cf78335dde4","ios":"levelo://app?vid=f41803ea-7427-4a1c-b7ba-9cf78335dde4"},"vehicle_type_id":"4","last_reported":1712363631,"current_range_meters":20400,"station_id":"ce4bh192rcd13ifvqdb0","pricing_plan_id":"cebpf4jnsgd1na2vs0mg"},{"bike_id":"61d15f2e-64e0-44d0-8f4b-614e8f1d7d51","system_id":"levelo_inurba_marseille","lat":43.292311,"lon":5.360731,"is_reserved":false,"is_disabled":false,"rental_uris":{"android":"levelo://app?vid=61d15f2e-64e0-44d0-8f4b-614e8f1d7d51","ios":"levelo://app?vid=61d15f2e-64e0-44d0-8f4b-614e8f1d7d51"},"vehicle_type_id":"4","last_reported":1712363631,"current_range_meters":22800,"station_id":"ce4bhbh2rcd13ifvqeqg","pricing_plan_id":"cebpf4jnsgd1na2vs0mg"},{"bike_id":"c111834c-9aac-4e64-bd39-7346c5d5dde6","system_id":"levelo_inurba_marseille","lat":43.29218,"lon":5.36053,"is_reserved":false,"is_disabled":false,"rental_uris":{"android":"levelo://app?vid=c111834c-9aac-4e64-bd39-7346c5d5dde6","ios":"levelo://app?vid=c111834c-9aac-4e64-bd39-7346c5d5dde6"},"vehicle_type_id":"4","last_reported":1712363631,"current_range_meters":23600,"station_id":"ce4bhbh2rcd13ifvqeqg","pricing_plan_id":"cebpf4jnsgd1na2vs0mg"},{"bike_id":"630c58fc-ad9e-4e39-837f-598332304584","system_id":"levelo_inurba_marseille","lat":43.298764,"lon":5.388973,"is_reserved":false,"is_disabled":false,"rental_uris":{"android":"levelo://app?vid=630c58fc-ad9e-4e39-837f-598332304584","ios":"levelo://app?vid=630c58fc-ad9e-4e39-837f-598332304584"},"vehicle_type_id":"4","last_reported":1712363631,"current_range_meters":0,"station_id":"ce4bh392rcd13ifvqdl0","pricing_plan_id":"cebpf4jnsgd1na2vs0mg"},{"bike_id":"72e02ce4-2be2-4a26-9331-758390544009","system_id":"levelo_inurba_marseille","lat":43.309038,"lon":5.396546,"is_reserved":false,"is_disabled":false,"rental_uris":{"android":"levelo://app?vid=72e02ce4-2be2-4a26-9331-758390544009","ios":"levelo://app?vid=72e02ce4-2be2-4a26-9331-758390544009"},"vehicle_type_id":"4","last_reported":1712363631,"current_range_meters":17600,"station_id":"ce4bh012rcd13ifvqcv0","pricing_plan_id":"cebpf4jnsgd1na2vs0mg"},{"bike_id":"423b1614-48e5-4d06-8664-340917897482","system_id":"levelo_inurba_marseille","lat":43.292021,"lon":5.357945,"is_reserved":false,"is_disabled":false,"rental_uris":{"android":"levelo://app?vid=423b1614-48e5-4d06-8664-340917897482","ios":"levelo://app?vid=423b1614-48e5-4d06-8664-340917897482"},"vehicle_type_id":"4","last_reported":1712363631,"current_range_meters":28800,"station_id":"ce4bhb12rcd13ifvqel0","pricing_plan_id":"cebpf4jnsgd1na2vs0mg"},{"bike_id":"6e7550bc-7dd3-4c5e-baab-797b1c3d9478","system_id":"levelo_inurba_marseille","lat":43.309038,"lon":5.396546,"is_reserved":false,"is_disabled":false,"rental_uris":{"android":"levelo://app?vid=6e7550bc-7dd3-4c5e-baab-797b1c3d9478","ios":"levelo://app?vid=6e7550bc-7dd3-4c5e-baab-797b1c3d9478"},"vehicle_type_id":"4","last_reported":1712363631,"current_range_meters":0,"station_id":"ce4bh012rcd13ifvqcv0","pricing_plan_id":"cebpf4jnsgd1na2vs0mg"},{"bike_id":"7019b86d-4402-4fbe-89e8-b6fd78f8f739","system_id":"levelo_inurba_marseille","lat":43.30886,"lon":5.39634,"is_reserved":false,"is_disabled":false,"rental_uris":{"android":"levelo://app?vid=7019b86d-4402-4fbe-89e8-b6fd78f8f739","ios":"levelo://app?vid=7019b86d-4402-4fbe-89e8-b6fd78f8f739"},"vehicle_type_id":"4","last_reported":1712363631,"current_range_meters":7200,"station_id":"ce4bh012rcd13ifvqcv0","pricing_plan_id":"cebpf4jnsgd1na2vs0mg"},{"bike_id":"8b69f94a-970d-4f70-9ab3-e46cffb96f3c","system_id":"levelo_inurba_marseille","lat":43.292005,"lon":5.357875,"is_reserved":false,"is_disabled":false,"rental_uris":{"android":"levelo://app?vid=8b69f94a-970d-4f70-9ab3-e46cffb96f3c","ios":"levelo://app?vid=8b69f94a-970d-4f70-9ab3-e46cffb96f3c"},"vehicle_type_id":"4","last_reported":1712363631,"current_range_meters":14400,"station_id":"ce4bhb12rcd13ifvqel0","pricing_plan_id":"cebpf4jnsgd1na2vs0mg"},{"bike_id":"7007aade-5654-408c-95e1-814fb9f42ed6","system_id":"levelo_inurba_marseille","lat":43.30888,"lon":5.39638,"is_reserved":false,"is_disabled":false,"rental_uris":{"android":"levelo://app?vid=7007aade-5654-408c-95e1-814fb9f42ed6","ios":"levelo://app?vid=7007aade-5654-408c-95e1-814fb9f42ed6"},"vehicle_type_id":"4","last_reported":1712363631,"current_range_meters":2000,"station_id":"ce4bh012rcd13ifvqcv0","pricing_plan_id":"cebpf4jnsgd1na2vs0mg"},{"bike_id":"631dda5a-4c17-4721-a5f3-584eb9c8bc56","system_id":"levelo_inurba_marseille","lat":43.309047,"lon":5.396551,"is_reserved":false,"is_disabled":false,"rental_uris":{"android":"levelo://app?vid=631dda5a-4c17-4721-a5f3-584eb9c8bc56","ios":"levelo://app?vid=631dda5a-4c17-4721-a5f3-584eb9c8bc56"},"vehicle_type_id":"4","last_reported":1712363631,"current_range_meters":26800,"station_id":"ce4bh012rcd13ifvqcv0","pricing_plan_id":"cebpf4jnsgd1na2vs0mg"},{"bike_id":"a33fc0bc-4220-4574-ad64-3f15e2730294","system_id":"levelo_inurba_marseille","lat":43.309038,"lon":5.396546,"is_reserved":false,"is_disabled":false,"rental_uris":{"android":"levelo://app?vid=a33fc0bc-4220-4574-ad64-3f15e2730294","ios":"levelo://app?vid=a33fc0bc-4220-4574-ad64-3f15e2730294"},"vehicle_type_id":"4","last_reported":1712363631,"current_range_meters":24400,"station_id":"ce4bh012rcd13ifvqcv0","pricing_plan_id":"cebpf4jnsgd1na2vs0mg"},{"bike_id":"243ce47b-856e-4f84-982b-6c81514bd0f9","system_id":"levelo_inurba_marseille","lat":43.30886,"lon":5.3964,"is_reserved":false,"is_disabled":false,"rental_uris":{"android":"levelo://app?vid=243ce47b-856e-4f84-982b-6c81514bd0f9","ios":"levelo://app?vid=243ce47b-856e-4f84-982b-6c81514bd0f9"},"vehicle_type_id":"4","last_reported":1712363631,"current_range_meters":23600,"station_id":"ce4bh012rcd13ifvqcv0","pricing_plan_id":"cebpf4jnsgd1na2vs0mg"},{"bike_id":"6edc3101-2976-42f3-9c93-02a34f5d1700","system_id":"levelo_inurba_marseille","lat":43.29194,"lon":5.35798,"is_reserved":false,"is_disabled":false,"rental_uris":{"android":"levelo://app?vid=6edc3101-2976-42f3-9c93-02a34f5d1700","ios":"levelo://app?vid=6edc3101-2976-42f3-9c93-02a34f5d1700"},"vehicle_type_id":"4","last_reported":1712363631,"current_range_meters":22800,"station_id":"","pricing_plan_id":"cebpf4jnsgd1na2vs0mg"},{"bike_id":"675a1aef-5ead-4106-bd99-66b7510e121a","system_id":"levelo_inurba_marseille","lat":43.309038,"lon":5.396546,"is_reserved":false,"is_disabled":false,"rental_uris":{"android":"levelo://app?vid=675a1aef-5ead-4106-bd99-66b7510e121a","ios":"levelo://app?vid=675a1aef-5ead-4106-bd99-66b7510e121a"},"vehicle_type_id":"4","last_reported":1712363631,"current_range_meters":24800,"station_id":"ce4bh012rcd13ifvqcv0","pricing_plan_id":"cebpf4jnsgd1na2vs0mg"},{"bike_id":"1fd804db-fa04-4ac3-b99f-c9a9717d18bc","system_id":"levelo_inurba_marseille","lat":43.30884,"lon":5.3964,"is_reserved":false,"is_disabled":false,"rental_uris":{"android":"levelo://app?vid=1fd804db-fa04-4ac3-b99f-c9a9717d18bc","ios":"levelo://app?vid=1fd804db-fa04-4ac3-b99f-c9a9717d18bc"},"vehicle_type_id":"4","last_reported":1712363631,"current_range_meters":0,"station_id":"ce4bh012rcd13ifvqcv0","pricing_plan_id":"cebpf4jnsgd1na2vs0mg"},{"bike_id":"fbb35337-421e-4146-8220-587ec281c784","system_id":"levelo_inurba_marseille","lat":43.313291,"lon":5.396838,"is_reserved":false,"is_disabled":false,"rental_uris":{"android":"levelo://app?vid=fbb35337-421e-4146-8220-587ec281c784","ios":"levelo://app?vid=fbb35337-421e-4146-8220-587ec281c784"},"vehicle_type_id":"4","last_reported":1712363631,"current_range_meters":5600,"station_id":"ce4bgvp2rcd13ifvqcu0","pricing_plan_id":"cebpf4jnsgd1na2vs0mg"},{"bike_id":"5b4a9cc9-a062-48f4-aef9-052f0d1c7eec","system_id":"levelo_inurba_marseille","lat":43.292005,"lon":5.357875,"is_reserved":false,"is_disabled":false,"rental_uris":{"android":"levelo://app?vid=5b4a9cc9-a062-48f4-aef9-052f0d1c7eec","ios":"levelo://app?vid=5b4a9cc9-a062-48f4-aef9-052f0d1c7eec"},"vehicle_type_id":"4","last_reported":1712363631,"current_range_meters":25600,"station_id":"ce4bhb12rcd13ifvqel0","pricing_plan_id":"cebpf4jnsgd1na2vs0mg"},{"bike_id":"ece37122-3bca-48a7-bccf-10fcf435564e","system_id":"levelo_inurba_marseille","lat":43.313291,"lon":5.396838,"is_reserved":false,"is_disabled":false,"rental_uris":{"android":"levelo://app?vid=ece37122-3bca-48a7-bccf-10fcf435564e","ios":"levelo://app?vid=ece37122-3bca-48a7-bccf-10fcf435564e"},"vehicle_type_id":"4","last_reported":1712363631,"current_range_meters":11200,"station_id":"ce4bgvp2rcd13ifvqcu0","pricing_plan_id":"cebpf4jnsgd1na2vs0mg"},{"bike_id":"6585fdee-390c-4c0d-a7c9-3f7286775a52","system_id":"levelo_inurba_marseille","lat":43.30881,"lon":5.39644,"is_reserved":false,"is_disabled":false,"rental_uris":{"android":"levelo://app?vid=6585fdee-390c-4c0d-a7c9-3f7286775a52","ios":"levelo://app?vid=6585fdee-390c-4c0d-a7c9-3f7286775a52"},"vehicle_type_id":"4","last_reported":1712363631,"current_range_meters":0,"station_id":"ce4bh012rcd13ifvqcv0","pricing_plan_id":"cebpf4jnsgd1na2vs0mg"},{"bike_id":"a686fe5a-0b7f-4a18-b46f-8df065fad228","system_id":"levelo_inurba_marseille","lat":43.29189,"lon":5.35801,"is_reserved":false,"is_disabled":false,"rental_uris":{"android":"levelo://app?vid=a686fe5a-0b7f-4a18-b46f-8df065fad228","ios":"levelo://app?vid=a686fe5a-0b7f-4a18-b46f-8df065fad228"},"vehicle_type_id":"4","last_reported":1712363631,"current_range_meters":23600,"station_id":"ce4bhb12rcd13ifvqel0","pricing_plan_id":"cebpf4jnsgd1na2vs0mg"},{"bike_id":"6a15808d-ea71-4d26-a1b3-07e0470b1c21","system_id":"levelo_inurba_marseille","lat":43.313291,"lon":5.396838,"is_reserved":false,"is_disabled":false,"rental_uris":{"android":"levelo://app?vid=6a15808d-ea71-4d26-a1b3-07e0470b1c21","ios":"levelo://app?vid=6a15808d-ea71-4d26-a1b3-07e0470b1c21"},"vehicle_type_id":"4","last_reported":1712363631,"current_range_meters":18000,"station_id":"ce4bgvp2rcd13ifvqcu0","pricing_plan_id":"cebpf4jnsgd1na2vs0mg"},{"bike_id":"f0ad0db2-089d-4bc2-b041-62533f606189","system_id":"levelo_inurba_marseille","lat":43.309038,"lon":5.396546,"is_reserved":false,"is_disabled":false,"rental_uris":{"android":"levelo://app?vid=f0ad0db2-089d-4bc2-b041-62533f606189","ios":"levelo://app?vid=f0ad0db2-089d-4bc2-b041-62533f606189"},"vehicle_type_id":"4","last_reported":1712363631,"current_range_meters":18800,"station_id":"ce4bh012rcd13ifvqcv0","pricing_plan_id":"cebpf4jnsgd1na2vs0mg"},{"bike_id":"40bb14d3-130d-4775-a1e9-85216ad9a3d0","system_id":"levelo_inurba_marseille","lat":43.313291,"lon":5.396838,"is_reserved":false,"is_disabled":false,"rental_uris":{"android":"levelo://app?vid=40bb14d3-130d-4775-a1e9-85216ad9a3d0","ios":"levelo://app?vid=40bb14d3-130d-4775-a1e9-85216ad9a3d0"},"vehicle_type_id":"4","last_reported":1712363631,"current_range_meters":22000,"station_id":"ce4bgvp2rcd13ifvqcu0","pricing_plan_id":"cebpf4jnsgd1na2vs0mg"},{"bike_id":"9df0fedf-3854-4d63-96e0-ed9f8e1b26b9","system_id":"levelo_inurba_marseille","lat":43.308905,"lon":5.39651,"is_reserved":false,"is_disabled":false,"rental_uris":{"android":"levelo://app?vid=9df0fedf-3854-4d63-96e0-ed9f8e1b26b9","ios":"levelo://app?vid=9df0fedf-3854-4d63-96e0-ed9f8e1b26b9"},"vehicle_type_id":"4","last_reported":1712363631,"current_range_meters":5200,"station_id":"ce4bh012rcd13ifvqcv0","pricing_plan_id":"cebpf4jnsgd1na2vs0mg"},{"bike_id":"23bb6b45-bfb9-46a7-accf-63cc46bb269f","system_id":"levelo_inurba_marseille","lat":43.30884,"lon":5.39651,"is_reserved":false,"is_disabled":false,"rental_uris":{"android":"levelo://app?vid=23bb6b45-bfb9-46a7-accf-63cc46bb269f","ios":"levelo://app?vid=23bb6b45-bfb9-46a7-accf-63cc46bb269f"},"vehicle_type_id":"4","last_reported":1712363631,"current_range_meters":18000,"station_id":"ce4bh012rcd13ifvqcv0","pricing_plan_id":"cebpf4jnsgd1na2vs0mg"},{"bike_id":"e6a0c4f3-55e2-4c25-b9b7-f08da7bdefbd","system_id":"levelo_inurba_marseille","lat":43.313291,"lon":5.396838,"is_reserved":false,"is_disabled":false,"rental_uris":{"android":"levelo://app?vid=e6a0c4f3-55e2-4c25-b9b7-f08da7bdefbd","ios":"levelo://app?vid=e6a0c4f3-55e2-4c25-b9b7-f08da7bdefbd"},"vehicle_type_id":"4","last_reported":1712363631,"current_range_meters":32000,"station_id":"ce4bgvp2rcd13ifvqcu0","pricing_plan_id":"cebpf4jnsgd1na2vs0mg"},{"bike_id":"354d93b7-a440-47ca-abe8-b3cade963b6e","system_id":"levelo_inurba_marseille","lat":43.308896,"lon":5.396536,"is_reserved":false,"is_disabled":false,"rental_uris":{"android":"levelo://app?vid=354d93b7-a440-47ca-abe8-b3cade963b6e","ios":"levelo://app?vid=354d93b7-a440-47ca-abe8-b3cade963b6e"},"vehicle_type_id":"4","last_reported":1712363631,"current_range_meters":19200,"station_id":"ce4bh012rcd13ifvqcv0","pricing_plan_id":"cebpf4jnsgd1na2vs0mg"},{"bike_id":"0236c418-a4ea-429b-85bd-fbd11245f1e7","system_id":"levelo_inurba_marseille","lat":43.313291,"lon":5.396838,"is_reserved":false,"is_disabled":false,"rental_uris":{"android":"levelo://app?vid=0236c418-a4ea-429b-85bd-fbd11245f1e7","ios":"levelo://app?vid=0236c418-a4ea-429b-85bd-fbd11245f1e7"},"vehicle_type_id":"4","last_reported":1712363631,"current_range_meters":24000,"station_id":"ce4bgvp2rcd13ifvqcu0","pricing_plan_id":"cebpf4jnsgd1na2vs0mg"},{"bike_id":"5efb1ceb-6872-495b-8d52-21f1dac9a5e8","system_id":"levelo_inurba_marseille","lat":43.313291,"lon":5.396838,"is_reserved":false,"is_disabled":false,"rental_uris":{"android":"levelo://app?vid=5efb1ceb-6872-495b-8d52-21f1dac9a5e8","ios":"levelo://app?vid=5efb1ceb-6872-495b-8d52-21f1dac9a5e8"},"vehicle_type_id":"4","last_reported":1712363631,"current_range_meters":8000,"station_id":"ce4bgvp2rcd13ifvqcu0","pricing_plan_id":"cebpf4jnsgd1na2vs0mg"},{"bike_id":"d4112786-d39c-41de-a39b-2a323739e44a","system_id":"levelo_inurba_marseille","lat":43.309038,"lon":5.396546,"is_reserved":false,"is_disabled":false,"rental_uris":{"android":"levelo://app?vid=d4112786-d39c-41de-a39b-2a323739e44a","ios":"levelo://app?vid=d4112786-d39c-41de-a39b-2a323739e44a"},"vehicle_type_id":"4","last_reported":1712363631,"current_range_meters":12400,"station_id":"ce4bh012rcd13ifvqcv0","pricing_plan_id":"cebpf4jnsgd1na2vs0mg"},{"bike_id":"791beefe-5878-4ea8-a9ec-7b5d7ea47bab","system_id":"levelo_inurba_marseille","lat":43.309038,"lon":5.396546,"is_reserved":false,"is_disabled":false,"rental_uris":{"android":"levelo://app?vid=791beefe-5878-4ea8-a9ec-7b5d7ea47bab","ios":"levelo://app?vid=791beefe-5878-4ea8-a9ec-7b5d7ea47bab"},"vehicle_type_id":"4","last_reported":1712363631,"current_range_meters":24800,"station_id":"ce4bh012rcd13ifvqcv0","pricing_plan_id":"cebpf4jnsgd1na2vs0mg"},{"bike_id":"6e3f9579-63ef-40fa-89da-829965a92931","system_id":"levelo_inurba_marseille","lat":43.29529,"lon":5.385581,"is_reserved":false,"is_disabled":false,"rental_uris":{"android":"levelo://app?vid=6e3f9579-63ef-40fa-89da-829965a92931","ios":"levelo://app?vid=6e3f9579-63ef-40fa-89da-829965a92931"},"vehicle_type_id":"4","last_reported":1712363631,"current_range_meters":14800,"station_id":"ce4bgih2rcd13ifvqba0","pricing_plan_id":"cebpf4jnsgd1na2vs0mg"},{"bike_id":"413041a7-0cd7-4a41-aa67-cb18ad77f3a7","system_id":"levelo_inurba_marseille","lat":43.290624,"lon":5.359245,"is_reserved":false,"is_disabled":false,"rental_uris":{"android":"levelo://app?vid=413041a7-0cd7-4a41-aa67-cb18ad77f3a7","ios":"levelo://app?vid=413041a7-0cd7-4a41-aa67-cb18ad77f3a7"},"vehicle_type_id":"4","last_reported":1712363631,"current_range_meters":18000,"station_id":"ce4bha92rcd13ifvqeg0","pricing_plan_id":"cebpf4jnsgd1na2vs0mg"},{"bike_id":"5a590958-9c74-4ee8-ad60-5675064190cd","system_id":"levelo_inurba_marseille","lat":43.290624,"lon":5.359245,"is_reserved":false,"is_disabled":false,"rental_uris":{"android":"levelo://app?vid=5a590958-9c74-4ee8-ad60-5675064190cd","ios":"levelo://app?vid=5a590958-9c74-4ee8-ad60-5675064190cd"},"vehicle_type_id":"4","last_reported":1712363631,"current_range_meters":27600,"station_id":"ce4bha92rcd13ifvqeg0","pricing_plan_id":"cebpf4jnsgd1na2vs0mg"},{"bike_id":"e582f7f5-54a0-49ff-a64d-a5a78e7cee09","system_id":"levelo_inurba_marseille","lat":43.290624,"lon":5.359245,"is_reserved":false,"is_disabled":false,"rental_uris":{"android":"levelo://app?vid=e582f7f5-54a0-49ff-a64d-a5a78e7cee09","ios":"levelo://app?vid=e582f7f5-54a0-49ff-a64d-a5a78e7cee09"},"vehicle_type_id":"4","last_reported":1712363631,"current_range_meters":23200,"station_id":"ce4bha92rcd13ifvqeg0","pricing_plan_id":"cebpf4jnsgd1na2vs0mg"},{"bike_id":"9ab69e2b-6021-4864-b4fa-1a339c0cf044","system_id":"levelo_inurba_marseille","lat":43.290631,"lon":5.359244,"is_reserved":false,"is_disabled":false,"rental_uris":{"android":"levelo://app?vid=9ab69e2b-6021-4864-b4fa-1a339c0cf044","ios":"levelo://app?vid=9ab69e2b-6021-4864-b4fa-1a339c0cf044"},"vehicle_type_id":"4","last_reported":1712363631,"current_range_meters":20000,"station_id":"ce4bha92rcd13ifvqeg0","pricing_plan_id":"cebpf4jnsgd1na2vs0mg"},{"bike_id":"57fbd555-c59f-47c0-bc6f-cc95d743a3b9","system_id":"levelo_inurba_marseille","lat":43.316828,"lon":5.404723,"is_reserved":false,"is_disabled":false,"rental_uris":{"android":"levelo://app?vid=57fbd555-c59f-47c0-bc6f-cc95d743a3b9","ios":"levelo://app?vid=57fbd555-c59f-47c0-bc6f-cc95d743a3b9"},"vehicle_type_id":"4","last_reported":1712363631,"current_range_meters":400,"station_id":"ce4bh012rcd13ifvqd00","pricing_plan_id":"cebpf4jnsgd1na2vs0mg"},{"bike_id":"4edcac47-bb5f-47ad-af33-c2029a0cd7ed","system_id":"levelo_inurba_marseille","lat":43.28941,"lon":5.36627,"is_reserved":false,"is_disabled":false,"rental_uris":{"android":"levelo://app?vid=4edcac47-bb5f-47ad-af33-c2029a0cd7ed","ios":"levelo://app?vid=4edcac47-bb5f-47ad-af33-c2029a0cd7ed"},