{"last_updated":1768245230,"ttl":60,"version":"2.2","data":{"bikes":[{"bike_id":"9cb8a7ab-1d20-41bb-872e-f89974c54222","system_id":"levelo_inurba_marseille","lat":43.27827,"lon":5.39215,"is_reserved":false,"is_disabled":false,"rental_uris":{"android":"levelo://app?vid=9cb8a7ab-1d20-41bb-872e-f89974c54222","ios":"levelo://app?vid=9cb8a7ab-1d20-41bb-872e-f89974c54222"},"vehicle_type_id":"4","last_reported":1768245231,"current_range_meters":2800,"station_id":"ce4bhjp2rcd13ifvqga0","pricing_plan_id":"cebpf4jnsgd1na2vs0mg"},{"bike_id":"098d94c1-f520-462c-b21d-91020ee6aa01","system_id":"levelo_inurba_marseille","lat":43.30729,"lon":5.40988,"is_reserved":false,"is_disabled":false,"rental_uris":{"android":"levelo://app?vid=098d94c1-f520-462c-b21d-91020ee6aa01","ios":"levelo://app?vid=098d94c1-f520-462c-b21d-91020ee6aa01"},"vehicle_type_id":"4","last_reported":1768245231,"current_range_meters":2800,"station_id":"","pricing_plan_id":"cebpf4jnsgd1na2vs0mg"},{"bike_id":"0fa22ef5-d785-49d3-80e0-8122bc638a32","system_id":"levelo_inurba_marseille","lat":43.22565,"lon":5.41623,"is_reserved":false,"is_disabled":false,"rental_uris":{"android":"levelo://app?vid=0fa22ef5-d785-49d3-80e0-8122bc638a32","ios":"levelo://app?vid=0fa22ef5-d785-49d3-80e0-8122bc638a32"},"vehicle_type_id":"4","last_reported":1768245231,"current_range_meters":2800,"station_id":"st_d2o4gvlbi1j2169b742g","pricing_plan_id":"cebpf4jnsgd1na2vs0mg"},{"bike_id":"320be350-7ad8-4b9a-a7c5-19451b57fc01","system_id":"levelo_inurba_marseille","lat":43.22922,"lon":5.35375,"is_reserved":false,"is_disabled":false,"rental_uris":{"android":"levelo://app?vid=320be350-7ad8-4b9a-a7c5-19451b57fc01","ios":"levelo://app?vid=320be350-7ad8-4b9a-a7c5-19451b57fc01"},"vehicle_type_id":"4","last_reported":1768245231,"current_range_meters":2800,"station_id":"cpo3532slgdg3j2ikp40","pricing_plan_id":"cebpf4jnsgd1na2vs0mg"},{"bike_id":"2e20bb84-1c03-4f1e-bb7c-55c5ffc3fd10","system_id":"levelo_inurba_marseille","lat":43.318669,"lon":5.37691,"is_reserved":false,"is_disabled":false,"rental_uris":{"android":"levelo://app?vid=2e20bb84-1c03-4f1e-bb7c-55c5ffc3fd10","ios":"levelo://app?vid=2e20bb84-1c03-4f1e-bb7c-55c5ffc3fd10"},"vehicle_type_id":"4","last_reported":1768245231,"current_range_meters":2800,"station_id":"","pricing_plan_id":"cebpf4jnsgd1na2vs0mg"},{"bike_id":"f596da05-0b66-4513-826b-a866a276204c","system_id":"levelo_inurba_marseille","lat":43.245826,"lon":5.374825,"is_reserved":false,"is_disabled":false,"rental_uris":{"android":"levelo://app?vid=f596da05-0b66-4513-826b-a866a276204c","ios":"levelo://app?vid=f596da05-0b66-4513-826b-a866a276204c"},"vehicle_type_id":"4","last_reported":1768245231,"current_range_meters":2800,"station_id":"","pricing_plan_id":"cebpf4jnsgd1na2vs0mg"},{"bike_id":"dcb7be01-50ce-42e0-a9ed-adc761203c14","system_id":"levelo_inurba_marseille","lat":43.28634,"lon":5.42614,"is_reserved":false,"is_disabled":false,"rental_uris":{"android":"levelo://app?vid=dcb7be01-50ce-42e0-a9ed-adc761203c14","ios":"levelo://app?vid=dcb7be01-50ce-42e0-a9ed-adc761203c14"},"vehicle_type_id":"4","last_reported":1768245231,"current_range_meters":2800,"station_id":"","pricing_plan_id":"cebpf4jnsgd1na2vs0mg"},{"bike_id":"a5787e37-ecb5-4a87-bcf3-a0b74c386c9d","system_id":"levelo_inurba_marseille","lat":43.24163,"lon":5.36403,"is_reserved":false,"is_disabled":false,"rental_uris":{"android":"levelo://app?vid=a5787e37-ecb5-4a87-bcf3-a0b74c386c9d","ios":"levelo://app?vid=a5787e37-ecb5-4a87-bcf3-a0b74c386c9d"},"vehicle_type_id":"4","last_reported":1768245231,"current_range_meters":2800,"station_id":"cpo36qri1sfpv3e86is0","pricing_plan_id":"cebpf4jnsgd1na2vs0mg"},{"bike_id":"da362a2c-f6c4-45fb-8937-7af4b966a6ad","system_id":"levelo_inurba_marseille","lat":43.252426,"lon":5.382197,"is_reserved":false,"is_disabled":false,"rental_uris":{"android":"levelo://app?vid=da362a2c-f6c4-45fb-8937-7af4b966a6ad","ios":"levelo://app?vid=da362a2c-f6c4-45fb-8937-7af4b966a6ad"},"vehicle_type_id":"4","last_reported":1768245231,"current_range_meters":2800,"station_id":"ce4bhih2rcd13ifvqfr0","pricing_plan_id":"cebpf4jnsgd1na2vs0mg"},{"bike_id":"c002ca11-35bf-4fb1-853e-4863965341b0","system_id":"levelo_inurba_marseille","lat":43.30237,"lon":5.40047,"is_reserved":false,"is_disabled":false,"rental_uris":{"android":"levelo://app?vid=c002ca11-35bf-4fb1-853e-4863965341b0","ios":"levelo://app?vid=c002ca11-35bf-4fb1-853e-4863965341b0"},"vehicle_type_id":"4","last_reported":1768245231,"current_range_meters":2800,"station_id":"ce4bgvh2rcd13ifvqcs0","pricing_plan_id":"cebpf4jnsgd1na2vs0mg"},{"bike_id":"ddacb106-1a78-4aab-aa00-4674c9e83ecb","system_id":"levelo_inurba_marseille","lat":43.2926,"lon":5.38431,"is_reserved":false,"is_disabled":false,"rental_uris":{"android":"levelo://app?vid=ddacb106-1a78-4aab-aa00-4674c9e83ecb","ios":"levelo://app?vid=ddacb106-1a78-4aab-aa00-4674c9e83ecb"},"vehicle_type_id":"4","last_reported":1768245231,"current_range_meters":2800,"station_id":"ce4bh692rcd13ifvqea0","pricing_plan_id":"cebpf4jnsgd1na2vs0mg"},{"bike_id":"6ad6e14f-b56b-421d-a6ba-eb1c8cdbfdc6","system_id":"levelo_inurba_marseille","lat":43.29836,"lon":5.3629,"is_reserved":false,"is_disabled":false,"rental_uris":{"android":"levelo://app?vid=6ad6e14f-b56b-421d-a6ba-eb1c8cdbfdc6","ios":"levelo://app?vid=6ad6e14f-b56b-421d-a6ba-eb1c8cdbfdc6"},"vehicle_type_id":"4","last_reported":1768245231,"current_range_meters":3200,"station_id":"ce4bgpp2rcd13ifvqc3g","pricing_plan_id":"cebpf4jnsgd1na2vs0mg"},{"bike_id":"9bc89c8e-a483-418e-b55a-8f6d2ebdde7a","system_id":"levelo_inurba_marseille","lat":43.22934,"lon":5.35377,"is_reserved":false,"is_disabled":false,"rental_uris":{"android":"levelo://app?vid=9bc89c8e-a483-418e-b55a-8f6d2ebdde7a","ios":"levelo://app?vid=9bc89c8e-a483-418e-b55a-8f6d2ebdde7a"},"vehicle_type_id":"4","last_reported":1768245231,"current_range_meters":3200,"station_id":"cpo3532slgdg3j2ikp40","pricing_plan_id":"cebpf4jnsgd1na2vs0mg"},{"bike_id":"6c3d77ae-e5b4-40fb-ac8d-55d2ca975358","system_id":"levelo_inurba_marseille","lat":43.25331,"lon":5.42149,"is_reserved":false,"is_disabled":false,"rental_uris":{"android":"levelo://app?vid=6c3d77ae-e5b4-40fb-ac8d-55d2ca975358","ios":"levelo://app?vid=6c3d77ae-e5b4-40fb-ac8d-55d2ca975358"},"vehicle_type_id":"4","last_reported":1768245231,"current_range_meters":3200,"station_id":"st_d2m65c5bi1j21697t3ng","pricing_plan_id":"cebpf4jnsgd1na2vs0mg"},{"bike_id":"f4cf82ff-fe41-4ab9-b85e-d02c82c4a2be","system_id":"levelo_inurba_marseille","lat":43.246413,"lon":5.388854,"is_reserved":false,"is_disabled":false,"rental_uris":{"android":"levelo://app?vid=f4cf82ff-fe41-4ab9-b85e-d02c82c4a2be","ios":"levelo://app?vid=f4cf82ff-fe41-4ab9-b85e-d02c82c4a2be"},"vehicle_type_id":"4","last_reported":1768245231,"current_range_meters":3200,"station_id":"ce4bhg12rcd13ifvqf60","pricing_plan_id":"cebpf4jnsgd1na2vs0mg"},{"bike_id":"fbcd582e-3b7a-412f-b2e0-66113cc82beb","system_id":"levelo_inurba_marseille","lat":43.248023,"lon":5.37456,"is_reserved":false,"is_disabled":false,"rental_uris":{"android":"levelo://app?vid=fbcd582e-3b7a-412f-b2e0-66113cc82beb","ios":"levelo://app?vid=fbcd582e-3b7a-412f-b2e0-66113cc82beb"},"vehicle_type_id":"4","last_reported":1768245231,"current_range_meters":3200,"station_id":"ce4bhgh2rcd13ifvqfb0","pricing_plan_id":"cebpf4jnsgd1na2vs0mg"},{"bike_id":"fc07a5f4-baa1-432d-8197-76b4987e0970","system_id":"levelo_inurba_marseille","lat":43.30591,"lon":5.37083,"is_reserved":false,"is_disabled":false,"rental_uris":{"android":"levelo://app?vid=fc07a5f4-baa1-432d-8197-76b4987e0970","ios":"levelo://app?vid=fc07a5f4-baa1-432d-8197-76b4987e0970"},"vehicle_type_id":"4","last_reported":1768245231,"current_range_meters":3200,"station_id":"","pricing_plan_id":"cebpf4jnsgd1na2vs0mg"},{"bike_id":"cce1ca9c-5d71-48ab-8479-efe60c92d8ed","system_id":"levelo_inurba_marseille","lat":43.24072,"lon":5.37753,"is_reserved":false,"is_disabled":false,"rental_uris":{"android":"levelo://app?vid=cce1ca9c-5d71-48ab-8479-efe60c92d8ed","ios":"levelo://app?vid=cce1ca9c-5d71-48ab-8479-efe60c92d8ed"},"vehicle_type_id":"4","last_reported":1768245231,"current_range_meters":3200,"station_id":"ce4bhnp2rcd13ifvqgvg","pricing_plan_id":"cebpf4jnsgd1na2vs0mg"},{"bike_id":"cbd078a2-11dd-46c3-974c-bc9d67f48287","system_id":"levelo_inurba_marseille","lat":43.29248,"lon":5.38444,"is_reserved":false,"is_disabled":false,"rental_uris":{"android":"levelo://app?vid=cbd078a2-11dd-46c3-974c-bc9d67f48287","ios":"levelo://app?vid=cbd078a2-11dd-46c3-974c-bc9d67f48287"},"vehicle_type_id":"4","last_reported":1768245231,"current_range_meters":3200,"station_id":"ce4bh692rcd13ifvqea0","pricing_plan_id":"cebpf4jnsgd1na2vs0mg"},{"bike_id":"df2255c0-91ab-4b91-af72-5cf97d2958a5","system_id":"levelo_inurba_marseille","lat":43.29026,"lon":5.38643,"is_reserved":false,"is_disabled":false,"rental_uris":{"android":"levelo://app?vid=df2255c0-91ab-4b91-af72-5cf97d2958a5","ios":"levelo://app?vid=df2255c0-91ab-4b91-af72-5cf97d2958a5"},"vehicle_type_id":"4","last_reported":1768245231,"current_range_meters":3200,"station_id":"ce4bh4p2rcd13ifvqe0g","pricing_plan_id":"cebpf4jnsgd1na2vs0mg"},{"bike_id":"64cd3d95-1725-477d-bc45-fa8570d8f0cd","system_id":"levelo_inurba_marseille","lat":43.25333,"lon":5.42171,"is_reserved":false,"is_disabled":false,"rental_uris":{"android":"levelo://app?vid=64cd3d95-1725-477d-bc45-fa8570d8f0cd","ios":"levelo://app?vid=64cd3d95-1725-477d-bc45-fa8570d8f0cd"},"vehicle_type_id":"4","last_reported":1768245231,"current_range_meters":3200,"station_id":"st_d2m65c5bi1j21697t3ng","pricing_plan_id":"cebpf4jnsgd1na2vs0mg"},{"bike_id":"426168e5-4505-49a0-9612-75a168583115","system_id":"levelo_inurba_marseille","lat":43.26567,"lon":5.39001,"is_reserved":false,"is_disabled":false,"rental_uris":{"android":"levelo://app?vid=426168e5-4505-49a0-9612-75a168583115","ios":"levelo://app?vid=426168e5-4505-49a0-9612-75a168583115"},"vehicle_type_id":"4","last_reported":1768245231,"current_range_meters":3200,"station_id":"ce4bhe12rcd13ifvqf30","pricing_plan_id":"cebpf4jnsgd1na2vs0mg"},{"bike_id":"c42733a9-3460-4d69-9f64-7395e3d47680","system_id":"levelo_inurba_marseille","lat":43.32522,"lon":5.4067,"is_reserved":false,"is_disabled":false,"rental_uris":{"android":"levelo://app?vid=c42733a9-3460-4d69-9f64-7395e3d47680","ios":"levelo://app?vid=c42733a9-3460-4d69-9f64-7395e3d47680"},"vehicle_type_id":"4","last_reported":1768245231,"current_range_meters":3200,"station_id":"","pricing_plan_id":"cebpf4jnsgd1na2vs0mg"},{"bike_id":"11b7113f-ff79-4452-9417-d352466ee269","system_id":"levelo_inurba_marseille","lat":43.32313,"lon":5.37054,"is_reserved":false,"is_disabled":false,"rental_uris":{"android":"levelo://app?vid=11b7113f-ff79-4452-9417-d352466ee269","ios":"levelo://app?vid=11b7113f-ff79-4452-9417-d352466ee269"},"vehicle_type_id":"4","last_reported":1768245231,"current_range_meters":3600,"station_id":"","pricing_plan_id":"cebpf4jnsgd1na2vs0mg"},{"bike_id":"b3d75e6e-6c49-4ce4-9e0b-7891a8079ca4","system_id":"levelo_inurba_marseille","lat":43.25721,"lon":5.41111,"is_reserved":false,"is_disabled":false,"rental_uris":{"android":"levelo://app?vid=b3d75e6e-6c49-4ce4-9e0b-7891a8079ca4","ios":"levelo://app?vid=b3d75e6e-6c49-4ce4-9e0b-7891a8079ca4"},"vehicle_type_id":"4","last_reported":1768245231,"current_range_meters":3600,"station_id":"ce4bhkp2rcd13ifvqgd0","pricing_plan_id":"cebpf4jnsgd1na2vs0mg"},{"bike_id":"5cd0a75e-44fc-4f32-a70c-cb582c8cecc8","system_id":"levelo_inurba_marseille","lat":43.32283,"lon":5.38267,"is_reserved":false,"is_disabled":false,"rental_uris":{"android":"levelo://app?vid=5cd0a75e-44fc-4f32-a70c-cb582c8cecc8","ios":"levelo://app?vid=5cd0a75e-44fc-4f32-a70c-cb582c8cecc8"},"vehicle_type_id":"4","last_reported":1768245231,"current_range_meters":3600,"station_id":"ce4bhr12rcd13ifvqhqg","pricing_plan_id":"cebpf4jnsgd1na2vs0mg"},{"bike_id":"6680bd6e-a9c3-48c4-86d6-4cdc76ce96f2","system_id":"levelo_inurba_marseille","lat":43.265584,"lon":5.403259,"is_reserved":false,"is_disabled":false,"rental_uris":{"android":"levelo://app?vid=6680bd6e-a9c3-48c4-86d6-4cdc76ce96f2","ios":"levelo://app?vid=6680bd6e-a9c3-48c4-86d6-4cdc76ce96f2"},"vehicle_type_id":"4","last_reported":1768245231,"current_range_meters":3600,"station_id":"ce4bhmp2rcd13ifvqgng","pricing_plan_id":"cebpf4jnsgd1na2vs0mg"},{"bike_id":"6bbdef40-24c9-4b57-8712-a56ee58237c1","system_id":"levelo_inurba_marseille","lat":43.28703,"lon":5.37951,"is_reserved":false,"is_disabled":false,"rental_uris":{"android":"levelo://app?vid=6bbdef40-24c9-4b57-8712-a56ee58237c1","ios":"levelo://app?vid=6bbdef40-24c9-4b57-8712-a56ee58237c1"},"vehicle_type_id":"4","last_reported":1768245231,"current_range_meters":3600,"station_id":"ce4bh9p2rcd13ifvqec0","pricing_plan_id":"cebpf4jnsgd1na2vs0mg"},{"bike_id":"aedb0b1d-61ef-4190-a07d-7f49f8bc3c0c","system_id":"levelo_inurba_marseille","lat":43.22929,"lon":5.3537,"is_reserved":false,"is_disabled":false,"rental_uris":{"android":"levelo://app?vid=aedb0b1d-61ef-4190-a07d-7f49f8bc3c0c","ios":"levelo://app?vid=aedb0b1d-61ef-4190-a07d-7f49f8bc3c0c"},"vehicle_type_id":"4","last_reported":1768245231,"current_range_meters":3600,"station_id":"cpo3532slgdg3j2ikp40","pricing_plan_id":"cebpf4jnsgd1na2vs0mg"},{"bike_id":"63455f42-0b47-4078-a8cf-348f242f0a66","system_id":"levelo_inurba_marseille","lat":43.2557,"lon":5.38242,"is_reserved":false,"is_disabled":false,"rental_uris":{"android":"levelo://app?vid=63455f42-0b47-4078-a8cf-348f242f0a66","ios":"levelo://app?vid=63455f42-0b47-4078-a8cf-348f242f0a66"},"vehicle_type_id":"4","last_reported":1768245231,"current_range_meters":4000,"station_id":"ce4bhih2rcd13ifvqfs0","pricing_plan_id":"cebpf4jnsgd1na2vs0mg"},{"bike_id":"41541052-aaac-401b-9a4b-4100378978ed","system_id":"levelo_inurba_marseille","lat":43.24168,"lon":5.36381,"is_reserved":false,"is_disabled":false,"rental_uris":{"android":"levelo://app?vid=41541052-aaac-401b-9a4b-4100378978ed","ios":"levelo://app?vid=41541052-aaac-401b-9a4b-4100378978ed"},"vehicle_type_id":"4","last_reported":1768245231,"current_range_meters":4000,"station_id":"cpo36qri1sfpv3e86is0","pricing_plan_id":"cebpf4jnsgd1na2vs0mg"},{"bike_id":"1e77de7f-4d27-4509-a320-356d2d64a285","system_id":"levelo_inurba_marseille","lat":43.306138,"lon":5.372315,"is_reserved":false,"is_disabled":false,"rental_uris":{"android":"levelo://app?vid=1e77de7f-4d27-4509-a320-356d2d64a285","ios":"levelo://app?vid=1e77de7f-4d27-4509-a320-356d2d64a285"},"vehicle_type_id":"4","last_reported":1768245231,"current_range_meters":4000,"station_id":"ce4bgqh2rcd13ifvqc4g","pricing_plan_id":"cebpf4jnsgd1na2vs0mg"},{"bike_id":"84e16006-5628-4350-aeb6-7f7c09d8818d","system_id":"levelo_inurba_marseille","lat":43.23955,"lon":5.36633,"is_reserved":false,"is_disabled":false,"rental_uris":{"android":"levelo://app?vid=84e16006-5628-4350-aeb6-7f7c09d8818d","ios":"levelo://app?vid=84e16006-5628-4350-aeb6-7f7c09d8818d"},"vehicle_type_id":"4","last_reported":1768245231,"current_range_meters":4000,"station_id":"ce4bhi12rcd13ifvqfp0","pricing_plan_id":"cebpf4jnsgd1na2vs0mg"},{"bike_id":"6e5c982e-c67a-4226-afb6-c45803df8e9d","system_id":"levelo_inurba_marseille","lat":43.27979,"lon":5.4165,"is_reserved":false,"is_disabled":false,"rental_uris":{"android":"levelo://app?vid=6e5c982e-c67a-4226-afb6-c45803df8e9d","ios":"levelo://app?vid=6e5c982e-c67a-4226-afb6-c45803df8e9d"},"vehicle_type_id":"4","last_reported":1768245231,"current_range_meters":4000,"station_id":"ce4bho12rcd13ifvqh1g","pricing_plan_id":"cebpf4jnsgd1na2vs0mg"},{"bike_id":"9787124e-2f43-4981-b8ec-2ffd778032d5","system_id":"levelo_inurba_marseille","lat":43.26926,"lon":5.38911,"is_reserved":false,"is_disabled":false,"rental_uris":{"android":"levelo://app?vid=9787124e-2f43-4981-b8ec-2ffd778032d5","ios":"levelo://app?vid=9787124e-2f43-4981-b8ec-2ffd778032d5"},"vehicle_type_id":"4","last_reported":1768245231,"current_range_meters":4000,"station_id":"ce4bhhh2rcd13ifvqfl0","pricing_plan_id":"cebpf4jnsgd1na2vs0mg"},{"bike_id":"63b1856a-5e73-4949-8313-642a7aae66aa","system_id":"levelo_inurba_marseille","lat":43.2293,"lon":5.35377,"is_reserved":false,"is_disabled":false,"rental_uris":{"android":"levelo://app?vid=63b1856a-5e73-4949-8313-642a7aae66aa","ios":"levelo://app?vid=63b1856a-5e73-4949-8313-642a7aae66aa"},"vehicle_type_id":"4","last_reported":1768245231,"current_range_meters":4000,"station_id":"cpo3532slgdg3j2ikp40","pricing_plan_id":"cebpf4jnsgd1na2vs0mg"},{"bike_id":"f66a133e-7af9-409d-b78c-71e5f6289609","system_id":"levelo_inurba_marseille","lat":43.22554,"lon":5.41626,"is_reserved":false,"is_disabled":false,"rental_uris":{"android":"levelo://app?vid=f66a133e-7af9-409d-b78c-71e5f6289609","ios":"levelo://app?vid=f66a133e-7af9-409d-b78c-71e5f6289609"},"vehicle_type_id":"4","last_reported":1768245231,"current_range_meters":4000,"station_id":"st_d2o4gvlbi1j2169b742g","pricing_plan_id":"cebpf4jnsgd1na2vs0mg"},{"bike_id":"e8909d11-c6c0-4a1b-a11a-6b74d5a8be8d","system_id":"levelo_inurba_marseille","lat":43.225339,"lon":5.348392,"is_reserved":false,"is_disabled":false,"rental_uris":{"android":"levelo://app?vid=e8909d11-c6c0-4a1b-a11a-6b74d5a8be8d","ios":"levelo://app?vid=e8909d11-c6c0-4a1b-a11a-6b74d5a8be8d"},"vehicle_type_id":"4","last_reported":1768245231,"current_range_meters":4000,"station_id":"","pricing_plan_id":"cebpf4jnsgd1na2vs0mg"},{"bike_id":"01b19e5d-b9f1-4c50-ac3f-4cdb26e79d1b","system_id":"levelo_inurba_marseille","lat":43.27813,"lon":5.40706,"is_reserved":false,"is_disabled":false,"rental_uris":{"android":"levelo://app?vid=01b19e5d-b9f1-4c50-ac3f-4cdb26e79d1b","ios":"levelo://app?vid=01b19e5d-b9f1-4c50-ac3f-4cdb26e79d1b"},"vehicle_type_id":"4","last_reported":1768245231,"current_range_meters":4000,"station_id":"ce4bhnh2rcd13ifvqgtg","pricing_plan_id":"cebpf4jnsgd1na2vs0mg"},{"bike_id":"4755f4de-5e86-47b9-8160-12c356d26375","system_id":"levelo_inurba_marseille","lat":43.22559,"lon":5.4163,"is_reserved":false,"is_disabled":false,"rental_uris":{"android":"levelo://app?vid=4755f4de-5e86-47b9-8160-12c356d26375","ios":"levelo://app?vid=4755f4de-5e86-47b9-8160-12c356d26375"},"vehicle_type_id":"4","last_reported":1768245231,"current_range_meters":4000,"station_id":"st_d2o4gvlbi1j2169b742g","pricing_plan_id":"cebpf4jnsgd1na2vs0mg"},{"bike_id":"021c3b11-e583-40b4-8ea1-2ae3371d0bc9","system_id":"levelo_inurba_marseille","lat":43.28483,"lon":5.48402,"is_reserved":false,"is_disabled":false,"rental_uris":{"android":"levelo://app?vid=021c3b11-e583-40b4-8ea1-2ae3371d0bc9","ios":"levelo://app?vid=021c3b11-e583-40b4-8ea1-2ae3371d0bc9"},"vehicle_type_id":"4","last_reported":1768245231,"current_range_meters":4000,"station_id":"","pricing_plan_id":"cebpf4jnsgd1na2vs0mg"},{"bike_id":"b77dd399-8633-4e57-b02f-3cf1ad9b2dc5","system_id":"levelo_inurba_marseille","lat":43.3327,"lon":5.41208,"is_reserved":false,"is_disabled":false,"rental_uris":{"android":"levelo://app?vid=b77dd399-8633-4e57-b02f-3cf1ad9b2dc5","ios":"levelo://app?vid=b77dd399-8633-4e57-b02f-3cf1ad9b2dc5"},"vehicle_type_id":"4","last_reported":1768245231,"current_range_meters":4000,"station_id":"","pricing_plan_id":"cebpf4jnsgd1na2vs0mg"},{"bike_id":"08249d0f-b974-414d-ba31-04e0c1f8df45","system_id":"levelo_inurba_marseille","lat":43.28154,"lon":5.42637,"is_reserved":false,"is_disabled":false,"rental_uris":{"android":"levelo://app?vid=08249d0f-b974-414d-ba31-04e0c1f8df45","ios":"levelo://app?vid=08249d0f-b974-414d-ba31-04e0c1f8df45"},"vehicle_type_id":"4","last_reported":1768245231,"current_range_meters":4000,"station_id":"ce4bhnh2rcd13ifvqgug","pricing_plan_id":"cebpf4jnsgd1na2vs0mg"},{"bike_id":"7bfe90af-2543-454a-86a7-48ca287c4f3d","system_id":"levelo_inurba_marseille","lat":43.27651,"lon":5.38908,"is_reserved":false,"is_disabled":false,"rental_uris":{"android":"levelo://app?vid=7bfe90af-2543-454a-86a7-48ca287c4f3d","ios":"levelo://app?vid=7bfe90af-2543-454a-86a7-48ca287c4f3d"},"vehicle_type_id":"4","last_reported":1768245231,"current_range_meters":4400,"station_id":"ce4bhi12rcd13ifvqfo0","pricing_plan_id":"cebpf4jnsgd1na2vs0mg"},{"bike_id":"682a25db-2229-438e-a91a-bd8e0ed43f7f","system_id":"levelo_inurba_marseille","lat":43.3022,"lon":5.37098,"is_reserved":false,"is_disabled":false,"rental_uris":{"android":"levelo://app?vid=682a25db-2229-438e-a91a-bd8e0ed43f7f","ios":"levelo://app?vid=682a25db-2229-438e-a91a-bd8e0ed43f7f"},"vehicle_type_id":"4","last_reported":1768245231,"current_range_meters":4400,"station_id":"","pricing_plan_id":"cebpf4jnsgd1na2vs0mg"},{"bike_id":"37d346c2-402f-45d2-b4da-80d15ccfc742","system_id":"levelo_inurba_marseille","lat":43.25103,"lon":5.40327,"is_reserved":false,"is_disabled":false,"rental_uris":{"android":"levelo://app?vid=37d346c2-402f-45d2-b4da-80d15ccfc742","ios":"levelo://app?vid=37d346c2-402f-45d2-b4da-80d15ccfc742"},"vehicle_type_id":"4","last_reported":1768245231,"current_range_meters":4400,"station_id":"ce4bhlh2rcd13ifvqgig","pricing_plan_id":"cebpf4jnsgd1na2vs0mg"},{"bike_id":"74517fce-3511-422e-b7b6-d84d30e9d61f","system_id":"levelo_inurba_marseille","lat":43.30367,"lon":5.37326,"is_reserved":false,"is_disabled":false,"rental_uris":{"android":"levelo://app?vid=74517fce-3511-422e-b7b6-d84d30e9d61f","ios":"levelo://app?vid=74517fce-3511-422e-b7b6-d84d30e9d61f"},"vehicle_type_id":"4","last_reported":1768245231,"current_range_meters":4400,"station_id":"","pricing_plan_id":"cebpf4jnsgd1na2vs0mg"},{"bike_id":"86e3d2b0-3b7b-43a8-a0f5-1c139a4a5076","system_id":"levelo_inurba_marseille","lat":43.27929,"lon":5.39585,"is_reserved":false,"is_disabled":false,"rental_uris":{"android":"levelo://app?vid=86e3d2b0-3b7b-43a8-a0f5-1c139a4a5076","ios":"levelo://app?vid=86e3d2b0-3b7b-43a8-a0f5-1c139a4a5076"},"vehicle_type_id":"4","last_reported":1768245231,"current_range_meters":4400,"station_id":"ce4bhf92rcd13ifvqf40","pricing_plan_id":"cebpf4jnsgd1na2vs0mg"},{"bike_id":"64f7d702-cc24-4d72-aef8-c34806e3088b","system_id":"levelo_inurba_marseille","lat":43.25108,"lon":5.40329,"is_reserved":false,"is_disabled":false,"rental_uris":{"android":"levelo://app?vid=64f7d702-cc24-4d72-aef8-c34806e3088b","ios":"levelo://app?vid=64f7d702-cc24-4d72-aef8-c34806e3088b"},"vehicle_type_id":"4","last_reported":1768245231,"current_range_meters":4400,"station_id":"ce4bhlh2rcd13ifvqgig","pricing_plan_id":"cebpf4jnsgd1na2vs0mg"},{"bike_id":"599551f3-489c-449c-a5f9-34490cbff37c","system_id":"levelo_inurba_marseille","lat":43.28481,"lon":5.38216,"is_reserved":false,"is_disabled":false,"rental_uris":{"android":"levelo://app?vid=599551f3-489c-449c-a5f9-34490cbff37c","ios":"levelo://app?vid=599551f3-489c-449c-a5f9-34490cbff37c"},"vehicle_type_id":"4","last_reported":1768245231,"current_range_meters":4400,"station_id":"","pricing_plan_id":"cebpf4jnsgd1na2vs0mg"},{"bike_id":"950fb9ca-8a92-4124-b176-97b616bd9ee7","system_id":"levelo_inurba_marseille","lat":43.28852,"lon":5.39322,"is_reserved":false,"is_disabled":true,"rental_uris":{"android":"levelo://app?vid=950fb9ca-8a92-4124-b176-97b616bd9ee7","ios":"levelo://app?vid=950fb9ca-8a92-4124-b176-97b616bd9ee7"},"vehicle_type_id":"4","last_reported":1768245231,"current_range_meters":4400,"station_id":"ce4bh2p2rcd13ifvqdi0","pricing_plan_id":"cebpf4jnsgd1na2vs0mg"},{"bike_id":"2f357f68-e8cc-4f6a-9fe7-b735ddecb351","system_id":"levelo_inurba_marseille","lat":43.31724,"lon":5.37753,"is_reserved":false,"is_disabled":false,"rental_uris":{"android":"levelo://app?vid=2f357f68-e8cc-4f6a-9fe7-b735ddecb351","ios":"levelo://app?vid=2f357f68-e8cc-4f6a-9fe7-b735ddecb351"},"vehicle_type_id":"4","last_reported":1768245231,"current_range_meters":4400,"station_id":"ce4bgth2rcd13ifvqch0","pricing_plan_id":"cebpf4jnsgd1na2vs0mg"},{"bike_id":"f55035af-60a9-49d1-8e12-e53ee74a2586","system_id":"levelo_inurba_marseille","lat":43.29843,"lon":5.36263,"is_reserved":false,"is_disabled":false,"rental_uris":{"android":"levelo://app?vid=f55035af-60a9-49d1-8e12-e53ee74a2586","ios":"levelo://app?vid=f55035af-60a9-49d1-8e12-e53ee74a2586"},"vehicle_type_id":"4","last_reported":1768245231,"current_range_meters":4400,"station_id":"ce4bgpp2rcd13ifvqc3g","pricing_plan_id":"cebpf4jnsgd1na2vs0mg"},{"bike_id":"dc74af33-cb61-4bcf-b06f-7844e3ffe30f","system_id":"levelo_inurba_marseille","lat":43.28093,"lon":5.37857,"is_reserved":false,"is_disabled":false,"rental_uris":{"android":"levelo://app?vid=dc74af33-cb61-4bcf-b06f-7844e3ffe30f","ios":"levelo://app?vid=dc74af33-cb61-4bcf-b06f-7844e3ffe30f"},"vehicle_type_id":"4","last_reported":1768245231,"current_range_meters":4400,"station_id":"ce4bha12rcd13ifvqee0","pricing_plan_id":"cebpf4jnsgd1na2vs0mg"},{"bike_id":"d27437ba-3ffb-4f9d-bb78-9893a2ba4e33","system_id":"levelo_inurba_marseille","lat":43.286114,"lon":5.351027,"is_reserved":false,"is_disabled":false,"rental_uris":{"android":"levelo://app?vid=d27437ba-3ffb-4f9d-bb78-9893a2ba4e33","ios":"levelo://app?vid=d27437ba-3ffb-4f9d-bb78-9893a2ba4e33"},"vehicle_type_id":"4","last_reported":1768245231,"current_range_meters":4400,"station_id":"ce4bhch2rcd13ifvqeug","pricing_plan_id":"cebpf4jnsgd1na2vs0mg"},{"bike_id":"5a93c31a-82d4-4450-bb2d-5c0f5869f750","system_id":"levelo_inurba_marseille","lat":43.31374,"lon":5.36904,"is_reserved":false,"is_disabled":false,"rental_uris":{"android":"levelo://app?vid=5a93c31a-82d4-4450-bb2d-5c0f5869f750","ios":"levelo://app?vid=5a93c31a-82d4-4450-bb2d-5c0f5869f750"},"vehicle_type_id":"4","last_reported":1768245231,"current_range_meters":4400,"station_id":"","pricing_plan_id":"cebpf4jnsgd1na2vs0mg"},{"bike_id":"10a4859b-492e-4415-9063-1030a46ae63d","system_id":"levelo_inurba_marseille","lat":43.23784,"lon":5.36619,"is_reserved":false,"is_disabled":false,"rental_uris":{"android":"levelo://app?vid=10a4859b-492e-4415-9063-1030a46ae63d","ios":"levelo://app?vid=10a4859b-492e-4415-9063-1030a46ae63d"},"vehicle_type_id":"4","last_reported":1768245231,"current_range_meters":4400,"station_id":"st_d3nk18o9ro0c73en2l3g","pricing_plan_id":"cebpf4jnsgd1na2vs0mg"},{"bike_id":"7fe21793-db8c-4337-8752-6b7e026e2640","system_id":"levelo_inurba_marseille","lat":43.25524,"lon":5.37642,"is_reserved":false,"is_disabled":false,"rental_uris":{"android":"levelo://app?vid=7fe21793-db8c-4337-8752-6b7e026e2640","ios":"levelo://app?vid=7fe21793-db8c-4337-8752-6b7e026e2640"},"vehicle_type_id":"4","last_reported":1768245231,"current_range_meters":4400,"station_id":"ce4bhh12rcd13ifvqff0","pricing_plan_id":"cebpf4jnsgd1na2vs0mg"},{"bike_id":"886f6a48-d8c9-4f03-9c08-fa6700bc8f85","system_id":"levelo_inurba_marseille","lat":43.22935,"lon":5.35378,"is_reserved":false,"is_disabled":false,"rental_uris":{"android":"levelo://app?vid=886f6a48-d8c9-4f03-9c08-fa6700bc8f85","ios":"levelo://app?vid=886f6a48-d8c9-4f03-9c08-fa6700bc8f85"},"vehicle_type_id":"4","last_reported":1768245231,"current_range_meters":4400,"station_id":"cpo3532slgdg3j2ikp40","pricing_plan_id":"cebpf4jnsgd1na2vs0mg"},{"bike_id":"03a6d109-24a3-4cf0-8ded-3d4abbedeb80","system_id":"levelo_inurba_marseille","lat":43.25341,"lon":5.42143,"is_reserved":false,"is_disabled":false,"rental_uris":{"android":"levelo://app?vid=03a6d109-24a3-4cf0-8ded-3d4abbedeb80","ios":"levelo://app?vid=03a6d109-24a3-4cf0-8ded-3d4abbedeb80"},"vehicle_type_id":"4","last_reported":1768245231,"current_range_meters":4400,"station_id":"st_d2m65c5bi1j21697t3ng","pricing_plan_id":"cebpf4jnsgd1na2vs0mg"},{"bike_id":"a7f3381d-b96a-4907-8886-7a2032e17419","system_id":"levelo_inurba_marseille","lat":43.30752,"lon":5.4244,"is_reserved":false,"is_disabled":false,"rental_uris":{"android":"levelo://app?vid=a7f3381d-b96a-4907-8886-7a2032e17419","ios":"levelo://app?vid=a7f3381d-b96a-4907-8886-7a2032e17419"},"vehicle_type_id":"4","last_reported":1768245231,"current_range_meters":4800,"station_id":"st_cvj6ca6bvosntc0bfgr0","pricing_plan_id":"cebpf4jnsgd1na2vs0mg"},{"bike_id":"8c4e7e32-a39f-4449-88b1-69941cb755fd","system_id":"levelo_inurba_marseille","lat":43.27807,"lon":5.40717,"is_reserved":false,"is_disabled":false,"rental_uris":{"android":"levelo://app?vid=8c4e7e32-a39f-4449-88b1-69941cb755fd","ios":"levelo://app?vid=8c4e7e32-a39f-4449-88b1-69941cb755fd"},"vehicle_type_id":"4","last_reported":1768245231,"current_range_meters":4800,"station_id":"ce4bhnh2rcd13ifvqgtg","pricing_plan_id":"cebpf4jnsgd1na2vs0mg"},{"bike_id":"63a8ad53-0407-4bea-a09c-eee796fd0c2b","system_id":"levelo_inurba_marseille","lat":43.278417,"lon":5.406938,"is_reserved":false,"is_disabled":false,"rental_uris":{"android":"levelo://app?vid=63a8ad53-0407-4bea-a09c-eee796fd0c2b","ios":"levelo://app?vid=63a8ad53-0407-4bea-a09c-eee796fd0c2b"},"vehicle_type_id":"4","last_reported":1768245231,"current_range_meters":4800,"station_id":"","pricing_plan_id":"cebpf4jnsgd1na2vs0mg"},{"bike_id":"2c79ba8b-e186-4531-bb05-ea95004575af","system_id":"levelo_inurba_marseille","lat":43.30182,"lon":5.38079,"is_reserved":false,"is_disabled":false,"rental_uris":{"android":"levelo://app?vid=2c79ba8b-e186-4531-bb05-ea95004575af","ios":"levelo://app?vid=2c79ba8b-e186-4531-bb05-ea95004575af"},"vehicle_type_id":"4","last_reported":1768245231,"current_range_meters":4800,"station_id":"ce4bgjp2rcd13ifvqbh0","pricing_plan_id":"cebpf4jnsgd1na2vs0mg"},{"bike_id":"208b6de9-ffcd-4907-8a2c-4799bc189022","system_id":"levelo_inurba_marseille","lat":43.23182,"lon":5.39977,"is_reserved":false,"is_disabled":false,"rental_uris":{"android":"levelo://app?vid=208b6de9-ffcd-4907-8a2c-4799bc189022","ios":"levelo://app?vid=208b6de9-ffcd-4907-8a2c-4799bc189022"},"vehicle_type_id":"4","last_reported":1768245231,"current_range_meters":4800,"station_id":"ce4bhn12rcd13ifvqgqg","pricing_plan_id":"cebpf4jnsgd1na2vs0mg"},{"bike_id":"e21f83f2-ad42-4aed-9759-576415e0cd84","system_id":"levelo_inurba_marseille","lat":43.28518,"lon":5.42995,"is_reserved":false,"is_disabled":false,"rental_uris":{"android":"levelo://app?vid=e21f83f2-ad42-4aed-9759-576415e0cd84","ios":"levelo://app?vid=e21f83f2-ad42-4aed-9759-576415e0cd84"},"vehicle_type_id":"4","last_reported":1768245231,"current_range_meters":4800,"station_id":"","pricing_plan_id":"cebpf4jnsgd1na2vs0mg"},{"bike_id":"795d793e-88df-4ac1-a147-0968b8571e02","system_id":"levelo_inurba_marseille","lat":43.23201,"lon":5.39984,"is_reserved":false,"is_disabled":false,"rental_uris":{"android":"levelo://app?vid=795d793e-88df-4ac1-a147-0968b8571e02","ios":"levelo://app?vid=795d793e-88df-4ac1-a147-0968b8571e02"},"vehicle_type_id":"4","last_reported":1768245231,"current_range_meters":4800,"station_id":"ce4bhn12rcd13ifvqgqg","pricing_plan_id":"cebpf4jnsgd1na2vs0mg"},{"bike_id":"c8ff5af5-da3b-4b10-9507-25dbe88a654d","system_id":"levelo_inurba_marseille","lat":43.28007,"lon":5.40911,"is_reserved":false,"is_disabled":false,"rental_uris":{"android":"levelo://app?vid=c8ff5af5-da3b-4b10-9507-25dbe88a654d","ios":"levelo://app?vid=c8ff5af5-da3b-4b10-9507-25dbe88a654d"},"vehicle_type_id":"4","last_reported":1768245231,"current_range_meters":4800,"station_id":"","pricing_plan_id":"cebpf4jnsgd1na2vs0mg"},{"bike_id":"dd67a0b3-d5e0-4276-b1a4-1926be74a790","system_id":"levelo_inurba_marseille","lat":43.30014,"lon":5.37637,"is_reserved":false,"is_disabled":false,"rental_uris":{"android":"levelo://app?vid=dd67a0b3-d5e0-4276-b1a4-1926be74a790","ios":"levelo://app?vid=dd67a0b3-d5e0-4276-b1a4-1926be74a790"},"vehicle_type_id":"4","last_reported":1768245231,"current_range_meters":4800,"station_id":"","pricing_plan_id":"cebpf4jnsgd1na2vs0mg"},{"bike_id":"635a1de5-8a8b-49a7-a7fc-67da1d77364c","system_id":"levelo_inurba_marseille","lat":43.3013,"lon":5.3987,"is_reserved":false,"is_disabled":false,"rental_uris":{"android":"levelo://app?vid=635a1de5-8a8b-49a7-a7fc-67da1d77364c","ios":"levelo://app?vid=635a1de5-8a8b-49a7-a7fc-67da1d77364c"},"vehicle_type_id":"4","last_reported":1768245231,"current_range_meters":4800,"station_id":"ce4bh0h2rcd13ifvqd40","pricing_plan_id":"cebpf4jnsgd1na2vs0mg"},{"bike_id":"e05e0fde-034f-4c39-a9c8-6337c3922979","system_id":"levelo_inurba_marseille","lat":43.29021,"lon":5.38126,"is_reserved":false,"is_disabled":false,"rental_uris":{"android":"levelo://app?vid=e05e0fde-034f-4c39-a9c8-6337c3922979","ios":"levelo://app?vid=e05e0fde-034f-4c39-a9c8-6337c3922979"},"vehicle_type_id":"4","last_reported":1768245231,"current_range_meters":4800,"station_id":"ce4bh4p2rcd13ifvqe1g","pricing_plan_id":"cebpf4jnsgd1na2vs0mg"},{"bike_id":"31112e0a-315c-4639-8339-bc4861e22d25","system_id":"levelo_inurba_marseille","lat":43.31712,"lon":5.37783,"is_reserved":false,"is_disabled":false,"rental_uris":{"android":"levelo://app?vid=31112e0a-315c-4639-8339-bc4861e22d25","ios":"levelo://app?vid=31112e0a-315c-4639-8339-bc4861e22d25"},"vehicle_type_id":"4","last_reported":1768245231,"current_range_meters":4800,"station_id":"ce4bgth2rcd13ifvqch0","pricing_plan_id":"cebpf4jnsgd1na2vs0mg"},{"bike_id":"301c787a-5305-45f5-86ff-c559fa230a50","system_id":"levelo_inurba_marseille","lat":43.2986,"lon":5.37634,"is_reserved":false,"is_disabled":false,"rental_uris":{"android":"levelo://app?vid=301c787a-5305-45f5-86ff-c559fa230a50","ios":"levelo://app?vid=301c787a-5305-45f5-86ff-c559fa230a50"},"vehicle_type_id":"4","last_reported":1768245231,"current_range_meters":4800,"station_id":"","pricing_plan_id":"cebpf4jnsgd1na2vs0mg"},{"bike_id":"86b62783-992a-4d4e-b21b-d4b6818d36d8","system_id":"levelo_inurba_marseille","lat":43.25578,"lon":5.38245,"is_reserved":false,"is_disabled":false,"rental_uris":{"android":"levelo://app?vid=86b62783-992a-4d4e-b21b-d4b6818d36d8","ios":"levelo://app?vid=86b62783-992a-4d4e-b21b-d4b6818d36d8"},"vehicle_type_id":"4","last_reported":1768245231,"current_range_meters":4800,"station_id":"ce4bhih2rcd13ifvqfs0","pricing_plan_id":"cebpf4jnsgd1na2vs0mg"},{"bike_id":"53d22cba-91d1-42b1-b294-699211397009","system_id":"levelo_inurba_marseille","lat":43.25335,"lon":5.42179,"is_reserved":false,"is_disabled":false,"rental_uris":{"android":"levelo://app?vid=53d22cba-91d1-42b1-b294-699211397009","ios":"levelo://app?vid=53d22cba-91d1-42b1-b294-699211397009"},"vehicle_type_id":"4","last_reported":1768245231,"current_range_meters":4800,"station_id":"st_d2m65c5bi1j21697t3ng","pricing_plan_id":"cebpf4jnsgd1na2vs0mg"},{"bike_id":"8f7d4958-8799-4979-b908-245a42bc8529","system_id":"levelo_inurba_marseille","lat":43.30447,"lon":5.38887,"is_reserved":false,"is_disabled":false,"rental_uris":{"android":"levelo://app?vid=8f7d4958-8799-4979-b908-245a42bc8529","ios":"levelo://app?vid=8f7d4958-8799-4979-b908-245a42bc8529"},"vehicle_type_id":"4","last_reported":1768245231,"current_range_meters":4800,"station_id":"ce4bgk12rcd13ifvqbi0","pricing_plan_id":"cebpf4jnsgd1na2vs0mg"},{"bike_id":"fa41facd-1726-4f2f-947e-865f658f52f6","system_id":"levelo_inurba_marseille","lat":43.262074,"lon":5.37927,"is_reserved":false,"is_disabled":true,"rental_uris":{"android":"levelo://app?vid=fa41facd-1726-4f2f-947e-865f658f52f6","ios":"levelo://app?vid=fa41facd-1726-4f2f-947e-865f658f52f6"},"vehicle_type_id":"4","last_reported":1768245231,"current_range_meters":5600,"station_id":"","pricing_plan_id":"cebpf4jnsgd1na2vs0mg"},{"bike_id":"6cfafae2-24e3-4bb5-9336-a15339de06af","system_id":"levelo_inurba_marseille","lat":43.23776,"lon":5.36633,"is_reserved":false,"is_disabled":false,"rental_uris":{"android":"levelo://app?vid=6cfafae2-24e3-4bb5-9336-a15339de06af","ios":"levelo://app?vid=6cfafae2-24e3-4bb5-9336-a15339de06af"},"vehicle_type_id":"4","last_reported":1768245231,"current_range_meters":5600,"station_id":"st_d3nk18o9ro0c73en2l3g","pricing_plan_id":"cebpf4jnsgd1na2vs0mg"},{"bike_id":"f043a1a1-4a69-4186-9666-3af6d6cee7e1","system_id":"levelo_inurba_marseille","lat":43.26184,"lon":5.37465,"is_reserved":false,"is_disabled":true,"rental_uris":{"android":"levelo://app?vid=f043a1a1-4a69-4186-9666-3af6d6cee7e1","ios":"levelo://app?vid=f043a1a1-4a69-4186-9666-3af6d6cee7e1"},"vehicle_type_id":"4","last_reported":1768245231,"current_range_meters":5600,"station_id":"ce4bhgp2rcd13ifvqfc0","pricing_plan_id":"cebpf4jnsgd1na2vs0mg"},{"bike_id":"cfc661b5-6118-4bf3-8254-aa50c71a14ad","system_id":"levelo_inurba_marseille","lat":43.30293,"lon":5.36863,"is_reserved":false,"is_disabled":false,"rental_uris":{"android":"levelo://app?vid=cfc661b5-6118-4bf3-8254-aa50c71a14ad","ios":"levelo://app?vid=cfc661b5-6118-4bf3-8254-aa50c71a14ad"},"vehicle_type_id":"4","last_reported":1768245231,"current_range_meters":5600,"station_id":"ce4bgqh2rcd13ifvqc5g","pricing_plan_id":"cebpf4jnsgd1na2vs0mg"},{"bike_id":"b75b9b40-daab-41be-984c-4907ce0bd6e7","system_id":"levelo_inurba_marseille","lat":43.28422,"lon":5.34994,"is_reserved":false,"is_disabled":false,"rental_uris":{"android":"levelo://app?vid=b75b9b40-daab-41be-984c-4907ce0bd6e7","ios":"levelo://app?vid=b75b9b40-daab-41be-984c-4907ce0bd6e7"},"vehicle_type_id":"4","last_reported":1768245231,"current_range_meters":5600,"station_id":"ce4bhbh2rcd13ifvqepg","pricing_plan_id":"cebpf4jnsgd1na2vs0mg"},{"bike_id":"0b89e391-f907-49b3-821c-11a35132660a","system_id":"levelo_inurba_marseille","lat":43.253358,"lon":5.421723,"is_reserved":false,"is_disabled":false,"rental_uris":{"android":"levelo://app?vid=0b89e391-f907-49b3-821c-11a35132660a","ios":"levelo://app?vid=0b89e391-f907-49b3-821c-11a35132660a"},"vehicle_type_id":"4","last_reported":1768245231,"current_range_meters":5600,"station_id":"st_d2m65c5bi1j21697t3ng","pricing_plan_id":"cebpf4jnsgd1na2vs0mg"},{"bike_id":"aaa7746b-4bb3-4745-9a78-16c7e3f0ea13","system_id":"levelo_inurba_marseille","lat":43.24068,"lon":5.37762,"is_reserved":false,"is_disabled":false,"rental_uris":{"android":"levelo://app?vid=aaa7746b-4bb3-4745-9a78-16c7e3f0ea13","ios":"levelo://app?vid=aaa7746b-4bb3-4745-9a78-16c7e3f0ea13"},"vehicle_type_id":"4","last_reported":1768245231,"current_range_meters":5600,"station_id":"ce4bhnp2rcd13ifvqgvg","pricing_plan_id":"cebpf4jnsgd1na2vs0mg"},{"bike_id":"5de157c2-16f6-4b03-910c-5a1a0f77b0ec","system_id":"levelo_inurba_marseille","lat":43.279062,"lon":5.380274,"is_reserved":false,"is_disabled":false,"rental_uris":{"android":"levelo://app?vid=5de157c2-16f6-4b03-910c-5a1a0f77b0ec","ios":"levelo://app?vid=5de157c2-16f6-4b03-910c-5a1a0f77b0ec"},"vehicle_type_id":"4","last_reported":1768245231,"current_range_meters":5600,"station_id":"ce4bhf92rcd13ifvqf50","pricing_plan_id":"cebpf4jnsgd1na2vs0mg"},{"bike_id":"2d8c1637-2fbc-4210-8640-38a49f09d559","system_id":"levelo_inurba_marseille","lat":43.28487,"lon":5.385502,"is_reserved":false,"is_disabled":false,"rental_uris":{"android":"levelo://app?vid=2d8c1637-2fbc-4210-8640-38a49f09d559","ios":"levelo://app?vid=2d8c1637-2fbc-4210-8640-38a49f09d559"},"vehicle_type_id":"4","last_reported":1768245231,"current_range_meters":5600,"station_id":"ce4bh8p2rcd13ifvqeb0","pricing_plan_id":"cebpf4jnsgd1na2vs0mg"},{"bike_id":"6f339b58-85a2-4d43-813e-1c4fe3acb20a","system_id":"levelo_inurba_marseille","lat":43.29522,"lon":5.39399,"is_reserved":false,"is_disabled":false,"rental_uris":{"android":"levelo://app?vid=6f339b58-85a2-4d43-813e-1c4fe3acb20a","ios":"levelo://app?vid=6f339b58-85a2-4d43-813e-1c4fe3acb20a"},"vehicle_type_id":"4","last_reported":1768245231,"current_range_meters":5600,"station_id":"ce4bh292rcd13ifvqdf0","pricing_plan_id":"cebpf4jnsgd1na2vs0mg"},{"bike_id":"fae57e34-d123-4b5d-b549-b5483c41b8c0","system_id":"levelo_inurba_marseille","lat":43.28894,"lon":5.37591,"is_reserved":false,"is_disabled":false,"rental_uris":{"android":"levelo://app?vid=fae57e34-d123-4b5d-b549-b5483c41b8c0","ios":"levelo://app?vid=fae57e34-d123-4b5d-b549-b5483c41b8c0"},"vehicle_type_id":"4","last_reported":1768245231,"current_range_meters":5600,"station_id":"","pricing_plan_id":"cebpf4jnsgd1na2vs0mg"},{"bike_id":"6b4cd2dc-25ea-4079-b9fe-5462d5e3a9f0","system_id":"levelo_inurba_marseille","lat":43.27131,"lon":5.40421,"is_reserved":false,"is_disabled":false,"rental_uris":{"android":"levelo://app?vid=6b4cd2dc-25ea-4079-b9fe-5462d5e3a9f0","ios":"levelo://app?vid=6b4cd2dc-25ea-4079-b9fe-5462d5e3a9f0"},"vehicle_type_id":"4","last_reported":1768245231,"current_range_meters":5600,"station_id":"","pricing_plan_id":"cebpf4jnsgd1na2vs0mg"},{"bike_id":"73458e0d-84b9-4043-9286-37e9026bc27e","system_id":"levelo_inurba_marseille","lat":43.22556,"lon":5.41629,"is_reserved":false,"is_disabled":false,"rental_uris":{"android":"levelo://app?vid=73458e0d-84b9-4043-9286-37e9026bc27e","ios":"levelo://app?vid=73458e0d-84b9-4043-9286-37e9026bc27e"},"vehicle_type_id":"4","last_reported":1768245231,"current_range_meters":5600,"station_id":"st_d2o4gvlbi1j2169b742g","pricing_plan_id":"cebpf4jnsgd1na2vs0mg"},{"bike_id":"b088ad58-7f41-4ab8-80da-21ba2cb9e467","system_id":"levelo_inurba_marseille","lat":43.2256,"lon":5.41637,"is_reserved":false,"is_disabled":false,"rental_uris":{"android":"levelo://app?vid=b088ad58-7f41-4ab8-80da-21ba2cb9e467","ios":"levelo://app?vid=b088ad58-7f41-4ab8-80da-21ba2cb9e467"},"vehicle_type_id":"4","last_reported":1768245231,"current_range_meters":5600,"station_id":"st_d2o4gvlbi1j2169b742g","pricing_plan_id":"cebpf4jnsgd1na2vs0mg"},{"bike_id":"a5e4775c-fe09-4d93-916a-5022170bcc25","system_id":"levelo_inurba_marseille","lat":43.24168,"lon":5.36397,"is_reserved":false,"is_disabled":false,"rental_uris":{"android":"levelo://app?vid=a5e4775c-fe09-4d93-916a-5022170bcc25","ios":"levelo://app?vid=a5e4775c-fe09-4d93-916a-5022170bcc25"},"vehicle_type_id":"4","last_reported":1768245231,"current_range_meters":5600,"station_id":"cpo36qri1sfpv3e86is0","pricing_plan_id":"cebpf4jnsgd1na2vs0mg"},{"bike_id":"46b25bcd-1b30-4ab1-a048-fe805bc6821a","system_id":"levelo_inurba_marseille","lat":43.251122,"lon":5.403124,"is_reserved":false,"is_disabled":false,"rental_uris":{"android":"levelo://app?vid=46b25bcd-1b30-4ab1-a048-fe805bc6821a","ios":"levelo://app?vid=46b25bcd-1b30-4ab1-a048-fe805bc6821a"},"vehicle_type_id":"4","last_reported":1768245231,"current_range_meters":5600,"station_id":"ce4bhlh2rcd13ifvqgig","pricing_plan_id":"cebpf4jnsgd1na2vs0mg"},{"bike_id":"18959285-a787-476c-a26f-440113181d13","system_id":"levelo_inurba_marseille","lat":43.2847,"lon":5.38405,"is_reserved":false,"is_disabled":true,"rental_uris":{"android":"levelo://app?vid=18959285-a787-476c-a26f-440113181d13","ios":"levelo://app?vid=18959285-a787-476c-a26f-440113181d13"},"vehicle_type_id":"4","last_reported":1768245231,"current_range_meters":6000,"station_id":"ce4bh512rcd13ifvqe3g","pricing_plan_id":"cebpf4jnsgd1na2vs0mg"},{"bike_id":"a16392da-5207-4df7-9429-2df19a8a41ee","system_id":"levelo_inurba_marseille","lat":43.32941,"lon":5.39058,"is_reserved":false,"is_disabled":false,"rental_uris":{"android":"levelo://app?vid=a16392da-5207-4df7-9429-2df19a8a41ee","ios":"levelo://app?vid=a16392da-5207-4df7-9429-2df19a8a41ee"},"vehicle_type_id":"4","last_reported":1768245231,"current_range_meters":6000,"station_id":"","pricing_plan_id":"cebpf4jnsgd1na2vs0mg"},{"bike_id":"5b74f76c-7655-4a1b-bf0f-ee1d1ac9b692","system_id":"levelo_inurba_marseille","lat":43.3138,"lon":5.36807,"is_reserved":false,"is_disabled":false,"rental_uris":{"android":"levelo://app?vid=5b74f76c-7655-4a1b-bf0f-ee1d1ac9b692","ios":"levelo://app?vid=5b74f76c-7655-4a1b-bf0f-ee1d1ac9b692"},"vehicle_type_id":"4","last_reported":1768245231,"current_range_meters":6000,"station_id":"","pricing_plan_id":"cebpf4jnsgd1na2vs0mg"},{"bike_id":"5a7dd1fb-12da-4ffe-a80c-3d765edaa1e0","system_id":"levelo_inurba_marseille","lat":43.22558,"lon":5.41622,"is_reserved":false,"is_disabled":false,"rental_uris":{"android":"levelo://app?vid=5a7dd1fb-12da-4ffe-a80c-3d765edaa1e0","ios":"levelo://app?vid=5a7dd1fb-12da-4ffe-a80c-3d765edaa1e0"},"vehicle_type_id":"4","last_reported":1768245231,"current_range_meters":6000,"station_id":"st_d2o4gvlbi1j2169b742g","pricing_plan_id":"cebpf4jnsgd1na2vs0mg"},{"bike_id":"b0d8414b-9ec4-4d2d-ada4-4b5a508ba76c","system_id":"levelo_inurba_marseille","lat":43.25924,"lon":5.40911,"is_reserved":false,"is_disabled":false,"rental_uris":{"android":"levelo://app?vid=b0d8414b-9ec4-4d2d-ada4-4b5a508ba76c","ios":"levelo://app?vid=b0d8414b-9ec4-4d2d-ada4-4b5a508ba76c"},"vehicle_type_id":"4","last_reported":1768245231,"current_range_meters":6000,"station_id":"ce4bhm92rcd13ifvqglg","pricing_plan_id":"cebpf4jnsgd1na2vs0mg"},{"bike_id":"56f33d1a-63a6-44cd-9b0f-4476e7b7806c","system_id":"levelo_inurba_marseille","lat":43.240775,"lon":5.377606,"is_reserved":false,"is_disabled":false,"rental_uris":{"android":"levelo://app?vid=56f33d1a-63a6-44cd-9b0f-4476e7b7806c","ios":"levelo://app?vid=56f33d1a-63a6-44cd-9b0f-4476e7b7806c"},"vehicle_type_id":"4","last_reported":1768245231,"current_range_meters":6000,"station_id":"ce4bhnp2rcd13ifvqgvg","pricing_plan_id":"cebpf4jnsgd1na2vs0mg"},{"bike_id":"5c7c7d9e-b199-43a9-9039-49ab92e678a2","system_id":"levelo_inurba_marseille","lat":43.27761,"lon":5.39921,"is_reserved":false,"is_disabled":false,"rental_uris":{"android":"levelo://app?vid=5c7c7d9e-b199-43a9-9039-49ab92e678a2","ios":"levelo://app?vid=5c7c7d9e-b199-43a9-9039-49ab92e678a2"},"vehicle_type_id":"4","last_reported":1768245231,"current_range_meters":6000,"station_id":"","pricing_plan_id":"cebpf4jnsgd1na2vs0mg"},{"bike_id":"dbad2cff-9661-422b-a29b-69069add4417","system_id":"levelo_inurba_marseille","lat":43.22927,"lon":5.35373,"is_reserved":false,"is_disabled":false,"rental_uris":{"android":"levelo://app?vid=dbad2cff-9661-422b-a29b-69069add4417","ios":"levelo://app?vid=dbad2cff-9661-422b-a29b-69069add4417"},"vehicle_type_id":"4","last_reported":1768245231,"current_range_meters":6000,"station_id":"cpo3532slgdg3j2ikp40","pricing_plan_id":"cebpf4jnsgd1na2vs0mg"},{"bike_id":"6139c10e-9938-4122-bd56-3985da1045c8","system_id":"levelo_inurba_marseille","lat":43.24466,"lon":5.42539,"is_reserved":false,"is_disabled":false,"rental_uris":{"android":"levelo://app?vid=6139c10e-9938-4122-bd56-3985da1045c8","ios":"levelo://app?vid=6139c10e-9938-4122-bd56-3985da1045c8"},"vehicle_type_id":"4","last_reported":1768245231,"current_range_meters":6000,"station_id":"st_d4a3vfp97mjs738cd8kg","pricing_plan_id":"cebpf4jnsgd1na2vs0mg"},{"bike_id":"ce18eb13-3297-475e-be12-69b723daa3fc","system_id":"levelo_inurba_marseille","lat":43.28569,"lon":5.39487,"is_reserved":false,"is_disabled":false,"rental_uris":{"android":"levelo://app?vid=ce18eb13-3297-475e-be12-69b723daa3fc","ios":"levelo://app?vid=ce18eb13-3297-475e-be12-69b723daa3fc"},"vehicle_type_id":"4","last_reported":1768245231,"current_range_meters":6000,"station_id":"ce4bh292rcd13ifvqdg0","pricing_plan_id":"cebpf4jnsgd1na2vs0mg"},{"bike_id":"ad4f3498-acf6-4b3e-97fe-f0441404f1d9","system_id":"levelo_inurba_marseille","lat":43.2783,"lon":5.39202,"is_reserved":false,"is_disabled":false,"rental_uris":{"android":"levelo://app?vid=ad4f3498-acf6-4b3e-97fe-f0441404f1d9","ios":"levelo://app?vid=ad4f3498-acf6-4b3e-97fe-f0441404f1d9"},"vehicle_type_id":"4","last_reported":1768245231,"current_range_meters":6000,"station_id":"ce4bhjp2rcd13ifvqga0","pricing_plan_id":"cebpf4jnsgd1na2vs0mg"},{"bike_id":"e8f94c38-f7ee-46d3-a690-5aa4e13c72fe","system_id":"levelo_inurba_marseille","lat":43.2557,"lon":5.38234,"is_reserved":false,"is_disabled":false,"rental_uris":{"android":"levelo://app?vid=e8f94c38-f7ee-46d3-a690-5aa4e13c72fe","ios":"levelo://app?vid=e8f94c38-f7ee-46d3-a690-5aa4e13c72fe"},"vehicle_type_id":"4","last_reported":1768245231,"current_range_meters":6000,"station_id":"ce4bhih2rcd13ifvqfs0","pricing_plan_id":"cebpf4jnsgd1na2vs0mg"},{"bike_id":"a2fedc2a-927f-4b6e-a06b-5daecbdfdca6","system_id":"levelo_inurba_marseille","lat":43.28436,"lon":5.39179,"is_reserved":false,"is_disabled":false,"rental_uris":{"android":"levelo://app?vid=a2fedc2a-927f-4b6e-a06b-5daecbdfdca6","ios":"levelo://app?vid=a2fedc2a-927f-4b6e-a06b-5daecbdfdca6"},"vehicle_type_id":"4","last_reported":1768245231,"current_range_meters":6000,"station_id":"ce4bhoh2rcd13ifvqh5g","pricing_plan_id":"cebpf4jnsgd1na2vs0mg"},{"bike_id":"9f2a1fd3-ffc5-4586-95af-377ff8c15230","system_id":"levelo_inurba_marseille","lat":43.24956,"lon":5.40485,"is_reserved":false,"is_disabled":false,"rental_uris":{"android":"levelo://app?vid=9f2a1fd3-ffc5-4586-95af-377ff8c15230","ios":"levelo://app?vid=9f2a1fd3-ffc5-4586-95af-377ff8c15230"},"vehicle_type_id":"4","last_reported":1768245231,"current_range_meters":6000,"station_id":"st_d2ngiaodas8pm72gd1h0","pricing_plan_id":"cebpf4jnsgd1na2vs0mg"},{"bike_id":"24f0a2da-aa1b-495a-8bd2-5db4872b3634","system_id":"levelo_inurba_marseille","lat":43.225613,"lon":5.416254,"is_reserved":false,"is_disabled":false,"rental_uris":{"android":"levelo://app?vid=24f0a2da-aa1b-495a-8bd2-5db4872b3634","ios":"levelo://app?vid=24f0a2da-aa1b-495a-8bd2-5db4872b3634"},"vehicle_type_id":"4","last_reported":1768245231,"current_range_meters":6000,"station_id":"st_d2o4gvlbi1j2169b742g","pricing_plan_id":"cebpf4jnsgd1na2vs0mg"},{"bike_id":"1da82394-edf2-4a0c-a62d-43072755bbb4","system_id":"levelo_inurba_marseille","lat":43.24666,"lon":5.38143,"is_reserved":false,"is_disabled":false,"rental_uris":{"android":"levelo://app?vid=1da82394-edf2-4a0c-a62d-43072755bbb4","ios":"levelo://app?vid=1da82394-edf2-4a0c-a62d-43072755bbb4"},"vehicle_type_id":"4","last_reported":1768245231,"current_range_meters":6000,"station_id":"ce4bhih2rcd13ifvqfr0","pricing_plan_id":"cebpf4jnsgd1na2vs0mg"},{"bike_id":"8f9c5fef-eb25-471f-abc7-43f55327e6a6","system_id":"levelo_inurba_marseille","lat":43.27815,"lon":5.40711,"is_reserved":false,"is_disabled":false,"rental_uris":{"android":"levelo://app?vid=8f9c5fef-eb25-471f-abc7-43f55327e6a6","ios":"levelo://app?vid=8f9c5fef-eb25-471f-abc7-43f55327e6a6"},"vehicle_type_id":"4","last_reported":1768245231,"current_range_meters":6400,"station_id":"ce4bhnh2rcd13ifvqgtg","pricing_plan_id":"cebpf4jnsgd1na2vs0mg"},{"bike_id":"2e02cc71-3e50-4a35-806f-7e9a5398a999","system_id":"levelo_inurba_marseille","lat":43.29227,"lon":5.36076,"is_reserved":false,"is_disabled":true,"rental_uris":{"android":"levelo://app?vid=2e02cc71-3e50-4a35-806f-7e9a5398a999","ios":"levelo://app?vid=2e02cc71-3e50-4a35-806f-7e9a5398a999"},"vehicle_type_id":"4","last_reported":1768245231,"current_range_meters":6400,"station_id":"ce4bhbh2rcd13ifvqeqg","pricing_plan_id":"cebpf4jnsgd1na2vs0mg"},{"bike_id":"35254f06-efb2-4d00-b949-89c11838f9ec","system_id":"levelo_inurba_marseille","lat":43.231965,"lon":5.355537,"is_reserved":false,"is_disabled":false,"rental_uris":{"android":"levelo://app?vid=35254f06-efb2-4d00-b949-89c11838f9ec","ios":"levelo://app?vid=35254f06-efb2-4d00-b949-89c11838f9ec"},"vehicle_type_id":"4","last_reported":1768245231,"current_range_meters":6400,"station_id":"ce4bhu92rcd13ifvqi70","pricing_plan_id":"cebpf4jnsgd1na2vs0mg"},{"bike_id":"857213d5-7353-4d98-a3cc-a303673faf43","system_id":"levelo_inurba_marseille","lat":43.25582,"lon":5.38223,"is_reserved":false,"is_disabled":true,"rental_uris":{"android":"levelo://app?vid=857213d5-7353-4d98-a3cc-a303673faf43","ios":"levelo://app?vid=857213d5-7353-4d98-a3cc-a303673faf43"},"vehicle_type_id":"4","last_reported":1768245231,"current_range_meters":6400,"station_id":"ce4bhih2rcd13ifvqfs0","pricing_plan_id":"cebpf4jnsgd1na2vs0mg"},{"bike_id":"48e0d58e-bd7e-4b90-92d4-898fdf7abd39","system_id":"levelo_inurba_marseille","lat":43.308595,"lon":5.406011,"is_reserved":false,"is_disabled":false,"rental_uris":{"android":"levelo://app?vid=48e0d58e-bd7e-4b90-92d4-898fdf7abd39","ios":"levelo://app?vid=48e0d58e-bd7e-4b90-92d4-898fdf7abd39"},"vehicle_type_id":"4","last_reported":1768245231,"current_range_meters":6400,"station_id":"","pricing_plan_id":"cebpf4jnsgd1na2vs0mg"},{"bike_id":"21f594df-8489-4ed1-9833-71f4d7d5f3e6","system_id":"levelo_inurba_marseille","lat":43.27612,"lon":5.36105,"is_reserved":false,"is_disabled":false,"rental_uris":{"android":"levelo://app?vid=21f594df-8489-4ed1-9833-71f4d7d5f3e6","ios":"levelo://app?vid=21f594df-8489-4ed1-9833-71f4d7d5f3e6"},"vehicle_type_id":"4","last_reported":1768245231,"current_range_meters":6400,"station_id":"ce4bgj92rcd13ifvqbe0","pricing_plan_id":"cebpf4jnsgd1na2vs0mg"},{"bike_id":"7c2a7247-1757-4f73-86d7-4e2145cd68ac","system_id":"levelo_inurba_marseille","lat":43.29047,"lon":5.37156,"is_reserved":false,"is_disabled":false,"rental_uris":{"android":"levelo://app?vid=7c2a7247-1757-4f73-86d7-4e2145cd68ac","ios":"levelo://app?vid=7c2a7247-1757-4f73-86d7-4e2145cd68ac"},"vehicle_type_id":"4","last_reported":1768245231,"current_range_meters":6400,"station_id":"ce4bh5p2rcd13ifvqe4g","pricing_plan_id":"cebpf4jnsgd1na2vs0mg"},{"bike_id":"75c640fb-570c-401c-b3d1-c2c23f66c728","system_id":"levelo_inurba_marseille","lat":43.290685,"lon":5.371598,"is_reserved":false,"is_disabled":false,"rental_uris":{"android":"levelo://app?vid=75c640fb-570c-401c-b3d1-c2c23f66c728","ios":"levelo://app?vid=75c640fb-570c-401c-b3d1-c2c23f66c728"},"vehicle_type_id":"4","last_reported":1768245231,"current_range_meters":6400,"station_id":"ce4bh5p2rcd13ifvqe4g","pricing_plan_id":"cebpf4jnsgd1na2vs0mg"},{"bike_id":"5f9eadc2-f9e5-4ed1-aad2-250296a7b571","system_id":"levelo_inurba_marseille","lat":43.27689,"lon":5.38891,"is_reserved":false,"is_disabled":false,"rental_uris":{"android":"levelo://app?vid=5f9eadc2-f9e5-4ed1-aad2-250296a7b571","ios":"levelo://app?vid=5f9eadc2-f9e5-4ed1-aad2-250296a7b571"},"vehicle_type_id":"4","last_reported":1768245231,"current_range_meters":6400,"station_id":"ce4bhi12rcd13ifvqfo0","pricing_plan_id":"cebpf4jnsgd1na2vs0mg"},{"bike_id":"2587eba2-f80d-4b3a-88e3-bb85d27a199d","system_id":"levelo_inurba_marseille","lat":43.22556,"lon":5.41615,"is_reserved":false,"is_disabled":false,"rental_uris":{"android":"levelo://app?vid=2587eba2-f80d-4b3a-88e3-bb85d27a199d","ios":"levelo://app?vid=2587eba2-f80d-4b3a-88e3-bb85d27a199d"},"vehicle_type_id":"4","last_reported":1768245231,"current_range_meters":6400,"station_id":"st_d2o4gvlbi1j2169b742g","pricing_plan_id":"cebpf4jnsgd1na2vs0mg"},{"bike_id":"cf7ff780-5cc1-488c-bf59-2cc02d1f230b","system_id":"levelo_inurba_marseille","lat":43.23778,"lon":5.36619,"is_reserved":false,"is_disabled":false,"rental_uris":{"android":"levelo://app?vid=cf7ff780-5cc1-488c-bf59-2cc02d1f230b","ios":"levelo://app?vid=cf7ff780-5cc1-488c-bf59-2cc02d1f230b"},"vehicle_type_id":"4","last_reported":1768245231,"current_range_meters":6400,"station_id":"st_d3nk18o9ro0c73en2l3g","pricing_plan_id":"cebpf4jnsgd1na2vs0mg"},{"bike_id":"31b02cd8-90be-4607-9612-ef41245111ac","system_id":"levelo_inurba_marseille","lat":43.28981,"lon":5.36365,"is_reserved":false,"is_disabled":true,"rental_uris":{"android":"levelo://app?vid=31b02cd8-90be-4607-9612-ef41245111ac","ios":"levelo://app?vid=31b02cd8-90be-4607-9612-ef41245111ac"},"vehicle_type_id":"4","last_reported":1768245231,"current_range_meters":6400,"station_id":"ce4bhc92rcd13ifvqetg","pricing_plan_id":"cebpf4jnsgd1na2vs0mg"},{"bike_id":"d86ceb68-928c-4cd3-a45f-50c9cc1b47c6","system_id":"levelo_inurba_marseille","lat":43.27205,"lon":5.39189,"is_reserved":false,"is_disabled":false,"rental_uris":{"android":"levelo://app?vid=d86ceb68-928c-4cd3-a45f-50c9cc1b47c6","ios":"levelo://app?vid=d86ceb68-928c-4cd3-a45f-50c9cc1b47c6"},"vehicle_type_id":"4","last_reported":1768245231,"current_range_meters":6400,"station_id":"ce4bhhp2rcd13ifvqfm0","pricing_plan_id":"cebpf4jnsgd1na2vs0mg"},{"bike_id":"6406b753-28fd-4c5d-89b2-3902feebd9b5","system_id":"levelo_inurba_marseille","lat":43.26056,"lon":5.39396,"is_reserved":false,"is_disabled":false,"rental_uris":{"android":"levelo://app?vid=6406b753-28fd-4c5d-89b2-3902feebd9b5","ios":"levelo://app?vid=6406b753-28fd-4c5d-89b2-3902feebd9b5"},"vehicle_type_id":"4","last_reported":1768245231,"current_range_meters":6400,"station_id":"ce4bhh92rcd13ifvqfj0","pricing_plan_id":"cebpf4jnsgd1na2vs0mg"},{"bike_id":"cddcf2c2-04b5-4843-b385-219618c4a20f","system_id":"levelo_inurba_marseille","lat":43.2862,"lon":5.35105,"is_reserved":false,"is_disabled":false,"rental_uris":{"android":"levelo://app?vid=cddcf2c2-04b5-4843-b385-219618c4a20f","ios":"levelo://app?vid=cddcf2c2-04b5-4843-b385-219618c4a20f"},"vehicle_type_id":"4","last_reported":1768245231,"current_range_meters":6400,"station_id":"ce4bhch2rcd13ifvqeug","pricing_plan_id":"cebpf4jnsgd1na2vs0mg"},{"bike_id":"8778a270-debd-4124-975b-32917c0cd81c","system_id":"levelo_inurba_marseille","lat":43.30801,"lon":5.38155,"is_reserved":false,"is_disabled":false,"rental_uris":{"android":"levelo://app?vid=8778a270-debd-4124-975b-32917c0cd81c","ios":"levelo://app?vid=8778a270-debd-4124-975b-32917c0cd81c"},"vehicle_type_id":"4","last_reported":1768245231,"current_range_meters":6400,"station_id":"ce4bgt12rcd13ifvqce0","pricing_plan_id":"cebpf4jnsgd1na2vs0mg"},{"bike_id":"4202e215-6f29-4f58-ace8-2e6289f05e81","system_id":"levelo_inurba_marseille","lat":43.23959,"lon":5.36614,"is_reserved":false,"is_disabled":false,"rental_uris":{"android":"levelo://app?vid=4202e215-6f29-4f58-ace8-2e6289f05e81","ios":"levelo://app?vid=4202e215-6f29-4f58-ace8-2e6289f05e81"},"vehicle_type_id":"4","last_reported":1768245231,"current_range_meters":6400,"station_id":"ce4bhi12rcd13ifvqfp0","pricing_plan_id":"cebpf4jnsgd1na2vs0mg"},{"bike_id":"bce5bef6-66c0-48f9-9494-83e46be9a229","system_id":"levelo_inurba_marseille","lat":43.32032,"lon":5.36235,"is_reserved":false,"is_disabled":false,"rental_uris":{"android":"levelo://app?vid=bce5bef6-66c0-48f9-9494-83e46be9a229","ios":"levelo://app?vid=bce5bef6-66c0-48f9-9494-83e46be9a229"},"vehicle_type_id":"4","last_reported":1768245231,"current_range_meters":6400,"station_id":"","pricing_plan_id":"cebpf4jnsgd1na2vs0mg"},{"bike_id":"90dfc0c4-0044-4337-8331-b045fdb00361","system_id":"levelo_inurba_marseille","lat":43.33148,"lon":5.37665,"is_reserved":false,"is_disabled":false,"rental_uris":{"android":"levelo://app?vid=90dfc0c4-0044-4337-8331-b045fdb00361","ios":"levelo://app?vid=90dfc0c4-0044-4337-8331-b045fdb00361"},"vehicle_type_id":"4","last_reported":1768245231,"current_range_meters":6400,"station_id":"st_d46cu089ee8s73dldbu0","pricing_plan_id":"cebpf4jnsgd1na2vs0mg"},{"bike_id":"482817d6-1c7c-49cd-bf1a-a824b589e285","system_id":"levelo_inurba_marseille","lat":43.27849,"lon":5.3921,"is_reserved":false,"is_disabled":false,"rental_uris":{"android":"levelo://app?vid=482817d6-1c7c-49cd-bf1a-a824b589e285","ios":"levelo://app?vid=482817d6-1c7c-49cd-bf1a-a824b589e285"},"vehicle_type_id":"4","last_reported":1768245231,"current_range_meters":6400,"station_id":"ce4bhjp2rcd13ifvqga0","pricing_plan_id":"cebpf4jnsgd1na2vs0mg"},{"bike_id":"824e0100-c6fc-4a0d-bafe-328ab4a682ff","system_id":"levelo_inurba_marseille","lat":43.32354,"lon":5.36749,"is_reserved":false,"is_disabled":false,"rental_uris":{"android":"levelo://app?vid=824e0100-c6fc-4a0d-bafe-328ab4a682ff","ios":"levelo://app?vid=824e0100-c6fc-4a0d-bafe-328ab4a682ff"},"vehicle_type_id":"4","last_reported":1768245231,"current_range_meters":6400,"station_id":"ce4bhsh2rcd13ifvqi2g","pricing_plan_id":"cebpf4jnsgd1na2vs0mg"},{"bike_id":"724036e8-2e63-49a9-a556-8c29cbfb0aef","system_id":"levelo_inurba_marseille","lat":43.29849,"lon":5.36266,"is_reserved":false,"is_disabled":false,"rental_uris":{"android":"levelo://app?vid=724036e8-2e63-49a9-a556-8c29cbfb0aef","ios":"levelo://app?vid=724036e8-2e63-49a9-a556-8c29cbfb0aef"},"vehicle_type_id":"4","last_reported":1768245231,"current_range_meters":6400,"station_id":"ce4bgpp2rcd13ifvqc3g","pricing_plan_id":"cebpf4jnsgd1na2vs0mg"},{"bike_id":"c0bb6ba3-4f42-4c7f-b950-264610dfcfc5","system_id":"levelo_inurba_marseille","lat":43.295316,"lon":5.385451,"is_reserved":false,"is_disabled":false,"rental_uris":{"android":"levelo://app?vid=c0bb6ba3-4f42-4c7f-b950-264610dfcfc5","ios":"levelo://app?vid=c0bb6ba3-4f42-4c7f-b950-264610dfcfc5"},"vehicle_type_id":"4","last_reported":1768245231,"current_range_meters":6400,"station_id":"","pricing_plan_id":"cebpf4jnsgd1na2vs0mg"},{"bike_id":"697994ed-c258-471a-a5e6-a50f88084b59","system_id":"levelo_inurba_marseille","lat":43.250032,"lon":5.389425,"is_reserved":false,"is_disabled":false,"rental_uris":{"android":"levelo://app?vid=697994ed-c258-471a-a5e6-a50f88084b59","ios":"levelo://app?vid=697994ed-c258-471a-a5e6-a50f88084b59"},"vehicle_type_id":"4","last_reported":1768245231,"current_range_meters":6400,"station_id":"ce4bhgp2rcd13ifvqfd0","pricing_plan_id":"cebpf4jnsgd1na2vs0mg"},{"bike_id":"b81a771e-796c-40e5-98d5-2c3857393d80","system_id":"levelo_inurba_marseille","lat":43.28478,"lon":5.48401,"is_reserved":false,"is_disabled":false,"rental_uris":{"android":"levelo://app?vid=b81a771e-796c-40e5-98d5-2c3857393d80","ios":"levelo://app?vid=b81a771e-796c-40e5-98d5-2c3857393d80"},"vehicle_type_id":"4","last_reported":1768245231,"current_range_meters":6400,"station_id":"st_d3svhcjqgbts73a3dn0g","pricing_plan_id":"cebpf4jnsgd1na2vs0mg"},{"bike_id":"b539daf2-0256-4f12-80ca-4ee66e0fd92e","system_id":"levelo_inurba_marseille","lat":43.24949,"lon":5.405,"is_reserved":false,"is_disabled":false,"rental_uris":{"android":"levelo://app?vid=b539daf2-0256-4f12-80ca-4ee66e0fd92e","ios":"levelo://app?vid=b539daf2-0256-4f12-80ca-4ee66e0fd92e"},"vehicle_type_id":"4","last_reported":1768245231,"current_range_meters":6400,"station_id":"st_d2ngiaodas8pm72gd1h0","pricing_plan_id":"cebpf4jnsgd1na2vs0mg"},{"bike_id":"8685ba34-cb7d-4eb4-a401-a6d947bbdb57","system_id":"levelo_inurba_marseille","lat":43.24444,"lon":5.42515,"is_reserved":false,"is_disabled":false,"rental_uris":{"android":"levelo://app?vid=8685ba34-cb7d-4eb4-a401-a6d947bbdb57","ios":"levelo://app?vid=8685ba34-cb7d-4eb4-a401-a6d947bbdb57"},"vehicle_type_id":"4","last_reported":1768245231,"current_range_meters":6400,"station_id":"st_d4a3vfp97mjs738cd8kg","pricing_plan_id":"cebpf4jnsgd1na2vs0mg"},{"bike_id":"d6fc741c-6097-4ce8-aeee-b2422caf87bb","system_id":"levelo_inurba_marseille","lat":43.30138,"lon":5.3743,"is_reserved":false,"is_disabled":false,"rental_uris":{"android":"levelo://app?vid=d6fc741c-6097-4ce8-aeee-b2422caf87bb","ios":"levelo://app?vid=d6fc741c-6097-4ce8-aeee-b2422caf87bb"},"vehicle_type_id":"4","last_reported":1768245231,"current_range_meters":6800,"station_id":"ce4bgs92rcd13ifvqcc0","pricing_plan_id":"cebpf4jnsgd1na2vs0mg"},{"bike_id":"a10cebfe-81dc-4dff-bad4-c25d976b2067","system_id":"levelo_inurba_marseille","lat":43.284153,"lon":5.34984,"is_reserved":false,"is_disabled":false,"rental_uris":{"android":"levelo://app?vid=a10cebfe-81dc-4dff-bad4-c25d976b2067","ios":"levelo://app?vid=a10cebfe-81dc-4dff-bad4-c25d976b2067"},"vehicle_type_id":"4","last_reported":1768245231,"current_range_meters":6800,"station_id":"ce4bhbh2rcd13ifvqepg","pricing_plan_id":"cebpf4jnsgd1na2vs0mg"},{"bike_id":"c5cacf13-0b9c-41b5-94a2-55e05bf702f3","system_id":"levelo_inurba_marseille","lat":43.297164,"lon":5.378576,"is_reserved":false,"is_disabled":false,"rental_uris":{"android":"levelo://app?vid=c5cacf13-0b9c-41b5-94a2-55e05bf702f3","ios":"levelo://app?vid=c5cacf13-0b9c-41b5-94a2-55e05bf702f3"},"vehicle_type_id":"4","last_reported":1768245231,"current_range_meters":6800,"station_id":"","pricing_plan_id":"cebpf4jnsgd1na2vs0mg"},{"bike_id":"a0750e8b-6f08-4dec-ad7b-75931873cace","system_id":"levelo_inurba_marseille","lat":43.30143,"lon":5.3741,"is_reserved":false,"is_disabled":false,"rental_uris":{"android":"levelo://app?vid=a0750e8b-6f08-4dec-ad7b-75931873cace","ios":"levelo://app?vid=a0750e8b-6f08-4dec-ad7b-75931873cace"},"vehicle_type_id":"4","last_reported":1768245231,"current_range_meters":6800,"station_id":"ce4bgs92rcd13ifvqcc0","pricing_plan_id":"cebpf4jnsgd1na2vs0mg"},{"bike_id":"d84786fe-606f-4cea-8819-113abea8f013","system_id":"levelo_inurba_marseille","lat":43.2886,"lon":5.42513,"is_reserved":false,"is_disabled":false,"rental_uris":{"android":"levelo://app?vid=d84786fe-606f-4cea-8819-113abea8f013","ios":"levelo://app?vid=d84786fe-606f-4cea-8819-113abea8f013"},"vehicle_type_id":"4","last_reported":1768245231,"current_range_meters":6800,"station_id":"st_d3b462108ojc7389ooeg","pricing_plan_id":"cebpf4jnsgd1na2vs0mg"},{"bike_id":"a3b66a73-aef3-42a6-bf24-ef2935218f23","system_id":"levelo_inurba_marseille","lat":43.32344,"lon":5.36737,"is_reserved":false,"is_disabled":false,"rental_uris":{"android":"levelo://app?vid=a3b66a73-aef3-42a6-bf24-ef2935218f23","ios":"levelo://app?vid=a3b66a73-aef3-42a6-bf24-ef2935218f23"},"vehicle_type_id":"4","last_reported":1768245231,"current_range_meters":6800,"station_id":"ce4bhsh2rcd13ifvqi2g","pricing_plan_id":"cebpf4jnsgd1na2vs0mg"},{"bike_id":"0113dc90-dac7-43eb-9ed9-e6c9855d621e","system_id":"levelo_inurba_marseille","lat":43.31119,"lon":5.37761,"is_reserved":false,"is_disabled":false,"rental_uris":{"android":"levelo://app?vid=0113dc90-dac7-43eb-9ed9-e6c9855d621e","ios":"levelo://app?vid=0113dc90-dac7-43eb-9ed9-e6c9855d621e"},"vehicle_type_id":"4","last_reported":1768245231,"current_range_meters":6800,"station_id":"ce4bgt92rcd13ifvqcg0","pricing_plan_id":"cebpf4jnsgd1na2vs0mg"},{"bike_id":"87a96a45-0b3c-4a3f-9324-2e3da0b1cf30","system_id":"levelo_inurba_marseille","lat":43.29621,"lon":5.4059,"is_reserved":false,"is_disabled":false,"rental_uris":{"android":"levelo://app?vid=87a96a45-0b3c-4a3f-9324-2e3da0b1cf30","ios":"levelo://app?vid=87a96a45-0b3c-4a3f-9324-2e3da0b1cf30"},"vehicle_type_id":"4","last_reported":1768245231,"current_range_meters":6800,"station_id":"ce4bh0h2rcd13ifvqd60","pricing_plan_id":"cebpf4jnsgd1na2vs0mg"},{"bike_id":"c211c6f8-49bd-4417-9066-24ae90884977","system_id":"levelo_inurba_marseille","lat":43.29848,"lon":5.36281,"is_reserved":false,"is_disabled":false,"rental_uris":{"android":"levelo://app?vid=c211c6f8-49bd-4417-9066-24ae90884977","ios":"levelo://app?vid=c211c6f8-49bd-4417-9066-24ae90884977"},"vehicle_type_id":"4","last_reported":1768245231,"current_range_meters":6800,"station_id":"ce4bgpp2rcd13ifvqc3g","pricing_plan_id":"cebpf4jnsgd1na2vs0mg"},{"bike_id":"bb1a79bd-f8cd-42d2-9565-6b62b5b7cf92","system_id":"levelo_inurba_marseille","lat":43.30818,"lon":5.38143,"is_reserved":false,"is_disabled":false,"rental_uris":{"android":"levelo://app?vid=bb1a79bd-f8cd-42d2-9565-6b62b5b7cf92","ios":"levelo://app?vid=bb1a79bd-f8cd-42d2-9565-6b62b5b7cf92"},"vehicle_type_id":"4","last_reported":1768245231,"current_range_meters":6800,"station_id":"ce4bgt12rcd13ifvqce0","pricing_plan_id":"cebpf4jnsgd1na2vs0mg"},{"bike_id":"f2f6879c-c6f8-4aad-a64c-976ab5b32f9c","system_id":"levelo_inurba_marseille","lat":43.24084,"lon":5.37738,"is_reserved":false,"is_disabled":false,"rental_uris":{"android":"levelo://app?vid=f2f6879c-c6f8-4aad-a64c-976ab5b32f9c","ios":"levelo://app?vid=f2f6879c-c6f8-4aad-a64c-976ab5b32f9c"},"vehicle_type_id":"4","last_reported":1768245231,"current_range_meters":6800,"station_id":"ce4bhnp2rcd13ifvqgvg","pricing_plan_id":"cebpf4jnsgd1na2vs0mg"},{"bike_id":"63fc7043-c019-4251-abc3-87e8519908fa","system_id":"levelo_inurba_marseille","lat":43.26709,"lon":5.38249,"is_reserved":false,"is_disabled":true,"rental_uris":{"android":"levelo://app?vid=63fc7043-c019-4251-abc3-87e8519908fa","ios":"levelo://app?vid=63fc7043-c019-4251-abc3-87e8519908fa"},"vehicle_type_id":"4","last_reported":1768245231,"current_range_meters":6800,"station_id":"ce4bhg92rcd13ifvqf90","pricing_plan_id":"cebpf4jnsgd1na2vs0mg"},{"bike_id":"18cb4a03-3d37-4c3b-ba4e-9a1336580b15","system_id":"levelo_inurba_marseille","lat":43.26951,"lon":5.38638,"is_reserved":false,"is_disabled":false,"rental_uris":{"android":"levelo://app?vid=18cb4a03-3d37-4c3b-ba4e-9a1336580b15","ios":"levelo://app?vid=18cb4a03-3d37-4c3b-ba4e-9a1336580b15"},"vehicle_type_id":"4","last_reported":1768245231,"current_range_meters":6800,"station_id":"ce4bhh92rcd13ifvqfh0","pricing_plan_id":"cebpf4jnsgd1na2vs0mg"},{"bike_id":"8049ab61-e378-4478-bef4-ac0f529d7d1a","system_id":"levelo_inurba_marseille","lat":43.23189,"lon":5.35555,"is_reserved":false,"is_disabled":false,"rental_uris":{"android":"levelo://app?vid=8049ab61-e378-4478-bef4-ac0f529d7d1a","ios":"levelo://app?vid=8049ab61-e378-4478-bef4-ac0f529d7d1a"},"vehicle_type_id":"4","last_reported":1768245231,"current_range_meters":6800,"station_id":"ce4bhu92rcd13ifvqi70","pricing_plan_id":"cebpf4jnsgd1na2vs0mg"},{"bike_id":"000865b2-8136-43e7-8ba1-e2a10ae19160","system_id":"levelo_inurba_marseille","lat":43.28708,"lon":5.37933,"is_reserved":false,"is_disabled":false,"rental_uris":{"android":"levelo://app?vid=000865b2-8136-43e7-8ba1-e2a10ae19160","ios":"levelo://app?vid=000865b2-8136-43e7-8ba1-e2a10ae19160"},"vehicle_type_id":"4","last_reported":1768245231,"current_range_meters":6800,"station_id":"ce4bh9p2rcd13ifvqec0","pricing_plan_id":"cebpf4jnsgd1na2vs0mg"},{"bike_id":"9f295e7a-65c6-4272-9043-5a3d89670383","system_id":"levelo_inurba_marseille","lat":43.24778,"lon":5.37537,"is_reserved":false,"is_disabled":false,"rental_uris":{"android":"levelo://app?vid=9f295e7a-65c6-4272-9043-5a3d89670383","ios":"levelo://app?vid=9f295e7a-65c6-4272-9043-5a3d89670383"},"vehicle_type_id":"4","last_reported":1768245231,"current_range_meters":6800,"station_id":"","pricing_plan_id":"cebpf4jnsgd1na2vs0mg"},{"bike_id":"d4c76a3c-be64-4255-845b-8ccc9f87b7d9","system_id":"levelo_inurba_marseille","lat":43.30001,"lon":5.37337,"is_reserved":false,"is_disabled":false,"rental_uris":{"android":"levelo://app?vid=d4c76a3c-be64-4255-845b-8ccc9f87b7d9","ios":"levelo://app?vid=d4c76a3c-be64-4255-845b-8ccc9f87b7d9"},"vehicle_type_id":"4","last_reported":1768245231,"current_range_meters":6800,"station_id":"","pricing_plan_id":"cebpf4jnsgd1na2vs0mg"},{"bike_id":"29dc424a-d606-4587-9dbf-42f41291e5ba","system_id":"levelo_inurba_marseille","lat":43.27616,"lon":5.36104,"is_reserved":false,"is_disabled":false,"rental_uris":{"android":"levelo://app?vid=29dc424a-d606-4587-9dbf-42f41291e5ba","ios":"levelo://app?vid=29dc424a-d606-4587-9dbf-42f41291e5ba"},"vehicle_type_id":"4","last_reported":1768245231,"current_range_meters":6800,"station_id":"ce4bgj92rcd13ifvqbe0","pricing_plan_id":"cebpf4jnsgd1na2vs0mg"},{"bike_id":"c982d76b-7fd6-451c-9063-ebda7a233a9e","system_id":"levelo_inurba_marseille","lat":43.26944,"lon":5.40241,"is_reserved":false,"is_disabled":false,"rental_uris":{"android":"levelo://app?vid=c982d76b-7fd6-451c-9063-ebda7a233a9e","ios":"levelo://app?vid=c982d76b-7fd6-451c-9063-ebda7a233a9e"},"vehicle_type_id":"4","last_reported":1768245231,"current_range_meters":6800,"station_id":"cjm6bp8fraef2m0cb0m0","pricing_plan_id":"cebpf4jnsgd1na2vs0mg"},{"bike_id":"3e9f6f76-2cc1-4a8f-893d-69062c076f77","system_id":"levelo_inurba_marseille","lat":43.30481,"lon":5.3903,"is_reserved":false,"is_disabled":false,"rental_uris":{"android":"levelo://app?vid=3e9f6f76-2cc1-4a8f-893d-69062c076f77","ios":"levelo://app?vid=3e9f6f76-2cc1-4a8f-893d-69062c076f77"},"vehicle_type_id":"4","last_reported":1768245231,"current_range_meters":6800,"station_id":"","pricing_plan_id":"cebpf4jnsgd1na2vs0mg"},{"bike_id":"df269709-d44c-4576-84d8-e2021718e52e","system_id":"levelo_inurba_marseille","lat":43.279413,"lon":5.410424,"is_reserved":false,"is_disabled":false,"rental_uris":{"android":"levelo://app?vid=df269709-d44c-4576-84d8-e2021718e52e","ios":"levelo://app?vid=df269709-d44c-4576-84d8-e2021718e52e"},"vehicle_type_id":"4","last_reported":1768245231,"current_range_meters":6800,"station_id":"ce4bhnp2rcd13ifvqh0g","pricing_plan_id":"cebpf4jnsgd1na2vs0mg"},{"bike_id":"7b6f12be-65ff-469f-954c-5bc823eb23e6","system_id":"levelo_inurba_marseille","lat":43.32496,"lon":5.36452,"is_reserved":false,"is_disabled":false,"rental_uris":{"android":"levelo://app?vid=7b6f12be-65ff-469f-954c-5bc823eb23e6","ios":"levelo://app?vid=7b6f12be-65ff-469f-954c-5bc823eb23e6"},"vehicle_type_id":"4","last_reported":1768245231,"current_range_meters":7200,"station_id":"","pricing_plan_id":"cebpf4jnsgd1na2vs0mg"},{"bike_id":"07459b0c-be4e-4b2c-ac3f-4f1630cbbe77","system_id":"levelo_inurba_marseille","lat":43.2655,"lon":5.37309,"is_reserved":false,"is_disabled":false,"rental_uris":{"android":"levelo://app?vid=07459b0c-be4e-4b2c-ac3f-4f1630cbbe77","ios":"levelo://app?vid=07459b0c-be4e-4b2c-ac3f-4f1630cbbe77"},"vehicle_type_id":"4","last_reported":1768245231,"current_range_meters":7200,"station_id":"ce4bhg12rcd13ifvqf70","pricing_plan_id":"cebpf4jnsgd1na2vs0mg"},{"bike_id":"a38bcbb1-c226-4bc2-8672-2e7d0273da8d","system_id":"levelo_inurba_marseille","lat":43.32298,"lon":5.36753,"is_reserved":false,"is_disabled":false,"rental_uris":{"android":"levelo://app?vid=a38bcbb1-c226-4bc2-8672-2e7d0273da8d","ios":"levelo://app?vid=a38bcbb1-c226-4bc2-8672-2e7d0273da8d"},"vehicle_type_id":"4","last_reported":1768245231,"current_range_meters":7200,"station_id":"ce4bhsh2rcd13ifvqi2g","pricing_plan_id":"cebpf4jnsgd1na2vs0mg"},{"bike_id":"bad9d05b-2efd-4707-af1a-d48b0eeaba21","system_id":"levelo_inurba_marseille","lat":43.24469,"lon":5.42535,"is_reserved":false,"is_disabled":false,"rental_uris":{"android":"levelo://app?vid=bad9d05b-2efd-4707-af1a-d48b0eeaba21","ios":"levelo://app?vid=bad9d05b-2efd-4707-af1a-d48b0eeaba21"},"vehicle_type_id":"4","last_reported":1768245231,"current_range_meters":7200,"station_id":"st_d4a3vfp97mjs738cd8kg","pricing_plan_id":"cebpf4jnsgd1na2vs0mg"},{"bike_id":"07ffdba9-ad9b-45a2-9345-0cd700d2b6a9","system_id":"levelo_inurba_marseille","lat":43.28031,"lon":5.36948,"is_reserved":false,"is_disabled":false,"rental_uris":{"android":"levelo://app?vid=07ffdba9-ad9b-45a2-9345-0cd700d2b6a9","ios":"levelo://app?vid=07ffdba9-ad9b-45a2-9345-0cd700d2b6a9"},"vehicle_type_id":"4","last_reported":1768245231,"current_range_meters":7200,"station_id":"ce4bha12rcd13ifvqef0","pricing_plan_id":"cebpf4jnsgd1na2vs0mg"},{"bike_id":"f2feb58b-2e1d-410d-a362-6a4d0a6ad00a","system_id":"levelo_inurba_marseille","lat":43.26946,"lon":5.4024,"is_reserved":false,"is_disabled":false,"rental_uris":{"android":"levelo://app?vid=f2feb58b-2e1d-410d-a362-6a4d0a6ad00a","ios":"levelo://app?vid=f2feb58b-2e1d-410d-a362-6a4d0a6ad00a"},"vehicle_type_id":"4","last_reported":1768245231,"current_range_meters":7200,"station_id":"cjm6bp8fraef2m0cb0m0","pricing_plan_id":"cebpf4jnsgd1na2vs0mg"},{"bike_id":"b0efd0f2-bc5c-4dff-bc29-9743c461b4d7","system_id":"levelo_inurba_marseille","lat":43.24058,"lon":5.37777,"is_reserved":false,"is_disabled":false,"rental_uris":{"android":"levelo://app?vid=b0efd0f2-bc5c-4dff-bc29-9743c461b4d7","ios":"levelo://app?vid=b0efd0f2-bc5c-4dff-bc29-9743c461b4d7"},"vehicle_type_id":"4","last_reported":1768245231,"current_range_meters":7200,"station_id":"ce4bhnp2rcd13ifvqgvg","pricing_plan_id":"cebpf4jnsgd1na2vs0mg"},{"bike_id":"b9c6eb4c-b3a9-45eb-87cd-efb346d5249f","system_id":"levelo_inurba_marseille","lat":43.28208,"lon":5.390457,"is_reserved":false,"is_disabled":false,"rental_uris":{"android":"levelo://app?vid=b9c6eb4c-b3a9-45eb-87cd-efb346d5249f","ios":"levelo://app?vid=b9c6eb4c-b3a9-45eb-87cd-efb346d5249f"},"vehicle_type_id":"4","last_reported":1768245231,"current_range_meters":7200,"station_id":"ce4bhn92rcd13ifvqgsg","pricing_plan_id":"cebpf4jnsgd1na2vs0mg"},{"bike_id":"7b7c4d5a-48b0-4253-8d68-ce9bdb9244be","system_id":"levelo_inurba_marseille","lat":43.265433,"lon":5.372894,"is_reserved":false,"is_disabled":false,"rental_uris":{"android":"levelo://app?vid=7b7c4d5a-48b0-4253-8d68-ce9bdb9244be","ios":"levelo://app?vid=7b7c4d5a-48b0-4253-8d68-ce9bdb9244be"},"vehicle_type_id":"4","last_reported":1768245231,"current_range_meters":7200,"station_id":"ce4bhg12rcd13ifvqf70","pricing_plan_id":"cebpf4jnsgd1na2vs0mg"},{"bike_id":"2455333c-abb5-40b2-83d1-6df58226f70a","system_id":"levelo_inurba_marseille","lat":43.32894,"lon":5.38944,"is_reserved":false,"is_disabled":false,"rental_uris":{"android":"levelo://app?vid=2455333c-abb5-40b2-83d1-6df58226f70a","ios":"levelo://app?vid=2455333c-abb5-40b2-83d1-6df58226f70a"},"vehicle_type_id":"4","last_reported":1768245231,"current_range_meters":7200,"station_id":"","pricing_plan_id":"cebpf4jnsgd1na2vs0mg"},{"bike_id":"38d076d2-a3a0-46d0-b800-0eaafad476d4","system_id":"levelo_inurba_marseille","lat":43.282092,"lon":5.403698,"is_reserved":false,"is_disabled":false,"rental_uris":{"android":"levelo://app?vid=38d076d2-a3a0-46d0-b800-0eaafad476d4","ios":"levelo://app?vid=38d076d2-a3a0-46d0-b800-0eaafad476d4"},"vehicle_type_id":"4","last_reported":1768245231,"current_range_meters":7200,"station_id":"","pricing_plan_id":"cebpf4jnsgd1na2vs0mg"},{"bike_id":"584740bc-b28f-45e7-8c07-3256faa8a0cc","system_id":"levelo_inurba_marseille","lat":43.262048,"lon":5.379204,"is_reserved":false,"is_disabled":true,"rental_uris":{"android":"levelo://app?vid=584740bc-b28f-45e7-8c07-3256faa8a0cc","ios":"levelo://app?vid=584740bc-b28f-45e7-8c07-3256faa8a0cc"},"vehicle_type_id":"4","last_reported":1768245231,"current_range_meters":7200,"station_id":"ce4bhjp2rcd13ifvqg90","pricing_plan_id":"cebpf4jnsgd1na2vs0mg"},{"bike_id":"9a83c08b-01e2-433b-870a-f8fa3207b370","system_id":"levelo_inurba_marseille","lat":43.26563,"lon":5.39021,"is_reserved":false,"is_disabled":false,"rental_uris":{"android":"levelo://app?vid=9a83c08b-01e2-433b-870a-f8fa3207b370","ios":"levelo://app?vid=9a83c08b-01e2-433b-870a-f8fa3207b370"},"vehicle_type_id":"4","last_reported":1768245231,"current_range_meters":7200,"station_id":"ce4bhe12rcd13ifvqf30","pricing_plan_id":"cebpf4jnsgd1na2vs0mg"},{"bike_id":"bb872cf3-111a-4da5-8326-64266a28cac2","system_id":"levelo_inurba_marseille","lat":43.2607,"lon":5.39393,"is_reserved":false,"is_disabled":false,"rental_uris":{"android":"levelo://app?vid=bb872cf3-111a-4da5-8326-64266a28cac2","ios":"levelo://app?vid=bb872cf3-111a-4da5-8326-64266a28cac2"},"vehicle_type_id":"4","last_reported":1768245231,"current_range_meters":7200,"station_id":"ce4bhh92rcd13ifvqfj0","pricing_plan_id":"cebpf4jnsgd1na2vs0mg"},{"bike_id":"6409133c-4bbf-461b-816e-0788c8d1979b","system_id":"levelo_inurba_marseille","lat":43.30433,"lon":5.38898,"is_reserved":false,"is_disabled":true,"rental_uris":{"android":"levelo://app?vid=6409133c-4bbf-461b-816e-0788c8d1979b","ios":"levelo://app?vid=6409133c-4bbf-461b-816e-0788c8d1979b"},"vehicle_type_id":"4","last_reported":1768245231,"current_range_meters":7200,"station_id":"ce4bgk12rcd13ifvqbi0","pricing_plan_id":"cebpf4jnsgd1na2vs0mg"},{"bike_id":"f984a5c8-b4f0-4ca0-8b12-faccee1f74d4","system_id":"levelo_inurba_marseille","lat":43.24806,"lon":5.37454,"is_reserved":false,"is_disabled":false,"rental_uris":{"android":"levelo://app?vid=f984a5c8-b4f0-4ca0-8b12-faccee1f74d4","ios":"levelo://app?vid=f984a5c8-b4f0-4ca0-8b12-faccee1f74d4"},"vehicle_type_id":"4","last_reported":1768245231,"current_range_meters":7200,"station_id":"ce4bhgh2rcd13ifvqfb0","pricing_plan_id":"cebpf4jnsgd1na2vs0mg"},{"bike_id":"ca6c5b5b-a9ad-467b-8916-3c5ac8e065da","system_id":"levelo_inurba_marseille","lat":43.29929,"lon":5.36555,"is_reserved":false,"is_disabled":false,"rental_uris":{"android":"levelo://app?vid=ca6c5b5b-a9ad-467b-8916-3c5ac8e065da","ios":"levelo://app?vid=ca6c5b5b-a9ad-467b-8916-3c5ac8e065da"},"vehicle_type_id":"4","last_reported":1768245231,"current_range_meters":7200,"station_id":"ce4bgm92rcd13ifvqbr0","pricing_plan_id":"cebpf4jnsgd1na2vs0mg"},{"bike_id":"6bba4daf-89fe-4d85-b2d6-e7c59d10d0f9","system_id":"levelo_inurba_marseille","lat":43.30099,"lon":5.39061,"is_reserved":false,"is_disabled":false,"rental_uris":{"android":"levelo://app?vid=6bba4daf-89fe-4d85-b2d6-e7c59d10d0f9","ios":"levelo://app?vid=6bba4daf-89fe-4d85-b2d6-e7c59d10d0f9"},"vehicle_type_id":"4","last_reported":1768245231,"current_range_meters":7200,"station_id":"ce4bh192rcd13ifvqdb0","pricing_plan_id":"cebpf4jnsgd1na2vs0mg"},{"bike_id":"d1d7ed20-2fc0-4bb0-b335-bddc0f061a5f","system_id":"levelo_inurba_marseille","lat":43.31042,"lon":5.37153,"is_reserved":false,"is_disabled":false,"rental_uris":{"android":"levelo://app?vid=d1d7ed20-2fc0-4bb0-b335-bddc0f061a5f","ios":"levelo://app?vid=d1d7ed20-2fc0-4bb0-b335-bddc0f061a5f"},"vehicle_type_id":"4","last_reported":1768245231,"current_range_meters":7200,"station_id":"st_d4kl2rp97mjs73e7tdfg","pricing_plan_id":"cebpf4jnsgd1na2vs0mg"},{"bike_id":"1b1a670a-fcf4-4828-aa79-e1b72cfec18c","system_id":"levelo_inurba_marseille","lat":43.23188,"lon":5.35553,"is_reserved":false,"is_disabled":false,"rental_uris":{"android":"levelo://app?vid=1b1a670a-fcf4-4828-aa79-e1b72cfec18c","ios":"levelo://app?vid=1b1a670a-fcf4-4828-aa79-e1b72cfec18c"},"vehicle_type_id":"4","last_reported":1768245231,"current_range_meters":7200,"station_id":"ce4bhu92rcd13ifvqi70","pricing_plan_id":"cebpf4jnsgd1na2vs0mg"},{"bike_id":"952412d5-8359-4eb6-9ee8-294a4128a280","system_id":"levelo_inurba_marseille","lat":43.29275,"lon":5.37339,"is_reserved":false,"is_disabled":false,"rental_uris":{"android":"levelo://app?vid=952412d5-8359-4eb6-9ee8-294a4128a280","ios":"levelo://app?vid=952412d5-8359-4eb6-9ee8-294a4128a280"},"vehicle_type_id":"4","last_reported":1768245231,"current_range_meters":7200,"station_id":"","pricing_plan_id":"cebpf4jnsgd1na2vs0mg"},{"bike_id":"cdb7f885-d79c-4a7f-be8b-87d7e51ae524","system_id":"levelo_inurba_marseille","lat":43.30643,"lon":5.40505,"is_reserved":false,"is_disabled":false,"rental_uris":{"android":"levelo://app?vid=cdb7f885-d79c-4a7f-be8b-87d7e51ae524","ios":"levelo://app?vid=cdb7f885-d79c-4a7f-be8b-87d7e51ae524"},"vehicle_type_id":"4","last_reported":1768245231,"current_range_meters":7200,"station_id":"ce4bh112rcd13ifvqda0","pricing_plan_id":"cebpf4jnsgd1na2vs0mg"},{"bike_id":"b60c8777-50a1-4187-b012-61c8b2392d61","system_id":"levelo_inurba_marseille","lat":43.2417,"lon":5.36401,"is_reserved":false,"is_disabled":false,"rental_uris":{"android":"levelo://app?vid=b60c8777-50a1-4187-b012-61c8b2392d61","ios":"levelo://app?vid=b60c8777-50a1-4187-b012-61c8b2392d61"},"vehicle_type_id":"4","last_reported":1768245231,"current_range_meters":7200,"station_id":"cpo36qri1sfpv3e86is0","pricing_plan_id":"cebpf4jnsgd1na2vs0mg"},{"bike_id":"1fab451c-a69a-44ca-b2c3-fe8939fd9580","system_id":"levelo_inurba_marseille","lat":43.31513,"lon":5.41379,"is_reserved":false,"is_disabled":false,"rental_uris":{"android":"levelo://app?vid=1fab451c-a69a-44ca-b2c3-fe8939fd9580","ios":"levelo://app?vid=1fab451c-a69a-44ca-b2c3-fe8939fd9580"},"vehicle_type_id":"4","last_reported":1768245231,"current_range_meters":7200,"station_id":"","pricing_plan_id":"cebpf4jnsgd1na2vs0mg"},{"bike_id":"f4d56beb-17a4-43ae-a1b7-ece3f3acf3f9","system_id":"levelo_inurba_marseille","lat":43.279863,"lon":5.41663,"is_reserved":false,"is_disabled":false,"rental_uris":{"android":"levelo://app?vid=f4d56beb-17a4-43ae-a1b7-ece3f3acf3f9","ios":"levelo://app?vid=f4d56beb-17a4-43ae-a1b7-ece3f3acf3f9"},"vehicle_type_id":"4","last_reported":1768245231,"current_range_meters":7200,"station_id":"ce4bho12rcd13ifvqh1g","pricing_plan_id":"cebpf4jnsgd1na2vs0mg"},{"bike_id":"7d685810-6742-41f8-be5c-e1978be9f1f0","system_id":"levelo_inurba_marseille","lat":43.29839,"lon":5.36272,"is_reserved":false,"is_disabled":false,"rental_uris":{"android":"levelo://app?vid=7d685810-6742-41f8-be5c-e1978be9f1f0","ios":"levelo://app?vid=7d685810-6742-41f8-be5c-e1978be9f1f0"},"vehicle_type_id":"4","last_reported":1768245231,"current_range_meters":8000,"station_id":"ce4bgpp2rcd13ifvqc3g","pricing_plan_id":"cebpf4jnsgd1na2vs0mg"},{"bike_id":"45d9e14b-0ab1-473c-82ee-582ce79d61a1","system_id":"levelo_inurba_marseille","lat":43.24673,"lon":5.38165,"is_reserved":false,"is_disabled":false,"rental_uris":{"android":"levelo://app?vid=45d9e14b-0ab1-473c-82ee-582ce79d61a1","ios":"levelo://app?vid=45d9e14b-0ab1-473c-82ee-582ce79d61a1"},"vehicle_type_id":"4","last_reported":1768245231,"current_range_meters":8000,"station_id":"ce4bhih2rcd13ifvqfr0","pricing_plan_id":"cebpf4jnsgd1na2vs0mg"},{"bike_id":"e17a9c82-8846-45df-b367-7545f106e168","system_id":"levelo_inurba_marseille","lat":43.3131,"lon":5.38452,"is_reserved":false,"is_disabled":false,"rental_uris":{"android":"levelo://app?vid=e17a9c82-8846-45df-b367-7545f106e168","ios":"levelo://app?vid=e17a9c82-8846-45df-b367-7545f106e168"},"vehicle_type_id":"4","last_reported":1768245231,"current_range_meters":8000,"station_id":"","pricing_plan_id":"cebpf4jnsgd1na2vs0mg"},{"bike_id":"f79921af-559e-4d94-95c2-036e9167deb5","system_id":"levelo_inurba_marseille","lat":43.31876,"lon":5.39991,"is_reserved":false,"is_disabled":false,"rental_uris":{"android":"levelo://app?vid=f79921af-559e-4d94-95c2-036e9167deb5","ios":"levelo://app?vid=f79921af-559e-4d94-95c2-036e9167deb5"},"vehicle_type_id":"4","last_reported":1768245231,"current_range_meters":8000,"station_id":"","pricing_plan_id":"cebpf4jnsgd1na2vs0mg"},{"bike_id":"8a8b0f0c-0d15-4719-980a-dbef53ae178d","system_id":"levelo_inurba_marseille","lat":43.30312,"lon":5.40443,"is_reserved":false,"is_disabled":false,"rental_uris":{"android":"levelo://app?vid=8a8b0f0c-0d15-4719-980a-dbef53ae178d","ios":"levelo://app?vid=8a8b0f0c-0d15-4719-980a-dbef53ae178d"},"vehicle_type_id":"4","last_reported":1768245231,"current_range_meters":8000,"station_id":"ce4bh012rcd13ifvqd10","pricing_plan_id":"cebpf4jnsgd1na2vs0mg"},{"bike_id":"7fb0d18d-87f0-4490-ac9a-259338a041dc","system_id":"levelo_inurba_marseille","lat":43.23493,"lon":5.35947,"is_reserved":false,"is_disabled":false,"rental_uris":{"android":"levelo://app?vid=7fb0d18d-87f0-4490-ac9a-259338a041dc","ios":"levelo://app?vid=7fb0d18d-87f0-4490-ac9a-259338a041dc"},"vehicle_type_id":"4","last_reported":1768245231,"current_range_meters":8000,"station_id":"","pricing_plan_id":"cebpf4jnsgd1na2vs0mg"},{"bike_id":"c9aa61c2-bf79-4eea-867a-5fdf9f19baaf","system_id":"levelo_inurba_marseille","lat":43.25503,"lon":5.37658,"is_reserved":false,"is_disabled":false,"rental_uris":{"android":"levelo://app?vid=c9aa61c2-bf79-4eea-867a-5fdf9f19baaf","ios":"levelo://app?vid=c9aa61c2-bf79-4eea-867a-5fdf9f19baaf"},"vehicle_type_id":"4","last_reported":1768245231,"current_range_meters":8000,"station_id":"ce4bhh12rcd13ifvqff0","pricing_plan_id":"cebpf4jnsgd1na2vs0mg"},{"bike_id":"ce421665-3c26-4baa-b8ec-61eb8aef5e07","system_id":"levelo_inurba_marseille","lat":43.28071,"lon":5.40705,"is_reserved":false,"is_disabled":false,"rental_uris":{"android":"levelo://app?vid=ce421665-3c26-4baa-b8ec-61eb8aef5e07","ios":"levelo://app?vid=ce421665-3c26-4baa-b8ec-61eb8aef5e07"},"vehicle_type_id":"4","last_reported":1768245231,"current_range_meters":8000,"station_id":"","pricing_plan_id":"cebpf4jnsgd1na2vs0mg"},{"bike_id":"fd5c22af-551e-4b5c-a587-8bd6f93a7d5e","system_id":"levelo_inurba_marseille","lat":43.27945,"lon":5.41031,"is_reserved":false,"is_disabled":false,"rental_uris":{"android":"levelo://app?vid=fd5c22af-551e-4b5c-a587-8bd6f93a7d5e","ios":"levelo://app?vid=fd5c22af-551e-4b5c-a587-8bd6f93a7d5e"},"vehicle_type_id":"4","last_reported":1768245231,"current_range_meters":8000,"station_id":"","pricing_plan_id":"cebpf4jnsgd1na2vs0mg"},{"bike_id":"c5b0e4e4-c0dd-441f-992f-a632a50a9951","system_id":"levelo_inurba_marseille","lat":43.276202,"lon":5.361143,"is_reserved":false,"is_disabled":false,"rental_uris":{"android":"levelo://app?vid=c5b0e4e4-c0dd-441f-992f-a632a50a9951","ios":"levelo://app?vid=c5b0e4e4-c0dd-441f-992f-a632a50a9951"},"vehicle_type_id":"4","last_reported":1768245231,"current_range_meters":8000,"station_id":"ce4bgj92rcd13ifvqbe0","pricing_plan_id":"cebpf4jnsgd1na2vs0mg"},{"bike_id":"889365ac-dd9e-4bc8-95c4-120ab5729ad1","system_id":"levelo_inurba_marseille","lat":43.25583,"lon":5.382334,"is_reserved":false,"is_disabled":false,"rental_uris":{"android":"levelo://app?vid=889365ac-dd9e-4bc8-95c4-120ab5729ad1","ios":"levelo://app?vid=889365ac-dd9e-4bc8-95c4-120ab5729ad1"},"vehicle_type_id":"4","last_reported":1768245231,"current_range_meters":8000,"station_id":"ce4bhih2rcd13ifvqfs0","pricing_plan_id":"cebpf4jnsgd1na2vs0mg"},{"bike_id":"62a6a880-8c2f-4973-954e-dca5b666173d","system_id":"levelo_inurba_marseille","lat":43.29972,"lon":5.37345,"is_reserved":false,"is_disabled":false,"rental_uris":{"android":"levelo://app?vid=62a6a880-8c2f-4973-954e-dca5b666173d","ios":"levelo://app?vid=62a6a880-8c2f-4973-954e-dca5b666173d"},"vehicle_type_id":"4","last_reported":1768245231,"current_range_meters":8000,"station_id":"","pricing_plan_id":"cebpf4jnsgd1na2vs0mg"},{"bike_id":"9bd81498-1c2d-46cc-b134-62e2c3cd9ba1","system_id":"levelo_inurba_marseille","lat":43.28859,"lon":5.42521,"is_reserved":false,"is_disabled":false,"rental_uris":{"android":"levelo://app?vid=9bd81498-1c2d-46cc-b134-62e2c3cd9ba1","ios":"levelo://app?vid=9bd81498-1c2d-46cc-b134-62e2c3cd9ba1"},"vehicle_type_id":"4","last_reported":1768245231,"current_range_meters":8000,"station_id":"st_d3b462108ojc7389ooeg","pricing_plan_id":"cebpf4jnsgd1na2vs0mg"},{"bike_id":"6a29d0f8-9368-4421-9203-6bbc7b648963","system_id":"levelo_inurba_marseille","lat":43.29936,"lon":5.37445,"is_reserved":false,"is_disabled":false,"rental_uris":{"android":"levelo://app?vid=6a29d0f8-9368-4421-9203-6bbc7b648963","ios":"levelo://app?vid=6a29d0f8-9368-4421-9203-6bbc7b648963"},"vehicle_type_id":"4","last_reported":1768245231,"current_range_meters":8000,"station_id":"ce4bgjh2rcd13ifvqbg0","pricing_plan_id":"cebpf4jnsgd1na2vs0mg"},{"bike_id":"ac50cf03-9768-42b1-bcb2-4d54c6c61c6a","system_id":"levelo_inurba_marseille","lat":43.29834,"lon":5.36262,"is_reserved":false,"is_disabled":false,"rental_uris":{"android":"levelo://app?vid=ac50cf03-9768-42b1-bcb2-4d54c6c61c6a","ios":"levelo://app?vid=ac50cf03-9768-42b1-bcb2-4d54c6c61c6a"},"vehicle_type_id":"4","last_reported":1768245231,"current_range_meters":8000,"station_id":"ce4bgpp2rcd13ifvqc3g","pricing_plan_id":"cebpf4jnsgd1na2vs0mg"},{"bike_id":"9c6ac982-85bd-4de8-bac0-c36b3d884f3d","system_id":"levelo_inurba_marseille","lat":43.321109,"lon":5.367799,"is_reserved":false,"is_disabled":false,"rental_uris":{"android":"levelo://app?vid=9c6ac982-85bd-4de8-bac0-c36b3d884f3d","ios":"levelo://app?vid=9c6ac982-85bd-4de8-bac0-c36b3d884f3d"},"vehicle_type_id":"4","last_reported":1768245231,"current_range_meters":8000,"station_id":"ce4bhrh2rcd13ifvqhug","pricing_plan_id":"cebpf4jnsgd1na2vs0mg"},{"bike_id":"2cc9db73-43c9-4a56-a963-4c4c6878c41f","system_id":"levelo_inurba_marseille","lat":43.23842,"lon":5.36658,"is_reserved":false,"is_disabled":false,"rental_uris":{"android":"levelo://app?vid=2cc9db73-43c9-4a56-a963-4c4c6878c41f","ios":"levelo://app?vid=2cc9db73-43c9-4a56-a963-4c4c6878c41f"},"vehicle_type_id":"4","last_reported":1768245231,"current_range_meters":8000,"station_id":"","pricing_plan_id":"cebpf4jnsgd1na2vs0mg"},{"bike_id":"f36b7ae2-2030-496c-8dc8-4dc2101ff9b9","system_id":"levelo_inurba_marseille","lat":43.24506,"lon":5.39514,"is_reserved":false,"is_disabled":false,"rental_uris":{"android":"levelo://app?vid=f36b7ae2-2030-496c-8dc8-4dc2101ff9b9","ios":"levelo://app?vid=f36b7ae2-2030-496c-8dc8-4dc2101ff9b9"},"vehicle_type_id":"4","last_reported":1768245231,"current_range_meters":8000,"station_id":"","pricing_plan_id":"cebpf4jnsgd1na2vs0mg"},{"bike_id":"f322ca8a-b5f6-42b1-996f-3c1d56bf66ab","system_id":"levelo_inurba_marseille","lat":43.265428,"lon":5.37295,"is_reserved":false,"is_disabled":false,"rental_uris":{"android":"levelo://app?vid=f322ca8a-b5f6-42b1-996f-3c1d56bf66ab","ios":"levelo://app?vid=f322ca8a-b5f6-42b1-996f-3c1d56bf66ab"},"vehicle_type_id":"4","last_reported":1768245231,"current_range_meters":8000,"station_id":"ce4bhg12rcd13ifvqf70","pricing_plan_id":"cebpf4jnsgd1na2vs0mg"},{"bike_id":"de6de292-c242-4aec-9fb9-94b084eb06c5","system_id":"levelo_inurba_marseille","lat":43.27072,"lon":5.42273,"is_reserved":false,"is_disabled":false,"rental_uris":{"android":"levelo://app?vid=de6de292-c242-4aec-9fb9-94b084eb06c5","ios":"levelo://app?vid=de6de292-c242-4aec-9fb9-94b084eb06c5"},"vehicle_type_id":"4","last_reported":1768245231,"current_range_meters":8000,"station_id":"ce4bhk92rcd13ifvqgb0","pricing_plan_id":"cebpf4jnsgd1na2vs0mg"},{"bike_id":"ac229441-db14-4c23-81c5-f293c8cbc061","system_id":"levelo_inurba_marseille","lat":43.23782,"lon":5.3662,"is_reserved":false,"is_disabled":false,"rental_uris":{"android":"levelo://app?vid=ac229441-db14-4c23-81c5-f293c8cbc061","ios":"levelo://app?vid=ac229441-db14-4c23-81c5-f293c8cbc061"},"vehicle_type_id":"4","last_reported":1768245231,"current_range_meters":8000,"station_id":"st_d3nk18o9ro0c73en2l3g","pricing_plan_id":"cebpf4jnsgd1na2vs0mg"},{"bike_id":"8de61461-1f75-44ea-a321-3d572e66b2c1","system_id":"levelo_inurba_marseille","lat":43.29375,"lon":5.40985,"is_reserved":false,"is_disabled":false,"rental_uris":{"android":"levelo://app?vid=8de61461-1f75-44ea-a321-3d572e66b2c1","ios":"levelo://app?vid=8de61461-1f75-44ea-a321-3d572e66b2c1"},"vehicle_type_id":"4","last_reported":1768245231,"current_range_meters":8000,"station_id":"","pricing_plan_id":"cebpf4jnsgd1na2vs0mg"},{"bike_id":"6b72b8ae-2518-4b98-97e6-188461737071","system_id":"levelo_inurba_marseille","lat":43.26933,"lon":5.40267,"is_reserved":false,"is_disabled":false,"rental_uris":{"android":"levelo://app?vid=6b72b8ae-2518-4b98-97e6-188461737071","ios":"levelo://app?vid=6b72b8ae-2518-4b98-97e6-188461737071"},"vehicle_type_id":"4","last_reported":1768245231,"current_range_meters":8000,"station_id":"cjm6bp8fraef2m0cb0m0","pricing_plan_id":"cebpf4jnsgd1na2vs0mg"},{"bike_id":"4f869ed3-1aed-4dcc-9d4f-b159e0942c88","system_id":"levelo_inurba_marseille","lat":43.29257,"lon":5.409,"is_reserved":false,"is_disabled":false,"rental_uris":{"android":"levelo://app?vid=4f869ed3-1aed-4dcc-9d4f-b159e0942c88","ios":"levelo://app?vid=4f869ed3-1aed-4dcc-9d4f-b159e0942c88"},"vehicle_type_id":"4","last_reported":1768245231,"current_range_meters":8000,"station_id":"ce4bh192rcd13ifvqdc0","pricing_plan_id":"cebpf4jnsgd1na2vs0mg"},{"bike_id":"573219be-8449-4b0b-914b-5825e3035243","system_id":"levelo_inurba_marseille","lat":43.2317,"lon":5.35606,"is_reserved":false,"is_disabled":false,"rental_uris":{"android":"levelo://app?vid=573219be-8449-4b0b-914b-5825e3035243","ios":"levelo://app?vid=573219be-8449-4b0b-914b-5825e3035243"},"vehicle_type_id":"4","last_reported":1768245231,"current_range_meters":8000,"station_id":"ce4bhu92rcd13ifvqi70","pricing_plan_id":"cebpf4jnsgd1na2vs0mg"},{"bike_id":"a27f6a61-689d-49de-951e-01c7ddaa0581","system_id":"levelo_inurba_marseille","lat":43.2417,"lon":5.36399,"is_reserved":false,"is_disabled":false,"rental_uris":{"android":"levelo://app?vid=a27f6a61-689d-49de-951e-01c7ddaa0581","ios":"levelo://app?vid=a27f6a61-689d-49de-951e-01c7ddaa0581"},"vehicle_type_id":"4","last_reported":1768245231,"current_range_meters":8400,"station_id":"cpo36qri1sfpv3e86is0","pricing_plan_id":"cebpf4jnsgd1na2vs0mg"},{"bike_id":"47fa8c07-02d3-44db-8c89-106a6ddb4f66","system_id":"levelo_inurba_marseille","lat":43.2954,"lon":5.3854,"is_reserved":false,"is_disabled":false,"rental_uris":{"android":"levelo://app?vid=47fa8c07-02d3-44db-8c89-106a6ddb4f66","ios":"levelo://app?vid=47fa8c07-02d3-44db-8c89-106a6ddb4f66"},"vehicle_type_id":"4","last_reported":1768245231,"current_range_meters":8400,"station_id":"ce4bgih2rcd13ifvqba0","pricing_plan_id":"cebpf4jnsgd1na2vs0mg"},{"bike_id":"f5cc3353-2eb4-4fef-87a7-73fd26e5d359","system_id":"levelo_inurba_marseille","lat":43.25003,"lon":5.38936,"is_reserved":false,"is_disabled":false,"rental_uris":{"android":"levelo://app?vid=f5cc3353-2eb4-4fef-87a7-73fd26e5d359","ios":"levelo://app?vid=f5cc3353-2eb4-4fef-87a7-73fd26e5d359"},"vehicle_type_id":"4","last_reported":1768245231,"current_range_meters":8400,"station_id":"ce4bhgp2rcd13ifvqfd0","pricing_plan_id":"cebpf4jnsgd1na2vs0mg"},{"bike_id":"d57094ce-7af8-428e-9753-4201f05f4a86","system_id":"levelo_inurba_marseille","lat":43.24806,"lon":5.37456,"is_reserved":false,"is_disabled":false,"rental_uris":{"android":"levelo://app?vid=d57094ce-7af8-428e-9753-4201f05f4a86","ios":"levelo://app?vid=d57094ce-7af8-428e-9753-4201f05f4a86"},"vehicle_type_id":"4","last_reported":1768245231,"current_range_meters":8400,"station_id":"ce4bhgh2rcd13ifvqfb0","pricing_plan_id":"cebpf4jnsgd1na2vs0mg"},{"bike_id":"15b21ccb-bd0e-47c3-8259-e27d2855772d","system_id":"levelo_inurba_marseille","lat":43.24596,"lon":5.38391,"is_reserved":false,"is_disabled":false,"rental_uris":{"android":"levelo://app?vid=15b21ccb-bd0e-47c3-8259-e27d2855772d","ios":"levelo://app?vid=15b21ccb-bd0e-47c3-8259-e27d2855772d"},"vehicle_type_id":"4","last_reported":1768245231,"current_range_meters":8400,"station_id":"","pricing_plan_id":"cebpf4jnsgd1na2vs0mg"},{"bike_id":"c4fcc189-751d-4eb2-af69-d5ccf6bfb543","system_id":"levelo_inurba_marseille","lat":43.28475,"lon":5.48393,"is_reserved":false,"is_disabled":false,"rental_uris":{"android":"levelo://app?vid=c4fcc189-751d-4eb2-af69-d5ccf6bfb543","ios":"levelo://app?vid=c4fcc189-751d-4eb2-af69-d5ccf6bfb543"},"vehicle_type_id":"4","last_reported":1768245231,"current_range_meters":8400,"station_id":"","pricing_plan_id":"cebpf4jnsgd1na2vs0mg"},{"bike_id":"1e883496-e7d9-4693-82f5-fa011bd23c54","system_id":"levelo_inurba_marseille","lat":43.265,"lon":5.39535,"is_reserved":false,"is_disabled":false,"rental_uris":{"android":"levelo://app?vid=1e883496-e7d9-4693-82f5-fa011bd23c54","ios":"levelo://app?vid=1e883496-e7d9-4693-82f5-fa011bd23c54"},"vehicle_type_id":"4","last_reported":1768245231,"current_range_meters":8400,"station_id":"ce4bhi12rcd13ifvqfq0","pricing_plan_id":"cebpf4jnsgd1na2vs0mg"},{"bike_id":"494cf741-4080-49ee-9640-8328d3d84c97","system_id":"levelo_inurba_marseille","lat":43.2695,"lon":5.3863,"is_reserved":false,"is_disabled":false,"rental_uris":{"android":"levelo://app?vid=494cf741-4080-49ee-9640-8328d3d84c97","ios":"levelo://app?vid=494cf741-4080-49ee-9640-8328d3d84c97"},"vehicle_type_id":"4","last_reported":1768245231,"current_range_meters":8400,"station_id":"ce4bhh92rcd13ifvqfh0","pricing_plan_id":"cebpf4jnsgd1na2vs0mg"},{"bike_id":"4fcf8939-d9e5-44a3-8f16-b04dcd32071a","system_id":"levelo_inurba_marseille","lat":43.24162,"lon":5.3641,"is_reserved":false,"is_disabled":false,"rental_uris":{"android":"levelo://app?vid=4fcf8939-d9e5-44a3-8f16-b04dcd32071a","ios":"levelo://app?vid=4fcf8939-d9e5-44a3-8f16-b04dcd32071a"},"vehicle_type_id":"4","last_reported":1768245231,"current_range_meters":8400,"station_id":"cpo36qri1sfpv3e86is0","pricing_plan_id":"cebpf4jnsgd1na2vs0mg"},{"bike_id":"aa71df00-ac67-458a-bb07-9f22d4867495","system_id":"levelo_inurba_marseille","lat":43.24396,"lon":5.37077,"is_reserved":false,"is_disabled":false,"rental_uris":{"android":"levelo://app?vid=aa71df00-ac67-458a-bb07-9f22d4867495","ios":"levelo://app?vid=aa71df00-ac67-458a-bb07-9f22d4867495"},"vehicle_type_id":"4","last_reported":1768245231,"current_range_meters":8400,"station_id":"ce4bhhh2rcd13ifvqfk0","pricing_plan_id":"cebpf4jnsgd1na2vs0mg"},{"bike_id":"f177f7bc-1ed5-42e0-a608-82886412a4e4","system_id":"levelo_inurba_marseille","lat":43.23966,"lon":5.36615,"is_reserved":false,"is_disabled":false,"rental_uris":{"android":"levelo://app?vid=f177f7bc-1ed5-42e0-a608-82886412a4e4","ios":"levelo://app?vid=f177f7bc-1ed5-42e0-a608-82886412a4e4"},"vehicle_type_id":"4","last_reported":1768245231,"current_range_meters":8400,"station_id":"ce4bhi12rcd13ifvqfp0","pricing_plan_id":"cebpf4jnsgd1na2vs0mg"},{"bike_id":"1bc4dd22-8b42-4ae1-b96e-ede97fc223cf","system_id":"levelo_inurba_marseille","lat":43.29898,"lon":5.37797,"is_reserved":false,"is_disabled":false,"rental_uris":{"android":"levelo://app?vid=1bc4dd22-8b42-4ae1-b96e-ede97fc223cf","ios":"levelo://app?vid=1bc4dd22-8b42-4ae1-b96e-ede97fc223cf"},"vehicle_type_id":"4","last_reported":1768245231,"current_range_meters":8400,"station_id":"","pricing_plan_id":"cebpf4jnsgd1na2vs0mg"},{"bike_id":"ba9aa4b5-9ae3-4347-ba16-0b79f803aee5","system_id":"levelo_inurba_marseille","lat":43.29878,"lon":5.40944,"is_reserved":false,"is_disabled":false,"rental_uris":{"android":"levelo://app?vid=ba9aa4b5-9ae3-4347-ba16-0b79f803aee5","ios":"levelo://app?vid=ba9aa4b5-9ae3-4347-ba16-0b79f803aee5"},"vehicle_type_id":"4","last_reported":1768245231,"current_range_meters":8400,"station_id":"","pricing_plan_id":"cebpf4jnsgd1na2vs0mg"},{"bike_id":"c4719649-1dbc-4c5a-b782-8fce65146957","system_id":"levelo_inurba_marseille","lat":43.28552,"lon":5.44078,"is_reserved":false,"is_disabled":false,"rental_uris":{"android":"levelo://app?vid=c4719649-1dbc-4c5a-b782-8fce65146957","ios":"levelo://app?vid=c4719649-1dbc-4c5a-b782-8fce65146957"},"vehicle_type_id":"4","last_reported":1768245231,"current_range_meters":8400,"station_id":"st_d3j3df2ikq2c7380ej80","pricing_plan_id":"cebpf4jnsgd1na2vs0mg"},{"bike_id":"f2105464-0910-4b23-927b-e71ae0adf2b7","system_id":"levelo_inurba_marseille","lat":43.257214,"lon":5.411144,"is_reserved":false,"is_disabled":false,"rental_uris":{"android":"levelo://app?vid=f2105464-0910-4b23-927b-e71ae0adf2b7","ios":"levelo://app?vid=f2105464-0910-4b23-927b-e71ae0adf2b7"},"vehicle_type_id":"4","last_reported":1768245231,"current_range_meters":8400,"station_id":"ce4bhkp2rcd13ifvqgd0","pricing_plan_id":"cebpf4jnsgd1na2vs0mg"},