{"last_updated":1703966828,"ttl":30,"version":"2.2","data":{"bikes":[{"bike_id":"6c2bfdaf-7fbf-4871-b4bd-b9ea4d287634","system_id":"levelo_inurba_marseille","lat":43.312239,"lon":5.368562,"is_reserved":false,"is_disabled":false,"rental_uris":{"android":"levelo://app?vid=6c2bfdaf-7fbf-4871-b4bd-b9ea4d287634","ios":"levelo://app?vid=6c2bfdaf-7fbf-4871-b4bd-b9ea4d287634"},"vehicle_type_id":"4","last_reported":1703966829,"current_range_meters":20000,"station_id":"ce4bgl92rcd13ifvqbq0","pricing_plan_id":"free"},{"bike_id":"c1792a81-afad-46e7-9530-06374cc0d7d3","system_id":"levelo_inurba_marseille","lat":43.309076,"lon":5.368465,"is_reserved":false,"is_disabled":false,"rental_uris":{"android":"levelo://app?vid=c1792a81-afad-46e7-9530-06374cc0d7d3","ios":"levelo://app?vid=c1792a81-afad-46e7-9530-06374cc0d7d3"},"vehicle_type_id":"4","last_reported":1703966829,"current_range_meters":30000,"station_id":"ce4bgn92rcd13ifvqbvg","pricing_plan_id":"free"},{"bike_id":"055c72ad-f140-41ce-82db-ae4eb4ac1dbe","system_id":"levelo_inurba_marseille","lat":43.314811,"lon":5.373103,"is_reserved":false,"is_disabled":false,"rental_uris":{"android":"levelo://app?vid=055c72ad-f140-41ce-82db-ae4eb4ac1dbe","ios":"levelo://app?vid=055c72ad-f140-41ce-82db-ae4eb4ac1dbe"},"vehicle_type_id":"4","last_reported":1703966829,"current_range_meters":19600,"station_id":"ce4bgt12rcd13ifvqcd0","pricing_plan_id":"free"},{"bike_id":"88e2b684-7b24-4ef1-b2c5-7def72ae0b7f","system_id":"levelo_inurba_marseille","lat":43.314811,"lon":5.373103,"is_reserved":false,"is_disabled":false,"rental_uris":{"android":"levelo://app?vid=88e2b684-7b24-4ef1-b2c5-7def72ae0b7f","ios":"levelo://app?vid=88e2b684-7b24-4ef1-b2c5-7def72ae0b7f"},"vehicle_type_id":"4","last_reported":1703966829,"current_range_meters":16800,"station_id":"ce4bgt12rcd13ifvqcd0","pricing_plan_id":"free"},{"bike_id":"a3a1cfab-f003-4fe7-a644-334945f255d5","system_id":"levelo_inurba_marseille","lat":43.314811,"lon":5.373103,"is_reserved":false,"is_disabled":false,"rental_uris":{"android":"levelo://app?vid=a3a1cfab-f003-4fe7-a644-334945f255d5","ios":"levelo://app?vid=a3a1cfab-f003-4fe7-a644-334945f255d5"},"vehicle_type_id":"4","last_reported":1703966829,"current_range_meters":12800,"station_id":"ce4bgt12rcd13ifvqcd0","pricing_plan_id":"free"},{"bike_id":"f0e850cb-8c11-4a84-87fb-7a24b6fc64c5","system_id":"levelo_inurba_marseille","lat":43.314811,"lon":5.373103,"is_reserved":false,"is_disabled":false,"rental_uris":{"android":"levelo://app?vid=f0e850cb-8c11-4a84-87fb-7a24b6fc64c5","ios":"levelo://app?vid=f0e850cb-8c11-4a84-87fb-7a24b6fc64c5"},"vehicle_type_id":"4","last_reported":1703966829,"current_range_meters":2800,"station_id":"ce4bgt12rcd13ifvqcd0","pricing_plan_id":"free"},{"bike_id":"393d281c-fc34-40cb-9e7a-49bf22cd7cc0","system_id":"levelo_inurba_marseille","lat":43.309039,"lon":5.371797,"is_reserved":false,"is_disabled":false,"rental_uris":{"android":"levelo://app?vid=393d281c-fc34-40cb-9e7a-49bf22cd7cc0","ios":"levelo://app?vid=393d281c-fc34-40cb-9e7a-49bf22cd7cc0"},"vehicle_type_id":"4","last_reported":1703966829,"current_range_meters":2400,"station_id":"ce4bguh2rcd13ifvqckg","pricing_plan_id":"free"},{"bike_id":"2d7399e9-666b-4ccd-933c-7899b36c0364","system_id":"levelo_inurba_marseille","lat":43.309039,"lon":5.371797,"is_reserved":false,"is_disabled":false,"rental_uris":{"android":"levelo://app?vid=2d7399e9-666b-4ccd-933c-7899b36c0364","ios":"levelo://app?vid=2d7399e9-666b-4ccd-933c-7899b36c0364"},"vehicle_type_id":"4","last_reported":1703966829,"current_range_meters":10000,"station_id":"ce4bguh2rcd13ifvqckg","pricing_plan_id":"free"},{"bike_id":"64a93320-b6f7-4f00-82e1-5c71938933c4","system_id":"levelo_inurba_marseille","lat":43.312836,"lon":5.376119,"is_reserved":false,"is_disabled":false,"rental_uris":{"android":"levelo://app?vid=64a93320-b6f7-4f00-82e1-5c71938933c4","ios":"levelo://app?vid=64a93320-b6f7-4f00-82e1-5c71938933c4"},"vehicle_type_id":"4","last_reported":1703966829,"current_range_meters":22800,"station_id":"","pricing_plan_id":"free"},{"bike_id":"2bf1159c-4b34-4bc3-a8b5-156be571c011","system_id":"levelo_inurba_marseille","lat":43.307843,"lon":5.373431,"is_reserved":false,"is_disabled":false,"rental_uris":{"android":"levelo://app?vid=2bf1159c-4b34-4bc3-a8b5-156be571c011","ios":"levelo://app?vid=2bf1159c-4b34-4bc3-a8b5-156be571c011"},"vehicle_type_id":"4","last_reported":1703966829,"current_range_meters":26800,"station_id":"","pricing_plan_id":"free"},{"bike_id":"a3c8d623-a85c-45ca-8fac-8710ce7491da","system_id":"levelo_inurba_marseille","lat":43.30648,"lon":5.37225,"is_reserved":false,"is_disabled":false,"rental_uris":{"android":"levelo://app?vid=a3c8d623-a85c-45ca-8fac-8710ce7491da","ios":"levelo://app?vid=a3c8d623-a85c-45ca-8fac-8710ce7491da"},"vehicle_type_id":"4","last_reported":1703966829,"current_range_meters":7200,"station_id":"","pricing_plan_id":"free"},{"bike_id":"ed8d2401-58d4-4308-af8b-a9de9b5d5f8b","system_id":"levelo_inurba_marseille","lat":43.305368,"lon":5.367343,"is_reserved":false,"is_disabled":false,"rental_uris":{"android":"levelo://app?vid=ed8d2401-58d4-4308-af8b-a9de9b5d5f8b","ios":"levelo://app?vid=ed8d2401-58d4-4308-af8b-a9de9b5d5f8b"},"vehicle_type_id":"4","last_reported":1703966829,"current_range_meters":0,"station_id":"ce4bgrp2rcd13ifvqc9g","pricing_plan_id":"free"},{"bike_id":"55b35725-eec6-4b5c-8df0-493a9b01062e","system_id":"levelo_inurba_marseille","lat":43.305989,"lon":5.37225,"is_reserved":false,"is_disabled":false,"rental_uris":{"android":"levelo://app?vid=55b35725-eec6-4b5c-8df0-493a9b01062e","ios":"levelo://app?vid=55b35725-eec6-4b5c-8df0-493a9b01062e"},"vehicle_type_id":"4","last_reported":1703966829,"current_range_meters":28400,"station_id":"ce4bgqh2rcd13ifvqc4g","pricing_plan_id":"free"},{"bike_id":"93d7d131-eb70-4119-8ad5-a93fbd9e9c60","system_id":"levelo_inurba_marseille","lat":43.305989,"lon":5.37225,"is_reserved":false,"is_disabled":false,"rental_uris":{"android":"levelo://app?vid=93d7d131-eb70-4119-8ad5-a93fbd9e9c60","ios":"levelo://app?vid=93d7d131-eb70-4119-8ad5-a93fbd9e9c60"},"vehicle_type_id":"4","last_reported":1703966829,"current_range_meters":9200,"station_id":"ce4bgqh2rcd13ifvqc4g","pricing_plan_id":"free"},{"bike_id":"e8fa1057-27ce-4e49-ba4b-40a8f8a74095","system_id":"levelo_inurba_marseille","lat":43.305989,"lon":5.37225,"is_reserved":false,"is_disabled":false,"rental_uris":{"android":"levelo://app?vid=e8fa1057-27ce-4e49-ba4b-40a8f8a74095","ios":"levelo://app?vid=e8fa1057-27ce-4e49-ba4b-40a8f8a74095"},"vehicle_type_id":"4","last_reported":1703966829,"current_range_meters":12000,"station_id":"ce4bgqh2rcd13ifvqc4g","pricing_plan_id":"free"},{"bike_id":"9b8181e0-de5b-403b-9c0c-0bbb2501e513","system_id":"levelo_inurba_marseille","lat":43.305989,"lon":5.37225,"is_reserved":false,"is_disabled":false,"rental_uris":{"android":"levelo://app?vid=9b8181e0-de5b-403b-9c0c-0bbb2501e513","ios":"levelo://app?vid=9b8181e0-de5b-403b-9c0c-0bbb2501e513"},"vehicle_type_id":"4","last_reported":1703966829,"current_range_meters":20000,"station_id":"ce4bgqh2rcd13ifvqc4g","pricing_plan_id":"free"},{"bike_id":"bb69c5a1-9a11-4303-9081-b5eaf96fa6bc","system_id":"levelo_inurba_marseille","lat":43.311131,"lon":5.377651,"is_reserved":false,"is_disabled":false,"rental_uris":{"android":"levelo://app?vid=bb69c5a1-9a11-4303-9081-b5eaf96fa6bc","ios":"levelo://app?vid=bb69c5a1-9a11-4303-9081-b5eaf96fa6bc"},"vehicle_type_id":"4","last_reported":1703966829,"current_range_meters":5600,"station_id":"ce4bgt92rcd13ifvqcg0","pricing_plan_id":"free"},{"bike_id":"25af9e1c-886c-4f64-92f2-5ca68e46ae4a","system_id":"levelo_inurba_marseille","lat":43.31722,"lon":5.37668,"is_reserved":false,"is_disabled":false,"rental_uris":{"android":"levelo://app?vid=25af9e1c-886c-4f64-92f2-5ca68e46ae4a","ios":"levelo://app?vid=25af9e1c-886c-4f64-92f2-5ca68e46ae4a"},"vehicle_type_id":"4","last_reported":1703966829,"current_range_meters":24800,"station_id":"","pricing_plan_id":"free"},{"bike_id":"9253fe3f-455b-4aa6-bab9-e1fac26cc6b9","system_id":"levelo_inurba_marseille","lat":43.307945,"lon":5.376487,"is_reserved":false,"is_disabled":false,"rental_uris":{"android":"levelo://app?vid=9253fe3f-455b-4aa6-bab9-e1fac26cc6b9","ios":"levelo://app?vid=9253fe3f-455b-4aa6-bab9-e1fac26cc6b9"},"vehicle_type_id":"4","last_reported":1703966829,"current_range_meters":5200,"station_id":"ce4bgv92rcd13ifvqcq0","pricing_plan_id":"free"},{"bike_id":"43ca8f0e-45c8-46db-88a7-88fa1ac98477","system_id":"levelo_inurba_marseille","lat":43.317075,"lon":5.377367,"is_reserved":false,"is_disabled":false,"rental_uris":{"android":"levelo://app?vid=43ca8f0e-45c8-46db-88a7-88fa1ac98477","ios":"levelo://app?vid=43ca8f0e-45c8-46db-88a7-88fa1ac98477"},"vehicle_type_id":"4","last_reported":1703966829,"current_range_meters":26800,"station_id":"ce4bgth2rcd13ifvqch0","pricing_plan_id":"free"},{"bike_id":"e5cdb6f6-1300-406e-9303-c0f03d781d71","system_id":"levelo_inurba_marseille","lat":43.317075,"lon":5.377367,"is_reserved":false,"is_disabled":false,"rental_uris":{"android":"levelo://app?vid=e5cdb6f6-1300-406e-9303-c0f03d781d71","ios":"levelo://app?vid=e5cdb6f6-1300-406e-9303-c0f03d781d71"},"vehicle_type_id":"4","last_reported":1703966829,"current_range_meters":7600,"station_id":"ce4bgth2rcd13ifvqch0","pricing_plan_id":"free"},{"bike_id":"4b4a830d-bdbc-4605-9cde-6eb7b6b1ec2f","system_id":"levelo_inurba_marseille","lat":43.303046,"lon":5.368981,"is_reserved":false,"is_disabled":false,"rental_uris":{"android":"levelo://app?vid=4b4a830d-bdbc-4605-9cde-6eb7b6b1ec2f","ios":"levelo://app?vid=4b4a830d-bdbc-4605-9cde-6eb7b6b1ec2f"},"vehicle_type_id":"4","last_reported":1703966829,"current_range_meters":30400,"station_id":"ce4bgqh2rcd13ifvqc5g","pricing_plan_id":"free"},{"bike_id":"fa42125a-2b48-4e78-9b49-e4925096e263","system_id":"levelo_inurba_marseille","lat":43.315293,"lon":5.380349,"is_reserved":false,"is_disabled":false,"rental_uris":{"android":"levelo://app?vid=fa42125a-2b48-4e78-9b49-e4925096e263","ios":"levelo://app?vid=fa42125a-2b48-4e78-9b49-e4925096e263"},"vehicle_type_id":"4","last_reported":1703966829,"current_range_meters":10800,"station_id":"ce4bhsp2rcd13ifvqi50","pricing_plan_id":"free"},{"bike_id":"b27cb609-f09c-4a54-a439-16947ce51b82","system_id":"levelo_inurba_marseille","lat":43.301939,"lon":5.366286,"is_reserved":false,"is_disabled":false,"rental_uris":{"android":"levelo://app?vid=b27cb609-f09c-4a54-a439-16947ce51b82","ios":"levelo://app?vid=b27cb609-f09c-4a54-a439-16947ce51b82"},"vehicle_type_id":"4","last_reported":1703966829,"current_range_meters":11600,"station_id":"ce4bgrh2rcd13ifvqc8g","pricing_plan_id":"free"},{"bike_id":"86a73a79-089f-43f2-be4c-1c568b77c40d","system_id":"levelo_inurba_marseille","lat":43.301939,"lon":5.366286,"is_reserved":false,"is_disabled":false,"rental_uris":{"android":"levelo://app?vid=86a73a79-089f-43f2-be4c-1c568b77c40d","ios":"levelo://app?vid=86a73a79-089f-43f2-be4c-1c568b77c40d"},"vehicle_type_id":"4","last_reported":1703966829,"current_range_meters":24000,"station_id":"ce4bgrh2rcd13ifvqc8g","pricing_plan_id":"free"},{"bike_id":"ae7802f3-c598-4ea9-bc3f-d66a55fb41c5","system_id":"levelo_inurba_marseille","lat":43.301939,"lon":5.366286,"is_reserved":false,"is_disabled":false,"rental_uris":{"android":"levelo://app?vid=ae7802f3-c598-4ea9-bc3f-d66a55fb41c5","ios":"levelo://app?vid=ae7802f3-c598-4ea9-bc3f-d66a55fb41c5"},"vehicle_type_id":"4","last_reported":1703966829,"current_range_meters":16800,"station_id":"ce4bgrh2rcd13ifvqc8g","pricing_plan_id":"free"},{"bike_id":"9ed7ee93-a8b0-4960-8217-0c2523b0805f","system_id":"levelo_inurba_marseille","lat":43.301939,"lon":5.366286,"is_reserved":false,"is_disabled":false,"rental_uris":{"android":"levelo://app?vid=9ed7ee93-a8b0-4960-8217-0c2523b0805f","ios":"levelo://app?vid=9ed7ee93-a8b0-4960-8217-0c2523b0805f"},"vehicle_type_id":"4","last_reported":1703966829,"current_range_meters":16000,"station_id":"ce4bgrh2rcd13ifvqc8g","pricing_plan_id":"free"},{"bike_id":"020df3b8-b0b1-4d89-a340-e7bb8d26326f","system_id":"levelo_inurba_marseille","lat":43.301939,"lon":5.366286,"is_reserved":false,"is_disabled":false,"rental_uris":{"android":"levelo://app?vid=020df3b8-b0b1-4d89-a340-e7bb8d26326f","ios":"levelo://app?vid=020df3b8-b0b1-4d89-a340-e7bb8d26326f"},"vehicle_type_id":"4","last_reported":1703966829,"current_range_meters":6400,"station_id":"ce4bgrh2rcd13ifvqc8g","pricing_plan_id":"free"},{"bike_id":"e4dcb29d-6179-427e-822d-8621bcd08456","system_id":"levelo_inurba_marseille","lat":43.304708,"lon":5.379039,"is_reserved":false,"is_disabled":false,"rental_uris":{"android":"levelo://app?vid=e4dcb29d-6179-427e-822d-8621bcd08456","ios":"levelo://app?vid=e4dcb29d-6179-427e-822d-8621bcd08456"},"vehicle_type_id":"4","last_reported":1703966829,"current_range_meters":21200,"station_id":"","pricing_plan_id":"free"},{"bike_id":"7d5a5fe5-0b70-43bb-9224-59cfb24cc454","system_id":"levelo_inurba_marseille","lat":43.324771,"lon":5.36557,"is_reserved":false,"is_disabled":false,"rental_uris":{"android":"levelo://app?vid=7d5a5fe5-0b70-43bb-9224-59cfb24cc454","ios":"levelo://app?vid=7d5a5fe5-0b70-43bb-9224-59cfb24cc454"},"vehicle_type_id":"4","last_reported":1703966829,"current_range_meters":10000,"station_id":"ce4bhs12rcd13ifvqhvg","pricing_plan_id":"free"},{"bike_id":"ca341ae7-df28-456b-b1c2-455111f76789","system_id":"levelo_inurba_marseille","lat":43.324771,"lon":5.36557,"is_reserved":false,"is_disabled":false,"rental_uris":{"android":"levelo://app?vid=ca341ae7-df28-456b-b1c2-455111f76789","ios":"levelo://app?vid=ca341ae7-df28-456b-b1c2-455111f76789"},"vehicle_type_id":"4","last_reported":1703966829,"current_range_meters":21200,"station_id":"ce4bhs12rcd13ifvqhvg","pricing_plan_id":"free"},{"bike_id":"6ae906b2-aa8f-407b-83b3-5563503bb155","system_id":"levelo_inurba_marseille","lat":43.313571,"lon":5.384829,"is_reserved":false,"is_disabled":false,"rental_uris":{"android":"levelo://app?vid=6ae906b2-aa8f-407b-83b3-5563503bb155","ios":"levelo://app?vid=6ae906b2-aa8f-407b-83b3-5563503bb155"},"vehicle_type_id":"4","last_reported":1703966829,"current_range_meters":23600,"station_id":"ce4bgt92rcd13ifvqcf0","pricing_plan_id":"free"},{"bike_id":"6d46f872-18cc-41a2-9678-6fcde14d13d1","system_id":"levelo_inurba_marseille","lat":43.313571,"lon":5.384829,"is_reserved":false,"is_disabled":false,"rental_uris":{"android":"levelo://app?vid=6d46f872-18cc-41a2-9678-6fcde14d13d1","ios":"levelo://app?vid=6d46f872-18cc-41a2-9678-6fcde14d13d1"},"vehicle_type_id":"4","last_reported":1703966829,"current_range_meters":19600,"station_id":"ce4bgt92rcd13ifvqcf0","pricing_plan_id":"free"},{"bike_id":"88e8b8ab-0221-42ff-8e79-291813a1ba4a","system_id":"levelo_inurba_marseille","lat":43.299724,"lon":5.371829,"is_reserved":false,"is_disabled":false,"rental_uris":{"android":"levelo://app?vid=88e8b8ab-0221-42ff-8e79-291813a1ba4a","ios":"levelo://app?vid=88e8b8ab-0221-42ff-8e79-291813a1ba4a"},"vehicle_type_id":"4","last_reported":1703966829,"current_range_meters":21200,"station_id":"ce4bgr92rcd13ifvqc7g","pricing_plan_id":"free"},{"bike_id":"2b12bc0d-2145-45c7-a650-56d3f309083a","system_id":"levelo_inurba_marseille","lat":43.29976,"lon":5.371861,"is_reserved":false,"is_disabled":false,"rental_uris":{"android":"levelo://app?vid=2b12bc0d-2145-45c7-a650-56d3f309083a","ios":"levelo://app?vid=2b12bc0d-2145-45c7-a650-56d3f309083a"},"vehicle_type_id":"4","last_reported":1703966829,"current_range_meters":3600,"station_id":"ce4bgr92rcd13ifvqc7g","pricing_plan_id":"free"},{"bike_id":"dc3dc03f-7236-48cf-8be4-c76bc6c40be8","system_id":"levelo_inurba_marseille","lat":43.299222,"lon":5.365554,"is_reserved":false,"is_disabled":false,"rental_uris":{"android":"levelo://app?vid=dc3dc03f-7236-48cf-8be4-c76bc6c40be8","ios":"levelo://app?vid=dc3dc03f-7236-48cf-8be4-c76bc6c40be8"},"vehicle_type_id":"4","last_reported":1703966829,"current_range_meters":6000,"station_id":"ce4bgm92rcd13ifvqbr0","pricing_plan_id":"free"},{"bike_id":"c05d138a-9eaa-4578-84f8-5eb99c852b0c","system_id":"levelo_inurba_marseille","lat":43.299961,"lon":5.374313,"is_reserved":false,"is_disabled":false,"rental_uris":{"android":"levelo://app?vid=c05d138a-9eaa-4578-84f8-5eb99c852b0c","ios":"levelo://app?vid=c05d138a-9eaa-4578-84f8-5eb99c852b0c"},"vehicle_type_id":"4","last_reported":1703966829,"current_range_meters":6800,"station_id":"","pricing_plan_id":"free"},{"bike_id":"2384e5b9-871a-4366-b68e-f5281e0f26c3","system_id":"levelo_inurba_marseille","lat":43.299243,"lon":5.37481,"is_reserved":false,"is_disabled":false,"rental_uris":{"android":"levelo://app?vid=2384e5b9-871a-4366-b68e-f5281e0f26c3","ios":"levelo://app?vid=2384e5b9-871a-4366-b68e-f5281e0f26c3"},"vehicle_type_id":"4","last_reported":1703966829,"current_range_meters":30000,"station_id":"ce4bgjh2rcd13ifvqbg0","pricing_plan_id":"free"},{"bike_id":"7b324b3a-cccb-4ec7-accc-9405a85fafb2","system_id":"levelo_inurba_marseille","lat":43.311722,"lon":5.387247,"is_reserved":false,"is_disabled":false,"rental_uris":{"android":"levelo://app?vid=7b324b3a-cccb-4ec7-accc-9405a85fafb2","ios":"levelo://app?vid=7b324b3a-cccb-4ec7-accc-9405a85fafb2"},"vehicle_type_id":"4","last_reported":1703966829,"current_range_meters":17200,"station_id":"ce4bgv12rcd13ifvqcp0","pricing_plan_id":"free"},{"bike_id":"c8810852-277f-44f2-a712-d1c79f44e282","system_id":"levelo_inurba_marseille","lat":43.297794,"lon":5.370888,"is_reserved":false,"is_disabled":false,"rental_uris":{"android":"levelo://app?vid=c8810852-277f-44f2-a712-d1c79f44e282","ios":"levelo://app?vid=c8810852-277f-44f2-a712-d1c79f44e282"},"vehicle_type_id":"4","last_reported":1703966829,"current_range_meters":0,"station_id":"ce4bgop2rcd13ifvqc1g","pricing_plan_id":"free"},{"bike_id":"2154e13a-10ef-4d79-b4f3-a92c055765e5","system_id":"levelo_inurba_marseille","lat":43.322872,"lon":5.382756,"is_reserved":false,"is_disabled":false,"rental_uris":{"android":"levelo://app?vid=2154e13a-10ef-4d79-b4f3-a92c055765e5","ios":"levelo://app?vid=2154e13a-10ef-4d79-b4f3-a92c055765e5"},"vehicle_type_id":"4","last_reported":1703966829,"current_range_meters":30400,"station_id":"ce4bhr12rcd13ifvqhqg","pricing_plan_id":"free"},{"bike_id":"3406ac08-144e-419c-8a8c-9c89910b5b78","system_id":"levelo_inurba_marseille","lat":43.328211,"lon":5.366782,"is_reserved":false,"is_disabled":false,"rental_uris":{"android":"levelo://app?vid=3406ac08-144e-419c-8a8c-9c89910b5b78","ios":"levelo://app?vid=3406ac08-144e-419c-8a8c-9c89910b5b78"},"vehicle_type_id":"4","last_reported":1703966829,"current_range_meters":9200,"station_id":"ce4bhs92rcd13ifvqi0g","pricing_plan_id":"free"},{"bike_id":"7d6d006d-1ffd-499a-b21c-af208ba00600","system_id":"levelo_inurba_marseille","lat":43.32822,"lon":5.36679,"is_reserved":false,"is_disabled":false,"rental_uris":{"android":"levelo://app?vid=7d6d006d-1ffd-499a-b21c-af208ba00600","ios":"levelo://app?vid=7d6d006d-1ffd-499a-b21c-af208ba00600"},"vehicle_type_id":"4","last_reported":1703966829,"current_range_meters":22400,"station_id":"ce4bhs92rcd13ifvqi0g","pricing_plan_id":"free"},{"bike_id":"7aa6a530-3ac6-4ec6-a447-a7bf4c489e07","system_id":"levelo_inurba_marseille","lat":43.328234,"lon":5.366854,"is_reserved":false,"is_disabled":false,"rental_uris":{"android":"levelo://app?vid=7aa6a530-3ac6-4ec6-a447-a7bf4c489e07","ios":"levelo://app?vid=7aa6a530-3ac6-4ec6-a447-a7bf4c489e07"},"vehicle_type_id":"4","last_reported":1703966829,"current_range_meters":18800,"station_id":"ce4bhs92rcd13ifvqi0g","pricing_plan_id":"free"},{"bike_id":"74ff96ff-c851-4d57-8883-0d7347bd471f","system_id":"levelo_inurba_marseille","lat":43.32826,"lon":5.36682,"is_reserved":false,"is_disabled":false,"rental_uris":{"android":"levelo://app?vid=74ff96ff-c851-4d57-8883-0d7347bd471f","ios":"levelo://app?vid=74ff96ff-c851-4d57-8883-0d7347bd471f"},"vehicle_type_id":"4","last_reported":1703966829,"current_range_meters":29600,"station_id":"ce4bhs92rcd13ifvqi0g","pricing_plan_id":"free"},{"bike_id":"51714c4a-3132-4951-88ec-80e85fa125e8","system_id":"levelo_inurba_marseille","lat":43.328265,"lon":5.366738,"is_reserved":false,"is_disabled":false,"rental_uris":{"android":"levelo://app?vid=51714c4a-3132-4951-88ec-80e85fa125e8","ios":"levelo://app?vid=51714c4a-3132-4951-88ec-80e85fa125e8"},"vehicle_type_id":"4","last_reported":1703966829,"current_range_meters":8800,"station_id":"ce4bhs92rcd13ifvqi0g","pricing_plan_id":"free"},{"bike_id":"a677cd10-a09b-4b2e-bffd-45b05d2c9229","system_id":"levelo_inurba_marseille","lat":43.328268,"lon":5.366779,"is_reserved":false,"is_disabled":false,"rental_uris":{"android":"levelo://app?vid=a677cd10-a09b-4b2e-bffd-45b05d2c9229","ios":"levelo://app?vid=a677cd10-a09b-4b2e-bffd-45b05d2c9229"},"vehicle_type_id":"4","last_reported":1703966829,"current_range_meters":17200,"station_id":"ce4bhs92rcd13ifvqi0g","pricing_plan_id":"free"},{"bike_id":"904f83aa-e9ab-401d-84c1-9edfed82b884","system_id":"levelo_inurba_marseille","lat":43.328371,"lon":5.366912,"is_reserved":false,"is_disabled":false,"rental_uris":{"android":"levelo://app?vid=904f83aa-e9ab-401d-84c1-9edfed82b884","ios":"levelo://app?vid=904f83aa-e9ab-401d-84c1-9edfed82b884"},"vehicle_type_id":"4","last_reported":1703966829,"current_range_meters":24800,"station_id":"ce4bhs92rcd13ifvqi0g","pricing_plan_id":"free"},{"bike_id":"43517afb-7930-42e8-a305-e900a3000a28","system_id":"levelo_inurba_marseille","lat":43.32827,"lon":5.36677,"is_reserved":false,"is_disabled":false,"rental_uris":{"android":"levelo://app?vid=43517afb-7930-42e8-a305-e900a3000a28","ios":"levelo://app?vid=43517afb-7930-42e8-a305-e900a3000a28"},"vehicle_type_id":"4","last_reported":1703966829,"current_range_meters":19200,"station_id":"ce4bhs92rcd13ifvqi0g","pricing_plan_id":"free"},{"bike_id":"ea7074d7-b7c9-4941-82c2-dff391bae9cb","system_id":"levelo_inurba_marseille","lat":43.32827,"lon":5.36672,"is_reserved":false,"is_disabled":false,"rental_uris":{"android":"levelo://app?vid=ea7074d7-b7c9-4941-82c2-dff391bae9cb","ios":"levelo://app?vid=ea7074d7-b7c9-4941-82c2-dff391bae9cb"},"vehicle_type_id":"4","last_reported":1703966829,"current_range_meters":28000,"station_id":"ce4bhs92rcd13ifvqi0g","pricing_plan_id":"free"},{"bike_id":"9d832f49-b330-492c-bca5-26b211dfab4e","system_id":"levelo_inurba_marseille","lat":43.328271,"lon":5.366772,"is_reserved":false,"is_disabled":false,"rental_uris":{"android":"levelo://app?vid=9d832f49-b330-492c-bca5-26b211dfab4e","ios":"levelo://app?vid=9d832f49-b330-492c-bca5-26b211dfab4e"},"vehicle_type_id":"4","last_reported":1703966829,"current_range_meters":19200,"station_id":"ce4bhs92rcd13ifvqi0g","pricing_plan_id":"free"},{"bike_id":"5c89eee7-6e83-42b4-bd81-efdcf68f6666","system_id":"levelo_inurba_marseille","lat":43.328278,"lon":5.366813,"is_reserved":false,"is_disabled":false,"rental_uris":{"android":"levelo://app?vid=5c89eee7-6e83-42b4-bd81-efdcf68f6666","ios":"levelo://app?vid=5c89eee7-6e83-42b4-bd81-efdcf68f6666"},"vehicle_type_id":"4","last_reported":1703966829,"current_range_meters":5200,"station_id":"ce4bhs92rcd13ifvqi0g","pricing_plan_id":"free"},{"bike_id":"c99c1421-6c70-45e1-a99f-19afba82ca69","system_id":"levelo_inurba_marseille","lat":43.32828,"lon":5.36676,"is_reserved":false,"is_disabled":false,"rental_uris":{"android":"levelo://app?vid=c99c1421-6c70-45e1-a99f-19afba82ca69","ios":"levelo://app?vid=c99c1421-6c70-45e1-a99f-19afba82ca69"},"vehicle_type_id":"4","last_reported":1703966829,"current_range_meters":25200,"station_id":"ce4bhs92rcd13ifvqi0g","pricing_plan_id":"free"},{"bike_id":"b565874b-57a1-49e1-a225-9f36f0cca013","system_id":"levelo_inurba_marseille","lat":43.328297,"lon":5.366783,"is_reserved":false,"is_disabled":false,"rental_uris":{"android":"levelo://app?vid=b565874b-57a1-49e1-a225-9f36f0cca013","ios":"levelo://app?vid=b565874b-57a1-49e1-a225-9f36f0cca013"},"vehicle_type_id":"4","last_reported":1703966829,"current_range_meters":9200,"station_id":"ce4bhs92rcd13ifvqi0g","pricing_plan_id":"free"},{"bike_id":"a448ca86-2b35-41e1-89c4-32a99bab0563","system_id":"levelo_inurba_marseille","lat":43.328371,"lon":5.366912,"is_reserved":false,"is_disabled":false,"rental_uris":{"android":"levelo://app?vid=a448ca86-2b35-41e1-89c4-32a99bab0563","ios":"levelo://app?vid=a448ca86-2b35-41e1-89c4-32a99bab0563"},"vehicle_type_id":"4","last_reported":1703966829,"current_range_meters":14000,"station_id":"ce4bhs92rcd13ifvqi0g","pricing_plan_id":"free"},{"bike_id":"b30b3d1b-ef61-4776-bd7b-61c34fd8cc81","system_id":"levelo_inurba_marseille","lat":43.3283,"lon":5.36677,"is_reserved":false,"is_disabled":false,"rental_uris":{"android":"levelo://app?vid=b30b3d1b-ef61-4776-bd7b-61c34fd8cc81","ios":"levelo://app?vid=b30b3d1b-ef61-4776-bd7b-61c34fd8cc81"},"vehicle_type_id":"4","last_reported":1703966829,"current_range_meters":5600,"station_id":"ce4bhs92rcd13ifvqi0g","pricing_plan_id":"free"},{"bike_id":"de708f00-7118-4d7c-9021-d7dcbd798473","system_id":"levelo_inurba_marseille","lat":43.328303,"lon":5.366743,"is_reserved":false,"is_disabled":false,"rental_uris":{"android":"levelo://app?vid=de708f00-7118-4d7c-9021-d7dcbd798473","ios":"levelo://app?vid=de708f00-7118-4d7c-9021-d7dcbd798473"},"vehicle_type_id":"4","last_reported":1703966829,"current_range_meters":29600,"station_id":"ce4bhs92rcd13ifvqi0g","pricing_plan_id":"free"},{"bike_id":"dd3e2261-6fdc-46af-99cc-34605c9d28f5","system_id":"levelo_inurba_marseille","lat":43.32831,"lon":5.36683,"is_reserved":false,"is_disabled":false,"rental_uris":{"android":"levelo://app?vid=dd3e2261-6fdc-46af-99cc-34605c9d28f5","ios":"levelo://app?vid=dd3e2261-6fdc-46af-99cc-34605c9d28f5"},"vehicle_type_id":"4","last_reported":1703966829,"current_range_meters":12800,"station_id":"ce4bhs92rcd13ifvqi0g","pricing_plan_id":"free"},{"bike_id":"70017d6e-6f1a-4af6-baf6-320a119b5691","system_id":"levelo_inurba_marseille","lat":43.32832,"lon":5.36678,"is_reserved":false,"is_disabled":false,"rental_uris":{"android":"levelo://app?vid=70017d6e-6f1a-4af6-baf6-320a119b5691","ios":"levelo://app?vid=70017d6e-6f1a-4af6-baf6-320a119b5691"},"vehicle_type_id":"4","last_reported":1703966829,"current_range_meters":27600,"station_id":"ce4bhs92rcd13ifvqi0g","pricing_plan_id":"free"},{"bike_id":"370cccf7-c9ba-46c2-819b-c8e8cacc4c21","system_id":"levelo_inurba_marseille","lat":43.3277,"lon":5.37458,"is_reserved":false,"is_disabled":false,"rental_uris":{"android":"levelo://app?vid=370cccf7-c9ba-46c2-819b-c8e8cacc4c21","ios":"levelo://app?vid=370cccf7-c9ba-46c2-819b-c8e8cacc4c21"},"vehicle_type_id":"4","last_reported":1703966829,"current_range_meters":13200,"station_id":"","pricing_plan_id":"free"},{"bike_id":"c3cca457-155c-4c29-8a0f-ee0cf07c479c","system_id":"levelo_inurba_marseille","lat":43.2968,"lon":5.37291,"is_reserved":false,"is_disabled":false,"rental_uris":{"android":"levelo://app?vid=c3cca457-155c-4c29-8a0f-ee0cf07c479c","ios":"levelo://app?vid=c3cca457-155c-4c29-8a0f-ee0cf07c479c"},"vehicle_type_id":"4","last_reported":1703966829,"current_range_meters":20800,"station_id":"ce4bgk12rcd13ifvqbj0","pricing_plan_id":"free"},{"bike_id":"921b424d-ad0d-4c7a-9d74-66e3a49bfa19","system_id":"levelo_inurba_marseille","lat":43.32934,"lon":5.36612,"is_reserved":false,"is_disabled":false,"rental_uris":{"android":"levelo://app?vid=921b424d-ad0d-4c7a-9d74-66e3a49bfa19","ios":"levelo://app?vid=921b424d-ad0d-4c7a-9d74-66e3a49bfa19"},"vehicle_type_id":"4","last_reported":1703966829,"current_range_meters":4800,"station_id":"","pricing_plan_id":"free"},{"bike_id":"18488793-1fd8-4161-94f4-4cc6e9e4d61c","system_id":"levelo_inurba_marseille","lat":43.29573,"lon":5.367355,"is_reserved":false,"is_disabled":false,"rental_uris":{"android":"levelo://app?vid=18488793-1fd8-4161-94f4-4cc6e9e4d61c","ios":"levelo://app?vid=18488793-1fd8-4161-94f4-4cc6e9e4d61c"},"vehicle_type_id":"4","last_reported":1703966829,"current_range_meters":22000,"station_id":"ce4bgph2rcd13ifvqc2g","pricing_plan_id":"free"},{"bike_id":"b4191d40-ee19-4f55-bb71-71954e731e1c","system_id":"levelo_inurba_marseille","lat":43.309589,"lon":5.390258,"is_reserved":false,"is_disabled":false,"rental_uris":{"android":"levelo://app?vid=b4191d40-ee19-4f55-bb71-71954e731e1c","ios":"levelo://app?vid=b4191d40-ee19-4f55-bb71-71954e731e1c"},"vehicle_type_id":"4","last_reported":1703966829,"current_range_meters":14800,"station_id":"ce4bgup2rcd13ifvqco0","pricing_plan_id":"free"},{"bike_id":"776fd869-f7c2-4fc9-b795-82bacf0a478c","system_id":"levelo_inurba_marseille","lat":43.317557,"lon":5.390173,"is_reserved":false,"is_disabled":false,"rental_uris":{"android":"levelo://app?vid=776fd869-f7c2-4fc9-b795-82bacf0a478c","ios":"levelo://app?vid=776fd869-f7c2-4fc9-b795-82bacf0a478c"},"vehicle_type_id":"4","last_reported":1703966829,"current_range_meters":10000,"station_id":"ce4bhqp2rcd13ifvqhng","pricing_plan_id":"free"},{"bike_id":"99908e46-37a9-41cf-99cb-dba921b44ce3","system_id":"levelo_inurba_marseille","lat":43.317557,"lon":5.390173,"is_reserved":false,"is_disabled":false,"rental_uris":{"android":"levelo://app?vid=99908e46-37a9-41cf-99cb-dba921b44ce3","ios":"levelo://app?vid=99908e46-37a9-41cf-99cb-dba921b44ce3"},"vehicle_type_id":"4","last_reported":1703966829,"current_range_meters":26400,"station_id":"ce4bhqp2rcd13ifvqhng","pricing_plan_id":"free"},{"bike_id":"0234f0a2-0403-4e48-aa7f-ff0bb0d2b1e3","system_id":"levelo_inurba_marseille","lat":43.298037,"lon":5.381066,"is_reserved":false,"is_disabled":false,"rental_uris":{"android":"levelo://app?vid=0234f0a2-0403-4e48-aa7f-ff0bb0d2b1e3","ios":"levelo://app?vid=0234f0a2-0403-4e48-aa7f-ff0bb0d2b1e3"},"vehicle_type_id":"4","last_reported":1703966829,"current_range_meters":25600,"station_id":"ce4bgip2rcd13ifvqbb0","pricing_plan_id":"free"},{"bike_id":"8093cb9e-b1a3-4c0f-a410-becb2362dd7b","system_id":"levelo_inurba_marseille","lat":43.304274,"lon":5.388873,"is_reserved":false,"is_disabled":false,"rental_uris":{"android":"levelo://app?vid=8093cb9e-b1a3-4c0f-a410-becb2362dd7b","ios":"levelo://app?vid=8093cb9e-b1a3-4c0f-a410-becb2362dd7b"},"vehicle_type_id":"4","last_reported":1703966829,"current_range_meters":8800,"station_id":"ce4bgk12rcd13ifvqbi0","pricing_plan_id":"free"},{"bike_id":"d60802d6-4f47-444a-b234-883690eec05b","system_id":"levelo_inurba_marseille","lat":43.33062,"lon":5.3627,"is_reserved":false,"is_disabled":false,"rental_uris":{"android":"levelo://app?vid=d60802d6-4f47-444a-b234-883690eec05b","ios":"levelo://app?vid=d60802d6-4f47-444a-b234-883690eec05b"},"vehicle_type_id":"4","last_reported":1703966829,"current_range_meters":26000,"station_id":"","pricing_plan_id":"free"},{"bike_id":"7119845d-00aa-4d9f-be8c-fc97d41f1380","system_id":"levelo_inurba_marseille","lat":43.297594,"lon":5.381134,"is_reserved":false,"is_disabled":false,"rental_uris":{"android":"levelo://app?vid=7119845d-00aa-4d9f-be8c-fc97d41f1380","ios":"levelo://app?vid=7119845d-00aa-4d9f-be8c-fc97d41f1380"},"vehicle_type_id":"4","last_reported":1703966829,"current_range_meters":14400,"station_id":"ce4bgip2rcd13ifvqbb0","pricing_plan_id":"free"},{"bike_id":"122ea523-742e-4de1-aad4-693e2611c6b8","system_id":"levelo_inurba_marseille","lat":43.32367,"lon":5.388836,"is_reserved":false,"is_disabled":false,"rental_uris":{"android":"levelo://app?vid=122ea523-742e-4de1-aad4-693e2611c6b8","ios":"levelo://app?vid=122ea523-742e-4de1-aad4-693e2611c6b8"},"vehicle_type_id":"4","last_reported":1703966829,"current_range_meters":6000,"station_id":"ce4bhqp2rcd13ifvqhog","pricing_plan_id":"free"},{"bike_id":"c472997c-8921-4240-9407-9bbb195b44d8","system_id":"levelo_inurba_marseille","lat":43.32367,"lon":5.388836,"is_reserved":false,"is_disabled":false,"rental_uris":{"android":"levelo://app?vid=c472997c-8921-4240-9407-9bbb195b44d8","ios":"levelo://app?vid=c472997c-8921-4240-9407-9bbb195b44d8"},"vehicle_type_id":"4","last_reported":1703966829,"current_range_meters":0,"station_id":"ce4bhqp2rcd13ifvqhog","pricing_plan_id":"free"},{"bike_id":"21c35184-2cff-45c5-a579-0cd18467e694","system_id":"levelo_inurba_marseille","lat":43.32367,"lon":5.388836,"is_reserved":false,"is_disabled":false,"rental_uris":{"android":"levelo://app?vid=21c35184-2cff-45c5-a579-0cd18467e694","ios":"levelo://app?vid=21c35184-2cff-45c5-a579-0cd18467e694"},"vehicle_type_id":"4","last_reported":1703966829,"current_range_meters":8400,"station_id":"ce4bhqp2rcd13ifvqhog","pricing_plan_id":"free"},{"bike_id":"fdba10d6-6c0f-4aa0-aa2d-a60cd34dc728","system_id":"levelo_inurba_marseille","lat":43.32367,"lon":5.388836,"is_reserved":false,"is_disabled":false,"rental_uris":{"android":"levelo://app?vid=fdba10d6-6c0f-4aa0-aa2d-a60cd34dc728","ios":"levelo://app?vid=fdba10d6-6c0f-4aa0-aa2d-a60cd34dc728"},"vehicle_type_id":"4","last_reported":1703966829,"current_range_meters":14000,"station_id":"ce4bhqp2rcd13ifvqhog","pricing_plan_id":"free"},{"bike_id":"6dc8b67f-7677-4649-90b5-6c004787a94e","system_id":"levelo_inurba_marseille","lat":43.32367,"lon":5.388836,"is_reserved":false,"is_disabled":false,"rental_uris":{"android":"levelo://app?vid=6dc8b67f-7677-4649-90b5-6c004787a94e","ios":"levelo://app?vid=6dc8b67f-7677-4649-90b5-6c004787a94e"},"vehicle_type_id":"4","last_reported":1703966829,"current_range_meters":14800,"station_id":"ce4bhqp2rcd13ifvqhog","pricing_plan_id":"free"},{"bike_id":"74808746-70ec-4f35-a75a-a3767d7c3413","system_id":"levelo_inurba_marseille","lat":43.29601,"lon":5.381084,"is_reserved":false,"is_disabled":false,"rental_uris":{"android":"levelo://app?vid=74808746-70ec-4f35-a75a-a3767d7c3413","ios":"levelo://app?vid=74808746-70ec-4f35-a75a-a3767d7c3413"},"vehicle_type_id":"4","last_reported":1703966829,"current_range_meters":5600,"station_id":"ce4bgl12rcd13ifvqbo0","pricing_plan_id":"free"},{"bike_id":"7684c44a-67d1-4864-a89d-f95ec4a9f9c5","system_id":"levelo_inurba_marseille","lat":43.29601,"lon":5.381084,"is_reserved":false,"is_disabled":false,"rental_uris":{"android":"levelo://app?vid=7684c44a-67d1-4864-a89d-f95ec4a9f9c5","ios":"levelo://app?vid=7684c44a-67d1-4864-a89d-f95ec4a9f9c5"},"vehicle_type_id":"4","last_reported":1703966829,"current_range_meters":19600,"station_id":"ce4bgl12rcd13ifvqbo0","pricing_plan_id":"free"},{"bike_id":"efa9b9fd-389a-4d2a-84fa-420899ff72f5","system_id":"levelo_inurba_marseille","lat":43.29601,"lon":5.381084,"is_reserved":false,"is_disabled":false,"rental_uris":{"android":"levelo://app?vid=efa9b9fd-389a-4d2a-84fa-420899ff72f5","ios":"levelo://app?vid=efa9b9fd-389a-4d2a-84fa-420899ff72f5"},"vehicle_type_id":"4","last_reported":1703966829,"current_range_meters":20800,"station_id":"ce4bgl12rcd13ifvqbo0","pricing_plan_id":"free"},{"bike_id":"7b8ee1cf-cf7e-4245-bb86-e5d2d3d8854e","system_id":"levelo_inurba_marseille","lat":43.305994,"lon":5.393687,"is_reserved":false,"is_disabled":false,"rental_uris":{"android":"levelo://app?vid=7b8ee1cf-cf7e-4245-bb86-e5d2d3d8854e","ios":"levelo://app?vid=7b8ee1cf-cf7e-4245-bb86-e5d2d3d8854e"},"vehicle_type_id":"4","last_reported":1703966829,"current_range_meters":28800,"station_id":"ce4bh0p2rcd13ifvqd80","pricing_plan_id":"free"},{"bike_id":"f02a6172-55b3-4252-be09-9abb3aa19526","system_id":"levelo_inurba_marseille","lat":43.30601,"lon":5.39364,"is_reserved":false,"is_disabled":false,"rental_uris":{"android":"levelo://app?vid=f02a6172-55b3-4252-be09-9abb3aa19526","ios":"levelo://app?vid=f02a6172-55b3-4252-be09-9abb3aa19526"},"vehicle_type_id":"4","last_reported":1703966829,"current_range_meters":10800,"station_id":"ce4bh0p2rcd13ifvqd80","pricing_plan_id":"free"},{"bike_id":"77dcd572-3f64-4559-954f-7152768591e3","system_id":"levelo_inurba_marseille","lat":43.305994,"lon":5.393687,"is_reserved":false,"is_disabled":false,"rental_uris":{"android":"levelo://app?vid=77dcd572-3f64-4559-954f-7152768591e3","ios":"levelo://app?vid=77dcd572-3f64-4559-954f-7152768591e3"},"vehicle_type_id":"4","last_reported":1703966829,"current_range_meters":15600,"station_id":"ce4bh0p2rcd13ifvqd80","pricing_plan_id":"free"},{"bike_id":"7f584fb4-f449-4691-b539-7824bbfdbda1","system_id":"levelo_inurba_marseille","lat":43.2936,"lon":5.37835,"is_reserved":false,"is_disabled":false,"rental_uris":{"android":"levelo://app?vid=7f584fb4-f449-4691-b539-7824bbfdbda1","ios":"levelo://app?vid=7f584fb4-f449-4691-b539-7824bbfdbda1"},"vehicle_type_id":"4","last_reported":1703966829,"current_range_meters":22400,"station_id":"ce4bgjh2rcd13ifvqbf0","pricing_plan_id":"free"},{"bike_id":"48726855-f178-4c22-b8d2-07eb6e006c8a","system_id":"levelo_inurba_marseille","lat":43.2936,"lon":5.37835,"is_reserved":false,"is_disabled":false,"rental_uris":{"android":"levelo://app?vid=48726855-f178-4c22-b8d2-07eb6e006c8a","ios":"levelo://app?vid=48726855-f178-4c22-b8d2-07eb6e006c8a"},"vehicle_type_id":"4","last_reported":1703966829,"current_range_meters":17200,"station_id":"ce4bgjh2rcd13ifvqbf0","pricing_plan_id":"free"},{"bike_id":"032b084b-7848-4d73-8dde-640f6e7598e3","system_id":"levelo_inurba_marseille","lat":43.302992,"lon":5.392136,"is_reserved":false,"is_disabled":false,"rental_uris":{"android":"levelo://app?vid=032b084b-7848-4d73-8dde-640f6e7598e3","ios":"levelo://app?vid=032b084b-7848-4d73-8dde-640f6e7598e3"},"vehicle_type_id":"4","last_reported":1703966829,"current_range_meters":17200,"station_id":"ce4bgkh2rcd13ifvqbk0","pricing_plan_id":"free"},{"bike_id":"0f5dbb1d-2b65-47a1-a61a-a3ffa33a4d84","system_id":"levelo_inurba_marseille","lat":43.292311,"lon":5.360731,"is_reserved":false,"is_disabled":false,"rental_uris":{"android":"levelo://app?vid=0f5dbb1d-2b65-47a1-a61a-a3ffa33a4d84","ios":"levelo://app?vid=0f5dbb1d-2b65-47a1-a61a-a3ffa33a4d84"},"vehicle_type_id":"4","last_reported":1703966829,"current_range_meters":26800,"station_id":"ce4bhbh2rcd13ifvqeqg","pricing_plan_id":"free"},{"bike_id":"2da1ed21-bb39-467e-b66c-5d6bf4465df8","system_id":"levelo_inurba_marseille","lat":43.298769,"lon":5.389076,"is_reserved":false,"is_disabled":false,"rental_uris":{"android":"levelo://app?vid=2da1ed21-bb39-467e-b66c-5d6bf4465df8","ios":"levelo://app?vid=2da1ed21-bb39-467e-b66c-5d6bf4465df8"},"vehicle_type_id":"4","last_reported":1703966829,"current_range_meters":23600,"station_id":"","pricing_plan_id":"free"},{"bike_id":"ae8c443e-9b93-4af2-99df-2e8c7310783c","system_id":"levelo_inurba_marseille","lat":43.291675,"lon":5.371583,"is_reserved":false,"is_disabled":false,"rental_uris":{"android":"levelo://app?vid=ae8c443e-9b93-4af2-99df-2e8c7310783c","ios":"levelo://app?vid=ae8c443e-9b93-4af2-99df-2e8c7310783c"},"vehicle_type_id":"4","last_reported":1703966829,"current_range_meters":27200,"station_id":"ce4bha92rcd13ifvqeh0","pricing_plan_id":"free"},{"bike_id":"d589cea2-e085-43ec-8d08-7b6bdc3f3aa6","system_id":"levelo_inurba_marseille","lat":43.309038,"lon":5.396546,"is_reserved":false,"is_disabled":false,"rental_uris":{"android":"levelo://app?vid=d589cea2-e085-43ec-8d08-7b6bdc3f3aa6","ios":"levelo://app?vid=d589cea2-e085-43ec-8d08-7b6bdc3f3aa6"},"vehicle_type_id":"4","last_reported":1703966829,"current_range_meters":8400,"station_id":"ce4bh012rcd13ifvqcv0","pricing_plan_id":"free"},{"bike_id":"6af830d3-b0b2-41ab-9b4c-858b45521010","system_id":"levelo_inurba_marseille","lat":43.309047,"lon":5.396551,"is_reserved":false,"is_disabled":false,"rental_uris":{"android":"levelo://app?vid=6af830d3-b0b2-41ab-9b4c-858b45521010","ios":"levelo://app?vid=6af830d3-b0b2-41ab-9b4c-858b45521010"},"vehicle_type_id":"4","last_reported":1703966829,"current_range_meters":15600,"station_id":"ce4bh012rcd13ifvqcv0","pricing_plan_id":"free"},{"bike_id":"5cf30968-0f7d-4d59-becc-64e3e994078f","system_id":"levelo_inurba_marseille","lat":43.313291,"lon":5.396838,"is_reserved":false,"is_disabled":false,"rental_uris":{"android":"levelo://app?vid=5cf30968-0f7d-4d59-becc-64e3e994078f","ios":"levelo://app?vid=5cf30968-0f7d-4d59-becc-64e3e994078f"},"vehicle_type_id":"4","last_reported":1703966829,"current_range_meters":22400,"station_id":"ce4bgvp2rcd13ifvqcu0","pricing_plan_id":"free"},{"bike_id":"e5bf2622-e41e-4cdd-9e93-6fc6458d1966","system_id":"levelo_inurba_marseille","lat":43.313291,"lon":5.396838,"is_reserved":false,"is_disabled":false,"rental_uris":{"android":"levelo://app?vid=e5bf2622-e41e-4cdd-9e93-6fc6458d1966","ios":"levelo://app?vid=e5bf2622-e41e-4cdd-9e93-6fc6458d1966"},"vehicle_type_id":"4","last_reported":1703966829,"current_range_meters":4400,"station_id":"ce4bgvp2rcd13ifvqcu0","pricing_plan_id":"free"},{"bike_id":"9212d254-73de-4cc4-90b7-6de72910ca01","system_id":"levelo_inurba_marseille","lat":43.313291,"lon":5.396838,"is_reserved":false,"is_disabled":false,"rental_uris":{"android":"levelo://app?vid=9212d254-73de-4cc4-90b7-6de72910ca01","ios":"levelo://app?vid=9212d254-73de-4cc4-90b7-6de72910ca01"},"vehicle_type_id":"4","last_reported":1703966829,"current_range_meters":13600,"station_id":"ce4bgvp2rcd13ifvqcu0","pricing_plan_id":"free"},{"bike_id":"66a77125-37fe-4a79-a2f5-6f2730831b28","system_id":"levelo_inurba_marseille","lat":43.309038,"lon":5.396546,"is_reserved":false,"is_disabled":false,"rental_uris":{"android":"levelo://app?vid=66a77125-37fe-4a79-a2f5-6f2730831b28","ios":"levelo://app?vid=66a77125-37fe-4a79-a2f5-6f2730831b28"},"vehicle_type_id":"4","last_reported":1703966829,"current_range_meters":28000,"station_id":"ce4bh012rcd13ifvqcv0","pricing_plan_id":"free"},{"bike_id":"a93f5f1c-34b5-4794-a9a6-baa61b4b0f07","system_id":"levelo_inurba_marseille","lat":43.313291,"lon":5.396838,"is_reserved":false,"is_disabled":false,"rental_uris":{"android":"levelo://app?vid=a93f5f1c-34b5-4794-a9a6-baa61b4b0f07","ios":"levelo://app?vid=a93f5f1c-34b5-4794-a9a6-baa61b4b0f07"},"vehicle_type_id":"4","last_reported":1703966829,"current_range_meters":31200,"station_id":"ce4bgvp2rcd13ifvqcu0","pricing_plan_id":"free"},{"bike_id":"5a8f45f4-827d-4cc4-ab9f-ef0ab2e369c1","system_id":"levelo_inurba_marseille","lat":43.308904,"lon":5.396496,"is_reserved":false,"is_disabled":false,"rental_uris":{"android":"levelo://app?vid=5a8f45f4-827d-4cc4-ab9f-ef0ab2e369c1","ios":"levelo://app?vid=5a8f45f4-827d-4cc4-ab9f-ef0ab2e369c1"},"vehicle_type_id":"4","last_reported":1703966829,"current_range_meters":0,"station_id":"ce4bh012rcd13ifvqcv0","pricing_plan_id":"free"},{"bike_id":"82914d2e-46b8-4301-9a86-2ffbee19c74f","system_id":"levelo_inurba_marseille","lat":43.309047,"lon":5.396551,"is_reserved":false,"is_disabled":false,"rental_uris":{"android":"levelo://app?vid=82914d2e-46b8-4301-9a86-2ffbee19c74f","ios":"levelo://app?vid=82914d2e-46b8-4301-9a86-2ffbee19c74f"},"vehicle_type_id":"4","last_reported":1703966829,"current_range_meters":22400,"station_id":"ce4bh012rcd13ifvqcv0","pricing_plan_id":"free"},{"bike_id":"a08d5d7e-1bce-4b74-8609-02c4624afbd1","system_id":"levelo_inurba_marseille","lat":43.313291,"lon":5.396838,"is_reserved":false,"is_disabled":false,"rental_uris":{"android":"levelo://app?vid=a08d5d7e-1bce-4b74-8609-02c4624afbd1","ios":"levelo://app?vid=a08d5d7e-1bce-4b74-8609-02c4624afbd1"},"vehicle_type_id":"4","last_reported":1703966829,"current_range_meters":25600,"station_id":"ce4bgvp2rcd13ifvqcu0","pricing_plan_id":"free"},{"bike_id":"8316bd5f-2d58-496d-bd49-9af99d0ded7d","system_id":"levelo_inurba_marseille","lat":43.29529,"lon":5.385581,"is_reserved":false,"is_disabled":false,"rental_uris":{"android":"levelo://app?vid=8316bd5f-2d58-496d-bd49-9af99d0ded7d","ios":"levelo://app?vid=8316bd5f-2d58-496d-bd49-9af99d0ded7d"},"vehicle_type_id":"4","last_reported":1703966829,"current_range_meters":29200,"station_id":"ce4bgih2rcd13ifvqba0","pricing_plan_id":"free"},{"bike_id":"53441a73-8459-4777-8a25-cc84678f67a5","system_id":"levelo_inurba_marseille","lat":43.294162,"lon":5.386292,"is_reserved":false,"is_disabled":false,"rental_uris":{"android":"levelo://app?vid=53441a73-8459-4777-8a25-cc84678f67a5","ios":"levelo://app?vid=53441a73-8459-4777-8a25-cc84678f67a5"},"vehicle_type_id":"4","last_reported":1703966829,"current_range_meters":7600,"station_id":"ce4bh2h2rcd13ifvqdh0","pricing_plan_id":"free"},{"bike_id":"567be46f-5584-400f-bdf7-655785596383","system_id":"levelo_inurba_marseille","lat":43.289468,"lon":5.363719,"is_reserved":false,"is_disabled":false,"rental_uris":{"android":"levelo://app?vid=567be46f-5584-400f-bdf7-655785596383","ios":"levelo://app?vid=567be46f-5584-400f-bdf7-655785596383"},"vehicle_type_id":"4","last_reported":1703966829,"current_range_meters":16800,"station_id":"ce4bhc92rcd13ifvqetg","pricing_plan_id":"free"},{"bike_id":"8b64f221-255c-43db-87af-5beb6d89559d","system_id":"levelo_inurba_marseille","lat":43.289184,"lon":5.366408,"is_reserved":false,"is_disabled":false,"rental_uris":{"android":"levelo://app?vid=8b64f221-255c-43db-87af-5beb6d89559d","ios":"levelo://app?vid=8b64f221-255c-43db-87af-5beb6d89559d"},"vehicle_type_id":"4","last_reported":1703966829,"current_range_meters":14400,"station_id":"ce4bhap2rcd13ifvqek0","pricing_plan_id":"free"},{"bike_id":"55e0e919-2dc7-4ff7-8b21-1bf23ee20984","system_id":"levelo_inurba_marseille","lat":43.292642,"lon":5.384254,"is_reserved":false,"is_disabled":false,"rental_uris":{"android":"levelo://app?vid=55e0e919-2dc7-4ff7-8b21-1bf23ee20984","ios":"levelo://app?vid=55e0e919-2dc7-4ff7-8b21-1bf23ee20984"},"vehicle_type_id":"4","last_reported":1703966829,"current_range_meters":19600,"station_id":"ce4bh692rcd13ifvqea0","pricing_plan_id":"free"},{"bike_id":"7dfd3f57-a344-49eb-90f7-be08f5573935","system_id":"levelo_inurba_marseille","lat":43.292644,"lon":5.384257,"is_reserved":false,"is_disabled":false,"rental_uris":{"android":"levelo://app?vid=7dfd3f57-a344-49eb-90f7-be08f5573935","ios":"levelo://app?vid=7dfd3f57-a344-49eb-90f7-be08f5573935"},"vehicle_type_id":"4","last_reported":1703966829,"current_range_meters":8400,"station_id":"ce4bh692rcd13ifvqea0","pricing_plan_id":"free"},{"bike_id":"304e1936-3d46-4582-b8c8-43436b65d44e","system_id":"levelo_inurba_marseille","lat":43.29275,"lon":5.38443,"is_reserved":false,"is_disabled":false,"rental_uris":{"android":"levelo://app?vid=304e1936-3d46-4582-b8c8-43436b65d44e","ios":"levelo://app?vid=304e1936-3d46-4582-b8c8-43436b65d44e"},"vehicle_type_id":"4","last_reported":1703966829,"current_range_meters":9600,"station_id":"ce4bh692rcd13ifvqea0","pricing_plan_id":"free"},{"bike_id":"da1191f0-93ef-4a5f-8c0a-5406c69594e3","system_id":"levelo_inurba_marseille","lat":43.29267,"lon":5.38454,"is_reserved":false,"is_disabled":false,"rental_uris":{"android":"levelo://app?vid=da1191f0-93ef-4a5f-8c0a-5406c69594e3","ios":"levelo://app?vid=da1191f0-93ef-4a5f-8c0a-5406c69594e3"},"vehicle_type_id":"4","last_reported":1703966829,"current_range_meters":5200,"station_id":"ce4bh692rcd13ifvqea0","pricing_plan_id":"free"},{"bike_id":"a1a9b2c9-2b4f-4920-b70a-172d758f7f08","system_id":"levelo_inurba_marseille","lat":43.304296,"lon":5.397513,"is_reserved":false,"is_disabled":false,"rental_uris":{"android":"levelo://app?vid=a1a9b2c9-2b4f-4920-b70a-172d758f7f08","ios":"levelo://app?vid=a1a9b2c9-2b4f-4920-b70a-172d758f7f08"},"vehicle_type_id":"4","last_reported":1703966829,"current_range_meters":25200,"station_id":"ce4bh092rcd13ifvqd20","pricing_plan_id":"free"},{"bike_id":"1efaa65f-41c4-47a3-97ca-ce12e65f5293","system_id":"levelo_inurba_marseille","lat":43.295169,"lon":5.390426,"is_reserved":false,"is_disabled":false,"rental_uris":{"android":"levelo://app?vid=1efaa65f-41c4-47a3-97ca-ce12e65f5293","ios":"levelo://app?vid=1efaa65f-41c4-47a3-97ca-ce12e65f5293"},"vehicle_type_id":"4","last_reported":1703966829,"current_range_meters":800,"station_id":"ce4bh3p2rcd13ifvqdp0","pricing_plan_id":"free"},{"bike_id":"0ae0a3c6-1206-4510-b5be-b809911cf2ca","system_id":"levelo_inurba_marseille","lat":43.295169,"lon":5.390426,"is_reserved":false,"is_disabled":false,"rental_uris":{"android":"levelo://app?vid=0ae0a3c6-1206-4510-b5be-b809911cf2ca","ios":"levelo://app?vid=0ae0a3c6-1206-4510-b5be-b809911cf2ca"},"vehicle_type_id":"4","last_reported":1703966829,"current_range_meters":21600,"station_id":"ce4bh3p2rcd13ifvqdp0","pricing_plan_id":"free"},{"bike_id":"bb7998ff-7864-476d-a262-8442d5bcf3dd","system_id":"levelo_inurba_marseille","lat":43.297815,"lon":5.393548,"is_reserved":false,"is_disabled":false,"rental_uris":{"android":"levelo://app?vid=bb7998ff-7864-476d-a262-8442d5bcf3dd","ios":"levelo://app?vid=bb7998ff-7864-476d-a262-8442d5bcf3dd"},"vehicle_type_id":"4","last_reported":1703966829,"current_range_meters":0,"station_id":"chh1huq6cuj3fo74tm60","pricing_plan_id":"free"},{"bike_id":"495faf64-a935-4c6e-b77f-2b296d14493a","system_id":"levelo_inurba_marseille","lat":43.331017,"lon":5.389194,"is_reserved":false,"is_disabled":false,"rental_uris":{"android":"levelo://app?vid=495faf64-a935-4c6e-b77f-2b296d14493a","ios":"levelo://app?vid=495faf64-a935-4c6e-b77f-2b296d14493a"},"vehicle_type_id":"4","last_reported":1703966829,"current_range_meters":1600,"station_id":"","pricing_plan_id":"free"},{"bike_id":"75443950-2ac4-4d86-b831-241e3121359f","system_id":"levelo_inurba_marseille","lat":43.330442,"lon":5.389148,"is_reserved":false,"is_disabled":false,"rental_uris":{"android":"levelo://app?vid=75443950-2ac4-4d86-b831-241e3121359f","ios":"levelo://app?vid=75443950-2ac4-4d86-b831-241e3121359f"},"vehicle_type_id":"4","last_reported":1703966829,"current_range_meters":0,"station_id":"ce4bhr92rcd13ifvqhrg","pricing_plan_id":"free"},{"bike_id":"d630ab34-c5e4-4df7-b347-f4b9ed29fe70","system_id":"levelo_inurba_marseille","lat":43.28856,"lon":5.358371,"is_reserved":false,"is_disabled":false,"rental_uris":{"android":"levelo://app?vid=d630ab34-c5e4-4df7-b347-f4b9ed29fe70","ios":"levelo://app?vid=d630ab34-c5e4-4df7-b347-f4b9ed29fe70"},"vehicle_type_id":"4","last_reported":1703966829,"current_range_meters":19600,"station_id":"ce4bhb12rcd13ifvqem0","pricing_plan_id":"free"},{"bike_id":"d2097ab2-f601-482e-b08a-6f9ee5680ffc","system_id":"levelo_inurba_marseille","lat":43.28856,"lon":5.358371,"is_reserved":false,"is_disabled":false,"rental_uris":{"android":"levelo://app?vid=d2097ab2-f601-482e-b08a-6f9ee5680ffc","ios":"levelo://app?vid=d2097ab2-f601-482e-b08a-6f9ee5680ffc"},"vehicle_type_id":"4","last_reported":1703966829,"current_range_meters":1200,"station_id":"ce4bhb12rcd13ifvqem0","pricing_plan_id":"free"},{"bike_id":"139bb083-3316-4723-b403-d0edcde8edb8","system_id":"levelo_inurba_marseille","lat":43.312609,"lon":5.401662,"is_reserved":false,"is_disabled":false,"rental_uris":{"android":"levelo://app?vid=139bb083-3316-4723-b403-d0edcde8edb8","ios":"levelo://app?vid=139bb083-3316-4723-b403-d0edcde8edb8"},"vehicle_type_id":"4","last_reported":1703966829,"current_range_meters":16800,"station_id":"ce4bh092rcd13ifvqd30","pricing_plan_id":"free"},{"bike_id":"8dc3e41c-081d-4c42-8004-5d7eac1adb8c","system_id":"levelo_inurba_marseille","lat":43.30938,"lon":5.401433,"is_reserved":false,"is_disabled":false,"rental_uris":{"android":"levelo://app?vid=8dc3e41c-081d-4c42-8004-5d7eac1adb8c","ios":"levelo://app?vid=8dc3e41c-081d-4c42-8004-5d7eac1adb8c"},"vehicle_type_id":"4","last_reported":1703966829,"current_range_meters":14000,"station_id":"ce4bgvp2rcd13ifvqct0","pricing_plan_id":"free"},{"bike_id":"d29f7a6c-6eff-46b1-9d51-bbf08faabfa1","system_id":"levelo_inurba_marseille","lat":43.337477,"lon":5.374431,"is_reserved":false,"is_disabled":false,"rental_uris":{"android":"levelo://app?vid=d29f7a6c-6eff-46b1-9d51-bbf08faabfa1","ios":"levelo://app?vid=d29f7a6c-6eff-46b1-9d51-bbf08faabfa1"},"vehicle_type_id":"4","last_reported":1703966829,"current_range_meters":0,"station_id":"","pricing_plan_id":"free"},{"bike_id":"cababbbd-bdea-44dd-a30c-3bd5cdef8812","system_id":"levelo_inurba_marseille","lat":43.312609,"lon":5.401662,"is_reserved":false,"is_disabled":false,"rental_uris":{"android":"levelo://app?vid=cababbbd-bdea-44dd-a30c-3bd5cdef8812","ios":"levelo://app?vid=cababbbd-bdea-44dd-a30c-3bd5cdef8812"},"vehicle_type_id":"4","last_reported":1703966829,"current_range_meters":10800,"station_id":"ce4bh092rcd13ifvqd30","pricing_plan_id":"free"},{"bike_id":"174e84d1-4939-41a5-b24a-ac486e6bbfba","system_id":"levelo_inurba_marseille","lat":43.30924,"lon":5.4015,"is_reserved":false,"is_disabled":false,"rental_uris":{"android":"levelo://app?vid=174e84d1-4939-41a5-b24a-ac486e6bbfba","ios":"levelo://app?vid=174e84d1-4939-41a5-b24a-ac486e6bbfba"},"vehicle_type_id":"4","last_reported":1703966829,"current_range_meters":16800,"station_id":"ce4bgvp2rcd13ifvqct0","pricing_plan_id":"free"},{"bike_id":"a0c51bb2-924f-47f5-ba0b-fd441f51e78c","system_id":"levelo_inurba_marseille","lat":43.306412,"lon":5.401035,"is_reserved":false,"is_disabled":false,"rental_uris":{"android":"levelo://app?vid=a0c51bb2-924f-47f5-ba0b-fd441f51e78c","ios":"levelo://app?vid=a0c51bb2-924f-47f5-ba0b-fd441f51e78c"},"vehicle_type_id":"4","last_reported":1703966829,"current_range_meters":23200,"station_id":"ce4bh112rcd13ifvqda0","pricing_plan_id":"free"},{"bike_id":"c301fb8c-cfe6-441c-8d68-c52db0e2a128","system_id":"levelo_inurba_marseille","lat":43.28727,"lon":5.36078,"is_reserved":false,"is_disabled":false,"rental_uris":{"android":"levelo://app?vid=c301fb8c-cfe6-441c-8d68-c52db0e2a128","ios":"levelo://app?vid=c301fb8c-cfe6-441c-8d68-c52db0e2a128"},"vehicle_type_id":"4","last_reported":1703966829,"current_range_meters":28000,"station_id":"cki0cbj6b192h4jlfktg","pricing_plan_id":"free"},{"bike_id":"b262299b-df41-4c0e-acea-7d1f4a3c6a3b","system_id":"levelo_inurba_marseille","lat":43.28727,"lon":5.36078,"is_reserved":false,"is_disabled":false,"rental_uris":{"android":"levelo://app?vid=b262299b-df41-4c0e-acea-7d1f4a3c6a3b","ios":"levelo://app?vid=b262299b-df41-4c0e-acea-7d1f4a3c6a3b"},"vehicle_type_id":"4","last_reported":1703966829,"current_range_meters":4400,"station_id":"cki0cbj6b192h4jlfktg","pricing_plan_id":"free"},{"bike_id":"615bcdea-ecc6-4c9a-8905-845f099d9973","system_id":"levelo_inurba_marseille","lat":43.286961,"lon":5.373785,"is_reserved":false,"is_disabled":false,"rental_uris":{"android":"levelo://app?vid=615bcdea-ecc6-4c9a-8905-845f099d9973","ios":"levelo://app?vid=615bcdea-ecc6-4c9a-8905-845f099d9973"},"vehicle_type_id":"4","last_reported":1703966829,"current_range_meters":0,"station_id":"ce4bh3p2rcd13ifvqdq0","pricing_plan_id":"free"},{"bike_id":"2e052d3f-46e1-47a6-8817-a9e3a05682f9","system_id":"levelo_inurba_marseille","lat":43.30249,"lon":5.40042,"is_reserved":false,"is_disabled":false,"rental_uris":{"android":"levelo://app?vid=2e052d3f-46e1-47a6-8817-a9e3a05682f9","ios":"levelo://app?vid=2e052d3f-46e1-47a6-8817-a9e3a05682f9"},"vehicle_type_id":"4","last_reported":1703966829,"current_range_meters":0,"station_id":"ce4bgvh2rcd13ifvqcs0","pricing_plan_id":"free"},{"bike_id":"6bb1559d-d886-4339-bfd4-2db78f6f9b6a","system_id":"levelo_inurba_marseille","lat":43.302759,"lon":5.400793,"is_reserved":false,"is_disabled":false,"rental_uris":{"android":"levelo://app?vid=6bb1559d-d886-4339-bfd4-2db78f6f9b6a","ios":"levelo://app?vid=6bb1559d-d886-4339-bfd4-2db78f6f9b6a"},"vehicle_type_id":"4","last_reported":1703966829,"current_range_meters":24400,"station_id":"ce4bgvh2rcd13ifvqcs0","pricing_plan_id":"free"},{"bike_id":"72488151-34fd-436c-a4df-517689f03c40","system_id":"levelo_inurba_marseille","lat":43.29029,"lon":5.38646,"is_reserved":false,"is_disabled":false,"rental_uris":{"android":"levelo://app?vid=72488151-34fd-436c-a4df-517689f03c40","ios":"levelo://app?vid=72488151-34fd-436c-a4df-517689f03c40"},"vehicle_type_id":"4","last_reported":1703966829,"current_range_meters":2800,"station_id":"","pricing_plan_id":"free"},{"bike_id":"3d01f91f-70c8-45be-946b-503d44f4811f","system_id":"levelo_inurba_marseille","lat":43.302597,"lon":5.400749,"is_reserved":false,"is_disabled":false,"rental_uris":{"android":"levelo://app?vid=3d01f91f-70c8-45be-946b-503d44f4811f","ios":"levelo://app?vid=3d01f91f-70c8-45be-946b-503d44f4811f"},"vehicle_type_id":"4","last_reported":1703966829,"current_range_meters":12000,"station_id":"ce4bgvh2rcd13ifvqcs0","pricing_plan_id":"free"},{"bike_id":"53b23dd4-5f9a-4ea8-b336-df1551ac4b29","system_id":"levelo_inurba_marseille","lat":43.302574,"lon":5.400746,"is_reserved":false,"is_disabled":false,"rental_uris":{"android":"levelo://app?vid=53b23dd4-5f9a-4ea8-b336-df1551ac4b29","ios":"levelo://app?vid=53b23dd4-5f9a-4ea8-b336-df1551ac4b29"},"vehicle_type_id":"4","last_reported":1703966829,"current_range_meters":6800,"station_id":"ce4bgvh2rcd13ifvqcs0","pricing_plan_id":"free"},{"bike_id":"26912808-d0f3-4547-a64a-84c5707b2348","system_id":"levelo_inurba_marseille","lat":43.30262,"lon":5.40081,"is_reserved":false,"is_disabled":false,"rental_uris":{"android":"levelo://app?vid=26912808-d0f3-4547-a64a-84c5707b2348","ios":"levelo://app?vid=26912808-d0f3-4547-a64a-84c5707b2348"},"vehicle_type_id":"4","last_reported":1703966829,"current_range_meters":30400,"station_id":"ce4bgvh2rcd13ifvqcs0","pricing_plan_id":"free"},{"bike_id":"5c28e87b-40b8-4984-9240-4ac6a465ad25","system_id":"levelo_inurba_marseille","lat":43.286039,"lon":5.370679,"is_reserved":false,"is_disabled":false,"rental_uris":{"android":"levelo://app?vid=5c28e87b-40b8-4984-9240-4ac6a465ad25","ios":"levelo://app?vid=5c28e87b-40b8-4984-9240-4ac6a465ad25"},"vehicle_type_id":"4","last_reported":1703966829,"current_range_meters":26000,"station_id":"ce4bht12rcd13ifvqi60","pricing_plan_id":"free"},{"bike_id":"cfc8c6d5-d24e-40b8-b133-a8bfa3e3d68f","system_id":"levelo_inurba_marseille","lat":43.287184,"lon":5.37937,"is_reserved":false,"is_disabled":false,"rental_uris":{"android":"levelo://app?vid=cfc8c6d5-d24e-40b8-b133-a8bfa3e3d68f","ios":"levelo://app?vid=cfc8c6d5-d24e-40b8-b133-a8bfa3e3d68f"},"vehicle_type_id":"4","last_reported":1703966829,"current_range_meters":26400,"station_id":"ce4bh9p2rcd13ifvqec0","pricing_plan_id":"free"},{"bike_id":"23e8ec62-5a30-4a88-895c-1919dcfff8d4","system_id":"levelo_inurba_marseille","lat":43.287185,"lon":5.379373,"is_reserved":false,"is_disabled":false,"rental_uris":{"android":"levelo://app?vid=23e8ec62-5a30-4a88-895c-1919dcfff8d4","ios":"levelo://app?vid=23e8ec62-5a30-4a88-895c-1919dcfff8d4"},"vehicle_type_id":"4","last_reported":1703966829,"current_range_meters":22000,"station_id":"ce4bh9p2rcd13ifvqec0","pricing_plan_id":"free"},{"bike_id":"038b3bf4-32f6-48a2-b4e4-c689c8a985e8","system_id":"levelo_inurba_marseille","lat":43.287185,"lon":5.379373,"is_reserved":false,"is_disabled":false,"rental_uris":{"android":"levelo://app?vid=038b3bf4-32f6-48a2-b4e4-c689c8a985e8","ios":"levelo://app?vid=038b3bf4-32f6-48a2-b4e4-c689c8a985e8"},"vehicle_type_id":"4","last_reported":1703966829,"current_range_meters":31200,"station_id":"ce4bh9p2rcd13ifvqec0","pricing_plan_id":"free"},{"bike_id":"203cd100-0d9b-455c-9f67-418c2e4291cd","system_id":"levelo_inurba_marseille","lat":43.29875,"lon":5.39953,"is_reserved":false,"is_disabled":false,"rental_uris":{"android":"levelo://app?vid=203cd100-0d9b-455c-9f67-418c2e4291cd","ios":"levelo://app?vid=203cd100-0d9b-455c-9f67-418c2e4291cd"},"vehicle_type_id":"4","last_reported":1703966829,"current_range_meters":1600,"station_id":"","pricing_plan_id":"free"},{"bike_id":"b6759fa3-933c-498c-bd74-724402406415","system_id":"levelo_inurba_marseille","lat":43.316828,"lon":5.404723,"is_reserved":false,"is_disabled":false,"rental_uris":{"android":"levelo://app?vid=b6759fa3-933c-498c-bd74-724402406415","ios":"levelo://app?vid=b6759fa3-933c-498c-bd74-724402406415"},"vehicle_type_id":"4","last_reported":1703966829,"current_range_meters":19600,"station_id":"ce4bh012rcd13ifvqd00","pricing_plan_id":"free"},{"bike_id":"3fbf5bc7-4846-4354-92c4-7eb9b8319de4","system_id":"levelo_inurba_marseille","lat":43.291994,"lon":5.392907,"is_reserved":false,"is_disabled":false,"rental_uris":{"android":"levelo://app?vid=3fbf5bc7-4846-4354-92c4-7eb9b8319de4","ios":"levelo://app?vid=3fbf5bc7-4846-4354-92c4-7eb9b8319de4"},"vehicle_type_id":"4","last_reported":1703966829,"current_range_meters":8800,"station_id":"ce4bh192rcd13ifvqdd0","pricing_plan_id":"free"},{"bike_id":"ddc3d933-be84-450b-845d-35a7ea264f1f","system_id":"levelo_inurba_marseille","lat":43.284538,"lon":5.358657,"is_reserved":false,"is_disabled":false,"rental_uris":{"android":"levelo://app?vid=ddc3d933-be84-450b-845d-35a7ea264f1f","ios":"levelo://app?vid=ddc3d933-be84-450b-845d-35a7ea264f1f"},"vehicle_type_id":"4","last_reported":1703966829,"current_range_meters":0,"station_id":"ce4bhah2rcd13ifvqei0","pricing_plan_id":"free"},{"bike_id":"f051e3b2-f4a0-44d2-a67b-140ed2a7bb98","system_id":"levelo_inurba_marseille","lat":43.284538,"lon":5.358657,"is_reserved":false,"is_disabled":false,"rental_uris":{"android":"levelo://app?vid=f051e3b2-f4a0-44d2-a67b-140ed2a7bb98","ios":"levelo://app?vid=f051e3b2-f4a0-44d2-a67b-140ed2a7bb98"},"vehicle_type_id":"4","last_reported":1703966829,"current_range_meters":25200,"station_id":"ce4bhah2rcd13ifvqei0","pricing_plan_id":"free"},{"bike_id":"5a6f4435-8432-4de7-bd3a-8a46ba561eed","system_id":"levelo_inurba_marseille","lat":43.284534,"lon":5.358662,"is_reserved":false,"is_disabled":false,"rental_uris":{"android":"levelo://app?vid=5a6f4435-8432-4de7-bd3a-8a46ba561eed","ios":"levelo://app?vid=5a6f4435-8432-4de7-bd3a-8a46ba561eed"},"vehicle_type_id":"4","last_reported":1703966829,"current_range_meters":31200,"station_id":"ce4bhah2rcd13ifvqei0","pricing_plan_id":"free"},{"bike_id":"f130c103-dd16-4e6f-9cea-5bc79ac8f595","system_id":"levelo_inurba_marseille","lat":43.284538,"lon":5.358657,"is_reserved":false,"is_disabled":false,"rental_uris":{"android":"levelo://app?vid=f130c103-dd16-4e6f-9cea-5bc79ac8f595","ios":"levelo://app?vid=f130c103-dd16-4e6f-9cea-5bc79ac8f595"},"vehicle_type_id":"4","last_reported":1703966829,"current_range_meters":14400,"station_id":"ce4bhah2rcd13ifvqei0","pricing_plan_id":"free"},{"bike_id":"ca8b7112-cedf-4076-83a8-de986fe00f6e","system_id":"levelo_inurba_marseille","lat":43.285856,"lon":5.350771,"is_reserved":false,"is_disabled":false,"rental_uris":{"android":"levelo://app?vid=ca8b7112-cedf-4076-83a8-de986fe00f6e","ios":"levelo://app?vid=ca8b7112-cedf-4076-83a8-de986fe00f6e"},"vehicle_type_id":"4","last_reported":1703966829,"current_range_meters":31200,"station_id":"ce4bhch2rcd13ifvqeug","pricing_plan_id":"free"},{"bike_id":"575e71dd-91e2-4d46-848c-ef6a33af0c9e","system_id":"levelo_inurba_marseille","lat":43.285856,"lon":5.350771,"is_reserved":false,"is_disabled":false,"rental_uris":{"android":"levelo://app?vid=575e71dd-91e2-4d46-848c-ef6a33af0c9e","ios":"levelo://app?vid=575e71dd-91e2-4d46-848c-ef6a33af0c9e"},"vehicle_type_id":"4","last_reported":1703966829,"current_range_meters":16400,"station_id":"ce4bhch2rcd13ifvqeug","pricing_plan_id":"free"},{"bike_id":"bad863f8-0b58-4229-a0cd-98b29ec04a7f","system_id":"levelo_inurba_marseille","lat":43.286595,"lon":5.386795,"is_reserved":false,"is_disabled":false,"rental_uris":{"android":"levelo://app?vid=bad863f8-0b58-4229-a0cd-98b29ec04a7f","ios":"levelo://app?vid=bad863f8-0b58-4229-a0cd-98b29ec04a7f"},"vehicle_type_id":"4","last_reported":1703966829,"current_range_meters":10000,"station_id":"ce4bh492rcd13ifvqdug","pricing_plan_id":"free"},{"bike_id":"f2617aeb-410e-4d02-b54f-99e225d92359","system_id":"levelo_inurba_marseille","lat":43.286595,"lon":5.386795,"is_reserved":false,"is_disabled":false,"rental_uris":{"android":"levelo://app?vid=f2617aeb-410e-4d02-b54f-99e225d92359","ios":"levelo://app?vid=f2617aeb-410e-4d02-b54f-99e225d92359"},"vehicle_type_id":"4","last_reported":1703966829,"current_range_meters":15200,"station_id":"ce4bh492rcd13ifvqdug","pricing_plan_id":"free"},{"bike_id":"1a0bf041-78c3-4fb0-b111-9190bebdecf2","system_id":"levelo_inurba_marseille","lat":43.286595,"lon":5.386795,"is_reserved":false,"is_disabled":false,"rental_uris":{"android":"levelo://app?vid=1a0bf041-78c3-4fb0-b111-9190bebdecf2","ios":"levelo://app?vid=1a0bf041-78c3-4fb0-b111-9190bebdecf2"},"vehicle_type_id":"4","last_reported":1703966829,"current_range_meters":0,"station_id":"ce4bh492rcd13ifvqdug","pricing_plan_id":"free"},{"bike_id":"4ad566ac-35d2-45f1-93b8-aa3abd61c433","system_id":"levelo_inurba_marseille","lat":43.300992,"lon":5.404724,"is_reserved":false,"is_disabled":false,"rental_uris":{"android":"levelo://app?vid=4ad566ac-35d2-45f1-93b8-aa3abd61c433","ios":"levelo://app?vid=4ad566ac-35d2-45f1-93b8-aa3abd61c433"},"vehicle_type_id":"4","last_reported":1703966829,"current_range_meters":0,"station_id":"","pricing_plan_id":"free"},{"bike_id":"2a34418a-68fc-4df0-a58c-b424089bf812","system_id":"levelo_inurba_marseille","lat":43.33717,"lon":5.391857,"is_reserved":false,"is_disabled":false,"rental_uris":{"android":"levelo://app?vid=2a34418a-68fc-4df0-a58c-b424089bf812","ios":"levelo://app?vid=2a34418a-68fc-4df0-a58c-b424089bf812"},"vehicle_type_id":"4","last_reported":1703966829,"current_range_meters":30800,"station_id":"ce4bhr92rcd13ifvqhsg","pricing_plan_id":"free"},{"bike_id":"81e98546-48f6-4e53-9a96-d12ea8cec360","system_id":"levelo_inurba_marseille","lat":43.323464,"lon":5.406297,"is_reserved":false,"is_disabled":false,"rental_uris":{"android":"levelo://app?vid=81e98546-48f6-4e53-9a96-d12ea8cec360","ios":"levelo://app?vid=81e98546-48f6-4e53-9a96-d12ea8cec360"},"vehicle_type_id":"4","last_reported":1703966829,"current_range_meters":28000,"station_id":"ce4bhq92rcd13ifvqhjg","pricing_plan_id":"free"},{"bike_id":"6f88c66c-95cb-43e7-9ffe-5f0278c685b8","system_id":"levelo_inurba_marseille","lat":43.337168,"lon":5.391825,"is_reserved":false,"is_disabled":false,"rental_uris":{"android":"levelo://app?vid=6f88c66c-95cb-43e7-9ffe-5f0278c685b8","ios":"levelo://app?vid=6f88c66c-95cb-43e7-9ffe-5f0278c685b8"},"vehicle_type_id":"4","last_reported":1703966829,"current_range_meters":26400,"station_id":"ce4bhr92rcd13ifvqhsg","pricing_plan_id":"free"},{"bike_id":"ff548aa3-08f2-4092-9b6a-1ca529179ae9","system_id":"levelo_inurba_marseille","lat":43.28469,"lon":5.38469,"is_reserved":false,"is_disabled":false,"rental_uris":{"android":"levelo://app?vid=ff548aa3-08f2-4092-9b6a-1ca529179ae9","ios":"levelo://app?vid=ff548aa3-08f2-4092-9b6a-1ca529179ae9"},"vehicle_type_id":"4","last_reported":1703966829,"current_range_meters":18000,"station_id":"ce4bh512rcd13ifvqe3g","pricing_plan_id":"free"},{"bike_id":"015475af-6c17-4fcb-8071-25eab9ed80a9","system_id":"levelo_inurba_marseille","lat":43.288501,"lon":5.393087,"is_reserved":false,"is_disabled":false,"rental_uris":{"android":"levelo://app?vid=015475af-6c17-4fcb-8071-25eab9ed80a9","ios":"levelo://app?vid=015475af-6c17-4fcb-8071-25eab9ed80a9"},"vehicle_type_id":"4","last_reported":1703966829,"current_range_meters":10400,"station_id":"ce4bh2p2rcd13ifvqdi0","pricing_plan_id":"free"},{"bike_id":"7afdbbcf-9a30-4b1e-8050-d8f15ea75df6","system_id":"levelo_inurba_marseille","lat":43.283494,"lon":5.380945,"is_reserved":false,"is_disabled":false,"rental_uris":{"android":"levelo://app?vid=7afdbbcf-9a30-4b1e-8050-d8f15ea75df6","ios":"levelo://app?vid=7afdbbcf-9a30-4b1e-8050-d8f15ea75df6"},"vehicle_type_id":"4","last_reported":1703966829,"current_range_meters":19200,"station_id":"ce4bh412rcd13ifvqdr0","pricing_plan_id":"free"},{"bike_id":"31c8fad3-04c2-4de8-a1d7-d37c58815360","system_id":"levelo_inurba_marseille","lat":43.284219,"lon":5.3497,"is_reserved":false,"is_disabled":false,"rental_uris":{"android":"levelo://app?vid=31c8fad3-04c2-4de8-a1d7-d37c58815360","ios":"levelo://app?vid=31c8fad3-04c2-4de8-a1d7-d37c58815360"},"vehicle_type_id":"4","last_reported":1703966829,"current_range_meters":24000,"station_id":"ce4bhbh2rcd13ifvqepg","pricing_plan_id":"free"},{"bike_id":"65bbcd3d-b302-403f-af30-ce048895b666","system_id":"levelo_inurba_marseille","lat":43.28346,"lon":5.3811,"is_reserved":false,"is_disabled":false,"rental_uris":{"android":"levelo://app?vid=65bbcd3d-b302-403f-af30-ce048895b666","ios":"levelo://app?vid=65bbcd3d-b302-403f-af30-ce048895b666"},"vehicle_type_id":"4","last_reported":1703966829,"current_range_meters":2800,"station_id":"ce4bh412rcd13ifvqdr0","pricing_plan_id":"free"},{"bike_id":"e485450b-2736-4f4c-b94b-0da5a69b88aa","system_id":"levelo_inurba_marseille","lat":43.33385,"lon":5.39822,"is_reserved":false,"is_disabled":false,"rental_uris":{"android":"levelo://app?vid=e485450b-2736-4f4c-b94b-0da5a69b88aa","ios":"levelo://app?vid=e485450b-2736-4f4c-b94b-0da5a69b88aa"},"vehicle_type_id":"4","last_reported":1703966829,"current_range_meters":6000,"station_id":"","pricing_plan_id":"free"},{"bike_id":"041af8db-46e1-4b08-be93-ddac96a527c0","system_id":"levelo_inurba_marseille","lat":43.283498,"lon":5.380948,"is_reserved":false,"is_disabled":false,"rental_uris":{"android":"levelo://app?vid=041af8db-46e1-4b08-be93-ddac96a527c0","ios":"levelo://app?vid=041af8db-46e1-4b08-be93-ddac96a527c0"},"vehicle_type_id":"4","last_reported":1703966829,"current_range_meters":22000,"station_id":"ce4bh412rcd13ifvqdr0","pricing_plan_id":"free"},{"bike_id":"7db49108-9a26-43ce-9f14-d85b6fcc8e06","system_id":"levelo_inurba_marseille","lat":43.289363,"lon":5.396322,"is_reserved":false,"is_disabled":false,"rental_uris":{"android":"levelo://app?vid=7db49108-9a26-43ce-9f14-d85b6fcc8e06","ios":"levelo://app?vid=7db49108-9a26-43ce-9f14-d85b6fcc8e06"},"vehicle_type_id":"4","last_reported":1703966829,"current_range_meters":26400,"station_id":"ce4bh3h2rcd13ifvqdn0","pricing_plan_id":"free"},{"bike_id":"f5da27ce-bd25-4cfb-bd02-9ad0d323e67e","system_id":"levelo_inurba_marseille","lat":43.289363,"lon":5.396322,"is_reserved":false,"is_disabled":false,"rental_uris":{"android":"levelo://app?vid=f5da27ce-bd25-4cfb-bd02-9ad0d323e67e","ios":"levelo://app?vid=f5da27ce-bd25-4cfb-bd02-9ad0d323e67e"},"vehicle_type_id":"4","last_reported":1703966829,"current_range_meters":12400,"station_id":"ce4bh3h2rcd13ifvqdn0","pricing_plan_id":"free"},{"bike_id":"76a1ec55-09c7-4dd3-820f-b0a36b1f5982","system_id":"levelo_inurba_marseille","lat":43.289363,"lon":5.396322,"is_reserved":false,"is_disabled":false,"rental_uris":{"android":"levelo://app?vid=76a1ec55-09c7-4dd3-820f-b0a36b1f5982","ios":"levelo://app?vid=76a1ec55-09c7-4dd3-820f-b0a36b1f5982"},"vehicle_type_id":"4","last_reported":1703966829,"current_range_meters":2800,"station_id":"ce4bh3h2rcd13ifvqdn0","pricing_plan_id":"free"},{"bike_id":"f3f9e1e7-b2d9-41a6-ad46-dcd5476ca528","system_id":"levelo_inurba_marseille","lat":43.292724,"lon":5.401131,"is_reserved":false,"is_disabled":false,"rental_uris":{"android":"levelo://app?vid=f3f9e1e7-b2d9-41a6-ad46-dcd5476ca528","ios":"levelo://app?vid=f3f9e1e7-b2d9-41a6-ad46-dcd5476ca528"},"vehicle_type_id":"4","last_reported":1703966829,"current_range_meters":27200,"station_id":"ce4bh312rcd13ifvqdk0","pricing_plan_id":"free"},{"bike_id":"27aa46f9-315b-40f4-8c5a-ef2d6b071f9f","system_id":"levelo_inurba_marseille","lat":43.292724,"lon":5.401131,"is_reserved":false,"is_disabled":false,"rental_uris":{"android":"levelo://app?vid=27aa46f9-315b-40f4-8c5a-ef2d6b071f9f","ios":"levelo://app?vid=27aa46f9-315b-40f4-8c5a-ef2d6b071f9f"},"vehicle_type_id":"4","last_reported":1703966829,"current_range_meters":15600,"station_id":"ce4bh312rcd13ifvqdk0","pricing_plan_id":"free"},{"bike_id":"56587f46-6f58-4bf8-8535-b368fab6adfd","system_id":"levelo_inurba_marseille","lat":43.283502,"lon":5.386471,"is_reserved":false,"is_disabled":false,"rental_uris":{"android":"levelo://app?vid=56587f46-6f58-4bf8-8535-b368fab6adfd","ios":"levelo://app?vid=56587f46-6f58-4bf8-8535-b368fab6adfd"},"vehicle_type_id":"4","last_reported":1703966829,"current_range_meters":30800,"station_id":"ce4bh492rcd13ifvqdvg","pricing_plan_id":"free"},{"bike_id":"d5851979-cdd5-4f4e-9154-83de243b0c97","system_id":"levelo_inurba_marseille","lat":43.282754,"lon":5.350519,"is_reserved":false,"is_disabled":false,"rental_uris":{"android":"levelo://app?vid=d5851979-cdd5-4f4e-9154-83de243b0c97","ios":"levelo://app?vid=d5851979-cdd5-4f4e-9154-83de243b0c97"},"vehicle_type_id":"4","last_reported":1703966829,"current_range_meters":26400,"station_id":"ce4bhbp2rcd13ifvqerg","pricing_plan_id":"free"},{"bike_id":"e27afcb8-23df-43d1-82bc-b498f827475a","system_id":"levelo_inurba_marseille","lat":43.283502,"lon":5.386471,"is_reserved":false,"is_disabled":false,"rental_uris":{"android":"levelo://app?vid=e27afcb8-23df-43d1-82bc-b498f827475a","ios":"levelo://app?vid=e27afcb8-23df-43d1-82bc-b498f827475a"},"vehicle_type_id":"4","last_reported":1703966829,"current_range_meters":14400,"station_id":"ce4bh492rcd13ifvqdvg","pricing_plan_id":"free"},{"bike_id":"2708b749-fbc2-4d9e-9f6e-b17336935d9b","system_id":"levelo_inurba_marseille","lat":43.283502,"lon":5.386471,"is_reserved":false,"is_disabled":false,"rental_uris":{"android":"levelo://app?vid=2708b749-fbc2-4d9e-9f6e-b17336935d9b","ios":"levelo://app?vid=2708b749-fbc2-4d9e-9f6e-b17336935d9b"},"vehicle_type_id":"4","last_reported":1703966829,"current_range_meters":5600,"station_id":"ce4bh492rcd13ifvqdvg","pricing_plan_id":"free"},{"bike_id":"d19ed478-0a0e-4941-8074-bdd72dda4ac9","system_id":"levelo_inurba_marseille","lat":43.28039,"lon":5.369297,"is_reserved":false,"is_disabled":false,"rental_uris":{"android":"levelo://app?vid=d19ed478-0a0e-4941-8074-bdd72dda4ac9","ios":"levelo://app?vid=d19ed478-0a0e-4941-8074-bdd72dda4ac9"},"vehicle_type_id":"4","last_reported":1703966829,"current_range_meters":28400,"station_id":"ce4bha12rcd13ifvqef0","pricing_plan_id":"free"},{"bike_id":"d63dc989-0b57-4e66-9fd3-24bfa8d00533","system_id":"levelo_inurba_marseille","lat":43.296263,"lon":5.40601,"is_reserved":false,"is_disabled":false,"rental_uris":{"android":"levelo://app?vid=d63dc989-0b57-4e66-9fd3-24bfa8d00533","ios":"levelo://app?vid=d63dc989-0b57-4e66-9fd3-24bfa8d00533"},"vehicle_type_id":"4","last_reported":1703966829,"current_range_meters":21200,"station_id":"ce4bh0h2rcd13ifvqd60","pricing_plan_id":"free"},{"bike_id":"bdc49f3f-d5d0-4c5f-9333-5f89cbd0c1f4","system_id":"levelo_inurba_marseille","lat":43.296263,"lon":5.40601,"is_reserved":false,"is_disabled":false,"rental_uris":{"android":"levelo://app?vid=bdc49f3f-d5d0-4c5f-9333-5f89cbd0c1f4","ios":"levelo://app?vid=bdc49f3f-d5d0-4c5f-9333-5f89cbd0c1f4"},"vehicle_type_id":"4","last_reported":1703966829,"current_range_meters":18400,"station_id":"ce4bh0h2rcd13ifvqd60","pricing_plan_id":"free"},{"bike_id":"5c626aba-21a0-477e-9bbd-70f25b311c21","system_id":"levelo_inurba_marseille","lat":43.284462,"lon":5.392121,"is_reserved":false,"is_disabled":false,"rental_uris":{"android":"levelo://app?vid=5c626aba-21a0-477e-9bbd-70f25b311c21","ios":"levelo://app?vid=5c626aba-21a0-477e-9bbd-70f25b311c21"},"vehicle_type_id":"4","last_reported":1703966829,"current_range_meters":5200,"station_id":"ce4bhoh2rcd13ifvqh5g","pricing_plan_id":"free"},{"bike_id":"cfe8d5f0-8a12-4e7c-87a1-f7276043a595","system_id":"levelo_inurba_marseille","lat":43.32654,"lon":5.41061,"is_reserved":false,"is_disabled":false,"rental_uris":{"android":"levelo://app?vid=cfe8d5f0-8a12-4e7c-87a1-f7276043a595","ios":"levelo://app?vid=cfe8d5f0-8a12-4e7c-87a1-f7276043a595"},"vehicle_type_id":"4","last_reported":1703966829,"current_range_meters":25200,"station_id":"","pricing_plan_id":"free"},{"bike_id":"ac4a2c54-054c-45c7-bc29-432a2e94ebc6","system_id":"levelo_inurba_marseille","lat":43.32663,"lon":5.41062,"is_reserved":false,"is_disabled":false,"rental_uris":{"android":"levelo://app?vid=ac4a2c54-054c-45c7-bc29-432a2e94ebc6","ios":"levelo://app?vid=ac4a2c54-054c-45c7-bc29-432a2e94ebc6"},"vehicle_type_id":"4","last_reported":1703966829,"current_range_meters":29200,"station_id":"","pricing_plan_id":"free"},{"bike_id":"87462337-d37f-4cf5-a009-c30de7321017","system_id":"levelo_inurba_marseille","lat":43.287154,"lon":5.399979,"is_reserved":false,"is_disabled":false,"rental_uris":{"android":"levelo://app?vid=87462337-d37f-4cf5-a009-c30de7321017","ios":"levelo://app?vid=87462337-d37f-4cf5-a009-c30de7321017"},"vehicle_type_id":"4","last_reported":1703966829,"current_range_meters":26000,"station_id":"ce4bho92rcd13ifvqh3g","pricing_plan_id":"free"},{"bike_id":"44878b13-fdd9-4935-b929-141039e4c5f6","system_id":"levelo_inurba_marseille","lat":43.287154,"lon":5.399979,"is_reserved":false,"is_disabled":false,"rental_uris":{"android":"levelo://app?vid=44878b13-fdd9-4935-b929-141039e4c5f6","ios":"levelo://app?vid=44878b13-fdd9-4935-b929-141039e4c5f6"},"vehicle_type_id":"4","last_reported":1703966829,"current_range_meters":16800,"station_id":"ce4bho92rcd13ifvqh3g","pricing_plan_id":"free"},{"bike_id":"415b33fa-c3d6-49e7-b39e-f90abdcab1b4","system_id":"levelo_inurba_marseille","lat":43.287154,"lon":5.399979,"is_reserved":false,"is_disabled":false,"rental_uris":{"android":"levelo://app?vid=415b33fa-c3d6-49e7-b39e-f90abdcab1b4","ios":"levelo://app?vid=415b33fa-c3d6-49e7-b39e-f90abdcab1b4"},"vehicle_type_id":"4","last_reported":1703966829,"current_range_meters":16000,"station_id":"ce4bho92rcd13ifvqh3g","pricing_plan_id":"free"},{"bike_id":"f0c34588-6623-4f54-b12b-1f343005a4c4","system_id":"levelo_inurba_marseille","lat":43.320045,"lon":5.415046,"is_reserved":false,"is_disabled":false,"rental_uris":{"android":"levelo://app?vid=f0c34588-6623-4f54-b12b-1f343005a4c4","ios":"levelo://app?vid=f0c34588-6623-4f54-b12b-1f343005a4c4"},"vehicle_type_id":"4","last_reported":1703966829,"current_range_meters":11200,"station_id":"ce4bhq92rcd13ifvqhkg","pricing_plan_id":"free"},{"bike_id":"d8328ffd-c9c7-473f-9725-428fc93fcf5f","system_id":"levelo_inurba_marseille","lat":43.279742,"lon":5.38744,"is_reserved":false,"is_disabled":false,"rental_uris":{"android":"levelo://app?vid=d8328ffd-c9c7-473f-9725-428fc93fcf5f","ios":"levelo://app?vid=d8328ffd-c9c7-473f-9725-428fc93fcf5f"},"vehicle_type_id":"4","last_reported":1703966829,"current_range_meters":8400,"station_id":"ce4bhg12rcd13ifvqf80","pricing_plan_id":"free"},{"bike_id":"91c9b361-cca5-4ad2-967e-cf785e28cfa7","system_id":"levelo_inurba_marseille","lat":43.279742,"lon":5.38744,"is_reserved":false,"is_disabled":false,"rental_uris":{"android":"levelo://app?vid=91c9b361-cca5-4ad2-967e-cf785e28cfa7","ios":"levelo://app?vid=91c9b361-cca5-4ad2-967e-cf785e28cfa7"},"vehicle_type_id":"4","last_reported":1703966829,"current_range_meters":6000,"station_id":"ce4bhg12rcd13ifvqf80","pricing_plan_id":"free"},{"bike_id":"e2116b2e-3a5f-4bd8-a1c8-2607f2cb6d00","system_id":"levelo_inurba_marseille","lat":43.325233,"lon":5.414318,"is_reserved":false,"is_disabled":false,"rental_uris":{"android":"levelo://app?vid=e2116b2e-3a5f-4bd8-a1c8-2607f2cb6d00","ios":"levelo://app?vid=e2116b2e-3a5f-4bd8-a1c8-2607f2cb6d00"},"vehicle_type_id":"4","last_reported":1703966829,"current_range_meters":7600,"station_id":"ce4bhq12rcd13ifvqhhg","pricing_plan_id":"free"},{"bike_id":"1542ee4e-f173-499f-9338-18d6ffda5d72","system_id":"levelo_inurba_marseille","lat":43.280784,"lon":5.396622,"is_reserved":false,"is_disabled":false,"rental_uris":{"android":"levelo://app?vid=1542ee4e-f173-499f-9338-18d6ffda5d72","ios":"levelo://app?vid=1542ee4e-f173-499f-9338-18d6ffda5d72"},"vehicle_type_id":"4","last_reported":1703966829,"current_range_meters":10800,"station_id":"ce4bho12rcd13ifvqh2g","pricing_plan_id":"free"},{"bike_id":"442e34b6-92de-4f95-a8c2-8af72ec09669","system_id":"levelo_inurba_marseille","lat":43.280784,"lon":5.396622,"is_reserved":false,"is_disabled":false,"rental_uris":{"android":"levelo://app?vid=442e34b6-92de-4f95-a8c2-8af72ec09669","ios":"levelo://app?vid=442e34b6-92de-4f95-a8c2-8af72ec09669"},"vehicle_type_id":"4","last_reported":1703966829,"current_range_meters":31200,"station_id":"ce4bho12rcd13ifvqh2g","pricing_plan_id":"free"},{"bike_id":"3d602464-5bb9-4c22-a863-47505fdc38ad","system_id":"levelo_inurba_marseille","lat":43.280784,"lon":5.396622,"is_reserved":false,"is_disabled":false,"rental_uris":{"android":"levelo://app?vid=3d602464-5bb9-4c22-a863-47505fdc38ad","ios":"levelo://app?vid=3d602464-5bb9-4c22-a863-47505fdc38ad"},"vehicle_type_id":"4","last_reported":1703966829,"current_range_meters":24400,"station_id":"ce4bho12rcd13ifvqh2g","pricing_plan_id":"free"},{"bike_id":"dcfb783e-4af4-4a2c-8b14-23597359d6a5","system_id":"levelo_inurba_marseille","lat":43.303837,"lon":5.418724,"is_reserved":false,"is_disabled":false,"rental_uris":{"android":"levelo://app?vid=dcfb783e-4af4-4a2c-8b14-23597359d6a5","ios":"levelo://app?vid=dcfb783e-4af4-4a2c-8b14-23597359d6a5"},"vehicle_type_id":"4","last_reported":1703966829,"current_range_meters":14000,"station_id":"ce4bhop2rcd13ifvqh7g","pricing_plan_id":"free"},{"bike_id":"a685e99a-611e-4dc8-8b33-6e841eec1dd9","system_id":"levelo_inurba_marseille","lat":43.278401,"lon":5.392152,"is_reserved":false,"is_disabled":false,"rental_uris":{"android":"levelo://app?vid=a685e99a-611e-4dc8-8b33-6e841eec1dd9","ios":"levelo://app?vid=a685e99a-611e-4dc8-8b33-6e841eec1dd9"},"vehicle_type_id":"4","last_reported":1703966829,"current_range_meters":19600,"station_id":"ce4bhjp2rcd13ifvqga0","pricing_plan_id":"free"},{"bike_id":"0725639b-5410-499a-9aed-19c5131a32a4","system_id":"levelo_inurba_marseille","lat":43.278401,"lon":5.392152,"is_reserved":false,"is_disabled":false,"rental_uris":{"android":"levelo://app?vid=0725639b-5410-499a-9aed-19c5131a32a4","ios":"levelo://app?vid=0725639b-5410-499a-9aed-19c5131a32a4"},"vehicle_type_id":"4","last_reported":1703966829,"current_range_meters":10800,"station_id":"ce4bhjp2rcd13ifvqga0","pricing_plan_id":"free"},{"bike_id":"4d3d0c8b-6b41-41e4-87c5-57930c62e9fb","system_id":"levelo_inurba_marseille","lat":43.278401,"lon":5.392152,"is_reserved":false,"is_disabled":false,"rental_uris":{"android":"levelo://app?vid=4d3d0c8b-6b41-41e4-87c5-57930c62e9fb","ios":"levelo://app?vid=4d3d0c8b-6b41-41e4-87c5-57930c62e9fb"},"vehicle_type_id":"4","last_reported":1703966829,"current_range_meters":15200,"station_id":"ce4bhjp2rcd13ifvqga0","pricing_plan_id":"free"},{"bike_id":"99106b63-21f1-4b49-9691-bc110c59fe67","system_id":"levelo_inurba_marseille","lat":43.275625,"lon":5.384392,"is_reserved":false,"is_disabled":false,"rental_uris":{"android":"levelo://app?vid=99106b63-21f1-4b49-9691-bc110c59fe67","ios":"levelo://app?vid=99106b63-21f1-4b49-9691-bc110c59fe67"},"vehicle_type_id":"4","last_reported":1703966829,"current_range_meters":20000,"station_id":"ce4bhh92rcd13ifvqfi0","pricing_plan_id":"free"},{"bike_id":"c375b325-17b3-4abf-8541-7870ff7b22a8","system_id":"levelo_inurba_marseille","lat":43.275625,"lon":5.384392,"is_reserved":false,"is_disabled":false,"rental_uris":{"android":"levelo://app?vid=c375b325-17b3-4abf-8541-7870ff7b22a8","ios":"levelo://app?vid=c375b325-17b3-4abf-8541-7870ff7b22a8"},"vehicle_type_id":"4","last_reported":1703966829,"current_range_meters":31200,"station_id":"ce4bhh92rcd13ifvqfi0","pricing_plan_id":"free"},{"bike_id":"a69f4ca0-c247-4c77-885f-494b2985032d","system_id":"levelo_inurba_marseille","lat":43.33629,"lon":5.41026,"is_reserved":false,"is_disabled":false,"rental_uris":{"android":"levelo://app?vid=a69f4ca0-c247-4c77-885f-494b2985032d","ios":"levelo://app?vid=a69f4ca0-c247-4c77-885f-494b2985032d"},"vehicle_type_id":"4","last_reported":1703966829,"current_range_meters":30000,"station_id":"ce4bhqh2rcd13ifvqhmg","pricing_plan_id":"free"},{"bike_id":"7741a302-3786-4fca-ac4c-6fdf6e1b0aae","system_id":"levelo_inurba_marseille","lat":43.279952,"lon":5.400085,"is_reserved":false,"is_disabled":false,"rental_uris":{"android":"levelo://app?vid=7741a302-3786-4fca-ac4c-6fdf6e1b0aae","ios":"levelo://app?vid=7741a302-3786-4fca-ac4c-6fdf6e1b0aae"},"vehicle_type_id":"4","last_reported":1703966829,"current_range_meters":7200,"station_id":"ce4bho92rcd13ifvqh4g","pricing_plan_id":"free"},{"bike_id":"72a13852-be33-483c-a47b-6f02f7de9929","system_id":"levelo_inurba_marseille","lat":43.279952,"lon":5.400085,"is_reserved":false,"is_disabled":false,"rental_uris":{"android":"levelo://app?vid=72a13852-be33-483c-a47b-6f02f7de9929","ios":"levelo://app?vid=72a13852-be33-483c-a47b-6f02f7de9929"},"vehicle_type_id":"4","last_reported":1703966829,"current_range_meters":6800,"station_id":"ce4bho92rcd13ifvqh4g","pricing_plan_id":"free"},{"bike_id":"d888642a-5e21-4f0f-a86f-4770bc6da2c3","system_id":"levelo_inurba_marseille","lat":43.279952,"lon":5.400085,"is_reserved":false,"is_disabled":false,"rental_uris":{"android":"levelo://app?vid=d888642a-5e21-4f0f-a86f-4770bc6da2c3","ios":"levelo://app?vid=d888642a-5e21-4f0f-a86f-4770bc6da2c3"},"vehicle_type_id":"4","last_reported":1703966829,"current_range_meters":15600,"station_id":"ce4bho92rcd13ifvqh4g","pricing_plan_id":"free"},{"bike_id":"01437af3-b1db-4bcd-baf0-f3046ab99a2b","system_id":"levelo_inurba_marseille","lat":43.279952,"lon":5.400085,"is_reserved":false,"is_disabled":false,"rental_uris":{"android":"levelo://app?vid=01437af3-b1db-4bcd-baf0-f3046ab99a2b","ios":"levelo://app?vid=01437af3-b1db-4bcd-baf0-f3046ab99a2b"},"vehicle_type_id":"4","last_reported":1703966829,"current_range_meters":4000,"station_id":"ce4bho92rcd13ifvqh4g","pricing_plan_id":"free"},{"bike_id":"75649be6-7f45-4d54-9e20-38266a987b61","system_id":"levelo_inurba_marseille","lat":43.279975,"lon":5.40009,"is_reserved":false,"is_disabled":false,"rental_uris":{"android":"levelo://app?vid=75649be6-7f45-4d54-9e20-38266a987b61","ios":"levelo://app?vid=75649be6-7f45-4d54-9e20-38266a987b61"},"vehicle_type_id":"4","last_reported":1703966829,"current_range_meters":3600,"station_id":"ce4bho92rcd13ifvqh4g","pricing_plan_id":"free"},{"bike_id":"1b825d90-2b7b-4b5f-b780-a714f61c61a6","system_id":"levelo_inurba_marseille","lat":43.279952,"lon":5.400085,"is_reserved":false,"is_disabled":false,"rental_uris":{"android":"levelo://app?vid=1b825d90-2b7b-4b5f-b780-a714f61c61a6","ios":"levelo://app?vid=1b825d90-2b7b-4b5f-b780-a714f61c61a6"},"vehicle_type_id":"4","last_reported":1703966829,"current_range_meters":22800,"station_id":"ce4bho92rcd13ifvqh4g","pricing_plan_id":"free"},{"bike_id":"9464f4e4-557a-487f-a39d-6922fe12c63a","system_id":"levelo_inurba_marseille","lat":43.279975,"lon":5.40009,"is_reserved":false,"is_disabled":false,"rental_uris":{"android":"levelo://app?vid=9464f4e4-557a-487f-a39d-6922fe12c63a","ios":"levelo://app?vid=9464f4e4-557a-487f-a39d-6922fe12c63a"},"vehicle_type_id":"4","last_reported":1703966829,"current_range_meters":8000,"station_id":"ce4bho92rcd13ifvqh4g","pricing_plan_id":"free"},{"bike_id":"e55eff52-8930-40bf-b7ae-d4dc7e731987","system_id":"levelo_inurba_marseille","lat":43.279952,"lon":5.400085,"is_reserved":false,"is_disabled":false,"rental_uris":{"android":"levelo://app?vid=e55eff52-8930-40bf-b7ae-d4dc7e731987","ios":"levelo://app?vid=e55eff52-8930-40bf-b7ae-d4dc7e731987"},"vehicle_type_id":"4","last_reported":1703966829,"current_range_meters":22800,"station_id":"ce4bho92rcd13ifvqh4g","pricing_plan_id":"free"},{"bike_id":"f5fd5f9b-1579-4e10-b614-92f4ee3d52b5","system_id":"levelo_inurba_marseille","lat":43.279975,"lon":5.40009,"is_reserved":false,"is_disabled":false,"rental_uris":{"android":"levelo://app?vid=f5fd5f9b-1579-4e10-b614-92f4ee3d52b5","ios":"levelo://app?vid=f5fd5f9b-1579-4e10-b614-92f4ee3d52b5"},"vehicle_type_id":"4","last_reported":1703966829,"current_range_meters":22400,"station_id":"ce4bho92rcd13ifvqh4g","pricing_plan_id":"free"},{"bike_id":"ceb84a01-7f50-4c3a-9ee6-841d9d98855d","system_id":"levelo_inurba_marseille","lat":43.279952,"lon":5.400085,"is_reserved":false,"is_disabled":false,"rental_uris":{"android":"levelo://app?vid=ceb84a01-7f50-4c3a-9ee6-841d9d98855d","ios":"levelo://app?vid=ceb84a01-7f50-4c3a-9ee6-841d9d98855d"},"vehicle_type_id":"4","last_reported":1703966829,"current_range_meters":4800,"station_id":"ce4bho92rcd13ifvqh4g","pricing_plan_id":"free"},{"bike_id":"c3ee03db-8e64-430b-af92-e26a665c8a04","system_id":"levelo_inurba_marseille","lat":43.279952,"lon":5.400085,"is_reserved":false,"is_disabled":false,"rental_uris":{"android":"levelo://app?vid=c3ee03db-8e64-430b-af92-e26a665c8a04","ios":"levelo://app?vid=c3ee03db-8e64-430b-af92-e26a665c8a04"},"vehicle_type_id":"4","last_reported":1703966829,"current_range_meters":14000,"station_id":"ce4bho92rcd13ifvqh4g","pricing_plan_id":"free"},{"bike_id":"383d6cd1-9ced-4fa3-adff-9770f25cc081","system_id":"levelo_inurba_marseille","lat":43.317121,"lon":5.423936,"is_reserved":false,"is_disabled":false,"rental_uris":{"android":"levelo://app?vid=383d6cd1-9ced-4fa3-adff-9770f25cc081","ios":"levelo://app?vid=383d6cd1-9ced-4fa3-adff-9770f25cc081"},"vehicle_type_id":"4","last_reported":1703966829,"current_range_meters":26400,"station_id":"ce4bhp92rcd13ifvqhbg","pricing_plan_id":"free"},{"bike_id":"d9c8318c-3031-4f68-9885-19375abd858f","system_id":"levelo_inurba_marseille","lat":43.31465,"lon":5.42616,"is_reserved":false,"is_disabled":false,"rental_uris":{"android":"levelo://app?vid=d9c8318c-3031-4f68-9885-19375abd858f","ios":"levelo://app?vid=d9c8318c-3031-4f68-9885-19375abd858f"},"vehicle_type_id":"4","last_reported":1703966829,"current_range_meters":6000,"station_id":"","pricing_plan_id":"free"},{"bike_id":"1215a881-8c5c-4a50-8eb2-6fc7039f28ce","system_id":"levelo_inurba_marseille","lat":43.295523,"lon":5.422926,"is_reserved":false,"is_disabled":false,"rental_uris":{"android":"levelo://app?vid=1215a881-8c5c-4a50-8eb2-6fc7039f28ce","ios":"levelo://app?vid=1215a881-8c5c-4a50-8eb2-6fc7039f28ce"},"vehicle_type_id":"4","last_reported":1703966829,"current_range_meters":22000,"station_id":"ce4bhph2rcd13ifvqhdg","pricing_plan_id":"free"},{"bike_id":"061bb09e-908a-4f76-afb2-44bcfcb6aa80","system_id":"levelo_inurba_marseille","lat":43.295511,"lon":5.422926,"is_reserved":false,"is_disabled":false,"rental_uris":{"android":"levelo://app?vid=061bb09e-908a-4f76-afb2-44bcfcb6aa80","ios":"levelo://app?vid=061bb09e-908a-4f76-afb2-44bcfcb6aa80"},"vehicle_type_id":"4","last_reported":1703966829,"current_range_meters":30000,"station_id":"ce4bhph2rcd13ifvqhdg","pricing_plan_id":"free"},{"bike_id":"beb93061-85bf-4e20-99aa-79c67497ba42","system_id":"levelo_inurba_marseille","lat":43.295511,"lon":5.422926,"is_reserved":false,"is_disabled":false,"rental_uris":{"android":"levelo://app?vid=beb93061-85bf-4e20-99aa-79c67497ba42","ios":"levelo://app?vid=beb93061-85bf-4e20-99aa-79c67497ba42"},"vehicle_type_id":"4","last_reported":1703966829,"current_range_meters":18400,"station_id":"ce4bhph2rcd13ifvqhdg","pricing_plan_id":"free"},{"bike_id":"0db32de6-6d4d-480b-9c60-c77a1d3598e6","system_id":"levelo_inurba_marseille","lat":43.272118,"lon":5.391758,"is_reserved":false,"is_disabled":false,"rental_uris":{"android":"levelo://app?vid=0db32de6-6d4d-480b-9c60-c77a1d3598e6","ios":"levelo://app?vid=0db32de6-6d4d-480b-9c60-c77a1d3598e6"},"vehicle_type_id":"4","last_reported":1703966829,"current_range_meters":26000,"station_id":"ce4bhhp2rcd13ifvqfm0","pricing_plan_id":"free"},{"bike_id":"d060ee75-2d43-419a-ab7d-06748f433214","system_id":"levelo_inurba_marseille","lat":43.278128,"lon":5.407195,"is_reserved":false,"is_disabled":false,"rental_uris":{"android":"levelo://app?vid=d060ee75-2d43-419a-ab7d-06748f433214","ios":"levelo://app?vid=d060ee75-2d43-419a-ab7d-06748f433214"},"vehicle_type_id":"4","last_reported":1703966829,"current_range_meters":31200,"station_id":"ce4bhnh2rcd13ifvqgtg","pricing_plan_id":"free"},{"bike_id":"aebe85ab-6b3a-4eb5-8d4e-b12c09289e0a","system_id":"levelo_inurba_marseille","lat":43.279465,"lon":5.410561,"is_reserved":false,"is_disabled":false,"rental_uris":{"android":"levelo://app?vid=aebe85ab-6b3a-4eb5-8d4e-b12c09289e0a","ios":"levelo://app?vid=aebe85ab-6b3a-4eb5-8d4e-b12c09289e0a"},"vehicle_type_id":"4","last_reported":1703966829,"current_range_meters":22000,"station_id":"ce4bhnp2rcd13ifvqh0g","pricing_plan_id":"free"},{"bike_id":"8c5acf7c-4c3c-4f01-88c1-844f8072875a","system_id":"levelo_inurba_marseille","lat":43.279465,"lon":5.410561,"is_reserved":false,"is_disabled":false,"rental_uris":{"android":"levelo://app?vid=8c5acf7c-4c3c-4f01-88c1-844f8072875a","ios":"levelo://app?vid=8c5acf7c-4c3c-4f01-88c1-844f8072875a"},"vehicle_type_id":"4","last_reported":1703966829,"current_range_meters":9200,"station_id":"ce4bhnp2rcd13ifvqh0g","pricing_plan_id":"free"},{"bike_id":"995d75bf-1669-4aed-b410-a6a3b9f87d67","system_id":"levelo_inurba_marseille","lat":43.279465,"lon":5.410561,"is_reserved":false,"is_disabled":false,"rental_uris":{"android":"levelo://app?vid=995d75bf-1669-4aed-b410-a6a3b9f87d67","ios":"levelo://app?vid=995d75bf-1669-4aed-b410-a6a3b9f87d67"},"vehicle_type_id":"4","last_reported":1703966829,"current_range_meters":10400,"station_id":"ce4bhnp2rcd13ifvqh0g","pricing_plan_id":"free"},{"bike_id":"4ace0143-54eb-450f-874b-0d5359e906a6","system_id":"levelo_inurba_marseille","lat":43.31299,"lon":5.4309,"is_reserved":false,"is_disabled":false,"rental_uris":{"android":"levelo://app?vid=4ace0143-54eb-450f-874b-0d5359e906a6","ios":"levelo://app?vid=4ace0143-54eb-450f-874b-0d5359e906a6"},"vehicle_type_id":"4","last_reported":1703966829,"current_range_meters":30000,"station_id":"","pricing_plan_id":"free"},{"bike_id":"7a4c5c94-9c70-4738-835b-3564783d3bf0","system_id":"levelo_inurba_marseille","lat":43.26681,"lon":5.382694,"is_reserved":false,"is_disabled":false,"rental_uris":{"android":"levelo://app?vid=7a4c5c94-9c70-4738-835b-3564783d3bf0","ios":"levelo://app?vid=7a4c5c94-9c70-4738-835b-3564783d3bf0"},"vehicle_type_id":"4","last_reported":1703966829,"current_range_meters":30400,"station_id":"ce4bhg92rcd13ifvqf90","pricing_plan_id":"free"},{"bike_id":"1c7b2420-34e7-4cda-9b8d-e5551d4017de","system_id":"levelo_inurba_marseille","lat":43.27996,"lon":5.416624,"is_reserved":false,"is_disabled":false,"rental_uris":{"android":"levelo://app?vid=1c7b2420-34e7-4cda-9b8d-e5551d4017de","ios":"levelo://app?vid=1c7b2420-34e7-4cda-9b8d-e5551d4017de"},"vehicle_type_id":"4","last_reported":1703966829,"current_range_meters":21200,"station_id":"ce4bho12rcd13ifvqh1g","pricing_plan_id":"free"},{"bike_id":"267606f5-650f-4b88-939b-5a7bc7045522","system_id":"levelo_inurba_marseille","lat":43.27996,"lon":5.416624,"is_reserved":false,"is_disabled":false,"rental_uris":{"android":"levelo://app?vid=267606f5-650f-4b88-939b-5a7bc7045522","ios":"levelo://app?vid=267606f5-650f-4b88-939b-5a7bc7045522"},"vehicle_type_id":"4","last_reported":1703966829,"current_range_meters":18800,"station_id":"ce4bho12rcd13ifvqh1g","pricing_plan_id":"free"},{"bike_id":"6360d5f3-4af1-46b3-b9af-6b80a26ce6ca","system_id":"levelo_inurba_marseille","lat":43.27996,"lon":5.416624,"is_reserved":false,"is_disabled":false,"rental_uris":{"android":"levelo://app?vid=6360d5f3-4af1-46b3-b9af-6b80a26ce6ca","ios":"levelo://app?vid=6360d5f3-4af1-46b3-b9af-6b80a26ce6ca"},"vehicle_type_id":"4","last_reported":1703966829,"current_range_meters":28000,"station_id":"ce4bho12rcd13ifvqh1g","pricing_plan_id":"free"},{"bike_id":"109313f9-71f8-49b1-a95b-7c7e1a73f29b","system_id":"levelo_inurba_marseille","lat":43.308051,"lon":5.43527,"is_reserved":false,"is_disabled":false,"rental_uris":{"android":"levelo://app?vid=109313f9-71f8-49b1-a95b-7c7e1a73f29b","ios":"levelo://app?vid=109313f9-71f8-49b1-a95b-7c7e1a73f29b"},"vehicle_type_id":"4","last_reported":1703966829,"current_range_meters":4800,"station_id":"ce4bhph2rcd13ifvqheg","pricing_plan_id":"free"},{"bike_id":"9e15925c-33ab-47bd-a788-cbec8b9fb708","system_id":"levelo_inurba_marseille","lat":43.308051,"lon":5.43527,"is_reserved":false,"is_disabled":false,"rental_uris":{"android":"levelo://app?vid=9e15925c-33ab-47bd-a788-cbec8b9fb708","ios":"levelo://app?vid=9e15925c-33ab-47bd-a788-cbec8b9fb708"},"vehicle_type_id":"4","last_reported":1703966829,"current_range_meters":13600,"station_id":"ce4bhph2rcd13ifvqheg","pricing_plan_id":"free"},{"bike_id":"dac5ea74-92f7-462e-b536-31f322bb01c0","system_id":"levelo_inurba_marseille","lat":43.331893,"lon":5.431791,"is_reserved":false,"is_disabled":false,"rental_uris":{"android":"levelo://app?vid=dac5ea74-92f7-462e-b536-31f322bb01c0","ios":"levelo://app?vid=dac5ea74-92f7-462e-b536-31f322bb01c0"},"vehicle_type_id":"4","last_reported":1703966829,"current_range_meters":14000,"station_id":"","pricing_plan_id":"free"},{"bike_id":"794ab64e-1955-4766-b844-628f1c76e2d8","system_id":"levelo_inurba_marseille","lat":43.271368,"lon":5.40928,"is_reserved":false,"is_disabled":false,"rental_uris":{"android":"levelo://app?vid=794ab64e-1955-4766-b844-628f1c76e2d8","ios":"levelo://app?vid=794ab64e-1955-4766-b844-628f1c76e2d8"},"vehicle_type_id":"4","last_reported":1703966829,"current_range_meters":15600,"station_id":"ce4bhl12rcd13ifvqgf0","pricing_plan_id":"free"},{"bike_id":"3f8ad699-77c1-4121-bb7e-9993854123bf","system_id":"levelo_inurba_marseille","lat":43.271368,"lon":5.40928,"is_reserved":false,"is_disabled":false,"rental_uris":{"android":"levelo://app?vid=3f8ad699-77c1-4121-bb7e-9993854123bf","ios":"levelo://app?vid=3f8ad699-77c1-4121-bb7e-9993854123bf"},"vehicle_type_id":"4","last_reported":1703966829,"current_range_meters":30400,"station_id":"ce4bhl12rcd13ifvqgf0","pricing_plan_id":"free"},{"bike_id":"67d5e534-bb56-4ed3-96f2-1608e8f50594","system_id":"levelo_inurba_marseille","lat":43.267959,"lon":5.402685,"is_reserved":false,"is_disabled":false,"rental_uris":{"android":"levelo://app?vid=67d5e534-bb56-4ed3-96f2-1608e8f50594","ios":"levelo://app?vid=67d5e534-bb56-4ed3-96f2-1608e8f50594"},"vehicle_type_id":"4","last_reported":1703966829,"current_range_meters":19200,"station_id":"ce501612rcd8frsf0b60","pricing_plan_id":"free"},{"bike_id":"048306d8-69df-4d21-99c9-8745e525e8de","system_id":"levelo_inurba_marseille","lat":43.29896,"lon":5.43657,"is_reserved":false,"is_disabled":false,"rental_uris":{"android":"levelo://app?vid=048306d8-69df-4d21-99c9-8745e525e8de","ios":"levelo://app?vid=048306d8-69df-4d21-99c9-8745e525e8de"},"vehicle_type_id":"4","last_reported":1703966829,"current_range_meters":6400,"station_id":"ce4bhpp2rcd13ifvqhfg","pricing_plan_id":"free"},{"bike_id":"4e011c37-f126-433b-a488-7ed2749557ae","system_id":"levelo_inurba_marseille","lat":43.298768,"lon":5.43643,"is_reserved":false,"is_disabled":false,"rental_uris":{"android":"levelo://app?vid=4e011c37-f126-433b-a488-7ed2749557ae","ios":"levelo://app?vid=4e011c37-f126-433b-a488-7ed2749557ae"},"vehicle_type_id":"4","last_reported":1703966829,"current_range_meters":21600,"station_id":"ce4bhpp2rcd13ifvqhfg","pricing_plan_id":"free"},{"bike_id":"812614fc-f43d-42cd-8379-6bce06a75358","system_id":"levelo_inurba_marseille","lat":43.298768,"lon":5.43643,"is_reserved":false,"is_disabled":false,"rental_uris":{"android":"levelo://app?vid=812614fc-f43d-42cd-8379-6bce06a75358","ios":"levelo://app?vid=812614fc-f43d-42cd-8379-6bce06a75358"},"vehicle_type_id":"4","last_reported":1703966829,"current_range_meters":31200,"station_id":"ce4bhpp2rcd13ifvqhfg","pricing_plan_id":"free"},{"bike_id":"4fe3d37d-1d0d-458f-a32f-1c4eba9a3ad9","system_id":"levelo_inurba_marseille","lat":43.26035,"lon":5.37555,"is_reserved":false,"is_disabled":false,"rental_uris":{"android":"levelo://app?vid=4fe3d37d-1d0d-458f-a32f-1c4eba9a3ad9","ios":"levelo://app?vid=4fe3d37d-1d0d-458f-a32f-1c4eba9a3ad9"},"vehicle_type_id":"4","last_reported":1703966829,"current_range_meters":22000,"station_id":"ce4bhgh2rcd13ifvqfa0","pricing_plan_id":"free"},{"bike_id":"0d574b27-0544-48a4-bf39-ede07ecbf8c3","system_id":"levelo_inurba_marseille","lat":43.281548,"lon":5.42643,"is_reserved":false,"is_disabled":false,"rental_uris":{"android":"levelo://app?vid=0d574b27-0544-48a4-bf39-ede07ecbf8c3","ios":"levelo://app?vid=0d574b27-0544-48a4-bf39-ede07ecbf8c3"},"vehicle_type_id":"4","last_reported":1703966829,"current_range_meters":11200,"station_id":"ce4bhnh2rcd13ifvqgug","pricing_plan_id":"free"},{"bike_id":"554274c1-29da-4e13-9454-6cf149455d56","system_id":"levelo_inurba_marseille","lat":43.281548,"lon":5.42643,"is_reserved":false,"is_disabled":false,"rental_uris":{"android":"levelo://app?vid=554274c1-29da-4e13-9454-6cf149455d56","ios":"levelo://app?vid=554274c1-29da-4e13-9454-6cf149455d56"},"vehicle_type_id":"4","last_reported":1703966829,"current_range_meters":20400,"station_id":"ce4bhnh2rcd13ifvqgug","pricing_plan_id":"free"},{"bike_id":"0c5cb810-16ed-4b8f-9df0-3ac1374db3bf","system_id":"levelo_inurba_marseille","lat":43.28155,"lon":5.42648,"is_reserved":false,"is_disabled":false,"rental_uris":{"android":"levelo://app?vid=0c5cb810-16ed-4b8f-9df0-3ac1374db3bf","ios":"levelo://app?vid=0c5cb810-16ed-4b8f-9df0-3ac1374db3bf"},"vehicle_type_id":"4","last_reported":1703966829,"current_range_meters":27200,"station_id":"ce4bhnh2rcd13ifvqgug","pricing_plan_id":"free"},{"bike_id":"dba94adf-8631-4e52-b14e-ab5df234ae8e","system_id":"levelo_inurba_marseille","lat":43.281548,"lon":5.42643,"is_reserved":false,"is_disabled":false,"rental_uris":{"android":"levelo://app?vid=dba94adf-8631-4e52-b14e-ab5df234ae8e","ios":"levelo://app?vid=dba94adf-8631-4e52-b14e-ab5df234ae8e"},"vehicle_type_id":"4","last_reported":1703966829,"current_range_meters":30400,"station_id":"ce4bhnh2rcd13ifvqgug","pricing_plan_id":"free"},