{"last_updated":1727255371,"ttl":60,"version":"2.2","data":{"bikes":[{"bike_id":"c784c6d4-6f68-4e85-94a6-e6c4864f627a","system_id":"levelo_inurba_marseille","lat":43.295299,"lon":5.385418,"is_reserved":false,"is_disabled":false,"rental_uris":{"android":"levelo://app?vid=c784c6d4-6f68-4e85-94a6-e6c4864f627a","ios":"levelo://app?vid=c784c6d4-6f68-4e85-94a6-e6c4864f627a"},"vehicle_type_id":"4","last_reported":1727255371,"current_range_meters":38400,"station_id":"ce4bgi92rcd13ifvqb90","pricing_plan_id":"cebpf4jnsgd1na2vs0mg"},{"bike_id":"686f3f5a-4531-4b98-82bf-73e4d6bd9ce1","system_id":"levelo_inurba_marseille","lat":43.29909,"lon":5.38121,"is_reserved":false,"is_disabled":false,"rental_uris":{"android":"levelo://app?vid=686f3f5a-4531-4b98-82bf-73e4d6bd9ce1","ios":"levelo://app?vid=686f3f5a-4531-4b98-82bf-73e4d6bd9ce1"},"vehicle_type_id":"4","last_reported":1727255371,"current_range_meters":28000,"station_id":"ce4bgj12rcd13ifvqbc0","pricing_plan_id":"cebpf4jnsgd1na2vs0mg"},{"bike_id":"6109ada7-505d-440e-a420-8d4d66c41f19","system_id":"levelo_inurba_marseille","lat":43.27438,"lon":5.42467,"is_reserved":false,"is_disabled":false,"rental_uris":{"android":"levelo://app?vid=6109ada7-505d-440e-a420-8d4d66c41f19","ios":"levelo://app?vid=6109ada7-505d-440e-a420-8d4d66c41f19"},"vehicle_type_id":"4","last_reported":1727255371,"current_range_meters":25200,"station_id":"","pricing_plan_id":"cebpf4jnsgd1na2vs0mg"},{"bike_id":"78210d11-c01e-442d-8234-47dc5ac0d4b7","system_id":"levelo_inurba_marseille","lat":43.28999,"lon":5.38155,"is_reserved":false,"is_disabled":false,"rental_uris":{"android":"levelo://app?vid=78210d11-c01e-442d-8234-47dc5ac0d4b7","ios":"levelo://app?vid=78210d11-c01e-442d-8234-47dc5ac0d4b7"},"vehicle_type_id":"4","last_reported":1727255371,"current_range_meters":25600,"station_id":"ce4bh4p2rcd13ifvqe1g","pricing_plan_id":"cebpf4jnsgd1na2vs0mg"},{"bike_id":"c84bec2f-3d45-490d-9e77-f03ed32b27f9","system_id":"levelo_inurba_marseille","lat":43.28856,"lon":5.39312,"is_reserved":false,"is_disabled":false,"rental_uris":{"android":"levelo://app?vid=c84bec2f-3d45-490d-9e77-f03ed32b27f9","ios":"levelo://app?vid=c84bec2f-3d45-490d-9e77-f03ed32b27f9"},"vehicle_type_id":"4","last_reported":1727255371,"current_range_meters":38000,"station_id":"ce4bh2p2rcd13ifvqdi0","pricing_plan_id":"cebpf4jnsgd1na2vs0mg"},{"bike_id":"f7a338af-1395-4aab-9a8f-5f637cc6b9d3","system_id":"levelo_inurba_marseille","lat":43.30899,"lon":5.3686,"is_reserved":false,"is_disabled":false,"rental_uris":{"android":"levelo://app?vid=f7a338af-1395-4aab-9a8f-5f637cc6b9d3","ios":"levelo://app?vid=f7a338af-1395-4aab-9a8f-5f637cc6b9d3"},"vehicle_type_id":"4","last_reported":1727255371,"current_range_meters":22400,"station_id":"ce4bgn92rcd13ifvqbvg","pricing_plan_id":"cebpf4jnsgd1na2vs0mg"},{"bike_id":"9de15766-f6e5-4718-b239-efcc3a94df68","system_id":"levelo_inurba_marseille","lat":43.30152,"lon":5.38088,"is_reserved":false,"is_disabled":false,"rental_uris":{"android":"levelo://app?vid=9de15766-f6e5-4718-b239-efcc3a94df68","ios":"levelo://app?vid=9de15766-f6e5-4718-b239-efcc3a94df68"},"vehicle_type_id":"4","last_reported":1727255371,"current_range_meters":38800,"station_id":"ce4bgjp2rcd13ifvqbh0","pricing_plan_id":"cebpf4jnsgd1na2vs0mg"},{"bike_id":"a13a21d3-c9d7-4a90-83d9-baa8b0ca5eb2","system_id":"levelo_inurba_marseille","lat":43.2827,"lon":5.35057,"is_reserved":false,"is_disabled":false,"rental_uris":{"android":"levelo://app?vid=a13a21d3-c9d7-4a90-83d9-baa8b0ca5eb2","ios":"levelo://app?vid=a13a21d3-c9d7-4a90-83d9-baa8b0ca5eb2"},"vehicle_type_id":"4","last_reported":1727255371,"current_range_meters":30000,"station_id":"ce4bhbp2rcd13ifvqerg","pricing_plan_id":"cebpf4jnsgd1na2vs0mg"},{"bike_id":"b3b4ffea-4a69-495a-b61a-866742dfd2d7","system_id":"levelo_inurba_marseille","lat":43.337444,"lon":5.374475,"is_reserved":false,"is_disabled":false,"rental_uris":{"android":"levelo://app?vid=b3b4ffea-4a69-495a-b61a-866742dfd2d7","ios":"levelo://app?vid=b3b4ffea-4a69-495a-b61a-866742dfd2d7"},"vehicle_type_id":"4","last_reported":1727255371,"current_range_meters":36000,"station_id":"","pricing_plan_id":"cebpf4jnsgd1na2vs0mg"},{"bike_id":"25efd241-95d4-4957-9414-50676d4f1256","system_id":"levelo_inurba_marseille","lat":43.3266,"lon":5.40987,"is_reserved":false,"is_disabled":false,"rental_uris":{"android":"levelo://app?vid=25efd241-95d4-4957-9414-50676d4f1256","ios":"levelo://app?vid=25efd241-95d4-4957-9414-50676d4f1256"},"vehicle_type_id":"4","last_reported":1727255371,"current_range_meters":37600,"station_id":"ce4bhpp2rcd13ifvqhgg","pricing_plan_id":"cebpf4jnsgd1na2vs0mg"},{"bike_id":"6611bc06-9a54-4948-b754-895d54ece40f","system_id":"levelo_inurba_marseille","lat":43.27813,"lon":5.40704,"is_reserved":false,"is_disabled":false,"rental_uris":{"android":"levelo://app?vid=6611bc06-9a54-4948-b754-895d54ece40f","ios":"levelo://app?vid=6611bc06-9a54-4948-b754-895d54ece40f"},"vehicle_type_id":"4","last_reported":1727255371,"current_range_meters":26800,"station_id":"ce4bhnh2rcd13ifvqgtg","pricing_plan_id":"cebpf4jnsgd1na2vs0mg"},{"bike_id":"82570b0d-38e2-4ab9-ba53-e02f5e0e5fc4","system_id":"levelo_inurba_marseille","lat":43.29165,"lon":5.37154,"is_reserved":false,"is_disabled":false,"rental_uris":{"android":"levelo://app?vid=82570b0d-38e2-4ab9-ba53-e02f5e0e5fc4","ios":"levelo://app?vid=82570b0d-38e2-4ab9-ba53-e02f5e0e5fc4"},"vehicle_type_id":"4","last_reported":1727255371,"current_range_meters":28000,"station_id":"ce4bha92rcd13ifvqeh0","pricing_plan_id":"cebpf4jnsgd1na2vs0mg"},{"bike_id":"dec73f4f-b681-4818-a068-daca63f0a22d","system_id":"levelo_inurba_marseille","lat":43.22932,"lon":5.35378,"is_reserved":false,"is_disabled":false,"rental_uris":{"android":"levelo://app?vid=dec73f4f-b681-4818-a068-daca63f0a22d","ios":"levelo://app?vid=dec73f4f-b681-4818-a068-daca63f0a22d"},"vehicle_type_id":"4","last_reported":1727255371,"current_range_meters":38400,"station_id":"cpo3532slgdg3j2ikp40","pricing_plan_id":"cebpf4jnsgd1na2vs0mg"},{"bike_id":"99ed4ece-98c1-4abe-a8d6-039d61e8a41f","system_id":"levelo_inurba_marseille","lat":43.29007,"lon":5.35612,"is_reserved":false,"is_disabled":false,"rental_uris":{"android":"levelo://app?vid=99ed4ece-98c1-4abe-a8d6-039d61e8a41f","ios":"levelo://app?vid=99ed4ece-98c1-4abe-a8d6-039d61e8a41f"},"vehicle_type_id":"4","last_reported":1727255371,"current_range_meters":22800,"station_id":"ce4bhb92rcd13ifvqen0","pricing_plan_id":"cebpf4jnsgd1na2vs0mg"},{"bike_id":"9926f8d4-52ff-41d7-995b-39e4b6d4cdc0","system_id":"levelo_inurba_marseille","lat":43.32478,"lon":5.36561,"is_reserved":false,"is_disabled":false,"rental_uris":{"android":"levelo://app?vid=9926f8d4-52ff-41d7-995b-39e4b6d4cdc0","ios":"levelo://app?vid=9926f8d4-52ff-41d7-995b-39e4b6d4cdc0"},"vehicle_type_id":"4","last_reported":1727255371,"current_range_meters":38800,"station_id":"ce4bhs12rcd13ifvqhvg","pricing_plan_id":"cebpf4jnsgd1na2vs0mg"},{"bike_id":"536e685d-df41-410b-b093-c837a42151c3","system_id":"levelo_inurba_marseille","lat":43.26939,"lon":5.38907,"is_reserved":false,"is_disabled":false,"rental_uris":{"android":"levelo://app?vid=536e685d-df41-410b-b093-c837a42151c3","ios":"levelo://app?vid=536e685d-df41-410b-b093-c837a42151c3"},"vehicle_type_id":"4","last_reported":1727255371,"current_range_meters":38800,"station_id":"ce4bhhh2rcd13ifvqfl0","pricing_plan_id":"cebpf4jnsgd1na2vs0mg"},{"bike_id":"08248fef-1a11-4ca6-9a29-f4bae5d2a2d2","system_id":"levelo_inurba_marseille","lat":43.24083,"lon":5.37748,"is_reserved":false,"is_disabled":false,"rental_uris":{"android":"levelo://app?vid=08248fef-1a11-4ca6-9a29-f4bae5d2a2d2","ios":"levelo://app?vid=08248fef-1a11-4ca6-9a29-f4bae5d2a2d2"},"vehicle_type_id":"4","last_reported":1727255371,"current_range_meters":22000,"station_id":"ce4bhnp2rcd13ifvqgvg","pricing_plan_id":"cebpf4jnsgd1na2vs0mg"},{"bike_id":"bb12d251-5d23-49a2-a2a5-87d7ed7ece91","system_id":"levelo_inurba_marseille","lat":43.31365,"lon":5.36688,"is_reserved":false,"is_disabled":false,"rental_uris":{"android":"levelo://app?vid=bb12d251-5d23-49a2-a2a5-87d7ed7ece91","ios":"levelo://app?vid=bb12d251-5d23-49a2-a2a5-87d7ed7ece91"},"vehicle_type_id":"4","last_reported":1727255371,"current_range_meters":37600,"station_id":"ce4bgr92rcd13ifvqc6g","pricing_plan_id":"cebpf4jnsgd1na2vs0mg"},{"bike_id":"6ebd79af-e7b7-4220-b00f-b9299c7bd04f","system_id":"levelo_inurba_marseille","lat":43.2748,"lon":5.42447,"is_reserved":false,"is_disabled":false,"rental_uris":{"android":"levelo://app?vid=6ebd79af-e7b7-4220-b00f-b9299c7bd04f","ios":"levelo://app?vid=6ebd79af-e7b7-4220-b00f-b9299c7bd04f"},"vehicle_type_id":"4","last_reported":1727255371,"current_range_meters":28800,"station_id":"ce4bhn92rcd13ifvqgrg","pricing_plan_id":"cebpf4jnsgd1na2vs0mg"},{"bike_id":"ace5fd0f-acec-4ab5-b75b-8aa836650221","system_id":"levelo_inurba_marseille","lat":43.24072,"lon":5.37764,"is_reserved":false,"is_disabled":false,"rental_uris":{"android":"levelo://app?vid=ace5fd0f-acec-4ab5-b75b-8aa836650221","ios":"levelo://app?vid=ace5fd0f-acec-4ab5-b75b-8aa836650221"},"vehicle_type_id":"4","last_reported":1727255371,"current_range_meters":34000,"station_id":"ce4bhnp2rcd13ifvqgvg","pricing_plan_id":"cebpf4jnsgd1na2vs0mg"},{"bike_id":"ebfa86a6-372a-4e98-85d2-1033056d6204","system_id":"levelo_inurba_marseille","lat":43.298971,"lon":5.397279,"is_reserved":false,"is_disabled":false,"rental_uris":{"android":"levelo://app?vid=ebfa86a6-372a-4e98-85d2-1033056d6204","ios":"levelo://app?vid=ebfa86a6-372a-4e98-85d2-1033056d6204"},"vehicle_type_id":"4","last_reported":1727255371,"current_range_meters":35600,"station_id":"ce4bgkp2rcd13ifvqbmg","pricing_plan_id":"cebpf4jnsgd1na2vs0mg"},{"bike_id":"99e06d87-d3df-4f63-90c2-43203f2ce4d4","system_id":"levelo_inurba_marseille","lat":43.30473,"lon":5.37902,"is_reserved":false,"is_disabled":false,"rental_uris":{"android":"levelo://app?vid=99e06d87-d3df-4f63-90c2-43203f2ce4d4","ios":"levelo://app?vid=99e06d87-d3df-4f63-90c2-43203f2ce4d4"},"vehicle_type_id":"4","last_reported":1727255371,"current_range_meters":38800,"station_id":"ce4bgup2rcd13ifvqcn0","pricing_plan_id":"cebpf4jnsgd1na2vs0mg"},{"bike_id":"5c0ef0bb-1f14-4b1f-aa7a-a036b47c8917","system_id":"levelo_inurba_marseille","lat":43.30151,"lon":5.38084,"is_reserved":false,"is_disabled":false,"rental_uris":{"android":"levelo://app?vid=5c0ef0bb-1f14-4b1f-aa7a-a036b47c8917","ios":"levelo://app?vid=5c0ef0bb-1f14-4b1f-aa7a-a036b47c8917"},"vehicle_type_id":"4","last_reported":1727255371,"current_range_meters":20400,"station_id":"ce4bgjp2rcd13ifvqbh0","pricing_plan_id":"cebpf4jnsgd1na2vs0mg"},{"bike_id":"cb63d342-63b2-41e3-8455-4366ca08c9e6","system_id":"levelo_inurba_marseille","lat":43.31371,"lon":5.3668,"is_reserved":false,"is_disabled":false,"rental_uris":{"android":"levelo://app?vid=cb63d342-63b2-41e3-8455-4366ca08c9e6","ios":"levelo://app?vid=cb63d342-63b2-41e3-8455-4366ca08c9e6"},"vehicle_type_id":"4","last_reported":1727255371,"current_range_meters":33200,"station_id":"ce4bgr92rcd13ifvqc6g","pricing_plan_id":"cebpf4jnsgd1na2vs0mg"},{"bike_id":"46fa38ec-b4b2-4d33-aeab-fdf60dc4a5d6","system_id":"levelo_inurba_marseille","lat":43.30555,"lon":5.36533,"is_reserved":false,"is_disabled":false,"rental_uris":{"android":"levelo://app?vid=46fa38ec-b4b2-4d33-aeab-fdf60dc4a5d6","ios":"levelo://app?vid=46fa38ec-b4b2-4d33-aeab-fdf60dc4a5d6"},"vehicle_type_id":"4","last_reported":1727255371,"current_range_meters":29600,"station_id":"ce4bgs12rcd13ifvqcag","pricing_plan_id":"cebpf4jnsgd1na2vs0mg"},{"bike_id":"d4cf6aea-8938-4748-896d-adca184b256f","system_id":"levelo_inurba_marseille","lat":43.30475,"lon":5.37904,"is_reserved":false,"is_disabled":false,"rental_uris":{"android":"levelo://app?vid=d4cf6aea-8938-4748-896d-adca184b256f","ios":"levelo://app?vid=d4cf6aea-8938-4748-896d-adca184b256f"},"vehicle_type_id":"4","last_reported":1727255371,"current_range_meters":40000,"station_id":"ce4bgup2rcd13ifvqcn0","pricing_plan_id":"cebpf4jnsgd1na2vs0mg"},{"bike_id":"04340adf-7290-4890-bf41-35f285f29503","system_id":"levelo_inurba_marseille","lat":43.303436,"lon":5.393221,"is_reserved":false,"is_disabled":false,"rental_uris":{"android":"levelo://app?vid=04340adf-7290-4890-bf41-35f285f29503","ios":"levelo://app?vid=04340adf-7290-4890-bf41-35f285f29503"},"vehicle_type_id":"4","last_reported":1727255371,"current_range_meters":28800,"station_id":"ce4bh392rcd13ifvqdl0","pricing_plan_id":"cebpf4jnsgd1na2vs0mg"},{"bike_id":"7737b815-6daf-41f0-8354-4b28ba75917f","system_id":"levelo_inurba_marseille","lat":43.30191,"lon":5.39835,"is_reserved":false,"is_disabled":false,"rental_uris":{"android":"levelo://app?vid=7737b815-6daf-41f0-8354-4b28ba75917f","ios":"levelo://app?vid=7737b815-6daf-41f0-8354-4b28ba75917f"},"vehicle_type_id":"4","last_reported":1727255371,"current_range_meters":18000,"station_id":"ce4bgvp2rcd13ifvqct0","pricing_plan_id":"cebpf4jnsgd1na2vs0mg"},{"bike_id":"99507cd4-d3a1-4c51-9118-722753207de7","system_id":"levelo_inurba_marseille","lat":43.27069,"lon":5.42279,"is_reserved":false,"is_disabled":false,"rental_uris":{"android":"levelo://app?vid=99507cd4-d3a1-4c51-9118-722753207de7","ios":"levelo://app?vid=99507cd4-d3a1-4c51-9118-722753207de7"},"vehicle_type_id":"4","last_reported":1727255371,"current_range_meters":16400,"station_id":"ce4bhk92rcd13ifvqgb0","pricing_plan_id":"cebpf4jnsgd1na2vs0mg"},{"bike_id":"b8d0ef95-6f66-4b45-a83c-7092471dbcda","system_id":"levelo_inurba_marseille","lat":43.26686,"lon":5.38271,"is_reserved":false,"is_disabled":false,"rental_uris":{"android":"levelo://app?vid=b8d0ef95-6f66-4b45-a83c-7092471dbcda","ios":"levelo://app?vid=b8d0ef95-6f66-4b45-a83c-7092471dbcda"},"vehicle_type_id":"4","last_reported":1727255371,"current_range_meters":25200,"station_id":"ce4bhg92rcd13ifvqf90","pricing_plan_id":"cebpf4jnsgd1na2vs0mg"},{"bike_id":"949865b6-0f61-41c8-a9b8-4b7d8bcb89af","system_id":"levelo_inurba_marseille","lat":43.29838,"lon":5.36261,"is_reserved":false,"is_disabled":false,"rental_uris":{"android":"levelo://app?vid=949865b6-0f61-41c8-a9b8-4b7d8bcb89af","ios":"levelo://app?vid=949865b6-0f61-41c8-a9b8-4b7d8bcb89af"},"vehicle_type_id":"4","last_reported":1727255371,"current_range_meters":26000,"station_id":"ce4bgpp2rcd13ifvqc3g","pricing_plan_id":"cebpf4jnsgd1na2vs0mg"},{"bike_id":"8168f18d-8840-4fb9-a2cb-47646a2ab224","system_id":"levelo_inurba_marseille","lat":43.33738,"lon":5.37469,"is_reserved":false,"is_disabled":false,"rental_uris":{"android":"levelo://app?vid=8168f18d-8840-4fb9-a2cb-47646a2ab224","ios":"levelo://app?vid=8168f18d-8840-4fb9-a2cb-47646a2ab224"},"vehicle_type_id":"4","last_reported":1727255371,"current_range_meters":36800,"station_id":"","pricing_plan_id":"cebpf4jnsgd1na2vs0mg"},{"bike_id":"506ffd4e-10e3-4a2c-b443-e028f2f8fed6","system_id":"levelo_inurba_marseille","lat":43.26033,"lon":5.37548,"is_reserved":false,"is_disabled":false,"rental_uris":{"android":"levelo://app?vid=506ffd4e-10e3-4a2c-b443-e028f2f8fed6","ios":"levelo://app?vid=506ffd4e-10e3-4a2c-b443-e028f2f8fed6"},"vehicle_type_id":"4","last_reported":1727255371,"current_range_meters":38000,"station_id":"ce4bhgh2rcd13ifvqfa0","pricing_plan_id":"cebpf4jnsgd1na2vs0mg"},{"bike_id":"3b195df4-d71b-45c6-b4ee-0701cb9345da","system_id":"levelo_inurba_marseille","lat":43.30142,"lon":5.37421,"is_reserved":false,"is_disabled":false,"rental_uris":{"android":"levelo://app?vid=3b195df4-d71b-45c6-b4ee-0701cb9345da","ios":"levelo://app?vid=3b195df4-d71b-45c6-b4ee-0701cb9345da"},"vehicle_type_id":"4","last_reported":1727255371,"current_range_meters":27200,"station_id":"ce4bgs92rcd13ifvqcc0","pricing_plan_id":"cebpf4jnsgd1na2vs0mg"},{"bike_id":"f57f9a2b-463a-495e-b929-b7d110fc5488","system_id":"levelo_inurba_marseille","lat":43.2984,"lon":5.36265,"is_reserved":false,"is_disabled":false,"rental_uris":{"android":"levelo://app?vid=f57f9a2b-463a-495e-b929-b7d110fc5488","ios":"levelo://app?vid=f57f9a2b-463a-495e-b929-b7d110fc5488"},"vehicle_type_id":"4","last_reported":1727255371,"current_range_meters":12400,"station_id":"ce4bgpp2rcd13ifvqc3g","pricing_plan_id":"cebpf4jnsgd1na2vs0mg"},{"bike_id":"9e8a6286-2aa6-4c4f-837d-ef22b57ca874","system_id":"levelo_inurba_marseille","lat":43.24079,"lon":5.37746,"is_reserved":false,"is_disabled":false,"rental_uris":{"android":"levelo://app?vid=9e8a6286-2aa6-4c4f-837d-ef22b57ca874","ios":"levelo://app?vid=9e8a6286-2aa6-4c4f-837d-ef22b57ca874"},"vehicle_type_id":"4","last_reported":1727255371,"current_range_meters":23200,"station_id":"ce4bhnp2rcd13ifvqgvg","pricing_plan_id":"cebpf4jnsgd1na2vs0mg"},{"bike_id":"ab2acc54-6d78-4c46-b9fd-3d516ff6d860","system_id":"levelo_inurba_marseille","lat":43.24077,"lon":5.37759,"is_reserved":false,"is_disabled":false,"rental_uris":{"android":"levelo://app?vid=ab2acc54-6d78-4c46-b9fd-3d516ff6d860","ios":"levelo://app?vid=ab2acc54-6d78-4c46-b9fd-3d516ff6d860"},"vehicle_type_id":"4","last_reported":1727255371,"current_range_meters":25600,"station_id":"ce4bhnp2rcd13ifvqgvg","pricing_plan_id":"cebpf4jnsgd1na2vs0mg"},{"bike_id":"86b6dccf-ea7c-412a-a291-bf2084731947","system_id":"levelo_inurba_marseille","lat":43.27366,"lon":5.36252,"is_reserved":false,"is_disabled":false,"rental_uris":{"android":"levelo://app?vid=86b6dccf-ea7c-412a-a291-bf2084731947","ios":"levelo://app?vid=86b6dccf-ea7c-412a-a291-bf2084731947"},"vehicle_type_id":"4","last_reported":1727255371,"current_range_meters":37600,"station_id":"ce4bhbh2rcd13ifvqeo0","pricing_plan_id":"cebpf4jnsgd1na2vs0mg"},{"bike_id":"f8c704cc-636c-4268-80af-5309e4b09904","system_id":"levelo_inurba_marseille","lat":43.2419,"lon":5.39721,"is_reserved":false,"is_disabled":false,"rental_uris":{"android":"levelo://app?vid=f8c704cc-636c-4268-80af-5309e4b09904","ios":"levelo://app?vid=f8c704cc-636c-4268-80af-5309e4b09904"},"vehicle_type_id":"4","last_reported":1727255371,"current_range_meters":33600,"station_id":"ce4bhn12rcd13ifvqgpg","pricing_plan_id":"cebpf4jnsgd1na2vs0mg"},{"bike_id":"8db4eeae-90dc-450b-8149-34b6ce69b1f8","system_id":"levelo_inurba_marseille","lat":43.2319,"lon":5.39982,"is_reserved":false,"is_disabled":false,"rental_uris":{"android":"levelo://app?vid=8db4eeae-90dc-450b-8149-34b6ce69b1f8","ios":"levelo://app?vid=8db4eeae-90dc-450b-8149-34b6ce69b1f8"},"vehicle_type_id":"4","last_reported":1727255371,"current_range_meters":27600,"station_id":"ce4bhn12rcd13ifvqgqg","pricing_plan_id":"cebpf4jnsgd1na2vs0mg"},{"bike_id":"8868b073-6d41-41a6-8f4c-e99c4a0515a9","system_id":"levelo_inurba_marseille","lat":43.30471,"lon":5.3791,"is_reserved":false,"is_disabled":false,"rental_uris":{"android":"levelo://app?vid=8868b073-6d41-41a6-8f4c-e99c4a0515a9","ios":"levelo://app?vid=8868b073-6d41-41a6-8f4c-e99c4a0515a9"},"vehicle_type_id":"4","last_reported":1727255371,"current_range_meters":36400,"station_id":"ce4bgup2rcd13ifvqcn0","pricing_plan_id":"cebpf4jnsgd1na2vs0mg"},{"bike_id":"fd1a658a-a167-4caf-91df-306285a9204d","system_id":"levelo_inurba_marseille","lat":43.27374,"lon":5.36257,"is_reserved":false,"is_disabled":false,"rental_uris":{"android":"levelo://app?vid=fd1a658a-a167-4caf-91df-306285a9204d","ios":"levelo://app?vid=fd1a658a-a167-4caf-91df-306285a9204d"},"vehicle_type_id":"4","last_reported":1727255371,"current_range_meters":34000,"station_id":"ce4bhbh2rcd13ifvqeo0","pricing_plan_id":"cebpf4jnsgd1na2vs0mg"},{"bike_id":"7a8458d5-44ac-4f2e-abef-3f01eb31f7ca","system_id":"levelo_inurba_marseille","lat":43.337444,"lon":5.374475,"is_reserved":false,"is_disabled":false,"rental_uris":{"android":"levelo://app?vid=7a8458d5-44ac-4f2e-abef-3f01eb31f7ca","ios":"levelo://app?vid=7a8458d5-44ac-4f2e-abef-3f01eb31f7ca"},"vehicle_type_id":"4","last_reported":1727255371,"current_range_meters":26000,"station_id":"","pricing_plan_id":"cebpf4jnsgd1na2vs0mg"},{"bike_id":"a5bed6c7-0181-4d5a-bf16-c9aae083ea7a","system_id":"levelo_inurba_marseille","lat":43.27485,"lon":5.42454,"is_reserved":false,"is_disabled":false,"rental_uris":{"android":"levelo://app?vid=a5bed6c7-0181-4d5a-bf16-c9aae083ea7a","ios":"levelo://app?vid=a5bed6c7-0181-4d5a-bf16-c9aae083ea7a"},"vehicle_type_id":"4","last_reported":1727255371,"current_range_meters":27600,"station_id":"ce4bhn92rcd13ifvqgrg","pricing_plan_id":"cebpf4jnsgd1na2vs0mg"},{"bike_id":"0b1e4c37-3578-47d3-9fbc-3d280b331de0","system_id":"levelo_inurba_marseille","lat":43.33736,"lon":5.37443,"is_reserved":false,"is_disabled":false,"rental_uris":{"android":"levelo://app?vid=0b1e4c37-3578-47d3-9fbc-3d280b331de0","ios":"levelo://app?vid=0b1e4c37-3578-47d3-9fbc-3d280b331de0"},"vehicle_type_id":"4","last_reported":1727255371,"current_range_meters":10800,"station_id":"","pricing_plan_id":"cebpf4jnsgd1na2vs0mg"},{"bike_id":"15300eb9-9609-4833-bf7c-718f7db799de","system_id":"levelo_inurba_marseille","lat":43.25942,"lon":5.40904,"is_reserved":false,"is_disabled":false,"rental_uris":{"android":"levelo://app?vid=15300eb9-9609-4833-bf7c-718f7db799de","ios":"levelo://app?vid=15300eb9-9609-4833-bf7c-718f7db799de"},"vehicle_type_id":"4","last_reported":1727255371,"current_range_meters":22800,"station_id":"ce4bhm92rcd13ifvqglg","pricing_plan_id":"cebpf4jnsgd1na2vs0mg"},{"bike_id":"68b6f0c4-dee8-48fe-b463-b00692c3562a","system_id":"levelo_inurba_marseille","lat":43.30546,"lon":5.36698,"is_reserved":false,"is_disabled":false,"rental_uris":{"android":"levelo://app?vid=68b6f0c4-dee8-48fe-b463-b00692c3562a","ios":"levelo://app?vid=68b6f0c4-dee8-48fe-b463-b00692c3562a"},"vehicle_type_id":"4","last_reported":1727255371,"current_range_meters":18800,"station_id":"ce4bgrp2rcd13ifvqc9g","pricing_plan_id":"cebpf4jnsgd1na2vs0mg"},{"bike_id":"79426253-97d3-4469-87d5-d4debe947c03","system_id":"levelo_inurba_marseille","lat":43.24083,"lon":5.37756,"is_reserved":false,"is_disabled":false,"rental_uris":{"android":"levelo://app?vid=79426253-97d3-4469-87d5-d4debe947c03","ios":"levelo://app?vid=79426253-97d3-4469-87d5-d4debe947c03"},"vehicle_type_id":"4","last_reported":1727255371,"current_range_meters":28800,"station_id":"ce4bhnp2rcd13ifvqgvg","pricing_plan_id":"cebpf4jnsgd1na2vs0mg"},{"bike_id":"c9caa42e-e8a7-4b6e-b172-795704959513","system_id":"levelo_inurba_marseille","lat":43.30906,"lon":5.36862,"is_reserved":false,"is_disabled":false,"rental_uris":{"android":"levelo://app?vid=c9caa42e-e8a7-4b6e-b172-795704959513","ios":"levelo://app?vid=c9caa42e-e8a7-4b6e-b172-795704959513"},"vehicle_type_id":"4","last_reported":1727255371,"current_range_meters":32400,"station_id":"ce4bgn92rcd13ifvqbvg","pricing_plan_id":"cebpf4jnsgd1na2vs0mg"},{"bike_id":"560ec151-6932-49c2-96c9-d829b4dcbf21","system_id":"levelo_inurba_marseille","lat":43.29306,"lon":5.37457,"is_reserved":false,"is_disabled":false,"rental_uris":{"android":"levelo://app?vid=560ec151-6932-49c2-96c9-d829b4dcbf21","ios":"levelo://app?vid=560ec151-6932-49c2-96c9-d829b4dcbf21"},"vehicle_type_id":"4","last_reported":1727255371,"current_range_meters":17200,"station_id":"ce4bgi12rcd13ifvqb70","pricing_plan_id":"cebpf4jnsgd1na2vs0mg"},{"bike_id":"e226fa75-354b-45fa-a0c9-9a730e04d4ea","system_id":"levelo_inurba_marseille","lat":43.31227,"lon":5.36881,"is_reserved":false,"is_disabled":false,"rental_uris":{"android":"levelo://app?vid=e226fa75-354b-45fa-a0c9-9a730e04d4ea","ios":"levelo://app?vid=e226fa75-354b-45fa-a0c9-9a730e04d4ea"},"vehicle_type_id":"4","last_reported":1727255371,"current_range_meters":24000,"station_id":"ce4bgl92rcd13ifvqbq0","pricing_plan_id":"cebpf4jnsgd1na2vs0mg"},{"bike_id":"d32afec2-3e03-4df6-9495-d6ecc4c3ce3d","system_id":"levelo_inurba_marseille","lat":43.3123,"lon":5.36889,"is_reserved":false,"is_disabled":false,"rental_uris":{"android":"levelo://app?vid=d32afec2-3e03-4df6-9495-d6ecc4c3ce3d","ios":"levelo://app?vid=d32afec2-3e03-4df6-9495-d6ecc4c3ce3d"},"vehicle_type_id":"4","last_reported":1727255371,"current_range_meters":24800,"station_id":"ce4bgl92rcd13ifvqbq0","pricing_plan_id":"cebpf4jnsgd1na2vs0mg"},{"bike_id":"70470e99-2675-483a-92dc-a8f8b59fab53","system_id":"levelo_inurba_marseille","lat":43.25494,"lon":5.3765,"is_reserved":false,"is_disabled":false,"rental_uris":{"android":"levelo://app?vid=70470e99-2675-483a-92dc-a8f8b59fab53","ios":"levelo://app?vid=70470e99-2675-483a-92dc-a8f8b59fab53"},"vehicle_type_id":"4","last_reported":1727255371,"current_range_meters":14000,"station_id":"ce4bhh12rcd13ifvqff0","pricing_plan_id":"cebpf4jnsgd1na2vs0mg"},{"bike_id":"aaeab72b-7037-400b-879a-8932802bf5a3","system_id":"levelo_inurba_marseille","lat":43.2837,"lon":5.38635,"is_reserved":false,"is_disabled":false,"rental_uris":{"android":"levelo://app?vid=aaeab72b-7037-400b-879a-8932802bf5a3","ios":"levelo://app?vid=aaeab72b-7037-400b-879a-8932802bf5a3"},"vehicle_type_id":"4","last_reported":1727255371,"current_range_meters":35600,"station_id":"ce4bh492rcd13ifvqdvg","pricing_plan_id":"cebpf4jnsgd1na2vs0mg"},{"bike_id":"cefb6643-fc89-4b04-b95f-6cff2759399c","system_id":"levelo_inurba_marseille","lat":43.32286,"lon":5.38283,"is_reserved":false,"is_disabled":false,"rental_uris":{"android":"levelo://app?vid=cefb6643-fc89-4b04-b95f-6cff2759399c","ios":"levelo://app?vid=cefb6643-fc89-4b04-b95f-6cff2759399c"},"vehicle_type_id":"4","last_reported":1727255371,"current_range_meters":40000,"station_id":"ce4bhr12rcd13ifvqhqg","pricing_plan_id":"cebpf4jnsgd1na2vs0mg"},{"bike_id":"88cf1e9e-bae5-4242-b0c9-d6f998116d6a","system_id":"levelo_inurba_marseille","lat":43.3056,"lon":5.36536,"is_reserved":false,"is_disabled":false,"rental_uris":{"android":"levelo://app?vid=88cf1e9e-bae5-4242-b0c9-d6f998116d6a","ios":"levelo://app?vid=88cf1e9e-bae5-4242-b0c9-d6f998116d6a"},"vehicle_type_id":"4","last_reported":1727255371,"current_range_meters":28000,"station_id":"ce4bgs12rcd13ifvqcag","pricing_plan_id":"cebpf4jnsgd1na2vs0mg"},{"bike_id":"6795e26b-2184-4694-9560-3fd53f2ced85","system_id":"levelo_inurba_marseille","lat":43.29066,"lon":5.37169,"is_reserved":false,"is_disabled":false,"rental_uris":{"android":"levelo://app?vid=6795e26b-2184-4694-9560-3fd53f2ced85","ios":"levelo://app?vid=6795e26b-2184-4694-9560-3fd53f2ced85"},"vehicle_type_id":"4","last_reported":1727255371,"current_range_meters":39200,"station_id":"ce4bh5p2rcd13ifvqe4g","pricing_plan_id":"cebpf4jnsgd1na2vs0mg"},{"bike_id":"b1951137-0319-4711-ab68-245e2b6b93d3","system_id":"levelo_inurba_marseille","lat":43.31359,"lon":5.36699,"is_reserved":false,"is_disabled":false,"rental_uris":{"android":"levelo://app?vid=b1951137-0319-4711-ab68-245e2b6b93d3","ios":"levelo://app?vid=b1951137-0319-4711-ab68-245e2b6b93d3"},"vehicle_type_id":"4","last_reported":1727255371,"current_range_meters":34800,"station_id":"ce4bgr92rcd13ifvqc6g","pricing_plan_id":"cebpf4jnsgd1na2vs0mg"},{"bike_id":"c616d233-ea67-4895-8880-51b610224d27","system_id":"levelo_inurba_marseille","lat":43.30541,"lon":5.36548,"is_reserved":false,"is_disabled":false,"rental_uris":{"android":"levelo://app?vid=c616d233-ea67-4895-8880-51b610224d27","ios":"levelo://app?vid=c616d233-ea67-4895-8880-51b610224d27"},"vehicle_type_id":"4","last_reported":1727255371,"current_range_meters":16400,"station_id":"ce4bgs12rcd13ifvqcag","pricing_plan_id":"cebpf4jnsgd1na2vs0mg"},{"bike_id":"25c2da3d-9bb6-48b8-8579-2ff6744c67cb","system_id":"levelo_inurba_marseille","lat":43.23153,"lon":5.43711,"is_reserved":false,"is_disabled":false,"rental_uris":{"android":"levelo://app?vid=25c2da3d-9bb6-48b8-8579-2ff6744c67cb","ios":"levelo://app?vid=25c2da3d-9bb6-48b8-8579-2ff6744c67cb"},"vehicle_type_id":"4","last_reported":1727255371,"current_range_meters":37600,"station_id":"ce4bhmp2rcd13ifvqgog","pricing_plan_id":"cebpf4jnsgd1na2vs0mg"},{"bike_id":"908d9174-fcfd-458b-b0f0-554f56187ce8","system_id":"levelo_inurba_marseille","lat":43.2465,"lon":5.38893,"is_reserved":false,"is_disabled":false,"rental_uris":{"android":"levelo://app?vid=908d9174-fcfd-458b-b0f0-554f56187ce8","ios":"levelo://app?vid=908d9174-fcfd-458b-b0f0-554f56187ce8"},"vehicle_type_id":"4","last_reported":1727255371,"current_range_meters":22800,"station_id":"ce4bhg12rcd13ifvqf60","pricing_plan_id":"cebpf4jnsgd1na2vs0mg"},{"bike_id":"a58d77f3-76c4-4456-9500-a6a202aa3e6f","system_id":"levelo_inurba_marseille","lat":43.30548,"lon":5.367,"is_reserved":false,"is_disabled":false,"rental_uris":{"android":"levelo://app?vid=a58d77f3-76c4-4456-9500-a6a202aa3e6f","ios":"levelo://app?vid=a58d77f3-76c4-4456-9500-a6a202aa3e6f"},"vehicle_type_id":"4","last_reported":1727255371,"current_range_meters":33600,"station_id":"ce4bgrp2rcd13ifvqc9g","pricing_plan_id":"cebpf4jnsgd1na2vs0mg"},{"bike_id":"79a05bb1-ccec-47f0-8ebd-1f95854549f8","system_id":"levelo_inurba_marseille","lat":43.31285,"lon":5.38042,"is_reserved":false,"is_disabled":false,"rental_uris":{"android":"levelo://app?vid=79a05bb1-ccec-47f0-8ebd-1f95854549f8","ios":"levelo://app?vid=79a05bb1-ccec-47f0-8ebd-1f95854549f8"},"vehicle_type_id":"4","last_reported":1727255371,"current_range_meters":11600,"station_id":"","pricing_plan_id":"cebpf4jnsgd1na2vs0mg"},{"bike_id":"82a46f4c-338e-4f2c-bb15-b73bebda5189","system_id":"levelo_inurba_marseille","lat":43.23157,"lon":5.43713,"is_reserved":false,"is_disabled":false,"rental_uris":{"android":"levelo://app?vid=82a46f4c-338e-4f2c-bb15-b73bebda5189","ios":"levelo://app?vid=82a46f4c-338e-4f2c-bb15-b73bebda5189"},"vehicle_type_id":"4","last_reported":1727255371,"current_range_meters":38000,"station_id":"ce4bhmp2rcd13ifvqgog","pricing_plan_id":"cebpf4jnsgd1na2vs0mg"},{"bike_id":"4f0b0dd6-2760-4934-a23b-dde8a6332274","system_id":"levelo_inurba_marseille","lat":43.28677,"lon":5.38662,"is_reserved":false,"is_disabled":false,"rental_uris":{"android":"levelo://app?vid=4f0b0dd6-2760-4934-a23b-dde8a6332274","ios":"levelo://app?vid=4f0b0dd6-2760-4934-a23b-dde8a6332274"},"vehicle_type_id":"4","last_reported":1727255371,"current_range_meters":10000,"station_id":"ce4bh492rcd13ifvqdug","pricing_plan_id":"cebpf4jnsgd1na2vs0mg"},{"bike_id":"5595e973-f307-4ba4-ad01-547f386e5565","system_id":"levelo_inurba_marseille","lat":43.29099,"lon":5.38138,"is_reserved":false,"is_disabled":false,"rental_uris":{"android":"levelo://app?vid=5595e973-f307-4ba4-ad01-547f386e5565","ios":"levelo://app?vid=5595e973-f307-4ba4-ad01-547f386e5565"},"vehicle_type_id":"4","last_reported":1727255371,"current_range_meters":26000,"station_id":"ce4bh512rcd13ifvqe2g","pricing_plan_id":"cebpf4jnsgd1na2vs0mg"},{"bike_id":"dcd3b0dc-4092-4c72-9ee6-e4db25c4ab3a","system_id":"levelo_inurba_marseille","lat":43.30463,"lon":5.37896,"is_reserved":false,"is_disabled":false,"rental_uris":{"android":"levelo://app?vid=dcd3b0dc-4092-4c72-9ee6-e4db25c4ab3a","ios":"levelo://app?vid=dcd3b0dc-4092-4c72-9ee6-e4db25c4ab3a"},"vehicle_type_id":"4","last_reported":1727255371,"current_range_meters":36000,"station_id":"ce4bgup2rcd13ifvqcn0","pricing_plan_id":"cebpf4jnsgd1na2vs0mg"},{"bike_id":"cd7f2ac3-c5c8-417d-8aee-0c7cd42db18b","system_id":"levelo_inurba_marseille","lat":43.29006,"lon":5.35607,"is_reserved":false,"is_disabled":false,"rental_uris":{"android":"levelo://app?vid=cd7f2ac3-c5c8-417d-8aee-0c7cd42db18b","ios":"levelo://app?vid=cd7f2ac3-c5c8-417d-8aee-0c7cd42db18b"},"vehicle_type_id":"4","last_reported":1727255371,"current_range_meters":38400,"station_id":"ce4bhb92rcd13ifvqen0","pricing_plan_id":"cebpf4jnsgd1na2vs0mg"},{"bike_id":"796cb342-ddc2-46b9-af55-e1044983438d","system_id":"levelo_inurba_marseille","lat":43.30318,"lon":5.36906,"is_reserved":false,"is_disabled":false,"rental_uris":{"android":"levelo://app?vid=796cb342-ddc2-46b9-af55-e1044983438d","ios":"levelo://app?vid=796cb342-ddc2-46b9-af55-e1044983438d"},"vehicle_type_id":"4","last_reported":1727255371,"current_range_meters":33600,"station_id":"ce4bgqh2rcd13ifvqc5g","pricing_plan_id":"cebpf4jnsgd1na2vs0mg"},{"bike_id":"de6a92b9-d1bd-41c7-855f-bab2bbdacd22","system_id":"levelo_inurba_marseille","lat":43.31362,"lon":5.36704,"is_reserved":false,"is_disabled":false,"rental_uris":{"android":"levelo://app?vid=de6a92b9-d1bd-41c7-855f-bab2bbdacd22","ios":"levelo://app?vid=de6a92b9-d1bd-41c7-855f-bab2bbdacd22"},"vehicle_type_id":"4","last_reported":1727255371,"current_range_meters":24000,"station_id":"ce4bgr92rcd13ifvqc6g","pricing_plan_id":"cebpf4jnsgd1na2vs0mg"},{"bike_id":"bf118c14-84c8-488e-853b-532bada62136","system_id":"levelo_inurba_marseille","lat":43.29012,"lon":5.35609,"is_reserved":false,"is_disabled":false,"rental_uris":{"android":"levelo://app?vid=bf118c14-84c8-488e-853b-532bada62136","ios":"levelo://app?vid=bf118c14-84c8-488e-853b-532bada62136"},"vehicle_type_id":"4","last_reported":1727255371,"current_range_meters":38800,"station_id":"ce4bhb92rcd13ifvqen0","pricing_plan_id":"cebpf4jnsgd1na2vs0mg"},{"bike_id":"3fb94ac6-1872-4a49-be5f-fc77bf5b3901","system_id":"levelo_inurba_marseille","lat":43.30907,"lon":5.36858,"is_reserved":false,"is_disabled":false,"rental_uris":{"android":"levelo://app?vid=3fb94ac6-1872-4a49-be5f-fc77bf5b3901","ios":"levelo://app?vid=3fb94ac6-1872-4a49-be5f-fc77bf5b3901"},"vehicle_type_id":"4","last_reported":1727255371,"current_range_meters":36800,"station_id":"ce4bgn92rcd13ifvqbvg","pricing_plan_id":"cebpf4jnsgd1na2vs0mg"},{"bike_id":"afe1147d-19a3-4ef5-af6d-d81518b52f2d","system_id":"levelo_inurba_marseille","lat":43.3121,"lon":5.36876,"is_reserved":false,"is_disabled":false,"rental_uris":{"android":"levelo://app?vid=afe1147d-19a3-4ef5-af6d-d81518b52f2d","ios":"levelo://app?vid=afe1147d-19a3-4ef5-af6d-d81518b52f2d"},"vehicle_type_id":"4","last_reported":1727255371,"current_range_meters":27600,"station_id":"ce4bgl92rcd13ifvqbq0","pricing_plan_id":"cebpf4jnsgd1na2vs0mg"},{"bike_id":"ecb70881-b110-48a8-b751-24b4690d4031","system_id":"levelo_inurba_marseille","lat":43.23191,"lon":5.39976,"is_reserved":false,"is_disabled":false,"rental_uris":{"android":"levelo://app?vid=ecb70881-b110-48a8-b751-24b4690d4031","ios":"levelo://app?vid=ecb70881-b110-48a8-b751-24b4690d4031"},"vehicle_type_id":"4","last_reported":1727255371,"current_range_meters":8000,"station_id":"ce4bhn12rcd13ifvqgqg","pricing_plan_id":"cebpf4jnsgd1na2vs0mg"},{"bike_id":"d8a8068d-65ed-4f41-b2cf-23a1db74680a","system_id":"levelo_inurba_marseille","lat":43.3136,"lon":5.36707,"is_reserved":false,"is_disabled":false,"rental_uris":{"android":"levelo://app?vid=d8a8068d-65ed-4f41-b2cf-23a1db74680a","ios":"levelo://app?vid=d8a8068d-65ed-4f41-b2cf-23a1db74680a"},"vehicle_type_id":"4","last_reported":1727255371,"current_range_meters":28000,"station_id":"ce4bgr92rcd13ifvqc6g","pricing_plan_id":"cebpf4jnsgd1na2vs0mg"},{"bike_id":"fad29254-39f9-4a49-9777-cbc08cc0c63d","system_id":"levelo_inurba_marseille","lat":43.30473,"lon":5.37902,"is_reserved":false,"is_disabled":false,"rental_uris":{"android":"levelo://app?vid=fad29254-39f9-4a49-9777-cbc08cc0c63d","ios":"levelo://app?vid=fad29254-39f9-4a49-9777-cbc08cc0c63d"},"vehicle_type_id":"4","last_reported":1727255371,"current_range_meters":38800,"station_id":"ce4bgup2rcd13ifvqcn0","pricing_plan_id":"cebpf4jnsgd1na2vs0mg"},{"bike_id":"25bd7405-be80-4a77-a761-8a1efed52652","system_id":"levelo_inurba_marseille","lat":43.299,"lon":5.43655,"is_reserved":false,"is_disabled":false,"rental_uris":{"android":"levelo://app?vid=25bd7405-be80-4a77-a761-8a1efed52652","ios":"levelo://app?vid=25bd7405-be80-4a77-a761-8a1efed52652"},"vehicle_type_id":"4","last_reported":1727255371,"current_range_meters":40000,"station_id":"ce4bhpp2rcd13ifvqhfg","pricing_plan_id":"cebpf4jnsgd1na2vs0mg"},{"bike_id":"47ab5fec-ba93-48dd-81fc-bc5186e180ec","system_id":"levelo_inurba_marseille","lat":43.3047,"lon":5.37895,"is_reserved":false,"is_disabled":false,"rental_uris":{"android":"levelo://app?vid=47ab5fec-ba93-48dd-81fc-bc5186e180ec","ios":"levelo://app?vid=47ab5fec-ba93-48dd-81fc-bc5186e180ec"},"vehicle_type_id":"4","last_reported":1727255371,"current_range_meters":28400,"station_id":"ce4bgup2rcd13ifvqcn0","pricing_plan_id":"cebpf4jnsgd1na2vs0mg"},{"bike_id":"bbd31db5-c137-4320-95f9-7cb19235dc07","system_id":"levelo_inurba_marseille","lat":43.30797,"lon":5.43518,"is_reserved":false,"is_disabled":false,"rental_uris":{"android":"levelo://app?vid=bbd31db5-c137-4320-95f9-7cb19235dc07","ios":"levelo://app?vid=bbd31db5-c137-4320-95f9-7cb19235dc07"},"vehicle_type_id":"4","last_reported":1727255371,"current_range_meters":39200,"station_id":"ce4bhph2rcd13ifvqheg","pricing_plan_id":"cebpf4jnsgd1na2vs0mg"},{"bike_id":"5f5215b8-a74e-490d-acf4-116c426a9b8e","system_id":"levelo_inurba_marseille","lat":43.24081,"lon":5.37744,"is_reserved":false,"is_disabled":false,"rental_uris":{"android":"levelo://app?vid=5f5215b8-a74e-490d-acf4-116c426a9b8e","ios":"levelo://app?vid=5f5215b8-a74e-490d-acf4-116c426a9b8e"},"vehicle_type_id":"4","last_reported":1727255371,"current_range_meters":29600,"station_id":"ce4bhnp2rcd13ifvqgvg","pricing_plan_id":"cebpf4jnsgd1na2vs0mg"},{"bike_id":"f6275728-f078-4fe3-a4cc-467a5a2ab004","system_id":"levelo_inurba_marseille","lat":43.31475,"lon":5.36967,"is_reserved":false,"is_disabled":false,"rental_uris":{"android":"levelo://app?vid=f6275728-f078-4fe3-a4cc-467a5a2ab004","ios":"levelo://app?vid=f6275728-f078-4fe3-a4cc-467a5a2ab004"},"vehicle_type_id":"4","last_reported":1727255371,"current_range_meters":35600,"station_id":"","pricing_plan_id":"cebpf4jnsgd1na2vs0mg"},{"bike_id":"124ed7b5-473e-4a00-a600-343137f4cef9","system_id":"levelo_inurba_marseille","lat":43.33714,"lon":5.39175,"is_reserved":false,"is_disabled":false,"rental_uris":{"android":"levelo://app?vid=124ed7b5-473e-4a00-a600-343137f4cef9","ios":"levelo://app?vid=124ed7b5-473e-4a00-a600-343137f4cef9"},"vehicle_type_id":"4","last_reported":1727255371,"current_range_meters":14400,"station_id":"ce4bhr92rcd13ifvqhsg","pricing_plan_id":"cebpf4jnsgd1na2vs0mg"},{"bike_id":"0728f0ed-31f2-4606-8bb7-4a823154a64b","system_id":"levelo_inurba_marseille","lat":43.30545,"lon":5.36698,"is_reserved":false,"is_disabled":false,"rental_uris":{"android":"levelo://app?vid=0728f0ed-31f2-4606-8bb7-4a823154a64b","ios":"levelo://app?vid=0728f0ed-31f2-4606-8bb7-4a823154a64b"},"vehicle_type_id":"4","last_reported":1727255371,"current_range_meters":32000,"station_id":"ce4bgrp2rcd13ifvqc9g","pricing_plan_id":"cebpf4jnsgd1na2vs0mg"},{"bike_id":"811ee0a1-ddfb-41c5-ab52-db7b97e8c787","system_id":"levelo_inurba_marseille","lat":43.29912,"lon":5.38135,"is_reserved":false,"is_disabled":false,"rental_uris":{"android":"levelo://app?vid=811ee0a1-ddfb-41c5-ab52-db7b97e8c787","ios":"levelo://app?vid=811ee0a1-ddfb-41c5-ab52-db7b97e8c787"},"vehicle_type_id":"4","last_reported":1727255371,"current_range_meters":32400,"station_id":"ce4bgj12rcd13ifvqbc0","pricing_plan_id":"cebpf4jnsgd1na2vs0mg"},{"bike_id":"e4b18f69-ea5b-4e69-83ca-668b2a5eda2a","system_id":"levelo_inurba_marseille","lat":43.27876,"lon":5.38086,"is_reserved":false,"is_disabled":false,"rental_uris":{"android":"levelo://app?vid=e4b18f69-ea5b-4e69-83ca-668b2a5eda2a","ios":"levelo://app?vid=e4b18f69-ea5b-4e69-83ca-668b2a5eda2a"},"vehicle_type_id":"4","last_reported":1727255371,"current_range_meters":35600,"station_id":"ce4bhf92rcd13ifvqf50","pricing_plan_id":"cebpf4jnsgd1na2vs0mg"},{"bike_id":"d18e33d1-440e-4c0b-9a8b-2d2580d7559d","system_id":"levelo_inurba_marseille","lat":43.32476,"lon":5.36568,"is_reserved":false,"is_disabled":false,"rental_uris":{"android":"levelo://app?vid=d18e33d1-440e-4c0b-9a8b-2d2580d7559d","ios":"levelo://app?vid=d18e33d1-440e-4c0b-9a8b-2d2580d7559d"},"vehicle_type_id":"4","last_reported":1727255371,"current_range_meters":3600,"station_id":"ce4bhs12rcd13ifvqhvg","pricing_plan_id":"cebpf4jnsgd1na2vs0mg"},{"bike_id":"2e01ffdd-6397-4929-8889-077a10353aec","system_id":"levelo_inurba_marseille","lat":43.24082,"lon":5.37753,"is_reserved":false,"is_disabled":false,"rental_uris":{"android":"levelo://app?vid=2e01ffdd-6397-4929-8889-077a10353aec","ios":"levelo://app?vid=2e01ffdd-6397-4929-8889-077a10353aec"},"vehicle_type_id":"4","last_reported":1727255371,"current_range_meters":36400,"station_id":"ce4bhnp2rcd13ifvqgvg","pricing_plan_id":"cebpf4jnsgd1na2vs0mg"},{"bike_id":"9e0d7cb9-bd10-47a4-932f-0e2d3b375713","system_id":"levelo_inurba_marseille","lat":43.23152,"lon":5.43722,"is_reserved":false,"is_disabled":false,"rental_uris":{"android":"levelo://app?vid=9e0d7cb9-bd10-47a4-932f-0e2d3b375713","ios":"levelo://app?vid=9e0d7cb9-bd10-47a4-932f-0e2d3b375713"},"vehicle_type_id":"4","last_reported":1727255371,"current_range_meters":28000,"station_id":"ce4bhmp2rcd13ifvqgog","pricing_plan_id":"cebpf4jnsgd1na2vs0mg"},{"bike_id":"dd59969c-92f1-4a29-9626-db2ce1115720","system_id":"levelo_inurba_marseille","lat":43.31709,"lon":5.37745,"is_reserved":false,"is_disabled":false,"rental_uris":{"android":"levelo://app?vid=dd59969c-92f1-4a29-9626-db2ce1115720","ios":"levelo://app?vid=dd59969c-92f1-4a29-9626-db2ce1115720"},"vehicle_type_id":"4","last_reported":1727255371,"current_range_meters":38800,"station_id":"ce4bgth2rcd13ifvqch0","pricing_plan_id":"cebpf4jnsgd1na2vs0mg"},{"bike_id":"1802deb5-1c46-4f67-afa3-157e0fdc0220","system_id":"levelo_inurba_marseille","lat":43.27811,"lon":5.40716,"is_reserved":false,"is_disabled":false,"rental_uris":{"android":"levelo://app?vid=1802deb5-1c46-4f67-afa3-157e0fdc0220","ios":"levelo://app?vid=1802deb5-1c46-4f67-afa3-157e0fdc0220"},"vehicle_type_id":"4","last_reported":1727255371,"current_range_meters":24800,"station_id":"ce4bhnh2rcd13ifvqgtg","pricing_plan_id":"cebpf4jnsgd1na2vs0mg"},{"bike_id":"dd242317-41e5-44f2-bc98-6bc74d7c5925","system_id":"levelo_inurba_marseille","lat":43.23154,"lon":5.43704,"is_reserved":false,"is_disabled":false,"rental_uris":{"android":"levelo://app?vid=dd242317-41e5-44f2-bc98-6bc74d7c5925","ios":"levelo://app?vid=dd242317-41e5-44f2-bc98-6bc74d7c5925"},"vehicle_type_id":"4","last_reported":1727255371,"current_range_meters":22000,"station_id":"ce4bhmp2rcd13ifvqgog","pricing_plan_id":"cebpf4jnsgd1na2vs0mg"},{"bike_id":"2fb0fc57-8a81-4d2e-a35d-ac88f05ffb63","system_id":"levelo_inurba_marseille","lat":43.33604,"lon":5.41026,"is_reserved":false,"is_disabled":false,"rental_uris":{"android":"levelo://app?vid=2fb0fc57-8a81-4d2e-a35d-ac88f05ffb63","ios":"levelo://app?vid=2fb0fc57-8a81-4d2e-a35d-ac88f05ffb63"},"vehicle_type_id":"4","last_reported":1727255371,"current_range_meters":8800,"station_id":"ce4bhqh2rcd13ifvqhmg","pricing_plan_id":"cebpf4jnsgd1na2vs0mg"},{"bike_id":"6b05d1b6-58bb-4caa-86c1-fd0559805b4c","system_id":"levelo_inurba_marseille","lat":43.25497,"lon":5.37652,"is_reserved":false,"is_disabled":false,"rental_uris":{"android":"levelo://app?vid=6b05d1b6-58bb-4caa-86c1-fd0559805b4c","ios":"levelo://app?vid=6b05d1b6-58bb-4caa-86c1-fd0559805b4c"},"vehicle_type_id":"4","last_reported":1727255371,"current_range_meters":17600,"station_id":"ce4bhh12rcd13ifvqff0","pricing_plan_id":"cebpf4jnsgd1na2vs0mg"},{"bike_id":"7d1c5f24-b2c4-4b39-a45e-5cd31c748af9","system_id":"levelo_inurba_marseille","lat":43.32485,"lon":5.36577,"is_reserved":false,"is_disabled":false,"rental_uris":{"android":"levelo://app?vid=7d1c5f24-b2c4-4b39-a45e-5cd31c748af9","ios":"levelo://app?vid=7d1c5f24-b2c4-4b39-a45e-5cd31c748af9"},"vehicle_type_id":"4","last_reported":1727255371,"current_range_meters":35200,"station_id":"ce4bhs12rcd13ifvqhvg","pricing_plan_id":"cebpf4jnsgd1na2vs0mg"},{"bike_id":"f3ac9d56-8a6b-4b8b-83b8-4e8b660e9afe","system_id":"levelo_inurba_marseille","lat":43.23958,"lon":5.36625,"is_reserved":false,"is_disabled":false,"rental_uris":{"android":"levelo://app?vid=f3ac9d56-8a6b-4b8b-83b8-4e8b660e9afe","ios":"levelo://app?vid=f3ac9d56-8a6b-4b8b-83b8-4e8b660e9afe"},"vehicle_type_id":"4","last_reported":1727255371,"current_range_meters":27600,"station_id":"ce4bhi12rcd13ifvqfp0","pricing_plan_id":"cebpf4jnsgd1na2vs0mg"},{"bike_id":"3f41ed7c-84fc-4945-95cd-7ba497b195f1","system_id":"levelo_inurba_marseille","lat":43.29029,"lon":5.38648,"is_reserved":false,"is_disabled":false,"rental_uris":{"android":"levelo://app?vid=3f41ed7c-84fc-4945-95cd-7ba497b195f1","ios":"levelo://app?vid=3f41ed7c-84fc-4945-95cd-7ba497b195f1"},"vehicle_type_id":"4","last_reported":1727255371,"current_range_meters":12800,"station_id":"ce4bh4p2rcd13ifvqe0g","pricing_plan_id":"cebpf4jnsgd1na2vs0mg"},{"bike_id":"c3603bd2-71ff-4acc-80f6-dbc56b8e4a31","system_id":"levelo_inurba_marseille","lat":43.29177,"lon":5.37147,"is_reserved":false,"is_disabled":false,"rental_uris":{"android":"levelo://app?vid=c3603bd2-71ff-4acc-80f6-dbc56b8e4a31","ios":"levelo://app?vid=c3603bd2-71ff-4acc-80f6-dbc56b8e4a31"},"vehicle_type_id":"4","last_reported":1727255371,"current_range_meters":23200,"station_id":"ce4bha92rcd13ifvqeh0","pricing_plan_id":"cebpf4jnsgd1na2vs0mg"},{"bike_id":"40e8f74b-e490-42cb-8b96-2f519227f431","system_id":"levelo_inurba_marseille","lat":43.337444,"lon":5.374475,"is_reserved":false,"is_disabled":false,"rental_uris":{"android":"levelo://app?vid=40e8f74b-e490-42cb-8b96-2f519227f431","ios":"levelo://app?vid=40e8f74b-e490-42cb-8b96-2f519227f431"},"vehicle_type_id":"4","last_reported":1727255371,"current_range_meters":33200,"station_id":"","pricing_plan_id":"cebpf4jnsgd1na2vs0mg"},{"bike_id":"f24f457c-b638-4a05-a4da-606c7ade2a4e","system_id":"levelo_inurba_marseille","lat":43.2931,"lon":5.37176,"is_reserved":false,"is_disabled":false,"rental_uris":{"android":"levelo://app?vid=f24f457c-b638-4a05-a4da-606c7ade2a4e","ios":"levelo://app?vid=f24f457c-b638-4a05-a4da-606c7ade2a4e"},"vehicle_type_id":"4","last_reported":1727255371,"current_range_meters":27600,"station_id":"ce4bgh92rcd13ifvqb40","pricing_plan_id":"cebpf4jnsgd1na2vs0mg"},{"bike_id":"5a4aef1f-508a-457d-94bd-5b9b738c8fae","system_id":"levelo_inurba_marseille","lat":43.26196,"lon":5.37439,"is_reserved":false,"is_disabled":false,"rental_uris":{"android":"levelo://app?vid=5a4aef1f-508a-457d-94bd-5b9b738c8fae","ios":"levelo://app?vid=5a4aef1f-508a-457d-94bd-5b9b738c8fae"},"vehicle_type_id":"4","last_reported":1727255371,"current_range_meters":14800,"station_id":"ce4bhgp2rcd13ifvqfc0","pricing_plan_id":"cebpf4jnsgd1na2vs0mg"},{"bike_id":"361eaa0e-a99b-4fb6-854a-0d4baef269ba","system_id":"levelo_inurba_marseille","lat":43.24074,"lon":5.37756,"is_reserved":false,"is_disabled":false,"rental_uris":{"android":"levelo://app?vid=361eaa0e-a99b-4fb6-854a-0d4baef269ba","ios":"levelo://app?vid=361eaa0e-a99b-4fb6-854a-0d4baef269ba"},"vehicle_type_id":"4","last_reported":1727255371,"current_range_meters":34800,"station_id":"ce4bhnp2rcd13ifvqgvg","pricing_plan_id":"cebpf4jnsgd1na2vs0mg"},{"bike_id":"1f655e29-2838-4be4-9d59-d3da21fe6810","system_id":"levelo_inurba_marseille","lat":43.31357,"lon":5.36711,"is_reserved":false,"is_disabled":false,"rental_uris":{"android":"levelo://app?vid=1f655e29-2838-4be4-9d59-d3da21fe6810","ios":"levelo://app?vid=1f655e29-2838-4be4-9d59-d3da21fe6810"},"vehicle_type_id":"4","last_reported":1727255371,"current_range_meters":40000,"station_id":"ce4bgr92rcd13ifvqc6g","pricing_plan_id":"cebpf4jnsgd1na2vs0mg"},{"bike_id":"73e7f655-b2b9-4127-a50c-dc2251f994d0","system_id":"levelo_inurba_marseille","lat":43.28767,"lon":5.39682,"is_reserved":false,"is_disabled":false,"rental_uris":{"android":"levelo://app?vid=73e7f655-b2b9-4127-a50c-dc2251f994d0","ios":"levelo://app?vid=73e7f655-b2b9-4127-a50c-dc2251f994d0"},"vehicle_type_id":"4","last_reported":1727255371,"current_range_meters":36000,"station_id":"","pricing_plan_id":"cebpf4jnsgd1na2vs0mg"},{"bike_id":"a75d11e4-5000-41f8-9ff2-fbd2a76366d5","system_id":"levelo_inurba_marseille","lat":43.33965,"lon":5.42069,"is_reserved":false,"is_disabled":false,"rental_uris":{"android":"levelo://app?vid=a75d11e4-5000-41f8-9ff2-fbd2a76366d5","ios":"levelo://app?vid=a75d11e4-5000-41f8-9ff2-fbd2a76366d5"},"vehicle_type_id":"4","last_reported":1727255371,"current_range_meters":22400,"station_id":"","pricing_plan_id":"cebpf4jnsgd1na2vs0mg"},{"bike_id":"ea4f7293-f9ba-4702-a0ef-940482517fb3","system_id":"levelo_inurba_marseille","lat":43.26211,"lon":5.3744,"is_reserved":false,"is_disabled":false,"rental_uris":{"android":"levelo://app?vid=ea4f7293-f9ba-4702-a0ef-940482517fb3","ios":"levelo://app?vid=ea4f7293-f9ba-4702-a0ef-940482517fb3"},"vehicle_type_id":"4","last_reported":1727255371,"current_range_meters":24800,"station_id":"ce4bhgp2rcd13ifvqfc0","pricing_plan_id":"cebpf4jnsgd1na2vs0mg"},{"bike_id":"106a9564-fb31-4dd5-ae47-72782c3e325e","system_id":"levelo_inurba_marseille","lat":43.30153,"lon":5.38082,"is_reserved":false,"is_disabled":false,"rental_uris":{"android":"levelo://app?vid=106a9564-fb31-4dd5-ae47-72782c3e325e","ios":"levelo://app?vid=106a9564-fb31-4dd5-ae47-72782c3e325e"},"vehicle_type_id":"4","last_reported":1727255371,"current_range_meters":30800,"station_id":"ce4bgjp2rcd13ifvqbh0","pricing_plan_id":"cebpf4jnsgd1na2vs0mg"},{"bike_id":"a4e76940-b202-484e-b67e-c240816f6482","system_id":"levelo_inurba_marseille","lat":43.30149,"lon":5.38077,"is_reserved":false,"is_disabled":false,"rental_uris":{"android":"levelo://app?vid=a4e76940-b202-484e-b67e-c240816f6482","ios":"levelo://app?vid=a4e76940-b202-484e-b67e-c240816f6482"},"vehicle_type_id":"4","last_reported":1727255371,"current_range_meters":38800,"station_id":"ce4bgjp2rcd13ifvqbh0","pricing_plan_id":"cebpf4jnsgd1na2vs0mg"},{"bike_id":"b219bd9e-1b0a-4956-9e88-9fbe4e039fad","system_id":"levelo_inurba_marseille","lat":43.27078,"lon":5.42278,"is_reserved":false,"is_disabled":false,"rental_uris":{"android":"levelo://app?vid=b219bd9e-1b0a-4956-9e88-9fbe4e039fad","ios":"levelo://app?vid=b219bd9e-1b0a-4956-9e88-9fbe4e039fad"},"vehicle_type_id":"4","last_reported":1727255371,"current_range_meters":17600,"station_id":"ce4bhk92rcd13ifvqgb0","pricing_plan_id":"cebpf4jnsgd1na2vs0mg"},{"bike_id":"7c347cbe-916a-4d28-8aec-7e5a05a5e065","system_id":"levelo_inurba_marseille","lat":43.29019,"lon":5.38131,"is_reserved":false,"is_disabled":false,"rental_uris":{"android":"levelo://app?vid=7c347cbe-916a-4d28-8aec-7e5a05a5e065","ios":"levelo://app?vid=7c347cbe-916a-4d28-8aec-7e5a05a5e065"},"vehicle_type_id":"4","last_reported":1727255371,"current_range_meters":16800,"station_id":"ce4bh4p2rcd13ifvqe1g","pricing_plan_id":"cebpf4jnsgd1na2vs0mg"},{"bike_id":"9fd8e932-0bbe-45a7-a9ac-3aa157bc97f4","system_id":"levelo_inurba_marseille","lat":43.27374,"lon":5.36259,"is_reserved":false,"is_disabled":false,"rental_uris":{"android":"levelo://app?vid=9fd8e932-0bbe-45a7-a9ac-3aa157bc97f4","ios":"levelo://app?vid=9fd8e932-0bbe-45a7-a9ac-3aa157bc97f4"},"vehicle_type_id":"4","last_reported":1727255371,"current_range_meters":38800,"station_id":"ce4bhbh2rcd13ifvqeo0","pricing_plan_id":"cebpf4jnsgd1na2vs0mg"},{"bike_id":"d2b29a3f-a9f9-4e26-bd8f-3dbbdf2f5a97","system_id":"levelo_inurba_marseille","lat":43.3054,"lon":5.3655,"is_reserved":false,"is_disabled":false,"rental_uris":{"android":"levelo://app?vid=d2b29a3f-a9f9-4e26-bd8f-3dbbdf2f5a97","ios":"levelo://app?vid=d2b29a3f-a9f9-4e26-bd8f-3dbbdf2f5a97"},"vehicle_type_id":"4","last_reported":1727255371,"current_range_meters":36400,"station_id":"ce4bgs12rcd13ifvqcag","pricing_plan_id":"cebpf4jnsgd1na2vs0mg"},{"bike_id":"40376345-676a-4922-ad28-0127814cb387","system_id":"levelo_inurba_marseille","lat":43.267,"lon":5.3826,"is_reserved":false,"is_disabled":false,"rental_uris":{"android":"levelo://app?vid=40376345-676a-4922-ad28-0127814cb387","ios":"levelo://app?vid=40376345-676a-4922-ad28-0127814cb387"},"vehicle_type_id":"4","last_reported":1727255371,"current_range_meters":37600,"station_id":"ce4bhg92rcd13ifvqf90","pricing_plan_id":"cebpf4jnsgd1na2vs0mg"},{"bike_id":"ab8a776f-7a05-4324-9e26-529ce9006afc","system_id":"levelo_inurba_marseille","lat":43.29275,"lon":5.36846,"is_reserved":false,"is_disabled":false,"rental_uris":{"android":"levelo://app?vid=ab8a776f-7a05-4324-9e26-529ce9006afc","ios":"levelo://app?vid=ab8a776f-7a05-4324-9e26-529ce9006afc"},"vehicle_type_id":"4","last_reported":1727255371,"current_range_meters":38800,"station_id":"ce4bhbp2rcd13ifvqesg","pricing_plan_id":"cebpf4jnsgd1na2vs0mg"},{"bike_id":"10a437b8-b58e-40b1-b0b7-6372b1519414","system_id":"levelo_inurba_marseille","lat":43.30304,"lon":5.36879,"is_reserved":false,"is_disabled":false,"rental_uris":{"android":"levelo://app?vid=10a437b8-b58e-40b1-b0b7-6372b1519414","ios":"levelo://app?vid=10a437b8-b58e-40b1-b0b7-6372b1519414"},"vehicle_type_id":"4","last_reported":1727255371,"current_range_meters":26800,"station_id":"ce4bgqh2rcd13ifvqc5g","pricing_plan_id":"cebpf4jnsgd1na2vs0mg"},{"bike_id":"822e4c86-e112-46d5-a327-7eacf9524b05","system_id":"levelo_inurba_marseille","lat":43.30799,"lon":5.43521,"is_reserved":false,"is_disabled":false,"rental_uris":{"android":"levelo://app?vid=822e4c86-e112-46d5-a327-7eacf9524b05","ios":"levelo://app?vid=822e4c86-e112-46d5-a327-7eacf9524b05"},"vehicle_type_id":"4","last_reported":1727255371,"current_range_meters":24400,"station_id":"ce4bhph2rcd13ifvqheg","pricing_plan_id":"cebpf4jnsgd1na2vs0mg"},{"bike_id":"eec541d4-cee5-4c65-885c-768813e772bf","system_id":"levelo_inurba_marseille","lat":43.28354,"lon":5.38109,"is_reserved":false,"is_disabled":false,"rental_uris":{"android":"levelo://app?vid=eec541d4-cee5-4c65-885c-768813e772bf","ios":"levelo://app?vid=eec541d4-cee5-4c65-885c-768813e772bf"},"vehicle_type_id":"4","last_reported":1727255371,"current_range_meters":36800,"station_id":"ce4bh412rcd13ifvqdr0","pricing_plan_id":"cebpf4jnsgd1na2vs0mg"},{"bike_id":"34b37506-7d30-458e-9867-ea1175c8e140","system_id":"levelo_inurba_marseille","lat":43.26206,"lon":5.37442,"is_reserved":false,"is_disabled":false,"rental_uris":{"android":"levelo://app?vid=34b37506-7d30-458e-9867-ea1175c8e140","ios":"levelo://app?vid=34b37506-7d30-458e-9867-ea1175c8e140"},"vehicle_type_id":"4","last_reported":1727255371,"current_range_meters":24000,"station_id":"ce4bhgp2rcd13ifvqfc0","pricing_plan_id":"cebpf4jnsgd1na2vs0mg"},{"bike_id":"8a22d159-e43f-4c50-a861-0498723eaf8f","system_id":"levelo_inurba_marseille","lat":43.30281,"lon":5.37681,"is_reserved":false,"is_disabled":false,"rental_uris":{"android":"levelo://app?vid=8a22d159-e43f-4c50-a861-0498723eaf8f","ios":"levelo://app?vid=8a22d159-e43f-4c50-a861-0498723eaf8f"},"vehicle_type_id":"4","last_reported":1727255371,"current_range_meters":20000,"station_id":"ce4bguh2rcd13ifvqcj0","pricing_plan_id":"cebpf4jnsgd1na2vs0mg"},{"bike_id":"b4706c34-b833-4c37-b2c3-67a06c70f9de","system_id":"levelo_inurba_marseille","lat":43.23966,"lon":5.36627,"is_reserved":false,"is_disabled":false,"rental_uris":{"android":"levelo://app?vid=b4706c34-b833-4c37-b2c3-67a06c70f9de","ios":"levelo://app?vid=b4706c34-b833-4c37-b2c3-67a06c70f9de"},"vehicle_type_id":"4","last_reported":1727255371,"current_range_meters":18800,"station_id":"ce4bhi12rcd13ifvqfp0","pricing_plan_id":"cebpf4jnsgd1na2vs0mg"},{"bike_id":"270e9518-ef63-4ecc-a94f-022fd4f6a49d","system_id":"levelo_inurba_marseille","lat":43.2904,"lon":5.39961,"is_reserved":false,"is_disabled":false,"rental_uris":{"android":"levelo://app?vid=270e9518-ef63-4ecc-a94f-022fd4f6a49d","ios":"levelo://app?vid=270e9518-ef63-4ecc-a94f-022fd4f6a49d"},"vehicle_type_id":"4","last_reported":1727255371,"current_range_meters":19600,"station_id":"ce4bh392rcd13ifvqdm0","pricing_plan_id":"cebpf4jnsgd1na2vs0mg"},{"bike_id":"a27e8d57-ffc7-47b9-8eb9-3712c05cf56e","system_id":"levelo_inurba_marseille","lat":43.30472,"lon":5.37903,"is_reserved":false,"is_disabled":false,"rental_uris":{"android":"levelo://app?vid=a27e8d57-ffc7-47b9-8eb9-3712c05cf56e","ios":"levelo://app?vid=a27e8d57-ffc7-47b9-8eb9-3712c05cf56e"},"vehicle_type_id":"4","last_reported":1727255371,"current_range_meters":38400,"station_id":"ce4bgup2rcd13ifvqcn0","pricing_plan_id":"cebpf4jnsgd1na2vs0mg"},{"bike_id":"0a4710f5-a2ae-4573-9abc-f5634b0a0e7d","system_id":"levelo_inurba_marseille","lat":43.31356,"lon":5.36713,"is_reserved":false,"is_disabled":false,"rental_uris":{"android":"levelo://app?vid=0a4710f5-a2ae-4573-9abc-f5634b0a0e7d","ios":"levelo://app?vid=0a4710f5-a2ae-4573-9abc-f5634b0a0e7d"},"vehicle_type_id":"4","last_reported":1727255371,"current_range_meters":40000,"station_id":"ce4bgr92rcd13ifvqc6g","pricing_plan_id":"cebpf4jnsgd1na2vs0mg"},{"bike_id":"69821ebc-0dfd-418d-b8ce-9e2a1cbb4f94","system_id":"levelo_inurba_marseille","lat":43.2799,"lon":5.41659,"is_reserved":false,"is_disabled":false,"rental_uris":{"android":"levelo://app?vid=69821ebc-0dfd-418d-b8ce-9e2a1cbb4f94","ios":"levelo://app?vid=69821ebc-0dfd-418d-b8ce-9e2a1cbb4f94"},"vehicle_type_id":"4","last_reported":1727255371,"current_range_meters":18000,"station_id":"ce4bho12rcd13ifvqh1g","pricing_plan_id":"cebpf4jnsgd1na2vs0mg"},{"bike_id":"968c3579-eb9f-4e75-b5ae-409804e81856","system_id":"levelo_inurba_marseille","lat":43.2465,"lon":5.38893,"is_reserved":false,"is_disabled":false,"rental_uris":{"android":"levelo://app?vid=968c3579-eb9f-4e75-b5ae-409804e81856","ios":"levelo://app?vid=968c3579-eb9f-4e75-b5ae-409804e81856"},"vehicle_type_id":"4","last_reported":1727255371,"current_range_meters":31200,"station_id":"ce4bhg12rcd13ifvqf60","pricing_plan_id":"cebpf4jnsgd1na2vs0mg"},{"bike_id":"4df3f7e3-2ffb-41b4-8826-748394786ae8","system_id":"levelo_inurba_marseille","lat":43.29272,"lon":5.36845,"is_reserved":false,"is_disabled":false,"rental_uris":{"android":"levelo://app?vid=4df3f7e3-2ffb-41b4-8826-748394786ae8","ios":"levelo://app?vid=4df3f7e3-2ffb-41b4-8826-748394786ae8"},"vehicle_type_id":"4","last_reported":1727255371,"current_range_meters":38800,"station_id":"","pricing_plan_id":"cebpf4jnsgd1na2vs0mg"},{"bike_id":"8282acf3-1e10-4e7a-9e2e-d47e811adce2","system_id":"levelo_inurba_marseille","lat":43.25503,"lon":5.37652,"is_reserved":false,"is_disabled":false,"rental_uris":{"android":"levelo://app?vid=8282acf3-1e10-4e7a-9e2e-d47e811adce2","ios":"levelo://app?vid=8282acf3-1e10-4e7a-9e2e-d47e811adce2"},"vehicle_type_id":"4","last_reported":1727255371,"current_range_meters":40000,"station_id":"ce4bhh12rcd13ifvqff0","pricing_plan_id":"cebpf4jnsgd1na2vs0mg"},{"bike_id":"94d0dbcd-ca89-442b-a26e-c8c0efa5d424","system_id":"levelo_inurba_marseille","lat":43.27978,"lon":5.38741,"is_reserved":false,"is_disabled":false,"rental_uris":{"android":"levelo://app?vid=94d0dbcd-ca89-442b-a26e-c8c0efa5d424","ios":"levelo://app?vid=94d0dbcd-ca89-442b-a26e-c8c0efa5d424"},"vehicle_type_id":"4","last_reported":1727255371,"current_range_meters":3600,"station_id":"ce4bhg12rcd13ifvqf80","pricing_plan_id":"cebpf4jnsgd1na2vs0mg"},{"bike_id":"ebec7cd5-5fed-46ce-abdb-3cd659f607ac","system_id":"levelo_inurba_marseille","lat":43.29557,"lon":5.42285,"is_reserved":false,"is_disabled":false,"rental_uris":{"android":"levelo://app?vid=ebec7cd5-5fed-46ce-abdb-3cd659f607ac","ios":"levelo://app?vid=ebec7cd5-5fed-46ce-abdb-3cd659f607ac"},"vehicle_type_id":"4","last_reported":1727255371,"current_range_meters":34800,"station_id":"ce4bhph2rcd13ifvqhdg","pricing_plan_id":"cebpf4jnsgd1na2vs0mg"},{"bike_id":"66933eb4-3af8-4c33-a5a2-f1b70b2dcc35","system_id":"levelo_inurba_marseille","lat":43.26788,"lon":5.39408,"is_reserved":false,"is_disabled":false,"rental_uris":{"android":"levelo://app?vid=66933eb4-3af8-4c33-a5a2-f1b70b2dcc35","ios":"levelo://app?vid=66933eb4-3af8-4c33-a5a2-f1b70b2dcc35"},"vehicle_type_id":"4","last_reported":1727255371,"current_range_meters":38000,"station_id":"ce4bhh12rcd13ifvqfg0","pricing_plan_id":"cebpf4jnsgd1na2vs0mg"},{"bike_id":"ba5e5b6e-f560-44e9-b9dd-e78f414352ad","system_id":"levelo_inurba_marseille","lat":43.30474,"lon":5.3789,"is_reserved":false,"is_disabled":false,"rental_uris":{"android":"levelo://app?vid=ba5e5b6e-f560-44e9-b9dd-e78f414352ad","ios":"levelo://app?vid=ba5e5b6e-f560-44e9-b9dd-e78f414352ad"},"vehicle_type_id":"4","last_reported":1727255371,"current_range_meters":38800,"station_id":"ce4bgup2rcd13ifvqcn0","pricing_plan_id":"cebpf4jnsgd1na2vs0mg"},{"bike_id":"7b56cd92-2d2f-4784-b13e-6cdbeda6a7bd","system_id":"levelo_inurba_marseille","lat":43.24802,"lon":5.37459,"is_reserved":false,"is_disabled":false,"rental_uris":{"android":"levelo://app?vid=7b56cd92-2d2f-4784-b13e-6cdbeda6a7bd","ios":"levelo://app?vid=7b56cd92-2d2f-4784-b13e-6cdbeda6a7bd"},"vehicle_type_id":"4","last_reported":1727255371,"current_range_meters":18800,"station_id":"ce4bhgh2rcd13ifvqfb0","pricing_plan_id":"cebpf4jnsgd1na2vs0mg"},{"bike_id":"df5b38d2-64cb-4df0-856f-ea9bd22c082c","system_id":"levelo_inurba_marseille","lat":43.23187,"lon":5.35556,"is_reserved":false,"is_disabled":false,"rental_uris":{"android":"levelo://app?vid=df5b38d2-64cb-4df0-856f-ea9bd22c082c","ios":"levelo://app?vid=df5b38d2-64cb-4df0-856f-ea9bd22c082c"},"vehicle_type_id":"4","last_reported":1727255371,"current_range_meters":8400,"station_id":"ce4bhu92rcd13ifvqi70","pricing_plan_id":"cebpf4jnsgd1na2vs0mg"},{"bike_id":"707528d8-0988-4632-94dc-544d37620d76","system_id":"levelo_inurba_marseille","lat":43.3361,"lon":5.41024,"is_reserved":false,"is_disabled":false,"rental_uris":{"android":"levelo://app?vid=707528d8-0988-4632-94dc-544d37620d76","ios":"levelo://app?vid=707528d8-0988-4632-94dc-544d37620d76"},"vehicle_type_id":"4","last_reported":1727255371,"current_range_meters":40000,"station_id":"ce4bhqh2rcd13ifvqhmg","pricing_plan_id":"cebpf4jnsgd1na2vs0mg"},{"bike_id":"46369a02-7f02-47d2-ba1b-104d3914dff3","system_id":"levelo_inurba_marseille","lat":43.24652,"lon":5.38901,"is_reserved":false,"is_disabled":false,"rental_uris":{"android":"levelo://app?vid=46369a02-7f02-47d2-ba1b-104d3914dff3","ios":"levelo://app?vid=46369a02-7f02-47d2-ba1b-104d3914dff3"},"vehicle_type_id":"4","last_reported":1727255371,"current_range_meters":36800,"station_id":"ce4bhg12rcd13ifvqf60","pricing_plan_id":"cebpf4jnsgd1na2vs0mg"},{"bike_id":"752c36e5-5b1f-41f1-845d-c09a02895ccf","system_id":"levelo_inurba_marseille","lat":43.26682,"lon":5.38274,"is_reserved":false,"is_disabled":false,"rental_uris":{"android":"levelo://app?vid=752c36e5-5b1f-41f1-845d-c09a02895ccf","ios":"levelo://app?vid=752c36e5-5b1f-41f1-845d-c09a02895ccf"},"vehicle_type_id":"4","last_reported":1727255371,"current_range_meters":18000,"station_id":"ce4bhg92rcd13ifvqf90","pricing_plan_id":"cebpf4jnsgd1na2vs0mg"},{"bike_id":"8b825796-5aea-45b9-9d5d-0791d3a29a6a","system_id":"levelo_inurba_marseille","lat":43.30322,"lon":5.36891,"is_reserved":false,"is_disabled":false,"rental_uris":{"android":"levelo://app?vid=8b825796-5aea-45b9-9d5d-0791d3a29a6a","ios":"levelo://app?vid=8b825796-5aea-45b9-9d5d-0791d3a29a6a"},"vehicle_type_id":"4","last_reported":1727255371,"current_range_meters":24000,"station_id":"ce4bgqh2rcd13ifvqc5g","pricing_plan_id":"cebpf4jnsgd1na2vs0mg"},{"bike_id":"cb1adf5d-f2d0-4b7f-b2cd-ff3a0afadda5","system_id":"levelo_inurba_marseille","lat":43.27493,"lon":5.42459,"is_reserved":false,"is_disabled":false,"rental_uris":{"android":"levelo://app?vid=cb1adf5d-f2d0-4b7f-b2cd-ff3a0afadda5","ios":"levelo://app?vid=cb1adf5d-f2d0-4b7f-b2cd-ff3a0afadda5"},"vehicle_type_id":"4","last_reported":1727255371,"current_range_meters":8800,"station_id":"ce4bhn92rcd13ifvqgrg","pricing_plan_id":"cebpf4jnsgd1na2vs0mg"},{"bike_id":"95fac1fe-7b75-4d04-a661-9a4cfb3fbf10","system_id":"levelo_inurba_marseille","lat":43.28152,"lon":5.42636,"is_reserved":false,"is_disabled":false,"rental_uris":{"android":"levelo://app?vid=95fac1fe-7b75-4d04-a661-9a4cfb3fbf10","ios":"levelo://app?vid=95fac1fe-7b75-4d04-a661-9a4cfb3fbf10"},"vehicle_type_id":"4","last_reported":1727255371,"current_range_meters":34800,"station_id":"ce4bhnh2rcd13ifvqgug","pricing_plan_id":"cebpf4jnsgd1na2vs0mg"},{"bike_id":"b001c319-9fe6-40dd-b580-6c149f34cfba","system_id":"levelo_inurba_marseille","lat":43.31226,"lon":5.36874,"is_reserved":false,"is_disabled":false,"rental_uris":{"android":"levelo://app?vid=b001c319-9fe6-40dd-b580-6c149f34cfba","ios":"levelo://app?vid=b001c319-9fe6-40dd-b580-6c149f34cfba"},"vehicle_type_id":"4","last_reported":1727255371,"current_range_meters":12800,"station_id":"ce4bgl92rcd13ifvqbq0","pricing_plan_id":"cebpf4jnsgd1na2vs0mg"},{"bike_id":"bca81bcc-db8f-4252-98dd-a19370662d96","system_id":"levelo_inurba_marseille","lat":43.301405,"lon":5.37405,"is_reserved":false,"is_disabled":false,"rental_uris":{"android":"levelo://app?vid=bca81bcc-db8f-4252-98dd-a19370662d96","ios":"levelo://app?vid=bca81bcc-db8f-4252-98dd-a19370662d96"},"vehicle_type_id":"4","last_reported":1727255371,"current_range_meters":22800,"station_id":"ce4bgs92rcd13ifvqcc0","pricing_plan_id":"cebpf4jnsgd1na2vs0mg"},{"bike_id":"afb362a3-340b-4aef-9fbb-5a655e0b49b2","system_id":"levelo_inurba_marseille","lat":43.2992,"lon":5.3746,"is_reserved":false,"is_disabled":false,"rental_uris":{"android":"levelo://app?vid=afb362a3-340b-4aef-9fbb-5a655e0b49b2","ios":"levelo://app?vid=afb362a3-340b-4aef-9fbb-5a655e0b49b2"},"vehicle_type_id":"4","last_reported":1727255371,"current_range_meters":26800,"station_id":"ce4bgjh2rcd13ifvqbg0","pricing_plan_id":"cebpf4jnsgd1na2vs0mg"},{"bike_id":"27431c98-bcee-4fbc-9005-ef4fd6a106b8","system_id":"levelo_inurba_marseille","lat":43.2319,"lon":5.39969,"is_reserved":false,"is_disabled":false,"rental_uris":{"android":"levelo://app?vid=27431c98-bcee-4fbc-9005-ef4fd6a106b8","ios":"levelo://app?vid=27431c98-bcee-4fbc-9005-ef4fd6a106b8"},"vehicle_type_id":"4","last_reported":1727255371,"current_range_meters":11600,"station_id":"ce4bhn12rcd13ifvqgqg","pricing_plan_id":"cebpf4jnsgd1na2vs0mg"},{"bike_id":"f1bddba5-3de2-4996-80f2-28e6def469bb","system_id":"levelo_inurba_marseille","lat":43.30551,"lon":5.36702,"is_reserved":false,"is_disabled":false,"rental_uris":{"android":"levelo://app?vid=f1bddba5-3de2-4996-80f2-28e6def469bb","ios":"levelo://app?vid=f1bddba5-3de2-4996-80f2-28e6def469bb"},"vehicle_type_id":"4","last_reported":1727255371,"current_range_meters":30400,"station_id":"ce4bgrp2rcd13ifvqc9g","pricing_plan_id":"cebpf4jnsgd1na2vs0mg"},{"bike_id":"72db74d2-2c4f-4a12-a06e-67002269c7dd","system_id":"levelo_inurba_marseille","lat":43.30469,"lon":5.37888,"is_reserved":false,"is_disabled":false,"rental_uris":{"android":"levelo://app?vid=72db74d2-2c4f-4a12-a06e-67002269c7dd","ios":"levelo://app?vid=72db74d2-2c4f-4a12-a06e-67002269c7dd"},"vehicle_type_id":"4","last_reported":1727255371,"current_range_meters":37600,"station_id":"ce4bgup2rcd13ifvqcn0","pricing_plan_id":"cebpf4jnsgd1na2vs0mg"},{"bike_id":"903507de-16f6-48d0-a454-2c9d4c61bdc6","system_id":"levelo_inurba_marseille","lat":43.30143,"lon":5.37417,"is_reserved":false,"is_disabled":false,"rental_uris":{"android":"levelo://app?vid=903507de-16f6-48d0-a454-2c9d4c61bdc6","ios":"levelo://app?vid=903507de-16f6-48d0-a454-2c9d4c61bdc6"},"vehicle_type_id":"4","last_reported":1727255371,"current_range_meters":28400,"station_id":"ce4bgs92rcd13ifvqcc0","pricing_plan_id":"cebpf4jnsgd1na2vs0mg"},{"bike_id":"ad9e6ef0-4a19-4a93-88ed-c66cad530a0a","system_id":"levelo_inurba_marseille","lat":43.32542,"lon":5.41439,"is_reserved":false,"is_disabled":false,"rental_uris":{"android":"levelo://app?vid=ad9e6ef0-4a19-4a93-88ed-c66cad530a0a","ios":"levelo://app?vid=ad9e6ef0-4a19-4a93-88ed-c66cad530a0a"},"vehicle_type_id":"4","last_reported":1727255371,"current_range_meters":39200,"station_id":"ce4bhq12rcd13ifvqhhg","pricing_plan_id":"cebpf4jnsgd1na2vs0mg"},{"bike_id":"5464bd4b-5c6d-4472-9105-7bc381bf630a","system_id":"levelo_inurba_marseille","lat":43.309559,"lon":5.390571,"is_reserved":false,"is_disabled":false,"rental_uris":{"android":"levelo://app?vid=5464bd4b-5c6d-4472-9105-7bc381bf630a","ios":"levelo://app?vid=5464bd4b-5c6d-4472-9105-7bc381bf630a"},"vehicle_type_id":"4","last_reported":1727255371,"current_range_meters":8000,"station_id":"ce4bgr92rcd13ifvqc7g","pricing_plan_id":"cebpf4jnsgd1na2vs0mg"},{"bike_id":"3ddc1fc9-4fe8-4c82-b6c6-96c8768afd76","system_id":"levelo_inurba_marseille","lat":43.30549,"lon":5.36706,"is_reserved":false,"is_disabled":false,"rental_uris":{"android":"levelo://app?vid=3ddc1fc9-4fe8-4c82-b6c6-96c8768afd76","ios":"levelo://app?vid=3ddc1fc9-4fe8-4c82-b6c6-96c8768afd76"},"vehicle_type_id":"4","last_reported":1727255371,"current_range_meters":26000,"station_id":"ce4bgrp2rcd13ifvqc9g","pricing_plan_id":"cebpf4jnsgd1na2vs0mg"},{"bike_id":"d379372b-ab0b-42cd-88e9-e2f059de8e10","system_id":"levelo_inurba_marseille","lat":43.31359,"lon":5.36696,"is_reserved":false,"is_disabled":false,"rental_uris":{"android":"levelo://app?vid=d379372b-ab0b-42cd-88e9-e2f059de8e10","ios":"levelo://app?vid=d379372b-ab0b-42cd-88e9-e2f059de8e10"},"vehicle_type_id":"4","last_reported":1727255371,"current_range_meters":16800,"station_id":"ce4bgr92rcd13ifvqc6g","pricing_plan_id":"cebpf4jnsgd1na2vs0mg"},{"bike_id":"1274b247-fec9-43e7-b337-0b053285a2d8","system_id":"levelo_inurba_marseille","lat":43.29851,"lon":5.36286,"is_reserved":false,"is_disabled":false,"rental_uris":{"android":"levelo://app?vid=1274b247-fec9-43e7-b337-0b053285a2d8","ios":"levelo://app?vid=1274b247-fec9-43e7-b337-0b053285a2d8"},"vehicle_type_id":"4","last_reported":1727255371,"current_range_meters":38800,"station_id":"ce4bgpp2rcd13ifvqc3g","pricing_plan_id":"cebpf4jnsgd1na2vs0mg"},{"bike_id":"fd6b2286-61c6-41b0-899b-63aa95ee7bfa","system_id":"levelo_inurba_marseille","lat":43.3014,"lon":5.37416,"is_reserved":false,"is_disabled":false,"rental_uris":{"android":"levelo://app?vid=fd6b2286-61c6-41b0-899b-63aa95ee7bfa","ios":"levelo://app?vid=fd6b2286-61c6-41b0-899b-63aa95ee7bfa"},"vehicle_type_id":"4","last_reported":1727255371,"current_range_meters":28000,"station_id":"ce4bgs92rcd13ifvqcc0","pricing_plan_id":"cebpf4jnsgd1na2vs0mg"},{"bike_id":"a1d82605-350d-4120-889c-7761b40719ec","system_id":"levelo_inurba_marseille","lat":43.32108,"lon":5.36771,"is_reserved":false,"is_disabled":false,"rental_uris":{"android":"levelo://app?vid=a1d82605-350d-4120-889c-7761b40719ec","ios":"levelo://app?vid=a1d82605-350d-4120-889c-7761b40719ec"},"vehicle_type_id":"4","last_reported":1727255371,"current_range_meters":20400,"station_id":"ce4bhrh2rcd13ifvqhug","pricing_plan_id":"cebpf4jnsgd1na2vs0mg"},{"bike_id":"45c962d2-6a7e-406f-a364-432c7532adb1","system_id":"levelo_inurba_marseille","lat":43.26683,"lon":5.3826,"is_reserved":false,"is_disabled":false,"rental_uris":{"android":"levelo://app?vid=45c962d2-6a7e-406f-a364-432c7532adb1","ios":"levelo://app?vid=45c962d2-6a7e-406f-a364-432c7532adb1"},"vehicle_type_id":"4","last_reported":1727255371,"current_range_meters":4400,"station_id":"ce4bhg92rcd13ifvqf90","pricing_plan_id":"cebpf4jnsgd1na2vs0mg"},{"bike_id":"dbf76b6b-0c4f-4a58-9db4-6b58ad871be6","system_id":"levelo_inurba_marseille","lat":43.31363,"lon":5.3849,"is_reserved":false,"is_disabled":false,"rental_uris":{"android":"levelo://app?vid=dbf76b6b-0c4f-4a58-9db4-6b58ad871be6","ios":"levelo://app?vid=dbf76b6b-0c4f-4a58-9db4-6b58ad871be6"},"vehicle_type_id":"4","last_reported":1727255371,"current_range_meters":38800,"station_id":"ce4bgt92rcd13ifvqcf0","pricing_plan_id":"cebpf4jnsgd1na2vs0mg"},{"bike_id":"8fb232c5-d21b-4052-928e-b0f8d765da85","system_id":"levelo_inurba_marseille","lat":43.3016,"lon":5.3808,"is_reserved":false,"is_disabled":false,"rental_uris":{"android":"levelo://app?vid=8fb232c5-d21b-4052-928e-b0f8d765da85","ios":"levelo://app?vid=8fb232c5-d21b-4052-928e-b0f8d765da85"},"vehicle_type_id":"4","last_reported":1727255371,"current_range_meters":36800,"station_id":"ce4bgjp2rcd13ifvqbh0","pricing_plan_id":"cebpf4jnsgd1na2vs0mg"},{"bike_id":"1166f6b1-5b87-4bc1-b21d-c61655b2fee0","system_id":"levelo_inurba_marseille","lat":43.29446,"lon":5.3806,"is_reserved":false,"is_disabled":false,"rental_uris":{"android":"levelo://app?vid=1166f6b1-5b87-4bc1-b21d-c61655b2fee0","ios":"levelo://app?vid=1166f6b1-5b87-4bc1-b21d-c61655b2fee0"},"vehicle_type_id":"4","last_reported":1727255371,"current_range_meters":35200,"station_id":"","pricing_plan_id":"cebpf4jnsgd1na2vs0mg"},{"bike_id":"c6bf9329-ad8f-477b-a937-0e107709e9c3","system_id":"levelo_inurba_marseille","lat":43.33739,"lon":5.37472,"is_reserved":false,"is_disabled":false,"rental_uris":{"android":"levelo://app?vid=c6bf9329-ad8f-477b-a937-0e107709e9c3","ios":"levelo://app?vid=c6bf9329-ad8f-477b-a937-0e107709e9c3"},"vehicle_type_id":"4","last_reported":1727255371,"current_range_meters":27600,"station_id":"","pricing_plan_id":"cebpf4jnsgd1na2vs0mg"},{"bike_id":"34d6475b-3d6b-4887-b0b0-8977cb1addfa","system_id":"levelo_inurba_marseille","lat":43.298,"lon":5.40398,"is_reserved":false,"is_disabled":false,"rental_uris":{"android":"levelo://app?vid=34d6475b-3d6b-4887-b0b0-8977cb1addfa","ios":"levelo://app?vid=34d6475b-3d6b-4887-b0b0-8977cb1addfa"},"vehicle_type_id":"4","last_reported":1727255371,"current_range_meters":38400,"station_id":"ce4bh112rcd13ifvqd90","pricing_plan_id":"cebpf4jnsgd1na2vs0mg"},{"bike_id":"bbc4d024-ac6e-4666-9670-3c2780dd9ada","system_id":"levelo_inurba_marseille","lat":43.29038,"lon":5.3756,"is_reserved":false,"is_disabled":false,"rental_uris":{"android":"levelo://app?vid=bbc4d024-ac6e-4666-9670-3c2780dd9ada","ios":"levelo://app?vid=bbc4d024-ac6e-4666-9670-3c2780dd9ada"},"vehicle_type_id":"4","last_reported":1727255371,"current_range_meters":37600,"station_id":"ce4bh692rcd13ifvqe90","pricing_plan_id":"cebpf4jnsgd1na2vs0mg"},{"bike_id":"f516639c-2258-4e96-b252-fbecf52cfcc7","system_id":"levelo_inurba_marseille","lat":43.28432,"lon":5.39203,"is_reserved":false,"is_disabled":false,"rental_uris":{"android":"levelo://app?vid=f516639c-2258-4e96-b252-fbecf52cfcc7","ios":"levelo://app?vid=f516639c-2258-4e96-b252-fbecf52cfcc7"},"vehicle_type_id":"4","last_reported":1727255371,"current_range_meters":28800,"station_id":"ce4bhoh2rcd13ifvqh5g","pricing_plan_id":"cebpf4jnsgd1na2vs0mg"},{"bike_id":"a9b5ef82-4273-45d0-b93e-a999e67c47fd","system_id":"levelo_inurba_marseille","lat":43.30156,"lon":5.38079,"is_reserved":false,"is_disabled":false,"rental_uris":{"android":"levelo://app?vid=a9b5ef82-4273-45d0-b93e-a999e67c47fd","ios":"levelo://app?vid=a9b5ef82-4273-45d0-b93e-a999e67c47fd"},"vehicle_type_id":"4","last_reported":1727255371,"current_range_meters":38000,"station_id":"ce4bgjp2rcd13ifvqbh0","pricing_plan_id":"cebpf4jnsgd1na2vs0mg"},{"bike_id":"249c9091-61aa-4e8e-8e7b-4cdb5273009f","system_id":"levelo_inurba_marseille","lat":43.30133,"lon":5.37423,"is_reserved":false,"is_disabled":false,"rental_uris":{"android":"levelo://app?vid=249c9091-61aa-4e8e-8e7b-4cdb5273009f","ios":"levelo://app?vid=249c9091-61aa-4e8e-8e7b-4cdb5273009f"},"vehicle_type_id":"4","last_reported":1727255371,"current_range_meters":38800,"station_id":"ce4bgs92rcd13ifvqcc0","pricing_plan_id":"cebpf4jnsgd1na2vs0mg"},{"bike_id":"5d22d37c-c8d4-4feb-8685-bf150cafbdc6","system_id":"levelo_inurba_marseille","lat":43.2407,"lon":5.37757,"is_reserved":false,"is_disabled":false,"rental_uris":{"android":"levelo://app?vid=5d22d37c-c8d4-4feb-8685-bf150cafbdc6","ios":"levelo://app?vid=5d22d37c-c8d4-4feb-8685-bf150cafbdc6"},"vehicle_type_id":"4","last_reported":1727255371,"current_range_meters":18800,"station_id":"ce4bhnp2rcd13ifvqgvg","pricing_plan_id":"cebpf4jnsgd1na2vs0mg"},{"bike_id":"4d7a10c7-f10e-45a6-a231-6e24c083b131","system_id":"levelo_inurba_marseille","lat":43.29419,"lon":5.38635,"is_reserved":false,"is_disabled":false,"rental_uris":{"android":"levelo://app?vid=4d7a10c7-f10e-45a6-a231-6e24c083b131","ios":"levelo://app?vid=4d7a10c7-f10e-45a6-a231-6e24c083b131"},"vehicle_type_id":"4","last_reported":1727255371,"current_range_meters":12400,"station_id":"ce4bh2h2rcd13ifvqdh0","pricing_plan_id":"cebpf4jnsgd1na2vs0mg"},{"bike_id":"a85e9875-51f7-46c9-b0d4-7338b81e140e","system_id":"levelo_inurba_marseille","lat":43.25002,"lon":5.38919,"is_reserved":false,"is_disabled":false,"rental_uris":{"android":"levelo://app?vid=a85e9875-51f7-46c9-b0d4-7338b81e140e","ios":"levelo://app?vid=a85e9875-51f7-46c9-b0d4-7338b81e140e"},"vehicle_type_id":"4","last_reported":1727255371,"current_range_meters":20400,"station_id":"ce4bhgp2rcd13ifvqfd0","pricing_plan_id":"cebpf4jnsgd1na2vs0mg"},{"bike_id":"9d669928-70c4-4f73-a6f5-ceed2e87e7a7","system_id":"levelo_inurba_marseille","lat":43.30278,"lon":5.37693,"is_reserved":false,"is_disabled":false,"rental_uris":{"android":"levelo://app?vid=9d669928-70c4-4f73-a6f5-ceed2e87e7a7","ios":"levelo://app?vid=9d669928-70c4-4f73-a6f5-ceed2e87e7a7"},"vehicle_type_id":"4","last_reported":1727255371,"current_range_meters":12400,"station_id":"ce4bguh2rcd13ifvqcj0","pricing_plan_id":"cebpf4jnsgd1na2vs0mg"},{"bike_id":"17701005-77c3-4e4f-a0b4-b2ece630517d","system_id":"levelo_inurba_marseille","lat":43.23955,"lon":5.36638,"is_reserved":false,"is_disabled":false,"rental_uris":{"android":"levelo://app?vid=17701005-77c3-4e4f-a0b4-b2ece630517d","ios":"levelo://app?vid=17701005-77c3-4e4f-a0b4-b2ece630517d"},"vehicle_type_id":"4","last_reported":1727255371,"current_range_meters":37600,"station_id":"ce4bhi12rcd13ifvqfp0","pricing_plan_id":"cebpf4jnsgd1na2vs0mg"},{"bike_id":"0d0e25f9-0032-45de-a2f9-ee0e20185787","system_id":"levelo_inurba_marseille","lat":43.29611,"lon":5.37717,"is_reserved":false,"is_disabled":false,"rental_uris":{"android":"levelo://app?vid=0d0e25f9-0032-45de-a2f9-ee0e20185787","ios":"levelo://app?vid=0d0e25f9-0032-45de-a2f9-ee0e20185787"},"vehicle_type_id":"4","last_reported":1727255371,"current_range_meters":38800,"station_id":"ce4bgnh2rcd13ifvqc0g","pricing_plan_id":"cebpf4jnsgd1na2vs0mg"},{"bike_id":"b327798d-28c4-4643-8cfa-44c6ce1e73ad","system_id":"levelo_inurba_marseille","lat":43.27834,"lon":5.39214,"is_reserved":false,"is_disabled":false,"rental_uris":{"android":"levelo://app?vid=b327798d-28c4-4643-8cfa-44c6ce1e73ad","ios":"levelo://app?vid=b327798d-28c4-4643-8cfa-44c6ce1e73ad"},"vehicle_type_id":"4","last_reported":1727255371,"current_range_meters":17200,"station_id":"ce4bhjp2rcd13ifvqga0","pricing_plan_id":"cebpf4jnsgd1na2vs0mg"},{"bike_id":"20b02bf8-7c07-47cd-bbba-31b992e68154","system_id":"levelo_inurba_marseille","lat":43.30154,"lon":5.38079,"is_reserved":false,"is_disabled":false,"rental_uris":{"android":"levelo://app?vid=20b02bf8-7c07-47cd-bbba-31b992e68154","ios":"levelo://app?vid=20b02bf8-7c07-47cd-bbba-31b992e68154"},"vehicle_type_id":"4","last_reported":1727255371,"current_range_meters":38000,"station_id":"ce4bgjp2rcd13ifvqbh0","pricing_plan_id":"cebpf4jnsgd1na2vs0mg"},{"bike_id":"778731f7-47c1-44a1-aa54-fde700589853","system_id":"levelo_inurba_marseille","lat":43.27491,"lon":5.42458,"is_reserved":false,"is_disabled":false,"rental_uris":{"android":"levelo://app?vid=778731f7-47c1-44a1-aa54-fde700589853","ios":"levelo://app?vid=778731f7-47c1-44a1-aa54-fde700589853"},"vehicle_type_id":"4","last_reported":1727255371,"current_range_meters":30000,"station_id":"ce4bhn92rcd13ifvqgrg","pricing_plan_id":"cebpf4jnsgd1na2vs0mg"},{"bike_id":"6b0f87a0-5b1e-4702-8fee-4746ea2ad047","system_id":"levelo_inurba_marseille","lat":43.29006,"lon":5.35614,"is_reserved":false,"is_disabled":false,"rental_uris":{"android":"levelo://app?vid=6b0f87a0-5b1e-4702-8fee-4746ea2ad047","ios":"levelo://app?vid=6b0f87a0-5b1e-4702-8fee-4746ea2ad047"},"vehicle_type_id":"4","last_reported":1727255371,"current_range_meters":38400,"station_id":"ce4bhb92rcd13ifvqen0","pricing_plan_id":"cebpf4jnsgd1na2vs0mg"},{"bike_id":"44afe1be-5744-4063-b822-ad8ae8ca14dc","system_id":"levelo_inurba_marseille","lat":43.30354,"lon":5.41878,"is_reserved":false,"is_disabled":false,"rental_uris":{"android":"levelo://app?vid=44afe1be-5744-4063-b822-ad8ae8ca14dc","ios":"levelo://app?vid=44afe1be-5744-4063-b822-ad8ae8ca14dc"},"vehicle_type_id":"4","last_reported":1727255371,"current_range_meters":15200,"station_id":"ce4bhop2rcd13ifvqh7g","pricing_plan_id":"cebpf4jnsgd1na2vs0mg"},{"bike_id":"8e890df9-1215-4fb6-873e-d625163b0e12","system_id":"levelo_inurba_marseille","lat":43.30542,"lon":5.3655,"is_reserved":false,"is_disabled":false,"rental_uris":{"android":"levelo://app?vid=8e890df9-1215-4fb6-873e-d625163b0e12","ios":"levelo://app?vid=8e890df9-1215-4fb6-873e-d625163b0e12"},"vehicle_type_id":"4","last_reported":1727255371,"current_range_meters":18800,"station_id":"ce4bgs12rcd13ifvqcag","pricing_plan_id":"cebpf4jnsgd1na2vs0mg"},{"bike_id":"b1c6f62a-361d-4707-9dc7-b403f39177cc","system_id":"levelo_inurba_marseille","lat":43.32531,"lon":5.41451,"is_reserved":false,"is_disabled":false,"rental_uris":{"android":"levelo://app?vid=b1c6f62a-361d-4707-9dc7-b403f39177cc","ios":"levelo://app?vid=b1c6f62a-361d-4707-9dc7-b403f39177cc"},"vehicle_type_id":"4","last_reported":1727255371,"current_range_meters":11600,"station_id":"ce4bhq12rcd13ifvqhhg","pricing_plan_id":"cebpf4jnsgd1na2vs0mg"},{"bike_id":"60094dbc-2b68-4180-a709-7e0b5894cbda","system_id":"levelo_inurba_marseille","lat":43.32107,"lon":5.36769,"is_reserved":false,"is_disabled":false,"rental_uris":{"android":"levelo://app?vid=60094dbc-2b68-4180-a709-7e0b5894cbda","ios":"levelo://app?vid=60094dbc-2b68-4180-a709-7e0b5894cbda"},"vehicle_type_id":"4","last_reported":1727255371,"current_range_meters":31200,"station_id":"ce4bhrh2rcd13ifvqhug","pricing_plan_id":"cebpf4jnsgd1na2vs0mg"},{"bike_id":"d5aa1add-115d-4e1a-b824-66ecde93a367","system_id":"levelo_inurba_marseille","lat":43.24085,"lon":5.37744,"is_reserved":false,"is_disabled":false,"rental_uris":{"android":"levelo://app?vid=d5aa1add-115d-4e1a-b824-66ecde93a367","ios":"levelo://app?vid=d5aa1add-115d-4e1a-b824-66ecde93a367"},"vehicle_type_id":"4","last_reported":1727255371,"current_range_meters":8800,"station_id":"ce4bhnp2rcd13ifvqgvg","pricing_plan_id":"cebpf4jnsgd1na2vs0mg"},{"bike_id":"e828d106-339e-45bb-8cc1-41a306883c3a","system_id":"levelo_inurba_marseille","lat":43.33773,"lon":5.37434,"is_reserved":false,"is_disabled":false,"rental_uris":{"android":"levelo://app?vid=e828d106-339e-45bb-8cc1-41a306883c3a","ios":"levelo://app?vid=e828d106-339e-45bb-8cc1-41a306883c3a"},"vehicle_type_id":"4","last_reported":1727255371,"current_range_meters":36800,"station_id":"","pricing_plan_id":"cebpf4jnsgd1na2vs0mg"},{"bike_id":"eec3eb1f-631d-43e1-8834-dea90b68d531","system_id":"levelo_inurba_marseille","lat":43.2749,"lon":5.42451,"is_reserved":false,"is_disabled":false,"rental_uris":{"android":"levelo://app?vid=eec3eb1f-631d-43e1-8834-dea90b68d531","ios":"levelo://app?vid=eec3eb1f-631d-43e1-8834-dea90b68d531"},"vehicle_type_id":"4","last_reported":1727255371,"current_range_meters":17200,"station_id":"ce4bhn92rcd13ifvqgrg","pricing_plan_id":"cebpf4jnsgd1na2vs0mg"},{"bike_id":"aad903e6-d816-4f64-9cf3-53850f5587e5","system_id":"levelo_inurba_marseille","lat":43.29308,"lon":5.37005,"is_reserved":false,"is_disabled":false,"rental_uris":{"android":"levelo://app?vid=aad903e6-d816-4f64-9cf3-53850f5587e5","ios":"levelo://app?vid=aad903e6-d816-4f64-9cf3-53850f5587e5"},"vehicle_type_id":"4","last_reported":1727255371,"current_range_meters":16000,"station_id":"ce4bh192rcd13ifvqdd0","pricing_plan_id":"cebpf4jnsgd1na2vs0mg"},{"bike_id":"4c43b43f-be17-43d2-95e0-fab0c099fe37","system_id":"levelo_inurba_marseille","lat":43.23161,"lon":5.43702,"is_reserved":false,"is_disabled":false,"rental_uris":{"android":"levelo://app?vid=4c43b43f-be17-43d2-95e0-fab0c099fe37","ios":"levelo://app?vid=4c43b43f-be17-43d2-95e0-fab0c099fe37"},"vehicle_type_id":"4","last_reported":1727255371,"current_range_meters":37600,"station_id":"ce4bhmp2rcd13ifvqgog","pricing_plan_id":"cebpf4jnsgd1na2vs0mg"},{"bike_id":"ceb10443-ed57-4dd0-9c4b-94280900ea8f","system_id":"levelo_inurba_marseille","lat":43.25719,"lon":5.41121,"is_reserved":false,"is_disabled":false,"rental_uris":{"android":"levelo://app?vid=ceb10443-ed57-4dd0-9c4b-94280900ea8f","ios":"levelo://app?vid=ceb10443-ed57-4dd0-9c4b-94280900ea8f"},"vehicle_type_id":"4","last_reported":1727255371,"current_range_meters":37600,"station_id":"ce4bhkp2rcd13ifvqgd0","pricing_plan_id":"cebpf4jnsgd1na2vs0mg"},{"bike_id":"a7bca3df-0344-4204-86d7-b742d4769839","system_id":"levelo_inurba_marseille","lat":43.30863,"lon":5.3685,"is_reserved":false,"is_disabled":false,"rental_uris":{"android":"levelo://app?vid=a7bca3df-0344-4204-86d7-b742d4769839","ios":"levelo://app?vid=a7bca3df-0344-4204-86d7-b742d4769839"},"vehicle_type_id":"4","last_reported":1727255371,"current_range_meters":28400,"station_id":"ce4bgn92rcd13ifvqbvg","pricing_plan_id":"cebpf4jnsgd1na2vs0mg"},{"bike_id":"2274dad3-8009-4ea2-8a08-89145dba0ee5","system_id":"levelo_inurba_marseille","lat":43.29023,"lon":5.38638,"is_reserved":false,"is_disabled":false,"rental_uris":{"android":"levelo://app?vid=2274dad3-8009-4ea2-8a08-89145dba0ee5","ios":"levelo://app?vid=2274dad3-8009-4ea2-8a08-89145dba0ee5"},"vehicle_type_id":"4","last_reported":1727255371,"current_range_meters":38800,"station_id":"ce4bh4p2rcd13ifvqe0g","pricing_plan_id":"cebpf4jnsgd1na2vs0mg"},{"bike_id":"a5f55373-698d-437b-8ca1-cf29ecbe349b","system_id":"levelo_inurba_marseille","lat":43.27489,"lon":5.42456,"is_reserved":false,"is_disabled":false,"rental_uris":{"android":"levelo://app?vid=a5f55373-698d-437b-8ca1-cf29ecbe349b","ios":"levelo://app?vid=a5f55373-698d-437b-8ca1-cf29ecbe349b"},"vehicle_type_id":"4","last_reported":1727255371,"current_range_meters":32000,"station_id":"ce4bhn92rcd13ifvqgrg","pricing_plan_id":"cebpf4jnsgd1na2vs0mg"},{"bike_id":"91dcdebc-45ae-4344-b984-f1e7605221f1","system_id":"levelo_inurba_marseille","lat":43.29295,"lon":5.37442,"is_reserved":false,"is_disabled":false,"rental_uris":{"android":"levelo://app?vid=91dcdebc-45ae-4344-b984-f1e7605221f1","ios":"levelo://app?vid=91dcdebc-45ae-4344-b984-f1e7605221f1"},"vehicle_type_id":"4","last_reported":1727255371,"current_range_meters":19600,"station_id":"ce4bgi12rcd13ifvqb70","pricing_plan_id":"cebpf4jnsgd1na2vs0mg"},{"bike_id":"2d3f7b7b-7d32-4a74-957b-859b4e619117","system_id":"levelo_inurba_marseille","lat":43.26066,"lon":5.39392,"is_reserved":false,"is_disabled":false,"rental_uris":{"android":"levelo://app?vid=2d3f7b7b-7d32-4a74-957b-859b4e619117","ios":"levelo://app?vid=2d3f7b7b-7d32-4a74-957b-859b4e619117"},"vehicle_type_id":"4","last_reported":1727255371,"current_range_meters":38800,"station_id":"ce4bhh92rcd13ifvqfj0","pricing_plan_id":"cebpf4jnsgd1na2vs0mg"},{"bike_id":"ac4c8e29-0856-449d-bc90-35283c138610","system_id":"levelo_inurba_marseille","lat":43.291618,"lon":5.371596,"is_reserved":false,"is_disabled":false,"rental_uris":{"android":"levelo://app?vid=ac4c8e29-0856-449d-bc90-35283c138610","ios":"levelo://app?vid=ac4c8e29-0856-449d-bc90-35283c138610"},"vehicle_type_id":"4","last_reported":1727255371,"current_range_meters":22000,"station_id":"ce4bha92rcd13ifvqeh0","pricing_plan_id":"cebpf4jnsgd1na2vs0mg"},{"bike_id":"8766dfc6-3289-489a-a4e5-1a39124b6beb","system_id":"levelo_inurba_marseille","lat":43.29028,"lon":5.3865,"is_reserved":false,"is_disabled":false,"rental_uris":{"android":"levelo://app?vid=8766dfc6-3289-489a-a4e5-1a39124b6beb","ios":"levelo://app?vid=8766dfc6-3289-489a-a4e5-1a39124b6beb"},"vehicle_type_id":"4","last_reported":1727255371,"current_range_meters":8000,"station_id":"ce4bh4p2rcd13ifvqe0g","pricing_plan_id":"cebpf4jnsgd1na2vs0mg"},{"bike_id":"c95a86d0-0a4e-4d1d-aa40-aaacc28212e5","system_id":"levelo_inurba_marseille","lat":43.29307,"lon":5.37165,"is_reserved":false,"is_disabled":false,"rental_uris":{"android":"levelo://app?vid=c95a86d0-0a4e-4d1d-aa40-aaacc28212e5","ios":"levelo://app?vid=c95a86d0-0a4e-4d1d-aa40-aaacc28212e5"},"vehicle_type_id":"4","last_reported":1727255371,"current_range_meters":6000,"station_id":"ce4bgh92rcd13ifvqb40","pricing_plan_id":"cebpf4jnsgd1na2vs0mg"},{"bike_id":"7827170f-fe53-4f76-acc5-1f9d10e67145","system_id":"levelo_inurba_marseille","lat":43.22932,"lon":5.35375,"is_reserved":false,"is_disabled":false,"rental_uris":{"android":"levelo://app?vid=7827170f-fe53-4f76-acc5-1f9d10e67145","ios":"levelo://app?vid=7827170f-fe53-4f76-acc5-1f9d10e67145"},"vehicle_type_id":"4","last_reported":1727255371,"current_range_meters":38400,"station_id":"cpo3532slgdg3j2ikp40","pricing_plan_id":"cebpf4jnsgd1na2vs0mg"},{"bike_id":"d831a0c8-0bcd-4449-91a5-836df1a52d4b","system_id":"levelo_inurba_marseille","lat":43.307183,"lon":5.37276,"is_reserved":false,"is_disabled":false,"rental_uris":{"android":"levelo://app?vid=d831a0c8-0bcd-4449-91a5-836df1a52d4b","ios":"levelo://app?vid=d831a0c8-0bcd-4449-91a5-836df1a52d4b"},"vehicle_type_id":"4","last_reported":1727255371,"current_range_meters":11200,"station_id":"","pricing_plan_id":"cebpf4jnsgd1na2vs0mg"},{"bike_id":"37ea3e6e-16e9-42b3-b4f9-836c84a7a894","system_id":"levelo_inurba_marseille","lat":43.23187,"lon":5.39988,"is_reserved":false,"is_disabled":false,"rental_uris":{"android":"levelo://app?vid=37ea3e6e-16e9-42b3-b4f9-836c84a7a894","ios":"levelo://app?vid=37ea3e6e-16e9-42b3-b4f9-836c84a7a894"},"vehicle_type_id":"4","last_reported":1727255371,"current_range_meters":27600,"station_id":"ce4bhn12rcd13ifvqgqg","pricing_plan_id":"cebpf4jnsgd1na2vs0mg"},{"bike_id":"337d797f-5bad-4e42-a3a9-741eceae0aa0","system_id":"levelo_inurba_marseille","lat":43.33724,"lon":5.39177,"is_reserved":false,"is_disabled":false,"rental_uris":{"android":"levelo://app?vid=337d797f-5bad-4e42-a3a9-741eceae0aa0","ios":"levelo://app?vid=337d797f-5bad-4e42-a3a9-741eceae0aa0"},"vehicle_type_id":"4","last_reported":1727255371,"current_range_meters":38800,"station_id":"ce4bhr92rcd13ifvqhsg","pricing_plan_id":"cebpf4jnsgd1na2vs0mg"},{"bike_id":"7d13bfe6-cac1-417a-a866-11f3f6431dbc","system_id":"levelo_inurba_marseille","lat":43.28856,"lon":5.37139,"is_reserved":false,"is_disabled":false,"rental_uris":{"android":"levelo://app?vid=7d13bfe6-cac1-417a-a866-11f3f6431dbc","ios":"levelo://app?vid=7d13bfe6-cac1-417a-a866-11f3f6431dbc"},"vehicle_type_id":"4","last_reported":1727255371,"current_range_meters":27200,"station_id":"ce4bht12rcd13ifvqi60","pricing_plan_id":"cebpf4jnsgd1na2vs0mg"},{"bike_id":"4a4bfd88-bdfc-4802-b3a8-e798e4274727","system_id":"levelo_inurba_marseille","lat":43.322901,"lon":5.382605,"is_reserved":false,"is_disabled":false,"rental_uris":{"android":"levelo://app?vid=4a4bfd88-bdfc-4802-b3a8-e798e4274727","ios":"levelo://app?vid=4a4bfd88-bdfc-4802-b3a8-e798e4274727"},"vehicle_type_id":"4","last_reported":1727255371,"current_range_meters":28800,"station_id":"ce4bhr12rcd13ifvqhqg","pricing_plan_id":"cebpf4jnsgd1na2vs0mg"},{"bike_id":"c5a9bf36-fb12-4479-8006-c6bb1fef86c3","system_id":"levelo_inurba_marseille","lat":43.303925,"lon":5.377445,"is_reserved":false,"is_disabled":false,"rental_uris":{"android":"levelo://app?vid=c5a9bf36-fb12-4479-8006-c6bb1fef86c3","ios":"levelo://app?vid=c5a9bf36-fb12-4479-8006-c6bb1fef86c3"},"vehicle_type_id":"4","last_reported":1727255371,"current_range_meters":18800,"station_id":"ce4bguh2rcd13ifvqcj0","pricing_plan_id":"cebpf4jnsgd1na2vs0mg"},{"bike_id":"d4372665-0325-437c-9f28-d68009d5634a","system_id":"levelo_inurba_marseille","lat":43.29605,"lon":5.38097,"is_reserved":false,"is_disabled":false,"rental_uris":{"android":"levelo://app?vid=d4372665-0325-437c-9f28-d68009d5634a","ios":"levelo://app?vid=d4372665-0325-437c-9f28-d68009d5634a"},"vehicle_type_id":"4","last_reported":1727255371,"current_range_meters":9600,"station_id":"ce4bgl12rcd13ifvqbo0","pricing_plan_id":"cebpf4jnsgd1na2vs0mg"},{"bike_id":"6d96f985-9c01-48a6-84cc-38d4437fa126","system_id":"levelo_inurba_marseille","lat":43.23155,"lon":5.43706,"is_reserved":false,"is_disabled":false,"rental_uris":{"android":"levelo://app?vid=6d96f985-9c01-48a6-84cc-38d4437fa126","ios":"levelo://app?vid=6d96f985-9c01-48a6-84cc-38d4437fa126"},"vehicle_type_id":"4","last_reported":1727255371,"current_range_meters":13600,"station_id":"ce4bhmp2rcd13ifvqgog","pricing_plan_id":"cebpf4jnsgd1na2vs0mg"},{"bike_id":"6e26fd40-fb44-40d1-afbb-79f17e933784","system_id":"levelo_inurba_marseille","lat":43.30947,"lon":5.39026,"is_reserved":false,"is_disabled":false,"rental_uris":{"android":"levelo://app?vid=6e26fd40-fb44-40d1-afbb-79f17e933784","ios":"levelo://app?vid=6e26fd40-fb44-40d1-afbb-79f17e933784"},"vehicle_type_id":"4","last_reported":1727255371,"current_range_meters":34000,"station_id":"ce4bgup2rcd13ifvqco0","pricing_plan_id":"cebpf4jnsgd1na2vs0mg"},{"bike_id":"7635e4d0-4a46-4fca-85b7-6999483bff03","system_id":"levelo_inurba_marseille","lat":43.29009,"lon":5.35608,"is_reserved":false,"is_disabled":false,"rental_uris":{"android":"levelo://app?vid=7635e4d0-4a46-4fca-85b7-6999483bff03","ios":"levelo://app?vid=7635e4d0-4a46-4fca-85b7-6999483bff03"},"vehicle_type_id":"4","last_reported":1727255371,"current_range_meters":38000,"station_id":"ce4bhb92rcd13ifvqen0","pricing_plan_id":"cebpf4jnsgd1na2vs0mg"},{"bike_id":"cf08a50f-142e-42f1-b2a2-499e47211796","system_id":"levelo_inurba_marseille","lat":43.30321,"lon":5.36899,"is_reserved":false,"is_disabled":false,"rental_uris":{"android":"levelo://app?vid=cf08a50f-142e-42f1-b2a2-499e47211796","ios":"levelo://app?vid=cf08a50f-142e-42f1-b2a2-499e47211796"},"vehicle_type_id":"4","last_reported":1727255371,"current_range_meters":28000,"station_id":"ce4bgqh2rcd13ifvqc5g","pricing_plan_id":"cebpf4jnsgd1na2vs0mg"},{"bike_id":"83ba5108-5b0a-4d30-bc54-2eaa9d223d59","system_id":"levelo_inurba_marseille","lat":43.30474,"lon":5.37895,"is_reserved":false,"is_disabled":false,"rental_uris":{"android":"levelo://app?vid=83ba5108-5b0a-4d30-bc54-2eaa9d223d59","ios":"levelo://app?vid=83ba5108-5b0a-4d30-bc54-2eaa9d223d59"},"vehicle_type_id":"4","last_reported":1727255371,"current_range_meters":38800,"station_id":"ce4bgup2rcd13ifvqcn0","pricing_plan_id":"cebpf4jnsgd1na2vs0mg"},{"bike_id":"95b59248-193a-47df-9847-7d547353f860","system_id":"levelo_inurba_marseille","lat":43.3048,"lon":5.37907,"is_reserved":false,"is_disabled":false,"rental_uris":{"android":"levelo://app?vid=95b59248-193a-47df-9847-7d547353f860","ios":"levelo://app?vid=95b59248-193a-47df-9847-7d547353f860"},"vehicle_type_id":"4","last_reported":1727255371,"current_range_meters":37600,"station_id":"ce4bgup2rcd13ifvqcn0","pricing_plan_id":"cebpf4jnsgd1na2vs0mg"},{"bike_id":"9ac9d415-314c-47c9-83c9-409ec35ee620","system_id":"levelo_inurba_marseille","lat":43.24077,"lon":5.3776,"is_reserved":false,"is_disabled":false,"rental_uris":{"android":"levelo://app?vid=9ac9d415-314c-47c9-83c9-409ec35ee620","ios":"levelo://app?vid=9ac9d415-314c-47c9-83c9-409ec35ee620"},"vehicle_type_id":"4","last_reported":1727255371,"current_range_meters":38800,"station_id":"ce4bhnp2rcd13ifvqgvg","pricing_plan_id":"cebpf4jnsgd1na2vs0mg"},{"bike_id":"0fa02f19-62ea-444b-908b-23c26cd28fb0","system_id":"levelo_inurba_marseille","lat":43.30147,"lon":5.37415,"is_reserved":false,"is_disabled":false,"rental_uris":{"android":"levelo://app?vid=0fa02f19-62ea-444b-908b-23c26cd28fb0","ios":"levelo://app?vid=0fa02f19-62ea-444b-908b-23c26cd28fb0"},"vehicle_type_id":"4","last_reported":1727255371,"current_range_meters":38800,"station_id":"ce4bgs92rcd13ifvqcc0","pricing_plan_id":"cebpf4jnsgd1na2vs0mg"},{"bike_id":"4d31a4eb-f1f8-4c48-aaf0-bc7a81a344c8","system_id":"levelo_inurba_marseille","lat":43.30138,"lon":5.37418,"is_reserved":false,"is_disabled":false,"rental_uris":{"android":"levelo://app?vid=4d31a4eb-f1f8-4c48-aaf0-bc7a81a344c8","ios":"levelo://app?vid=4d31a4eb-f1f8-4c48-aaf0-bc7a81a344c8"},"vehicle_type_id":"4","last_reported":1727255371,"current_range_meters":30400,"station_id":"ce4bgs92rcd13ifvqcc0","pricing_plan_id":"cebpf4jnsgd1na2vs0mg"},{"bike_id":"f5fec03c-8a5d-4e98-89b5-985ff8911023","system_id":"levelo_inurba_marseille","lat":43.28538,"lon":5.37505,"is_reserved":false,"is_disabled":false,"rental_uris":{"android":"levelo://app?vid=f5fec03c-8a5d-4e98-89b5-985ff8911023","ios":"levelo://app?vid=f5fec03c-8a5d-4e98-89b5-985ff8911023"},"vehicle_type_id":"4","last_reported":1727255371,"current_range_meters":19200,"station_id":"ce4bh5p2rcd13ifvqe4g","pricing_plan_id":"cebpf4jnsgd1na2vs0mg"},{"bike_id":"545d64b9-99f8-4946-97b0-8284a81e86ed","system_id":"levelo_inurba_marseille","lat":43.3079,"lon":5.38167,"is_reserved":false,"is_disabled":false,"rental_uris":{"android":"levelo://app?vid=545d64b9-99f8-4946-97b0-8284a81e86ed","ios":"levelo://app?vid=545d64b9-99f8-4946-97b0-8284a81e86ed"},"vehicle_type_id":"4","last_reported":1727255371,"current_range_meters":33200,"station_id":"ce4bgt12rcd13ifvqce0","pricing_plan_id":"cebpf4jnsgd1na2vs0mg"},{"bike_id":"d0405902-c5df-4a0c-b94c-f93508091f72","system_id":"levelo_inurba_marseille","lat":43.31711,"lon":5.406,"is_reserved":false,"is_disabled":false,"rental_uris":{"android":"levelo://app?vid=d0405902-c5df-4a0c-b94c-f93508091f72","ios":"levelo://app?vid=d0405902-c5df-4a0c-b94c-f93508091f72"},"vehicle_type_id":"4","last_reported":1727255371,"current_range_meters":12800,"station_id":"ce4bhq12rcd13ifvqhhg","pricing_plan_id":"cebpf4jnsgd1na2vs0mg"},{"bike_id":"5e787303-50e2-4b6f-ac85-c0e6d3015235","system_id":"levelo_inurba_marseille","lat":43.29899,"lon":5.4366,"is_reserved":false,"is_disabled":false,"rental_uris":{"android":"levelo://app?vid=5e787303-50e2-4b6f-ac85-c0e6d3015235","ios":"levelo://app?vid=5e787303-50e2-4b6f-ac85-c0e6d3015235"},"vehicle_type_id":"4","last_reported":1727255371,"current_range_meters":38000,"station_id":"ce4bhpp2rcd13ifvqhfg","pricing_plan_id":"cebpf4jnsgd1na2vs0mg"},{"bike_id":"1eecb4bc-2160-4cbd-98f3-a71ad0c03fd2","system_id":"levelo_inurba_marseille","lat":43.30558,"lon":5.36538,"is_reserved":false,"is_disabled":false,"rental_uris":{"android":"levelo://app?vid=1eecb4bc-2160-4cbd-98f3-a71ad0c03fd2","ios":"levelo://app?vid=1eecb4bc-2160-4cbd-98f3-a71ad0c03fd2"},"vehicle_type_id":"4","last_reported":1727255371,"current_range_meters":38800,"station_id":"ce4bgs12rcd13ifvqcag","pricing_plan_id":"cebpf4jnsgd1na2vs0mg"},{"bike_id":"ede37da0-431f-462e-af97-45c71435ab2a","system_id":"levelo_inurba_marseille","lat":43.24177,"lon":5.39712,"is_reserved":false,"is_disabled":false,"rental_uris":{"android":"levelo://app?vid=ede37da0-431f-462e-af97-45c71435ab2a","ios":"levelo://app?vid=ede37da0-431f-462e-af97-45c71435ab2a"},"vehicle_type_id":"4","last_reported":1727255371,"current_range_meters":20800,"station_id":"ce4bhn12rcd13ifvqgpg","pricing_plan_id":"cebpf4jnsgd1na2vs0mg"},{"bike_id":"5f382580-7123-4ed7-9363-794ed4ff431e","system_id":"levelo_inurba_marseille","lat":43.30474,"lon":5.37905,"is_reserved":false,"is_disabled":false,"rental_uris":{"android":"levelo://app?vid=5f382580-7123-4ed7-9363-794ed4ff431e","ios":"levelo://app?vid=5f382580-7123-4ed7-9363-794ed4ff431e"},"vehicle_type_id":"4","last_reported":1727255371,"current_range_meters":38800,"station_id":"ce4bgup2rcd13ifvqcn0","pricing_plan_id":"cebpf4jnsgd1na2vs0mg"},{"bike_id":"7e4ac136-a5e1-4bb6-95e3-1ac7c58dfb31","system_id":"levelo_inurba_marseille","lat":43.30944,"lon":5.39045,"is_reserved":false,"is_disabled":false,"rental_uris":{"android":"levelo://app?vid=7e4ac136-a5e1-4bb6-95e3-1ac7c58dfb31","ios":"levelo://app?vid=7e4ac136-a5e1-4bb6-95e3-1ac7c58dfb31"},"vehicle_type_id":"4","last_reported":1727255371,"current_range_meters":34000,"station_id":"ce4bgup2rcd13ifvqco0","pricing_plan_id":"cebpf4jnsgd1na2vs0mg"},{"bike_id":"5a424b04-e0fc-4717-afab-aacb064c7c38","system_id":"levelo_inurba_marseille","lat":43.30159,"lon":5.38079,"is_reserved":false,"is_disabled":false,"rental_uris":{"android":"levelo://app?vid=5a424b04-e0fc-4717-afab-aacb064c7c38","ios":"levelo://app?vid=5a424b04-e0fc-4717-afab-aacb064c7c38"},"vehicle_type_id":"4","last_reported":1727255371,"current_range_meters":37600,"station_id":"ce4bgjp2rcd13ifvqbh0","pricing_plan_id":"cebpf4jnsgd1na2vs0mg"},{"bike_id":"a0649a41-dc4f-496e-be8e-956228c45d34","system_id":"levelo_inurba_marseille","lat":43.28474,"lon":5.38419,"is_reserved":false,"is_disabled":false,"rental_uris":{"android":"levelo://app?vid=a0649a41-dc4f-496e-be8e-956228c45d34","ios":"levelo://app?vid=a0649a41-dc4f-496e-be8e-956228c45d34"},"vehicle_type_id":"4","last_reported":1727255371,"current_range_meters":30000,"station_id":"ce4bh512rcd13ifvqe3g","pricing_plan_id":"cebpf4jnsgd1na2vs0mg"},{"bike_id":"1b3e418b-6252-462a-9089-426c6ea8d5cf","system_id":"levelo_inurba_marseille","lat":43.29796,"lon":5.38105,"is_reserved":false,"is_disabled":false,"rental_uris":{"android":"levelo://app?vid=1b3e418b-6252-462a-9089-426c6ea8d5cf","ios":"levelo://app?vid=1b3e418b-6252-462a-9089-426c6ea8d5cf"},"vehicle_type_id":"4","last_reported":1727255371,"current_range_meters":28000,"station_id":"ce4bgip2rcd13ifvqbb0","pricing_plan_id":"cebpf4jnsgd1na2vs0mg"},{"bike_id":"333e8d47-f738-4482-91bf-07a0a6e498de","system_id":"levelo_inurba_marseille","lat":43.29974,"lon":5.37183,"is_reserved":false,"is_disabled":false,"rental_uris":{"android":"levelo://app?vid=333e8d47-f738-4482-91bf-07a0a6e498de","ios":"levelo://app?vid=333e8d47-f738-4482-91bf-07a0a6e498de"},"vehicle_type_id":"4","last_reported":1727255371,"current_range_meters":24400,"station_id":"ce4bgr92rcd13ifvqc7g","pricing_plan_id":"cebpf4jnsgd1na2vs0mg"},