{"last_updated":1784414217,"ttl":60,"version":"2.2","data":{"bikes":[{"bike_id":"ba0c28b1-8732-48e2-8079-f25b2b3fbc3c","system_id":"levelo_inurba_marseille","lat":43.337444,"lon":5.374475,"is_reserved":false,"is_disabled":false,"rental_uris":{"android":"levelo://app?vid=ba0c28b1-8732-48e2-8079-f25b2b3fbc3c","ios":"levelo://app?vid=ba0c28b1-8732-48e2-8079-f25b2b3fbc3c"},"vehicle_type_id":"4","last_reported":1784414218,"current_range_meters":0,"station_id":"","pricing_plan_id":"cebpf4jnsgd1na2vs0mg"},{"bike_id":"cec666c5-2396-4bda-bc79-7be17e8190d4","system_id":"levelo_inurba_marseille","lat":43.29282,"lon":5.36843,"is_reserved":false,"is_disabled":false,"rental_uris":{"android":"levelo://app?vid=cec666c5-2396-4bda-bc79-7be17e8190d4","ios":"levelo://app?vid=cec666c5-2396-4bda-bc79-7be17e8190d4"},"vehicle_type_id":"4","last_reported":1784414218,"current_range_meters":34800,"station_id":"","pricing_plan_id":"cebpf4jnsgd1na2vs0mg"},{"bike_id":"63dc20ac-90f4-4eae-ac6c-d24ae13a7929","system_id":"levelo_inurba_marseille","lat":43.25353,"lon":5.42172,"is_reserved":false,"is_disabled":false,"rental_uris":{"android":"levelo://app?vid=63dc20ac-90f4-4eae-ac6c-d24ae13a7929","ios":"levelo://app?vid=63dc20ac-90f4-4eae-ac6c-d24ae13a7929"},"vehicle_type_id":"4","last_reported":1784414218,"current_range_meters":30800,"station_id":"st_d2m65c5bi1j21697t3ng","pricing_plan_id":"cebpf4jnsgd1na2vs0mg"},{"bike_id":"2bdeb394-5e68-4a46-a9ba-98a16da2b593","system_id":"levelo_inurba_marseille","lat":43.29221,"lon":5.39323,"is_reserved":false,"is_disabled":false,"rental_uris":{"android":"levelo://app?vid=2bdeb394-5e68-4a46-a9ba-98a16da2b593","ios":"levelo://app?vid=2bdeb394-5e68-4a46-a9ba-98a16da2b593"},"vehicle_type_id":"4","last_reported":1784414218,"current_range_meters":38800,"station_id":"ce4bh192rcd13ifvqdd0","pricing_plan_id":"cebpf4jnsgd1na2vs0mg"},{"bike_id":"41130d82-395a-4737-a55b-088e1ea928bf","system_id":"levelo_inurba_marseille","lat":43.30301,"lon":5.36876,"is_reserved":false,"is_disabled":false,"rental_uris":{"android":"levelo://app?vid=41130d82-395a-4737-a55b-088e1ea928bf","ios":"levelo://app?vid=41130d82-395a-4737-a55b-088e1ea928bf"},"vehicle_type_id":"4","last_reported":1784414218,"current_range_meters":19600,"station_id":"ce4bgqh2rcd13ifvqc5g","pricing_plan_id":"cebpf4jnsgd1na2vs0mg"},{"bike_id":"907f8459-e0e6-4dba-9fd7-5ff012118fa5","system_id":"levelo_inurba_marseille","lat":43.26029,"lon":5.37545,"is_reserved":false,"is_disabled":false,"rental_uris":{"android":"levelo://app?vid=907f8459-e0e6-4dba-9fd7-5ff012118fa5","ios":"levelo://app?vid=907f8459-e0e6-4dba-9fd7-5ff012118fa5"},"vehicle_type_id":"4","last_reported":1784414218,"current_range_meters":26800,"station_id":"ce4bhgh2rcd13ifvqfa0","pricing_plan_id":"cebpf4jnsgd1na2vs0mg"},{"bike_id":"207280f1-9a38-44af-b6b7-c558de9346cb","system_id":"levelo_inurba_marseille","lat":43.31131,"lon":5.37782,"is_reserved":false,"is_disabled":false,"rental_uris":{"android":"levelo://app?vid=207280f1-9a38-44af-b6b7-c558de9346cb","ios":"levelo://app?vid=207280f1-9a38-44af-b6b7-c558de9346cb"},"vehicle_type_id":"4","last_reported":1784414218,"current_range_meters":39200,"station_id":"ce4bgt92rcd13ifvqcg0","pricing_plan_id":"cebpf4jnsgd1na2vs0mg"},{"bike_id":"93fb9dc6-bf75-49f4-a399-a85b4f25d7a5","system_id":"levelo_inurba_marseille","lat":43.29533,"lon":5.38537,"is_reserved":false,"is_disabled":false,"rental_uris":{"android":"levelo://app?vid=93fb9dc6-bf75-49f4-a399-a85b4f25d7a5","ios":"levelo://app?vid=93fb9dc6-bf75-49f4-a399-a85b4f25d7a5"},"vehicle_type_id":"4","last_reported":1784414218,"current_range_meters":33200,"station_id":"ce4bgih2rcd13ifvqba0","pricing_plan_id":"cebpf4jnsgd1na2vs0mg"},{"bike_id":"edc293ec-aaef-4cc0-903d-983aa4cb3d2f","system_id":"levelo_inurba_marseille","lat":43.30917,"lon":5.36739,"is_reserved":false,"is_disabled":false,"rental_uris":{"android":"levelo://app?vid=edc293ec-aaef-4cc0-903d-983aa4cb3d2f","ios":"levelo://app?vid=edc293ec-aaef-4cc0-903d-983aa4cb3d2f"},"vehicle_type_id":"4","last_reported":1784414218,"current_range_meters":4400,"station_id":"","pricing_plan_id":"cebpf4jnsgd1na2vs0mg"},{"bike_id":"9da5cadf-cdd1-429b-9b5e-9173177dfcc4","system_id":"levelo_inurba_marseille","lat":43.24391,"lon":5.3712,"is_reserved":false,"is_disabled":false,"rental_uris":{"android":"levelo://app?vid=9da5cadf-cdd1-429b-9b5e-9173177dfcc4","ios":"levelo://app?vid=9da5cadf-cdd1-429b-9b5e-9173177dfcc4"},"vehicle_type_id":"4","last_reported":1784414218,"current_range_meters":9600,"station_id":"ce4bhhh2rcd13ifvqfk0","pricing_plan_id":"cebpf4jnsgd1na2vs0mg"},{"bike_id":"7f3a9600-ccdd-40a8-8515-188806ccc1c8","system_id":"levelo_inurba_marseille","lat":43.29599,"lon":5.3771,"is_reserved":false,"is_disabled":false,"rental_uris":{"android":"levelo://app?vid=7f3a9600-ccdd-40a8-8515-188806ccc1c8","ios":"levelo://app?vid=7f3a9600-ccdd-40a8-8515-188806ccc1c8"},"vehicle_type_id":"4","last_reported":1784414218,"current_range_meters":39200,"station_id":"ce4bgi92rcd13ifvqb90","pricing_plan_id":"cebpf4jnsgd1na2vs0mg"},{"bike_id":"e71494cd-d4a8-436a-a5c6-260a2924500e","system_id":"levelo_inurba_marseille","lat":43.26264,"lon":5.38732,"is_reserved":false,"is_disabled":true,"rental_uris":{"android":"levelo://app?vid=e71494cd-d4a8-436a-a5c6-260a2924500e","ios":"levelo://app?vid=e71494cd-d4a8-436a-a5c6-260a2924500e"},"vehicle_type_id":"4","last_reported":1784414218,"current_range_meters":27200,"station_id":"","pricing_plan_id":"cebpf4jnsgd1na2vs0mg"},{"bike_id":"4dd83e35-73dd-44b8-9d3c-9c21e3418d4e","system_id":"levelo_inurba_marseille","lat":43.27492,"lon":5.42554,"is_reserved":false,"is_disabled":false,"rental_uris":{"android":"levelo://app?vid=4dd83e35-73dd-44b8-9d3c-9c21e3418d4e","ios":"levelo://app?vid=4dd83e35-73dd-44b8-9d3c-9c21e3418d4e"},"vehicle_type_id":"4","last_reported":1784414218,"current_range_meters":11600,"station_id":"st_d8t4bh7nbrqs73arha60","pricing_plan_id":"cebpf4jnsgd1na2vs0mg"},{"bike_id":"661a48b2-2a3b-4341-ba7f-18771415c6d8","system_id":"levelo_inurba_marseille","lat":43.27058,"lon":5.38309,"is_reserved":false,"is_disabled":false,"rental_uris":{"android":"levelo://app?vid=661a48b2-2a3b-4341-ba7f-18771415c6d8","ios":"levelo://app?vid=661a48b2-2a3b-4341-ba7f-18771415c6d8"},"vehicle_type_id":"4","last_reported":1784414218,"current_range_meters":8400,"station_id":"st_d3n2fo6cfp8s73cte1j0","pricing_plan_id":"cebpf4jnsgd1na2vs0mg"},{"bike_id":"6666b766-2ccd-467a-ad53-5ec31fb4dec4","system_id":"levelo_inurba_marseille","lat":43.24791,"lon":5.37459,"is_reserved":false,"is_disabled":false,"rental_uris":{"android":"levelo://app?vid=6666b766-2ccd-467a-ad53-5ec31fb4dec4","ios":"levelo://app?vid=6666b766-2ccd-467a-ad53-5ec31fb4dec4"},"vehicle_type_id":"4","last_reported":1784414218,"current_range_meters":34000,"station_id":"ce4bhgh2rcd13ifvqfb0","pricing_plan_id":"cebpf4jnsgd1na2vs0mg"},{"bike_id":"bedff844-9130-492b-a7c3-37d670bbb559","system_id":"levelo_inurba_marseille","lat":43.32406,"lon":5.36497,"is_reserved":false,"is_disabled":false,"rental_uris":{"android":"levelo://app?vid=bedff844-9130-492b-a7c3-37d670bbb559","ios":"levelo://app?vid=bedff844-9130-492b-a7c3-37d670bbb559"},"vehicle_type_id":"4","last_reported":1784414218,"current_range_meters":39200,"station_id":"","pricing_plan_id":"cebpf4jnsgd1na2vs0mg"},{"bike_id":"a9029f76-a947-4038-94fd-3bc9333c145a","system_id":"levelo_inurba_marseille","lat":43.29278,"lon":5.40121,"is_reserved":false,"is_disabled":false,"rental_uris":{"android":"levelo://app?vid=a9029f76-a947-4038-94fd-3bc9333c145a","ios":"levelo://app?vid=a9029f76-a947-4038-94fd-3bc9333c145a"},"vehicle_type_id":"4","last_reported":1784414218,"current_range_meters":28000,"station_id":"ce4bh312rcd13ifvqdk0","pricing_plan_id":"cebpf4jnsgd1na2vs0mg"},{"bike_id":"61f99bed-3d12-4216-bba3-5c1abb5c3e2f","system_id":"levelo_inurba_marseille","lat":43.29621,"lon":5.37729,"is_reserved":false,"is_disabled":false,"rental_uris":{"android":"levelo://app?vid=61f99bed-3d12-4216-bba3-5c1abb5c3e2f","ios":"levelo://app?vid=61f99bed-3d12-4216-bba3-5c1abb5c3e2f"},"vehicle_type_id":"4","last_reported":1784414218,"current_range_meters":12400,"station_id":"ce4bgi92rcd13ifvqb90","pricing_plan_id":"cebpf4jnsgd1na2vs0mg"},{"bike_id":"4a2b6d62-8189-440a-9a99-ef8458bda7c9","system_id":"levelo_inurba_marseille","lat":43.30409,"lon":5.41291,"is_reserved":false,"is_disabled":false,"rental_uris":{"android":"levelo://app?vid=4a2b6d62-8189-440a-9a99-ef8458bda7c9","ios":"levelo://app?vid=4a2b6d62-8189-440a-9a99-ef8458bda7c9"},"vehicle_type_id":"4","last_reported":1784414218,"current_range_meters":32800,"station_id":"ce4bhop2rcd13ifvqh8g","pricing_plan_id":"cebpf4jnsgd1na2vs0mg"},{"bike_id":"45ef7f0d-946d-43b4-a41c-fb482c018cf9","system_id":"levelo_inurba_marseille","lat":43.29038,"lon":5.38648,"is_reserved":false,"is_disabled":false,"rental_uris":{"android":"levelo://app?vid=45ef7f0d-946d-43b4-a41c-fb482c018cf9","ios":"levelo://app?vid=45ef7f0d-946d-43b4-a41c-fb482c018cf9"},"vehicle_type_id":"4","last_reported":1784414218,"current_range_meters":36400,"station_id":"ce4bh4p2rcd13ifvqe0g","pricing_plan_id":"cebpf4jnsgd1na2vs0mg"},{"bike_id":"74db0d45-8e44-47c8-9bbb-438106ac8229","system_id":"levelo_inurba_marseille","lat":43.30784,"lon":5.38144,"is_reserved":false,"is_disabled":true,"rental_uris":{"android":"levelo://app?vid=74db0d45-8e44-47c8-9bbb-438106ac8229","ios":"levelo://app?vid=74db0d45-8e44-47c8-9bbb-438106ac8229"},"vehicle_type_id":"4","last_reported":1784414218,"current_range_meters":25200,"station_id":"ce4bgt12rcd13ifvqce0","pricing_plan_id":"cebpf4jnsgd1na2vs0mg"},{"bike_id":"0ecdb674-3c3c-46be-9a7b-0387e7579f88","system_id":"levelo_inurba_marseille","lat":43.24469,"lon":5.42535,"is_reserved":false,"is_disabled":false,"rental_uris":{"android":"levelo://app?vid=0ecdb674-3c3c-46be-9a7b-0387e7579f88","ios":"levelo://app?vid=0ecdb674-3c3c-46be-9a7b-0387e7579f88"},"vehicle_type_id":"4","last_reported":1784414218,"current_range_meters":30400,"station_id":"st_d4a3vfp97mjs738cd8kg","pricing_plan_id":"cebpf4jnsgd1na2vs0mg"},{"bike_id":"9e852095-3d5a-4110-87fe-0a114e677079","system_id":"levelo_inurba_marseille","lat":43.30136,"lon":5.38771,"is_reserved":false,"is_disabled":false,"rental_uris":{"android":"levelo://app?vid=9e852095-3d5a-4110-87fe-0a114e677079","ios":"levelo://app?vid=9e852095-3d5a-4110-87fe-0a114e677079"},"vehicle_type_id":"4","last_reported":1784414218,"current_range_meters":10000,"station_id":"ce4bghh2rcd13ifvqb60","pricing_plan_id":"cebpf4jnsgd1na2vs0mg"},{"bike_id":"129ac767-2638-4c48-b9ca-8da71d89525b","system_id":"levelo_inurba_marseille","lat":43.23897,"lon":5.37457,"is_reserved":false,"is_disabled":false,"rental_uris":{"android":"levelo://app?vid=129ac767-2638-4c48-b9ca-8da71d89525b","ios":"levelo://app?vid=129ac767-2638-4c48-b9ca-8da71d89525b"},"vehicle_type_id":"4","last_reported":1784414218,"current_range_meters":29600,"station_id":"st_d6sm7csbq4hs73f8fpjg","pricing_plan_id":"cebpf4jnsgd1na2vs0mg"},{"bike_id":"32c95016-82d3-4943-8193-1a98c4bf18c7","system_id":"levelo_inurba_marseille","lat":43.28076,"lon":5.35635,"is_reserved":false,"is_disabled":false,"rental_uris":{"android":"levelo://app?vid=32c95016-82d3-4943-8193-1a98c4bf18c7","ios":"levelo://app?vid=32c95016-82d3-4943-8193-1a98c4bf18c7"},"vehicle_type_id":"4","last_reported":1784414218,"current_range_meters":7200,"station_id":"","pricing_plan_id":"cebpf4jnsgd1na2vs0mg"},{"bike_id":"7c95905f-13e5-452f-8722-3d5cea639d10","system_id":"levelo_inurba_marseille","lat":43.29034,"lon":5.38644,"is_reserved":false,"is_disabled":false,"rental_uris":{"android":"levelo://app?vid=7c95905f-13e5-452f-8722-3d5cea639d10","ios":"levelo://app?vid=7c95905f-13e5-452f-8722-3d5cea639d10"},"vehicle_type_id":"4","last_reported":1784414218,"current_range_meters":17200,"station_id":"ce4bh4p2rcd13ifvqe0g","pricing_plan_id":"cebpf4jnsgd1na2vs0mg"},{"bike_id":"5751b85e-dda7-49ba-a7a2-25eae870540d","system_id":"levelo_inurba_marseille","lat":43.29625,"lon":5.37703,"is_reserved":false,"is_disabled":false,"rental_uris":{"android":"levelo://app?vid=5751b85e-dda7-49ba-a7a2-25eae870540d","ios":"levelo://app?vid=5751b85e-dda7-49ba-a7a2-25eae870540d"},"vehicle_type_id":"4","last_reported":1784414218,"current_range_meters":8000,"station_id":"ce4bgi92rcd13ifvqb90","pricing_plan_id":"cebpf4jnsgd1na2vs0mg"},{"bike_id":"71790937-53b0-4174-b81b-dfcb3a32f4ba","system_id":"levelo_inurba_marseille","lat":43.29544,"lon":5.38554,"is_reserved":false,"is_disabled":false,"rental_uris":{"android":"levelo://app?vid=71790937-53b0-4174-b81b-dfcb3a32f4ba","ios":"levelo://app?vid=71790937-53b0-4174-b81b-dfcb3a32f4ba"},"vehicle_type_id":"4","last_reported":1784414218,"current_range_meters":31200,"station_id":"ce4bgih2rcd13ifvqba0","pricing_plan_id":"cebpf4jnsgd1na2vs0mg"},{"bike_id":"ef6880d0-6944-4f6a-8f40-6662368b8f75","system_id":"levelo_inurba_marseille","lat":43.31724,"lon":5.43699,"is_reserved":false,"is_disabled":false,"rental_uris":{"android":"levelo://app?vid=ef6880d0-6944-4f6a-8f40-6662368b8f75","ios":"levelo://app?vid=ef6880d0-6944-4f6a-8f40-6662368b8f75"},"vehicle_type_id":"4","last_reported":1784414218,"current_range_meters":10000,"station_id":"ce4bhp92rcd13ifvqhcg","pricing_plan_id":"cebpf4jnsgd1na2vs0mg"},{"bike_id":"7bab4676-25db-456e-87b4-397a590a40da","system_id":"levelo_inurba_marseille","lat":43.27564,"lon":5.38414,"is_reserved":false,"is_disabled":false,"rental_uris":{"android":"levelo://app?vid=7bab4676-25db-456e-87b4-397a590a40da","ios":"levelo://app?vid=7bab4676-25db-456e-87b4-397a590a40da"},"vehicle_type_id":"4","last_reported":1784414218,"current_range_meters":40000,"station_id":"ce4bhh92rcd13ifvqfi0","pricing_plan_id":"cebpf4jnsgd1na2vs0mg"},{"bike_id":"ac73781c-7964-453a-82c7-5e417be13435","system_id":"levelo_inurba_marseille","lat":43.28609,"lon":5.37061,"is_reserved":false,"is_disabled":false,"rental_uris":{"android":"levelo://app?vid=ac73781c-7964-453a-82c7-5e417be13435","ios":"levelo://app?vid=ac73781c-7964-453a-82c7-5e417be13435"},"vehicle_type_id":"4","last_reported":1784414218,"current_range_meters":32000,"station_id":"ce4bht12rcd13ifvqi60","pricing_plan_id":"cebpf4jnsgd1na2vs0mg"},{"bike_id":"0440c3d3-fb6e-42d5-a033-2a474086ecc6","system_id":"levelo_inurba_marseille","lat":43.23192,"lon":5.39977,"is_reserved":false,"is_disabled":false,"rental_uris":{"android":"levelo://app?vid=0440c3d3-fb6e-42d5-a033-2a474086ecc6","ios":"levelo://app?vid=0440c3d3-fb6e-42d5-a033-2a474086ecc6"},"vehicle_type_id":"4","last_reported":1784414218,"current_range_meters":40000,"station_id":"ce4bhn12rcd13ifvqgqg","pricing_plan_id":"cebpf4jnsgd1na2vs0mg"},{"bike_id":"33194cc0-7b1c-40a4-a7ba-62df838410f1","system_id":"levelo_inurba_marseille","lat":43.29504,"lon":5.39025,"is_reserved":false,"is_disabled":false,"rental_uris":{"android":"levelo://app?vid=33194cc0-7b1c-40a4-a7ba-62df838410f1","ios":"levelo://app?vid=33194cc0-7b1c-40a4-a7ba-62df838410f1"},"vehicle_type_id":"4","last_reported":1784414218,"current_range_meters":7200,"station_id":"ce4bh3p2rcd13ifvqdp0","pricing_plan_id":"cebpf4jnsgd1na2vs0mg"},{"bike_id":"69aa3890-8355-4668-9d7c-2b996f0dde78","system_id":"levelo_inurba_marseille","lat":43.29743,"lon":5.42791,"is_reserved":false,"is_disabled":false,"rental_uris":{"android":"levelo://app?vid=69aa3890-8355-4668-9d7c-2b996f0dde78","ios":"levelo://app?vid=69aa3890-8355-4668-9d7c-2b996f0dde78"},"vehicle_type_id":"4","last_reported":1784414218,"current_range_meters":39200,"station_id":"st_d3md5207bmas73dh9klg","pricing_plan_id":"cebpf4jnsgd1na2vs0mg"},{"bike_id":"d183c213-4177-4bf2-b9e0-24872be8a9c8","system_id":"levelo_inurba_marseille","lat":43.28493,"lon":5.48379,"is_reserved":false,"is_disabled":false,"rental_uris":{"android":"levelo://app?vid=d183c213-4177-4bf2-b9e0-24872be8a9c8","ios":"levelo://app?vid=d183c213-4177-4bf2-b9e0-24872be8a9c8"},"vehicle_type_id":"4","last_reported":1784414218,"current_range_meters":16400,"station_id":"st_d3svhcjqgbts73a3dn0g","pricing_plan_id":"cebpf4jnsgd1na2vs0mg"},{"bike_id":"3d7f032f-703c-49de-bd95-4bb00f4e5160","system_id":"levelo_inurba_marseille","lat":43.25712,"lon":5.41114,"is_reserved":false,"is_disabled":false,"rental_uris":{"android":"levelo://app?vid=3d7f032f-703c-49de-bd95-4bb00f4e5160","ios":"levelo://app?vid=3d7f032f-703c-49de-bd95-4bb00f4e5160"},"vehicle_type_id":"4","last_reported":1784414218,"current_range_meters":25600,"station_id":"ce4bhkp2rcd13ifvqgd0","pricing_plan_id":"cebpf4jnsgd1na2vs0mg"},{"bike_id":"a332af46-d775-4305-b562-79ba4b709de8","system_id":"levelo_inurba_marseille","lat":43.29537,"lon":5.39049,"is_reserved":false,"is_disabled":false,"rental_uris":{"android":"levelo://app?vid=a332af46-d775-4305-b562-79ba4b709de8","ios":"levelo://app?vid=a332af46-d775-4305-b562-79ba4b709de8"},"vehicle_type_id":"4","last_reported":1784414218,"current_range_meters":38400,"station_id":"ce4bh3p2rcd13ifvqdp0","pricing_plan_id":"cebpf4jnsgd1na2vs0mg"},{"bike_id":"579bb603-354a-48b3-a6cf-1a3655b0ca69","system_id":"levelo_inurba_marseille","lat":43.24676,"lon":5.42006,"is_reserved":false,"is_disabled":false,"rental_uris":{"android":"levelo://app?vid=579bb603-354a-48b3-a6cf-1a3655b0ca69","ios":"levelo://app?vid=579bb603-354a-48b3-a6cf-1a3655b0ca69"},"vehicle_type_id":"4","last_reported":1784414218,"current_range_meters":8400,"station_id":"","pricing_plan_id":"cebpf4jnsgd1na2vs0mg"},{"bike_id":"f9f9819e-fcdf-4020-bbfe-381d504dd8dc","system_id":"levelo_inurba_marseille","lat":43.29545,"lon":5.38569,"is_reserved":false,"is_disabled":false,"rental_uris":{"android":"levelo://app?vid=f9f9819e-fcdf-4020-bbfe-381d504dd8dc","ios":"levelo://app?vid=f9f9819e-fcdf-4020-bbfe-381d504dd8dc"},"vehicle_type_id":"4","last_reported":1784414218,"current_range_meters":38400,"station_id":"ce4bgih2rcd13ifvqba0","pricing_plan_id":"cebpf4jnsgd1na2vs0mg"},{"bike_id":"e0c7065e-7f74-4b06-ae7b-f933c635df87","system_id":"levelo_inurba_marseille","lat":43.29575,"lon":5.4225,"is_reserved":false,"is_disabled":false,"rental_uris":{"android":"levelo://app?vid=e0c7065e-7f74-4b06-ae7b-f933c635df87","ios":"levelo://app?vid=e0c7065e-7f74-4b06-ae7b-f933c635df87"},"vehicle_type_id":"4","last_reported":1784414218,"current_range_meters":38400,"station_id":"ce4bhph2rcd13ifvqhdg","pricing_plan_id":"cebpf4jnsgd1na2vs0mg"},{"bike_id":"6089e301-5668-4f35-a169-fa97450498f4","system_id":"levelo_inurba_marseille","lat":43.30936,"lon":5.40139,"is_reserved":false,"is_disabled":false,"rental_uris":{"android":"levelo://app?vid=6089e301-5668-4f35-a169-fa97450498f4","ios":"levelo://app?vid=6089e301-5668-4f35-a169-fa97450498f4"},"vehicle_type_id":"4","last_reported":1784414218,"current_range_meters":20800,"station_id":"ce4bgvp2rcd13ifvqct0","pricing_plan_id":"cebpf4jnsgd1na2vs0mg"},{"bike_id":"13203229-ddfa-4a7d-bf44-ad78001778e3","system_id":"levelo_inurba_marseille","lat":43.29784,"lon":5.37168,"is_reserved":false,"is_disabled":false,"rental_uris":{"android":"levelo://app?vid=13203229-ddfa-4a7d-bf44-ad78001778e3","ios":"levelo://app?vid=13203229-ddfa-4a7d-bf44-ad78001778e3"},"vehicle_type_id":"4","last_reported":1784414218,"current_range_meters":34800,"station_id":"","pricing_plan_id":"cebpf4jnsgd1na2vs0mg"},{"bike_id":"cbee4877-314f-45c0-9dd6-29ac6d6ff07b","system_id":"levelo_inurba_marseille","lat":43.28467,"lon":5.38553,"is_reserved":false,"is_disabled":false,"rental_uris":{"android":"levelo://app?vid=cbee4877-314f-45c0-9dd6-29ac6d6ff07b","ios":"levelo://app?vid=cbee4877-314f-45c0-9dd6-29ac6d6ff07b"},"vehicle_type_id":"4","last_reported":1784414218,"current_range_meters":19200,"station_id":"ce4bh8p2rcd13ifvqeb0","pricing_plan_id":"cebpf4jnsgd1na2vs0mg"},{"bike_id":"f07c2055-5bfd-4a62-aa3e-77db94b5cfdb","system_id":"levelo_inurba_marseille","lat":43.29535,"lon":5.38544,"is_reserved":false,"is_disabled":false,"rental_uris":{"android":"levelo://app?vid=f07c2055-5bfd-4a62-aa3e-77db94b5cfdb","ios":"levelo://app?vid=f07c2055-5bfd-4a62-aa3e-77db94b5cfdb"},"vehicle_type_id":"4","last_reported":1784414218,"current_range_meters":39200,"station_id":"ce4bgih2rcd13ifvqba0","pricing_plan_id":"cebpf4jnsgd1na2vs0mg"},{"bike_id":"ac34d0f1-dd69-48bc-a853-81b6ddeab400","system_id":"levelo_inurba_marseille","lat":43.27194,"lon":5.40981,"is_reserved":false,"is_disabled":false,"rental_uris":{"android":"levelo://app?vid=ac34d0f1-dd69-48bc-a853-81b6ddeab400","ios":"levelo://app?vid=ac34d0f1-dd69-48bc-a853-81b6ddeab400"},"vehicle_type_id":"4","last_reported":1784414218,"current_range_meters":30400,"station_id":"ce4bhl12rcd13ifvqgf0","pricing_plan_id":"cebpf4jnsgd1na2vs0mg"},{"bike_id":"7dce4b73-0f8d-4c65-88af-ada6ac536618","system_id":"levelo_inurba_marseille","lat":43.29535,"lon":5.38521,"is_reserved":false,"is_disabled":false,"rental_uris":{"android":"levelo://app?vid=7dce4b73-0f8d-4c65-88af-ada6ac536618","ios":"levelo://app?vid=7dce4b73-0f8d-4c65-88af-ada6ac536618"},"vehicle_type_id":"4","last_reported":1784414218,"current_range_meters":18000,"station_id":"ce4bgih2rcd13ifvqba0","pricing_plan_id":"cebpf4jnsgd1na2vs0mg"},{"bike_id":"c2e7fe27-d2b0-440e-b62d-ead50feed951","system_id":"levelo_inurba_marseille","lat":43.29483,"lon":5.43295,"is_reserved":false,"is_disabled":false,"rental_uris":{"android":"levelo://app?vid=c2e7fe27-d2b0-440e-b62d-ead50feed951","ios":"levelo://app?vid=c2e7fe27-d2b0-440e-b62d-ead50feed951"},"vehicle_type_id":"4","last_reported":1784414218,"current_range_meters":6400,"station_id":"st_d3j5ugp08ojc73fj9d10","pricing_plan_id":"cebpf4jnsgd1na2vs0mg"},{"bike_id":"68487660-d0f8-4357-a041-ea23c3836a53","system_id":"levelo_inurba_marseille","lat":43.26187,"lon":5.37459,"is_reserved":false,"is_disabled":true,"rental_uris":{"android":"levelo://app?vid=68487660-d0f8-4357-a041-ea23c3836a53","ios":"levelo://app?vid=68487660-d0f8-4357-a041-ea23c3836a53"},"vehicle_type_id":"4","last_reported":1784414218,"current_range_meters":36800,"station_id":"ce4bhgp2rcd13ifvqfc0","pricing_plan_id":"cebpf4jnsgd1na2vs0mg"},{"bike_id":"2cfcec7a-99e6-4c2c-8d5c-3002941aaf10","system_id":"levelo_inurba_marseille","lat":43.30307,"lon":5.40453,"is_reserved":false,"is_disabled":false,"rental_uris":{"android":"levelo://app?vid=2cfcec7a-99e6-4c2c-8d5c-3002941aaf10","ios":"levelo://app?vid=2cfcec7a-99e6-4c2c-8d5c-3002941aaf10"},"vehicle_type_id":"4","last_reported":1784414218,"current_range_meters":40000,"station_id":"ce4bh012rcd13ifvqd10","pricing_plan_id":"cebpf4jnsgd1na2vs0mg"},{"bike_id":"71801ea0-7ec4-4766-829d-e2e2fb7d24e7","system_id":"levelo_inurba_marseille","lat":43.319,"lon":5.4073,"is_reserved":false,"is_disabled":false,"rental_uris":{"android":"levelo://app?vid=71801ea0-7ec4-4766-829d-e2e2fb7d24e7","ios":"levelo://app?vid=71801ea0-7ec4-4766-829d-e2e2fb7d24e7"},"vehicle_type_id":"4","last_reported":1784414218,"current_range_meters":8800,"station_id":"ce4bhq12rcd13ifvqhig","pricing_plan_id":"cebpf4jnsgd1na2vs0mg"},{"bike_id":"2623e023-e953-40ac-8068-15d2169ca99d","system_id":"levelo_inurba_marseille","lat":43.28671,"lon":5.46678,"is_reserved":false,"is_disabled":false,"rental_uris":{"android":"levelo://app?vid=2623e023-e953-40ac-8068-15d2169ca99d","ios":"levelo://app?vid=2623e023-e953-40ac-8068-15d2169ca99d"},"vehicle_type_id":"4","last_reported":1784414218,"current_range_meters":38400,"station_id":"st_d6tc3vkotcvc738tfjhg","pricing_plan_id":"cebpf4jnsgd1na2vs0mg"},{"bike_id":"b3229d3e-4d3d-4c05-8d74-24aa3fe390dc","system_id":"levelo_inurba_marseille","lat":43.28468,"lon":5.38428,"is_reserved":false,"is_disabled":false,"rental_uris":{"android":"levelo://app?vid=b3229d3e-4d3d-4c05-8d74-24aa3fe390dc","ios":"levelo://app?vid=b3229d3e-4d3d-4c05-8d74-24aa3fe390dc"},"vehicle_type_id":"4","last_reported":1784414218,"current_range_meters":27200,"station_id":"ce4bh512rcd13ifvqe3g","pricing_plan_id":"cebpf4jnsgd1na2vs0mg"},{"bike_id":"756c186a-e158-4757-8e31-885e1f217816","system_id":"levelo_inurba_marseille","lat":43.30803,"lon":5.38157,"is_reserved":false,"is_disabled":false,"rental_uris":{"android":"levelo://app?vid=756c186a-e158-4757-8e31-885e1f217816","ios":"levelo://app?vid=756c186a-e158-4757-8e31-885e1f217816"},"vehicle_type_id":"4","last_reported":1784414218,"current_range_meters":30800,"station_id":"ce4bgt12rcd13ifvqce0","pricing_plan_id":"cebpf4jnsgd1na2vs0mg"},{"bike_id":"2d768b04-0d11-4bfc-8d50-310fa8cb1d7b","system_id":"levelo_inurba_marseille","lat":43.29522,"lon":5.38518,"is_reserved":false,"is_disabled":false,"rental_uris":{"android":"levelo://app?vid=2d768b04-0d11-4bfc-8d50-310fa8cb1d7b","ios":"levelo://app?vid=2d768b04-0d11-4bfc-8d50-310fa8cb1d7b"},"vehicle_type_id":"4","last_reported":1784414218,"current_range_meters":10000,"station_id":"ce4bgih2rcd13ifvqba0","pricing_plan_id":"cebpf4jnsgd1na2vs0mg"},{"bike_id":"72bfa05d-8e29-422b-80f7-6a19428264f7","system_id":"levelo_inurba_marseille","lat":43.30117,"lon":5.39859,"is_reserved":false,"is_disabled":false,"rental_uris":{"android":"levelo://app?vid=72bfa05d-8e29-422b-80f7-6a19428264f7","ios":"levelo://app?vid=72bfa05d-8e29-422b-80f7-6a19428264f7"},"vehicle_type_id":"4","last_reported":1784414218,"current_range_meters":8800,"station_id":"ce4bh0h2rcd13ifvqd40","pricing_plan_id":"cebpf4jnsgd1na2vs0mg"},{"bike_id":"f8955ac0-4fb0-43de-bef9-e6c33ea71dd3","system_id":"levelo_inurba_marseille","lat":43.28617,"lon":5.35099,"is_reserved":false,"is_disabled":true,"rental_uris":{"android":"levelo://app?vid=f8955ac0-4fb0-43de-bef9-e6c33ea71dd3","ios":"levelo://app?vid=f8955ac0-4fb0-43de-bef9-e6c33ea71dd3"},"vehicle_type_id":"4","last_reported":1784414218,"current_range_meters":29600,"station_id":"ce4bhch2rcd13ifvqeug","pricing_plan_id":"cebpf4jnsgd1na2vs0mg"},{"bike_id":"1aba4b2e-71a6-4e82-8e9d-0b35db6f35c2","system_id":"levelo_inurba_marseille","lat":43.24172,"lon":5.3639,"is_reserved":false,"is_disabled":false,"rental_uris":{"android":"levelo://app?vid=1aba4b2e-71a6-4e82-8e9d-0b35db6f35c2","ios":"levelo://app?vid=1aba4b2e-71a6-4e82-8e9d-0b35db6f35c2"},"vehicle_type_id":"4","last_reported":1784414218,"current_range_meters":4800,"station_id":"cpo36qri1sfpv3e86is0","pricing_plan_id":"cebpf4jnsgd1na2vs0mg"},{"bike_id":"863d0357-9100-4091-8be6-61d932e4e898","system_id":"levelo_inurba_marseille","lat":43.33756,"lon":5.37458,"is_reserved":false,"is_disabled":false,"rental_uris":{"android":"levelo://app?vid=863d0357-9100-4091-8be6-61d932e4e898","ios":"levelo://app?vid=863d0357-9100-4091-8be6-61d932e4e898"},"vehicle_type_id":"4","last_reported":1784414218,"current_range_meters":38800,"station_id":"","pricing_plan_id":"cebpf4jnsgd1na2vs0mg"},{"bike_id":"0d249168-c1b9-4fc1-a9ca-ee81dcabf286","system_id":"levelo_inurba_marseille","lat":43.30828,"lon":5.40424,"is_reserved":false,"is_disabled":false,"rental_uris":{"android":"levelo://app?vid=0d249168-c1b9-4fc1-a9ca-ee81dcabf286","ios":"levelo://app?vid=0d249168-c1b9-4fc1-a9ca-ee81dcabf286"},"vehicle_type_id":"4","last_reported":1784414218,"current_range_meters":11200,"station_id":"","pricing_plan_id":"cebpf4jnsgd1na2vs0mg"},{"bike_id":"cc3dc18f-7bd0-4372-bbba-2808ab055a34","system_id":"levelo_inurba_marseille","lat":43.30269,"lon":5.37716,"is_reserved":false,"is_disabled":false,"rental_uris":{"android":"levelo://app?vid=cc3dc18f-7bd0-4372-bbba-2808ab055a34","ios":"levelo://app?vid=cc3dc18f-7bd0-4372-bbba-2808ab055a34"},"vehicle_type_id":"4","last_reported":1784414218,"current_range_meters":36000,"station_id":"ce4bguh2rcd13ifvqcj0","pricing_plan_id":"cebpf4jnsgd1na2vs0mg"},{"bike_id":"3bc65d77-f512-43a6-b12a-033be6bfc317","system_id":"levelo_inurba_marseille","lat":43.25004,"lon":5.38925,"is_reserved":false,"is_disabled":false,"rental_uris":{"android":"levelo://app?vid=3bc65d77-f512-43a6-b12a-033be6bfc317","ios":"levelo://app?vid=3bc65d77-f512-43a6-b12a-033be6bfc317"},"vehicle_type_id":"4","last_reported":1784414218,"current_range_meters":38400,"station_id":"ce4bhgp2rcd13ifvqfd0","pricing_plan_id":"cebpf4jnsgd1na2vs0mg"},{"bike_id":"9dd62c07-ccdf-4742-89ea-4d419bc714d4","system_id":"levelo_inurba_marseille","lat":43.28162,"lon":5.42641,"is_reserved":false,"is_disabled":false,"rental_uris":{"android":"levelo://app?vid=9dd62c07-ccdf-4742-89ea-4d419bc714d4","ios":"levelo://app?vid=9dd62c07-ccdf-4742-89ea-4d419bc714d4"},"vehicle_type_id":"4","last_reported":1784414218,"current_range_meters":39200,"station_id":"ce4bhnh2rcd13ifvqgug","pricing_plan_id":"cebpf4jnsgd1na2vs0mg"},{"bike_id":"21ffdecd-7bfb-4301-89cc-c3b79c19e26c","system_id":"levelo_inurba_marseille","lat":43.29264,"lon":5.38402,"is_reserved":false,"is_disabled":false,"rental_uris":{"android":"levelo://app?vid=21ffdecd-7bfb-4301-89cc-c3b79c19e26c","ios":"levelo://app?vid=21ffdecd-7bfb-4301-89cc-c3b79c19e26c"},"vehicle_type_id":"4","last_reported":1784414218,"current_range_meters":28800,"station_id":"ce4bh692rcd13ifvqea0","pricing_plan_id":"cebpf4jnsgd1na2vs0mg"},{"bike_id":"8ba7f2d6-52d3-4c56-b19a-19a142e62779","system_id":"levelo_inurba_marseille","lat":43.24105,"lon":5.37692,"is_reserved":false,"is_disabled":false,"rental_uris":{"android":"levelo://app?vid=8ba7f2d6-52d3-4c56-b19a-19a142e62779","ios":"levelo://app?vid=8ba7f2d6-52d3-4c56-b19a-19a142e62779"},"vehicle_type_id":"4","last_reported":1784414218,"current_range_meters":11200,"station_id":"","pricing_plan_id":"cebpf4jnsgd1na2vs0mg"},{"bike_id":"ffdafddb-edce-478b-b283-0a15f46a5cac","system_id":"levelo_inurba_marseille","lat":43.25866,"lon":5.39917,"is_reserved":false,"is_disabled":false,"rental_uris":{"android":"levelo://app?vid=ffdafddb-edce-478b-b283-0a15f46a5cac","ios":"levelo://app?vid=ffdafddb-edce-478b-b283-0a15f46a5cac"},"vehicle_type_id":"4","last_reported":1784414218,"current_range_meters":38400,"station_id":"ce4bhl92rcd13ifvqghg","pricing_plan_id":"cebpf4jnsgd1na2vs0mg"},{"bike_id":"66afdf81-3bfc-4f74-a2b5-978630e17649","system_id":"levelo_inurba_marseille","lat":43.27914,"lon":5.37264,"is_reserved":false,"is_disabled":false,"rental_uris":{"android":"levelo://app?vid=66afdf81-3bfc-4f74-a2b5-978630e17649","ios":"levelo://app?vid=66afdf81-3bfc-4f74-a2b5-978630e17649"},"vehicle_type_id":"4","last_reported":1784414218,"current_range_meters":27600,"station_id":"","pricing_plan_id":"cebpf4jnsgd1na2vs0mg"},{"bike_id":"086f96f1-060e-421d-b31e-daf3846d0ec6","system_id":"levelo_inurba_marseille","lat":43.2927,"lon":5.38421,"is_reserved":false,"is_disabled":false,"rental_uris":{"android":"levelo://app?vid=086f96f1-060e-421d-b31e-daf3846d0ec6","ios":"levelo://app?vid=086f96f1-060e-421d-b31e-daf3846d0ec6"},"vehicle_type_id":"4","last_reported":1784414218,"current_range_meters":39200,"station_id":"ce4bh692rcd13ifvqea0","pricing_plan_id":"cebpf4jnsgd1na2vs0mg"},{"bike_id":"c3699d7f-7304-4eec-8a74-2a709837374f","system_id":"levelo_inurba_marseille","lat":43.28384,"lon":5.38625,"is_reserved":false,"is_disabled":true,"rental_uris":{"android":"levelo://app?vid=c3699d7f-7304-4eec-8a74-2a709837374f","ios":"levelo://app?vid=c3699d7f-7304-4eec-8a74-2a709837374f"},"vehicle_type_id":"4","last_reported":1784414218,"current_range_meters":15200,"station_id":"ce4bh492rcd13ifvqdvg","pricing_plan_id":"cebpf4jnsgd1na2vs0mg"},{"bike_id":"44d448a8-6b36-4f32-9b36-fe4d075b4208","system_id":"levelo_inurba_marseille","lat":43.28005,"lon":5.40002,"is_reserved":false,"is_disabled":false,"rental_uris":{"android":"levelo://app?vid=44d448a8-6b36-4f32-9b36-fe4d075b4208","ios":"levelo://app?vid=44d448a8-6b36-4f32-9b36-fe4d075b4208"},"vehicle_type_id":"4","last_reported":1784414218,"current_range_meters":27200,"station_id":"ce4bho92rcd13ifvqh4g","pricing_plan_id":"cebpf4jnsgd1na2vs0mg"},{"bike_id":"e172a8f9-b715-4e53-bc4f-64f9c8571096","system_id":"levelo_inurba_marseille","lat":43.28102,"lon":5.37862,"is_reserved":false,"is_disabled":false,"rental_uris":{"android":"levelo://app?vid=e172a8f9-b715-4e53-bc4f-64f9c8571096","ios":"levelo://app?vid=e172a8f9-b715-4e53-bc4f-64f9c8571096"},"vehicle_type_id":"4","last_reported":1784414218,"current_range_meters":36000,"station_id":"ce4bha12rcd13ifvqee0","pricing_plan_id":"cebpf4jnsgd1na2vs0mg"},{"bike_id":"60c0f697-8c2f-41cf-a189-03bcd6049afa","system_id":"levelo_inurba_marseille","lat":43.29292,"lon":5.37973,"is_reserved":false,"is_disabled":false,"rental_uris":{"android":"levelo://app?vid=60c0f697-8c2f-41cf-a189-03bcd6049afa","ios":"levelo://app?vid=60c0f697-8c2f-41cf-a189-03bcd6049afa"},"vehicle_type_id":"4","last_reported":1784414218,"current_range_meters":34800,"station_id":"","pricing_plan_id":"cebpf4jnsgd1na2vs0mg"},{"bike_id":"4ed6b0a4-a47b-4aa5-8257-5b687ad441a3","system_id":"levelo_inurba_marseille","lat":43.26227,"lon":5.38761,"is_reserved":false,"is_disabled":false,"rental_uris":{"android":"levelo://app?vid=4ed6b0a4-a47b-4aa5-8257-5b687ad441a3","ios":"levelo://app?vid=4ed6b0a4-a47b-4aa5-8257-5b687ad441a3"},"vehicle_type_id":"4","last_reported":1784414218,"current_range_meters":37600,"station_id":"st_d8gjfg747rts73coq3b0","pricing_plan_id":"cebpf4jnsgd1na2vs0mg"},{"bike_id":"b3f4d216-193b-485e-82c4-c347b75636d7","system_id":"levelo_inurba_marseille","lat":43.28469,"lon":5.38415,"is_reserved":false,"is_disabled":false,"rental_uris":{"android":"levelo://app?vid=b3f4d216-193b-485e-82c4-c347b75636d7","ios":"levelo://app?vid=b3f4d216-193b-485e-82c4-c347b75636d7"},"vehicle_type_id":"4","last_reported":1784414218,"current_range_meters":28400,"station_id":"ce4bh512rcd13ifvqe3g","pricing_plan_id":"cebpf4jnsgd1na2vs0mg"},{"bike_id":"e9e5a543-6f34-4801-9796-c7001d28c440","system_id":"levelo_inurba_marseille","lat":43.27652,"lon":5.36266,"is_reserved":false,"is_disabled":true,"rental_uris":{"android":"levelo://app?vid=e9e5a543-6f34-4801-9796-c7001d28c440","ios":"levelo://app?vid=e9e5a543-6f34-4801-9796-c7001d28c440"},"vehicle_type_id":"4","last_reported":1784414218,"current_range_meters":0,"station_id":"","pricing_plan_id":"cebpf4jnsgd1na2vs0mg"},{"bike_id":"4120c7d7-1403-4d50-96ed-9b7731a97efc","system_id":"levelo_inurba_marseille","lat":43.32078,"lon":5.36745,"is_reserved":false,"is_disabled":false,"rental_uris":{"android":"levelo://app?vid=4120c7d7-1403-4d50-96ed-9b7731a97efc","ios":"levelo://app?vid=4120c7d7-1403-4d50-96ed-9b7731a97efc"},"vehicle_type_id":"4","last_reported":1784414218,"current_range_meters":25600,"station_id":"ce4bhrh2rcd13ifvqhug","pricing_plan_id":"cebpf4jnsgd1na2vs0mg"},{"bike_id":"1e213f9c-ac5a-4d46-aab4-0f34f6aa00d7","system_id":"levelo_inurba_marseille","lat":43.29099,"lon":5.38131,"is_reserved":false,"is_disabled":false,"rental_uris":{"android":"levelo://app?vid=1e213f9c-ac5a-4d46-aab4-0f34f6aa00d7","ios":"levelo://app?vid=1e213f9c-ac5a-4d46-aab4-0f34f6aa00d7"},"vehicle_type_id":"4","last_reported":1784414218,"current_range_meters":16800,"station_id":"ce4bh512rcd13ifvqe2g","pricing_plan_id":"cebpf4jnsgd1na2vs0mg"},{"bike_id":"b32936e5-7bdd-4eaf-adbe-3bd4bbf7a5ff","system_id":"levelo_inurba_marseille","lat":43.28688,"lon":5.37398,"is_reserved":false,"is_disabled":true,"rental_uris":{"android":"levelo://app?vid=b32936e5-7bdd-4eaf-adbe-3bd4bbf7a5ff","ios":"levelo://app?vid=b32936e5-7bdd-4eaf-adbe-3bd4bbf7a5ff"},"vehicle_type_id":"4","last_reported":1784414218,"current_range_meters":32800,"station_id":"ce4bh3p2rcd13ifvqdq0","pricing_plan_id":"cebpf4jnsgd1na2vs0mg"},{"bike_id":"7e62a1e7-e43e-4c6d-97fe-eb42228edf6d","system_id":"levelo_inurba_marseille","lat":43.26565,"lon":5.39388,"is_reserved":false,"is_disabled":false,"rental_uris":{"android":"levelo://app?vid=7e62a1e7-e43e-4c6d-97fe-eb42228edf6d","ios":"levelo://app?vid=7e62a1e7-e43e-4c6d-97fe-eb42228edf6d"},"vehicle_type_id":"4","last_reported":1784414218,"current_range_meters":8800,"station_id":"","pricing_plan_id":"cebpf4jnsgd1na2vs0mg"},{"bike_id":"357f7f53-613c-4bf4-9f6b-7f2ee6fd35dd","system_id":"levelo_inurba_marseille","lat":43.29277,"lon":5.38443,"is_reserved":false,"is_disabled":false,"rental_uris":{"android":"levelo://app?vid=357f7f53-613c-4bf4-9f6b-7f2ee6fd35dd","ios":"levelo://app?vid=357f7f53-613c-4bf4-9f6b-7f2ee6fd35dd"},"vehicle_type_id":"4","last_reported":1784414218,"current_range_meters":15200,"station_id":"ce4bh692rcd13ifvqea0","pricing_plan_id":"cebpf4jnsgd1na2vs0mg"},{"bike_id":"32f1426e-4a2e-46e1-8b91-800ee9257883","system_id":"levelo_inurba_marseille","lat":43.26388,"lon":5.41066,"is_reserved":false,"is_disabled":false,"rental_uris":{"android":"levelo://app?vid=32f1426e-4a2e-46e1-8b91-800ee9257883","ios":"levelo://app?vid=32f1426e-4a2e-46e1-8b91-800ee9257883"},"vehicle_type_id":"4","last_reported":1784414218,"current_range_meters":37600,"station_id":"st_d4e5ca6na9uc73bfl5fg","pricing_plan_id":"cebpf4jnsgd1na2vs0mg"},{"bike_id":"7bacaa53-ea48-4c21-98e9-800e4cae89fb","system_id":"levelo_inurba_marseille","lat":43.28538,"lon":5.44097,"is_reserved":false,"is_disabled":false,"rental_uris":{"android":"levelo://app?vid=7bacaa53-ea48-4c21-98e9-800e4cae89fb","ios":"levelo://app?vid=7bacaa53-ea48-4c21-98e9-800e4cae89fb"},"vehicle_type_id":"4","last_reported":1784414218,"current_range_meters":6800,"station_id":"st_d3j3df2ikq2c7380ej80","pricing_plan_id":"cebpf4jnsgd1na2vs0mg"},{"bike_id":"37532a57-1e36-4044-9c72-1023ea8c148e","system_id":"levelo_inurba_marseille","lat":43.29551,"lon":5.38505,"is_reserved":false,"is_disabled":false,"rental_uris":{"android":"levelo://app?vid=37532a57-1e36-4044-9c72-1023ea8c148e","ios":"levelo://app?vid=37532a57-1e36-4044-9c72-1023ea8c148e"},"vehicle_type_id":"4","last_reported":1784414218,"current_range_meters":35600,"station_id":"ce4bgih2rcd13ifvqba0","pricing_plan_id":"cebpf4jnsgd1na2vs0mg"},{"bike_id":"81587832-75ed-49cd-91c3-f57f9b8cec45","system_id":"levelo_inurba_marseille","lat":43.29054,"lon":5.35925,"is_reserved":false,"is_disabled":true,"rental_uris":{"android":"levelo://app?vid=81587832-75ed-49cd-91c3-f57f9b8cec45","ios":"levelo://app?vid=81587832-75ed-49cd-91c3-f57f9b8cec45"},"vehicle_type_id":"4","last_reported":1784414218,"current_range_meters":6000,"station_id":"ce4bha92rcd13ifvqeg0","pricing_plan_id":"cebpf4jnsgd1na2vs0mg"},{"bike_id":"90f8dce3-fda1-4062-9147-8905d5737bfe","system_id":"levelo_inurba_marseille","lat":43.29493,"lon":5.38704,"is_reserved":false,"is_disabled":false,"rental_uris":{"android":"levelo://app?vid=90f8dce3-fda1-4062-9147-8905d5737bfe","ios":"levelo://app?vid=90f8dce3-fda1-4062-9147-8905d5737bfe"},"vehicle_type_id":"4","last_reported":1784414218,"current_range_meters":37600,"station_id":"","pricing_plan_id":"cebpf4jnsgd1na2vs0mg"},{"bike_id":"5d3c674b-efff-45e9-9001-4b78a8e6b29f","system_id":"levelo_inurba_marseille","lat":43.30441,"lon":5.39745,"is_reserved":false,"is_disabled":false,"rental_uris":{"android":"levelo://app?vid=5d3c674b-efff-45e9-9001-4b78a8e6b29f","ios":"levelo://app?vid=5d3c674b-efff-45e9-9001-4b78a8e6b29f"},"vehicle_type_id":"4","last_reported":1784414218,"current_range_meters":16000,"station_id":"ce4bh092rcd13ifvqd20","pricing_plan_id":"cebpf4jnsgd1na2vs0mg"},{"bike_id":"f3934305-9637-4bc9-84df-610e5ca478ee","system_id":"levelo_inurba_marseille","lat":43.28727,"lon":5.38395,"is_reserved":false,"is_disabled":false,"rental_uris":{"android":"levelo://app?vid=f3934305-9637-4bc9-84df-610e5ca478ee","ios":"levelo://app?vid=f3934305-9637-4bc9-84df-610e5ca478ee"},"vehicle_type_id":"4","last_reported":1784414218,"current_range_meters":26000,"station_id":"","pricing_plan_id":"cebpf4jnsgd1na2vs0mg"},{"bike_id":"283df874-9d00-43ea-9bec-1919fb1b9fc6","system_id":"levelo_inurba_marseille","lat":43.29093,"lon":5.38164,"is_reserved":false,"is_disabled":false,"rental_uris":{"android":"levelo://app?vid=283df874-9d00-43ea-9bec-1919fb1b9fc6","ios":"levelo://app?vid=283df874-9d00-43ea-9bec-1919fb1b9fc6"},"vehicle_type_id":"4","last_reported":1784414218,"current_range_meters":39200,"station_id":"ce4bh512rcd13ifvqe2g","pricing_plan_id":"cebpf4jnsgd1na2vs0mg"},{"bike_id":"b73ac18b-c7bc-4ef0-9b7d-9457972053b0","system_id":"levelo_inurba_marseille","lat":43.29535,"lon":5.38543,"is_reserved":false,"is_disabled":false,"rental_uris":{"android":"levelo://app?vid=b73ac18b-c7bc-4ef0-9b7d-9457972053b0","ios":"levelo://app?vid=b73ac18b-c7bc-4ef0-9b7d-9457972053b0"},"vehicle_type_id":"4","last_reported":1784414218,"current_range_meters":38400,"station_id":"ce4bgih2rcd13ifvqba0","pricing_plan_id":"cebpf4jnsgd1na2vs0mg"},{"bike_id":"059d1755-0e14-464c-a9b8-72042f2cc2d9","system_id":"levelo_inurba_marseille","lat":43.25341,"lon":5.42172,"is_reserved":false,"is_disabled":false,"rental_uris":{"android":"levelo://app?vid=059d1755-0e14-464c-a9b8-72042f2cc2d9","ios":"levelo://app?vid=059d1755-0e14-464c-a9b8-72042f2cc2d9"},"vehicle_type_id":"4","last_reported":1784414218,"current_range_meters":38000,"station_id":"st_d2m65c5bi1j21697t3ng","pricing_plan_id":"cebpf4jnsgd1na2vs0mg"},{"bike_id":"689b9f1f-53c1-40ae-8d80-e74d3eb04251","system_id":"levelo_inurba_marseille","lat":43.26017,"lon":5.37568,"is_reserved":false,"is_disabled":false,"rental_uris":{"android":"levelo://app?vid=689b9f1f-53c1-40ae-8d80-e74d3eb04251","ios":"levelo://app?vid=689b9f1f-53c1-40ae-8d80-e74d3eb04251"},"vehicle_type_id":"4","last_reported":1784414218,"current_range_meters":18000,"station_id":"ce4bhgh2rcd13ifvqfa0","pricing_plan_id":"cebpf4jnsgd1na2vs0mg"},{"bike_id":"de77b149-1fe1-42f9-b551-bc923fb2ad3a","system_id":"levelo_inurba_marseille","lat":43.29274,"lon":5.36838,"is_reserved":false,"is_disabled":false,"rental_uris":{"android":"levelo://app?vid=de77b149-1fe1-42f9-b551-bc923fb2ad3a","ios":"levelo://app?vid=de77b149-1fe1-42f9-b551-bc923fb2ad3a"},"vehicle_type_id":"4","last_reported":1784414218,"current_range_meters":24000,"station_id":"","pricing_plan_id":"cebpf4jnsgd1na2vs0mg"},{"bike_id":"eca95703-7b1f-4498-baa4-aca8f0b6216e","system_id":"levelo_inurba_marseille","lat":43.28655,"lon":5.38663,"is_reserved":false,"is_disabled":false,"rental_uris":{"android":"levelo://app?vid=eca95703-7b1f-4498-baa4-aca8f0b6216e","ios":"levelo://app?vid=eca95703-7b1f-4498-baa4-aca8f0b6216e"},"vehicle_type_id":"4","last_reported":1784414218,"current_range_meters":38800,"station_id":"ce4bh492rcd13ifvqdug","pricing_plan_id":"cebpf4jnsgd1na2vs0mg"},{"bike_id":"5f0e6351-dc30-4088-8091-00d728ed0317","system_id":"levelo_inurba_marseille","lat":43.27908,"lon":5.3871,"is_reserved":false,"is_disabled":false,"rental_uris":{"android":"levelo://app?vid=5f0e6351-dc30-4088-8091-00d728ed0317","ios":"levelo://app?vid=5f0e6351-dc30-4088-8091-00d728ed0317"},"vehicle_type_id":"4","last_reported":1784414218,"current_range_meters":36400,"station_id":"ce4bhg12rcd13ifvqf80","pricing_plan_id":"cebpf4jnsgd1na2vs0mg"},{"bike_id":"7ff8118f-6c81-4cdf-8a1d-4753d954065d","system_id":"levelo_inurba_marseille","lat":43.29617,"lon":5.37971,"is_reserved":false,"is_disabled":false,"rental_uris":{"android":"levelo://app?vid=7ff8118f-6c81-4cdf-8a1d-4753d954065d","ios":"levelo://app?vid=7ff8118f-6c81-4cdf-8a1d-4753d954065d"},"vehicle_type_id":"4","last_reported":1784414218,"current_range_meters":5600,"station_id":"","pricing_plan_id":"cebpf4jnsgd1na2vs0mg"},{"bike_id":"38ae513a-c6de-44e0-94ce-8808b878c507","system_id":"levelo_inurba_marseille","lat":43.29232,"lon":5.37483,"is_reserved":false,"is_disabled":false,"rental_uris":{"android":"levelo://app?vid=38ae513a-c6de-44e0-94ce-8808b878c507","ios":"levelo://app?vid=38ae513a-c6de-44e0-94ce-8808b878c507"},"vehicle_type_id":"4","last_reported":1784414218,"current_range_meters":16000,"station_id":"","pricing_plan_id":"cebpf4jnsgd1na2vs0mg"},{"bike_id":"bd3162d3-f2ee-499c-9575-ec1ca743af6c","system_id":"levelo_inurba_marseille","lat":43.27798,"lon":5.38539,"is_reserved":false,"is_disabled":false,"rental_uris":{"android":"levelo://app?vid=bd3162d3-f2ee-499c-9575-ec1ca743af6c","ios":"levelo://app?vid=bd3162d3-f2ee-499c-9575-ec1ca743af6c"},"vehicle_type_id":"4","last_reported":1784414218,"current_range_meters":25200,"station_id":"","pricing_plan_id":"cebpf4jnsgd1na2vs0mg"},{"bike_id":"e8ba2d3c-91b5-4800-8226-4a1ddb117a7b","system_id":"levelo_inurba_marseille","lat":43.26508,"lon":5.39543,"is_reserved":false,"is_disabled":false,"rental_uris":{"android":"levelo://app?vid=e8ba2d3c-91b5-4800-8226-4a1ddb117a7b","ios":"levelo://app?vid=e8ba2d3c-91b5-4800-8226-4a1ddb117a7b"},"vehicle_type_id":"4","last_reported":1784414218,"current_range_meters":36800,"station_id":"ce4bhi12rcd13ifvqfq0","pricing_plan_id":"cebpf4jnsgd1na2vs0mg"},{"bike_id":"848a1aff-274a-4b44-93f8-df5211554a34","system_id":"levelo_inurba_marseille","lat":43.28717,"lon":5.37374,"is_reserved":false,"is_disabled":true,"rental_uris":{"android":"levelo://app?vid=848a1aff-274a-4b44-93f8-df5211554a34","ios":"levelo://app?vid=848a1aff-274a-4b44-93f8-df5211554a34"},"vehicle_type_id":"4","last_reported":1784414218,"current_range_meters":20800,"station_id":"ce4bh3p2rcd13ifvqdq0","pricing_plan_id":"cebpf4jnsgd1na2vs0mg"},{"bike_id":"f34fd467-8084-4fad-b05a-2971b02d1cef","system_id":"levelo_inurba_marseille","lat":43.25069,"lon":5.39511,"is_reserved":false,"is_disabled":false,"rental_uris":{"android":"levelo://app?vid=f34fd467-8084-4fad-b05a-2971b02d1cef","ios":"levelo://app?vid=f34fd467-8084-4fad-b05a-2971b02d1cef"},"vehicle_type_id":"4","last_reported":1784414218,"current_range_meters":39200,"station_id":"ce4bhm12rcd13ifvqgkg","pricing_plan_id":"cebpf4jnsgd1na2vs0mg"},{"bike_id":"1cb6f9ea-9159-4948-a7b5-812cac4d6644","system_id":"levelo_inurba_marseille","lat":43.28426,"lon":5.392,"is_reserved":false,"is_disabled":false,"rental_uris":{"android":"levelo://app?vid=1cb6f9ea-9159-4948-a7b5-812cac4d6644","ios":"levelo://app?vid=1cb6f9ea-9159-4948-a7b5-812cac4d6644"},"vehicle_type_id":"4","last_reported":1784414218,"current_range_meters":12400,"station_id":"ce4bhoh2rcd13ifvqh5g","pricing_plan_id":"cebpf4jnsgd1na2vs0mg"},{"bike_id":"9977fe55-f359-47ea-b438-6891c5b52a81","system_id":"levelo_inurba_marseille","lat":43.29733,"lon":5.37681,"is_reserved":false,"is_disabled":false,"rental_uris":{"android":"levelo://app?vid=9977fe55-f359-47ea-b438-6891c5b52a81","ios":"levelo://app?vid=9977fe55-f359-47ea-b438-6891c5b52a81"},"vehicle_type_id":"4","last_reported":1784414218,"current_range_meters":35200,"station_id":"ce4bgkh2rcd13ifvqbl0","pricing_plan_id":"cebpf4jnsgd1na2vs0mg"},{"bike_id":"c71cc65d-33de-4389-87f1-90b48f14a5db","system_id":"levelo_inurba_marseille","lat":43.31476,"lon":5.37269,"is_reserved":false,"is_disabled":false,"rental_uris":{"android":"levelo://app?vid=c71cc65d-33de-4389-87f1-90b48f14a5db","ios":"levelo://app?vid=c71cc65d-33de-4389-87f1-90b48f14a5db"},"vehicle_type_id":"4","last_reported":1784414218,"current_range_meters":39200,"station_id":"ce4bgt12rcd13ifvqcd0","pricing_plan_id":"cebpf4jnsgd1na2vs0mg"},{"bike_id":"3c996adc-6afe-4aee-a281-ef5bb64a3846","system_id":"levelo_inurba_marseille","lat":43.303198,"lon":5.369068,"is_reserved":false,"is_disabled":false,"rental_uris":{"android":"levelo://app?vid=3c996adc-6afe-4aee-a281-ef5bb64a3846","ios":"levelo://app?vid=3c996adc-6afe-4aee-a281-ef5bb64a3846"},"vehicle_type_id":"4","last_reported":1784414218,"current_range_meters":38800,"station_id":"ce4bgqh2rcd13ifvqc5g","pricing_plan_id":"cebpf4jnsgd1na2vs0mg"},{"bike_id":"a6af8d40-aa0e-41b6-82a8-90dab51dcc0a","system_id":"levelo_inurba_marseille","lat":43.2903,"lon":5.38641,"is_reserved":false,"is_disabled":false,"rental_uris":{"android":"levelo://app?vid=a6af8d40-aa0e-41b6-82a8-90dab51dcc0a","ios":"levelo://app?vid=a6af8d40-aa0e-41b6-82a8-90dab51dcc0a"},"vehicle_type_id":"4","last_reported":1784414218,"current_range_meters":33600,"station_id":"ce4bh4p2rcd13ifvqe0g","pricing_plan_id":"cebpf4jnsgd1na2vs0mg"},{"bike_id":"a7c42e62-f2d7-4f0f-96f4-b9d2418cea29","system_id":"levelo_inurba_marseille","lat":43.2964,"lon":5.40592,"is_reserved":false,"is_disabled":true,"rental_uris":{"android":"levelo://app?vid=a7c42e62-f2d7-4f0f-96f4-b9d2418cea29","ios":"levelo://app?vid=a7c42e62-f2d7-4f0f-96f4-b9d2418cea29"},"vehicle_type_id":"4","last_reported":1784414218,"current_range_meters":19600,"station_id":"ce4bh0h2rcd13ifvqd60","pricing_plan_id":"cebpf4jnsgd1na2vs0mg"},{"bike_id":"e5faa1f4-1905-4c1d-95a3-dea861a6130f","system_id":"levelo_inurba_marseille","lat":43.29602,"lon":5.38109,"is_reserved":false,"is_disabled":false,"rental_uris":{"android":"levelo://app?vid=e5faa1f4-1905-4c1d-95a3-dea861a6130f","ios":"levelo://app?vid=e5faa1f4-1905-4c1d-95a3-dea861a6130f"},"vehicle_type_id":"4","last_reported":1784414218,"current_range_meters":36000,"station_id":"ce4bgl12rcd13ifvqbo0","pricing_plan_id":"cebpf4jnsgd1na2vs0mg"},{"bike_id":"10ec9f79-dcbd-4899-9574-fdc09d6bde65","system_id":"levelo_inurba_marseille","lat":43.30144,"lon":5.38787,"is_reserved":false,"is_disabled":false,"rental_uris":{"android":"levelo://app?vid=10ec9f79-dcbd-4899-9574-fdc09d6bde65","ios":"levelo://app?vid=10ec9f79-dcbd-4899-9574-fdc09d6bde65"},"vehicle_type_id":"4","last_reported":1784414218,"current_range_meters":32800,"station_id":"ce4bghh2rcd13ifvqb60","pricing_plan_id":"cebpf4jnsgd1na2vs0mg"},{"bike_id":"80aab92c-8bc2-4649-ab28-9669d10e174a","system_id":"levelo_inurba_marseille","lat":43.30496,"lon":5.38848,"is_reserved":false,"is_disabled":false,"rental_uris":{"android":"levelo://app?vid=80aab92c-8bc2-4649-ab28-9669d10e174a","ios":"levelo://app?vid=80aab92c-8bc2-4649-ab28-9669d10e174a"},"vehicle_type_id":"4","last_reported":1784414218,"current_range_meters":37600,"station_id":"","pricing_plan_id":"cebpf4jnsgd1na2vs0mg"},{"bike_id":"2c3034d9-cfe0-4bed-ba66-d570d2e65392","system_id":"levelo_inurba_marseille","lat":43.29972,"lon":5.38488,"is_reserved":false,"is_disabled":true,"rental_uris":{"android":"levelo://app?vid=2c3034d9-cfe0-4bed-ba66-d570d2e65392","ios":"levelo://app?vid=2c3034d9-cfe0-4bed-ba66-d570d2e65392"},"vehicle_type_id":"4","last_reported":1784414218,"current_range_meters":21600,"station_id":"ce4bgj92rcd13ifvqbd0","pricing_plan_id":"cebpf4jnsgd1na2vs0mg"},{"bike_id":"15df54a3-1cd4-471c-bbb3-56bd6446d1c5","system_id":"levelo_inurba_marseille","lat":43.28695,"lon":5.37394,"is_reserved":false,"is_disabled":true,"rental_uris":{"android":"levelo://app?vid=15df54a3-1cd4-471c-bbb3-56bd6446d1c5","ios":"levelo://app?vid=15df54a3-1cd4-471c-bbb3-56bd6446d1c5"},"vehicle_type_id":"4","last_reported":1784414218,"current_range_meters":26800,"station_id":"ce4bh3p2rcd13ifvqdq0","pricing_plan_id":"cebpf4jnsgd1na2vs0mg"},{"bike_id":"0f6ff1da-c9e3-42e7-a8d3-8280d1c0addc","system_id":"levelo_inurba_marseille","lat":43.33718,"lon":5.37415,"is_reserved":false,"is_disabled":false,"rental_uris":{"android":"levelo://app?vid=0f6ff1da-c9e3-42e7-a8d3-8280d1c0addc","ios":"levelo://app?vid=0f6ff1da-c9e3-42e7-a8d3-8280d1c0addc"},"vehicle_type_id":"4","last_reported":1784414218,"current_range_meters":31200,"station_id":"","pricing_plan_id":"cebpf4jnsgd1na2vs0mg"},{"bike_id":"1e628dec-3141-48e0-b510-1c285ab03f4c","system_id":"levelo_inurba_marseille","lat":43.26408,"lon":5.41088,"is_reserved":false,"is_disabled":false,"rental_uris":{"android":"levelo://app?vid=1e628dec-3141-48e0-b510-1c285ab03f4c","ios":"levelo://app?vid=1e628dec-3141-48e0-b510-1c285ab03f4c"},"vehicle_type_id":"4","last_reported":1784414218,"current_range_meters":38000,"station_id":"st_d4e5ca6na9uc73bfl5fg","pricing_plan_id":"cebpf4jnsgd1na2vs0mg"},{"bike_id":"8337f5b4-2806-4bc0-9f71-af183adb5db8","system_id":"levelo_inurba_marseille","lat":43.23822,"lon":5.43512,"is_reserved":false,"is_disabled":false,"rental_uris":{"android":"levelo://app?vid=8337f5b4-2806-4bc0-9f71-af183adb5db8","ios":"levelo://app?vid=8337f5b4-2806-4bc0-9f71-af183adb5db8"},"vehicle_type_id":"4","last_reported":1784414218,"current_range_meters":6800,"station_id":"","pricing_plan_id":"cebpf4jnsgd1na2vs0mg"},{"bike_id":"0d69c6ad-1581-485b-8bcd-d541c4976ef8","system_id":"levelo_inurba_marseille","lat":43.31875,"lon":5.36834,"is_reserved":false,"is_disabled":false,"rental_uris":{"android":"levelo://app?vid=0d69c6ad-1581-485b-8bcd-d541c4976ef8","ios":"levelo://app?vid=0d69c6ad-1581-485b-8bcd-d541c4976ef8"},"vehicle_type_id":"4","last_reported":1784414218,"current_range_meters":10800,"station_id":"st_d6o2h0d0559c73evc1b0","pricing_plan_id":"cebpf4jnsgd1na2vs0mg"},{"bike_id":"c41c704f-bfb3-4849-b673-df2703cae62e","system_id":"levelo_inurba_marseille","lat":43.29772,"lon":5.3811,"is_reserved":false,"is_disabled":false,"rental_uris":{"android":"levelo://app?vid=c41c704f-bfb3-4849-b673-df2703cae62e","ios":"levelo://app?vid=c41c704f-bfb3-4849-b673-df2703cae62e"},"vehicle_type_id":"4","last_reported":1784414218,"current_range_meters":33200,"station_id":"","pricing_plan_id":"cebpf4jnsgd1na2vs0mg"},{"bike_id":"f1483e25-2425-4203-8bf0-9c3241ecc0dc","system_id":"levelo_inurba_marseille","lat":43.28402,"lon":5.37504,"is_reserved":false,"is_disabled":false,"rental_uris":{"android":"levelo://app?vid=f1483e25-2425-4203-8bf0-9c3241ecc0dc","ios":"levelo://app?vid=f1483e25-2425-4203-8bf0-9c3241ecc0dc"},"vehicle_type_id":"4","last_reported":1784414218,"current_range_meters":25600,"station_id":"ce4bh412rcd13ifvqds0","pricing_plan_id":"cebpf4jnsgd1na2vs0mg"},{"bike_id":"ad193227-d210-4e9a-af26-3f25b41f58db","system_id":"levelo_inurba_marseille","lat":43.23888,"lon":5.37472,"is_reserved":false,"is_disabled":false,"rental_uris":{"android":"levelo://app?vid=ad193227-d210-4e9a-af26-3f25b41f58db","ios":"levelo://app?vid=ad193227-d210-4e9a-af26-3f25b41f58db"},"vehicle_type_id":"4","last_reported":1784414218,"current_range_meters":38400,"station_id":"st_d6sm7csbq4hs73f8fpjg","pricing_plan_id":"cebpf4jnsgd1na2vs0mg"},{"bike_id":"ee06a958-7f2b-4eb7-a6b1-2d3112db17a0","system_id":"levelo_inurba_marseille","lat":43.31124,"lon":5.37798,"is_reserved":false,"is_disabled":false,"rental_uris":{"android":"levelo://app?vid=ee06a958-7f2b-4eb7-a6b1-2d3112db17a0","ios":"levelo://app?vid=ee06a958-7f2b-4eb7-a6b1-2d3112db17a0"},"vehicle_type_id":"4","last_reported":1784414218,"current_range_meters":39200,"station_id":"ce4bgt92rcd13ifvqcg0","pricing_plan_id":"cebpf4jnsgd1na2vs0mg"},{"bike_id":"61504638-05b9-455a-9f17-014100848ca3","system_id":"levelo_inurba_marseille","lat":43.25495,"lon":5.37652,"is_reserved":false,"is_disabled":false,"rental_uris":{"android":"levelo://app?vid=61504638-05b9-455a-9f17-014100848ca3","ios":"levelo://app?vid=61504638-05b9-455a-9f17-014100848ca3"},"vehicle_type_id":"4","last_reported":1784414218,"current_range_meters":22000,"station_id":"ce4bhh12rcd13ifvqff0","pricing_plan_id":"cebpf4jnsgd1na2vs0mg"},{"bike_id":"fbc2ea7e-7aa8-46c6-911e-98977f78f06c","system_id":"levelo_inurba_marseille","lat":43.26681,"lon":5.38273,"is_reserved":false,"is_disabled":false,"rental_uris":{"android":"levelo://app?vid=fbc2ea7e-7aa8-46c6-911e-98977f78f06c","ios":"levelo://app?vid=fbc2ea7e-7aa8-46c6-911e-98977f78f06c"},"vehicle_type_id":"4","last_reported":1784414218,"current_range_meters":39200,"station_id":"ce4bhg92rcd13ifvqf90","pricing_plan_id":"cebpf4jnsgd1na2vs0mg"},{"bike_id":"942148f9-90f2-4171-8f05-98ba0ca85bcb","system_id":"levelo_inurba_marseille","lat":43.28874,"lon":5.48193,"is_reserved":false,"is_disabled":false,"rental_uris":{"android":"levelo://app?vid=942148f9-90f2-4171-8f05-98ba0ca85bcb","ios":"levelo://app?vid=942148f9-90f2-4171-8f05-98ba0ca85bcb"},"vehicle_type_id":"4","last_reported":1784414218,"current_range_meters":38800,"station_id":"","pricing_plan_id":"cebpf4jnsgd1na2vs0mg"},{"bike_id":"c810f4d1-b4da-406c-8d26-e38927a8150c","system_id":"levelo_inurba_marseille","lat":43.26695,"lon":5.38259,"is_reserved":false,"is_disabled":false,"rental_uris":{"android":"levelo://app?vid=c810f4d1-b4da-406c-8d26-e38927a8150c","ios":"levelo://app?vid=c810f4d1-b4da-406c-8d26-e38927a8150c"},"vehicle_type_id":"4","last_reported":1784414218,"current_range_meters":30000,"station_id":"ce4bhg92rcd13ifvqf90","pricing_plan_id":"cebpf4jnsgd1na2vs0mg"},{"bike_id":"54733892-ca4e-42e1-a6e2-3f31839f4a24","system_id":"levelo_inurba_marseille","lat":43.2997,"lon":5.41304,"is_reserved":false,"is_disabled":false,"rental_uris":{"android":"levelo://app?vid=54733892-ca4e-42e1-a6e2-3f31839f4a24","ios":"levelo://app?vid=54733892-ca4e-42e1-a6e2-3f31839f4a24"},"vehicle_type_id":"4","last_reported":1784414218,"current_range_meters":38400,"station_id":"ce4bhp12rcd13ifvqh9g","pricing_plan_id":"cebpf4jnsgd1na2vs0mg"},{"bike_id":"fa288643-b967-4c77-8362-0941ea5afa2f","system_id":"levelo_inurba_marseille","lat":43.23193,"lon":5.35566,"is_reserved":false,"is_disabled":false,"rental_uris":{"android":"levelo://app?vid=fa288643-b967-4c77-8362-0941ea5afa2f","ios":"levelo://app?vid=fa288643-b967-4c77-8362-0941ea5afa2f"},"vehicle_type_id":"4","last_reported":1784414218,"current_range_meters":6800,"station_id":"ce4bhu92rcd13ifvqi70","pricing_plan_id":"cebpf4jnsgd1na2vs0mg"},{"bike_id":"2a93def1-9840-4751-b465-b53bb0ce6123","system_id":"levelo_inurba_marseille","lat":43.22562,"lon":5.41622,"is_reserved":false,"is_disabled":false,"rental_uris":{"android":"levelo://app?vid=2a93def1-9840-4751-b465-b53bb0ce6123","ios":"levelo://app?vid=2a93def1-9840-4751-b465-b53bb0ce6123"},"vehicle_type_id":"4","last_reported":1784414218,"current_range_meters":9600,"station_id":"st_d2o4gvlbi1j2169b742g","pricing_plan_id":"cebpf4jnsgd1na2vs0mg"},{"bike_id":"d98a757a-6f6d-47aa-8f36-2e59d82959b6","system_id":"levelo_inurba_marseille","lat":43.25513,"lon":5.37663,"is_reserved":false,"is_disabled":false,"rental_uris":{"android":"levelo://app?vid=d98a757a-6f6d-47aa-8f36-2e59d82959b6","ios":"levelo://app?vid=d98a757a-6f6d-47aa-8f36-2e59d82959b6"},"vehicle_type_id":"4","last_reported":1784414218,"current_range_meters":8800,"station_id":"ce4bhh12rcd13ifvqff0","pricing_plan_id":"cebpf4jnsgd1na2vs0mg"},{"bike_id":"d2b08bfe-8d05-4397-91e9-fe938a2b845f","system_id":"levelo_inurba_marseille","lat":43.27493,"lon":5.42451,"is_reserved":false,"is_disabled":false,"rental_uris":{"android":"levelo://app?vid=d2b08bfe-8d05-4397-91e9-fe938a2b845f","ios":"levelo://app?vid=d2b08bfe-8d05-4397-91e9-fe938a2b845f"},"vehicle_type_id":"4","last_reported":1784414218,"current_range_meters":30400,"station_id":"ce4bhn92rcd13ifvqgrg","pricing_plan_id":"cebpf4jnsgd1na2vs0mg"},{"bike_id":"181f0b94-3d60-469a-897f-e042f22e7d38","system_id":"levelo_inurba_marseille","lat":43.31756,"lon":5.3902,"is_reserved":false,"is_disabled":false,"rental_uris":{"android":"levelo://app?vid=181f0b94-3d60-469a-897f-e042f22e7d38","ios":"levelo://app?vid=181f0b94-3d60-469a-897f-e042f22e7d38"},"vehicle_type_id":"4","last_reported":1784414218,"current_range_meters":36800,"station_id":"ce4bhqp2rcd13ifvqhng","pricing_plan_id":"cebpf4jnsgd1na2vs0mg"},{"bike_id":"85c6f96b-abeb-41c4-b8e0-2980ab917c26","system_id":"levelo_inurba_marseille","lat":43.24455,"lon":5.42552,"is_reserved":false,"is_disabled":false,"rental_uris":{"android":"levelo://app?vid=85c6f96b-abeb-41c4-b8e0-2980ab917c26","ios":"levelo://app?vid=85c6f96b-abeb-41c4-b8e0-2980ab917c26"},"vehicle_type_id":"4","last_reported":1784414218,"current_range_meters":28000,"station_id":"st_d4a3vfp97mjs738cd8kg","pricing_plan_id":"cebpf4jnsgd1na2vs0mg"},{"bike_id":"e97d923d-d560-461e-94e7-6b746b3d8d92","system_id":"levelo_inurba_marseille","lat":43.32112,"lon":5.36779,"is_reserved":false,"is_disabled":false,"rental_uris":{"android":"levelo://app?vid=e97d923d-d560-461e-94e7-6b746b3d8d92","ios":"levelo://app?vid=e97d923d-d560-461e-94e7-6b746b3d8d92"},"vehicle_type_id":"4","last_reported":1784414218,"current_range_meters":24800,"station_id":"ce4bhrh2rcd13ifvqhug","pricing_plan_id":"cebpf4jnsgd1na2vs0mg"},{"bike_id":"0f85437a-5fa5-4d68-bd20-97dbefe38170","system_id":"levelo_inurba_marseille","lat":43.30805,"lon":5.38149,"is_reserved":false,"is_disabled":false,"rental_uris":{"android":"levelo://app?vid=0f85437a-5fa5-4d68-bd20-97dbefe38170","ios":"levelo://app?vid=0f85437a-5fa5-4d68-bd20-97dbefe38170"},"vehicle_type_id":"4","last_reported":1784414218,"current_range_meters":24400,"station_id":"ce4bgt12rcd13ifvqce0","pricing_plan_id":"cebpf4jnsgd1na2vs0mg"},{"bike_id":"a3c6b3de-5047-44c0-9b10-260e1b067630","system_id":"levelo_inurba_marseille","lat":43.29614,"lon":5.37713,"is_reserved":false,"is_disabled":false,"rental_uris":{"android":"levelo://app?vid=a3c6b3de-5047-44c0-9b10-260e1b067630","ios":"levelo://app?vid=a3c6b3de-5047-44c0-9b10-260e1b067630"},"vehicle_type_id":"4","last_reported":1784414218,"current_range_meters":39200,"station_id":"ce4bgi92rcd13ifvqb90","pricing_plan_id":"cebpf4jnsgd1na2vs0mg"},{"bike_id":"3476295f-b91e-4040-89ed-d6f70c2a2528","system_id":"levelo_inurba_marseille","lat":43.28747,"lon":5.38543,"is_reserved":false,"is_disabled":false,"rental_uris":{"android":"levelo://app?vid=3476295f-b91e-4040-89ed-d6f70c2a2528","ios":"levelo://app?vid=3476295f-b91e-4040-89ed-d6f70c2a2528"},"vehicle_type_id":"4","last_reported":1784414218,"current_range_meters":9200,"station_id":"","pricing_plan_id":"cebpf4jnsgd1na2vs0mg"},{"bike_id":"a73f2824-04af-4eb1-8696-07548fb915c6","system_id":"levelo_inurba_marseille","lat":43.27075,"lon":5.4227,"is_reserved":false,"is_disabled":false,"rental_uris":{"android":"levelo://app?vid=a73f2824-04af-4eb1-8696-07548fb915c6","ios":"levelo://app?vid=a73f2824-04af-4eb1-8696-07548fb915c6"},"vehicle_type_id":"4","last_reported":1784414218,"current_range_meters":34000,"station_id":"ce4bhk92rcd13ifvqgb0","pricing_plan_id":"cebpf4jnsgd1na2vs0mg"},{"bike_id":"f7b9c791-d3b8-441d-9770-a1ab42fe6ac7","system_id":"levelo_inurba_marseille","lat":43.21748,"lon":5.34607,"is_reserved":false,"is_disabled":false,"rental_uris":{"android":"levelo://app?vid=f7b9c791-d3b8-441d-9770-a1ab42fe6ac7","ios":"levelo://app?vid=f7b9c791-d3b8-441d-9770-a1ab42fe6ac7"},"vehicle_type_id":"4","last_reported":1784414218,"current_range_meters":4000,"station_id":"st_cvj6r9ubvosntc0bgbag","pricing_plan_id":"cebpf4jnsgd1na2vs0mg"},{"bike_id":"c96e0f69-8b05-45b3-9aa2-eb88efb53d39","system_id":"levelo_inurba_marseille","lat":43.27958,"lon":5.41022,"is_reserved":false,"is_disabled":false,"rental_uris":{"android":"levelo://app?vid=c96e0f69-8b05-45b3-9aa2-eb88efb53d39","ios":"levelo://app?vid=c96e0f69-8b05-45b3-9aa2-eb88efb53d39"},"vehicle_type_id":"4","last_reported":1784414218,"current_range_meters":34800,"station_id":"ce4bhnp2rcd13ifvqh0g","pricing_plan_id":"cebpf4jnsgd1na2vs0mg"},{"bike_id":"e845caaf-6f62-4afe-898b-175d7eec4dd5","system_id":"levelo_inurba_marseille","lat":43.29032,"lon":5.35924,"is_reserved":false,"is_disabled":true,"rental_uris":{"android":"levelo://app?vid=e845caaf-6f62-4afe-898b-175d7eec4dd5","ios":"levelo://app?vid=e845caaf-6f62-4afe-898b-175d7eec4dd5"},"vehicle_type_id":"4","last_reported":1784414218,"current_range_meters":9600,"station_id":"ce4bha92rcd13ifvqeg0","pricing_plan_id":"cebpf4jnsgd1na2vs0mg"},{"bike_id":"a7cc50e2-f09e-4a48-9683-20a2db33d1e7","system_id":"levelo_inurba_marseille","lat":43.29073,"lon":5.37174,"is_reserved":false,"is_disabled":false,"rental_uris":{"android":"levelo://app?vid=a7cc50e2-f09e-4a48-9683-20a2db33d1e7","ios":"levelo://app?vid=a7cc50e2-f09e-4a48-9683-20a2db33d1e7"},"vehicle_type_id":"4","last_reported":1784414218,"current_range_meters":8000,"station_id":"ce4bh5p2rcd13ifvqe4g","pricing_plan_id":"cebpf4jnsgd1na2vs0mg"},{"bike_id":"b64426df-a3f7-424e-923a-a5218fc5bce4","system_id":"levelo_inurba_marseille","lat":43.27662,"lon":5.38903,"is_reserved":false,"is_disabled":false,"rental_uris":{"android":"levelo://app?vid=b64426df-a3f7-424e-923a-a5218fc5bce4","ios":"levelo://app?vid=b64426df-a3f7-424e-923a-a5218fc5bce4"},"vehicle_type_id":"4","last_reported":1784414218,"current_range_meters":25600,"station_id":"ce4bhi12rcd13ifvqfo0","pricing_plan_id":"cebpf4jnsgd1na2vs0mg"},{"bike_id":"53cf9c8e-8b82-4ba6-9896-9c7dc78c0e2d","system_id":"levelo_inurba_marseille","lat":43.28231,"lon":5.39047,"is_reserved":false,"is_disabled":false,"rental_uris":{"android":"levelo://app?vid=53cf9c8e-8b82-4ba6-9896-9c7dc78c0e2d","ios":"levelo://app?vid=53cf9c8e-8b82-4ba6-9896-9c7dc78c0e2d"},"vehicle_type_id":"4","last_reported":1784414218,"current_range_meters":39200,"station_id":"ce4bhn92rcd13ifvqgsg","pricing_plan_id":"cebpf4jnsgd1na2vs0mg"},{"bike_id":"3d4aa178-44db-467e-a1bd-4fcdf991f22c","system_id":"levelo_inurba_marseille","lat":43.31749,"lon":5.43692,"is_reserved":false,"is_disabled":false,"rental_uris":{"android":"levelo://app?vid=3d4aa178-44db-467e-a1bd-4fcdf991f22c","ios":"levelo://app?vid=3d4aa178-44db-467e-a1bd-4fcdf991f22c"},"vehicle_type_id":"4","last_reported":1784414218,"current_range_meters":39200,"station_id":"ce4bhp92rcd13ifvqhcg","pricing_plan_id":"cebpf4jnsgd1na2vs0mg"},{"bike_id":"78b472ae-7ca1-438d-a65f-f93d06645001","system_id":"levelo_inurba_marseille","lat":43.29275,"lon":5.36026,"is_reserved":false,"is_disabled":true,"rental_uris":{"android":"levelo://app?vid=78b472ae-7ca1-438d-a65f-f93d06645001","ios":"levelo://app?vid=78b472ae-7ca1-438d-a65f-f93d06645001"},"vehicle_type_id":"4","last_reported":1784414218,"current_range_meters":2800,"station_id":"","pricing_plan_id":"cebpf4jnsgd1na2vs0mg"},{"bike_id":"4702e3a1-c863-438b-8146-e2987d253070","system_id":"levelo_inurba_marseille","lat":43.255789,"lon":5.382271,"is_reserved":false,"is_disabled":false,"rental_uris":{"android":"levelo://app?vid=4702e3a1-c863-438b-8146-e2987d253070","ios":"levelo://app?vid=4702e3a1-c863-438b-8146-e2987d253070"},"vehicle_type_id":"4","last_reported":1784414218,"current_range_meters":39200,"station_id":"ce4bhih2rcd13ifvqfs0","pricing_plan_id":"cebpf4jnsgd1na2vs0mg"},{"bike_id":"741f5840-7183-4388-a94c-c786c647c46e","system_id":"levelo_inurba_marseille","lat":43.27565,"lon":5.3842,"is_reserved":false,"is_disabled":false,"rental_uris":{"android":"levelo://app?vid=741f5840-7183-4388-a94c-c786c647c46e","ios":"levelo://app?vid=741f5840-7183-4388-a94c-c786c647c46e"},"vehicle_type_id":"4","last_reported":1784414218,"current_range_meters":17600,"station_id":"ce4bhh92rcd13ifvqfi0","pricing_plan_id":"cebpf4jnsgd1na2vs0mg"},{"bike_id":"bf010752-4ee2-4816-b256-1fb00bbe1bcc","system_id":"levelo_inurba_marseille","lat":43.28609,"lon":5.35103,"is_reserved":false,"is_disabled":true,"rental_uris":{"android":"levelo://app?vid=bf010752-4ee2-4816-b256-1fb00bbe1bcc","ios":"levelo://app?vid=bf010752-4ee2-4816-b256-1fb00bbe1bcc"},"vehicle_type_id":"4","last_reported":1784414218,"current_range_meters":14800,"station_id":"ce4bhch2rcd13ifvqeug","pricing_plan_id":"cebpf4jnsgd1na2vs0mg"},{"bike_id":"f31e71a2-8328-4ff9-9288-61f910dee152","system_id":"levelo_inurba_marseille","lat":43.26501,"lon":5.39561,"is_reserved":false,"is_disabled":false,"rental_uris":{"android":"levelo://app?vid=f31e71a2-8328-4ff9-9288-61f910dee152","ios":"levelo://app?vid=f31e71a2-8328-4ff9-9288-61f910dee152"},"vehicle_type_id":"4","last_reported":1784414218,"current_range_meters":4400,"station_id":"ce4bhi12rcd13ifvqfq0","pricing_plan_id":"cebpf4jnsgd1na2vs0mg"},{"bike_id":"348caf77-82d6-4562-a72e-c7becae0b0ae","system_id":"levelo_inurba_marseille","lat":43.230549,"lon":5.354901,"is_reserved":false,"is_disabled":false,"rental_uris":{"android":"levelo://app?vid=348caf77-82d6-4562-a72e-c7becae0b0ae","ios":"levelo://app?vid=348caf77-82d6-4562-a72e-c7becae0b0ae"},"vehicle_type_id":"4","last_reported":1784414218,"current_range_meters":38000,"station_id":"cpo3342slgdg3j2ifvpg","pricing_plan_id":"cebpf4jnsgd1na2vs0mg"},{"bike_id":"88b3333d-68df-42df-8ef7-a9a4f08abce5","system_id":"levelo_inurba_marseille","lat":43.22911,"lon":5.41509,"is_reserved":false,"is_disabled":false,"rental_uris":{"android":"levelo://app?vid=88b3333d-68df-42df-8ef7-a9a4f08abce5","ios":"levelo://app?vid=88b3333d-68df-42df-8ef7-a9a4f08abce5"},"vehicle_type_id":"4","last_reported":1784414218,"current_range_meters":21600,"station_id":"","pricing_plan_id":"cebpf4jnsgd1na2vs0mg"},{"bike_id":"3e3594cd-dbba-4f84-81d3-2d0d005f6d0c","system_id":"levelo_inurba_marseille","lat":43.24175,"lon":5.39734,"is_reserved":false,"is_disabled":false,"rental_uris":{"android":"levelo://app?vid=3e3594cd-dbba-4f84-81d3-2d0d005f6d0c","ios":"levelo://app?vid=3e3594cd-dbba-4f84-81d3-2d0d005f6d0c"},"vehicle_type_id":"4","last_reported":1784414218,"current_range_meters":39200,"station_id":"ce4bhn12rcd13ifvqgpg","pricing_plan_id":"cebpf4jnsgd1na2vs0mg"},{"bike_id":"cbf57bb6-373a-442c-9860-92cf9215a1bb","system_id":"levelo_inurba_marseille","lat":43.30541,"lon":5.36527,"is_reserved":false,"is_disabled":true,"rental_uris":{"android":"levelo://app?vid=cbf57bb6-373a-442c-9860-92cf9215a1bb","ios":"levelo://app?vid=cbf57bb6-373a-442c-9860-92cf9215a1bb"},"vehicle_type_id":"4","last_reported":1784414218,"current_range_meters":24000,"station_id":"ce4bgs12rcd13ifvqcag","pricing_plan_id":"cebpf4jnsgd1na2vs0mg"},{"bike_id":"2f335322-2773-4e47-b861-b5ada2d7a483","system_id":"levelo_inurba_marseille","lat":43.2622,"lon":5.37436,"is_reserved":false,"is_disabled":false,"rental_uris":{"android":"levelo://app?vid=2f335322-2773-4e47-b861-b5ada2d7a483","ios":"levelo://app?vid=2f335322-2773-4e47-b861-b5ada2d7a483"},"vehicle_type_id":"4","last_reported":1784414218,"current_range_meters":38000,"station_id":"ce4bhgp2rcd13ifvqfc0","pricing_plan_id":"cebpf4jnsgd1na2vs0mg"},{"bike_id":"38265988-c620-4062-a3a9-60841e33df0d","system_id":"levelo_inurba_marseille","lat":43.29025,"lon":5.38641,"is_reserved":false,"is_disabled":false,"rental_uris":{"android":"levelo://app?vid=38265988-c620-4062-a3a9-60841e33df0d","ios":"levelo://app?vid=38265988-c620-4062-a3a9-60841e33df0d"},"vehicle_type_id":"4","last_reported":1784414218,"current_range_meters":31200,"station_id":"ce4bh4p2rcd13ifvqe0g","pricing_plan_id":"cebpf4jnsgd1na2vs0mg"},{"bike_id":"6dc303ad-c645-41ff-bd15-9564ddff83e6","system_id":"levelo_inurba_marseille","lat":43.26666,"lon":5.38264,"is_reserved":false,"is_disabled":false,"rental_uris":{"android":"levelo://app?vid=6dc303ad-c645-41ff-bd15-9564ddff83e6","ios":"levelo://app?vid=6dc303ad-c645-41ff-bd15-9564ddff83e6"},"vehicle_type_id":"4","last_reported":1784414218,"current_range_meters":28000,"station_id":"ce4bhg92rcd13ifvqf90","pricing_plan_id":"cebpf4jnsgd1na2vs0mg"},{"bike_id":"2de176ff-6bc9-4ffc-893a-6f1c16f8cdca","system_id":"levelo_inurba_marseille","lat":43.26976,"lon":5.38617,"is_reserved":false,"is_disabled":false,"rental_uris":{"android":"levelo://app?vid=2de176ff-6bc9-4ffc-893a-6f1c16f8cdca","ios":"levelo://app?vid=2de176ff-6bc9-4ffc-893a-6f1c16f8cdca"},"vehicle_type_id":"4","last_reported":1784414218,"current_range_meters":33200,"station_id":"ce4bhh92rcd13ifvqfh0","pricing_plan_id":"cebpf4jnsgd1na2vs0mg"},{"bike_id":"83abe946-ea68-4397-bee3-4e1cc45eebb9","system_id":"levelo_inurba_marseille","lat":43.30877,"lon":5.3965,"is_reserved":false,"is_disabled":false,"rental_uris":{"android":"levelo://app?vid=83abe946-ea68-4397-bee3-4e1cc45eebb9","ios":"levelo://app?vid=83abe946-ea68-4397-bee3-4e1cc45eebb9"},"vehicle_type_id":"4","last_reported":1784414218,"current_range_meters":30000,"station_id":"ce4bh012rcd13ifvqcv0","pricing_plan_id":"cebpf4jnsgd1na2vs0mg"},{"bike_id":"b9bf91b1-f6c3-4792-a380-5b253e1ff4ad","system_id":"levelo_inurba_marseille","lat":43.23187,"lon":5.35556,"is_reserved":false,"is_disabled":false,"rental_uris":{"android":"levelo://app?vid=b9bf91b1-f6c3-4792-a380-5b253e1ff4ad","ios":"levelo://app?vid=b9bf91b1-f6c3-4792-a380-5b253e1ff4ad"},"vehicle_type_id":"4","last_reported":1784414218,"current_range_meters":30400,"station_id":"ce4bhu92rcd13ifvqi70","pricing_plan_id":"cebpf4jnsgd1na2vs0mg"},{"bike_id":"d0689963-1360-4eec-9974-1c99b2ed8187","system_id":"levelo_inurba_marseille","lat":43.30602,"lon":5.37236,"is_reserved":false,"is_disabled":true,"rental_uris":{"android":"levelo://app?vid=d0689963-1360-4eec-9974-1c99b2ed8187","ios":"levelo://app?vid=d0689963-1360-4eec-9974-1c99b2ed8187"},"vehicle_type_id":"4","last_reported":1784414218,"current_range_meters":35200,"station_id":"ce4bgqh2rcd13ifvqc4g","pricing_plan_id":"cebpf4jnsgd1na2vs0mg"},{"bike_id":"1a793fe2-88e7-412f-8b7f-db9a8c076d39","system_id":"levelo_inurba_marseille","lat":43.306337,"lon":5.383156,"is_reserved":false,"is_disabled":false,"rental_uris":{"android":"levelo://app?vid=1a793fe2-88e7-412f-8b7f-db9a8c076d39","ios":"levelo://app?vid=1a793fe2-88e7-412f-8b7f-db9a8c076d39"},"vehicle_type_id":"4","last_reported":1784414218,"current_range_meters":14000,"station_id":"ce4bgv92rcd13ifvqcq0","pricing_plan_id":"cebpf4jnsgd1na2vs0mg"},{"bike_id":"4f54c651-15d1-492f-8d09-70f1f809ad4f","system_id":"levelo_inurba_marseille","lat":43.27497,"lon":5.42553,"is_reserved":false,"is_disabled":false,"rental_uris":{"android":"levelo://app?vid=4f54c651-15d1-492f-8d09-70f1f809ad4f","ios":"levelo://app?vid=4f54c651-15d1-492f-8d09-70f1f809ad4f"},"vehicle_type_id":"4","last_reported":1784414218,"current_range_meters":19200,"station_id":"st_d8t4bh7nbrqs73arha60","pricing_plan_id":"cebpf4jnsgd1na2vs0mg"},{"bike_id":"7065528a-f292-4b1d-9927-6e05933d2cf0","system_id":"levelo_inurba_marseille","lat":43.22566,"lon":5.41623,"is_reserved":false,"is_disabled":false,"rental_uris":{"android":"levelo://app?vid=7065528a-f292-4b1d-9927-6e05933d2cf0","ios":"levelo://app?vid=7065528a-f292-4b1d-9927-6e05933d2cf0"},"vehicle_type_id":"4","last_reported":1784414218,"current_range_meters":25600,"station_id":"st_d2o4gvlbi1j2169b742g","pricing_plan_id":"cebpf4jnsgd1na2vs0mg"},{"bike_id":"8ef0363b-8fbc-49e0-8191-0c38c5cd1787","system_id":"levelo_inurba_marseille","lat":43.28694,"lon":5.3738,"is_reserved":false,"is_disabled":false,"rental_uris":{"android":"levelo://app?vid=8ef0363b-8fbc-49e0-8191-0c38c5cd1787","ios":"levelo://app?vid=8ef0363b-8fbc-49e0-8191-0c38c5cd1787"},"vehicle_type_id":"4","last_reported":1784414218,"current_range_meters":28400,"station_id":"ce4bh3p2rcd13ifvqdq0","pricing_plan_id":"cebpf4jnsgd1na2vs0mg"},{"bike_id":"941728cf-f287-4ec4-98e4-7774d078a541","system_id":"levelo_inurba_marseille","lat":43.29515,"lon":5.38541,"is_reserved":false,"is_disabled":false,"rental_uris":{"android":"levelo://app?vid=941728cf-f287-4ec4-98e4-7774d078a541","ios":"levelo://app?vid=941728cf-f287-4ec4-98e4-7774d078a541"},"vehicle_type_id":"4","last_reported":1784414218,"current_range_meters":30800,"station_id":"ce4bgih2rcd13ifvqba0","pricing_plan_id":"cebpf4jnsgd1na2vs0mg"},{"bike_id":"e35b3037-ccf2-48a7-b6f2-14a77143bba4","system_id":"levelo_inurba_marseille","lat":43.3234,"lon":5.36729,"is_reserved":false,"is_disabled":false,"rental_uris":{"android":"levelo://app?vid=e35b3037-ccf2-48a7-b6f2-14a77143bba4","ios":"levelo://app?vid=e35b3037-ccf2-48a7-b6f2-14a77143bba4"},"vehicle_type_id":"4","last_reported":1784414218,"current_range_meters":28800,"station_id":"ce4bhsh2rcd13ifvqi2g","pricing_plan_id":"cebpf4jnsgd1na2vs0mg"},{"bike_id":"25decd76-fc61-429d-929f-ec99c0f4f096","system_id":"levelo_inurba_marseille","lat":43.3108,"lon":5.42433,"is_reserved":false,"is_disabled":false,"rental_uris":{"android":"levelo://app?vid=25decd76-fc61-429d-929f-ec99c0f4f096","ios":"levelo://app?vid=25decd76-fc61-429d-929f-ec99c0f4f096"},"vehicle_type_id":"4","last_reported":1784414218,"current_range_meters":40000,"station_id":"ce4bhp92rcd13ifvqhag","pricing_plan_id":"cebpf4jnsgd1na2vs0mg"},{"bike_id":"9c87021f-b4c7-4689-8631-8447a55c55c0","system_id":"levelo_inurba_marseille","lat":43.28339,"lon":5.38103,"is_reserved":false,"is_disabled":false,"rental_uris":{"android":"levelo://app?vid=9c87021f-b4c7-4689-8631-8447a55c55c0","ios":"levelo://app?vid=9c87021f-b4c7-4689-8631-8447a55c55c0"},"vehicle_type_id":"4","last_reported":1784414218,"current_range_meters":25200,"station_id":"ce4bh412rcd13ifvqdr0","pricing_plan_id":"cebpf4jnsgd1na2vs0mg"},{"bike_id":"d46de6b8-f83c-4c00-80db-8ab6fcf2f7ae","system_id":"levelo_inurba_marseille","lat":43.29533,"lon":5.37504,"is_reserved":false,"is_disabled":true,"rental_uris":{"android":"levelo://app?vid=d46de6b8-f83c-4c00-80db-8ab6fcf2f7ae","ios":"levelo://app?vid=d46de6b8-f83c-4c00-80db-8ab6fcf2f7ae"},"vehicle_type_id":"4","last_reported":1784414218,"current_range_meters":38400,"station_id":"ce4bgkp2rcd13ifvqbmg","pricing_plan_id":"cebpf4jnsgd1na2vs0mg"},{"bike_id":"ad7f6d8e-02d1-47c8-8b1c-5ec17c42251c","system_id":"levelo_inurba_marseille","lat":43.29679,"lon":5.36604,"is_reserved":false,"is_disabled":false,"rental_uris":{"android":"levelo://app?vid=ad7f6d8e-02d1-47c8-8b1c-5ec17c42251c","ios":"levelo://app?vid=ad7f6d8e-02d1-47c8-8b1c-5ec17c42251c"},"vehicle_type_id":"4","last_reported":1784414218,"current_range_meters":14000,"station_id":"ce4bgn12rcd13ifvqbt0","pricing_plan_id":"cebpf4jnsgd1na2vs0mg"},{"bike_id":"d164dba8-1623-4fc4-9abc-adedec086b4e","system_id":"levelo_inurba_marseille","lat":43.28468,"lon":5.38411,"is_reserved":false,"is_disabled":false,"rental_uris":{"android":"levelo://app?vid=d164dba8-1623-4fc4-9abc-adedec086b4e","ios":"levelo://app?vid=d164dba8-1623-4fc4-9abc-adedec086b4e"},"vehicle_type_id":"4","last_reported":1784414218,"current_range_meters":21600,"station_id":"ce4bh512rcd13ifvqe3g","pricing_plan_id":"cebpf4jnsgd1na2vs0mg"},{"bike_id":"b32aabde-9bb9-4939-8873-e24f0fd51c81","system_id":"levelo_inurba_marseille","lat":43.29541,"lon":5.38564,"is_reserved":false,"is_disabled":false,"rental_uris":{"android":"levelo://app?vid=b32aabde-9bb9-4939-8873-e24f0fd51c81","ios":"levelo://app?vid=b32aabde-9bb9-4939-8873-e24f0fd51c81"},"vehicle_type_id":"4","last_reported":1784414218,"current_range_meters":33600,"station_id":"ce4bgih2rcd13ifvqba0","pricing_plan_id":"cebpf4jnsgd1na2vs0mg"},{"bike_id":"e9eed4d4-db77-4546-9e48-bc8a398abdd5","system_id":"levelo_inurba_marseille","lat":43.29971,"lon":5.38485,"is_reserved":false,"is_disabled":false,"rental_uris":{"android":"levelo://app?vid=e9eed4d4-db77-4546-9e48-bc8a398abdd5","ios":"levelo://app?vid=e9eed4d4-db77-4546-9e48-bc8a398abdd5"},"vehicle_type_id":"4","last_reported":1784414218,"current_range_meters":24800,"station_id":"ce4bgj92rcd13ifvqbd0","pricing_plan_id":"cebpf4jnsgd1na2vs0mg"},{"bike_id":"72e18e09-40d8-4c56-acd7-29b3c5272569","system_id":"levelo_inurba_marseille","lat":43.26062,"lon":5.39391,"is_reserved":false,"is_disabled":false,"rental_uris":{"android":"levelo://app?vid=72e18e09-40d8-4c56-acd7-29b3c5272569","ios":"levelo://app?vid=72e18e09-40d8-4c56-acd7-29b3c5272569"},"vehicle_type_id":"4","last_reported":1784414218,"current_range_meters":28800,"station_id":"ce4bhh92rcd13ifvqfj0","pricing_plan_id":"cebpf4jnsgd1na2vs0mg"},{"bike_id":"b97d8d8e-c096-4e4a-b7ca-03921bd46bde","system_id":"levelo_inurba_marseille","lat":43.29042,"lon":5.38651,"is_reserved":false,"is_disabled":false,"rental_uris":{"android":"levelo://app?vid=b97d8d8e-c096-4e4a-b7ca-03921bd46bde","ios":"levelo://app?vid=b97d8d8e-c096-4e4a-b7ca-03921bd46bde"},"vehicle_type_id":"4","last_reported":1784414218,"current_range_meters":36000,"station_id":"ce4bh4p2rcd13ifvqe0g","pricing_plan_id":"cebpf4jnsgd1na2vs0mg"},{"bike_id":"a8678b85-a65d-4ed9-8616-62e9983fb940","system_id":"levelo_inurba_marseille","lat":43.28692,"lon":5.37387,"is_reserved":false,"is_disabled":false,"rental_uris":{"android":"levelo://app?vid=a8678b85-a65d-4ed9-8616-62e9983fb940","ios":"levelo://app?vid=a8678b85-a65d-4ed9-8616-62e9983fb940"},"vehicle_type_id":"4","last_reported":1784414218,"current_range_meters":3600,"station_id":"ce4bh3p2rcd13ifvqdq0","pricing_plan_id":"cebpf4jnsgd1na2vs0mg"},{"bike_id":"d4dc2e82-eda9-4a52-9ac9-563a4e12739a","system_id":"levelo_inurba_marseille","lat":43.3093,"lon":5.40146,"is_reserved":false,"is_disabled":false,"rental_uris":{"android":"levelo://app?vid=d4dc2e82-eda9-4a52-9ac9-563a4e12739a","ios":"levelo://app?vid=d4dc2e82-eda9-4a52-9ac9-563a4e12739a"},"vehicle_type_id":"4","last_reported":1784414218,"current_range_meters":28000,"station_id":"ce4bgvp2rcd13ifvqct0","pricing_plan_id":"cebpf4jnsgd1na2vs0mg"},{"bike_id":"01e7462b-b9cf-469e-92a6-2a1201a0f2a3","system_id":"levelo_inurba_marseille","lat":43.30498,"lon":5.39864,"is_reserved":false,"is_disabled":true,"rental_uris":{"android":"levelo://app?vid=01e7462b-b9cf-469e-92a6-2a1201a0f2a3","ios":"levelo://app?vid=01e7462b-b9cf-469e-92a6-2a1201a0f2a3"},"vehicle_type_id":"4","last_reported":1784414218,"current_range_meters":3600,"station_id":"","pricing_plan_id":"cebpf4jnsgd1na2vs0mg"},{"bike_id":"cf34fd26-0aa1-4673-91d4-93bedb42cc36","system_id":"levelo_inurba_marseille","lat":43.29537,"lon":5.38552,"is_reserved":false,"is_disabled":false,"rental_uris":{"android":"levelo://app?vid=cf34fd26-0aa1-4673-91d4-93bedb42cc36","ios":"levelo://app?vid=cf34fd26-0aa1-4673-91d4-93bedb42cc36"},"vehicle_type_id":"4","last_reported":1784414218,"current_range_meters":8000,"station_id":"ce4bgih2rcd13ifvqba0","pricing_plan_id":"cebpf4jnsgd1na2vs0mg"},{"bike_id":"2fd3fd2a-5afd-41dc-a0e5-4abd957555d4","system_id":"levelo_inurba_marseille","lat":43.26687,"lon":5.3826,"is_reserved":false,"is_disabled":false,"rental_uris":{"android":"levelo://app?vid=2fd3fd2a-5afd-41dc-a0e5-4abd957555d4","ios":"levelo://app?vid=2fd3fd2a-5afd-41dc-a0e5-4abd957555d4"},"vehicle_type_id":"4","last_reported":1784414218,"current_range_meters":16000,"station_id":"ce4bhg92rcd13ifvqf90","pricing_plan_id":"cebpf4jnsgd1na2vs0mg"},{"bike_id":"8b6331b3-2914-4282-8a4c-45cca24291f2","system_id":"levelo_inurba_marseille","lat":43.30924,"lon":5.40137,"is_reserved":false,"is_disabled":false,"rental_uris":{"android":"levelo://app?vid=8b6331b3-2914-4282-8a4c-45cca24291f2","ios":"levelo://app?vid=8b6331b3-2914-4282-8a4c-45cca24291f2"},"vehicle_type_id":"4","last_reported":1784414218,"current_range_meters":24000,"station_id":"","pricing_plan_id":"cebpf4jnsgd1na2vs0mg"},{"bike_id":"c71df0af-3adf-48e4-952c-15b439057d27","system_id":"levelo_inurba_marseille","lat":43.284134,"lon":5.374998,"is_reserved":false,"is_disabled":false,"rental_uris":{"android":"levelo://app?vid=c71df0af-3adf-48e4-952c-15b439057d27","ios":"levelo://app?vid=c71df0af-3adf-48e4-952c-15b439057d27"},"vehicle_type_id":"4","last_reported":1784414218,"current_range_meters":11600,"station_id":"ce4bh412rcd13ifvqds0","pricing_plan_id":"cebpf4jnsgd1na2vs0mg"},{"bike_id":"a287babe-2875-4e47-a1fc-a71e0666296b","system_id":"levelo_inurba_marseille","lat":43.260263,"lon":5.375491,"is_reserved":false,"is_disabled":false,"rental_uris":{"android":"levelo://app?vid=a287babe-2875-4e47-a1fc-a71e0666296b","ios":"levelo://app?vid=a287babe-2875-4e47-a1fc-a71e0666296b"},"vehicle_type_id":"4","last_reported":1784414218,"current_range_meters":23200,"station_id":"ce4bh392rcd13ifvqdm0","pricing_plan_id":"cebpf4jnsgd1na2vs0mg"},{"bike_id":"5ad04dbd-2dee-4367-97d6-2c90e1bd1799","system_id":"levelo_inurba_marseille","lat":43.28671,"lon":5.38659,"is_reserved":false,"is_disabled":false,"rental_uris":{"android":"levelo://app?vid=5ad04dbd-2dee-4367-97d6-2c90e1bd1799","ios":"levelo://app?vid=5ad04dbd-2dee-4367-97d6-2c90e1bd1799"},"vehicle_type_id":"4","last_reported":1784414218,"current_range_meters":38400,"station_id":"ce4bh492rcd13ifvqdug","pricing_plan_id":"cebpf4jnsgd1na2vs0mg"},{"bike_id":"0d3e100f-48fe-47e1-bef7-0a1dcfcc4955","system_id":"levelo_inurba_marseille","lat":43.33726,"lon":5.39191,"is_reserved":false,"is_disabled":false,"rental_uris":{"android":"levelo://app?vid=0d3e100f-48fe-47e1-bef7-0a1dcfcc4955","ios":"levelo://app?vid=0d3e100f-48fe-47e1-bef7-0a1dcfcc4955"},"vehicle_type_id":"4","last_reported":1784414218,"current_range_meters":39200,"station_id":"ce4bhr92rcd13ifvqhsg","pricing_plan_id":"cebpf4jnsgd1na2vs0mg"},{"bike_id":"a0e1310a-77b7-4fa2-b10c-f79e64839c34","system_id":"levelo_inurba_marseille","lat":43.30535,"lon":5.38265,"is_reserved":false,"is_disabled":true,"rental_uris":{"android":"levelo://app?vid=a0e1310a-77b7-4fa2-b10c-f79e64839c34","ios":"levelo://app?vid=a0e1310a-77b7-4fa2-b10c-f79e64839c34"},"vehicle_type_id":"4","last_reported":1784414218,"current_range_meters":0,"station_id":"","pricing_plan_id":"cebpf4jnsgd1na2vs0mg"},{"bike_id":"ed167d53-c155-484c-8de3-7860ba68af81","system_id":"levelo_inurba_marseille","lat":43.3093,"lon":5.40151,"is_reserved":false,"is_disabled":false,"rental_uris":{"android":"levelo://app?vid=ed167d53-c155-484c-8de3-7860ba68af81","ios":"levelo://app?vid=ed167d53-c155-484c-8de3-7860ba68af81"},"vehicle_type_id":"4","last_reported":1784414218,"current_range_meters":16800,"station_id":"ce4bgvp2rcd13ifvqct0","pricing_plan_id":"cebpf4jnsgd1na2vs0mg"},{"bike_id":"4f76e982-e944-4d99-999a-546a9ec8962f","system_id":"levelo_inurba_marseille","lat":43.29036,"lon":5.38657,"is_reserved":false,"is_disabled":false,"rental_uris":{"android":"levelo://app?vid=4f76e982-e944-4d99-999a-546a9ec8962f","ios":"levelo://app?vid=4f76e982-e944-4d99-999a-546a9ec8962f"},"vehicle_type_id":"4","last_reported":1784414218,"current_range_meters":6400,"station_id":"ce4bh4p2rcd13ifvqe0g","pricing_plan_id":"cebpf4jnsgd1na2vs0mg"},{"bike_id":"904c1878-51c1-4d4f-a129-94377e805ea6","system_id":"levelo_inurba_marseille","lat":43.29527,"lon":5.38541,"is_reserved":false,"is_disabled":false,"rental_uris":{"android":"levelo://app?vid=904c1878-51c1-4d4f-a129-94377e805ea6","ios":"levelo://app?vid=904c1878-51c1-4d4f-a129-94377e805ea6"},"vehicle_type_id":"4","last_reported":1784414218,"current_range_meters":25200,"station_id":"ce4bgih2rcd13ifvqba0","pricing_plan_id":"cebpf4jnsgd1na2vs0mg"},{"bike_id":"f8247caf-52b5-48fc-b182-42ede61f7c03","system_id":"levelo_inurba_marseille","lat":43.29522,"lon":5.39401,"is_reserved":false,"is_disabled":false,"rental_uris":{"android":"levelo://app?vid=f8247caf-52b5-48fc-b182-42ede61f7c03","ios":"levelo://app?vid=f8247caf-52b5-48fc-b182-42ede61f7c03"},"vehicle_type_id":"4","last_reported":1784414218,"current_range_meters":26000,"station_id":"ce4bh292rcd13ifvqdf0","pricing_plan_id":"cebpf4jnsgd1na2vs0mg"},{"bike_id":"6057b29b-fccb-4cb1-8c61-68eb32d29980","system_id":"levelo_inurba_marseille","lat":43.28347,"lon":5.38079,"is_reserved":false,"is_disabled":false,"rental_uris":{"android":"levelo://app?vid=6057b29b-fccb-4cb1-8c61-68eb32d29980","ios":"levelo://app?vid=6057b29b-fccb-4cb1-8c61-68eb32d29980"},"vehicle_type_id":"4","last_reported":1784414218,"current_range_meters":32400,"station_id":"ce4bh412rcd13ifvqdr0","pricing_plan_id":"cebpf4jnsgd1na2vs0mg"},{"bike_id":"2e35ff17-f209-4373-a43c-409dc4586a55","system_id":"levelo_inurba_marseille","lat":43.319,"lon":5.36807,"is_reserved":false,"is_disabled":false,"rental_uris":{"android":"levelo://app?vid=2e35ff17-f209-4373-a43c-409dc4586a55","ios":"levelo://app?vid=2e35ff17-f209-4373-a43c-409dc4586a55"},"vehicle_type_id":"4","last_reported":1784414218,"current_range_meters":17200,"station_id":"","pricing_plan_id":"cebpf4jnsgd1na2vs0mg"},{"bike_id":"bf92e73f-5ebb-482e-9b16-38b660c0b75a","system_id":"levelo_inurba_marseille","lat":43.217446,"lon":5.345999,"is_reserved":false,"is_disabled":true,"rental_uris":{"android":"levelo://app?vid=bf92e73f-5ebb-482e-9b16-38b660c0b75a","ios":"levelo://app?vid=bf92e73f-5ebb-482e-9b16-38b660c0b75a"},"vehicle_type_id":"4","last_reported":1784414218,"current_range_meters":4000,"station_id":"st_cvj6r9ubvosntc0bgbag","pricing_plan_id":"cebpf4jnsgd1na2vs0mg"},{"bike_id":"daa023e8-7cb3-46f6-99b4-3cf66be94332","system_id":"levelo_inurba_marseille","lat":43.29296,"lon":5.37159,"is_reserved":false,"is_disabled":true,"rental_uris":{"android":"levelo://app?vid=daa023e8-7cb3-46f6-99b4-3cf66be94332","ios":"levelo://app?vid=daa023e8-7cb3-46f6-99b4-3cf66be94332"},"vehicle_type_id":"4","last_reported":1784414218,"current_range_meters":38400,"station_id":"ce4bgh92rcd13ifvqb40","pricing_plan_id":"cebpf4jnsgd1na2vs0mg"},{"bike_id":"98bce0f5-25e4-4db3-b698-d3dcf6d7b213","system_id":"levelo_inurba_marseille","lat":43.24831,"lon":5.37429,"is_reserved":false,"is_disabled":false,"rental_uris":{"android":"levelo://app?vid=98bce0f5-25e4-4db3-b698-d3dcf6d7b213","ios":"levelo://app?vid=98bce0f5-25e4-4db3-b698-d3dcf6d7b213"},"vehicle_type_id":"4","last_reported":1784414218,"current_range_meters":27200,"station_id":"ce4bhgh2rcd13ifvqfb0","pricing_plan_id":"cebpf4jnsgd1na2vs0mg"},{"bike_id":"277ec21a-9e91-4589-adae-7060a2494c44","system_id":"levelo_inurba_marseille","lat":43.29527,"lon":5.38538,"is_reserved":false,"is_disabled":false,"rental_uris":{"android":"levelo://app?vid=277ec21a-9e91-4589-adae-7060a2494c44","ios":"levelo://app?vid=277ec21a-9e91-4589-adae-7060a2494c44"},"vehicle_type_id":"4","last_reported":1784414218,"current_range_meters":20000,"station_id":"ce4bgih2rcd13ifvqba0","pricing_plan_id":"cebpf4jnsgd1na2vs0mg"},{"bike_id":"9909b66b-5912-43c6-a667-1801446ab292","system_id":"levelo_inurba_marseille","lat":43.29366,"lon":5.37851,"is_reserved":false,"is_disabled":false,"rental_uris":{"android":"levelo://app?vid=9909b66b-5912-43c6-a667-1801446ab292","ios":"levelo://app?vid=9909b66b-5912-43c6-a667-1801446ab292"},"vehicle_type_id":"4","last_reported":1784414218,"current_range_meters":38800,"station_id":"ce4bgjh2rcd13ifvqbf0","pricing_plan_id":"cebpf4jnsgd1na2vs0mg"},{"bike_id":"65af711a-d8c8-4fc4-8cbc-dcd0786d28fa","system_id":"levelo_inurba_marseille","lat":43.28842,"lon":5.35855,"is_reserved":false,"is_disabled":true,"rental_uris":{"android":"levelo://app?vid=65af711a-d8c8-4fc4-8cbc-dcd0786d28fa","ios":"levelo://app?vid=65af711a-d8c8-4fc4-8cbc-dcd0786d28fa"},"vehicle_type_id":"4","last_reported":1784414218,"current_range_meters":21600,"station_id":"ce4bhb12rcd13ifvqem0","pricing_plan_id":"cebpf4jnsgd1na2vs0mg"},{"bike_id":"f0da9134-f11f-4f60-a3b4-bd91a12f57b2","system_id":"levelo_inurba_marseille","lat":43.29988,"lon":5.38763,"is_reserved":false,"is_disabled":false,"rental_uris":{"android":"levelo://app?vid=f0da9134-f11f-4f60-a3b4-bd91a12f57b2","ios":"levelo://app?vid=f0da9134-f11f-4f60-a3b4-bd91a12f57b2"},"vehicle_type_id":"4","last_reported":1784414218,"current_range_meters":18800,"station_id":"","pricing_plan_id":"cebpf4jnsgd1na2vs0mg"},{"bike_id":"104913fd-bdab-4c78-909d-9bbf7d4560a6","system_id":"levelo_inurba_marseille","lat":43.29784,"lon":5.38101,"is_reserved":false,"is_disabled":false,"rental_uris":{"android":"levelo://app?vid=104913fd-bdab-4c78-909d-9bbf7d4560a6","ios":"levelo://app?vid=104913fd-bdab-4c78-909d-9bbf7d4560a6"},"vehicle_type_id":"4","last_reported":1784414218,"current_range_meters":34800,"station_id":"ce4bgip2rcd13ifvqbb0","pricing_plan_id":"cebpf4jnsgd1na2vs0mg"},{"bike_id":"e33e7e56-b1af-4e57-9514-4de84c42a5c6","system_id":"levelo_inurba_marseille","lat":43.23958,"lon":5.36632,"is_reserved":false,"is_disabled":true,"rental_uris":{"android":"levelo://app?vid=e33e7e56-b1af-4e57-9514-4de84c42a5c6","ios":"levelo://app?vid=e33e7e56-b1af-4e57-9514-4de84c42a5c6"},"vehicle_type_id":"4","last_reported":1784414218,"current_range_meters":24000,"station_id":"ce4bhi12rcd13ifvqfp0","pricing_plan_id":"cebpf4jnsgd1na2vs0mg"},{"bike_id":"0ce2e617-7e6e-4793-981f-cff607a7d971","system_id":"levelo_inurba_marseille","lat":43.29529,"lon":5.39042,"is_reserved":false,"is_disabled":false,"rental_uris":{"android":"levelo://app?vid=0ce2e617-7e6e-4793-981f-cff607a7d971","ios":"levelo://app?vid=0ce2e617-7e6e-4793-981f-cff607a7d971"},"vehicle_type_id":"4","last_reported":1784414218,"current_range_meters":38400,"station_id":"","pricing_plan_id":"cebpf4jnsgd1na2vs0mg"},{"bike_id":"7604574c-06cb-407e-9e16-b7858411e1bc","system_id":"levelo_inurba_marseille","lat":43.27811,"lon":5.40698,"is_reserved":false,"is_disabled":true,"rental_uris":{"android":"levelo://app?vid=7604574c-06cb-407e-9e16-b7858411e1bc","ios":"levelo://app?vid=7604574c-06cb-407e-9e16-b7858411e1bc"},"vehicle_type_id":"4","last_reported":1784414218,"current_range_meters":17200,"station_id":"ce4bhnh2rcd13ifvqgtg","pricing_plan_id":"cebpf4jnsgd1na2vs0mg"},{"bike_id":"600d3649-4b6d-473c-a715-d27921e00684","system_id":"levelo_inurba_marseille","lat":43.23195,"lon":5.35533,"is_reserved":false,"is_disabled":false,"rental_uris":{"android":"levelo://app?vid=600d3649-4b6d-473c-a715-d27921e00684","ios":"levelo://app?vid=600d3649-4b6d-473c-a715-d27921e00684"},"vehicle_type_id":"4","last_reported":1784414218,"current_range_meters":20400,"station_id":"ce4bhu92rcd13ifvqi70","pricing_plan_id":"cebpf4jnsgd1na2vs0mg"},{"bike_id":"5a62e7a2-e950-46a1-8393-7513a9d257dc","system_id":"levelo_inurba_marseille","lat":43.29798,"lon":5.40391,"is_reserved":false,"is_disabled":false,"rental_uris":{"android":"levelo://app?vid=5a62e7a2-e950-46a1-8393-7513a9d257dc","ios":"levelo://app?vid=5a62e7a2-e950-46a1-8393-7513a9d257dc"},"vehicle_type_id":"4","last_reported":1784414218,"current_range_meters":33200,"station_id":"ce4bh112rcd13ifvqd90","pricing_plan_id":"cebpf4jnsgd1na2vs0mg"},{"bike_id":"8601b829-59f8-4eab-bab2-2f8e891d8617","system_id":"levelo_inurba_marseille","lat":43.254993,"lon":5.376487,"is_reserved":false,"is_disabled":false,"rental_uris":{"android":"levelo://app?vid=8601b829-59f8-4eab-bab2-2f8e891d8617","ios":"levelo://app?vid=8601b829-59f8-4eab-bab2-2f8e891d8617"},"vehicle_type_id":"4","last_reported":1784414218,"current_range_meters":24000,"station_id":"ce4bhh12rcd13ifvqff0","pricing_plan_id":"cebpf4jnsgd1na2vs0mg"},{"bike_id":"0130e4ef-c192-4c33-a95b-9ef547291e93","system_id":"levelo_inurba_marseille","lat":43.2583,"lon":5.3943,"is_reserved":false,"is_disabled":false,"rental_uris":{"android":"levelo://app?vid=0130e4ef-c192-4c33-a95b-9ef547291e93","ios":"levelo://app?vid=0130e4ef-c192-4c33-a95b-9ef547291e93"},"vehicle_type_id":"4","last_reported":1784414218,"current_range_meters":25200,"station_id":"ce4bhip2rcd13ifvqft0","pricing_plan_id":"cebpf4jnsgd1na2vs0mg"},{"bike_id":"4b46746f-8528-4bc4-93ea-153cfec5ac98","system_id":"levelo_inurba_marseille","lat":43.29259,"lon":5.38443,"is_reserved":false,"is_disabled":false,"rental_uris":{"android":"levelo://app?vid=4b46746f-8528-4bc4-93ea-153cfec5ac98","ios":"levelo://app?vid=4b46746f-8528-4bc4-93ea-153cfec5ac98"},"vehicle_type_id":"4","last_reported":1784414218,"current_range_meters":39200,"station_id":"ce4bh692rcd13ifvqea0","pricing_plan_id":"cebpf4jnsgd1na2vs0mg"},{"bike_id":"81959744-4786-4515-8028-caa8a3c86e5c","system_id":"levelo_inurba_marseille","lat":43.23881,"lon":5.37454,"is_reserved":false,"is_disabled":false,"rental_uris":{"android":"levelo://app?vid=81959744-4786-4515-8028-caa8a3c86e5c","ios":"levelo://app?vid=81959744-4786-4515-8028-caa8a3c86e5c"},"vehicle_type_id":"4","last_reported":1784414218,"current_range_meters":38800,"station_id":"st_d6sm7csbq4hs73f8fpjg","pricing_plan_id":"cebpf4jnsgd1na2vs0mg"},{"bike_id":"5c86d26e-fc15-401d-adac-561cb979e7f8","system_id":"levelo_inurba_marseille","lat":43.23181,"lon":5.3999,"is_reserved":false,"is_disabled":false,"rental_uris":{"android":"levelo://app?vid=5c86d26e-fc15-401d-adac-561cb979e7f8","ios":"levelo://app?vid=5c86d26e-fc15-401d-adac-561cb979e7f8"},"vehicle_type_id":"4","last_reported":1784414218,"current_range_meters":16800,"station_id":"ce4bhn12rcd13ifvqgqg","pricing_plan_id":"cebpf4jnsgd1na2vs0mg"},{"bike_id":"26a91fcb-e18f-4c83-9039-eb8c6882e94b","system_id":"levelo_inurba_marseille","lat":43.27157,"lon":5.36292,"is_reserved":false,"is_disabled":true,"rental_uris":{"android":"levelo://app?vid=26a91fcb-e18f-4c83-9039-eb8c6882e94b","ios":"levelo://app?vid=26a91fcb-e18f-4c83-9039-eb8c6882e94b"},"vehicle_type_id":"4","last_reported":1784414218,"current_range_meters":0,"station_id":"","pricing_plan_id":"cebpf4jnsgd1na2vs0mg"},{"bike_id":"490bc245-0f79-4d19-8a0c-6079dfdb7d30","system_id":"levelo_inurba_marseille","lat":43.29185,"lon":5.39323,"is_reserved":false,"is_disabled":false,"rental_uris":{"android":"levelo://app?vid=490bc245-0f79-4d19-8a0c-6079dfdb7d30","ios":"levelo://app?vid=490bc245-0f79-4d19-8a0c-6079dfdb7d30"},"vehicle_type_id":"4","last_reported":1784414218,"current_range_meters":31200,"station_id":"ce4bh192rcd13ifvqdd0","pricing_plan_id":"cebpf4jnsgd1na2vs0mg"},{"bike_id":"35f83072-8c45-49c0-9505-bd9ee9c1967c","system_id":"levelo_inurba_marseille","lat":43.300216,"lon":5.397551,"is_reserved":false,"is_disabled":false,"rental_uris":{"android":"levelo://app?vid=35f83072-8c45-49c0-9505-bd9ee9c1967c","ios":"levelo://app?vid=35f83072-8c45-49c0-9505-bd9ee9c1967c"},"vehicle_type_id":"4","last_reported":1784414218,"current_range_meters":39200,"station_id":"ce4bh0h2rcd13ifvqd40","pricing_plan_id":"cebpf4jnsgd1na2vs0mg"},{"bike_id":"9e7b599e-2368-470a-996a-9e46d15e7da0","system_id":"levelo_inurba_marseille","lat":43.2573,"lon":5.41098,"is_reserved":false,"is_disabled":false,"rental_uris":{"android":"levelo://app?vid=9e7b599e-2368-470a-996a-9e46d15e7da0","ios":"levelo://app?vid=9e7b599e-2368-470a-996a-9e46d15e7da0"},"vehicle_type_id":"4","last_reported":1784414218,"current_range_meters":38400,"station_id":"ce4bhkp2rcd13ifvqgd0","pricing_plan_id":"cebpf4jnsgd1na2vs0mg"},{"bike_id":"ae4b57fa-d019-4333-b533-6efe2c7a22cf","system_id":"levelo_inurba_marseille","lat":43.30347,"lon":5.41891,"is_reserved":false,"is_disabled":false,"rental_uris":{"android":"levelo://app?vid=ae4b57fa-d019-4333-b533-6efe2c7a22cf","ios":"levelo://app?vid=ae4b57fa-d019-4333-b533-6efe2c7a22cf"},"vehicle_type_id":"4","last_reported":1784414218,"current_range_meters":29600,"station_id":"ce4bhop2rcd13ifvqh7g","pricing_plan_id":"cebpf4jnsgd1na2vs0mg"},{"bike_id":"05a8c0cd-fa2c-4897-87bc-65b5868575e8","system_id":"levelo_inurba_marseille","lat":43.23765,"lon":5.38617,"is_reserved":false,"is_disabled":false,"rental_uris":{"android":"levelo://app?vid=05a8c0cd-fa2c-4897-87bc-65b5868575e8","ios":"levelo://app?vid=05a8c0cd-fa2c-4897-87bc-65b5868575e8"},"vehicle_type_id":"4","last_reported":1784414218,"current_range_meters":33200,"station_id":"","pricing_plan_id":"cebpf4jnsgd1na2vs0mg"},{"bike_id":"0d2c76a5-cf33-4808-8b49-c1dba0213103","system_id":"levelo_inurba_marseille","lat":43.26584,"lon":5.39023,"is_reserved":false,"is_disabled":false,"rental_uris":{"android":"levelo://app?vid=0d2c76a5-cf33-4808-8b49-c1dba0213103","ios":"levelo://app?vid=0d2c76a5-cf33-4808-8b49-c1dba0213103"},"vehicle_type_id":"4","last_reported":1784414218,"current_range_meters":39200,"station_id":"ce4bhe12rcd13ifvqf30","pricing_plan_id":"cebpf4jnsgd1na2vs0mg"},{"bike_id":"7ae0bf89-94c1-4ac8-bdab-62772f51f504","system_id":"levelo_inurba_marseille","lat":43.30778,"lon":5.37651,"is_reserved":false,"is_disabled":false,"rental_uris":{"android":"levelo://app?vid=7ae0bf89-94c1-4ac8-bdab-62772f51f504","ios":"levelo://app?vid=7ae0bf89-94c1-4ac8-bdab-62772f51f504"},"vehicle_type_id":"4","last_reported":1784414218,"current_range_meters":40000,"station_id":"ce4bgv92rcd13ifvqcq0","pricing_plan_id":"cebpf4jnsgd1na2vs0mg"},{"bike_id":"6dcae072-db9d-47d6-8753-8b202b7aab14","system_id":"levelo_inurba_marseille","lat":43.26368,"lon":5.41071,"is_reserved":false,"is_disabled":false,"rental_uris":{"android":"levelo://app?vid=6dcae072-db9d-47d6-8753-8b202b7aab14","ios":"levelo://app?vid=6dcae072-db9d-47d6-8753-8b202b7aab14"},"vehicle_type_id":"4","last_reported":1784414218,"current_range_meters":30400,"station_id":"st_d4e5ca6na9uc73bfl5fg","pricing_plan_id":"cebpf4jnsgd1na2vs0mg"},{"bike_id":"3a7bc097-3d28-4f52-88ed-d3904da59c29","system_id":"levelo_inurba_marseille","lat":43.24469,"lon":5.42523,"is_reserved":false,"is_disabled":false,"rental_uris":{"android":"levelo://app?vid=3a7bc097-3d28-4f52-88ed-d3904da59c29","ios":"levelo://app?vid=3a7bc097-3d28-4f52-88ed-d3904da59c29"},"vehicle_type_id":"4","last_reported":1784414218,"current_range_meters":4000,"station_id":"st_d4a3vfp97mjs738cd8kg","pricing_plan_id":"cebpf4jnsgd1na2vs0mg"},{"bike_id":"659a68bc-86a6-4daf-9f1f-d3e7a32b91b8","system_id":"levelo_inurba_marseille","lat":43.23187,"lon":5.35563,"is_reserved":false,"is_disabled":false,"rental_uris":{"android":"levelo://app?vid=659a68bc-86a6-4daf-9f1f-d3e7a32b91b8","ios":"levelo://app?vid=659a68bc-86a6-4daf-9f1f-d3e7a32b91b8"},"vehicle_type_id":"4","last_reported":1784414218,"current_range_meters":38000,"station_id":"ce4bhu92rcd13ifvqi70","pricing_plan_id":"cebpf4jnsgd1na2vs0mg"},{"bike_id":"dd3348f8-f58d-4560-878e-27394e9e185d","system_id":"levelo_inurba_marseille","lat":43.26224,"lon":5.38776,"is_reserved":false,"is_disabled":false,"rental_uris":{"android":"levelo://app?vid=dd3348f8-f58d-4560-878e-27394e9e185d","ios":"levelo://app?vid=dd3348f8-f58d-4560-878e-27394e9e185d"},"vehicle_type_id":"4","last_reported":1784414218,"current_range_meters":39200,"station_id":"st_d8gjfg747rts73coq3b0","pricing_plan_id":"cebpf4jnsgd1na2vs0mg"},{"bike_id":"098cb1b0-aa89-454f-9bc2-2c4ea2f0e0ee","system_id":"levelo_inurba_marseille","lat":43.31548,"lon":5.40502,"is_reserved":false,"is_disabled":false,"rental_uris":{"android":"levelo://app?vid=098cb1b0-aa89-454f-9bc2-2c4ea2f0e0ee","ios":"levelo://app?vid=098cb1b0-aa89-454f-9bc2-2c4ea2f0e0ee"},"vehicle_type_id":"4","last_reported":1784414218,"current_range_meters":14800,"station_id":"","pricing_plan_id":"cebpf4jnsgd1na2vs0mg"},