{"last_updated":1731060589,"ttl":60,"version":"2.2","data":{"bikes":[{"bike_id":"66491735-0ee7-499d-ba05-1698f4197789","system_id":"levelo_inurba_marseille","lat":43.247345,"lon":5.381742,"is_reserved":false,"is_disabled":false,"rental_uris":{"android":"levelo://app?vid=66491735-0ee7-499d-ba05-1698f4197789","ios":"levelo://app?vid=66491735-0ee7-499d-ba05-1698f4197789"},"vehicle_type_id":"4","last_reported":1731060589,"current_range_meters":16400,"station_id":"ce4bhih2rcd13ifvqfr0","pricing_plan_id":"cebpf4jnsgd1na2vs0mg"},{"bike_id":"a04c7e7f-d191-42e4-9f7d-83c681f6fac9","system_id":"levelo_inurba_marseille","lat":43.305356,"lon":5.365486,"is_reserved":false,"is_disabled":false,"rental_uris":{"android":"levelo://app?vid=a04c7e7f-d191-42e4-9f7d-83c681f6fac9","ios":"levelo://app?vid=a04c7e7f-d191-42e4-9f7d-83c681f6fac9"},"vehicle_type_id":"4","last_reported":1731060589,"current_range_meters":38800,"station_id":"ce4bgs12rcd13ifvqcag","pricing_plan_id":"cebpf4jnsgd1na2vs0mg"},{"bike_id":"635abd5b-6f4e-4367-92c2-c92431583300","system_id":"levelo_inurba_marseille","lat":43.29574,"lon":5.37512,"is_reserved":false,"is_disabled":false,"rental_uris":{"android":"levelo://app?vid=635abd5b-6f4e-4367-92c2-c92431583300","ios":"levelo://app?vid=635abd5b-6f4e-4367-92c2-c92431583300"},"vehicle_type_id":"4","last_reported":1731060589,"current_range_meters":19600,"station_id":"ce4bgh92rcd13ifvqb50","pricing_plan_id":"cebpf4jnsgd1na2vs0mg"},{"bike_id":"e5e7465d-1f89-4768-b017-15428809116f","system_id":"levelo_inurba_marseille","lat":43.26678,"lon":5.38268,"is_reserved":false,"is_disabled":false,"rental_uris":{"android":"levelo://app?vid=e5e7465d-1f89-4768-b017-15428809116f","ios":"levelo://app?vid=e5e7465d-1f89-4768-b017-15428809116f"},"vehicle_type_id":"4","last_reported":1731060589,"current_range_meters":28800,"station_id":"ce4bhg92rcd13ifvqf90","pricing_plan_id":"cebpf4jnsgd1na2vs0mg"},{"bike_id":"2b783626-d1c8-4f0c-8266-9671985242ef","system_id":"levelo_inurba_marseille","lat":43.28146,"lon":5.42638,"is_reserved":false,"is_disabled":false,"rental_uris":{"android":"levelo://app?vid=2b783626-d1c8-4f0c-8266-9671985242ef","ios":"levelo://app?vid=2b783626-d1c8-4f0c-8266-9671985242ef"},"vehicle_type_id":"4","last_reported":1731060589,"current_range_meters":35600,"station_id":"ce4bhnh2rcd13ifvqgug","pricing_plan_id":"cebpf4jnsgd1na2vs0mg"},{"bike_id":"7f774ae5-6cb7-4c53-91e0-4e9519e7a5f3","system_id":"levelo_inurba_marseille","lat":43.31726,"lon":5.42386,"is_reserved":false,"is_disabled":false,"rental_uris":{"android":"levelo://app?vid=7f774ae5-6cb7-4c53-91e0-4e9519e7a5f3","ios":"levelo://app?vid=7f774ae5-6cb7-4c53-91e0-4e9519e7a5f3"},"vehicle_type_id":"4","last_reported":1731060589,"current_range_meters":31200,"station_id":"ce4bhp92rcd13ifvqhbg","pricing_plan_id":"cebpf4jnsgd1na2vs0mg"},{"bike_id":"6541c83f-290c-44b3-a472-aa915c826997","system_id":"levelo_inurba_marseille","lat":43.28363,"lon":5.38114,"is_reserved":false,"is_disabled":false,"rental_uris":{"android":"levelo://app?vid=6541c83f-290c-44b3-a472-aa915c826997","ios":"levelo://app?vid=6541c83f-290c-44b3-a472-aa915c826997"},"vehicle_type_id":"4","last_reported":1731060589,"current_range_meters":38000,"station_id":"ce4bh412rcd13ifvqdr0","pricing_plan_id":"cebpf4jnsgd1na2vs0mg"},{"bike_id":"4fa42bd0-afba-40e3-afa6-7a36737bcf00","system_id":"levelo_inurba_marseille","lat":43.28709,"lon":5.40001,"is_reserved":false,"is_disabled":false,"rental_uris":{"android":"levelo://app?vid=4fa42bd0-afba-40e3-afa6-7a36737bcf00","ios":"levelo://app?vid=4fa42bd0-afba-40e3-afa6-7a36737bcf00"},"vehicle_type_id":"4","last_reported":1731060589,"current_range_meters":6400,"station_id":"ce4bho92rcd13ifvqh3g","pricing_plan_id":"cebpf4jnsgd1na2vs0mg"},{"bike_id":"0299bca0-5fc6-4dd4-970e-91611f65d287","system_id":"levelo_inurba_marseille","lat":43.2407,"lon":5.37758,"is_reserved":false,"is_disabled":false,"rental_uris":{"android":"levelo://app?vid=0299bca0-5fc6-4dd4-970e-91611f65d287","ios":"levelo://app?vid=0299bca0-5fc6-4dd4-970e-91611f65d287"},"vehicle_type_id":"4","last_reported":1731060589,"current_range_meters":21600,"station_id":"ce4bhnp2rcd13ifvqgvg","pricing_plan_id":"cebpf4jnsgd1na2vs0mg"},{"bike_id":"f0580123-09e6-48b9-8683-0c14e0462951","system_id":"levelo_inurba_marseille","lat":43.29708,"lon":5.37694,"is_reserved":false,"is_disabled":false,"rental_uris":{"android":"levelo://app?vid=f0580123-09e6-48b9-8683-0c14e0462951","ios":"levelo://app?vid=f0580123-09e6-48b9-8683-0c14e0462951"},"vehicle_type_id":"4","last_reported":1731060589,"current_range_meters":39200,"station_id":"ce4bgkh2rcd13ifvqbl0","pricing_plan_id":"cebpf4jnsgd1na2vs0mg"},{"bike_id":"41dc0cdc-e2a3-4364-9502-e92dd8e24227","system_id":"levelo_inurba_marseille","lat":43.31339,"lon":5.36717,"is_reserved":false,"is_disabled":false,"rental_uris":{"android":"levelo://app?vid=41dc0cdc-e2a3-4364-9502-e92dd8e24227","ios":"levelo://app?vid=41dc0cdc-e2a3-4364-9502-e92dd8e24227"},"vehicle_type_id":"4","last_reported":1731060589,"current_range_meters":14400,"station_id":"ce4bgr92rcd13ifvqc6g","pricing_plan_id":"cebpf4jnsgd1na2vs0mg"},{"bike_id":"a66a296a-d568-4122-97d9-c0fb9bc6475b","system_id":"levelo_inurba_marseille","lat":43.298709,"lon":5.397288,"is_reserved":false,"is_disabled":false,"rental_uris":{"android":"levelo://app?vid=a66a296a-d568-4122-97d9-c0fb9bc6475b","ios":"levelo://app?vid=a66a296a-d568-4122-97d9-c0fb9bc6475b"},"vehicle_type_id":"4","last_reported":1731060589,"current_range_meters":17200,"station_id":"ce4bhb12rcd13ifvqel0","pricing_plan_id":"cebpf4jnsgd1na2vs0mg"},{"bike_id":"0a0dea6f-c4d2-459d-8a97-3c5791bc5b35","system_id":"levelo_inurba_marseille","lat":43.30951,"lon":5.39033,"is_reserved":false,"is_disabled":false,"rental_uris":{"android":"levelo://app?vid=0a0dea6f-c4d2-459d-8a97-3c5791bc5b35","ios":"levelo://app?vid=0a0dea6f-c4d2-459d-8a97-3c5791bc5b35"},"vehicle_type_id":"4","last_reported":1731060589,"current_range_meters":9200,"station_id":"ce4bgup2rcd13ifvqco0","pricing_plan_id":"cebpf4jnsgd1na2vs0mg"},{"bike_id":"504e5d62-7828-485f-b5c5-e0859c494a6c","system_id":"levelo_inurba_marseille","lat":43.32488,"lon":5.36582,"is_reserved":false,"is_disabled":false,"rental_uris":{"android":"levelo://app?vid=504e5d62-7828-485f-b5c5-e0859c494a6c","ios":"levelo://app?vid=504e5d62-7828-485f-b5c5-e0859c494a6c"},"vehicle_type_id":"4","last_reported":1731060589,"current_range_meters":36800,"station_id":"ce4bhs12rcd13ifvqhvg","pricing_plan_id":"cebpf4jnsgd1na2vs0mg"},{"bike_id":"7f90dd9a-bfed-473d-a90d-0f2dc8786eb1","system_id":"levelo_inurba_marseille","lat":43.28665,"lon":5.38661,"is_reserved":false,"is_disabled":false,"rental_uris":{"android":"levelo://app?vid=7f90dd9a-bfed-473d-a90d-0f2dc8786eb1","ios":"levelo://app?vid=7f90dd9a-bfed-473d-a90d-0f2dc8786eb1"},"vehicle_type_id":"4","last_reported":1731060589,"current_range_meters":15200,"station_id":"ce4bh492rcd13ifvqdug","pricing_plan_id":"cebpf4jnsgd1na2vs0mg"},{"bike_id":"4b4b9bb8-020b-4c86-bddd-8054daf239c2","system_id":"levelo_inurba_marseille","lat":43.29897,"lon":5.3813,"is_reserved":false,"is_disabled":false,"rental_uris":{"android":"levelo://app?vid=4b4b9bb8-020b-4c86-bddd-8054daf239c2","ios":"levelo://app?vid=4b4b9bb8-020b-4c86-bddd-8054daf239c2"},"vehicle_type_id":"4","last_reported":1731060589,"current_range_meters":26000,"station_id":"ce4bgj12rcd13ifvqbc0","pricing_plan_id":"cebpf4jnsgd1na2vs0mg"},{"bike_id":"e382a5f5-b97c-4326-befe-74fa542b41c7","system_id":"levelo_inurba_marseille","lat":43.23152,"lon":5.4371,"is_reserved":false,"is_disabled":false,"rental_uris":{"android":"levelo://app?vid=e382a5f5-b97c-4326-befe-74fa542b41c7","ios":"levelo://app?vid=e382a5f5-b97c-4326-befe-74fa542b41c7"},"vehicle_type_id":"4","last_reported":1731060589,"current_range_meters":28400,"station_id":"ce4bhmp2rcd13ifvqgog","pricing_plan_id":"cebpf4jnsgd1na2vs0mg"},{"bike_id":"a08c735d-a2ad-4fec-b005-ca5bb0562260","system_id":"levelo_inurba_marseille","lat":43.31492,"lon":5.37306,"is_reserved":false,"is_disabled":false,"rental_uris":{"android":"levelo://app?vid=a08c735d-a2ad-4fec-b005-ca5bb0562260","ios":"levelo://app?vid=a08c735d-a2ad-4fec-b005-ca5bb0562260"},"vehicle_type_id":"4","last_reported":1731060589,"current_range_meters":39200,"station_id":"ce4bgt12rcd13ifvqcd0","pricing_plan_id":"cebpf4jnsgd1na2vs0mg"},{"bike_id":"fd12b793-66ca-4f7d-ad00-0679e21d5de7","system_id":"levelo_inurba_marseille","lat":43.30531,"lon":5.36534,"is_reserved":false,"is_disabled":false,"rental_uris":{"android":"levelo://app?vid=fd12b793-66ca-4f7d-ad00-0679e21d5de7","ios":"levelo://app?vid=fd12b793-66ca-4f7d-ad00-0679e21d5de7"},"vehicle_type_id":"4","last_reported":1731060589,"current_range_meters":31200,"station_id":"ce4bgs12rcd13ifvqcag","pricing_plan_id":"cebpf4jnsgd1na2vs0mg"},{"bike_id":"e0550634-c99d-4fba-a1dc-9c9a77a31fb0","system_id":"levelo_inurba_marseille","lat":43.30544,"lon":5.36701,"is_reserved":false,"is_disabled":false,"rental_uris":{"android":"levelo://app?vid=e0550634-c99d-4fba-a1dc-9c9a77a31fb0","ios":"levelo://app?vid=e0550634-c99d-4fba-a1dc-9c9a77a31fb0"},"vehicle_type_id":"4","last_reported":1731060589,"current_range_meters":30000,"station_id":"ce4bgrp2rcd13ifvqc9g","pricing_plan_id":"cebpf4jnsgd1na2vs0mg"},{"bike_id":"a773c60d-75b1-400f-b744-7c7bc21c76a0","system_id":"levelo_inurba_marseille","lat":43.31107,"lon":5.42493,"is_reserved":false,"is_disabled":false,"rental_uris":{"android":"levelo://app?vid=a773c60d-75b1-400f-b744-7c7bc21c76a0","ios":"levelo://app?vid=a773c60d-75b1-400f-b744-7c7bc21c76a0"},"vehicle_type_id":"4","last_reported":1731060589,"current_range_meters":36800,"station_id":"ce4bhp92rcd13ifvqhag","pricing_plan_id":"cebpf4jnsgd1na2vs0mg"},{"bike_id":"bcf5dad1-721a-4f4e-82b2-15a9cc44926f","system_id":"levelo_inurba_marseille","lat":43.33776,"lon":5.37438,"is_reserved":false,"is_disabled":false,"rental_uris":{"android":"levelo://app?vid=bcf5dad1-721a-4f4e-82b2-15a9cc44926f","ios":"levelo://app?vid=bcf5dad1-721a-4f4e-82b2-15a9cc44926f"},"vehicle_type_id":"4","last_reported":1731060589,"current_range_meters":32000,"station_id":"","pricing_plan_id":"cebpf4jnsgd1na2vs0mg"},{"bike_id":"30871413-5e9d-42ff-be6f-adccddd3fae4","system_id":"levelo_inurba_marseille","lat":43.33612,"lon":5.41029,"is_reserved":false,"is_disabled":false,"rental_uris":{"android":"levelo://app?vid=30871413-5e9d-42ff-be6f-adccddd3fae4","ios":"levelo://app?vid=30871413-5e9d-42ff-be6f-adccddd3fae4"},"vehicle_type_id":"4","last_reported":1731060589,"current_range_meters":25200,"station_id":"ce4bhqh2rcd13ifvqhmg","pricing_plan_id":"cebpf4jnsgd1na2vs0mg"},{"bike_id":"6383fd41-1a63-4716-927e-fdd2c00411e5","system_id":"levelo_inurba_marseille","lat":43.30207,"lon":5.39471,"is_reserved":false,"is_disabled":false,"rental_uris":{"android":"levelo://app?vid=6383fd41-1a63-4716-927e-fdd2c00411e5","ios":"levelo://app?vid=6383fd41-1a63-4716-927e-fdd2c00411e5"},"vehicle_type_id":"4","last_reported":1731060589,"current_range_meters":9600,"station_id":"ce4bh0p2rcd13ifvqd70","pricing_plan_id":"cebpf4jnsgd1na2vs0mg"},{"bike_id":"796d0bd6-7e32-4a35-83d0-f1fe503adbaf","system_id":"levelo_inurba_marseille","lat":43.24999,"lon":5.3893,"is_reserved":false,"is_disabled":false,"rental_uris":{"android":"levelo://app?vid=796d0bd6-7e32-4a35-83d0-f1fe503adbaf","ios":"levelo://app?vid=796d0bd6-7e32-4a35-83d0-f1fe503adbaf"},"vehicle_type_id":"4","last_reported":1731060589,"current_range_meters":31200,"station_id":"ce4bhgp2rcd13ifvqfd0","pricing_plan_id":"cebpf4jnsgd1na2vs0mg"},{"bike_id":"a2b299b2-f548-4d2b-a688-af9ba2ba6aef","system_id":"levelo_inurba_marseille","lat":43.29581,"lon":5.36743,"is_reserved":false,"is_disabled":false,"rental_uris":{"android":"levelo://app?vid=a2b299b2-f548-4d2b-a688-af9ba2ba6aef","ios":"levelo://app?vid=a2b299b2-f548-4d2b-a688-af9ba2ba6aef"},"vehicle_type_id":"4","last_reported":1731060589,"current_range_meters":26000,"station_id":"ce4bgph2rcd13ifvqc2g","pricing_plan_id":"cebpf4jnsgd1na2vs0mg"},{"bike_id":"4525546b-3417-4249-8f7d-ad73da8809c5","system_id":"levelo_inurba_marseille","lat":43.33605,"lon":5.41037,"is_reserved":false,"is_disabled":false,"rental_uris":{"android":"levelo://app?vid=4525546b-3417-4249-8f7d-ad73da8809c5","ios":"levelo://app?vid=4525546b-3417-4249-8f7d-ad73da8809c5"},"vehicle_type_id":"4","last_reported":1731060589,"current_range_meters":6400,"station_id":"ce4bhqh2rcd13ifvqhmg","pricing_plan_id":"cebpf4jnsgd1na2vs0mg"},{"bike_id":"2fe0360e-e7e5-476d-87e5-00cbfae7b7e5","system_id":"levelo_inurba_marseille","lat":43.3016,"lon":5.38085,"is_reserved":false,"is_disabled":false,"rental_uris":{"android":"levelo://app?vid=2fe0360e-e7e5-476d-87e5-00cbfae7b7e5","ios":"levelo://app?vid=2fe0360e-e7e5-476d-87e5-00cbfae7b7e5"},"vehicle_type_id":"4","last_reported":1731060589,"current_range_meters":34800,"station_id":"ce4bgjp2rcd13ifvqbh0","pricing_plan_id":"cebpf4jnsgd1na2vs0mg"},{"bike_id":"6fb32bb1-acec-47e9-a78c-5f0271edfd7f","system_id":"levelo_inurba_marseille","lat":43.26177,"lon":5.37501,"is_reserved":false,"is_disabled":false,"rental_uris":{"android":"levelo://app?vid=6fb32bb1-acec-47e9-a78c-5f0271edfd7f","ios":"levelo://app?vid=6fb32bb1-acec-47e9-a78c-5f0271edfd7f"},"vehicle_type_id":"4","last_reported":1731060589,"current_range_meters":22400,"station_id":"ce4bhgp2rcd13ifvqfc0","pricing_plan_id":"cebpf4jnsgd1na2vs0mg"},{"bike_id":"3d32f789-a044-47cc-8444-b1887a88a83f","system_id":"levelo_inurba_marseille","lat":43.30537,"lon":5.36713,"is_reserved":false,"is_disabled":false,"rental_uris":{"android":"levelo://app?vid=3d32f789-a044-47cc-8444-b1887a88a83f","ios":"levelo://app?vid=3d32f789-a044-47cc-8444-b1887a88a83f"},"vehicle_type_id":"4","last_reported":1731060589,"current_range_meters":38400,"station_id":"ce4bgrp2rcd13ifvqc9g","pricing_plan_id":"cebpf4jnsgd1na2vs0mg"},{"bike_id":"e507d365-9255-4b2a-90fc-6978326419e9","system_id":"levelo_inurba_marseille","lat":43.2955,"lon":5.42286,"is_reserved":false,"is_disabled":false,"rental_uris":{"android":"levelo://app?vid=e507d365-9255-4b2a-90fc-6978326419e9","ios":"levelo://app?vid=e507d365-9255-4b2a-90fc-6978326419e9"},"vehicle_type_id":"4","last_reported":1731060589,"current_range_meters":3600,"station_id":"ce4bhph2rcd13ifvqhdg","pricing_plan_id":"cebpf4jnsgd1na2vs0mg"},{"bike_id":"ea3e44e4-5607-432c-a36c-1dd1c2026358","system_id":"levelo_inurba_marseille","lat":43.32368,"lon":5.38886,"is_reserved":false,"is_disabled":false,"rental_uris":{"android":"levelo://app?vid=ea3e44e4-5607-432c-a36c-1dd1c2026358","ios":"levelo://app?vid=ea3e44e4-5607-432c-a36c-1dd1c2026358"},"vehicle_type_id":"4","last_reported":1731060589,"current_range_meters":36000,"station_id":"ce4bhqp2rcd13ifvqhog","pricing_plan_id":"cebpf4jnsgd1na2vs0mg"},{"bike_id":"a4763a01-bd4b-4c94-ae77-cb1c9b38f4e2","system_id":"levelo_inurba_marseille","lat":43.309456,"lon":5.390352,"is_reserved":false,"is_disabled":false,"rental_uris":{"android":"levelo://app?vid=a4763a01-bd4b-4c94-ae77-cb1c9b38f4e2","ios":"levelo://app?vid=a4763a01-bd4b-4c94-ae77-cb1c9b38f4e2"},"vehicle_type_id":"4","last_reported":1731060589,"current_range_meters":22000,"station_id":"ce4bgup2rcd13ifvqco0","pricing_plan_id":"cebpf4jnsgd1na2vs0mg"},{"bike_id":"b1d16fbb-506b-4bfb-b0fe-a5316ea1ba0b","system_id":"levelo_inurba_marseille","lat":43.30952,"lon":5.39038,"is_reserved":false,"is_disabled":false,"rental_uris":{"android":"levelo://app?vid=b1d16fbb-506b-4bfb-b0fe-a5316ea1ba0b","ios":"levelo://app?vid=b1d16fbb-506b-4bfb-b0fe-a5316ea1ba0b"},"vehicle_type_id":"4","last_reported":1731060589,"current_range_meters":20400,"station_id":"ce4bgup2rcd13ifvqco0","pricing_plan_id":"cebpf4jnsgd1na2vs0mg"},{"bike_id":"b3881261-96a2-4db8-98d2-e14704baeea5","system_id":"levelo_inurba_marseille","lat":43.24176,"lon":5.39733,"is_reserved":false,"is_disabled":false,"rental_uris":{"android":"levelo://app?vid=b3881261-96a2-4db8-98d2-e14704baeea5","ios":"levelo://app?vid=b3881261-96a2-4db8-98d2-e14704baeea5"},"vehicle_type_id":"4","last_reported":1731060589,"current_range_meters":17600,"station_id":"ce4bhn12rcd13ifvqgpg","pricing_plan_id":"cebpf4jnsgd1na2vs0mg"},{"bike_id":"49900465-52dd-424c-b9df-70d26b98afe5","system_id":"levelo_inurba_marseille","lat":43.30455,"lon":5.37904,"is_reserved":false,"is_disabled":false,"rental_uris":{"android":"levelo://app?vid=49900465-52dd-424c-b9df-70d26b98afe5","ios":"levelo://app?vid=49900465-52dd-424c-b9df-70d26b98afe5"},"vehicle_type_id":"4","last_reported":1731060589,"current_range_meters":39200,"station_id":"ce4bgup2rcd13ifvqcn0","pricing_plan_id":"cebpf4jnsgd1na2vs0mg"},{"bike_id":"1ed8831a-a3da-44b2-8f67-fa4791d6ae74","system_id":"levelo_inurba_marseille","lat":43.28151,"lon":5.42638,"is_reserved":false,"is_disabled":false,"rental_uris":{"android":"levelo://app?vid=1ed8831a-a3da-44b2-8f67-fa4791d6ae74","ios":"levelo://app?vid=1ed8831a-a3da-44b2-8f67-fa4791d6ae74"},"vehicle_type_id":"4","last_reported":1731060589,"current_range_meters":32800,"station_id":"ce4bhnh2rcd13ifvqgug","pricing_plan_id":"cebpf4jnsgd1na2vs0mg"},{"bike_id":"a4b40dc7-8a83-45a9-a731-eb2f03350b7f","system_id":"levelo_inurba_marseille","lat":43.33611,"lon":5.4103,"is_reserved":false,"is_disabled":false,"rental_uris":{"android":"levelo://app?vid=a4b40dc7-8a83-45a9-a731-eb2f03350b7f","ios":"levelo://app?vid=a4b40dc7-8a83-45a9-a731-eb2f03350b7f"},"vehicle_type_id":"4","last_reported":1731060589,"current_range_meters":32800,"station_id":"ce4bhqh2rcd13ifvqhmg","pricing_plan_id":"cebpf4jnsgd1na2vs0mg"},{"bike_id":"8958945a-7167-4cec-b244-fd9f42e4293d","system_id":"levelo_inurba_marseille","lat":43.26788,"lon":5.39442,"is_reserved":false,"is_disabled":false,"rental_uris":{"android":"levelo://app?vid=8958945a-7167-4cec-b244-fd9f42e4293d","ios":"levelo://app?vid=8958945a-7167-4cec-b244-fd9f42e4293d"},"vehicle_type_id":"4","last_reported":1731060589,"current_range_meters":30400,"station_id":"ce4bhh12rcd13ifvqfg0","pricing_plan_id":"cebpf4jnsgd1na2vs0mg"},{"bike_id":"f4ef053d-e709-4411-bdd9-de1d0f41e46f","system_id":"levelo_inurba_marseille","lat":43.2293,"lon":5.35374,"is_reserved":false,"is_disabled":false,"rental_uris":{"android":"levelo://app?vid=f4ef053d-e709-4411-bdd9-de1d0f41e46f","ios":"levelo://app?vid=f4ef053d-e709-4411-bdd9-de1d0f41e46f"},"vehicle_type_id":"4","last_reported":1731060589,"current_range_meters":38000,"station_id":"cpo3532slgdg3j2ikp40","pricing_plan_id":"cebpf4jnsgd1na2vs0mg"},{"bike_id":"c13a97d0-0530-41f0-a94a-cc0540876f4c","system_id":"levelo_inurba_marseille","lat":43.29045,"lon":5.39985,"is_reserved":false,"is_disabled":false,"rental_uris":{"android":"levelo://app?vid=c13a97d0-0530-41f0-a94a-cc0540876f4c","ios":"levelo://app?vid=c13a97d0-0530-41f0-a94a-cc0540876f4c"},"vehicle_type_id":"4","last_reported":1731060589,"current_range_meters":32800,"station_id":"ce4bh392rcd13ifvqdm0","pricing_plan_id":"cebpf4jnsgd1na2vs0mg"},{"bike_id":"c2daeb0b-f980-45e2-9d85-8632806de7a8","system_id":"levelo_inurba_marseille","lat":43.2835,"lon":5.38106,"is_reserved":false,"is_disabled":false,"rental_uris":{"android":"levelo://app?vid=c2daeb0b-f980-45e2-9d85-8632806de7a8","ios":"levelo://app?vid=c2daeb0b-f980-45e2-9d85-8632806de7a8"},"vehicle_type_id":"4","last_reported":1731060589,"current_range_meters":28400,"station_id":"ce4bh412rcd13ifvqdr0","pricing_plan_id":"cebpf4jnsgd1na2vs0mg"},{"bike_id":"b954d552-0d30-4c50-8ec4-b1080cc544a1","system_id":"levelo_inurba_marseille","lat":43.31684,"lon":5.40473,"is_reserved":false,"is_disabled":false,"rental_uris":{"android":"levelo://app?vid=b954d552-0d30-4c50-8ec4-b1080cc544a1","ios":"levelo://app?vid=b954d552-0d30-4c50-8ec4-b1080cc544a1"},"vehicle_type_id":"4","last_reported":1731060589,"current_range_meters":18000,"station_id":"ce4bh012rcd13ifvqd00","pricing_plan_id":"cebpf4jnsgd1na2vs0mg"},{"bike_id":"55dc1edb-bd53-442f-9b0b-074eadeeba72","system_id":"levelo_inurba_marseille","lat":43.33752,"lon":5.37443,"is_reserved":false,"is_disabled":false,"rental_uris":{"android":"levelo://app?vid=55dc1edb-bd53-442f-9b0b-074eadeeba72","ios":"levelo://app?vid=55dc1edb-bd53-442f-9b0b-074eadeeba72"},"vehicle_type_id":"4","last_reported":1731060589,"current_range_meters":38000,"station_id":"","pricing_plan_id":"cebpf4jnsgd1na2vs0mg"},{"bike_id":"8838674c-71ef-4915-9d5e-517d54e399ba","system_id":"levelo_inurba_marseille","lat":43.31711,"lon":5.37753,"is_reserved":false,"is_disabled":false,"rental_uris":{"android":"levelo://app?vid=8838674c-71ef-4915-9d5e-517d54e399ba","ios":"levelo://app?vid=8838674c-71ef-4915-9d5e-517d54e399ba"},"vehicle_type_id":"4","last_reported":1731060589,"current_range_meters":26800,"station_id":"ce4bgth2rcd13ifvqch0","pricing_plan_id":"cebpf4jnsgd1na2vs0mg"},{"bike_id":"4ae92456-f296-457b-829d-a43a9ece83c8","system_id":"levelo_inurba_marseille","lat":43.30955,"lon":5.39062,"is_reserved":false,"is_disabled":false,"rental_uris":{"android":"levelo://app?vid=4ae92456-f296-457b-829d-a43a9ece83c8","ios":"levelo://app?vid=4ae92456-f296-457b-829d-a43a9ece83c8"},"vehicle_type_id":"4","last_reported":1731060589,"current_range_meters":32000,"station_id":"ce4bgup2rcd13ifvqco0","pricing_plan_id":"cebpf4jnsgd1na2vs0mg"},{"bike_id":"6eec85eb-62ae-4ec6-9075-bb4d76dcc1e0","system_id":"levelo_inurba_marseille","lat":43.29791,"lon":5.38091,"is_reserved":false,"is_disabled":false,"rental_uris":{"android":"levelo://app?vid=6eec85eb-62ae-4ec6-9075-bb4d76dcc1e0","ios":"levelo://app?vid=6eec85eb-62ae-4ec6-9075-bb4d76dcc1e0"},"vehicle_type_id":"4","last_reported":1731060589,"current_range_meters":26000,"station_id":"ce4bgip2rcd13ifvqbb0","pricing_plan_id":"cebpf4jnsgd1na2vs0mg"},{"bike_id":"7a419be2-700a-40fe-9a2e-c4d1abef876c","system_id":"levelo_inurba_marseille","lat":43.23201,"lon":5.435675,"is_reserved":false,"is_disabled":false,"rental_uris":{"android":"levelo://app?vid=7a419be2-700a-40fe-9a2e-c4d1abef876c","ios":"levelo://app?vid=7a419be2-700a-40fe-9a2e-c4d1abef876c"},"vehicle_type_id":"4","last_reported":1731060589,"current_range_meters":5600,"station_id":"ce4bhmp2rcd13ifvqgog","pricing_plan_id":"cebpf4jnsgd1na2vs0mg"},{"bike_id":"d180334b-9976-41b1-bab4-0aa04347c3e2","system_id":"levelo_inurba_marseille","lat":43.29872,"lon":5.3974,"is_reserved":false,"is_disabled":false,"rental_uris":{"android":"levelo://app?vid=d180334b-9976-41b1-bab4-0aa04347c3e2","ios":"levelo://app?vid=d180334b-9976-41b1-bab4-0aa04347c3e2"},"vehicle_type_id":"4","last_reported":1731060589,"current_range_meters":39200,"station_id":"ce4bh0h2rcd13ifvqd50","pricing_plan_id":"cebpf4jnsgd1na2vs0mg"},{"bike_id":"4e82d7b2-f0f9-4456-b524-157fbc33670b","system_id":"levelo_inurba_marseille","lat":43.24077,"lon":5.37747,"is_reserved":false,"is_disabled":false,"rental_uris":{"android":"levelo://app?vid=4e82d7b2-f0f9-4456-b524-157fbc33670b","ios":"levelo://app?vid=4e82d7b2-f0f9-4456-b524-157fbc33670b"},"vehicle_type_id":"4","last_reported":1731060589,"current_range_meters":30400,"station_id":"ce4bhnp2rcd13ifvqgvg","pricing_plan_id":"cebpf4jnsgd1na2vs0mg"},{"bike_id":"d46fc949-017c-4337-a007-b5f9f19a0bfa","system_id":"levelo_inurba_marseille","lat":43.337444,"lon":5.374475,"is_reserved":false,"is_disabled":false,"rental_uris":{"android":"levelo://app?vid=d46fc949-017c-4337-a007-b5f9f19a0bfa","ios":"levelo://app?vid=d46fc949-017c-4337-a007-b5f9f19a0bfa"},"vehicle_type_id":"4","last_reported":1731060589,"current_range_meters":30400,"station_id":"","pricing_plan_id":"cebpf4jnsgd1na2vs0mg"},{"bike_id":"49e2dd89-eb12-484c-8422-e2a799898f95","system_id":"levelo_inurba_marseille","lat":43.29789,"lon":5.37098,"is_reserved":false,"is_disabled":false,"rental_uris":{"android":"levelo://app?vid=49e2dd89-eb12-484c-8422-e2a799898f95","ios":"levelo://app?vid=49e2dd89-eb12-484c-8422-e2a799898f95"},"vehicle_type_id":"4","last_reported":1731060589,"current_range_meters":36400,"station_id":"ce4bgop2rcd13ifvqc1g","pricing_plan_id":"cebpf4jnsgd1na2vs0mg"},{"bike_id":"68327acc-b208-4373-aa8c-fa5758d5f89d","system_id":"levelo_inurba_marseille","lat":43.30544,"lon":5.38426,"is_reserved":false,"is_disabled":false,"rental_uris":{"android":"levelo://app?vid=68327acc-b208-4373-aa8c-fa5758d5f89d","ios":"levelo://app?vid=68327acc-b208-4373-aa8c-fa5758d5f89d"},"vehicle_type_id":"4","last_reported":1731060589,"current_range_meters":35200,"station_id":"ce4bgg92rcd13ifvqb30","pricing_plan_id":"cebpf4jnsgd1na2vs0mg"},{"bike_id":"75a5d8ac-cf0b-46c5-b1c0-a4fb7875ad51","system_id":"levelo_inurba_marseille","lat":43.24072,"lon":5.37761,"is_reserved":false,"is_disabled":false,"rental_uris":{"android":"levelo://app?vid=75a5d8ac-cf0b-46c5-b1c0-a4fb7875ad51","ios":"levelo://app?vid=75a5d8ac-cf0b-46c5-b1c0-a4fb7875ad51"},"vehicle_type_id":"4","last_reported":1731060589,"current_range_meters":21600,"station_id":"ce4bhnp2rcd13ifvqgvg","pricing_plan_id":"cebpf4jnsgd1na2vs0mg"},{"bike_id":"4747ebe4-1671-4191-a78e-3553c138e8f2","system_id":"levelo_inurba_marseille","lat":43.337444,"lon":5.374475,"is_reserved":false,"is_disabled":false,"rental_uris":{"android":"levelo://app?vid=4747ebe4-1671-4191-a78e-3553c138e8f2","ios":"levelo://app?vid=4747ebe4-1671-4191-a78e-3553c138e8f2"},"vehicle_type_id":"4","last_reported":1731060589,"current_range_meters":26800,"station_id":"","pricing_plan_id":"cebpf4jnsgd1na2vs0mg"},{"bike_id":"c5e8eee9-f1ad-4d4c-8958-e77c6850bd12","system_id":"levelo_inurba_marseille","lat":43.28853,"lon":5.35848,"is_reserved":false,"is_disabled":false,"rental_uris":{"android":"levelo://app?vid=c5e8eee9-f1ad-4d4c-8958-e77c6850bd12","ios":"levelo://app?vid=c5e8eee9-f1ad-4d4c-8958-e77c6850bd12"},"vehicle_type_id":"4","last_reported":1731060589,"current_range_meters":18800,"station_id":"ce4bhb12rcd13ifvqem0","pricing_plan_id":"cebpf4jnsgd1na2vs0mg"},{"bike_id":"8bce8d38-eb6f-4c56-8bd7-d4627b5909c5","system_id":"levelo_inurba_marseille","lat":43.29936,"lon":5.36547,"is_reserved":false,"is_disabled":false,"rental_uris":{"android":"levelo://app?vid=8bce8d38-eb6f-4c56-8bd7-d4627b5909c5","ios":"levelo://app?vid=8bce8d38-eb6f-4c56-8bd7-d4627b5909c5"},"vehicle_type_id":"4","last_reported":1731060589,"current_range_meters":7200,"station_id":"ce4bgm92rcd13ifvqbr0","pricing_plan_id":"cebpf4jnsgd1na2vs0mg"},{"bike_id":"20ce8feb-18bb-4a4d-99e5-46f28ba8520c","system_id":"levelo_inurba_marseille","lat":43.28612,"lon":5.37054,"is_reserved":false,"is_disabled":false,"rental_uris":{"android":"levelo://app?vid=20ce8feb-18bb-4a4d-99e5-46f28ba8520c","ios":"levelo://app?vid=20ce8feb-18bb-4a4d-99e5-46f28ba8520c"},"vehicle_type_id":"4","last_reported":1731060589,"current_range_meters":24000,"station_id":"ce4bht12rcd13ifvqi60","pricing_plan_id":"cebpf4jnsgd1na2vs0mg"},{"bike_id":"b8fdd341-0697-41ca-82c9-e4253415f4e6","system_id":"levelo_inurba_marseille","lat":43.23055,"lon":5.35495,"is_reserved":false,"is_disabled":false,"rental_uris":{"android":"levelo://app?vid=b8fdd341-0697-41ca-82c9-e4253415f4e6","ios":"levelo://app?vid=b8fdd341-0697-41ca-82c9-e4253415f4e6"},"vehicle_type_id":"4","last_reported":1731060589,"current_range_meters":37600,"station_id":"cpo3342slgdg3j2ifvpg","pricing_plan_id":"cebpf4jnsgd1na2vs0mg"},{"bike_id":"9b96d1a7-1bb0-4837-8ce5-5f6325109a7b","system_id":"levelo_inurba_marseille","lat":43.2318,"lon":5.39988,"is_reserved":false,"is_disabled":false,"rental_uris":{"android":"levelo://app?vid=9b96d1a7-1bb0-4837-8ce5-5f6325109a7b","ios":"levelo://app?vid=9b96d1a7-1bb0-4837-8ce5-5f6325109a7b"},"vehicle_type_id":"4","last_reported":1731060589,"current_range_meters":37600,"station_id":"ce4bhn12rcd13ifvqgqg","pricing_plan_id":"cebpf4jnsgd1na2vs0mg"},{"bike_id":"b07cadc3-37ce-4ee1-8745-55ab9fc3ac88","system_id":"levelo_inurba_marseille","lat":43.29019,"lon":5.38141,"is_reserved":false,"is_disabled":false,"rental_uris":{"android":"levelo://app?vid=b07cadc3-37ce-4ee1-8745-55ab9fc3ac88","ios":"levelo://app?vid=b07cadc3-37ce-4ee1-8745-55ab9fc3ac88"},"vehicle_type_id":"4","last_reported":1731060589,"current_range_meters":19200,"station_id":"ce4bh4p2rcd13ifvqe1g","pricing_plan_id":"cebpf4jnsgd1na2vs0mg"},{"bike_id":"7148e5a3-e345-4df8-9602-6c428d6f2779","system_id":"levelo_inurba_marseille","lat":43.2667,"lon":5.40289,"is_reserved":false,"is_disabled":false,"rental_uris":{"android":"levelo://app?vid=7148e5a3-e345-4df8-9602-6c428d6f2779","ios":"levelo://app?vid=7148e5a3-e345-4df8-9602-6c428d6f2779"},"vehicle_type_id":"4","last_reported":1731060589,"current_range_meters":12000,"station_id":"","pricing_plan_id":"cebpf4jnsgd1na2vs0mg"},{"bike_id":"dbf0c74c-dbc0-4cc7-b18b-21073c3ea907","system_id":"levelo_inurba_marseille","lat":43.2787,"lon":5.38052,"is_reserved":false,"is_disabled":false,"rental_uris":{"android":"levelo://app?vid=dbf0c74c-dbc0-4cc7-b18b-21073c3ea907","ios":"levelo://app?vid=dbf0c74c-dbc0-4cc7-b18b-21073c3ea907"},"vehicle_type_id":"4","last_reported":1731060589,"current_range_meters":37600,"station_id":"ce4bhf92rcd13ifvqf50","pricing_plan_id":"cebpf4jnsgd1na2vs0mg"},{"bike_id":"b18d47a2-96c0-49dd-bff7-b33e8a964372","system_id":"levelo_inurba_marseille","lat":43.30907,"lon":5.36851,"is_reserved":false,"is_disabled":false,"rental_uris":{"android":"levelo://app?vid=b18d47a2-96c0-49dd-bff7-b33e8a964372","ios":"levelo://app?vid=b18d47a2-96c0-49dd-bff7-b33e8a964372"},"vehicle_type_id":"4","last_reported":1731060589,"current_range_meters":30800,"station_id":"ce4bgn92rcd13ifvqbvg","pricing_plan_id":"cebpf4jnsgd1na2vs0mg"},{"bike_id":"7b95a8d6-3ac1-4866-9810-7b3a5a65db09","system_id":"levelo_inurba_marseille","lat":43.29565,"lon":5.3996,"is_reserved":false,"is_disabled":false,"rental_uris":{"android":"levelo://app?vid=7b95a8d6-3ac1-4866-9810-7b3a5a65db09","ios":"levelo://app?vid=7b95a8d6-3ac1-4866-9810-7b3a5a65db09"},"vehicle_type_id":"4","last_reported":1731060589,"current_range_meters":34000,"station_id":"ce4bh312rcd13ifvqdj0","pricing_plan_id":"cebpf4jnsgd1na2vs0mg"},{"bike_id":"ffa6a709-cf7b-41fd-acb6-77573eab6973","system_id":"levelo_inurba_marseille","lat":43.32484,"lon":5.36558,"is_reserved":false,"is_disabled":false,"rental_uris":{"android":"levelo://app?vid=ffa6a709-cf7b-41fd-acb6-77573eab6973","ios":"levelo://app?vid=ffa6a709-cf7b-41fd-acb6-77573eab6973"},"vehicle_type_id":"4","last_reported":1731060589,"current_range_meters":14800,"station_id":"ce4bhs12rcd13ifvqhvg","pricing_plan_id":"cebpf4jnsgd1na2vs0mg"},{"bike_id":"90f1eea9-3930-4b08-8815-951cdd67e9a4","system_id":"levelo_inurba_marseille","lat":43.30546,"lon":5.38428,"is_reserved":false,"is_disabled":false,"rental_uris":{"android":"levelo://app?vid=90f1eea9-3930-4b08-8815-951cdd67e9a4","ios":"levelo://app?vid=90f1eea9-3930-4b08-8815-951cdd67e9a4"},"vehicle_type_id":"4","last_reported":1731060589,"current_range_meters":27200,"station_id":"ce4bgg92rcd13ifvqb30","pricing_plan_id":"cebpf4jnsgd1na2vs0mg"},{"bike_id":"70cb8752-7cdc-473d-8547-9e63a42728da","system_id":"levelo_inurba_marseille","lat":43.2306,"lon":5.3549,"is_reserved":false,"is_disabled":false,"rental_uris":{"android":"levelo://app?vid=70cb8752-7cdc-473d-8547-9e63a42728da","ios":"levelo://app?vid=70cb8752-7cdc-473d-8547-9e63a42728da"},"vehicle_type_id":"4","last_reported":1731060589,"current_range_meters":28000,"station_id":"cpo3342slgdg3j2ifvpg","pricing_plan_id":"cebpf4jnsgd1na2vs0mg"},{"bike_id":"a8c379e9-4777-4dda-b09f-f9983c01cdce","system_id":"levelo_inurba_marseille","lat":43.30533,"lon":5.36707,"is_reserved":false,"is_disabled":false,"rental_uris":{"android":"levelo://app?vid=a8c379e9-4777-4dda-b09f-f9983c01cdce","ios":"levelo://app?vid=a8c379e9-4777-4dda-b09f-f9983c01cdce"},"vehicle_type_id":"4","last_reported":1731060589,"current_range_meters":21600,"station_id":"ce4bgrp2rcd13ifvqc9g","pricing_plan_id":"cebpf4jnsgd1na2vs0mg"},{"bike_id":"bc695a9b-18a5-4613-b255-9f19e0d39a61","system_id":"levelo_inurba_marseille","lat":43.28464,"lon":5.35892,"is_reserved":false,"is_disabled":false,"rental_uris":{"android":"levelo://app?vid=bc695a9b-18a5-4613-b255-9f19e0d39a61","ios":"levelo://app?vid=bc695a9b-18a5-4613-b255-9f19e0d39a61"},"vehicle_type_id":"4","last_reported":1731060589,"current_range_meters":10000,"station_id":"ce4bhah2rcd13ifvqei0","pricing_plan_id":"cebpf4jnsgd1na2vs0mg"},{"bike_id":"ef57e218-9955-47bf-87ff-46575a3147ff","system_id":"levelo_inurba_marseille","lat":43.269387,"lon":5.389555,"is_reserved":false,"is_disabled":false,"rental_uris":{"android":"levelo://app?vid=ef57e218-9955-47bf-87ff-46575a3147ff","ios":"levelo://app?vid=ef57e218-9955-47bf-87ff-46575a3147ff"},"vehicle_type_id":"4","last_reported":1731060589,"current_range_meters":4800,"station_id":"ce4bhhh2rcd13ifvqfl0","pricing_plan_id":"cebpf4jnsgd1na2vs0mg"},{"bike_id":"2374c14c-eb51-4b3b-a2c8-06299054eedc","system_id":"levelo_inurba_marseille","lat":43.2904,"lon":5.37566,"is_reserved":false,"is_disabled":false,"rental_uris":{"android":"levelo://app?vid=2374c14c-eb51-4b3b-a2c8-06299054eedc","ios":"levelo://app?vid=2374c14c-eb51-4b3b-a2c8-06299054eedc"},"vehicle_type_id":"4","last_reported":1731060589,"current_range_meters":38800,"station_id":"ce4bh692rcd13ifvqe90","pricing_plan_id":"cebpf4jnsgd1na2vs0mg"},{"bike_id":"b2237bbf-7bcf-4c64-bcc3-ed9e1d67efe7","system_id":"levelo_inurba_marseille","lat":43.3415,"lon":5.40906,"is_reserved":false,"is_disabled":false,"rental_uris":{"android":"levelo://app?vid=b2237bbf-7bcf-4c64-bcc3-ed9e1d67efe7","ios":"levelo://app?vid=b2237bbf-7bcf-4c64-bcc3-ed9e1d67efe7"},"vehicle_type_id":"4","last_reported":1731060589,"current_range_meters":10800,"station_id":"ce4bhqh2rcd13ifvqhlg","pricing_plan_id":"cebpf4jnsgd1na2vs0mg"},{"bike_id":"8d40a02f-4a6f-4c5c-97ee-47e201c0665b","system_id":"levelo_inurba_marseille","lat":43.30962,"lon":5.39041,"is_reserved":false,"is_disabled":false,"rental_uris":{"android":"levelo://app?vid=8d40a02f-4a6f-4c5c-97ee-47e201c0665b","ios":"levelo://app?vid=8d40a02f-4a6f-4c5c-97ee-47e201c0665b"},"vehicle_type_id":"4","last_reported":1731060589,"current_range_meters":10000,"station_id":"ce4bgup2rcd13ifvqco0","pricing_plan_id":"cebpf4jnsgd1na2vs0mg"},{"bike_id":"641d1062-2483-4a4d-8da7-3ed9a33aced2","system_id":"levelo_inurba_marseille","lat":43.30524,"lon":5.38429,"is_reserved":false,"is_disabled":false,"rental_uris":{"android":"levelo://app?vid=641d1062-2483-4a4d-8da7-3ed9a33aced2","ios":"levelo://app?vid=641d1062-2483-4a4d-8da7-3ed9a33aced2"},"vehicle_type_id":"4","last_reported":1731060589,"current_range_meters":31200,"station_id":"ce4bgg92rcd13ifvqb30","pricing_plan_id":"cebpf4jnsgd1na2vs0mg"},{"bike_id":"3420b168-0a4d-440c-a8ea-f271ea71b987","system_id":"levelo_inurba_marseille","lat":43.29851,"lon":5.36286,"is_reserved":false,"is_disabled":false,"rental_uris":{"android":"levelo://app?vid=3420b168-0a4d-440c-a8ea-f271ea71b987","ios":"levelo://app?vid=3420b168-0a4d-440c-a8ea-f271ea71b987"},"vehicle_type_id":"4","last_reported":1731060589,"current_range_meters":31200,"station_id":"ce4bgpp2rcd13ifvqc3g","pricing_plan_id":"cebpf4jnsgd1na2vs0mg"},{"bike_id":"6001eb10-c676-485c-9f38-0e89ef1160f4","system_id":"levelo_inurba_marseille","lat":43.30913,"lon":5.36848,"is_reserved":false,"is_disabled":false,"rental_uris":{"android":"levelo://app?vid=6001eb10-c676-485c-9f38-0e89ef1160f4","ios":"levelo://app?vid=6001eb10-c676-485c-9f38-0e89ef1160f4"},"vehicle_type_id":"4","last_reported":1731060589,"current_range_meters":39200,"station_id":"ce4bgn92rcd13ifvqbvg","pricing_plan_id":"cebpf4jnsgd1na2vs0mg"},{"bike_id":"1f986931-33a6-407d-9691-981e5af33791","system_id":"levelo_inurba_marseille","lat":43.25938,"lon":5.40904,"is_reserved":false,"is_disabled":false,"rental_uris":{"android":"levelo://app?vid=1f986931-33a6-407d-9691-981e5af33791","ios":"levelo://app?vid=1f986931-33a6-407d-9691-981e5af33791"},"vehicle_type_id":"4","last_reported":1731060589,"current_range_meters":8800,"station_id":"ce4bhm92rcd13ifvqglg","pricing_plan_id":"cebpf4jnsgd1na2vs0mg"},{"bike_id":"03e102d6-9161-4d54-805e-83fe5fe54a64","system_id":"levelo_inurba_marseille","lat":43.280031,"lon":5.378465,"is_reserved":false,"is_disabled":false,"rental_uris":{"android":"levelo://app?vid=03e102d6-9161-4d54-805e-83fe5fe54a64","ios":"levelo://app?vid=03e102d6-9161-4d54-805e-83fe5fe54a64"},"vehicle_type_id":"4","last_reported":1731060589,"current_range_meters":38800,"station_id":"ce4bha12rcd13ifvqee0","pricing_plan_id":"cebpf4jnsgd1na2vs0mg"},{"bike_id":"e8b3e3b1-008f-45b3-95fd-cefe33cd7b99","system_id":"levelo_inurba_marseille","lat":43.23969,"lon":5.36619,"is_reserved":false,"is_disabled":false,"rental_uris":{"android":"levelo://app?vid=e8b3e3b1-008f-45b3-95fd-cefe33cd7b99","ios":"levelo://app?vid=e8b3e3b1-008f-45b3-95fd-cefe33cd7b99"},"vehicle_type_id":"4","last_reported":1731060589,"current_range_meters":26800,"station_id":"ce4bhi12rcd13ifvqfp0","pricing_plan_id":"cebpf4jnsgd1na2vs0mg"},{"bike_id":"d5806dc7-3dde-4561-9bb9-75852ef28336","system_id":"levelo_inurba_marseille","lat":43.2815,"lon":5.42635,"is_reserved":false,"is_disabled":false,"rental_uris":{"android":"levelo://app?vid=d5806dc7-3dde-4561-9bb9-75852ef28336","ios":"levelo://app?vid=d5806dc7-3dde-4561-9bb9-75852ef28336"},"vehicle_type_id":"4","last_reported":1731060589,"current_range_meters":39200,"station_id":"ce4bhnh2rcd13ifvqgug","pricing_plan_id":"cebpf4jnsgd1na2vs0mg"},{"bike_id":"91467fd7-7280-4988-b47e-736b2926b157","system_id":"levelo_inurba_marseille","lat":43.2418,"lon":5.39728,"is_reserved":false,"is_disabled":false,"rental_uris":{"android":"levelo://app?vid=91467fd7-7280-4988-b47e-736b2926b157","ios":"levelo://app?vid=91467fd7-7280-4988-b47e-736b2926b157"},"vehicle_type_id":"4","last_reported":1731060589,"current_range_meters":26000,"station_id":"ce4bhn12rcd13ifvqgpg","pricing_plan_id":"cebpf4jnsgd1na2vs0mg"},{"bike_id":"a3a653f3-c027-47c2-92ec-f59a4ce1d26d","system_id":"levelo_inurba_marseille","lat":43.2407,"lon":5.37729,"is_reserved":false,"is_disabled":false,"rental_uris":{"android":"levelo://app?vid=a3a653f3-c027-47c2-92ec-f59a4ce1d26d","ios":"levelo://app?vid=a3a653f3-c027-47c2-92ec-f59a4ce1d26d"},"vehicle_type_id":"4","last_reported":1731060589,"current_range_meters":32000,"station_id":"","pricing_plan_id":"cebpf4jnsgd1na2vs0mg"},{"bike_id":"7990c80b-af55-4e8d-b2df-2899db31e233","system_id":"levelo_inurba_marseille","lat":43.29368,"lon":5.3787,"is_reserved":false,"is_disabled":false,"rental_uris":{"android":"levelo://app?vid=7990c80b-af55-4e8d-b2df-2899db31e233","ios":"levelo://app?vid=7990c80b-af55-4e8d-b2df-2899db31e233"},"vehicle_type_id":"4","last_reported":1731060589,"current_range_meters":21600,"station_id":"ce4bgjh2rcd13ifvqbf0","pricing_plan_id":"cebpf4jnsgd1na2vs0mg"},{"bike_id":"c68419ae-5304-473c-904a-721cc7490645","system_id":"levelo_inurba_marseille","lat":43.24078,"lon":5.37732,"is_reserved":false,"is_disabled":false,"rental_uris":{"android":"levelo://app?vid=c68419ae-5304-473c-904a-721cc7490645","ios":"levelo://app?vid=c68419ae-5304-473c-904a-721cc7490645"},"vehicle_type_id":"4","last_reported":1731060589,"current_range_meters":27600,"station_id":"","pricing_plan_id":"cebpf4jnsgd1na2vs0mg"},{"bike_id":"5dae8da9-34fd-43f0-886d-9017bc04ac44","system_id":"levelo_inurba_marseille","lat":43.25575,"lon":5.38229,"is_reserved":false,"is_disabled":false,"rental_uris":{"android":"levelo://app?vid=5dae8da9-34fd-43f0-886d-9017bc04ac44","ios":"levelo://app?vid=5dae8da9-34fd-43f0-886d-9017bc04ac44"},"vehicle_type_id":"4","last_reported":1731060589,"current_range_meters":23200,"station_id":"ce4bhih2rcd13ifvqfs0","pricing_plan_id":"cebpf4jnsgd1na2vs0mg"},{"bike_id":"382f42b9-38ea-4355-b030-b88c5d525bd4","system_id":"levelo_inurba_marseille","lat":43.30135,"lon":5.38786,"is_reserved":false,"is_disabled":false,"rental_uris":{"android":"levelo://app?vid=382f42b9-38ea-4355-b030-b88c5d525bd4","ios":"levelo://app?vid=382f42b9-38ea-4355-b030-b88c5d525bd4"},"vehicle_type_id":"4","last_reported":1731060589,"current_range_meters":11200,"station_id":"ce4bghh2rcd13ifvqb60","pricing_plan_id":"cebpf4jnsgd1na2vs0mg"},{"bike_id":"07f33b15-f6d4-4261-b5dc-93a037c26ebb","system_id":"levelo_inurba_marseille","lat":43.28698,"lon":5.39987,"is_reserved":false,"is_disabled":false,"rental_uris":{"android":"levelo://app?vid=07f33b15-f6d4-4261-b5dc-93a037c26ebb","ios":"levelo://app?vid=07f33b15-f6d4-4261-b5dc-93a037c26ebb"},"vehicle_type_id":"4","last_reported":1731060589,"current_range_meters":15200,"station_id":"ce4bho92rcd13ifvqh3g","pricing_plan_id":"cebpf4jnsgd1na2vs0mg"},{"bike_id":"548f1609-a23f-4c94-9059-28bdd7e2b851","system_id":"levelo_inurba_marseille","lat":43.325434,"lon":5.414355,"is_reserved":false,"is_disabled":false,"rental_uris":{"android":"levelo://app?vid=548f1609-a23f-4c94-9059-28bdd7e2b851","ios":"levelo://app?vid=548f1609-a23f-4c94-9059-28bdd7e2b851"},"vehicle_type_id":"4","last_reported":1731060589,"current_range_meters":39200,"station_id":"ce4bhq12rcd13ifvqhhg","pricing_plan_id":"cebpf4jnsgd1na2vs0mg"},{"bike_id":"7e33c538-5d40-4d7b-a006-4aeb442b1787","system_id":"levelo_inurba_marseille","lat":43.30273,"lon":5.37711,"is_reserved":false,"is_disabled":false,"rental_uris":{"android":"levelo://app?vid=7e33c538-5d40-4d7b-a006-4aeb442b1787","ios":"levelo://app?vid=7e33c538-5d40-4d7b-a006-4aeb442b1787"},"vehicle_type_id":"4","last_reported":1731060589,"current_range_meters":15200,"station_id":"ce4bguh2rcd13ifvqcj0","pricing_plan_id":"cebpf4jnsgd1na2vs0mg"},{"bike_id":"f61d821f-dd77-4156-9f42-170be76ed2e9","system_id":"levelo_inurba_marseille","lat":43.31083,"lon":5.42431,"is_reserved":false,"is_disabled":false,"rental_uris":{"android":"levelo://app?vid=f61d821f-dd77-4156-9f42-170be76ed2e9","ios":"levelo://app?vid=f61d821f-dd77-4156-9f42-170be76ed2e9"},"vehicle_type_id":"4","last_reported":1731060589,"current_range_meters":10000,"station_id":"ce4bhp92rcd13ifvqhag","pricing_plan_id":"cebpf4jnsgd1na2vs0mg"},{"bike_id":"de0fc64f-7cd2-46fd-ae35-74aa6d0e9e58","system_id":"levelo_inurba_marseille","lat":43.26681,"lon":5.38267,"is_reserved":false,"is_disabled":false,"rental_uris":{"android":"levelo://app?vid=de0fc64f-7cd2-46fd-ae35-74aa6d0e9e58","ios":"levelo://app?vid=de0fc64f-7cd2-46fd-ae35-74aa6d0e9e58"},"vehicle_type_id":"4","last_reported":1731060589,"current_range_meters":39200,"station_id":"ce4bhg92rcd13ifvqf90","pricing_plan_id":"cebpf4jnsgd1na2vs0mg"},{"bike_id":"065cc511-f6c2-41de-9ebc-8db637bb7c30","system_id":"levelo_inurba_marseille","lat":43.30137,"lon":5.37422,"is_reserved":false,"is_disabled":false,"rental_uris":{"android":"levelo://app?vid=065cc511-f6c2-41de-9ebc-8db637bb7c30","ios":"levelo://app?vid=065cc511-f6c2-41de-9ebc-8db637bb7c30"},"vehicle_type_id":"4","last_reported":1731060589,"current_range_meters":18000,"station_id":"ce4bgs92rcd13ifvqcc0","pricing_plan_id":"cebpf4jnsgd1na2vs0mg"},{"bike_id":"21ffac4b-d674-45df-a35d-369fa1b8067f","system_id":"levelo_inurba_marseille","lat":43.25937,"lon":5.40908,"is_reserved":false,"is_disabled":false,"rental_uris":{"android":"levelo://app?vid=21ffac4b-d674-45df-a35d-369fa1b8067f","ios":"levelo://app?vid=21ffac4b-d674-45df-a35d-369fa1b8067f"},"vehicle_type_id":"4","last_reported":1731060589,"current_range_meters":10800,"station_id":"ce4bhm92rcd13ifvqglg","pricing_plan_id":"cebpf4jnsgd1na2vs0mg"},{"bike_id":"5622a0cd-f64d-47ab-a915-fe66a2d1fecf","system_id":"levelo_inurba_marseille","lat":43.31357,"lon":5.38499,"is_reserved":false,"is_disabled":false,"rental_uris":{"android":"levelo://app?vid=5622a0cd-f64d-47ab-a915-fe66a2d1fecf","ios":"levelo://app?vid=5622a0cd-f64d-47ab-a915-fe66a2d1fecf"},"vehicle_type_id":"4","last_reported":1731060589,"current_range_meters":31200,"station_id":"ce4bgt92rcd13ifvqcf0","pricing_plan_id":"cebpf4jnsgd1na2vs0mg"},{"bike_id":"1d82c0b1-914d-4770-82b2-9a0070ede9b6","system_id":"levelo_inurba_marseille","lat":43.26564,"lon":5.39019,"is_reserved":false,"is_disabled":false,"rental_uris":{"android":"levelo://app?vid=1d82c0b1-914d-4770-82b2-9a0070ede9b6","ios":"levelo://app?vid=1d82c0b1-914d-4770-82b2-9a0070ede9b6"},"vehicle_type_id":"4","last_reported":1731060589,"current_range_meters":35600,"station_id":"ce4bhe12rcd13ifvqf30","pricing_plan_id":"cebpf4jnsgd1na2vs0mg"},{"bike_id":"781005c8-e92d-4538-ad39-54fa82b03703","system_id":"levelo_inurba_marseille","lat":43.30288,"lon":5.376973,"is_reserved":false,"is_disabled":false,"rental_uris":{"android":"levelo://app?vid=781005c8-e92d-4538-ad39-54fa82b03703","ios":"levelo://app?vid=781005c8-e92d-4538-ad39-54fa82b03703"},"vehicle_type_id":"4","last_reported":1731060589,"current_range_meters":38800,"station_id":"ce4bguh2rcd13ifvqcj0","pricing_plan_id":"cebpf4jnsgd1na2vs0mg"},{"bike_id":"2fe77fe1-22de-4287-b409-02ccb832da80","system_id":"levelo_inurba_marseille","lat":43.29918,"lon":5.37469,"is_reserved":false,"is_disabled":false,"rental_uris":{"android":"levelo://app?vid=2fe77fe1-22de-4287-b409-02ccb832da80","ios":"levelo://app?vid=2fe77fe1-22de-4287-b409-02ccb832da80"},"vehicle_type_id":"4","last_reported":1731060589,"current_range_meters":39200,"station_id":"ce4bgjh2rcd13ifvqbg0","pricing_plan_id":"cebpf4jnsgd1na2vs0mg"},{"bike_id":"4d15416b-0c4f-454d-8d2b-90eb59749104","system_id":"levelo_inurba_marseille","lat":43.30545,"lon":5.36533,"is_reserved":false,"is_disabled":false,"rental_uris":{"android":"levelo://app?vid=4d15416b-0c4f-454d-8d2b-90eb59749104","ios":"levelo://app?vid=4d15416b-0c4f-454d-8d2b-90eb59749104"},"vehicle_type_id":"4","last_reported":1731060589,"current_range_meters":37600,"station_id":"ce4bgs12rcd13ifvqcag","pricing_plan_id":"cebpf4jnsgd1na2vs0mg"},{"bike_id":"2af64e43-1388-4808-b77d-fa82fb5fc307","system_id":"levelo_inurba_marseille","lat":43.341398,"lon":5.40901,"is_reserved":false,"is_disabled":false,"rental_uris":{"android":"levelo://app?vid=2af64e43-1388-4808-b77d-fa82fb5fc307","ios":"levelo://app?vid=2af64e43-1388-4808-b77d-fa82fb5fc307"},"vehicle_type_id":"4","last_reported":1731060589,"current_range_meters":24800,"station_id":"ce4bhqh2rcd13ifvqhlg","pricing_plan_id":"cebpf4jnsgd1na2vs0mg"},{"bike_id":"b5e5b3d6-763e-4b46-9370-e5773670db10","system_id":"levelo_inurba_marseille","lat":43.25722,"lon":5.41111,"is_reserved":false,"is_disabled":false,"rental_uris":{"android":"levelo://app?vid=b5e5b3d6-763e-4b46-9370-e5773670db10","ios":"levelo://app?vid=b5e5b3d6-763e-4b46-9370-e5773670db10"},"vehicle_type_id":"4","last_reported":1731060589,"current_range_meters":38000,"station_id":"ce4bhkp2rcd13ifvqgd0","pricing_plan_id":"cebpf4jnsgd1na2vs0mg"},{"bike_id":"29824cde-4cdc-4355-9b22-a5922a403deb","system_id":"levelo_inurba_marseille","lat":43.337444,"lon":5.374475,"is_reserved":false,"is_disabled":false,"rental_uris":{"android":"levelo://app?vid=29824cde-4cdc-4355-9b22-a5922a403deb","ios":"levelo://app?vid=29824cde-4cdc-4355-9b22-a5922a403deb"},"vehicle_type_id":"4","last_reported":1731060589,"current_range_meters":38800,"station_id":"","pricing_plan_id":"cebpf4jnsgd1na2vs0mg"},{"bike_id":"49b1a6ec-c2a2-4eca-bc72-81c8fc4fb330","system_id":"levelo_inurba_marseille","lat":43.28347,"lon":5.38113,"is_reserved":false,"is_disabled":false,"rental_uris":{"android":"levelo://app?vid=49b1a6ec-c2a2-4eca-bc72-81c8fc4fb330","ios":"levelo://app?vid=49b1a6ec-c2a2-4eca-bc72-81c8fc4fb330"},"vehicle_type_id":"4","last_reported":1731060589,"current_range_meters":38800,"station_id":"ce4bh412rcd13ifvqdr0","pricing_plan_id":"cebpf4jnsgd1na2vs0mg"},{"bike_id":"80d5c89e-745d-46d6-9ab9-4f5ea40b6def","system_id":"levelo_inurba_marseille","lat":43.27177,"lon":5.40993,"is_reserved":false,"is_disabled":false,"rental_uris":{"android":"levelo://app?vid=80d5c89e-745d-46d6-9ab9-4f5ea40b6def","ios":"levelo://app?vid=80d5c89e-745d-46d6-9ab9-4f5ea40b6def"},"vehicle_type_id":"4","last_reported":1731060589,"current_range_meters":32000,"station_id":"ce4bhl12rcd13ifvqgf0","pricing_plan_id":"cebpf4jnsgd1na2vs0mg"},{"bike_id":"eccb9bf1-4a0c-4df5-8229-bf46f21c4329","system_id":"levelo_inurba_marseille","lat":43.31717,"lon":5.42407,"is_reserved":false,"is_disabled":false,"rental_uris":{"android":"levelo://app?vid=eccb9bf1-4a0c-4df5-8229-bf46f21c4329","ios":"levelo://app?vid=eccb9bf1-4a0c-4df5-8229-bf46f21c4329"},"vehicle_type_id":"4","last_reported":1731060589,"current_range_meters":38000,"station_id":"ce4bhp92rcd13ifvqhbg","pricing_plan_id":"cebpf4jnsgd1na2vs0mg"},{"bike_id":"ef288286-229d-4b9a-a189-8d61840dcffb","system_id":"levelo_inurba_marseille","lat":43.231951,"lon":5.355513,"is_reserved":false,"is_disabled":false,"rental_uris":{"android":"levelo://app?vid=ef288286-229d-4b9a-a189-8d61840dcffb","ios":"levelo://app?vid=ef288286-229d-4b9a-a189-8d61840dcffb"},"vehicle_type_id":"4","last_reported":1731060589,"current_range_meters":38800,"station_id":"ce4bhu92rcd13ifvqi70","pricing_plan_id":"cebpf4jnsgd1na2vs0mg"},{"bike_id":"55ac6dbd-7eb9-41e4-a9a1-d540502aaf76","system_id":"levelo_inurba_marseille","lat":43.28075,"lon":5.3966,"is_reserved":false,"is_disabled":false,"rental_uris":{"android":"levelo://app?vid=55ac6dbd-7eb9-41e4-a9a1-d540502aaf76","ios":"levelo://app?vid=55ac6dbd-7eb9-41e4-a9a1-d540502aaf76"},"vehicle_type_id":"4","last_reported":1731060589,"current_range_meters":24400,"station_id":"ce4bho12rcd13ifvqh2g","pricing_plan_id":"cebpf4jnsgd1na2vs0mg"},{"bike_id":"9044ed43-de46-4645-b2ad-5e136647239a","system_id":"levelo_inurba_marseille","lat":43.33746,"lon":5.37447,"is_reserved":false,"is_disabled":false,"rental_uris":{"android":"levelo://app?vid=9044ed43-de46-4645-b2ad-5e136647239a","ios":"levelo://app?vid=9044ed43-de46-4645-b2ad-5e136647239a"},"vehicle_type_id":"4","last_reported":1731060589,"current_range_meters":36000,"station_id":"","pricing_plan_id":"cebpf4jnsgd1na2vs0mg"},{"bike_id":"a7ed7f15-e2de-437f-8b0e-e37c1cd1c87d","system_id":"levelo_inurba_marseille","lat":43.30536,"lon":5.36705,"is_reserved":false,"is_disabled":false,"rental_uris":{"android":"levelo://app?vid=a7ed7f15-e2de-437f-8b0e-e37c1cd1c87d","ios":"levelo://app?vid=a7ed7f15-e2de-437f-8b0e-e37c1cd1c87d"},"vehicle_type_id":"4","last_reported":1731060589,"current_range_meters":36000,"station_id":"ce4bgrp2rcd13ifvqc9g","pricing_plan_id":"cebpf4jnsgd1na2vs0mg"},{"bike_id":"8cb0d33b-0181-41a0-8cfc-da0a3898ff13","system_id":"levelo_inurba_marseille","lat":43.28938,"lon":5.36396,"is_reserved":false,"is_disabled":false,"rental_uris":{"android":"levelo://app?vid=8cb0d33b-0181-41a0-8cfc-da0a3898ff13","ios":"levelo://app?vid=8cb0d33b-0181-41a0-8cfc-da0a3898ff13"},"vehicle_type_id":"4","last_reported":1731060589,"current_range_meters":18800,"station_id":"ce4bhc92rcd13ifvqetg","pricing_plan_id":"cebpf4jnsgd1na2vs0mg"},{"bike_id":"546c522c-d858-4cc2-9ba9-af678b98d67a","system_id":"levelo_inurba_marseille","lat":43.2408,"lon":5.37737,"is_reserved":false,"is_disabled":false,"rental_uris":{"android":"levelo://app?vid=546c522c-d858-4cc2-9ba9-af678b98d67a","ios":"levelo://app?vid=546c522c-d858-4cc2-9ba9-af678b98d67a"},"vehicle_type_id":"4","last_reported":1731060589,"current_range_meters":23200,"station_id":"","pricing_plan_id":"cebpf4jnsgd1na2vs0mg"},{"bike_id":"795d93dc-58cd-47d3-954f-fe5d9510e8f0","system_id":"levelo_inurba_marseille","lat":43.23153,"lon":5.4371,"is_reserved":false,"is_disabled":false,"rental_uris":{"android":"levelo://app?vid=795d93dc-58cd-47d3-954f-fe5d9510e8f0","ios":"levelo://app?vid=795d93dc-58cd-47d3-954f-fe5d9510e8f0"},"vehicle_type_id":"4","last_reported":1731060589,"current_range_meters":24000,"station_id":"ce4bhmp2rcd13ifvqgog","pricing_plan_id":"cebpf4jnsgd1na2vs0mg"},{"bike_id":"4be4a1fd-4cef-4fb5-8749-3bacc59f2b16","system_id":"levelo_inurba_marseille","lat":43.27058,"lon":5.4026,"is_reserved":false,"is_disabled":false,"rental_uris":{"android":"levelo://app?vid=4be4a1fd-4cef-4fb5-8749-3bacc59f2b16","ios":"levelo://app?vid=4be4a1fd-4cef-4fb5-8749-3bacc59f2b16"},"vehicle_type_id":"4","last_reported":1731060589,"current_range_meters":8800,"station_id":"ce4bhk92rcd13ifvqgc0","pricing_plan_id":"cebpf4jnsgd1na2vs0mg"},{"bike_id":"43ef446d-8adc-44a9-a73d-78a211be3855","system_id":"levelo_inurba_marseille","lat":43.29963,"lon":5.4132,"is_reserved":false,"is_disabled":false,"rental_uris":{"android":"levelo://app?vid=43ef446d-8adc-44a9-a73d-78a211be3855","ios":"levelo://app?vid=43ef446d-8adc-44a9-a73d-78a211be3855"},"vehicle_type_id":"4","last_reported":1731060589,"current_range_meters":39200,"station_id":"ce4bhp12rcd13ifvqh9g","pricing_plan_id":"cebpf4jnsgd1na2vs0mg"},{"bike_id":"12ab8a2b-bf2e-44a7-8096-67ee8e37b5b1","system_id":"levelo_inurba_marseille","lat":43.26942,"lon":5.40247,"is_reserved":false,"is_disabled":false,"rental_uris":{"android":"levelo://app?vid=12ab8a2b-bf2e-44a7-8096-67ee8e37b5b1","ios":"levelo://app?vid=12ab8a2b-bf2e-44a7-8096-67ee8e37b5b1"},"vehicle_type_id":"4","last_reported":1731060589,"current_range_meters":36800,"station_id":"cjm6bp8fraef2m0cb0m0","pricing_plan_id":"cebpf4jnsgd1na2vs0mg"},{"bike_id":"5821fb6e-7935-4627-a802-4e24cbbbef26","system_id":"levelo_inurba_marseille","lat":43.32481,"lon":5.3656,"is_reserved":false,"is_disabled":false,"rental_uris":{"android":"levelo://app?vid=5821fb6e-7935-4627-a802-4e24cbbbef26","ios":"levelo://app?vid=5821fb6e-7935-4627-a802-4e24cbbbef26"},"vehicle_type_id":"4","last_reported":1731060589,"current_range_meters":26800,"station_id":"ce4bhs12rcd13ifvqhvg","pricing_plan_id":"cebpf4jnsgd1na2vs0mg"},{"bike_id":"285d7cc5-cfcf-4b89-ba48-9daaf91bf14a","system_id":"levelo_inurba_marseille","lat":43.292,"lon":5.39327,"is_reserved":false,"is_disabled":false,"rental_uris":{"android":"levelo://app?vid=285d7cc5-cfcf-4b89-ba48-9daaf91bf14a","ios":"levelo://app?vid=285d7cc5-cfcf-4b89-ba48-9daaf91bf14a"},"vehicle_type_id":"4","last_reported":1731060589,"current_range_meters":39200,"station_id":"ce4bh192rcd13ifvqdd0","pricing_plan_id":"cebpf4jnsgd1na2vs0mg"},{"bike_id":"72f08fe2-f161-4e86-9fb3-c058a8767538","system_id":"levelo_inurba_marseille","lat":43.29905,"lon":5.3747,"is_reserved":false,"is_disabled":false,"rental_uris":{"android":"levelo://app?vid=72f08fe2-f161-4e86-9fb3-c058a8767538","ios":"levelo://app?vid=72f08fe2-f161-4e86-9fb3-c058a8767538"},"vehicle_type_id":"4","last_reported":1731060589,"current_range_meters":18800,"station_id":"ce4bgjh2rcd13ifvqbg0","pricing_plan_id":"cebpf4jnsgd1na2vs0mg"},{"bike_id":"8faa22dc-5f3c-4af6-b84b-f554e09d6313","system_id":"levelo_inurba_marseille","lat":43.337444,"lon":5.374475,"is_reserved":false,"is_disabled":false,"rental_uris":{"android":"levelo://app?vid=8faa22dc-5f3c-4af6-b84b-f554e09d6313","ios":"levelo://app?vid=8faa22dc-5f3c-4af6-b84b-f554e09d6313"},"vehicle_type_id":"4","last_reported":1731060589,"current_range_meters":38400,"station_id":"","pricing_plan_id":"cebpf4jnsgd1na2vs0mg"},{"bike_id":"4eecdf01-2312-4036-b477-5b5650016af3","system_id":"levelo_inurba_marseille","lat":43.28339,"lon":5.38105,"is_reserved":false,"is_disabled":false,"rental_uris":{"android":"levelo://app?vid=4eecdf01-2312-4036-b477-5b5650016af3","ios":"levelo://app?vid=4eecdf01-2312-4036-b477-5b5650016af3"},"vehicle_type_id":"4","last_reported":1731060589,"current_range_meters":36800,"station_id":"ce4bh412rcd13ifvqdr0","pricing_plan_id":"cebpf4jnsgd1na2vs0mg"},{"bike_id":"1260319e-875a-495e-866b-01a112f4bbd0","system_id":"levelo_inurba_marseille","lat":43.29574,"lon":5.37498,"is_reserved":false,"is_disabled":false,"rental_uris":{"android":"levelo://app?vid=1260319e-875a-495e-866b-01a112f4bbd0","ios":"levelo://app?vid=1260319e-875a-495e-866b-01a112f4bbd0"},"vehicle_type_id":"4","last_reported":1731060589,"current_range_meters":37600,"station_id":"ce4bgh92rcd13ifvqb50","pricing_plan_id":"cebpf4jnsgd1na2vs0mg"},{"bike_id":"3bd80771-f0cc-449c-9cc8-4e6bf7a0b1d7","system_id":"levelo_inurba_marseille","lat":43.2594,"lon":5.40898,"is_reserved":false,"is_disabled":false,"rental_uris":{"android":"levelo://app?vid=3bd80771-f0cc-449c-9cc8-4e6bf7a0b1d7","ios":"levelo://app?vid=3bd80771-f0cc-449c-9cc8-4e6bf7a0b1d7"},"vehicle_type_id":"4","last_reported":1731060589,"current_range_meters":32000,"station_id":"ce4bhm92rcd13ifvqglg","pricing_plan_id":"cebpf4jnsgd1na2vs0mg"},{"bike_id":"959d59bd-f72f-4994-94f8-56a070a04e8a","system_id":"levelo_inurba_marseille","lat":43.23156,"lon":5.43714,"is_reserved":false,"is_disabled":false,"rental_uris":{"android":"levelo://app?vid=959d59bd-f72f-4994-94f8-56a070a04e8a","ios":"levelo://app?vid=959d59bd-f72f-4994-94f8-56a070a04e8a"},"vehicle_type_id":"4","last_reported":1731060589,"current_range_meters":24800,"station_id":"ce4bhmp2rcd13ifvqgog","pricing_plan_id":"cebpf4jnsgd1na2vs0mg"},{"bike_id":"e7cd005d-d362-4c36-a955-3c59f122a64d","system_id":"levelo_inurba_marseille","lat":43.28154,"lon":5.4264,"is_reserved":false,"is_disabled":false,"rental_uris":{"android":"levelo://app?vid=e7cd005d-d362-4c36-a955-3c59f122a64d","ios":"levelo://app?vid=e7cd005d-d362-4c36-a955-3c59f122a64d"},"vehicle_type_id":"4","last_reported":1731060589,"current_range_meters":25600,"station_id":"ce4bhnh2rcd13ifvqgug","pricing_plan_id":"cebpf4jnsgd1na2vs0mg"},{"bike_id":"99ea97a6-6707-42fb-901c-f0c3692880b7","system_id":"levelo_inurba_marseille","lat":43.2799,"lon":5.4166,"is_reserved":false,"is_disabled":false,"rental_uris":{"android":"levelo://app?vid=99ea97a6-6707-42fb-901c-f0c3692880b7","ios":"levelo://app?vid=99ea97a6-6707-42fb-901c-f0c3692880b7"},"vehicle_type_id":"4","last_reported":1731060589,"current_range_meters":6800,"station_id":"ce4bho12rcd13ifvqh1g","pricing_plan_id":"cebpf4jnsgd1na2vs0mg"},{"bike_id":"86e551d3-ab2d-40d8-99a2-4972feb9b710","system_id":"levelo_inurba_marseille","lat":43.26563,"lon":5.39011,"is_reserved":false,"is_disabled":false,"rental_uris":{"android":"levelo://app?vid=86e551d3-ab2d-40d8-99a2-4972feb9b710","ios":"levelo://app?vid=86e551d3-ab2d-40d8-99a2-4972feb9b710"},"vehicle_type_id":"4","last_reported":1731060589,"current_range_meters":18800,"station_id":"ce4bhe12rcd13ifvqf30","pricing_plan_id":"cebpf4jnsgd1na2vs0mg"},{"bike_id":"71655dbe-ce6c-47d2-97d5-cb062ba24e62","system_id":"levelo_inurba_marseille","lat":43.26056,"lon":5.39398,"is_reserved":false,"is_disabled":false,"rental_uris":{"android":"levelo://app?vid=71655dbe-ce6c-47d2-97d5-cb062ba24e62","ios":"levelo://app?vid=71655dbe-ce6c-47d2-97d5-cb062ba24e62"},"vehicle_type_id":"4","last_reported":1731060589,"current_range_meters":39200,"station_id":"ce4bhh92rcd13ifvqfj0","pricing_plan_id":"cebpf4jnsgd1na2vs0mg"},{"bike_id":"7e3135bb-d8fe-4a72-b755-620b4d0f29f8","system_id":"levelo_inurba_marseille","lat":43.27181,"lon":5.40987,"is_reserved":false,"is_disabled":false,"rental_uris":{"android":"levelo://app?vid=7e3135bb-d8fe-4a72-b755-620b4d0f29f8","ios":"levelo://app?vid=7e3135bb-d8fe-4a72-b755-620b4d0f29f8"},"vehicle_type_id":"4","last_reported":1731060589,"current_range_meters":4400,"station_id":"ce4bhl12rcd13ifvqgf0","pricing_plan_id":"cebpf4jnsgd1na2vs0mg"},{"bike_id":"c7022000-40bb-4946-aca4-3a5058fa7b80","system_id":"levelo_inurba_marseille","lat":43.24072,"lon":5.3773,"is_reserved":false,"is_disabled":false,"rental_uris":{"android":"levelo://app?vid=c7022000-40bb-4946-aca4-3a5058fa7b80","ios":"levelo://app?vid=c7022000-40bb-4946-aca4-3a5058fa7b80"},"vehicle_type_id":"4","last_reported":1731060589,"current_range_meters":9200,"station_id":"","pricing_plan_id":"cebpf4jnsgd1na2vs0mg"},{"bike_id":"eefd0687-4492-41ad-9368-b877bab02ae1","system_id":"levelo_inurba_marseille","lat":43.31226,"lon":5.36853,"is_reserved":false,"is_disabled":false,"rental_uris":{"android":"levelo://app?vid=eefd0687-4492-41ad-9368-b877bab02ae1","ios":"levelo://app?vid=eefd0687-4492-41ad-9368-b877bab02ae1"},"vehicle_type_id":"4","last_reported":1731060589,"current_range_meters":30800,"station_id":"ce4bgl92rcd13ifvqbq0","pricing_plan_id":"cebpf4jnsgd1na2vs0mg"},{"bike_id":"a5b419be-24dc-407f-aff7-cb4c674cc388","system_id":"levelo_inurba_marseille","lat":43.30957,"lon":5.39045,"is_reserved":false,"is_disabled":false,"rental_uris":{"android":"levelo://app?vid=a5b419be-24dc-407f-aff7-cb4c674cc388","ios":"levelo://app?vid=a5b419be-24dc-407f-aff7-cb4c674cc388"},"vehicle_type_id":"4","last_reported":1731060589,"current_range_meters":27600,"station_id":"ce4bgup2rcd13ifvqco0","pricing_plan_id":"cebpf4jnsgd1na2vs0mg"},{"bike_id":"1f3ba906-6e07-4370-b207-43e1aae1c14a","system_id":"levelo_inurba_marseille","lat":43.31345,"lon":5.36714,"is_reserved":false,"is_disabled":false,"rental_uris":{"android":"levelo://app?vid=1f3ba906-6e07-4370-b207-43e1aae1c14a","ios":"levelo://app?vid=1f3ba906-6e07-4370-b207-43e1aae1c14a"},"vehicle_type_id":"4","last_reported":1731060589,"current_range_meters":12800,"station_id":"ce4bgr92rcd13ifvqc6g","pricing_plan_id":"cebpf4jnsgd1na2vs0mg"},{"bike_id":"4d59d358-815a-446a-a452-fae3197fee50","system_id":"levelo_inurba_marseille","lat":43.30947,"lon":5.39046,"is_reserved":false,"is_disabled":false,"rental_uris":{"android":"levelo://app?vid=4d59d358-815a-446a-a452-fae3197fee50","ios":"levelo://app?vid=4d59d358-815a-446a-a452-fae3197fee50"},"vehicle_type_id":"4","last_reported":1731060589,"current_range_meters":10800,"station_id":"ce4bgup2rcd13ifvqco0","pricing_plan_id":"cebpf4jnsgd1na2vs0mg"},{"bike_id":"69f21aa7-5ee0-4086-9b2a-6b1ec3f3024c","system_id":"levelo_inurba_marseille","lat":43.30425,"lon":5.38884,"is_reserved":false,"is_disabled":false,"rental_uris":{"android":"levelo://app?vid=69f21aa7-5ee0-4086-9b2a-6b1ec3f3024c","ios":"levelo://app?vid=69f21aa7-5ee0-4086-9b2a-6b1ec3f3024c"},"vehicle_type_id":"4","last_reported":1731060589,"current_range_meters":28000,"station_id":"ce4bgk12rcd13ifvqbi0","pricing_plan_id":"cebpf4jnsgd1na2vs0mg"},{"bike_id":"c70f3a51-3c77-47f4-afdc-c467e625745f","system_id":"levelo_inurba_marseille","lat":43.28112,"lon":5.38213,"is_reserved":false,"is_disabled":false,"rental_uris":{"android":"levelo://app?vid=c70f3a51-3c77-47f4-afdc-c467e625745f","ios":"levelo://app?vid=c70f3a51-3c77-47f4-afdc-c467e625745f"},"vehicle_type_id":"4","last_reported":1731060589,"current_range_meters":24000,"station_id":"","pricing_plan_id":"cebpf4jnsgd1na2vs0mg"},{"bike_id":"d6fdae69-642e-4d84-a8fd-edeb75ed0ef4","system_id":"levelo_inurba_marseille","lat":43.22932,"lon":5.35376,"is_reserved":false,"is_disabled":false,"rental_uris":{"android":"levelo://app?vid=d6fdae69-642e-4d84-a8fd-edeb75ed0ef4","ios":"levelo://app?vid=d6fdae69-642e-4d84-a8fd-edeb75ed0ef4"},"vehicle_type_id":"4","last_reported":1731060589,"current_range_meters":38000,"station_id":"cpo3532slgdg3j2ikp40","pricing_plan_id":"cebpf4jnsgd1na2vs0mg"},{"bike_id":"bdc2614c-f690-4a70-b4fe-4ce04e111f7f","system_id":"levelo_inurba_marseille","lat":43.31346,"lon":5.36705,"is_reserved":false,"is_disabled":false,"rental_uris":{"android":"levelo://app?vid=bdc2614c-f690-4a70-b4fe-4ce04e111f7f","ios":"levelo://app?vid=bdc2614c-f690-4a70-b4fe-4ce04e111f7f"},"vehicle_type_id":"4","last_reported":1731060589,"current_range_meters":39200,"station_id":"ce4bgr92rcd13ifvqc6g","pricing_plan_id":"cebpf4jnsgd1na2vs0mg"},{"bike_id":"bb44c556-a5f4-4b7f-b745-d43a6d5511b2","system_id":"levelo_inurba_marseille","lat":43.2732,"lon":5.39101,"is_reserved":false,"is_disabled":false,"rental_uris":{"android":"levelo://app?vid=bb44c556-a5f4-4b7f-b745-d43a6d5511b2","ios":"levelo://app?vid=bb44c556-a5f4-4b7f-b745-d43a6d5511b2"},"vehicle_type_id":"4","last_reported":1731060589,"current_range_meters":39200,"station_id":"ce4bhgp2rcd13ifvqfe0","pricing_plan_id":"cebpf4jnsgd1na2vs0mg"},{"bike_id":"f3933fe6-7050-4ceb-a431-290d7378c77f","system_id":"levelo_inurba_marseille","lat":43.31494,"lon":5.37306,"is_reserved":false,"is_disabled":false,"rental_uris":{"android":"levelo://app?vid=f3933fe6-7050-4ceb-a431-290d7378c77f","ios":"levelo://app?vid=f3933fe6-7050-4ceb-a431-290d7378c77f"},"vehicle_type_id":"4","last_reported":1731060589,"current_range_meters":39200,"station_id":"ce4bgt12rcd13ifvqcd0","pricing_plan_id":"cebpf4jnsgd1na2vs0mg"},{"bike_id":"7c6d43e2-c09e-42ac-8789-f7410dc37f3f","system_id":"levelo_inurba_marseille","lat":43.25108,"lon":5.40323,"is_reserved":false,"is_disabled":false,"rental_uris":{"android":"levelo://app?vid=7c6d43e2-c09e-42ac-8789-f7410dc37f3f","ios":"levelo://app?vid=7c6d43e2-c09e-42ac-8789-f7410dc37f3f"},"vehicle_type_id":"4","last_reported":1731060589,"current_range_meters":30800,"station_id":"ce4bhlh2rcd13ifvqgig","pricing_plan_id":"cebpf4jnsgd1na2vs0mg"},{"bike_id":"86d64521-d332-4842-b4fb-5fa4820d8c81","system_id":"levelo_inurba_marseille","lat":43.337444,"lon":5.374475,"is_reserved":false,"is_disabled":false,"rental_uris":{"android":"levelo://app?vid=86d64521-d332-4842-b4fb-5fa4820d8c81","ios":"levelo://app?vid=86d64521-d332-4842-b4fb-5fa4820d8c81"},"vehicle_type_id":"4","last_reported":1731060589,"current_range_meters":38400,"station_id":"","pricing_plan_id":"cebpf4jnsgd1na2vs0mg"},{"bike_id":"e9b985d0-d2e5-46f7-a1a4-1e1a7e11beb4","system_id":"levelo_inurba_marseille","lat":43.27615,"lon":5.36108,"is_reserved":false,"is_disabled":false,"rental_uris":{"android":"levelo://app?vid=e9b985d0-d2e5-46f7-a1a4-1e1a7e11beb4","ios":"levelo://app?vid=e9b985d0-d2e5-46f7-a1a4-1e1a7e11beb4"},"vehicle_type_id":"4","last_reported":1731060589,"current_range_meters":36000,"station_id":"ce4bgj92rcd13ifvqbe0","pricing_plan_id":"cebpf4jnsgd1na2vs0mg"},{"bike_id":"175c9350-e3d5-4443-b0a3-91eeb06de272","system_id":"levelo_inurba_marseille","lat":43.29717,"lon":5.36611,"is_reserved":false,"is_disabled":false,"rental_uris":{"android":"levelo://app?vid=175c9350-e3d5-4443-b0a3-91eeb06de272","ios":"levelo://app?vid=175c9350-e3d5-4443-b0a3-91eeb06de272"},"vehicle_type_id":"4","last_reported":1731060589,"current_range_meters":17200,"station_id":"ce4bgn12rcd13ifvqbt0","pricing_plan_id":"cebpf4jnsgd1na2vs0mg"},{"bike_id":"bde08989-23ea-4b54-bef5-ef219bd6bfde","system_id":"levelo_inurba_marseille","lat":43.255,"lon":5.37646,"is_reserved":false,"is_disabled":false,"rental_uris":{"android":"levelo://app?vid=bde08989-23ea-4b54-bef5-ef219bd6bfde","ios":"levelo://app?vid=bde08989-23ea-4b54-bef5-ef219bd6bfde"},"vehicle_type_id":"4","last_reported":1731060589,"current_range_meters":16800,"station_id":"ce4bhh12rcd13ifvqff0","pricing_plan_id":"cebpf4jnsgd1na2vs0mg"},{"bike_id":"9b73f4a7-bd7e-46c7-9f9d-5e7ba5c5b218","system_id":"levelo_inurba_marseille","lat":43.2958,"lon":5.36742,"is_reserved":false,"is_disabled":false,"rental_uris":{"android":"levelo://app?vid=9b73f4a7-bd7e-46c7-9f9d-5e7ba5c5b218","ios":"levelo://app?vid=9b73f4a7-bd7e-46c7-9f9d-5e7ba5c5b218"},"vehicle_type_id":"4","last_reported":1731060589,"current_range_meters":30800,"station_id":"ce4bgph2rcd13ifvqc2g","pricing_plan_id":"cebpf4jnsgd1na2vs0mg"},{"bike_id":"80f88f91-d648-453a-88b2-cfa7d57ba25b","system_id":"levelo_inurba_marseille","lat":43.23181,"lon":5.39991,"is_reserved":false,"is_disabled":false,"rental_uris":{"android":"levelo://app?vid=80f88f91-d648-453a-88b2-cfa7d57ba25b","ios":"levelo://app?vid=80f88f91-d648-453a-88b2-cfa7d57ba25b"},"vehicle_type_id":"4","last_reported":1731060589,"current_range_meters":24400,"station_id":"ce4bhn12rcd13ifvqgqg","pricing_plan_id":"cebpf4jnsgd1na2vs0mg"},{"bike_id":"7c49e9d5-a9ab-4694-9a65-880096aed296","system_id":"levelo_inurba_marseille","lat":43.28704,"lon":5.37954,"is_reserved":false,"is_disabled":false,"rental_uris":{"android":"levelo://app?vid=7c49e9d5-a9ab-4694-9a65-880096aed296","ios":"levelo://app?vid=7c49e9d5-a9ab-4694-9a65-880096aed296"},"vehicle_type_id":"4","last_reported":1731060589,"current_range_meters":32000,"station_id":"ce4bh9p2rcd13ifvqec0","pricing_plan_id":"cebpf4jnsgd1na2vs0mg"},{"bike_id":"ddded72e-0039-4abb-b7d4-f32778257f6e","system_id":"levelo_inurba_marseille","lat":43.30954,"lon":5.39046,"is_reserved":false,"is_disabled":false,"rental_uris":{"android":"levelo://app?vid=ddded72e-0039-4abb-b7d4-f32778257f6e","ios":"levelo://app?vid=ddded72e-0039-4abb-b7d4-f32778257f6e"},"vehicle_type_id":"4","last_reported":1731060589,"current_range_meters":29600,"station_id":"ce4bgup2rcd13ifvqco0","pricing_plan_id":"cebpf4jnsgd1na2vs0mg"},{"bike_id":"30c759a2-6df1-49dd-8b4a-2f09b3c85fab","system_id":"levelo_inurba_marseille","lat":43.28126,"lon":5.37845,"is_reserved":false,"is_disabled":false,"rental_uris":{"android":"levelo://app?vid=30c759a2-6df1-49dd-8b4a-2f09b3c85fab","ios":"levelo://app?vid=30c759a2-6df1-49dd-8b4a-2f09b3c85fab"},"vehicle_type_id":"4","last_reported":1731060589,"current_range_meters":28000,"station_id":"ce4bha12rcd13ifvqee0","pricing_plan_id":"cebpf4jnsgd1na2vs0mg"},{"bike_id":"c85efc68-938d-4596-8c3f-229a875f048d","system_id":"levelo_inurba_marseille","lat":43.27212,"lon":5.39179,"is_reserved":false,"is_disabled":false,"rental_uris":{"android":"levelo://app?vid=c85efc68-938d-4596-8c3f-229a875f048d","ios":"levelo://app?vid=c85efc68-938d-4596-8c3f-229a875f048d"},"vehicle_type_id":"4","last_reported":1731060589,"current_range_meters":8800,"station_id":"ce4bhhp2rcd13ifvqfm0","pricing_plan_id":"cebpf4jnsgd1na2vs0mg"},{"bike_id":"73ab35f1-bfdb-4678-85b3-28a9d7db8a08","system_id":"levelo_inurba_marseille","lat":43.28417,"lon":5.34977,"is_reserved":false,"is_disabled":false,"rental_uris":{"android":"levelo://app?vid=73ab35f1-bfdb-4678-85b3-28a9d7db8a08","ios":"levelo://app?vid=73ab35f1-bfdb-4678-85b3-28a9d7db8a08"},"vehicle_type_id":"4","last_reported":1731060589,"current_range_meters":27600,"station_id":"ce4bhbh2rcd13ifvqepg","pricing_plan_id":"cebpf4jnsgd1na2vs0mg"},{"bike_id":"c0ff6ac5-e73d-4157-b6f1-8368225d277a","system_id":"levelo_inurba_marseille","lat":43.25006,"lon":5.38933,"is_reserved":false,"is_disabled":false,"rental_uris":{"android":"levelo://app?vid=c0ff6ac5-e73d-4157-b6f1-8368225d277a","ios":"levelo://app?vid=c0ff6ac5-e73d-4157-b6f1-8368225d277a"},"vehicle_type_id":"4","last_reported":1731060589,"current_range_meters":8800,"station_id":"ce4bhgp2rcd13ifvqfd0","pricing_plan_id":"cebpf4jnsgd1na2vs0mg"},{"bike_id":"16241619-68a5-47ef-8ec1-a191e36146be","system_id":"levelo_inurba_marseille","lat":43.3046,"lon":5.37899,"is_reserved":false,"is_disabled":false,"rental_uris":{"android":"levelo://app?vid=16241619-68a5-47ef-8ec1-a191e36146be","ios":"levelo://app?vid=16241619-68a5-47ef-8ec1-a191e36146be"},"vehicle_type_id":"4","last_reported":1731060589,"current_range_meters":39200,"station_id":"ce4bgup2rcd13ifvqcn0","pricing_plan_id":"cebpf4jnsgd1na2vs0mg"},{"bike_id":"3a1bea33-a817-4887-bbcf-6e6395c62f53","system_id":"levelo_inurba_marseille","lat":43.293365,"lon":5.377113,"is_reserved":false,"is_disabled":false,"rental_uris":{"android":"levelo://app?vid=3a1bea33-a817-4887-bbcf-6e6395c62f53","ios":"levelo://app?vid=3a1bea33-a817-4887-bbcf-6e6395c62f53"},"vehicle_type_id":"4","last_reported":1731060589,"current_range_meters":20800,"station_id":"ce4bgjh2rcd13ifvqbf0","pricing_plan_id":"cebpf4jnsgd1na2vs0mg"},{"bike_id":"13ad741b-5269-4348-a9e8-09ad65ab743f","system_id":"levelo_inurba_marseille","lat":43.23155,"lon":5.43708,"is_reserved":false,"is_disabled":false,"rental_uris":{"android":"levelo://app?vid=13ad741b-5269-4348-a9e8-09ad65ab743f","ios":"levelo://app?vid=13ad741b-5269-4348-a9e8-09ad65ab743f"},"vehicle_type_id":"4","last_reported":1731060589,"current_range_meters":29600,"station_id":"ce4bhmp2rcd13ifvqgog","pricing_plan_id":"cebpf4jnsgd1na2vs0mg"},{"bike_id":"93f22be1-f1d4-40e6-9b32-f90befdc8177","system_id":"levelo_inurba_marseille","lat":43.23154,"lon":5.43714,"is_reserved":false,"is_disabled":false,"rental_uris":{"android":"levelo://app?vid=93f22be1-f1d4-40e6-9b32-f90befdc8177","ios":"levelo://app?vid=93f22be1-f1d4-40e6-9b32-f90befdc8177"},"vehicle_type_id":"4","last_reported":1731060589,"current_range_meters":36400,"station_id":"ce4bhmp2rcd13ifvqgog","pricing_plan_id":"cebpf4jnsgd1na2vs0mg"},{"bike_id":"297278e5-15d6-494f-bedc-e1bc1c8cf2d6","system_id":"levelo_inurba_marseille","lat":43.32537,"lon":5.41439,"is_reserved":false,"is_disabled":false,"rental_uris":{"android":"levelo://app?vid=297278e5-15d6-494f-bedc-e1bc1c8cf2d6","ios":"levelo://app?vid=297278e5-15d6-494f-bedc-e1bc1c8cf2d6"},"vehicle_type_id":"4","last_reported":1731060589,"current_range_meters":33200,"station_id":"ce4bhq12rcd13ifvqhhg","pricing_plan_id":"cebpf4jnsgd1na2vs0mg"},{"bike_id":"eb117832-b879-4edf-8795-86fc8cbbd11e","system_id":"levelo_inurba_marseille","lat":43.28004,"lon":5.39999,"is_reserved":false,"is_disabled":false,"rental_uris":{"android":"levelo://app?vid=eb117832-b879-4edf-8795-86fc8cbbd11e","ios":"levelo://app?vid=eb117832-b879-4edf-8795-86fc8cbbd11e"},"vehicle_type_id":"4","last_reported":1731060589,"current_range_meters":8800,"station_id":"ce4bho92rcd13ifvqh4g","pricing_plan_id":"cebpf4jnsgd1na2vs0mg"},{"bike_id":"9189ca28-395c-4381-a2e8-837ce8fca021","system_id":"levelo_inurba_marseille","lat":43.286499,"lon":5.385579,"is_reserved":false,"is_disabled":false,"rental_uris":{"android":"levelo://app?vid=9189ca28-395c-4381-a2e8-837ce8fca021","ios":"levelo://app?vid=9189ca28-395c-4381-a2e8-837ce8fca021"},"vehicle_type_id":"4","last_reported":1731060589,"current_range_meters":22000,"station_id":"ce4bgi12rcd13ifvqb70","pricing_plan_id":"cebpf4jnsgd1na2vs0mg"},{"bike_id":"e1298e98-38f4-4f03-af86-984cae027c59","system_id":"levelo_inurba_marseille","lat":43.26932,"lon":5.38917,"is_reserved":false,"is_disabled":false,"rental_uris":{"android":"levelo://app?vid=e1298e98-38f4-4f03-af86-984cae027c59","ios":"levelo://app?vid=e1298e98-38f4-4f03-af86-984cae027c59"},"vehicle_type_id":"4","last_reported":1731060589,"current_range_meters":38800,"station_id":"ce4bhhh2rcd13ifvqfl0","pricing_plan_id":"cebpf4jnsgd1na2vs0mg"},{"bike_id":"aa0d3957-8f90-4b95-82f0-222879762d47","system_id":"levelo_inurba_marseille","lat":43.28486,"lon":5.38425,"is_reserved":false,"is_disabled":false,"rental_uris":{"android":"levelo://app?vid=aa0d3957-8f90-4b95-82f0-222879762d47","ios":"levelo://app?vid=aa0d3957-8f90-4b95-82f0-222879762d47"},"vehicle_type_id":"4","last_reported":1731060589,"current_range_meters":15200,"station_id":"ce4bh512rcd13ifvqe3g","pricing_plan_id":"cebpf4jnsgd1na2vs0mg"},{"bike_id":"90b8b639-70b7-48c5-87b2-677e1a05732e","system_id":"levelo_inurba_marseille","lat":43.25939,"lon":5.40899,"is_reserved":false,"is_disabled":false,"rental_uris":{"android":"levelo://app?vid=90b8b639-70b7-48c5-87b2-677e1a05732e","ios":"levelo://app?vid=90b8b639-70b7-48c5-87b2-677e1a05732e"},"vehicle_type_id":"4","last_reported":1731060589,"current_range_meters":28000,"station_id":"ce4bhm92rcd13ifvqglg","pricing_plan_id":"cebpf4jnsgd1na2vs0mg"},{"bike_id":"7dfe1dc4-97f7-4cd2-aeff-758bcdc84610","system_id":"levelo_inurba_marseille","lat":43.24072,"lon":5.37762,"is_reserved":false,"is_disabled":false,"rental_uris":{"android":"levelo://app?vid=7dfe1dc4-97f7-4cd2-aeff-758bcdc84610","ios":"levelo://app?vid=7dfe1dc4-97f7-4cd2-aeff-758bcdc84610"},"vehicle_type_id":"4","last_reported":1731060589,"current_range_meters":5600,"station_id":"ce4bhnp2rcd13ifvqgvg","pricing_plan_id":"cebpf4jnsgd1na2vs0mg"},{"bike_id":"ff758404-31a8-45e4-92f5-c00f0946f91e","system_id":"levelo_inurba_marseille","lat":43.31756,"lon":5.39012,"is_reserved":false,"is_disabled":false,"rental_uris":{"android":"levelo://app?vid=ff758404-31a8-45e4-92f5-c00f0946f91e","ios":"levelo://app?vid=ff758404-31a8-45e4-92f5-c00f0946f91e"},"vehicle_type_id":"4","last_reported":1731060589,"current_range_meters":39200,"station_id":"ce4bhqp2rcd13ifvqhng","pricing_plan_id":"cebpf4jnsgd1na2vs0mg"},{"bike_id":"59787ea4-8296-4c34-bfc0-8ca929ac7cd0","system_id":"levelo_inurba_marseille","lat":43.309509,"lon":5.39039,"is_reserved":false,"is_disabled":false,"rental_uris":{"android":"levelo://app?vid=59787ea4-8296-4c34-bfc0-8ca929ac7cd0","ios":"levelo://app?vid=59787ea4-8296-4c34-bfc0-8ca929ac7cd0"},"vehicle_type_id":"4","last_reported":1731060589,"current_range_meters":35600,"station_id":"ce4bgup2rcd13ifvqco0","pricing_plan_id":"cebpf4jnsgd1na2vs0mg"},{"bike_id":"4be7a031-9a7d-44fb-94fa-fafcbe66b902","system_id":"levelo_inurba_marseille","lat":43.2867,"lon":5.38688,"is_reserved":false,"is_disabled":false,"rental_uris":{"android":"levelo://app?vid=4be7a031-9a7d-44fb-94fa-fafcbe66b902","ios":"levelo://app?vid=4be7a031-9a7d-44fb-94fa-fafcbe66b902"},"vehicle_type_id":"4","last_reported":1731060589,"current_range_meters":14000,"station_id":"ce4bh492rcd13ifvqdug","pricing_plan_id":"cebpf4jnsgd1na2vs0mg"},{"bike_id":"54350e44-888d-4623-843d-f95a2432b2a7","system_id":"levelo_inurba_marseille","lat":43.28846,"lon":5.35849,"is_reserved":false,"is_disabled":false,"rental_uris":{"android":"levelo://app?vid=54350e44-888d-4623-843d-f95a2432b2a7","ios":"levelo://app?vid=54350e44-888d-4623-843d-f95a2432b2a7"},"vehicle_type_id":"4","last_reported":1731060589,"current_range_meters":32000,"station_id":"ce4bhb12rcd13ifvqem0","pricing_plan_id":"cebpf4jnsgd1na2vs0mg"},{"bike_id":"650f5835-bc4e-42c7-b5d8-20d584cdd8af","system_id":"levelo_inurba_marseille","lat":43.3248,"lon":5.36567,"is_reserved":false,"is_disabled":false,"rental_uris":{"android":"levelo://app?vid=650f5835-bc4e-42c7-b5d8-20d584cdd8af","ios":"levelo://app?vid=650f5835-bc4e-42c7-b5d8-20d584cdd8af"},"vehicle_type_id":"4","last_reported":1731060589,"current_range_meters":37600,"station_id":"ce4bhs12rcd13ifvqhvg","pricing_plan_id":"cebpf4jnsgd1na2vs0mg"},{"bike_id":"62a54398-3548-44a9-9f73-cdb541d73926","system_id":"levelo_inurba_marseille","lat":43.30949,"lon":5.39039,"is_reserved":false,"is_disabled":false,"rental_uris":{"android":"levelo://app?vid=62a54398-3548-44a9-9f73-cdb541d73926","ios":"levelo://app?vid=62a54398-3548-44a9-9f73-cdb541d73926"},"vehicle_type_id":"4","last_reported":1731060589,"current_range_meters":19200,"station_id":"ce4bgup2rcd13ifvqco0","pricing_plan_id":"cebpf4jnsgd1na2vs0mg"},{"bike_id":"3fce9907-5a94-48a8-9013-cc802630286d","system_id":"levelo_inurba_marseille","lat":43.31347,"lon":5.36727,"is_reserved":false,"is_disabled":false,"rental_uris":{"android":"levelo://app?vid=3fce9907-5a94-48a8-9013-cc802630286d","ios":"levelo://app?vid=3fce9907-5a94-48a8-9013-cc802630286d"},"vehicle_type_id":"4","last_reported":1731060589,"current_range_meters":23200,"station_id":"ce4bgr92rcd13ifvqc6g","pricing_plan_id":"cebpf4jnsgd1na2vs0mg"},{"bike_id":"6515d470-0ac3-4000-8619-313ecf04f7d5","system_id":"levelo_inurba_marseille","lat":43.25824,"lon":5.39432,"is_reserved":false,"is_disabled":false,"rental_uris":{"android":"levelo://app?vid=6515d470-0ac3-4000-8619-313ecf04f7d5","ios":"levelo://app?vid=6515d470-0ac3-4000-8619-313ecf04f7d5"},"vehicle_type_id":"4","last_reported":1731060589,"current_range_meters":15200,"station_id":"ce4bhip2rcd13ifvqft0","pricing_plan_id":"cebpf4jnsgd1na2vs0mg"},{"bike_id":"82d804c4-16dc-4e87-8814-0cbe29f1e784","system_id":"levelo_inurba_marseille","lat":43.28848,"lon":5.39306,"is_reserved":false,"is_disabled":false,"rental_uris":{"android":"levelo://app?vid=82d804c4-16dc-4e87-8814-0cbe29f1e784","ios":"levelo://app?vid=82d804c4-16dc-4e87-8814-0cbe29f1e784"},"vehicle_type_id":"4","last_reported":1731060589,"current_range_meters":24000,"station_id":"ce4bh2p2rcd13ifvqdi0","pricing_plan_id":"cebpf4jnsgd1na2vs0mg"},{"bike_id":"92bbe5af-b5d9-48fc-afb8-3b15fc8d3190","system_id":"levelo_inurba_marseille","lat":43.31714,"lon":5.42404,"is_reserved":false,"is_disabled":false,"rental_uris":{"android":"levelo://app?vid=92bbe5af-b5d9-48fc-afb8-3b15fc8d3190","ios":"levelo://app?vid=92bbe5af-b5d9-48fc-afb8-3b15fc8d3190"},"vehicle_type_id":"4","last_reported":1731060589,"current_range_meters":29600,"station_id":"ce4bhp92rcd13ifvqhbg","pricing_plan_id":"cebpf4jnsgd1na2vs0mg"},{"bike_id":"75eaf369-4a6d-49f4-92b4-b6d2925b63f9","system_id":"levelo_inurba_marseille","lat":43.29066,"lon":5.37156,"is_reserved":false,"is_disabled":false,"rental_uris":{"android":"levelo://app?vid=75eaf369-4a6d-49f4-92b4-b6d2925b63f9","ios":"levelo://app?vid=75eaf369-4a6d-49f4-92b4-b6d2925b63f9"},"vehicle_type_id":"4","last_reported":1731060589,"current_range_meters":39200,"station_id":"ce4bh5p2rcd13ifvqe4g","pricing_plan_id":"cebpf4jnsgd1na2vs0mg"},{"bike_id":"933b4846-c834-47f2-9adb-90df4c092593","system_id":"levelo_inurba_marseille","lat":43.2668,"lon":5.38267,"is_reserved":false,"is_disabled":false,"rental_uris":{"android":"levelo://app?vid=933b4846-c834-47f2-9adb-90df4c092593","ios":"levelo://app?vid=933b4846-c834-47f2-9adb-90df4c092593"},"vehicle_type_id":"4","last_reported":1731060589,"current_range_meters":6400,"station_id":"ce4bhg92rcd13ifvqf90","pricing_plan_id":"cebpf4jnsgd1na2vs0mg"},{"bike_id":"ae6411f3-ae31-4f90-8975-cbb8b6d77600","system_id":"levelo_inurba_marseille","lat":43.32482,"lon":5.36556,"is_reserved":false,"is_disabled":false,"rental_uris":{"android":"levelo://app?vid=ae6411f3-ae31-4f90-8975-cbb8b6d77600","ios":"levelo://app?vid=ae6411f3-ae31-4f90-8975-cbb8b6d77600"},"vehicle_type_id":"4","last_reported":1731060589,"current_range_meters":11600,"station_id":"ce4bhs12rcd13ifvqhvg","pricing_plan_id":"cebpf4jnsgd1na2vs0mg"},{"bike_id":"f55c0100-a1ff-46cf-85a8-bd0787eecad7","system_id":"levelo_inurba_marseille","lat":43.30211,"lon":5.39471,"is_reserved":false,"is_disabled":false,"rental_uris":{"android":"levelo://app?vid=f55c0100-a1ff-46cf-85a8-bd0787eecad7","ios":"levelo://app?vid=f55c0100-a1ff-46cf-85a8-bd0787eecad7"},"vehicle_type_id":"4","last_reported":1731060589,"current_range_meters":36400,"station_id":"ce4bh0p2rcd13ifvqd70","pricing_plan_id":"cebpf4jnsgd1na2vs0mg"},{"bike_id":"4b918122-42c5-46f4-98ac-7a2d6c6f4495","system_id":"levelo_inurba_marseille","lat":43.25934,"lon":5.40911,"is_reserved":false,"is_disabled":false,"rental_uris":{"android":"levelo://app?vid=4b918122-42c5-46f4-98ac-7a2d6c6f4495","ios":"levelo://app?vid=4b918122-42c5-46f4-98ac-7a2d6c6f4495"},"vehicle_type_id":"4","last_reported":1731060589,"current_range_meters":24800,"station_id":"ce4bhm92rcd13ifvqglg","pricing_plan_id":"cebpf4jnsgd1na2vs0mg"},{"bike_id":"f54bde22-39d9-429c-beb9-5c655cc1564e","system_id":"levelo_inurba_marseille","lat":43.31216,"lon":5.36847,"is_reserved":false,"is_disabled":false,"rental_uris":{"android":"levelo://app?vid=f54bde22-39d9-429c-beb9-5c655cc1564e","ios":"levelo://app?vid=f54bde22-39d9-429c-beb9-5c655cc1564e"},"vehicle_type_id":"4","last_reported":1731060589,"current_range_meters":39200,"station_id":"ce4bgl92rcd13ifvqbq0","pricing_plan_id":"cebpf4jnsgd1na2vs0mg"},{"bike_id":"95148b88-228e-47b1-9a0c-3baa9b1ffef9","system_id":"levelo_inurba_marseille","lat":43.3108,"lon":5.42427,"is_reserved":false,"is_disabled":false,"rental_uris":{"android":"levelo://app?vid=95148b88-228e-47b1-9a0c-3baa9b1ffef9","ios":"levelo://app?vid=95148b88-228e-47b1-9a0c-3baa9b1ffef9"},"vehicle_type_id":"4","last_reported":1731060589,"current_range_meters":31200,"station_id":"ce4bhp92rcd13ifvqhag","pricing_plan_id":"cebpf4jnsgd1na2vs0mg"},{"bike_id":"1ccb902f-385d-4da4-93a8-c984e13e89f6","system_id":"levelo_inurba_marseille","lat":43.29024,"lon":5.38132,"is_reserved":false,"is_disabled":false,"rental_uris":{"android":"levelo://app?vid=1ccb902f-385d-4da4-93a8-c984e13e89f6","ios":"levelo://app?vid=1ccb902f-385d-4da4-93a8-c984e13e89f6"},"vehicle_type_id":"4","last_reported":1731060589,"current_range_meters":25600,"station_id":"ce4bh4p2rcd13ifvqe1g","pricing_plan_id":"cebpf4jnsgd1na2vs0mg"},{"bike_id":"e0e525dd-b5b7-40d0-81fe-8a8834ebfc46","system_id":"levelo_inurba_marseille","lat":43.30422,"lon":5.38887,"is_reserved":false,"is_disabled":false,"rental_uris":{"android":"levelo://app?vid=e0e525dd-b5b7-40d0-81fe-8a8834ebfc46","ios":"levelo://app?vid=e0e525dd-b5b7-40d0-81fe-8a8834ebfc46"},"vehicle_type_id":"4","last_reported":1731060589,"current_range_meters":28000,"station_id":"ce4bgk12rcd13ifvqbi0","pricing_plan_id":"cebpf4jnsgd1na2vs0mg"},{"bike_id":"27a50299-178b-461c-8bfe-e9c0249ffc99","system_id":"levelo_inurba_marseille","lat":43.28034,"lon":5.369487,"is_reserved":false,"is_disabled":false,"rental_uris":{"android":"levelo://app?vid=27a50299-178b-461c-8bfe-e9c0249ffc99","ios":"levelo://app?vid=27a50299-178b-461c-8bfe-e9c0249ffc99"},"vehicle_type_id":"4","last_reported":1731060589,"current_range_meters":14400,"station_id":"ce4bha12rcd13ifvqef0","pricing_plan_id":"cebpf4jnsgd1na2vs0mg"},{"bike_id":"224b4f9b-8964-41f7-a92d-d6f79ed1277c","system_id":"levelo_inurba_marseille","lat":43.33603,"lon":5.41022,"is_reserved":false,"is_disabled":false,"rental_uris":{"android":"levelo://app?vid=224b4f9b-8964-41f7-a92d-d6f79ed1277c","ios":"levelo://app?vid=224b4f9b-8964-41f7-a92d-d6f79ed1277c"},"vehicle_type_id":"4","last_reported":1731060589,"current_range_meters":19600,"station_id":"ce4bhqh2rcd13ifvqhmg","pricing_plan_id":"cebpf4jnsgd1na2vs0mg"},{"bike_id":"438c3097-87e9-4b63-ac81-00ee962e9a9f","system_id":"levelo_inurba_marseille","lat":43.26682,"lon":5.38267,"is_reserved":false,"is_disabled":false,"rental_uris":{"android":"levelo://app?vid=438c3097-87e9-4b63-ac81-00ee962e9a9f","ios":"levelo://app?vid=438c3097-87e9-4b63-ac81-00ee962e9a9f"},"vehicle_type_id":"4","last_reported":1731060589,"current_range_meters":38400,"station_id":"ce4bhg92rcd13ifvqf90","pricing_plan_id":"cebpf4jnsgd1na2vs0mg"},{"bike_id":"0953c204-6257-49ee-99e1-fac599d5e6fb","system_id":"levelo_inurba_marseille","lat":43.23961,"lon":5.36624,"is_reserved":false,"is_disabled":false,"rental_uris":{"android":"levelo://app?vid=0953c204-6257-49ee-99e1-fac599d5e6fb","ios":"levelo://app?vid=0953c204-6257-49ee-99e1-fac599d5e6fb"},"vehicle_type_id":"4","last_reported":1731060589,"current_range_meters":39200,"station_id":"ce4bhi12rcd13ifvqfp0","pricing_plan_id":"cebpf4jnsgd1na2vs0mg"},{"bike_id":"815a0138-3843-4918-a6bb-a635a504bec6","system_id":"levelo_inurba_marseille","lat":43.24075,"lon":5.3775,"is_reserved":false,"is_disabled":false,"rental_uris":{"android":"levelo://app?vid=815a0138-3843-4918-a6bb-a635a504bec6","ios":"levelo://app?vid=815a0138-3843-4918-a6bb-a635a504bec6"},"vehicle_type_id":"4","last_reported":1731060589,"current_range_meters":26000,"station_id":"ce4bhnp2rcd13ifvqgvg","pricing_plan_id":"cebpf4jnsgd1na2vs0mg"},{"bike_id":"f5da078b-5359-4a72-8642-c4bd0f9e6885","system_id":"levelo_inurba_marseille","lat":43.28344,"lon":5.3811,"is_reserved":false,"is_disabled":false,"rental_uris":{"android":"levelo://app?vid=f5da078b-5359-4a72-8642-c4bd0f9e6885","ios":"levelo://app?vid=f5da078b-5359-4a72-8642-c4bd0f9e6885"},"vehicle_type_id":"4","last_reported":1731060589,"current_range_meters":32400,"station_id":"ce4bh412rcd13ifvqdr0","pricing_plan_id":"cebpf4jnsgd1na2vs0mg"},{"bike_id":"76c3f570-9822-418a-98dd-e774c2b3f9d7","system_id":"levelo_inurba_marseille","lat":43.29316,"lon":5.3719,"is_reserved":false,"is_disabled":false,"rental_uris":{"android":"levelo://app?vid=76c3f570-9822-418a-98dd-e774c2b3f9d7","ios":"levelo://app?vid=76c3f570-9822-418a-98dd-e774c2b3f9d7"},"vehicle_type_id":"4","last_reported":1731060589,"current_range_meters":25200,"station_id":"ce4bgh92rcd13ifvqb40","pricing_plan_id":"cebpf4jnsgd1na2vs0mg"},{"bike_id":"396cf819-0cd4-4bcd-aaae-af332238af84","system_id":"levelo_inurba_marseille","lat":43.23959,"lon":5.36622,"is_reserved":false,"is_disabled":false,"rental_uris":{"android":"levelo://app?vid=396cf819-0cd4-4bcd-aaae-af332238af84","ios":"levelo://app?vid=396cf819-0cd4-4bcd-aaae-af332238af84"},"vehicle_type_id":"4","last_reported":1731060589,"current_range_meters":32400,"station_id":"ce4bhi12rcd13ifvqfp0","pricing_plan_id":"cebpf4jnsgd1na2vs0mg"},{"bike_id":"2bf6932e-de13-4787-a3bc-66b5a521d53d","system_id":"levelo_inurba_marseille","lat":43.29628,"lon":5.40594,"is_reserved":false,"is_disabled":false,"rental_uris":{"android":"levelo://app?vid=2bf6932e-de13-4787-a3bc-66b5a521d53d","ios":"levelo://app?vid=2bf6932e-de13-4787-a3bc-66b5a521d53d"},"vehicle_type_id":"4","last_reported":1731060589,"current_range_meters":22400,"station_id":"ce4bh0h2rcd13ifvqd60","pricing_plan_id":"cebpf4jnsgd1na2vs0mg"},{"bike_id":"1fbe8b34-59af-4326-86a2-a715ddf653ee","system_id":"levelo_inurba_marseille","lat":43.32477,"lon":5.36571,"is_reserved":false,"is_disabled":false,"rental_uris":{"android":"levelo://app?vid=1fbe8b34-59af-4326-86a2-a715ddf653ee","ios":"levelo://app?vid=1fbe8b34-59af-4326-86a2-a715ddf653ee"},"vehicle_type_id":"4","last_reported":1731060589,"current_range_meters":37600,"station_id":"ce4bhs12rcd13ifvqhvg","pricing_plan_id":"cebpf4jnsgd1na2vs0mg"},{"bike_id":"93e800a3-8b5c-4a17-a99e-16efe8faf410","system_id":"levelo_inurba_marseille","lat":43.3254,"lon":5.4144,"is_reserved":false,"is_disabled":false,"rental_uris":{"android":"levelo://app?vid=93e800a3-8b5c-4a17-a99e-16efe8faf410","ios":"levelo://app?vid=93e800a3-8b5c-4a17-a99e-16efe8faf410"},"vehicle_type_id":"4","last_reported":1731060589,"current_range_meters":32000,"station_id":"ce4bhq12rcd13ifvqhhg","pricing_plan_id":"cebpf4jnsgd1na2vs0mg"},{"bike_id":"1a278f87-9283-466b-97e0-36d36f134453","system_id":"levelo_inurba_marseille","lat":43.29584,"lon":5.36736,"is_reserved":false,"is_disabled":false,"rental_uris":{"android":"levelo://app?vid=1a278f87-9283-466b-97e0-36d36f134453","ios":"levelo://app?vid=1a278f87-9283-466b-97e0-36d36f134453"},"vehicle_type_id":"4","last_reported":1731060589,"current_range_meters":36400,"station_id":"ce4bgph2rcd13ifvqc2g","pricing_plan_id":"cebpf4jnsgd1na2vs0mg"},{"bike_id":"7a8e6de9-8c92-47d2-871c-d51782ef92a1","system_id":"levelo_inurba_marseille","lat":43.28454,"lon":5.39207,"is_reserved":false,"is_disabled":false,"rental_uris":{"android":"levelo://app?vid=7a8e6de9-8c92-47d2-871c-d51782ef92a1","ios":"levelo://app?vid=7a8e6de9-8c92-47d2-871c-d51782ef92a1"},"vehicle_type_id":"4","last_reported":1731060589,"current_range_meters":20000,"station_id":"ce4bhoh2rcd13ifvqh5g","pricing_plan_id":"cebpf4jnsgd1na2vs0mg"},{"bike_id":"4809282a-8c38-49a5-ad30-bb9f48696326","system_id":"levelo_inurba_marseille","lat":43.3046,"lon":5.37907,"is_reserved":false,"is_disabled":false,"rental_uris":{"android":"levelo://app?vid=4809282a-8c38-49a5-ad30-bb9f48696326","ios":"levelo://app?vid=4809282a-8c38-49a5-ad30-bb9f48696326"},"vehicle_type_id":"4","last_reported":1731060589,"current_range_meters":34800,"station_id":"ce4bgup2rcd13ifvqcn0","pricing_plan_id":"cebpf4jnsgd1na2vs0mg"},{"bike_id":"a857852f-ab68-41f9-9316-7113b72659b6","system_id":"levelo_inurba_marseille","lat":43.25011,"lon":5.38914,"is_reserved":false,"is_disabled":false,"rental_uris":{"android":"levelo://app?vid=a857852f-ab68-41f9-9316-7113b72659b6","ios":"levelo://app?vid=a857852f-ab68-41f9-9316-7113b72659b6"},"vehicle_type_id":"4","last_reported":1731060589,"current_range_meters":12400,"station_id":"ce4bhgp2rcd13ifvqfd0","pricing_plan_id":"cebpf4jnsgd1na2vs0mg"},{"bike_id":"7f2fea77-957a-450e-aafd-8a5fadc8bdce","system_id":"levelo_inurba_marseille","lat":43.25941,"lon":5.409,"is_reserved":false,"is_disabled":false,"rental_uris":{"android":"levelo://app?vid=7f2fea77-957a-450e-aafd-8a5fadc8bdce","ios":"levelo://app?vid=7f2fea77-957a-450e-aafd-8a5fadc8bdce"},"vehicle_type_id":"4","last_reported":1731060589,"current_range_meters":25600,"station_id":"ce4bhm92rcd13ifvqglg","pricing_plan_id":"cebpf4jnsgd1na2vs0mg"},{"bike_id":"10bcd9ae-44c8-4644-bc58-c16a6c54de6c","system_id":"levelo_inurba_marseille","lat":43.29309,"lon":5.37177,"is_reserved":false,"is_disabled":false,"rental_uris":{"android":"levelo://app?vid=10bcd9ae-44c8-4644-bc58-c16a6c54de6c","ios":"levelo://app?vid=10bcd9ae-44c8-4644-bc58-c16a6c54de6c"},"vehicle_type_id":"4","last_reported":1731060589,"current_range_meters":37600,"station_id":"ce4bgs12rcd13ifvqcag","pricing_plan_id":"cebpf4jnsgd1na2vs0mg"},{"bike_id":"02d83899-6024-453b-ba38-987ddf9fa3a3","system_id":"levelo_inurba_marseille","lat":43.28856,"lon":5.3931,"is_reserved":false,"is_disabled":false,"rental_uris":{"android":"levelo://app?vid=02d83899-6024-453b-ba38-987ddf9fa3a3","ios":"levelo://app?vid=02d83899-6024-453b-ba38-987ddf9fa3a3"},"vehicle_type_id":"4","last_reported":1731060589,"current_range_meters":24400,"station_id":"ce4bh2p2rcd13ifvqdi0","pricing_plan_id":"cebpf4jnsgd1na2vs0mg"},{"bike_id":"994f2147-e130-4895-b32f-cea19e1b13aa","system_id":"levelo_inurba_marseille","lat":43.28336,"lon":5.38117,"is_reserved":false,"is_disabled":false,"rental_uris":{"android":"levelo://app?vid=994f2147-e130-4895-b32f-cea19e1b13aa","ios":"levelo://app?vid=994f2147-e130-4895-b32f-cea19e1b13aa"},"vehicle_type_id":"4","last_reported":1731060589,"current_range_meters":38800,"station_id":"ce4bh412rcd13ifvqdr0","pricing_plan_id":"cebpf4jnsgd1na2vs0mg"},{"bike_id":"cf8f8482-f782-4c29-b6ce-e440f1c1c735","system_id":"levelo_inurba_marseille","lat":43.30539,"lon":5.36701,"is_reserved":false,"is_disabled":false,"rental_uris":{"android":"levelo://app?vid=cf8f8482-f782-4c29-b6ce-e440f1c1c735","ios":"levelo://app?vid=cf8f8482-f782-4c29-b6ce-e440f1c1c735"},"vehicle_type_id":"4","last_reported":1731060589,"current_range_meters":38400,"station_id":"ce4bgrp2rcd13ifvqc9g","pricing_plan_id":"cebpf4jnsgd1na2vs0mg"},{"bike_id":"4bea9e98-7c2d-4b56-905d-3bfc829bbe3e","system_id":"levelo_inurba_marseille","lat":43.26042,"lon":5.39395,"is_reserved":false,"is_disabled":false,"rental_uris":{"android":"levelo://app?vid=4bea9e98-7c2d-4b56-905d-3bfc829bbe3e","ios":"levelo://app?vid=4bea9e98-7c2d-4b56-905d-3bfc829bbe3e"},"vehicle_type_id":"4","last_reported":1731060589,"current_range_meters":26800,"station_id":"ce4bhh92rcd13ifvqfj0","pricing_plan_id":"cebpf4jnsgd1na2vs0mg"},{"bike_id":"b54c4cc2-0687-4e94-bdfa-67c7526a95d4","system_id":"levelo_inurba_marseille","lat":43.2721,"lon":5.3918,"is_reserved":false,"is_disabled":false,"rental_uris":{"android":"levelo://app?vid=b54c4cc2-0687-4e94-bdfa-67c7526a95d4","ios":"levelo://app?vid=b54c4cc2-0687-4e94-bdfa-67c7526a95d4"},"vehicle_type_id":"4","last_reported":1731060589,"current_range_meters":24000,"station_id":"ce4bhhp2rcd13ifvqfm0","pricing_plan_id":"cebpf4jnsgd1na2vs0mg"},{"bike_id":"effa9bf3-1a26-43a8-949d-44fdf5caeec3","system_id":"levelo_inurba_marseille","lat":43.30136,"lon":5.37393,"is_reserved":false,"is_disabled":false,"rental_uris":{"android":"levelo://app?vid=effa9bf3-1a26-43a8-949d-44fdf5caeec3","ios":"levelo://app?vid=effa9bf3-1a26-43a8-949d-44fdf5caeec3"},"vehicle_type_id":"4","last_reported":1731060589,"current_range_meters":25200,"station_id":"ce4bgs92rcd13ifvqcc0","pricing_plan_id":"cebpf4jnsgd1na2vs0mg"},{"bike_id":"ff989801-f59b-46d1-867b-7c2b6eab1cca","system_id":"levelo_inurba_marseille","lat":43.337444,"lon":5.374475,"is_reserved":false,"is_disabled":false,"rental_uris":{"android":"levelo://app?vid=ff989801-f59b-46d1-867b-7c2b6eab1cca","ios":"levelo://app?vid=ff989801-f59b-46d1-867b-7c2b6eab1cca"},"vehicle_type_id":"4","last_reported":1731060589,"current_range_meters":38800,"station_id":"","pricing_plan_id":"cebpf4jnsgd1na2vs0mg"},{"bike_id":"0f445d8d-c5c6-4426-9c60-d64eb330cd19","system_id":"levelo_inurba_marseille","lat":43.32287,"lon":5.38267,"is_reserved":false,"is_disabled":false,"rental_uris":{"android":"levelo://app?vid=0f445d8d-c5c6-4426-9c60-d64eb330cd19","ios":"levelo://app?vid=0f445d8d-c5c6-4426-9c60-d64eb330cd19"},"vehicle_type_id":"4","last_reported":1731060589,"current_range_meters":38400,"station_id":"ce4bhr12rcd13ifvqhqg","pricing_plan_id":"cebpf4jnsgd1na2vs0mg"},{"bike_id":"e9c8a630-2d73-4117-9bf7-aca5570a0743","system_id":"levelo_inurba_marseille","lat":43.2318,"lon":5.39999,"is_reserved":false,"is_disabled":false,"rental_uris":{"android":"levelo://app?vid=e9c8a630-2d73-4117-9bf7-aca5570a0743","ios":"levelo://app?vid=e9c8a630-2d73-4117-9bf7-aca5570a0743"},"vehicle_type_id":"4","last_reported":1731060589,"current_range_meters":37600,"station_id":"ce4bhn12rcd13ifvqgqg","pricing_plan_id":"cebpf4jnsgd1na2vs0mg"},{"bike_id":"4b6a46d4-26ae-4101-bbd0-9f440eaafa94","system_id":"levelo_inurba_marseille","lat":43.2799,"lon":5.41655,"is_reserved":false,"is_disabled":false,"rental_uris":{"android":"levelo://app?vid=4b6a46d4-26ae-4101-bbd0-9f440eaafa94","ios":"levelo://app?vid=4b6a46d4-26ae-4101-bbd0-9f440eaafa94"},"vehicle_type_id":"4","last_reported":1731060589,"current_range_meters":30800,"station_id":"ce4bho12rcd13ifvqh1g","pricing_plan_id":"cebpf4jnsgd1na2vs0mg"},{"bike_id":"05fa0e70-7e60-44b0-a5ae-83401408b9be","system_id":"levelo_inurba_marseille","lat":43.24647,"lon":5.38892,"is_reserved":false,"is_disabled":false,"rental_uris":{"android":"levelo://app?vid=05fa0e70-7e60-44b0-a5ae-83401408b9be","ios":"levelo://app?vid=05fa0e70-7e60-44b0-a5ae-83401408b9be"},"vehicle_type_id":"4","last_reported":1731060589,"current_range_meters":38000,"station_id":"ce4bhg12rcd13ifvqf60","pricing_plan_id":"cebpf4jnsgd1na2vs0mg"},{"bike_id":"8e1782e8-591c-48e4-93aa-f3d1957a6a90","system_id":"levelo_inurba_marseille","lat":43.28103,"lon":5.37839,"is_reserved":false,"is_disabled":false,"rental_uris":{"android":"levelo://app?vid=8e1782e8-591c-48e4-93aa-f3d1957a6a90","ios":"levelo://app?vid=8e1782e8-591c-48e4-93aa-f3d1957a6a90"},"vehicle_type_id":"4","last_reported":1731060589,"current_range_meters":39200,"station_id":"ce4bha12rcd13ifvqee0","pricing_plan_id":"cebpf4jnsgd1na2vs0mg"},{"bike_id":"502c538f-739d-4605-9214-99ec0c3fdafd","system_id":"levelo_inurba_marseille","lat":43.25004,"lon":5.38925,"is_reserved":false,"is_disabled":false,"rental_uris":{"android":"levelo://app?vid=502c538f-739d-4605-9214-99ec0c3fdafd","ios":"levelo://app?vid=502c538f-739d-4605-9214-99ec0c3fdafd"},"vehicle_type_id":"4","last_reported":1731060589,"current_range_meters":39200,"station_id":"ce4bhgp2rcd13ifvqfd0","pricing_plan_id":"cebpf4jnsgd1na2vs0mg"},{"bike_id":"36e44c8a-c997-49fd-9d3e-8db3824cffb5","system_id":"levelo_inurba_marseille","lat":43.29067,"lon":5.37171,"is_reserved":false,"is_disabled":false,"rental_uris":{"android":"levelo://app?vid=36e44c8a-c997-49fd-9d3e-8db3824cffb5","ios":"levelo://app?vid=36e44c8a-c997-49fd-9d3e-8db3824cffb5"},"vehicle_type_id":"4","last_reported":1731060589,"current_range_meters":26800,"station_id":"ce4bh5p2rcd13ifvqe4g","pricing_plan_id":"cebpf4jnsgd1na2vs0mg"},{"bike_id":"207e56ce-a511-4661-9af5-8808382282f4","system_id":"levelo_inurba_marseille","lat":43.25495,"lon":5.37647,"is_reserved":false,"is_disabled":false,"rental_uris":{"android":"levelo://app?vid=207e56ce-a511-4661-9af5-8808382282f4","ios":"levelo://app?vid=207e56ce-a511-4661-9af5-8808382282f4"},"vehicle_type_id":"4","last_reported":1731060589,"current_range_meters":17200,"station_id":"ce4bhh12rcd13ifvqff0","pricing_plan_id":"cebpf4jnsgd1na2vs0mg"},{"bike_id":"0ecd6961-d8ff-4b44-970f-5b588e733dde","system_id":"levelo_inurba_marseille","lat":43.26944,"lon":5.3864,"is_reserved":false,"is_disabled":false,"rental_uris":{"android":"levelo://app?vid=0ecd6961-d8ff-4b44-970f-5b588e733dde","ios":"levelo://app?vid=0ecd6961-d8ff-4b44-970f-5b588e733dde"},"vehicle_type_id":"4","last_reported":1731060589,"current_range_meters":28400,"station_id":"ce4bhh92rcd13ifvqfh0","pricing_plan_id":"cebpf4jnsgd1na2vs0mg"},{"bike_id":"a9426ee3-c4ae-494e-8066-9650a1e2f01d","system_id":"levelo_inurba_marseille","lat":43.28719,"lon":5.37938,"is_reserved":false,"is_disabled":false,"rental_uris":{"android":"levelo://app?vid=a9426ee3-c4ae-494e-8066-9650a1e2f01d","ios":"levelo://app?vid=a9426ee3-c4ae-494e-8066-9650a1e2f01d"},"vehicle_type_id":"4","last_reported":1731060589,"current_range_meters":37600,"station_id":"ce4bh9p2rcd13ifvqec0","pricing_plan_id":"cebpf4jnsgd1na2vs0mg"},{"bike_id":"fc7f83a7-009e-48ef-a8ff-3ce00ef445de","system_id":"levelo_inurba_marseille","lat":43.31223,"lon":5.36847,"is_reserved":false,"is_disabled":false,"rental_uris":{"android":"levelo://app?vid=fc7f83a7-009e-48ef-a8ff-3ce00ef445de","ios":"levelo://app?vid=fc7f83a7-009e-48ef-a8ff-3ce00ef445de"},"vehicle_type_id":"4","last_reported":1731060589,"current_range_meters":39200,"station_id":"ce4bgl92rcd13ifvqbq0","pricing_plan_id":"cebpf4jnsgd1na2vs0mg"},{"bike_id":"b2abf11b-3676-42fa-b7ae-566f17d83066","system_id":"levelo_inurba_marseille","lat":43.3205,"lon":5.41552,"is_reserved":false,"is_disabled":false,"rental_uris":{"android":"levelo://app?vid=b2abf11b-3676-42fa-b7ae-566f17d83066","ios":"levelo://app?vid=b2abf11b-3676-42fa-b7ae-566f17d83066"},"vehicle_type_id":"4","last_reported":1731060589,"current_range_meters":37600,"station_id":"ce4bhq92rcd13ifvqhkg","pricing_plan_id":"cebpf4jnsgd1na2vs0mg"},{"bike_id":"a1c19c6a-4fac-4951-857d-6a42ce63ea62","system_id":"levelo_inurba_marseille","lat":43.3014,"lon":5.37413,"is_reserved":false,"is_disabled":false,"rental_uris":{"android":"levelo://app?vid=a1c19c6a-4fac-4951-857d-6a42ce63ea62","ios":"levelo://app?vid=a1c19c6a-4fac-4951-857d-6a42ce63ea62"},"vehicle_type_id":"4","last_reported":1731060589,"current_range_meters":24000,"station_id":"ce4bgs92rcd13ifvqcc0","pricing_plan_id":"cebpf4jnsgd1na2vs0mg"},