{"last_updated":1729390730,"ttl":60,"version":"2.2","data":{"bikes":[{"bike_id":"834fec7b-d4c0-427b-b877-186743eeea27","system_id":"levelo_inurba_marseille","lat":43.26949,"lon":5.38635,"is_reserved":false,"is_disabled":false,"rental_uris":{"android":"levelo://app?vid=834fec7b-d4c0-427b-b877-186743eeea27","ios":"levelo://app?vid=834fec7b-d4c0-427b-b877-186743eeea27"},"vehicle_type_id":"4","last_reported":1729390731,"current_range_meters":38400,"station_id":"ce4bhh92rcd13ifvqfh0","pricing_plan_id":"cebpf4jnsgd1na2vs0mg"},{"bike_id":"4e48fe99-a3b8-424e-8829-620aa30b499f","system_id":"levelo_inurba_marseille","lat":43.3088,"lon":5.39627,"is_reserved":false,"is_disabled":false,"rental_uris":{"android":"levelo://app?vid=4e48fe99-a3b8-424e-8829-620aa30b499f","ios":"levelo://app?vid=4e48fe99-a3b8-424e-8829-620aa30b499f"},"vehicle_type_id":"4","last_reported":1729390731,"current_range_meters":36000,"station_id":"ce4bh012rcd13ifvqcv0","pricing_plan_id":"cebpf4jnsgd1na2vs0mg"},{"bike_id":"9b9a7cfe-944f-49a6-84c3-af9eec72cacc","system_id":"levelo_inurba_marseille","lat":43.31117,"lon":5.37767,"is_reserved":false,"is_disabled":false,"rental_uris":{"android":"levelo://app?vid=9b9a7cfe-944f-49a6-84c3-af9eec72cacc","ios":"levelo://app?vid=9b9a7cfe-944f-49a6-84c3-af9eec72cacc"},"vehicle_type_id":"4","last_reported":1729390731,"current_range_meters":22400,"station_id":"ce4bgt92rcd13ifvqcg0","pricing_plan_id":"cebpf4jnsgd1na2vs0mg"},{"bike_id":"df86998d-357d-47e9-87ef-3777f8db6a4a","system_id":"levelo_inurba_marseille","lat":43.30806,"lon":5.43519,"is_reserved":false,"is_disabled":false,"rental_uris":{"android":"levelo://app?vid=df86998d-357d-47e9-87ef-3777f8db6a4a","ios":"levelo://app?vid=df86998d-357d-47e9-87ef-3777f8db6a4a"},"vehicle_type_id":"4","last_reported":1729390731,"current_range_meters":16000,"station_id":"ce4bhph2rcd13ifvqheg","pricing_plan_id":"cebpf4jnsgd1na2vs0mg"},{"bike_id":"fd765641-ae82-4334-aaff-fe1a1e085919","system_id":"levelo_inurba_marseille","lat":43.28724,"lon":5.37928,"is_reserved":false,"is_disabled":false,"rental_uris":{"android":"levelo://app?vid=fd765641-ae82-4334-aaff-fe1a1e085919","ios":"levelo://app?vid=fd765641-ae82-4334-aaff-fe1a1e085919"},"vehicle_type_id":"4","last_reported":1729390731,"current_range_meters":38800,"station_id":"ce4bh9p2rcd13ifvqec0","pricing_plan_id":"cebpf4jnsgd1na2vs0mg"},{"bike_id":"dffa0817-8664-41e5-901d-7664a9492d1c","system_id":"levelo_inurba_marseille","lat":43.32051,"lon":5.41565,"is_reserved":false,"is_disabled":false,"rental_uris":{"android":"levelo://app?vid=dffa0817-8664-41e5-901d-7664a9492d1c","ios":"levelo://app?vid=dffa0817-8664-41e5-901d-7664a9492d1c"},"vehicle_type_id":"4","last_reported":1729390731,"current_range_meters":38800,"station_id":"ce4bhq92rcd13ifvqhkg","pricing_plan_id":"cebpf4jnsgd1na2vs0mg"},{"bike_id":"9b720767-01f9-43e0-97e9-3a90a402ffce","system_id":"levelo_inurba_marseille","lat":43.28831,"lon":5.3586,"is_reserved":false,"is_disabled":false,"rental_uris":{"android":"levelo://app?vid=9b720767-01f9-43e0-97e9-3a90a402ffce","ios":"levelo://app?vid=9b720767-01f9-43e0-97e9-3a90a402ffce"},"vehicle_type_id":"4","last_reported":1729390731,"current_range_meters":38000,"station_id":"ce4bhb12rcd13ifvqem0","pricing_plan_id":"cebpf4jnsgd1na2vs0mg"},{"bike_id":"cc7efa44-13df-4e12-a405-4e45667f6687","system_id":"levelo_inurba_marseille","lat":43.31119,"lon":5.3777,"is_reserved":false,"is_disabled":false,"rental_uris":{"android":"levelo://app?vid=cc7efa44-13df-4e12-a405-4e45667f6687","ios":"levelo://app?vid=cc7efa44-13df-4e12-a405-4e45667f6687"},"vehicle_type_id":"4","last_reported":1729390731,"current_range_meters":38800,"station_id":"ce4bgt92rcd13ifvqcg0","pricing_plan_id":"cebpf4jnsgd1na2vs0mg"},{"bike_id":"fe93bfb2-7aeb-4c17-8248-6549ba71e9ff","system_id":"levelo_inurba_marseille","lat":43.28272,"lon":5.35072,"is_reserved":false,"is_disabled":false,"rental_uris":{"android":"levelo://app?vid=fe93bfb2-7aeb-4c17-8248-6549ba71e9ff","ios":"levelo://app?vid=fe93bfb2-7aeb-4c17-8248-6549ba71e9ff"},"vehicle_type_id":"4","last_reported":1729390731,"current_range_meters":38800,"station_id":"ce4bhbp2rcd13ifvqerg","pricing_plan_id":"cebpf4jnsgd1na2vs0mg"},{"bike_id":"80c3c568-3aff-44e9-89ed-0b394b6cfe85","system_id":"levelo_inurba_marseille","lat":43.27985,"lon":5.4001,"is_reserved":false,"is_disabled":false,"rental_uris":{"android":"levelo://app?vid=80c3c568-3aff-44e9-89ed-0b394b6cfe85","ios":"levelo://app?vid=80c3c568-3aff-44e9-89ed-0b394b6cfe85"},"vehicle_type_id":"4","last_reported":1729390731,"current_range_meters":11200,"station_id":"ce4bho92rcd13ifvqh4g","pricing_plan_id":"cebpf4jnsgd1na2vs0mg"},{"bike_id":"d442fc99-60f2-4b9e-b8c4-89c48d40c996","system_id":"levelo_inurba_marseille","lat":43.28615,"lon":5.35097,"is_reserved":false,"is_disabled":false,"rental_uris":{"android":"levelo://app?vid=d442fc99-60f2-4b9e-b8c4-89c48d40c996","ios":"levelo://app?vid=d442fc99-60f2-4b9e-b8c4-89c48d40c996"},"vehicle_type_id":"4","last_reported":1729390731,"current_range_meters":27600,"station_id":"ce4bhch2rcd13ifvqeug","pricing_plan_id":"cebpf4jnsgd1na2vs0mg"},{"bike_id":"f35b4149-9686-4e35-b2f2-05813ac856cd","system_id":"levelo_inurba_marseille","lat":43.31375,"lon":5.38495,"is_reserved":false,"is_disabled":false,"rental_uris":{"android":"levelo://app?vid=f35b4149-9686-4e35-b2f2-05813ac856cd","ios":"levelo://app?vid=f35b4149-9686-4e35-b2f2-05813ac856cd"},"vehicle_type_id":"4","last_reported":1729390731,"current_range_meters":14000,"station_id":"ce4bgt92rcd13ifvqcf0","pricing_plan_id":"cebpf4jnsgd1na2vs0mg"},{"bike_id":"814a8b4c-43f0-4f31-87f7-0f70c081bccd","system_id":"levelo_inurba_marseille","lat":43.24801,"lon":5.37453,"is_reserved":false,"is_disabled":false,"rental_uris":{"android":"levelo://app?vid=814a8b4c-43f0-4f31-87f7-0f70c081bccd","ios":"levelo://app?vid=814a8b4c-43f0-4f31-87f7-0f70c081bccd"},"vehicle_type_id":"4","last_reported":1729390731,"current_range_meters":38800,"station_id":"ce4bhgh2rcd13ifvqfb0","pricing_plan_id":"cebpf4jnsgd1na2vs0mg"},{"bike_id":"5e263c45-2458-4cee-8579-99ae4422c20a","system_id":"levelo_inurba_marseille","lat":43.28469,"lon":5.35883,"is_reserved":false,"is_disabled":false,"rental_uris":{"android":"levelo://app?vid=5e263c45-2458-4cee-8579-99ae4422c20a","ios":"levelo://app?vid=5e263c45-2458-4cee-8579-99ae4422c20a"},"vehicle_type_id":"4","last_reported":1729390731,"current_range_meters":37600,"station_id":"ce4bhah2rcd13ifvqei0","pricing_plan_id":"cebpf4jnsgd1na2vs0mg"},{"bike_id":"1d123306-76de-4e99-b18a-f2b54d4716f7","system_id":"levelo_inurba_marseille","lat":43.32326,"lon":5.40604,"is_reserved":false,"is_disabled":false,"rental_uris":{"android":"levelo://app?vid=1d123306-76de-4e99-b18a-f2b54d4716f7","ios":"levelo://app?vid=1d123306-76de-4e99-b18a-f2b54d4716f7"},"vehicle_type_id":"4","last_reported":1729390731,"current_range_meters":18800,"station_id":"ce4bhq92rcd13ifvqhjg","pricing_plan_id":"cebpf4jnsgd1na2vs0mg"},{"bike_id":"e0879c3f-10eb-4d3b-8053-605cb1c6310c","system_id":"levelo_inurba_marseille","lat":43.26072,"lon":5.39392,"is_reserved":false,"is_disabled":false,"rental_uris":{"android":"levelo://app?vid=e0879c3f-10eb-4d3b-8053-605cb1c6310c","ios":"levelo://app?vid=e0879c3f-10eb-4d3b-8053-605cb1c6310c"},"vehicle_type_id":"4","last_reported":1729390731,"current_range_meters":23200,"station_id":"ce4bhh92rcd13ifvqfj0","pricing_plan_id":"cebpf4jnsgd1na2vs0mg"},{"bike_id":"5670cc1a-3b42-4baf-84dd-24fbe4175a33","system_id":"levelo_inurba_marseille","lat":43.30809,"lon":5.38123,"is_reserved":false,"is_disabled":false,"rental_uris":{"android":"levelo://app?vid=5670cc1a-3b42-4baf-84dd-24fbe4175a33","ios":"levelo://app?vid=5670cc1a-3b42-4baf-84dd-24fbe4175a33"},"vehicle_type_id":"4","last_reported":1729390731,"current_range_meters":9200,"station_id":"ce4bgt12rcd13ifvqce0","pricing_plan_id":"cebpf4jnsgd1na2vs0mg"},{"bike_id":"3fedbfb3-463a-4256-aba8-affb5beeac5f","system_id":"levelo_inurba_marseille","lat":43.28933,"lon":5.36636,"is_reserved":false,"is_disabled":false,"rental_uris":{"android":"levelo://app?vid=3fedbfb3-463a-4256-aba8-affb5beeac5f","ios":"levelo://app?vid=3fedbfb3-463a-4256-aba8-affb5beeac5f"},"vehicle_type_id":"4","last_reported":1729390731,"current_range_meters":22400,"station_id":"ce4bhap2rcd13ifvqek0","pricing_plan_id":"cebpf4jnsgd1na2vs0mg"},{"bike_id":"a9128e19-daf5-4e1f-b719-f7b1a144d711","system_id":"levelo_inurba_marseille","lat":43.33729,"lon":5.39189,"is_reserved":false,"is_disabled":false,"rental_uris":{"android":"levelo://app?vid=a9128e19-daf5-4e1f-b719-f7b1a144d711","ios":"levelo://app?vid=a9128e19-daf5-4e1f-b719-f7b1a144d711"},"vehicle_type_id":"4","last_reported":1729390731,"current_range_meters":38000,"station_id":"ce4bhr92rcd13ifvqhsg","pricing_plan_id":"cebpf4jnsgd1na2vs0mg"},{"bike_id":"6ce775c4-02cf-418d-8d4a-b7d83d4820f9","system_id":"levelo_inurba_marseille","lat":43.26935,"lon":5.40258,"is_reserved":false,"is_disabled":false,"rental_uris":{"android":"levelo://app?vid=6ce775c4-02cf-418d-8d4a-b7d83d4820f9","ios":"levelo://app?vid=6ce775c4-02cf-418d-8d4a-b7d83d4820f9"},"vehicle_type_id":"4","last_reported":1729390731,"current_range_meters":38800,"station_id":"cjm6bp8fraef2m0cb0m0","pricing_plan_id":"cebpf4jnsgd1na2vs0mg"},{"bike_id":"242beb0c-c32e-4812-9282-bd3ad5aa67aa","system_id":"levelo_inurba_marseille","lat":43.27946,"lon":5.41047,"is_reserved":false,"is_disabled":false,"rental_uris":{"android":"levelo://app?vid=242beb0c-c32e-4812-9282-bd3ad5aa67aa","ios":"levelo://app?vid=242beb0c-c32e-4812-9282-bd3ad5aa67aa"},"vehicle_type_id":"4","last_reported":1729390731,"current_range_meters":24400,"station_id":"ce4bhnp2rcd13ifvqh0g","pricing_plan_id":"cebpf4jnsgd1na2vs0mg"},{"bike_id":"3c542d24-c53e-4899-8c72-748e72210bc5","system_id":"levelo_inurba_marseille","lat":43.22924,"lon":5.35383,"is_reserved":false,"is_disabled":false,"rental_uris":{"android":"levelo://app?vid=3c542d24-c53e-4899-8c72-748e72210bc5","ios":"levelo://app?vid=3c542d24-c53e-4899-8c72-748e72210bc5"},"vehicle_type_id":"4","last_reported":1729390731,"current_range_meters":38800,"station_id":"cpo3532slgdg3j2ikp40","pricing_plan_id":"cebpf4jnsgd1na2vs0mg"},{"bike_id":"9cbb511e-f89c-44db-8723-f9f338233573","system_id":"levelo_inurba_marseille","lat":43.25007,"lon":5.38934,"is_reserved":false,"is_disabled":false,"rental_uris":{"android":"levelo://app?vid=9cbb511e-f89c-44db-8723-f9f338233573","ios":"levelo://app?vid=9cbb511e-f89c-44db-8723-f9f338233573"},"vehicle_type_id":"4","last_reported":1729390731,"current_range_meters":38800,"station_id":"ce4bhgp2rcd13ifvqfd0","pricing_plan_id":"cebpf4jnsgd1na2vs0mg"},{"bike_id":"1e1137d6-f6bf-499e-9ccf-0a40cee1b32b","system_id":"levelo_inurba_marseille","lat":43.24072,"lon":5.37748,"is_reserved":false,"is_disabled":false,"rental_uris":{"android":"levelo://app?vid=1e1137d6-f6bf-499e-9ccf-0a40cee1b32b","ios":"levelo://app?vid=1e1137d6-f6bf-499e-9ccf-0a40cee1b32b"},"vehicle_type_id":"4","last_reported":1729390731,"current_range_meters":28400,"station_id":"ce4bhnp2rcd13ifvqgvg","pricing_plan_id":"cebpf4jnsgd1na2vs0mg"},{"bike_id":"f7c0932d-ef62-4ed9-a8ec-4ea2294260c5","system_id":"levelo_inurba_marseille","lat":43.25721,"lon":5.41101,"is_reserved":false,"is_disabled":false,"rental_uris":{"android":"levelo://app?vid=f7c0932d-ef62-4ed9-a8ec-4ea2294260c5","ios":"levelo://app?vid=f7c0932d-ef62-4ed9-a8ec-4ea2294260c5"},"vehicle_type_id":"4","last_reported":1729390731,"current_range_meters":16800,"station_id":"ce4bhkp2rcd13ifvqgd0","pricing_plan_id":"cebpf4jnsgd1na2vs0mg"},{"bike_id":"048efadc-285b-4323-a781-bd6c372c6495","system_id":"levelo_inurba_marseille","lat":43.29546,"lon":5.42275,"is_reserved":false,"is_disabled":false,"rental_uris":{"android":"levelo://app?vid=048efadc-285b-4323-a781-bd6c372c6495","ios":"levelo://app?vid=048efadc-285b-4323-a781-bd6c372c6495"},"vehicle_type_id":"4","last_reported":1729390731,"current_range_meters":38800,"station_id":"ce4bhph2rcd13ifvqhdg","pricing_plan_id":"cebpf4jnsgd1na2vs0mg"},{"bike_id":"481cffd0-bd3a-4827-9e2c-2ef60f9d0829","system_id":"levelo_inurba_marseille","lat":43.28456,"lon":5.35906,"is_reserved":false,"is_disabled":false,"rental_uris":{"android":"levelo://app?vid=481cffd0-bd3a-4827-9e2c-2ef60f9d0829","ios":"levelo://app?vid=481cffd0-bd3a-4827-9e2c-2ef60f9d0829"},"vehicle_type_id":"4","last_reported":1729390731,"current_range_meters":25200,"station_id":"ce4bhah2rcd13ifvqei0","pricing_plan_id":"cebpf4jnsgd1na2vs0mg"},{"bike_id":"43ba7a1f-7371-4f25-a2ea-7d72f4cd049c","system_id":"levelo_inurba_marseille","lat":43.30464,"lon":5.37911,"is_reserved":false,"is_disabled":false,"rental_uris":{"android":"levelo://app?vid=43ba7a1f-7371-4f25-a2ea-7d72f4cd049c","ios":"levelo://app?vid=43ba7a1f-7371-4f25-a2ea-7d72f4cd049c"},"vehicle_type_id":"4","last_reported":1729390731,"current_range_meters":24400,"station_id":"ce4bgup2rcd13ifvqcn0","pricing_plan_id":"cebpf4jnsgd1na2vs0mg"},{"bike_id":"f002ff7c-8d7f-4b30-a59b-b17d6e6e6eba","system_id":"levelo_inurba_marseille","lat":43.32653,"lon":5.40987,"is_reserved":false,"is_disabled":false,"rental_uris":{"android":"levelo://app?vid=f002ff7c-8d7f-4b30-a59b-b17d6e6e6eba","ios":"levelo://app?vid=f002ff7c-8d7f-4b30-a59b-b17d6e6e6eba"},"vehicle_type_id":"4","last_reported":1729390731,"current_range_meters":12000,"station_id":"ce4bhpp2rcd13ifvqhgg","pricing_plan_id":"cebpf4jnsgd1na2vs0mg"},{"bike_id":"474ccd54-d884-4c48-ac27-1f7190ae4438","system_id":"levelo_inurba_marseille","lat":43.33719,"lon":5.39214,"is_reserved":false,"is_disabled":false,"rental_uris":{"android":"levelo://app?vid=474ccd54-d884-4c48-ac27-1f7190ae4438","ios":"levelo://app?vid=474ccd54-d884-4c48-ac27-1f7190ae4438"},"vehicle_type_id":"4","last_reported":1729390731,"current_range_meters":8800,"station_id":"ce4bhr92rcd13ifvqhsg","pricing_plan_id":"cebpf4jnsgd1na2vs0mg"},{"bike_id":"e07dac2c-5cff-4a50-b639-04e0bb7be902","system_id":"levelo_inurba_marseille","lat":43.28459,"lon":5.35889,"is_reserved":false,"is_disabled":false,"rental_uris":{"android":"levelo://app?vid=e07dac2c-5cff-4a50-b639-04e0bb7be902","ios":"levelo://app?vid=e07dac2c-5cff-4a50-b639-04e0bb7be902"},"vehicle_type_id":"4","last_reported":1729390731,"current_range_meters":38800,"station_id":"ce4bhah2rcd13ifvqei0","pricing_plan_id":"cebpf4jnsgd1na2vs0mg"},{"bike_id":"ca3a98fb-1eae-48f5-aca4-b718a35664a0","system_id":"levelo_inurba_marseille","lat":43.32337,"lon":5.40616,"is_reserved":false,"is_disabled":false,"rental_uris":{"android":"levelo://app?vid=ca3a98fb-1eae-48f5-aca4-b718a35664a0","ios":"levelo://app?vid=ca3a98fb-1eae-48f5-aca4-b718a35664a0"},"vehicle_type_id":"4","last_reported":1729390731,"current_range_meters":20400,"station_id":"ce4bhq92rcd13ifvqhjg","pricing_plan_id":"cebpf4jnsgd1na2vs0mg"},{"bike_id":"f75bac43-de1c-46ee-b029-720a38aa18a4","system_id":"levelo_inurba_marseille","lat":43.28618,"lon":5.35102,"is_reserved":false,"is_disabled":false,"rental_uris":{"android":"levelo://app?vid=f75bac43-de1c-46ee-b029-720a38aa18a4","ios":"levelo://app?vid=f75bac43-de1c-46ee-b029-720a38aa18a4"},"vehicle_type_id":"4","last_reported":1729390731,"current_range_meters":38400,"station_id":"ce4bhch2rcd13ifvqeug","pricing_plan_id":"cebpf4jnsgd1na2vs0mg"},{"bike_id":"c67f145f-7856-4a65-a534-a20609b9ebfe","system_id":"levelo_inurba_marseille","lat":43.30765,"lon":5.37642,"is_reserved":false,"is_disabled":false,"rental_uris":{"android":"levelo://app?vid=c67f145f-7856-4a65-a534-a20609b9ebfe","ios":"levelo://app?vid=c67f145f-7856-4a65-a534-a20609b9ebfe"},"vehicle_type_id":"4","last_reported":1729390731,"current_range_meters":38000,"station_id":"ce4bgv92rcd13ifvqcq0","pricing_plan_id":"cebpf4jnsgd1na2vs0mg"},{"bike_id":"736b8fa1-3177-4558-9d6e-81abc0207e97","system_id":"levelo_inurba_marseille","lat":43.27887,"lon":5.38009,"is_reserved":false,"is_disabled":false,"rental_uris":{"android":"levelo://app?vid=736b8fa1-3177-4558-9d6e-81abc0207e97","ios":"levelo://app?vid=736b8fa1-3177-4558-9d6e-81abc0207e97"},"vehicle_type_id":"4","last_reported":1729390731,"current_range_meters":19600,"station_id":"ce4bhf92rcd13ifvqf50","pricing_plan_id":"cebpf4jnsgd1na2vs0mg"},{"bike_id":"f3b69c34-10e7-4317-9526-21af752e0d86","system_id":"levelo_inurba_marseille","lat":43.27608,"lon":5.36124,"is_reserved":false,"is_disabled":false,"rental_uris":{"android":"levelo://app?vid=f3b69c34-10e7-4317-9526-21af752e0d86","ios":"levelo://app?vid=f3b69c34-10e7-4317-9526-21af752e0d86"},"vehicle_type_id":"4","last_reported":1729390731,"current_range_meters":38800,"station_id":"ce4bgj92rcd13ifvqbe0","pricing_plan_id":"cebpf4jnsgd1na2vs0mg"},{"bike_id":"45ceb560-a8c0-4a30-8f76-689582c39d38","system_id":"levelo_inurba_marseille","lat":43.30889,"lon":5.39627,"is_reserved":false,"is_disabled":false,"rental_uris":{"android":"levelo://app?vid=45ceb560-a8c0-4a30-8f76-689582c39d38","ios":"levelo://app?vid=45ceb560-a8c0-4a30-8f76-689582c39d38"},"vehicle_type_id":"4","last_reported":1729390731,"current_range_meters":16000,"station_id":"ce4bh012rcd13ifvqcv0","pricing_plan_id":"cebpf4jnsgd1na2vs0mg"},{"bike_id":"e3ef4e97-e3a9-4a73-b782-e2f3ed3ea67f","system_id":"levelo_inurba_marseille","lat":43.30259,"lon":5.40054,"is_reserved":false,"is_disabled":false,"rental_uris":{"android":"levelo://app?vid=e3ef4e97-e3a9-4a73-b782-e2f3ed3ea67f","ios":"levelo://app?vid=e3ef4e97-e3a9-4a73-b782-e2f3ed3ea67f"},"vehicle_type_id":"4","last_reported":1729390731,"current_range_meters":38800,"station_id":"ce4bgvh2rcd13ifvqcs0","pricing_plan_id":"cebpf4jnsgd1na2vs0mg"},{"bike_id":"b67c14b0-1a39-4758-b620-2bce6ef70e54","system_id":"levelo_inurba_marseille","lat":43.25085,"lon":5.39519,"is_reserved":false,"is_disabled":false,"rental_uris":{"android":"levelo://app?vid=b67c14b0-1a39-4758-b620-2bce6ef70e54","ios":"levelo://app?vid=b67c14b0-1a39-4758-b620-2bce6ef70e54"},"vehicle_type_id":"4","last_reported":1729390731,"current_range_meters":2800,"station_id":"ce4bhm12rcd13ifvqgkg","pricing_plan_id":"cebpf4jnsgd1na2vs0mg"},{"bike_id":"690f5f26-942a-4d52-9ba5-089c0859fd87","system_id":"levelo_inurba_marseille","lat":43.28698,"lon":5.37393,"is_reserved":false,"is_disabled":false,"rental_uris":{"android":"levelo://app?vid=690f5f26-942a-4d52-9ba5-089c0859fd87","ios":"levelo://app?vid=690f5f26-942a-4d52-9ba5-089c0859fd87"},"vehicle_type_id":"4","last_reported":1729390731,"current_range_meters":12800,"station_id":"ce4bh3p2rcd13ifvqdq0","pricing_plan_id":"cebpf4jnsgd1na2vs0mg"},{"bike_id":"d7138f37-e3d8-4f96-9018-f9ac23b28ce7","system_id":"levelo_inurba_marseille","lat":43.30453,"lon":5.38877,"is_reserved":false,"is_disabled":false,"rental_uris":{"android":"levelo://app?vid=d7138f37-e3d8-4f96-9018-f9ac23b28ce7","ios":"levelo://app?vid=d7138f37-e3d8-4f96-9018-f9ac23b28ce7"},"vehicle_type_id":"4","last_reported":1729390731,"current_range_meters":5600,"station_id":"ce4bgk12rcd13ifvqbi0","pricing_plan_id":"cebpf4jnsgd1na2vs0mg"},{"bike_id":"98f7b4ed-0d9f-453b-9176-41ebd99c3142","system_id":"levelo_inurba_marseille","lat":43.33602,"lon":5.4101,"is_reserved":false,"is_disabled":false,"rental_uris":{"android":"levelo://app?vid=98f7b4ed-0d9f-453b-9176-41ebd99c3142","ios":"levelo://app?vid=98f7b4ed-0d9f-453b-9176-41ebd99c3142"},"vehicle_type_id":"4","last_reported":1729390731,"current_range_meters":38800,"station_id":"ce4bhqh2rcd13ifvqhmg","pricing_plan_id":"cebpf4jnsgd1na2vs0mg"},{"bike_id":"d85aed35-4005-4c2e-863d-273016e09085","system_id":"levelo_inurba_marseille","lat":43.24393,"lon":5.37064,"is_reserved":false,"is_disabled":false,"rental_uris":{"android":"levelo://app?vid=d85aed35-4005-4c2e-863d-273016e09085","ios":"levelo://app?vid=d85aed35-4005-4c2e-863d-273016e09085"},"vehicle_type_id":"4","last_reported":1729390731,"current_range_meters":31200,"station_id":"ce4bhhh2rcd13ifvqfk0","pricing_plan_id":"cebpf4jnsgd1na2vs0mg"},{"bike_id":"a271bdd0-8735-4737-9887-7e1fad0a3b13","system_id":"levelo_inurba_marseille","lat":43.27579,"lon":5.38439,"is_reserved":false,"is_disabled":false,"rental_uris":{"android":"levelo://app?vid=a271bdd0-8735-4737-9887-7e1fad0a3b13","ios":"levelo://app?vid=a271bdd0-8735-4737-9887-7e1fad0a3b13"},"vehicle_type_id":"4","last_reported":1729390731,"current_range_meters":14400,"station_id":"ce4bhh92rcd13ifvqfi0","pricing_plan_id":"cebpf4jnsgd1na2vs0mg"},{"bike_id":"9fa7c963-2f9d-4588-8236-ff860a4358c6","system_id":"levelo_inurba_marseille","lat":43.27369,"lon":5.36239,"is_reserved":false,"is_disabled":false,"rental_uris":{"android":"levelo://app?vid=9fa7c963-2f9d-4588-8236-ff860a4358c6","ios":"levelo://app?vid=9fa7c963-2f9d-4588-8236-ff860a4358c6"},"vehicle_type_id":"4","last_reported":1729390731,"current_range_meters":38400,"station_id":"ce4bhbh2rcd13ifvqeo0","pricing_plan_id":"cebpf4jnsgd1na2vs0mg"},{"bike_id":"68ecf5b1-3e27-4073-bcfd-9b4d888b6f5c","system_id":"levelo_inurba_marseille","lat":43.32105,"lon":5.36811,"is_reserved":false,"is_disabled":false,"rental_uris":{"android":"levelo://app?vid=68ecf5b1-3e27-4073-bcfd-9b4d888b6f5c","ios":"levelo://app?vid=68ecf5b1-3e27-4073-bcfd-9b4d888b6f5c"},"vehicle_type_id":"4","last_reported":1729390731,"current_range_meters":38000,"station_id":"ce4bhrh2rcd13ifvqhug","pricing_plan_id":"cebpf4jnsgd1na2vs0mg"},{"bike_id":"289b0bcc-b64b-401a-b6bf-b24c6264c2b9","system_id":"levelo_inurba_marseille","lat":43.32563,"lon":5.41447,"is_reserved":false,"is_disabled":false,"rental_uris":{"android":"levelo://app?vid=289b0bcc-b64b-401a-b6bf-b24c6264c2b9","ios":"levelo://app?vid=289b0bcc-b64b-401a-b6bf-b24c6264c2b9"},"vehicle_type_id":"4","last_reported":1729390731,"current_range_meters":38800,"station_id":"ce4bhq12rcd13ifvqhhg","pricing_plan_id":"cebpf4jnsgd1na2vs0mg"},{"bike_id":"4a820fc7-d999-4fe8-a21b-2fb498d7cde6","system_id":"levelo_inurba_marseille","lat":43.29079,"lon":5.37179,"is_reserved":false,"is_disabled":false,"rental_uris":{"android":"levelo://app?vid=4a820fc7-d999-4fe8-a21b-2fb498d7cde6","ios":"levelo://app?vid=4a820fc7-d999-4fe8-a21b-2fb498d7cde6"},"vehicle_type_id":"4","last_reported":1729390731,"current_range_meters":24400,"station_id":"ce4bh5p2rcd13ifvqe4g","pricing_plan_id":"cebpf4jnsgd1na2vs0mg"},{"bike_id":"f7207608-1141-4390-a077-b1eca2449690","system_id":"levelo_inurba_marseille","lat":43.26201,"lon":5.37932,"is_reserved":false,"is_disabled":false,"rental_uris":{"android":"levelo://app?vid=f7207608-1141-4390-a077-b1eca2449690","ios":"levelo://app?vid=f7207608-1141-4390-a077-b1eca2449690"},"vehicle_type_id":"4","last_reported":1729390731,"current_range_meters":38000,"station_id":"ce4bhjp2rcd13ifvqg90","pricing_plan_id":"cebpf4jnsgd1na2vs0mg"},{"bike_id":"c383b0bc-8cf0-443d-964d-86062b4cbbef","system_id":"levelo_inurba_marseille","lat":43.28118,"lon":5.37844,"is_reserved":false,"is_disabled":false,"rental_uris":{"android":"levelo://app?vid=c383b0bc-8cf0-443d-964d-86062b4cbbef","ios":"levelo://app?vid=c383b0bc-8cf0-443d-964d-86062b4cbbef"},"vehicle_type_id":"4","last_reported":1729390731,"current_range_meters":37600,"station_id":"ce4bha12rcd13ifvqee0","pricing_plan_id":"cebpf4jnsgd1na2vs0mg"},{"bike_id":"ecb85f99-17b9-4bf1-829c-0f61a2cf1ee6","system_id":"levelo_inurba_marseille","lat":43.27994,"lon":5.41679,"is_reserved":false,"is_disabled":false,"rental_uris":{"android":"levelo://app?vid=ecb85f99-17b9-4bf1-829c-0f61a2cf1ee6","ios":"levelo://app?vid=ecb85f99-17b9-4bf1-829c-0f61a2cf1ee6"},"vehicle_type_id":"4","last_reported":1729390731,"current_range_meters":7200,"station_id":"ce4bho12rcd13ifvqh1g","pricing_plan_id":"cebpf4jnsgd1na2vs0mg"},{"bike_id":"d6705838-4779-4c07-bcd8-e488b02b05d4","system_id":"levelo_inurba_marseille","lat":43.30881,"lon":5.39644,"is_reserved":false,"is_disabled":false,"rental_uris":{"android":"levelo://app?vid=d6705838-4779-4c07-bcd8-e488b02b05d4","ios":"levelo://app?vid=d6705838-4779-4c07-bcd8-e488b02b05d4"},"vehicle_type_id":"4","last_reported":1729390731,"current_range_meters":36800,"station_id":"ce4bh012rcd13ifvqcv0","pricing_plan_id":"cebpf4jnsgd1na2vs0mg"},{"bike_id":"0ff9a694-224b-4754-9e30-c3bd7207b123","system_id":"levelo_inurba_marseille","lat":43.3064,"lon":5.40083,"is_reserved":false,"is_disabled":false,"rental_uris":{"android":"levelo://app?vid=0ff9a694-224b-4754-9e30-c3bd7207b123","ios":"levelo://app?vid=0ff9a694-224b-4754-9e30-c3bd7207b123"},"vehicle_type_id":"4","last_reported":1729390731,"current_range_meters":38800,"station_id":"ce4bh112rcd13ifvqda0","pricing_plan_id":"cebpf4jnsgd1na2vs0mg"},{"bike_id":"57dd0012-e7c2-43e3-90a1-087125ac63fa","system_id":"levelo_inurba_marseille","lat":43.33753,"lon":5.37454,"is_reserved":false,"is_disabled":false,"rental_uris":{"android":"levelo://app?vid=57dd0012-e7c2-43e3-90a1-087125ac63fa","ios":"levelo://app?vid=57dd0012-e7c2-43e3-90a1-087125ac63fa"},"vehicle_type_id":"4","last_reported":1729390731,"current_range_meters":36800,"station_id":"","pricing_plan_id":"cebpf4jnsgd1na2vs0mg"},{"bike_id":"d0c5a1c1-66a9-4933-b464-9142a7c2b7a1","system_id":"levelo_inurba_marseille","lat":43.28462,"lon":5.35894,"is_reserved":false,"is_disabled":false,"rental_uris":{"android":"levelo://app?vid=d0c5a1c1-66a9-4933-b464-9142a7c2b7a1","ios":"levelo://app?vid=d0c5a1c1-66a9-4933-b464-9142a7c2b7a1"},"vehicle_type_id":"4","last_reported":1729390731,"current_range_meters":28800,"station_id":"ce4bhah2rcd13ifvqei0","pricing_plan_id":"cebpf4jnsgd1na2vs0mg"},{"bike_id":"580fd143-444b-4424-b5bb-4b9e450f75b5","system_id":"levelo_inurba_marseille","lat":43.27939,"lon":5.41037,"is_reserved":false,"is_disabled":false,"rental_uris":{"android":"levelo://app?vid=580fd143-444b-4424-b5bb-4b9e450f75b5","ios":"levelo://app?vid=580fd143-444b-4424-b5bb-4b9e450f75b5"},"vehicle_type_id":"4","last_reported":1729390731,"current_range_meters":33200,"station_id":"ce4bhnp2rcd13ifvqh0g","pricing_plan_id":"cebpf4jnsgd1na2vs0mg"},{"bike_id":"6c1b64c9-0069-4446-9a35-0d7e9f31b0c9","system_id":"levelo_inurba_marseille","lat":43.30603,"lon":5.39367,"is_reserved":false,"is_disabled":false,"rental_uris":{"android":"levelo://app?vid=6c1b64c9-0069-4446-9a35-0d7e9f31b0c9","ios":"levelo://app?vid=6c1b64c9-0069-4446-9a35-0d7e9f31b0c9"},"vehicle_type_id":"4","last_reported":1729390731,"current_range_meters":38800,"station_id":"ce4bh0p2rcd13ifvqd80","pricing_plan_id":"cebpf4jnsgd1na2vs0mg"},{"bike_id":"1a6a4619-f26e-4970-b3c0-a933218f2e6c","system_id":"levelo_inurba_marseille","lat":43.30609,"lon":5.39354,"is_reserved":false,"is_disabled":false,"rental_uris":{"android":"levelo://app?vid=1a6a4619-f26e-4970-b3c0-a933218f2e6c","ios":"levelo://app?vid=1a6a4619-f26e-4970-b3c0-a933218f2e6c"},"vehicle_type_id":"4","last_reported":1729390731,"current_range_meters":6400,"station_id":"ce4bh0p2rcd13ifvqd80","pricing_plan_id":"cebpf4jnsgd1na2vs0mg"},{"bike_id":"e92b997a-b92a-43d3-8735-21181860b167","system_id":"levelo_inurba_marseille","lat":43.28736,"lon":5.36078,"is_reserved":false,"is_disabled":false,"rental_uris":{"android":"levelo://app?vid=e92b997a-b92a-43d3-8735-21181860b167","ios":"levelo://app?vid=e92b997a-b92a-43d3-8735-21181860b167"},"vehicle_type_id":"4","last_reported":1729390731,"current_range_meters":38800,"station_id":"cki0cbj6b192h4jlfktg","pricing_plan_id":"cebpf4jnsgd1na2vs0mg"},{"bike_id":"87bf93f4-30f4-4919-b5a1-039c7a95a8fa","system_id":"levelo_inurba_marseille","lat":43.29224,"lon":5.3607,"is_reserved":false,"is_disabled":false,"rental_uris":{"android":"levelo://app?vid=87bf93f4-30f4-4919-b5a1-039c7a95a8fa","ios":"levelo://app?vid=87bf93f4-30f4-4919-b5a1-039c7a95a8fa"},"vehicle_type_id":"4","last_reported":1729390731,"current_range_meters":38800,"station_id":"ce4bhbh2rcd13ifvqeqg","pricing_plan_id":"cebpf4jnsgd1na2vs0mg"},{"bike_id":"c07aa588-db55-4016-bbed-4511d4ffd744","system_id":"levelo_inurba_marseille","lat":43.2792,"lon":5.39592,"is_reserved":false,"is_disabled":false,"rental_uris":{"android":"levelo://app?vid=c07aa588-db55-4016-bbed-4511d4ffd744","ios":"levelo://app?vid=c07aa588-db55-4016-bbed-4511d4ffd744"},"vehicle_type_id":"4","last_reported":1729390731,"current_range_meters":16800,"station_id":"ce4bhf92rcd13ifvqf40","pricing_plan_id":"cebpf4jnsgd1na2vs0mg"},{"bike_id":"390c511b-54c3-4464-9557-2ac33896af8d","system_id":"levelo_inurba_marseille","lat":43.30934,"lon":5.40142,"is_reserved":false,"is_disabled":false,"rental_uris":{"android":"levelo://app?vid=390c511b-54c3-4464-9557-2ac33896af8d","ios":"levelo://app?vid=390c511b-54c3-4464-9557-2ac33896af8d"},"vehicle_type_id":"4","last_reported":1729390731,"current_range_meters":8000,"station_id":"ce4bgvp2rcd13ifvqct0","pricing_plan_id":"cebpf4jnsgd1na2vs0mg"},{"bike_id":"b30b616a-d9e9-4a64-8666-6a9ecbb10e70","system_id":"levelo_inurba_marseille","lat":43.31171,"lon":5.38723,"is_reserved":false,"is_disabled":false,"rental_uris":{"android":"levelo://app?vid=b30b616a-d9e9-4a64-8666-6a9ecbb10e70","ios":"levelo://app?vid=b30b616a-d9e9-4a64-8666-6a9ecbb10e70"},"vehicle_type_id":"4","last_reported":1729390731,"current_range_meters":24400,"station_id":"ce4bgv12rcd13ifvqcp0","pricing_plan_id":"cebpf4jnsgd1na2vs0mg"},{"bike_id":"970ce056-93b7-4b51-889b-8fcf2f52c05f","system_id":"levelo_inurba_marseille","lat":43.24538,"lon":5.39525,"is_reserved":false,"is_disabled":false,"rental_uris":{"android":"levelo://app?vid=970ce056-93b7-4b51-889b-8fcf2f52c05f","ios":"levelo://app?vid=970ce056-93b7-4b51-889b-8fcf2f52c05f"},"vehicle_type_id":"4","last_reported":1729390731,"current_range_meters":8800,"station_id":"ce4bhlp2rcd13ifvqgjg","pricing_plan_id":"cebpf4jnsgd1na2vs0mg"},{"bike_id":"5d1f039e-663b-4cac-b00a-0cacc8a50d1f","system_id":"levelo_inurba_marseille","lat":43.30208,"lon":5.4004,"is_reserved":false,"is_disabled":false,"rental_uris":{"android":"levelo://app?vid=5d1f039e-663b-4cac-b00a-0cacc8a50d1f","ios":"levelo://app?vid=5d1f039e-663b-4cac-b00a-0cacc8a50d1f"},"vehicle_type_id":"4","last_reported":1729390731,"current_range_meters":26800,"station_id":"ce4bgvh2rcd13ifvqcs0","pricing_plan_id":"cebpf4jnsgd1na2vs0mg"},{"bike_id":"e97fcdb5-1961-42b4-a125-c53d570f0136","system_id":"levelo_inurba_marseille","lat":43.27918,"lon":5.3958,"is_reserved":false,"is_disabled":false,"rental_uris":{"android":"levelo://app?vid=e97fcdb5-1961-42b4-a125-c53d570f0136","ios":"levelo://app?vid=e97fcdb5-1961-42b4-a125-c53d570f0136"},"vehicle_type_id":"4","last_reported":1729390731,"current_range_meters":38800,"station_id":"ce4bhf92rcd13ifvqf40","pricing_plan_id":"cebpf4jnsgd1na2vs0mg"},{"bike_id":"15457e02-be63-4540-b04b-3c83aef4b40d","system_id":"levelo_inurba_marseille","lat":43.25114,"lon":5.40322,"is_reserved":false,"is_disabled":false,"rental_uris":{"android":"levelo://app?vid=15457e02-be63-4540-b04b-3c83aef4b40d","ios":"levelo://app?vid=15457e02-be63-4540-b04b-3c83aef4b40d"},"vehicle_type_id":"4","last_reported":1729390731,"current_range_meters":27600,"station_id":"ce4bhlh2rcd13ifvqgig","pricing_plan_id":"cebpf4jnsgd1na2vs0mg"},{"bike_id":"893c94b8-c21b-40d9-85f1-33c5a377e6a0","system_id":"levelo_inurba_marseille","lat":43.27945,"lon":5.41048,"is_reserved":false,"is_disabled":false,"rental_uris":{"android":"levelo://app?vid=893c94b8-c21b-40d9-85f1-33c5a377e6a0","ios":"levelo://app?vid=893c94b8-c21b-40d9-85f1-33c5a377e6a0"},"vehicle_type_id":"4","last_reported":1729390731,"current_range_meters":38800,"station_id":"ce4bhnp2rcd13ifvqh0g","pricing_plan_id":"cebpf4jnsgd1na2vs0mg"},{"bike_id":"a533abe5-dac1-401a-9d02-f2c113b84f4f","system_id":"levelo_inurba_marseille","lat":43.28905,"lon":5.36391,"is_reserved":false,"is_disabled":false,"rental_uris":{"android":"levelo://app?vid=a533abe5-dac1-401a-9d02-f2c113b84f4f","ios":"levelo://app?vid=a533abe5-dac1-401a-9d02-f2c113b84f4f"},"vehicle_type_id":"4","last_reported":1729390731,"current_range_meters":39200,"station_id":"ce4bhc92rcd13ifvqetg","pricing_plan_id":"cebpf4jnsgd1na2vs0mg"},{"bike_id":"e8b3df60-01e0-45e7-8b61-61d52e175cbb","system_id":"levelo_inurba_marseille","lat":43.28108,"lon":5.37839,"is_reserved":false,"is_disabled":false,"rental_uris":{"android":"levelo://app?vid=e8b3df60-01e0-45e7-8b61-61d52e175cbb","ios":"levelo://app?vid=e8b3df60-01e0-45e7-8b61-61d52e175cbb"},"vehicle_type_id":"4","last_reported":1729390731,"current_range_meters":38400,"station_id":"ce4bha12rcd13ifvqee0","pricing_plan_id":"cebpf4jnsgd1na2vs0mg"},{"bike_id":"b88b0471-3e76-49b0-9ff7-c71e4fc07cd2","system_id":"levelo_inurba_marseille","lat":43.26556,"lon":5.3903,"is_reserved":false,"is_disabled":false,"rental_uris":{"android":"levelo://app?vid=b88b0471-3e76-49b0-9ff7-c71e4fc07cd2","ios":"levelo://app?vid=b88b0471-3e76-49b0-9ff7-c71e4fc07cd2"},"vehicle_type_id":"4","last_reported":1729390731,"current_range_meters":38800,"station_id":"ce4bhe12rcd13ifvqf30","pricing_plan_id":"cebpf4jnsgd1na2vs0mg"},{"bike_id":"3fc3344c-8b02-4a3d-b256-2e7a5003b4bf","system_id":"levelo_inurba_marseille","lat":43.23965,"lon":5.36637,"is_reserved":false,"is_disabled":false,"rental_uris":{"android":"levelo://app?vid=3fc3344c-8b02-4a3d-b256-2e7a5003b4bf","ios":"levelo://app?vid=3fc3344c-8b02-4a3d-b256-2e7a5003b4bf"},"vehicle_type_id":"4","last_reported":1729390731,"current_range_meters":14400,"station_id":"ce4bhi12rcd13ifvqfp0","pricing_plan_id":"cebpf4jnsgd1na2vs0mg"},{"bike_id":"d0b74b4c-87c9-4924-85a0-970b3e238c13","system_id":"levelo_inurba_marseille","lat":43.29549,"lon":5.42282,"is_reserved":false,"is_disabled":false,"rental_uris":{"android":"levelo://app?vid=d0b74b4c-87c9-4924-85a0-970b3e238c13","ios":"levelo://app?vid=d0b74b4c-87c9-4924-85a0-970b3e238c13"},"vehicle_type_id":"4","last_reported":1729390731,"current_range_meters":34000,"station_id":"ce4bhph2rcd13ifvqhdg","pricing_plan_id":"cebpf4jnsgd1na2vs0mg"},{"bike_id":"0103d991-d4c1-4c09-a065-a327f8a61de2","system_id":"levelo_inurba_marseille","lat":43.30787,"lon":5.37653,"is_reserved":false,"is_disabled":false,"rental_uris":{"android":"levelo://app?vid=0103d991-d4c1-4c09-a065-a327f8a61de2","ios":"levelo://app?vid=0103d991-d4c1-4c09-a065-a327f8a61de2"},"vehicle_type_id":"4","last_reported":1729390731,"current_range_meters":19200,"station_id":"ce4bgv92rcd13ifvqcq0","pricing_plan_id":"cebpf4jnsgd1na2vs0mg"},{"bike_id":"230ce3e2-f4e6-4365-860a-10bc66e45cc0","system_id":"levelo_inurba_marseille","lat":43.24678,"lon":5.3814,"is_reserved":false,"is_disabled":false,"rental_uris":{"android":"levelo://app?vid=230ce3e2-f4e6-4365-860a-10bc66e45cc0","ios":"levelo://app?vid=230ce3e2-f4e6-4365-860a-10bc66e45cc0"},"vehicle_type_id":"4","last_reported":1729390731,"current_range_meters":38400,"station_id":"ce4bhih2rcd13ifvqfr0","pricing_plan_id":"cebpf4jnsgd1na2vs0mg"},{"bike_id":"6cf6e3f2-d67f-4577-85be-79bfa89d8097","system_id":"levelo_inurba_marseille","lat":43.2843,"lon":5.35904,"is_reserved":false,"is_disabled":false,"rental_uris":{"android":"levelo://app?vid=6cf6e3f2-d67f-4577-85be-79bfa89d8097","ios":"levelo://app?vid=6cf6e3f2-d67f-4577-85be-79bfa89d8097"},"vehicle_type_id":"4","last_reported":1729390731,"current_range_meters":38800,"station_id":"ce4bhah2rcd13ifvqei0","pricing_plan_id":"cebpf4jnsgd1na2vs0mg"},{"bike_id":"eebe0e24-0f4d-4bb8-8747-b2774ddf6874","system_id":"levelo_inurba_marseille","lat":43.25079,"lon":5.39513,"is_reserved":false,"is_disabled":false,"rental_uris":{"android":"levelo://app?vid=eebe0e24-0f4d-4bb8-8747-b2774ddf6874","ios":"levelo://app?vid=eebe0e24-0f4d-4bb8-8747-b2774ddf6874"},"vehicle_type_id":"4","last_reported":1729390731,"current_range_meters":39200,"station_id":"ce4bhm12rcd13ifvqgkg","pricing_plan_id":"cebpf4jnsgd1na2vs0mg"},{"bike_id":"e2198d75-ec0b-45d7-b6f6-08bbbe60882a","system_id":"levelo_inurba_marseille","lat":43.3299,"lon":5.39022,"is_reserved":false,"is_disabled":false,"rental_uris":{"android":"levelo://app?vid=e2198d75-ec0b-45d7-b6f6-08bbbe60882a","ios":"levelo://app?vid=e2198d75-ec0b-45d7-b6f6-08bbbe60882a"},"vehicle_type_id":"4","last_reported":1729390731,"current_range_meters":38800,"station_id":"ce4bhr92rcd13ifvqhrg","pricing_plan_id":"cebpf4jnsgd1na2vs0mg"},{"bike_id":"b94553dc-a9da-44dd-9399-4bb8cab4f952","system_id":"levelo_inurba_marseille","lat":43.31507,"lon":5.37292,"is_reserved":false,"is_disabled":false,"rental_uris":{"android":"levelo://app?vid=b94553dc-a9da-44dd-9399-4bb8cab4f952","ios":"levelo://app?vid=b94553dc-a9da-44dd-9399-4bb8cab4f952"},"vehicle_type_id":"4","last_reported":1729390731,"current_range_meters":38800,"station_id":"ce4bgt12rcd13ifvqcd0","pricing_plan_id":"cebpf4jnsgd1na2vs0mg"},{"bike_id":"e3b6f8d6-715d-433b-8ab0-718ff6b21ad1","system_id":"levelo_inurba_marseille","lat":43.27067,"lon":5.42272,"is_reserved":false,"is_disabled":false,"rental_uris":{"android":"levelo://app?vid=e3b6f8d6-715d-433b-8ab0-718ff6b21ad1","ios":"levelo://app?vid=e3b6f8d6-715d-433b-8ab0-718ff6b21ad1"},"vehicle_type_id":"4","last_reported":1729390731,"current_range_meters":8800,"station_id":"ce4bhk92rcd13ifvqgb0","pricing_plan_id":"cebpf4jnsgd1na2vs0mg"},{"bike_id":"fca55886-769e-4104-8bc2-0030b8dbff79","system_id":"levelo_inurba_marseille","lat":43.2406,"lon":5.3771,"is_reserved":false,"is_disabled":false,"rental_uris":{"android":"levelo://app?vid=fca55886-769e-4104-8bc2-0030b8dbff79","ios":"levelo://app?vid=fca55886-769e-4104-8bc2-0030b8dbff79"},"vehicle_type_id":"4","last_reported":1729390731,"current_range_meters":38800,"station_id":"ce4bhnp2rcd13ifvqgvg","pricing_plan_id":"cebpf4jnsgd1na2vs0mg"},{"bike_id":"6bd60844-0daf-48b6-b3fe-59f881da13ca","system_id":"levelo_inurba_marseille","lat":43.32484,"lon":5.36571,"is_reserved":false,"is_disabled":false,"rental_uris":{"android":"levelo://app?vid=6bd60844-0daf-48b6-b3fe-59f881da13ca","ios":"levelo://app?vid=6bd60844-0daf-48b6-b3fe-59f881da13ca"},"vehicle_type_id":"4","last_reported":1729390731,"current_range_meters":38800,"station_id":"ce4bhs12rcd13ifvqhvg","pricing_plan_id":"cebpf4jnsgd1na2vs0mg"},{"bike_id":"35e7f867-368c-476c-a860-684a9be05389","system_id":"levelo_inurba_marseille","lat":43.26567,"lon":5.39017,"is_reserved":false,"is_disabled":false,"rental_uris":{"android":"levelo://app?vid=35e7f867-368c-476c-a860-684a9be05389","ios":"levelo://app?vid=35e7f867-368c-476c-a860-684a9be05389"},"vehicle_type_id":"4","last_reported":1729390731,"current_range_meters":36400,"station_id":"ce4bhe12rcd13ifvqf30","pricing_plan_id":"cebpf4jnsgd1na2vs0mg"},{"bike_id":"25ab302b-1201-45e2-9143-4ec4ea699a05","system_id":"levelo_inurba_marseille","lat":43.27939,"lon":5.39598,"is_reserved":false,"is_disabled":false,"rental_uris":{"android":"levelo://app?vid=25ab302b-1201-45e2-9143-4ec4ea699a05","ios":"levelo://app?vid=25ab302b-1201-45e2-9143-4ec4ea699a05"},"vehicle_type_id":"4","last_reported":1729390731,"current_range_meters":22400,"station_id":"ce4bhf92rcd13ifvqf40","pricing_plan_id":"cebpf4jnsgd1na2vs0mg"},{"bike_id":"98c72085-a267-4e25-82a8-7cad096f4563","system_id":"levelo_inurba_marseille","lat":43.30459,"lon":5.37897,"is_reserved":false,"is_disabled":false,"rental_uris":{"android":"levelo://app?vid=98c72085-a267-4e25-82a8-7cad096f4563","ios":"levelo://app?vid=98c72085-a267-4e25-82a8-7cad096f4563"},"vehicle_type_id":"4","last_reported":1729390731,"current_range_meters":18000,"station_id":"ce4bgup2rcd13ifvqcn0","pricing_plan_id":"cebpf4jnsgd1na2vs0mg"},{"bike_id":"d9924d9a-3ffb-4166-8795-96d1e1801940","system_id":"levelo_inurba_marseille","lat":43.25008,"lon":5.38932,"is_reserved":false,"is_disabled":false,"rental_uris":{"android":"levelo://app?vid=d9924d9a-3ffb-4166-8795-96d1e1801940","ios":"levelo://app?vid=d9924d9a-3ffb-4166-8795-96d1e1801940"},"vehicle_type_id":"4","last_reported":1729390731,"current_range_meters":38800,"station_id":"ce4bhgp2rcd13ifvqfd0","pricing_plan_id":"cebpf4jnsgd1na2vs0mg"},{"bike_id":"d234dac7-4ce3-4348-b72f-a62abb04355c","system_id":"levelo_inurba_marseille","lat":43.27909,"lon":5.39579,"is_reserved":false,"is_disabled":false,"rental_uris":{"android":"levelo://app?vid=d234dac7-4ce3-4348-b72f-a62abb04355c","ios":"levelo://app?vid=d234dac7-4ce3-4348-b72f-a62abb04355c"},"vehicle_type_id":"4","last_reported":1729390731,"current_range_meters":12000,"station_id":"ce4bhf92rcd13ifvqf40","pricing_plan_id":"cebpf4jnsgd1na2vs0mg"},{"bike_id":"83f2dbb8-5f53-40b6-a7b4-0d514c1ebb41","system_id":"levelo_inurba_marseille","lat":43.26951,"lon":5.3864,"is_reserved":false,"is_disabled":false,"rental_uris":{"android":"levelo://app?vid=83f2dbb8-5f53-40b6-a7b4-0d514c1ebb41","ios":"levelo://app?vid=83f2dbb8-5f53-40b6-a7b4-0d514c1ebb41"},"vehicle_type_id":"4","last_reported":1729390731,"current_range_meters":30400,"station_id":"ce4bhh92rcd13ifvqfh0","pricing_plan_id":"cebpf4jnsgd1na2vs0mg"},{"bike_id":"b10181cc-41ff-4bd7-8376-48a23e3dc7f1","system_id":"levelo_inurba_marseille","lat":43.25866,"lon":5.39903,"is_reserved":false,"is_disabled":false,"rental_uris":{"android":"levelo://app?vid=b10181cc-41ff-4bd7-8376-48a23e3dc7f1","ios":"levelo://app?vid=b10181cc-41ff-4bd7-8376-48a23e3dc7f1"},"vehicle_type_id":"4","last_reported":1729390731,"current_range_meters":30800,"station_id":"ce4bhl92rcd13ifvqghg","pricing_plan_id":"cebpf4jnsgd1na2vs0mg"},{"bike_id":"bdc9eb1f-e84a-472b-9728-39e6924ff743","system_id":"levelo_inurba_marseille","lat":43.2655,"lon":5.37275,"is_reserved":false,"is_disabled":false,"rental_uris":{"android":"levelo://app?vid=bdc9eb1f-e84a-472b-9728-39e6924ff743","ios":"levelo://app?vid=bdc9eb1f-e84a-472b-9728-39e6924ff743"},"vehicle_type_id":"4","last_reported":1729390731,"current_range_meters":38800,"station_id":"ce4bhg12rcd13ifvqf70","pricing_plan_id":"cebpf4jnsgd1na2vs0mg"},{"bike_id":"0c07120c-6a22-4d0f-a500-32eb140d4f3a","system_id":"levelo_inurba_marseille","lat":43.28699,"lon":5.39981,"is_reserved":false,"is_disabled":false,"rental_uris":{"android":"levelo://app?vid=0c07120c-6a22-4d0f-a500-32eb140d4f3a","ios":"levelo://app?vid=0c07120c-6a22-4d0f-a500-32eb140d4f3a"},"vehicle_type_id":"4","last_reported":1729390731,"current_range_meters":38000,"station_id":"ce4bho92rcd13ifvqh3g","pricing_plan_id":"cebpf4jnsgd1na2vs0mg"},{"bike_id":"8d99d55a-7b47-40c1-ad7b-8d15db9ce591","system_id":"levelo_inurba_marseille","lat":43.25121,"lon":5.40319,"is_reserved":false,"is_disabled":false,"rental_uris":{"android":"levelo://app?vid=8d99d55a-7b47-40c1-ad7b-8d15db9ce591","ios":"levelo://app?vid=8d99d55a-7b47-40c1-ad7b-8d15db9ce591"},"vehicle_type_id":"4","last_reported":1729390731,"current_range_meters":38000,"station_id":"ce4bhlh2rcd13ifvqgig","pricing_plan_id":"cebpf4jnsgd1na2vs0mg"},{"bike_id":"d7a7b4e2-55cf-4e90-b6b5-7ac744cd79b4","system_id":"levelo_inurba_marseille","lat":43.28703,"lon":5.37396,"is_reserved":false,"is_disabled":false,"rental_uris":{"android":"levelo://app?vid=d7a7b4e2-55cf-4e90-b6b5-7ac744cd79b4","ios":"levelo://app?vid=d7a7b4e2-55cf-4e90-b6b5-7ac744cd79b4"},"vehicle_type_id":"4","last_reported":1729390731,"current_range_meters":38800,"station_id":"ce4bh3p2rcd13ifvqdq0","pricing_plan_id":"cebpf4jnsgd1na2vs0mg"},{"bike_id":"55b3a8f5-19d1-4d08-bf99-ccf2c312bc04","system_id":"levelo_inurba_marseille","lat":43.23187,"lon":5.35554,"is_reserved":false,"is_disabled":false,"rental_uris":{"android":"levelo://app?vid=55b3a8f5-19d1-4d08-bf99-ccf2c312bc04","ios":"levelo://app?vid=55b3a8f5-19d1-4d08-bf99-ccf2c312bc04"},"vehicle_type_id":"4","last_reported":1729390731,"current_range_meters":38800,"station_id":"ce4bhu92rcd13ifvqi70","pricing_plan_id":"cebpf4jnsgd1na2vs0mg"},{"bike_id":"03c65ff2-e039-4d25-904f-97cbb588f2b4","system_id":"levelo_inurba_marseille","lat":43.33024,"lon":5.39044,"is_reserved":false,"is_disabled":false,"rental_uris":{"android":"levelo://app?vid=03c65ff2-e039-4d25-904f-97cbb588f2b4","ios":"levelo://app?vid=03c65ff2-e039-4d25-904f-97cbb588f2b4"},"vehicle_type_id":"4","last_reported":1729390731,"current_range_meters":25600,"station_id":"ce4bhr92rcd13ifvqhrg","pricing_plan_id":"cebpf4jnsgd1na2vs0mg"},{"bike_id":"e84e51a6-a419-4734-aba6-0dbd7516e067","system_id":"levelo_inurba_marseille","lat":43.28261,"lon":5.3507,"is_reserved":false,"is_disabled":false,"rental_uris":{"android":"levelo://app?vid=e84e51a6-a419-4734-aba6-0dbd7516e067","ios":"levelo://app?vid=e84e51a6-a419-4734-aba6-0dbd7516e067"},"vehicle_type_id":"4","last_reported":1729390731,"current_range_meters":38800,"station_id":"ce4bhbp2rcd13ifvqerg","pricing_plan_id":"cebpf4jnsgd1na2vs0mg"},{"bike_id":"b9a67f3d-b2eb-443d-98a9-e1167058c7fb","system_id":"levelo_inurba_marseille","lat":43.2406,"lon":5.37752,"is_reserved":false,"is_disabled":false,"rental_uris":{"android":"levelo://app?vid=b9a67f3d-b2eb-443d-98a9-e1167058c7fb","ios":"levelo://app?vid=b9a67f3d-b2eb-443d-98a9-e1167058c7fb"},"vehicle_type_id":"4","last_reported":1729390731,"current_range_meters":38800,"station_id":"ce4bhnp2rcd13ifvqgvg","pricing_plan_id":"cebpf4jnsgd1na2vs0mg"},{"bike_id":"b7de9dd9-5cc2-4cc4-a2fe-9e58cc422c15","system_id":"levelo_inurba_marseille","lat":43.32343,"lon":5.40624,"is_reserved":false,"is_disabled":false,"rental_uris":{"android":"levelo://app?vid=b7de9dd9-5cc2-4cc4-a2fe-9e58cc422c15","ios":"levelo://app?vid=b7de9dd9-5cc2-4cc4-a2fe-9e58cc422c15"},"vehicle_type_id":"4","last_reported":1729390731,"current_range_meters":25600,"station_id":"ce4bhq92rcd13ifvqhjg","pricing_plan_id":"cebpf4jnsgd1na2vs0mg"},{"bike_id":"43d24770-4ece-4a77-a029-fe46e9bde13b","system_id":"levelo_inurba_marseille","lat":43.31561,"lon":5.37422,"is_reserved":false,"is_disabled":false,"rental_uris":{"android":"levelo://app?vid=43d24770-4ece-4a77-a029-fe46e9bde13b","ios":"levelo://app?vid=43d24770-4ece-4a77-a029-fe46e9bde13b"},"vehicle_type_id":"4","last_reported":1729390731,"current_range_meters":38800,"station_id":"","pricing_plan_id":"cebpf4jnsgd1na2vs0mg"},{"bike_id":"9a3427b3-6f87-4d5a-8b30-2139772976e8","system_id":"levelo_inurba_marseille","lat":43.28939,"lon":5.36395,"is_reserved":false,"is_disabled":false,"rental_uris":{"android":"levelo://app?vid=9a3427b3-6f87-4d5a-8b30-2139772976e8","ios":"levelo://app?vid=9a3427b3-6f87-4d5a-8b30-2139772976e8"},"vehicle_type_id":"4","last_reported":1729390731,"current_range_meters":38000,"station_id":"ce4bhc92rcd13ifvqetg","pricing_plan_id":"cebpf4jnsgd1na2vs0mg"},{"bike_id":"28db4370-84ab-40a1-ba5d-f49d506458f1","system_id":"levelo_inurba_marseille","lat":43.28473,"lon":5.35885,"is_reserved":false,"is_disabled":false,"rental_uris":{"android":"levelo://app?vid=28db4370-84ab-40a1-ba5d-f49d506458f1","ios":"levelo://app?vid=28db4370-84ab-40a1-ba5d-f49d506458f1"},"vehicle_type_id":"4","last_reported":1729390731,"current_range_meters":10800,"station_id":"ce4bhah2rcd13ifvqei0","pricing_plan_id":"cebpf4jnsgd1na2vs0mg"},{"bike_id":"0ea20c3b-6716-4d3a-bbcd-8f36cf2dd838","system_id":"levelo_inurba_marseille","lat":43.27834,"lon":5.3921,"is_reserved":false,"is_disabled":false,"rental_uris":{"android":"levelo://app?vid=0ea20c3b-6716-4d3a-bbcd-8f36cf2dd838","ios":"levelo://app?vid=0ea20c3b-6716-4d3a-bbcd-8f36cf2dd838"},"vehicle_type_id":"4","last_reported":1729390731,"current_range_meters":27200,"station_id":"ce4bhjp2rcd13ifvqga0","pricing_plan_id":"cebpf4jnsgd1na2vs0mg"},{"bike_id":"df0764bb-73ac-46d7-903f-a26945b45d7c","system_id":"levelo_inurba_marseille","lat":43.24614,"lon":5.41616,"is_reserved":false,"is_disabled":false,"rental_uris":{"android":"levelo://app?vid=df0764bb-73ac-46d7-903f-a26945b45d7c","ios":"levelo://app?vid=df0764bb-73ac-46d7-903f-a26945b45d7c"},"vehicle_type_id":"4","last_reported":1729390731,"current_range_meters":26000,"station_id":"","pricing_plan_id":"cebpf4jnsgd1na2vs0mg"},{"bike_id":"766da900-471d-42f5-8cfa-8db494f945d7","system_id":"levelo_inurba_marseille","lat":43.28933,"lon":5.46031,"is_reserved":false,"is_disabled":false,"rental_uris":{"android":"levelo://app?vid=766da900-471d-42f5-8cfa-8db494f945d7","ios":"levelo://app?vid=766da900-471d-42f5-8cfa-8db494f945d7"},"vehicle_type_id":"4","last_reported":1729390731,"current_range_meters":26800,"station_id":"","pricing_plan_id":"cebpf4jnsgd1na2vs0mg"},{"bike_id":"c9f3cf75-b192-46a2-bccb-22bf83a32319","system_id":"levelo_inurba_marseille","lat":43.29255,"lon":5.40911,"is_reserved":false,"is_disabled":false,"rental_uris":{"android":"levelo://app?vid=c9f3cf75-b192-46a2-bccb-22bf83a32319","ios":"levelo://app?vid=c9f3cf75-b192-46a2-bccb-22bf83a32319"},"vehicle_type_id":"4","last_reported":1729390731,"current_range_meters":38400,"station_id":"ce4bh192rcd13ifvqdc0","pricing_plan_id":"cebpf4jnsgd1na2vs0mg"},{"bike_id":"1466942e-504e-4c7c-be31-f6fec790f80a","system_id":"levelo_inurba_marseille","lat":43.30214,"lon":5.39466,"is_reserved":false,"is_disabled":false,"rental_uris":{"android":"levelo://app?vid=1466942e-504e-4c7c-be31-f6fec790f80a","ios":"levelo://app?vid=1466942e-504e-4c7c-be31-f6fec790f80a"},"vehicle_type_id":"4","last_reported":1729390731,"current_range_meters":38800,"station_id":"ce4bh0p2rcd13ifvqd70","pricing_plan_id":"cebpf4jnsgd1na2vs0mg"},{"bike_id":"e567248c-cc07-4ac3-93e3-3f51dcec5d60","system_id":"levelo_inurba_marseille","lat":43.284584,"lon":5.358896,"is_reserved":false,"is_disabled":false,"rental_uris":{"android":"levelo://app?vid=e567248c-cc07-4ac3-93e3-3f51dcec5d60","ios":"levelo://app?vid=e567248c-cc07-4ac3-93e3-3f51dcec5d60"},"vehicle_type_id":"4","last_reported":1729390731,"current_range_meters":24000,"station_id":"ce4bhah2rcd13ifvqei0","pricing_plan_id":"cebpf4jnsgd1na2vs0mg"},{"bike_id":"9c0699d4-3768-4a94-aade-f33650914ba4","system_id":"levelo_inurba_marseille","lat":43.30551,"lon":5.38425,"is_reserved":false,"is_disabled":false,"rental_uris":{"android":"levelo://app?vid=9c0699d4-3768-4a94-aade-f33650914ba4","ios":"levelo://app?vid=9c0699d4-3768-4a94-aade-f33650914ba4"},"vehicle_type_id":"4","last_reported":1729390731,"current_range_meters":22000,"station_id":"ce4bgg92rcd13ifvqb30","pricing_plan_id":"cebpf4jnsgd1na2vs0mg"},{"bike_id":"ab3708dc-2324-4d77-ac1a-38c928b735aa","system_id":"levelo_inurba_marseille","lat":43.28112,"lon":5.37835,"is_reserved":false,"is_disabled":false,"rental_uris":{"android":"levelo://app?vid=ab3708dc-2324-4d77-ac1a-38c928b735aa","ios":"levelo://app?vid=ab3708dc-2324-4d77-ac1a-38c928b735aa"},"vehicle_type_id":"4","last_reported":1729390731,"current_range_meters":30800,"station_id":"ce4bha12rcd13ifvqee0","pricing_plan_id":"cebpf4jnsgd1na2vs0mg"},{"bike_id":"e16d903d-5fd2-4302-b63f-8ed6075b38cd","system_id":"levelo_inurba_marseille","lat":43.303,"lon":5.4013,"is_reserved":false,"is_disabled":false,"rental_uris":{"android":"levelo://app?vid=e16d903d-5fd2-4302-b63f-8ed6075b38cd","ios":"levelo://app?vid=e16d903d-5fd2-4302-b63f-8ed6075b38cd"},"vehicle_type_id":"4","last_reported":1729390731,"current_range_meters":16400,"station_id":"ce4bgvh2rcd13ifvqcs0","pricing_plan_id":"cebpf4jnsgd1na2vs0mg"},{"bike_id":"707eb2f1-a40c-4580-8f44-11408cac020b","system_id":"levelo_inurba_marseille","lat":43.26801,"lon":5.40267,"is_reserved":false,"is_disabled":false,"rental_uris":{"android":"levelo://app?vid=707eb2f1-a40c-4580-8f44-11408cac020b","ios":"levelo://app?vid=707eb2f1-a40c-4580-8f44-11408cac020b"},"vehicle_type_id":"4","last_reported":1729390731,"current_range_meters":6000,"station_id":"ce501612rcd8frsf0b60","pricing_plan_id":"cebpf4jnsgd1na2vs0mg"},{"bike_id":"8400a97e-ed46-4d37-b5cf-926b69826c1f","system_id":"levelo_inurba_marseille","lat":43.28104,"lon":5.37864,"is_reserved":false,"is_disabled":false,"rental_uris":{"android":"levelo://app?vid=8400a97e-ed46-4d37-b5cf-926b69826c1f","ios":"levelo://app?vid=8400a97e-ed46-4d37-b5cf-926b69826c1f"},"vehicle_type_id":"4","last_reported":1729390731,"current_range_meters":18000,"station_id":"ce4bha12rcd13ifvqee0","pricing_plan_id":"cebpf4jnsgd1na2vs0mg"},{"bike_id":"fbe5e5b4-3e44-4487-a73e-284854502401","system_id":"levelo_inurba_marseille","lat":43.24069,"lon":5.37761,"is_reserved":false,"is_disabled":false,"rental_uris":{"android":"levelo://app?vid=fbe5e5b4-3e44-4487-a73e-284854502401","ios":"levelo://app?vid=fbe5e5b4-3e44-4487-a73e-284854502401"},"vehicle_type_id":"4","last_reported":1729390731,"current_range_meters":19600,"station_id":"ce4bhnp2rcd13ifvqgvg","pricing_plan_id":"cebpf4jnsgd1na2vs0mg"},{"bike_id":"38f10f2c-6c25-4c35-88e6-5eb9c416cd03","system_id":"levelo_inurba_marseille","lat":43.3131,"lon":5.39692,"is_reserved":false,"is_disabled":false,"rental_uris":{"android":"levelo://app?vid=38f10f2c-6c25-4c35-88e6-5eb9c416cd03","ios":"levelo://app?vid=38f10f2c-6c25-4c35-88e6-5eb9c416cd03"},"vehicle_type_id":"4","last_reported":1729390731,"current_range_meters":20800,"station_id":"ce4bgvp2rcd13ifvqcu0","pricing_plan_id":"cebpf4jnsgd1na2vs0mg"},{"bike_id":"05172b3b-0223-41db-b5bd-b978ecbff7d5","system_id":"levelo_inurba_marseille","lat":43.30413,"lon":5.41288,"is_reserved":false,"is_disabled":false,"rental_uris":{"android":"levelo://app?vid=05172b3b-0223-41db-b5bd-b978ecbff7d5","ios":"levelo://app?vid=05172b3b-0223-41db-b5bd-b978ecbff7d5"},"vehicle_type_id":"4","last_reported":1729390731,"current_range_meters":36800,"station_id":"ce4bhop2rcd13ifvqh8g","pricing_plan_id":"cebpf4jnsgd1na2vs0mg"},{"bike_id":"4158d4ef-7d68-469c-9874-e49eaf6f57e9","system_id":"levelo_inurba_marseille","lat":43.29237,"lon":5.40904,"is_reserved":false,"is_disabled":false,"rental_uris":{"android":"levelo://app?vid=4158d4ef-7d68-469c-9874-e49eaf6f57e9","ios":"levelo://app?vid=4158d4ef-7d68-469c-9874-e49eaf6f57e9"},"vehicle_type_id":"4","last_reported":1729390731,"current_range_meters":38000,"station_id":"ce4bh192rcd13ifvqdc0","pricing_plan_id":"cebpf4jnsgd1na2vs0mg"},{"bike_id":"b1987f79-3507-468b-81ed-924312b61f29","system_id":"levelo_inurba_marseille","lat":43.27369,"lon":5.3626,"is_reserved":false,"is_disabled":false,"rental_uris":{"android":"levelo://app?vid=b1987f79-3507-468b-81ed-924312b61f29","ios":"levelo://app?vid=b1987f79-3507-468b-81ed-924312b61f29"},"vehicle_type_id":"4","last_reported":1729390731,"current_range_meters":24400,"station_id":"ce4bhbh2rcd13ifvqeo0","pricing_plan_id":"cebpf4jnsgd1na2vs0mg"},{"bike_id":"aec588fd-30bc-40aa-b238-77bec8e36134","system_id":"levelo_inurba_marseille","lat":43.26567,"lon":5.37298,"is_reserved":false,"is_disabled":false,"rental_uris":{"android":"levelo://app?vid=aec588fd-30bc-40aa-b238-77bec8e36134","ios":"levelo://app?vid=aec588fd-30bc-40aa-b238-77bec8e36134"},"vehicle_type_id":"4","last_reported":1729390731,"current_range_meters":8000,"station_id":"ce4bhg12rcd13ifvqf70","pricing_plan_id":"cebpf4jnsgd1na2vs0mg"},{"bike_id":"9869e7c1-2a64-4fc5-aa7f-0b200518280c","system_id":"levelo_inurba_marseille","lat":43.28866,"lon":5.39325,"is_reserved":false,"is_disabled":false,"rental_uris":{"android":"levelo://app?vid=9869e7c1-2a64-4fc5-aa7f-0b200518280c","ios":"levelo://app?vid=9869e7c1-2a64-4fc5-aa7f-0b200518280c"},"vehicle_type_id":"4","last_reported":1729390731,"current_range_meters":26800,"station_id":"ce4bh2p2rcd13ifvqdi0","pricing_plan_id":"cebpf4jnsgd1na2vs0mg"},{"bike_id":"cd44bf01-87b7-4d36-8ef8-6e689430e5d1","system_id":"levelo_inurba_marseille","lat":43.33027,"lon":5.39038,"is_reserved":false,"is_disabled":false,"rental_uris":{"android":"levelo://app?vid=cd44bf01-87b7-4d36-8ef8-6e689430e5d1","ios":"levelo://app?vid=cd44bf01-87b7-4d36-8ef8-6e689430e5d1"},"vehicle_type_id":"4","last_reported":1729390731,"current_range_meters":11200,"station_id":"ce4bhr92rcd13ifvqhrg","pricing_plan_id":"cebpf4jnsgd1na2vs0mg"},{"bike_id":"5b58db60-52d8-4aec-ae08-c400a6f3c318","system_id":"levelo_inurba_marseille","lat":43.29022,"lon":5.38629,"is_reserved":false,"is_disabled":false,"rental_uris":{"android":"levelo://app?vid=5b58db60-52d8-4aec-ae08-c400a6f3c318","ios":"levelo://app?vid=5b58db60-52d8-4aec-ae08-c400a6f3c318"},"vehicle_type_id":"4","last_reported":1729390731,"current_range_meters":15200,"station_id":"ce4bh4p2rcd13ifvqe0g","pricing_plan_id":"cebpf4jnsgd1na2vs0mg"},{"bike_id":"2910eaad-da2f-4396-abed-6a24ceae014b","system_id":"levelo_inurba_marseille","lat":43.30383,"lon":5.37327,"is_reserved":false,"is_disabled":false,"rental_uris":{"android":"levelo://app?vid=2910eaad-da2f-4396-abed-6a24ceae014b","ios":"levelo://app?vid=2910eaad-da2f-4396-abed-6a24ceae014b"},"vehicle_type_id":"4","last_reported":1729390731,"current_range_meters":18800,"station_id":"","pricing_plan_id":"cebpf4jnsgd1na2vs0mg"},{"bike_id":"0326ee85-d660-4331-a018-7d6617a93caf","system_id":"levelo_inurba_marseille","lat":43.30633,"lon":5.40075,"is_reserved":false,"is_disabled":false,"rental_uris":{"android":"levelo://app?vid=0326ee85-d660-4331-a018-7d6617a93caf","ios":"levelo://app?vid=0326ee85-d660-4331-a018-7d6617a93caf"},"vehicle_type_id":"4","last_reported":1729390731,"current_range_meters":39200,"station_id":"ce4bh112rcd13ifvqda0","pricing_plan_id":"cebpf4jnsgd1na2vs0mg"},{"bike_id":"6e706dcb-6e41-41b6-a172-73765c66fdaa","system_id":"levelo_inurba_marseille","lat":43.26235,"lon":5.37592,"is_reserved":false,"is_disabled":false,"rental_uris":{"android":"levelo://app?vid=6e706dcb-6e41-41b6-a172-73765c66fdaa","ios":"levelo://app?vid=6e706dcb-6e41-41b6-a172-73765c66fdaa"},"vehicle_type_id":"4","last_reported":1729390731,"current_range_meters":36000,"station_id":"ce4bhhp2rcd13ifvqfm0","pricing_plan_id":"cebpf4jnsgd1na2vs0mg"},{"bike_id":"0b297742-aea6-41b8-bd02-ada1ede0366e","system_id":"levelo_inurba_marseille","lat":43.31275,"lon":5.40177,"is_reserved":false,"is_disabled":false,"rental_uris":{"android":"levelo://app?vid=0b297742-aea6-41b8-bd02-ada1ede0366e","ios":"levelo://app?vid=0b297742-aea6-41b8-bd02-ada1ede0366e"},"vehicle_type_id":"4","last_reported":1729390731,"current_range_meters":10800,"station_id":"ce4bh092rcd13ifvqd30","pricing_plan_id":"cebpf4jnsgd1na2vs0mg"},{"bike_id":"80f9bb87-fd46-4ad9-a153-d24e9870383e","system_id":"levelo_inurba_marseille","lat":43.24072,"lon":5.37762,"is_reserved":false,"is_disabled":false,"rental_uris":{"android":"levelo://app?vid=80f9bb87-fd46-4ad9-a153-d24e9870383e","ios":"levelo://app?vid=80f9bb87-fd46-4ad9-a153-d24e9870383e"},"vehicle_type_id":"4","last_reported":1729390731,"current_range_meters":27600,"station_id":"ce4bhnp2rcd13ifvqgvg","pricing_plan_id":"cebpf4jnsgd1na2vs0mg"},{"bike_id":"522bb5dc-efc4-45ac-a026-aafe838b2839","system_id":"levelo_inurba_marseille","lat":43.29807,"lon":5.37087,"is_reserved":false,"is_disabled":false,"rental_uris":{"android":"levelo://app?vid=522bb5dc-efc4-45ac-a026-aafe838b2839","ios":"levelo://app?vid=522bb5dc-efc4-45ac-a026-aafe838b2839"},"vehicle_type_id":"4","last_reported":1729390731,"current_range_meters":38000,"station_id":"ce4bgop2rcd13ifvqc1g","pricing_plan_id":"cebpf4jnsgd1na2vs0mg"},{"bike_id":"1d0123a6-a46a-4f0d-aa90-d1ca1d1a44c9","system_id":"levelo_inurba_marseille","lat":43.31329,"lon":5.39694,"is_reserved":false,"is_disabled":false,"rental_uris":{"android":"levelo://app?vid=1d0123a6-a46a-4f0d-aa90-d1ca1d1a44c9","ios":"levelo://app?vid=1d0123a6-a46a-4f0d-aa90-d1ca1d1a44c9"},"vehicle_type_id":"4","last_reported":1729390731,"current_range_meters":38800,"station_id":"ce4bgvp2rcd13ifvqcu0","pricing_plan_id":"cebpf4jnsgd1na2vs0mg"},{"bike_id":"d20c7772-6069-4e2f-ba39-8859dbd770a5","system_id":"levelo_inurba_marseille","lat":43.31118,"lon":5.37767,"is_reserved":false,"is_disabled":false,"rental_uris":{"android":"levelo://app?vid=d20c7772-6069-4e2f-ba39-8859dbd770a5","ios":"levelo://app?vid=d20c7772-6069-4e2f-ba39-8859dbd770a5"},"vehicle_type_id":"4","last_reported":1729390731,"current_range_meters":17600,"station_id":"ce4bgt92rcd13ifvqcg0","pricing_plan_id":"cebpf4jnsgd1na2vs0mg"},{"bike_id":"7085069e-310b-483c-9929-953b118ba0f9","system_id":"levelo_inurba_marseille","lat":43.31713,"lon":5.37766,"is_reserved":false,"is_disabled":false,"rental_uris":{"android":"levelo://app?vid=7085069e-310b-483c-9929-953b118ba0f9","ios":"levelo://app?vid=7085069e-310b-483c-9929-953b118ba0f9"},"vehicle_type_id":"4","last_reported":1729390731,"current_range_meters":34000,"station_id":"ce4bgth2rcd13ifvqch0","pricing_plan_id":"cebpf4jnsgd1na2vs0mg"},{"bike_id":"7ebb0999-b842-42c3-8bf6-b9590dc64824","system_id":"levelo_inurba_marseille","lat":43.32655,"lon":5.4099,"is_reserved":false,"is_disabled":false,"rental_uris":{"android":"levelo://app?vid=7ebb0999-b842-42c3-8bf6-b9590dc64824","ios":"levelo://app?vid=7ebb0999-b842-42c3-8bf6-b9590dc64824"},"vehicle_type_id":"4","last_reported":1729390731,"current_range_meters":38800,"station_id":"ce4bhpp2rcd13ifvqhgg","pricing_plan_id":"cebpf4jnsgd1na2vs0mg"},{"bike_id":"7772d39f-5e28-445c-af91-069b0cf63793","system_id":"levelo_inurba_marseille","lat":43.33765,"lon":5.37438,"is_reserved":false,"is_disabled":false,"rental_uris":{"android":"levelo://app?vid=7772d39f-5e28-445c-af91-069b0cf63793","ios":"levelo://app?vid=7772d39f-5e28-445c-af91-069b0cf63793"},"vehicle_type_id":"4","last_reported":1729390731,"current_range_meters":6400,"station_id":"","pricing_plan_id":"cebpf4jnsgd1na2vs0mg"},{"bike_id":"858f8101-d134-4ca8-b49c-156bc855d981","system_id":"levelo_inurba_marseille","lat":43.27058,"lon":5.40261,"is_reserved":false,"is_disabled":false,"rental_uris":{"android":"levelo://app?vid=858f8101-d134-4ca8-b49c-156bc855d981","ios":"levelo://app?vid=858f8101-d134-4ca8-b49c-156bc855d981"},"vehicle_type_id":"4","last_reported":1729390731,"current_range_meters":38800,"station_id":"ce4bhk92rcd13ifvqgc0","pricing_plan_id":"cebpf4jnsgd1na2vs0mg"},{"bike_id":"733eb2c5-00ab-4d49-8038-dfb888b12557","system_id":"levelo_inurba_marseille","lat":43.31983,"lon":5.38137,"is_reserved":false,"is_disabled":false,"rental_uris":{"android":"levelo://app?vid=733eb2c5-00ab-4d49-8038-dfb888b12557","ios":"levelo://app?vid=733eb2c5-00ab-4d49-8038-dfb888b12557"},"vehicle_type_id":"4","last_reported":1729390731,"current_range_meters":35200,"station_id":"ce4bhr12rcd13ifvqhpg","pricing_plan_id":"cebpf4jnsgd1na2vs0mg"},{"bike_id":"3213665e-989c-4d22-9f5a-31c8522597dd","system_id":"levelo_inurba_marseille","lat":43.296,"lon":5.36142,"is_reserved":false,"is_disabled":false,"rental_uris":{"android":"levelo://app?vid=3213665e-989c-4d22-9f5a-31c8522597dd","ios":"levelo://app?vid=3213665e-989c-4d22-9f5a-31c8522597dd"},"vehicle_type_id":"4","last_reported":1729390731,"current_range_meters":16800,"station_id":"","pricing_plan_id":"cebpf4jnsgd1na2vs0mg"},{"bike_id":"afa7b779-6fbe-4d7b-b34a-eda80aa45890","system_id":"levelo_inurba_marseille","lat":43.276125,"lon":5.36112,"is_reserved":false,"is_disabled":false,"rental_uris":{"android":"levelo://app?vid=afa7b779-6fbe-4d7b-b34a-eda80aa45890","ios":"levelo://app?vid=afa7b779-6fbe-4d7b-b34a-eda80aa45890"},"vehicle_type_id":"4","last_reported":1729390731,"current_range_meters":35600,"station_id":"ce4bgj92rcd13ifvqbe0","pricing_plan_id":"cebpf4jnsgd1na2vs0mg"},{"bike_id":"1e931b7a-6471-42e1-bb92-ada9bafacbe6","system_id":"levelo_inurba_marseille","lat":43.29096,"lon":5.37181,"is_reserved":false,"is_disabled":false,"rental_uris":{"android":"levelo://app?vid=1e931b7a-6471-42e1-bb92-ada9bafacbe6","ios":"levelo://app?vid=1e931b7a-6471-42e1-bb92-ada9bafacbe6"},"vehicle_type_id":"4","last_reported":1729390731,"current_range_meters":38800,"station_id":"ce4bh5p2rcd13ifvqe4g","pricing_plan_id":"cebpf4jnsgd1na2vs0mg"},{"bike_id":"7f23c7a8-ddb1-4f83-a261-af0bfe417339","system_id":"levelo_inurba_marseille","lat":43.25111,"lon":5.40336,"is_reserved":false,"is_disabled":false,"rental_uris":{"android":"levelo://app?vid=7f23c7a8-ddb1-4f83-a261-af0bfe417339","ios":"levelo://app?vid=7f23c7a8-ddb1-4f83-a261-af0bfe417339"},"vehicle_type_id":"4","last_reported":1729390731,"current_range_meters":10800,"station_id":"ce4bhlh2rcd13ifvqgig","pricing_plan_id":"cebpf4jnsgd1na2vs0mg"},{"bike_id":"3f3c663d-a6fd-4091-8533-6c09ca965902","system_id":"levelo_inurba_marseille","lat":43.3119,"lon":5.37715,"is_reserved":false,"is_disabled":false,"rental_uris":{"android":"levelo://app?vid=3f3c663d-a6fd-4091-8533-6c09ca965902","ios":"levelo://app?vid=3f3c663d-a6fd-4091-8533-6c09ca965902"},"vehicle_type_id":"4","last_reported":1729390731,"current_range_meters":16400,"station_id":"","pricing_plan_id":"cebpf4jnsgd1na2vs0mg"},{"bike_id":"275e8b97-c257-4f5b-9606-c19c9133569b","system_id":"levelo_inurba_marseille","lat":43.29477,"lon":5.36327,"is_reserved":false,"is_disabled":false,"rental_uris":{"android":"levelo://app?vid=275e8b97-c257-4f5b-9606-c19c9133569b","ios":"levelo://app?vid=275e8b97-c257-4f5b-9606-c19c9133569b"},"vehicle_type_id":"4","last_reported":1729390731,"current_range_meters":12400,"station_id":"","pricing_plan_id":"cebpf4jnsgd1na2vs0mg"},{"bike_id":"9a2117f0-c5b0-4dc2-891b-026a24af23f1","system_id":"levelo_inurba_marseille","lat":43.3105,"lon":5.40092,"is_reserved":false,"is_disabled":false,"rental_uris":{"android":"levelo://app?vid=9a2117f0-c5b0-4dc2-891b-026a24af23f1","ios":"levelo://app?vid=9a2117f0-c5b0-4dc2-891b-026a24af23f1"},"vehicle_type_id":"4","last_reported":1729390731,"current_range_meters":37600,"station_id":"","pricing_plan_id":"cebpf4jnsgd1na2vs0mg"},{"bike_id":"eb63ba09-6f9d-4cf6-88df-f95385f23699","system_id":"levelo_inurba_marseille","lat":43.25819,"lon":5.39423,"is_reserved":false,"is_disabled":false,"rental_uris":{"android":"levelo://app?vid=eb63ba09-6f9d-4cf6-88df-f95385f23699","ios":"levelo://app?vid=eb63ba09-6f9d-4cf6-88df-f95385f23699"},"vehicle_type_id":"4","last_reported":1729390731,"current_range_meters":38800,"station_id":"ce4bhip2rcd13ifvqft0","pricing_plan_id":"cebpf4jnsgd1na2vs0mg"},{"bike_id":"41d12afe-d43b-4212-9958-e7c01d02bfc5","system_id":"levelo_inurba_marseille","lat":43.25005,"lon":5.38934,"is_reserved":false,"is_disabled":false,"rental_uris":{"android":"levelo://app?vid=41d12afe-d43b-4212-9958-e7c01d02bfc5","ios":"levelo://app?vid=41d12afe-d43b-4212-9958-e7c01d02bfc5"},"vehicle_type_id":"4","last_reported":1729390731,"current_range_meters":38800,"station_id":"ce4bhgp2rcd13ifvqfd0","pricing_plan_id":"cebpf4jnsgd1na2vs0mg"},{"bike_id":"0ff056ef-c083-468c-897f-16891fa545e9","system_id":"levelo_inurba_marseille","lat":43.30144,"lon":5.37419,"is_reserved":false,"is_disabled":false,"rental_uris":{"android":"levelo://app?vid=0ff056ef-c083-468c-897f-16891fa545e9","ios":"levelo://app?vid=0ff056ef-c083-468c-897f-16891fa545e9"},"vehicle_type_id":"4","last_reported":1729390731,"current_range_meters":38000,"station_id":"ce4bgs92rcd13ifvqcc0","pricing_plan_id":"cebpf4jnsgd1na2vs0mg"},{"bike_id":"5dd719ab-a213-4094-b2e1-609f6924f39b","system_id":"levelo_inurba_marseille","lat":43.31985,"lon":5.38153,"is_reserved":false,"is_disabled":false,"rental_uris":{"android":"levelo://app?vid=5dd719ab-a213-4094-b2e1-609f6924f39b","ios":"levelo://app?vid=5dd719ab-a213-4094-b2e1-609f6924f39b"},"vehicle_type_id":"4","last_reported":1729390731,"current_range_meters":39200,"station_id":"ce4bhr12rcd13ifvqhpg","pricing_plan_id":"cebpf4jnsgd1na2vs0mg"},{"bike_id":"d1eaed94-2ffc-4609-a3b8-b0df4a991b21","system_id":"levelo_inurba_marseille","lat":43.31241,"lon":5.38479,"is_reserved":false,"is_disabled":false,"rental_uris":{"android":"levelo://app?vid=d1eaed94-2ffc-4609-a3b8-b0df4a991b21","ios":"levelo://app?vid=d1eaed94-2ffc-4609-a3b8-b0df4a991b21"},"vehicle_type_id":"4","last_reported":1729390731,"current_range_meters":16400,"station_id":"","pricing_plan_id":"cebpf4jnsgd1na2vs0mg"},{"bike_id":"32ff2e1c-64bb-4140-95a4-ec9bf3a327bc","system_id":"levelo_inurba_marseille","lat":43.31485,"lon":5.37287,"is_reserved":false,"is_disabled":false,"rental_uris":{"android":"levelo://app?vid=32ff2e1c-64bb-4140-95a4-ec9bf3a327bc","ios":"levelo://app?vid=32ff2e1c-64bb-4140-95a4-ec9bf3a327bc"},"vehicle_type_id":"4","last_reported":1729390731,"current_range_meters":36000,"station_id":"ce4bgt12rcd13ifvqcd0","pricing_plan_id":"cebpf4jnsgd1na2vs0mg"},{"bike_id":"3a553d37-94eb-4024-abd0-f1450ee14b60","system_id":"levelo_inurba_marseille","lat":43.31542,"lon":5.38044,"is_reserved":false,"is_disabled":false,"rental_uris":{"android":"levelo://app?vid=3a553d37-94eb-4024-abd0-f1450ee14b60","ios":"levelo://app?vid=3a553d37-94eb-4024-abd0-f1450ee14b60"},"vehicle_type_id":"4","last_reported":1729390731,"current_range_meters":20400,"station_id":"ce4bhsp2rcd13ifvqi50","pricing_plan_id":"cebpf4jnsgd1na2vs0mg"},{"bike_id":"0d6f3071-7fa8-4c47-8404-1323c3c58d3f","system_id":"levelo_inurba_marseille","lat":43.29075,"lon":5.35896,"is_reserved":false,"is_disabled":false,"rental_uris":{"android":"levelo://app?vid=0d6f3071-7fa8-4c47-8404-1323c3c58d3f","ios":"levelo://app?vid=0d6f3071-7fa8-4c47-8404-1323c3c58d3f"},"vehicle_type_id":"4","last_reported":1729390731,"current_range_meters":14000,"station_id":"ce4bha92rcd13ifvqeg0","pricing_plan_id":"cebpf4jnsgd1na2vs0mg"},{"bike_id":"0e93c432-086c-4bb3-8a75-15e0e2792f9b","system_id":"levelo_inurba_marseille","lat":43.29094,"lon":5.38162,"is_reserved":false,"is_disabled":false,"rental_uris":{"android":"levelo://app?vid=0e93c432-086c-4bb3-8a75-15e0e2792f9b","ios":"levelo://app?vid=0e93c432-086c-4bb3-8a75-15e0e2792f9b"},"vehicle_type_id":"4","last_reported":1729390731,"current_range_meters":38800,"station_id":"ce4bh512rcd13ifvqe2g","pricing_plan_id":"cebpf4jnsgd1na2vs0mg"},{"bike_id":"00e7f300-5489-4a7b-806b-f9a497338933","system_id":"levelo_inurba_marseille","lat":43.23147,"lon":5.43703,"is_reserved":false,"is_disabled":false,"rental_uris":{"android":"levelo://app?vid=00e7f300-5489-4a7b-806b-f9a497338933","ios":"levelo://app?vid=00e7f300-5489-4a7b-806b-f9a497338933"},"vehicle_type_id":"4","last_reported":1729390731,"current_range_meters":7200,"station_id":"ce4bhmp2rcd13ifvqgog","pricing_plan_id":"cebpf4jnsgd1na2vs0mg"},{"bike_id":"4cc5727d-b9bc-4c19-9396-1b26b139dc2a","system_id":"levelo_inurba_marseille","lat":43.31752,"lon":5.40444,"is_reserved":false,"is_disabled":false,"rental_uris":{"android":"levelo://app?vid=4cc5727d-b9bc-4c19-9396-1b26b139dc2a","ios":"levelo://app?vid=4cc5727d-b9bc-4c19-9396-1b26b139dc2a"},"vehicle_type_id":"4","last_reported":1729390731,"current_range_meters":38000,"station_id":"ce4bh012rcd13ifvqd00","pricing_plan_id":"cebpf4jnsgd1na2vs0mg"},{"bike_id":"b8b721e3-c0e7-4491-844f-191085275f86","system_id":"levelo_inurba_marseille","lat":43.24544,"lon":5.39523,"is_reserved":false,"is_disabled":false,"rental_uris":{"android":"levelo://app?vid=b8b721e3-c0e7-4491-844f-191085275f86","ios":"levelo://app?vid=b8b721e3-c0e7-4491-844f-191085275f86"},"vehicle_type_id":"4","last_reported":1729390731,"current_range_meters":38800,"station_id":"ce4bhlp2rcd13ifvqgjg","pricing_plan_id":"cebpf4jnsgd1na2vs0mg"},{"bike_id":"6b95e607-5252-40d1-9c48-bec0d67493f0","system_id":"levelo_inurba_marseille","lat":43.29795,"lon":5.40402,"is_reserved":false,"is_disabled":false,"rental_uris":{"android":"levelo://app?vid=6b95e607-5252-40d1-9c48-bec0d67493f0","ios":"levelo://app?vid=6b95e607-5252-40d1-9c48-bec0d67493f0"},"vehicle_type_id":"4","last_reported":1729390731,"current_range_meters":38800,"station_id":"ce4bh112rcd13ifvqd90","pricing_plan_id":"cebpf4jnsgd1na2vs0mg"},{"bike_id":"87c17c36-36dd-4e03-bf69-43b54f6bf481","system_id":"levelo_inurba_marseille","lat":43.29283,"lon":5.40144,"is_reserved":false,"is_disabled":false,"rental_uris":{"android":"levelo://app?vid=87c17c36-36dd-4e03-bf69-43b54f6bf481","ios":"levelo://app?vid=87c17c36-36dd-4e03-bf69-43b54f6bf481"},"vehicle_type_id":"4","last_reported":1729390731,"current_range_meters":19600,"station_id":"ce4bh312rcd13ifvqdk0","pricing_plan_id":"cebpf4jnsgd1na2vs0mg"},{"bike_id":"d2268e84-6045-4f66-be1a-f89f84eb7e69","system_id":"levelo_inurba_marseille","lat":43.295532,"lon":5.375195,"is_reserved":false,"is_disabled":false,"rental_uris":{"android":"levelo://app?vid=d2268e84-6045-4f66-be1a-f89f84eb7e69","ios":"levelo://app?vid=d2268e84-6045-4f66-be1a-f89f84eb7e69"},"vehicle_type_id":"4","last_reported":1729390731,"current_range_meters":38400,"station_id":"ce4bgkp2rcd13ifvqbmg","pricing_plan_id":"cebpf4jnsgd1na2vs0mg"},{"bike_id":"5f181de5-971b-4e62-8fe1-4fbba3f53f7e","system_id":"levelo_inurba_marseille","lat":43.3133,"lon":5.39695,"is_reserved":false,"is_disabled":false,"rental_uris":{"android":"levelo://app?vid=5f181de5-971b-4e62-8fe1-4fbba3f53f7e","ios":"levelo://app?vid=5f181de5-971b-4e62-8fe1-4fbba3f53f7e"},"vehicle_type_id":"4","last_reported":1729390731,"current_range_meters":26800,"station_id":"ce4bgvp2rcd13ifvqcu0","pricing_plan_id":"cebpf4jnsgd1na2vs0mg"},{"bike_id":"88a6c16e-2cb9-4142-9434-e66382622780","system_id":"levelo_inurba_marseille","lat":43.32338,"lon":5.40621,"is_reserved":false,"is_disabled":false,"rental_uris":{"android":"levelo://app?vid=88a6c16e-2cb9-4142-9434-e66382622780","ios":"levelo://app?vid=88a6c16e-2cb9-4142-9434-e66382622780"},"vehicle_type_id":"4","last_reported":1729390731,"current_range_meters":33600,"station_id":"ce4bhq92rcd13ifvqhjg","pricing_plan_id":"cebpf4jnsgd1na2vs0mg"},{"bike_id":"cf273a89-6a8e-481b-ae0b-31b8ee1c3722","system_id":"levelo_inurba_marseille","lat":43.29889,"lon":5.43631,"is_reserved":false,"is_disabled":false,"rental_uris":{"android":"levelo://app?vid=cf273a89-6a8e-481b-ae0b-31b8ee1c3722","ios":"levelo://app?vid=cf273a89-6a8e-481b-ae0b-31b8ee1c3722"},"vehicle_type_id":"4","last_reported":1729390731,"current_range_meters":30800,"station_id":"ce4bhpp2rcd13ifvqhfg","pricing_plan_id":"cebpf4jnsgd1na2vs0mg"},{"bike_id":"458ea35d-002e-408e-9aa8-4958d0742e29","system_id":"levelo_inurba_marseille","lat":43.32334,"lon":5.38882,"is_reserved":false,"is_disabled":false,"rental_uris":{"android":"levelo://app?vid=458ea35d-002e-408e-9aa8-4958d0742e29","ios":"levelo://app?vid=458ea35d-002e-408e-9aa8-4958d0742e29"},"vehicle_type_id":"4","last_reported":1729390731,"current_range_meters":15200,"station_id":"ce4bhqp2rcd13ifvqhog","pricing_plan_id":"cebpf4jnsgd1na2vs0mg"},{"bike_id":"4d176639-6d16-4f0a-8813-9740a72b7d2a","system_id":"levelo_inurba_marseille","lat":43.29941,"lon":5.36534,"is_reserved":false,"is_disabled":false,"rental_uris":{"android":"levelo://app?vid=4d176639-6d16-4f0a-8813-9740a72b7d2a","ios":"levelo://app?vid=4d176639-6d16-4f0a-8813-9740a72b7d2a"},"vehicle_type_id":"4","last_reported":1729390731,"current_range_meters":28000,"station_id":"ce4bgm92rcd13ifvqbr0","pricing_plan_id":"cebpf4jnsgd1na2vs0mg"},{"bike_id":"1c4ce82e-f03f-4873-b4e8-87353cd83dbd","system_id":"levelo_inurba_marseille","lat":43.29906,"lon":5.43667,"is_reserved":false,"is_disabled":false,"rental_uris":{"android":"levelo://app?vid=1c4ce82e-f03f-4873-b4e8-87353cd83dbd","ios":"levelo://app?vid=1c4ce82e-f03f-4873-b4e8-87353cd83dbd"},"vehicle_type_id":"4","last_reported":1729390731,"current_range_meters":38800,"station_id":"ce4bhpp2rcd13ifvqhfg","pricing_plan_id":"cebpf4jnsgd1na2vs0mg"},{"bike_id":"a50da574-03c5-475b-b6c5-e3885a5b2ef0","system_id":"levelo_inurba_marseille","lat":43.28156,"lon":5.42628,"is_reserved":false,"is_disabled":false,"rental_uris":{"android":"levelo://app?vid=a50da574-03c5-475b-b6c5-e3885a5b2ef0","ios":"levelo://app?vid=a50da574-03c5-475b-b6c5-e3885a5b2ef0"},"vehicle_type_id":"4","last_reported":1729390731,"current_range_meters":19600,"station_id":"ce4bhnh2rcd13ifvqgug","pricing_plan_id":"cebpf4jnsgd1na2vs0mg"},{"bike_id":"fac9a3a2-2dd0-4efd-afd6-73cc4f4edd9a","system_id":"levelo_inurba_marseille","lat":43.24812,"lon":5.37452,"is_reserved":false,"is_disabled":false,"rental_uris":{"android":"levelo://app?vid=fac9a3a2-2dd0-4efd-afd6-73cc4f4edd9a","ios":"levelo://app?vid=fac9a3a2-2dd0-4efd-afd6-73cc4f4edd9a"},"vehicle_type_id":"4","last_reported":1729390731,"current_range_meters":38000,"station_id":"ce4bhgh2rcd13ifvqfb0","pricing_plan_id":"cebpf4jnsgd1na2vs0mg"},{"bike_id":"fd2afc5d-cd0d-4191-adc5-69c9bf150c10","system_id":"levelo_inurba_marseille","lat":43.29259,"lon":5.40139,"is_reserved":false,"is_disabled":false,"rental_uris":{"android":"levelo://app?vid=fd2afc5d-cd0d-4191-adc5-69c9bf150c10","ios":"levelo://app?vid=fd2afc5d-cd0d-4191-adc5-69c9bf150c10"},"vehicle_type_id":"4","last_reported":1729390731,"current_range_meters":12400,"station_id":"ce4bh312rcd13ifvqdk0","pricing_plan_id":"cebpf4jnsgd1na2vs0mg"},{"bike_id":"a459c14b-29d1-40c4-80a7-950dfaa34a2b","system_id":"levelo_inurba_marseille","lat":43.30873,"lon":5.39644,"is_reserved":false,"is_disabled":false,"rental_uris":{"android":"levelo://app?vid=a459c14b-29d1-40c4-80a7-950dfaa34a2b","ios":"levelo://app?vid=a459c14b-29d1-40c4-80a7-950dfaa34a2b"},"vehicle_type_id":"4","last_reported":1729390731,"current_range_meters":19200,"station_id":"ce4bh012rcd13ifvqcv0","pricing_plan_id":"cebpf4jnsgd1na2vs0mg"},{"bike_id":"6e0528bc-1878-41f7-b1aa-15e382b28882","system_id":"levelo_inurba_marseille","lat":43.29016,"lon":5.37554,"is_reserved":false,"is_disabled":false,"rental_uris":{"android":"levelo://app?vid=6e0528bc-1878-41f7-b1aa-15e382b28882","ios":"levelo://app?vid=6e0528bc-1878-41f7-b1aa-15e382b28882"},"vehicle_type_id":"4","last_reported":1729390731,"current_range_meters":38800,"station_id":"ce4bh692rcd13ifvqe90","pricing_plan_id":"cebpf4jnsgd1na2vs0mg"},{"bike_id":"dd7781fa-faee-4f5a-a4ec-a0d7113eef43","system_id":"levelo_inurba_marseille","lat":43.30645,"lon":5.40114,"is_reserved":false,"is_disabled":false,"rental_uris":{"android":"levelo://app?vid=dd7781fa-faee-4f5a-a4ec-a0d7113eef43","ios":"levelo://app?vid=dd7781fa-faee-4f5a-a4ec-a0d7113eef43"},"vehicle_type_id":"4","last_reported":1729390731,"current_range_meters":14000,"station_id":"ce4bh112rcd13ifvqda0","pricing_plan_id":"cebpf4jnsgd1na2vs0mg"},{"bike_id":"65bdf8a7-581b-4618-bccb-c8132147d71a","system_id":"levelo_inurba_marseille","lat":43.27547,"lon":5.36039,"is_reserved":false,"is_disabled":false,"rental_uris":{"android":"levelo://app?vid=65bdf8a7-581b-4618-bccb-c8132147d71a","ios":"levelo://app?vid=65bdf8a7-581b-4618-bccb-c8132147d71a"},"vehicle_type_id":"4","last_reported":1729390731,"current_range_meters":15200,"station_id":"","pricing_plan_id":"cebpf4jnsgd1na2vs0mg"},{"bike_id":"3b4ba1e5-ac30-42f2-bc8a-d6e4130c1c65","system_id":"levelo_inurba_marseille","lat":43.26195,"lon":5.37455,"is_reserved":false,"is_disabled":false,"rental_uris":{"android":"levelo://app?vid=3b4ba1e5-ac30-42f2-bc8a-d6e4130c1c65","ios":"levelo://app?vid=3b4ba1e5-ac30-42f2-bc8a-d6e4130c1c65"},"vehicle_type_id":"4","last_reported":1729390731,"current_range_meters":38800,"station_id":"ce4bhgp2rcd13ifvqfc0","pricing_plan_id":"cebpf4jnsgd1na2vs0mg"},{"bike_id":"f1801bb0-0fdb-47c0-b559-b4d4f31bb218","system_id":"levelo_inurba_marseille","lat":43.30063,"lon":5.39068,"is_reserved":false,"is_disabled":false,"rental_uris":{"android":"levelo://app?vid=f1801bb0-0fdb-47c0-b559-b4d4f31bb218","ios":"levelo://app?vid=f1801bb0-0fdb-47c0-b559-b4d4f31bb218"},"vehicle_type_id":"4","last_reported":1729390731,"current_range_meters":38400,"station_id":"ce4bh192rcd13ifvqdb0","pricing_plan_id":"cebpf4jnsgd1na2vs0mg"},{"bike_id":"528fef3b-bb8b-42d1-985d-ca1adbc390f0","system_id":"levelo_inurba_marseille","lat":43.2439,"lon":5.37056,"is_reserved":false,"is_disabled":false,"rental_uris":{"android":"levelo://app?vid=528fef3b-bb8b-42d1-985d-ca1adbc390f0","ios":"levelo://app?vid=528fef3b-bb8b-42d1-985d-ca1adbc390f0"},"vehicle_type_id":"4","last_reported":1729390731,"current_range_meters":12400,"station_id":"ce4bhhh2rcd13ifvqfk0","pricing_plan_id":"cebpf4jnsgd1na2vs0mg"},{"bike_id":"9fbaf6d7-d66f-469e-ad7b-e24f4ad62bf2","system_id":"levelo_inurba_marseille","lat":43.31101,"lon":5.37772,"is_reserved":false,"is_disabled":false,"rental_uris":{"android":"levelo://app?vid=9fbaf6d7-d66f-469e-ad7b-e24f4ad62bf2","ios":"levelo://app?vid=9fbaf6d7-d66f-469e-ad7b-e24f4ad62bf2"},"vehicle_type_id":"4","last_reported":1729390731,"current_range_meters":38400,"station_id":"ce4bgt92rcd13ifvqcg0","pricing_plan_id":"cebpf4jnsgd1na2vs0mg"},{"bike_id":"ceb1603d-2c49-4a2f-971f-80e7a3348d6a","system_id":"levelo_inurba_marseille","lat":43.33019,"lon":5.39037,"is_reserved":false,"is_disabled":false,"rental_uris":{"android":"levelo://app?vid=ceb1603d-2c49-4a2f-971f-80e7a3348d6a","ios":"levelo://app?vid=ceb1603d-2c49-4a2f-971f-80e7a3348d6a"},"vehicle_type_id":"4","last_reported":1729390731,"current_range_meters":39200,"station_id":"ce4bhr92rcd13ifvqhrg","pricing_plan_id":"cebpf4jnsgd1na2vs0mg"},{"bike_id":"6bd00f8b-916e-44af-90df-bc806f6543a2","system_id":"levelo_inurba_marseille","lat":43.27316,"lon":5.39106,"is_reserved":false,"is_disabled":false,"rental_uris":{"android":"levelo://app?vid=6bd00f8b-916e-44af-90df-bc806f6543a2","ios":"levelo://app?vid=6bd00f8b-916e-44af-90df-bc806f6543a2"},"vehicle_type_id":"4","last_reported":1729390731,"current_range_meters":33600,"station_id":"ce4bhgp2rcd13ifvqfe0","pricing_plan_id":"cebpf4jnsgd1na2vs0mg"},{"bike_id":"9844e503-d4bc-48f3-9db5-980e55dc4bec","system_id":"levelo_inurba_marseille","lat":43.28465,"lon":5.35892,"is_reserved":false,"is_disabled":false,"rental_uris":{"android":"levelo://app?vid=9844e503-d4bc-48f3-9db5-980e55dc4bec","ios":"levelo://app?vid=9844e503-d4bc-48f3-9db5-980e55dc4bec"},"vehicle_type_id":"4","last_reported":1729390731,"current_range_meters":29600,"station_id":"ce4bhah2rcd13ifvqei0","pricing_plan_id":"cebpf4jnsgd1na2vs0mg"},{"bike_id":"8f3e897c-091e-428e-92e2-05d32fbfe4e7","system_id":"levelo_inurba_marseille","lat":43.30591,"lon":5.39349,"is_reserved":false,"is_disabled":false,"rental_uris":{"android":"levelo://app?vid=8f3e897c-091e-428e-92e2-05d32fbfe4e7","ios":"levelo://app?vid=8f3e897c-091e-428e-92e2-05d32fbfe4e7"},"vehicle_type_id":"4","last_reported":1729390731,"current_range_meters":40000,"station_id":"ce4bh0p2rcd13ifvqd80","pricing_plan_id":"cebpf4jnsgd1na2vs0mg"},{"bike_id":"2043ea2a-2fe3-408f-9952-3538ee6d717e","system_id":"levelo_inurba_marseille","lat":43.28207,"lon":5.40365,"is_reserved":false,"is_disabled":false,"rental_uris":{"android":"levelo://app?vid=2043ea2a-2fe3-408f-9952-3538ee6d717e","ios":"levelo://app?vid=2043ea2a-2fe3-408f-9952-3538ee6d717e"},"vehicle_type_id":"4","last_reported":1729390731,"current_range_meters":33600,"station_id":"","pricing_plan_id":"cebpf4jnsgd1na2vs0mg"},{"bike_id":"4cf3e5d8-4f9a-4007-b965-622ecd99339e","system_id":"levelo_inurba_marseille","lat":43.31074,"lon":5.40085,"is_reserved":false,"is_disabled":false,"rental_uris":{"android":"levelo://app?vid=4cf3e5d8-4f9a-4007-b965-622ecd99339e","ios":"levelo://app?vid=4cf3e5d8-4f9a-4007-b965-622ecd99339e"},"vehicle_type_id":"4","last_reported":1729390731,"current_range_meters":10800,"station_id":"","pricing_plan_id":"cebpf4jnsgd1na2vs0mg"},{"bike_id":"c34e2acb-3afe-4aa1-8cdb-c481d100b683","system_id":"levelo_inurba_marseille","lat":43.32489,"lon":5.3657,"is_reserved":false,"is_disabled":false,"rental_uris":{"android":"levelo://app?vid=c34e2acb-3afe-4aa1-8cdb-c481d100b683","ios":"levelo://app?vid=c34e2acb-3afe-4aa1-8cdb-c481d100b683"},"vehicle_type_id":"4","last_reported":1729390731,"current_range_meters":22800,"station_id":"ce4bhs12rcd13ifvqhvg","pricing_plan_id":"cebpf4jnsgd1na2vs0mg"},{"bike_id":"19e0c7ba-a3f7-43e2-aca8-366f22e4e87d","system_id":"levelo_inurba_marseille","lat":43.33744,"lon":5.39182,"is_reserved":false,"is_disabled":false,"rental_uris":{"android":"levelo://app?vid=19e0c7ba-a3f7-43e2-aca8-366f22e4e87d","ios":"levelo://app?vid=19e0c7ba-a3f7-43e2-aca8-366f22e4e87d"},"vehicle_type_id":"4","last_reported":1729390731,"current_range_meters":38400,"station_id":"ce4bhr92rcd13ifvqhsg","pricing_plan_id":"cebpf4jnsgd1na2vs0mg"},{"bike_id":"dc1671ee-37a9-4563-85ac-9c05583fa151","system_id":"levelo_inurba_marseille","lat":43.30503,"lon":5.37882,"is_reserved":false,"is_disabled":false,"rental_uris":{"android":"levelo://app?vid=dc1671ee-37a9-4563-85ac-9c05583fa151","ios":"levelo://app?vid=dc1671ee-37a9-4563-85ac-9c05583fa151"},"vehicle_type_id":"4","last_reported":1729390731,"current_range_meters":37600,"station_id":"ce4bgup2rcd13ifvqcn0","pricing_plan_id":"cebpf4jnsgd1na2vs0mg"},{"bike_id":"f9928a1b-5e01-4359-8549-3825d8c7f41a","system_id":"levelo_inurba_marseille","lat":43.22928,"lon":5.35385,"is_reserved":false,"is_disabled":false,"rental_uris":{"android":"levelo://app?vid=f9928a1b-5e01-4359-8549-3825d8c7f41a","ios":"levelo://app?vid=f9928a1b-5e01-4359-8549-3825d8c7f41a"},"vehicle_type_id":"4","last_reported":1729390731,"current_range_meters":38800,"station_id":"cpo3532slgdg3j2ikp40","pricing_plan_id":"cebpf4jnsgd1na2vs0mg"},{"bike_id":"a1a7d3ed-365b-4260-b205-0c746b54ce25","system_id":"levelo_inurba_marseille","lat":43.27566,"lon":5.38421,"is_reserved":false,"is_disabled":false,"rental_uris":{"android":"levelo://app?vid=a1a7d3ed-365b-4260-b205-0c746b54ce25","ios":"levelo://app?vid=a1a7d3ed-365b-4260-b205-0c746b54ce25"},"vehicle_type_id":"4","last_reported":1729390731,"current_range_meters":37600,"station_id":"ce4bhh92rcd13ifvqfi0","pricing_plan_id":"cebpf4jnsgd1na2vs0mg"},{"bike_id":"d8ec393f-4484-4f65-969b-8ae2145a9b2b","system_id":"levelo_inurba_marseille","lat":43.31898,"lon":5.40732,"is_reserved":false,"is_disabled":false,"rental_uris":{"android":"levelo://app?vid=d8ec393f-4484-4f65-969b-8ae2145a9b2b","ios":"levelo://app?vid=d8ec393f-4484-4f65-969b-8ae2145a9b2b"},"vehicle_type_id":"4","last_reported":1729390731,"current_range_meters":30800,"station_id":"ce4bhq12rcd13ifvqhig","pricing_plan_id":"cebpf4jnsgd1na2vs0mg"},{"bike_id":"b3da6c3a-2a10-4172-a1ac-14d12204275b","system_id":"levelo_inurba_marseille","lat":43.27496,"lon":5.42462,"is_reserved":false,"is_disabled":false,"rental_uris":{"android":"levelo://app?vid=b3da6c3a-2a10-4172-a1ac-14d12204275b","ios":"levelo://app?vid=b3da6c3a-2a10-4172-a1ac-14d12204275b"},"vehicle_type_id":"4","last_reported":1729390731,"current_range_meters":37600,"station_id":"ce4bhn92rcd13ifvqgrg","pricing_plan_id":"cebpf4jnsgd1na2vs0mg"},{"bike_id":"da57fedc-7e7e-49e9-b674-21ebe804bbf1","system_id":"levelo_inurba_marseille","lat":43.31122,"lon":5.37767,"is_reserved":false,"is_disabled":false,"rental_uris":{"android":"levelo://app?vid=da57fedc-7e7e-49e9-b674-21ebe804bbf1","ios":"levelo://app?vid=da57fedc-7e7e-49e9-b674-21ebe804bbf1"},"vehicle_type_id":"4","last_reported":1729390731,"current_range_meters":32800,"station_id":"ce4bgt92rcd13ifvqcg0","pricing_plan_id":"cebpf4jnsgd1na2vs0mg"},{"bike_id":"a7b7a404-4daf-4700-b81b-e63a35f02840","system_id":"levelo_inurba_marseille","lat":43.24407,"lon":5.37062,"is_reserved":false,"is_disabled":false,"rental_uris":{"android":"levelo://app?vid=a7b7a404-4daf-4700-b81b-e63a35f02840","ios":"levelo://app?vid=a7b7a404-4daf-4700-b81b-e63a35f02840"},"vehicle_type_id":"4","last_reported":1729390731,"current_range_meters":36800,"station_id":"ce4bhhh2rcd13ifvqfk0","pricing_plan_id":"cebpf4jnsgd1na2vs0mg"},{"bike_id":"6a334de2-5f53-4d72-956f-19bd452311c5","system_id":"levelo_inurba_marseille","lat":43.24071,"lon":5.37758,"is_reserved":false,"is_disabled":false,"rental_uris":{"android":"levelo://app?vid=6a334de2-5f53-4d72-956f-19bd452311c5","ios":"levelo://app?vid=6a334de2-5f53-4d72-956f-19bd452311c5"},"vehicle_type_id":"4","last_reported":1729390731,"current_range_meters":30400,"station_id":"ce4bhnp2rcd13ifvqgvg","pricing_plan_id":"cebpf4jnsgd1na2vs0mg"},{"bike_id":"ee026ab5-3618-48cd-990a-86fb331daa48","system_id":"levelo_inurba_marseille","lat":43.28717,"lon":5.36075,"is_reserved":false,"is_disabled":false,"rental_uris":{"android":"levelo://app?vid=ee026ab5-3618-48cd-990a-86fb331daa48","ios":"levelo://app?vid=ee026ab5-3618-48cd-990a-86fb331daa48"},"vehicle_type_id":"4","last_reported":1729390731,"current_range_meters":39200,"station_id":"cki0cbj6b192h4jlfktg","pricing_plan_id":"cebpf4jnsgd1na2vs0mg"},{"bike_id":"a0b4c194-1974-4888-85e2-7cfc7aeed116","system_id":"levelo_inurba_marseille","lat":43.3171,"lon":5.43701,"is_reserved":false,"is_disabled":false,"rental_uris":{"android":"levelo://app?vid=a0b4c194-1974-4888-85e2-7cfc7aeed116","ios":"levelo://app?vid=a0b4c194-1974-4888-85e2-7cfc7aeed116"},"vehicle_type_id":"4","last_reported":1729390731,"current_range_meters":38400,"station_id":"ce4bhp92rcd13ifvqhcg","pricing_plan_id":"cebpf4jnsgd1na2vs0mg"},{"bike_id":"84683f0d-cf9c-47e1-a697-233126fe0789","system_id":"levelo_inurba_marseille","lat":43.24674,"lon":5.38162,"is_reserved":false,"is_disabled":false,"rental_uris":{"android":"levelo://app?vid=84683f0d-cf9c-47e1-a697-233126fe0789","ios":"levelo://app?vid=84683f0d-cf9c-47e1-a697-233126fe0789"},"vehicle_type_id":"4","last_reported":1729390731,"current_range_meters":38400,"station_id":"ce4bhih2rcd13ifvqfr0","pricing_plan_id":"cebpf4jnsgd1na2vs0mg"},{"bike_id":"7e9d02a5-c6a9-4358-bf17-12bcec4e63e0","system_id":"levelo_inurba_marseille","lat":43.29552,"lon":5.42283,"is_reserved":false,"is_disabled":false,"rental_uris":{"android":"levelo://app?vid=7e9d02a5-c6a9-4358-bf17-12bcec4e63e0","ios":"levelo://app?vid=7e9d02a5-c6a9-4358-bf17-12bcec4e63e0"},"vehicle_type_id":"4","last_reported":1729390731,"current_range_meters":35600,"station_id":"ce4bhph2rcd13ifvqhdg","pricing_plan_id":"cebpf4jnsgd1na2vs0mg"},{"bike_id":"fe86b217-2ac6-4b58-8d39-b533227f0ffe","system_id":"levelo_inurba_marseille","lat":43.27946,"lon":5.41039,"is_reserved":false,"is_disabled":false,"rental_uris":{"android":"levelo://app?vid=fe86b217-2ac6-4b58-8d39-b533227f0ffe","ios":"levelo://app?vid=fe86b217-2ac6-4b58-8d39-b533227f0ffe"},"vehicle_type_id":"4","last_reported":1729390731,"current_range_meters":9600,"station_id":"ce4bhnp2rcd13ifvqh0g","pricing_plan_id":"cebpf4jnsgd1na2vs0mg"},{"bike_id":"93b4209c-82d5-4e43-be00-db9f5b7fa144","system_id":"levelo_inurba_marseille","lat":43.27955,"lon":5.41052,"is_reserved":false,"is_disabled":false,"rental_uris":{"android":"levelo://app?vid=93b4209c-82d5-4e43-be00-db9f5b7fa144","ios":"levelo://app?vid=93b4209c-82d5-4e43-be00-db9f5b7fa144"},"vehicle_type_id":"4","last_reported":1729390731,"current_range_meters":39200,"station_id":"ce4bhnp2rcd13ifvqh0g","pricing_plan_id":"cebpf4jnsgd1na2vs0mg"},{"bike_id":"78d24d41-71e6-4e87-9147-735fa7bb813d","system_id":"levelo_inurba_marseille","lat":43.30887,"lon":5.37227,"is_reserved":false,"is_disabled":false,"rental_uris":{"android":"levelo://app?vid=78d24d41-71e6-4e87-9147-735fa7bb813d","ios":"levelo://app?vid=78d24d41-71e6-4e87-9147-735fa7bb813d"},"vehicle_type_id":"4","last_reported":1729390731,"current_range_meters":36800,"station_id":"ce4bguh2rcd13ifvqckg","pricing_plan_id":"cebpf4jnsgd1na2vs0mg"},{"bike_id":"0dbac522-370f-4f96-8af7-6bd8ec6b5702","system_id":"levelo_inurba_marseille","lat":43.29829,"lon":5.37103,"is_reserved":false,"is_disabled":false,"rental_uris":{"android":"levelo://app?vid=0dbac522-370f-4f96-8af7-6bd8ec6b5702","ios":"levelo://app?vid=0dbac522-370f-4f96-8af7-6bd8ec6b5702"},"vehicle_type_id":"4","last_reported":1729390731,"current_range_meters":36800,"station_id":"ce4bgop2rcd13ifvqc1g","pricing_plan_id":"cebpf4jnsgd1na2vs0mg"},{"bike_id":"1b1face1-d4d1-46ce-8a24-3f66350ec15f","system_id":"levelo_inurba_marseille","lat":43.29527,"lon":5.39405,"is_reserved":false,"is_disabled":false,"rental_uris":{"android":"levelo://app?vid=1b1face1-d4d1-46ce-8a24-3f66350ec15f","ios":"levelo://app?vid=1b1face1-d4d1-46ce-8a24-3f66350ec15f"},"vehicle_type_id":"4","last_reported":1729390731,"current_range_meters":28000,"station_id":"ce4bh292rcd13ifvqdf0","pricing_plan_id":"cebpf4jnsgd1na2vs0mg"},{"bike_id":"c03f3c04-c920-4eab-9315-be6046e66ce2","system_id":"levelo_inurba_marseille","lat":43.30328,"lon":5.40443,"is_reserved":false,"is_disabled":false,"rental_uris":{"android":"levelo://app?vid=c03f3c04-c920-4eab-9315-be6046e66ce2","ios":"levelo://app?vid=c03f3c04-c920-4eab-9315-be6046e66ce2"},"vehicle_type_id":"4","last_reported":1729390731,"current_range_meters":25600,"station_id":"ce4bh012rcd13ifvqd10","pricing_plan_id":"cebpf4jnsgd1na2vs0mg"},{"bike_id":"3049b589-f7d6-4889-a21b-17618fe6b55b","system_id":"levelo_inurba_marseille","lat":43.27796,"lon":5.40735,"is_reserved":false,"is_disabled":false,"rental_uris":{"android":"levelo://app?vid=3049b589-f7d6-4889-a21b-17618fe6b55b","ios":"levelo://app?vid=3049b589-f7d6-4889-a21b-17618fe6b55b"},"vehicle_type_id":"4","last_reported":1729390731,"current_range_meters":3200,"station_id":"ce4bhnh2rcd13ifvqgtg","pricing_plan_id":"cebpf4jnsgd1na2vs0mg"},{"bike_id":"fbdac3bf-82a9-48aa-9126-a52507838ce3","system_id":"levelo_inurba_marseille","lat":43.29624,"lon":5.37348,"is_reserved":false,"is_disabled":false,"rental_uris":{"android":"levelo://app?vid=fbdac3bf-82a9-48aa-9126-a52507838ce3","ios":"levelo://app?vid=fbdac3bf-82a9-48aa-9126-a52507838ce3"},"vehicle_type_id":"4","last_reported":1729390731,"current_range_meters":3200,"station_id":"","pricing_plan_id":"cebpf4jnsgd1na2vs0mg"},{"bike_id":"251c2ece-8912-4dfb-9847-d8f9ff013dd6","system_id":"levelo_inurba_marseille","lat":43.24667,"lon":5.381705,"is_reserved":false,"is_disabled":false,"rental_uris":{"android":"levelo://app?vid=251c2ece-8912-4dfb-9847-d8f9ff013dd6","ios":"levelo://app?vid=251c2ece-8912-4dfb-9847-d8f9ff013dd6"},"vehicle_type_id":"4","last_reported":1729390731,"current_range_meters":24000,"station_id":"ce4bhih2rcd13ifvqfr0","pricing_plan_id":"cebpf4jnsgd1na2vs0mg"},{"bike_id":"22d65553-f297-40d9-b189-d991f1a779bb","system_id":"levelo_inurba_marseille","lat":43.295393,"lon":5.393943,"is_reserved":false,"is_disabled":false,"rental_uris":{"android":"levelo://app?vid=22d65553-f297-40d9-b189-d991f1a779bb","ios":"levelo://app?vid=22d65553-f297-40d9-b189-d991f1a779bb"},"vehicle_type_id":"4","last_reported":1729390731,"current_range_meters":28000,"station_id":"ce4bh292rcd13ifvqdf0","pricing_plan_id":"cebpf4jnsgd1na2vs0mg"},{"bike_id":"831694b9-27d1-4291-a73b-97f20f1db91f","system_id":"levelo_inurba_marseille","lat":43.25087,"lon":5.39538,"is_reserved":false,"is_disabled":false,"rental_uris":{"android":"levelo://app?vid=831694b9-27d1-4291-a73b-97f20f1db91f","ios":"levelo://app?vid=831694b9-27d1-4291-a73b-97f20f1db91f"},"vehicle_type_id":"4","last_reported":1729390731,"current_range_meters":38400,"station_id":"ce4bhm12rcd13ifvqgkg","pricing_plan_id":"cebpf4jnsgd1na2vs0mg"},{"bike_id":"263735bb-642e-43b6-bf3b-411b1fb3812a","system_id":"levelo_inurba_marseille","lat":43.27216,"lon":5.39181,"is_reserved":false,"is_disabled":false,"rental_uris":{"android":"levelo://app?vid=263735bb-642e-43b6-bf3b-411b1fb3812a","ios":"levelo://app?vid=263735bb-642e-43b6-bf3b-411b1fb3812a"},"vehicle_type_id":"4","last_reported":1729390731,"current_range_meters":38400,"station_id":"ce4bhhp2rcd13ifvqfm0","pricing_plan_id":"cebpf4jnsgd1na2vs0mg"},{"bike_id":"48cfdb9c-e73d-4b76-a21b-179a33e07bed","system_id":"levelo_inurba_marseille","lat":43.27943,"lon":5.41034,"is_reserved":false,"is_disabled":false,"rental_uris":{"android":"levelo://app?vid=48cfdb9c-e73d-4b76-a21b-179a33e07bed","ios":"levelo://app?vid=48cfdb9c-e73d-4b76-a21b-179a33e07bed"},"vehicle_type_id":"4","last_reported":1729390731,"current_range_meters":33600,"station_id":"ce4bhnp2rcd13ifvqh0g","pricing_plan_id":"cebpf4jnsgd1na2vs0mg"},{"bike_id":"96c0370a-2117-4376-938b-85413456106b","system_id":"levelo_inurba_marseille","lat":43.31719,"lon":5.37735,"is_reserved":false,"is_disabled":false,"rental_uris":{"android":"levelo://app?vid=96c0370a-2117-4376-938b-85413456106b","ios":"levelo://app?vid=96c0370a-2117-4376-938b-85413456106b"},"vehicle_type_id":"4","last_reported":1729390731,"current_range_meters":37600,"station_id":"ce4bgth2rcd13ifvqch0","pricing_plan_id":"cebpf4jnsgd1na2vs0mg"},{"bike_id":"da93eec3-4684-4e15-86fe-b937c6f56d64","system_id":"levelo_inurba_marseille","lat":43.292869,"lon":5.368223,"is_reserved":false,"is_disabled":false,"rental_uris":{"android":"levelo://app?vid=da93eec3-4684-4e15-86fe-b937c6f56d64","ios":"levelo://app?vid=da93eec3-4684-4e15-86fe-b937c6f56d64"},"vehicle_type_id":"4","last_reported":1729390731,"current_range_meters":38800,"station_id":"ce4bhbp2rcd13ifvqesg","pricing_plan_id":"cebpf4jnsgd1na2vs0mg"},{"bike_id":"d66bd0ae-b590-4029-ae7d-0fa65a35f925","system_id":"levelo_inurba_marseille","lat":43.33603,"lon":5.41005,"is_reserved":false,"is_disabled":false,"rental_uris":{"android":"levelo://app?vid=d66bd0ae-b590-4029-ae7d-0fa65a35f925","ios":"levelo://app?vid=d66bd0ae-b590-4029-ae7d-0fa65a35f925"},"vehicle_type_id":"4","last_reported":1729390731,"current_range_meters":19200,"station_id":"ce4bhqh2rcd13ifvqhmg","pricing_plan_id":"cebpf4jnsgd1na2vs0mg"},{"bike_id":"7ed967a8-bea9-4f9e-9267-be1db2d46fe4","system_id":"levelo_inurba_marseille","lat":43.3043,"lon":5.38881,"is_reserved":false,"is_disabled":false,"rental_uris":{"android":"levelo://app?vid=7ed967a8-bea9-4f9e-9267-be1db2d46fe4","ios":"levelo://app?vid=7ed967a8-bea9-4f9e-9267-be1db2d46fe4"},"vehicle_type_id":"4","last_reported":1729390731,"current_range_meters":12400,"station_id":"ce4bgk12rcd13ifvqbi0","pricing_plan_id":"cebpf4jnsgd1na2vs0mg"},{"bike_id":"872090ed-b88c-40de-97cb-0a8e4a87ae59","system_id":"levelo_inurba_marseille","lat":43.30548,"lon":5.38433,"is_reserved":false,"is_disabled":false,"rental_uris":{"android":"levelo://app?vid=872090ed-b88c-40de-97cb-0a8e4a87ae59","ios":"levelo://app?vid=872090ed-b88c-40de-97cb-0a8e4a87ae59"},"vehicle_type_id":"4","last_reported":1729390731,"current_range_meters":38800,"station_id":"ce4bgg92rcd13ifvqb30","pricing_plan_id":"cebpf4jnsgd1na2vs0mg"},{"bike_id":"0070ae3c-019c-45a4-b7c4-cac83bbfa099","system_id":"levelo_inurba_marseille","lat":43.28457,"lon":5.35889,"is_reserved":false,"is_disabled":false,"rental_uris":{"android":"levelo://app?vid=0070ae3c-019c-45a4-b7c4-cac83bbfa099","ios":"levelo://app?vid=0070ae3c-019c-45a4-b7c4-cac83bbfa099"},"vehicle_type_id":"4","last_reported":1729390731,"current_range_meters":12400,"station_id":"ce4bhah2rcd13ifvqei0","pricing_plan_id":"cebpf4jnsgd1na2vs0mg"},{"bike_id":"02b99d41-0727-45dd-8b05-f76d6d331f44","system_id":"levelo_inurba_marseille","lat":43.28107,"lon":5.37827,"is_reserved":false,"is_disabled":false,"rental_uris":{"android":"levelo://app?vid=02b99d41-0727-45dd-8b05-f76d6d331f44","ios":"levelo://app?vid=02b99d41-0727-45dd-8b05-f76d6d331f44"},"vehicle_type_id":"4","last_reported":1729390731,"current_range_meters":10800,"station_id":"ce4bha12rcd13ifvqee0","pricing_plan_id":"cebpf4jnsgd1na2vs0mg"},{"bike_id":"cfdbc031-1d29-43df-9f69-452b0c9f4985","system_id":"levelo_inurba_marseille","lat":43.31278,"lon":5.40163,"is_reserved":false,"is_disabled":false,"rental_uris":{"android":"levelo://app?vid=cfdbc031-1d29-43df-9f69-452b0c9f4985","ios":"levelo://app?vid=cfdbc031-1d29-43df-9f69-452b0c9f4985"},"vehicle_type_id":"4","last_reported":1729390731,"current_range_meters":10800,"station_id":"ce4bh092rcd13ifvqd30","pricing_plan_id":"cebpf4jnsgd1na2vs0mg"},{"bike_id":"f3b18d4c-688e-4e02-9104-7f1d559134af","system_id":"levelo_inurba_marseille","lat":43.32119,"lon":5.36769,"is_reserved":false,"is_disabled":false,"rental_uris":{"android":"levelo://app?vid=f3b18d4c-688e-4e02-9104-7f1d559134af","ios":"levelo://app?vid=f3b18d4c-688e-4e02-9104-7f1d559134af"},"vehicle_type_id":"4","last_reported":1729390731,"current_range_meters":38000,"station_id":"ce4bhrh2rcd13ifvqhug","pricing_plan_id":"cebpf4jnsgd1na2vs0mg"},{"bike_id":"99a36e8e-83dc-4174-97c1-e95b5764b998","system_id":"levelo_inurba_marseille","lat":43.23965,"lon":5.36626,"is_reserved":false,"is_disabled":false,"rental_uris":{"android":"levelo://app?vid=99a36e8e-83dc-4174-97c1-e95b5764b998","ios":"levelo://app?vid=99a36e8e-83dc-4174-97c1-e95b5764b998"},"vehicle_type_id":"4","last_reported":1729390731,"current_range_meters":16800,"station_id":"ce4bhi12rcd13ifvqfp0","pricing_plan_id":"cebpf4jnsgd1na2vs0mg"},{"bike_id":"044e7643-e166-4e08-bae3-a8ed673622ad","system_id":"levelo_inurba_marseille","lat":43.27068,"lon":5.42276,"is_reserved":false,"is_disabled":false,"rental_uris":{"android":"levelo://app?vid=044e7643-e166-4e08-bae3-a8ed673622ad","ios":"levelo://app?vid=044e7643-e166-4e08-bae3-a8ed673622ad"},"vehicle_type_id":"4","last_reported":1729390731,"current_range_meters":39200,"station_id":"ce4bhk92rcd13ifvqgb0","pricing_plan_id":"cebpf4jnsgd1na2vs0mg"},{"bike_id":"fc9b3fc1-600b-416a-b916-9cf37562dae6","system_id":"levelo_inurba_marseille","lat":43.31332,"lon":5.39699,"is_reserved":false,"is_disabled":false,"rental_uris":{"android":"levelo://app?vid=fc9b3fc1-600b-416a-b916-9cf37562dae6","ios":"levelo://app?vid=fc9b3fc1-600b-416a-b916-9cf37562dae6"},"vehicle_type_id":"4","last_reported":1729390731,"current_range_meters":38800,"station_id":"ce4bgvp2rcd13ifvqcu0","pricing_plan_id":"cebpf4jnsgd1na2vs0mg"},{"bike_id":"8a61b0d3-96ba-49fc-af75-dd8176297036","system_id":"levelo_inurba_marseille","lat":43.23954,"lon":5.36618,"is_reserved":false,"is_disabled":false,"rental_uris":{"android":"levelo://app?vid=8a61b0d3-96ba-49fc-af75-dd8176297036","ios":"levelo://app?vid=8a61b0d3-96ba-49fc-af75-dd8176297036"},"vehicle_type_id":"4","last_reported":1729390731,"current_range_meters":11200,"station_id":"ce4bhi12rcd13ifvqfp0","pricing_plan_id":"cebpf4jnsgd1na2vs0mg"},