{"last_updated":1750493556,"ttl":60,"version":"2.2","data":{"bikes":[{"bike_id":"3da29fb8-fc97-44c6-b9ac-31dd456b2fd4","system_id":"levelo_inurba_marseille","lat":43.33771,"lon":5.37424,"is_reserved":false,"is_disabled":true,"rental_uris":{"android":"levelo://app?vid=3da29fb8-fc97-44c6-b9ac-31dd456b2fd4","ios":"levelo://app?vid=3da29fb8-fc97-44c6-b9ac-31dd456b2fd4"},"vehicle_type_id":"4","last_reported":1750493556,"current_range_meters":0,"station_id":"","pricing_plan_id":"cebpf4jnsgd1na2vs0mg"},{"bike_id":"01861ad8-a8d7-4be6-816e-651927c87584","system_id":"levelo_inurba_marseille","lat":43.33751,"lon":5.37456,"is_reserved":false,"is_disabled":true,"rental_uris":{"android":"levelo://app?vid=01861ad8-a8d7-4be6-816e-651927c87584","ios":"levelo://app?vid=01861ad8-a8d7-4be6-816e-651927c87584"},"vehicle_type_id":"4","last_reported":1750493556,"current_range_meters":0,"station_id":"","pricing_plan_id":"cebpf4jnsgd1na2vs0mg"},{"bike_id":"7bcccf35-e344-4f00-9a7f-199c76d3c58d","system_id":"levelo_inurba_marseille","lat":43.29146,"lon":5.41668,"is_reserved":false,"is_disabled":true,"rental_uris":{"android":"levelo://app?vid=7bcccf35-e344-4f00-9a7f-199c76d3c58d","ios":"levelo://app?vid=7bcccf35-e344-4f00-9a7f-199c76d3c58d"},"vehicle_type_id":"4","last_reported":1750493556,"current_range_meters":0,"station_id":"","pricing_plan_id":"cebpf4jnsgd1na2vs0mg"},{"bike_id":"62a493c7-4534-4419-ad43-0582de34a72a","system_id":"levelo_inurba_marseille","lat":43.21366,"lon":5.355183,"is_reserved":false,"is_disabled":true,"rental_uris":{"android":"levelo://app?vid=62a493c7-4534-4419-ad43-0582de34a72a","ios":"levelo://app?vid=62a493c7-4534-4419-ad43-0582de34a72a"},"vehicle_type_id":"4","last_reported":1750493556,"current_range_meters":0,"station_id":"","pricing_plan_id":"cebpf4jnsgd1na2vs0mg"},{"bike_id":"d6609b4f-333b-43c1-9ebe-8726f5e76e88","system_id":"levelo_inurba_marseille","lat":43.337444,"lon":5.374475,"is_reserved":false,"is_disabled":true,"rental_uris":{"android":"levelo://app?vid=d6609b4f-333b-43c1-9ebe-8726f5e76e88","ios":"levelo://app?vid=d6609b4f-333b-43c1-9ebe-8726f5e76e88"},"vehicle_type_id":"4","last_reported":1750493556,"current_range_meters":0,"station_id":"","pricing_plan_id":"cebpf4jnsgd1na2vs0mg"},{"bike_id":"adf3c381-3ee6-4d52-9946-c8bdb25b221c","system_id":"levelo_inurba_marseille","lat":43.21191,"lon":5.35072,"is_reserved":false,"is_disabled":true,"rental_uris":{"android":"levelo://app?vid=adf3c381-3ee6-4d52-9946-c8bdb25b221c","ios":"levelo://app?vid=adf3c381-3ee6-4d52-9946-c8bdb25b221c"},"vehicle_type_id":"4","last_reported":1750493556,"current_range_meters":0,"station_id":"","pricing_plan_id":"cebpf4jnsgd1na2vs0mg"},{"bike_id":"11e13553-c475-421d-a348-bac5f0dccdd0","system_id":"levelo_inurba_marseille","lat":43.273176,"lon":5.399457,"is_reserved":false,"is_disabled":true,"rental_uris":{"android":"levelo://app?vid=11e13553-c475-421d-a348-bac5f0dccdd0","ios":"levelo://app?vid=11e13553-c475-421d-a348-bac5f0dccdd0"},"vehicle_type_id":"4","last_reported":1750493556,"current_range_meters":0,"station_id":"","pricing_plan_id":"cebpf4jnsgd1na2vs0mg"},{"bike_id":"45bbf0a9-fb71-4554-b265-a4213254df71","system_id":"levelo_inurba_marseille","lat":43.291958,"lon":5.357966,"is_reserved":false,"is_disabled":true,"rental_uris":{"android":"levelo://app?vid=45bbf0a9-fb71-4554-b265-a4213254df71","ios":"levelo://app?vid=45bbf0a9-fb71-4554-b265-a4213254df71"},"vehicle_type_id":"4","last_reported":1750493556,"current_range_meters":0,"station_id":"ce4bgip2rcd13ifvqbb0","pricing_plan_id":"cebpf4jnsgd1na2vs0mg"},{"bike_id":"1931f0a6-dae7-4384-962b-1abe31f395a6","system_id":"levelo_inurba_marseille","lat":43.31103,"lon":5.37781,"is_reserved":false,"is_disabled":true,"rental_uris":{"android":"levelo://app?vid=1931f0a6-dae7-4384-962b-1abe31f395a6","ios":"levelo://app?vid=1931f0a6-dae7-4384-962b-1abe31f395a6"},"vehicle_type_id":"4","last_reported":1750493556,"current_range_meters":0,"station_id":"ce4bgt92rcd13ifvqcg0","pricing_plan_id":"cebpf4jnsgd1na2vs0mg"},{"bike_id":"f5ff3132-31ee-4836-9868-c1e2a30fb8cd","system_id":"levelo_inurba_marseille","lat":43.28414,"lon":5.3499,"is_reserved":false,"is_disabled":true,"rental_uris":{"android":"levelo://app?vid=f5ff3132-31ee-4836-9868-c1e2a30fb8cd","ios":"levelo://app?vid=f5ff3132-31ee-4836-9868-c1e2a30fb8cd"},"vehicle_type_id":"4","last_reported":1750493556,"current_range_meters":0,"station_id":"ce4bhbh2rcd13ifvqepg","pricing_plan_id":"cebpf4jnsgd1na2vs0mg"},{"bike_id":"55f350e3-b7e3-4dd0-ab7a-b7ecf6f9626f","system_id":"levelo_inurba_marseille","lat":43.28614,"lon":5.35106,"is_reserved":false,"is_disabled":true,"rental_uris":{"android":"levelo://app?vid=55f350e3-b7e3-4dd0-ab7a-b7ecf6f9626f","ios":"levelo://app?vid=55f350e3-b7e3-4dd0-ab7a-b7ecf6f9626f"},"vehicle_type_id":"4","last_reported":1750493556,"current_range_meters":0,"station_id":"ce4bhch2rcd13ifvqeug","pricing_plan_id":"cebpf4jnsgd1na2vs0mg"},{"bike_id":"87cb18f3-64e3-49c8-8b90-7685c113a261","system_id":"levelo_inurba_marseille","lat":43.286102,"lon":5.351023,"is_reserved":false,"is_disabled":true,"rental_uris":{"android":"levelo://app?vid=87cb18f3-64e3-49c8-8b90-7685c113a261","ios":"levelo://app?vid=87cb18f3-64e3-49c8-8b90-7685c113a261"},"vehicle_type_id":"4","last_reported":1750493556,"current_range_meters":0,"station_id":"ce4bhch2rcd13ifvqeug","pricing_plan_id":"cebpf4jnsgd1na2vs0mg"},{"bike_id":"22fc0cd4-03e6-4046-9be9-b0065f0e0d6d","system_id":"levelo_inurba_marseille","lat":43.23181,"lon":5.39988,"is_reserved":false,"is_disabled":true,"rental_uris":{"android":"levelo://app?vid=22fc0cd4-03e6-4046-9be9-b0065f0e0d6d","ios":"levelo://app?vid=22fc0cd4-03e6-4046-9be9-b0065f0e0d6d"},"vehicle_type_id":"4","last_reported":1750493556,"current_range_meters":0,"station_id":"ce4bhn12rcd13ifvqgqg","pricing_plan_id":"cebpf4jnsgd1na2vs0mg"},{"bike_id":"bc824ca5-0243-45ce-b51f-4a47ad664adc","system_id":"levelo_inurba_marseille","lat":43.32356,"lon":5.38887,"is_reserved":false,"is_disabled":true,"rental_uris":{"android":"levelo://app?vid=bc824ca5-0243-45ce-b51f-4a47ad664adc","ios":"levelo://app?vid=bc824ca5-0243-45ce-b51f-4a47ad664adc"},"vehicle_type_id":"4","last_reported":1750493556,"current_range_meters":0,"station_id":"ce4bhqp2rcd13ifvqhog","pricing_plan_id":"cebpf4jnsgd1na2vs0mg"},{"bike_id":"d7634968-62bf-4317-b3c7-34a7404b7f24","system_id":"levelo_inurba_marseille","lat":43.23183,"lon":5.35552,"is_reserved":false,"is_disabled":true,"rental_uris":{"android":"levelo://app?vid=d7634968-62bf-4317-b3c7-34a7404b7f24","ios":"levelo://app?vid=d7634968-62bf-4317-b3c7-34a7404b7f24"},"vehicle_type_id":"4","last_reported":1750493556,"current_range_meters":0,"station_id":"ce4bhu92rcd13ifvqi70","pricing_plan_id":"cebpf4jnsgd1na2vs0mg"},{"bike_id":"4ed6540b-1750-472b-996b-233d46510f7a","system_id":"levelo_inurba_marseille","lat":43.241692,"lon":5.36385,"is_reserved":false,"is_disabled":true,"rental_uris":{"android":"levelo://app?vid=4ed6540b-1750-472b-996b-233d46510f7a","ios":"levelo://app?vid=4ed6540b-1750-472b-996b-233d46510f7a"},"vehicle_type_id":"4","last_reported":1750493556,"current_range_meters":0,"station_id":"cpo36qri1sfpv3e86is0","pricing_plan_id":"cebpf4jnsgd1na2vs0mg"},{"bike_id":"24466bb8-ea46-418f-a473-cce465177766","system_id":"levelo_inurba_marseille","lat":43.21745,"lon":5.34595,"is_reserved":false,"is_disabled":true,"rental_uris":{"android":"levelo://app?vid=24466bb8-ea46-418f-a473-cce465177766","ios":"levelo://app?vid=24466bb8-ea46-418f-a473-cce465177766"},"vehicle_type_id":"4","last_reported":1750493556,"current_range_meters":0,"station_id":"st_cvj6r9ubvosntc0bgbag","pricing_plan_id":"cebpf4jnsgd1na2vs0mg"},{"bike_id":"0d3e11e4-bfa6-462c-9e69-d82553a786bf","system_id":"levelo_inurba_marseille","lat":43.27371,"lon":5.36257,"is_reserved":false,"is_disabled":false,"rental_uris":{"android":"levelo://app?vid=0d3e11e4-bfa6-462c-9e69-d82553a786bf","ios":"levelo://app?vid=0d3e11e4-bfa6-462c-9e69-d82553a786bf"},"vehicle_type_id":"4","last_reported":1750493556,"current_range_meters":800,"station_id":"ce4bhbh2rcd13ifvqeo0","pricing_plan_id":"cebpf4jnsgd1na2vs0mg"},{"bike_id":"903ca471-d5b4-4007-8e1b-88ccdb3a1359","system_id":"levelo_inurba_marseille","lat":43.23153,"lon":5.43704,"is_reserved":false,"is_disabled":true,"rental_uris":{"android":"levelo://app?vid=903ca471-d5b4-4007-8e1b-88ccdb3a1359","ios":"levelo://app?vid=903ca471-d5b4-4007-8e1b-88ccdb3a1359"},"vehicle_type_id":"4","last_reported":1750493556,"current_range_meters":800,"station_id":"ce4bhmp2rcd13ifvqgog","pricing_plan_id":"cebpf4jnsgd1na2vs0mg"},{"bike_id":"a1e02539-5601-41d6-94bb-5ca7dc81cca3","system_id":"levelo_inurba_marseille","lat":43.24166,"lon":5.36398,"is_reserved":false,"is_disabled":true,"rental_uris":{"android":"levelo://app?vid=a1e02539-5601-41d6-94bb-5ca7dc81cca3","ios":"levelo://app?vid=a1e02539-5601-41d6-94bb-5ca7dc81cca3"},"vehicle_type_id":"4","last_reported":1750493556,"current_range_meters":800,"station_id":"cpo36qri1sfpv3e86is0","pricing_plan_id":"cebpf4jnsgd1na2vs0mg"},{"bike_id":"156717d9-5d82-4226-a389-e52555e7069b","system_id":"levelo_inurba_marseille","lat":43.306091,"lon":5.376429,"is_reserved":false,"is_disabled":true,"rental_uris":{"android":"levelo://app?vid=156717d9-5d82-4226-a389-e52555e7069b","ios":"levelo://app?vid=156717d9-5d82-4226-a389-e52555e7069b"},"vehicle_type_id":"4","last_reported":1750493556,"current_range_meters":1200,"station_id":"","pricing_plan_id":"cebpf4jnsgd1na2vs0mg"},{"bike_id":"0a98b179-8f97-40c7-b222-c89ce00c60ff","system_id":"levelo_inurba_marseille","lat":43.28278,"lon":5.35083,"is_reserved":false,"is_disabled":true,"rental_uris":{"android":"levelo://app?vid=0a98b179-8f97-40c7-b222-c89ce00c60ff","ios":"levelo://app?vid=0a98b179-8f97-40c7-b222-c89ce00c60ff"},"vehicle_type_id":"4","last_reported":1750493556,"current_range_meters":1600,"station_id":"ce4bhbp2rcd13ifvqerg","pricing_plan_id":"cebpf4jnsgd1na2vs0mg"},{"bike_id":"d72f4605-ccde-4938-9d19-a4305c241eb0","system_id":"levelo_inurba_marseille","lat":43.28726,"lon":5.4,"is_reserved":false,"is_disabled":false,"rental_uris":{"android":"levelo://app?vid=d72f4605-ccde-4938-9d19-a4305c241eb0","ios":"levelo://app?vid=d72f4605-ccde-4938-9d19-a4305c241eb0"},"vehicle_type_id":"4","last_reported":1750493556,"current_range_meters":3200,"station_id":"ce4bho92rcd13ifvqh3g","pricing_plan_id":"cebpf4jnsgd1na2vs0mg"},{"bike_id":"9f9df872-115c-4a50-90b1-2c9b182d9be2","system_id":"levelo_inurba_marseille","lat":43.21742,"lon":5.34608,"is_reserved":false,"is_disabled":false,"rental_uris":{"android":"levelo://app?vid=9f9df872-115c-4a50-90b1-2c9b182d9be2","ios":"levelo://app?vid=9f9df872-115c-4a50-90b1-2c9b182d9be2"},"vehicle_type_id":"4","last_reported":1750493556,"current_range_meters":3600,"station_id":"","pricing_plan_id":"cebpf4jnsgd1na2vs0mg"},{"bike_id":"6a87bbde-93b4-44a3-9a6f-99ac94ee9a27","system_id":"levelo_inurba_marseille","lat":43.30595,"lon":5.37226,"is_reserved":false,"is_disabled":false,"rental_uris":{"android":"levelo://app?vid=6a87bbde-93b4-44a3-9a6f-99ac94ee9a27","ios":"levelo://app?vid=6a87bbde-93b4-44a3-9a6f-99ac94ee9a27"},"vehicle_type_id":"4","last_reported":1750493556,"current_range_meters":3600,"station_id":"ce4bgqh2rcd13ifvqc4g","pricing_plan_id":"cebpf4jnsgd1na2vs0mg"},{"bike_id":"e8b2899a-4211-4f31-b803-6ec5b4d26202","system_id":"levelo_inurba_marseille","lat":43.27583,"lon":5.39701,"is_reserved":false,"is_disabled":false,"rental_uris":{"android":"levelo://app?vid=e8b2899a-4211-4f31-b803-6ec5b4d26202","ios":"levelo://app?vid=e8b2899a-4211-4f31-b803-6ec5b4d26202"},"vehicle_type_id":"4","last_reported":1750493556,"current_range_meters":4000,"station_id":"","pricing_plan_id":"cebpf4jnsgd1na2vs0mg"},{"bike_id":"dd45b830-666c-4c76-b06e-9938bffa2cad","system_id":"levelo_inurba_marseille","lat":43.31978,"lon":5.37524,"is_reserved":false,"is_disabled":false,"rental_uris":{"android":"levelo://app?vid=dd45b830-666c-4c76-b06e-9938bffa2cad","ios":"levelo://app?vid=dd45b830-666c-4c76-b06e-9938bffa2cad"},"vehicle_type_id":"4","last_reported":1750493556,"current_range_meters":4400,"station_id":"","pricing_plan_id":"cebpf4jnsgd1na2vs0mg"},{"bike_id":"df735c88-ae0a-4f8e-9723-d29eb27d80b9","system_id":"levelo_inurba_marseille","lat":43.29914,"lon":5.37613,"is_reserved":false,"is_disabled":false,"rental_uris":{"android":"levelo://app?vid=df735c88-ae0a-4f8e-9723-d29eb27d80b9","ios":"levelo://app?vid=df735c88-ae0a-4f8e-9723-d29eb27d80b9"},"vehicle_type_id":"4","last_reported":1750493556,"current_range_meters":4400,"station_id":"","pricing_plan_id":"cebpf4jnsgd1na2vs0mg"},{"bike_id":"f025e0b0-8595-426c-b214-cb9b74c5fcfd","system_id":"levelo_inurba_marseille","lat":43.32197,"lon":5.40572,"is_reserved":false,"is_disabled":false,"rental_uris":{"android":"levelo://app?vid=f025e0b0-8595-426c-b214-cb9b74c5fcfd","ios":"levelo://app?vid=f025e0b0-8595-426c-b214-cb9b74c5fcfd"},"vehicle_type_id":"4","last_reported":1750493556,"current_range_meters":4800,"station_id":"","pricing_plan_id":"cebpf4jnsgd1na2vs0mg"},{"bike_id":"c4a9a48f-1ab0-4c30-bcc9-e0ec42dbfba8","system_id":"levelo_inurba_marseille","lat":43.27375,"lon":5.36258,"is_reserved":false,"is_disabled":false,"rental_uris":{"android":"levelo://app?vid=c4a9a48f-1ab0-4c30-bcc9-e0ec42dbfba8","ios":"levelo://app?vid=c4a9a48f-1ab0-4c30-bcc9-e0ec42dbfba8"},"vehicle_type_id":"4","last_reported":1750493556,"current_range_meters":4800,"station_id":"ce4bhbh2rcd13ifvqeo0","pricing_plan_id":"cebpf4jnsgd1na2vs0mg"},{"bike_id":"db6770d2-0b0e-4d06-9659-5f88c3d2504c","system_id":"levelo_inurba_marseille","lat":43.25721,"lon":5.41098,"is_reserved":false,"is_disabled":false,"rental_uris":{"android":"levelo://app?vid=db6770d2-0b0e-4d06-9659-5f88c3d2504c","ios":"levelo://app?vid=db6770d2-0b0e-4d06-9659-5f88c3d2504c"},"vehicle_type_id":"4","last_reported":1750493556,"current_range_meters":4800,"station_id":"ce4bhkp2rcd13ifvqgd0","pricing_plan_id":"cebpf4jnsgd1na2vs0mg"},{"bike_id":"73521383-be10-4e11-87d9-5858a5a26f0a","system_id":"levelo_inurba_marseille","lat":43.337444,"lon":5.374475,"is_reserved":false,"is_disabled":false,"rental_uris":{"android":"levelo://app?vid=73521383-be10-4e11-87d9-5858a5a26f0a","ios":"levelo://app?vid=73521383-be10-4e11-87d9-5858a5a26f0a"},"vehicle_type_id":"4","last_reported":1750493556,"current_range_meters":5600,"station_id":"","pricing_plan_id":"cebpf4jnsgd1na2vs0mg"},{"bike_id":"53aeb623-f14c-45ba-b3b7-1681f2e88216","system_id":"levelo_inurba_marseille","lat":43.23964,"lon":5.36635,"is_reserved":false,"is_disabled":false,"rental_uris":{"android":"levelo://app?vid=53aeb623-f14c-45ba-b3b7-1681f2e88216","ios":"levelo://app?vid=53aeb623-f14c-45ba-b3b7-1681f2e88216"},"vehicle_type_id":"4","last_reported":1750493556,"current_range_meters":5600,"station_id":"ce4bhi12rcd13ifvqfp0","pricing_plan_id":"cebpf4jnsgd1na2vs0mg"},{"bike_id":"fcf4c655-a0ab-4557-9c67-f3accfc480b8","system_id":"levelo_inurba_marseille","lat":43.31981,"lon":5.38122,"is_reserved":false,"is_disabled":false,"rental_uris":{"android":"levelo://app?vid=fcf4c655-a0ab-4557-9c67-f3accfc480b8","ios":"levelo://app?vid=fcf4c655-a0ab-4557-9c67-f3accfc480b8"},"vehicle_type_id":"4","last_reported":1750493556,"current_range_meters":5600,"station_id":"ce4bhr12rcd13ifvqhpg","pricing_plan_id":"cebpf4jnsgd1na2vs0mg"},{"bike_id":"0ae0a5e2-4172-42fc-b67e-dcb70ad4d289","system_id":"levelo_inurba_marseille","lat":43.26745,"lon":5.42204,"is_reserved":false,"is_disabled":false,"rental_uris":{"android":"levelo://app?vid=0ae0a5e2-4172-42fc-b67e-dcb70ad4d289","ios":"levelo://app?vid=0ae0a5e2-4172-42fc-b67e-dcb70ad4d289"},"vehicle_type_id":"4","last_reported":1750493556,"current_range_meters":6000,"station_id":"","pricing_plan_id":"cebpf4jnsgd1na2vs0mg"},{"bike_id":"e3190518-bcc2-47a7-bb62-bcde5a07a296","system_id":"levelo_inurba_marseille","lat":43.30669,"lon":5.4008,"is_reserved":false,"is_disabled":false,"rental_uris":{"android":"levelo://app?vid=e3190518-bcc2-47a7-bb62-bcde5a07a296","ios":"levelo://app?vid=e3190518-bcc2-47a7-bb62-bcde5a07a296"},"vehicle_type_id":"4","last_reported":1750493556,"current_range_meters":6000,"station_id":"ce4bh112rcd13ifvqda0","pricing_plan_id":"cebpf4jnsgd1na2vs0mg"},{"bike_id":"29ad955b-1a94-4237-bf63-f67c4b3126c8","system_id":"levelo_inurba_marseille","lat":43.317226,"lon":5.423986,"is_reserved":false,"is_disabled":false,"rental_uris":{"android":"levelo://app?vid=29ad955b-1a94-4237-bf63-f67c4b3126c8","ios":"levelo://app?vid=29ad955b-1a94-4237-bf63-f67c4b3126c8"},"vehicle_type_id":"4","last_reported":1750493556,"current_range_meters":6000,"station_id":"ce4bhp92rcd13ifvqhbg","pricing_plan_id":"cebpf4jnsgd1na2vs0mg"},{"bike_id":"de83a3ce-5f7d-4811-8b2b-804a1589c455","system_id":"levelo_inurba_marseille","lat":43.29368,"lon":5.37858,"is_reserved":false,"is_disabled":false,"rental_uris":{"android":"levelo://app?vid=de83a3ce-5f7d-4811-8b2b-804a1589c455","ios":"levelo://app?vid=de83a3ce-5f7d-4811-8b2b-804a1589c455"},"vehicle_type_id":"4","last_reported":1750493556,"current_range_meters":6400,"station_id":"ce4bgjh2rcd13ifvqbf0","pricing_plan_id":"cebpf4jnsgd1na2vs0mg"},{"bike_id":"2d9cd306-f0e6-4b47-9011-26d7fa79b2a5","system_id":"levelo_inurba_marseille","lat":43.24996,"lon":5.38925,"is_reserved":false,"is_disabled":false,"rental_uris":{"android":"levelo://app?vid=2d9cd306-f0e6-4b47-9011-26d7fa79b2a5","ios":"levelo://app?vid=2d9cd306-f0e6-4b47-9011-26d7fa79b2a5"},"vehicle_type_id":"4","last_reported":1750493556,"current_range_meters":6400,"station_id":"ce4bhgp2rcd13ifvqfd0","pricing_plan_id":"cebpf4jnsgd1na2vs0mg"},{"bike_id":"460d2ee4-8a4e-4768-bae5-e31e36c0e379","system_id":"levelo_inurba_marseille","lat":43.270508,"lon":5.40258,"is_reserved":false,"is_disabled":false,"rental_uris":{"android":"levelo://app?vid=460d2ee4-8a4e-4768-bae5-e31e36c0e379","ios":"levelo://app?vid=460d2ee4-8a4e-4768-bae5-e31e36c0e379"},"vehicle_type_id":"4","last_reported":1750493556,"current_range_meters":6400,"station_id":"ce4bhk92rcd13ifvqgc0","pricing_plan_id":"cebpf4jnsgd1na2vs0mg"},{"bike_id":"db7f7512-c361-460d-984a-c7320754ec1a","system_id":"levelo_inurba_marseille","lat":43.30796,"lon":5.43523,"is_reserved":false,"is_disabled":false,"rental_uris":{"android":"levelo://app?vid=db7f7512-c361-460d-984a-c7320754ec1a","ios":"levelo://app?vid=db7f7512-c361-460d-984a-c7320754ec1a"},"vehicle_type_id":"4","last_reported":1750493556,"current_range_meters":6400,"station_id":"ce4bhph2rcd13ifvqheg","pricing_plan_id":"cebpf4jnsgd1na2vs0mg"},{"bike_id":"59692da9-5274-42cc-aeaa-48d8fd38fd90","system_id":"levelo_inurba_marseille","lat":43.32122,"lon":5.36785,"is_reserved":false,"is_disabled":false,"rental_uris":{"android":"levelo://app?vid=59692da9-5274-42cc-aeaa-48d8fd38fd90","ios":"levelo://app?vid=59692da9-5274-42cc-aeaa-48d8fd38fd90"},"vehicle_type_id":"4","last_reported":1750493556,"current_range_meters":6400,"station_id":"ce4bhrh2rcd13ifvqhug","pricing_plan_id":"cebpf4jnsgd1na2vs0mg"},{"bike_id":"33893335-fbcb-43e3-9e2f-95cb467b1bcb","system_id":"levelo_inurba_marseille","lat":43.30615,"lon":5.37629,"is_reserved":false,"is_disabled":false,"rental_uris":{"android":"levelo://app?vid=33893335-fbcb-43e3-9e2f-95cb467b1bcb","ios":"levelo://app?vid=33893335-fbcb-43e3-9e2f-95cb467b1bcb"},"vehicle_type_id":"4","last_reported":1750493556,"current_range_meters":6800,"station_id":"","pricing_plan_id":"cebpf4jnsgd1na2vs0mg"},{"bike_id":"f2169430-8ab5-4f68-846f-87f05b34d076","system_id":"levelo_inurba_marseille","lat":43.211929,"lon":5.350667,"is_reserved":false,"is_disabled":false,"rental_uris":{"android":"levelo://app?vid=f2169430-8ab5-4f68-846f-87f05b34d076","ios":"levelo://app?vid=f2169430-8ab5-4f68-846f-87f05b34d076"},"vehicle_type_id":"4","last_reported":1750493556,"current_range_meters":6800,"station_id":"st_cvj6sg6p6f1abm77japg","pricing_plan_id":"cebpf4jnsgd1na2vs0mg"},{"bike_id":"fbe532e7-2f52-46dc-822c-1466686be8c5","system_id":"levelo_inurba_marseille","lat":43.300841,"lon":5.405333,"is_reserved":false,"is_disabled":false,"rental_uris":{"android":"levelo://app?vid=fbe532e7-2f52-46dc-822c-1466686be8c5","ios":"levelo://app?vid=fbe532e7-2f52-46dc-822c-1466686be8c5"},"vehicle_type_id":"4","last_reported":1750493556,"current_range_meters":7200,"station_id":"","pricing_plan_id":"cebpf4jnsgd1na2vs0mg"},{"bike_id":"470d5d38-9de3-4ee0-b8c2-7e3409e3e55a","system_id":"levelo_inurba_marseille","lat":43.296502,"lon":5.393683,"is_reserved":false,"is_disabled":false,"rental_uris":{"android":"levelo://app?vid=470d5d38-9de3-4ee0-b8c2-7e3409e3e55a","ios":"levelo://app?vid=470d5d38-9de3-4ee0-b8c2-7e3409e3e55a"},"vehicle_type_id":"4","last_reported":1750493556,"current_range_meters":7200,"station_id":"","pricing_plan_id":"cebpf4jnsgd1na2vs0mg"},{"bike_id":"e8ca4ab0-6d6d-40bf-8a25-0e9ed9ae981c","system_id":"levelo_inurba_marseille","lat":43.23149,"lon":5.43722,"is_reserved":false,"is_disabled":false,"rental_uris":{"android":"levelo://app?vid=e8ca4ab0-6d6d-40bf-8a25-0e9ed9ae981c","ios":"levelo://app?vid=e8ca4ab0-6d6d-40bf-8a25-0e9ed9ae981c"},"vehicle_type_id":"4","last_reported":1750493556,"current_range_meters":7200,"station_id":"ce4bhmp2rcd13ifvqgog","pricing_plan_id":"cebpf4jnsgd1na2vs0mg"},{"bike_id":"51543da0-ae3d-4250-835e-31cda64d8a8c","system_id":"levelo_inurba_marseille","lat":43.309022,"lon":5.368325,"is_reserved":false,"is_disabled":false,"rental_uris":{"android":"levelo://app?vid=51543da0-ae3d-4250-835e-31cda64d8a8c","ios":"levelo://app?vid=51543da0-ae3d-4250-835e-31cda64d8a8c"},"vehicle_type_id":"4","last_reported":1750493556,"current_range_meters":8000,"station_id":"ce4bgn92rcd13ifvqbvg","pricing_plan_id":"cebpf4jnsgd1na2vs0mg"},{"bike_id":"37aac634-d576-446e-89d4-a7b4c76e18b5","system_id":"levelo_inurba_marseille","lat":43.29911,"lon":5.39688,"is_reserved":false,"is_disabled":false,"rental_uris":{"android":"levelo://app?vid=37aac634-d576-446e-89d4-a7b4c76e18b5","ios":"levelo://app?vid=37aac634-d576-446e-89d4-a7b4c76e18b5"},"vehicle_type_id":"4","last_reported":1750493556,"current_range_meters":8000,"station_id":"ce4bh0h2rcd13ifvqd50","pricing_plan_id":"cebpf4jnsgd1na2vs0mg"},{"bike_id":"47c2e5a4-b1f2-46bb-8800-e402bc8b2eb2","system_id":"levelo_inurba_marseille","lat":43.28275,"lon":5.35072,"is_reserved":false,"is_disabled":false,"rental_uris":{"android":"levelo://app?vid=47c2e5a4-b1f2-46bb-8800-e402bc8b2eb2","ios":"levelo://app?vid=47c2e5a4-b1f2-46bb-8800-e402bc8b2eb2"},"vehicle_type_id":"4","last_reported":1750493556,"current_range_meters":8000,"station_id":"ce4bhbp2rcd13ifvqerg","pricing_plan_id":"cebpf4jnsgd1na2vs0mg"},{"bike_id":"178fea52-5c46-4383-9a8d-cae388a2eff0","system_id":"levelo_inurba_marseille","lat":43.321018,"lon":5.367874,"is_reserved":false,"is_disabled":false,"rental_uris":{"android":"levelo://app?vid=178fea52-5c46-4383-9a8d-cae388a2eff0","ios":"levelo://app?vid=178fea52-5c46-4383-9a8d-cae388a2eff0"},"vehicle_type_id":"4","last_reported":1750493556,"current_range_meters":8000,"station_id":"ce4bhrh2rcd13ifvqhug","pricing_plan_id":"cebpf4jnsgd1na2vs0mg"},{"bike_id":"accfcce5-7374-49d5-a241-8de7b4e7f561","system_id":"levelo_inurba_marseille","lat":43.30287,"lon":5.39202,"is_reserved":false,"is_disabled":false,"rental_uris":{"android":"levelo://app?vid=accfcce5-7374-49d5-a241-8de7b4e7f561","ios":"levelo://app?vid=accfcce5-7374-49d5-a241-8de7b4e7f561"},"vehicle_type_id":"4","last_reported":1750493556,"current_range_meters":8400,"station_id":"ce4bgkh2rcd13ifvqbk0","pricing_plan_id":"cebpf4jnsgd1na2vs0mg"},{"bike_id":"999a7404-c492-4383-88c2-daf8b2db2f26","system_id":"levelo_inurba_marseille","lat":43.29284,"lon":5.40149,"is_reserved":false,"is_disabled":false,"rental_uris":{"android":"levelo://app?vid=999a7404-c492-4383-88c2-daf8b2db2f26","ios":"levelo://app?vid=999a7404-c492-4383-88c2-daf8b2db2f26"},"vehicle_type_id":"4","last_reported":1750493556,"current_range_meters":8400,"station_id":"ce4bh312rcd13ifvqdk0","pricing_plan_id":"cebpf4jnsgd1na2vs0mg"},{"bike_id":"040977a8-13c0-45f8-878b-41dbebdc1a7e","system_id":"levelo_inurba_marseille","lat":43.29896,"lon":5.43654,"is_reserved":false,"is_disabled":false,"rental_uris":{"android":"levelo://app?vid=040977a8-13c0-45f8-878b-41dbebdc1a7e","ios":"levelo://app?vid=040977a8-13c0-45f8-878b-41dbebdc1a7e"},"vehicle_type_id":"4","last_reported":1750493556,"current_range_meters":8400,"station_id":"ce4bhpp2rcd13ifvqhfg","pricing_plan_id":"cebpf4jnsgd1na2vs0mg"},{"bike_id":"c595d0e1-c778-4abe-9c79-a9dd74f54e27","system_id":"levelo_inurba_marseille","lat":43.24464,"lon":5.37229,"is_reserved":false,"is_disabled":false,"rental_uris":{"android":"levelo://app?vid=c595d0e1-c778-4abe-9c79-a9dd74f54e27","ios":"levelo://app?vid=c595d0e1-c778-4abe-9c79-a9dd74f54e27"},"vehicle_type_id":"4","last_reported":1750493556,"current_range_meters":8800,"station_id":"","pricing_plan_id":"cebpf4jnsgd1na2vs0mg"},{"bike_id":"1cbfa19f-da9a-4eed-b34b-485687865078","system_id":"levelo_inurba_marseille","lat":43.29967,"lon":5.38509,"is_reserved":false,"is_disabled":false,"rental_uris":{"android":"levelo://app?vid=1cbfa19f-da9a-4eed-b34b-485687865078","ios":"levelo://app?vid=1cbfa19f-da9a-4eed-b34b-485687865078"},"vehicle_type_id":"4","last_reported":1750493556,"current_range_meters":8800,"station_id":"ce4bgj92rcd13ifvqbd0","pricing_plan_id":"cebpf4jnsgd1na2vs0mg"},{"bike_id":"ec1720a8-0509-43f8-b0f4-16532f54adbd","system_id":"levelo_inurba_marseille","lat":43.28422,"lon":5.34992,"is_reserved":false,"is_disabled":false,"rental_uris":{"android":"levelo://app?vid=ec1720a8-0509-43f8-b0f4-16532f54adbd","ios":"levelo://app?vid=ec1720a8-0509-43f8-b0f4-16532f54adbd"},"vehicle_type_id":"4","last_reported":1750493556,"current_range_meters":8800,"station_id":"ce4bhbh2rcd13ifvqepg","pricing_plan_id":"cebpf4jnsgd1na2vs0mg"},{"bike_id":"65819777-6d68-4890-a696-224a5e47b3a2","system_id":"levelo_inurba_marseille","lat":43.286133,"lon":5.351046,"is_reserved":false,"is_disabled":false,"rental_uris":{"android":"levelo://app?vid=65819777-6d68-4890-a696-224a5e47b3a2","ios":"levelo://app?vid=65819777-6d68-4890-a696-224a5e47b3a2"},"vehicle_type_id":"4","last_reported":1750493556,"current_range_meters":8800,"station_id":"ce4bhch2rcd13ifvqeug","pricing_plan_id":"cebpf4jnsgd1na2vs0mg"},{"bike_id":"03e7430c-c45c-475f-b8e0-968e6f2010a9","system_id":"levelo_inurba_marseille","lat":43.24388,"lon":5.37058,"is_reserved":false,"is_disabled":false,"rental_uris":{"android":"levelo://app?vid=03e7430c-c45c-475f-b8e0-968e6f2010a9","ios":"levelo://app?vid=03e7430c-c45c-475f-b8e0-968e6f2010a9"},"vehicle_type_id":"4","last_reported":1750493556,"current_range_meters":8800,"station_id":"ce4bhhh2rcd13ifvqfk0","pricing_plan_id":"cebpf4jnsgd1na2vs0mg"},{"bike_id":"cc554f2f-8737-4971-881e-eff8120e96eb","system_id":"levelo_inurba_marseille","lat":43.323608,"lon":5.367594,"is_reserved":false,"is_disabled":false,"rental_uris":{"android":"levelo://app?vid=cc554f2f-8737-4971-881e-eff8120e96eb","ios":"levelo://app?vid=cc554f2f-8737-4971-881e-eff8120e96eb"},"vehicle_type_id":"4","last_reported":1750493556,"current_range_meters":8800,"station_id":"ce4bhsh2rcd13ifvqi2g","pricing_plan_id":"cebpf4jnsgd1na2vs0mg"},{"bike_id":"b50ed994-fd88-4dd1-8846-dc2bf2666662","system_id":"levelo_inurba_marseille","lat":43.30579,"lon":5.40102,"is_reserved":false,"is_disabled":false,"rental_uris":{"android":"levelo://app?vid=b50ed994-fd88-4dd1-8846-dc2bf2666662","ios":"levelo://app?vid=b50ed994-fd88-4dd1-8846-dc2bf2666662"},"vehicle_type_id":"4","last_reported":1750493556,"current_range_meters":9200,"station_id":"","pricing_plan_id":"cebpf4jnsgd1na2vs0mg"},{"bike_id":"9d30975b-9bd6-415d-a49c-1a77f5ebe076","system_id":"levelo_inurba_marseille","lat":43.28269,"lon":5.35072,"is_reserved":false,"is_disabled":false,"rental_uris":{"android":"levelo://app?vid=9d30975b-9bd6-415d-a49c-1a77f5ebe076","ios":"levelo://app?vid=9d30975b-9bd6-415d-a49c-1a77f5ebe076"},"vehicle_type_id":"4","last_reported":1750493556,"current_range_meters":9200,"station_id":"ce4bhbp2rcd13ifvqerg","pricing_plan_id":"cebpf4jnsgd1na2vs0mg"},{"bike_id":"e577bcd4-90a9-4386-95fa-e0e63f5d44fe","system_id":"levelo_inurba_marseille","lat":43.23962,"lon":5.36644,"is_reserved":false,"is_disabled":false,"rental_uris":{"android":"levelo://app?vid=e577bcd4-90a9-4386-95fa-e0e63f5d44fe","ios":"levelo://app?vid=e577bcd4-90a9-4386-95fa-e0e63f5d44fe"},"vehicle_type_id":"4","last_reported":1750493556,"current_range_meters":9200,"station_id":"ce4bhi12rcd13ifvqfp0","pricing_plan_id":"cebpf4jnsgd1na2vs0mg"},{"bike_id":"16967bbf-d622-4ac5-86f0-4604527523fa","system_id":"levelo_inurba_marseille","lat":43.2418,"lon":5.39715,"is_reserved":false,"is_disabled":false,"rental_uris":{"android":"levelo://app?vid=16967bbf-d622-4ac5-86f0-4604527523fa","ios":"levelo://app?vid=16967bbf-d622-4ac5-86f0-4604527523fa"},"vehicle_type_id":"4","last_reported":1750493556,"current_range_meters":9200,"station_id":"ce4bhn12rcd13ifvqgpg","pricing_plan_id":"cebpf4jnsgd1na2vs0mg"},{"bike_id":"3545b25f-f1c6-4e1a-8575-08975c38f5fb","system_id":"levelo_inurba_marseille","lat":43.28702,"lon":5.39966,"is_reserved":false,"is_disabled":false,"rental_uris":{"android":"levelo://app?vid=3545b25f-f1c6-4e1a-8575-08975c38f5fb","ios":"levelo://app?vid=3545b25f-f1c6-4e1a-8575-08975c38f5fb"},"vehicle_type_id":"4","last_reported":1750493556,"current_range_meters":9200,"station_id":"ce4bho92rcd13ifvqh3g","pricing_plan_id":"cebpf4jnsgd1na2vs0mg"},{"bike_id":"1ce0e88e-d695-4fa0-a417-7b99c428309c","system_id":"levelo_inurba_marseille","lat":43.318972,"lon":5.4073,"is_reserved":false,"is_disabled":false,"rental_uris":{"android":"levelo://app?vid=1ce0e88e-d695-4fa0-a417-7b99c428309c","ios":"levelo://app?vid=1ce0e88e-d695-4fa0-a417-7b99c428309c"},"vehicle_type_id":"4","last_reported":1750493556,"current_range_meters":9200,"station_id":"ce4bhq12rcd13ifvqhig","pricing_plan_id":"cebpf4jnsgd1na2vs0mg"},{"bike_id":"69880a08-8607-4455-93ef-65dfe3aacaad","system_id":"levelo_inurba_marseille","lat":43.31694,"lon":5.37757,"is_reserved":false,"is_disabled":false,"rental_uris":{"android":"levelo://app?vid=69880a08-8607-4455-93ef-65dfe3aacaad","ios":"levelo://app?vid=69880a08-8607-4455-93ef-65dfe3aacaad"},"vehicle_type_id":"4","last_reported":1750493556,"current_range_meters":9600,"station_id":"","pricing_plan_id":"cebpf4jnsgd1na2vs0mg"},{"bike_id":"199c2831-e081-4bc0-9b94-19503817091d","system_id":"levelo_inurba_marseille","lat":43.24888,"lon":5.40652,"is_reserved":false,"is_disabled":false,"rental_uris":{"android":"levelo://app?vid=199c2831-e081-4bc0-9b94-19503817091d","ios":"levelo://app?vid=199c2831-e081-4bc0-9b94-19503817091d"},"vehicle_type_id":"4","last_reported":1750493556,"current_range_meters":9600,"station_id":"","pricing_plan_id":"cebpf4jnsgd1na2vs0mg"},{"bike_id":"2148217b-d8a5-4a4c-bd43-e70d855d7cd0","system_id":"levelo_inurba_marseille","lat":43.3027,"lon":5.400519,"is_reserved":false,"is_disabled":false,"rental_uris":{"android":"levelo://app?vid=2148217b-d8a5-4a4c-bd43-e70d855d7cd0","ios":"levelo://app?vid=2148217b-d8a5-4a4c-bd43-e70d855d7cd0"},"vehicle_type_id":"4","last_reported":1750493556,"current_range_meters":9600,"station_id":"ce4bgvh2rcd13ifvqcs0","pricing_plan_id":"cebpf4jnsgd1na2vs0mg"},{"bike_id":"a572deeb-2a98-49f6-b4c6-2d1a08996e3e","system_id":"levelo_inurba_marseille","lat":43.30419,"lon":5.39747,"is_reserved":false,"is_disabled":false,"rental_uris":{"android":"levelo://app?vid=a572deeb-2a98-49f6-b4c6-2d1a08996e3e","ios":"levelo://app?vid=a572deeb-2a98-49f6-b4c6-2d1a08996e3e"},"vehicle_type_id":"4","last_reported":1750493556,"current_range_meters":9600,"station_id":"ce4bh092rcd13ifvqd20","pricing_plan_id":"cebpf4jnsgd1na2vs0mg"},{"bike_id":"a91667c8-9d9b-4267-80b6-c6c85a0895dc","system_id":"levelo_inurba_marseille","lat":43.32331,"lon":5.40602,"is_reserved":false,"is_disabled":false,"rental_uris":{"android":"levelo://app?vid=a91667c8-9d9b-4267-80b6-c6c85a0895dc","ios":"levelo://app?vid=a91667c8-9d9b-4267-80b6-c6c85a0895dc"},"vehicle_type_id":"4","last_reported":1750493556,"current_range_meters":9600,"station_id":"ce4bhq92rcd13ifvqhjg","pricing_plan_id":"cebpf4jnsgd1na2vs0mg"},{"bike_id":"8300812b-c3f4-4460-a462-0c10590e5460","system_id":"levelo_inurba_marseille","lat":43.32974,"lon":5.40547,"is_reserved":false,"is_disabled":false,"rental_uris":{"android":"levelo://app?vid=8300812b-c3f4-4460-a462-0c10590e5460","ios":"levelo://app?vid=8300812b-c3f4-4460-a462-0c10590e5460"},"vehicle_type_id":"4","last_reported":1750493556,"current_range_meters":10000,"station_id":"","pricing_plan_id":"cebpf4jnsgd1na2vs0mg"},{"bike_id":"e2e7638e-95c1-4309-a653-aea5bf22d5dc","system_id":"levelo_inurba_marseille","lat":43.30182,"lon":5.40098,"is_reserved":false,"is_disabled":false,"rental_uris":{"android":"levelo://app?vid=e2e7638e-95c1-4309-a653-aea5bf22d5dc","ios":"levelo://app?vid=e2e7638e-95c1-4309-a653-aea5bf22d5dc"},"vehicle_type_id":"4","last_reported":1750493556,"current_range_meters":10000,"station_id":"","pricing_plan_id":"cebpf4jnsgd1na2vs0mg"},{"bike_id":"193ef74f-8949-49ee-acaf-d72c06669666","system_id":"levelo_inurba_marseille","lat":43.27938,"lon":5.41051,"is_reserved":false,"is_disabled":false,"rental_uris":{"android":"levelo://app?vid=193ef74f-8949-49ee-acaf-d72c06669666","ios":"levelo://app?vid=193ef74f-8949-49ee-acaf-d72c06669666"},"vehicle_type_id":"4","last_reported":1750493556,"current_range_meters":10000,"station_id":"ce4bhnp2rcd13ifvqh0g","pricing_plan_id":"cebpf4jnsgd1na2vs0mg"},{"bike_id":"ee762a49-83ad-4fcd-811f-1fa20f226852","system_id":"levelo_inurba_marseille","lat":43.30367,"lon":5.42485,"is_reserved":false,"is_disabled":false,"rental_uris":{"android":"levelo://app?vid=ee762a49-83ad-4fcd-811f-1fa20f226852","ios":"levelo://app?vid=ee762a49-83ad-4fcd-811f-1fa20f226852"},"vehicle_type_id":"4","last_reported":1750493556,"current_range_meters":10000,"station_id":"ce4bhoh2rcd13ifvqh6g","pricing_plan_id":"cebpf4jnsgd1na2vs0mg"},{"bike_id":"37954420-9c8f-4152-8fd1-a1b7c5936246","system_id":"levelo_inurba_marseille","lat":43.29602,"lon":5.38097,"is_reserved":false,"is_disabled":false,"rental_uris":{"android":"levelo://app?vid=37954420-9c8f-4152-8fd1-a1b7c5936246","ios":"levelo://app?vid=37954420-9c8f-4152-8fd1-a1b7c5936246"},"vehicle_type_id":"4","last_reported":1750493556,"current_range_meters":10800,"station_id":"ce4bgl12rcd13ifvqbo0","pricing_plan_id":"cebpf4jnsgd1na2vs0mg"},{"bike_id":"05f69300-23b4-44be-a7e1-398a0efe81a4","system_id":"levelo_inurba_marseille","lat":43.317068,"lon":5.404296,"is_reserved":false,"is_disabled":false,"rental_uris":{"android":"levelo://app?vid=05f69300-23b4-44be-a7e1-398a0efe81a4","ios":"levelo://app?vid=05f69300-23b4-44be-a7e1-398a0efe81a4"},"vehicle_type_id":"4","last_reported":1750493556,"current_range_meters":10800,"station_id":"ce4bh012rcd13ifvqd00","pricing_plan_id":"cebpf4jnsgd1na2vs0mg"},{"bike_id":"9798d1fd-f8de-468c-8dc4-95309561412e","system_id":"levelo_inurba_marseille","lat":43.306406,"lon":5.400688,"is_reserved":false,"is_disabled":false,"rental_uris":{"android":"levelo://app?vid=9798d1fd-f8de-468c-8dc4-95309561412e","ios":"levelo://app?vid=9798d1fd-f8de-468c-8dc4-95309561412e"},"vehicle_type_id":"4","last_reported":1750493556,"current_range_meters":10800,"station_id":"ce4bh112rcd13ifvqda0","pricing_plan_id":"cebpf4jnsgd1na2vs0mg"},{"bike_id":"b0426fab-c281-467c-b6f2-11b1920af159","system_id":"levelo_inurba_marseille","lat":43.26551,"lon":5.37284,"is_reserved":false,"is_disabled":false,"rental_uris":{"android":"levelo://app?vid=b0426fab-c281-467c-b6f2-11b1920af159","ios":"levelo://app?vid=b0426fab-c281-467c-b6f2-11b1920af159"},"vehicle_type_id":"4","last_reported":1750493556,"current_range_meters":10800,"station_id":"ce4bhg12rcd13ifvqf70","pricing_plan_id":"cebpf4jnsgd1na2vs0mg"},{"bike_id":"0c3c1a1e-accc-48fd-8dff-9e6a62eb7e59","system_id":"levelo_inurba_marseille","lat":43.32327,"lon":5.4063,"is_reserved":false,"is_disabled":false,"rental_uris":{"android":"levelo://app?vid=0c3c1a1e-accc-48fd-8dff-9e6a62eb7e59","ios":"levelo://app?vid=0c3c1a1e-accc-48fd-8dff-9e6a62eb7e59"},"vehicle_type_id":"4","last_reported":1750493556,"current_range_meters":10800,"station_id":"ce4bhq92rcd13ifvqhjg","pricing_plan_id":"cebpf4jnsgd1na2vs0mg"},{"bike_id":"c31ea4d0-5ecb-4441-8e01-e7cc5e106536","system_id":"levelo_inurba_marseille","lat":43.25492,"lon":5.37646,"is_reserved":false,"is_disabled":false,"rental_uris":{"android":"levelo://app?vid=c31ea4d0-5ecb-4441-8e01-e7cc5e106536","ios":"levelo://app?vid=c31ea4d0-5ecb-4441-8e01-e7cc5e106536"},"vehicle_type_id":"4","last_reported":1750493556,"current_range_meters":11200,"station_id":"ce4bhh12rcd13ifvqff0","pricing_plan_id":"cebpf4jnsgd1na2vs0mg"},{"bike_id":"f43ed071-4712-4c14-925a-97671c7fbd21","system_id":"levelo_inurba_marseille","lat":43.2438,"lon":5.37062,"is_reserved":false,"is_disabled":false,"rental_uris":{"android":"levelo://app?vid=f43ed071-4712-4c14-925a-97671c7fbd21","ios":"levelo://app?vid=f43ed071-4712-4c14-925a-97671c7fbd21"},"vehicle_type_id":"4","last_reported":1750493556,"current_range_meters":11200,"station_id":"ce4bhhh2rcd13ifvqfk0","pricing_plan_id":"cebpf4jnsgd1na2vs0mg"},{"bike_id":"7f32a65e-ea3d-42e8-bbf9-8ddb377b0bf0","system_id":"levelo_inurba_marseille","lat":43.26239,"lon":5.40458,"is_reserved":false,"is_disabled":false,"rental_uris":{"android":"levelo://app?vid=7f32a65e-ea3d-42e8-bbf9-8ddb377b0bf0","ios":"levelo://app?vid=7f32a65e-ea3d-42e8-bbf9-8ddb377b0bf0"},"vehicle_type_id":"4","last_reported":1750493556,"current_range_meters":11200,"station_id":"ce4bhmh2rcd13ifvqgmg","pricing_plan_id":"cebpf4jnsgd1na2vs0mg"},{"bike_id":"bd27fe72-6fbc-453f-8b77-bee10ab3b13c","system_id":"levelo_inurba_marseille","lat":43.29531,"lon":5.4236,"is_reserved":false,"is_disabled":false,"rental_uris":{"android":"levelo://app?vid=bd27fe72-6fbc-453f-8b77-bee10ab3b13c","ios":"levelo://app?vid=bd27fe72-6fbc-453f-8b77-bee10ab3b13c"},"vehicle_type_id":"4","last_reported":1750493556,"current_range_meters":11600,"station_id":"","pricing_plan_id":"cebpf4jnsgd1na2vs0mg"},{"bike_id":"1b8dbf41-d10c-4a02-8a9d-07ae5f16bc9e","system_id":"levelo_inurba_marseille","lat":43.2994,"lon":5.36524,"is_reserved":false,"is_disabled":false,"rental_uris":{"android":"levelo://app?vid=1b8dbf41-d10c-4a02-8a9d-07ae5f16bc9e","ios":"levelo://app?vid=1b8dbf41-d10c-4a02-8a9d-07ae5f16bc9e"},"vehicle_type_id":"4","last_reported":1750493556,"current_range_meters":11600,"station_id":"ce4bgm92rcd13ifvqbr0","pricing_plan_id":"cebpf4jnsgd1na2vs0mg"},{"bike_id":"d778e6a0-d046-4f05-91c1-952299af84cf","system_id":"levelo_inurba_marseille","lat":43.260665,"lon":5.393909,"is_reserved":false,"is_disabled":false,"rental_uris":{"android":"levelo://app?vid=d778e6a0-d046-4f05-91c1-952299af84cf","ios":"levelo://app?vid=d778e6a0-d046-4f05-91c1-952299af84cf"},"vehicle_type_id":"4","last_reported":1750493556,"current_range_meters":11600,"station_id":"ce4bhh92rcd13ifvqfj0","pricing_plan_id":"cebpf4jnsgd1na2vs0mg"},{"bike_id":"dc540ba2-fb63-45eb-b83a-1826fb3d30b7","system_id":"levelo_inurba_marseille","lat":43.24595,"lon":5.39245,"is_reserved":false,"is_disabled":false,"rental_uris":{"android":"levelo://app?vid=dc540ba2-fb63-45eb-b83a-1826fb3d30b7","ios":"levelo://app?vid=dc540ba2-fb63-45eb-b83a-1826fb3d30b7"},"vehicle_type_id":"4","last_reported":1750493556,"current_range_meters":12000,"station_id":"","pricing_plan_id":"cebpf4jnsgd1na2vs0mg"},{"bike_id":"1f61651a-3363-4639-82a3-6f0a024979f1","system_id":"levelo_inurba_marseille","lat":43.30258,"lon":5.40066,"is_reserved":false,"is_disabled":false,"rental_uris":{"android":"levelo://app?vid=1f61651a-3363-4639-82a3-6f0a024979f1","ios":"levelo://app?vid=1f61651a-3363-4639-82a3-6f0a024979f1"},"vehicle_type_id":"4","last_reported":1750493556,"current_range_meters":12000,"station_id":"ce4bgvh2rcd13ifvqcs0","pricing_plan_id":"cebpf4jnsgd1na2vs0mg"},{"bike_id":"48021009-255d-4dfb-abb2-2d0a16e64e08","system_id":"levelo_inurba_marseille","lat":43.29043,"lon":5.37564,"is_reserved":false,"is_disabled":false,"rental_uris":{"android":"levelo://app?vid=48021009-255d-4dfb-abb2-2d0a16e64e08","ios":"levelo://app?vid=48021009-255d-4dfb-abb2-2d0a16e64e08"},"vehicle_type_id":"4","last_reported":1750493556,"current_range_meters":12000,"station_id":"ce4bh692rcd13ifvqe90","pricing_plan_id":"cebpf4jnsgd1na2vs0mg"},{"bike_id":"5f91e688-16fe-48a6-82b7-78d151b9ca64","system_id":"levelo_inurba_marseille","lat":43.26193,"lon":5.37448,"is_reserved":false,"is_disabled":false,"rental_uris":{"android":"levelo://app?vid=5f91e688-16fe-48a6-82b7-78d151b9ca64","ios":"levelo://app?vid=5f91e688-16fe-48a6-82b7-78d151b9ca64"},"vehicle_type_id":"4","last_reported":1750493556,"current_range_meters":12000,"station_id":"ce4bhgp2rcd13ifvqfc0","pricing_plan_id":"cebpf4jnsgd1na2vs0mg"},{"bike_id":"6b4edd1f-2b9f-40fa-afbd-2006b70529df","system_id":"levelo_inurba_marseille","lat":43.2549,"lon":5.37641,"is_reserved":false,"is_disabled":false,"rental_uris":{"android":"levelo://app?vid=6b4edd1f-2b9f-40fa-afbd-2006b70529df","ios":"levelo://app?vid=6b4edd1f-2b9f-40fa-afbd-2006b70529df"},"vehicle_type_id":"4","last_reported":1750493556,"current_range_meters":12000,"station_id":"ce4bhh12rcd13ifvqff0","pricing_plan_id":"cebpf4jnsgd1na2vs0mg"},{"bike_id":"959f0c62-9761-4a35-9c23-557e23ca2679","system_id":"levelo_inurba_marseille","lat":43.24677,"lon":5.38131,"is_reserved":false,"is_disabled":false,"rental_uris":{"android":"levelo://app?vid=959f0c62-9761-4a35-9c23-557e23ca2679","ios":"levelo://app?vid=959f0c62-9761-4a35-9c23-557e23ca2679"},"vehicle_type_id":"4","last_reported":1750493556,"current_range_meters":12000,"station_id":"ce4bhih2rcd13ifvqfr0","pricing_plan_id":"cebpf4jnsgd1na2vs0mg"},{"bike_id":"3fa5aa17-b27e-4bfa-8422-021bfaabc943","system_id":"levelo_inurba_marseille","lat":43.28005,"lon":5.41661,"is_reserved":false,"is_disabled":false,"rental_uris":{"android":"levelo://app?vid=3fa5aa17-b27e-4bfa-8422-021bfaabc943","ios":"levelo://app?vid=3fa5aa17-b27e-4bfa-8422-021bfaabc943"},"vehicle_type_id":"4","last_reported":1750493556,"current_range_meters":12000,"station_id":"ce4bho12rcd13ifvqh1g","pricing_plan_id":"cebpf4jnsgd1na2vs0mg"},{"bike_id":"8fd94bfe-b0a3-4509-a3c9-0f6e3f8eed78","system_id":"levelo_inurba_marseille","lat":43.24173,"lon":5.36414,"is_reserved":false,"is_disabled":false,"rental_uris":{"android":"levelo://app?vid=8fd94bfe-b0a3-4509-a3c9-0f6e3f8eed78","ios":"levelo://app?vid=8fd94bfe-b0a3-4509-a3c9-0f6e3f8eed78"},"vehicle_type_id":"4","last_reported":1750493556,"current_range_meters":12000,"station_id":"cpo36qri1sfpv3e86is0","pricing_plan_id":"cebpf4jnsgd1na2vs0mg"},{"bike_id":"d40af265-11b5-43a6-9bb6-f910f57901ba","system_id":"levelo_inurba_marseille","lat":43.32979,"lon":5.38078,"is_reserved":false,"is_disabled":false,"rental_uris":{"android":"levelo://app?vid=d40af265-11b5-43a6-9bb6-f910f57901ba","ios":"levelo://app?vid=d40af265-11b5-43a6-9bb6-f910f57901ba"},"vehicle_type_id":"4","last_reported":1750493556,"current_range_meters":12400,"station_id":"","pricing_plan_id":"cebpf4jnsgd1na2vs0mg"},{"bike_id":"8ef11a45-504d-45b0-a2b5-97fef9594218","system_id":"levelo_inurba_marseille","lat":43.29562,"lon":5.38168,"is_reserved":false,"is_disabled":false,"rental_uris":{"android":"levelo://app?vid=8ef11a45-504d-45b0-a2b5-97fef9594218","ios":"levelo://app?vid=8ef11a45-504d-45b0-a2b5-97fef9594218"},"vehicle_type_id":"4","last_reported":1750493556,"current_range_meters":12400,"station_id":"","pricing_plan_id":"cebpf4jnsgd1na2vs0mg"},{"bike_id":"19d28c8f-5421-4087-a03c-a21f0650d31f","system_id":"levelo_inurba_marseille","lat":43.29853,"lon":5.36287,"is_reserved":false,"is_disabled":false,"rental_uris":{"android":"levelo://app?vid=19d28c8f-5421-4087-a03c-a21f0650d31f","ios":"levelo://app?vid=19d28c8f-5421-4087-a03c-a21f0650d31f"},"vehicle_type_id":"4","last_reported":1750493556,"current_range_meters":12400,"station_id":"ce4bgpp2rcd13ifvqc3g","pricing_plan_id":"cebpf4jnsgd1na2vs0mg"},{"bike_id":"ad16f673-30b7-42a1-97d6-ff9062a85c5c","system_id":"levelo_inurba_marseille","lat":43.30193,"lon":5.36626,"is_reserved":false,"is_disabled":false,"rental_uris":{"android":"levelo://app?vid=ad16f673-30b7-42a1-97d6-ff9062a85c5c","ios":"levelo://app?vid=ad16f673-30b7-42a1-97d6-ff9062a85c5c"},"vehicle_type_id":"4","last_reported":1750493556,"current_range_meters":12400,"station_id":"ce4bgrh2rcd13ifvqc8g","pricing_plan_id":"cebpf4jnsgd1na2vs0mg"},{"bike_id":"1af8cc20-b4be-40a0-952b-b9221d26e0d7","system_id":"levelo_inurba_marseille","lat":43.287248,"lon":5.379534,"is_reserved":false,"is_disabled":false,"rental_uris":{"android":"levelo://app?vid=1af8cc20-b4be-40a0-952b-b9221d26e0d7","ios":"levelo://app?vid=1af8cc20-b4be-40a0-952b-b9221d26e0d7"},"vehicle_type_id":"4","last_reported":1750493556,"current_range_meters":12400,"station_id":"ce4bh9p2rcd13ifvqec0","pricing_plan_id":"cebpf4jnsgd1na2vs0mg"},{"bike_id":"8b63aefb-24a7-4551-a8dc-830b5dfc4500","system_id":"levelo_inurba_marseille","lat":43.2827,"lon":5.35056,"is_reserved":false,"is_disabled":false,"rental_uris":{"android":"levelo://app?vid=8b63aefb-24a7-4551-a8dc-830b5dfc4500","ios":"levelo://app?vid=8b63aefb-24a7-4551-a8dc-830b5dfc4500"},"vehicle_type_id":"4","last_reported":1750493556,"current_range_meters":12400,"station_id":"ce4bhbp2rcd13ifvqerg","pricing_plan_id":"cebpf4jnsgd1na2vs0mg"},{"bike_id":"9e38d277-5c68-497e-a46f-8f0c017ccf9c","system_id":"levelo_inurba_marseille","lat":43.25501,"lon":5.3765,"is_reserved":false,"is_disabled":false,"rental_uris":{"android":"levelo://app?vid=9e38d277-5c68-497e-a46f-8f0c017ccf9c","ios":"levelo://app?vid=9e38d277-5c68-497e-a46f-8f0c017ccf9c"},"vehicle_type_id":"4","last_reported":1750493556,"current_range_meters":12400,"station_id":"ce4bhh12rcd13ifvqff0","pricing_plan_id":"cebpf4jnsgd1na2vs0mg"},{"bike_id":"f145ef2d-df61-40c4-88a2-b92526086ccc","system_id":"levelo_inurba_marseille","lat":43.311637,"lon":5.387426,"is_reserved":false,"is_disabled":false,"rental_uris":{"android":"levelo://app?vid=f145ef2d-df61-40c4-88a2-b92526086ccc","ios":"levelo://app?vid=f145ef2d-df61-40c4-88a2-b92526086ccc"},"vehicle_type_id":"4","last_reported":1750493556,"current_range_meters":12800,"station_id":"ce4bgv12rcd13ifvqcp0","pricing_plan_id":"cebpf4jnsgd1na2vs0mg"},{"bike_id":"0c2373a2-9846-4b46-807b-8a16a7eb0916","system_id":"levelo_inurba_marseille","lat":43.25498,"lon":5.37648,"is_reserved":false,"is_disabled":false,"rental_uris":{"android":"levelo://app?vid=0c2373a2-9846-4b46-807b-8a16a7eb0916","ios":"levelo://app?vid=0c2373a2-9846-4b46-807b-8a16a7eb0916"},"vehicle_type_id":"4","last_reported":1750493556,"current_range_meters":12800,"station_id":"ce4bhh12rcd13ifvqff0","pricing_plan_id":"cebpf4jnsgd1na2vs0mg"},{"bike_id":"bb5e8cfe-ffcf-4275-8796-019fb987ef2b","system_id":"levelo_inurba_marseille","lat":43.295554,"lon":5.422768,"is_reserved":false,"is_disabled":false,"rental_uris":{"android":"levelo://app?vid=bb5e8cfe-ffcf-4275-8796-019fb987ef2b","ios":"levelo://app?vid=bb5e8cfe-ffcf-4275-8796-019fb987ef2b"},"vehicle_type_id":"4","last_reported":1750493556,"current_range_meters":12800,"station_id":"ce4bhph2rcd13ifvqhdg","pricing_plan_id":"cebpf4jnsgd1na2vs0mg"},{"bike_id":"bda78705-c772-44c4-bf59-dd2ddfc242f4","system_id":"levelo_inurba_marseille","lat":43.30799,"lon":5.43527,"is_reserved":false,"is_disabled":false,"rental_uris":{"android":"levelo://app?vid=bda78705-c772-44c4-bf59-dd2ddfc242f4","ios":"levelo://app?vid=bda78705-c772-44c4-bf59-dd2ddfc242f4"},"vehicle_type_id":"4","last_reported":1750493556,"current_range_meters":12800,"station_id":"ce4bhph2rcd13ifvqheg","pricing_plan_id":"cebpf4jnsgd1na2vs0mg"},{"bike_id":"a22aa312-0025-4f42-88e2-b1e95e79340f","system_id":"levelo_inurba_marseille","lat":43.31647,"lon":5.38346,"is_reserved":false,"is_disabled":false,"rental_uris":{"android":"levelo://app?vid=a22aa312-0025-4f42-88e2-b1e95e79340f","ios":"levelo://app?vid=a22aa312-0025-4f42-88e2-b1e95e79340f"},"vehicle_type_id":"4","last_reported":1750493556,"current_range_meters":13600,"station_id":"","pricing_plan_id":"cebpf4jnsgd1na2vs0mg"},{"bike_id":"d008d169-b2fc-477a-8a7a-53f2ae1beddd","system_id":"levelo_inurba_marseille","lat":43.3053,"lon":5.36546,"is_reserved":false,"is_disabled":false,"rental_uris":{"android":"levelo://app?vid=d008d169-b2fc-477a-8a7a-53f2ae1beddd","ios":"levelo://app?vid=d008d169-b2fc-477a-8a7a-53f2ae1beddd"},"vehicle_type_id":"4","last_reported":1750493556,"current_range_meters":13600,"station_id":"ce4bgs12rcd13ifvqcag","pricing_plan_id":"cebpf4jnsgd1na2vs0mg"},{"bike_id":"d212d898-aa9b-4b62-bb6e-222699bd7298","system_id":"levelo_inurba_marseille","lat":43.29031,"lon":5.38647,"is_reserved":false,"is_disabled":false,"rental_uris":{"android":"levelo://app?vid=d212d898-aa9b-4b62-bb6e-222699bd7298","ios":"levelo://app?vid=d212d898-aa9b-4b62-bb6e-222699bd7298"},"vehicle_type_id":"4","last_reported":1750493556,"current_range_meters":13600,"station_id":"ce4bh4p2rcd13ifvqe0g","pricing_plan_id":"cebpf4jnsgd1na2vs0mg"},{"bike_id":"dbf75da3-9d16-44e5-b7c9-dce76d74e09f","system_id":"levelo_inurba_marseille","lat":43.282652,"lon":5.350575,"is_reserved":false,"is_disabled":false,"rental_uris":{"android":"levelo://app?vid=dbf75da3-9d16-44e5-b7c9-dce76d74e09f","ios":"levelo://app?vid=dbf75da3-9d16-44e5-b7c9-dce76d74e09f"},"vehicle_type_id":"4","last_reported":1750493556,"current_range_meters":13600,"station_id":"ce4bhbp2rcd13ifvqerg","pricing_plan_id":"cebpf4jnsgd1na2vs0mg"},{"bike_id":"9d8cea9e-5dc3-4979-89db-1e9a7449f475","system_id":"levelo_inurba_marseille","lat":43.23148,"lon":5.43717,"is_reserved":false,"is_disabled":false,"rental_uris":{"android":"levelo://app?vid=9d8cea9e-5dc3-4979-89db-1e9a7449f475","ios":"levelo://app?vid=9d8cea9e-5dc3-4979-89db-1e9a7449f475"},"vehicle_type_id":"4","last_reported":1750493556,"current_range_meters":13600,"station_id":"ce4bhmp2rcd13ifvqgog","pricing_plan_id":"cebpf4jnsgd1na2vs0mg"},{"bike_id":"d44e4de2-46db-4670-b095-8d8bde17414a","system_id":"levelo_inurba_marseille","lat":43.31713,"lon":5.4242,"is_reserved":false,"is_disabled":false,"rental_uris":{"android":"levelo://app?vid=d44e4de2-46db-4670-b095-8d8bde17414a","ios":"levelo://app?vid=d44e4de2-46db-4670-b095-8d8bde17414a"},"vehicle_type_id":"4","last_reported":1750493556,"current_range_meters":13600,"station_id":"ce4bhp92rcd13ifvqhbg","pricing_plan_id":"cebpf4jnsgd1na2vs0mg"},{"bike_id":"4643bc90-1bac-4c4b-98b1-e2d500830573","system_id":"levelo_inurba_marseille","lat":43.31357,"lon":5.37692,"is_reserved":false,"is_disabled":false,"rental_uris":{"android":"levelo://app?vid=4643bc90-1bac-4c4b-98b1-e2d500830573","ios":"levelo://app?vid=4643bc90-1bac-4c4b-98b1-e2d500830573"},"vehicle_type_id":"4","last_reported":1750493556,"current_range_meters":14000,"station_id":"","pricing_plan_id":"cebpf4jnsgd1na2vs0mg"},{"bike_id":"ced8ee67-58dc-40f7-a011-ace4bcd3b542","system_id":"levelo_inurba_marseille","lat":43.290376,"lon":5.399834,"is_reserved":false,"is_disabled":false,"rental_uris":{"android":"levelo://app?vid=ced8ee67-58dc-40f7-a011-ace4bcd3b542","ios":"levelo://app?vid=ced8ee67-58dc-40f7-a011-ace4bcd3b542"},"vehicle_type_id":"4","last_reported":1750493556,"current_range_meters":14000,"station_id":"ce4bh392rcd13ifvqdm0","pricing_plan_id":"cebpf4jnsgd1na2vs0mg"},{"bike_id":"479c51ed-30e4-49f8-9f50-b0356774e4f2","system_id":"levelo_inurba_marseille","lat":43.28414,"lon":5.37507,"is_reserved":false,"is_disabled":false,"rental_uris":{"android":"levelo://app?vid=479c51ed-30e4-49f8-9f50-b0356774e4f2","ios":"levelo://app?vid=479c51ed-30e4-49f8-9f50-b0356774e4f2"},"vehicle_type_id":"4","last_reported":1750493556,"current_range_meters":14000,"station_id":"ce4bh412rcd13ifvqds0","pricing_plan_id":"cebpf4jnsgd1na2vs0mg"},{"bike_id":"5a01a987-f989-4da6-b035-8c3000259e08","system_id":"levelo_inurba_marseille","lat":43.279124,"lon":5.395827,"is_reserved":false,"is_disabled":false,"rental_uris":{"android":"levelo://app?vid=5a01a987-f989-4da6-b035-8c3000259e08","ios":"levelo://app?vid=5a01a987-f989-4da6-b035-8c3000259e08"},"vehicle_type_id":"4","last_reported":1750493556,"current_range_meters":14000,"station_id":"ce4bhf92rcd13ifvqf40","pricing_plan_id":"cebpf4jnsgd1na2vs0mg"},{"bike_id":"90c109b5-5cee-495e-8f11-f318c0f086b6","system_id":"levelo_inurba_marseille","lat":43.29863,"lon":5.39733,"is_reserved":false,"is_disabled":false,"rental_uris":{"android":"levelo://app?vid=90c109b5-5cee-495e-8f11-f318c0f086b6","ios":"levelo://app?vid=90c109b5-5cee-495e-8f11-f318c0f086b6"},"vehicle_type_id":"4","last_reported":1750493556,"current_range_meters":14400,"station_id":"ce4bh0h2rcd13ifvqd50","pricing_plan_id":"cebpf4jnsgd1na2vs0mg"},{"bike_id":"5ccb88dd-0630-4721-a3b8-413e3f3dcb0e","system_id":"levelo_inurba_marseille","lat":43.29166,"lon":5.37147,"is_reserved":false,"is_disabled":false,"rental_uris":{"android":"levelo://app?vid=5ccb88dd-0630-4721-a3b8-413e3f3dcb0e","ios":"levelo://app?vid=5ccb88dd-0630-4721-a3b8-413e3f3dcb0e"},"vehicle_type_id":"4","last_reported":1750493556,"current_range_meters":14400,"station_id":"ce4bha92rcd13ifvqeh0","pricing_plan_id":"cebpf4jnsgd1na2vs0mg"},{"bike_id":"ec53d6f5-5ccd-4e27-adf5-694b3f8b0ab4","system_id":"levelo_inurba_marseille","lat":43.2815,"lon":5.42645,"is_reserved":false,"is_disabled":false,"rental_uris":{"android":"levelo://app?vid=ec53d6f5-5ccd-4e27-adf5-694b3f8b0ab4","ios":"levelo://app?vid=ec53d6f5-5ccd-4e27-adf5-694b3f8b0ab4"},"vehicle_type_id":"4","last_reported":1750493556,"current_range_meters":14400,"station_id":"ce4bhnh2rcd13ifvqgug","pricing_plan_id":"cebpf4jnsgd1na2vs0mg"},{"bike_id":"19267c63-bfb8-4e4b-a2b6-3c766dbbe094","system_id":"levelo_inurba_marseille","lat":43.29255,"lon":5.40894,"is_reserved":false,"is_disabled":false,"rental_uris":{"android":"levelo://app?vid=19267c63-bfb8-4e4b-a2b6-3c766dbbe094","ios":"levelo://app?vid=19267c63-bfb8-4e4b-a2b6-3c766dbbe094"},"vehicle_type_id":"4","last_reported":1750493556,"current_range_meters":14800,"station_id":"ce4bh192rcd13ifvqdc0","pricing_plan_id":"cebpf4jnsgd1na2vs0mg"},{"bike_id":"0a17278a-da4e-4c94-af4f-244c78575031","system_id":"levelo_inurba_marseille","lat":43.23153,"lon":5.43701,"is_reserved":false,"is_disabled":false,"rental_uris":{"android":"levelo://app?vid=0a17278a-da4e-4c94-af4f-244c78575031","ios":"levelo://app?vid=0a17278a-da4e-4c94-af4f-244c78575031"},"vehicle_type_id":"4","last_reported":1750493556,"current_range_meters":14800,"station_id":"ce4bhmp2rcd13ifvqgog","pricing_plan_id":"cebpf4jnsgd1na2vs0mg"},{"bike_id":"70c5db27-3c5a-4150-9e6a-af1f1459df6c","system_id":"levelo_inurba_marseille","lat":43.27975,"lon":5.38682,"is_reserved":false,"is_disabled":false,"rental_uris":{"android":"levelo://app?vid=70c5db27-3c5a-4150-9e6a-af1f1459df6c","ios":"levelo://app?vid=70c5db27-3c5a-4150-9e6a-af1f1459df6c"},"vehicle_type_id":"4","last_reported":1750493556,"current_range_meters":15200,"station_id":"","pricing_plan_id":"cebpf4jnsgd1na2vs0mg"},{"bike_id":"e7258c6f-ddc4-412e-ab27-d85a4e6495db","system_id":"levelo_inurba_marseille","lat":43.29269,"lon":5.36846,"is_reserved":false,"is_disabled":false,"rental_uris":{"android":"levelo://app?vid=e7258c6f-ddc4-412e-ab27-d85a4e6495db","ios":"levelo://app?vid=e7258c6f-ddc4-412e-ab27-d85a4e6495db"},"vehicle_type_id":"4","last_reported":1750493556,"current_range_meters":15200,"station_id":"ce4bhbp2rcd13ifvqesg","pricing_plan_id":"cebpf4jnsgd1na2vs0mg"},{"bike_id":"2a0e16d5-55d2-4c16-a4c9-b0b86c57f985","system_id":"levelo_inurba_marseille","lat":43.30151,"lon":5.38085,"is_reserved":false,"is_disabled":false,"rental_uris":{"android":"levelo://app?vid=2a0e16d5-55d2-4c16-a4c9-b0b86c57f985","ios":"levelo://app?vid=2a0e16d5-55d2-4c16-a4c9-b0b86c57f985"},"vehicle_type_id":"4","last_reported":1750493556,"current_range_meters":16000,"station_id":"ce4bgjp2rcd13ifvqbh0","pricing_plan_id":"cebpf4jnsgd1na2vs0mg"},{"bike_id":"29875086-e866-416a-9ee6-4289ceac6128","system_id":"levelo_inurba_marseille","lat":43.30936,"lon":5.40143,"is_reserved":false,"is_disabled":false,"rental_uris":{"android":"levelo://app?vid=29875086-e866-416a-9ee6-4289ceac6128","ios":"levelo://app?vid=29875086-e866-416a-9ee6-4289ceac6128"},"vehicle_type_id":"4","last_reported":1750493556,"current_range_meters":16000,"station_id":"ce4bgvp2rcd13ifvqct0","pricing_plan_id":"cebpf4jnsgd1na2vs0mg"},{"bike_id":"d8b2f8d4-5b3b-4ba1-905e-3d59d08e8b06","system_id":"levelo_inurba_marseille","lat":43.24651,"lon":5.38891,"is_reserved":false,"is_disabled":false,"rental_uris":{"android":"levelo://app?vid=d8b2f8d4-5b3b-4ba1-905e-3d59d08e8b06","ios":"levelo://app?vid=d8b2f8d4-5b3b-4ba1-905e-3d59d08e8b06"},"vehicle_type_id":"4","last_reported":1750493556,"current_range_meters":16000,"station_id":"ce4bhg12rcd13ifvqf60","pricing_plan_id":"cebpf4jnsgd1na2vs0mg"},{"bike_id":"6c947f54-1f02-43e4-9e06-dc26fbd0d9ea","system_id":"levelo_inurba_marseille","lat":43.24364,"lon":5.37042,"is_reserved":false,"is_disabled":false,"rental_uris":{"android":"levelo://app?vid=6c947f54-1f02-43e4-9e06-dc26fbd0d9ea","ios":"levelo://app?vid=6c947f54-1f02-43e4-9e06-dc26fbd0d9ea"},"vehicle_type_id":"4","last_reported":1750493556,"current_range_meters":16000,"station_id":"ce4bhhh2rcd13ifvqfk0","pricing_plan_id":"cebpf4jnsgd1na2vs0mg"},{"bike_id":"c3949640-595f-42df-8c03-c9185a47962b","system_id":"levelo_inurba_marseille","lat":43.23966,"lon":5.36633,"is_reserved":false,"is_disabled":false,"rental_uris":{"android":"levelo://app?vid=c3949640-595f-42df-8c03-c9185a47962b","ios":"levelo://app?vid=c3949640-595f-42df-8c03-c9185a47962b"},"vehicle_type_id":"4","last_reported":1750493556,"current_range_meters":16000,"station_id":"ce4bhi12rcd13ifvqfp0","pricing_plan_id":"cebpf4jnsgd1na2vs0mg"},{"bike_id":"9436b3f7-e71d-4814-81fe-95d1af5df695","system_id":"levelo_inurba_marseille","lat":43.21198,"lon":5.35064,"is_reserved":false,"is_disabled":false,"rental_uris":{"android":"levelo://app?vid=9436b3f7-e71d-4814-81fe-95d1af5df695","ios":"levelo://app?vid=9436b3f7-e71d-4814-81fe-95d1af5df695"},"vehicle_type_id":"4","last_reported":1750493556,"current_range_meters":16000,"station_id":"st_cvj6sg6p6f1abm77japg","pricing_plan_id":"cebpf4jnsgd1na2vs0mg"},{"bike_id":"b5826738-818a-4c47-930a-9b762018aeaf","system_id":"levelo_inurba_marseille","lat":43.3203,"lon":5.40817,"is_reserved":false,"is_disabled":false,"rental_uris":{"android":"levelo://app?vid=b5826738-818a-4c47-930a-9b762018aeaf","ios":"levelo://app?vid=b5826738-818a-4c47-930a-9b762018aeaf"},"vehicle_type_id":"4","last_reported":1750493556,"current_range_meters":16400,"station_id":"","pricing_plan_id":"cebpf4jnsgd1na2vs0mg"},{"bike_id":"399f1953-2bea-49fa-99d4-dce45aabeeb9","system_id":"levelo_inurba_marseille","lat":43.31686,"lon":5.40475,"is_reserved":false,"is_disabled":false,"rental_uris":{"android":"levelo://app?vid=399f1953-2bea-49fa-99d4-dce45aabeeb9","ios":"levelo://app?vid=399f1953-2bea-49fa-99d4-dce45aabeeb9"},"vehicle_type_id":"4","last_reported":1750493556,"current_range_meters":16400,"station_id":"ce4bh012rcd13ifvqd00","pricing_plan_id":"cebpf4jnsgd1na2vs0mg"},{"bike_id":"8a080f39-62d6-4fb5-8fad-8c4f8ea968be","system_id":"levelo_inurba_marseille","lat":43.29266,"lon":5.40133,"is_reserved":false,"is_disabled":false,"rental_uris":{"android":"levelo://app?vid=8a080f39-62d6-4fb5-8fad-8c4f8ea968be","ios":"levelo://app?vid=8a080f39-62d6-4fb5-8fad-8c4f8ea968be"},"vehicle_type_id":"4","last_reported":1750493556,"current_range_meters":16400,"station_id":"ce4bh312rcd13ifvqdk0","pricing_plan_id":"cebpf4jnsgd1na2vs0mg"},{"bike_id":"5f42f629-91e9-467b-ac2c-49ebd77a7195","system_id":"levelo_inurba_marseille","lat":43.24175,"lon":5.39722,"is_reserved":false,"is_disabled":false,"rental_uris":{"android":"levelo://app?vid=5f42f629-91e9-467b-ac2c-49ebd77a7195","ios":"levelo://app?vid=5f42f629-91e9-467b-ac2c-49ebd77a7195"},"vehicle_type_id":"4","last_reported":1750493556,"current_range_meters":16400,"station_id":"ce4bhn12rcd13ifvqgpg","pricing_plan_id":"cebpf4jnsgd1na2vs0mg"},{"bike_id":"3d2d6044-6185-4c45-8ef2-14dfc8377c45","system_id":"levelo_inurba_marseille","lat":43.32041,"lon":5.36778,"is_reserved":false,"is_disabled":false,"rental_uris":{"android":"levelo://app?vid=3d2d6044-6185-4c45-8ef2-14dfc8377c45","ios":"levelo://app?vid=3d2d6044-6185-4c45-8ef2-14dfc8377c45"},"vehicle_type_id":"4","last_reported":1750493556,"current_range_meters":16400,"station_id":"ce4bhrh2rcd13ifvqhug","pricing_plan_id":"cebpf4jnsgd1na2vs0mg"},{"bike_id":"38b4578b-d322-4ae7-86ef-2a7e9839b4fd","system_id":"levelo_inurba_marseille","lat":43.21219,"lon":5.3506,"is_reserved":false,"is_disabled":false,"rental_uris":{"android":"levelo://app?vid=38b4578b-d322-4ae7-86ef-2a7e9839b4fd","ios":"levelo://app?vid=38b4578b-d322-4ae7-86ef-2a7e9839b4fd"},"vehicle_type_id":"4","last_reported":1750493556,"current_range_meters":16400,"station_id":"st_cvj6sg6p6f1abm77japg","pricing_plan_id":"cebpf4jnsgd1na2vs0mg"},{"bike_id":"aa7e05f1-8df8-41a7-93cc-dd99033479ed","system_id":"levelo_inurba_marseille","lat":43.293,"lon":5.3746,"is_reserved":false,"is_disabled":false,"rental_uris":{"android":"levelo://app?vid=aa7e05f1-8df8-41a7-93cc-dd99033479ed","ios":"levelo://app?vid=aa7e05f1-8df8-41a7-93cc-dd99033479ed"},"vehicle_type_id":"4","last_reported":1750493556,"current_range_meters":16800,"station_id":"ce4bgi12rcd13ifvqb70","pricing_plan_id":"cebpf4jnsgd1na2vs0mg"},{"bike_id":"56faa6ab-2f83-450c-9e58-434be7d2d9fc","system_id":"levelo_inurba_marseille","lat":43.31137,"lon":5.37733,"is_reserved":false,"is_disabled":false,"rental_uris":{"android":"levelo://app?vid=56faa6ab-2f83-450c-9e58-434be7d2d9fc","ios":"levelo://app?vid=56faa6ab-2f83-450c-9e58-434be7d2d9fc"},"vehicle_type_id":"4","last_reported":1750493556,"current_range_meters":16800,"station_id":"ce4bgt92rcd13ifvqcg0","pricing_plan_id":"cebpf4jnsgd1na2vs0mg"},{"bike_id":"4c811e0c-d0b3-4ce3-b3a9-608517601a88","system_id":"levelo_inurba_marseille","lat":43.29284,"lon":5.36824,"is_reserved":false,"is_disabled":false,"rental_uris":{"android":"levelo://app?vid=4c811e0c-d0b3-4ce3-b3a9-608517601a88","ios":"levelo://app?vid=4c811e0c-d0b3-4ce3-b3a9-608517601a88"},"vehicle_type_id":"4","last_reported":1750493556,"current_range_meters":16800,"station_id":"ce4bhbp2rcd13ifvqesg","pricing_plan_id":"cebpf4jnsgd1na2vs0mg"},{"bike_id":"26aa7672-65d6-42c3-9ebb-8f5ffcf95c84","system_id":"levelo_inurba_marseille","lat":43.241673,"lon":5.363898,"is_reserved":false,"is_disabled":false,"rental_uris":{"android":"levelo://app?vid=26aa7672-65d6-42c3-9ebb-8f5ffcf95c84","ios":"levelo://app?vid=26aa7672-65d6-42c3-9ebb-8f5ffcf95c84"},"vehicle_type_id":"4","last_reported":1750493556,"current_range_meters":16800,"station_id":"ce4bhgh2rcd13ifvqfa0","pricing_plan_id":"cebpf4jnsgd1na2vs0mg"},{"bike_id":"45d778e6-aa0b-40ba-a4de-a6c941762022","system_id":"levelo_inurba_marseille","lat":43.24372,"lon":5.37044,"is_reserved":false,"is_disabled":false,"rental_uris":{"android":"levelo://app?vid=45d778e6-aa0b-40ba-a4de-a6c941762022","ios":"levelo://app?vid=45d778e6-aa0b-40ba-a4de-a6c941762022"},"vehicle_type_id":"4","last_reported":1750493556,"current_range_meters":16800,"station_id":"ce4bhhh2rcd13ifvqfk0","pricing_plan_id":"cebpf4jnsgd1na2vs0mg"},{"bike_id":"6a4b59b0-64b7-4950-ae73-2324ba55dcce","system_id":"levelo_inurba_marseille","lat":43.33011,"lon":5.38152,"is_reserved":false,"is_disabled":false,"rental_uris":{"android":"levelo://app?vid=6a4b59b0-64b7-4950-ae73-2324ba55dcce","ios":"levelo://app?vid=6a4b59b0-64b7-4950-ae73-2324ba55dcce"},"vehicle_type_id":"4","last_reported":1750493556,"current_range_meters":17200,"station_id":"","pricing_plan_id":"cebpf4jnsgd1na2vs0mg"},{"bike_id":"f6069a5d-a2bc-44cc-bc6f-f26f79591d92","system_id":"levelo_inurba_marseille","lat":43.307817,"lon":5.373703,"is_reserved":false,"is_disabled":false,"rental_uris":{"android":"levelo://app?vid=f6069a5d-a2bc-44cc-bc6f-f26f79591d92","ios":"levelo://app?vid=f6069a5d-a2bc-44cc-bc6f-f26f79591d92"},"vehicle_type_id":"4","last_reported":1750493556,"current_range_meters":17200,"station_id":"","pricing_plan_id":"cebpf4jnsgd1na2vs0mg"},{"bike_id":"f1334ccd-572a-45ad-8ee3-ade2b04fe912","system_id":"levelo_inurba_marseille","lat":43.31115,"lon":5.37748,"is_reserved":false,"is_disabled":false,"rental_uris":{"android":"levelo://app?vid=f1334ccd-572a-45ad-8ee3-ade2b04fe912","ios":"levelo://app?vid=f1334ccd-572a-45ad-8ee3-ade2b04fe912"},"vehicle_type_id":"4","last_reported":1750493556,"current_range_meters":17200,"station_id":"ce4bgt92rcd13ifvqcg0","pricing_plan_id":"cebpf4jnsgd1na2vs0mg"},{"bike_id":"e027c74d-1962-483a-84e7-7fc299e599a5","system_id":"levelo_inurba_marseille","lat":43.30318,"lon":5.40066,"is_reserved":false,"is_disabled":false,"rental_uris":{"android":"levelo://app?vid=e027c74d-1962-483a-84e7-7fc299e599a5","ios":"levelo://app?vid=e027c74d-1962-483a-84e7-7fc299e599a5"},"vehicle_type_id":"4","last_reported":1750493556,"current_range_meters":17200,"station_id":"ce4bgvh2rcd13ifvqcs0","pricing_plan_id":"cebpf4jnsgd1na2vs0mg"},{"bike_id":"51924496-d375-43d1-9f3c-2086be022a83","system_id":"levelo_inurba_marseille","lat":43.26006,"lon":5.38688,"is_reserved":false,"is_disabled":false,"rental_uris":{"android":"levelo://app?vid=51924496-d375-43d1-9f3c-2086be022a83","ios":"levelo://app?vid=51924496-d375-43d1-9f3c-2086be022a83"},"vehicle_type_id":"4","last_reported":1750493556,"current_range_meters":17600,"station_id":"","pricing_plan_id":"cebpf4jnsgd1na2vs0mg"},{"bike_id":"f40fbac2-af4d-4df6-81a0-f8c7e8e050b5","system_id":"levelo_inurba_marseille","lat":43.27208,"lon":5.3919,"is_reserved":false,"is_disabled":false,"rental_uris":{"android":"levelo://app?vid=f40fbac2-af4d-4df6-81a0-f8c7e8e050b5","ios":"levelo://app?vid=f40fbac2-af4d-4df6-81a0-f8c7e8e050b5"},"vehicle_type_id":"4","last_reported":1750493556,"current_range_meters":17600,"station_id":"ce4bhhp2rcd13ifvqfm0","pricing_plan_id":"cebpf4jnsgd1na2vs0mg"},{"bike_id":"269c3bdf-af5e-4656-89f5-602080b8a3e4","system_id":"levelo_inurba_marseille","lat":43.23974,"lon":5.36616,"is_reserved":false,"is_disabled":false,"rental_uris":{"android":"levelo://app?vid=269c3bdf-af5e-4656-89f5-602080b8a3e4","ios":"levelo://app?vid=269c3bdf-af5e-4656-89f5-602080b8a3e4"},"vehicle_type_id":"4","last_reported":1750493556,"current_range_meters":17600,"station_id":"ce4bhi12rcd13ifvqfp0","pricing_plan_id":"cebpf4jnsgd1na2vs0mg"},{"bike_id":"cf077cfc-8295-4c86-b208-4d8963e12e17","system_id":"levelo_inurba_marseille","lat":43.27071,"lon":5.42275,"is_reserved":false,"is_disabled":false,"rental_uris":{"android":"levelo://app?vid=cf077cfc-8295-4c86-b208-4d8963e12e17","ios":"levelo://app?vid=cf077cfc-8295-4c86-b208-4d8963e12e17"},"vehicle_type_id":"4","last_reported":1750493556,"current_range_meters":17600,"station_id":"ce4bhk92rcd13ifvqgb0","pricing_plan_id":"cebpf4jnsgd1na2vs0mg"},{"bike_id":"1c6eee43-889f-4cff-bc8c-307447a31830","system_id":"levelo_inurba_marseille","lat":43.30801,"lon":5.43525,"is_reserved":false,"is_disabled":false,"rental_uris":{"android":"levelo://app?vid=1c6eee43-889f-4cff-bc8c-307447a31830","ios":"levelo://app?vid=1c6eee43-889f-4cff-bc8c-307447a31830"},"vehicle_type_id":"4","last_reported":1750493556,"current_range_meters":17600,"station_id":"ce4bhph2rcd13ifvqheg","pricing_plan_id":"cebpf4jnsgd1na2vs0mg"},{"bike_id":"04b016b0-78f2-4a40-9df3-2f41fff75a5c","system_id":"levelo_inurba_marseille","lat":43.212,"lon":5.35082,"is_reserved":false,"is_disabled":false,"rental_uris":{"android":"levelo://app?vid=04b016b0-78f2-4a40-9df3-2f41fff75a5c","ios":"levelo://app?vid=04b016b0-78f2-4a40-9df3-2f41fff75a5c"},"vehicle_type_id":"4","last_reported":1750493556,"current_range_meters":17600,"station_id":"st_cvj6sg6p6f1abm77japg","pricing_plan_id":"cebpf4jnsgd1na2vs0mg"},{"bike_id":"4d80d21e-3dc9-4004-a3c0-eb7b371a8ccf","system_id":"levelo_inurba_marseille","lat":43.33015,"lon":5.39432,"is_reserved":false,"is_disabled":false,"rental_uris":{"android":"levelo://app?vid=4d80d21e-3dc9-4004-a3c0-eb7b371a8ccf","ios":"levelo://app?vid=4d80d21e-3dc9-4004-a3c0-eb7b371a8ccf"},"vehicle_type_id":"4","last_reported":1750493556,"current_range_meters":18000,"station_id":"","pricing_plan_id":"cebpf4jnsgd1na2vs0mg"},{"bike_id":"ffbb0c22-3f4e-4cdb-a0e5-79e3b9f3e1a2","system_id":"levelo_inurba_marseille","lat":43.33769,"lon":5.37469,"is_reserved":false,"is_disabled":false,"rental_uris":{"android":"levelo://app?vid=ffbb0c22-3f4e-4cdb-a0e5-79e3b9f3e1a2","ios":"levelo://app?vid=ffbb0c22-3f4e-4cdb-a0e5-79e3b9f3e1a2"},"vehicle_type_id":"4","last_reported":1750493556,"current_range_meters":18000,"station_id":"","pricing_plan_id":"cebpf4jnsgd1na2vs0mg"},{"bike_id":"d6470e1e-8481-4ffe-b835-2c5b2f17e70f","system_id":"levelo_inurba_marseille","lat":43.30463,"lon":5.37903,"is_reserved":false,"is_disabled":false,"rental_uris":{"android":"levelo://app?vid=d6470e1e-8481-4ffe-b835-2c5b2f17e70f","ios":"levelo://app?vid=d6470e1e-8481-4ffe-b835-2c5b2f17e70f"},"vehicle_type_id":"4","last_reported":1750493556,"current_range_meters":18000,"station_id":"ce4bgup2rcd13ifvqcn0","pricing_plan_id":"cebpf4jnsgd1na2vs0mg"},{"bike_id":"26a2db9e-8b05-4c0c-b47a-9a45345f2484","system_id":"levelo_inurba_marseille","lat":43.304233,"lon":5.397543,"is_reserved":false,"is_disabled":false,"rental_uris":{"android":"levelo://app?vid=26a2db9e-8b05-4c0c-b47a-9a45345f2484","ios":"levelo://app?vid=26a2db9e-8b05-4c0c-b47a-9a45345f2484"},"vehicle_type_id":"4","last_reported":1750493556,"current_range_meters":18000,"station_id":"ce4bh092rcd13ifvqd20","pricing_plan_id":"cebpf4jnsgd1na2vs0mg"},{"bike_id":"df0fba21-f3e5-40e1-b187-231203706010","system_id":"levelo_inurba_marseille","lat":43.28577,"lon":5.39476,"is_reserved":false,"is_disabled":false,"rental_uris":{"android":"levelo://app?vid=df0fba21-f3e5-40e1-b187-231203706010","ios":"levelo://app?vid=df0fba21-f3e5-40e1-b187-231203706010"},"vehicle_type_id":"4","last_reported":1750493556,"current_range_meters":18000,"station_id":"ce4bh292rcd13ifvqdg0","pricing_plan_id":"cebpf4jnsgd1na2vs0mg"},{"bike_id":"e1923973-da41-4df0-b8a8-20981ae5e691","system_id":"levelo_inurba_marseille","lat":43.290365,"lon":5.399721,"is_reserved":false,"is_disabled":false,"rental_uris":{"android":"levelo://app?vid=e1923973-da41-4df0-b8a8-20981ae5e691","ios":"levelo://app?vid=e1923973-da41-4df0-b8a8-20981ae5e691"},"vehicle_type_id":"4","last_reported":1750493556,"current_range_meters":18000,"station_id":"ce4bh392rcd13ifvqdm0","pricing_plan_id":"cebpf4jnsgd1na2vs0mg"},{"bike_id":"5defa9ba-9560-4200-a208-c10ccd245d8f","system_id":"levelo_inurba_marseille","lat":43.28262,"lon":5.35066,"is_reserved":false,"is_disabled":false,"rental_uris":{"android":"levelo://app?vid=5defa9ba-9560-4200-a208-c10ccd245d8f","ios":"levelo://app?vid=5defa9ba-9560-4200-a208-c10ccd245d8f"},"vehicle_type_id":"4","last_reported":1750493556,"current_range_meters":18000,"station_id":"ce4bhbp2rcd13ifvqerg","pricing_plan_id":"cebpf4jnsgd1na2vs0mg"},{"bike_id":"14f70ca7-5487-4048-bd1e-b3d79e4d712e","system_id":"levelo_inurba_marseille","lat":43.29271,"lon":5.36854,"is_reserved":false,"is_disabled":false,"rental_uris":{"android":"levelo://app?vid=14f70ca7-5487-4048-bd1e-b3d79e4d712e","ios":"levelo://app?vid=14f70ca7-5487-4048-bd1e-b3d79e4d712e"},"vehicle_type_id":"4","last_reported":1750493556,"current_range_meters":18000,"station_id":"ce4bhbp2rcd13ifvqesg","pricing_plan_id":"cebpf4jnsgd1na2vs0mg"},{"bike_id":"82b609eb-4bb1-412b-8dd3-ab5548ecab23","system_id":"levelo_inurba_marseille","lat":43.27082,"lon":5.42298,"is_reserved":false,"is_disabled":false,"rental_uris":{"android":"levelo://app?vid=82b609eb-4bb1-412b-8dd3-ab5548ecab23","ios":"levelo://app?vid=82b609eb-4bb1-412b-8dd3-ab5548ecab23"},"vehicle_type_id":"4","last_reported":1750493556,"current_range_meters":18000,"station_id":"ce4bhk92rcd13ifvqgb0","pricing_plan_id":"cebpf4jnsgd1na2vs0mg"},{"bike_id":"1e394239-d873-46d7-806d-fa98483a8220","system_id":"levelo_inurba_marseille","lat":43.262256,"lon":5.404109,"is_reserved":false,"is_disabled":false,"rental_uris":{"android":"levelo://app?vid=1e394239-d873-46d7-806d-fa98483a8220","ios":"levelo://app?vid=1e394239-d873-46d7-806d-fa98483a8220"},"vehicle_type_id":"4","last_reported":1750493556,"current_range_meters":18000,"station_id":"ce4bhmh2rcd13ifvqgmg","pricing_plan_id":"cebpf4jnsgd1na2vs0mg"},{"bike_id":"fb243efd-50c8-423b-8129-f995a7fde703","system_id":"levelo_inurba_marseille","lat":43.21197,"lon":5.35065,"is_reserved":false,"is_disabled":false,"rental_uris":{"android":"levelo://app?vid=fb243efd-50c8-423b-8129-f995a7fde703","ios":"levelo://app?vid=fb243efd-50c8-423b-8129-f995a7fde703"},"vehicle_type_id":"4","last_reported":1750493556,"current_range_meters":18000,"station_id":"st_cvj6sg6p6f1abm77japg","pricing_plan_id":"cebpf4jnsgd1na2vs0mg"},{"bike_id":"91d988b7-666c-44b2-b2e1-aca873c9037e","system_id":"levelo_inurba_marseille","lat":43.29992,"lon":5.39879,"is_reserved":false,"is_disabled":false,"rental_uris":{"android":"levelo://app?vid=91d988b7-666c-44b2-b2e1-aca873c9037e","ios":"levelo://app?vid=91d988b7-666c-44b2-b2e1-aca873c9037e"},"vehicle_type_id":"4","last_reported":1750493556,"current_range_meters":18800,"station_id":"","pricing_plan_id":"cebpf4jnsgd1na2vs0mg"},{"bike_id":"f8df2956-f236-4a57-bc5d-1884300c4377","system_id":"levelo_inurba_marseille","lat":43.312793,"lon":5.401634,"is_reserved":false,"is_disabled":false,"rental_uris":{"android":"levelo://app?vid=f8df2956-f236-4a57-bc5d-1884300c4377","ios":"levelo://app?vid=f8df2956-f236-4a57-bc5d-1884300c4377"},"vehicle_type_id":"4","last_reported":1750493556,"current_range_meters":18800,"station_id":"ce4bh092rcd13ifvqd30","pricing_plan_id":"cebpf4jnsgd1na2vs0mg"},{"bike_id":"c8b308e1-bd18-4c17-92e7-f5918af66970","system_id":"levelo_inurba_marseille","lat":43.30648,"lon":5.40083,"is_reserved":false,"is_disabled":false,"rental_uris":{"android":"levelo://app?vid=c8b308e1-bd18-4c17-92e7-f5918af66970","ios":"levelo://app?vid=c8b308e1-bd18-4c17-92e7-f5918af66970"},"vehicle_type_id":"4","last_reported":1750493556,"current_range_meters":18800,"station_id":"ce4bh112rcd13ifvqda0","pricing_plan_id":"cebpf4jnsgd1na2vs0mg"},{"bike_id":"4d4df371-4a07-4078-b66c-0646e04ad4bf","system_id":"levelo_inurba_marseille","lat":43.29898,"lon":5.43658,"is_reserved":false,"is_disabled":false,"rental_uris":{"android":"levelo://app?vid=4d4df371-4a07-4078-b66c-0646e04ad4bf","ios":"levelo://app?vid=4d4df371-4a07-4078-b66c-0646e04ad4bf"},"vehicle_type_id":"4","last_reported":1750493556,"current_range_meters":18800,"station_id":"ce4bhpp2rcd13ifvqhfg","pricing_plan_id":"cebpf4jnsgd1na2vs0mg"},{"bike_id":"dc1db63d-5468-44d8-958f-b819dd58751d","system_id":"levelo_inurba_marseille","lat":43.323362,"lon":5.406234,"is_reserved":false,"is_disabled":false,"rental_uris":{"android":"levelo://app?vid=dc1db63d-5468-44d8-958f-b819dd58751d","ios":"levelo://app?vid=dc1db63d-5468-44d8-958f-b819dd58751d"},"vehicle_type_id":"4","last_reported":1750493556,"current_range_meters":18800,"station_id":"ce4bhq92rcd13ifvqhjg","pricing_plan_id":"cebpf4jnsgd1na2vs0mg"},{"bike_id":"68f60a5b-f53b-4057-a945-ffab911196a3","system_id":"levelo_inurba_marseille","lat":43.30148,"lon":5.38096,"is_reserved":false,"is_disabled":false,"rental_uris":{"android":"levelo://app?vid=68f60a5b-f53b-4057-a945-ffab911196a3","ios":"levelo://app?vid=68f60a5b-f53b-4057-a945-ffab911196a3"},"vehicle_type_id":"4","last_reported":1750493556,"current_range_meters":19200,"station_id":"ce4bgjp2rcd13ifvqbh0","pricing_plan_id":"cebpf4jnsgd1na2vs0mg"},{"bike_id":"813b3fc9-439b-44fd-89ae-cfceeca95c02","system_id":"levelo_inurba_marseille","lat":43.30147,"lon":5.38082,"is_reserved":false,"is_disabled":false,"rental_uris":{"android":"levelo://app?vid=813b3fc9-439b-44fd-89ae-cfceeca95c02","ios":"levelo://app?vid=813b3fc9-439b-44fd-89ae-cfceeca95c02"},"vehicle_type_id":"4","last_reported":1750493556,"current_range_meters":19200,"station_id":"ce4bgjp2rcd13ifvqbh0","pricing_plan_id":"cebpf4jnsgd1na2vs0mg"},{"bike_id":"3ccb411c-48a8-4b89-a0fe-4f09e05dcfb9","system_id":"levelo_inurba_marseille","lat":43.29174,"lon":5.37154,"is_reserved":false,"is_disabled":false,"rental_uris":{"android":"levelo://app?vid=3ccb411c-48a8-4b89-a0fe-4f09e05dcfb9","ios":"levelo://app?vid=3ccb411c-48a8-4b89-a0fe-4f09e05dcfb9"},"vehicle_type_id":"4","last_reported":1750493556,"current_range_meters":19200,"station_id":"ce4bha92rcd13ifvqeh0","pricing_plan_id":"cebpf4jnsgd1na2vs0mg"},{"bike_id":"e9eb657c-400f-41ee-97de-58790aa5151d","system_id":"levelo_inurba_marseille","lat":43.26224,"lon":5.4045,"is_reserved":false,"is_disabled":false,"rental_uris":{"android":"levelo://app?vid=e9eb657c-400f-41ee-97de-58790aa5151d","ios":"levelo://app?vid=e9eb657c-400f-41ee-97de-58790aa5151d"},"vehicle_type_id":"4","last_reported":1750493556,"current_range_meters":19200,"station_id":"ce4bhmh2rcd13ifvqgmg","pricing_plan_id":"cebpf4jnsgd1na2vs0mg"},{"bike_id":"a35905cb-179f-42a7-8923-28754546fd4c","system_id":"levelo_inurba_marseille","lat":43.27997,"lon":5.40014,"is_reserved":false,"is_disabled":false,"rental_uris":{"android":"levelo://app?vid=a35905cb-179f-42a7-8923-28754546fd4c","ios":"levelo://app?vid=a35905cb-179f-42a7-8923-28754546fd4c"},"vehicle_type_id":"4","last_reported":1750493556,"current_range_meters":19200,"station_id":"ce4bho92rcd13ifvqh4g","pricing_plan_id":"cebpf4jnsgd1na2vs0mg"},{"bike_id":"4ad9ef79-6a57-4f0c-b1e7-f28547edf411","system_id":"levelo_inurba_marseille","lat":43.30942,"lon":5.39026,"is_reserved":false,"is_disabled":false,"rental_uris":{"android":"levelo://app?vid=4ad9ef79-6a57-4f0c-b1e7-f28547edf411","ios":"levelo://app?vid=4ad9ef79-6a57-4f0c-b1e7-f28547edf411"},"vehicle_type_id":"4","last_reported":1750493556,"current_range_meters":19600,"station_id":"ce4bgup2rcd13ifvqco0","pricing_plan_id":"cebpf4jnsgd1na2vs0mg"},{"bike_id":"c7a8b653-0ff6-4a79-9663-a017d10ac616","system_id":"levelo_inurba_marseille","lat":43.29049,"lon":5.39965,"is_reserved":false,"is_disabled":false,"rental_uris":{"android":"levelo://app?vid=c7a8b653-0ff6-4a79-9663-a017d10ac616","ios":"levelo://app?vid=c7a8b653-0ff6-4a79-9663-a017d10ac616"},"vehicle_type_id":"4","last_reported":1750493556,"current_range_meters":19600,"station_id":"ce4bh392rcd13ifvqdm0","pricing_plan_id":"cebpf4jnsgd1na2vs0mg"},{"bike_id":"037bb55c-581c-4b44-b072-28cff3505ef8","system_id":"levelo_inurba_marseille","lat":43.29032,"lon":5.399746,"is_reserved":false,"is_disabled":false,"rental_uris":{"android":"levelo://app?vid=037bb55c-581c-4b44-b072-28cff3505ef8","ios":"levelo://app?vid=037bb55c-581c-4b44-b072-28cff3505ef8"},"vehicle_type_id":"4","last_reported":1750493556,"current_range_meters":19600,"station_id":"ce4bh392rcd13ifvqdm0","pricing_plan_id":"cebpf4jnsgd1na2vs0mg"},{"bike_id":"5e372528-2077-476b-a84f-f2201c11536d","system_id":"levelo_inurba_marseille","lat":43.28142,"lon":5.42635,"is_reserved":false,"is_disabled":false,"rental_uris":{"android":"levelo://app?vid=5e372528-2077-476b-a84f-f2201c11536d","ios":"levelo://app?vid=5e372528-2077-476b-a84f-f2201c11536d"},"vehicle_type_id":"4","last_reported":1750493556,"current_range_meters":19600,"station_id":"ce4bhnh2rcd13ifvqgug","pricing_plan_id":"cebpf4jnsgd1na2vs0mg"},{"bike_id":"44f91d9d-a072-4666-b130-0587846c0cfd","system_id":"levelo_inurba_marseille","lat":43.31884,"lon":5.40732,"is_reserved":false,"is_disabled":false,"rental_uris":{"android":"levelo://app?vid=44f91d9d-a072-4666-b130-0587846c0cfd","ios":"levelo://app?vid=44f91d9d-a072-4666-b130-0587846c0cfd"},"vehicle_type_id":"4","last_reported":1750493556,"current_range_meters":19600,"station_id":"ce4bhq12rcd13ifvqhig","pricing_plan_id":"cebpf4jnsgd1na2vs0mg"},{"bike_id":"af760fd1-fa84-488b-b018-69b9b494ad54","system_id":"levelo_inurba_marseille","lat":43.27632,"lon":5.36112,"is_reserved":false,"is_disabled":false,"rental_uris":{"android":"levelo://app?vid=af760fd1-fa84-488b-b018-69b9b494ad54","ios":"levelo://app?vid=af760fd1-fa84-488b-b018-69b9b494ad54"},"vehicle_type_id":"4","last_reported":1750493556,"current_range_meters":20000,"station_id":"ce4bgj92rcd13ifvqbe0","pricing_plan_id":"cebpf4jnsgd1na2vs0mg"},{"bike_id":"925fbd4a-e92a-4de4-b2be-fa9d44fdd9f1","system_id":"levelo_inurba_marseille","lat":43.29869,"lon":5.39737,"is_reserved":false,"is_disabled":false,"rental_uris":{"android":"levelo://app?vid=925fbd4a-e92a-4de4-b2be-fa9d44fdd9f1","ios":"levelo://app?vid=925fbd4a-e92a-4de4-b2be-fa9d44fdd9f1"},"vehicle_type_id":"4","last_reported":1750493556,"current_range_meters":20000,"station_id":"ce4bh0h2rcd13ifvqd50","pricing_plan_id":"cebpf4jnsgd1na2vs0mg"},{"bike_id":"9e5349a6-04da-4c94-b2a4-3bc013fb6b5a","system_id":"levelo_inurba_marseille","lat":43.28265,"lon":5.35078,"is_reserved":false,"is_disabled":false,"rental_uris":{"android":"levelo://app?vid=9e5349a6-04da-4c94-b2a4-3bc013fb6b5a","ios":"levelo://app?vid=9e5349a6-04da-4c94-b2a4-3bc013fb6b5a"},"vehicle_type_id":"4","last_reported":1750493556,"current_range_meters":20000,"station_id":"ce4bhbp2rcd13ifvqerg","pricing_plan_id":"cebpf4jnsgd1na2vs0mg"},{"bike_id":"fe7ff49d-f73c-4d4a-b369-9bc703c18401","system_id":"levelo_inurba_marseille","lat":43.24391,"lon":5.37051,"is_reserved":false,"is_disabled":false,"rental_uris":{"android":"levelo://app?vid=fe7ff49d-f73c-4d4a-b369-9bc703c18401","ios":"levelo://app?vid=fe7ff49d-f73c-4d4a-b369-9bc703c18401"},"vehicle_type_id":"4","last_reported":1750493556,"current_range_meters":20000,"station_id":"ce4bhhh2rcd13ifvqfk0","pricing_plan_id":"cebpf4jnsgd1na2vs0mg"},{"bike_id":"c6e5dc42-b9e0-41cc-84a8-4f5fb9329a28","system_id":"levelo_inurba_marseille","lat":43.258786,"lon":5.398983,"is_reserved":false,"is_disabled":false,"rental_uris":{"android":"levelo://app?vid=c6e5dc42-b9e0-41cc-84a8-4f5fb9329a28","ios":"levelo://app?vid=c6e5dc42-b9e0-41cc-84a8-4f5fb9329a28"},"vehicle_type_id":"4","last_reported":1750493556,"current_range_meters":20000,"station_id":"ce4bhip2rcd13ifvqft0","pricing_plan_id":"cebpf4jnsgd1na2vs0mg"},{"bike_id":"37967699-9626-41b5-a5f9-8419eeae5de5","system_id":"levelo_inurba_marseille","lat":43.24177,"lon":5.39721,"is_reserved":false,"is_disabled":false,"rental_uris":{"android":"levelo://app?vid=37967699-9626-41b5-a5f9-8419eeae5de5","ios":"levelo://app?vid=37967699-9626-41b5-a5f9-8419eeae5de5"},"vehicle_type_id":"4","last_reported":1750493556,"current_range_meters":20000,"station_id":"ce4bhn12rcd13ifvqgpg","pricing_plan_id":"cebpf4jnsgd1na2vs0mg"},{"bike_id":"9415da86-e212-4480-9a8c-eebefdbd63dd","system_id":"levelo_inurba_marseille","lat":43.284352,"lon":5.391914,"is_reserved":false,"is_disabled":false,"rental_uris":{"android":"levelo://app?vid=9415da86-e212-4480-9a8c-eebefdbd63dd","ios":"levelo://app?vid=9415da86-e212-4480-9a8c-eebefdbd63dd"},"vehicle_type_id":"4","last_reported":1750493556,"current_range_meters":20000,"station_id":"ce4bhoh2rcd13ifvqh5g","pricing_plan_id":"cebpf4jnsgd1na2vs0mg"},{"bike_id":"b954ad20-8866-4808-9736-0e481591598c","system_id":"levelo_inurba_marseille","lat":43.32585,"lon":5.37755,"is_reserved":false,"is_disabled":false,"rental_uris":{"android":"levelo://app?vid=b954ad20-8866-4808-9736-0e481591598c","ios":"levelo://app?vid=b954ad20-8866-4808-9736-0e481591598c"},"vehicle_type_id":"4","last_reported":1750493556,"current_range_meters":20400,"station_id":"","pricing_plan_id":"cebpf4jnsgd1na2vs0mg"},{"bike_id":"65e0e0ce-8f8f-41c8-a30a-a3d7768500ac","system_id":"levelo_inurba_marseille","lat":43.30246,"lon":5.37959,"is_reserved":false,"is_disabled":false,"rental_uris":{"android":"levelo://app?vid=65e0e0ce-8f8f-41c8-a30a-a3d7768500ac","ios":"levelo://app?vid=65e0e0ce-8f8f-41c8-a30a-a3d7768500ac"},"vehicle_type_id":"4","last_reported":1750493556,"current_range_meters":20400,"station_id":"","pricing_plan_id":"cebpf4jnsgd1na2vs0mg"},{"bike_id":"e015b482-d4e8-4a5f-a863-45f470cd2037","system_id":"levelo_inurba_marseille","lat":43.31163,"lon":5.3872,"is_reserved":false,"is_disabled":false,"rental_uris":{"android":"levelo://app?vid=e015b482-d4e8-4a5f-a863-45f470cd2037","ios":"levelo://app?vid=e015b482-d4e8-4a5f-a863-45f470cd2037"},"vehicle_type_id":"4","last_reported":1750493556,"current_range_meters":20400,"station_id":"ce4bgv12rcd13ifvqcp0","pricing_plan_id":"cebpf4jnsgd1na2vs0mg"},{"bike_id":"3d3d0742-1e66-499f-8b80-e7d57de6ac80","system_id":"levelo_inurba_marseille","lat":43.28698,"lon":5.37385,"is_reserved":false,"is_disabled":false,"rental_uris":{"android":"levelo://app?vid=3d3d0742-1e66-499f-8b80-e7d57de6ac80","ios":"levelo://app?vid=3d3d0742-1e66-499f-8b80-e7d57de6ac80"},"vehicle_type_id":"4","last_reported":1750493556,"current_range_meters":20400,"station_id":"ce4bh3p2rcd13ifvqdq0","pricing_plan_id":"cebpf4jnsgd1na2vs0mg"},{"bike_id":"d5d4ea08-5286-42f6-8cc4-138a5180b07c","system_id":"levelo_inurba_marseille","lat":43.2504,"lon":5.38928,"is_reserved":false,"is_disabled":false,"rental_uris":{"android":"levelo://app?vid=d5d4ea08-5286-42f6-8cc4-138a5180b07c","ios":"levelo://app?vid=d5d4ea08-5286-42f6-8cc4-138a5180b07c"},"vehicle_type_id":"4","last_reported":1750493556,"current_range_meters":20400,"station_id":"ce4bhgp2rcd13ifvqfd0","pricing_plan_id":"cebpf4jnsgd1na2vs0mg"},{"bike_id":"b15d48be-15ba-4f8b-b711-e317e1fa43b5","system_id":"levelo_inurba_marseille","lat":43.22929,"lon":5.35374,"is_reserved":false,"is_disabled":false,"rental_uris":{"android":"levelo://app?vid=b15d48be-15ba-4f8b-b711-e317e1fa43b5","ios":"levelo://app?vid=b15d48be-15ba-4f8b-b711-e317e1fa43b5"},"vehicle_type_id":"4","last_reported":1750493556,"current_range_meters":20400,"station_id":"cpo3532slgdg3j2ikp40","pricing_plan_id":"cebpf4jnsgd1na2vs0mg"},{"bike_id":"377ec864-6a07-4987-8844-392b5fb8234b","system_id":"levelo_inurba_marseille","lat":43.317665,"lon":5.387987,"is_reserved":false,"is_disabled":false,"rental_uris":{"android":"levelo://app?vid=377ec864-6a07-4987-8844-392b5fb8234b","ios":"levelo://app?vid=377ec864-6a07-4987-8844-392b5fb8234b"},"vehicle_type_id":"4","last_reported":1750493556,"current_range_meters":20800,"station_id":"","pricing_plan_id":"cebpf4jnsgd1na2vs0mg"},{"bike_id":"c1bfe059-dc8b-4a59-9d74-d550781388b9","system_id":"levelo_inurba_marseille","lat":43.295313,"lon":5.385461,"is_reserved":false,"is_disabled":false,"rental_uris":{"android":"levelo://app?vid=c1bfe059-dc8b-4a59-9d74-d550781388b9","ios":"levelo://app?vid=c1bfe059-dc8b-4a59-9d74-d550781388b9"},"vehicle_type_id":"4","last_reported":1750493556,"current_range_meters":20800,"station_id":"","pricing_plan_id":"cebpf4jnsgd1na2vs0mg"},{"bike_id":"a3ad56e7-7a91-4aa3-ab02-df0b7f94c034","system_id":"levelo_inurba_marseille","lat":43.29128,"lon":5.3558,"is_reserved":false,"is_disabled":false,"rental_uris":{"android":"levelo://app?vid=a3ad56e7-7a91-4aa3-ab02-df0b7f94c034","ios":"levelo://app?vid=a3ad56e7-7a91-4aa3-ab02-df0b7f94c034"},"vehicle_type_id":"4","last_reported":1750493556,"current_range_meters":20800,"station_id":"","pricing_plan_id":"cebpf4jnsgd1na2vs0mg"},{"bike_id":"c2a9e590-72a6-4f8a-9210-e17724d6efde","system_id":"levelo_inurba_marseille","lat":43.310843,"lon":5.389108,"is_reserved":false,"is_disabled":false,"rental_uris":{"android":"levelo://app?vid=c2a9e590-72a6-4f8a-9210-e17724d6efde","ios":"levelo://app?vid=c2a9e590-72a6-4f8a-9210-e17724d6efde"},"vehicle_type_id":"4","last_reported":1750493556,"current_range_meters":20800,"station_id":"ce4bgup2rcd13ifvqco0","pricing_plan_id":"cebpf4jnsgd1na2vs0mg"},{"bike_id":"a03a949d-876f-42db-9564-0aeae678fff4","system_id":"levelo_inurba_marseille","lat":43.29878,"lon":5.39744,"is_reserved":false,"is_disabled":false,"rental_uris":{"android":"levelo://app?vid=a03a949d-876f-42db-9564-0aeae678fff4","ios":"levelo://app?vid=a03a949d-876f-42db-9564-0aeae678fff4"},"vehicle_type_id":"4","last_reported":1750493556,"current_range_meters":20800,"station_id":"ce4bh0h2rcd13ifvqd50","pricing_plan_id":"cebpf4jnsgd1na2vs0mg"},{"bike_id":"3caec441-c1f7-4646-933d-3b5fcf9c1ddb","system_id":"levelo_inurba_marseille","lat":43.28856,"lon":5.39302,"is_reserved":false,"is_disabled":false,"rental_uris":{"android":"levelo://app?vid=3caec441-c1f7-4646-933d-3b5fcf9c1ddb","ios":"levelo://app?vid=3caec441-c1f7-4646-933d-3b5fcf9c1ddb"},"vehicle_type_id":"4","last_reported":1750493556,"current_range_meters":20800,"station_id":"ce4bh2p2rcd13ifvqdi0","pricing_plan_id":"cebpf4jnsgd1na2vs0mg"},{"bike_id":"926a25af-a814-4fe1-85aa-3fb0b4d15a54","system_id":"levelo_inurba_marseille","lat":43.28269,"lon":5.35068,"is_reserved":false,"is_disabled":false,"rental_uris":{"android":"levelo://app?vid=926a25af-a814-4fe1-85aa-3fb0b4d15a54","ios":"levelo://app?vid=926a25af-a814-4fe1-85aa-3fb0b4d15a54"},"vehicle_type_id":"4","last_reported":1750493556,"current_range_meters":20800,"station_id":"ce4bhbp2rcd13ifvqerg","pricing_plan_id":"cebpf4jnsgd1na2vs0mg"},{"bike_id":"d17dfa65-3223-4d45-807a-c0a52bb205ee","system_id":"levelo_inurba_marseille","lat":43.23964,"lon":5.36627,"is_reserved":false,"is_disabled":false,"rental_uris":{"android":"levelo://app?vid=d17dfa65-3223-4d45-807a-c0a52bb205ee","ios":"levelo://app?vid=d17dfa65-3223-4d45-807a-c0a52bb205ee"},"vehicle_type_id":"4","last_reported":1750493556,"current_range_meters":20800,"station_id":"ce4bhi12rcd13ifvqfp0","pricing_plan_id":"cebpf4jnsgd1na2vs0mg"},{"bike_id":"9e060714-1c5d-4a58-a297-a8145728e161","system_id":"levelo_inurba_marseille","lat":43.250886,"lon":5.395173,"is_reserved":false,"is_disabled":false,"rental_uris":{"android":"levelo://app?vid=9e060714-1c5d-4a58-a297-a8145728e161","ios":"levelo://app?vid=9e060714-1c5d-4a58-a297-a8145728e161"},"vehicle_type_id":"4","last_reported":1750493556,"current_range_meters":20800,"station_id":"ce4bhm12rcd13ifvqgkg","pricing_plan_id":"cebpf4jnsgd1na2vs0mg"},{"bike_id":"9133bd38-9834-4bf5-aead-c4f396f165ac","system_id":"levelo_inurba_marseille","lat":43.211906,"lon":5.350702,"is_reserved":false,"is_disabled":false,"rental_uris":{"android":"levelo://app?vid=9133bd38-9834-4bf5-aead-c4f396f165ac","ios":"levelo://app?vid=9133bd38-9834-4bf5-aead-c4f396f165ac"},"vehicle_type_id":"4","last_reported":1750493556,"current_range_meters":20800,"station_id":"st_cvj6sg6p6f1abm77japg","pricing_plan_id":"cebpf4jnsgd1na2vs0mg"},{"bike_id":"b10476c2-2e64-4a41-a4df-6fd21c65643b","system_id":"levelo_inurba_marseille","lat":43.29692,"lon":5.37798,"is_reserved":false,"is_disabled":false,"rental_uris":{"android":"levelo://app?vid=b10476c2-2e64-4a41-a4df-6fd21c65643b","ios":"levelo://app?vid=b10476c2-2e64-4a41-a4df-6fd21c65643b"},"vehicle_type_id":"4","last_reported":1750493556,"current_range_meters":21600,"station_id":"","pricing_plan_id":"cebpf4jnsgd1na2vs0mg"},{"bike_id":"18a32804-f6da-4d7b-9b85-d67e2794b8b4","system_id":"levelo_inurba_marseille","lat":43.2962,"lon":5.37728,"is_reserved":false,"is_disabled":false,"rental_uris":{"android":"levelo://app?vid=18a32804-f6da-4d7b-9b85-d67e2794b8b4","ios":"levelo://app?vid=18a32804-f6da-4d7b-9b85-d67e2794b8b4"},"vehicle_type_id":"4","last_reported":1750493556,"current_range_meters":21600,"station_id":"ce4bgi92rcd13ifvqb90","pricing_plan_id":"cebpf4jnsgd1na2vs0mg"},{"bike_id":"722385dd-353a-481e-99b6-9cc4a568a818","system_id":"levelo_inurba_marseille","lat":43.28414,"lon":5.34974,"is_reserved":false,"is_disabled":false,"rental_uris":{"android":"levelo://app?vid=722385dd-353a-481e-99b6-9cc4a568a818","ios":"levelo://app?vid=722385dd-353a-481e-99b6-9cc4a568a818"},"vehicle_type_id":"4","last_reported":1750493556,"current_range_meters":21600,"station_id":"ce4bhbh2rcd13ifvqepg","pricing_plan_id":"cebpf4jnsgd1na2vs0mg"},{"bike_id":"87ba8e5f-64d5-4dd6-981f-4ec868a6b61f","system_id":"levelo_inurba_marseille","lat":43.24393,"lon":5.37049,"is_reserved":false,"is_disabled":false,"rental_uris":{"android":"levelo://app?vid=87ba8e5f-64d5-4dd6-981f-4ec868a6b61f","ios":"levelo://app?vid=87ba8e5f-64d5-4dd6-981f-4ec868a6b61f"},"vehicle_type_id":"4","last_reported":1750493556,"current_range_meters":21600,"station_id":"ce4bhhh2rcd13ifvqfk0","pricing_plan_id":"cebpf4jnsgd1na2vs0mg"},{"bike_id":"e3e3f500-479f-408a-a7f0-0204a533e0b9","system_id":"levelo_inurba_marseille","lat":43.24547,"lon":5.3953,"is_reserved":false,"is_disabled":false,"rental_uris":{"android":"levelo://app?vid=e3e3f500-479f-408a-a7f0-0204a533e0b9","ios":"levelo://app?vid=e3e3f500-479f-408a-a7f0-0204a533e0b9"},"vehicle_type_id":"4","last_reported":1750493556,"current_range_meters":21600,"station_id":"ce4bhlp2rcd13ifvqgjg","pricing_plan_id":"cebpf4jnsgd1na2vs0mg"},{"bike_id":"5c117c66-286b-49d6-92e3-323695dfcb61","system_id":"levelo_inurba_marseille","lat":43.2455,"lon":5.39515,"is_reserved":false,"is_disabled":false,"rental_uris":{"android":"levelo://app?vid=5c117c66-286b-49d6-92e3-323695dfcb61","ios":"levelo://app?vid=5c117c66-286b-49d6-92e3-323695dfcb61"},"vehicle_type_id":"4","last_reported":1750493556,"current_range_meters":21600,"station_id":"ce4bhlp2rcd13ifvqgjg","pricing_plan_id":"cebpf4jnsgd1na2vs0mg"},{"bike_id":"c4c63e38-72b1-4298-9967-abd9d2a284c0","system_id":"levelo_inurba_marseille","lat":43.25924,"lon":5.40897,"is_reserved":false,"is_disabled":false,"rental_uris":{"android":"levelo://app?vid=c4c63e38-72b1-4298-9967-abd9d2a284c0","ios":"levelo://app?vid=c4c63e38-72b1-4298-9967-abd9d2a284c0"},"vehicle_type_id":"4","last_reported":1750493556,"current_range_meters":21600,"station_id":"ce4bhm92rcd13ifvqglg","pricing_plan_id":"cebpf4jnsgd1na2vs0mg"},{"bike_id":"50a220f8-3150-4ed5-9f65-0f0858062caf","system_id":"levelo_inurba_marseille","lat":43.23194,"lon":5.35554,"is_reserved":false,"is_disabled":false,"rental_uris":{"android":"levelo://app?vid=50a220f8-3150-4ed5-9f65-0f0858062caf","ios":"levelo://app?vid=50a220f8-3150-4ed5-9f65-0f0858062caf"},"vehicle_type_id":"4","last_reported":1750493556,"current_range_meters":21600,"station_id":"ce4bhu92rcd13ifvqi70","pricing_plan_id":"cebpf4jnsgd1na2vs0mg"},{"bike_id":"4c7302cf-1b95-43b7-bb03-4030ee2080b7","system_id":"levelo_inurba_marseille","lat":43.24168,"lon":5.36392,"is_reserved":false,"is_disabled":false,"rental_uris":{"android":"levelo://app?vid=4c7302cf-1b95-43b7-bb03-4030ee2080b7","ios":"levelo://app?vid=4c7302cf-1b95-43b7-bb03-4030ee2080b7"},"vehicle_type_id":"4","last_reported":1750493556,"current_range_meters":21600,"station_id":"cpo36qri1sfpv3e86is0","pricing_plan_id":"cebpf4jnsgd1na2vs0mg"},{"bike_id":"c6cbae16-3ce5-4d77-8942-2ad6d6b3c555","system_id":"levelo_inurba_marseille","lat":43.29423,"lon":5.38093,"is_reserved":false,"is_disabled":false,"rental_uris":{"android":"levelo://app?vid=c6cbae16-3ce5-4d77-8942-2ad6d6b3c555","ios":"levelo://app?vid=c6cbae16-3ce5-4d77-8942-2ad6d6b3c555"},"vehicle_type_id":"4","last_reported":1750493556,"current_range_meters":22000,"station_id":"","pricing_plan_id":"cebpf4jnsgd1na2vs0mg"},{"bike_id":"96272f7e-1114-41dc-a0c6-5cb1db36d975","system_id":"levelo_inurba_marseille","lat":43.231926,"lon":5.355511,"is_reserved":false,"is_disabled":false,"rental_uris":{"android":"levelo://app?vid=96272f7e-1114-41dc-a0c6-5cb1db36d975","ios":"levelo://app?vid=96272f7e-1114-41dc-a0c6-5cb1db36d975"},"vehicle_type_id":"4","last_reported":1750493556,"current_range_meters":22000,"station_id":"","pricing_plan_id":"cebpf4jnsgd1na2vs0mg"},{"bike_id":"ff324c36-9ead-46f0-9336-ca1a07f2162b","system_id":"levelo_inurba_marseille","lat":43.297938,"lon":5.404158,"is_reserved":false,"is_disabled":false,"rental_uris":{"android":"levelo://app?vid=ff324c36-9ead-46f0-9336-ca1a07f2162b","ios":"levelo://app?vid=ff324c36-9ead-46f0-9336-ca1a07f2162b"},"vehicle_type_id":"4","last_reported":1750493556,"current_range_meters":22000,"station_id":"ce4bh112rcd13ifvqd90","pricing_plan_id":"cebpf4jnsgd1na2vs0mg"},{"bike_id":"d85ea6f8-0f11-4569-bc22-40c37e6310f2","system_id":"levelo_inurba_marseille","lat":43.29259,"lon":5.38432,"is_reserved":false,"is_disabled":false,"rental_uris":{"android":"levelo://app?vid=d85ea6f8-0f11-4569-bc22-40c37e6310f2","ios":"levelo://app?vid=d85ea6f8-0f11-4569-bc22-40c37e6310f2"},"vehicle_type_id":"4","last_reported":1750493556,"current_range_meters":22000,"station_id":"ce4bh692rcd13ifvqea0","pricing_plan_id":"cebpf4jnsgd1na2vs0mg"},{"bike_id":"968a8e56-5ce3-4af7-b1e3-5e380c99fb4c","system_id":"levelo_inurba_marseille","lat":43.30144,"lon":5.38089,"is_reserved":false,"is_disabled":false,"rental_uris":{"android":"levelo://app?vid=968a8e56-5ce3-4af7-b1e3-5e380c99fb4c","ios":"levelo://app?vid=968a8e56-5ce3-4af7-b1e3-5e380c99fb4c"},"vehicle_type_id":"4","last_reported":1750493556,"current_range_meters":22400,"station_id":"ce4bgjp2rcd13ifvqbh0","pricing_plan_id":"cebpf4jnsgd1na2vs0mg"},{"bike_id":"be7a6693-ccf2-4d60-8e5c-710b4cb64f3a","system_id":"levelo_inurba_marseille","lat":43.286041,"lon":5.351118,"is_reserved":false,"is_disabled":false,"rental_uris":{"android":"levelo://app?vid=be7a6693-ccf2-4d60-8e5c-710b4cb64f3a","ios":"levelo://app?vid=be7a6693-ccf2-4d60-8e5c-710b4cb64f3a"},"vehicle_type_id":"4","last_reported":1750493556,"current_range_meters":22400,"station_id":"ce4bhch2rcd13ifvqeug","pricing_plan_id":"cebpf4jnsgd1na2vs0mg"},{"bike_id":"73a4cd9a-4daa-4770-9393-9bdf9e532eeb","system_id":"levelo_inurba_marseille","lat":43.27917,"lon":5.39574,"is_reserved":false,"is_disabled":false,"rental_uris":{"android":"levelo://app?vid=73a4cd9a-4daa-4770-9393-9bdf9e532eeb","ios":"levelo://app?vid=73a4cd9a-4daa-4770-9393-9bdf9e532eeb"},"vehicle_type_id":"4","last_reported":1750493556,"current_range_meters":22400,"station_id":"ce4bhf92rcd13ifvqf40","pricing_plan_id":"cebpf4jnsgd1na2vs0mg"},{"bike_id":"72c2ea63-e2ec-4de0-8ee1-ce5f166644c4","system_id":"levelo_inurba_marseille","lat":43.255799,"lon":5.382265,"is_reserved":false,"is_disabled":false,"rental_uris":{"android":"levelo://app?vid=72c2ea63-e2ec-4de0-8ee1-ce5f166644c4","ios":"levelo://app?vid=72c2ea63-e2ec-4de0-8ee1-ce5f166644c4"},"vehicle_type_id":"4","last_reported":1750493556,"current_range_meters":22400,"station_id":"ce4bhih2rcd13ifvqfs0","pricing_plan_id":"cebpf4jnsgd1na2vs0mg"},{"bike_id":"099983f6-2f71-42f0-8529-522906753c72","system_id":"levelo_inurba_marseille","lat":43.26234,"lon":5.40469,"is_reserved":false,"is_disabled":false,"rental_uris":{"android":"levelo://app?vid=099983f6-2f71-42f0-8529-522906753c72","ios":"levelo://app?vid=099983f6-2f71-42f0-8529-522906753c72"},"vehicle_type_id":"4","last_reported":1750493556,"current_range_meters":22400,"station_id":"ce4bhmh2rcd13ifvqgmg","pricing_plan_id":"cebpf4jnsgd1na2vs0mg"},{"bike_id":"4e9f1237-3e4e-4e9c-8667-35f78d49354e","system_id":"levelo_inurba_marseille","lat":43.28439,"lon":5.39186,"is_reserved":false,"is_disabled":false,"rental_uris":{"android":"levelo://app?vid=4e9f1237-3e4e-4e9c-8667-35f78d49354e","ios":"levelo://app?vid=4e9f1237-3e4e-4e9c-8667-35f78d49354e"},"vehicle_type_id":"4","last_reported":1750493556,"current_range_meters":22400,"station_id":"ce4bhoh2rcd13ifvqh5g","pricing_plan_id":"cebpf4jnsgd1na2vs0mg"},{"bike_id":"d5cc24c0-37bd-4edd-b829-e40c1b3f5263","system_id":"levelo_inurba_marseille","lat":43.32478,"lon":5.36575,"is_reserved":false,"is_disabled":false,"rental_uris":{"android":"levelo://app?vid=d5cc24c0-37bd-4edd-b829-e40c1b3f5263","ios":"levelo://app?vid=d5cc24c0-37bd-4edd-b829-e40c1b3f5263"},"vehicle_type_id":"4","last_reported":1750493556,"current_range_meters":22400,"station_id":"ce4bhs12rcd13ifvqhvg","pricing_plan_id":"cebpf4jnsgd1na2vs0mg"},{"bike_id":"ee3026d9-e826-4f6d-afda-d2f4bce88d52","system_id":"levelo_inurba_marseille","lat":43.22498,"lon":5.34802,"is_reserved":false,"is_disabled":false,"rental_uris":{"android":"levelo://app?vid=ee3026d9-e826-4f6d-afda-d2f4bce88d52","ios":"levelo://app?vid=ee3026d9-e826-4f6d-afda-d2f4bce88d52"},"vehicle_type_id":"4","last_reported":1750493556,"current_range_meters":22400,"station_id":"st_cvj5dfep6f1abm77gieg","pricing_plan_id":"cebpf4jnsgd1na2vs0mg"},{"bike_id":"8d742130-2104-4a21-b63d-6f09c2f567f5","system_id":"levelo_inurba_marseille","lat":43.28285,"lon":5.42417,"is_reserved":false,"is_disabled":false,"rental_uris":{"android":"levelo://app?vid=8d742130-2104-4a21-b63d-6f09c2f567f5","ios":"levelo://app?vid=8d742130-2104-4a21-b63d-6f09c2f567f5"},"vehicle_type_id":"4","last_reported":1750493556,"current_range_meters":22800,"station_id":"","pricing_plan_id":"cebpf4jnsgd1na2vs0mg"},{"bike_id":"1f9a8df5-1dc7-46cf-bb36-58f2bece97e5","system_id":"levelo_inurba_marseille","lat":43.30957,"lon":5.39022,"is_reserved":false,"is_disabled":false,"rental_uris":{"android":"levelo://app?vid=1f9a8df5-1dc7-46cf-bb36-58f2bece97e5","ios":"levelo://app?vid=1f9a8df5-1dc7-46cf-bb36-58f2bece97e5"},