{"last_updated":1731359291,"ttl":60,"version":"2.2","data":{"bikes":[{"bike_id":"2afb4c00-67cc-42f1-ae32-502f5aecb4b2","system_id":"levelo_inurba_marseille","lat":43.24082,"lon":5.3774,"is_reserved":false,"is_disabled":false,"rental_uris":{"android":"levelo://app?vid=2afb4c00-67cc-42f1-ae32-502f5aecb4b2","ios":"levelo://app?vid=2afb4c00-67cc-42f1-ae32-502f5aecb4b2"},"vehicle_type_id":"4","last_reported":1731359291,"current_range_meters":32800,"station_id":"ce4bhnp2rcd13ifvqgvg","pricing_plan_id":"cebpf4jnsgd1na2vs0mg"},{"bike_id":"55f338da-564d-4339-bcb5-5d0a4b68c4e6","system_id":"levelo_inurba_marseille","lat":43.31063,"lon":5.4009,"is_reserved":false,"is_disabled":false,"rental_uris":{"android":"levelo://app?vid=55f338da-564d-4339-bcb5-5d0a4b68c4e6","ios":"levelo://app?vid=55f338da-564d-4339-bcb5-5d0a4b68c4e6"},"vehicle_type_id":"4","last_reported":1731359291,"current_range_meters":6000,"station_id":"","pricing_plan_id":"cebpf4jnsgd1na2vs0mg"},{"bike_id":"7d263089-dc22-413a-b37a-45490641fd7e","system_id":"levelo_inurba_marseille","lat":43.290584,"lon":5.399831,"is_reserved":false,"is_disabled":false,"rental_uris":{"android":"levelo://app?vid=7d263089-dc22-413a-b37a-45490641fd7e","ios":"levelo://app?vid=7d263089-dc22-413a-b37a-45490641fd7e"},"vehicle_type_id":"4","last_reported":1731359291,"current_range_meters":32000,"station_id":"ce4bh312rcd13ifvqdk0","pricing_plan_id":"cebpf4jnsgd1na2vs0mg"},{"bike_id":"069aa614-dd1f-40e4-8bb2-ffcfb069572f","system_id":"levelo_inurba_marseille","lat":43.28613,"lon":5.37066,"is_reserved":false,"is_disabled":false,"rental_uris":{"android":"levelo://app?vid=069aa614-dd1f-40e4-8bb2-ffcfb069572f","ios":"levelo://app?vid=069aa614-dd1f-40e4-8bb2-ffcfb069572f"},"vehicle_type_id":"4","last_reported":1731359291,"current_range_meters":37600,"station_id":"ce4bht12rcd13ifvqi60","pricing_plan_id":"cebpf4jnsgd1na2vs0mg"},{"bike_id":"18505efe-fc92-450c-9038-d61817417e59","system_id":"levelo_inurba_marseille","lat":43.301769,"lon":5.366168,"is_reserved":false,"is_disabled":false,"rental_uris":{"android":"levelo://app?vid=18505efe-fc92-450c-9038-d61817417e59","ios":"levelo://app?vid=18505efe-fc92-450c-9038-d61817417e59"},"vehicle_type_id":"4","last_reported":1731359291,"current_range_meters":37600,"station_id":"ce4bgrh2rcd13ifvqc8g","pricing_plan_id":"cebpf4jnsgd1na2vs0mg"},{"bike_id":"092dc3c4-ec94-48f1-bf24-36eadab65fb9","system_id":"levelo_inurba_marseille","lat":43.29042,"lon":5.38636,"is_reserved":false,"is_disabled":false,"rental_uris":{"android":"levelo://app?vid=092dc3c4-ec94-48f1-bf24-36eadab65fb9","ios":"levelo://app?vid=092dc3c4-ec94-48f1-bf24-36eadab65fb9"},"vehicle_type_id":"4","last_reported":1731359291,"current_range_meters":35600,"station_id":"ce4bh4p2rcd13ifvqe0g","pricing_plan_id":"cebpf4jnsgd1na2vs0mg"},{"bike_id":"64d90b08-5e61-4c38-bbaa-d680bf80640e","system_id":"levelo_inurba_marseille","lat":43.290227,"lon":5.386347,"is_reserved":false,"is_disabled":false,"rental_uris":{"android":"levelo://app?vid=64d90b08-5e61-4c38-bbaa-d680bf80640e","ios":"levelo://app?vid=64d90b08-5e61-4c38-bbaa-d680bf80640e"},"vehicle_type_id":"4","last_reported":1731359291,"current_range_meters":38000,"station_id":"ce4bh4p2rcd13ifvqe0g","pricing_plan_id":"cebpf4jnsgd1na2vs0mg"},{"bike_id":"4168f567-a5e4-49ac-b248-24fb5a42d61e","system_id":"levelo_inurba_marseille","lat":43.30879,"lon":5.39655,"is_reserved":false,"is_disabled":false,"rental_uris":{"android":"levelo://app?vid=4168f567-a5e4-49ac-b248-24fb5a42d61e","ios":"levelo://app?vid=4168f567-a5e4-49ac-b248-24fb5a42d61e"},"vehicle_type_id":"4","last_reported":1731359291,"current_range_meters":34000,"station_id":"ce4bh012rcd13ifvqcv0","pricing_plan_id":"cebpf4jnsgd1na2vs0mg"},{"bike_id":"c1d4d46f-68bb-4094-ab1c-6d66217cdb82","system_id":"levelo_inurba_marseille","lat":43.31319,"lon":5.39698,"is_reserved":false,"is_disabled":false,"rental_uris":{"android":"levelo://app?vid=c1d4d46f-68bb-4094-ab1c-6d66217cdb82","ios":"levelo://app?vid=c1d4d46f-68bb-4094-ab1c-6d66217cdb82"},"vehicle_type_id":"4","last_reported":1731359291,"current_range_meters":22800,"station_id":"ce4bgvp2rcd13ifvqcu0","pricing_plan_id":"cebpf4jnsgd1na2vs0mg"},{"bike_id":"e8f6a345-613f-4d73-b3c6-ff7badec834d","system_id":"levelo_inurba_marseille","lat":43.29193,"lon":5.3931,"is_reserved":false,"is_disabled":false,"rental_uris":{"android":"levelo://app?vid=e8f6a345-613f-4d73-b3c6-ff7badec834d","ios":"levelo://app?vid=e8f6a345-613f-4d73-b3c6-ff7badec834d"},"vehicle_type_id":"4","last_reported":1731359291,"current_range_meters":36400,"station_id":"ce4bh192rcd13ifvqdd0","pricing_plan_id":"cebpf4jnsgd1na2vs0mg"},{"bike_id":"6bf6494e-2c22-47ab-a239-0d3ffefdcce6","system_id":"levelo_inurba_marseille","lat":43.28928,"lon":5.38396,"is_reserved":false,"is_disabled":false,"rental_uris":{"android":"levelo://app?vid=6bf6494e-2c22-47ab-a239-0d3ffefdcce6","ios":"levelo://app?vid=6bf6494e-2c22-47ab-a239-0d3ffefdcce6"},"vehicle_type_id":"4","last_reported":1731359291,"current_range_meters":8000,"station_id":"ce4bh612rcd13ifvqe6g","pricing_plan_id":"cebpf4jnsgd1na2vs0mg"},{"bike_id":"2f53f004-6f99-4328-9f1f-e7eaf200d632","system_id":"levelo_inurba_marseille","lat":43.31124,"lon":5.37754,"is_reserved":false,"is_disabled":false,"rental_uris":{"android":"levelo://app?vid=2f53f004-6f99-4328-9f1f-e7eaf200d632","ios":"levelo://app?vid=2f53f004-6f99-4328-9f1f-e7eaf200d632"},"vehicle_type_id":"4","last_reported":1731359291,"current_range_meters":39200,"station_id":"ce4bgt92rcd13ifvqcg0","pricing_plan_id":"cebpf4jnsgd1na2vs0mg"},{"bike_id":"4c0f6987-6003-458e-b26d-8c7570128565","system_id":"levelo_inurba_marseille","lat":43.29527,"lon":5.38537,"is_reserved":false,"is_disabled":false,"rental_uris":{"android":"levelo://app?vid=4c0f6987-6003-458e-b26d-8c7570128565","ios":"levelo://app?vid=4c0f6987-6003-458e-b26d-8c7570128565"},"vehicle_type_id":"4","last_reported":1731359291,"current_range_meters":38800,"station_id":"ce4bgih2rcd13ifvqba0","pricing_plan_id":"cebpf4jnsgd1na2vs0mg"},{"bike_id":"21f69528-c7ad-4e7b-b6e2-127f80c15893","system_id":"levelo_inurba_marseille","lat":43.29599,"lon":5.38106,"is_reserved":false,"is_disabled":false,"rental_uris":{"android":"levelo://app?vid=21f69528-c7ad-4e7b-b6e2-127f80c15893","ios":"levelo://app?vid=21f69528-c7ad-4e7b-b6e2-127f80c15893"},"vehicle_type_id":"4","last_reported":1731359291,"current_range_meters":38800,"station_id":"ce4bgl12rcd13ifvqbo0","pricing_plan_id":"cebpf4jnsgd1na2vs0mg"},{"bike_id":"9d1321dd-1fbe-408e-9e13-0e21e4e610ef","system_id":"levelo_inurba_marseille","lat":43.28031,"lon":5.36931,"is_reserved":false,"is_disabled":false,"rental_uris":{"android":"levelo://app?vid=9d1321dd-1fbe-408e-9e13-0e21e4e610ef","ios":"levelo://app?vid=9d1321dd-1fbe-408e-9e13-0e21e4e610ef"},"vehicle_type_id":"4","last_reported":1731359291,"current_range_meters":38800,"station_id":"ce4bha12rcd13ifvqef0","pricing_plan_id":"cebpf4jnsgd1na2vs0mg"},{"bike_id":"931a1060-a571-4016-b6a2-7704d1b72c80","system_id":"levelo_inurba_marseille","lat":43.29306,"lon":5.374343,"is_reserved":false,"is_disabled":false,"rental_uris":{"android":"levelo://app?vid=931a1060-a571-4016-b6a2-7704d1b72c80","ios":"levelo://app?vid=931a1060-a571-4016-b6a2-7704d1b72c80"},"vehicle_type_id":"4","last_reported":1731359291,"current_range_meters":34800,"station_id":"ce4bh412rcd13ifvqdr0","pricing_plan_id":"cebpf4jnsgd1na2vs0mg"},{"bike_id":"d58636f1-224d-48a3-ac68-59d52e30576f","system_id":"levelo_inurba_marseille","lat":43.32361,"lon":5.3888,"is_reserved":false,"is_disabled":false,"rental_uris":{"android":"levelo://app?vid=d58636f1-224d-48a3-ac68-59d52e30576f","ios":"levelo://app?vid=d58636f1-224d-48a3-ac68-59d52e30576f"},"vehicle_type_id":"4","last_reported":1731359291,"current_range_meters":33600,"station_id":"ce4bhqp2rcd13ifvqhog","pricing_plan_id":"cebpf4jnsgd1na2vs0mg"},{"bike_id":"00f7bd09-eb18-4ae0-9231-d3b4d0bbc19e","system_id":"levelo_inurba_marseille","lat":43.28412,"lon":5.3751,"is_reserved":false,"is_disabled":false,"rental_uris":{"android":"levelo://app?vid=00f7bd09-eb18-4ae0-9231-d3b4d0bbc19e","ios":"levelo://app?vid=00f7bd09-eb18-4ae0-9231-d3b4d0bbc19e"},"vehicle_type_id":"4","last_reported":1731359291,"current_range_meters":38800,"station_id":"ce4bh412rcd13ifvqds0","pricing_plan_id":"cebpf4jnsgd1na2vs0mg"},{"bike_id":"434cce1a-9eee-4e8b-8865-499812afcbe8","system_id":"levelo_inurba_marseille","lat":43.25817,"lon":5.39428,"is_reserved":false,"is_disabled":false,"rental_uris":{"android":"levelo://app?vid=434cce1a-9eee-4e8b-8865-499812afcbe8","ios":"levelo://app?vid=434cce1a-9eee-4e8b-8865-499812afcbe8"},"vehicle_type_id":"4","last_reported":1731359291,"current_range_meters":24800,"station_id":"ce4bhip2rcd13ifvqft0","pricing_plan_id":"cebpf4jnsgd1na2vs0mg"},{"bike_id":"d0943a5d-827f-49db-8682-df17eda18e45","system_id":"levelo_inurba_marseille","lat":43.29802,"lon":5.3809,"is_reserved":false,"is_disabled":false,"rental_uris":{"android":"levelo://app?vid=d0943a5d-827f-49db-8682-df17eda18e45","ios":"levelo://app?vid=d0943a5d-827f-49db-8682-df17eda18e45"},"vehicle_type_id":"4","last_reported":1731359291,"current_range_meters":32000,"station_id":"ce4bgip2rcd13ifvqbb0","pricing_plan_id":"cebpf4jnsgd1na2vs0mg"},{"bike_id":"45cbcec8-866a-410e-ac80-4597d326b6ff","system_id":"levelo_inurba_marseille","lat":43.29031,"lon":5.38637,"is_reserved":false,"is_disabled":false,"rental_uris":{"android":"levelo://app?vid=45cbcec8-866a-410e-ac80-4597d326b6ff","ios":"levelo://app?vid=45cbcec8-866a-410e-ac80-4597d326b6ff"},"vehicle_type_id":"4","last_reported":1731359291,"current_range_meters":36000,"station_id":"ce4bh4p2rcd13ifvqe0g","pricing_plan_id":"cebpf4jnsgd1na2vs0mg"},{"bike_id":"b3e9156c-7ae6-49e2-9b82-9b89f0e3e830","system_id":"levelo_inurba_marseille","lat":43.28612,"lon":5.351,"is_reserved":false,"is_disabled":false,"rental_uris":{"android":"levelo://app?vid=b3e9156c-7ae6-49e2-9b82-9b89f0e3e830","ios":"levelo://app?vid=b3e9156c-7ae6-49e2-9b82-9b89f0e3e830"},"vehicle_type_id":"4","last_reported":1731359291,"current_range_meters":26000,"station_id":"ce4bhch2rcd13ifvqeug","pricing_plan_id":"cebpf4jnsgd1na2vs0mg"},{"bike_id":"6e62b74d-c3a1-441b-bf00-0e1651e4eb84","system_id":"levelo_inurba_marseille","lat":43.28266,"lon":5.35066,"is_reserved":false,"is_disabled":false,"rental_uris":{"android":"levelo://app?vid=6e62b74d-c3a1-441b-bf00-0e1651e4eb84","ios":"levelo://app?vid=6e62b74d-c3a1-441b-bf00-0e1651e4eb84"},"vehicle_type_id":"4","last_reported":1731359291,"current_range_meters":20400,"station_id":"ce4bhbp2rcd13ifvqerg","pricing_plan_id":"cebpf4jnsgd1na2vs0mg"},{"bike_id":"af4b16b2-2793-4fea-9648-ff15d2a07b3d","system_id":"levelo_inurba_marseille","lat":43.25088,"lon":5.3952,"is_reserved":false,"is_disabled":false,"rental_uris":{"android":"levelo://app?vid=af4b16b2-2793-4fea-9648-ff15d2a07b3d","ios":"levelo://app?vid=af4b16b2-2793-4fea-9648-ff15d2a07b3d"},"vehicle_type_id":"4","last_reported":1731359291,"current_range_meters":24400,"station_id":"ce4bhm12rcd13ifvqgkg","pricing_plan_id":"cebpf4jnsgd1na2vs0mg"},{"bike_id":"1ec31f50-d96c-47c6-9806-96f227089cd4","system_id":"levelo_inurba_marseille","lat":43.27484,"lon":5.42464,"is_reserved":false,"is_disabled":false,"rental_uris":{"android":"levelo://app?vid=1ec31f50-d96c-47c6-9806-96f227089cd4","ios":"levelo://app?vid=1ec31f50-d96c-47c6-9806-96f227089cd4"},"vehicle_type_id":"4","last_reported":1731359291,"current_range_meters":36000,"station_id":"ce4bhn92rcd13ifvqgrg","pricing_plan_id":"cebpf4jnsgd1na2vs0mg"},{"bike_id":"afc3c5b0-3896-4b74-beef-f6846cc7e6a4","system_id":"levelo_inurba_marseille","lat":43.31173,"lon":5.38722,"is_reserved":false,"is_disabled":false,"rental_uris":{"android":"levelo://app?vid=afc3c5b0-3896-4b74-beef-f6846cc7e6a4","ios":"levelo://app?vid=afc3c5b0-3896-4b74-beef-f6846cc7e6a4"},"vehicle_type_id":"4","last_reported":1731359291,"current_range_meters":38800,"station_id":"ce4bgv12rcd13ifvqcp0","pricing_plan_id":"cebpf4jnsgd1na2vs0mg"},{"bike_id":"3d1eb1d4-06fd-49e2-ac12-0612030ed290","system_id":"levelo_inurba_marseille","lat":43.26562,"lon":5.39018,"is_reserved":false,"is_disabled":false,"rental_uris":{"android":"levelo://app?vid=3d1eb1d4-06fd-49e2-ac12-0612030ed290","ios":"levelo://app?vid=3d1eb1d4-06fd-49e2-ac12-0612030ed290"},"vehicle_type_id":"4","last_reported":1731359291,"current_range_meters":36000,"station_id":"ce4bhe12rcd13ifvqf30","pricing_plan_id":"cebpf4jnsgd1na2vs0mg"},{"bike_id":"86a1e8ec-924c-482f-a632-e7f0600dca6f","system_id":"levelo_inurba_marseille","lat":43.33617,"lon":5.40975,"is_reserved":false,"is_disabled":false,"rental_uris":{"android":"levelo://app?vid=86a1e8ec-924c-482f-a632-e7f0600dca6f","ios":"levelo://app?vid=86a1e8ec-924c-482f-a632-e7f0600dca6f"},"vehicle_type_id":"4","last_reported":1731359291,"current_range_meters":38800,"station_id":"ce4bhqh2rcd13ifvqhmg","pricing_plan_id":"cebpf4jnsgd1na2vs0mg"},{"bike_id":"297aea25-3eed-4e39-8f6e-71bc61ecb089","system_id":"levelo_inurba_marseille","lat":43.27915,"lon":5.39578,"is_reserved":false,"is_disabled":false,"rental_uris":{"android":"levelo://app?vid=297aea25-3eed-4e39-8f6e-71bc61ecb089","ios":"levelo://app?vid=297aea25-3eed-4e39-8f6e-71bc61ecb089"},"vehicle_type_id":"4","last_reported":1731359291,"current_range_meters":37600,"station_id":"ce4bhf92rcd13ifvqf40","pricing_plan_id":"cebpf4jnsgd1na2vs0mg"},{"bike_id":"727a47b9-31df-473a-9bdc-de8b400ec87a","system_id":"levelo_inurba_marseille","lat":43.28565,"lon":5.39502,"is_reserved":false,"is_disabled":false,"rental_uris":{"android":"levelo://app?vid=727a47b9-31df-473a-9bdc-de8b400ec87a","ios":"levelo://app?vid=727a47b9-31df-473a-9bdc-de8b400ec87a"},"vehicle_type_id":"4","last_reported":1731359291,"current_range_meters":18000,"station_id":"ce4bh292rcd13ifvqdg0","pricing_plan_id":"cebpf4jnsgd1na2vs0mg"},{"bike_id":"a76dcffa-3fcf-4c4b-97c6-84d62e8f453f","system_id":"levelo_inurba_marseille","lat":43.28086,"lon":5.3966,"is_reserved":false,"is_disabled":false,"rental_uris":{"android":"levelo://app?vid=a76dcffa-3fcf-4c4b-97c6-84d62e8f453f","ios":"levelo://app?vid=a76dcffa-3fcf-4c4b-97c6-84d62e8f453f"},"vehicle_type_id":"4","last_reported":1731359291,"current_range_meters":36800,"station_id":"ce4bho12rcd13ifvqh2g","pricing_plan_id":"cebpf4jnsgd1na2vs0mg"},{"bike_id":"55f1a7c3-896e-434c-b890-0d70bff8f621","system_id":"levelo_inurba_marseille","lat":43.2465,"lon":5.38885,"is_reserved":false,"is_disabled":false,"rental_uris":{"android":"levelo://app?vid=55f1a7c3-896e-434c-b890-0d70bff8f621","ios":"levelo://app?vid=55f1a7c3-896e-434c-b890-0d70bff8f621"},"vehicle_type_id":"4","last_reported":1731359291,"current_range_meters":14800,"station_id":"ce4bhg12rcd13ifvqf60","pricing_plan_id":"cebpf4jnsgd1na2vs0mg"},{"bike_id":"4839c812-e2cb-432b-a0ef-e2817e346c52","system_id":"levelo_inurba_marseille","lat":43.29189,"lon":5.39311,"is_reserved":false,"is_disabled":false,"rental_uris":{"android":"levelo://app?vid=4839c812-e2cb-432b-a0ef-e2817e346c52","ios":"levelo://app?vid=4839c812-e2cb-432b-a0ef-e2817e346c52"},"vehicle_type_id":"4","last_reported":1731359291,"current_range_meters":38000,"station_id":"ce4bh192rcd13ifvqdd0","pricing_plan_id":"cebpf4jnsgd1na2vs0mg"},{"bike_id":"ddb46d32-a809-4e74-a10a-eb15b0ade389","system_id":"levelo_inurba_marseille","lat":43.32662,"lon":5.40992,"is_reserved":false,"is_disabled":false,"rental_uris":{"android":"levelo://app?vid=ddb46d32-a809-4e74-a10a-eb15b0ade389","ios":"levelo://app?vid=ddb46d32-a809-4e74-a10a-eb15b0ade389"},"vehicle_type_id":"4","last_reported":1731359291,"current_range_meters":36000,"station_id":"ce4bhpp2rcd13ifvqhgg","pricing_plan_id":"cebpf4jnsgd1na2vs0mg"},{"bike_id":"7b723142-690a-496d-97f8-1b45bea9bf3e","system_id":"levelo_inurba_marseille","lat":43.27831,"lon":5.39212,"is_reserved":false,"is_disabled":false,"rental_uris":{"android":"levelo://app?vid=7b723142-690a-496d-97f8-1b45bea9bf3e","ios":"levelo://app?vid=7b723142-690a-496d-97f8-1b45bea9bf3e"},"vehicle_type_id":"4","last_reported":1731359291,"current_range_meters":37600,"station_id":"ce4bhjp2rcd13ifvqga0","pricing_plan_id":"cebpf4jnsgd1na2vs0mg"},{"bike_id":"a7d71a95-aff9-47f9-8c01-defabf3b40db","system_id":"levelo_inurba_marseille","lat":43.28153,"lon":5.42645,"is_reserved":false,"is_disabled":false,"rental_uris":{"android":"levelo://app?vid=a7d71a95-aff9-47f9-8c01-defabf3b40db","ios":"levelo://app?vid=a7d71a95-aff9-47f9-8c01-defabf3b40db"},"vehicle_type_id":"4","last_reported":1731359291,"current_range_meters":8800,"station_id":"ce4bhnh2rcd13ifvqgug","pricing_plan_id":"cebpf4jnsgd1na2vs0mg"},{"bike_id":"471e1f62-51e4-4556-bb48-2828e393c998","system_id":"levelo_inurba_marseille","lat":43.31991,"lon":5.38142,"is_reserved":false,"is_disabled":false,"rental_uris":{"android":"levelo://app?vid=471e1f62-51e4-4556-bb48-2828e393c998","ios":"levelo://app?vid=471e1f62-51e4-4556-bb48-2828e393c998"},"vehicle_type_id":"4","last_reported":1731359291,"current_range_meters":18800,"station_id":"ce4bhr12rcd13ifvqhpg","pricing_plan_id":"cebpf4jnsgd1na2vs0mg"},{"bike_id":"30e18bba-f22a-4dbe-9837-4f97a1a00fad","system_id":"levelo_inurba_marseille","lat":43.31326,"lon":5.3969,"is_reserved":false,"is_disabled":false,"rental_uris":{"android":"levelo://app?vid=30e18bba-f22a-4dbe-9837-4f97a1a00fad","ios":"levelo://app?vid=30e18bba-f22a-4dbe-9837-4f97a1a00fad"},"vehicle_type_id":"4","last_reported":1731359291,"current_range_meters":37600,"station_id":"ce4bgvp2rcd13ifvqcu0","pricing_plan_id":"cebpf4jnsgd1na2vs0mg"},{"bike_id":"63d7747f-4d71-4b61-bdc6-79bd6267bd1d","system_id":"levelo_inurba_marseille","lat":43.30135,"lon":5.39874,"is_reserved":false,"is_disabled":false,"rental_uris":{"android":"levelo://app?vid=63d7747f-4d71-4b61-bdc6-79bd6267bd1d","ios":"levelo://app?vid=63d7747f-4d71-4b61-bdc6-79bd6267bd1d"},"vehicle_type_id":"4","last_reported":1731359291,"current_range_meters":22800,"station_id":"ce4bh0h2rcd13ifvqd40","pricing_plan_id":"cebpf4jnsgd1na2vs0mg"},{"bike_id":"ce71d16e-828d-465e-b8f9-c4f23825cc86","system_id":"levelo_inurba_marseille","lat":43.292542,"lon":5.401139,"is_reserved":false,"is_disabled":false,"rental_uris":{"android":"levelo://app?vid=ce71d16e-828d-465e-b8f9-c4f23825cc86","ios":"levelo://app?vid=ce71d16e-828d-465e-b8f9-c4f23825cc86"},"vehicle_type_id":"4","last_reported":1731359291,"current_range_meters":36800,"station_id":"ce4bh312rcd13ifvqdk0","pricing_plan_id":"cebpf4jnsgd1na2vs0mg"},{"bike_id":"09199714-2bb5-4d3e-9078-c8bbbd18b066","system_id":"levelo_inurba_marseille","lat":43.28969,"lon":5.37832,"is_reserved":false,"is_disabled":false,"rental_uris":{"android":"levelo://app?vid=09199714-2bb5-4d3e-9078-c8bbbd18b066","ios":"levelo://app?vid=09199714-2bb5-4d3e-9078-c8bbbd18b066"},"vehicle_type_id":"4","last_reported":1731359291,"current_range_meters":31200,"station_id":"ce4bh9p2rcd13ifvqed0","pricing_plan_id":"cebpf4jnsgd1na2vs0mg"},{"bike_id":"d6def4f4-d82d-4857-a542-c10ebf29be97","system_id":"levelo_inurba_marseille","lat":43.31326,"lon":5.39689,"is_reserved":false,"is_disabled":false,"rental_uris":{"android":"levelo://app?vid=d6def4f4-d82d-4857-a542-c10ebf29be97","ios":"levelo://app?vid=d6def4f4-d82d-4857-a542-c10ebf29be97"},"vehicle_type_id":"4","last_reported":1731359291,"current_range_meters":25200,"station_id":"ce4bgvp2rcd13ifvqcu0","pricing_plan_id":"cebpf4jnsgd1na2vs0mg"},{"bike_id":"91c91291-b687-43b8-a01d-4995a7508cdb","system_id":"levelo_inurba_marseille","lat":43.29009,"lon":5.35597,"is_reserved":false,"is_disabled":false,"rental_uris":{"android":"levelo://app?vid=91c91291-b687-43b8-a01d-4995a7508cdb","ios":"levelo://app?vid=91c91291-b687-43b8-a01d-4995a7508cdb"},"vehicle_type_id":"4","last_reported":1731359291,"current_range_meters":37600,"station_id":"ce4bhb92rcd13ifvqen0","pricing_plan_id":"cebpf4jnsgd1na2vs0mg"},{"bike_id":"2fab5967-cac8-409e-8b54-d2651c887a9b","system_id":"levelo_inurba_marseille","lat":43.2961,"lon":5.37233,"is_reserved":false,"is_disabled":false,"rental_uris":{"android":"levelo://app?vid=2fab5967-cac8-409e-8b54-d2651c887a9b","ios":"levelo://app?vid=2fab5967-cac8-409e-8b54-d2651c887a9b"},"vehicle_type_id":"4","last_reported":1731359291,"current_range_meters":11600,"station_id":"ce4bgnh2rcd13ifvqc0g","pricing_plan_id":"cebpf4jnsgd1na2vs0mg"},{"bike_id":"213ebe40-36f1-4662-b159-1ff1ce218bf9","system_id":"levelo_inurba_marseille","lat":43.31715,"lon":5.37762,"is_reserved":false,"is_disabled":false,"rental_uris":{"android":"levelo://app?vid=213ebe40-36f1-4662-b159-1ff1ce218bf9","ios":"levelo://app?vid=213ebe40-36f1-4662-b159-1ff1ce218bf9"},"vehicle_type_id":"4","last_reported":1731359291,"current_range_meters":37600,"station_id":"ce4bgth2rcd13ifvqch0","pricing_plan_id":"cebpf4jnsgd1na2vs0mg"},{"bike_id":"d9a23c15-de1b-409c-a1bb-c645bf0c824f","system_id":"levelo_inurba_marseille","lat":43.286752,"lon":5.363488,"is_reserved":false,"is_disabled":false,"rental_uris":{"android":"levelo://app?vid=d9a23c15-de1b-409c-a1bb-c645bf0c824f","ios":"levelo://app?vid=d9a23c15-de1b-409c-a1bb-c645bf0c824f"},"vehicle_type_id":"4","last_reported":1731359291,"current_range_meters":16000,"station_id":"ce4bhah2rcd13ifvqej0","pricing_plan_id":"cebpf4jnsgd1na2vs0mg"},{"bike_id":"fa0311f8-b23f-406e-a708-49eae5db2178","system_id":"levelo_inurba_marseille","lat":43.25866,"lon":5.39901,"is_reserved":false,"is_disabled":false,"rental_uris":{"android":"levelo://app?vid=fa0311f8-b23f-406e-a708-49eae5db2178","ios":"levelo://app?vid=fa0311f8-b23f-406e-a708-49eae5db2178"},"vehicle_type_id":"4","last_reported":1731359291,"current_range_meters":37600,"station_id":"ce4bhl92rcd13ifvqghg","pricing_plan_id":"cebpf4jnsgd1na2vs0mg"},{"bike_id":"2c618252-f267-43b8-9747-e18844ccad2f","system_id":"levelo_inurba_marseille","lat":43.24996,"lon":5.38928,"is_reserved":false,"is_disabled":false,"rental_uris":{"android":"levelo://app?vid=2c618252-f267-43b8-9747-e18844ccad2f","ios":"levelo://app?vid=2c618252-f267-43b8-9747-e18844ccad2f"},"vehicle_type_id":"4","last_reported":1731359291,"current_range_meters":6800,"station_id":"ce4bhgp2rcd13ifvqfd0","pricing_plan_id":"cebpf4jnsgd1na2vs0mg"},{"bike_id":"0dea3daa-f01b-4527-888d-2b6232c8f80b","system_id":"levelo_inurba_marseille","lat":43.30086,"lon":5.39091,"is_reserved":false,"is_disabled":false,"rental_uris":{"android":"levelo://app?vid=0dea3daa-f01b-4527-888d-2b6232c8f80b","ios":"levelo://app?vid=0dea3daa-f01b-4527-888d-2b6232c8f80b"},"vehicle_type_id":"4","last_reported":1731359291,"current_range_meters":38800,"station_id":"ce4bh192rcd13ifvqdb0","pricing_plan_id":"cebpf4jnsgd1na2vs0mg"},{"bike_id":"46e00f9b-6591-48d5-b1d3-dbeb150c13ea","system_id":"levelo_inurba_marseille","lat":43.27835,"lon":5.39206,"is_reserved":false,"is_disabled":false,"rental_uris":{"android":"levelo://app?vid=46e00f9b-6591-48d5-b1d3-dbeb150c13ea","ios":"levelo://app?vid=46e00f9b-6591-48d5-b1d3-dbeb150c13ea"},"vehicle_type_id":"4","last_reported":1731359291,"current_range_meters":17200,"station_id":"ce4bhjp2rcd13ifvqga0","pricing_plan_id":"cebpf4jnsgd1na2vs0mg"},{"bike_id":"047fda03-fe7d-4b79-a357-2b6fc387f4c3","system_id":"levelo_inurba_marseille","lat":43.31328,"lon":5.39694,"is_reserved":false,"is_disabled":false,"rental_uris":{"android":"levelo://app?vid=047fda03-fe7d-4b79-a357-2b6fc387f4c3","ios":"levelo://app?vid=047fda03-fe7d-4b79-a357-2b6fc387f4c3"},"vehicle_type_id":"4","last_reported":1731359291,"current_range_meters":37600,"station_id":"ce4bgvp2rcd13ifvqcu0","pricing_plan_id":"cebpf4jnsgd1na2vs0mg"},{"bike_id":"c976cdde-0993-47a0-9228-5a2ed120aff4","system_id":"levelo_inurba_marseille","lat":43.27554,"lon":5.38432,"is_reserved":false,"is_disabled":false,"rental_uris":{"android":"levelo://app?vid=c976cdde-0993-47a0-9228-5a2ed120aff4","ios":"levelo://app?vid=c976cdde-0993-47a0-9228-5a2ed120aff4"},"vehicle_type_id":"4","last_reported":1731359291,"current_range_meters":9200,"station_id":"ce4bhh92rcd13ifvqfi0","pricing_plan_id":"cebpf4jnsgd1na2vs0mg"},{"bike_id":"2972f759-c98e-4fe7-9758-85d215895273","system_id":"levelo_inurba_marseille","lat":43.23962,"lon":5.36616,"is_reserved":false,"is_disabled":false,"rental_uris":{"android":"levelo://app?vid=2972f759-c98e-4fe7-9758-85d215895273","ios":"levelo://app?vid=2972f759-c98e-4fe7-9758-85d215895273"},"vehicle_type_id":"4","last_reported":1731359291,"current_range_meters":28800,"station_id":"ce4bhi12rcd13ifvqfp0","pricing_plan_id":"cebpf4jnsgd1na2vs0mg"},{"bike_id":"d0ef08cf-1a61-4d5a-9612-ccfee90a1e32","system_id":"levelo_inurba_marseille","lat":43.24812,"lon":5.37455,"is_reserved":false,"is_disabled":false,"rental_uris":{"android":"levelo://app?vid=d0ef08cf-1a61-4d5a-9612-ccfee90a1e32","ios":"levelo://app?vid=d0ef08cf-1a61-4d5a-9612-ccfee90a1e32"},"vehicle_type_id":"4","last_reported":1731359291,"current_range_meters":38800,"station_id":"ce4bhgh2rcd13ifvqfb0","pricing_plan_id":"cebpf4jnsgd1na2vs0mg"},{"bike_id":"4e51ffaf-349f-47c5-9cb4-eb6ae2f1c2b5","system_id":"levelo_inurba_marseille","lat":43.30419,"lon":5.41278,"is_reserved":false,"is_disabled":false,"rental_uris":{"android":"levelo://app?vid=4e51ffaf-349f-47c5-9cb4-eb6ae2f1c2b5","ios":"levelo://app?vid=4e51ffaf-349f-47c5-9cb4-eb6ae2f1c2b5"},"vehicle_type_id":"4","last_reported":1731359291,"current_range_meters":30000,"station_id":"ce4bhop2rcd13ifvqh8g","pricing_plan_id":"cebpf4jnsgd1na2vs0mg"},{"bike_id":"256bc4d1-8676-4063-967d-346e76627e85","system_id":"levelo_inurba_marseille","lat":43.30432,"lon":5.38886,"is_reserved":false,"is_disabled":false,"rental_uris":{"android":"levelo://app?vid=256bc4d1-8676-4063-967d-346e76627e85","ios":"levelo://app?vid=256bc4d1-8676-4063-967d-346e76627e85"},"vehicle_type_id":"4","last_reported":1731359291,"current_range_meters":38000,"station_id":"ce4bgk12rcd13ifvqbi0","pricing_plan_id":"cebpf4jnsgd1na2vs0mg"},{"bike_id":"718e2470-3b0b-4748-985e-dfeeef0c4b3b","system_id":"levelo_inurba_marseille","lat":43.29267,"lon":5.40907,"is_reserved":false,"is_disabled":false,"rental_uris":{"android":"levelo://app?vid=718e2470-3b0b-4748-985e-dfeeef0c4b3b","ios":"levelo://app?vid=718e2470-3b0b-4748-985e-dfeeef0c4b3b"},"vehicle_type_id":"4","last_reported":1731359291,"current_range_meters":36800,"station_id":"ce4bh192rcd13ifvqdc0","pricing_plan_id":"cebpf4jnsgd1na2vs0mg"},{"bike_id":"3028cdff-ede0-4f42-bdc9-11c7c92f380c","system_id":"levelo_inurba_marseille","lat":43.30422,"lon":5.39747,"is_reserved":false,"is_disabled":false,"rental_uris":{"android":"levelo://app?vid=3028cdff-ede0-4f42-bdc9-11c7c92f380c","ios":"levelo://app?vid=3028cdff-ede0-4f42-bdc9-11c7c92f380c"},"vehicle_type_id":"4","last_reported":1731359291,"current_range_meters":38800,"station_id":"ce4bh092rcd13ifvqd20","pricing_plan_id":"cebpf4jnsgd1na2vs0mg"},{"bike_id":"b819a652-8368-4390-b80a-73f224bb04bf","system_id":"levelo_inurba_marseille","lat":43.231805,"lon":5.399876,"is_reserved":false,"is_disabled":false,"rental_uris":{"android":"levelo://app?vid=b819a652-8368-4390-b80a-73f224bb04bf","ios":"levelo://app?vid=b819a652-8368-4390-b80a-73f224bb04bf"},"vehicle_type_id":"4","last_reported":1731359291,"current_range_meters":38800,"station_id":"ce4bhn12rcd13ifvqgqg","pricing_plan_id":"cebpf4jnsgd1na2vs0mg"},{"bike_id":"afe43192-619a-4bb2-9426-54501142473d","system_id":"levelo_inurba_marseille","lat":43.25495,"lon":5.3765,"is_reserved":false,"is_disabled":false,"rental_uris":{"android":"levelo://app?vid=afe43192-619a-4bb2-9426-54501142473d","ios":"levelo://app?vid=afe43192-619a-4bb2-9426-54501142473d"},"vehicle_type_id":"4","last_reported":1731359291,"current_range_meters":7200,"station_id":"ce4bhh12rcd13ifvqff0","pricing_plan_id":"cebpf4jnsgd1na2vs0mg"},{"bike_id":"b19792be-9349-4323-b1e1-e97ecf4fb20d","system_id":"levelo_inurba_marseille","lat":43.24809,"lon":5.37455,"is_reserved":false,"is_disabled":false,"rental_uris":{"android":"levelo://app?vid=b19792be-9349-4323-b1e1-e97ecf4fb20d","ios":"levelo://app?vid=b19792be-9349-4323-b1e1-e97ecf4fb20d"},"vehicle_type_id":"4","last_reported":1731359291,"current_range_meters":18800,"station_id":"ce4bhgh2rcd13ifvqfb0","pricing_plan_id":"cebpf4jnsgd1na2vs0mg"},{"bike_id":"217c09ee-a72f-4a5a-92c6-16d11b486dc5","system_id":"levelo_inurba_marseille","lat":43.286156,"lon":5.383959,"is_reserved":false,"is_disabled":false,"rental_uris":{"android":"levelo://app?vid=217c09ee-a72f-4a5a-92c6-16d11b486dc5","ios":"levelo://app?vid=217c09ee-a72f-4a5a-92c6-16d11b486dc5"},"vehicle_type_id":"4","last_reported":1731359291,"current_range_meters":6400,"station_id":"ce4bh512rcd13ifvqe3g","pricing_plan_id":"cebpf4jnsgd1na2vs0mg"},{"bike_id":"91502544-7373-49df-9bfd-277b26bd7761","system_id":"levelo_inurba_marseille","lat":43.32653,"lon":5.40993,"is_reserved":false,"is_disabled":false,"rental_uris":{"android":"levelo://app?vid=91502544-7373-49df-9bfd-277b26bd7761","ios":"levelo://app?vid=91502544-7373-49df-9bfd-277b26bd7761"},"vehicle_type_id":"4","last_reported":1731359291,"current_range_meters":31200,"station_id":"ce4bhpp2rcd13ifvqhgg","pricing_plan_id":"cebpf4jnsgd1na2vs0mg"},{"bike_id":"f034f203-03ea-4fdf-93aa-a3635747d7f6","system_id":"levelo_inurba_marseille","lat":43.27613,"lon":5.36109,"is_reserved":false,"is_disabled":false,"rental_uris":{"android":"levelo://app?vid=f034f203-03ea-4fdf-93aa-a3635747d7f6","ios":"levelo://app?vid=f034f203-03ea-4fdf-93aa-a3635747d7f6"},"vehicle_type_id":"4","last_reported":1731359291,"current_range_meters":28800,"station_id":"ce4bgj92rcd13ifvqbe0","pricing_plan_id":"cebpf4jnsgd1na2vs0mg"},{"bike_id":"3260cc4a-31ee-4f29-b1d9-1f2c1c8e2cb4","system_id":"levelo_inurba_marseille","lat":43.25723,"lon":5.41109,"is_reserved":false,"is_disabled":false,"rental_uris":{"android":"levelo://app?vid=3260cc4a-31ee-4f29-b1d9-1f2c1c8e2cb4","ios":"levelo://app?vid=3260cc4a-31ee-4f29-b1d9-1f2c1c8e2cb4"},"vehicle_type_id":"4","last_reported":1731359291,"current_range_meters":19200,"station_id":"ce4bhkp2rcd13ifvqgd0","pricing_plan_id":"cebpf4jnsgd1na2vs0mg"},{"bike_id":"5e89b81c-af78-4f0c-bae2-404e84babb72","system_id":"levelo_inurba_marseille","lat":43.27828,"lon":5.39204,"is_reserved":false,"is_disabled":false,"rental_uris":{"android":"levelo://app?vid=5e89b81c-af78-4f0c-bae2-404e84babb72","ios":"levelo://app?vid=5e89b81c-af78-4f0c-bae2-404e84babb72"},"vehicle_type_id":"4","last_reported":1731359291,"current_range_meters":16000,"station_id":"ce4bhjp2rcd13ifvqga0","pricing_plan_id":"cebpf4jnsgd1na2vs0mg"},{"bike_id":"31f7560b-0f52-4d6b-ac39-46cf0a6c1468","system_id":"levelo_inurba_marseille","lat":43.24389,"lon":5.37053,"is_reserved":false,"is_disabled":false,"rental_uris":{"android":"levelo://app?vid=31f7560b-0f52-4d6b-ac39-46cf0a6c1468","ios":"levelo://app?vid=31f7560b-0f52-4d6b-ac39-46cf0a6c1468"},"vehicle_type_id":"4","last_reported":1731359291,"current_range_meters":38800,"station_id":"ce4bhhh2rcd13ifvqfk0","pricing_plan_id":"cebpf4jnsgd1na2vs0mg"},{"bike_id":"d0ad757c-5f11-44b7-8cd0-45149c2d314a","system_id":"levelo_inurba_marseille","lat":43.31273,"lon":5.40173,"is_reserved":false,"is_disabled":false,"rental_uris":{"android":"levelo://app?vid=d0ad757c-5f11-44b7-8cd0-45149c2d314a","ios":"levelo://app?vid=d0ad757c-5f11-44b7-8cd0-45149c2d314a"},"vehicle_type_id":"4","last_reported":1731359291,"current_range_meters":38800,"station_id":"ce4bh092rcd13ifvqd30","pricing_plan_id":"cebpf4jnsgd1na2vs0mg"},{"bike_id":"c9fa5281-4222-4ac9-beb0-46ec80e63e7c","system_id":"levelo_inurba_marseille","lat":43.280803,"lon":5.396635,"is_reserved":false,"is_disabled":false,"rental_uris":{"android":"levelo://app?vid=c9fa5281-4222-4ac9-beb0-46ec80e63e7c","ios":"levelo://app?vid=c9fa5281-4222-4ac9-beb0-46ec80e63e7c"},"vehicle_type_id":"4","last_reported":1731359291,"current_range_meters":24800,"station_id":"ce4bho12rcd13ifvqh2g","pricing_plan_id":"cebpf4jnsgd1na2vs0mg"},{"bike_id":"31c9d53e-c4bf-4224-a043-b8d28978b086","system_id":"levelo_inurba_marseille","lat":43.29063,"lon":5.37156,"is_reserved":false,"is_disabled":false,"rental_uris":{"android":"levelo://app?vid=31c9d53e-c4bf-4224-a043-b8d28978b086","ios":"levelo://app?vid=31c9d53e-c4bf-4224-a043-b8d28978b086"},"vehicle_type_id":"4","last_reported":1731359291,"current_range_meters":38800,"station_id":"ce4bh5p2rcd13ifvqe4g","pricing_plan_id":"cebpf4jnsgd1na2vs0mg"},{"bike_id":"9c4f8c3d-4199-41d5-ae4c-2187a1769153","system_id":"levelo_inurba_marseille","lat":43.33026,"lon":5.39037,"is_reserved":false,"is_disabled":false,"rental_uris":{"android":"levelo://app?vid=9c4f8c3d-4199-41d5-ae4c-2187a1769153","ios":"levelo://app?vid=9c4f8c3d-4199-41d5-ae4c-2187a1769153"},"vehicle_type_id":"4","last_reported":1731359291,"current_range_meters":33600,"station_id":"ce4bhr92rcd13ifvqhrg","pricing_plan_id":"cebpf4jnsgd1na2vs0mg"},{"bike_id":"5f2a5ad1-8150-4f72-88a7-4119bf2c2a52","system_id":"levelo_inurba_marseille","lat":43.28432,"lon":5.39182,"is_reserved":false,"is_disabled":false,"rental_uris":{"android":"levelo://app?vid=5f2a5ad1-8150-4f72-88a7-4119bf2c2a52","ios":"levelo://app?vid=5f2a5ad1-8150-4f72-88a7-4119bf2c2a52"},"vehicle_type_id":"4","last_reported":1731359291,"current_range_meters":35600,"station_id":"ce4bhoh2rcd13ifvqh5g","pricing_plan_id":"cebpf4jnsgd1na2vs0mg"},{"bike_id":"459650ff-0f84-45dc-b9d3-2cd29e4a2939","system_id":"levelo_inurba_marseille","lat":43.29619,"lon":5.37158,"is_reserved":false,"is_disabled":false,"rental_uris":{"android":"levelo://app?vid=459650ff-0f84-45dc-b9d3-2cd29e4a2939","ios":"levelo://app?vid=459650ff-0f84-45dc-b9d3-2cd29e4a2939"},"vehicle_type_id":"4","last_reported":1731359291,"current_range_meters":36400,"station_id":"ce4bgnh2rcd13ifvqc0g","pricing_plan_id":"cebpf4jnsgd1na2vs0mg"},{"bike_id":"f5f7adb1-08a0-41e5-84f8-4eacbb87fa6f","system_id":"levelo_inurba_marseille","lat":43.2396,"lon":5.36627,"is_reserved":false,"is_disabled":false,"rental_uris":{"android":"levelo://app?vid=f5f7adb1-08a0-41e5-84f8-4eacbb87fa6f","ios":"levelo://app?vid=f5f7adb1-08a0-41e5-84f8-4eacbb87fa6f"},"vehicle_type_id":"4","last_reported":1731359291,"current_range_meters":37600,"station_id":"ce4bhi12rcd13ifvqfp0","pricing_plan_id":"cebpf4jnsgd1na2vs0mg"},{"bike_id":"cd3763b4-c6c9-439a-8c88-6b6d78464d6e","system_id":"levelo_inurba_marseille","lat":43.337444,"lon":5.374475,"is_reserved":false,"is_disabled":false,"rental_uris":{"android":"levelo://app?vid=cd3763b4-c6c9-439a-8c88-6b6d78464d6e","ios":"levelo://app?vid=cd3763b4-c6c9-439a-8c88-6b6d78464d6e"},"vehicle_type_id":"4","last_reported":1731359291,"current_range_meters":35200,"station_id":"","pricing_plan_id":"cebpf4jnsgd1na2vs0mg"},{"bike_id":"a64e486f-ab51-45e7-ae26-9bf3a4451217","system_id":"levelo_inurba_marseille","lat":43.31993,"lon":5.38139,"is_reserved":false,"is_disabled":false,"rental_uris":{"android":"levelo://app?vid=a64e486f-ab51-45e7-ae26-9bf3a4451217","ios":"levelo://app?vid=a64e486f-ab51-45e7-ae26-9bf3a4451217"},"vehicle_type_id":"4","last_reported":1731359291,"current_range_meters":39200,"station_id":"ce4bhr12rcd13ifvqhpg","pricing_plan_id":"cebpf4jnsgd1na2vs0mg"},{"bike_id":"11c33a60-01b1-4e8a-9587-abe58135fcca","system_id":"levelo_inurba_marseille","lat":43.2952,"lon":5.39403,"is_reserved":false,"is_disabled":false,"rental_uris":{"android":"levelo://app?vid=11c33a60-01b1-4e8a-9587-abe58135fcca","ios":"levelo://app?vid=11c33a60-01b1-4e8a-9587-abe58135fcca"},"vehicle_type_id":"4","last_reported":1731359291,"current_range_meters":4800,"station_id":"ce4bh292rcd13ifvqdf0","pricing_plan_id":"cebpf4jnsgd1na2vs0mg"},{"bike_id":"fa012431-6b51-4c1a-9703-6517b7a85415","system_id":"levelo_inurba_marseille","lat":43.31151,"lon":5.38285,"is_reserved":false,"is_disabled":false,"rental_uris":{"android":"levelo://app?vid=fa012431-6b51-4c1a-9703-6517b7a85415","ios":"levelo://app?vid=fa012431-6b51-4c1a-9703-6517b7a85415"},"vehicle_type_id":"4","last_reported":1731359291,"current_range_meters":8800,"station_id":"ce4bh2h2rcd13ifvqdh0","pricing_plan_id":"cebpf4jnsgd1na2vs0mg"},{"bike_id":"011e63d3-05b7-45e9-9aaa-fdfc6f62c27e","system_id":"levelo_inurba_marseille","lat":43.28723,"lon":5.37917,"is_reserved":false,"is_disabled":false,"rental_uris":{"android":"levelo://app?vid=011e63d3-05b7-45e9-9aaa-fdfc6f62c27e","ios":"levelo://app?vid=011e63d3-05b7-45e9-9aaa-fdfc6f62c27e"},"vehicle_type_id":"4","last_reported":1731359291,"current_range_meters":38000,"station_id":"ce4bh9p2rcd13ifvqec0","pricing_plan_id":"cebpf4jnsgd1na2vs0mg"},{"bike_id":"013eef84-722d-41db-b134-d56b32da95cf","system_id":"levelo_inurba_marseille","lat":43.29681,"lon":5.372893,"is_reserved":false,"is_disabled":false,"rental_uris":{"android":"levelo://app?vid=013eef84-722d-41db-b134-d56b32da95cf","ios":"levelo://app?vid=013eef84-722d-41db-b134-d56b32da95cf"},"vehicle_type_id":"4","last_reported":1731359291,"current_range_meters":38000,"station_id":"ce4bgk12rcd13ifvqbj0","pricing_plan_id":"cebpf4jnsgd1na2vs0mg"},{"bike_id":"b6e7a88b-4aa5-49c1-8146-a5de890828cf","system_id":"levelo_inurba_marseille","lat":43.29283,"lon":5.40119,"is_reserved":false,"is_disabled":false,"rental_uris":{"android":"levelo://app?vid=b6e7a88b-4aa5-49c1-8146-a5de890828cf","ios":"levelo://app?vid=b6e7a88b-4aa5-49c1-8146-a5de890828cf"},"vehicle_type_id":"4","last_reported":1731359291,"current_range_meters":16400,"station_id":"ce4bh312rcd13ifvqdk0","pricing_plan_id":"cebpf4jnsgd1na2vs0mg"},{"bike_id":"00df0da5-e326-4e92-bd9c-a0b3df25d56d","system_id":"levelo_inurba_marseille","lat":43.28412,"lon":5.37518,"is_reserved":false,"is_disabled":false,"rental_uris":{"android":"levelo://app?vid=00df0da5-e326-4e92-bd9c-a0b3df25d56d","ios":"levelo://app?vid=00df0da5-e326-4e92-bd9c-a0b3df25d56d"},"vehicle_type_id":"4","last_reported":1731359291,"current_range_meters":8800,"station_id":"ce4bh412rcd13ifvqds0","pricing_plan_id":"cebpf4jnsgd1na2vs0mg"},{"bike_id":"de8f8a52-83a3-48e0-ab76-d5a5ed7cfd7b","system_id":"levelo_inurba_marseille","lat":43.29024,"lon":5.37555,"is_reserved":false,"is_disabled":false,"rental_uris":{"android":"levelo://app?vid=de8f8a52-83a3-48e0-ab76-d5a5ed7cfd7b","ios":"levelo://app?vid=de8f8a52-83a3-48e0-ab76-d5a5ed7cfd7b"},"vehicle_type_id":"4","last_reported":1731359291,"current_range_meters":38000,"station_id":"ce4bh692rcd13ifvqe90","pricing_plan_id":"cebpf4jnsgd1na2vs0mg"},{"bike_id":"5cb927ae-e909-4b9a-939d-fea7f439d8e8","system_id":"levelo_inurba_marseille","lat":43.31074,"lon":5.38361,"is_reserved":false,"is_disabled":false,"rental_uris":{"android":"levelo://app?vid=5cb927ae-e909-4b9a-939d-fea7f439d8e8","ios":"levelo://app?vid=5cb927ae-e909-4b9a-939d-fea7f439d8e8"},"vehicle_type_id":"4","last_reported":1731359291,"current_range_meters":12000,"station_id":"ce4bgv92rcd13ifvqcr0","pricing_plan_id":"cebpf4jnsgd1na2vs0mg"},{"bike_id":"8b9e4e50-0d25-44d1-a11c-181613e63edd","system_id":"levelo_inurba_marseille","lat":43.28661,"lon":5.36349,"is_reserved":false,"is_disabled":false,"rental_uris":{"android":"levelo://app?vid=8b9e4e50-0d25-44d1-a11c-181613e63edd","ios":"levelo://app?vid=8b9e4e50-0d25-44d1-a11c-181613e63edd"},"vehicle_type_id":"4","last_reported":1731359291,"current_range_meters":36400,"station_id":"ce4bhah2rcd13ifvqej0","pricing_plan_id":"cebpf4jnsgd1na2vs0mg"},{"bike_id":"da582da9-2b00-47c0-a184-639f15460a80","system_id":"levelo_inurba_marseille","lat":43.29021,"lon":5.38632,"is_reserved":false,"is_disabled":false,"rental_uris":{"android":"levelo://app?vid=da582da9-2b00-47c0-a184-639f15460a80","ios":"levelo://app?vid=da582da9-2b00-47c0-a184-639f15460a80"},"vehicle_type_id":"4","last_reported":1731359291,"current_range_meters":38800,"station_id":"ce4bh4p2rcd13ifvqe0g","pricing_plan_id":"cebpf4jnsgd1na2vs0mg"},{"bike_id":"37010a4f-ba42-44a3-8f03-5e4ffb819f09","system_id":"levelo_inurba_marseille","lat":43.31167,"lon":5.38715,"is_reserved":false,"is_disabled":false,"rental_uris":{"android":"levelo://app?vid=37010a4f-ba42-44a3-8f03-5e4ffb819f09","ios":"levelo://app?vid=37010a4f-ba42-44a3-8f03-5e4ffb819f09"},"vehicle_type_id":"4","last_reported":1731359291,"current_range_meters":24400,"station_id":"ce4bgv12rcd13ifvqcp0","pricing_plan_id":"cebpf4jnsgd1na2vs0mg"},{"bike_id":"fc6fb18f-655f-44c3-9d33-3f6e0d2e6373","system_id":"levelo_inurba_marseille","lat":43.30132,"lon":5.39868,"is_reserved":false,"is_disabled":false,"rental_uris":{"android":"levelo://app?vid=fc6fb18f-655f-44c3-9d33-3f6e0d2e6373","ios":"levelo://app?vid=fc6fb18f-655f-44c3-9d33-3f6e0d2e6373"},"vehicle_type_id":"4","last_reported":1731359291,"current_range_meters":30800,"station_id":"ce4bh0h2rcd13ifvqd40","pricing_plan_id":"cebpf4jnsgd1na2vs0mg"},{"bike_id":"5847243e-3d84-47dc-98d1-c8e94c4067b9","system_id":"levelo_inurba_marseille","lat":43.27552,"lon":5.38431,"is_reserved":false,"is_disabled":false,"rental_uris":{"android":"levelo://app?vid=5847243e-3d84-47dc-98d1-c8e94c4067b9","ios":"levelo://app?vid=5847243e-3d84-47dc-98d1-c8e94c4067b9"},"vehicle_type_id":"4","last_reported":1731359291,"current_range_meters":38800,"station_id":"ce4bhh92rcd13ifvqfi0","pricing_plan_id":"cebpf4jnsgd1na2vs0mg"},{"bike_id":"af62cb96-31bf-4aa7-a77b-c4339b37eb28","system_id":"levelo_inurba_marseille","lat":43.29971,"lon":5.3717,"is_reserved":false,"is_disabled":false,"rental_uris":{"android":"levelo://app?vid=af62cb96-31bf-4aa7-a77b-c4339b37eb28","ios":"levelo://app?vid=af62cb96-31bf-4aa7-a77b-c4339b37eb28"},"vehicle_type_id":"4","last_reported":1731359291,"current_range_meters":29600,"station_id":"ce4bgr92rcd13ifvqc7g","pricing_plan_id":"cebpf4jnsgd1na2vs0mg"},{"bike_id":"22a2914a-6d99-4b9f-a055-86e657c3c38f","system_id":"levelo_inurba_marseille","lat":43.31999,"lon":5.38158,"is_reserved":false,"is_disabled":false,"rental_uris":{"android":"levelo://app?vid=22a2914a-6d99-4b9f-a055-86e657c3c38f","ios":"levelo://app?vid=22a2914a-6d99-4b9f-a055-86e657c3c38f"},"vehicle_type_id":"4","last_reported":1731359291,"current_range_meters":7200,"station_id":"ce4bhr12rcd13ifvqhpg","pricing_plan_id":"cebpf4jnsgd1na2vs0mg"},{"bike_id":"1d75d4ce-da07-47a0-83ad-027ef32b7b53","system_id":"levelo_inurba_marseille","lat":43.274113,"lon":5.389483,"is_reserved":false,"is_disabled":false,"rental_uris":{"android":"levelo://app?vid=1d75d4ce-da07-47a0-83ad-027ef32b7b53","ios":"levelo://app?vid=1d75d4ce-da07-47a0-83ad-027ef32b7b53"},"vehicle_type_id":"4","last_reported":1731359291,"current_range_meters":20000,"station_id":"","pricing_plan_id":"cebpf4jnsgd1na2vs0mg"},{"bike_id":"94da1138-977c-4b77-87c1-3bd96a6839cd","system_id":"levelo_inurba_marseille","lat":43.28702,"lon":5.3998,"is_reserved":false,"is_disabled":false,"rental_uris":{"android":"levelo://app?vid=94da1138-977c-4b77-87c1-3bd96a6839cd","ios":"levelo://app?vid=94da1138-977c-4b77-87c1-3bd96a6839cd"},"vehicle_type_id":"4","last_reported":1731359291,"current_range_meters":7200,"station_id":"ce4bho92rcd13ifvqh3g","pricing_plan_id":"cebpf4jnsgd1na2vs0mg"},{"bike_id":"59c35e8b-3fa6-4e43-bbd3-8ded488b910a","system_id":"levelo_inurba_marseille","lat":43.30941,"lon":5.40143,"is_reserved":false,"is_disabled":false,"rental_uris":{"android":"levelo://app?vid=59c35e8b-3fa6-4e43-bbd3-8ded488b910a","ios":"levelo://app?vid=59c35e8b-3fa6-4e43-bbd3-8ded488b910a"},"vehicle_type_id":"4","last_reported":1731359291,"current_range_meters":32000,"station_id":"ce4bgvp2rcd13ifvqct0","pricing_plan_id":"cebpf4jnsgd1na2vs0mg"},{"bike_id":"d881a04b-7487-46c8-bcc3-e9689650446f","system_id":"levelo_inurba_marseille","lat":43.26191,"lon":5.37453,"is_reserved":false,"is_disabled":false,"rental_uris":{"android":"levelo://app?vid=d881a04b-7487-46c8-bcc3-e9689650446f","ios":"levelo://app?vid=d881a04b-7487-46c8-bcc3-e9689650446f"},"vehicle_type_id":"4","last_reported":1731359291,"current_range_meters":38800,"station_id":"ce4bhgp2rcd13ifvqfc0","pricing_plan_id":"cebpf4jnsgd1na2vs0mg"},{"bike_id":"7bd36465-6743-49b8-93fa-951fe093fafe","system_id":"levelo_inurba_marseille","lat":43.29255,"lon":5.38441,"is_reserved":false,"is_disabled":false,"rental_uris":{"android":"levelo://app?vid=7bd36465-6743-49b8-93fa-951fe093fafe","ios":"levelo://app?vid=7bd36465-6743-49b8-93fa-951fe093fafe"},"vehicle_type_id":"4","last_reported":1731359291,"current_range_meters":36000,"station_id":"ce4bh692rcd13ifvqea0","pricing_plan_id":"cebpf4jnsgd1na2vs0mg"},{"bike_id":"4be7edbe-5982-45b2-a3b1-2e4ca0a06526","system_id":"levelo_inurba_marseille","lat":43.24072,"lon":5.37763,"is_reserved":false,"is_disabled":false,"rental_uris":{"android":"levelo://app?vid=4be7edbe-5982-45b2-a3b1-2e4ca0a06526","ios":"levelo://app?vid=4be7edbe-5982-45b2-a3b1-2e4ca0a06526"},"vehicle_type_id":"4","last_reported":1731359291,"current_range_meters":38400,"station_id":"ce4bhnp2rcd13ifvqgvg","pricing_plan_id":"cebpf4jnsgd1na2vs0mg"},{"bike_id":"58619a3d-722c-4d96-a931-d2f898b47aef","system_id":"levelo_inurba_marseille","lat":43.28658,"lon":5.38664,"is_reserved":false,"is_disabled":false,"rental_uris":{"android":"levelo://app?vid=58619a3d-722c-4d96-a931-d2f898b47aef","ios":"levelo://app?vid=58619a3d-722c-4d96-a931-d2f898b47aef"},"vehicle_type_id":"4","last_reported":1731359291,"current_range_meters":33600,"station_id":"ce4bh492rcd13ifvqdug","pricing_plan_id":"cebpf4jnsgd1na2vs0mg"},{"bike_id":"2c44972f-8dd9-4d13-991a-ded606a812ff","system_id":"levelo_inurba_marseille","lat":43.28603,"lon":5.37066,"is_reserved":false,"is_disabled":false,"rental_uris":{"android":"levelo://app?vid=2c44972f-8dd9-4d13-991a-ded606a812ff","ios":"levelo://app?vid=2c44972f-8dd9-4d13-991a-ded606a812ff"},"vehicle_type_id":"4","last_reported":1731359291,"current_range_meters":4000,"station_id":"ce4bht12rcd13ifvqi60","pricing_plan_id":"cebpf4jnsgd1na2vs0mg"},{"bike_id":"ca0e2a16-32dc-46e0-aefd-c26276db1088","system_id":"levelo_inurba_marseille","lat":43.24647,"lon":5.38891,"is_reserved":false,"is_disabled":false,"rental_uris":{"android":"levelo://app?vid=ca0e2a16-32dc-46e0-aefd-c26276db1088","ios":"levelo://app?vid=ca0e2a16-32dc-46e0-aefd-c26276db1088"},"vehicle_type_id":"4","last_reported":1731359291,"current_range_meters":30000,"station_id":"ce4bhg12rcd13ifvqf60","pricing_plan_id":"cebpf4jnsgd1na2vs0mg"},{"bike_id":"bc2354e1-2a50-4b5c-93e6-2616e25c5e1b","system_id":"levelo_inurba_marseille","lat":43.24805,"lon":5.37453,"is_reserved":false,"is_disabled":false,"rental_uris":{"android":"levelo://app?vid=bc2354e1-2a50-4b5c-93e6-2616e25c5e1b","ios":"levelo://app?vid=bc2354e1-2a50-4b5c-93e6-2616e25c5e1b"},"vehicle_type_id":"4","last_reported":1731359291,"current_range_meters":38800,"station_id":"ce4bhgh2rcd13ifvqfb0","pricing_plan_id":"cebpf4jnsgd1na2vs0mg"},{"bike_id":"d5e6a2f8-7fd7-4cd3-be5b-3fd74cb9dc2f","system_id":"levelo_inurba_marseille","lat":43.28106,"lon":5.37851,"is_reserved":false,"is_disabled":false,"rental_uris":{"android":"levelo://app?vid=d5e6a2f8-7fd7-4cd3-be5b-3fd74cb9dc2f","ios":"levelo://app?vid=d5e6a2f8-7fd7-4cd3-be5b-3fd74cb9dc2f"},"vehicle_type_id":"4","last_reported":1731359291,"current_range_meters":38800,"station_id":"ce4bha12rcd13ifvqee0","pricing_plan_id":"cebpf4jnsgd1na2vs0mg"},{"bike_id":"28ad4f00-1184-4f40-a4f0-20a53a31b967","system_id":"levelo_inurba_marseille","lat":43.26807,"lon":5.40266,"is_reserved":false,"is_disabled":false,"rental_uris":{"android":"levelo://app?vid=28ad4f00-1184-4f40-a4f0-20a53a31b967","ios":"levelo://app?vid=28ad4f00-1184-4f40-a4f0-20a53a31b967"},"vehicle_type_id":"4","last_reported":1731359291,"current_range_meters":22800,"station_id":"ce501612rcd8frsf0b60","pricing_plan_id":"cebpf4jnsgd1na2vs0mg"},{"bike_id":"c4deb4cc-b275-4266-9b30-a0a2f4b844b9","system_id":"levelo_inurba_marseille","lat":43.31164,"lon":5.38716,"is_reserved":false,"is_disabled":false,"rental_uris":{"android":"levelo://app?vid=c4deb4cc-b275-4266-9b30-a0a2f4b844b9","ios":"levelo://app?vid=c4deb4cc-b275-4266-9b30-a0a2f4b844b9"},"vehicle_type_id":"4","last_reported":1731359291,"current_range_meters":39200,"station_id":"ce4bgv12rcd13ifvqcp0","pricing_plan_id":"cebpf4jnsgd1na2vs0mg"},{"bike_id":"ff1b3a69-eee0-41f1-ab61-17424914ea54","system_id":"levelo_inurba_marseille","lat":43.27989,"lon":5.41658,"is_reserved":false,"is_disabled":false,"rental_uris":{"android":"levelo://app?vid=ff1b3a69-eee0-41f1-ab61-17424914ea54","ios":"levelo://app?vid=ff1b3a69-eee0-41f1-ab61-17424914ea54"},"vehicle_type_id":"4","last_reported":1731359291,"current_range_meters":4800,"station_id":"ce4bho12rcd13ifvqh1g","pricing_plan_id":"cebpf4jnsgd1na2vs0mg"},{"bike_id":"784616cb-3dcc-4a17-ae25-f5786a0d223a","system_id":"levelo_inurba_marseille","lat":43.337444,"lon":5.374475,"is_reserved":false,"is_disabled":false,"rental_uris":{"android":"levelo://app?vid=784616cb-3dcc-4a17-ae25-f5786a0d223a","ios":"levelo://app?vid=784616cb-3dcc-4a17-ae25-f5786a0d223a"},"vehicle_type_id":"4","last_reported":1731359291,"current_range_meters":35600,"station_id":"","pricing_plan_id":"cebpf4jnsgd1na2vs0mg"},{"bike_id":"c9e1ccaf-93e0-42a0-8847-25269c17c325","system_id":"levelo_inurba_marseille","lat":43.24397,"lon":5.37068,"is_reserved":false,"is_disabled":false,"rental_uris":{"android":"levelo://app?vid=c9e1ccaf-93e0-42a0-8847-25269c17c325","ios":"levelo://app?vid=c9e1ccaf-93e0-42a0-8847-25269c17c325"},"vehicle_type_id":"4","last_reported":1731359291,"current_range_meters":38800,"station_id":"ce4bhhh2rcd13ifvqfk0","pricing_plan_id":"cebpf4jnsgd1na2vs0mg"},{"bike_id":"b88abedc-2a6b-4a10-8c5c-8d38df62925c","system_id":"levelo_inurba_marseille","lat":43.30293,"lon":5.39196,"is_reserved":false,"is_disabled":false,"rental_uris":{"android":"levelo://app?vid=b88abedc-2a6b-4a10-8c5c-8d38df62925c","ios":"levelo://app?vid=b88abedc-2a6b-4a10-8c5c-8d38df62925c"},"vehicle_type_id":"4","last_reported":1731359291,"current_range_meters":25200,"station_id":"ce4bgkh2rcd13ifvqbk0","pricing_plan_id":"cebpf4jnsgd1na2vs0mg"},{"bike_id":"a981cddb-35b3-4b69-a3bf-cfde7e96370a","system_id":"levelo_inurba_marseille","lat":43.23149,"lon":5.43721,"is_reserved":false,"is_disabled":false,"rental_uris":{"android":"levelo://app?vid=a981cddb-35b3-4b69-a3bf-cfde7e96370a","ios":"levelo://app?vid=a981cddb-35b3-4b69-a3bf-cfde7e96370a"},"vehicle_type_id":"4","last_reported":1731359291,"current_range_meters":4800,"station_id":"ce4bhmp2rcd13ifvqgog","pricing_plan_id":"cebpf4jnsgd1na2vs0mg"},{"bike_id":"38494b26-732c-4693-af81-a3cf4c4e1902","system_id":"levelo_inurba_marseille","lat":43.31368,"lon":5.37446,"is_reserved":false,"is_disabled":false,"rental_uris":{"android":"levelo://app?vid=38494b26-732c-4693-af81-a3cf4c4e1902","ios":"levelo://app?vid=38494b26-732c-4693-af81-a3cf4c4e1902"},"vehicle_type_id":"4","last_reported":1731359291,"current_range_meters":12000,"station_id":"","pricing_plan_id":"cebpf4jnsgd1na2vs0mg"},{"bike_id":"cc55d8b4-3357-4f11-b615-18149c84ad78","system_id":"levelo_inurba_marseille","lat":43.30419,"lon":5.39746,"is_reserved":false,"is_disabled":false,"rental_uris":{"android":"levelo://app?vid=cc55d8b4-3357-4f11-b615-18149c84ad78","ios":"levelo://app?vid=cc55d8b4-3357-4f11-b615-18149c84ad78"},"vehicle_type_id":"4","last_reported":1731359291,"current_range_meters":24800,"station_id":"ce4bh092rcd13ifvqd20","pricing_plan_id":"cebpf4jnsgd1na2vs0mg"},{"bike_id":"01fccc49-ac40-4cc9-90fc-950d9c6dd4ba","system_id":"levelo_inurba_marseille","lat":43.30191,"lon":5.397676,"is_reserved":false,"is_disabled":false,"rental_uris":{"android":"levelo://app?vid=01fccc49-ac40-4cc9-90fc-950d9c6dd4ba","ios":"levelo://app?vid=01fccc49-ac40-4cc9-90fc-950d9c6dd4ba"},"vehicle_type_id":"4","last_reported":1731359291,"current_range_meters":29600,"station_id":"ce4bh0p2rcd13ifvqd80","pricing_plan_id":"cebpf4jnsgd1na2vs0mg"},{"bike_id":"181fa628-fd06-4339-88f4-5d411c857699","system_id":"levelo_inurba_marseille","lat":43.2706,"lon":5.42268,"is_reserved":false,"is_disabled":false,"rental_uris":{"android":"levelo://app?vid=181fa628-fd06-4339-88f4-5d411c857699","ios":"levelo://app?vid=181fa628-fd06-4339-88f4-5d411c857699"},"vehicle_type_id":"4","last_reported":1731359291,"current_range_meters":35600,"station_id":"ce4bhk92rcd13ifvqgb0","pricing_plan_id":"cebpf4jnsgd1na2vs0mg"},{"bike_id":"f78d5976-a055-4d0c-afdb-4cc2a4b79214","system_id":"levelo_inurba_marseille","lat":43.31166,"lon":5.38714,"is_reserved":false,"is_disabled":false,"rental_uris":{"android":"levelo://app?vid=f78d5976-a055-4d0c-afdb-4cc2a4b79214","ios":"levelo://app?vid=f78d5976-a055-4d0c-afdb-4cc2a4b79214"},"vehicle_type_id":"4","last_reported":1731359291,"current_range_meters":38800,"station_id":"ce4bgv12rcd13ifvqcp0","pricing_plan_id":"cebpf4jnsgd1na2vs0mg"},{"bike_id":"da3e0178-4f85-4419-b4e8-53d546101687","system_id":"levelo_inurba_marseille","lat":43.24802,"lon":5.37458,"is_reserved":false,"is_disabled":false,"rental_uris":{"android":"levelo://app?vid=da3e0178-4f85-4419-b4e8-53d546101687","ios":"levelo://app?vid=da3e0178-4f85-4419-b4e8-53d546101687"},"vehicle_type_id":"4","last_reported":1731359291,"current_range_meters":29600,"station_id":"ce4bhgh2rcd13ifvqfb0","pricing_plan_id":"cebpf4jnsgd1na2vs0mg"},{"bike_id":"3a4e5de8-da16-4590-b2be-afaea15c5dfd","system_id":"levelo_inurba_marseille","lat":43.295687,"lon":5.381669,"is_reserved":false,"is_disabled":false,"rental_uris":{"android":"levelo://app?vid=3a4e5de8-da16-4590-b2be-afaea15c5dfd","ios":"levelo://app?vid=3a4e5de8-da16-4590-b2be-afaea15c5dfd"},"vehicle_type_id":"4","last_reported":1731359291,"current_range_meters":27200,"station_id":"ce4bgl12rcd13ifvqbo0","pricing_plan_id":"cebpf4jnsgd1na2vs0mg"},{"bike_id":"8046cf83-800a-4fbc-ad87-b439893e0919","system_id":"levelo_inurba_marseille","lat":43.292,"lon":5.39316,"is_reserved":false,"is_disabled":false,"rental_uris":{"android":"levelo://app?vid=8046cf83-800a-4fbc-ad87-b439893e0919","ios":"levelo://app?vid=8046cf83-800a-4fbc-ad87-b439893e0919"},"vehicle_type_id":"4","last_reported":1731359291,"current_range_meters":10000,"station_id":"ce4bh192rcd13ifvqdd0","pricing_plan_id":"cebpf4jnsgd1na2vs0mg"},{"bike_id":"38befafa-005a-48da-b8a2-6e79b9913cfd","system_id":"levelo_inurba_marseille","lat":43.30431,"lon":5.4255,"is_reserved":false,"is_disabled":false,"rental_uris":{"android":"levelo://app?vid=38befafa-005a-48da-b8a2-6e79b9913cfd","ios":"levelo://app?vid=38befafa-005a-48da-b8a2-6e79b9913cfd"},"vehicle_type_id":"4","last_reported":1731359291,"current_range_meters":5600,"station_id":"","pricing_plan_id":"cebpf4jnsgd1na2vs0mg"},{"bike_id":"d5e45547-3c6c-49d3-a9e5-782864bb2d0e","system_id":"levelo_inurba_marseille","lat":43.28469,"lon":5.35874,"is_reserved":false,"is_disabled":false,"rental_uris":{"android":"levelo://app?vid=d5e45547-3c6c-49d3-a9e5-782864bb2d0e","ios":"levelo://app?vid=d5e45547-3c6c-49d3-a9e5-782864bb2d0e"},"vehicle_type_id":"4","last_reported":1731359291,"current_range_meters":26000,"station_id":"ce4bhah2rcd13ifvqei0","pricing_plan_id":"cebpf4jnsgd1na2vs0mg"},{"bike_id":"941ea951-b8b2-41e8-9dc6-73721a59ab36","system_id":"levelo_inurba_marseille","lat":43.28077,"lon":5.39646,"is_reserved":false,"is_disabled":false,"rental_uris":{"android":"levelo://app?vid=941ea951-b8b2-41e8-9dc6-73721a59ab36","ios":"levelo://app?vid=941ea951-b8b2-41e8-9dc6-73721a59ab36"},"vehicle_type_id":"4","last_reported":1731359291,"current_range_meters":27600,"station_id":"ce4bho12rcd13ifvqh2g","pricing_plan_id":"cebpf4jnsgd1na2vs0mg"},{"bike_id":"e0dd5ad8-53cf-4379-b894-58b137568b15","system_id":"levelo_inurba_marseille","lat":43.229417,"lon":5.353451,"is_reserved":false,"is_disabled":false,"rental_uris":{"android":"levelo://app?vid=e0dd5ad8-53cf-4379-b894-58b137568b15","ios":"levelo://app?vid=e0dd5ad8-53cf-4379-b894-58b137568b15"},"vehicle_type_id":"4","last_reported":1731359291,"current_range_meters":38800,"station_id":"cpo3532slgdg3j2ikp40","pricing_plan_id":"cebpf4jnsgd1na2vs0mg"},{"bike_id":"0ff30c97-d032-4bd2-b806-0ba1b23f1458","system_id":"levelo_inurba_marseille","lat":43.29893,"lon":5.43659,"is_reserved":false,"is_disabled":false,"rental_uris":{"android":"levelo://app?vid=0ff30c97-d032-4bd2-b806-0ba1b23f1458","ios":"levelo://app?vid=0ff30c97-d032-4bd2-b806-0ba1b23f1458"},"vehicle_type_id":"4","last_reported":1731359291,"current_range_meters":37600,"station_id":"ce4bhpp2rcd13ifvqhfg","pricing_plan_id":"cebpf4jnsgd1na2vs0mg"},{"bike_id":"81bbffab-2294-4802-a46f-42950b37b5d6","system_id":"levelo_inurba_marseille","lat":43.23958,"lon":5.36623,"is_reserved":false,"is_disabled":false,"rental_uris":{"android":"levelo://app?vid=81bbffab-2294-4802-a46f-42950b37b5d6","ios":"levelo://app?vid=81bbffab-2294-4802-a46f-42950b37b5d6"},"vehicle_type_id":"4","last_reported":1731359291,"current_range_meters":38800,"station_id":"ce4bhi12rcd13ifvqfp0","pricing_plan_id":"cebpf4jnsgd1na2vs0mg"},{"bike_id":"b6459786-f7ad-4308-8fc7-9d430346d23e","system_id":"levelo_inurba_marseille","lat":43.28347,"lon":5.38109,"is_reserved":false,"is_disabled":false,"rental_uris":{"android":"levelo://app?vid=b6459786-f7ad-4308-8fc7-9d430346d23e","ios":"levelo://app?vid=b6459786-f7ad-4308-8fc7-9d430346d23e"},"vehicle_type_id":"4","last_reported":1731359291,"current_range_meters":38800,"station_id":"ce4bh412rcd13ifvqdr0","pricing_plan_id":"cebpf4jnsgd1na2vs0mg"},{"bike_id":"647db640-e6dc-4daa-9749-1b2ec76d71b3","system_id":"levelo_inurba_marseille","lat":43.27069,"lon":5.42278,"is_reserved":false,"is_disabled":false,"rental_uris":{"android":"levelo://app?vid=647db640-e6dc-4daa-9749-1b2ec76d71b3","ios":"levelo://app?vid=647db640-e6dc-4daa-9749-1b2ec76d71b3"},"vehicle_type_id":"4","last_reported":1731359291,"current_range_meters":24000,"station_id":"ce4bhk92rcd13ifvqgb0","pricing_plan_id":"cebpf4jnsgd1na2vs0mg"},{"bike_id":"88a7325a-e421-4e7d-8495-b42a2ef41c7b","system_id":"levelo_inurba_marseille","lat":43.24815,"lon":5.37462,"is_reserved":false,"is_disabled":false,"rental_uris":{"android":"levelo://app?vid=88a7325a-e421-4e7d-8495-b42a2ef41c7b","ios":"levelo://app?vid=88a7325a-e421-4e7d-8495-b42a2ef41c7b"},"vehicle_type_id":"4","last_reported":1731359291,"current_range_meters":38800,"station_id":"ce4bhgh2rcd13ifvqfb0","pricing_plan_id":"cebpf4jnsgd1na2vs0mg"},{"bike_id":"54ce8cf0-759a-4dbe-8c7f-dd90c1e2a2ea","system_id":"levelo_inurba_marseille","lat":43.2971,"lon":5.36599,"is_reserved":false,"is_disabled":false,"rental_uris":{"android":"levelo://app?vid=54ce8cf0-759a-4dbe-8c7f-dd90c1e2a2ea","ios":"levelo://app?vid=54ce8cf0-759a-4dbe-8c7f-dd90c1e2a2ea"},"vehicle_type_id":"4","last_reported":1731359291,"current_range_meters":37600,"station_id":"ce4bgn12rcd13ifvqbt0","pricing_plan_id":"cebpf4jnsgd1na2vs0mg"},{"bike_id":"fc01d943-4616-4d37-8e17-5947c751d06c","system_id":"levelo_inurba_marseille","lat":43.28102,"lon":5.37837,"is_reserved":false,"is_disabled":false,"rental_uris":{"android":"levelo://app?vid=fc01d943-4616-4d37-8e17-5947c751d06c","ios":"levelo://app?vid=fc01d943-4616-4d37-8e17-5947c751d06c"},"vehicle_type_id":"4","last_reported":1731359291,"current_range_meters":38800,"station_id":"ce4bha12rcd13ifvqee0","pricing_plan_id":"cebpf4jnsgd1na2vs0mg"},{"bike_id":"67cc3770-a002-43cd-b570-cbc91ec2f8f0","system_id":"levelo_inurba_marseille","lat":43.23955,"lon":5.36625,"is_reserved":false,"is_disabled":false,"rental_uris":{"android":"levelo://app?vid=67cc3770-a002-43cd-b570-cbc91ec2f8f0","ios":"levelo://app?vid=67cc3770-a002-43cd-b570-cbc91ec2f8f0"},"vehicle_type_id":"4","last_reported":1731359291,"current_range_meters":22400,"station_id":"ce4bhi12rcd13ifvqfp0","pricing_plan_id":"cebpf4jnsgd1na2vs0mg"},{"bike_id":"10defecf-66cd-445c-be77-8dde69978b72","system_id":"levelo_inurba_marseille","lat":43.30764,"lon":5.37649,"is_reserved":false,"is_disabled":false,"rental_uris":{"android":"levelo://app?vid=10defecf-66cd-445c-be77-8dde69978b72","ios":"levelo://app?vid=10defecf-66cd-445c-be77-8dde69978b72"},"vehicle_type_id":"4","last_reported":1731359291,"current_range_meters":34000,"station_id":"ce4bgv92rcd13ifvqcq0","pricing_plan_id":"cebpf4jnsgd1na2vs0mg"},{"bike_id":"e68693c3-100a-4c3e-a79a-23b0a2494214","system_id":"levelo_inurba_marseille","lat":43.303631,"lon":5.368224,"is_reserved":false,"is_disabled":false,"rental_uris":{"android":"levelo://app?vid=e68693c3-100a-4c3e-a79a-23b0a2494214","ios":"levelo://app?vid=e68693c3-100a-4c3e-a79a-23b0a2494214"},"vehicle_type_id":"4","last_reported":1731359291,"current_range_meters":24000,"station_id":"ce4bgqh2rcd13ifvqc5g","pricing_plan_id":"cebpf4jnsgd1na2vs0mg"},{"bike_id":"c0434846-aad1-4a93-9112-01c1b18f6481","system_id":"levelo_inurba_marseille","lat":43.2953,"lon":5.39397,"is_reserved":false,"is_disabled":false,"rental_uris":{"android":"levelo://app?vid=c0434846-aad1-4a93-9112-01c1b18f6481","ios":"levelo://app?vid=c0434846-aad1-4a93-9112-01c1b18f6481"},"vehicle_type_id":"4","last_reported":1731359291,"current_range_meters":36000,"station_id":"ce4bh292rcd13ifvqdf0","pricing_plan_id":"cebpf4jnsgd1na2vs0mg"},{"bike_id":"3e50a673-a70a-4e99-8474-4a8234c1885d","system_id":"levelo_inurba_marseille","lat":43.31271,"lon":5.40171,"is_reserved":false,"is_disabled":false,"rental_uris":{"android":"levelo://app?vid=3e50a673-a70a-4e99-8474-4a8234c1885d","ios":"levelo://app?vid=3e50a673-a70a-4e99-8474-4a8234c1885d"},"vehicle_type_id":"4","last_reported":1731359291,"current_range_meters":27200,"station_id":"ce4bh092rcd13ifvqd30","pricing_plan_id":"cebpf4jnsgd1na2vs0mg"},{"bike_id":"ca470591-2acf-4dcf-8a9b-56688197c9a2","system_id":"levelo_inurba_marseille","lat":43.28656,"lon":5.36349,"is_reserved":false,"is_disabled":false,"rental_uris":{"android":"levelo://app?vid=ca470591-2acf-4dcf-8a9b-56688197c9a2","ios":"levelo://app?vid=ca470591-2acf-4dcf-8a9b-56688197c9a2"},"vehicle_type_id":"4","last_reported":1731359291,"current_range_meters":35600,"station_id":"ce4bhah2rcd13ifvqej0","pricing_plan_id":"cebpf4jnsgd1na2vs0mg"},{"bike_id":"eddb7f22-fd02-444f-86e9-92250a8d8b7c","system_id":"levelo_inurba_marseille","lat":43.26494,"lon":5.39541,"is_reserved":false,"is_disabled":false,"rental_uris":{"android":"levelo://app?vid=eddb7f22-fd02-444f-86e9-92250a8d8b7c","ios":"levelo://app?vid=eddb7f22-fd02-444f-86e9-92250a8d8b7c"},"vehicle_type_id":"4","last_reported":1731359291,"current_range_meters":26800,"station_id":"ce4bhi12rcd13ifvqfq0","pricing_plan_id":"cebpf4jnsgd1na2vs0mg"},{"bike_id":"a875991b-6091-43df-8026-3e7fab422ca5","system_id":"levelo_inurba_marseille","lat":43.312751,"lon":5.401668,"is_reserved":false,"is_disabled":false,"rental_uris":{"android":"levelo://app?vid=a875991b-6091-43df-8026-3e7fab422ca5","ios":"levelo://app?vid=a875991b-6091-43df-8026-3e7fab422ca5"},"vehicle_type_id":"4","last_reported":1731359291,"current_range_meters":39200,"station_id":"ce4bh092rcd13ifvqd30","pricing_plan_id":"cebpf4jnsgd1na2vs0mg"},{"bike_id":"3521dea3-7d7b-4beb-8009-d72124572435","system_id":"levelo_inurba_marseille","lat":43.29872,"lon":5.39732,"is_reserved":false,"is_disabled":false,"rental_uris":{"android":"levelo://app?vid=3521dea3-7d7b-4beb-8009-d72124572435","ios":"levelo://app?vid=3521dea3-7d7b-4beb-8009-d72124572435"},"vehicle_type_id":"4","last_reported":1731359291,"current_range_meters":38000,"station_id":"ce4bh0h2rcd13ifvqd50","pricing_plan_id":"cebpf4jnsgd1na2vs0mg"},{"bike_id":"abc2d581-2c4f-4c0c-9f5f-dd53548e1aec","system_id":"levelo_inurba_marseille","lat":43.29418,"lon":5.38625,"is_reserved":false,"is_disabled":false,"rental_uris":{"android":"levelo://app?vid=abc2d581-2c4f-4c0c-9f5f-dd53548e1aec","ios":"levelo://app?vid=abc2d581-2c4f-4c0c-9f5f-dd53548e1aec"},"vehicle_type_id":"4","last_reported":1731359291,"current_range_meters":27200,"station_id":"ce4bh2h2rcd13ifvqdh0","pricing_plan_id":"cebpf4jnsgd1na2vs0mg"},{"bike_id":"4ed76e74-f33e-4cfc-b337-4f9e640ea412","system_id":"levelo_inurba_marseille","lat":43.29035,"lon":5.39965,"is_reserved":false,"is_disabled":false,"rental_uris":{"android":"levelo://app?vid=4ed76e74-f33e-4cfc-b337-4f9e640ea412","ios":"levelo://app?vid=4ed76e74-f33e-4cfc-b337-4f9e640ea412"},"vehicle_type_id":"4","last_reported":1731359291,"current_range_meters":20000,"station_id":"ce4bh392rcd13ifvqdm0","pricing_plan_id":"cebpf4jnsgd1na2vs0mg"},{"bike_id":"e0a553ef-1420-4c7f-bcf7-489d1f92bd2c","system_id":"levelo_inurba_marseille","lat":43.27674,"lon":5.38877,"is_reserved":false,"is_disabled":false,"rental_uris":{"android":"levelo://app?vid=e0a553ef-1420-4c7f-bcf7-489d1f92bd2c","ios":"levelo://app?vid=e0a553ef-1420-4c7f-bcf7-489d1f92bd2c"},"vehicle_type_id":"4","last_reported":1731359291,"current_range_meters":10800,"station_id":"ce4bhi12rcd13ifvqfo0","pricing_plan_id":"cebpf4jnsgd1na2vs0mg"},{"bike_id":"0389f6ba-9b11-4bae-aa59-6c887bee55e5","system_id":"levelo_inurba_marseille","lat":43.32188,"lon":5.38708,"is_reserved":false,"is_disabled":false,"rental_uris":{"android":"levelo://app?vid=0389f6ba-9b11-4bae-aa59-6c887bee55e5","ios":"levelo://app?vid=0389f6ba-9b11-4bae-aa59-6c887bee55e5"},"vehicle_type_id":"4","last_reported":1731359291,"current_range_meters":29600,"station_id":"","pricing_plan_id":"cebpf4jnsgd1na2vs0mg"},{"bike_id":"835fa522-c4fa-49b1-9060-16512c31e15b","system_id":"levelo_inurba_marseille","lat":43.27178,"lon":5.40996,"is_reserved":false,"is_disabled":false,"rental_uris":{"android":"levelo://app?vid=835fa522-c4fa-49b1-9060-16512c31e15b","ios":"levelo://app?vid=835fa522-c4fa-49b1-9060-16512c31e15b"},"vehicle_type_id":"4","last_reported":1731359291,"current_range_meters":8000,"station_id":"ce4bhl12rcd13ifvqgf0","pricing_plan_id":"cebpf4jnsgd1na2vs0mg"},{"bike_id":"8e9bf724-6982-4dfb-96ee-5f3b35d93850","system_id":"levelo_inurba_marseille","lat":43.29057,"lon":5.35911,"is_reserved":false,"is_disabled":false,"rental_uris":{"android":"levelo://app?vid=8e9bf724-6982-4dfb-96ee-5f3b35d93850","ios":"levelo://app?vid=8e9bf724-6982-4dfb-96ee-5f3b35d93850"},"vehicle_type_id":"4","last_reported":1731359291,"current_range_meters":38800,"station_id":"ce4bha92rcd13ifvqeg0","pricing_plan_id":"cebpf4jnsgd1na2vs0mg"},{"bike_id":"ebcde1de-8525-485a-b73b-444959bdcd1a","system_id":"levelo_inurba_marseille","lat":43.29028,"lon":5.3864,"is_reserved":false,"is_disabled":false,"rental_uris":{"android":"levelo://app?vid=ebcde1de-8525-485a-b73b-444959bdcd1a","ios":"levelo://app?vid=ebcde1de-8525-485a-b73b-444959bdcd1a"},"vehicle_type_id":"4","last_reported":1731359291,"current_range_meters":38800,"station_id":"ce4bh4p2rcd13ifvqe0g","pricing_plan_id":"cebpf4jnsgd1na2vs0mg"},{"bike_id":"44f40d91-ed8d-4bfd-9eab-eac2788df476","system_id":"levelo_inurba_marseille","lat":43.32655,"lon":5.40992,"is_reserved":false,"is_disabled":false,"rental_uris":{"android":"levelo://app?vid=44f40d91-ed8d-4bfd-9eab-eac2788df476","ios":"levelo://app?vid=44f40d91-ed8d-4bfd-9eab-eac2788df476"},"vehicle_type_id":"4","last_reported":1731359291,"current_range_meters":6800,"station_id":"ce4bhpp2rcd13ifvqhgg","pricing_plan_id":"cebpf4jnsgd1na2vs0mg"},{"bike_id":"ac5941e1-3fd0-4a36-b1af-70a3352289e4","system_id":"levelo_inurba_marseille","lat":43.28034,"lon":5.36943,"is_reserved":false,"is_disabled":false,"rental_uris":{"android":"levelo://app?vid=ac5941e1-3fd0-4a36-b1af-70a3352289e4","ios":"levelo://app?vid=ac5941e1-3fd0-4a36-b1af-70a3352289e4"},"vehicle_type_id":"4","last_reported":1731359291,"current_range_meters":39200,"station_id":"ce4bha12rcd13ifvqef0","pricing_plan_id":"cebpf4jnsgd1na2vs0mg"},{"bike_id":"87560b99-eb6a-40f4-9edc-fe0557ad2c24","system_id":"levelo_inurba_marseille","lat":43.27534,"lon":5.4279,"is_reserved":false,"is_disabled":false,"rental_uris":{"android":"levelo://app?vid=87560b99-eb6a-40f4-9edc-fe0557ad2c24","ios":"levelo://app?vid=87560b99-eb6a-40f4-9edc-fe0557ad2c24"},"vehicle_type_id":"4","last_reported":1731359291,"current_range_meters":24400,"station_id":"ce4bgvh2rcd13ifvqcs0","pricing_plan_id":"cebpf4jnsgd1na2vs0mg"},{"bike_id":"47aea41a-bbe0-424b-9b57-bc3ae1f79104","system_id":"levelo_inurba_marseille","lat":43.28351,"lon":5.38103,"is_reserved":false,"is_disabled":false,"rental_uris":{"android":"levelo://app?vid=47aea41a-bbe0-424b-9b57-bc3ae1f79104","ios":"levelo://app?vid=47aea41a-bbe0-424b-9b57-bc3ae1f79104"},"vehicle_type_id":"4","last_reported":1731359291,"current_range_meters":24000,"station_id":"ce4bh412rcd13ifvqdr0","pricing_plan_id":"cebpf4jnsgd1na2vs0mg"},{"bike_id":"12912c0c-de93-400c-aa24-7610028721b8","system_id":"levelo_inurba_marseille","lat":43.26493,"lon":5.39543,"is_reserved":false,"is_disabled":false,"rental_uris":{"android":"levelo://app?vid=12912c0c-de93-400c-aa24-7610028721b8","ios":"levelo://app?vid=12912c0c-de93-400c-aa24-7610028721b8"},"vehicle_type_id":"4","last_reported":1731359291,"current_range_meters":26800,"station_id":"ce4bhi12rcd13ifvqfq0","pricing_plan_id":"cebpf4jnsgd1na2vs0mg"},{"bike_id":"141c2232-cbe0-4185-ad79-d7c5f01972be","system_id":"levelo_inurba_marseille","lat":43.2867,"lon":5.363455,"is_reserved":false,"is_disabled":false,"rental_uris":{"android":"levelo://app?vid=141c2232-cbe0-4185-ad79-d7c5f01972be","ios":"levelo://app?vid=141c2232-cbe0-4185-ad79-d7c5f01972be"},"vehicle_type_id":"4","last_reported":1731359291,"current_range_meters":20800,"station_id":"ce4bhah2rcd13ifvqej0","pricing_plan_id":"cebpf4jnsgd1na2vs0mg"},{"bike_id":"68ce2da4-cc01-46ce-a70e-a8b20aa5a816","system_id":"levelo_inurba_marseille","lat":43.28848,"lon":5.3584,"is_reserved":false,"is_disabled":false,"rental_uris":{"android":"levelo://app?vid=68ce2da4-cc01-46ce-a70e-a8b20aa5a816","ios":"levelo://app?vid=68ce2da4-cc01-46ce-a70e-a8b20aa5a816"},"vehicle_type_id":"4","last_reported":1731359291,"current_range_meters":30800,"station_id":"ce4bhb12rcd13ifvqem0","pricing_plan_id":"cebpf4jnsgd1na2vs0mg"},{"bike_id":"d36d2d16-7cbd-4f56-a381-5c3e5fc20d4e","system_id":"levelo_inurba_marseille","lat":43.29246,"lon":5.4091,"is_reserved":false,"is_disabled":false,"rental_uris":{"android":"levelo://app?vid=d36d2d16-7cbd-4f56-a381-5c3e5fc20d4e","ios":"levelo://app?vid=d36d2d16-7cbd-4f56-a381-5c3e5fc20d4e"},"vehicle_type_id":"4","last_reported":1731359291,"current_range_meters":22400,"station_id":"ce4bh192rcd13ifvqdc0","pricing_plan_id":"cebpf4jnsgd1na2vs0mg"},{"bike_id":"74220a5d-e95a-4b5d-bd63-dfa4a9ea63d8","system_id":"levelo_inurba_marseille","lat":43.26494,"lon":5.39535,"is_reserved":false,"is_disabled":false,"rental_uris":{"android":"levelo://app?vid=74220a5d-e95a-4b5d-bd63-dfa4a9ea63d8","ios":"levelo://app?vid=74220a5d-e95a-4b5d-bd63-dfa4a9ea63d8"},"vehicle_type_id":"4","last_reported":1731359291,"current_range_meters":25200,"station_id":"ce4bhi12rcd13ifvqfq0","pricing_plan_id":"cebpf4jnsgd1na2vs0mg"},{"bike_id":"3fc4fb51-4007-4e36-9762-95f053a5589a","system_id":"levelo_inurba_marseille","lat":43.30887,"lon":5.37184,"is_reserved":false,"is_disabled":false,"rental_uris":{"android":"levelo://app?vid=3fc4fb51-4007-4e36-9762-95f053a5589a","ios":"levelo://app?vid=3fc4fb51-4007-4e36-9762-95f053a5589a"},"vehicle_type_id":"4","last_reported":1731359291,"current_range_meters":25600,"station_id":"ce4bguh2rcd13ifvqckg","pricing_plan_id":"cebpf4jnsgd1na2vs0mg"},{"bike_id":"394b9be2-9626-4d0a-ba24-0ca07b2a4404","system_id":"levelo_inurba_marseille","lat":43.30327,"lon":5.40441,"is_reserved":false,"is_disabled":false,"rental_uris":{"android":"levelo://app?vid=394b9be2-9626-4d0a-ba24-0ca07b2a4404","ios":"levelo://app?vid=394b9be2-9626-4d0a-ba24-0ca07b2a4404"},"vehicle_type_id":"4","last_reported":1731359291,"current_range_meters":38800,"station_id":"ce4bh012rcd13ifvqd10","pricing_plan_id":"cebpf4jnsgd1na2vs0mg"},{"bike_id":"89579f31-df7a-4f4d-9d17-760b4690ef10","system_id":"levelo_inurba_marseille","lat":43.29532,"lon":5.38534,"is_reserved":false,"is_disabled":false,"rental_uris":{"android":"levelo://app?vid=89579f31-df7a-4f4d-9d17-760b4690ef10","ios":"levelo://app?vid=89579f31-df7a-4f4d-9d17-760b4690ef10"},"vehicle_type_id":"4","last_reported":1731359291,"current_range_meters":38000,"station_id":"ce4bgih2rcd13ifvqba0","pricing_plan_id":"cebpf4jnsgd1na2vs0mg"},{"bike_id":"9e22c680-5ff4-4adf-87bd-063d6a5c4995","system_id":"levelo_inurba_marseille","lat":43.27814,"lon":5.40698,"is_reserved":false,"is_disabled":false,"rental_uris":{"android":"levelo://app?vid=9e22c680-5ff4-4adf-87bd-063d6a5c4995","ios":"levelo://app?vid=9e22c680-5ff4-4adf-87bd-063d6a5c4995"},"vehicle_type_id":"4","last_reported":1731359291,"current_range_meters":30800,"station_id":"ce4bhnh2rcd13ifvqgtg","pricing_plan_id":"cebpf4jnsgd1na2vs0mg"},{"bike_id":"15ad8b44-55c9-4572-a02b-d7c6605dd1a3","system_id":"levelo_inurba_marseille","lat":43.25825,"lon":5.39433,"is_reserved":false,"is_disabled":false,"rental_uris":{"android":"levelo://app?vid=15ad8b44-55c9-4572-a02b-d7c6605dd1a3","ios":"levelo://app?vid=15ad8b44-55c9-4572-a02b-d7c6605dd1a3"},"vehicle_type_id":"4","last_reported":1731359291,"current_range_meters":34000,"station_id":"ce4bhip2rcd13ifvqft0","pricing_plan_id":"cebpf4jnsgd1na2vs0mg"},{"bike_id":"3731c9a3-566c-45fb-94bb-7f64fee6fcd7","system_id":"levelo_inurba_marseille","lat":43.28086,"lon":5.40679,"is_reserved":false,"is_disabled":false,"rental_uris":{"android":"levelo://app?vid=3731c9a3-566c-45fb-94bb-7f64fee6fcd7","ios":"levelo://app?vid=3731c9a3-566c-45fb-94bb-7f64fee6fcd7"},"vehicle_type_id":"4","last_reported":1731359291,"current_range_meters":24000,"station_id":"ce4bho92rcd13ifvqh3g","pricing_plan_id":"cebpf4jnsgd1na2vs0mg"},{"bike_id":"1de7bb22-e345-4e0b-adf1-d36c188a6d73","system_id":"levelo_inurba_marseille","lat":43.2957,"lon":5.39975,"is_reserved":false,"is_disabled":false,"rental_uris":{"android":"levelo://app?vid=1de7bb22-e345-4e0b-adf1-d36c188a6d73","ios":"levelo://app?vid=1de7bb22-e345-4e0b-adf1-d36c188a6d73"},"vehicle_type_id":"4","last_reported":1731359291,"current_range_meters":31200,"station_id":"ce4bh312rcd13ifvqdj0","pricing_plan_id":"cebpf4jnsgd1na2vs0mg"},{"bike_id":"85a47318-0b48-4ac4-9075-2df1aeacaa9d","system_id":"levelo_inurba_marseille","lat":43.28697,"lon":5.37397,"is_reserved":false,"is_disabled":false,"rental_uris":{"android":"levelo://app?vid=85a47318-0b48-4ac4-9075-2df1aeacaa9d","ios":"levelo://app?vid=85a47318-0b48-4ac4-9075-2df1aeacaa9d"},"vehicle_type_id":"4","last_reported":1731359291,"current_range_meters":38800,"station_id":"ce4bh3p2rcd13ifvqdq0","pricing_plan_id":"cebpf4jnsgd1na2vs0mg"},{"bike_id":"680d056b-3546-4fe2-b8e3-135dfbc7bf7d","system_id":"levelo_inurba_marseille","lat":43.295685,"lon":5.367084,"is_reserved":false,"is_disabled":false,"rental_uris":{"android":"levelo://app?vid=680d056b-3546-4fe2-b8e3-135dfbc7bf7d","ios":"levelo://app?vid=680d056b-3546-4fe2-b8e3-135dfbc7bf7d"},"vehicle_type_id":"4","last_reported":1731359291,"current_range_meters":32000,"station_id":"ce4bgph2rcd13ifvqc2g","pricing_plan_id":"cebpf4jnsgd1na2vs0mg"},{"bike_id":"3a380d17-df8f-4b0b-9249-c031a1e66b20","system_id":"levelo_inurba_marseille","lat":43.25575,"lon":5.38239,"is_reserved":false,"is_disabled":false,"rental_uris":{"android":"levelo://app?vid=3a380d17-df8f-4b0b-9249-c031a1e66b20","ios":"levelo://app?vid=3a380d17-df8f-4b0b-9249-c031a1e66b20"},"vehicle_type_id":"4","last_reported":1731359291,"current_range_meters":36800,"station_id":"ce4bhih2rcd13ifvqfs0","pricing_plan_id":"cebpf4jnsgd1na2vs0mg"},{"bike_id":"24075d52-b22d-4189-acbb-f6fcf055ed5d","system_id":"levelo_inurba_marseille","lat":43.31869,"lon":5.40754,"is_reserved":false,"is_disabled":false,"rental_uris":{"android":"levelo://app?vid=24075d52-b22d-4189-acbb-f6fcf055ed5d","ios":"levelo://app?vid=24075d52-b22d-4189-acbb-f6fcf055ed5d"},"vehicle_type_id":"4","last_reported":1731359291,"current_range_meters":25200,"station_id":"ce4bhq12rcd13ifvqhig","pricing_plan_id":"cebpf4jnsgd1na2vs0mg"},{"bike_id":"d4253cd9-56f0-4058-8dbb-47d2e12b90c0","system_id":"levelo_inurba_marseille","lat":43.29934,"lon":5.36525,"is_reserved":false,"is_disabled":false,"rental_uris":{"android":"levelo://app?vid=d4253cd9-56f0-4058-8dbb-47d2e12b90c0","ios":"levelo://app?vid=d4253cd9-56f0-4058-8dbb-47d2e12b90c0"},"vehicle_type_id":"4","last_reported":1731359291,"current_range_meters":38800,"station_id":"ce4bgm92rcd13ifvqbr0","pricing_plan_id":"cebpf4jnsgd1na2vs0mg"},{"bike_id":"ee22dc4f-6f66-4f7c-9d82-256a6ef8fa49","system_id":"levelo_inurba_marseille","lat":43.27828,"lon":5.39205,"is_reserved":false,"is_disabled":false,"rental_uris":{"android":"levelo://app?vid=ee22dc4f-6f66-4f7c-9d82-256a6ef8fa49","ios":"levelo://app?vid=ee22dc4f-6f66-4f7c-9d82-256a6ef8fa49"},"vehicle_type_id":"4","last_reported":1731359291,"current_range_meters":39200,"station_id":"ce4bhjp2rcd13ifvqga0","pricing_plan_id":"cebpf4jnsgd1na2vs0mg"},{"bike_id":"e43de4c0-1b6e-4cd8-b890-b859229039c3","system_id":"levelo_inurba_marseille","lat":43.28935,"lon":5.3664,"is_reserved":false,"is_disabled":false,"rental_uris":{"android":"levelo://app?vid=e43de4c0-1b6e-4cd8-b890-b859229039c3","ios":"levelo://app?vid=e43de4c0-1b6e-4cd8-b890-b859229039c3"},"vehicle_type_id":"4","last_reported":1731359291,"current_range_meters":14400,"station_id":"ce4bhap2rcd13ifvqek0","pricing_plan_id":"cebpf4jnsgd1na2vs0mg"},{"bike_id":"dae78a48-3da0-45bb-bd43-1861b1847e12","system_id":"levelo_inurba_marseille","lat":43.28345,"lon":5.38105,"is_reserved":false,"is_disabled":false,"rental_uris":{"android":"levelo://app?vid=dae78a48-3da0-45bb-bd43-1861b1847e12","ios":"levelo://app?vid=dae78a48-3da0-45bb-bd43-1861b1847e12"},"vehicle_type_id":"4","last_reported":1731359291,"current_range_meters":38800,"station_id":"ce4bh412rcd13ifvqdr0","pricing_plan_id":"cebpf4jnsgd1na2vs0mg"},{"bike_id":"f7403d44-18bb-4fcd-a284-5d8276d25914","system_id":"levelo_inurba_marseille","lat":43.24668,"lon":5.38151,"is_reserved":false,"is_disabled":false,"rental_uris":{"android":"levelo://app?vid=f7403d44-18bb-4fcd-a284-5d8276d25914","ios":"levelo://app?vid=f7403d44-18bb-4fcd-a284-5d8276d25914"},"vehicle_type_id":"4","last_reported":1731359291,"current_range_meters":39200,"station_id":"ce4bhih2rcd13ifvqfr0","pricing_plan_id":"cebpf4jnsgd1na2vs0mg"},{"bike_id":"a1c29d06-e30c-4263-99e6-77fcc59dbca1","system_id":"levelo_inurba_marseille","lat":43.31356,"lon":5.36696,"is_reserved":false,"is_disabled":false,"rental_uris":{"android":"levelo://app?vid=a1c29d06-e30c-4263-99e6-77fcc59dbca1","ios":"levelo://app?vid=a1c29d06-e30c-4263-99e6-77fcc59dbca1"},"vehicle_type_id":"4","last_reported":1731359291,"current_range_meters":37600,"station_id":"ce4bgr92rcd13ifvqc6g","pricing_plan_id":"cebpf4jnsgd1na2vs0mg"},{"bike_id":"75cf64db-6035-4afd-bd6a-776e71335318","system_id":"levelo_inurba_marseille","lat":43.248,"lon":5.37456,"is_reserved":false,"is_disabled":false,"rental_uris":{"android":"levelo://app?vid=75cf64db-6035-4afd-bd6a-776e71335318","ios":"levelo://app?vid=75cf64db-6035-4afd-bd6a-776e71335318"},"vehicle_type_id":"4","last_reported":1731359291,"current_range_meters":32800,"station_id":"ce4bhgh2rcd13ifvqfb0","pricing_plan_id":"cebpf4jnsgd1na2vs0mg"},{"bike_id":"da4ee9a2-7d5a-4a76-9358-e8bc42011f15","system_id":"levelo_inurba_marseille","lat":43.320845,"lon":5.414741,"is_reserved":false,"is_disabled":false,"rental_uris":{"android":"levelo://app?vid=da4ee9a2-7d5a-4a76-9358-e8bc42011f15","ios":"levelo://app?vid=da4ee9a2-7d5a-4a76-9358-e8bc42011f15"},"vehicle_type_id":"4","last_reported":1731359291,"current_range_meters":13600,"station_id":"ce4bhqh2rcd13ifvqhmg","pricing_plan_id":"cebpf4jnsgd1na2vs0mg"},{"bike_id":"b2f3adca-b446-441d-a1ab-5903c30fd432","system_id":"levelo_inurba_marseille","lat":43.33772,"lon":5.37447,"is_reserved":false,"is_disabled":false,"rental_uris":{"android":"levelo://app?vid=b2f3adca-b446-441d-a1ab-5903c30fd432","ios":"levelo://app?vid=b2f3adca-b446-441d-a1ab-5903c30fd432"},"vehicle_type_id":"4","last_reported":1731359291,"current_range_meters":9200,"station_id":"","pricing_plan_id":"cebpf4jnsgd1na2vs0mg"},{"bike_id":"3772b6dd-11d7-47bd-9c13-b2f385717191","system_id":"levelo_inurba_marseille","lat":43.28029,"lon":5.36938,"is_reserved":false,"is_disabled":false,"rental_uris":{"android":"levelo://app?vid=3772b6dd-11d7-47bd-9c13-b2f385717191","ios":"levelo://app?vid=3772b6dd-11d7-47bd-9c13-b2f385717191"},"vehicle_type_id":"4","last_reported":1731359291,"current_range_meters":38800,"station_id":"ce4bha12rcd13ifvqef0","pricing_plan_id":"cebpf4jnsgd1na2vs0mg"},{"bike_id":"fd9fd0aa-0804-4953-a041-494b11c6f5c1","system_id":"levelo_inurba_marseille","lat":43.29879,"lon":5.38903,"is_reserved":false,"is_disabled":false,"rental_uris":{"android":"levelo://app?vid=fd9fd0aa-0804-4953-a041-494b11c6f5c1","ios":"levelo://app?vid=fd9fd0aa-0804-4953-a041-494b11c6f5c1"},"vehicle_type_id":"4","last_reported":1731359291,"current_range_meters":38800,"station_id":"ce4bh392rcd13ifvqdl0","pricing_plan_id":"cebpf4jnsgd1na2vs0mg"},{"bike_id":"d52e8493-76de-4e92-96df-12a00039b59b","system_id":"levelo_inurba_marseille","lat":43.25497,"lon":5.37651,"is_reserved":false,"is_disabled":false,"rental_uris":{"android":"levelo://app?vid=d52e8493-76de-4e92-96df-12a00039b59b","ios":"levelo://app?vid=d52e8493-76de-4e92-96df-12a00039b59b"},"vehicle_type_id":"4","last_reported":1731359291,"current_range_meters":38800,"station_id":"ce4bhh12rcd13ifvqff0","pricing_plan_id":"cebpf4jnsgd1na2vs0mg"},{"bike_id":"3c8d9402-5602-453f-a44f-c2080c1431b8","system_id":"levelo_inurba_marseille","lat":43.27497,"lon":5.42448,"is_reserved":false,"is_disabled":false,"rental_uris":{"android":"levelo://app?vid=3c8d9402-5602-453f-a44f-c2080c1431b8","ios":"levelo://app?vid=3c8d9402-5602-453f-a44f-c2080c1431b8"},"vehicle_type_id":"4","last_reported":1731359291,"current_range_meters":10000,"station_id":"ce4bhn92rcd13ifvqgrg","pricing_plan_id":"cebpf4jnsgd1na2vs0mg"},{"bike_id":"03e7317a-a6d5-423f-8ecd-e45acf927ac5","system_id":"levelo_inurba_marseille","lat":43.29532,"lon":5.38547,"is_reserved":false,"is_disabled":false,"rental_uris":{"android":"levelo://app?vid=03e7317a-a6d5-423f-8ecd-e45acf927ac5","ios":"levelo://app?vid=03e7317a-a6d5-423f-8ecd-e45acf927ac5"},"vehicle_type_id":"4","last_reported":1731359291,"current_range_meters":38400,"station_id":"ce4bgih2rcd13ifvqba0","pricing_plan_id":"cebpf4jnsgd1na2vs0mg"},{"bike_id":"e71c1695-30ee-46b9-9824-79fb48b13054","system_id":"levelo_inurba_marseille","lat":43.28615,"lon":5.35105,"is_reserved":false,"is_disabled":false,"rental_uris":{"android":"levelo://app?vid=e71c1695-30ee-46b9-9824-79fb48b13054","ios":"levelo://app?vid=e71c1695-30ee-46b9-9824-79fb48b13054"},"vehicle_type_id":"4","last_reported":1731359291,"current_range_meters":22000,"station_id":"ce4bhch2rcd13ifvqeug","pricing_plan_id":"cebpf4jnsgd1na2vs0mg"},{"bike_id":"a9ee0ebc-0258-4b4e-a36b-9cfcccc5e094","system_id":"levelo_inurba_marseille","lat":43.29962,"lon":5.38499,"is_reserved":false,"is_disabled":false,"rental_uris":{"android":"levelo://app?vid=a9ee0ebc-0258-4b4e-a36b-9cfcccc5e094","ios":"levelo://app?vid=a9ee0ebc-0258-4b4e-a36b-9cfcccc5e094"},"vehicle_type_id":"4","last_reported":1731359291,"current_range_meters":36800,"station_id":"ce4bgj92rcd13ifvqbd0","pricing_plan_id":"cebpf4jnsgd1na2vs0mg"},{"bike_id":"44a17869-d80c-4d5a-81cd-97b15c7e4788","system_id":"levelo_inurba_marseille","lat":43.28421,"lon":5.34989,"is_reserved":false,"is_disabled":false,"rental_uris":{"android":"levelo://app?vid=44a17869-d80c-4d5a-81cd-97b15c7e4788","ios":"levelo://app?vid=44a17869-d80c-4d5a-81cd-97b15c7e4788"},"vehicle_type_id":"4","last_reported":1731359291,"current_range_meters":28000,"station_id":"ce4bhbh2rcd13ifvqepg","pricing_plan_id":"cebpf4jnsgd1na2vs0mg"},{"bike_id":"e86b9b96-4c65-45e8-b0a4-0f51521e5e23","system_id":"levelo_inurba_marseille","lat":43.27912,"lon":5.39587,"is_reserved":false,"is_disabled":false,"rental_uris":{"android":"levelo://app?vid=e86b9b96-4c65-45e8-b0a4-0f51521e5e23","ios":"levelo://app?vid=e86b9b96-4c65-45e8-b0a4-0f51521e5e23"},"vehicle_type_id":"4","last_reported":1731359291,"current_range_meters":22800,"station_id":"ce4bhf92rcd13ifvqf40","pricing_plan_id":"cebpf4jnsgd1na2vs0mg"},{"bike_id":"8f5bbac4-71ff-4da7-976b-b80bf5dbb501","system_id":"levelo_inurba_marseille","lat":43.29705,"lon":5.36612,"is_reserved":false,"is_disabled":false,"rental_uris":{"android":"levelo://app?vid=8f5bbac4-71ff-4da7-976b-b80bf5dbb501","ios":"levelo://app?vid=8f5bbac4-71ff-4da7-976b-b80bf5dbb501"},"vehicle_type_id":"4","last_reported":1731359291,"current_range_meters":36400,"station_id":"ce4bgn12rcd13ifvqbt0","pricing_plan_id":"cebpf4jnsgd1na2vs0mg"},{"bike_id":"b72ca6e7-47e9-42be-9a97-b74e22acdc0e","system_id":"levelo_inurba_marseille","lat":43.32104,"lon":5.36771,"is_reserved":false,"is_disabled":false,"rental_uris":{"android":"levelo://app?vid=b72ca6e7-47e9-42be-9a97-b74e22acdc0e","ios":"levelo://app?vid=b72ca6e7-47e9-42be-9a97-b74e22acdc0e"},"vehicle_type_id":"4","last_reported":1731359291,"current_range_meters":28400,"station_id":"ce4bhrh2rcd13ifvqhug","pricing_plan_id":"cebpf4jnsgd1na2vs0mg"},{"bike_id":"0e8b328d-d250-4022-b102-700ab6c44fe0","system_id":"levelo_inurba_marseille","lat":43.28032,"lon":5.3695,"is_reserved":false,"is_disabled":false,"rental_uris":{"android":"levelo://app?vid=0e8b328d-d250-4022-b102-700ab6c44fe0","ios":"levelo://app?vid=0e8b328d-d250-4022-b102-700ab6c44fe0"},"vehicle_type_id":"4","last_reported":1731359291,"current_range_meters":37600,"station_id":"ce4bha12rcd13ifvqef0","pricing_plan_id":"cebpf4jnsgd1na2vs0mg"},{"bike_id":"00330015-489a-4475-bd5a-6527c89da3c5","system_id":"levelo_inurba_marseille","lat":43.29918,"lon":5.38558,"is_reserved":false,"is_disabled":false,"rental_uris":{"android":"levelo://app?vid=00330015-489a-4475-bd5a-6527c89da3c5","ios":"levelo://app?vid=00330015-489a-4475-bd5a-6527c89da3c5"},"vehicle_type_id":"4","last_reported":1731359291,"current_range_meters":32000,"station_id":"ce4bgih2rcd13ifvqba0","pricing_plan_id":"cebpf4jnsgd1na2vs0mg"},{"bike_id":"755d47d5-03c1-4a41-9bbc-7f3962d7f720","system_id":"levelo_inurba_marseille","lat":43.27811,"lon":5.4071,"is_reserved":false,"is_disabled":false,"rental_uris":{"android":"levelo://app?vid=755d47d5-03c1-4a41-9bbc-7f3962d7f720","ios":"levelo://app?vid=755d47d5-03c1-4a41-9bbc-7f3962d7f720"},"vehicle_type_id":"4","last_reported":1731359291,"current_range_meters":38800,"station_id":"ce4bhnh2rcd13ifvqgtg","pricing_plan_id":"cebpf4jnsgd1na2vs0mg"},{"bike_id":"c6f73ec4-f7a3-4af7-a2d2-a8900e6f0747","system_id":"levelo_inurba_marseille","lat":43.29032,"lon":5.38635,"is_reserved":false,"is_disabled":false,"rental_uris":{"android":"levelo://app?vid=c6f73ec4-f7a3-4af7-a2d2-a8900e6f0747","ios":"levelo://app?vid=c6f73ec4-f7a3-4af7-a2d2-a8900e6f0747"},"vehicle_type_id":"4","last_reported":1731359291,"current_range_meters":38800,"station_id":"ce4bh4p2rcd13ifvqe0g","pricing_plan_id":"cebpf4jnsgd1na2vs0mg"},{"bike_id":"d200f736-33ff-4949-a4fa-9c168ba1cf59","system_id":"levelo_inurba_marseille","lat":43.28415,"lon":5.35001,"is_reserved":false,"is_disabled":false,"rental_uris":{"android":"levelo://app?vid=d200f736-33ff-4949-a4fa-9c168ba1cf59","ios":"levelo://app?vid=d200f736-33ff-4949-a4fa-9c168ba1cf59"},"vehicle_type_id":"4","last_reported":1731359291,"current_range_meters":38800,"station_id":"ce4bhbh2rcd13ifvqepg","pricing_plan_id":"cebpf4jnsgd1na2vs0mg"},{"bike_id":"0ae27dfb-4fbb-4e94-8a5d-54ccfeb2c92c","system_id":"levelo_inurba_marseille","lat":43.27173,"lon":5.4099,"is_reserved":false,"is_disabled":false,"rental_uris":{"android":"levelo://app?vid=0ae27dfb-4fbb-4e94-8a5d-54ccfeb2c92c","ios":"levelo://app?vid=0ae27dfb-4fbb-4e94-8a5d-54ccfeb2c92c"},"vehicle_type_id":"4","last_reported":1731359291,"current_range_meters":2000,"station_id":"ce4bhl12rcd13ifvqgf0","pricing_plan_id":"cebpf4jnsgd1na2vs0mg"},{"bike_id":"b3ad0687-ffe0-4af6-a0c6-c7c40aa85320","system_id":"levelo_inurba_marseille","lat":43.27915,"lon":5.39582,"is_reserved":false,"is_disabled":false,"rental_uris":{"android":"levelo://app?vid=b3ad0687-ffe0-4af6-a0c6-c7c40aa85320","ios":"levelo://app?vid=b3ad0687-ffe0-4af6-a0c6-c7c40aa85320"},"vehicle_type_id":"4","last_reported":1731359291,"current_range_meters":30000,"station_id":"ce4bhf92rcd13ifvqf40","pricing_plan_id":"cebpf4jnsgd1na2vs0mg"},{"bike_id":"fcb91808-1695-4e82-91b2-68f598db563b","system_id":"levelo_inurba_marseille","lat":43.26206,"lon":5.3744,"is_reserved":false,"is_disabled":false,"rental_uris":{"android":"levelo://app?vid=fcb91808-1695-4e82-91b2-68f598db563b","ios":"levelo://app?vid=fcb91808-1695-4e82-91b2-68f598db563b"},"vehicle_type_id":"4","last_reported":1731359291,"current_range_meters":38800,"station_id":"ce4bhgp2rcd13ifvqfc0","pricing_plan_id":"cebpf4jnsgd1na2vs0mg"},{"bike_id":"26658a84-ea0d-4ee9-89a7-4bd274288c64","system_id":"levelo_inurba_marseille","lat":43.29354,"lon":5.38738,"is_reserved":false,"is_disabled":false,"rental_uris":{"android":"levelo://app?vid=26658a84-ea0d-4ee9-89a7-4bd274288c64","ios":"levelo://app?vid=26658a84-ea0d-4ee9-89a7-4bd274288c64"},"vehicle_type_id":"4","last_reported":1731359291,"current_range_meters":38800,"station_id":"ce4bh092rcd13ifvqd30","pricing_plan_id":"cebpf4jnsgd1na2vs0mg"},{"bike_id":"2c507cd7-54ef-475c-8faa-961482f8a251","system_id":"levelo_inurba_marseille","lat":43.29557,"lon":5.42289,"is_reserved":false,"is_disabled":false,"rental_uris":{"android":"levelo://app?vid=2c507cd7-54ef-475c-8faa-961482f8a251","ios":"levelo://app?vid=2c507cd7-54ef-475c-8faa-961482f8a251"},"vehicle_type_id":"4","last_reported":1731359291,"current_range_meters":25200,"station_id":"ce4bhph2rcd13ifvqhdg","pricing_plan_id":"cebpf4jnsgd1na2vs0mg"},{"bike_id":"bc49d13e-261b-4b99-b999-c29c3db5f0a9","system_id":"levelo_inurba_marseille","lat":43.28267,"lon":5.35074,"is_reserved":false,"is_disabled":false,"rental_uris":{"android":"levelo://app?vid=bc49d13e-261b-4b99-b999-c29c3db5f0a9","ios":"levelo://app?vid=bc49d13e-261b-4b99-b999-c29c3db5f0a9"},"vehicle_type_id":"4","last_reported":1731359291,"current_range_meters":24000,"station_id":"ce4bhbp2rcd13ifvqerg","pricing_plan_id":"cebpf4jnsgd1na2vs0mg"},{"bike_id":"60af76fb-31f5-416f-9e6f-d3f9ef616c17","system_id":"levelo_inurba_marseille","lat":43.30878,"lon":5.39642,"is_reserved":false,"is_disabled":false,"rental_uris":{"android":"levelo://app?vid=60af76fb-31f5-416f-9e6f-d3f9ef616c17","ios":"levelo://app?vid=60af76fb-31f5-416f-9e6f-d3f9ef616c17"},"vehicle_type_id":"4","last_reported":1731359291,"current_range_meters":38800,"station_id":"ce4bh012rcd13ifvqcv0","pricing_plan_id":"cebpf4jnsgd1na2vs0mg"},{"bike_id":"7f104df5-ba91-408c-8898-4e8d21aacd76","system_id":"levelo_inurba_marseille","lat":43.28613,"lon":5.35103,"is_reserved":false,"is_disabled":false,"rental_uris":{"android":"levelo://app?vid=7f104df5-ba91-408c-8898-4e8d21aacd76","ios":"levelo://app?vid=7f104df5-ba91-408c-8898-4e8d21aacd76"},"vehicle_type_id":"4","last_reported":1731359291,"current_range_meters":35600,"station_id":"ce4bhch2rcd13ifvqeug","pricing_plan_id":"cebpf4jnsgd1na2vs0mg"},{"bike_id":"dfa9c51e-db93-4ec5-be03-49118a518ec5","system_id":"levelo_inurba_marseille","lat":43.29626,"lon":5.40608,"is_reserved":false,"is_disabled":false,"rental_uris":{"android":"levelo://app?vid=dfa9c51e-db93-4ec5-be03-49118a518ec5","ios":"levelo://app?vid=dfa9c51e-db93-4ec5-be03-49118a518ec5"},"vehicle_type_id":"4","last_reported":1731359291,"current_range_meters":38800,"station_id":"ce4bh0h2rcd13ifvqd60","pricing_plan_id":"cebpf4jnsgd1na2vs0mg"},{"bike_id":"c02a192e-5825-44fe-a0c9-fd04411f4ff2","system_id":"levelo_inurba_marseille","lat":43.25005,"lon":5.38911,"is_reserved":false,"is_disabled":false,"rental_uris":{"android":"levelo://app?vid=c02a192e-5825-44fe-a0c9-fd04411f4ff2","ios":"levelo://app?vid=c02a192e-5825-44fe-a0c9-fd04411f4ff2"},"vehicle_type_id":"4","last_reported":1731359291,"current_range_meters":22400,"station_id":"ce4bhgp2rcd13ifvqfd0","pricing_plan_id":"cebpf4jnsgd1na2vs0mg"},{"bike_id":"7aab22ee-8aae-44c3-8701-5137050c0226","system_id":"levelo_inurba_marseille","lat":43.248533,"lon":5.375288,"is_reserved":false,"is_disabled":false,"rental_uris":{"android":"levelo://app?vid=7aab22ee-8aae-44c3-8701-5137050c0226","ios":"levelo://app?vid=7aab22ee-8aae-44c3-8701-5137050c0226"},"vehicle_type_id":"4","last_reported":1731359291,"current_range_meters":38800,"station_id":"ce4bhgh2rcd13ifvqfb0","pricing_plan_id":"cebpf4jnsgd1na2vs0mg"},{"bike_id":"d7e62703-035e-4c4e-82c6-53d8204b8f45","system_id":"levelo_inurba_marseille","lat":43.31521,"lon":5.38038,"is_reserved":false,"is_disabled":false,"rental_uris":{"android":"levelo://app?vid=d7e62703-035e-4c4e-82c6-53d8204b8f45","ios":"levelo://app?vid=d7e62703-035e-4c4e-82c6-53d8204b8f45"},"vehicle_type_id":"4","last_reported":1731359291,"current_range_meters":33600,"station_id":"ce4bhsp2rcd13ifvqi50","pricing_plan_id":"cebpf4jnsgd1na2vs0mg"},{"bike_id":"feb86f62-2c80-4064-8e38-33c5534046da","system_id":"levelo_inurba_marseille","lat":43.282,"lon":5.39913,"is_reserved":false,"is_disabled":false,"rental_uris":{"android":"levelo://app?vid=feb86f62-2c80-4064-8e38-33c5534046da","ios":"levelo://app?vid=feb86f62-2c80-4064-8e38-33c5534046da"},"vehicle_type_id":"4","last_reported":1731359291,"current_range_meters":14400,"station_id":"","pricing_plan_id":"cebpf4jnsgd1na2vs0mg"},{"bike_id":"c755ce56-b797-4db4-b77f-66af599d7c95","system_id":"levelo_inurba_marseille","lat":43.2407,"lon":5.37765,"is_reserved":false,"is_disabled":false,"rental_uris":{"android":"levelo://app?vid=c755ce56-b797-4db4-b77f-66af599d7c95","ios":"levelo://app?vid=c755ce56-b797-4db4-b77f-66af599d7c95"},"vehicle_type_id":"4","last_reported":1731359291,"current_range_meters":17200,"station_id":"ce4bhnp2rcd13ifvqgvg","pricing_plan_id":"cebpf4jnsgd1na2vs0mg"},{"bike_id":"89056f4d-b834-4f56-b6be-015e2d158279","system_id":"levelo_inurba_marseille","lat":43.23193,"lon":5.35557,"is_reserved":false,"is_disabled":false,"rental_uris":{"android":"levelo://app?vid=89056f4d-b834-4f56-b6be-015e2d158279","ios":"levelo://app?vid=89056f4d-b834-4f56-b6be-015e2d158279"},"vehicle_type_id":"4","last_reported":1731359291,"current_range_meters":38800,"station_id":"ce4bhu92rcd13ifvqi70","pricing_plan_id":"cebpf4jnsgd1na2vs0mg"},{"bike_id":"5c189137-ff83-42d7-a37e-78131ff7b3da","system_id":"levelo_inurba_marseille","lat":43.28855,"lon":5.3931,"is_reserved":false,"is_disabled":false,"rental_uris":{"android":"levelo://app?vid=5c189137-ff83-42d7-a37e-78131ff7b3da","ios":"levelo://app?vid=5c189137-ff83-42d7-a37e-78131ff7b3da"},"vehicle_type_id":"4","last_reported":1731359291,"current_range_meters":38800,"station_id":"ce4bh2p2rcd13ifvqdi0","pricing_plan_id":"cebpf4jnsgd1na2vs0mg"},{"bike_id":"10b6bafa-b2cc-4e77-aaad-8bd6f3ff5c54","system_id":"levelo_inurba_marseille","lat":43.28457,"lon":5.35887,"is_reserved":false,"is_disabled":false,"rental_uris":{"android":"levelo://app?vid=10b6bafa-b2cc-4e77-aaad-8bd6f3ff5c54","ios":"levelo://app?vid=10b6bafa-b2cc-4e77-aaad-8bd6f3ff5c54"},"vehicle_type_id":"4","last_reported":1731359291,"current_range_meters":37600,"station_id":"ce4bhah2rcd13ifvqei0","pricing_plan_id":"cebpf4jnsgd1na2vs0mg"},{"bike_id":"a2673882-90a1-4aaf-a7cb-b6fdcc856eb9","system_id":"levelo_inurba_marseille","lat":43.2952,"lon":5.39047,"is_reserved":false,"is_disabled":false,"rental_uris":{"android":"levelo://app?vid=a2673882-90a1-4aaf-a7cb-b6fdcc856eb9","ios":"levelo://app?vid=a2673882-90a1-4aaf-a7cb-b6fdcc856eb9"},"vehicle_type_id":"4","last_reported":1731359291,"current_range_meters":7200,"station_id":"ce4bh3p2rcd13ifvqdp0","pricing_plan_id":"cebpf4jnsgd1na2vs0mg"},{"bike_id":"4e53a4b2-b31b-4d8a-9721-afd4059c4be4","system_id":"levelo_inurba_marseille","lat":43.29598,"lon":5.38102,"is_reserved":false,"is_disabled":false,"rental_uris":{"android":"levelo://app?vid=4e53a4b2-b31b-4d8a-9721-afd4059c4be4","ios":"levelo://app?vid=4e53a4b2-b31b-4d8a-9721-afd4059c4be4"},"vehicle_type_id":"4","last_reported":1731359291,"current_range_meters":36000,"station_id":"ce4bgl12rcd13ifvqbo0","pricing_plan_id":"cebpf4jnsgd1na2vs0mg"},{"bike_id":"a3a15d59-b85f-4c80-a73e-dd0fcea7e73d","system_id":"levelo_inurba_marseille","lat":43.28478,"lon":5.38413,"is_reserved":false,"is_disabled":false,"rental_uris":{"android":"levelo://app?vid=a3a15d59-b85f-4c80-a73e-dd0fcea7e73d","ios":"levelo://app?vid=a3a15d59-b85f-4c80-a73e-dd0fcea7e73d"},"vehicle_type_id":"4","last_reported":1731359291,"current_range_meters":14000,"station_id":"ce4bhnh2rcd13ifvqgtg","pricing_plan_id":"cebpf4jnsgd1na2vs0mg"},{"bike_id":"96e93e46-73d0-4ab0-9e80-79ba9543105c","system_id":"levelo_inurba_marseille","lat":43.27206,"lon":5.39188,"is_reserved":false,"is_disabled":false,"rental_uris":{"android":"levelo://app?vid=96e93e46-73d0-4ab0-9e80-79ba9543105c","ios":"levelo://app?vid=96e93e46-73d0-4ab0-9e80-79ba9543105c"},"vehicle_type_id":"4","last_reported":1731359291,"current_range_meters":3200,"station_id":"ce4bhhp2rcd13ifvqfm0","pricing_plan_id":"cebpf4jnsgd1na2vs0mg"},{"bike_id":"5d1fd268-0718-47d9-be64-35f4cb5d54ea","system_id":"levelo_inurba_marseille","lat":43.3078,"lon":5.37651,"is_reserved":false,"is_disabled":false,"rental_uris":{"android":"levelo://app?vid=5d1fd268-0718-47d9-be64-35f4cb5d54ea","ios":"levelo://app?vid=5d1fd268-0718-47d9-be64-35f4cb5d54ea"},"vehicle_type_id":"4","last_reported":1731359291,"current_range_meters":38800,"station_id":"ce4bgv92rcd13ifvqcq0","pricing_plan_id":"cebpf4jnsgd1na2vs0mg"},{"bike_id":"9adc6d71-e14e-4f44-8449-04052269af02","system_id":"levelo_inurba_marseille","lat":43.29279,"lon":5.40115,"is_reserved":false,"is_disabled":false,"rental_uris":{"android":"levelo://app?vid=9adc6d71-e14e-4f44-8449-04052269af02","ios":"levelo://app?vid=9adc6d71-e14e-4f44-8449-04052269af02"},"vehicle_type_id":"4","last_reported":1731359291,"current_range_meters":30000,"station_id":"ce4bh312rcd13ifvqdk0","pricing_plan_id":"cebpf4jnsgd1na2vs0mg"},{"bike_id":"5cb3547d-5919-49c8-9621-92bb6be20901","system_id":"levelo_inurba_marseille","lat":43.27373,"lon":5.36251,"is_reserved":false,"is_disabled":false,"rental_uris":{"android":"levelo://app?vid=5cb3547d-5919-49c8-9621-92bb6be20901","ios":"levelo://app?vid=5cb3547d-5919-49c8-9621-92bb6be20901"},"vehicle_type_id":"4","last_reported":1731359291,"current_range_meters":38800,"station_id":"ce4bhbh2rcd13ifvqeo0","pricing_plan_id":"cebpf4jnsgd1na2vs0mg"},{"bike_id":"18f9a154-7fff-4c2f-94ea-60aecef5de09","system_id":"levelo_inurba_marseille","lat":43.30411,"lon":5.41279,"is_reserved":false,"is_disabled":false,"rental_uris":{"android":"levelo://app?vid=18f9a154-7fff-4c2f-94ea-60aecef5de09","ios":"levelo://app?vid=18f9a154-7fff-4c2f-94ea-60aecef5de09"},"vehicle_type_id":"4","last_reported":1731359291,"current_range_meters":16800,"station_id":"ce4bhop2rcd13ifvqh8g","pricing_plan_id":"cebpf4jnsgd1na2vs0mg"},{"bike_id":"9fc4ae71-fb45-4cb9-b04d-6391ce3281bb","system_id":"levelo_inurba_marseille","lat":43.28939,"lon":5.39636,"is_reserved":false,"is_disabled":false,"rental_uris":{"android":"levelo://app?vid=9fc4ae71-fb45-4cb9-b04d-6391ce3281bb","ios":"levelo://app?vid=9fc4ae71-fb45-4cb9-b04d-6391ce3281bb"},"vehicle_type_id":"4","last_reported":1731359291,"current_range_meters":2800,"station_id":"ce4bh3h2rcd13ifvqdn0","pricing_plan_id":"cebpf4jnsgd1na2vs0mg"},{"bike_id":"7b46a45f-f980-4e6c-a89a-009a2f90eb8d","system_id":"levelo_inurba_marseille","lat":43.23961,"lon":5.36625,"is_reserved":false,"is_disabled":false,"rental_uris":{"android":"levelo://app?vid=7b46a45f-f980-4e6c-a89a-009a2f90eb8d","ios":"levelo://app?vid=7b46a45f-f980-4e6c-a89a-009a2f90eb8d"},"vehicle_type_id":"4","last_reported":1731359291,"current_range_meters":38800,"station_id":"ce4bhi12rcd13ifvqfp0","pricing_plan_id":"cebpf4jnsgd1na2vs0mg"},{"bike_id":"817d203e-0903-4f85-b55d-9a964ba9eac6","system_id":"levelo_inurba_marseille","lat":43.24391,"lon":5.37061,"is_reserved":false,"is_disabled":false,"rental_uris":{"android":"levelo://app?vid=817d203e-0903-4f85-b55d-9a964ba9eac6","ios":"levelo://app?vid=817d203e-0903-4f85-b55d-9a964ba9eac6"},"vehicle_type_id":"4","last_reported":1731359291,"current_range_meters":38800,"station_id":"ce4bhhh2rcd13ifvqfk0","pricing_plan_id":"cebpf4jnsgd1na2vs0mg"},{"bike_id":"d71bf9c7-784b-4468-b534-89843cce4c71","system_id":"levelo_inurba_marseille","lat":43.31486,"lon":5.37311,"is_reserved":false,"is_disabled":false,"rental_uris":{"android":"levelo://app?vid=d71bf9c7-784b-4468-b534-89843cce4c71","ios":"levelo://app?vid=d71bf9c7-784b-4468-b534-89843cce4c71"},"vehicle_type_id":"4","last_reported":1731359291,"current_range_meters":10800,"station_id":"ce4bgt12rcd13ifvqcd0","pricing_plan_id":"cebpf4jnsgd1na2vs0mg"},{"bike_id":"eb0fdddd-890e-4e0f-a826-ec1cbe061470","system_id":"levelo_inurba_marseille","lat":43.240887,"lon":5.377512,"is_reserved":false,"is_disabled":false,"rental_uris":{"android":"levelo://app?vid=eb0fdddd-890e-4e0f-a826-ec1cbe061470","ios":"levelo://app?vid=eb0fdddd-890e-4e0f-a826-ec1cbe061470"},"vehicle_type_id":"4","last_reported":1731359291,"current_range_meters":38800,"station_id":"ce4bhnp2rcd13ifvqgvg","pricing_plan_id":"cebpf4jnsgd1na2vs0mg"},