{"last_updated":1784696266,"ttl":60,"version":"2.2","data":{"bikes":[{"bike_id":"7ef36254-6bb3-448c-8d77-979d957d54b6","system_id":"levelo_inurba_marseille","lat":43.337444,"lon":5.374475,"is_reserved":false,"is_disabled":false,"rental_uris":{"android":"levelo://app?vid=7ef36254-6bb3-448c-8d77-979d957d54b6","ios":"levelo://app?vid=7ef36254-6bb3-448c-8d77-979d957d54b6"},"vehicle_type_id":"4","last_reported":1784696267,"current_range_meters":0,"station_id":"","pricing_plan_id":"cebpf4jnsgd1na2vs0mg"},{"bike_id":"21fe2e98-0432-4b40-a81f-10dd00b0f57d","system_id":"levelo_inurba_marseille","lat":43.337444,"lon":5.374475,"is_reserved":false,"is_disabled":false,"rental_uris":{"android":"levelo://app?vid=21fe2e98-0432-4b40-a81f-10dd00b0f57d","ios":"levelo://app?vid=21fe2e98-0432-4b40-a81f-10dd00b0f57d"},"vehicle_type_id":"4","last_reported":1784696267,"current_range_meters":0,"station_id":"","pricing_plan_id":"cebpf4jnsgd1na2vs0mg"},{"bike_id":"a005102a-45c6-430f-8cd7-a0a69490bbf0","system_id":"levelo_inurba_marseille","lat":43.33547,"lon":5.37425,"is_reserved":false,"is_disabled":false,"rental_uris":{"android":"levelo://app?vid=a005102a-45c6-430f-8cd7-a0a69490bbf0","ios":"levelo://app?vid=a005102a-45c6-430f-8cd7-a0a69490bbf0"},"vehicle_type_id":"4","last_reported":1784696267,"current_range_meters":36400,"station_id":"st_d46tts09ee8s73dlu43g","pricing_plan_id":"cebpf4jnsgd1na2vs0mg"},{"bike_id":"e35a7b3d-d6be-4e45-8bf8-f140e099eb23","system_id":"levelo_inurba_marseille","lat":43.22934,"lon":5.35371,"is_reserved":false,"is_disabled":false,"rental_uris":{"android":"levelo://app?vid=e35a7b3d-d6be-4e45-8bf8-f140e099eb23","ios":"levelo://app?vid=e35a7b3d-d6be-4e45-8bf8-f140e099eb23"},"vehicle_type_id":"4","last_reported":1784696267,"current_range_meters":6800,"station_id":"cpo3532slgdg3j2ikp40","pricing_plan_id":"cebpf4jnsgd1na2vs0mg"},{"bike_id":"8bdb45e1-50bd-44c5-a340-bf59c0f43690","system_id":"levelo_inurba_marseille","lat":43.28938,"lon":5.36643,"is_reserved":false,"is_disabled":false,"rental_uris":{"android":"levelo://app?vid=8bdb45e1-50bd-44c5-a340-bf59c0f43690","ios":"levelo://app?vid=8bdb45e1-50bd-44c5-a340-bf59c0f43690"},"vehicle_type_id":"4","last_reported":1784696267,"current_range_meters":2800,"station_id":"ce4bhap2rcd13ifvqek0","pricing_plan_id":"cebpf4jnsgd1na2vs0mg"},{"bike_id":"910edd9b-3f88-46ff-af53-0deba1c167b6","system_id":"levelo_inurba_marseille","lat":43.23959,"lon":5.36623,"is_reserved":false,"is_disabled":false,"rental_uris":{"android":"levelo://app?vid=910edd9b-3f88-46ff-af53-0deba1c167b6","ios":"levelo://app?vid=910edd9b-3f88-46ff-af53-0deba1c167b6"},"vehicle_type_id":"4","last_reported":1784696267,"current_range_meters":39200,"station_id":"ce4bhi12rcd13ifvqfp0","pricing_plan_id":"cebpf4jnsgd1na2vs0mg"},{"bike_id":"774c5361-82c0-40a3-baa3-48ddfed60603","system_id":"levelo_inurba_marseille","lat":43.28231,"lon":5.39042,"is_reserved":false,"is_disabled":false,"rental_uris":{"android":"levelo://app?vid=774c5361-82c0-40a3-baa3-48ddfed60603","ios":"levelo://app?vid=774c5361-82c0-40a3-baa3-48ddfed60603"},"vehicle_type_id":"4","last_reported":1784696267,"current_range_meters":10000,"station_id":"ce4bhn92rcd13ifvqgsg","pricing_plan_id":"cebpf4jnsgd1na2vs0mg"},{"bike_id":"84fd1e5f-0e84-452f-8287-fadf961609c9","system_id":"levelo_inurba_marseille","lat":43.28687,"lon":5.38653,"is_reserved":false,"is_disabled":false,"rental_uris":{"android":"levelo://app?vid=84fd1e5f-0e84-452f-8287-fadf961609c9","ios":"levelo://app?vid=84fd1e5f-0e84-452f-8287-fadf961609c9"},"vehicle_type_id":"4","last_reported":1784696267,"current_range_meters":39200,"station_id":"ce4bh492rcd13ifvqdug","pricing_plan_id":"cebpf4jnsgd1na2vs0mg"},{"bike_id":"f2c26268-2002-48c9-a2f8-8f76ed8a8540","system_id":"levelo_inurba_marseille","lat":43.23904,"lon":5.37455,"is_reserved":false,"is_disabled":false,"rental_uris":{"android":"levelo://app?vid=f2c26268-2002-48c9-a2f8-8f76ed8a8540","ios":"levelo://app?vid=f2c26268-2002-48c9-a2f8-8f76ed8a8540"},"vehicle_type_id":"4","last_reported":1784696267,"current_range_meters":39200,"station_id":"st_d6sm7csbq4hs73f8fpjg","pricing_plan_id":"cebpf4jnsgd1na2vs0mg"},{"bike_id":"de30ddd4-669b-4767-a1ab-c402c79ef9a5","system_id":"levelo_inurba_marseille","lat":43.28709,"lon":5.37368,"is_reserved":false,"is_disabled":false,"rental_uris":{"android":"levelo://app?vid=de30ddd4-669b-4767-a1ab-c402c79ef9a5","ios":"levelo://app?vid=de30ddd4-669b-4767-a1ab-c402c79ef9a5"},"vehicle_type_id":"4","last_reported":1784696267,"current_range_meters":4000,"station_id":"ce4bh3p2rcd13ifvqdq0","pricing_plan_id":"cebpf4jnsgd1na2vs0mg"},{"bike_id":"72706276-fb69-4388-946e-2b4fb06a5929","system_id":"levelo_inurba_marseille","lat":43.32975,"lon":5.38992,"is_reserved":false,"is_disabled":false,"rental_uris":{"android":"levelo://app?vid=72706276-fb69-4388-946e-2b4fb06a5929","ios":"levelo://app?vid=72706276-fb69-4388-946e-2b4fb06a5929"},"vehicle_type_id":"4","last_reported":1784696267,"current_range_meters":8000,"station_id":"","pricing_plan_id":"cebpf4jnsgd1na2vs0mg"},{"bike_id":"5425626e-bbf4-473d-a788-d363267d54bf","system_id":"levelo_inurba_marseille","lat":43.30947,"lon":5.40152,"is_reserved":false,"is_disabled":false,"rental_uris":{"android":"levelo://app?vid=5425626e-bbf4-473d-a788-d363267d54bf","ios":"levelo://app?vid=5425626e-bbf4-473d-a788-d363267d54bf"},"vehicle_type_id":"4","last_reported":1784696267,"current_range_meters":10000,"station_id":"ce4bgvp2rcd13ifvqct0","pricing_plan_id":"cebpf4jnsgd1na2vs0mg"},{"bike_id":"10ad0a9f-3c3b-45c2-8514-d34f29e37fe1","system_id":"levelo_inurba_marseille","lat":43.2438,"lon":5.37069,"is_reserved":false,"is_disabled":false,"rental_uris":{"android":"levelo://app?vid=10ad0a9f-3c3b-45c2-8514-d34f29e37fe1","ios":"levelo://app?vid=10ad0a9f-3c3b-45c2-8514-d34f29e37fe1"},"vehicle_type_id":"4","last_reported":1784696267,"current_range_meters":36400,"station_id":"ce4bhhh2rcd13ifvqfk0","pricing_plan_id":"cebpf4jnsgd1na2vs0mg"},{"bike_id":"7219b5d1-4410-4fc8-9519-1ca61e3e373b","system_id":"levelo_inurba_marseille","lat":43.27077,"lon":5.42281,"is_reserved":false,"is_disabled":false,"rental_uris":{"android":"levelo://app?vid=7219b5d1-4410-4fc8-9519-1ca61e3e373b","ios":"levelo://app?vid=7219b5d1-4410-4fc8-9519-1ca61e3e373b"},"vehicle_type_id":"4","last_reported":1784696267,"current_range_meters":19600,"station_id":"ce4bhk92rcd13ifvqgb0","pricing_plan_id":"cebpf4jnsgd1na2vs0mg"},{"bike_id":"0284c86c-8235-49d3-bf11-7624c297d043","system_id":"levelo_inurba_marseille","lat":43.30654,"lon":5.40101,"is_reserved":false,"is_disabled":false,"rental_uris":{"android":"levelo://app?vid=0284c86c-8235-49d3-bf11-7624c297d043","ios":"levelo://app?vid=0284c86c-8235-49d3-bf11-7624c297d043"},"vehicle_type_id":"4","last_reported":1784696267,"current_range_meters":36400,"station_id":"ce4bh112rcd13ifvqda0","pricing_plan_id":"cebpf4jnsgd1na2vs0mg"},{"bike_id":"10131cb1-86ea-4cb7-af98-95094fdd93f6","system_id":"levelo_inurba_marseille","lat":43.31771,"lon":5.39023,"is_reserved":false,"is_disabled":false,"rental_uris":{"android":"levelo://app?vid=10131cb1-86ea-4cb7-af98-95094fdd93f6","ios":"levelo://app?vid=10131cb1-86ea-4cb7-af98-95094fdd93f6"},"vehicle_type_id":"4","last_reported":1784696267,"current_range_meters":8400,"station_id":"ce4bhqp2rcd13ifvqhng","pricing_plan_id":"cebpf4jnsgd1na2vs0mg"},{"bike_id":"5c8f6e1f-e743-4f7d-8d16-88823ff3d472","system_id":"levelo_inurba_marseille","lat":43.29798,"lon":5.3986,"is_reserved":false,"is_disabled":false,"rental_uris":{"android":"levelo://app?vid=5c8f6e1f-e743-4f7d-8d16-88823ff3d472","ios":"levelo://app?vid=5c8f6e1f-e743-4f7d-8d16-88823ff3d472"},"vehicle_type_id":"4","last_reported":1784696267,"current_range_meters":33600,"station_id":"","pricing_plan_id":"cebpf4jnsgd1na2vs0mg"},{"bike_id":"e66234c1-ff79-46db-860f-1f5397bc0405","system_id":"levelo_inurba_marseille","lat":43.28204,"lon":5.39031,"is_reserved":false,"is_disabled":true,"rental_uris":{"android":"levelo://app?vid=e66234c1-ff79-46db-860f-1f5397bc0405","ios":"levelo://app?vid=e66234c1-ff79-46db-860f-1f5397bc0405"},"vehicle_type_id":"4","last_reported":1784696267,"current_range_meters":16400,"station_id":"","pricing_plan_id":"cebpf4jnsgd1na2vs0mg"},{"bike_id":"38b93f4d-bf0c-44c1-8684-7afece171047","system_id":"levelo_inurba_marseille","lat":43.2868,"lon":5.38673,"is_reserved":false,"is_disabled":false,"rental_uris":{"android":"levelo://app?vid=38b93f4d-bf0c-44c1-8684-7afece171047","ios":"levelo://app?vid=38b93f4d-bf0c-44c1-8684-7afece171047"},"vehicle_type_id":"4","last_reported":1784696267,"current_range_meters":18800,"station_id":"ce4bh492rcd13ifvqdug","pricing_plan_id":"cebpf4jnsgd1na2vs0mg"},{"bike_id":"015b9273-e832-42d9-8755-8ac5f3bb3091","system_id":"levelo_inurba_marseille","lat":43.28077,"lon":5.39641,"is_reserved":false,"is_disabled":false,"rental_uris":{"android":"levelo://app?vid=015b9273-e832-42d9-8755-8ac5f3bb3091","ios":"levelo://app?vid=015b9273-e832-42d9-8755-8ac5f3bb3091"},"vehicle_type_id":"4","last_reported":1784696267,"current_range_meters":38000,"station_id":"ce4bho12rcd13ifvqh2g","pricing_plan_id":"cebpf4jnsgd1na2vs0mg"},{"bike_id":"892dcbf8-a7ac-4963-860c-462336d075c0","system_id":"levelo_inurba_marseille","lat":43.30793,"lon":5.38171,"is_reserved":false,"is_disabled":false,"rental_uris":{"android":"levelo://app?vid=892dcbf8-a7ac-4963-860c-462336d075c0","ios":"levelo://app?vid=892dcbf8-a7ac-4963-860c-462336d075c0"},"vehicle_type_id":"4","last_reported":1784696267,"current_range_meters":14400,"station_id":"ce4bgt12rcd13ifvqce0","pricing_plan_id":"cebpf4jnsgd1na2vs0mg"},{"bike_id":"bf720be3-207c-41aa-bdb2-2d086f76cbcd","system_id":"levelo_inurba_marseille","lat":43.26581,"lon":5.40323,"is_reserved":false,"is_disabled":false,"rental_uris":{"android":"levelo://app?vid=bf720be3-207c-41aa-bdb2-2d086f76cbcd","ios":"levelo://app?vid=bf720be3-207c-41aa-bdb2-2d086f76cbcd"},"vehicle_type_id":"4","last_reported":1784696267,"current_range_meters":8000,"station_id":"ce4bhmp2rcd13ifvqgng","pricing_plan_id":"cebpf4jnsgd1na2vs0mg"},{"bike_id":"7b893c3a-f50d-4ab1-b4e5-684f550fde57","system_id":"levelo_inurba_marseille","lat":43.31489,"lon":5.37222,"is_reserved":false,"is_disabled":true,"rental_uris":{"android":"levelo://app?vid=7b893c3a-f50d-4ab1-b4e5-684f550fde57","ios":"levelo://app?vid=7b893c3a-f50d-4ab1-b4e5-684f550fde57"},"vehicle_type_id":"4","last_reported":1784696267,"current_range_meters":8800,"station_id":"","pricing_plan_id":"cebpf4jnsgd1na2vs0mg"},{"bike_id":"ab8a65ab-f349-4721-aff7-91727ed23f79","system_id":"levelo_inurba_marseille","lat":43.25091,"lon":5.3947,"is_reserved":false,"is_disabled":false,"rental_uris":{"android":"levelo://app?vid=ab8a65ab-f349-4721-aff7-91727ed23f79","ios":"levelo://app?vid=ab8a65ab-f349-4721-aff7-91727ed23f79"},"vehicle_type_id":"4","last_reported":1784696267,"current_range_meters":31200,"station_id":"ce4bhm12rcd13ifvqgkg","pricing_plan_id":"cebpf4jnsgd1na2vs0mg"},{"bike_id":"ea98d5f2-d6f3-4d2c-840b-7b263834dc99","system_id":"levelo_inurba_marseille","lat":43.29786,"lon":5.39356,"is_reserved":false,"is_disabled":false,"rental_uris":{"android":"levelo://app?vid=ea98d5f2-d6f3-4d2c-840b-7b263834dc99","ios":"levelo://app?vid=ea98d5f2-d6f3-4d2c-840b-7b263834dc99"},"vehicle_type_id":"4","last_reported":1784696267,"current_range_meters":39200,"station_id":"chh1huq6cuj3fo74tm60","pricing_plan_id":"cebpf4jnsgd1na2vs0mg"},{"bike_id":"256189b6-7292-4343-872c-b8b089a5e220","system_id":"levelo_inurba_marseille","lat":43.22951,"lon":5.35383,"is_reserved":false,"is_disabled":false,"rental_uris":{"android":"levelo://app?vid=256189b6-7292-4343-872c-b8b089a5e220","ios":"levelo://app?vid=256189b6-7292-4343-872c-b8b089a5e220"},"vehicle_type_id":"4","last_reported":1784696267,"current_range_meters":16800,"station_id":"cpo3532slgdg3j2ikp40","pricing_plan_id":"cebpf4jnsgd1na2vs0mg"},{"bike_id":"f9c65922-483e-4914-92f4-f7524b9a110d","system_id":"levelo_inurba_marseille","lat":43.32354,"lon":5.36757,"is_reserved":false,"is_disabled":false,"rental_uris":{"android":"levelo://app?vid=f9c65922-483e-4914-92f4-f7524b9a110d","ios":"levelo://app?vid=f9c65922-483e-4914-92f4-f7524b9a110d"},"vehicle_type_id":"4","last_reported":1784696267,"current_range_meters":4800,"station_id":"ce4bhsh2rcd13ifvqi2g","pricing_plan_id":"cebpf4jnsgd1na2vs0mg"},{"bike_id":"42848b34-2f4f-42a7-a4fa-b3d5e6cce1f6","system_id":"levelo_inurba_marseille","lat":43.31369,"lon":5.38509,"is_reserved":false,"is_disabled":false,"rental_uris":{"android":"levelo://app?vid=42848b34-2f4f-42a7-a4fa-b3d5e6cce1f6","ios":"levelo://app?vid=42848b34-2f4f-42a7-a4fa-b3d5e6cce1f6"},"vehicle_type_id":"4","last_reported":1784696267,"current_range_meters":39200,"station_id":"ce4bgt92rcd13ifvqcf0","pricing_plan_id":"cebpf4jnsgd1na2vs0mg"},{"bike_id":"43db5314-f299-442d-a647-3276349edc71","system_id":"levelo_inurba_marseille","lat":43.24811,"lon":5.37453,"is_reserved":false,"is_disabled":true,"rental_uris":{"android":"levelo://app?vid=43db5314-f299-442d-a647-3276349edc71","ios":"levelo://app?vid=43db5314-f299-442d-a647-3276349edc71"},"vehicle_type_id":"4","last_reported":1784696267,"current_range_meters":36000,"station_id":"ce4bhgh2rcd13ifvqfb0","pricing_plan_id":"cebpf4jnsgd1na2vs0mg"},{"bike_id":"1f882a08-a77a-4d8e-8feb-039f677c4217","system_id":"levelo_inurba_marseille","lat":43.27028,"lon":5.38186,"is_reserved":false,"is_disabled":false,"rental_uris":{"android":"levelo://app?vid=1f882a08-a77a-4d8e-8feb-039f677c4217","ios":"levelo://app?vid=1f882a08-a77a-4d8e-8feb-039f677c4217"},"vehicle_type_id":"4","last_reported":1784696267,"current_range_meters":36000,"station_id":"","pricing_plan_id":"cebpf4jnsgd1na2vs0mg"},{"bike_id":"461ea000-a911-470d-8619-abed1dc2ad67","system_id":"levelo_inurba_marseille","lat":43.28857,"lon":5.39313,"is_reserved":false,"is_disabled":false,"rental_uris":{"android":"levelo://app?vid=461ea000-a911-470d-8619-abed1dc2ad67","ios":"levelo://app?vid=461ea000-a911-470d-8619-abed1dc2ad67"},"vehicle_type_id":"4","last_reported":1784696267,"current_range_meters":36800,"station_id":"ce4bh2p2rcd13ifvqdi0","pricing_plan_id":"cebpf4jnsgd1na2vs0mg"},{"bike_id":"7764970a-34ed-47ec-8822-620f6c0f8a78","system_id":"levelo_inurba_marseille","lat":43.24946,"lon":5.39052,"is_reserved":false,"is_disabled":true,"rental_uris":{"android":"levelo://app?vid=7764970a-34ed-47ec-8822-620f6c0f8a78","ios":"levelo://app?vid=7764970a-34ed-47ec-8822-620f6c0f8a78"},"vehicle_type_id":"4","last_reported":1784696267,"current_range_meters":0,"station_id":"","pricing_plan_id":"cebpf4jnsgd1na2vs0mg"},{"bike_id":"a5232f97-8855-4c77-9a88-2c64ecb261ad","system_id":"levelo_inurba_marseille","lat":43.28853,"lon":5.39346,"is_reserved":false,"is_disabled":false,"rental_uris":{"android":"levelo://app?vid=a5232f97-8855-4c77-9a88-2c64ecb261ad","ios":"levelo://app?vid=a5232f97-8855-4c77-9a88-2c64ecb261ad"},"vehicle_type_id":"4","last_reported":1784696267,"current_range_meters":38800,"station_id":"ce4bh2p2rcd13ifvqdi0","pricing_plan_id":"cebpf4jnsgd1na2vs0mg"},{"bike_id":"a338cea5-f797-4d31-b718-3121663ee29c","system_id":"levelo_inurba_marseille","lat":43.30407,"lon":5.37884,"is_reserved":false,"is_disabled":false,"rental_uris":{"android":"levelo://app?vid=a338cea5-f797-4d31-b718-3121663ee29c","ios":"levelo://app?vid=a338cea5-f797-4d31-b718-3121663ee29c"},"vehicle_type_id":"4","last_reported":1784696267,"current_range_meters":36000,"station_id":"","pricing_plan_id":"cebpf4jnsgd1na2vs0mg"},{"bike_id":"d0bee20d-188e-402f-b971-1eb28a8b9e42","system_id":"levelo_inurba_marseille","lat":43.29248,"lon":5.36846,"is_reserved":false,"is_disabled":false,"rental_uris":{"android":"levelo://app?vid=d0bee20d-188e-402f-b971-1eb28a8b9e42","ios":"levelo://app?vid=d0bee20d-188e-402f-b971-1eb28a8b9e42"},"vehicle_type_id":"4","last_reported":1784696267,"current_range_meters":39200,"station_id":"","pricing_plan_id":"cebpf4jnsgd1na2vs0mg"},{"bike_id":"73f78810-60f1-4830-a426-4f377199f43e","system_id":"levelo_inurba_marseille","lat":43.29789,"lon":5.37103,"is_reserved":false,"is_disabled":false,"rental_uris":{"android":"levelo://app?vid=73f78810-60f1-4830-a426-4f377199f43e","ios":"levelo://app?vid=73f78810-60f1-4830-a426-4f377199f43e"},"vehicle_type_id":"4","last_reported":1784696267,"current_range_meters":38800,"station_id":"ce4bgop2rcd13ifvqc1g","pricing_plan_id":"cebpf4jnsgd1na2vs0mg"},{"bike_id":"6dad81b3-3605-4a08-8f34-730d0e6dc0d2","system_id":"levelo_inurba_marseille","lat":43.27906,"lon":5.37983,"is_reserved":false,"is_disabled":false,"rental_uris":{"android":"levelo://app?vid=6dad81b3-3605-4a08-8f34-730d0e6dc0d2","ios":"levelo://app?vid=6dad81b3-3605-4a08-8f34-730d0e6dc0d2"},"vehicle_type_id":"4","last_reported":1784696267,"current_range_meters":38800,"station_id":"ce4bhf92rcd13ifvqf50","pricing_plan_id":"cebpf4jnsgd1na2vs0mg"},{"bike_id":"a7c9489a-3c37-4218-bc38-92c335aa3a8a","system_id":"levelo_inurba_marseille","lat":43.28487,"lon":5.48395,"is_reserved":false,"is_disabled":false,"rental_uris":{"android":"levelo://app?vid=a7c9489a-3c37-4218-bc38-92c335aa3a8a","ios":"levelo://app?vid=a7c9489a-3c37-4218-bc38-92c335aa3a8a"},"vehicle_type_id":"4","last_reported":1784696267,"current_range_meters":6800,"station_id":"st_d3svhcjqgbts73a3dn0g","pricing_plan_id":"cebpf4jnsgd1na2vs0mg"},{"bike_id":"3ec0487d-f740-4a30-922a-3a3602404ac7","system_id":"levelo_inurba_marseille","lat":43.25117,"lon":5.40326,"is_reserved":false,"is_disabled":false,"rental_uris":{"android":"levelo://app?vid=3ec0487d-f740-4a30-922a-3a3602404ac7","ios":"levelo://app?vid=3ec0487d-f740-4a30-922a-3a3602404ac7"},"vehicle_type_id":"4","last_reported":1784696267,"current_range_meters":39200,"station_id":"ce4bhlh2rcd13ifvqgig","pricing_plan_id":"cebpf4jnsgd1na2vs0mg"},{"bike_id":"540d5bf4-fcca-4219-b4c4-9a4661ff8288","system_id":"levelo_inurba_marseille","lat":43.29035,"lon":5.39957,"is_reserved":false,"is_disabled":true,"rental_uris":{"android":"levelo://app?vid=540d5bf4-fcca-4219-b4c4-9a4661ff8288","ios":"levelo://app?vid=540d5bf4-fcca-4219-b4c4-9a4661ff8288"},"vehicle_type_id":"4","last_reported":1784696267,"current_range_meters":32800,"station_id":"ce4bh392rcd13ifvqdm0","pricing_plan_id":"cebpf4jnsgd1na2vs0mg"},{"bike_id":"8547651e-6fbe-4f90-8b2b-f55626617c39","system_id":"levelo_inurba_marseille","lat":43.29193,"lon":5.39337,"is_reserved":false,"is_disabled":false,"rental_uris":{"android":"levelo://app?vid=8547651e-6fbe-4f90-8b2b-f55626617c39","ios":"levelo://app?vid=8547651e-6fbe-4f90-8b2b-f55626617c39"},"vehicle_type_id":"4","last_reported":1784696267,"current_range_meters":30000,"station_id":"ce4bh192rcd13ifvqdd0","pricing_plan_id":"cebpf4jnsgd1na2vs0mg"},{"bike_id":"4bf39877-69af-405c-a1ef-7618954a28ba","system_id":"levelo_inurba_marseille","lat":43.24842,"lon":5.37457,"is_reserved":false,"is_disabled":false,"rental_uris":{"android":"levelo://app?vid=4bf39877-69af-405c-a1ef-7618954a28ba","ios":"levelo://app?vid=4bf39877-69af-405c-a1ef-7618954a28ba"},"vehicle_type_id":"4","last_reported":1784696267,"current_range_meters":32000,"station_id":"","pricing_plan_id":"cebpf4jnsgd1na2vs0mg"},{"bike_id":"5782b3c5-fcfa-428f-a446-7f92a4d382c6","system_id":"levelo_inurba_marseille","lat":43.29707,"lon":5.36615,"is_reserved":false,"is_disabled":true,"rental_uris":{"android":"levelo://app?vid=5782b3c5-fcfa-428f-a446-7f92a4d382c6","ios":"levelo://app?vid=5782b3c5-fcfa-428f-a446-7f92a4d382c6"},"vehicle_type_id":"4","last_reported":1784696267,"current_range_meters":36400,"station_id":"ce4bgn12rcd13ifvqbt0","pricing_plan_id":"cebpf4jnsgd1na2vs0mg"},{"bike_id":"e89ec40d-5c89-4ac6-a00d-a8b159439ed1","system_id":"levelo_inurba_marseille","lat":43.29874,"lon":5.38602,"is_reserved":false,"is_disabled":false,"rental_uris":{"android":"levelo://app?vid=e89ec40d-5c89-4ac6-a00d-a8b159439ed1","ios":"levelo://app?vid=e89ec40d-5c89-4ac6-a00d-a8b159439ed1"},"vehicle_type_id":"4","last_reported":1784696267,"current_range_meters":24000,"station_id":"","pricing_plan_id":"cebpf4jnsgd1na2vs0mg"},{"bike_id":"5aa3ca14-34f8-4cf6-bf98-84664ad40ed9","system_id":"levelo_inurba_marseille","lat":43.32357,"lon":5.3887,"is_reserved":false,"is_disabled":false,"rental_uris":{"android":"levelo://app?vid=5aa3ca14-34f8-4cf6-bf98-84664ad40ed9","ios":"levelo://app?vid=5aa3ca14-34f8-4cf6-bf98-84664ad40ed9"},"vehicle_type_id":"4","last_reported":1784696267,"current_range_meters":37600,"station_id":"ce4bhqp2rcd13ifvqhog","pricing_plan_id":"cebpf4jnsgd1na2vs0mg"},{"bike_id":"d2861908-1fc6-40df-93af-8c183c3dbd31","system_id":"levelo_inurba_marseille","lat":43.29808,"lon":5.39345,"is_reserved":false,"is_disabled":false,"rental_uris":{"android":"levelo://app?vid=d2861908-1fc6-40df-93af-8c183c3dbd31","ios":"levelo://app?vid=d2861908-1fc6-40df-93af-8c183c3dbd31"},"vehicle_type_id":"4","last_reported":1784696267,"current_range_meters":39200,"station_id":"chh1huq6cuj3fo74tm60","pricing_plan_id":"cebpf4jnsgd1na2vs0mg"},{"bike_id":"a4e34098-8c0f-4326-9772-a08c7f6b76fa","system_id":"levelo_inurba_marseille","lat":43.27065,"lon":5.42282,"is_reserved":false,"is_disabled":true,"rental_uris":{"android":"levelo://app?vid=a4e34098-8c0f-4326-9772-a08c7f6b76fa","ios":"levelo://app?vid=a4e34098-8c0f-4326-9772-a08c7f6b76fa"},"vehicle_type_id":"4","last_reported":1784696267,"current_range_meters":1200,"station_id":"ce4bhk92rcd13ifvqgb0","pricing_plan_id":"cebpf4jnsgd1na2vs0mg"},{"bike_id":"8b48f329-937d-4f33-bc8e-cc3992c67190","system_id":"levelo_inurba_marseille","lat":43.29613,"lon":5.3714,"is_reserved":false,"is_disabled":true,"rental_uris":{"android":"levelo://app?vid=8b48f329-937d-4f33-bc8e-cc3992c67190","ios":"levelo://app?vid=8b48f329-937d-4f33-bc8e-cc3992c67190"},"vehicle_type_id":"4","last_reported":1784696267,"current_range_meters":36800,"station_id":"","pricing_plan_id":"cebpf4jnsgd1na2vs0mg"},{"bike_id":"d216a67f-f63a-4f91-9e9b-2b369f571890","system_id":"levelo_inurba_marseille","lat":43.30412,"lon":5.41284,"is_reserved":false,"is_disabled":false,"rental_uris":{"android":"levelo://app?vid=d216a67f-f63a-4f91-9e9b-2b369f571890","ios":"levelo://app?vid=d216a67f-f63a-4f91-9e9b-2b369f571890"},"vehicle_type_id":"4","last_reported":1784696267,"current_range_meters":20400,"station_id":"ce4bhop2rcd13ifvqh8g","pricing_plan_id":"cebpf4jnsgd1na2vs0mg"},{"bike_id":"996845f5-fb75-4eb8-b8ef-2869f07a5fe2","system_id":"levelo_inurba_marseille","lat":43.27197,"lon":5.40991,"is_reserved":false,"is_disabled":false,"rental_uris":{"android":"levelo://app?vid=996845f5-fb75-4eb8-b8ef-2869f07a5fe2","ios":"levelo://app?vid=996845f5-fb75-4eb8-b8ef-2869f07a5fe2"},"vehicle_type_id":"4","last_reported":1784696267,"current_range_meters":22800,"station_id":"ce4bhl12rcd13ifvqgf0","pricing_plan_id":"cebpf4jnsgd1na2vs0mg"},{"bike_id":"d5f15b89-300c-48ce-868a-694a93770e8e","system_id":"levelo_inurba_marseille","lat":43.24073,"lon":5.37725,"is_reserved":false,"is_disabled":false,"rental_uris":{"android":"levelo://app?vid=d5f15b89-300c-48ce-868a-694a93770e8e","ios":"levelo://app?vid=d5f15b89-300c-48ce-868a-694a93770e8e"},"vehicle_type_id":"4","last_reported":1784696267,"current_range_meters":16400,"station_id":"ce4bhnp2rcd13ifvqgvg","pricing_plan_id":"cebpf4jnsgd1na2vs0mg"},{"bike_id":"461dd58c-91fc-4ddd-a3a9-5c8385d7286e","system_id":"levelo_inurba_marseille","lat":43.2847,"lon":5.38454,"is_reserved":false,"is_disabled":true,"rental_uris":{"android":"levelo://app?vid=461dd58c-91fc-4ddd-a3a9-5c8385d7286e","ios":"levelo://app?vid=461dd58c-91fc-4ddd-a3a9-5c8385d7286e"},"vehicle_type_id":"4","last_reported":1784696267,"current_range_meters":23200,"station_id":"ce4bh512rcd13ifvqe3g","pricing_plan_id":"cebpf4jnsgd1na2vs0mg"},{"bike_id":"f36636d4-f4ff-4855-9336-0a309e94964e","system_id":"levelo_inurba_marseille","lat":43.27065,"lon":5.40258,"is_reserved":false,"is_disabled":false,"rental_uris":{"android":"levelo://app?vid=f36636d4-f4ff-4855-9336-0a309e94964e","ios":"levelo://app?vid=f36636d4-f4ff-4855-9336-0a309e94964e"},"vehicle_type_id":"4","last_reported":1784696267,"current_range_meters":40000,"station_id":"ce4bhk92rcd13ifvqgc0","pricing_plan_id":"cebpf4jnsgd1na2vs0mg"},{"bike_id":"06195112-6882-4fb6-b232-8620d1008b12","system_id":"levelo_inurba_marseille","lat":43.29319,"lon":5.3674,"is_reserved":false,"is_disabled":false,"rental_uris":{"android":"levelo://app?vid=06195112-6882-4fb6-b232-8620d1008b12","ios":"levelo://app?vid=06195112-6882-4fb6-b232-8620d1008b12"},"vehicle_type_id":"4","last_reported":1784696267,"current_range_meters":39200,"station_id":"","pricing_plan_id":"cebpf4jnsgd1na2vs0mg"},{"bike_id":"8b7d62fa-ed21-4972-93c6-2de1c4ec38ec","system_id":"levelo_inurba_marseille","lat":43.28864,"lon":5.39307,"is_reserved":false,"is_disabled":false,"rental_uris":{"android":"levelo://app?vid=8b7d62fa-ed21-4972-93c6-2de1c4ec38ec","ios":"levelo://app?vid=8b7d62fa-ed21-4972-93c6-2de1c4ec38ec"},"vehicle_type_id":"4","last_reported":1784696267,"current_range_meters":39200,"station_id":"ce4bh2p2rcd13ifvqdi0","pricing_plan_id":"cebpf4jnsgd1na2vs0mg"},{"bike_id":"aa0c2d9b-f4e0-477a-9fa2-18fd1e9e7acb","system_id":"levelo_inurba_marseille","lat":43.28696,"lon":5.46693,"is_reserved":false,"is_disabled":false,"rental_uris":{"android":"levelo://app?vid=aa0c2d9b-f4e0-477a-9fa2-18fd1e9e7acb","ios":"levelo://app?vid=aa0c2d9b-f4e0-477a-9fa2-18fd1e9e7acb"},"vehicle_type_id":"4","last_reported":1784696267,"current_range_meters":29600,"station_id":"st_d6tc3vkotcvc738tfjhg","pricing_plan_id":"cebpf4jnsgd1na2vs0mg"},{"bike_id":"dd11e6d7-94bf-4bbb-9428-5a8022e3e496","system_id":"levelo_inurba_marseille","lat":43.30234,"lon":5.39962,"is_reserved":false,"is_disabled":false,"rental_uris":{"android":"levelo://app?vid=dd11e6d7-94bf-4bbb-9428-5a8022e3e496","ios":"levelo://app?vid=dd11e6d7-94bf-4bbb-9428-5a8022e3e496"},"vehicle_type_id":"4","last_reported":1784696267,"current_range_meters":28000,"station_id":"","pricing_plan_id":"cebpf4jnsgd1na2vs0mg"},{"bike_id":"b97f1724-4f09-4f82-a8dd-d9c661ad559e","system_id":"levelo_inurba_marseille","lat":43.30882,"lon":5.37203,"is_reserved":false,"is_disabled":true,"rental_uris":{"android":"levelo://app?vid=b97f1724-4f09-4f82-a8dd-d9c661ad559e","ios":"levelo://app?vid=b97f1724-4f09-4f82-a8dd-d9c661ad559e"},"vehicle_type_id":"4","last_reported":1784696267,"current_range_meters":4000,"station_id":"ce4bguh2rcd13ifvqckg","pricing_plan_id":"cebpf4jnsgd1na2vs0mg"},{"bike_id":"7b1a34a9-9772-429a-ac81-dbcf3805788e","system_id":"levelo_inurba_marseille","lat":43.27867,"lon":5.35518,"is_reserved":false,"is_disabled":false,"rental_uris":{"android":"levelo://app?vid=7b1a34a9-9772-429a-ac81-dbcf3805788e","ios":"levelo://app?vid=7b1a34a9-9772-429a-ac81-dbcf3805788e"},"vehicle_type_id":"4","last_reported":1784696267,"current_range_meters":18800,"station_id":"","pricing_plan_id":"cebpf4jnsgd1na2vs0mg"},{"bike_id":"8934d4b1-9b85-494e-952c-953526b1a105","system_id":"levelo_inurba_marseille","lat":43.28716,"lon":5.3998,"is_reserved":false,"is_disabled":false,"rental_uris":{"android":"levelo://app?vid=8934d4b1-9b85-494e-952c-953526b1a105","ios":"levelo://app?vid=8934d4b1-9b85-494e-952c-953526b1a105"},"vehicle_type_id":"4","last_reported":1784696267,"current_range_meters":38000,"station_id":"ce4bho92rcd13ifvqh3g","pricing_plan_id":"cebpf4jnsgd1na2vs0mg"},{"bike_id":"a62e17e3-826c-4894-bc98-1e8b0f8e448f","system_id":"levelo_inurba_marseille","lat":43.29208,"lon":5.39349,"is_reserved":false,"is_disabled":false,"rental_uris":{"android":"levelo://app?vid=a62e17e3-826c-4894-bc98-1e8b0f8e448f","ios":"levelo://app?vid=a62e17e3-826c-4894-bc98-1e8b0f8e448f"},"vehicle_type_id":"4","last_reported":1784696267,"current_range_meters":33200,"station_id":"ce4bh192rcd13ifvqdd0","pricing_plan_id":"cebpf4jnsgd1na2vs0mg"},{"bike_id":"c0a5de25-f56f-447d-872e-a54ff5f6bd06","system_id":"levelo_inurba_marseille","lat":43.28032,"lon":5.36959,"is_reserved":false,"is_disabled":false,"rental_uris":{"android":"levelo://app?vid=c0a5de25-f56f-447d-872e-a54ff5f6bd06","ios":"levelo://app?vid=c0a5de25-f56f-447d-872e-a54ff5f6bd06"},"vehicle_type_id":"4","last_reported":1784696267,"current_range_meters":39200,"station_id":"ce4bha12rcd13ifvqef0","pricing_plan_id":"cebpf4jnsgd1na2vs0mg"},{"bike_id":"b3615f38-9ae4-47b3-be0f-27da959fb130","system_id":"levelo_inurba_marseille","lat":43.26522,"lon":5.3968,"is_reserved":false,"is_disabled":false,"rental_uris":{"android":"levelo://app?vid=b3615f38-9ae4-47b3-be0f-27da959fb130","ios":"levelo://app?vid=b3615f38-9ae4-47b3-be0f-27da959fb130"},"vehicle_type_id":"4","last_reported":1784696267,"current_range_meters":16400,"station_id":"","pricing_plan_id":"cebpf4jnsgd1na2vs0mg"},{"bike_id":"2e89ad6f-ff0f-4f55-a9b1-95acee219c1b","system_id":"levelo_inurba_marseille","lat":43.33756,"lon":5.37458,"is_reserved":false,"is_disabled":false,"rental_uris":{"android":"levelo://app?vid=2e89ad6f-ff0f-4f55-a9b1-95acee219c1b","ios":"levelo://app?vid=2e89ad6f-ff0f-4f55-a9b1-95acee219c1b"},"vehicle_type_id":"4","last_reported":1784696267,"current_range_meters":24000,"station_id":"","pricing_plan_id":"cebpf4jnsgd1na2vs0mg"},{"bike_id":"143b0326-bcc2-41fe-ac94-ce3903ac509a","system_id":"levelo_inurba_marseille","lat":43.30836,"lon":5.40413,"is_reserved":false,"is_disabled":false,"rental_uris":{"android":"levelo://app?vid=143b0326-bcc2-41fe-ac94-ce3903ac509a","ios":"levelo://app?vid=143b0326-bcc2-41fe-ac94-ce3903ac509a"},"vehicle_type_id":"4","last_reported":1784696267,"current_range_meters":2800,"station_id":"","pricing_plan_id":"cebpf4jnsgd1na2vs0mg"},{"bike_id":"989bd331-d893-4007-bc86-f441ad9e54be","system_id":"levelo_inurba_marseille","lat":43.27829,"lon":5.39227,"is_reserved":false,"is_disabled":false,"rental_uris":{"android":"levelo://app?vid=989bd331-d893-4007-bc86-f441ad9e54be","ios":"levelo://app?vid=989bd331-d893-4007-bc86-f441ad9e54be"},"vehicle_type_id":"4","last_reported":1784696267,"current_range_meters":39200,"station_id":"ce4bhjp2rcd13ifvqga0","pricing_plan_id":"cebpf4jnsgd1na2vs0mg"},{"bike_id":"01d9a676-01f3-4b98-beb9-e0a1a490c722","system_id":"levelo_inurba_marseille","lat":43.2816,"lon":5.42631,"is_reserved":false,"is_disabled":false,"rental_uris":{"android":"levelo://app?vid=01d9a676-01f3-4b98-beb9-e0a1a490c722","ios":"levelo://app?vid=01d9a676-01f3-4b98-beb9-e0a1a490c722"},"vehicle_type_id":"4","last_reported":1784696267,"current_range_meters":29600,"station_id":"ce4bhnh2rcd13ifvqgug","pricing_plan_id":"cebpf4jnsgd1na2vs0mg"},{"bike_id":"f765bc46-853b-4f5f-a0cf-13f9a2c85881","system_id":"levelo_inurba_marseille","lat":43.32132,"lon":5.3682,"is_reserved":false,"is_disabled":false,"rental_uris":{"android":"levelo://app?vid=f765bc46-853b-4f5f-a0cf-13f9a2c85881","ios":"levelo://app?vid=f765bc46-853b-4f5f-a0cf-13f9a2c85881"},"vehicle_type_id":"4","last_reported":1784696267,"current_range_meters":35200,"station_id":"","pricing_plan_id":"cebpf4jnsgd1na2vs0mg"},{"bike_id":"d289bf61-8180-4650-8a0b-cd5d340f4013","system_id":"levelo_inurba_marseille","lat":43.24065,"lon":5.37757,"is_reserved":false,"is_disabled":false,"rental_uris":{"android":"levelo://app?vid=d289bf61-8180-4650-8a0b-cd5d340f4013","ios":"levelo://app?vid=d289bf61-8180-4650-8a0b-cd5d340f4013"},"vehicle_type_id":"4","last_reported":1784696267,"current_range_meters":38400,"station_id":"ce4bhnp2rcd13ifvqgvg","pricing_plan_id":"cebpf4jnsgd1na2vs0mg"},{"bike_id":"3ab46e4a-b9d6-458c-8f1a-3060296f87a3","system_id":"levelo_inurba_marseille","lat":43.2588,"lon":5.39933,"is_reserved":false,"is_disabled":false,"rental_uris":{"android":"levelo://app?vid=3ab46e4a-b9d6-458c-8f1a-3060296f87a3","ios":"levelo://app?vid=3ab46e4a-b9d6-458c-8f1a-3060296f87a3"},"vehicle_type_id":"4","last_reported":1784696267,"current_range_meters":28000,"station_id":"ce4bhl92rcd13ifvqghg","pricing_plan_id":"cebpf4jnsgd1na2vs0mg"},{"bike_id":"1a9e3391-d0ff-4709-9c59-9265b1a9ab1e","system_id":"levelo_inurba_marseille","lat":43.25086,"lon":5.39531,"is_reserved":false,"is_disabled":false,"rental_uris":{"android":"levelo://app?vid=1a9e3391-d0ff-4709-9c59-9265b1a9ab1e","ios":"levelo://app?vid=1a9e3391-d0ff-4709-9c59-9265b1a9ab1e"},"vehicle_type_id":"4","last_reported":1784696267,"current_range_meters":39200,"station_id":"ce4bhm12rcd13ifvqgkg","pricing_plan_id":"cebpf4jnsgd1na2vs0mg"},{"bike_id":"a13e16e4-e177-431d-8bef-33b38f696e96","system_id":"levelo_inurba_marseille","lat":43.26758,"lon":5.39977,"is_reserved":false,"is_disabled":false,"rental_uris":{"android":"levelo://app?vid=a13e16e4-e177-431d-8bef-33b38f696e96","ios":"levelo://app?vid=a13e16e4-e177-431d-8bef-33b38f696e96"},"vehicle_type_id":"4","last_reported":1784696267,"current_range_meters":27200,"station_id":"","pricing_plan_id":"cebpf4jnsgd1na2vs0mg"},{"bike_id":"ab01ba3c-e00d-46bf-ae59-1f3172a2660f","system_id":"levelo_inurba_marseille","lat":43.30431,"lon":5.39757,"is_reserved":false,"is_disabled":false,"rental_uris":{"android":"levelo://app?vid=ab01ba3c-e00d-46bf-ae59-1f3172a2660f","ios":"levelo://app?vid=ab01ba3c-e00d-46bf-ae59-1f3172a2660f"},"vehicle_type_id":"4","last_reported":1784696267,"current_range_meters":10000,"station_id":"ce4bh092rcd13ifvqd20","pricing_plan_id":"cebpf4jnsgd1na2vs0mg"},{"bike_id":"561b5e3a-50e1-4d27-8689-31b60862f5bc","system_id":"levelo_inurba_marseille","lat":43.23207,"lon":5.40009,"is_reserved":false,"is_disabled":false,"rental_uris":{"android":"levelo://app?vid=561b5e3a-50e1-4d27-8689-31b60862f5bc","ios":"levelo://app?vid=561b5e3a-50e1-4d27-8689-31b60862f5bc"},"vehicle_type_id":"4","last_reported":1784696267,"current_range_meters":39200,"station_id":"ce4bhn12rcd13ifvqgqg","pricing_plan_id":"cebpf4jnsgd1na2vs0mg"},{"bike_id":"8c47a2c8-e34c-4c1e-97c3-082abdd8d1aa","system_id":"levelo_inurba_marseille","lat":43.28711,"lon":5.37388,"is_reserved":false,"is_disabled":false,"rental_uris":{"android":"levelo://app?vid=8c47a2c8-e34c-4c1e-97c3-082abdd8d1aa","ios":"levelo://app?vid=8c47a2c8-e34c-4c1e-97c3-082abdd8d1aa"},"vehicle_type_id":"4","last_reported":1784696267,"current_range_meters":25600,"station_id":"ce4bh3p2rcd13ifvqdq0","pricing_plan_id":"cebpf4jnsgd1na2vs0mg"},{"bike_id":"cefdada5-be26-4dba-80f7-cf68209c7686","system_id":"levelo_inurba_marseille","lat":43.22935,"lon":5.35379,"is_reserved":false,"is_disabled":false,"rental_uris":{"android":"levelo://app?vid=cefdada5-be26-4dba-80f7-cf68209c7686","ios":"levelo://app?vid=cefdada5-be26-4dba-80f7-cf68209c7686"},"vehicle_type_id":"4","last_reported":1784696267,"current_range_meters":26800,"station_id":"cpo3532slgdg3j2ikp40","pricing_plan_id":"cebpf4jnsgd1na2vs0mg"},{"bike_id":"9439bbcb-7d6e-4bda-b434-395a083f2a8c","system_id":"levelo_inurba_marseille","lat":43.28738,"lon":5.40031,"is_reserved":false,"is_disabled":false,"rental_uris":{"android":"levelo://app?vid=9439bbcb-7d6e-4bda-b434-395a083f2a8c","ios":"levelo://app?vid=9439bbcb-7d6e-4bda-b434-395a083f2a8c"},"vehicle_type_id":"4","last_reported":1784696267,"current_range_meters":39200,"station_id":"ce4bho92rcd13ifvqh3g","pricing_plan_id":"cebpf4jnsgd1na2vs0mg"},{"bike_id":"d2c728e1-0427-4b99-afd5-e6fc8f3bebda","system_id":"levelo_inurba_marseille","lat":43.29515,"lon":5.3941,"is_reserved":false,"is_disabled":false,"rental_uris":{"android":"levelo://app?vid=d2c728e1-0427-4b99-afd5-e6fc8f3bebda","ios":"levelo://app?vid=d2c728e1-0427-4b99-afd5-e6fc8f3bebda"},"vehicle_type_id":"4","last_reported":1784696267,"current_range_meters":13600,"station_id":"ce4bh292rcd13ifvqdf0","pricing_plan_id":"cebpf4jnsgd1na2vs0mg"},{"bike_id":"50d7506c-406d-4288-a673-b2239b010d08","system_id":"levelo_inurba_marseille","lat":43.28457,"lon":5.42385,"is_reserved":false,"is_disabled":true,"rental_uris":{"android":"levelo://app?vid=50d7506c-406d-4288-a673-b2239b010d08","ios":"levelo://app?vid=50d7506c-406d-4288-a673-b2239b010d08"},"vehicle_type_id":"4","last_reported":1784696267,"current_range_meters":0,"station_id":"","pricing_plan_id":"cebpf4jnsgd1na2vs0mg"},{"bike_id":"18c11ec0-362c-4026-b108-3a02844d6b5c","system_id":"levelo_inurba_marseille","lat":43.24168,"lon":5.38784,"is_reserved":false,"is_disabled":false,"rental_uris":{"android":"levelo://app?vid=18c11ec0-362c-4026-b108-3a02844d6b5c","ios":"levelo://app?vid=18c11ec0-362c-4026-b108-3a02844d6b5c"},"vehicle_type_id":"4","last_reported":1784696267,"current_range_meters":27600,"station_id":"","pricing_plan_id":"cebpf4jnsgd1na2vs0mg"},{"bike_id":"5e3a97e8-f386-4e59-b463-fba91f80001c","system_id":"levelo_inurba_marseille","lat":43.30425,"lon":5.39745,"is_reserved":false,"is_disabled":false,"rental_uris":{"android":"levelo://app?vid=5e3a97e8-f386-4e59-b463-fba91f80001c","ios":"levelo://app?vid=5e3a97e8-f386-4e59-b463-fba91f80001c"},"vehicle_type_id":"4","last_reported":1784696267,"current_range_meters":24000,"station_id":"ce4bh092rcd13ifvqd20","pricing_plan_id":"cebpf4jnsgd1na2vs0mg"},{"bike_id":"e04d7d9c-645a-4831-b661-caa34423f651","system_id":"levelo_inurba_marseille","lat":43.3094,"lon":5.40146,"is_reserved":false,"is_disabled":false,"rental_uris":{"android":"levelo://app?vid=e04d7d9c-645a-4831-b661-caa34423f651","ios":"levelo://app?vid=e04d7d9c-645a-4831-b661-caa34423f651"},"vehicle_type_id":"4","last_reported":1784696267,"current_range_meters":38400,"station_id":"ce4bgvp2rcd13ifvqct0","pricing_plan_id":"cebpf4jnsgd1na2vs0mg"},{"bike_id":"c1b9bc45-567b-4faa-a4d5-758815ee9757","system_id":"levelo_inurba_marseille","lat":43.29614,"lon":5.39999,"is_reserved":false,"is_disabled":false,"rental_uris":{"android":"levelo://app?vid=c1b9bc45-567b-4faa-a4d5-758815ee9757","ios":"levelo://app?vid=c1b9bc45-567b-4faa-a4d5-758815ee9757"},"vehicle_type_id":"4","last_reported":1784696267,"current_range_meters":36400,"station_id":"","pricing_plan_id":"cebpf4jnsgd1na2vs0mg"},{"bike_id":"06a47a70-c4aa-4b09-8775-c059e958d2f4","system_id":"levelo_inurba_marseille","lat":43.28411,"lon":5.37533,"is_reserved":false,"is_disabled":false,"rental_uris":{"android":"levelo://app?vid=06a47a70-c4aa-4b09-8775-c059e958d2f4","ios":"levelo://app?vid=06a47a70-c4aa-4b09-8775-c059e958d2f4"},"vehicle_type_id":"4","last_reported":1784696267,"current_range_meters":26800,"station_id":"ce4bh412rcd13ifvqds0","pricing_plan_id":"cebpf4jnsgd1na2vs0mg"},{"bike_id":"8b980fe2-831a-474f-9257-aac80a862f21","system_id":"levelo_inurba_marseille","lat":43.32345,"lon":5.36706,"is_reserved":false,"is_disabled":false,"rental_uris":{"android":"levelo://app?vid=8b980fe2-831a-474f-9257-aac80a862f21","ios":"levelo://app?vid=8b980fe2-831a-474f-9257-aac80a862f21"},"vehicle_type_id":"4","last_reported":1784696267,"current_range_meters":39200,"station_id":"ce4bhsh2rcd13ifvqi2g","pricing_plan_id":"cebpf4jnsgd1na2vs0mg"},{"bike_id":"195be781-70a2-4fbd-9a63-c14ae9b86e74","system_id":"levelo_inurba_marseille","lat":43.27557,"lon":5.38429,"is_reserved":false,"is_disabled":false,"rental_uris":{"android":"levelo://app?vid=195be781-70a2-4fbd-9a63-c14ae9b86e74","ios":"levelo://app?vid=195be781-70a2-4fbd-9a63-c14ae9b86e74"},"vehicle_type_id":"4","last_reported":1784696267,"current_range_meters":37600,"station_id":"ce4bhh92rcd13ifvqfi0","pricing_plan_id":"cebpf4jnsgd1na2vs0mg"},{"bike_id":"00e03f8e-ac4b-4029-a22d-edf32331f8a0","system_id":"levelo_inurba_marseille","lat":43.299,"lon":5.37503,"is_reserved":false,"is_disabled":false,"rental_uris":{"android":"levelo://app?vid=00e03f8e-ac4b-4029-a22d-edf32331f8a0","ios":"levelo://app?vid=00e03f8e-ac4b-4029-a22d-edf32331f8a0"},"vehicle_type_id":"4","last_reported":1784696267,"current_range_meters":24000,"station_id":"ce4bgjh2rcd13ifvqbg0","pricing_plan_id":"cebpf4jnsgd1na2vs0mg"},{"bike_id":"3cff31ea-c3fd-4a9e-aa7d-f699c19fe715","system_id":"levelo_inurba_marseille","lat":43.28534,"lon":5.44086,"is_reserved":false,"is_disabled":false,"rental_uris":{"android":"levelo://app?vid=3cff31ea-c3fd-4a9e-aa7d-f699c19fe715","ios":"levelo://app?vid=3cff31ea-c3fd-4a9e-aa7d-f699c19fe715"},"vehicle_type_id":"4","last_reported":1784696267,"current_range_meters":32000,"station_id":"st_d3j3df2ikq2c7380ej80","pricing_plan_id":"cebpf4jnsgd1na2vs0mg"},{"bike_id":"cf051e94-0c14-4035-9ea7-3057f94c3e01","system_id":"levelo_inurba_marseille","lat":43.29203,"lon":5.39671,"is_reserved":false,"is_disabled":false,"rental_uris":{"android":"levelo://app?vid=cf051e94-0c14-4035-9ea7-3057f94c3e01","ios":"levelo://app?vid=cf051e94-0c14-4035-9ea7-3057f94c3e01"},"vehicle_type_id":"4","last_reported":1784696267,"current_range_meters":24800,"station_id":"","pricing_plan_id":"cebpf4jnsgd1na2vs0mg"},{"bike_id":"7b9dd402-2791-437b-bfc4-2ba4f88e27eb","system_id":"levelo_inurba_marseille","lat":43.28414,"lon":5.37521,"is_reserved":false,"is_disabled":false,"rental_uris":{"android":"levelo://app?vid=7b9dd402-2791-437b-bfc4-2ba4f88e27eb","ios":"levelo://app?vid=7b9dd402-2791-437b-bfc4-2ba4f88e27eb"},"vehicle_type_id":"4","last_reported":1784696267,"current_range_meters":39200,"station_id":"ce4bh412rcd13ifvqds0","pricing_plan_id":"cebpf4jnsgd1na2vs0mg"},{"bike_id":"ed71a34c-bdae-4cb7-b459-8bc8b8019a0d","system_id":"levelo_inurba_marseille","lat":43.3043,"lon":5.39753,"is_reserved":false,"is_disabled":false,"rental_uris":{"android":"levelo://app?vid=ed71a34c-bdae-4cb7-b459-8bc8b8019a0d","ios":"levelo://app?vid=ed71a34c-bdae-4cb7-b459-8bc8b8019a0d"},"vehicle_type_id":"4","last_reported":1784696267,"current_range_meters":19200,"station_id":"ce4bh092rcd13ifvqd20","pricing_plan_id":"cebpf4jnsgd1na2vs0mg"},{"bike_id":"ea65f945-5804-4f4c-a343-1c5b9664c0e2","system_id":"levelo_inurba_marseille","lat":43.30968,"lon":5.39025,"is_reserved":false,"is_disabled":false,"rental_uris":{"android":"levelo://app?vid=ea65f945-5804-4f4c-a343-1c5b9664c0e2","ios":"levelo://app?vid=ea65f945-5804-4f4c-a343-1c5b9664c0e2"},"vehicle_type_id":"4","last_reported":1784696267,"current_range_meters":38000,"station_id":"ce4bgup2rcd13ifvqco0","pricing_plan_id":"cebpf4jnsgd1na2vs0mg"},{"bike_id":"82786432-98c0-4719-ad11-600ba57edd52","system_id":"levelo_inurba_marseille","lat":43.30804,"lon":5.3816,"is_reserved":false,"is_disabled":false,"rental_uris":{"android":"levelo://app?vid=82786432-98c0-4719-ad11-600ba57edd52","ios":"levelo://app?vid=82786432-98c0-4719-ad11-600ba57edd52"},"vehicle_type_id":"4","last_reported":1784696267,"current_range_meters":25200,"station_id":"ce4bgt12rcd13ifvqce0","pricing_plan_id":"cebpf4jnsgd1na2vs0mg"},{"bike_id":"238398fc-83d7-4dbe-918b-1e8e7bd4a603","system_id":"levelo_inurba_marseille","lat":43.31284,"lon":5.39025,"is_reserved":false,"is_disabled":false,"rental_uris":{"android":"levelo://app?vid=238398fc-83d7-4dbe-918b-1e8e7bd4a603","ios":"levelo://app?vid=238398fc-83d7-4dbe-918b-1e8e7bd4a603"},"vehicle_type_id":"4","last_reported":1784696267,"current_range_meters":24400,"station_id":"","pricing_plan_id":"cebpf4jnsgd1na2vs0mg"},{"bike_id":"78e7e967-a8d7-4345-8d31-93c9d317e74b","system_id":"levelo_inurba_marseille","lat":43.30436,"lon":5.40906,"is_reserved":false,"is_disabled":false,"rental_uris":{"android":"levelo://app?vid=78e7e967-a8d7-4345-8d31-93c9d317e74b","ios":"levelo://app?vid=78e7e967-a8d7-4345-8d31-93c9d317e74b"},"vehicle_type_id":"4","last_reported":1784696267,"current_range_meters":26800,"station_id":"","pricing_plan_id":"cebpf4jnsgd1na2vs0mg"},{"bike_id":"f1288106-a8c3-4624-ad2a-44299213b3e2","system_id":"levelo_inurba_marseille","lat":43.29589,"lon":5.36731,"is_reserved":false,"is_disabled":true,"rental_uris":{"android":"levelo://app?vid=f1288106-a8c3-4624-ad2a-44299213b3e2","ios":"levelo://app?vid=f1288106-a8c3-4624-ad2a-44299213b3e2"},"vehicle_type_id":"4","last_reported":1784696267,"current_range_meters":4800,"station_id":"","pricing_plan_id":"cebpf4jnsgd1na2vs0mg"},{"bike_id":"2713e6a0-11c0-46ad-ab10-ebb4447ef3b8","system_id":"levelo_inurba_marseille","lat":43.296015,"lon":5.381049,"is_reserved":false,"is_disabled":false,"rental_uris":{"android":"levelo://app?vid=2713e6a0-11c0-46ad-ab10-ebb4447ef3b8","ios":"levelo://app?vid=2713e6a0-11c0-46ad-ab10-ebb4447ef3b8"},"vehicle_type_id":"4","last_reported":1784696267,"current_range_meters":27200,"station_id":"ce4bgn12rcd13ifvqbt0","pricing_plan_id":"cebpf4jnsgd1na2vs0mg"},{"bike_id":"e9c1a472-a930-4ec7-a301-e029c5ebc2be","system_id":"levelo_inurba_marseille","lat":43.30146,"lon":5.43132,"is_reserved":false,"is_disabled":false,"rental_uris":{"android":"levelo://app?vid=e9c1a472-a930-4ec7-a301-e029c5ebc2be","ios":"levelo://app?vid=e9c1a472-a930-4ec7-a301-e029c5ebc2be"},"vehicle_type_id":"4","last_reported":1784696267,"current_range_meters":25200,"station_id":"st_d3js3co5814s73ftftug","pricing_plan_id":"cebpf4jnsgd1na2vs0mg"},{"bike_id":"eef7eed1-d81d-4708-b8ba-fc99a052c997","system_id":"levelo_inurba_marseille","lat":43.27994,"lon":5.38696,"is_reserved":false,"is_disabled":false,"rental_uris":{"android":"levelo://app?vid=eef7eed1-d81d-4708-b8ba-fc99a052c997","ios":"levelo://app?vid=eef7eed1-d81d-4708-b8ba-fc99a052c997"},"vehicle_type_id":"4","last_reported":1784696267,"current_range_meters":21600,"station_id":"ce4bhg12rcd13ifvqf80","pricing_plan_id":"cebpf4jnsgd1na2vs0mg"},{"bike_id":"2abaaadd-6553-4b12-a25d-a8d0ae8feb3b","system_id":"levelo_inurba_marseille","lat":43.30278,"lon":5.40364,"is_reserved":false,"is_disabled":false,"rental_uris":{"android":"levelo://app?vid=2abaaadd-6553-4b12-a25d-a8d0ae8feb3b","ios":"levelo://app?vid=2abaaadd-6553-4b12-a25d-a8d0ae8feb3b"},"vehicle_type_id":"4","last_reported":1784696267,"current_range_meters":38000,"station_id":"","pricing_plan_id":"cebpf4jnsgd1na2vs0mg"},{"bike_id":"def8c373-7641-42dd-9974-e44012237799","system_id":"levelo_inurba_marseille","lat":43.31684,"lon":5.38767,"is_reserved":false,"is_disabled":false,"rental_uris":{"android":"levelo://app?vid=def8c373-7641-42dd-9974-e44012237799","ios":"levelo://app?vid=def8c373-7641-42dd-9974-e44012237799"},"vehicle_type_id":"4","last_reported":1784696267,"current_range_meters":38000,"station_id":"","pricing_plan_id":"cebpf4jnsgd1na2vs0mg"},{"bike_id":"b421baac-feb7-4da4-99bf-b43fa6e4b07b","system_id":"levelo_inurba_marseille","lat":43.29817,"lon":5.40388,"is_reserved":false,"is_disabled":false,"rental_uris":{"android":"levelo://app?vid=b421baac-feb7-4da4-99bf-b43fa6e4b07b","ios":"levelo://app?vid=b421baac-feb7-4da4-99bf-b43fa6e4b07b"},"vehicle_type_id":"4","last_reported":1784696267,"current_range_meters":38000,"station_id":"ce4bh112rcd13ifvqd90","pricing_plan_id":"cebpf4jnsgd1na2vs0mg"},{"bike_id":"8a6f1506-8bae-475f-87b8-67603713c45a","system_id":"levelo_inurba_marseille","lat":43.27893,"lon":5.37996,"is_reserved":false,"is_disabled":false,"rental_uris":{"android":"levelo://app?vid=8a6f1506-8bae-475f-87b8-67603713c45a","ios":"levelo://app?vid=8a6f1506-8bae-475f-87b8-67603713c45a"},"vehicle_type_id":"4","last_reported":1784696267,"current_range_meters":38800,"station_id":"ce4bhf92rcd13ifvqf50","pricing_plan_id":"cebpf4jnsgd1na2vs0mg"},{"bike_id":"c520161e-c250-4161-a55a-6b287776d8da","system_id":"levelo_inurba_marseille","lat":43.28488,"lon":5.48397,"is_reserved":false,"is_disabled":false,"rental_uris":{"android":"levelo://app?vid=c520161e-c250-4161-a55a-6b287776d8da","ios":"levelo://app?vid=c520161e-c250-4161-a55a-6b287776d8da"},"vehicle_type_id":"4","last_reported":1784696267,"current_range_meters":28400,"station_id":"st_d3svhcjqgbts73a3dn0g","pricing_plan_id":"cebpf4jnsgd1na2vs0mg"},{"bike_id":"5326a61d-4052-4baf-bbd3-97dda62fe6d7","system_id":"levelo_inurba_marseille","lat":43.28537,"lon":5.44097,"is_reserved":false,"is_disabled":false,"rental_uris":{"android":"levelo://app?vid=5326a61d-4052-4baf-bbd3-97dda62fe6d7","ios":"levelo://app?vid=5326a61d-4052-4baf-bbd3-97dda62fe6d7"},"vehicle_type_id":"4","last_reported":1784696267,"current_range_meters":26800,"station_id":"st_d3j3df2ikq2c7380ej80","pricing_plan_id":"cebpf4jnsgd1na2vs0mg"},{"bike_id":"bc069e1d-90b7-4a8b-8162-75a155a1a2c1","system_id":"levelo_inurba_marseille","lat":43.30152,"lon":5.37415,"is_reserved":false,"is_disabled":false,"rental_uris":{"android":"levelo://app?vid=bc069e1d-90b7-4a8b-8162-75a155a1a2c1","ios":"levelo://app?vid=bc069e1d-90b7-4a8b-8162-75a155a1a2c1"},"vehicle_type_id":"4","last_reported":1784696267,"current_range_meters":28800,"station_id":"ce4bgs92rcd13ifvqcc0","pricing_plan_id":"cebpf4jnsgd1na2vs0mg"},{"bike_id":"37d1bd94-a4c5-452f-9e20-420c88bcbf18","system_id":"levelo_inurba_marseille","lat":43.30328,"lon":5.40442,"is_reserved":false,"is_disabled":false,"rental_uris":{"android":"levelo://app?vid=37d1bd94-a4c5-452f-9e20-420c88bcbf18","ios":"levelo://app?vid=37d1bd94-a4c5-452f-9e20-420c88bcbf18"},"vehicle_type_id":"4","last_reported":1784696267,"current_range_meters":39200,"station_id":"ce4bh012rcd13ifvqd10","pricing_plan_id":"cebpf4jnsgd1na2vs0mg"},{"bike_id":"a1d5c5f8-aac9-4528-a3b3-9d7a91130f9b","system_id":"levelo_inurba_marseille","lat":43.315,"lon":5.37301,"is_reserved":false,"is_disabled":false,"rental_uris":{"android":"levelo://app?vid=a1d5c5f8-aac9-4528-a3b3-9d7a91130f9b","ios":"levelo://app?vid=a1d5c5f8-aac9-4528-a3b3-9d7a91130f9b"},"vehicle_type_id":"4","last_reported":1784696267,"current_range_meters":39200,"station_id":"ce4bgt12rcd13ifvqcd0","pricing_plan_id":"cebpf4jnsgd1na2vs0mg"},{"bike_id":"3c152ce7-b1e3-46b6-9481-1d5804cf459e","system_id":"levelo_inurba_marseille","lat":43.26192,"lon":5.37441,"is_reserved":false,"is_disabled":false,"rental_uris":{"android":"levelo://app?vid=3c152ce7-b1e3-46b6-9481-1d5804cf459e","ios":"levelo://app?vid=3c152ce7-b1e3-46b6-9481-1d5804cf459e"},"vehicle_type_id":"4","last_reported":1784696267,"current_range_meters":34000,"station_id":"ce4bhgp2rcd13ifvqfc0","pricing_plan_id":"cebpf4jnsgd1na2vs0mg"},{"bike_id":"0a2c2a8e-f477-40f4-b43e-7f6280e73440","system_id":"levelo_inurba_marseille","lat":43.27951,"lon":5.41037,"is_reserved":false,"is_disabled":false,"rental_uris":{"android":"levelo://app?vid=0a2c2a8e-f477-40f4-b43e-7f6280e73440","ios":"levelo://app?vid=0a2c2a8e-f477-40f4-b43e-7f6280e73440"},"vehicle_type_id":"4","last_reported":1784696267,"current_range_meters":35600,"station_id":"ce4bhnp2rcd13ifvqh0g","pricing_plan_id":"cebpf4jnsgd1na2vs0mg"},{"bike_id":"b8ec9070-ca87-4a59-852a-bb4d8f83f8cd","system_id":"levelo_inurba_marseille","lat":43.28361,"lon":5.38122,"is_reserved":false,"is_disabled":false,"rental_uris":{"android":"levelo://app?vid=b8ec9070-ca87-4a59-852a-bb4d8f83f8cd","ios":"levelo://app?vid=b8ec9070-ca87-4a59-852a-bb4d8f83f8cd"},"vehicle_type_id":"4","last_reported":1784696267,"current_range_meters":22400,"station_id":"ce4bh412rcd13ifvqdr0","pricing_plan_id":"cebpf4jnsgd1na2vs0mg"},{"bike_id":"39fdb4b9-e9ef-4c30-8877-8a346875dba9","system_id":"levelo_inurba_marseille","lat":43.29456,"lon":5.397,"is_reserved":false,"is_disabled":false,"rental_uris":{"android":"levelo://app?vid=39fdb4b9-e9ef-4c30-8877-8a346875dba9","ios":"levelo://app?vid=39fdb4b9-e9ef-4c30-8877-8a346875dba9"},"vehicle_type_id":"4","last_reported":1784696267,"current_range_meters":30400,"station_id":"ce4bh3h2rcd13ifvqdo0","pricing_plan_id":"cebpf4jnsgd1na2vs0mg"},{"bike_id":"c9517488-1214-41f7-8c87-36f0f8598c38","system_id":"levelo_inurba_marseille","lat":43.29653,"lon":5.40605,"is_reserved":false,"is_disabled":false,"rental_uris":{"android":"levelo://app?vid=c9517488-1214-41f7-8c87-36f0f8598c38","ios":"levelo://app?vid=c9517488-1214-41f7-8c87-36f0f8598c38"},"vehicle_type_id":"4","last_reported":1784696267,"current_range_meters":24000,"station_id":"ce4bh0h2rcd13ifvqd60","pricing_plan_id":"cebpf4jnsgd1na2vs0mg"},{"bike_id":"e4c27701-4591-494b-a6f0-8a3b4286f61f","system_id":"levelo_inurba_marseille","lat":43.30449,"lon":5.38889,"is_reserved":false,"is_disabled":false,"rental_uris":{"android":"levelo://app?vid=e4c27701-4591-494b-a6f0-8a3b4286f61f","ios":"levelo://app?vid=e4c27701-4591-494b-a6f0-8a3b4286f61f"},"vehicle_type_id":"4","last_reported":1784696267,"current_range_meters":36400,"station_id":"ce4bgk12rcd13ifvqbi0","pricing_plan_id":"cebpf4jnsgd1na2vs0mg"},{"bike_id":"3a34f52e-1e5b-45cf-b1c8-7a76d3f0220c","system_id":"levelo_inurba_marseille","lat":43.29234,"lon":5.41742,"is_reserved":false,"is_disabled":false,"rental_uris":{"android":"levelo://app?vid=3a34f52e-1e5b-45cf-b1c8-7a76d3f0220c","ios":"levelo://app?vid=3a34f52e-1e5b-45cf-b1c8-7a76d3f0220c"},"vehicle_type_id":"4","last_reported":1784696267,"current_range_meters":32000,"station_id":"","pricing_plan_id":"cebpf4jnsgd1na2vs0mg"},{"bike_id":"deab0385-0efa-4bfa-9d6c-fc9e57b19cd0","system_id":"levelo_inurba_marseille","lat":43.3004,"lon":5.36988,"is_reserved":false,"is_disabled":true,"rental_uris":{"android":"levelo://app?vid=deab0385-0efa-4bfa-9d6c-fc9e57b19cd0","ios":"levelo://app?vid=deab0385-0efa-4bfa-9d6c-fc9e57b19cd0"},"vehicle_type_id":"4","last_reported":1784696267,"current_range_meters":1600,"station_id":"","pricing_plan_id":"cebpf4jnsgd1na2vs0mg"},{"bike_id":"b8e43a89-3bb1-4279-9cee-f7b093c9b703","system_id":"levelo_inurba_marseille","lat":43.33718,"lon":5.37415,"is_reserved":false,"is_disabled":false,"rental_uris":{"android":"levelo://app?vid=b8e43a89-3bb1-4279-9cee-f7b093c9b703","ios":"levelo://app?vid=b8e43a89-3bb1-4279-9cee-f7b093c9b703"},"vehicle_type_id":"4","last_reported":1784696267,"current_range_meters":16400,"station_id":"","pricing_plan_id":"cebpf4jnsgd1na2vs0mg"},{"bike_id":"98541429-041e-4b0b-bf14-41f7f973bd74","system_id":"levelo_inurba_marseille","lat":43.28114,"lon":5.3785,"is_reserved":false,"is_disabled":false,"rental_uris":{"android":"levelo://app?vid=98541429-041e-4b0b-bf14-41f7f973bd74","ios":"levelo://app?vid=98541429-041e-4b0b-bf14-41f7f973bd74"},"vehicle_type_id":"4","last_reported":1784696267,"current_range_meters":39200,"station_id":"ce4bha12rcd13ifvqee0","pricing_plan_id":"cebpf4jnsgd1na2vs0mg"},{"bike_id":"17ec69e9-f82e-42b7-8fd3-de92d2bea59d","system_id":"levelo_inurba_marseille","lat":43.25339,"lon":5.42161,"is_reserved":false,"is_disabled":false,"rental_uris":{"android":"levelo://app?vid=17ec69e9-f82e-42b7-8fd3-de92d2bea59d","ios":"levelo://app?vid=17ec69e9-f82e-42b7-8fd3-de92d2bea59d"},"vehicle_type_id":"4","last_reported":1784696267,"current_range_meters":24800,"station_id":"st_d2m65c5bi1j21697t3ng","pricing_plan_id":"cebpf4jnsgd1na2vs0mg"},{"bike_id":"73984514-96a7-481f-881e-845f04da05ac","system_id":"levelo_inurba_marseille","lat":43.30433,"lon":5.39768,"is_reserved":false,"is_disabled":false,"rental_uris":{"android":"levelo://app?vid=73984514-96a7-481f-881e-845f04da05ac","ios":"levelo://app?vid=73984514-96a7-481f-881e-845f04da05ac"},"vehicle_type_id":"4","last_reported":1784696267,"current_range_meters":38400,"station_id":"ce4bh092rcd13ifvqd20","pricing_plan_id":"cebpf4jnsgd1na2vs0mg"},{"bike_id":"ac30fcda-7a1e-49fb-b5c9-790e4ead6d17","system_id":"levelo_inurba_marseille","lat":43.25087,"lon":5.39511,"is_reserved":false,"is_disabled":false,"rental_uris":{"android":"levelo://app?vid=ac30fcda-7a1e-49fb-b5c9-790e4ead6d17","ios":"levelo://app?vid=ac30fcda-7a1e-49fb-b5c9-790e4ead6d17"},"vehicle_type_id":"4","last_reported":1784696267,"current_range_meters":38000,"station_id":"ce4bhm12rcd13ifvqgkg","pricing_plan_id":"cebpf4jnsgd1na2vs0mg"},{"bike_id":"92413b5a-42ed-42d9-8ad5-e4bd0ff2c382","system_id":"levelo_inurba_marseille","lat":43.27999,"lon":5.41662,"is_reserved":false,"is_disabled":false,"rental_uris":{"android":"levelo://app?vid=92413b5a-42ed-42d9-8ad5-e4bd0ff2c382","ios":"levelo://app?vid=92413b5a-42ed-42d9-8ad5-e4bd0ff2c382"},"vehicle_type_id":"4","last_reported":1784696267,"current_range_meters":36000,"station_id":"ce4bho12rcd13ifvqh1g","pricing_plan_id":"cebpf4jnsgd1na2vs0mg"},{"bike_id":"d04b1cc2-fe6e-4dba-aea7-64f488d8a8da","system_id":"levelo_inurba_marseille","lat":43.28698,"lon":5.37382,"is_reserved":false,"is_disabled":false,"rental_uris":{"android":"levelo://app?vid=d04b1cc2-fe6e-4dba-aea7-64f488d8a8da","ios":"levelo://app?vid=d04b1cc2-fe6e-4dba-aea7-64f488d8a8da"},"vehicle_type_id":"4","last_reported":1784696267,"current_range_meters":30400,"station_id":"ce4bh3p2rcd13ifvqdq0","pricing_plan_id":"cebpf4jnsgd1na2vs0mg"},{"bike_id":"7208e764-a6a8-4b11-8bba-44cadaf876f5","system_id":"levelo_inurba_marseille","lat":43.27373,"lon":5.36234,"is_reserved":false,"is_disabled":false,"rental_uris":{"android":"levelo://app?vid=7208e764-a6a8-4b11-8bba-44cadaf876f5","ios":"levelo://app?vid=7208e764-a6a8-4b11-8bba-44cadaf876f5"},"vehicle_type_id":"4","last_reported":1784696267,"current_range_meters":16400,"station_id":"ce4bhbh2rcd13ifvqeo0","pricing_plan_id":"cebpf4jnsgd1na2vs0mg"},{"bike_id":"9ee983a6-da0d-4e28-b708-0dc6416e44bf","system_id":"levelo_inurba_marseille","lat":43.29064,"lon":5.38126,"is_reserved":false,"is_disabled":false,"rental_uris":{"android":"levelo://app?vid=9ee983a6-da0d-4e28-b708-0dc6416e44bf","ios":"levelo://app?vid=9ee983a6-da0d-4e28-b708-0dc6416e44bf"},"vehicle_type_id":"4","last_reported":1784696267,"current_range_meters":30400,"station_id":"ce4bh512rcd13ifvqe2g","pricing_plan_id":"cebpf4jnsgd1na2vs0mg"},{"bike_id":"3c861df6-627a-4ace-9f1f-64311652ac14","system_id":"levelo_inurba_marseille","lat":43.22926,"lon":5.3537,"is_reserved":false,"is_disabled":false,"rental_uris":{"android":"levelo://app?vid=3c861df6-627a-4ace-9f1f-64311652ac14","ios":"levelo://app?vid=3c861df6-627a-4ace-9f1f-64311652ac14"},"vehicle_type_id":"4","last_reported":1784696267,"current_range_meters":33200,"station_id":"cpo3532slgdg3j2ikp40","pricing_plan_id":"cebpf4jnsgd1na2vs0mg"},{"bike_id":"13bbfe3b-874b-44d7-9abb-922c8de23c11","system_id":"levelo_inurba_marseille","lat":43.23259,"lon":5.35393,"is_reserved":false,"is_disabled":false,"rental_uris":{"android":"levelo://app?vid=13bbfe3b-874b-44d7-9abb-922c8de23c11","ios":"levelo://app?vid=13bbfe3b-874b-44d7-9abb-922c8de23c11"},"vehicle_type_id":"4","last_reported":1784696267,"current_range_meters":24000,"station_id":"","pricing_plan_id":"cebpf4jnsgd1na2vs0mg"},{"bike_id":"a35298be-2828-4f39-b635-7fd6f9ad83a8","system_id":"levelo_inurba_marseille","lat":43.30425,"lon":5.39754,"is_reserved":false,"is_disabled":false,"rental_uris":{"android":"levelo://app?vid=a35298be-2828-4f39-b635-7fd6f9ad83a8","ios":"levelo://app?vid=a35298be-2828-4f39-b635-7fd6f9ad83a8"},"vehicle_type_id":"4","last_reported":1784696267,"current_range_meters":38000,"station_id":"ce4bh092rcd13ifvqd20","pricing_plan_id":"cebpf4jnsgd1na2vs0mg"},{"bike_id":"6d62918c-6448-4d35-ae0d-d99d4af46644","system_id":"levelo_inurba_marseille","lat":43.27992,"lon":5.4163,"is_reserved":false,"is_disabled":false,"rental_uris":{"android":"levelo://app?vid=6d62918c-6448-4d35-ae0d-d99d4af46644","ios":"levelo://app?vid=6d62918c-6448-4d35-ae0d-d99d4af46644"},"vehicle_type_id":"4","last_reported":1784696267,"current_range_meters":18800,"station_id":"ce4bho12rcd13ifvqh1g","pricing_plan_id":"cebpf4jnsgd1na2vs0mg"},{"bike_id":"fce27f18-8500-4a5d-a4a6-107a599c9591","system_id":"levelo_inurba_marseille","lat":43.23195,"lon":5.35546,"is_reserved":false,"is_disabled":false,"rental_uris":{"android":"levelo://app?vid=fce27f18-8500-4a5d-a4a6-107a599c9591","ios":"levelo://app?vid=fce27f18-8500-4a5d-a4a6-107a599c9591"},"vehicle_type_id":"4","last_reported":1784696267,"current_range_meters":30000,"station_id":"ce4bhu92rcd13ifvqi70","pricing_plan_id":"cebpf4jnsgd1na2vs0mg"},{"bike_id":"6ed5f8c3-6da8-4cec-bfad-13253a432d70","system_id":"levelo_inurba_marseille","lat":43.29407,"lon":5.38595,"is_reserved":false,"is_disabled":true,"rental_uris":{"android":"levelo://app?vid=6ed5f8c3-6da8-4cec-bfad-13253a432d70","ios":"levelo://app?vid=6ed5f8c3-6da8-4cec-bfad-13253a432d70"},"vehicle_type_id":"4","last_reported":1784696267,"current_range_meters":33600,"station_id":"","pricing_plan_id":"cebpf4jnsgd1na2vs0mg"},{"bike_id":"36e69c51-f2aa-4201-a8ca-c139178a805a","system_id":"levelo_inurba_marseille","lat":43.30324,"lon":5.40452,"is_reserved":false,"is_disabled":false,"rental_uris":{"android":"levelo://app?vid=36e69c51-f2aa-4201-a8ca-c139178a805a","ios":"levelo://app?vid=36e69c51-f2aa-4201-a8ca-c139178a805a"},"vehicle_type_id":"4","last_reported":1784696267,"current_range_meters":38400,"station_id":"ce4bh012rcd13ifvqd10","pricing_plan_id":"cebpf4jnsgd1na2vs0mg"},{"bike_id":"0dee0085-d5a5-4c48-b3f1-a323bb744f3d","system_id":"levelo_inurba_marseille","lat":43.22563,"lon":5.4163,"is_reserved":false,"is_disabled":false,"rental_uris":{"android":"levelo://app?vid=0dee0085-d5a5-4c48-b3f1-a323bb744f3d","ios":"levelo://app?vid=0dee0085-d5a5-4c48-b3f1-a323bb744f3d"},"vehicle_type_id":"4","last_reported":1784696267,"current_range_meters":33200,"station_id":"st_d2o4gvlbi1j2169b742g","pricing_plan_id":"cebpf4jnsgd1na2vs0mg"},{"bike_id":"8a65fa08-afa5-40fd-8147-5fcd43bb3d2d","system_id":"levelo_inurba_marseille","lat":43.28685,"lon":5.39973,"is_reserved":false,"is_disabled":false,"rental_uris":{"android":"levelo://app?vid=8a65fa08-afa5-40fd-8147-5fcd43bb3d2d","ios":"levelo://app?vid=8a65fa08-afa5-40fd-8147-5fcd43bb3d2d"},"vehicle_type_id":"4","last_reported":1784696267,"current_range_meters":32400,"station_id":"ce4bho92rcd13ifvqh3g","pricing_plan_id":"cebpf4jnsgd1na2vs0mg"},{"bike_id":"0b2c45f2-fdaa-45fe-9511-e6426cab85f6","system_id":"levelo_inurba_marseille","lat":43.27486,"lon":5.42456,"is_reserved":false,"is_disabled":false,"rental_uris":{"android":"levelo://app?vid=0b2c45f2-fdaa-45fe-9511-e6426cab85f6","ios":"levelo://app?vid=0b2c45f2-fdaa-45fe-9511-e6426cab85f6"},"vehicle_type_id":"4","last_reported":1784696267,"current_range_meters":20000,"station_id":"ce4bhn92rcd13ifvqgrg","pricing_plan_id":"cebpf4jnsgd1na2vs0mg"},{"bike_id":"42fbf943-0a6a-42a8-95ee-07d967b4cea3","system_id":"levelo_inurba_marseille","lat":43.24163,"lon":5.39704,"is_reserved":false,"is_disabled":false,"rental_uris":{"android":"levelo://app?vid=42fbf943-0a6a-42a8-95ee-07d967b4cea3","ios":"levelo://app?vid=42fbf943-0a6a-42a8-95ee-07d967b4cea3"},"vehicle_type_id":"4","last_reported":1784696267,"current_range_meters":30400,"station_id":"ce4bhn12rcd13ifvqgpg","pricing_plan_id":"cebpf4jnsgd1na2vs0mg"},{"bike_id":"06907f06-508d-4e32-b126-3e286827d8c0","system_id":"levelo_inurba_marseille","lat":43.24958,"lon":5.40504,"is_reserved":false,"is_disabled":false,"rental_uris":{"android":"levelo://app?vid=06907f06-508d-4e32-b126-3e286827d8c0","ios":"levelo://app?vid=06907f06-508d-4e32-b126-3e286827d8c0"},"vehicle_type_id":"4","last_reported":1784696267,"current_range_meters":39200,"station_id":"st_d2ngiaodas8pm72gd1h0","pricing_plan_id":"cebpf4jnsgd1na2vs0mg"},{"bike_id":"1dcd51e6-5f14-492a-8737-4131b3b50e86","system_id":"levelo_inurba_marseille","lat":43.27212,"lon":5.39194,"is_reserved":false,"is_disabled":false,"rental_uris":{"android":"levelo://app?vid=1dcd51e6-5f14-492a-8737-4131b3b50e86","ios":"levelo://app?vid=1dcd51e6-5f14-492a-8737-4131b3b50e86"},"vehicle_type_id":"4","last_reported":1784696267,"current_range_meters":36000,"station_id":"ce4bhhp2rcd13ifvqfm0","pricing_plan_id":"cebpf4jnsgd1na2vs0mg"},{"bike_id":"dad5eff3-cb3a-4459-ba39-741abe4a6c6c","system_id":"levelo_inurba_marseille","lat":43.32103,"lon":5.3677,"is_reserved":false,"is_disabled":false,"rental_uris":{"android":"levelo://app?vid=dad5eff3-cb3a-4459-ba39-741abe4a6c6c","ios":"levelo://app?vid=dad5eff3-cb3a-4459-ba39-741abe4a6c6c"},"vehicle_type_id":"4","last_reported":1784696267,"current_range_meters":9600,"station_id":"ce4bhrh2rcd13ifvqhug","pricing_plan_id":"cebpf4jnsgd1na2vs0mg"},{"bike_id":"a6ee06d6-3b2a-4764-ae3a-0032dfcc3dae","system_id":"levelo_inurba_marseille","lat":43.26514,"lon":5.39587,"is_reserved":false,"is_disabled":false,"rental_uris":{"android":"levelo://app?vid=a6ee06d6-3b2a-4764-ae3a-0032dfcc3dae","ios":"levelo://app?vid=a6ee06d6-3b2a-4764-ae3a-0032dfcc3dae"},"vehicle_type_id":"4","last_reported":1784696267,"current_range_meters":38800,"station_id":"ce4bhi12rcd13ifvqfq0","pricing_plan_id":"cebpf4jnsgd1na2vs0mg"},{"bike_id":"ba57db37-e11d-45a9-9693-eb12606aa600","system_id":"levelo_inurba_marseille","lat":43.27999,"lon":5.40015,"is_reserved":false,"is_disabled":false,"rental_uris":{"android":"levelo://app?vid=ba57db37-e11d-45a9-9693-eb12606aa600","ios":"levelo://app?vid=ba57db37-e11d-45a9-9693-eb12606aa600"},"vehicle_type_id":"4","last_reported":1784696267,"current_range_meters":39200,"station_id":"ce4bho92rcd13ifvqh4g","pricing_plan_id":"cebpf4jnsgd1na2vs0mg"},{"bike_id":"58b675b2-13c4-4728-9e00-2a561279976a","system_id":"levelo_inurba_marseille","lat":43.31892,"lon":5.36806,"is_reserved":false,"is_disabled":false,"rental_uris":{"android":"levelo://app?vid=58b675b2-13c4-4728-9e00-2a561279976a","ios":"levelo://app?vid=58b675b2-13c4-4728-9e00-2a561279976a"},"vehicle_type_id":"4","last_reported":1784696267,"current_range_meters":36400,"station_id":"st_d6o2h0d0559c73evc1b0","pricing_plan_id":"cebpf4jnsgd1na2vs0mg"},{"bike_id":"e2a7024c-7996-4d5b-8595-fc0df99c43db","system_id":"levelo_inurba_marseille","lat":43.27068,"lon":5.42283,"is_reserved":false,"is_disabled":false,"rental_uris":{"android":"levelo://app?vid=e2a7024c-7996-4d5b-8595-fc0df99c43db","ios":"levelo://app?vid=e2a7024c-7996-4d5b-8595-fc0df99c43db"},"vehicle_type_id":"4","last_reported":1784696267,"current_range_meters":34800,"station_id":"ce4bhk92rcd13ifvqgb0","pricing_plan_id":"cebpf4jnsgd1na2vs0mg"},{"bike_id":"8d8673aa-a69c-4d74-931d-06b8f35221f4","system_id":"levelo_inurba_marseille","lat":43.26704,"lon":5.41981,"is_reserved":false,"is_disabled":false,"rental_uris":{"android":"levelo://app?vid=8d8673aa-a69c-4d74-931d-06b8f35221f4","ios":"levelo://app?vid=8d8673aa-a69c-4d74-931d-06b8f35221f4"},"vehicle_type_id":"4","last_reported":1784696267,"current_range_meters":27600,"station_id":"","pricing_plan_id":"cebpf4jnsgd1na2vs0mg"},{"bike_id":"8dbb49ea-b213-42e0-ac0d-5e7f198ad893","system_id":"levelo_inurba_marseille","lat":43.30481,"lon":5.37891,"is_reserved":false,"is_disabled":false,"rental_uris":{"android":"levelo://app?vid=8dbb49ea-b213-42e0-ac0d-5e7f198ad893","ios":"levelo://app?vid=8dbb49ea-b213-42e0-ac0d-5e7f198ad893"},"vehicle_type_id":"4","last_reported":1784696267,"current_range_meters":16000,"station_id":"ce4bgup2rcd13ifvqcn0","pricing_plan_id":"cebpf4jnsgd1na2vs0mg"},{"bike_id":"bb6c1d94-b8a1-4d7e-8e26-2628675f7e1d","system_id":"levelo_inurba_marseille","lat":43.29613,"lon":5.377,"is_reserved":false,"is_disabled":true,"rental_uris":{"android":"levelo://app?vid=bb6c1d94-b8a1-4d7e-8e26-2628675f7e1d","ios":"levelo://app?vid=bb6c1d94-b8a1-4d7e-8e26-2628675f7e1d"},"vehicle_type_id":"4","last_reported":1784696267,"current_range_meters":24800,"station_id":"ce4bgi92rcd13ifvqb90","pricing_plan_id":"cebpf4jnsgd1na2vs0mg"},{"bike_id":"7b78cce7-94ca-41c9-a11e-655e38486b7a","system_id":"levelo_inurba_marseille","lat":43.29282,"lon":5.40142,"is_reserved":false,"is_disabled":false,"rental_uris":{"android":"levelo://app?vid=7b78cce7-94ca-41c9-a11e-655e38486b7a","ios":"levelo://app?vid=7b78cce7-94ca-41c9-a11e-655e38486b7a"},"vehicle_type_id":"4","last_reported":1784696267,"current_range_meters":21600,"station_id":"ce4bh312rcd13ifvqdk0","pricing_plan_id":"cebpf4jnsgd1na2vs0mg"},{"bike_id":"1f5d690e-ec61-49f6-987c-1b19bb5fd774","system_id":"levelo_inurba_marseille","lat":43.32352,"lon":5.38909,"is_reserved":false,"is_disabled":false,"rental_uris":{"android":"levelo://app?vid=1f5d690e-ec61-49f6-987c-1b19bb5fd774","ios":"levelo://app?vid=1f5d690e-ec61-49f6-987c-1b19bb5fd774"},"vehicle_type_id":"4","last_reported":1784696267,"current_range_meters":33200,"station_id":"ce4bhqp2rcd13ifvqhog","pricing_plan_id":"cebpf4jnsgd1na2vs0mg"},{"bike_id":"1fade11d-8e73-4748-8586-d9741ca55ced","system_id":"levelo_inurba_marseille","lat":43.317152,"lon":5.437034,"is_reserved":false,"is_disabled":false,"rental_uris":{"android":"levelo://app?vid=1fade11d-8e73-4748-8586-d9741ca55ced","ios":"levelo://app?vid=1fade11d-8e73-4748-8586-d9741ca55ced"},"vehicle_type_id":"4","last_reported":1784696267,"current_range_meters":32800,"station_id":"ce4bhp92rcd13ifvqhcg","pricing_plan_id":"cebpf4jnsgd1na2vs0mg"},{"bike_id":"4644cf2c-f4d4-4f3e-85e3-f5d53e5ee689","system_id":"levelo_inurba_marseille","lat":43.29224,"lon":5.39329,"is_reserved":false,"is_disabled":false,"rental_uris":{"android":"levelo://app?vid=4644cf2c-f4d4-4f3e-85e3-f5d53e5ee689","ios":"levelo://app?vid=4644cf2c-f4d4-4f3e-85e3-f5d53e5ee689"},"vehicle_type_id":"4","last_reported":1784696267,"current_range_meters":11600,"station_id":"ce4bh192rcd13ifvqdd0","pricing_plan_id":"cebpf4jnsgd1na2vs0mg"},{"bike_id":"86eb6eff-89f2-451a-8236-1b576243dc9a","system_id":"levelo_inurba_marseille","lat":43.27818,"lon":5.40721,"is_reserved":false,"is_disabled":false,"rental_uris":{"android":"levelo://app?vid=86eb6eff-89f2-451a-8236-1b576243dc9a","ios":"levelo://app?vid=86eb6eff-89f2-451a-8236-1b576243dc9a"},"vehicle_type_id":"4","last_reported":1784696267,"current_range_meters":10800,"station_id":"ce4bhnh2rcd13ifvqgtg","pricing_plan_id":"cebpf4jnsgd1na2vs0mg"},{"bike_id":"63a56c07-5d6f-412d-84a7-24ea5e8b27d1","system_id":"levelo_inurba_marseille","lat":43.24995,"lon":5.38931,"is_reserved":false,"is_disabled":false,"rental_uris":{"android":"levelo://app?vid=63a56c07-5d6f-412d-84a7-24ea5e8b27d1","ios":"levelo://app?vid=63a56c07-5d6f-412d-84a7-24ea5e8b27d1"},"vehicle_type_id":"4","last_reported":1784696267,"current_range_meters":28400,"station_id":"ce4bhgp2rcd13ifvqfd0","pricing_plan_id":"cebpf4jnsgd1na2vs0mg"},{"bike_id":"b6d9c79a-9119-41da-ab83-084f518bc6f6","system_id":"levelo_inurba_marseille","lat":43.29201,"lon":5.39342,"is_reserved":false,"is_disabled":false,"rental_uris":{"android":"levelo://app?vid=b6d9c79a-9119-41da-ab83-084f518bc6f6","ios":"levelo://app?vid=b6d9c79a-9119-41da-ab83-084f518bc6f6"},"vehicle_type_id":"4","last_reported":1784696267,"current_range_meters":25200,"station_id":"ce4bh192rcd13ifvqdd0","pricing_plan_id":"cebpf4jnsgd1na2vs0mg"},{"bike_id":"36f797d9-5b95-4843-b50e-7f80ed979ebf","system_id":"levelo_inurba_marseille","lat":43.25577,"lon":5.38231,"is_reserved":false,"is_disabled":false,"rental_uris":{"android":"levelo://app?vid=36f797d9-5b95-4843-b50e-7f80ed979ebf","ios":"levelo://app?vid=36f797d9-5b95-4843-b50e-7f80ed979ebf"},"vehicle_type_id":"4","last_reported":1784696267,"current_range_meters":27200,"station_id":"ce4bhih2rcd13ifvqfs0","pricing_plan_id":"cebpf4jnsgd1na2vs0mg"},{"bike_id":"a31cea0c-4cff-4f6d-8f93-36842670158b","system_id":"levelo_inurba_marseille","lat":43.29706,"lon":5.36614,"is_reserved":false,"is_disabled":true,"rental_uris":{"android":"levelo://app?vid=a31cea0c-4cff-4f6d-8f93-36842670158b","ios":"levelo://app?vid=a31cea0c-4cff-4f6d-8f93-36842670158b"},"vehicle_type_id":"4","last_reported":1784696267,"current_range_meters":9200,"station_id":"ce4bgn12rcd13ifvqbt0","pricing_plan_id":"cebpf4jnsgd1na2vs0mg"},{"bike_id":"669efdaa-e53b-4d57-8470-2240353f2ec9","system_id":"levelo_inurba_marseille","lat":43.28701,"lon":5.37397,"is_reserved":false,"is_disabled":false,"rental_uris":{"android":"levelo://app?vid=669efdaa-e53b-4d57-8470-2240353f2ec9","ios":"levelo://app?vid=669efdaa-e53b-4d57-8470-2240353f2ec9"},"vehicle_type_id":"4","last_reported":1784696267,"current_range_meters":22000,"station_id":"ce4bh3p2rcd13ifvqdq0","pricing_plan_id":"cebpf4jnsgd1na2vs0mg"},{"bike_id":"e8e76fdb-2435-48b2-aa84-a6718b0c1249","system_id":"levelo_inurba_marseille","lat":43.26587,"lon":5.37301,"is_reserved":false,"is_disabled":false,"rental_uris":{"android":"levelo://app?vid=e8e76fdb-2435-48b2-aa84-a6718b0c1249","ios":"levelo://app?vid=e8e76fdb-2435-48b2-aa84-a6718b0c1249"},"vehicle_type_id":"4","last_reported":1784696267,"current_range_meters":39200,"station_id":"ce4bhg12rcd13ifvqf70","pricing_plan_id":"cebpf4jnsgd1na2vs0mg"},{"bike_id":"6d609200-2c64-463b-bd0e-70a61a4731c2","system_id":"levelo_inurba_marseille","lat":43.24062,"lon":5.37743,"is_reserved":false,"is_disabled":false,"rental_uris":{"android":"levelo://app?vid=6d609200-2c64-463b-bd0e-70a61a4731c2","ios":"levelo://app?vid=6d609200-2c64-463b-bd0e-70a61a4731c2"},"vehicle_type_id":"4","last_reported":1784696267,"current_range_meters":38000,"station_id":"ce4bhnp2rcd13ifvqgvg","pricing_plan_id":"cebpf4jnsgd1na2vs0mg"},{"bike_id":"089e00de-62b4-4961-9621-790ed5610bc2","system_id":"levelo_inurba_marseille","lat":43.27823,"lon":5.4073,"is_reserved":false,"is_disabled":false,"rental_uris":{"android":"levelo://app?vid=089e00de-62b4-4961-9621-790ed5610bc2","ios":"levelo://app?vid=089e00de-62b4-4961-9621-790ed5610bc2"},"vehicle_type_id":"4","last_reported":1784696267,"current_range_meters":32000,"station_id":"ce4bhnh2rcd13ifvqgtg","pricing_plan_id":"cebpf4jnsgd1na2vs0mg"},{"bike_id":"747d888c-b833-4d91-8098-768070d4079e","system_id":"levelo_inurba_marseille","lat":43.30565,"lon":5.38199,"is_reserved":false,"is_disabled":false,"rental_uris":{"android":"levelo://app?vid=747d888c-b833-4d91-8098-768070d4079e","ios":"levelo://app?vid=747d888c-b833-4d91-8098-768070d4079e"},"vehicle_type_id":"4","last_reported":1784696267,"current_range_meters":38000,"station_id":"","pricing_plan_id":"cebpf4jnsgd1na2vs0mg"},{"bike_id":"425cee52-7ff4-408d-b63f-f1bb20a33257","system_id":"levelo_inurba_marseille","lat":43.27509,"lon":5.4258,"is_reserved":false,"is_disabled":false,"rental_uris":{"android":"levelo://app?vid=425cee52-7ff4-408d-b63f-f1bb20a33257","ios":"levelo://app?vid=425cee52-7ff4-408d-b63f-f1bb20a33257"},"vehicle_type_id":"4","last_reported":1784696267,"current_range_meters":38800,"station_id":"st_d8t4bh7nbrqs73arha60","pricing_plan_id":"cebpf4jnsgd1na2vs0mg"},{"bike_id":"acb6c310-64e8-4ffb-9d0e-3645b38213aa","system_id":"levelo_inurba_marseille","lat":43.22569,"lon":5.4163,"is_reserved":false,"is_disabled":false,"rental_uris":{"android":"levelo://app?vid=acb6c310-64e8-4ffb-9d0e-3645b38213aa","ios":"levelo://app?vid=acb6c310-64e8-4ffb-9d0e-3645b38213aa"},"vehicle_type_id":"4","last_reported":1784696267,"current_range_meters":10000,"station_id":"st_d2o4gvlbi1j2169b742g","pricing_plan_id":"cebpf4jnsgd1na2vs0mg"},{"bike_id":"73db504f-68cc-4816-908b-084ee5c25663","system_id":"levelo_inurba_marseille","lat":43.31375,"lon":5.38519,"is_reserved":false,"is_disabled":false,"rental_uris":{"android":"levelo://app?vid=73db504f-68cc-4816-908b-084ee5c25663","ios":"levelo://app?vid=73db504f-68cc-4816-908b-084ee5c25663"},"vehicle_type_id":"4","last_reported":1784696267,"current_range_meters":8800,"station_id":"ce4bgt92rcd13ifvqcf0","pricing_plan_id":"cebpf4jnsgd1na2vs0mg"},{"bike_id":"344bbad1-ead8-4b08-9c41-a78ea8f96000","system_id":"levelo_inurba_marseille","lat":43.30319,"lon":5.40443,"is_reserved":false,"is_disabled":false,"rental_uris":{"android":"levelo://app?vid=344bbad1-ead8-4b08-9c41-a78ea8f96000","ios":"levelo://app?vid=344bbad1-ead8-4b08-9c41-a78ea8f96000"},"vehicle_type_id":"4","last_reported":1784696267,"current_range_meters":38400,"station_id":"ce4bh012rcd13ifvqd10","pricing_plan_id":"cebpf4jnsgd1na2vs0mg"},{"bike_id":"2b2d5806-a98a-4b6d-8666-219c96826a65","system_id":"levelo_inurba_marseille","lat":43.32999,"lon":5.38988,"is_reserved":false,"is_disabled":false,"rental_uris":{"android":"levelo://app?vid=2b2d5806-a98a-4b6d-8666-219c96826a65","ios":"levelo://app?vid=2b2d5806-a98a-4b6d-8666-219c96826a65"},"vehicle_type_id":"4","last_reported":1784696267,"current_range_meters":9600,"station_id":"ce4bhr92rcd13ifvqhrg","pricing_plan_id":"cebpf4jnsgd1na2vs0mg"},{"bike_id":"f769a164-01c2-4690-8308-5fb21562e8b1","system_id":"levelo_inurba_marseille","lat":43.29981,"lon":5.41329,"is_reserved":false,"is_disabled":false,"rental_uris":{"android":"levelo://app?vid=f769a164-01c2-4690-8308-5fb21562e8b1","ios":"levelo://app?vid=f769a164-01c2-4690-8308-5fb21562e8b1"},"vehicle_type_id":"4","last_reported":1784696267,"current_range_meters":36000,"station_id":"ce4bhp12rcd13ifvqh9g","pricing_plan_id":"cebpf4jnsgd1na2vs0mg"},{"bike_id":"195cc7b0-3f75-4378-94c3-22d9b206abe5","system_id":"levelo_inurba_marseille","lat":43.30533,"lon":5.3656,"is_reserved":false,"is_disabled":false,"rental_uris":{"android":"levelo://app?vid=195cc7b0-3f75-4378-94c3-22d9b206abe5","ios":"levelo://app?vid=195cc7b0-3f75-4378-94c3-22d9b206abe5"},"vehicle_type_id":"4","last_reported":1784696267,"current_range_meters":35200,"station_id":"ce4bgs12rcd13ifvqcag","pricing_plan_id":"cebpf4jnsgd1na2vs0mg"},{"bike_id":"e4c3a333-22a8-4ef0-a8a5-dc42f579f5a4","system_id":"levelo_inurba_marseille","lat":43.24628,"lon":5.38141,"is_reserved":false,"is_disabled":false,"rental_uris":{"android":"levelo://app?vid=e4c3a333-22a8-4ef0-a8a5-dc42f579f5a4","ios":"levelo://app?vid=e4c3a333-22a8-4ef0-a8a5-dc42f579f5a4"},"vehicle_type_id":"4","last_reported":1784696267,"current_range_meters":38400,"station_id":"ce4bhih2rcd13ifvqfr0","pricing_plan_id":"cebpf4jnsgd1na2vs0mg"},{"bike_id":"faba9410-98bf-4f8c-b639-11a06e7796dd","system_id":"levelo_inurba_marseille","lat":43.29627,"lon":5.40609,"is_reserved":false,"is_disabled":false,"rental_uris":{"android":"levelo://app?vid=faba9410-98bf-4f8c-b639-11a06e7796dd","ios":"levelo://app?vid=faba9410-98bf-4f8c-b639-11a06e7796dd"},"vehicle_type_id":"4","last_reported":1784696267,"current_range_meters":38800,"station_id":"ce4bh0h2rcd13ifvqd60","pricing_plan_id":"cebpf4jnsgd1na2vs0mg"},{"bike_id":"d5ac6a32-52db-493b-a4c8-a42b6ec26b8b","system_id":"levelo_inurba_marseille","lat":43.3036,"lon":5.41867,"is_reserved":false,"is_disabled":false,"rental_uris":{"android":"levelo://app?vid=d5ac6a32-52db-493b-a4c8-a42b6ec26b8b","ios":"levelo://app?vid=d5ac6a32-52db-493b-a4c8-a42b6ec26b8b"},"vehicle_type_id":"4","last_reported":1784696267,"current_range_meters":38400,"station_id":"ce4bhop2rcd13ifvqh7g","pricing_plan_id":"cebpf4jnsgd1na2vs0mg"},{"bike_id":"813a74a4-4342-4148-980b-ae4bb32f76ea","system_id":"levelo_inurba_marseille","lat":43.25916,"lon":5.40908,"is_reserved":false,"is_disabled":true,"rental_uris":{"android":"levelo://app?vid=813a74a4-4342-4148-980b-ae4bb32f76ea","ios":"levelo://app?vid=813a74a4-4342-4148-980b-ae4bb32f76ea"},"vehicle_type_id":"4","last_reported":1784696267,"current_range_meters":17200,"station_id":"ce4bhm92rcd13ifvqglg","pricing_plan_id":"cebpf4jnsgd1na2vs0mg"},{"bike_id":"e296b8d8-7118-43f1-9517-1473cfb44651","system_id":"levelo_inurba_marseille","lat":43.28696,"lon":5.38673,"is_reserved":false,"is_disabled":false,"rental_uris":{"android":"levelo://app?vid=e296b8d8-7118-43f1-9517-1473cfb44651","ios":"levelo://app?vid=e296b8d8-7118-43f1-9517-1473cfb44651"},"vehicle_type_id":"4","last_reported":1784696267,"current_range_meters":16400,"station_id":"ce4bh492rcd13ifvqdug","pricing_plan_id":"cebpf4jnsgd1na2vs0mg"},{"bike_id":"aee2475a-fb2d-4bb0-a551-1145de4b2b3a","system_id":"levelo_inurba_marseille","lat":43.23206,"lon":5.35539,"is_reserved":false,"is_disabled":false,"rental_uris":{"android":"levelo://app?vid=aee2475a-fb2d-4bb0-a551-1145de4b2b3a","ios":"levelo://app?vid=aee2475a-fb2d-4bb0-a551-1145de4b2b3a"},"vehicle_type_id":"4","last_reported":1784696267,"current_range_meters":38400,"station_id":"ce4bhu92rcd13ifvqi70","pricing_plan_id":"cebpf4jnsgd1na2vs0mg"},{"bike_id":"852376dd-f04f-4afc-82a9-1351bd20ef1f","system_id":"levelo_inurba_marseille","lat":43.23066,"lon":5.35479,"is_reserved":false,"is_disabled":false,"rental_uris":{"android":"levelo://app?vid=852376dd-f04f-4afc-82a9-1351bd20ef1f","ios":"levelo://app?vid=852376dd-f04f-4afc-82a9-1351bd20ef1f"},"vehicle_type_id":"4","last_reported":1784696267,"current_range_meters":39200,"station_id":"cpo3342slgdg3j2ifvpg","pricing_plan_id":"cebpf4jnsgd1na2vs0mg"},{"bike_id":"47ff0f9f-308b-4144-bd8b-574e9767fcd6","system_id":"levelo_inurba_marseille","lat":43.23063,"lon":5.35516,"is_reserved":false,"is_disabled":false,"rental_uris":{"android":"levelo://app?vid=47ff0f9f-308b-4144-bd8b-574e9767fcd6","ios":"levelo://app?vid=47ff0f9f-308b-4144-bd8b-574e9767fcd6"},"vehicle_type_id":"4","last_reported":1784696267,"current_range_meters":33200,"station_id":"cpo3342slgdg3j2ifvpg","pricing_plan_id":"cebpf4jnsgd1na2vs0mg"},{"bike_id":"bace381c-6258-4d80-80f1-070c343af026","system_id":"levelo_inurba_marseille","lat":43.3316,"lon":5.37698,"is_reserved":false,"is_disabled":false,"rental_uris":{"android":"levelo://app?vid=bace381c-6258-4d80-80f1-070c343af026","ios":"levelo://app?vid=bace381c-6258-4d80-80f1-070c343af026"},"vehicle_type_id":"4","last_reported":1784696267,"current_range_meters":10800,"station_id":"st_d46cu089ee8s73dldbu0","pricing_plan_id":"cebpf4jnsgd1na2vs0mg"},{"bike_id":"742d461b-7afc-4575-a2dd-f581a8bde921","system_id":"levelo_inurba_marseille","lat":43.26372,"lon":5.41064,"is_reserved":false,"is_disabled":false,"rental_uris":{"android":"levelo://app?vid=742d461b-7afc-4575-a2dd-f581a8bde921","ios":"levelo://app?vid=742d461b-7afc-4575-a2dd-f581a8bde921"},"vehicle_type_id":"4","last_reported":1784696267,"current_range_meters":39200,"station_id":"st_d4e5ca6na9uc73bfl5fg","pricing_plan_id":"cebpf4jnsgd1na2vs0mg"},{"bike_id":"3bd23bf9-e7c4-48ea-9a19-dc3245545753","system_id":"levelo_inurba_marseille","lat":43.28285,"lon":5.40493,"is_reserved":false,"is_disabled":false,"rental_uris":{"android":"levelo://app?vid=3bd23bf9-e7c4-48ea-9a19-dc3245545753","ios":"levelo://app?vid=3bd23bf9-e7c4-48ea-9a19-dc3245545753"},"vehicle_type_id":"4","last_reported":1784696267,"current_range_meters":8800,"station_id":"","pricing_plan_id":"cebpf4jnsgd1na2vs0mg"},{"bike_id":"e9e543b0-8ca5-47a6-998c-4902ea53cdd4","system_id":"levelo_inurba_marseille","lat":43.25197,"lon":5.37322,"is_reserved":false,"is_disabled":true,"rental_uris":{"android":"levelo://app?vid=e9e543b0-8ca5-47a6-998c-4902ea53cdd4","ios":"levelo://app?vid=e9e543b0-8ca5-47a6-998c-4902ea53cdd4"},"vehicle_type_id":"4","last_reported":1784696267,"current_range_meters":12400,"station_id":"","pricing_plan_id":"cebpf4jnsgd1na2vs0mg"},{"bike_id":"4f31e804-3597-4927-9198-b18f1598804e","system_id":"levelo_inurba_marseille","lat":43.27924,"lon":5.39577,"is_reserved":false,"is_disabled":true,"rental_uris":{"android":"levelo://app?vid=4f31e804-3597-4927-9198-b18f1598804e","ios":"levelo://app?vid=4f31e804-3597-4927-9198-b18f1598804e"},"vehicle_type_id":"4","last_reported":1784696267,"current_range_meters":800,"station_id":"ce4bhf92rcd13ifvqf40","pricing_plan_id":"cebpf4jnsgd1na2vs0mg"},{"bike_id":"ca63e1b3-2282-46f0-b061-43a09b67b173","system_id":"levelo_inurba_marseille","lat":43.29888,"lon":5.3974,"is_reserved":false,"is_disabled":false,"rental_uris":{"android":"levelo://app?vid=ca63e1b3-2282-46f0-b061-43a09b67b173","ios":"levelo://app?vid=ca63e1b3-2282-46f0-b061-43a09b67b173"},"vehicle_type_id":"4","last_reported":1784696267,"current_range_meters":28800,"station_id":"ce4bh0h2rcd13ifvqd50","pricing_plan_id":"cebpf4jnsgd1na2vs0mg"},{"bike_id":"6fe74c71-fba9-460a-974a-cd7fca2e831c","system_id":"levelo_inurba_marseille","lat":43.29016,"lon":5.35554,"is_reserved":false,"is_disabled":false,"rental_uris":{"android":"levelo://app?vid=6fe74c71-fba9-460a-974a-cd7fca2e831c","ios":"levelo://app?vid=6fe74c71-fba9-460a-974a-cd7fca2e831c"},"vehicle_type_id":"4","last_reported":1784696267,"current_range_meters":24800,"station_id":"ce4bhb92rcd13ifvqen0","pricing_plan_id":"cebpf4jnsgd1na2vs0mg"},{"bike_id":"e9728cd7-6656-4769-a0f0-59a3853584ba","system_id":"levelo_inurba_marseille","lat":43.30262,"lon":5.40082,"is_reserved":false,"is_disabled":false,"rental_uris":{"android":"levelo://app?vid=e9728cd7-6656-4769-a0f0-59a3853584ba","ios":"levelo://app?vid=e9728cd7-6656-4769-a0f0-59a3853584ba"},"vehicle_type_id":"4","last_reported":1784696267,"current_range_meters":3200,"station_id":"ce4bgvh2rcd13ifvqcs0","pricing_plan_id":"cebpf4jnsgd1na2vs0mg"},{"bike_id":"8f31f3af-0aa6-4421-8e2c-a77a880bef79","system_id":"levelo_inurba_marseille","lat":43.273726,"lon":5.398294,"is_reserved":false,"is_disabled":false,"rental_uris":{"android":"levelo://app?vid=8f31f3af-0aa6-4421-8e2c-a77a880bef79","ios":"levelo://app?vid=8f31f3af-0aa6-4421-8e2c-a77a880bef79"},"vehicle_type_id":"4","last_reported":1784696267,"current_range_meters":8800,"station_id":"","pricing_plan_id":"cebpf4jnsgd1na2vs0mg"},{"bike_id":"285820f9-9811-40a5-87b0-0491a6035481","system_id":"levelo_inurba_marseille","lat":43.27176,"lon":5.40954,"is_reserved":false,"is_disabled":false,"rental_uris":{"android":"levelo://app?vid=285820f9-9811-40a5-87b0-0491a6035481","ios":"levelo://app?vid=285820f9-9811-40a5-87b0-0491a6035481"},"vehicle_type_id":"4","last_reported":1784696267,"current_range_meters":34000,"station_id":"ce4bhl12rcd13ifvqgf0","pricing_plan_id":"cebpf4jnsgd1na2vs0mg"},{"bike_id":"7211ad7f-c876-4593-9d5a-b8d2a8ea0667","system_id":"levelo_inurba_marseille","lat":43.28693,"lon":5.37433,"is_reserved":false,"is_disabled":false,"rental_uris":{"android":"levelo://app?vid=7211ad7f-c876-4593-9d5a-b8d2a8ea0667","ios":"levelo://app?vid=7211ad7f-c876-4593-9d5a-b8d2a8ea0667"},"vehicle_type_id":"4","last_reported":1784696267,"current_range_meters":8000,"station_id":"ce4bh3p2rcd13ifvqdq0","pricing_plan_id":"cebpf4jnsgd1na2vs0mg"},{"bike_id":"83925a5d-2fdb-4961-87af-9524cc4451ad","system_id":"levelo_inurba_marseille","lat":43.30985,"lon":5.39047,"is_reserved":false,"is_disabled":false,"rental_uris":{"android":"levelo://app?vid=83925a5d-2fdb-4961-87af-9524cc4451ad","ios":"levelo://app?vid=83925a5d-2fdb-4961-87af-9524cc4451ad"},"vehicle_type_id":"4","last_reported":1784696267,"current_range_meters":38800,"station_id":"ce4bgup2rcd13ifvqco0","pricing_plan_id":"cebpf4jnsgd1na2vs0mg"},{"bike_id":"dfd808b2-eb0f-42c3-bea8-e719e619a590","system_id":"levelo_inurba_marseille","lat":43.26783,"lon":5.39431,"is_reserved":false,"is_disabled":true,"rental_uris":{"android":"levelo://app?vid=dfd808b2-eb0f-42c3-bea8-e719e619a590","ios":"levelo://app?vid=dfd808b2-eb0f-42c3-bea8-e719e619a590"},"vehicle_type_id":"4","last_reported":1784696267,"current_range_meters":37600,"station_id":"ce4bhh12rcd13ifvqfg0","pricing_plan_id":"cebpf4jnsgd1na2vs0mg"},{"bike_id":"1a8f7e32-5d47-4694-89a5-a9089b244299","system_id":"levelo_inurba_marseille","lat":43.28062,"lon":5.38474,"is_reserved":false,"is_disabled":false,"rental_uris":{"android":"levelo://app?vid=1a8f7e32-5d47-4694-89a5-a9089b244299","ios":"levelo://app?vid=1a8f7e32-5d47-4694-89a5-a9089b244299"},"vehicle_type_id":"4","last_reported":1784696267,"current_range_meters":6800,"station_id":"","pricing_plan_id":"cebpf4jnsgd1na2vs0mg"},{"bike_id":"bb96650a-3021-4a12-aa1c-45954489ce0e","system_id":"levelo_inurba_marseille","lat":43.34111,"lon":5.40977,"is_reserved":false,"is_disabled":false,"rental_uris":{"android":"levelo://app?vid=bb96650a-3021-4a12-aa1c-45954489ce0e","ios":"levelo://app?vid=bb96650a-3021-4a12-aa1c-45954489ce0e"},"vehicle_type_id":"4","last_reported":1784696267,"current_range_meters":38400,"station_id":"ce4bhqh2rcd13ifvqhlg","pricing_plan_id":"cebpf4jnsgd1na2vs0mg"},{"bike_id":"3ce23697-d8a8-4f39-a133-556c0da60759","system_id":"levelo_inurba_marseille","lat":43.31056,"lon":5.37153,"is_reserved":false,"is_disabled":false,"rental_uris":{"android":"levelo://app?vid=3ce23697-d8a8-4f39-a133-556c0da60759","ios":"levelo://app?vid=3ce23697-d8a8-4f39-a133-556c0da60759"},"vehicle_type_id":"4","last_reported":1784696267,"current_range_meters":33200,"station_id":"st_d4kl2rp97mjs73e7tdfg","pricing_plan_id":"cebpf4jnsgd1na2vs0mg"},{"bike_id":"55905200-eaa2-4ede-b0e7-e8e4672cccac","system_id":"levelo_inurba_marseille","lat":43.30139,"lon":5.43134,"is_reserved":false,"is_disabled":false,"rental_uris":{"android":"levelo://app?vid=55905200-eaa2-4ede-b0e7-e8e4672cccac","ios":"levelo://app?vid=55905200-eaa2-4ede-b0e7-e8e4672cccac"},"vehicle_type_id":"4","last_reported":1784696267,"current_range_meters":19200,"station_id":"st_d3js3co5814s73ftftug","pricing_plan_id":"cebpf4jnsgd1na2vs0mg"},{"bike_id":"cc5f184e-17df-4157-ae70-95f0c4d7b5d3","system_id":"levelo_inurba_marseille","lat":43.29642,"lon":5.40598,"is_reserved":false,"is_disabled":false,"rental_uris":{"android":"levelo://app?vid=cc5f184e-17df-4157-ae70-95f0c4d7b5d3","ios":"levelo://app?vid=cc5f184e-17df-4157-ae70-95f0c4d7b5d3"},"vehicle_type_id":"4","last_reported":1784696267,"current_range_meters":38400,"station_id":"ce4bh0h2rcd13ifvqd60","pricing_plan_id":"cebpf4jnsgd1na2vs0mg"},{"bike_id":"7b7c350c-7fa0-4260-b6c2-812c00fe7727","system_id":"levelo_inurba_marseille","lat":43.32108,"lon":5.36753,"is_reserved":false,"is_disabled":false,"rental_uris":{"android":"levelo://app?vid=7b7c350c-7fa0-4260-b6c2-812c00fe7727","ios":"levelo://app?vid=7b7c350c-7fa0-4260-b6c2-812c00fe7727"},"vehicle_type_id":"4","last_reported":1784696267,"current_range_meters":28400,"station_id":"ce4bhrh2rcd13ifvqhug","pricing_plan_id":"cebpf4jnsgd1na2vs0mg"},{"bike_id":"002b6de9-4906-4900-bd53-a26437451aab","system_id":"levelo_inurba_marseille","lat":43.33265,"lon":5.35887,"is_reserved":false,"is_disabled":false,"rental_uris":{"android":"levelo://app?vid=002b6de9-4906-4900-bd53-a26437451aab","ios":"levelo://app?vid=002b6de9-4906-4900-bd53-a26437451aab"},"vehicle_type_id":"4","last_reported":1784696267,"current_range_meters":13600,"station_id":"","pricing_plan_id":"cebpf4jnsgd1na2vs0mg"},{"bike_id":"95ac4110-a907-4f71-8243-9eb0f79a6cff","system_id":"levelo_inurba_marseille","lat":43.28492,"lon":5.38537,"is_reserved":false,"is_disabled":false,"rental_uris":{"android":"levelo://app?vid=95ac4110-a907-4f71-8243-9eb0f79a6cff","ios":"levelo://app?vid=95ac4110-a907-4f71-8243-9eb0f79a6cff"},"vehicle_type_id":"4","last_reported":1784696267,"current_range_meters":36800,"station_id":"ce4bh8p2rcd13ifvqeb0","pricing_plan_id":"cebpf4jnsgd1na2vs0mg"},{"bike_id":"94f1b0ad-aaa9-4b51-806c-9eae39355e9b","system_id":"levelo_inurba_marseille","lat":43.27375,"lon":5.36255,"is_reserved":false,"is_disabled":false,"rental_uris":{"android":"levelo://app?vid=94f1b0ad-aaa9-4b51-806c-9eae39355e9b","ios":"levelo://app?vid=94f1b0ad-aaa9-4b51-806c-9eae39355e9b"},"vehicle_type_id":"4","last_reported":1784696267,"current_range_meters":30400,"station_id":"ce4bhbh2rcd13ifvqeo0","pricing_plan_id":"cebpf4jnsgd1na2vs0mg"},{"bike_id":"0d452023-d4b9-4bb9-af2c-f7ad329ae492","system_id":"levelo_inurba_marseille","lat":43.26565,"lon":5.38999,"is_reserved":false,"is_disabled":false,"rental_uris":{"android":"levelo://app?vid=0d452023-d4b9-4bb9-af2c-f7ad329ae492","ios":"levelo://app?vid=0d452023-d4b9-4bb9-af2c-f7ad329ae492"},"vehicle_type_id":"4","last_reported":1784696267,"current_range_meters":37600,"station_id":"ce4bhe12rcd13ifvqf30","pricing_plan_id":"cebpf4jnsgd1na2vs0mg"},{"bike_id":"3d185dea-3134-4b35-9cee-49aed1f0c978","system_id":"levelo_inurba_marseille","lat":43.24666,"lon":5.38194,"is_reserved":false,"is_disabled":true,"rental_uris":{"android":"levelo://app?vid=3d185dea-3134-4b35-9cee-49aed1f0c978","ios":"levelo://app?vid=3d185dea-3134-4b35-9cee-49aed1f0c978"},"vehicle_type_id":"4","last_reported":1784696267,"current_range_meters":37600,"station_id":"ce4bhih2rcd13ifvqfr0","pricing_plan_id":"cebpf4jnsgd1na2vs0mg"},{"bike_id":"0fe90e6e-3da1-4fa8-b307-f545a7a6ddef","system_id":"levelo_inurba_marseille","lat":43.33775,"lon":5.37433,"is_reserved":false,"is_disabled":false,"rental_uris":{"android":"levelo://app?vid=0fe90e6e-3da1-4fa8-b307-f545a7a6ddef","ios":"levelo://app?vid=0fe90e6e-3da1-4fa8-b307-f545a7a6ddef"},"vehicle_type_id":"4","last_reported":1784696267,"current_range_meters":33600,"station_id":"","pricing_plan_id":"cebpf4jnsgd1na2vs0mg"},{"bike_id":"d0553fb2-1bea-4060-8280-35454604a01a","system_id":"levelo_inurba_marseille","lat":43.286187,"lon":5.405365,"is_reserved":false,"is_disabled":false,"rental_uris":{"android":"levelo://app?vid=d0553fb2-1bea-4060-8280-35454604a01a","ios":"levelo://app?vid=d0553fb2-1bea-4060-8280-35454604a01a"},"vehicle_type_id":"4","last_reported":1784696267,"current_range_meters":24400,"station_id":"","pricing_plan_id":"cebpf4jnsgd1na2vs0mg"},{"bike_id":"ba8332a1-4488-4cf4-9483-e0497d9712ec","system_id":"levelo_inurba_marseille","lat":43.28944,"lon":5.36388,"is_reserved":false,"is_disabled":true,"rental_uris":{"android":"levelo://app?vid=ba8332a1-4488-4cf4-9483-e0497d9712ec","ios":"levelo://app?vid=ba8332a1-4488-4cf4-9483-e0497d9712ec"},"vehicle_type_id":"4","last_reported":1784696267,"current_range_meters":39200,"station_id":"ce4bhc92rcd13ifvqetg","pricing_plan_id":"cebpf4jnsgd1na2vs0mg"},{"bike_id":"3536ac08-6fcf-450f-b0c8-49ea39bdc003","system_id":"levelo_inurba_marseille","lat":43.28999,"lon":5.38579,"is_reserved":false,"is_disabled":false,"rental_uris":{"android":"levelo://app?vid=3536ac08-6fcf-450f-b0c8-49ea39bdc003","ios":"levelo://app?vid=3536ac08-6fcf-450f-b0c8-49ea39bdc003"},"vehicle_type_id":"4","last_reported":1784696267,"current_range_meters":4800,"station_id":"","pricing_plan_id":"cebpf4jnsgd1na2vs0mg"},{"bike_id":"cd388cd5-096c-4c7a-a704-3c0210fbcb15","system_id":"levelo_inurba_marseille","lat":43.29986,"lon":5.37182,"is_reserved":false,"is_disabled":false,"rental_uris":{"android":"levelo://app?vid=cd388cd5-096c-4c7a-a704-3c0210fbcb15","ios":"levelo://app?vid=cd388cd5-096c-4c7a-a704-3c0210fbcb15"},"vehicle_type_id":"4","last_reported":1784696267,"current_range_meters":32400,"station_id":"ce4bgr92rcd13ifvqc7g","pricing_plan_id":"cebpf4jnsgd1na2vs0mg"},{"bike_id":"1981d3ef-d7ae-460e-a247-e2f1120f8322","system_id":"levelo_inurba_marseille","lat":43.24572,"lon":5.41964,"is_reserved":false,"is_disabled":false,"rental_uris":{"android":"levelo://app?vid=1981d3ef-d7ae-460e-a247-e2f1120f8322","ios":"levelo://app?vid=1981d3ef-d7ae-460e-a247-e2f1120f8322"},"vehicle_type_id":"4","last_reported":1784696267,"current_range_meters":18800,"station_id":"","pricing_plan_id":"cebpf4jnsgd1na2vs0mg"},{"bike_id":"765bb8ac-324f-4630-ac9a-8d0c0df64292","system_id":"levelo_inurba_marseille","lat":43.28156,"lon":5.38334,"is_reserved":false,"is_disabled":false,"rental_uris":{"android":"levelo://app?vid=765bb8ac-324f-4630-ac9a-8d0c0df64292","ios":"levelo://app?vid=765bb8ac-324f-4630-ac9a-8d0c0df64292"},"vehicle_type_id":"4","last_reported":1784696267,"current_range_meters":14400,"station_id":"","pricing_plan_id":"cebpf4jnsgd1na2vs0mg"},{"bike_id":"bbb6d84d-52b2-4523-b78b-60cb354411ef","system_id":"levelo_inurba_marseille","lat":43.32112,"lon":5.36767,"is_reserved":false,"is_disabled":false,"rental_uris":{"android":"levelo://app?vid=bbb6d84d-52b2-4523-b78b-60cb354411ef","ios":"levelo://app?vid=bbb6d84d-52b2-4523-b78b-60cb354411ef"},"vehicle_type_id":"4","last_reported":1784696267,"current_range_meters":37600,"station_id":"ce4bhrh2rcd13ifvqhug","pricing_plan_id":"cebpf4jnsgd1na2vs0mg"},{"bike_id":"d327b0c5-8690-4d87-ba95-be54f78c6247","system_id":"levelo_inurba_marseille","lat":43.29025,"lon":5.38639,"is_reserved":false,"is_disabled":false,"rental_uris":{"android":"levelo://app?vid=d327b0c5-8690-4d87-ba95-be54f78c6247","ios":"levelo://app?vid=d327b0c5-8690-4d87-ba95-be54f78c6247"},"vehicle_type_id":"4","last_reported":1784696267,"current_range_meters":16400,"station_id":"ce4bh4p2rcd13ifvqe0g","pricing_plan_id":"cebpf4jnsgd1na2vs0mg"},{"bike_id":"e0d9154b-8af8-4919-a711-4e5b3ba1d809","system_id":"levelo_inurba_marseille","lat":43.27811,"lon":5.40717,"is_reserved":false,"is_disabled":false,"rental_uris":{"android":"levelo://app?vid=e0d9154b-8af8-4919-a711-4e5b3ba1d809","ios":"levelo://app?vid=e0d9154b-8af8-4919-a711-4e5b3ba1d809"},"vehicle_type_id":"4","last_reported":1784696267,"current_range_meters":8800,"station_id":"ce4bhnh2rcd13ifvqgtg","pricing_plan_id":"cebpf4jnsgd1na2vs0mg"},{"bike_id":"a9863fcb-8ca0-4220-b083-cb27e96475fe","system_id":"levelo_inurba_marseille","lat":43.23188,"lon":5.35559,"is_reserved":false,"is_disabled":false,"rental_uris":{"android":"levelo://app?vid=a9863fcb-8ca0-4220-b083-cb27e96475fe","ios":"levelo://app?vid=a9863fcb-8ca0-4220-b083-cb27e96475fe"},"vehicle_type_id":"4","last_reported":1784696267,"current_range_meters":9200,"station_id":"ce4bhu92rcd13ifvqi70","pricing_plan_id":"cebpf4jnsgd1na2vs0mg"},{"bike_id":"4c79e6e5-9748-455a-a287-2b5253fbf6bc","system_id":"levelo_inurba_marseille","lat":43.29172,"lon":5.37159,"is_reserved":false,"is_disabled":false,"rental_uris":{"android":"levelo://app?vid=4c79e6e5-9748-455a-a287-2b5253fbf6bc","ios":"levelo://app?vid=4c79e6e5-9748-455a-a287-2b5253fbf6bc"},"vehicle_type_id":"4","last_reported":1784696267,"current_range_meters":30800,"station_id":"ce4bha92rcd13ifvqeh0","pricing_plan_id":"cebpf4jnsgd1na2vs0mg"},{"bike_id":"a8da38aa-f94e-4c2e-80f0-e41e78a1c855","system_id":"levelo_inurba_marseille","lat":43.2977,"lon":5.38121,"is_reserved":false,"is_disabled":true,"rental_uris":{"android":"levelo://app?vid=a8da38aa-f94e-4c2e-80f0-e41e78a1c855","ios":"levelo://app?vid=a8da38aa-f94e-4c2e-80f0-e41e78a1c855"},"vehicle_type_id":"4","last_reported":1784696267,"current_range_meters":38800,"station_id":"ce4bgip2rcd13ifvqbb0","pricing_plan_id":"cebpf4jnsgd1na2vs0mg"},{"bike_id":"ef50bd35-d62c-4dfa-bea8-564105575a7a","system_id":"levelo_inurba_marseille","lat":43.29582,"lon":5.39009,"is_reserved":false,"is_disabled":true,"rental_uris":{"android":"levelo://app?vid=ef50bd35-d62c-4dfa-bea8-564105575a7a","ios":"levelo://app?vid=ef50bd35-d62c-4dfa-bea8-564105575a7a"},"vehicle_type_id":"4","last_reported":1784696267,"current_range_meters":19200,"station_id":"","pricing_plan_id":"cebpf4jnsgd1na2vs0mg"},{"bike_id":"8280735e-40b9-4aa7-9305-87569a1783b0","system_id":"levelo_inurba_marseille","lat":43.3377,"lon":5.37432,"is_reserved":false,"is_disabled":false,"rental_uris":{"android":"levelo://app?vid=8280735e-40b9-4aa7-9305-87569a1783b0","ios":"levelo://app?vid=8280735e-40b9-4aa7-9305-87569a1783b0"},"vehicle_type_id":"4","last_reported":1784696267,"current_range_meters":22400,"station_id":"","pricing_plan_id":"cebpf4jnsgd1na2vs0mg"},{"bike_id":"354a079f-ed28-41a7-a06b-85ab194fda38","system_id":"levelo_inurba_marseille","lat":43.29458,"lon":5.39787,"is_reserved":false,"is_disabled":true,"rental_uris":{"android":"levelo://app?vid=354a079f-ed28-41a7-a06b-85ab194fda38","ios":"levelo://app?vid=354a079f-ed28-41a7-a06b-85ab194fda38"},"vehicle_type_id":"4","last_reported":1784696267,"current_range_meters":6400,"station_id":"ce4bh3h2rcd13ifvqdo0","pricing_plan_id":"cebpf4jnsgd1na2vs0mg"},{"bike_id":"6055f1b0-cbeb-44b1-b7fc-1347a0e0465e","system_id":"levelo_inurba_marseille","lat":43.30306,"lon":5.39213,"is_reserved":false,"is_disabled":false,"rental_uris":{"android":"levelo://app?vid=6055f1b0-cbeb-44b1-b7fc-1347a0e0465e","ios":"levelo://app?vid=6055f1b0-cbeb-44b1-b7fc-1347a0e0465e"},"vehicle_type_id":"4","last_reported":1784696267,"current_range_meters":5600,"station_id":"ce4bgkh2rcd13ifvqbk0","pricing_plan_id":"cebpf4jnsgd1na2vs0mg"},{"bike_id":"5c914183-7de6-46d0-90c1-c07e2a51c967","system_id":"levelo_inurba_marseille","lat":43.28944,"lon":5.39614,"is_reserved":false,"is_disabled":false,"rental_uris":{"android":"levelo://app?vid=5c914183-7de6-46d0-90c1-c07e2a51c967","ios":"levelo://app?vid=5c914183-7de6-46d0-90c1-c07e2a51c967"},"vehicle_type_id":"4","last_reported":1784696267,"current_range_meters":39200,"station_id":"ce4bh3h2rcd13ifvqdn0","pricing_plan_id":"cebpf4jnsgd1na2vs0mg"},{"bike_id":"f3c665ea-061c-4220-8317-9568e46bbaed","system_id":"levelo_inurba_marseille","lat":43.27961,"lon":5.4104,"is_reserved":false,"is_disabled":false,"rental_uris":{"android":"levelo://app?vid=f3c665ea-061c-4220-8317-9568e46bbaed","ios":"levelo://app?vid=f3c665ea-061c-4220-8317-9568e46bbaed"},"vehicle_type_id":"4","last_reported":1784696267,"current_range_meters":16400,"station_id":"ce4bhnp2rcd13ifvqh0g","pricing_plan_id":"cebpf4jnsgd1na2vs0mg"},{"bike_id":"68d24db2-8be9-4033-a723-22841554027e","system_id":"levelo_inurba_marseille","lat":43.28059,"lon":5.3512,"is_reserved":false,"is_disabled":true,"rental_uris":{"android":"levelo://app?vid=68d24db2-8be9-4033-a723-22841554027e","ios":"levelo://app?vid=68d24db2-8be9-4033-a723-22841554027e"},"vehicle_type_id":"4","last_reported":1784696267,"current_range_meters":0,"station_id":"","pricing_plan_id":"cebpf4jnsgd1na2vs0mg"},{"bike_id":"fa1e86bf-1110-4640-a0b5-4c444df6ac60","system_id":"levelo_inurba_marseille","lat":43.29013,"lon":5.43847,"is_reserved":false,"is_disabled":false,"rental_uris":{"android":"levelo://app?vid=fa1e86bf-1110-4640-a0b5-4c444df6ac60","ios":"levelo://app?vid=fa1e86bf-1110-4640-a0b5-4c444df6ac60"},"vehicle_type_id":"4","last_reported":1784696267,"current_range_meters":32400,"station_id":"","pricing_plan_id":"cebpf4jnsgd1na2vs0mg"},{"bike_id":"8c494dd8-3f7c-4b9d-8471-2dbe8b7b120a","system_id":"levelo_inurba_marseille","lat":43.28342,"lon":5.38085,"is_reserved":false,"is_disabled":false,"rental_uris":{"android":"levelo://app?vid=8c494dd8-3f7c-4b9d-8471-2dbe8b7b120a","ios":"levelo://app?vid=8c494dd8-3f7c-4b9d-8471-2dbe8b7b120a"},"vehicle_type_id":"4","last_reported":1784696267,"current_range_meters":6800,"station_id":"ce4bh412rcd13ifvqdr0","pricing_plan_id":"cebpf4jnsgd1na2vs0mg"},