{"last_updated":1727287942,"ttl":60,"version":"2.2","data":{"bikes":[{"bike_id":"00016f13-b63c-43ff-ab5f-39da0fc9f78a","system_id":"levelo_inurba_marseille","lat":43.28465,"lon":5.35884,"is_reserved":false,"is_disabled":false,"rental_uris":{"android":"levelo://app?vid=00016f13-b63c-43ff-ab5f-39da0fc9f78a","ios":"levelo://app?vid=00016f13-b63c-43ff-ab5f-39da0fc9f78a"},"vehicle_type_id":"4","last_reported":1727287942,"current_range_meters":33200,"station_id":"ce4bhah2rcd13ifvqei0","pricing_plan_id":"cebpf4jnsgd1na2vs0mg"},{"bike_id":"ec2682e4-16c2-46ec-81dd-6e98415c88ba","system_id":"levelo_inurba_marseille","lat":43.29959,"lon":5.41321,"is_reserved":false,"is_disabled":false,"rental_uris":{"android":"levelo://app?vid=ec2682e4-16c2-46ec-81dd-6e98415c88ba","ios":"levelo://app?vid=ec2682e4-16c2-46ec-81dd-6e98415c88ba"},"vehicle_type_id":"4","last_reported":1727287942,"current_range_meters":38800,"station_id":"ce4bhp12rcd13ifvqh9g","pricing_plan_id":"cebpf4jnsgd1na2vs0mg"},{"bike_id":"1df524e5-7f41-481b-ae1d-20fdc76d5f40","system_id":"levelo_inurba_marseille","lat":43.26515,"lon":5.39547,"is_reserved":false,"is_disabled":false,"rental_uris":{"android":"levelo://app?vid=1df524e5-7f41-481b-ae1d-20fdc76d5f40","ios":"levelo://app?vid=1df524e5-7f41-481b-ae1d-20fdc76d5f40"},"vehicle_type_id":"4","last_reported":1727287942,"current_range_meters":4000,"station_id":"ce4bhi12rcd13ifvqfq0","pricing_plan_id":"cebpf4jnsgd1na2vs0mg"},{"bike_id":"f60ea1bf-f56f-432a-896a-47059fa45843","system_id":"levelo_inurba_marseille","lat":43.29602,"lon":5.38107,"is_reserved":false,"is_disabled":false,"rental_uris":{"android":"levelo://app?vid=f60ea1bf-f56f-432a-896a-47059fa45843","ios":"levelo://app?vid=f60ea1bf-f56f-432a-896a-47059fa45843"},"vehicle_type_id":"4","last_reported":1727287942,"current_range_meters":28400,"station_id":"ce4bgl12rcd13ifvqbo0","pricing_plan_id":"cebpf4jnsgd1na2vs0mg"},{"bike_id":"d3ce0e04-dccf-4e83-9200-edab7a080f39","system_id":"levelo_inurba_marseille","lat":43.313333,"lon":5.396888,"is_reserved":false,"is_disabled":false,"rental_uris":{"android":"levelo://app?vid=d3ce0e04-dccf-4e83-9200-edab7a080f39","ios":"levelo://app?vid=d3ce0e04-dccf-4e83-9200-edab7a080f39"},"vehicle_type_id":"4","last_reported":1727287942,"current_range_meters":18000,"station_id":"ce4bgvp2rcd13ifvqcu0","pricing_plan_id":"cebpf4jnsgd1na2vs0mg"},{"bike_id":"45eba069-19b2-45c4-a67b-478acc0442e0","system_id":"levelo_inurba_marseille","lat":43.32666,"lon":5.40994,"is_reserved":false,"is_disabled":false,"rental_uris":{"android":"levelo://app?vid=45eba069-19b2-45c4-a67b-478acc0442e0","ios":"levelo://app?vid=45eba069-19b2-45c4-a67b-478acc0442e0"},"vehicle_type_id":"4","last_reported":1727287942,"current_range_meters":38800,"station_id":"ce4bhpp2rcd13ifvqhgg","pricing_plan_id":"cebpf4jnsgd1na2vs0mg"},{"bike_id":"42a38fb8-549c-4925-bfd5-059df21d4756","system_id":"levelo_inurba_marseille","lat":43.33025,"lon":5.39036,"is_reserved":false,"is_disabled":false,"rental_uris":{"android":"levelo://app?vid=42a38fb8-549c-4925-bfd5-059df21d4756","ios":"levelo://app?vid=42a38fb8-549c-4925-bfd5-059df21d4756"},"vehicle_type_id":"4","last_reported":1727287942,"current_range_meters":8400,"station_id":"ce4bhr92rcd13ifvqhrg","pricing_plan_id":"cebpf4jnsgd1na2vs0mg"},{"bike_id":"73538157-f1e4-4078-831f-acca49c9a427","system_id":"levelo_inurba_marseille","lat":43.30789,"lon":5.37645,"is_reserved":false,"is_disabled":false,"rental_uris":{"android":"levelo://app?vid=73538157-f1e4-4078-831f-acca49c9a427","ios":"levelo://app?vid=73538157-f1e4-4078-831f-acca49c9a427"},"vehicle_type_id":"4","last_reported":1727287942,"current_range_meters":12800,"station_id":"ce4bgv92rcd13ifvqcq0","pricing_plan_id":"cebpf4jnsgd1na2vs0mg"},{"bike_id":"6fc57860-ac8f-4133-a9d1-6e823b17f36b","system_id":"levelo_inurba_marseille","lat":43.30596,"lon":5.39312,"is_reserved":false,"is_disabled":false,"rental_uris":{"android":"levelo://app?vid=6fc57860-ac8f-4133-a9d1-6e823b17f36b","ios":"levelo://app?vid=6fc57860-ac8f-4133-a9d1-6e823b17f36b"},"vehicle_type_id":"4","last_reported":1727287942,"current_range_meters":38800,"station_id":"ce4bh0p2rcd13ifvqd80","pricing_plan_id":"cebpf4jnsgd1na2vs0mg"},{"bike_id":"bdf247ae-bc02-4762-979a-3a1ad75c6085","system_id":"levelo_inurba_marseille","lat":43.30801,"lon":5.43526,"is_reserved":false,"is_disabled":false,"rental_uris":{"android":"levelo://app?vid=bdf247ae-bc02-4762-979a-3a1ad75c6085","ios":"levelo://app?vid=bdf247ae-bc02-4762-979a-3a1ad75c6085"},"vehicle_type_id":"4","last_reported":1727287942,"current_range_meters":8400,"station_id":"ce4bhph2rcd13ifvqheg","pricing_plan_id":"cebpf4jnsgd1na2vs0mg"},{"bike_id":"ef39915e-8c65-4e08-b918-d1f2ce69de36","system_id":"levelo_inurba_marseille","lat":43.30296,"lon":5.39201,"is_reserved":false,"is_disabled":false,"rental_uris":{"android":"levelo://app?vid=ef39915e-8c65-4e08-b918-d1f2ce69de36","ios":"levelo://app?vid=ef39915e-8c65-4e08-b918-d1f2ce69de36"},"vehicle_type_id":"4","last_reported":1727287942,"current_range_meters":38800,"station_id":"ce4bgkh2rcd13ifvqbk0","pricing_plan_id":"cebpf4jnsgd1na2vs0mg"},{"bike_id":"92d54714-4bd7-4231-9388-5d39f05ece8b","system_id":"levelo_inurba_marseille","lat":43.29033,"lon":5.38654,"is_reserved":false,"is_disabled":false,"rental_uris":{"android":"levelo://app?vid=92d54714-4bd7-4231-9388-5d39f05ece8b","ios":"levelo://app?vid=92d54714-4bd7-4231-9388-5d39f05ece8b"},"vehicle_type_id":"4","last_reported":1727287942,"current_range_meters":10800,"station_id":"ce4bh4p2rcd13ifvqe0g","pricing_plan_id":"cebpf4jnsgd1na2vs0mg"},{"bike_id":"8f42bfa8-e20b-4003-a256-4247e63b2c5c","system_id":"levelo_inurba_marseille","lat":43.28153,"lon":5.42647,"is_reserved":false,"is_disabled":false,"rental_uris":{"android":"levelo://app?vid=8f42bfa8-e20b-4003-a256-4247e63b2c5c","ios":"levelo://app?vid=8f42bfa8-e20b-4003-a256-4247e63b2c5c"},"vehicle_type_id":"4","last_reported":1727287942,"current_range_meters":4400,"station_id":"ce4bhnh2rcd13ifvqgug","pricing_plan_id":"cebpf4jnsgd1na2vs0mg"},{"bike_id":"4474399c-780e-430e-9246-f22c9e6da807","system_id":"levelo_inurba_marseille","lat":43.31648,"lon":5.38921,"is_reserved":false,"is_disabled":false,"rental_uris":{"android":"levelo://app?vid=4474399c-780e-430e-9246-f22c9e6da807","ios":"levelo://app?vid=4474399c-780e-430e-9246-f22c9e6da807"},"vehicle_type_id":"4","last_reported":1727287942,"current_range_meters":22800,"station_id":"","pricing_plan_id":"cebpf4jnsgd1na2vs0mg"},{"bike_id":"7737b815-6daf-41f0-8354-4b28ba75917f","system_id":"levelo_inurba_marseille","lat":43.30194,"lon":5.39846,"is_reserved":false,"is_disabled":false,"rental_uris":{"android":"levelo://app?vid=7737b815-6daf-41f0-8354-4b28ba75917f","ios":"levelo://app?vid=7737b815-6daf-41f0-8354-4b28ba75917f"},"vehicle_type_id":"4","last_reported":1727287942,"current_range_meters":16400,"station_id":"ce4bgvp2rcd13ifvqct0","pricing_plan_id":"cebpf4jnsgd1na2vs0mg"},{"bike_id":"3fead717-c649-4dd0-ba8e-0b43e15e82e2","system_id":"levelo_inurba_marseille","lat":43.28269,"lon":5.35058,"is_reserved":false,"is_disabled":false,"rental_uris":{"android":"levelo://app?vid=3fead717-c649-4dd0-ba8e-0b43e15e82e2","ios":"levelo://app?vid=3fead717-c649-4dd0-ba8e-0b43e15e82e2"},"vehicle_type_id":"4","last_reported":1727287942,"current_range_meters":4800,"station_id":"ce4bhbp2rcd13ifvqerg","pricing_plan_id":"cebpf4jnsgd1na2vs0mg"},{"bike_id":"3d718534-243a-4e20-b532-069eec8455a0","system_id":"levelo_inurba_marseille","lat":43.29195,"lon":5.35795,"is_reserved":false,"is_disabled":false,"rental_uris":{"android":"levelo://app?vid=3d718534-243a-4e20-b532-069eec8455a0","ios":"levelo://app?vid=3d718534-243a-4e20-b532-069eec8455a0"},"vehicle_type_id":"4","last_reported":1727287942,"current_range_meters":39200,"station_id":"ce4bhb12rcd13ifvqel0","pricing_plan_id":"cebpf4jnsgd1na2vs0mg"},{"bike_id":"98d4bd89-bfec-4ea1-8a10-3c61def8a794","system_id":"levelo_inurba_marseille","lat":43.30438,"lon":5.38891,"is_reserved":false,"is_disabled":false,"rental_uris":{"android":"levelo://app?vid=98d4bd89-bfec-4ea1-8a10-3c61def8a794","ios":"levelo://app?vid=98d4bd89-bfec-4ea1-8a10-3c61def8a794"},"vehicle_type_id":"4","last_reported":1727287942,"current_range_meters":38800,"station_id":"ce4bgk12rcd13ifvqbi0","pricing_plan_id":"cebpf4jnsgd1na2vs0mg"},{"bike_id":"d777bc9f-72f5-4f77-ae05-e8de94765de9","system_id":"levelo_inurba_marseille","lat":43.31495,"lon":5.37314,"is_reserved":false,"is_disabled":false,"rental_uris":{"android":"levelo://app?vid=d777bc9f-72f5-4f77-ae05-e8de94765de9","ios":"levelo://app?vid=d777bc9f-72f5-4f77-ae05-e8de94765de9"},"vehicle_type_id":"4","last_reported":1727287942,"current_range_meters":6400,"station_id":"ce4bgt12rcd13ifvqcd0","pricing_plan_id":"cebpf4jnsgd1na2vs0mg"},{"bike_id":"32b0fffd-2b5a-4be1-82e6-4d5267b47402","system_id":"levelo_inurba_marseille","lat":43.2603,"lon":5.37549,"is_reserved":false,"is_disabled":false,"rental_uris":{"android":"levelo://app?vid=32b0fffd-2b5a-4be1-82e6-4d5267b47402","ios":"levelo://app?vid=32b0fffd-2b5a-4be1-82e6-4d5267b47402"},"vehicle_type_id":"4","last_reported":1727287942,"current_range_meters":38000,"station_id":"ce4bhgh2rcd13ifvqfa0","pricing_plan_id":"cebpf4jnsgd1na2vs0mg"},{"bike_id":"dbfc5418-1958-423a-8af4-cd0a5cda79fe","system_id":"levelo_inurba_marseille","lat":43.25726,"lon":5.41109,"is_reserved":false,"is_disabled":false,"rental_uris":{"android":"levelo://app?vid=dbfc5418-1958-423a-8af4-cd0a5cda79fe","ios":"levelo://app?vid=dbfc5418-1958-423a-8af4-cd0a5cda79fe"},"vehicle_type_id":"4","last_reported":1727287942,"current_range_meters":16000,"station_id":"ce4bhkp2rcd13ifvqgd0","pricing_plan_id":"cebpf4jnsgd1na2vs0mg"},{"bike_id":"f241e17b-a300-452d-816b-3a3a9e27d120","system_id":"levelo_inurba_marseille","lat":43.29908,"lon":5.38159,"is_reserved":false,"is_disabled":false,"rental_uris":{"android":"levelo://app?vid=f241e17b-a300-452d-816b-3a3a9e27d120","ios":"levelo://app?vid=f241e17b-a300-452d-816b-3a3a9e27d120"},"vehicle_type_id":"4","last_reported":1727287942,"current_range_meters":3200,"station_id":"ce4bgj12rcd13ifvqbc0","pricing_plan_id":"cebpf4jnsgd1na2vs0mg"},{"bike_id":"7696928e-a827-4d3e-ab64-cd038aae51eb","system_id":"levelo_inurba_marseille","lat":43.30316,"lon":5.40441,"is_reserved":false,"is_disabled":false,"rental_uris":{"android":"levelo://app?vid=7696928e-a827-4d3e-ab64-cd038aae51eb","ios":"levelo://app?vid=7696928e-a827-4d3e-ab64-cd038aae51eb"},"vehicle_type_id":"4","last_reported":1727287942,"current_range_meters":35200,"station_id":"ce4bh012rcd13ifvqd10","pricing_plan_id":"cebpf4jnsgd1na2vs0mg"},{"bike_id":"67ea5e6a-7b71-4b5f-a92b-e6708a512df0","system_id":"levelo_inurba_marseille","lat":43.33025,"lon":5.39043,"is_reserved":false,"is_disabled":false,"rental_uris":{"android":"levelo://app?vid=67ea5e6a-7b71-4b5f-a92b-e6708a512df0","ios":"levelo://app?vid=67ea5e6a-7b71-4b5f-a92b-e6708a512df0"},"vehicle_type_id":"4","last_reported":1727287942,"current_range_meters":35200,"station_id":"ce4bhr92rcd13ifvqhrg","pricing_plan_id":"cebpf4jnsgd1na2vs0mg"},{"bike_id":"9578eb9d-f41d-4202-aacf-6c29f68b741e","system_id":"levelo_inurba_marseille","lat":43.26214,"lon":5.37442,"is_reserved":false,"is_disabled":false,"rental_uris":{"android":"levelo://app?vid=9578eb9d-f41d-4202-aacf-6c29f68b741e","ios":"levelo://app?vid=9578eb9d-f41d-4202-aacf-6c29f68b741e"},"vehicle_type_id":"4","last_reported":1727287942,"current_range_meters":33600,"station_id":"ce4bhgp2rcd13ifvqfc0","pricing_plan_id":"cebpf4jnsgd1na2vs0mg"},{"bike_id":"bdf358f1-20ae-4b98-a25f-941659016f30","system_id":"levelo_inurba_marseille","lat":43.24069,"lon":5.37764,"is_reserved":false,"is_disabled":false,"rental_uris":{"android":"levelo://app?vid=bdf358f1-20ae-4b98-a25f-941659016f30","ios":"levelo://app?vid=bdf358f1-20ae-4b98-a25f-941659016f30"},"vehicle_type_id":"4","last_reported":1727287942,"current_range_meters":25200,"station_id":"ce4bhnp2rcd13ifvqgvg","pricing_plan_id":"cebpf4jnsgd1na2vs0mg"},{"bike_id":"f2054fb1-1e8c-42c6-be9f-bbfe0f85dcc6","system_id":"levelo_inurba_marseille","lat":43.29555,"lon":5.42285,"is_reserved":false,"is_disabled":false,"rental_uris":{"android":"levelo://app?vid=f2054fb1-1e8c-42c6-be9f-bbfe0f85dcc6","ios":"levelo://app?vid=f2054fb1-1e8c-42c6-be9f-bbfe0f85dcc6"},"vehicle_type_id":"4","last_reported":1727287942,"current_range_meters":14800,"station_id":"ce4bhph2rcd13ifvqhdg","pricing_plan_id":"cebpf4jnsgd1na2vs0mg"},{"bike_id":"26f9e76f-02c8-4eb7-a8c5-f145697ef279","system_id":"levelo_inurba_marseille","lat":43.27996,"lon":5.40032,"is_reserved":false,"is_disabled":false,"rental_uris":{"android":"levelo://app?vid=26f9e76f-02c8-4eb7-a8c5-f145697ef279","ios":"levelo://app?vid=26f9e76f-02c8-4eb7-a8c5-f145697ef279"},"vehicle_type_id":"4","last_reported":1727287942,"current_range_meters":13600,"station_id":"ce4bho92rcd13ifvqh4g","pricing_plan_id":"cebpf4jnsgd1na2vs0mg"},{"bike_id":"7a8458d5-44ac-4f2e-abef-3f01eb31f7ca","system_id":"levelo_inurba_marseille","lat":43.337444,"lon":5.374475,"is_reserved":false,"is_disabled":false,"rental_uris":{"android":"levelo://app?vid=7a8458d5-44ac-4f2e-abef-3f01eb31f7ca","ios":"levelo://app?vid=7a8458d5-44ac-4f2e-abef-3f01eb31f7ca"},"vehicle_type_id":"4","last_reported":1727287942,"current_range_meters":24800,"station_id":"","pricing_plan_id":"cebpf4jnsgd1na2vs0mg"},{"bike_id":"3c0e22fd-8cc3-4016-88b9-c067a08380fd","system_id":"levelo_inurba_marseille","lat":43.29955,"lon":5.41328,"is_reserved":false,"is_disabled":false,"rental_uris":{"android":"levelo://app?vid=3c0e22fd-8cc3-4016-88b9-c067a08380fd","ios":"levelo://app?vid=3c0e22fd-8cc3-4016-88b9-c067a08380fd"},"vehicle_type_id":"4","last_reported":1727287942,"current_range_meters":16400,"station_id":"ce4bhp12rcd13ifvqh9g","pricing_plan_id":"cebpf4jnsgd1na2vs0mg"},{"bike_id":"b8a58b50-da72-4da8-825c-247092d66418","system_id":"levelo_inurba_marseille","lat":43.2969,"lon":5.37283,"is_reserved":false,"is_disabled":false,"rental_uris":{"android":"levelo://app?vid=b8a58b50-da72-4da8-825c-247092d66418","ios":"levelo://app?vid=b8a58b50-da72-4da8-825c-247092d66418"},"vehicle_type_id":"4","last_reported":1727287942,"current_range_meters":36400,"station_id":"ce4bgk12rcd13ifvqbj0","pricing_plan_id":"cebpf4jnsgd1na2vs0mg"},{"bike_id":"ed9d69a6-a921-4251-b073-fdfe53c8cdc2","system_id":"levelo_inurba_marseille","lat":43.24075,"lon":5.3775,"is_reserved":false,"is_disabled":false,"rental_uris":{"android":"levelo://app?vid=ed9d69a6-a921-4251-b073-fdfe53c8cdc2","ios":"levelo://app?vid=ed9d69a6-a921-4251-b073-fdfe53c8cdc2"},"vehicle_type_id":"4","last_reported":1727287942,"current_range_meters":38800,"station_id":"ce4bhnp2rcd13ifvqgvg","pricing_plan_id":"cebpf4jnsgd1na2vs0mg"},{"bike_id":"5d43c6d1-9f47-4464-b8f1-d75647b5ec54","system_id":"levelo_inurba_marseille","lat":43.29524,"lon":5.38536,"is_reserved":false,"is_disabled":false,"rental_uris":{"android":"levelo://app?vid=5d43c6d1-9f47-4464-b8f1-d75647b5ec54","ios":"levelo://app?vid=5d43c6d1-9f47-4464-b8f1-d75647b5ec54"},"vehicle_type_id":"4","last_reported":1727287942,"current_range_meters":12800,"station_id":"ce4bgih2rcd13ifvqba0","pricing_plan_id":"cebpf4jnsgd1na2vs0mg"},{"bike_id":"4c113923-aaa1-4dd4-b737-7c3de02f9b64","system_id":"levelo_inurba_marseille","lat":43.27913,"lon":5.38019,"is_reserved":false,"is_disabled":false,"rental_uris":{"android":"levelo://app?vid=4c113923-aaa1-4dd4-b737-7c3de02f9b64","ios":"levelo://app?vid=4c113923-aaa1-4dd4-b737-7c3de02f9b64"},"vehicle_type_id":"4","last_reported":1727287942,"current_range_meters":11600,"station_id":"ce4bhf92rcd13ifvqf50","pricing_plan_id":"cebpf4jnsgd1na2vs0mg"},{"bike_id":"7de5ca1e-fa2c-427e-813a-699af6c1acc2","system_id":"levelo_inurba_marseille","lat":43.31083,"lon":5.42433,"is_reserved":false,"is_disabled":false,"rental_uris":{"android":"levelo://app?vid=7de5ca1e-fa2c-427e-813a-699af6c1acc2","ios":"levelo://app?vid=7de5ca1e-fa2c-427e-813a-699af6c1acc2"},"vehicle_type_id":"4","last_reported":1727287942,"current_range_meters":30400,"station_id":"ce4bhp92rcd13ifvqhag","pricing_plan_id":"cebpf4jnsgd1na2vs0mg"},{"bike_id":"3d1d024a-c638-4aa3-a232-9b8739205d0d","system_id":"levelo_inurba_marseille","lat":43.27999,"lon":5.40015,"is_reserved":false,"is_disabled":false,"rental_uris":{"android":"levelo://app?vid=3d1d024a-c638-4aa3-a232-9b8739205d0d","ios":"levelo://app?vid=3d1d024a-c638-4aa3-a232-9b8739205d0d"},"vehicle_type_id":"4","last_reported":1727287942,"current_range_meters":8000,"station_id":"ce4bho92rcd13ifvqh4g","pricing_plan_id":"cebpf4jnsgd1na2vs0mg"},{"bike_id":"109305e3-2f78-4552-8a7a-4a8ddc68d6ef","system_id":"levelo_inurba_marseille","lat":43.28999,"lon":5.37202,"is_reserved":false,"is_disabled":false,"rental_uris":{"android":"levelo://app?vid=109305e3-2f78-4552-8a7a-4a8ddc68d6ef","ios":"levelo://app?vid=109305e3-2f78-4552-8a7a-4a8ddc68d6ef"},"vehicle_type_id":"4","last_reported":1727287942,"current_range_meters":26000,"station_id":"","pricing_plan_id":"cebpf4jnsgd1na2vs0mg"},{"bike_id":"1098a4ef-158b-4741-8650-c03b2688472e","system_id":"levelo_inurba_marseille","lat":43.2847,"lon":5.38411,"is_reserved":false,"is_disabled":false,"rental_uris":{"android":"levelo://app?vid=1098a4ef-158b-4741-8650-c03b2688472e","ios":"levelo://app?vid=1098a4ef-158b-4741-8650-c03b2688472e"},"vehicle_type_id":"4","last_reported":1727287942,"current_range_meters":8000,"station_id":"ce4bh512rcd13ifvqe3g","pricing_plan_id":"cebpf4jnsgd1na2vs0mg"},{"bike_id":"6195e295-00d7-4cc0-933a-bcab6a6ed7a5","system_id":"levelo_inurba_marseille","lat":43.29416,"lon":5.3862,"is_reserved":false,"is_disabled":false,"rental_uris":{"android":"levelo://app?vid=6195e295-00d7-4cc0-933a-bcab6a6ed7a5","ios":"levelo://app?vid=6195e295-00d7-4cc0-933a-bcab6a6ed7a5"},"vehicle_type_id":"4","last_reported":1727287942,"current_range_meters":38000,"station_id":"ce4bh2h2rcd13ifvqdh0","pricing_plan_id":"cebpf4jnsgd1na2vs0mg"},{"bike_id":"79a05bb1-ccec-47f0-8ebd-1f95854549f8","system_id":"levelo_inurba_marseille","lat":43.31285,"lon":5.38042,"is_reserved":false,"is_disabled":false,"rental_uris":{"android":"levelo://app?vid=79a05bb1-ccec-47f0-8ebd-1f95854549f8","ios":"levelo://app?vid=79a05bb1-ccec-47f0-8ebd-1f95854549f8"},"vehicle_type_id":"4","last_reported":1727287942,"current_range_meters":10000,"station_id":"","pricing_plan_id":"cebpf4jnsgd1na2vs0mg"},{"bike_id":"6a30324a-bec3-4251-9252-b310c6700a7b","system_id":"levelo_inurba_marseille","lat":43.29652,"lon":5.37165,"is_reserved":false,"is_disabled":false,"rental_uris":{"android":"levelo://app?vid=6a30324a-bec3-4251-9252-b310c6700a7b","ios":"levelo://app?vid=6a30324a-bec3-4251-9252-b310c6700a7b"},"vehicle_type_id":"4","last_reported":1727287942,"current_range_meters":38800,"station_id":"ce4bgnh2rcd13ifvqc0g","pricing_plan_id":"cebpf4jnsgd1na2vs0mg"},{"bike_id":"f403ee30-bfaf-4070-b814-e0f1666207da","system_id":"levelo_inurba_marseille","lat":43.29555,"lon":5.42293,"is_reserved":false,"is_disabled":false,"rental_uris":{"android":"levelo://app?vid=f403ee30-bfaf-4070-b814-e0f1666207da","ios":"levelo://app?vid=f403ee30-bfaf-4070-b814-e0f1666207da"},"vehicle_type_id":"4","last_reported":1727287942,"current_range_meters":23200,"station_id":"ce4bhph2rcd13ifvqhdg","pricing_plan_id":"cebpf4jnsgd1na2vs0mg"},{"bike_id":"7986f8c1-56f6-4469-abc1-be1e742f8f62","system_id":"levelo_inurba_marseille","lat":43.30262,"lon":5.40087,"is_reserved":false,"is_disabled":false,"rental_uris":{"android":"levelo://app?vid=7986f8c1-56f6-4469-abc1-be1e742f8f62","ios":"levelo://app?vid=7986f8c1-56f6-4469-abc1-be1e742f8f62"},"vehicle_type_id":"4","last_reported":1727287942,"current_range_meters":34800,"station_id":"ce4bgvh2rcd13ifvqcs0","pricing_plan_id":"cebpf4jnsgd1na2vs0mg"},{"bike_id":"c65560a4-5cb2-4d24-a48d-7d1aabfb198c","system_id":"levelo_inurba_marseille","lat":43.29168,"lon":5.3716,"is_reserved":false,"is_disabled":false,"rental_uris":{"android":"levelo://app?vid=c65560a4-5cb2-4d24-a48d-7d1aabfb198c","ios":"levelo://app?vid=c65560a4-5cb2-4d24-a48d-7d1aabfb198c"},"vehicle_type_id":"4","last_reported":1727287942,"current_range_meters":36800,"station_id":"ce4bha92rcd13ifvqeh0","pricing_plan_id":"cebpf4jnsgd1na2vs0mg"},{"bike_id":"982adb23-5819-444c-b25a-7f0226a2a355","system_id":"levelo_inurba_marseille","lat":43.29171,"lon":5.37155,"is_reserved":false,"is_disabled":false,"rental_uris":{"android":"levelo://app?vid=982adb23-5819-444c-b25a-7f0226a2a355","ios":"levelo://app?vid=982adb23-5819-444c-b25a-7f0226a2a355"},"vehicle_type_id":"4","last_reported":1727287942,"current_range_meters":9600,"station_id":"ce4bha92rcd13ifvqeh0","pricing_plan_id":"cebpf4jnsgd1na2vs0mg"},{"bike_id":"94a35b01-299c-42f0-bd3f-7e29ae4d865c","system_id":"levelo_inurba_marseille","lat":43.29795,"lon":5.39345,"is_reserved":false,"is_disabled":false,"rental_uris":{"android":"levelo://app?vid=94a35b01-299c-42f0-bd3f-7e29ae4d865c","ios":"levelo://app?vid=94a35b01-299c-42f0-bd3f-7e29ae4d865c"},"vehicle_type_id":"4","last_reported":1727287942,"current_range_meters":14000,"station_id":"chh1huq6cuj3fo74tm60","pricing_plan_id":"cebpf4jnsgd1na2vs0mg"},{"bike_id":"f86b1008-aed1-4ce0-9f31-664477e380f5","system_id":"levelo_inurba_marseille","lat":43.29022,"lon":5.38651,"is_reserved":false,"is_disabled":false,"rental_uris":{"android":"levelo://app?vid=f86b1008-aed1-4ce0-9f31-664477e380f5","ios":"levelo://app?vid=f86b1008-aed1-4ce0-9f31-664477e380f5"},"vehicle_type_id":"4","last_reported":1727287942,"current_range_meters":38400,"station_id":"ce4bh4p2rcd13ifvqe0g","pricing_plan_id":"cebpf4jnsgd1na2vs0mg"},{"bike_id":"dd1a3a2a-f3ec-4def-be8c-9f04ebfa4226","system_id":"levelo_inurba_marseille","lat":43.2396,"lon":5.36637,"is_reserved":false,"is_disabled":false,"rental_uris":{"android":"levelo://app?vid=dd1a3a2a-f3ec-4def-be8c-9f04ebfa4226","ios":"levelo://app?vid=dd1a3a2a-f3ec-4def-be8c-9f04ebfa4226"},"vehicle_type_id":"4","last_reported":1727287942,"current_range_meters":12400,"station_id":"ce4bhi12rcd13ifvqfp0","pricing_plan_id":"cebpf4jnsgd1na2vs0mg"},{"bike_id":"e008b475-7ef8-4dbb-8d48-be4853659333","system_id":"levelo_inurba_marseille","lat":43.3025,"lon":5.40071,"is_reserved":false,"is_disabled":false,"rental_uris":{"android":"levelo://app?vid=e008b475-7ef8-4dbb-8d48-be4853659333","ios":"levelo://app?vid=e008b475-7ef8-4dbb-8d48-be4853659333"},"vehicle_type_id":"4","last_reported":1727287942,"current_range_meters":39200,"station_id":"ce4bgvh2rcd13ifvqcs0","pricing_plan_id":"cebpf4jnsgd1na2vs0mg"},{"bike_id":"5177a4dc-5904-4b11-a77a-4f704e673daf","system_id":"levelo_inurba_marseille","lat":43.29083,"lon":5.37161,"is_reserved":false,"is_disabled":false,"rental_uris":{"android":"levelo://app?vid=5177a4dc-5904-4b11-a77a-4f704e673daf","ios":"levelo://app?vid=5177a4dc-5904-4b11-a77a-4f704e673daf"},"vehicle_type_id":"4","last_reported":1727287942,"current_range_meters":34800,"station_id":"ce4bh5p2rcd13ifvqe4g","pricing_plan_id":"cebpf4jnsgd1na2vs0mg"},{"bike_id":"8fee2e2e-638a-45a0-861a-7a30f9f3016c","system_id":"levelo_inurba_marseille","lat":43.24996,"lon":5.38934,"is_reserved":false,"is_disabled":false,"rental_uris":{"android":"levelo://app?vid=8fee2e2e-638a-45a0-861a-7a30f9f3016c","ios":"levelo://app?vid=8fee2e2e-638a-45a0-861a-7a30f9f3016c"},"vehicle_type_id":"4","last_reported":1727287942,"current_range_meters":11200,"station_id":"ce4bhgp2rcd13ifvqfd0","pricing_plan_id":"cebpf4jnsgd1na2vs0mg"},{"bike_id":"b00f2248-27c1-4953-baf0-a58c1b6a48b1","system_id":"levelo_inurba_marseille","lat":43.31702,"lon":5.40459,"is_reserved":false,"is_disabled":false,"rental_uris":{"android":"levelo://app?vid=b00f2248-27c1-4953-baf0-a58c1b6a48b1","ios":"levelo://app?vid=b00f2248-27c1-4953-baf0-a58c1b6a48b1"},"vehicle_type_id":"4","last_reported":1727287942,"current_range_meters":37600,"station_id":"ce4bh012rcd13ifvqd00","pricing_plan_id":"cebpf4jnsgd1na2vs0mg"},{"bike_id":"8f9823fd-c564-4c4a-8fc7-0e7bfe5b5514","system_id":"levelo_inurba_marseille","lat":43.2942,"lon":5.38634,"is_reserved":false,"is_disabled":false,"rental_uris":{"android":"levelo://app?vid=8f9823fd-c564-4c4a-8fc7-0e7bfe5b5514","ios":"levelo://app?vid=8f9823fd-c564-4c4a-8fc7-0e7bfe5b5514"},"vehicle_type_id":"4","last_reported":1727287942,"current_range_meters":38800,"station_id":"ce4bh2h2rcd13ifvqdh0","pricing_plan_id":"cebpf4jnsgd1na2vs0mg"},{"bike_id":"141a9eea-ff55-4856-b2b7-b355ff09c67f","system_id":"levelo_inurba_marseille","lat":43.29097,"lon":5.38124,"is_reserved":false,"is_disabled":false,"rental_uris":{"android":"levelo://app?vid=141a9eea-ff55-4856-b2b7-b355ff09c67f","ios":"levelo://app?vid=141a9eea-ff55-4856-b2b7-b355ff09c67f"},"vehicle_type_id":"4","last_reported":1727287942,"current_range_meters":4800,"station_id":"ce4bh512rcd13ifvqe2g","pricing_plan_id":"cebpf4jnsgd1na2vs0mg"},{"bike_id":"3ba62f7d-8587-4f6f-b776-b05ca598114c","system_id":"levelo_inurba_marseille","lat":43.27924,"lon":5.39579,"is_reserved":false,"is_disabled":false,"rental_uris":{"android":"levelo://app?vid=3ba62f7d-8587-4f6f-b776-b05ca598114c","ios":"levelo://app?vid=3ba62f7d-8587-4f6f-b776-b05ca598114c"},"vehicle_type_id":"4","last_reported":1727287942,"current_range_meters":26800,"station_id":"ce4bhf92rcd13ifvqf40","pricing_plan_id":"cebpf4jnsgd1na2vs0mg"},{"bike_id":"6aeee1aa-489a-4cb7-9bbf-57c495c2e7ff","system_id":"levelo_inurba_marseille","lat":43.32367,"lon":5.38886,"is_reserved":false,"is_disabled":false,"rental_uris":{"android":"levelo://app?vid=6aeee1aa-489a-4cb7-9bbf-57c495c2e7ff","ios":"levelo://app?vid=6aeee1aa-489a-4cb7-9bbf-57c495c2e7ff"},"vehicle_type_id":"4","last_reported":1727287942,"current_range_meters":32400,"station_id":"ce4bhqp2rcd13ifvqhog","pricing_plan_id":"cebpf4jnsgd1na2vs0mg"},{"bike_id":"a3f7c797-2788-4cea-aa51-2735e90fcd90","system_id":"levelo_inurba_marseille","lat":43.30795,"lon":5.4353,"is_reserved":false,"is_disabled":false,"rental_uris":{"android":"levelo://app?vid=a3f7c797-2788-4cea-aa51-2735e90fcd90","ios":"levelo://app?vid=a3f7c797-2788-4cea-aa51-2735e90fcd90"},"vehicle_type_id":"4","last_reported":1727287942,"current_range_meters":12400,"station_id":"ce4bhph2rcd13ifvqheg","pricing_plan_id":"cebpf4jnsgd1na2vs0mg"},{"bike_id":"7f66ea78-04e1-404a-9812-9bf088ece948","system_id":"levelo_inurba_marseille","lat":43.32343,"lon":5.40623,"is_reserved":false,"is_disabled":false,"rental_uris":{"android":"levelo://app?vid=7f66ea78-04e1-404a-9812-9bf088ece948","ios":"levelo://app?vid=7f66ea78-04e1-404a-9812-9bf088ece948"},"vehicle_type_id":"4","last_reported":1727287942,"current_range_meters":38800,"station_id":"ce4bhq92rcd13ifvqhjg","pricing_plan_id":"cebpf4jnsgd1na2vs0mg"},{"bike_id":"4211dc02-4006-4d7c-b9ad-3a2c8d84797f","system_id":"levelo_inurba_marseille","lat":43.23967,"lon":5.36636,"is_reserved":false,"is_disabled":false,"rental_uris":{"android":"levelo://app?vid=4211dc02-4006-4d7c-b9ad-3a2c8d84797f","ios":"levelo://app?vid=4211dc02-4006-4d7c-b9ad-3a2c8d84797f"},"vehicle_type_id":"4","last_reported":1727287942,"current_range_meters":25600,"station_id":"ce4bhi12rcd13ifvqfp0","pricing_plan_id":"cebpf4jnsgd1na2vs0mg"},{"bike_id":"5c93b95c-0549-41f0-a4a9-6211e260d1dc","system_id":"levelo_inurba_marseille","lat":43.31888,"lon":5.40743,"is_reserved":false,"is_disabled":false,"rental_uris":{"android":"levelo://app?vid=5c93b95c-0549-41f0-a4a9-6211e260d1dc","ios":"levelo://app?vid=5c93b95c-0549-41f0-a4a9-6211e260d1dc"},"vehicle_type_id":"4","last_reported":1727287942,"current_range_meters":6800,"station_id":"ce4bhq12rcd13ifvqhig","pricing_plan_id":"cebpf4jnsgd1na2vs0mg"},{"bike_id":"b322438d-2384-45b7-982f-9e459a16f79d","system_id":"levelo_inurba_marseille","lat":43.31162,"lon":5.37748,"is_reserved":false,"is_disabled":false,"rental_uris":{"android":"levelo://app?vid=b322438d-2384-45b7-982f-9e459a16f79d","ios":"levelo://app?vid=b322438d-2384-45b7-982f-9e459a16f79d"},"vehicle_type_id":"4","last_reported":1727287942,"current_range_meters":24000,"station_id":"ce4bgt92rcd13ifvqcg0","pricing_plan_id":"cebpf4jnsgd1na2vs0mg"},{"bike_id":"7da11ecd-19a3-4510-9732-b52754fc86ba","system_id":"levelo_inurba_marseille","lat":43.30611,"lon":5.37218,"is_reserved":false,"is_disabled":false,"rental_uris":{"android":"levelo://app?vid=7da11ecd-19a3-4510-9732-b52754fc86ba","ios":"levelo://app?vid=7da11ecd-19a3-4510-9732-b52754fc86ba"},"vehicle_type_id":"4","last_reported":1727287942,"current_range_meters":16800,"station_id":"ce4bgqh2rcd13ifvqc4g","pricing_plan_id":"cebpf4jnsgd1na2vs0mg"},{"bike_id":"a75d11e4-5000-41f8-9ff2-fbd2a76366d5","system_id":"levelo_inurba_marseille","lat":43.33951,"lon":5.42081,"is_reserved":false,"is_disabled":false,"rental_uris":{"android":"levelo://app?vid=a75d11e4-5000-41f8-9ff2-fbd2a76366d5","ios":"levelo://app?vid=a75d11e4-5000-41f8-9ff2-fbd2a76366d5"},"vehicle_type_id":"4","last_reported":1727287942,"current_range_meters":19200,"station_id":"","pricing_plan_id":"cebpf4jnsgd1na2vs0mg"},{"bike_id":"7a6c7385-ef8c-4f76-bf5f-3c755ca54881","system_id":"levelo_inurba_marseille","lat":43.29035,"lon":5.38126,"is_reserved":false,"is_disabled":false,"rental_uris":{"android":"levelo://app?vid=7a6c7385-ef8c-4f76-bf5f-3c755ca54881","ios":"levelo://app?vid=7a6c7385-ef8c-4f76-bf5f-3c755ca54881"},"vehicle_type_id":"4","last_reported":1727287942,"current_range_meters":9600,"station_id":"ce4bh4p2rcd13ifvqe1g","pricing_plan_id":"cebpf4jnsgd1na2vs0mg"},{"bike_id":"4292bf2d-8ee3-4998-8d34-c7f6dd892820","system_id":"levelo_inurba_marseille","lat":43.24181,"lon":5.39739,"is_reserved":false,"is_disabled":false,"rental_uris":{"android":"levelo://app?vid=4292bf2d-8ee3-4998-8d34-c7f6dd892820","ios":"levelo://app?vid=4292bf2d-8ee3-4998-8d34-c7f6dd892820"},"vehicle_type_id":"4","last_reported":1727287942,"current_range_meters":6800,"station_id":"ce4bhn12rcd13ifvqgpg","pricing_plan_id":"cebpf4jnsgd1na2vs0mg"},{"bike_id":"0f26f682-9cbd-4685-9a37-edeef6fb04e3","system_id":"levelo_inurba_marseille","lat":43.28437,"lon":5.39183,"is_reserved":false,"is_disabled":false,"rental_uris":{"android":"levelo://app?vid=0f26f682-9cbd-4685-9a37-edeef6fb04e3","ios":"levelo://app?vid=0f26f682-9cbd-4685-9a37-edeef6fb04e3"},"vehicle_type_id":"4","last_reported":1727287942,"current_range_meters":39200,"station_id":"ce4bhoh2rcd13ifvqh5g","pricing_plan_id":"cebpf4jnsgd1na2vs0mg"},{"bike_id":"b39cedc3-6b48-4869-9903-2ec455eddb09","system_id":"levelo_inurba_marseille","lat":43.28263,"lon":5.35072,"is_reserved":false,"is_disabled":false,"rental_uris":{"android":"levelo://app?vid=b39cedc3-6b48-4869-9903-2ec455eddb09","ios":"levelo://app?vid=b39cedc3-6b48-4869-9903-2ec455eddb09"},"vehicle_type_id":"4","last_reported":1727287942,"current_range_meters":39200,"station_id":"ce4bhbp2rcd13ifvqerg","pricing_plan_id":"cebpf4jnsgd1na2vs0mg"},{"bike_id":"83442514-dce5-48ae-a99c-6b2bbccfe1e0","system_id":"levelo_inurba_marseille","lat":43.3088,"lon":5.3964,"is_reserved":false,"is_disabled":false,"rental_uris":{"android":"levelo://app?vid=83442514-dce5-48ae-a99c-6b2bbccfe1e0","ios":"levelo://app?vid=83442514-dce5-48ae-a99c-6b2bbccfe1e0"},"vehicle_type_id":"4","last_reported":1727287942,"current_range_meters":1600,"station_id":"ce4bh012rcd13ifvqcv0","pricing_plan_id":"cebpf4jnsgd1na2vs0mg"},{"bike_id":"2f274528-4d0a-4cb5-92a0-00009116a01b","system_id":"levelo_inurba_marseille","lat":43.28617,"lon":5.351,"is_reserved":false,"is_disabled":false,"rental_uris":{"android":"levelo://app?vid=2f274528-4d0a-4cb5-92a0-00009116a01b","ios":"levelo://app?vid=2f274528-4d0a-4cb5-92a0-00009116a01b"},"vehicle_type_id":"4","last_reported":1727287942,"current_range_meters":3200,"station_id":"ce4bhch2rcd13ifvqeug","pricing_plan_id":"cebpf4jnsgd1na2vs0mg"},{"bike_id":"e5bd0fa9-5f87-41bf-b1c3-9068bc1e13e2","system_id":"levelo_inurba_marseille","lat":43.32367,"lon":5.38881,"is_reserved":false,"is_disabled":false,"rental_uris":{"android":"levelo://app?vid=e5bd0fa9-5f87-41bf-b1c3-9068bc1e13e2","ios":"levelo://app?vid=e5bd0fa9-5f87-41bf-b1c3-9068bc1e13e2"},"vehicle_type_id":"4","last_reported":1727287942,"current_range_meters":21600,"station_id":"ce4bhqp2rcd13ifvqhog","pricing_plan_id":"cebpf4jnsgd1na2vs0mg"},{"bike_id":"857e79c9-3a4f-40b7-b386-c329fae4b9e5","system_id":"levelo_inurba_marseille","lat":43.29419,"lon":5.38626,"is_reserved":false,"is_disabled":false,"rental_uris":{"android":"levelo://app?vid=857e79c9-3a4f-40b7-b386-c329fae4b9e5","ios":"levelo://app?vid=857e79c9-3a4f-40b7-b386-c329fae4b9e5"},"vehicle_type_id":"4","last_reported":1727287942,"current_range_meters":22000,"station_id":"ce4bh2h2rcd13ifvqdh0","pricing_plan_id":"cebpf4jnsgd1na2vs0mg"},{"bike_id":"9d275928-1cc8-43e1-9ca5-00bbbba679c4","system_id":"levelo_inurba_marseille","lat":43.29417,"lon":5.38628,"is_reserved":false,"is_disabled":false,"rental_uris":{"android":"levelo://app?vid=9d275928-1cc8-43e1-9ca5-00bbbba679c4","ios":"levelo://app?vid=9d275928-1cc8-43e1-9ca5-00bbbba679c4"},"vehicle_type_id":"4","last_reported":1727287942,"current_range_meters":6800,"station_id":"ce4bh2h2rcd13ifvqdh0","pricing_plan_id":"cebpf4jnsgd1na2vs0mg"},{"bike_id":"c0719311-0832-424d-8543-84a11710a77e","system_id":"levelo_inurba_marseille","lat":43.29268,"lon":5.38443,"is_reserved":false,"is_disabled":false,"rental_uris":{"android":"levelo://app?vid=c0719311-0832-424d-8543-84a11710a77e","ios":"levelo://app?vid=c0719311-0832-424d-8543-84a11710a77e"},"vehicle_type_id":"4","last_reported":1727287942,"current_range_meters":13600,"station_id":"ce4bh692rcd13ifvqea0","pricing_plan_id":"cebpf4jnsgd1na2vs0mg"},{"bike_id":"fc9c5792-d459-492d-9e15-eeb2e88813b3","system_id":"levelo_inurba_marseille","lat":43.30099,"lon":5.39064,"is_reserved":false,"is_disabled":false,"rental_uris":{"android":"levelo://app?vid=fc9c5792-d459-492d-9e15-eeb2e88813b3","ios":"levelo://app?vid=fc9c5792-d459-492d-9e15-eeb2e88813b3"},"vehicle_type_id":"4","last_reported":1727287942,"current_range_meters":31200,"station_id":"ce4bh192rcd13ifvqdb0","pricing_plan_id":"cebpf4jnsgd1na2vs0mg"},{"bike_id":"579ca450-e0c2-45fa-b5c3-22c592624e30","system_id":"levelo_inurba_marseille","lat":43.33026,"lon":5.39039,"is_reserved":false,"is_disabled":false,"rental_uris":{"android":"levelo://app?vid=579ca450-e0c2-45fa-b5c3-22c592624e30","ios":"levelo://app?vid=579ca450-e0c2-45fa-b5c3-22c592624e30"},"vehicle_type_id":"4","last_reported":1727287942,"current_range_meters":11600,"station_id":"ce4bhr92rcd13ifvqhrg","pricing_plan_id":"cebpf4jnsgd1na2vs0mg"},{"bike_id":"8a4e73ad-65e6-4330-a8e9-98d45e7d911f","system_id":"levelo_inurba_marseille","lat":43.32041,"lon":5.41582,"is_reserved":false,"is_disabled":false,"rental_uris":{"android":"levelo://app?vid=8a4e73ad-65e6-4330-a8e9-98d45e7d911f","ios":"levelo://app?vid=8a4e73ad-65e6-4330-a8e9-98d45e7d911f"},"vehicle_type_id":"4","last_reported":1727287942,"current_range_meters":30000,"station_id":"ce4bhq92rcd13ifvqhkg","pricing_plan_id":"cebpf4jnsgd1na2vs0mg"},{"bike_id":"9541b89a-e768-4767-b75e-cab60b8c343b","system_id":"levelo_inurba_marseille","lat":43.292908,"lon":5.374635,"is_reserved":false,"is_disabled":false,"rental_uris":{"android":"levelo://app?vid=9541b89a-e768-4767-b75e-cab60b8c343b","ios":"levelo://app?vid=9541b89a-e768-4767-b75e-cab60b8c343b"},"vehicle_type_id":"4","last_reported":1727287942,"current_range_meters":22000,"station_id":"ce4bgi12rcd13ifvqb70","pricing_plan_id":"cebpf4jnsgd1na2vs0mg"},{"bike_id":"347a50f1-f47e-4b47-8431-01ddac0fe722","system_id":"levelo_inurba_marseille","lat":43.29784,"lon":5.37108,"is_reserved":false,"is_disabled":false,"rental_uris":{"android":"levelo://app?vid=347a50f1-f47e-4b47-8431-01ddac0fe722","ios":"levelo://app?vid=347a50f1-f47e-4b47-8431-01ddac0fe722"},"vehicle_type_id":"4","last_reported":1727287942,"current_range_meters":38800,"station_id":"ce4bgop2rcd13ifvqc1g","pricing_plan_id":"cebpf4jnsgd1na2vs0mg"},{"bike_id":"f2ef5102-6b9b-41a6-9e50-e7b3a0230a29","system_id":"levelo_inurba_marseille","lat":43.28461,"lon":5.35883,"is_reserved":false,"is_disabled":false,"rental_uris":{"android":"levelo://app?vid=f2ef5102-6b9b-41a6-9e50-e7b3a0230a29","ios":"levelo://app?vid=f2ef5102-6b9b-41a6-9e50-e7b3a0230a29"},"vehicle_type_id":"4","last_reported":1727287942,"current_range_meters":5600,"station_id":"ce4bhah2rcd13ifvqei0","pricing_plan_id":"cebpf4jnsgd1na2vs0mg"},{"bike_id":"c2bdf32c-f616-4cec-8d5e-330373c3c441","system_id":"levelo_inurba_marseille","lat":43.2439,"lon":5.37054,"is_reserved":false,"is_disabled":false,"rental_uris":{"android":"levelo://app?vid=c2bdf32c-f616-4cec-8d5e-330373c3c441","ios":"levelo://app?vid=c2bdf32c-f616-4cec-8d5e-330373c3c441"},"vehicle_type_id":"4","last_reported":1727287942,"current_range_meters":39200,"station_id":"ce4bhhh2rcd13ifvqfk0","pricing_plan_id":"cebpf4jnsgd1na2vs0mg"},{"bike_id":"d20b87a8-1ff0-4fbb-9a79-5be841e624b8","system_id":"levelo_inurba_marseille","lat":43.279946,"lon":5.416677,"is_reserved":false,"is_disabled":false,"rental_uris":{"android":"levelo://app?vid=d20b87a8-1ff0-4fbb-9a79-5be841e624b8","ios":"levelo://app?vid=d20b87a8-1ff0-4fbb-9a79-5be841e624b8"},"vehicle_type_id":"4","last_reported":1727287942,"current_range_meters":8800,"station_id":"ce4bho12rcd13ifvqh1g","pricing_plan_id":"cebpf4jnsgd1na2vs0mg"},{"bike_id":"4364323a-021e-48b9-b4c4-eecb776b8299","system_id":"levelo_inurba_marseille","lat":43.31694,"lon":5.40474,"is_reserved":false,"is_disabled":false,"rental_uris":{"android":"levelo://app?vid=4364323a-021e-48b9-b4c4-eecb776b8299","ios":"levelo://app?vid=4364323a-021e-48b9-b4c4-eecb776b8299"},"vehicle_type_id":"4","last_reported":1727287942,"current_range_meters":2800,"station_id":"ce4bh012rcd13ifvqd00","pricing_plan_id":"cebpf4jnsgd1na2vs0mg"},{"bike_id":"9d6da82d-c178-42a9-8398-55555317c0bd","system_id":"levelo_inurba_marseille","lat":43.25102,"lon":5.40324,"is_reserved":false,"is_disabled":false,"rental_uris":{"android":"levelo://app?vid=9d6da82d-c178-42a9-8398-55555317c0bd","ios":"levelo://app?vid=9d6da82d-c178-42a9-8398-55555317c0bd"},"vehicle_type_id":"4","last_reported":1727287942,"current_range_meters":6800,"station_id":"ce4bhlh2rcd13ifvqgig","pricing_plan_id":"cebpf4jnsgd1na2vs0mg"},{"bike_id":"fa6d161c-6911-42df-967a-937e78963504","system_id":"levelo_inurba_marseille","lat":43.30422,"lon":5.41289,"is_reserved":false,"is_disabled":false,"rental_uris":{"android":"levelo://app?vid=fa6d161c-6911-42df-967a-937e78963504","ios":"levelo://app?vid=fa6d161c-6911-42df-967a-937e78963504"},"vehicle_type_id":"4","last_reported":1727287942,"current_range_meters":12400,"station_id":"ce4bhop2rcd13ifvqh8g","pricing_plan_id":"cebpf4jnsgd1na2vs0mg"},{"bike_id":"f7d342ca-5509-4bb5-bed1-03405616810f","system_id":"levelo_inurba_marseille","lat":43.30783,"lon":5.37639,"is_reserved":false,"is_disabled":false,"rental_uris":{"android":"levelo://app?vid=f7d342ca-5509-4bb5-bed1-03405616810f","ios":"levelo://app?vid=f7d342ca-5509-4bb5-bed1-03405616810f"},"vehicle_type_id":"4","last_reported":1727287942,"current_range_meters":15200,"station_id":"ce4bgv92rcd13ifvqcq0","pricing_plan_id":"cebpf4jnsgd1na2vs0mg"},{"bike_id":"be8297b9-93d4-4405-88c8-e0dfdd6df9be","system_id":"levelo_inurba_marseille","lat":43.30134,"lon":5.38783,"is_reserved":false,"is_disabled":false,"rental_uris":{"android":"levelo://app?vid=be8297b9-93d4-4405-88c8-e0dfdd6df9be","ios":"levelo://app?vid=be8297b9-93d4-4405-88c8-e0dfdd6df9be"},"vehicle_type_id":"4","last_reported":1727287942,"current_range_meters":5600,"station_id":"ce4bghh2rcd13ifvqb60","pricing_plan_id":"cebpf4jnsgd1na2vs0mg"},{"bike_id":"1ae7d0e5-f5ab-4886-83c3-ce783876f552","system_id":"levelo_inurba_marseille","lat":43.297835,"lon":5.393627,"is_reserved":false,"is_disabled":false,"rental_uris":{"android":"levelo://app?vid=1ae7d0e5-f5ab-4886-83c3-ce783876f552","ios":"levelo://app?vid=1ae7d0e5-f5ab-4886-83c3-ce783876f552"},"vehicle_type_id":"4","last_reported":1727287942,"current_range_meters":8400,"station_id":"chh1huq6cuj3fo74tm60","pricing_plan_id":"cebpf4jnsgd1na2vs0mg"},{"bike_id":"2d041658-f707-484a-82ed-b19ee6309c84","system_id":"levelo_inurba_marseille","lat":43.2979,"lon":5.37102,"is_reserved":false,"is_disabled":false,"rental_uris":{"android":"levelo://app?vid=2d041658-f707-484a-82ed-b19ee6309c84","ios":"levelo://app?vid=2d041658-f707-484a-82ed-b19ee6309c84"},"vehicle_type_id":"4","last_reported":1727287942,"current_range_meters":34000,"station_id":"ce4bgop2rcd13ifvqc1g","pricing_plan_id":"cebpf4jnsgd1na2vs0mg"},{"bike_id":"47ba0401-8be6-4c89-8eef-6bff009d65b5","system_id":"levelo_inurba_marseille","lat":43.32288,"lon":5.38272,"is_reserved":false,"is_disabled":false,"rental_uris":{"android":"levelo://app?vid=47ba0401-8be6-4c89-8eef-6bff009d65b5","ios":"levelo://app?vid=47ba0401-8be6-4c89-8eef-6bff009d65b5"},"vehicle_type_id":"4","last_reported":1727287942,"current_range_meters":16000,"station_id":"ce4bhr12rcd13ifvqhqg","pricing_plan_id":"cebpf4jnsgd1na2vs0mg"},{"bike_id":"b793d92d-daf6-45b1-85d6-d929ca22d465","system_id":"levelo_inurba_marseille","lat":43.29027,"lon":5.3865,"is_reserved":false,"is_disabled":false,"rental_uris":{"android":"levelo://app?vid=b793d92d-daf6-45b1-85d6-d929ca22d465","ios":"levelo://app?vid=b793d92d-daf6-45b1-85d6-d929ca22d465"},"vehicle_type_id":"4","last_reported":1727287942,"current_range_meters":18800,"station_id":"ce4bh4p2rcd13ifvqe0g","pricing_plan_id":"cebpf4jnsgd1na2vs0mg"},{"bike_id":"64a56750-bb84-4478-9eb0-b6ec75f8dbb6","system_id":"levelo_inurba_marseille","lat":43.28441,"lon":5.39195,"is_reserved":false,"is_disabled":false,"rental_uris":{"android":"levelo://app?vid=64a56750-bb84-4478-9eb0-b6ec75f8dbb6","ios":"levelo://app?vid=64a56750-bb84-4478-9eb0-b6ec75f8dbb6"},"vehicle_type_id":"4","last_reported":1727287942,"current_range_meters":8800,"station_id":"ce4bhoh2rcd13ifvqh5g","pricing_plan_id":"cebpf4jnsgd1na2vs0mg"},{"bike_id":"0ecf1665-f9a1-4893-8d61-7e1fc755b4cb","system_id":"levelo_inurba_marseille","lat":43.30246,"lon":5.40065,"is_reserved":false,"is_disabled":false,"rental_uris":{"android":"levelo://app?vid=0ecf1665-f9a1-4893-8d61-7e1fc755b4cb","ios":"levelo://app?vid=0ecf1665-f9a1-4893-8d61-7e1fc755b4cb"},"vehicle_type_id":"4","last_reported":1727287942,"current_range_meters":16400,"station_id":"ce4bgvh2rcd13ifvqcs0","pricing_plan_id":"cebpf4jnsgd1na2vs0mg"},{"bike_id":"5f6c79fc-4a32-4034-b731-a210b1c8c48d","system_id":"levelo_inurba_marseille","lat":43.3047,"lon":5.36608,"is_reserved":false,"is_disabled":false,"rental_uris":{"android":"levelo://app?vid=5f6c79fc-4a32-4034-b731-a210b1c8c48d","ios":"levelo://app?vid=5f6c79fc-4a32-4034-b731-a210b1c8c48d"},"vehicle_type_id":"4","last_reported":1727287942,"current_range_meters":10000,"station_id":"ce4bgrp2rcd13ifvqc9g","pricing_plan_id":"cebpf4jnsgd1na2vs0mg"},{"bike_id":"7b789463-8764-47a6-87de-685113431e05","system_id":"levelo_inurba_marseille","lat":43.30886,"lon":5.39643,"is_reserved":false,"is_disabled":false,"rental_uris":{"android":"levelo://app?vid=7b789463-8764-47a6-87de-685113431e05","ios":"levelo://app?vid=7b789463-8764-47a6-87de-685113431e05"},"vehicle_type_id":"4","last_reported":1727287942,"current_range_meters":10800,"station_id":"ce4bh012rcd13ifvqcv0","pricing_plan_id":"cebpf4jnsgd1na2vs0mg"},{"bike_id":"6384da77-0f8b-4a22-ac8e-7095f91b2491","system_id":"levelo_inurba_marseille","lat":43.28617,"lon":5.35103,"is_reserved":false,"is_disabled":false,"rental_uris":{"android":"levelo://app?vid=6384da77-0f8b-4a22-ac8e-7095f91b2491","ios":"levelo://app?vid=6384da77-0f8b-4a22-ac8e-7095f91b2491"},"vehicle_type_id":"4","last_reported":1727287942,"current_range_meters":20000,"station_id":"ce4bhch2rcd13ifvqeug","pricing_plan_id":"cebpf4jnsgd1na2vs0mg"},{"bike_id":"d1e9e4db-bc77-4ac3-91d3-97528b238df6","system_id":"levelo_inurba_marseille","lat":43.24185,"lon":5.39727,"is_reserved":false,"is_disabled":false,"rental_uris":{"android":"levelo://app?vid=d1e9e4db-bc77-4ac3-91d3-97528b238df6","ios":"levelo://app?vid=d1e9e4db-bc77-4ac3-91d3-97528b238df6"},"vehicle_type_id":"4","last_reported":1727287942,"current_range_meters":38800,"station_id":"ce4bhn12rcd13ifvqgpg","pricing_plan_id":"cebpf4jnsgd1na2vs0mg"},{"bike_id":"f89edf18-ad7b-4a06-87e5-06bd699515fc","system_id":"levelo_inurba_marseille","lat":43.293091,"lon":5.374533,"is_reserved":false,"is_disabled":false,"rental_uris":{"android":"levelo://app?vid=f89edf18-ad7b-4a06-87e5-06bd699515fc","ios":"levelo://app?vid=f89edf18-ad7b-4a06-87e5-06bd699515fc"},"vehicle_type_id":"4","last_reported":1727287942,"current_range_meters":32400,"station_id":"ce4bhah2rcd13ifvqei0","pricing_plan_id":"cebpf4jnsgd1na2vs0mg"},{"bike_id":"63d9bcac-ec41-4f3e-95d3-efa76e558874","system_id":"levelo_inurba_marseille","lat":43.2942,"lon":5.38621,"is_reserved":false,"is_disabled":false,"rental_uris":{"android":"levelo://app?vid=63d9bcac-ec41-4f3e-95d3-efa76e558874","ios":"levelo://app?vid=63d9bcac-ec41-4f3e-95d3-efa76e558874"},"vehicle_type_id":"4","last_reported":1727287942,"current_range_meters":36400,"station_id":"ce4bh2h2rcd13ifvqdh0","pricing_plan_id":"cebpf4jnsgd1na2vs0mg"},{"bike_id":"3dbd4749-a24c-43cd-9def-67297f866862","system_id":"levelo_inurba_marseille","lat":43.32366,"lon":5.38878,"is_reserved":false,"is_disabled":false,"rental_uris":{"android":"levelo://app?vid=3dbd4749-a24c-43cd-9def-67297f866862","ios":"levelo://app?vid=3dbd4749-a24c-43cd-9def-67297f866862"},"vehicle_type_id":"4","last_reported":1727287942,"current_range_meters":18000,"station_id":"ce4bhqp2rcd13ifvqhog","pricing_plan_id":"cebpf4jnsgd1na2vs0mg"},{"bike_id":"18a052cd-2557-4072-ba19-24c6149d8795","system_id":"levelo_inurba_marseille","lat":43.32481,"lon":5.36561,"is_reserved":false,"is_disabled":false,"rental_uris":{"android":"levelo://app?vid=18a052cd-2557-4072-ba19-24c6149d8795","ios":"levelo://app?vid=18a052cd-2557-4072-ba19-24c6149d8795"},"vehicle_type_id":"4","last_reported":1727287942,"current_range_meters":12000,"station_id":"ce4bhs12rcd13ifvqhvg","pricing_plan_id":"cebpf4jnsgd1na2vs0mg"},{"bike_id":"b89f3c75-62ef-439a-891a-3e5717a4b61a","system_id":"levelo_inurba_marseille","lat":43.27927,"lon":5.37944,"is_reserved":false,"is_disabled":false,"rental_uris":{"android":"levelo://app?vid=b89f3c75-62ef-439a-891a-3e5717a4b61a","ios":"levelo://app?vid=b89f3c75-62ef-439a-891a-3e5717a4b61a"},"vehicle_type_id":"4","last_reported":1727287942,"current_range_meters":26800,"station_id":"","pricing_plan_id":"cebpf4jnsgd1na2vs0mg"},{"bike_id":"46e71370-869c-438c-8489-e6cda1f47691","system_id":"levelo_inurba_marseille","lat":43.30207,"lon":5.39484,"is_reserved":false,"is_disabled":false,"rental_uris":{"android":"levelo://app?vid=46e71370-869c-438c-8489-e6cda1f47691","ios":"levelo://app?vid=46e71370-869c-438c-8489-e6cda1f47691"},"vehicle_type_id":"4","last_reported":1727287942,"current_range_meters":16800,"station_id":"ce4bh0p2rcd13ifvqd70","pricing_plan_id":"cebpf4jnsgd1na2vs0mg"},{"bike_id":"2fae6e32-d619-4775-956a-e0ef4966aef5","system_id":"levelo_inurba_marseille","lat":43.29944,"lon":5.36557,"is_reserved":false,"is_disabled":false,"rental_uris":{"android":"levelo://app?vid=2fae6e32-d619-4775-956a-e0ef4966aef5","ios":"levelo://app?vid=2fae6e32-d619-4775-956a-e0ef4966aef5"},"vehicle_type_id":"4","last_reported":1727287942,"current_range_meters":36800,"station_id":"ce4bgm92rcd13ifvqbr0","pricing_plan_id":"cebpf4jnsgd1na2vs0mg"},{"bike_id":"1ac3389e-adb1-4d01-9a0a-5410f450353d","system_id":"levelo_inurba_marseille","lat":43.30536,"lon":5.36543,"is_reserved":false,"is_disabled":false,"rental_uris":{"android":"levelo://app?vid=1ac3389e-adb1-4d01-9a0a-5410f450353d","ios":"levelo://app?vid=1ac3389e-adb1-4d01-9a0a-5410f450353d"},"vehicle_type_id":"4","last_reported":1727287942,"current_range_meters":38800,"station_id":"ce4bgs12rcd13ifvqcag","pricing_plan_id":"cebpf4jnsgd1na2vs0mg"},{"bike_id":"5d5cf0e5-512d-41a9-8eac-0f5790e58d28","system_id":"levelo_inurba_marseille","lat":43.25823,"lon":5.39438,"is_reserved":false,"is_disabled":false,"rental_uris":{"android":"levelo://app?vid=5d5cf0e5-512d-41a9-8eac-0f5790e58d28","ios":"levelo://app?vid=5d5cf0e5-512d-41a9-8eac-0f5790e58d28"},"vehicle_type_id":"4","last_reported":1727287942,"current_range_meters":7200,"station_id":"ce4bhip2rcd13ifvqft0","pricing_plan_id":"cebpf4jnsgd1na2vs0mg"},{"bike_id":"2476007a-4805-471b-af46-4586a1928f6a","system_id":"levelo_inurba_marseille","lat":43.25573,"lon":5.38241,"is_reserved":false,"is_disabled":false,"rental_uris":{"android":"levelo://app?vid=2476007a-4805-471b-af46-4586a1928f6a","ios":"levelo://app?vid=2476007a-4805-471b-af46-4586a1928f6a"},"vehicle_type_id":"4","last_reported":1727287942,"current_range_meters":9200,"station_id":"ce4bhih2rcd13ifvqfs0","pricing_plan_id":"cebpf4jnsgd1na2vs0mg"},{"bike_id":"d494234b-ddcd-42ec-ad08-fb03cf442682","system_id":"levelo_inurba_marseille","lat":43.29306,"lon":5.37171,"is_reserved":false,"is_disabled":false,"rental_uris":{"android":"levelo://app?vid=d494234b-ddcd-42ec-ad08-fb03cf442682","ios":"levelo://app?vid=d494234b-ddcd-42ec-ad08-fb03cf442682"},"vehicle_type_id":"4","last_reported":1727287942,"current_range_meters":23200,"station_id":"ce4bgh92rcd13ifvqb40","pricing_plan_id":"cebpf4jnsgd1na2vs0mg"},{"bike_id":"e1e34c16-9855-4f07-af45-692eaeb4ea34","system_id":"levelo_inurba_marseille","lat":43.29002,"lon":5.35621,"is_reserved":false,"is_disabled":false,"rental_uris":{"android":"levelo://app?vid=e1e34c16-9855-4f07-af45-692eaeb4ea34","ios":"levelo://app?vid=e1e34c16-9855-4f07-af45-692eaeb4ea34"},"vehicle_type_id":"4","last_reported":1727287942,"current_range_meters":38800,"station_id":"ce4bhb92rcd13ifvqen0","pricing_plan_id":"cebpf4jnsgd1na2vs0mg"},{"bike_id":"151999ff-3bcd-4c9a-864a-38e0eb3cea34","system_id":"levelo_inurba_marseille","lat":43.298645,"lon":5.379384,"is_reserved":false,"is_disabled":false,"rental_uris":{"android":"levelo://app?vid=151999ff-3bcd-4c9a-864a-38e0eb3cea34","ios":"levelo://app?vid=151999ff-3bcd-4c9a-864a-38e0eb3cea34"},"vehicle_type_id":"4","last_reported":1727287942,"current_range_meters":12000,"station_id":"ce4bgop2rcd13ifvqc1g","pricing_plan_id":"cebpf4jnsgd1na2vs0mg"},{"bike_id":"5d812edc-9ac9-4af7-aa7d-d38af76750df","system_id":"levelo_inurba_marseille","lat":43.28716,"lon":5.37941,"is_reserved":false,"is_disabled":false,"rental_uris":{"android":"levelo://app?vid=5d812edc-9ac9-4af7-aa7d-d38af76750df","ios":"levelo://app?vid=5d812edc-9ac9-4af7-aa7d-d38af76750df"},"vehicle_type_id":"4","last_reported":1727287942,"current_range_meters":18800,"station_id":"ce4bh9p2rcd13ifvqec0","pricing_plan_id":"cebpf4jnsgd1na2vs0mg"},{"bike_id":"dbc19b78-45b3-418b-9800-0c3c95d04548","system_id":"levelo_inurba_marseille","lat":43.25577,"lon":5.38234,"is_reserved":false,"is_disabled":false,"rental_uris":{"android":"levelo://app?vid=dbc19b78-45b3-418b-9800-0c3c95d04548","ios":"levelo://app?vid=dbc19b78-45b3-418b-9800-0c3c95d04548"},"vehicle_type_id":"4","last_reported":1727287942,"current_range_meters":21600,"station_id":"ce4bhih2rcd13ifvqfs0","pricing_plan_id":"cebpf4jnsgd1na2vs0mg"},{"bike_id":"164c5150-fd82-49d7-aff9-b769aa561f0f","system_id":"levelo_inurba_marseille","lat":43.32005,"lon":5.38168,"is_reserved":false,"is_disabled":false,"rental_uris":{"android":"levelo://app?vid=164c5150-fd82-49d7-aff9-b769aa561f0f","ios":"levelo://app?vid=164c5150-fd82-49d7-aff9-b769aa561f0f"},"vehicle_type_id":"4","last_reported":1727287942,"current_range_meters":29600,"station_id":"ce4bhr12rcd13ifvqhpg","pricing_plan_id":"cebpf4jnsgd1na2vs0mg"},{"bike_id":"666cfbb3-1b46-4df5-a347-94d4c62ca70f","system_id":"levelo_inurba_marseille","lat":43.2408,"lon":5.37757,"is_reserved":false,"is_disabled":false,"rental_uris":{"android":"levelo://app?vid=666cfbb3-1b46-4df5-a347-94d4c62ca70f","ios":"levelo://app?vid=666cfbb3-1b46-4df5-a347-94d4c62ca70f"},"vehicle_type_id":"4","last_reported":1727287942,"current_range_meters":9600,"station_id":"ce4bhnp2rcd13ifvqgvg","pricing_plan_id":"cebpf4jnsgd1na2vs0mg"},{"bike_id":"394bd57f-2085-46c4-ab41-dd0f387473e5","system_id":"levelo_inurba_marseille","lat":43.266817,"lon":5.382697,"is_reserved":false,"is_disabled":false,"rental_uris":{"android":"levelo://app?vid=394bd57f-2085-46c4-ab41-dd0f387473e5","ios":"levelo://app?vid=394bd57f-2085-46c4-ab41-dd0f387473e5"},"vehicle_type_id":"4","last_reported":1727287942,"current_range_meters":17600,"station_id":"ce4bguh2rcd13ifvqcj0","pricing_plan_id":"cebpf4jnsgd1na2vs0mg"},{"bike_id":"5ece6534-697d-4101-8fbb-94c5df553a2d","system_id":"levelo_inurba_marseille","lat":43.24079,"lon":5.37758,"is_reserved":false,"is_disabled":false,"rental_uris":{"android":"levelo://app?vid=5ece6534-697d-4101-8fbb-94c5df553a2d","ios":"levelo://app?vid=5ece6534-697d-4101-8fbb-94c5df553a2d"},"vehicle_type_id":"4","last_reported":1727287942,"current_range_meters":37600,"station_id":"ce4bhnp2rcd13ifvqgvg","pricing_plan_id":"cebpf4jnsgd1na2vs0mg"},{"bike_id":"eced786f-34cd-4487-bfef-355bf03f14a6","system_id":"levelo_inurba_marseille","lat":43.29273,"lon":5.38442,"is_reserved":false,"is_disabled":false,"rental_uris":{"android":"levelo://app?vid=eced786f-34cd-4487-bfef-355bf03f14a6","ios":"levelo://app?vid=eced786f-34cd-4487-bfef-355bf03f14a6"},"vehicle_type_id":"4","last_reported":1727287942,"current_range_meters":38400,"station_id":"ce4bh692rcd13ifvqea0","pricing_plan_id":"cebpf4jnsgd1na2vs0mg"},{"bike_id":"a7bca3df-0344-4204-86d7-b742d4769839","system_id":"levelo_inurba_marseille","lat":43.30863,"lon":5.3685,"is_reserved":false,"is_disabled":false,"rental_uris":{"android":"levelo://app?vid=a7bca3df-0344-4204-86d7-b742d4769839","ios":"levelo://app?vid=a7bca3df-0344-4204-86d7-b742d4769839"},"vehicle_type_id":"4","last_reported":1727287942,"current_range_meters":27200,"station_id":"ce4bgn92rcd13ifvqbvg","pricing_plan_id":"cebpf4jnsgd1na2vs0mg"},{"bike_id":"2088c46a-45f2-4c5a-b8aa-8a8b26d4c3b1","system_id":"levelo_inurba_marseille","lat":43.29538,"lon":5.38538,"is_reserved":false,"is_disabled":false,"rental_uris":{"android":"levelo://app?vid=2088c46a-45f2-4c5a-b8aa-8a8b26d4c3b1","ios":"levelo://app?vid=2088c46a-45f2-4c5a-b8aa-8a8b26d4c3b1"},"vehicle_type_id":"4","last_reported":1727287942,"current_range_meters":31200,"station_id":"ce4bgih2rcd13ifvqba0","pricing_plan_id":"cebpf4jnsgd1na2vs0mg"},{"bike_id":"0ba19d1e-f9de-4bd6-8315-89e620ffead5","system_id":"levelo_inurba_marseille","lat":43.30809,"lon":5.38157,"is_reserved":false,"is_disabled":false,"rental_uris":{"android":"levelo://app?vid=0ba19d1e-f9de-4bd6-8315-89e620ffead5","ios":"levelo://app?vid=0ba19d1e-f9de-4bd6-8315-89e620ffead5"},"vehicle_type_id":"4","last_reported":1727287942,"current_range_meters":29600,"station_id":"chh1huq6cuj3fo74tm60","pricing_plan_id":"cebpf4jnsgd1na2vs0mg"},{"bike_id":"7827170f-fe53-4f76-acc5-1f9d10e67145","system_id":"levelo_inurba_marseille","lat":43.2293,"lon":5.35375,"is_reserved":false,"is_disabled":false,"rental_uris":{"android":"levelo://app?vid=7827170f-fe53-4f76-acc5-1f9d10e67145","ios":"levelo://app?vid=7827170f-fe53-4f76-acc5-1f9d10e67145"},"vehicle_type_id":"4","last_reported":1727287942,"current_range_meters":36800,"station_id":"cpo3532slgdg3j2ikp40","pricing_plan_id":"cebpf4jnsgd1na2vs0mg"},{"bike_id":"d831a0c8-0bcd-4449-91a5-836df1a52d4b","system_id":"levelo_inurba_marseille","lat":43.30773,"lon":5.37263,"is_reserved":false,"is_disabled":false,"rental_uris":{"android":"levelo://app?vid=d831a0c8-0bcd-4449-91a5-836df1a52d4b","ios":"levelo://app?vid=d831a0c8-0bcd-4449-91a5-836df1a52d4b"},"vehicle_type_id":"4","last_reported":1727287942,"current_range_meters":9200,"station_id":"","pricing_plan_id":"cebpf4jnsgd1na2vs0mg"},{"bike_id":"a847a9f9-ebf4-4f3f-899b-83fbf2bea9d3","system_id":"levelo_inurba_marseille","lat":43.30795,"lon":5.43529,"is_reserved":false,"is_disabled":false,"rental_uris":{"android":"levelo://app?vid=a847a9f9-ebf4-4f3f-899b-83fbf2bea9d3","ios":"levelo://app?vid=a847a9f9-ebf4-4f3f-899b-83fbf2bea9d3"},"vehicle_type_id":"4","last_reported":1727287942,"current_range_meters":22000,"station_id":"ce4bhph2rcd13ifvqheg","pricing_plan_id":"cebpf4jnsgd1na2vs0mg"},{"bike_id":"419bb6d9-bb03-454a-b123-d730bb1a392c","system_id":"levelo_inurba_marseille","lat":43.295166,"lon":5.394056,"is_reserved":false,"is_disabled":false,"rental_uris":{"android":"levelo://app?vid=419bb6d9-bb03-454a-b123-d730bb1a392c","ios":"levelo://app?vid=419bb6d9-bb03-454a-b123-d730bb1a392c"},"vehicle_type_id":"4","last_reported":1727287942,"current_range_meters":14400,"station_id":"ce4bh292rcd13ifvqdf0","pricing_plan_id":"cebpf4jnsgd1na2vs0mg"},{"bike_id":"50d07f20-97bc-4756-9732-e7dbc1d80e16","system_id":"levelo_inurba_marseille","lat":43.24547,"lon":5.39527,"is_reserved":false,"is_disabled":false,"rental_uris":{"android":"levelo://app?vid=50d07f20-97bc-4756-9732-e7dbc1d80e16","ios":"levelo://app?vid=50d07f20-97bc-4756-9732-e7dbc1d80e16"},"vehicle_type_id":"4","last_reported":1727287942,"current_range_meters":14800,"station_id":"ce4bhlp2rcd13ifvqgjg","pricing_plan_id":"cebpf4jnsgd1na2vs0mg"},{"bike_id":"4a4bfd88-bdfc-4802-b3a8-e798e4274727","system_id":"levelo_inurba_marseille","lat":43.32294,"lon":5.38278,"is_reserved":false,"is_disabled":false,"rental_uris":{"android":"levelo://app?vid=4a4bfd88-bdfc-4802-b3a8-e798e4274727","ios":"levelo://app?vid=4a4bfd88-bdfc-4802-b3a8-e798e4274727"},"vehicle_type_id":"4","last_reported":1727287942,"current_range_meters":27600,"station_id":"ce4bhr12rcd13ifvqhqg","pricing_plan_id":"cebpf4jnsgd1na2vs0mg"},{"bike_id":"4080c63d-ab6f-4b58-a281-e8c7003f5be6","system_id":"levelo_inurba_marseille","lat":43.28704,"lon":5.3999,"is_reserved":false,"is_disabled":false,"rental_uris":{"android":"levelo://app?vid=4080c63d-ab6f-4b58-a281-e8c7003f5be6","ios":"levelo://app?vid=4080c63d-ab6f-4b58-a281-e8c7003f5be6"},"vehicle_type_id":"4","last_reported":1727287942,"current_range_meters":10000,"station_id":"ce4bho92rcd13ifvqh3g","pricing_plan_id":"cebpf4jnsgd1na2vs0mg"},{"bike_id":"de8ff9a9-709a-4424-83ed-039925aabde2","system_id":"levelo_inurba_marseille","lat":43.24071,"lon":5.37763,"is_reserved":false,"is_disabled":false,"rental_uris":{"android":"levelo://app?vid=de8ff9a9-709a-4424-83ed-039925aabde2","ios":"levelo://app?vid=de8ff9a9-709a-4424-83ed-039925aabde2"},"vehicle_type_id":"4","last_reported":1727287942,"current_range_meters":16800,"station_id":"ce4bhnp2rcd13ifvqgvg","pricing_plan_id":"cebpf4jnsgd1na2vs0mg"},{"bike_id":"4660de8f-6b1d-4ec7-86e9-b37d4a58ce76","system_id":"levelo_inurba_marseille","lat":43.32293,"lon":5.38269,"is_reserved":false,"is_disabled":false,"rental_uris":{"android":"levelo://app?vid=4660de8f-6b1d-4ec7-86e9-b37d4a58ce76","ios":"levelo://app?vid=4660de8f-6b1d-4ec7-86e9-b37d4a58ce76"},"vehicle_type_id":"4","last_reported":1727287942,"current_range_meters":36800,"station_id":"ce4bhr12rcd13ifvqhqg","pricing_plan_id":"cebpf4jnsgd1na2vs0mg"},{"bike_id":"0eabb683-9d75-4b0a-bd74-7995084ee68f","system_id":"levelo_inurba_marseille","lat":43.314945,"lon":5.373099,"is_reserved":false,"is_disabled":false,"rental_uris":{"android":"levelo://app?vid=0eabb683-9d75-4b0a-bd74-7995084ee68f","ios":"levelo://app?vid=0eabb683-9d75-4b0a-bd74-7995084ee68f"},"vehicle_type_id":"4","last_reported":1727287942,"current_range_meters":10800,"station_id":"ce4bgt12rcd13ifvqcd0","pricing_plan_id":"cebpf4jnsgd1na2vs0mg"},{"bike_id":"ccc86cb2-ba2d-4f8a-834c-6c3163778f6c","system_id":"levelo_inurba_marseille","lat":43.24804,"lon":5.37456,"is_reserved":false,"is_disabled":false,"rental_uris":{"android":"levelo://app?vid=ccc86cb2-ba2d-4f8a-834c-6c3163778f6c","ios":"levelo://app?vid=ccc86cb2-ba2d-4f8a-834c-6c3163778f6c"},"vehicle_type_id":"4","last_reported":1727287942,"current_range_meters":26800,"station_id":"ce4bhgh2rcd13ifvqfb0","pricing_plan_id":"cebpf4jnsgd1na2vs0mg"},{"bike_id":"97336ea2-cef3-4d22-b9b3-0285ac9a5388","system_id":"levelo_inurba_marseille","lat":43.28354,"lon":5.38653,"is_reserved":false,"is_disabled":false,"rental_uris":{"android":"levelo://app?vid=97336ea2-cef3-4d22-b9b3-0285ac9a5388","ios":"levelo://app?vid=97336ea2-cef3-4d22-b9b3-0285ac9a5388"},"vehicle_type_id":"4","last_reported":1727287942,"current_range_meters":30000,"station_id":"ce4bh492rcd13ifvqdvg","pricing_plan_id":"cebpf4jnsgd1na2vs0mg"},{"bike_id":"d8b6ee1b-ce48-4b76-b667-5a91f1b1cefd","system_id":"levelo_inurba_marseille","lat":43.29773,"lon":5.39773,"is_reserved":false,"is_disabled":false,"rental_uris":{"android":"levelo://app?vid=d8b6ee1b-ce48-4b76-b667-5a91f1b1cefd","ios":"levelo://app?vid=d8b6ee1b-ce48-4b76-b667-5a91f1b1cefd"},"vehicle_type_id":"4","last_reported":1727287942,"current_range_meters":24400,"station_id":"ce4bhnh2rcd13ifvqgtg","pricing_plan_id":"cebpf4jnsgd1na2vs0mg"},{"bike_id":"4fc0ef81-a692-4f7c-9d38-77b16cc04b2c","system_id":"levelo_inurba_marseille","lat":43.31759,"lon":5.3901,"is_reserved":false,"is_disabled":false,"rental_uris":{"android":"levelo://app?vid=4fc0ef81-a692-4f7c-9d38-77b16cc04b2c","ios":"levelo://app?vid=4fc0ef81-a692-4f7c-9d38-77b16cc04b2c"},"vehicle_type_id":"4","last_reported":1727287942,"current_range_meters":38000,"station_id":"ce4bhqp2rcd13ifvqhng","pricing_plan_id":"cebpf4jnsgd1na2vs0mg"},{"bike_id":"7fb0d0fb-dd7a-4ace-98da-9e3c8b1d73b0","system_id":"levelo_inurba_marseille","lat":43.22928,"lon":5.35374,"is_reserved":false,"is_disabled":false,"rental_uris":{"android":"levelo://app?vid=7fb0d0fb-dd7a-4ace-98da-9e3c8b1d73b0","ios":"levelo://app?vid=7fb0d0fb-dd7a-4ace-98da-9e3c8b1d73b0"},"vehicle_type_id":"4","last_reported":1727287942,"current_range_meters":25600,"station_id":"cpo3532slgdg3j2ikp40","pricing_plan_id":"cebpf4jnsgd1na2vs0mg"},{"bike_id":"51f4d75c-79c5-47e9-8fcd-05825786ca23","system_id":"levelo_inurba_marseille","lat":43.23184,"lon":5.39977,"is_reserved":false,"is_disabled":false,"rental_uris":{"android":"levelo://app?vid=51f4d75c-79c5-47e9-8fcd-05825786ca23","ios":"levelo://app?vid=51f4d75c-79c5-47e9-8fcd-05825786ca23"},"vehicle_type_id":"4","last_reported":1727287942,"current_range_meters":36400,"station_id":"ce4bhn12rcd13ifvqgqg","pricing_plan_id":"cebpf4jnsgd1na2vs0mg"},{"bike_id":"0701c551-2423-46e6-bb36-1fbd2e19330c","system_id":"levelo_inurba_marseille","lat":43.29101,"lon":5.38151,"is_reserved":false,"is_disabled":false,"rental_uris":{"android":"levelo://app?vid=0701c551-2423-46e6-bb36-1fbd2e19330c","ios":"levelo://app?vid=0701c551-2423-46e6-bb36-1fbd2e19330c"},"vehicle_type_id":"4","last_reported":1727287942,"current_range_meters":36000,"station_id":"ce4bh512rcd13ifvqe2g","pricing_plan_id":"cebpf4jnsgd1na2vs0mg"},{"bike_id":"11a263f1-b6f3-4b6c-ac4f-b8c12b4e0b7a","system_id":"levelo_inurba_marseille","lat":43.26217,"lon":5.37439,"is_reserved":false,"is_disabled":false,"rental_uris":{"android":"levelo://app?vid=11a263f1-b6f3-4b6c-ac4f-b8c12b4e0b7a","ios":"levelo://app?vid=11a263f1-b6f3-4b6c-ac4f-b8c12b4e0b7a"},"vehicle_type_id":"4","last_reported":1727287942,"current_range_meters":38800,"station_id":"ce4bhgp2rcd13ifvqfc0","pricing_plan_id":"cebpf4jnsgd1na2vs0mg"},{"bike_id":"e6eba78b-c552-4f78-8c6f-befa25421055","system_id":"levelo_inurba_marseille","lat":43.30436,"lon":5.38893,"is_reserved":false,"is_disabled":false,"rental_uris":{"android":"levelo://app?vid=e6eba78b-c552-4f78-8c6f-befa25421055","ios":"levelo://app?vid=e6eba78b-c552-4f78-8c6f-befa25421055"},"vehicle_type_id":"4","last_reported":1727287942,"current_range_meters":38800,"station_id":"ce4bgk12rcd13ifvqbi0","pricing_plan_id":"cebpf4jnsgd1na2vs0mg"},{"bike_id":"65978031-a7cd-41dd-a9a0-e1db06658d95","system_id":"levelo_inurba_marseille","lat":43.27906,"lon":5.38007,"is_reserved":false,"is_disabled":false,"rental_uris":{"android":"levelo://app?vid=65978031-a7cd-41dd-a9a0-e1db06658d95","ios":"levelo://app?vid=65978031-a7cd-41dd-a9a0-e1db06658d95"},"vehicle_type_id":"4","last_reported":1727287942,"current_range_meters":30800,"station_id":"ce4bhf92rcd13ifvqf50","pricing_plan_id":"cebpf4jnsgd1na2vs0mg"},{"bike_id":"020eb915-9dd9-45ac-bb6c-dbe0ab66ef2c","system_id":"levelo_inurba_marseille","lat":43.33599,"lon":5.41035,"is_reserved":false,"is_disabled":false,"rental_uris":{"android":"levelo://app?vid=020eb915-9dd9-45ac-bb6c-dbe0ab66ef2c","ios":"levelo://app?vid=020eb915-9dd9-45ac-bb6c-dbe0ab66ef2c"},"vehicle_type_id":"4","last_reported":1727287942,"current_range_meters":15200,"station_id":"ce4bhqh2rcd13ifvqhmg","pricing_plan_id":"cebpf4jnsgd1na2vs0mg"},{"bike_id":"eacf85af-8a01-4215-a893-a47edd8b42dd","system_id":"levelo_inurba_marseille","lat":43.25576,"lon":5.38239,"is_reserved":false,"is_disabled":false,"rental_uris":{"android":"levelo://app?vid=eacf85af-8a01-4215-a893-a47edd8b42dd","ios":"levelo://app?vid=eacf85af-8a01-4215-a893-a47edd8b42dd"},"vehicle_type_id":"4","last_reported":1727287942,"current_range_meters":10800,"station_id":"ce4bhih2rcd13ifvqfs0","pricing_plan_id":"cebpf4jnsgd1na2vs0mg"},{"bike_id":"30c09287-24f3-4978-b989-ff91104212d2","system_id":"levelo_inurba_marseille","lat":43.30792,"lon":5.37652,"is_reserved":false,"is_disabled":false,"rental_uris":{"android":"levelo://app?vid=30c09287-24f3-4978-b989-ff91104212d2","ios":"levelo://app?vid=30c09287-24f3-4978-b989-ff91104212d2"},"vehicle_type_id":"4","last_reported":1727287942,"current_range_meters":6400,"station_id":"ce4bgv92rcd13ifvqcq0","pricing_plan_id":"cebpf4jnsgd1na2vs0mg"},{"bike_id":"3d160dae-6782-4e53-81e7-e40908ad46c5","system_id":"levelo_inurba_marseille","lat":43.31871,"lon":5.37427,"is_reserved":false,"is_disabled":false,"rental_uris":{"android":"levelo://app?vid=3d160dae-6782-4e53-81e7-e40908ad46c5","ios":"levelo://app?vid=3d160dae-6782-4e53-81e7-e40908ad46c5"},"vehicle_type_id":"4","last_reported":1727287942,"current_range_meters":34000,"station_id":"","pricing_plan_id":"cebpf4jnsgd1na2vs0mg"},{"bike_id":"6de022fc-6851-467a-8c07-3c458eaca8e2","system_id":"levelo_inurba_marseille","lat":43.2318,"lon":5.39987,"is_reserved":false,"is_disabled":false,"rental_uris":{"android":"levelo://app?vid=6de022fc-6851-467a-8c07-3c458eaca8e2","ios":"levelo://app?vid=6de022fc-6851-467a-8c07-3c458eaca8e2"},"vehicle_type_id":"4","last_reported":1727287942,"current_range_meters":9600,"station_id":"ce4bhn12rcd13ifvqgqg","pricing_plan_id":"cebpf4jnsgd1na2vs0mg"},{"bike_id":"1cafb7e2-bb2d-4cdd-850c-a35197648656","system_id":"levelo_inurba_marseille","lat":43.32295,"lon":5.38289,"is_reserved":false,"is_disabled":false,"rental_uris":{"android":"levelo://app?vid=1cafb7e2-bb2d-4cdd-850c-a35197648656","ios":"levelo://app?vid=1cafb7e2-bb2d-4cdd-850c-a35197648656"},"vehicle_type_id":"4","last_reported":1727287942,"current_range_meters":36000,"station_id":"ce4bhr12rcd13ifvqhqg","pricing_plan_id":"cebpf4jnsgd1na2vs0mg"},{"bike_id":"f97492f4-d35f-41c0-83e4-0989f3aa5b86","system_id":"levelo_inurba_marseille","lat":43.30424,"lon":5.38881,"is_reserved":false,"is_disabled":false,"rental_uris":{"android":"levelo://app?vid=f97492f4-d35f-41c0-83e4-0989f3aa5b86","ios":"levelo://app?vid=f97492f4-d35f-41c0-83e4-0989f3aa5b86"},"vehicle_type_id":"4","last_reported":1727287942,"current_range_meters":32000,"station_id":"ce4bgk12rcd13ifvqbi0","pricing_plan_id":"cebpf4jnsgd1na2vs0mg"},{"bike_id":"e80228e9-3981-4fbe-903d-bc00d6fcaea5","system_id":"levelo_inurba_marseille","lat":43.29711,"lon":5.36613,"is_reserved":false,"is_disabled":false,"rental_uris":{"android":"levelo://app?vid=e80228e9-3981-4fbe-903d-bc00d6fcaea5","ios":"levelo://app?vid=e80228e9-3981-4fbe-903d-bc00d6fcaea5"},"vehicle_type_id":"4","last_reported":1727287942,"current_range_meters":33600,"station_id":"ce4bgn12rcd13ifvqbt0","pricing_plan_id":"cebpf4jnsgd1na2vs0mg"},{"bike_id":"07b5d860-5697-4b5b-930f-7567a26525db","system_id":"levelo_inurba_marseille","lat":43.25579,"lon":5.3824,"is_reserved":false,"is_disabled":false,"rental_uris":{"android":"levelo://app?vid=07b5d860-5697-4b5b-930f-7567a26525db","ios":"levelo://app?vid=07b5d860-5697-4b5b-930f-7567a26525db"},"vehicle_type_id":"4","last_reported":1727287942,"current_range_meters":4000,"station_id":"ce4bhih2rcd13ifvqfs0","pricing_plan_id":"cebpf4jnsgd1na2vs0mg"},{"bike_id":"991845b0-7648-4e5d-8666-c298f4357278","system_id":"levelo_inurba_marseille","lat":43.29304,"lon":5.37169,"is_reserved":false,"is_disabled":false,"rental_uris":{"android":"levelo://app?vid=991845b0-7648-4e5d-8666-c298f4357278","ios":"levelo://app?vid=991845b0-7648-4e5d-8666-c298f4357278"},"vehicle_type_id":"4","last_reported":1727287942,"current_range_meters":36800,"station_id":"ce4bgh92rcd13ifvqb40","pricing_plan_id":"cebpf4jnsgd1na2vs0mg"},{"bike_id":"d2636eeb-b6cc-48de-b65d-5f2a1182bebb","system_id":"levelo_inurba_marseille","lat":43.29414,"lon":5.38621,"is_reserved":false,"is_disabled":false,"rental_uris":{"android":"levelo://app?vid=d2636eeb-b6cc-48de-b65d-5f2a1182bebb","ios":"levelo://app?vid=d2636eeb-b6cc-48de-b65d-5f2a1182bebb"},"vehicle_type_id":"4","last_reported":1727287942,"current_range_meters":16400,"station_id":"ce4bh2h2rcd13ifvqdh0","pricing_plan_id":"cebpf4jnsgd1na2vs0mg"},{"bike_id":"38bf0490-7118-4a85-b014-989b96e221e1","system_id":"levelo_inurba_marseille","lat":43.24069,"lon":5.37763,"is_reserved":false,"is_disabled":false,"rental_uris":{"android":"levelo://app?vid=38bf0490-7118-4a85-b014-989b96e221e1","ios":"levelo://app?vid=38bf0490-7118-4a85-b014-989b96e221e1"},"vehicle_type_id":"4","last_reported":1727287942,"current_range_meters":3600,"station_id":"ce4bhnp2rcd13ifvqgvg","pricing_plan_id":"cebpf4jnsgd1na2vs0mg"},{"bike_id":"df99573f-fc55-4e76-b178-5d7109f51b6b","system_id":"levelo_inurba_marseille","lat":43.25121,"lon":5.40317,"is_reserved":false,"is_disabled":false,"rental_uris":{"android":"levelo://app?vid=df99573f-fc55-4e76-b178-5d7109f51b6b","ios":"levelo://app?vid=df99573f-fc55-4e76-b178-5d7109f51b6b"},"vehicle_type_id":"4","last_reported":1727287942,"current_range_meters":22400,"station_id":"ce4bhlh2rcd13ifvqgig","pricing_plan_id":"cebpf4jnsgd1na2vs0mg"},{"bike_id":"4dcd885a-7452-402c-b495-e2f5d6f8ce20","system_id":"levelo_inurba_marseille","lat":43.26207,"lon":5.37445,"is_reserved":false,"is_disabled":false,"rental_uris":{"android":"levelo://app?vid=4dcd885a-7452-402c-b495-e2f5d6f8ce20","ios":"levelo://app?vid=4dcd885a-7452-402c-b495-e2f5d6f8ce20"},"vehicle_type_id":"4","last_reported":1727287942,"current_range_meters":38800,"station_id":"ce4bhgp2rcd13ifvqfc0","pricing_plan_id":"cebpf4jnsgd1na2vs0mg"},{"bike_id":"66bf1344-c9d8-4c49-990d-c578820e6245","system_id":"levelo_inurba_marseille","lat":43.29868,"lon":5.39731,"is_reserved":false,"is_disabled":false,"rental_uris":{"android":"levelo://app?vid=66bf1344-c9d8-4c49-990d-c578820e6245","ios":"levelo://app?vid=66bf1344-c9d8-4c49-990d-c578820e6245"},"vehicle_type_id":"4","last_reported":1727287942,"current_range_meters":38800,"station_id":"ce4bh0h2rcd13ifvqd50","pricing_plan_id":"cebpf4jnsgd1na2vs0mg"},{"bike_id":"f26824ca-03c6-43fe-ace9-131294973b1a","system_id":"levelo_inurba_marseille","lat":43.31686,"lon":5.40468,"is_reserved":false,"is_disabled":false,"rental_uris":{"android":"levelo://app?vid=f26824ca-03c6-43fe-ace9-131294973b1a","ios":"levelo://app?vid=f26824ca-03c6-43fe-ace9-131294973b1a"},"vehicle_type_id":"4","last_reported":1727287942,"current_range_meters":39200,"station_id":"ce4bh012rcd13ifvqd00","pricing_plan_id":"cebpf4jnsgd1na2vs0mg"},{"bike_id":"3ab75d53-6a7e-4b6a-85bc-da7cb0348b8e","system_id":"levelo_inurba_marseille","lat":43.25121,"lon":5.40318,"is_reserved":false,"is_disabled":false,"rental_uris":{"android":"levelo://app?vid=3ab75d53-6a7e-4b6a-85bc-da7cb0348b8e","ios":"levelo://app?vid=3ab75d53-6a7e-4b6a-85bc-da7cb0348b8e"},"vehicle_type_id":"4","last_reported":1727287942,"current_range_meters":16400,"station_id":"ce4bhlh2rcd13ifvqgig","pricing_plan_id":"cebpf4jnsgd1na2vs0mg"},{"bike_id":"d6855356-e979-4a89-ac1d-2d77da8747fc","system_id":"levelo_inurba_marseille","lat":43.25822,"lon":5.39438,"is_reserved":false,"is_disabled":false,"rental_uris":{"android":"levelo://app?vid=d6855356-e979-4a89-ac1d-2d77da8747fc","ios":"levelo://app?vid=d6855356-e979-4a89-ac1d-2d77da8747fc"},"vehicle_type_id":"4","last_reported":1727287942,"current_range_meters":6400,"station_id":"ce4bhip2rcd13ifvqft0","pricing_plan_id":"cebpf4jnsgd1na2vs0mg"},{"bike_id":"570fe78d-c15f-4d83-b7b5-351cd76f345c","system_id":"levelo_inurba_marseille","lat":43.30463,"lon":5.37907,"is_reserved":false,"is_disabled":false,"rental_uris":{"android":"levelo://app?vid=570fe78d-c15f-4d83-b7b5-351cd76f345c","ios":"levelo://app?vid=570fe78d-c15f-4d83-b7b5-351cd76f345c"},"vehicle_type_id":"4","last_reported":1727287942,"current_range_meters":18000,"station_id":"ce4bgup2rcd13ifvqcn0","pricing_plan_id":"cebpf4jnsgd1na2vs0mg"},{"bike_id":"d3a61b6a-71e8-4c6c-8c6c-30262b2b9bc2","system_id":"levelo_inurba_marseille","lat":43.337444,"lon":5.374475,"is_reserved":false,"is_disabled":false,"rental_uris":{"android":"levelo://app?vid=d3a61b6a-71e8-4c6c-8c6c-30262b2b9bc2","ios":"levelo://app?vid=d3a61b6a-71e8-4c6c-8c6c-30262b2b9bc2"},"vehicle_type_id":"4","last_reported":1727287942,"current_range_meters":35200,"station_id":"","pricing_plan_id":"cebpf4jnsgd1na2vs0mg"},{"bike_id":"a36a07ac-2d7d-4905-be4a-0f24203a2b1c","system_id":"levelo_inurba_marseille","lat":43.31883,"lon":5.40742,"is_reserved":false,"is_disabled":false,"rental_uris":{"android":"levelo://app?vid=a36a07ac-2d7d-4905-be4a-0f24203a2b1c","ios":"levelo://app?vid=a36a07ac-2d7d-4905-be4a-0f24203a2b1c"},"vehicle_type_id":"4","last_reported":1727287942,"current_range_meters":11600,"station_id":"ce4bhq12rcd13ifvqhig","pricing_plan_id":"cebpf4jnsgd1na2vs0mg"},{"bike_id":"0af01501-f8ee-4920-b4ab-5aee2dde7e05","system_id":"levelo_inurba_marseille","lat":43.29417,"lon":5.38628,"is_reserved":false,"is_disabled":false,"rental_uris":{"android":"levelo://app?vid=0af01501-f8ee-4920-b4ab-5aee2dde7e05","ios":"levelo://app?vid=0af01501-f8ee-4920-b4ab-5aee2dde7e05"},"vehicle_type_id":"4","last_reported":1727287942,"current_range_meters":38800,"station_id":"ce4bh2h2rcd13ifvqdh0","pricing_plan_id":"cebpf4jnsgd1na2vs0mg"},{"bike_id":"bb5cbc06-1098-4578-beff-dcb8c25d155d","system_id":"levelo_inurba_marseille","lat":43.281,"lon":5.3784,"is_reserved":false,"is_disabled":false,"rental_uris":{"android":"levelo://app?vid=bb5cbc06-1098-4578-beff-dcb8c25d155d","ios":"levelo://app?vid=bb5cbc06-1098-4578-beff-dcb8c25d155d"},"vehicle_type_id":"4","last_reported":1727287942,"current_range_meters":32400,"station_id":"ce4bha12rcd13ifvqee0","pricing_plan_id":"cebpf4jnsgd1na2vs0mg"},{"bike_id":"3a2fb078-3ab4-4427-95ee-ff0c42a7a4d5","system_id":"levelo_inurba_marseille","lat":43.23179,"lon":5.39994,"is_reserved":false,"is_disabled":false,"rental_uris":{"android":"levelo://app?vid=3a2fb078-3ab4-4427-95ee-ff0c42a7a4d5","ios":"levelo://app?vid=3a2fb078-3ab4-4427-95ee-ff0c42a7a4d5"},"vehicle_type_id":"4","last_reported":1727287942,"current_range_meters":16800,"station_id":"ce4bhn12rcd13ifvqgqg","pricing_plan_id":"cebpf4jnsgd1na2vs0mg"},{"bike_id":"0cbdd9ee-1790-4ad9-890e-3ba825733dfc","system_id":"levelo_inurba_marseille","lat":43.23173,"lon":5.39991,"is_reserved":false,"is_disabled":false,"rental_uris":{"android":"levelo://app?vid=0cbdd9ee-1790-4ad9-890e-3ba825733dfc","ios":"levelo://app?vid=0cbdd9ee-1790-4ad9-890e-3ba825733dfc"},"vehicle_type_id":"4","last_reported":1727287942,"current_range_meters":22000,"station_id":"ce4bhn12rcd13ifvqgqg","pricing_plan_id":"cebpf4jnsgd1na2vs0mg"},{"bike_id":"05cdef6e-3358-4c0e-bca2-5c6d1e893be6","system_id":"levelo_inurba_marseille","lat":43.32681,"lon":5.39636,"is_reserved":false,"is_disabled":false,"rental_uris":{"android":"levelo://app?vid=05cdef6e-3358-4c0e-bca2-5c6d1e893be6","ios":"levelo://app?vid=05cdef6e-3358-4c0e-bca2-5c6d1e893be6"},"vehicle_type_id":"4","last_reported":1727287942,"current_range_meters":35600,"station_id":"","pricing_plan_id":"cebpf4jnsgd1na2vs0mg"},{"bike_id":"c42a7599-e113-40be-a99f-999c1ccadbc8","system_id":"levelo_inurba_marseille","lat":43.27908,"lon":5.38018,"is_reserved":false,"is_disabled":false,"rental_uris":{"android":"levelo://app?vid=c42a7599-e113-40be-a99f-999c1ccadbc8","ios":"levelo://app?vid=c42a7599-e113-40be-a99f-999c1ccadbc8"},"vehicle_type_id":"4","last_reported":1727287942,"current_range_meters":27200,"station_id":"ce4bhf92rcd13ifvqf50","pricing_plan_id":"cebpf4jnsgd1na2vs0mg"},{"bike_id":"b4ebb3b8-fa5f-4b31-99d7-9fdec65b9132","system_id":"levelo_inurba_marseille","lat":43.24389,"lon":5.37062,"is_reserved":false,"is_disabled":false,"rental_uris":{"android":"levelo://app?vid=b4ebb3b8-fa5f-4b31-99d7-9fdec65b9132","ios":"levelo://app?vid=b4ebb3b8-fa5f-4b31-99d7-9fdec65b9132"},"vehicle_type_id":"4","last_reported":1727287942,"current_range_meters":38800,"station_id":"ce4bhhh2rcd13ifvqfk0","pricing_plan_id":"cebpf4jnsgd1na2vs0mg"},{"bike_id":"7463ae79-c2f7-47ad-b6a7-5e201573b13d","system_id":"levelo_inurba_marseille","lat":43.29033,"lon":5.38655,"is_reserved":false,"is_disabled":false,"rental_uris":{"android":"levelo://app?vid=7463ae79-c2f7-47ad-b6a7-5e201573b13d","ios":"levelo://app?vid=7463ae79-c2f7-47ad-b6a7-5e201573b13d"},"vehicle_type_id":"4","last_reported":1727287942,"current_range_meters":38800,"station_id":"ce4bh4p2rcd13ifvqe0g","pricing_plan_id":"cebpf4jnsgd1na2vs0mg"},{"bike_id":"dc9f7b58-e7bc-45b9-85f6-ce8e71b92004","system_id":"levelo_inurba_marseille","lat":43.29691,"lon":5.36056,"is_reserved":false,"is_disabled":false,"rental_uris":{"android":"levelo://app?vid=dc9f7b58-e7bc-45b9-85f6-ce8e71b92004","ios":"levelo://app?vid=dc9f7b58-e7bc-45b9-85f6-ce8e71b92004"},"vehicle_type_id":"4","last_reported":1727287942,"current_range_meters":23200,"station_id":"ce4bgnh2rcd13ifvqc0g","pricing_plan_id":"cebpf4jnsgd1na2vs0mg"},{"bike_id":"b758bb5f-adae-4881-83e7-0e917c4e39a1","system_id":"levelo_inurba_marseille","lat":43.32001,"lon":5.3816,"is_reserved":false,"is_disabled":false,"rental_uris":{"android":"levelo://app?vid=b758bb5f-adae-4881-83e7-0e917c4e39a1","ios":"levelo://app?vid=b758bb5f-adae-4881-83e7-0e917c4e39a1"},"vehicle_type_id":"4","last_reported":1727287942,"current_range_meters":5600,"station_id":"ce4bhr12rcd13ifvqhpg","pricing_plan_id":"cebpf4jnsgd1na2vs0mg"},{"bike_id":"368e0d51-de7e-4a35-a79c-e39014933a7f","system_id":"levelo_inurba_marseille","lat":43.26948,"lon":5.38646,"is_reserved":false,"is_disabled":false,"rental_uris":{"android":"levelo://app?vid=368e0d51-de7e-4a35-a79c-e39014933a7f","ios":"levelo://app?vid=368e0d51-de7e-4a35-a79c-e39014933a7f"},"vehicle_type_id":"4","last_reported":1727287942,"current_range_meters":7200,"station_id":"ce4bhh92rcd13ifvqfh0","pricing_plan_id":"cebpf4jnsgd1na2vs0mg"},{"bike_id":"edaef6af-4daa-48ce-ab2f-498b09abccd3","system_id":"levelo_inurba_marseille","lat":43.30883,"lon":5.39639,"is_reserved":false,"is_disabled":false,"rental_uris":{"android":"levelo://app?vid=edaef6af-4daa-48ce-ab2f-498b09abccd3","ios":"levelo://app?vid=edaef6af-4daa-48ce-ab2f-498b09abccd3"},"vehicle_type_id":"4","last_reported":1727287942,"current_range_meters":38800,"station_id":"ce4bh012rcd13ifvqcv0","pricing_plan_id":"cebpf4jnsgd1na2vs0mg"},{"bike_id":"a832b3cd-8759-4176-b9b4-7acc3d4bc8f1","system_id":"levelo_inurba_marseille","lat":43.30418,"lon":5.41286,"is_reserved":false,"is_disabled":false,"rental_uris":{"android":"levelo://app?vid=a832b3cd-8759-4176-b9b4-7acc3d4bc8f1","ios":"levelo://app?vid=a832b3cd-8759-4176-b9b4-7acc3d4bc8f1"},"vehicle_type_id":"4","last_reported":1727287942,"current_range_meters":32800,"station_id":"ce4bhop2rcd13ifvqh8g","pricing_plan_id":"cebpf4jnsgd1na2vs0mg"},{"bike_id":"8e53b853-c1fa-4059-9af3-eeafb57edb1b","system_id":"levelo_inurba_marseille","lat":43.29078,"lon":5.37171,"is_reserved":false,"is_disabled":false,"rental_uris":{"android":"levelo://app?vid=8e53b853-c1fa-4059-9af3-eeafb57edb1b","ios":"levelo://app?vid=8e53b853-c1fa-4059-9af3-eeafb57edb1b"},"vehicle_type_id":"4","last_reported":1727287942,"current_range_meters":28800,"station_id":"ce4bh5p2rcd13ifvqe4g","pricing_plan_id":"cebpf4jnsgd1na2vs0mg"},{"bike_id":"8eba76a0-a29d-4b02-aa10-e9f83389882e","system_id":"levelo_inurba_marseille","lat":43.28455,"lon":5.39208,"is_reserved":false,"is_disabled":false,"rental_uris":{"android":"levelo://app?vid=8eba76a0-a29d-4b02-aa10-e9f83389882e","ios":"levelo://app?vid=8eba76a0-a29d-4b02-aa10-e9f83389882e"},"vehicle_type_id":"4","last_reported":1727287942,"current_range_meters":26800,"station_id":"ce4bhoh2rcd13ifvqh5g","pricing_plan_id":"cebpf4jnsgd1na2vs0mg"},{"bike_id":"ef71a54f-5b11-42e3-b92d-446cc02144dd","system_id":"levelo_inurba_marseille","lat":43.25826,"lon":5.39429,"is_reserved":false,"is_disabled":false,"rental_uris":{"android":"levelo://app?vid=ef71a54f-5b11-42e3-b92d-446cc02144dd","ios":"levelo://app?vid=ef71a54f-5b11-42e3-b92d-446cc02144dd"},"vehicle_type_id":"4","last_reported":1727287942,"current_range_meters":29600,"station_id":"ce4bhip2rcd13ifvqft0","pricing_plan_id":"cebpf4jnsgd1na2vs0mg"},{"bike_id":"f17dbafc-151f-485c-a428-c0c83c10c6c9","system_id":"levelo_inurba_marseille","lat":43.29156,"lon":5.43978,"is_reserved":false,"is_disabled":false,"rental_uris":{"android":"levelo://app?vid=f17dbafc-151f-485c-a428-c0c83c10c6c9","ios":"levelo://app?vid=f17dbafc-151f-485c-a428-c0c83c10c6c9"},"vehicle_type_id":"4","last_reported":1727287942,"current_range_meters":28400,"station_id":"","pricing_plan_id":"cebpf4jnsgd1na2vs0mg"},{"bike_id":"53a1cdd1-3f34-4638-a135-1e8e46e6a324","system_id":"levelo_inurba_marseille","lat":43.29416,"lon":5.38628,"is_reserved":false,"is_disabled":false,"rental_uris":{"android":"levelo://app?vid=53a1cdd1-3f34-4638-a135-1e8e46e6a324","ios":"levelo://app?vid=53a1cdd1-3f34-4638-a135-1e8e46e6a324"},"vehicle_type_id":"4","last_reported":1727287942,"current_range_meters":17200,"station_id":"ce4bh2h2rcd13ifvqdh0","pricing_plan_id":"cebpf4jnsgd1na2vs0mg"},{"bike_id":"c0ce0031-ba4e-428f-9dc9-75c2bdddba3d","system_id":"levelo_inurba_marseille","lat":43.28462,"lon":5.35894,"is_reserved":false,"is_disabled":false,"rental_uris":{"android":"levelo://app?vid=c0ce0031-ba4e-428f-9dc9-75c2bdddba3d","ios":"levelo://app?vid=c0ce0031-ba4e-428f-9dc9-75c2bdddba3d"},"vehicle_type_id":"4","last_reported":1727287942,"current_range_meters":30000,"station_id":"ce4bhah2rcd13ifvqei0","pricing_plan_id":"cebpf4jnsgd1na2vs0mg"},{"bike_id":"0177545c-44aa-43e3-ab3a-b6f1caf71434","system_id":"levelo_inurba_marseille","lat":43.29793,"lon":5.3935,"is_reserved":false,"is_disabled":false,"rental_uris":{"android":"levelo://app?vid=0177545c-44aa-43e3-ab3a-b6f1caf71434","ios":"levelo://app?vid=0177545c-44aa-43e3-ab3a-b6f1caf71434"},"vehicle_type_id":"4","last_reported":1727287942,"current_range_meters":16400,"station_id":"chh1huq6cuj3fo74tm60","pricing_plan_id":"cebpf4jnsgd1na2vs0mg"},{"bike_id":"06d6b8e5-ac69-4f49-9471-babe8fdafd8d","system_id":"levelo_inurba_marseille","lat":43.248077,"lon":5.374806,"is_reserved":false,"is_disabled":false,"rental_uris":{"android":"levelo://app?vid=06d6b8e5-ac69-4f49-9471-babe8fdafd8d","ios":"levelo://app?vid=06d6b8e5-ac69-4f49-9471-babe8fdafd8d"},"vehicle_type_id":"4","last_reported":1727287942,"current_range_meters":14800,"station_id":"ce4bhgh2rcd13ifvqfb0","pricing_plan_id":"cebpf4jnsgd1na2vs0mg"},{"bike_id":"d4a851c6-3ea8-4036-82a9-f7d94662dc92","system_id":"levelo_inurba_marseille","lat":43.29028,"lon":5.38666,"is_reserved":false,"is_disabled":false,"rental_uris":{"android":"levelo://app?vid=d4a851c6-3ea8-4036-82a9-f7d94662dc92","ios":"levelo://app?vid=d4a851c6-3ea8-4036-82a9-f7d94662dc92"},"vehicle_type_id":"4","last_reported":1727287942,"current_range_meters":38800,"station_id":"ce4bh4p2rcd13ifvqe0g","pricing_plan_id":"cebpf4jnsgd1na2vs0mg"},{"bike_id":"15c111d1-7c43-4f93-b8b2-08fdab1c4d8d","system_id":"levelo_inurba_marseille","lat":43.26171,"lon":5.3973,"is_reserved":false,"is_disabled":false,"rental_uris":{"android":"levelo://app?vid=15c111d1-7c43-4f93-b8b2-08fdab1c4d8d","ios":"levelo://app?vid=15c111d1-7c43-4f93-b8b2-08fdab1c4d8d"},"vehicle_type_id":"4","last_reported":1727287942,"current_range_meters":1600,"station_id":"ce4bhl92rcd13ifvqghg","pricing_plan_id":"cebpf4jnsgd1na2vs0mg"},{"bike_id":"87443378-b578-4721-9b08-c0f57c6a030b","system_id":"levelo_inurba_marseille","lat":43.23173,"lon":5.3999,"is_reserved":false,"is_disabled":false,"rental_uris":{"android":"levelo://app?vid=87443378-b578-4721-9b08-c0f57c6a030b","ios":"levelo://app?vid=87443378-b578-4721-9b08-c0f57c6a030b"},"vehicle_type_id":"4","last_reported":1727287942,"current_range_meters":12800,"station_id":"ce4bhn12rcd13ifvqgqg","pricing_plan_id":"cebpf4jnsgd1na2vs0mg"},{"bike_id":"8425a020-dd6c-4fda-a352-f8354f835836","system_id":"levelo_inurba_marseille","lat":43.31718,"lon":5.37753,"is_reserved":false,"is_disabled":false,"rental_uris":{"android":"levelo://app?vid=8425a020-dd6c-4fda-a352-f8354f835836","ios":"levelo://app?vid=8425a020-dd6c-4fda-a352-f8354f835836"},"vehicle_type_id":"4","last_reported":1727287942,"current_range_meters":39200,"station_id":"ce4bgth2rcd13ifvqch0","pricing_plan_id":"cebpf4jnsgd1na2vs0mg"},{"bike_id":"70ea79f5-5903-4704-b598-0996cbbacc62","system_id":"levelo_inurba_marseille","lat":43.23199,"lon":5.35546,"is_reserved":false,"is_disabled":false,"rental_uris":{"android":"levelo://app?vid=70ea79f5-5903-4704-b598-0996cbbacc62","ios":"levelo://app?vid=70ea79f5-5903-4704-b598-0996cbbacc62"},"vehicle_type_id":"4","last_reported":1727287942,"current_range_meters":6400,"station_id":"ce4bhu92rcd13ifvqi70","pricing_plan_id":"cebpf4jnsgd1na2vs0mg"},{"bike_id":"6c545e03-8563-4f57-a637-5b7fcabd746e","system_id":"levelo_inurba_marseille","lat":43.317048,"lon":5.377281,"is_reserved":false,"is_disabled":false,"rental_uris":{"android":"levelo://app?vid=6c545e03-8563-4f57-a637-5b7fcabd746e","ios":"levelo://app?vid=6c545e03-8563-4f57-a637-5b7fcabd746e"},"vehicle_type_id":"4","last_reported":1727287942,"current_range_meters":26800,"station_id":"ce4bgth2rcd13ifvqch0","pricing_plan_id":"cebpf4jnsgd1na2vs0mg"},{"bike_id":"b8917ac3-12e8-4751-948b-2d50af4cc970","system_id":"levelo_inurba_marseille","lat":43.29024,"lon":5.3865,"is_reserved":false,"is_disabled":false,"rental_uris":{"android":"levelo://app?vid=b8917ac3-12e8-4751-948b-2d50af4cc970","ios":"levelo://app?vid=b8917ac3-12e8-4751-948b-2d50af4cc970"},"vehicle_type_id":"4","last_reported":1727287942,"current_range_meters":30000,"station_id":"ce4bh4p2rcd13ifvqe0g","pricing_plan_id":"cebpf4jnsgd1na2vs0mg"},{"bike_id":"887b408b-fe64-4a7f-9e90-e9c58de843de","system_id":"levelo_inurba_marseille","lat":43.29677,"lon":5.37287,"is_reserved":false,"is_disabled":false,"rental_uris":{"android":"levelo://app?vid=887b408b-fe64-4a7f-9e90-e9c58de843de","ios":"levelo://app?vid=887b408b-fe64-4a7f-9e90-e9c58de843de"},"vehicle_type_id":"4","last_reported":1727287942,"current_range_meters":10800,"station_id":"ce4bgk12rcd13ifvqbj0","pricing_plan_id":"cebpf4jnsgd1na2vs0mg"},{"bike_id":"807fc0e7-bbff-4b87-819e-db89e6078f7a","system_id":"levelo_inurba_marseille","lat":43.31753,"lon":5.3902,"is_reserved":false,"is_disabled":false,"rental_uris":{"android":"levelo://app?vid=807fc0e7-bbff-4b87-819e-db89e6078f7a","ios":"levelo://app?vid=807fc0e7-bbff-4b87-819e-db89e6078f7a"},"vehicle_type_id":"4","last_reported":1727287942,"current_range_meters":37600,"station_id":"ce4bhqp2rcd13ifvqhng","pricing_plan_id":"cebpf4jnsgd1na2vs0mg"},{"bike_id":"0f268a5d-84a8-4626-b851-2a909c8a6ceb","system_id":"levelo_inurba_marseille","lat":43.25575,"lon":5.38254,"is_reserved":false,"is_disabled":false,"rental_uris":{"android":"levelo://app?vid=0f268a5d-84a8-4626-b851-2a909c8a6ceb","ios":"levelo://app?vid=0f268a5d-84a8-4626-b851-2a909c8a6ceb"},"vehicle_type_id":"4","last_reported":1727287942,"current_range_meters":38800,"station_id":"ce4bhih2rcd13ifvqfs0","pricing_plan_id":"cebpf4jnsgd1na2vs0mg"},{"bike_id":"ecc4d287-01b7-4bf7-ae7b-27ea0fdff278","system_id":"levelo_inurba_marseille","lat":43.29455,"lon":5.38589,"is_reserved":false,"is_disabled":false,"rental_uris":{"android":"levelo://app?vid=ecc4d287-01b7-4bf7-ae7b-27ea0fdff278","ios":"levelo://app?vid=ecc4d287-01b7-4bf7-ae7b-27ea0fdff278"},"vehicle_type_id":"4","last_reported":1727287942,"current_range_meters":19200,"station_id":"ce4bh2h2rcd13ifvqdh0","pricing_plan_id":"cebpf4jnsgd1na2vs0mg"},{"bike_id":"e774f3e7-51de-4a8d-802e-5346391a4802","system_id":"levelo_inurba_marseille","lat":43.280193,"lon":5.400595,"is_reserved":false,"is_disabled":false,"rental_uris":{"android":"levelo://app?vid=e774f3e7-51de-4a8d-802e-5346391a4802","ios":"levelo://app?vid=e774f3e7-51de-4a8d-802e-5346391a4802"},"vehicle_type_id":"4","last_reported":1727287942,"current_range_meters":14000,"station_id":"ce4bho92rcd13ifvqh4g","pricing_plan_id":"cebpf4jnsgd1na2vs0mg"},{"bike_id":"a83ca881-e7d6-4b00-8297-c11116a3b87d","system_id":"levelo_inurba_marseille","lat":43.30883,"lon":5.39629,"is_reserved":false,"is_disabled":false,"rental_uris":{"android":"levelo://app?vid=a83ca881-e7d6-4b00-8297-c11116a3b87d","ios":"levelo://app?vid=a83ca881-e7d6-4b00-8297-c11116a3b87d"},"vehicle_type_id":"4","last_reported":1727287942,"current_range_meters":38800,"station_id":"ce4bh012rcd13ifvqcv0","pricing_plan_id":"cebpf4jnsgd1na2vs0mg"},{"bike_id":"86719529-c568-4222-85bd-54891c7948c1","system_id":"levelo_inurba_marseille","lat":43.25495,"lon":5.37647,"is_reserved":false,"is_disabled":false,"rental_uris":{"android":"levelo://app?vid=86719529-c568-4222-85bd-54891c7948c1","ios":"levelo://app?vid=86719529-c568-4222-85bd-54891c7948c1"},"vehicle_type_id":"4","last_reported":1727287942,"current_range_meters":38800,"station_id":"ce4bhh12rcd13ifvqff0","pricing_plan_id":"cebpf4jnsgd1na2vs0mg"},{"bike_id":"b79f92fd-4519-43af-9073-cdf6f08dcc99","system_id":"levelo_inurba_marseille","lat":43.24177,"lon":5.39735,"is_reserved":false,"is_disabled":false,"rental_uris":{"android":"levelo://app?vid=b79f92fd-4519-43af-9073-cdf6f08dcc99","ios":"levelo://app?vid=b79f92fd-4519-43af-9073-cdf6f08dcc99"},"vehicle_type_id":"4","last_reported":1727287942,"current_range_meters":39200,"station_id":"ce4bhn12rcd13ifvqgpg","pricing_plan_id":"cebpf4jnsgd1na2vs0mg"},{"bike_id":"58347478-1493-43ba-a127-f7910f3d17fc","system_id":"levelo_inurba_marseille","lat":43.26214,"lon":5.37442,"is_reserved":false,"is_disabled":false,"rental_uris":{"android":"levelo://app?vid=58347478-1493-43ba-a127-f7910f3d17fc","ios":"levelo://app?vid=58347478-1493-43ba-a127-f7910f3d17fc"},"vehicle_type_id":"4","last_reported":1727287942,"current_range_meters":38000,"station_id":"ce4bhgp2rcd13ifvqfc0","pricing_plan_id":"cebpf4jnsgd1na2vs0mg"},{"bike_id":"d09e65e8-8821-414a-8606-4134bc02168f","system_id":"levelo_inurba_marseille","lat":43.32294,"lon":5.38268,"is_reserved":false,"is_disabled":false,"rental_uris":{"android":"levelo://app?vid=d09e65e8-8821-414a-8606-4134bc02168f","ios":"levelo://app?vid=d09e65e8-8821-414a-8606-4134bc02168f"},"vehicle_type_id":"4","last_reported":1727287942,"current_range_meters":29600,"station_id":"ce4bhr12rcd13ifvqhqg","pricing_plan_id":"cebpf4jnsgd1na2vs0mg"},{"bike_id":"d0911fa5-8c5d-4f2e-adda-cbad801b9d1d","system_id":"levelo_inurba_marseille","lat":43.29307,"lon":5.37456,"is_reserved":false,"is_disabled":false,"rental_uris":{"android":"levelo://app?vid=d0911fa5-8c5d-4f2e-adda-cbad801b9d1d","ios":"levelo://app?vid=d0911fa5-8c5d-4f2e-adda-cbad801b9d1d"},"vehicle_type_id":"4","last_reported":1727287942,"current_range_meters":20800,"station_id":"ce4bgi12rcd13ifvqb70","pricing_plan_id":"cebpf4jnsgd1na2vs0mg"},{"bike_id":"238b48d3-8310-4873-bd16-197d0bb0c402","system_id":"levelo_inurba_marseille","lat":43.30297,"lon":5.39223,"is_reserved":false,"is_disabled":false,"rental_uris":{"android":"levelo://app?vid=238b48d3-8310-4873-bd16-197d0bb0c402","ios":"levelo://app?vid=238b48d3-8310-4873-bd16-197d0bb0c402"},"vehicle_type_id":"4","last_reported":1727287942,"current_range_meters":38800,"station_id":"ce4bgkh2rcd13ifvqbk0","pricing_plan_id":"cebpf4jnsgd1na2vs0mg"},{"bike_id":"cc1791b4-8a9d-47ac-b089-41f49588816a","system_id":"levelo_inurba_marseille","lat":43.24385,"lon":5.37059,"is_reserved":false,"is_disabled":false,"rental_uris":{"android":"levelo://app?vid=cc1791b4-8a9d-47ac-b089-41f49588816a","ios":"levelo://app?vid=cc1791b4-8a9d-47ac-b089-41f49588816a"},"vehicle_type_id":"4","last_reported":1727287942,"current_range_meters":38800,"station_id":"ce4bhhh2rcd13ifvqfk0","pricing_plan_id":"cebpf4jnsgd1na2vs0mg"},{"bike_id":"83f90daa-e3af-4d08-9059-db8e9bbc0b97","system_id":"levelo_inurba_marseille","lat":43.28111,"lon":5.37835,"is_reserved":false,"is_disabled":false,"rental_uris":{"android":"levelo://app?vid=83f90daa-e3af-4d08-9059-db8e9bbc0b97","ios":"levelo://app?vid=83f90daa-e3af-4d08-9059-db8e9bbc0b97"},"vehicle_type_id":"4","last_reported":1727287942,"current_range_meters":18000,"station_id":"ce4bha12rcd13ifvqee0","pricing_plan_id":"cebpf4jnsgd1na2vs0mg"},{"bike_id":"13ea4239-c096-49ce-9014-c218f3491066","system_id":"levelo_inurba_marseille","lat":43.24083,"lon":5.37748,"is_reserved":false,"is_disabled":false,"rental_uris":{"android":"levelo://app?vid=13ea4239-c096-49ce-9014-c218f3491066","ios":"levelo://app?vid=13ea4239-c096-49ce-9014-c218f3491066"},"vehicle_type_id":"4","last_reported":1727287942,"current_range_meters":9200,"station_id":"ce4bhnp2rcd13ifvqgvg","pricing_plan_id":"cebpf4jnsgd1na2vs0mg"},{"bike_id":"15a524c7-0ac0-42a2-99fc-297c4b1c776a","system_id":"levelo_inurba_marseille","lat":43.28941,"lon":5.36659,"is_reserved":false,"is_disabled":false,"rental_uris":{"android":"levelo://app?vid=15a524c7-0ac0-42a2-99fc-297c4b1c776a","ios":"levelo://app?vid=15a524c7-0ac0-42a2-99fc-297c4b1c776a"},"vehicle_type_id":"4","last_reported":1727287942,"current_range_meters":0,"station_id":"ce4bhap2rcd13ifvqek0","pricing_plan_id":"cebpf4jnsgd1na2vs0mg"},{"bike_id":"a516905c-2fc8-4127-a4a8-fe9df2b742d1","system_id":"levelo_inurba_marseille","lat":43.29878,"lon":5.38915,"is_reserved":false,"is_disabled":false,"rental_uris":{"android":"levelo://app?vid=a516905c-2fc8-4127-a4a8-fe9df2b742d1","ios":"levelo://app?vid=a516905c-2fc8-4127-a4a8-fe9df2b742d1"},"vehicle_type_id":"4","last_reported":1727287942,"current_range_meters":4800,"station_id":"ce4bh392rcd13ifvqdl0","pricing_plan_id":"cebpf4jnsgd1na2vs0mg"},{"bike_id":"f8ccfbdc-d4e7-4ab4-82d4-bd8573528ec4","system_id":"levelo_inurba_marseille","lat":43.29789,"lon":5.39345,"is_reserved":false,"is_disabled":false,"rental_uris":{"android":"levelo://app?vid=f8ccfbdc-d4e7-4ab4-82d4-bd8573528ec4","ios":"levelo://app?vid=f8ccfbdc-d4e7-4ab4-82d4-bd8573528ec4"},"vehicle_type_id":"4","last_reported":1727287942,"current_range_meters":35600,"station_id":"chh1huq6cuj3fo74tm60","pricing_plan_id":"cebpf4jnsgd1na2vs0mg"},{"bike_id":"bfbd7ce3-57c8-4c62-aaa8-52c7c05e68d8","system_id":"levelo_inurba_marseille","lat":43.337444,"lon":5.374475,"is_reserved":false,"is_disabled":false,"rental_uris":{"android":"levelo://app?vid=bfbd7ce3-57c8-4c62-aaa8-52c7c05e68d8","ios":"levelo://app?vid=bfbd7ce3-57c8-4c62-aaa8-52c7c05e68d8"},"vehicle_type_id":"4","last_reported":1727287942,"current_range_meters":12000,"station_id":"","pricing_plan_id":"cebpf4jnsgd1na2vs0mg"},{"bike_id":"6bd6d18a-d0f5-416b-9eaa-6108f138cf56","system_id":"levelo_inurba_marseille","lat":43.2717,"lon":5.40997,"is_reserved":false,"is_disabled":false,"rental_uris":{"android":"levelo://app?vid=6bd6d18a-d0f5-416b-9eaa-6108f138cf56","ios":"levelo://app?vid=6bd6d18a-d0f5-416b-9eaa-6108f138cf56"},"vehicle_type_id":"4","last_reported":1727287942,"current_range_meters":38000,"station_id":"ce4bhl12rcd13ifvqgf0","pricing_plan_id":"cebpf4jnsgd1na2vs0mg"},{"bike_id":"5b64adc3-b32f-4a17-8b23-b3b1f42bc66f","system_id":"levelo_inurba_marseille","lat":43.31117,"lon":5.37764,"is_reserved":false,"is_disabled":false,"rental_uris":{"android":"levelo://app?vid=5b64adc3-b32f-4a17-8b23-b3b1f42bc66f","ios":"levelo://app?vid=5b64adc3-b32f-4a17-8b23-b3b1f42bc66f"},"vehicle_type_id":"4","last_reported":1727287942,"current_range_meters":5600,"station_id":"ce4bgt92rcd13ifvqcg0","pricing_plan_id":"cebpf4jnsgd1na2vs0mg"},{"bike_id":"17559027-8d9a-4b6e-b2f1-6f19bcaa45f1","system_id":"levelo_inurba_marseille","lat":43.26217,"lon":5.37443,"is_reserved":false,"is_disabled":false,"rental_uris":{"android":"levelo://app?vid=17559027-8d9a-4b6e-b2f1-6f19bcaa45f1","ios":"levelo://app?vid=17559027-8d9a-4b6e-b2f1-6f19bcaa45f1"},"vehicle_type_id":"4","last_reported":1727287942,"current_range_meters":38800,"station_id":"ce4bhgp2rcd13ifvqfc0","pricing_plan_id":"cebpf4jnsgd1na2vs0mg"},{"bike_id":"7ec2d2b9-0db0-427b-8874-2034eef532d8","system_id":"levelo_inurba_marseille","lat":43.27878,"lon":5.3801,"is_reserved":false,"is_disabled":false,"rental_uris":{"android":"levelo://app?vid=7ec2d2b9-0db0-427b-8874-2034eef532d8","ios":"levelo://app?vid=7ec2d2b9-0db0-427b-8874-2034eef532d8"},"vehicle_type_id":"4","last_reported":1727287942,"current_range_meters":3600,"station_id":"ce4bhf92rcd13ifvqf50","pricing_plan_id":"cebpf4jnsgd1na2vs0mg"},{"bike_id":"a5ecaf78-18c5-4c20-9add-8c1cced5b14e","system_id":"levelo_inurba_marseille","lat":43.27995,"lon":5.4002,"is_reserved":false,"is_disabled":false,"rental_uris":{"android":"levelo://app?vid=a5ecaf78-18c5-4c20-9add-8c1cced5b14e","ios":"levelo://app?vid=a5ecaf78-18c5-4c20-9add-8c1cced5b14e"},"vehicle_type_id":"4","last_reported":1727287942,"current_range_meters":30800,"station_id":"ce4bho92rcd13ifvqh4g","pricing_plan_id":"cebpf4jnsgd1na2vs0mg"},{"bike_id":"70386941-54d3-45f7-8216-609631e7be15","system_id":"levelo_inurba_marseille","lat":43.3248,"lon":5.36568,"is_reserved":false,"is_disabled":false,"rental_uris":{"android":"levelo://app?vid=70386941-54d3-45f7-8216-609631e7be15","ios":"levelo://app?vid=70386941-54d3-45f7-8216-609631e7be15"},"vehicle_type_id":"4","last_reported":1727287942,"current_range_meters":38800,"station_id":"ce4bhs12rcd13ifvqhvg","pricing_plan_id":"cebpf4jnsgd1na2vs0mg"},{"bike_id":"2fed7e99-8d44-4f7f-b078-d0a1deaadfab","system_id":"levelo_inurba_marseille","lat":43.31061,"lon":5.38359,"is_reserved":false,"is_disabled":false,"rental_uris":{"android":"levelo://app?vid=2fed7e99-8d44-4f7f-b078-d0a1deaadfab","ios":"levelo://app?vid=2fed7e99-8d44-4f7f-b078-d0a1deaadfab"},"vehicle_type_id":"4","last_reported":1727287942,"current_range_meters":6800,"station_id":"ce4bgv92rcd13ifvqcr0","pricing_plan_id":"cebpf4jnsgd1na2vs0mg"},{"bike_id":"ee0936a0-7e66-4ac8-b6a9-88e62ee0d87c","system_id":"levelo_inurba_marseille","lat":43.30928,"lon":5.40152,"is_reserved":false,"is_disabled":false,"rental_uris":{"android":"levelo://app?vid=ee0936a0-7e66-4ac8-b6a9-88e62ee0d87c","ios":"levelo://app?vid=ee0936a0-7e66-4ac8-b6a9-88e62ee0d87c"},"vehicle_type_id":"4","last_reported":1727287942,"current_range_meters":27200,"station_id":"ce4bgvp2rcd13ifvqct0","pricing_plan_id":"cebpf4jnsgd1na2vs0mg"},{"bike_id":"9a150fc0-8b30-4850-ab8a-39ffc7bdb0cf","system_id":"levelo_inurba_marseille","lat":43.24667,"lon":5.38164,"is_reserved":false,"is_disabled":false,"rental_uris":{"android":"levelo://app?vid=9a150fc0-8b30-4850-ab8a-39ffc7bdb0cf","ios":"levelo://app?vid=9a150fc0-8b30-4850-ab8a-39ffc7bdb0cf"},"vehicle_type_id":"4","last_reported":1727287942,"current_range_meters":38000,"station_id":"ce4bhih2rcd13ifvqfr0","pricing_plan_id":"cebpf4jnsgd1na2vs0mg"},{"bike_id":"0bcc26ed-ad4b-4932-a058-e22f4dd0245f","system_id":"levelo_inurba_marseille","lat":43.28618,"lon":5.35104,"is_reserved":false,"is_disabled":false,"rental_uris":{"android":"levelo://app?vid=0bcc26ed-ad4b-4932-a058-e22f4dd0245f","ios":"levelo://app?vid=0bcc26ed-ad4b-4932-a058-e22f4dd0245f"},"vehicle_type_id":"4","last_reported":1727287942,"current_range_meters":38800,"station_id":"ce4bhch2rcd13ifvqeug","pricing_plan_id":"cebpf4jnsgd1na2vs0mg"},{"bike_id":"8e33720e-167c-4912-8968-05fca4e38e98","system_id":"levelo_inurba_marseille","lat":43.26558,"lon":5.37287,"is_reserved":false,"is_disabled":false,"rental_uris":{"android":"levelo://app?vid=8e33720e-167c-4912-8968-05fca4e38e98","ios":"levelo://app?vid=8e33720e-167c-4912-8968-05fca4e38e98"},"vehicle_type_id":"4","last_reported":1727287942,"current_range_meters":25600,"station_id":"ce4bhg12rcd13ifvqf70","pricing_plan_id":"cebpf4jnsgd1na2vs0mg"},{"bike_id":"c228aee7-2f83-4854-ad55-f3b4f3727d9a","system_id":"levelo_inurba_marseille","lat":43.33027,"lon":5.39039,"is_reserved":false,"is_disabled":false,"rental_uris":{"android":"levelo://app?vid=c228aee7-2f83-4854-ad55-f3b4f3727d9a","ios":"levelo://app?vid=c228aee7-2f83-4854-ad55-f3b4f3727d9a"},"vehicle_type_id":"4","last_reported":1727287942,"current_range_meters":30000,"station_id":"ce4bhr92rcd13ifvqhrg","pricing_plan_id":"cebpf4jnsgd1na2vs0mg"},