{"last_updated":1696954148,"ttl":30,"version":"2.2","data":{"bikes":[{"bike_id":"93290d19-ef8e-483f-9136-0bc8eaa51d29","system_id":"levelo_inurba_marseille","lat":43.31232,"lon":5.36844,"is_reserved":false,"is_disabled":false,"rental_uris":{"android":"levelo://app?vid=93290d19-ef8e-483f-9136-0bc8eaa51d29","ios":"levelo://app?vid=93290d19-ef8e-483f-9136-0bc8eaa51d29"},"vehicle_type_id":"4","last_reported":1696954149,"current_range_meters":31200,"station_id":"ce4bgl92rcd13ifvqbq0","pricing_plan_id":"free"},{"bike_id":"adb18d85-094f-49c8-bd2e-3e9c0a7281f2","system_id":"levelo_inurba_marseille","lat":43.312239,"lon":5.368562,"is_reserved":false,"is_disabled":false,"rental_uris":{"android":"levelo://app?vid=adb18d85-094f-49c8-bd2e-3e9c0a7281f2","ios":"levelo://app?vid=adb18d85-094f-49c8-bd2e-3e9c0a7281f2"},"vehicle_type_id":"4","last_reported":1696954149,"current_range_meters":30800,"station_id":"ce4bgl92rcd13ifvqbq0","pricing_plan_id":"free"},{"bike_id":"6518ad5d-9c86-4bd6-8fd3-dd29f109ac86","system_id":"levelo_inurba_marseille","lat":43.31537,"lon":5.36865,"is_reserved":false,"is_disabled":false,"rental_uris":{"android":"levelo://app?vid=6518ad5d-9c86-4bd6-8fd3-dd29f109ac86","ios":"levelo://app?vid=6518ad5d-9c86-4bd6-8fd3-dd29f109ac86"},"vehicle_type_id":"4","last_reported":1696954149,"current_range_meters":4800,"station_id":"","pricing_plan_id":"free"},{"bike_id":"aa36214c-6cba-4b46-94e6-3641872a9a10","system_id":"levelo_inurba_marseille","lat":43.31433,"lon":5.37225,"is_reserved":false,"is_disabled":false,"rental_uris":{"android":"levelo://app?vid=aa36214c-6cba-4b46-94e6-3641872a9a10","ios":"levelo://app?vid=aa36214c-6cba-4b46-94e6-3641872a9a10"},"vehicle_type_id":"4","last_reported":1696954149,"current_range_meters":0,"station_id":"","pricing_plan_id":"free"},{"bike_id":"c2b4c9ff-4ba8-4a39-8f10-f403b3d85931","system_id":"levelo_inurba_marseille","lat":43.31872,"lon":5.36669,"is_reserved":false,"is_disabled":false,"rental_uris":{"android":"levelo://app?vid=c2b4c9ff-4ba8-4a39-8f10-f403b3d85931","ios":"levelo://app?vid=c2b4c9ff-4ba8-4a39-8f10-f403b3d85931"},"vehicle_type_id":"4","last_reported":1696954149,"current_range_meters":13600,"station_id":"","pricing_plan_id":"free"},{"bike_id":"97b72d6b-2ebd-4d2f-b37e-ae2005d05adb","system_id":"levelo_inurba_marseille","lat":43.31877,"lon":5.37157,"is_reserved":false,"is_disabled":false,"rental_uris":{"android":"levelo://app?vid=97b72d6b-2ebd-4d2f-b37e-ae2005d05adb","ios":"levelo://app?vid=97b72d6b-2ebd-4d2f-b37e-ae2005d05adb"},"vehicle_type_id":"4","last_reported":1696954149,"current_range_meters":29200,"station_id":"","pricing_plan_id":"free"},{"bike_id":"933baba4-0ef2-4358-878e-8858b6f3db76","system_id":"levelo_inurba_marseille","lat":43.313563,"lon":5.376907,"is_reserved":false,"is_disabled":false,"rental_uris":{"android":"levelo://app?vid=933baba4-0ef2-4358-878e-8858b6f3db76","ios":"levelo://app?vid=933baba4-0ef2-4358-878e-8858b6f3db76"},"vehicle_type_id":"4","last_reported":1696954149,"current_range_meters":2800,"station_id":"ce4bgvp2rcd13ifvqcu0","pricing_plan_id":"free"},{"bike_id":"cf52fc07-da07-414d-9bb1-9deb2ebcda0c","system_id":"levelo_inurba_marseille","lat":43.311168,"lon":5.377787,"is_reserved":false,"is_disabled":false,"rental_uris":{"android":"levelo://app?vid=cf52fc07-da07-414d-9bb1-9deb2ebcda0c","ios":"levelo://app?vid=cf52fc07-da07-414d-9bb1-9deb2ebcda0c"},"vehicle_type_id":"4","last_reported":1696954149,"current_range_meters":0,"station_id":"ce4bgt92rcd13ifvqcg0","pricing_plan_id":"free"},{"bike_id":"9524b0ac-6bb3-41e0-91d0-c5ee7bcfd62f","system_id":"levelo_inurba_marseille","lat":43.307956,"lon":5.376488,"is_reserved":false,"is_disabled":false,"rental_uris":{"android":"levelo://app?vid=9524b0ac-6bb3-41e0-91d0-c5ee7bcfd62f","ios":"levelo://app?vid=9524b0ac-6bb3-41e0-91d0-c5ee7bcfd62f"},"vehicle_type_id":"4","last_reported":1696954149,"current_range_meters":6000,"station_id":"","pricing_plan_id":"free"},{"bike_id":"800ebe94-4960-4f9e-8c64-9491f9501b96","system_id":"levelo_inurba_marseille","lat":43.306064,"lon":5.375433,"is_reserved":false,"is_disabled":false,"rental_uris":{"android":"levelo://app?vid=800ebe94-4960-4f9e-8c64-9491f9501b96","ios":"levelo://app?vid=800ebe94-4960-4f9e-8c64-9491f9501b96"},"vehicle_type_id":"4","last_reported":1696954149,"current_range_meters":5600,"station_id":"","pricing_plan_id":"free"},{"bike_id":"5a96bd28-cda0-449f-b4e4-905f9045e549","system_id":"levelo_inurba_marseille","lat":43.32183,"lon":5.36842,"is_reserved":false,"is_disabled":false,"rental_uris":{"android":"levelo://app?vid=5a96bd28-cda0-449f-b4e4-905f9045e549","ios":"levelo://app?vid=5a96bd28-cda0-449f-b4e4-905f9045e549"},"vehicle_type_id":"4","last_reported":1696954149,"current_range_meters":12000,"station_id":"","pricing_plan_id":"free"},{"bike_id":"163d2399-bf5f-4bc1-93ce-b45bdf89425b","system_id":"levelo_inurba_marseille","lat":43.303046,"lon":5.368981,"is_reserved":false,"is_disabled":false,"rental_uris":{"android":"levelo://app?vid=163d2399-bf5f-4bc1-93ce-b45bdf89425b","ios":"levelo://app?vid=163d2399-bf5f-4bc1-93ce-b45bdf89425b"},"vehicle_type_id":"4","last_reported":1696954149,"current_range_meters":25200,"station_id":"ce4bgqh2rcd13ifvqc5g","pricing_plan_id":"free"},{"bike_id":"ea587c33-a516-42b7-b8f3-df1ecbbf17ff","system_id":"levelo_inurba_marseille","lat":43.30304,"lon":5.368987,"is_reserved":false,"is_disabled":false,"rental_uris":{"android":"levelo://app?vid=ea587c33-a516-42b7-b8f3-df1ecbbf17ff","ios":"levelo://app?vid=ea587c33-a516-42b7-b8f3-df1ecbbf17ff"},"vehicle_type_id":"4","last_reported":1696954149,"current_range_meters":17200,"station_id":"ce4bgqh2rcd13ifvqc5g","pricing_plan_id":"free"},{"bike_id":"827f786c-2e87-41b5-8fff-c95c782cb753","system_id":"levelo_inurba_marseille","lat":43.3153,"lon":5.38037,"is_reserved":false,"is_disabled":false,"rental_uris":{"android":"levelo://app?vid=827f786c-2e87-41b5-8fff-c95c782cb753","ios":"levelo://app?vid=827f786c-2e87-41b5-8fff-c95c782cb753"},"vehicle_type_id":"4","last_reported":1696954149,"current_range_meters":18400,"station_id":"ce4bhsp2rcd13ifvqi50","pricing_plan_id":"free"},{"bike_id":"505ee5ae-b22c-4079-acf8-ef84951315fc","system_id":"levelo_inurba_marseille","lat":43.308012,"lon":5.381511,"is_reserved":false,"is_disabled":false,"rental_uris":{"android":"levelo://app?vid=505ee5ae-b22c-4079-acf8-ef84951315fc","ios":"levelo://app?vid=505ee5ae-b22c-4079-acf8-ef84951315fc"},"vehicle_type_id":"4","last_reported":1696954149,"current_range_meters":16800,"station_id":"ce4bgt12rcd13ifvqce0","pricing_plan_id":"free"},{"bike_id":"8f992a64-4b6b-4034-bdf1-7c3ba967de7d","system_id":"levelo_inurba_marseille","lat":43.308021,"lon":5.381567,"is_reserved":false,"is_disabled":false,"rental_uris":{"android":"levelo://app?vid=8f992a64-4b6b-4034-bdf1-7c3ba967de7d","ios":"levelo://app?vid=8f992a64-4b6b-4034-bdf1-7c3ba967de7d"},"vehicle_type_id":"4","last_reported":1696954149,"current_range_meters":0,"station_id":"","pricing_plan_id":"free"},{"bike_id":"08844995-7460-488b-a77c-008d0bdd2add","system_id":"levelo_inurba_marseille","lat":43.282754,"lon":5.350519,"is_reserved":false,"is_disabled":false,"rental_uris":{"android":"levelo://app?vid=08844995-7460-488b-a77c-008d0bdd2add","ios":"levelo://app?vid=08844995-7460-488b-a77c-008d0bdd2add"},"vehicle_type_id":"4","last_reported":1696954149,"current_range_meters":4000,"station_id":"ce4bhbp2rcd13ifvqerg","pricing_plan_id":"free"},{"bike_id":"afa87554-46fd-491d-b8a5-ed52f8a15fb0","system_id":"levelo_inurba_marseille","lat":43.31991,"lon":5.38064,"is_reserved":false,"is_disabled":false,"rental_uris":{"android":"levelo://app?vid=afa87554-46fd-491d-b8a5-ed52f8a15fb0","ios":"levelo://app?vid=afa87554-46fd-491d-b8a5-ed52f8a15fb0"},"vehicle_type_id":"4","last_reported":1696954149,"current_range_meters":5600,"station_id":"","pricing_plan_id":"free"},{"bike_id":"29ffa812-2eb0-4891-a19e-973592cc1f3a","system_id":"levelo_inurba_marseille","lat":43.302784,"lon":5.377158,"is_reserved":false,"is_disabled":false,"rental_uris":{"android":"levelo://app?vid=29ffa812-2eb0-4891-a19e-973592cc1f3a","ios":"levelo://app?vid=29ffa812-2eb0-4891-a19e-973592cc1f3a"},"vehicle_type_id":"4","last_reported":1696954149,"current_range_meters":0,"station_id":"ce4bguh2rcd13ifvqcj0","pricing_plan_id":"free"},{"bike_id":"5ffa401c-e1c2-4b37-9dc7-cd22a91fe88a","system_id":"levelo_inurba_marseille","lat":43.302784,"lon":5.377158,"is_reserved":false,"is_disabled":false,"rental_uris":{"android":"levelo://app?vid=5ffa401c-e1c2-4b37-9dc7-cd22a91fe88a","ios":"levelo://app?vid=5ffa401c-e1c2-4b37-9dc7-cd22a91fe88a"},"vehicle_type_id":"4","last_reported":1696954149,"current_range_meters":26000,"station_id":"ce4bguh2rcd13ifvqcj0","pricing_plan_id":"free"},{"bike_id":"f7947f33-646a-4f28-8ab5-0b9e6b541d6c","system_id":"levelo_inurba_marseille","lat":43.302784,"lon":5.377158,"is_reserved":false,"is_disabled":false,"rental_uris":{"android":"levelo://app?vid=f7947f33-646a-4f28-8ab5-0b9e6b541d6c","ios":"levelo://app?vid=f7947f33-646a-4f28-8ab5-0b9e6b541d6c"},"vehicle_type_id":"4","last_reported":1696954149,"current_range_meters":24400,"station_id":"ce4bguh2rcd13ifvqcj0","pricing_plan_id":"free"},{"bike_id":"a537e31a-4df1-4b90-b31a-744f50d94c5b","system_id":"levelo_inurba_marseille","lat":43.2993,"lon":5.36537,"is_reserved":false,"is_disabled":false,"rental_uris":{"android":"levelo://app?vid=a537e31a-4df1-4b90-b31a-744f50d94c5b","ios":"levelo://app?vid=a537e31a-4df1-4b90-b31a-744f50d94c5b"},"vehicle_type_id":"4","last_reported":1696954149,"current_range_meters":28000,"station_id":"ce4bgm92rcd13ifvqbr0","pricing_plan_id":"free"},{"bike_id":"8c88d7b3-f5bf-4682-9732-5fb23deb7199","system_id":"levelo_inurba_marseille","lat":43.313571,"lon":5.384829,"is_reserved":false,"is_disabled":false,"rental_uris":{"android":"levelo://app?vid=8c88d7b3-f5bf-4682-9732-5fb23deb7199","ios":"levelo://app?vid=8c88d7b3-f5bf-4682-9732-5fb23deb7199"},"vehicle_type_id":"4","last_reported":1696954149,"current_range_meters":8000,"station_id":"ce4bgt92rcd13ifvqcf0","pricing_plan_id":"free"},{"bike_id":"7f1eba7a-375a-4bf5-9fcf-dc154d61ee4b","system_id":"levelo_inurba_marseille","lat":43.32665,"lon":5.36101,"is_reserved":false,"is_disabled":false,"rental_uris":{"android":"levelo://app?vid=7f1eba7a-375a-4bf5-9fcf-dc154d61ee4b","ios":"levelo://app?vid=7f1eba7a-375a-4bf5-9fcf-dc154d61ee4b"},"vehicle_type_id":"4","last_reported":1696954149,"current_range_meters":15600,"station_id":"","pricing_plan_id":"free"},{"bike_id":"b68538e7-3aa8-4027-82d8-6c5f365c4028","system_id":"levelo_inurba_marseille","lat":43.29922,"lon":5.37469,"is_reserved":false,"is_disabled":false,"rental_uris":{"android":"levelo://app?vid=b68538e7-3aa8-4027-82d8-6c5f365c4028","ios":"levelo://app?vid=b68538e7-3aa8-4027-82d8-6c5f365c4028"},"vehicle_type_id":"4","last_reported":1696954149,"current_range_meters":0,"station_id":"ce4bgjh2rcd13ifvqbg0","pricing_plan_id":"free"},{"bike_id":"c4d71f33-4020-4e3b-a4ec-b8001d9b2a98","system_id":"levelo_inurba_marseille","lat":43.29917,"lon":5.37468,"is_reserved":false,"is_disabled":false,"rental_uris":{"android":"levelo://app?vid=c4d71f33-4020-4e3b-a4ec-b8001d9b2a98","ios":"levelo://app?vid=c4d71f33-4020-4e3b-a4ec-b8001d9b2a98"},"vehicle_type_id":"4","last_reported":1696954149,"current_range_meters":29200,"station_id":"ce4bgjh2rcd13ifvqbg0","pricing_plan_id":"free"},{"bike_id":"643f5228-3ca6-41d1-85a7-151f977e9ddb","system_id":"levelo_inurba_marseille","lat":43.298014,"lon":5.366568,"is_reserved":false,"is_disabled":false,"rental_uris":{"android":"levelo://app?vid=643f5228-3ca6-41d1-85a7-151f977e9ddb","ios":"levelo://app?vid=643f5228-3ca6-41d1-85a7-151f977e9ddb"},"vehicle_type_id":"4","last_reported":1696954149,"current_range_meters":13200,"station_id":"","pricing_plan_id":"free"},{"bike_id":"f6ea16a2-7a11-413f-aee2-6d3ff90898f5","system_id":"levelo_inurba_marseille","lat":43.29909,"lon":5.37524,"is_reserved":false,"is_disabled":false,"rental_uris":{"android":"levelo://app?vid=f6ea16a2-7a11-413f-aee2-6d3ff90898f5","ios":"levelo://app?vid=f6ea16a2-7a11-413f-aee2-6d3ff90898f5"},"vehicle_type_id":"4","last_reported":1696954149,"current_range_meters":0,"station_id":"","pricing_plan_id":"free"},{"bike_id":"b1866448-5164-40f6-8f79-393f63f39a02","system_id":"levelo_inurba_marseille","lat":43.297774,"lon":5.370875,"is_reserved":false,"is_disabled":false,"rental_uris":{"android":"levelo://app?vid=b1866448-5164-40f6-8f79-393f63f39a02","ios":"levelo://app?vid=b1866448-5164-40f6-8f79-393f63f39a02"},"vehicle_type_id":"4","last_reported":1696954149,"current_range_meters":20800,"station_id":"ce4bgop2rcd13ifvqc1g","pricing_plan_id":"free"},{"bike_id":"cc697ebc-eb22-464f-a06c-f679aded9ab4","system_id":"levelo_inurba_marseille","lat":43.273613,"lon":5.362705,"is_reserved":false,"is_disabled":false,"rental_uris":{"android":"levelo://app?vid=cc697ebc-eb22-464f-a06c-f679aded9ab4","ios":"levelo://app?vid=cc697ebc-eb22-464f-a06c-f679aded9ab4"},"vehicle_type_id":"4","last_reported":1696954149,"current_range_meters":18800,"station_id":"ce4bhbh2rcd13ifvqeo0","pricing_plan_id":"free"},{"bike_id":"1293be6d-465b-4c7b-8a6b-828f589c90a0","system_id":"levelo_inurba_marseille","lat":43.297163,"lon":5.365866,"is_reserved":false,"is_disabled":false,"rental_uris":{"android":"levelo://app?vid=1293be6d-465b-4c7b-8a6b-828f589c90a0","ios":"levelo://app?vid=1293be6d-465b-4c7b-8a6b-828f589c90a0"},"vehicle_type_id":"4","last_reported":1696954149,"current_range_meters":28400,"station_id":"ce4bgn12rcd13ifvqbt0","pricing_plan_id":"free"},{"bike_id":"dbdfefec-ce94-4f57-b6f3-fb7ecb0de27f","system_id":"levelo_inurba_marseille","lat":43.32831,"lon":5.36688,"is_reserved":false,"is_disabled":false,"rental_uris":{"android":"levelo://app?vid=dbdfefec-ce94-4f57-b6f3-fb7ecb0de27f","ios":"levelo://app?vid=dbdfefec-ce94-4f57-b6f3-fb7ecb0de27f"},"vehicle_type_id":"4","last_reported":1696954149,"current_range_meters":0,"station_id":"ce4bhs92rcd13ifvqi0g","pricing_plan_id":"free"},{"bike_id":"451377af-1837-4987-a10e-e8525d55de14","system_id":"levelo_inurba_marseille","lat":43.29945,"lon":5.3785,"is_reserved":false,"is_disabled":false,"rental_uris":{"android":"levelo://app?vid=451377af-1837-4987-a10e-e8525d55de14","ios":"levelo://app?vid=451377af-1837-4987-a10e-e8525d55de14"},"vehicle_type_id":"4","last_reported":1696954149,"current_range_meters":6000,"station_id":"","pricing_plan_id":"free"},{"bike_id":"4f229513-4c89-43cf-bc05-fbf37f80e254","system_id":"levelo_inurba_marseille","lat":43.299028,"lon":5.381509,"is_reserved":false,"is_disabled":false,"rental_uris":{"android":"levelo://app?vid=4f229513-4c89-43cf-bc05-fbf37f80e254","ios":"levelo://app?vid=4f229513-4c89-43cf-bc05-fbf37f80e254"},"vehicle_type_id":"4","last_reported":1696954149,"current_range_meters":9600,"station_id":"ce4bgj12rcd13ifvqbc0","pricing_plan_id":"free"},{"bike_id":"f2bab616-2568-4f41-9898-f2004d9b5795","system_id":"levelo_inurba_marseille","lat":43.295881,"lon":5.367408,"is_reserved":false,"is_disabled":false,"rental_uris":{"android":"levelo://app?vid=f2bab616-2568-4f41-9898-f2004d9b5795","ios":"levelo://app?vid=f2bab616-2568-4f41-9898-f2004d9b5795"},"vehicle_type_id":"4","last_reported":1696954149,"current_range_meters":29600,"station_id":"","pricing_plan_id":"free"},{"bike_id":"108b82d4-4d07-4f7d-aca1-4d808ba61c64","system_id":"levelo_inurba_marseille","lat":43.29573,"lon":5.367355,"is_reserved":false,"is_disabled":false,"rental_uris":{"android":"levelo://app?vid=108b82d4-4d07-4f7d-aca1-4d808ba61c64","ios":"levelo://app?vid=108b82d4-4d07-4f7d-aca1-4d808ba61c64"},"vehicle_type_id":"4","last_reported":1696954149,"current_range_meters":21200,"station_id":"ce4bgph2rcd13ifvqc2g","pricing_plan_id":"free"},{"bike_id":"544a5759-2dd6-4286-970f-02032ab81a98","system_id":"levelo_inurba_marseille","lat":43.29584,"lon":5.367425,"is_reserved":false,"is_disabled":false,"rental_uris":{"android":"levelo://app?vid=544a5759-2dd6-4286-970f-02032ab81a98","ios":"levelo://app?vid=544a5759-2dd6-4286-970f-02032ab81a98"},"vehicle_type_id":"4","last_reported":1696954149,"current_range_meters":27600,"station_id":"","pricing_plan_id":"free"},{"bike_id":"1920f64c-6627-4faa-8cfc-1c9edaa1afc8","system_id":"levelo_inurba_marseille","lat":43.29573,"lon":5.367355,"is_reserved":false,"is_disabled":false,"rental_uris":{"android":"levelo://app?vid=1920f64c-6627-4faa-8cfc-1c9edaa1afc8","ios":"levelo://app?vid=1920f64c-6627-4faa-8cfc-1c9edaa1afc8"},"vehicle_type_id":"4","last_reported":1696954149,"current_range_meters":28800,"station_id":"ce4bgph2rcd13ifvqc2g","pricing_plan_id":"free"},{"bike_id":"6f8346ec-a05d-4d82-b782-cdbedbf07d14","system_id":"levelo_inurba_marseille","lat":43.32195,"lon":5.386885,"is_reserved":false,"is_disabled":false,"rental_uris":{"android":"levelo://app?vid=6f8346ec-a05d-4d82-b782-cdbedbf07d14","ios":"levelo://app?vid=6f8346ec-a05d-4d82-b782-cdbedbf07d14"},"vehicle_type_id":"4","last_reported":1696954149,"current_range_meters":24000,"station_id":"","pricing_plan_id":"free"},{"bike_id":"7ccc1751-061f-4aa0-83f4-b8b1b7a8f02b","system_id":"levelo_inurba_marseille","lat":43.31758,"lon":5.39013,"is_reserved":false,"is_disabled":false,"rental_uris":{"android":"levelo://app?vid=7ccc1751-061f-4aa0-83f4-b8b1b7a8f02b","ios":"levelo://app?vid=7ccc1751-061f-4aa0-83f4-b8b1b7a8f02b"},"vehicle_type_id":"4","last_reported":1696954149,"current_range_meters":15600,"station_id":"ce4bhqp2rcd13ifvqhng","pricing_plan_id":"free"},{"bike_id":"7334c9dd-6883-42a4-9e96-b16ec63905ad","system_id":"levelo_inurba_marseille","lat":43.298037,"lon":5.381066,"is_reserved":false,"is_disabled":false,"rental_uris":{"android":"levelo://app?vid=7334c9dd-6883-42a4-9e96-b16ec63905ad","ios":"levelo://app?vid=7334c9dd-6883-42a4-9e96-b16ec63905ad"},"vehicle_type_id":"4","last_reported":1696954149,"current_range_meters":22800,"station_id":"ce4bgip2rcd13ifvqbb0","pricing_plan_id":"free"},{"bike_id":"65ec6746-f3ad-476a-b97d-4f6d24a3448e","system_id":"levelo_inurba_marseille","lat":43.29799,"lon":5.38093,"is_reserved":false,"is_disabled":false,"rental_uris":{"android":"levelo://app?vid=65ec6746-f3ad-476a-b97d-4f6d24a3448e","ios":"levelo://app?vid=65ec6746-f3ad-476a-b97d-4f6d24a3448e"},"vehicle_type_id":"4","last_reported":1696954149,"current_range_meters":31200,"station_id":"ce4bgip2rcd13ifvqbb0","pricing_plan_id":"free"},{"bike_id":"a29a04f6-ee4a-4115-8fc8-75c200ab0e32","system_id":"levelo_inurba_marseille","lat":43.31977,"lon":5.38969,"is_reserved":false,"is_disabled":false,"rental_uris":{"android":"levelo://app?vid=a29a04f6-ee4a-4115-8fc8-75c200ab0e32","ios":"levelo://app?vid=a29a04f6-ee4a-4115-8fc8-75c200ab0e32"},"vehicle_type_id":"4","last_reported":1696954149,"current_range_meters":31200,"station_id":"","pricing_plan_id":"free"},{"bike_id":"3b6295bb-d52d-45e5-867c-c28207c30a74","system_id":"levelo_inurba_marseille","lat":43.2957,"lon":5.375,"is_reserved":false,"is_disabled":false,"rental_uris":{"android":"levelo://app?vid=3b6295bb-d52d-45e5-867c-c28207c30a74","ios":"levelo://app?vid=3b6295bb-d52d-45e5-867c-c28207c30a74"},"vehicle_type_id":"4","last_reported":1696954149,"current_range_meters":5600,"station_id":"ce4bgh92rcd13ifvqb50","pricing_plan_id":"free"},{"bike_id":"fdd73761-4157-44c1-8d86-821dd92f58e7","system_id":"levelo_inurba_marseille","lat":43.296254,"lon":5.377237,"is_reserved":false,"is_disabled":false,"rental_uris":{"android":"levelo://app?vid=fdd73761-4157-44c1-8d86-821dd92f58e7","ios":"levelo://app?vid=fdd73761-4157-44c1-8d86-821dd92f58e7"},"vehicle_type_id":"4","last_reported":1696954149,"current_range_meters":6800,"station_id":"ce4bgi92rcd13ifvqb90","pricing_plan_id":"free"},{"bike_id":"068878c8-3414-427e-8311-6cda6b42148e","system_id":"levelo_inurba_marseille","lat":43.308956,"lon":5.391542,"is_reserved":false,"is_disabled":false,"rental_uris":{"android":"levelo://app?vid=068878c8-3414-427e-8311-6cda6b42148e","ios":"levelo://app?vid=068878c8-3414-427e-8311-6cda6b42148e"},"vehicle_type_id":"4","last_reported":1696954149,"current_range_meters":20400,"station_id":"ce4bh092rcd13ifvqd30","pricing_plan_id":"free"},{"bike_id":"3d7fc691-7f09-44c2-8970-e8f1aaf3e99b","system_id":"levelo_inurba_marseille","lat":43.295279,"lon":5.375048,"is_reserved":false,"is_disabled":false,"rental_uris":{"android":"levelo://app?vid=3d7fc691-7f09-44c2-8970-e8f1aaf3e99b","ios":"levelo://app?vid=3d7fc691-7f09-44c2-8970-e8f1aaf3e99b"},"vehicle_type_id":"4","last_reported":1696954149,"current_range_meters":30000,"station_id":"ce4bgkp2rcd13ifvqbmg","pricing_plan_id":"free"},{"bike_id":"a3ba031f-ba9a-480c-abf7-d4eb77219ae5","system_id":"levelo_inurba_marseille","lat":43.299724,"lon":5.384848,"is_reserved":false,"is_disabled":false,"rental_uris":{"android":"levelo://app?vid=a3ba031f-ba9a-480c-abf7-d4eb77219ae5","ios":"levelo://app?vid=a3ba031f-ba9a-480c-abf7-d4eb77219ae5"},"vehicle_type_id":"4","last_reported":1696954149,"current_range_meters":25600,"station_id":"ce4bgj92rcd13ifvqbd0","pricing_plan_id":"free"},{"bike_id":"f6585b31-ff45-4402-8685-c8d7b792653b","system_id":"levelo_inurba_marseille","lat":43.32182,"lon":5.38938,"is_reserved":false,"is_disabled":false,"rental_uris":{"android":"levelo://app?vid=f6585b31-ff45-4402-8685-c8d7b792653b","ios":"levelo://app?vid=f6585b31-ff45-4402-8685-c8d7b792653b"},"vehicle_type_id":"4","last_reported":1696954149,"current_range_meters":1600,"station_id":"","pricing_plan_id":"free"},{"bike_id":"96f0556b-eac7-4d38-9af4-0c5b481e450c","system_id":"levelo_inurba_marseille","lat":43.3237,"lon":5.38884,"is_reserved":false,"is_disabled":false,"rental_uris":{"android":"levelo://app?vid=96f0556b-eac7-4d38-9af4-0c5b481e450c","ios":"levelo://app?vid=96f0556b-eac7-4d38-9af4-0c5b481e450c"},"vehicle_type_id":"4","last_reported":1696954149,"current_range_meters":16800,"station_id":"ce4bhqp2rcd13ifvqhog","pricing_plan_id":"free"},{"bike_id":"0f831c35-4b81-4a35-b5e0-59fa4e6c5366","system_id":"levelo_inurba_marseille","lat":43.326605,"lon":5.409903,"is_reserved":false,"is_disabled":false,"rental_uris":{"android":"levelo://app?vid=0f831c35-4b81-4a35-b5e0-59fa4e6c5366","ios":"levelo://app?vid=0f831c35-4b81-4a35-b5e0-59fa4e6c5366"},"vehicle_type_id":"4","last_reported":1696954149,"current_range_meters":19200,"station_id":"ce4bhpp2rcd13ifvqhgg","pricing_plan_id":"free"},{"bike_id":"a875ff7f-ef81-40eb-bdca-5427178a55a5","system_id":"levelo_inurba_marseille","lat":43.32385,"lon":5.38923,"is_reserved":false,"is_disabled":false,"rental_uris":{"android":"levelo://app?vid=a875ff7f-ef81-40eb-bdca-5427178a55a5","ios":"levelo://app?vid=a875ff7f-ef81-40eb-bdca-5427178a55a5"},"vehicle_type_id":"4","last_reported":1696954149,"current_range_meters":21600,"station_id":"ce4bhqp2rcd13ifvqhog","pricing_plan_id":"free"},{"bike_id":"3fa2ecd5-db71-4707-8e7c-94160de5eba8","system_id":"levelo_inurba_marseille","lat":43.293249,"lon":5.371578,"is_reserved":false,"is_disabled":false,"rental_uris":{"android":"levelo://app?vid=3fa2ecd5-db71-4707-8e7c-94160de5eba8","ios":"levelo://app?vid=3fa2ecd5-db71-4707-8e7c-94160de5eba8"},"vehicle_type_id":"4","last_reported":1696954149,"current_range_meters":13600,"station_id":"ce4bgh92rcd13ifvqb40","pricing_plan_id":"free"},{"bike_id":"592d41ef-179b-4442-b36a-f37784a04953","system_id":"levelo_inurba_marseille","lat":43.292749,"lon":5.368402,"is_reserved":false,"is_disabled":false,"rental_uris":{"android":"levelo://app?vid=592d41ef-179b-4442-b36a-f37784a04953","ios":"levelo://app?vid=592d41ef-179b-4442-b36a-f37784a04953"},"vehicle_type_id":"4","last_reported":1696954149,"current_range_meters":6800,"station_id":"ce4bhbp2rcd13ifvqesg","pricing_plan_id":"free"},{"bike_id":"ee98e86a-a4c5-4872-94c2-055699b8d72d","system_id":"levelo_inurba_marseille","lat":43.292466,"lon":5.366151,"is_reserved":false,"is_disabled":false,"rental_uris":{"android":"levelo://app?vid=ee98e86a-a4c5-4872-94c2-055699b8d72d","ios":"levelo://app?vid=ee98e86a-a4c5-4872-94c2-055699b8d72d"},"vehicle_type_id":"4","last_reported":1696954149,"current_range_meters":15600,"station_id":"ce4bhbp2rcd13ifvqesg","pricing_plan_id":"free"},{"bike_id":"c8baeaa5-fe7f-4bd5-bda8-673fb3793006","system_id":"levelo_inurba_marseille","lat":43.32908,"lon":5.38393,"is_reserved":false,"is_disabled":false,"rental_uris":{"android":"levelo://app?vid=c8baeaa5-fe7f-4bd5-bda8-673fb3793006","ios":"levelo://app?vid=c8baeaa5-fe7f-4bd5-bda8-673fb3793006"},"vehicle_type_id":"4","last_reported":1696954149,"current_range_meters":9600,"station_id":"","pricing_plan_id":"free"},{"bike_id":"0db3cde6-504c-4608-9121-5ec7f794ca19","system_id":"levelo_inurba_marseille","lat":43.302992,"lon":5.392136,"is_reserved":false,"is_disabled":false,"rental_uris":{"android":"levelo://app?vid=0db3cde6-504c-4608-9121-5ec7f794ca19","ios":"levelo://app?vid=0db3cde6-504c-4608-9121-5ec7f794ca19"},"vehicle_type_id":"4","last_reported":1696954149,"current_range_meters":30800,"station_id":"ce4bgkh2rcd13ifvqbk0","pricing_plan_id":"free"},{"bike_id":"8bd29f98-be35-44e4-9850-01fd39a68b6f","system_id":"levelo_inurba_marseille","lat":43.2936,"lon":5.37835,"is_reserved":false,"is_disabled":false,"rental_uris":{"android":"levelo://app?vid=8bd29f98-be35-44e4-9850-01fd39a68b6f","ios":"levelo://app?vid=8bd29f98-be35-44e4-9850-01fd39a68b6f"},"vehicle_type_id":"4","last_reported":1696954149,"current_range_meters":9600,"station_id":"ce4bgjh2rcd13ifvqbf0","pricing_plan_id":"free"},{"bike_id":"55da4b1e-ec25-4280-b823-fbb2e26c473e","system_id":"levelo_inurba_marseille","lat":43.29299,"lon":5.37617,"is_reserved":false,"is_disabled":false,"rental_uris":{"android":"levelo://app?vid=55da4b1e-ec25-4280-b823-fbb2e26c473e","ios":"levelo://app?vid=55da4b1e-ec25-4280-b823-fbb2e26c473e"},"vehicle_type_id":"4","last_reported":1696954149,"current_range_meters":5600,"station_id":"ce4bgi12rcd13ifvqb80","pricing_plan_id":"free"},{"bike_id":"52c9c4e4-ae02-4e9e-b33c-23545e83f6b5","system_id":"levelo_inurba_marseille","lat":43.29326,"lon":5.37737,"is_reserved":false,"is_disabled":false,"rental_uris":{"android":"levelo://app?vid=52c9c4e4-ae02-4e9e-b33c-23545e83f6b5","ios":"levelo://app?vid=52c9c4e4-ae02-4e9e-b33c-23545e83f6b5"},"vehicle_type_id":"4","last_reported":1696954149,"current_range_meters":20400,"station_id":"","pricing_plan_id":"free"},{"bike_id":"cd59d2be-f747-4cf2-a22b-362783c742e4","system_id":"levelo_inurba_marseille","lat":43.292319,"lon":5.360669,"is_reserved":false,"is_disabled":false,"rental_uris":{"android":"levelo://app?vid=cd59d2be-f747-4cf2-a22b-362783c742e4","ios":"levelo://app?vid=cd59d2be-f747-4cf2-a22b-362783c742e4"},"vehicle_type_id":"4","last_reported":1696954149,"current_range_meters":21600,"station_id":"","pricing_plan_id":"free"},{"bike_id":"8ccdb072-973c-4d28-9dae-097ae9aa0448","system_id":"levelo_inurba_marseille","lat":43.32183,"lon":5.39285,"is_reserved":false,"is_disabled":false,"rental_uris":{"android":"levelo://app?vid=8ccdb072-973c-4d28-9dae-097ae9aa0448","ios":"levelo://app?vid=8ccdb072-973c-4d28-9dae-097ae9aa0448"},"vehicle_type_id":"4","last_reported":1696954149,"current_range_meters":9600,"station_id":"","pricing_plan_id":"free"},{"bike_id":"98c6908f-4033-4299-b9e2-0dad287cb3ec","system_id":"levelo_inurba_marseille","lat":43.292311,"lon":5.360731,"is_reserved":false,"is_disabled":false,"rental_uris":{"android":"levelo://app?vid=98c6908f-4033-4299-b9e2-0dad287cb3ec","ios":"levelo://app?vid=98c6908f-4033-4299-b9e2-0dad287cb3ec"},"vehicle_type_id":"4","last_reported":1696954149,"current_range_meters":31200,"station_id":"ce4bhbh2rcd13ifvqeqg","pricing_plan_id":"free"},{"bike_id":"3f76ab58-2bf0-4049-a7c1-33f2a3ab9fc7","system_id":"levelo_inurba_marseille","lat":43.292311,"lon":5.360731,"is_reserved":false,"is_disabled":false,"rental_uris":{"android":"levelo://app?vid=3f76ab58-2bf0-4049-a7c1-33f2a3ab9fc7","ios":"levelo://app?vid=3f76ab58-2bf0-4049-a7c1-33f2a3ab9fc7"},"vehicle_type_id":"4","last_reported":1696954149,"current_range_meters":2800,"station_id":"ce4bhbh2rcd13ifvqeqg","pricing_plan_id":"free"},{"bike_id":"f4cf515f-ac45-4bb7-822b-793dae161a8f","system_id":"levelo_inurba_marseille","lat":43.300852,"lon":5.390859,"is_reserved":false,"is_disabled":false,"rental_uris":{"android":"levelo://app?vid=f4cf515f-ac45-4bb7-822b-793dae161a8f","ios":"levelo://app?vid=f4cf515f-ac45-4bb7-822b-793dae161a8f"},"vehicle_type_id":"4","last_reported":1696954149,"current_range_meters":29200,"station_id":"ce4bh192rcd13ifvqdb0","pricing_plan_id":"free"},{"bike_id":"9ac9a31a-273b-4538-b2e4-6f8141a31288","system_id":"levelo_inurba_marseille","lat":43.298764,"lon":5.388973,"is_reserved":false,"is_disabled":false,"rental_uris":{"android":"levelo://app?vid=9ac9a31a-273b-4538-b2e4-6f8141a31288","ios":"levelo://app?vid=9ac9a31a-273b-4538-b2e4-6f8141a31288"},"vehicle_type_id":"4","last_reported":1696954149,"current_range_meters":0,"station_id":"ce4bh392rcd13ifvqdl0","pricing_plan_id":"free"},{"bike_id":"26fa18ee-2409-417d-a326-113ee2f6a005","system_id":"levelo_inurba_marseille","lat":43.298764,"lon":5.388973,"is_reserved":false,"is_disabled":false,"rental_uris":{"android":"levelo://app?vid=26fa18ee-2409-417d-a326-113ee2f6a005","ios":"levelo://app?vid=26fa18ee-2409-417d-a326-113ee2f6a005"},"vehicle_type_id":"4","last_reported":1696954149,"current_range_meters":2000,"station_id":"ce4bh392rcd13ifvqdl0","pricing_plan_id":"free"},{"bike_id":"f3877aac-2557-46dd-a031-4ffdbf9e091d","system_id":"levelo_inurba_marseille","lat":43.298764,"lon":5.388973,"is_reserved":false,"is_disabled":false,"rental_uris":{"android":"levelo://app?vid=f3877aac-2557-46dd-a031-4ffdbf9e091d","ios":"levelo://app?vid=f3877aac-2557-46dd-a031-4ffdbf9e091d"},"vehicle_type_id":"4","last_reported":1696954149,"current_range_meters":0,"station_id":"ce4bh392rcd13ifvqdl0","pricing_plan_id":"free"},{"bike_id":"5cb12d7d-383f-4ee6-801f-00eb11537be6","system_id":"levelo_inurba_marseille","lat":43.291675,"lon":5.371583,"is_reserved":false,"is_disabled":false,"rental_uris":{"android":"levelo://app?vid=5cb12d7d-383f-4ee6-801f-00eb11537be6","ios":"levelo://app?vid=5cb12d7d-383f-4ee6-801f-00eb11537be6"},"vehicle_type_id":"4","last_reported":1696954149,"current_range_meters":15600,"station_id":"ce4bha92rcd13ifvqeh0","pricing_plan_id":"free"},{"bike_id":"64ae4127-0610-406b-a6dd-301a9328c4d4","system_id":"levelo_inurba_marseille","lat":43.298764,"lon":5.388973,"is_reserved":false,"is_disabled":false,"rental_uris":{"android":"levelo://app?vid=64ae4127-0610-406b-a6dd-301a9328c4d4","ios":"levelo://app?vid=64ae4127-0610-406b-a6dd-301a9328c4d4"},"vehicle_type_id":"4","last_reported":1696954149,"current_range_meters":0,"station_id":"ce4bh392rcd13ifvqdl0","pricing_plan_id":"free"},{"bike_id":"89d2cc24-f8aa-4956-bb4a-2ede2919a2a9","system_id":"levelo_inurba_marseille","lat":43.29203,"lon":5.35797,"is_reserved":false,"is_disabled":false,"rental_uris":{"android":"levelo://app?vid=89d2cc24-f8aa-4956-bb4a-2ede2919a2a9","ios":"levelo://app?vid=89d2cc24-f8aa-4956-bb4a-2ede2919a2a9"},"vehicle_type_id":"4","last_reported":1696954149,"current_range_meters":14000,"station_id":"","pricing_plan_id":"free"},{"bike_id":"176ee40f-b197-4bab-956b-6ec6d04db0ae","system_id":"levelo_inurba_marseille","lat":43.309038,"lon":5.396546,"is_reserved":false,"is_disabled":false,"rental_uris":{"android":"levelo://app?vid=176ee40f-b197-4bab-956b-6ec6d04db0ae","ios":"levelo://app?vid=176ee40f-b197-4bab-956b-6ec6d04db0ae"},"vehicle_type_id":"4","last_reported":1696954149,"current_range_meters":0,"station_id":"ce4bh012rcd13ifvqcv0","pricing_plan_id":"free"},{"bike_id":"c46a8da0-8470-4673-a487-229ce8622409","system_id":"levelo_inurba_marseille","lat":43.33371,"lon":5.35765,"is_reserved":false,"is_disabled":false,"rental_uris":{"android":"levelo://app?vid=c46a8da0-8470-4673-a487-229ce8622409","ios":"levelo://app?vid=c46a8da0-8470-4673-a487-229ce8622409"},"vehicle_type_id":"4","last_reported":1696954149,"current_range_meters":0,"station_id":"","pricing_plan_id":"free"},{"bike_id":"aa4819cd-a5a5-485c-b0ef-19ae8bff7e42","system_id":"levelo_inurba_marseille","lat":43.29029,"lon":5.36981,"is_reserved":false,"is_disabled":false,"rental_uris":{"android":"levelo://app?vid=aa4819cd-a5a5-485c-b0ef-19ae8bff7e42","ios":"levelo://app?vid=aa4819cd-a5a5-485c-b0ef-19ae8bff7e42"},"vehicle_type_id":"4","last_reported":1696954149,"current_range_meters":0,"station_id":"","pricing_plan_id":"free"},{"bike_id":"1fc4f0db-d8b1-4352-aeac-7b2836e2782f","system_id":"levelo_inurba_marseille","lat":43.302095,"lon":5.394764,"is_reserved":false,"is_disabled":false,"rental_uris":{"android":"levelo://app?vid=1fc4f0db-d8b1-4352-aeac-7b2836e2782f","ios":"levelo://app?vid=1fc4f0db-d8b1-4352-aeac-7b2836e2782f"},"vehicle_type_id":"4","last_reported":1696954149,"current_range_meters":28400,"station_id":"ce4bh0p2rcd13ifvqd70","pricing_plan_id":"free"},{"bike_id":"542e036d-0908-47e3-aed2-6fb888bb85bb","system_id":"levelo_inurba_marseille","lat":43.290631,"lon":5.359244,"is_reserved":false,"is_disabled":false,"rental_uris":{"android":"levelo://app?vid=542e036d-0908-47e3-aed2-6fb888bb85bb","ios":"levelo://app?vid=542e036d-0908-47e3-aed2-6fb888bb85bb"},"vehicle_type_id":"4","last_reported":1696954149,"current_range_meters":26800,"station_id":"ce4bha92rcd13ifvqeg0","pricing_plan_id":"free"},{"bike_id":"4c3f12e2-a44a-4680-9890-36e6573998a1","system_id":"levelo_inurba_marseille","lat":43.29135,"lon":5.35458,"is_reserved":false,"is_disabled":false,"rental_uris":{"android":"levelo://app?vid=4c3f12e2-a44a-4680-9890-36e6573998a1","ios":"levelo://app?vid=4c3f12e2-a44a-4680-9890-36e6573998a1"},"vehicle_type_id":"4","last_reported":1696954149,"current_range_meters":14800,"station_id":"ce4bh192rcd13ifvqdc0","pricing_plan_id":"free"},{"bike_id":"4c57b2ea-0255-4d60-a0f7-48fd735ac896","system_id":"levelo_inurba_marseille","lat":43.294153,"lon":5.386305,"is_reserved":false,"is_disabled":false,"rental_uris":{"android":"levelo://app?vid=4c57b2ea-0255-4d60-a0f7-48fd735ac896","ios":"levelo://app?vid=4c57b2ea-0255-4d60-a0f7-48fd735ac896"},"vehicle_type_id":"4","last_reported":1696954149,"current_range_meters":30000,"station_id":"ce4bh2h2rcd13ifvqdh0","pricing_plan_id":"free"},{"bike_id":"4154c46b-4c09-4cc2-9079-4641aa92e9c6","system_id":"levelo_inurba_marseille","lat":43.293009,"lon":5.374584,"is_reserved":false,"is_disabled":false,"rental_uris":{"android":"levelo://app?vid=4154c46b-4c09-4cc2-9079-4641aa92e9c6","ios":"levelo://app?vid=4154c46b-4c09-4cc2-9079-4641aa92e9c6"},"vehicle_type_id":"4","last_reported":1696954149,"current_range_meters":0,"station_id":"ce4bgi12rcd13ifvqb70","pricing_plan_id":"free"},{"bike_id":"9a391f28-63cd-46cd-ba8d-bb668ccbd82a","system_id":"levelo_inurba_marseille","lat":43.32723,"lon":5.39208,"is_reserved":false,"is_disabled":false,"rental_uris":{"android":"levelo://app?vid=9a391f28-63cd-46cd-ba8d-bb668ccbd82a","ios":"levelo://app?vid=9a391f28-63cd-46cd-ba8d-bb668ccbd82a"},"vehicle_type_id":"4","last_reported":1696954149,"current_range_meters":0,"station_id":"","pricing_plan_id":"free"},{"bike_id":"4029b156-1524-4359-9aef-a1011f919660","system_id":"levelo_inurba_marseille","lat":43.289184,"lon":5.366408,"is_reserved":false,"is_disabled":false,"rental_uris":{"android":"levelo://app?vid=4029b156-1524-4359-9aef-a1011f919660","ios":"levelo://app?vid=4029b156-1524-4359-9aef-a1011f919660"},"vehicle_type_id":"4","last_reported":1696954149,"current_range_meters":23600,"station_id":"ce4bhap2rcd13ifvqek0","pricing_plan_id":"free"},{"bike_id":"69c017ff-5692-4ad0-9acd-9e5aaf77a4cf","system_id":"levelo_inurba_marseille","lat":43.2894,"lon":5.36387,"is_reserved":false,"is_disabled":false,"rental_uris":{"android":"levelo://app?vid=69c017ff-5692-4ad0-9acd-9e5aaf77a4cf","ios":"levelo://app?vid=69c017ff-5692-4ad0-9acd-9e5aaf77a4cf"},"vehicle_type_id":"4","last_reported":1696954149,"current_range_meters":10400,"station_id":"ce4bhc92rcd13ifvqetg","pricing_plan_id":"free"},{"bike_id":"57ca5014-0cd9-43c8-9d44-46b5d9389b81","system_id":"levelo_inurba_marseille","lat":43.289316,"lon":5.363841,"is_reserved":false,"is_disabled":false,"rental_uris":{"android":"levelo://app?vid=57ca5014-0cd9-43c8-9d44-46b5d9389b81","ios":"levelo://app?vid=57ca5014-0cd9-43c8-9d44-46b5d9389b81"},"vehicle_type_id":"4","last_reported":1696954149,"current_range_meters":8400,"station_id":"ce4bhc92rcd13ifvqetg","pricing_plan_id":"free"},{"bike_id":"43a935f3-09ec-46a1-b7a0-3f1052983c25","system_id":"levelo_inurba_marseille","lat":43.292644,"lon":5.384257,"is_reserved":false,"is_disabled":false,"rental_uris":{"android":"levelo://app?vid=43a935f3-09ec-46a1-b7a0-3f1052983c25","ios":"levelo://app?vid=43a935f3-09ec-46a1-b7a0-3f1052983c25"},"vehicle_type_id":"4","last_reported":1696954149,"current_range_meters":26400,"station_id":"ce4bh692rcd13ifvqea0","pricing_plan_id":"free"},{"bike_id":"803a4a73-4a68-456d-bf74-8dc457fb5e2f","system_id":"levelo_inurba_marseille","lat":43.292644,"lon":5.384257,"is_reserved":false,"is_disabled":false,"rental_uris":{"android":"levelo://app?vid=803a4a73-4a68-456d-bf74-8dc457fb5e2f","ios":"levelo://app?vid=803a4a73-4a68-456d-bf74-8dc457fb5e2f"},"vehicle_type_id":"4","last_reported":1696954149,"current_range_meters":2800,"station_id":"ce4bh692rcd13ifvqea0","pricing_plan_id":"free"},{"bike_id":"220a6936-a90f-4521-8469-1d104baf6b37","system_id":"levelo_inurba_marseille","lat":43.292642,"lon":5.384254,"is_reserved":false,"is_disabled":false,"rental_uris":{"android":"levelo://app?vid=220a6936-a90f-4521-8469-1d104baf6b37","ios":"levelo://app?vid=220a6936-a90f-4521-8469-1d104baf6b37"},"vehicle_type_id":"4","last_reported":1696954149,"current_range_meters":27600,"station_id":"ce4bh692rcd13ifvqea0","pricing_plan_id":"free"},{"bike_id":"d5e01090-44c3-41b4-b463-029ed49cf274","system_id":"levelo_inurba_marseille","lat":43.292646,"lon":5.384422,"is_reserved":false,"is_disabled":false,"rental_uris":{"android":"levelo://app?vid=d5e01090-44c3-41b4-b463-029ed49cf274","ios":"levelo://app?vid=d5e01090-44c3-41b4-b463-029ed49cf274"},"vehicle_type_id":"4","last_reported":1696954149,"current_range_meters":0,"station_id":"ce4bh692rcd13ifvqea0","pricing_plan_id":"free"},{"bike_id":"e6d57891-78f5-4887-b717-d4842a14a6ac","system_id":"levelo_inurba_marseille","lat":43.33039,"lon":5.38925,"is_reserved":false,"is_disabled":false,"rental_uris":{"android":"levelo://app?vid=e6d57891-78f5-4887-b717-d4842a14a6ac","ios":"levelo://app?vid=e6d57891-78f5-4887-b717-d4842a14a6ac"},"vehicle_type_id":"4","last_reported":1696954149,"current_range_meters":7600,"station_id":"ce4bhr92rcd13ifvqhrg","pricing_plan_id":"free"},{"bike_id":"3f8f0e1e-01b5-4975-8475-f5e280844a31","system_id":"levelo_inurba_marseille","lat":43.290103,"lon":5.356114,"is_reserved":false,"is_disabled":false,"rental_uris":{"android":"levelo://app?vid=3f8f0e1e-01b5-4975-8475-f5e280844a31","ios":"levelo://app?vid=3f8f0e1e-01b5-4975-8475-f5e280844a31"},"vehicle_type_id":"4","last_reported":1696954149,"current_range_meters":23600,"station_id":"ce4bhb92rcd13ifvqen0","pricing_plan_id":"free"},{"bike_id":"399cfc33-4839-4ab6-a817-bc48c0c110cf","system_id":"levelo_inurba_marseille","lat":43.290995,"lon":5.381361,"is_reserved":false,"is_disabled":false,"rental_uris":{"android":"levelo://app?vid=399cfc33-4839-4ab6-a817-bc48c0c110cf","ios":"levelo://app?vid=399cfc33-4839-4ab6-a817-bc48c0c110cf"},"vehicle_type_id":"4","last_reported":1696954149,"current_range_meters":2000,"station_id":"ce4bh512rcd13ifvqe2g","pricing_plan_id":"free"},{"bike_id":"52e572f2-572c-4146-994c-afc7605ce2a8","system_id":"levelo_inurba_marseille","lat":43.295169,"lon":5.390426,"is_reserved":false,"is_disabled":false,"rental_uris":{"android":"levelo://app?vid=52e572f2-572c-4146-994c-afc7605ce2a8","ios":"levelo://app?vid=52e572f2-572c-4146-994c-afc7605ce2a8"},"vehicle_type_id":"4","last_reported":1696954149,"current_range_meters":24800,"station_id":"ce4bh3p2rcd13ifvqdp0","pricing_plan_id":"free"},{"bike_id":"0bcb4b96-a772-40bd-b232-4b071a93b076","system_id":"levelo_inurba_marseille","lat":43.28856,"lon":5.358371,"is_reserved":false,"is_disabled":false,"rental_uris":{"android":"levelo://app?vid=0bcb4b96-a772-40bd-b232-4b071a93b076","ios":"levelo://app?vid=0bcb4b96-a772-40bd-b232-4b071a93b076"},"vehicle_type_id":"4","last_reported":1696954149,"current_range_meters":0,"station_id":"ce4bhb12rcd13ifvqem0","pricing_plan_id":"free"},{"bike_id":"f3143671-c87f-4904-80cb-2ae822bcad7f","system_id":"levelo_inurba_marseille","lat":43.28856,"lon":5.358371,"is_reserved":false,"is_disabled":false,"rental_uris":{"android":"levelo://app?vid=f3143671-c87f-4904-80cb-2ae822bcad7f","ios":"levelo://app?vid=f3143671-c87f-4904-80cb-2ae822bcad7f"},"vehicle_type_id":"4","last_reported":1696954149,"current_range_meters":22400,"station_id":"ce4bhb12rcd13ifvqem0","pricing_plan_id":"free"},{"bike_id":"db1b326e-e050-4b8f-af46-aa71a5d0ad12","system_id":"levelo_inurba_marseille","lat":43.29003,"lon":5.38161,"is_reserved":false,"is_disabled":false,"rental_uris":{"android":"levelo://app?vid=db1b326e-e050-4b8f-af46-aa71a5d0ad12","ios":"levelo://app?vid=db1b326e-e050-4b8f-af46-aa71a5d0ad12"},"vehicle_type_id":"4","last_reported":1696954149,"current_range_meters":0,"station_id":"ce4bh4p2rcd13ifvqe1g","pricing_plan_id":"free"},{"bike_id":"e5530f6b-92bf-4696-b197-99566a6f6b8b","system_id":"levelo_inurba_marseille","lat":43.30945,"lon":5.40143,"is_reserved":false,"is_disabled":false,"rental_uris":{"android":"levelo://app?vid=e5530f6b-92bf-4696-b197-99566a6f6b8b","ios":"levelo://app?vid=e5530f6b-92bf-4696-b197-99566a6f6b8b"},"vehicle_type_id":"4","last_reported":1696954149,"current_range_meters":29600,"station_id":"ce4bgvp2rcd13ifvqct0","pricing_plan_id":"free"},{"bike_id":"135bf23b-0679-4e58-9a71-5fc578a9398b","system_id":"levelo_inurba_marseille","lat":43.337463,"lon":5.374556,"is_reserved":false,"is_disabled":false,"rental_uris":{"android":"levelo://app?vid=135bf23b-0679-4e58-9a71-5fc578a9398b","ios":"levelo://app?vid=135bf23b-0679-4e58-9a71-5fc578a9398b"},"vehicle_type_id":"4","last_reported":1696954149,"current_range_meters":28000,"station_id":"","pricing_plan_id":"free"},{"bike_id":"e91523e1-7c63-46a9-b49b-1f697684489f","system_id":"levelo_inurba_marseille","lat":43.337502,"lon":5.374509,"is_reserved":false,"is_disabled":false,"rental_uris":{"android":"levelo://app?vid=e91523e1-7c63-46a9-b49b-1f697684489f","ios":"levelo://app?vid=e91523e1-7c63-46a9-b49b-1f697684489f"},"vehicle_type_id":"4","last_reported":1696954149,"current_range_meters":18400,"station_id":"","pricing_plan_id":"free"},{"bike_id":"a613aecb-541d-4240-b551-9fa0b33f2ecb","system_id":"levelo_inurba_marseille","lat":43.306477,"lon":5.400719,"is_reserved":false,"is_disabled":false,"rental_uris":{"android":"levelo://app?vid=a613aecb-541d-4240-b551-9fa0b33f2ecb","ios":"levelo://app?vid=a613aecb-541d-4240-b551-9fa0b33f2ecb"},"vehicle_type_id":"4","last_reported":1696954149,"current_range_meters":16400,"station_id":"","pricing_plan_id":"free"},{"bike_id":"05647e7d-129a-48d7-8f0e-ea7d2f5b1d6c","system_id":"levelo_inurba_marseille","lat":43.337509,"lon":5.374609,"is_reserved":false,"is_disabled":false,"rental_uris":{"android":"levelo://app?vid=05647e7d-129a-48d7-8f0e-ea7d2f5b1d6c","ios":"levelo://app?vid=05647e7d-129a-48d7-8f0e-ea7d2f5b1d6c"},"vehicle_type_id":"4","last_reported":1696954149,"current_range_meters":13200,"station_id":"","pricing_plan_id":"free"},{"bike_id":"506daf5b-1fd0-4822-8a10-89fc4f985347","system_id":"levelo_inurba_marseille","lat":43.312973,"lon":5.401872,"is_reserved":false,"is_disabled":false,"rental_uris":{"android":"levelo://app?vid=506daf5b-1fd0-4822-8a10-89fc4f985347","ios":"levelo://app?vid=506daf5b-1fd0-4822-8a10-89fc4f985347"},"vehicle_type_id":"4","last_reported":1696954149,"current_range_meters":0,"station_id":"","pricing_plan_id":"free"},{"bike_id":"1238509b-e8c9-4e04-b4ea-b95e4f4b0ebb","system_id":"levelo_inurba_marseille","lat":43.337568,"lon":5.3745,"is_reserved":false,"is_disabled":false,"rental_uris":{"android":"levelo://app?vid=1238509b-e8c9-4e04-b4ea-b95e4f4b0ebb","ios":"levelo://app?vid=1238509b-e8c9-4e04-b4ea-b95e4f4b0ebb"},"vehicle_type_id":"4","last_reported":1696954149,"current_range_meters":25600,"station_id":"","pricing_plan_id":"free"},{"bike_id":"a68e0488-9b8d-4757-8bab-7fb1cc9dc4d3","system_id":"levelo_inurba_marseille","lat":43.33027,"lon":5.39228,"is_reserved":false,"is_disabled":false,"rental_uris":{"android":"levelo://app?vid=a68e0488-9b8d-4757-8bab-7fb1cc9dc4d3","ios":"levelo://app?vid=a68e0488-9b8d-4757-8bab-7fb1cc9dc4d3"},"vehicle_type_id":"4","last_reported":1696954149,"current_range_meters":8400,"station_id":"","pricing_plan_id":"free"},{"bike_id":"c1cde366-b834-4c73-a39f-89d7d0a97293","system_id":"levelo_inurba_marseille","lat":43.337713,"lon":5.374431,"is_reserved":false,"is_disabled":false,"rental_uris":{"android":"levelo://app?vid=c1cde366-b834-4c73-a39f-89d7d0a97293","ios":"levelo://app?vid=c1cde366-b834-4c73-a39f-89d7d0a97293"},"vehicle_type_id":"4","last_reported":1696954149,"current_range_meters":30400,"station_id":"","pricing_plan_id":"free"},{"bike_id":"49b33027-ea3a-4c9e-aecd-b0b1c5704b69","system_id":"levelo_inurba_marseille","lat":43.309282,"lon":5.401749,"is_reserved":false,"is_disabled":false,"rental_uris":{"android":"levelo://app?vid=49b33027-ea3a-4c9e-aecd-b0b1c5704b69","ios":"levelo://app?vid=49b33027-ea3a-4c9e-aecd-b0b1c5704b69"},"vehicle_type_id":"4","last_reported":1696954149,"current_range_meters":800,"station_id":"ce4bh512rcd13ifvqe2g","pricing_plan_id":"free"},{"bike_id":"fe276b15-d0f2-434b-a316-2d104b91bc4d","system_id":"levelo_inurba_marseille","lat":43.30642,"lon":5.401031,"is_reserved":false,"is_disabled":false,"rental_uris":{"android":"levelo://app?vid=fe276b15-d0f2-434b-a316-2d104b91bc4d","ios":"levelo://app?vid=fe276b15-d0f2-434b-a316-2d104b91bc4d"},"vehicle_type_id":"4","last_reported":1696954149,"current_range_meters":0,"station_id":"ce4bh112rcd13ifvqda0","pricing_plan_id":"free"},{"bike_id":"85f88f42-abee-479e-8fe8-497e39dab5a3","system_id":"levelo_inurba_marseille","lat":43.291675,"lon":5.371583,"is_reserved":false,"is_disabled":false,"rental_uris":{"android":"levelo://app?vid=85f88f42-abee-479e-8fe8-497e39dab5a3","ios":"levelo://app?vid=85f88f42-abee-479e-8fe8-497e39dab5a3"},"vehicle_type_id":"4","last_reported":1696954149,"current_range_meters":10400,"station_id":"ce4bha92rcd13ifvqeh0","pricing_plan_id":"free"},{"bike_id":"d1cb4fc3-486d-4331-b54f-9d93a4c0c7e3","system_id":"levelo_inurba_marseille","lat":43.3384,"lon":5.36884,"is_reserved":false,"is_disabled":false,"rental_uris":{"android":"levelo://app?vid=d1cb4fc3-486d-4331-b54f-9d93a4c0c7e3","ios":"levelo://app?vid=d1cb4fc3-486d-4331-b54f-9d93a4c0c7e3"},"vehicle_type_id":"4","last_reported":1696954149,"current_range_meters":800,"station_id":"","pricing_plan_id":"free"},{"bike_id":"8ce96594-29e4-49ff-aba0-b8a8286e841f","system_id":"levelo_inurba_marseille","lat":43.298681,"lon":5.397225,"is_reserved":false,"is_disabled":false,"rental_uris":{"android":"levelo://app?vid=8ce96594-29e4-49ff-aba0-b8a8286e841f","ios":"levelo://app?vid=8ce96594-29e4-49ff-aba0-b8a8286e841f"},"vehicle_type_id":"4","last_reported":1696954149,"current_range_meters":7200,"station_id":"ce4bh0h2rcd13ifvqd50","pricing_plan_id":"free"},{"bike_id":"a3b9bee7-58fa-400f-b928-ea6314b455d2","system_id":"levelo_inurba_marseille","lat":43.286591,"lon":5.363346,"is_reserved":false,"is_disabled":false,"rental_uris":{"android":"levelo://app?vid=a3b9bee7-58fa-400f-b928-ea6314b455d2","ios":"levelo://app?vid=a3b9bee7-58fa-400f-b928-ea6314b455d2"},"vehicle_type_id":"4","last_reported":1696954149,"current_range_meters":2000,"station_id":"ce4bhah2rcd13ifvqej0","pricing_plan_id":"free"},{"bike_id":"8525c35b-a349-4e15-a5be-9d0d4f871942","system_id":"levelo_inurba_marseille","lat":43.286961,"lon":5.373785,"is_reserved":false,"is_disabled":false,"rental_uris":{"android":"levelo://app?vid=8525c35b-a349-4e15-a5be-9d0d4f871942","ios":"levelo://app?vid=8525c35b-a349-4e15-a5be-9d0d4f871942"},"vehicle_type_id":"4","last_reported":1696954149,"current_range_meters":1600,"station_id":"ce4bh3p2rcd13ifvqdq0","pricing_plan_id":"free"},{"bike_id":"76c22cb2-110d-4d8d-b418-bfd56b7bf7c5","system_id":"levelo_inurba_marseille","lat":43.287007,"lon":5.373897,"is_reserved":false,"is_disabled":false,"rental_uris":{"android":"levelo://app?vid=76c22cb2-110d-4d8d-b418-bfd56b7bf7c5","ios":"levelo://app?vid=76c22cb2-110d-4d8d-b418-bfd56b7bf7c5"},"vehicle_type_id":"4","last_reported":1696954149,"current_range_meters":0,"station_id":"ce4bh3p2rcd13ifvqdq0","pricing_plan_id":"free"},{"bike_id":"89ffd644-6c6a-4cae-9601-f122122e9b7d","system_id":"levelo_inurba_marseille","lat":43.289271,"lon":5.383905,"is_reserved":false,"is_disabled":false,"rental_uris":{"android":"levelo://app?vid=89ffd644-6c6a-4cae-9601-f122122e9b7d","ios":"levelo://app?vid=89ffd644-6c6a-4cae-9601-f122122e9b7d"},"vehicle_type_id":"4","last_reported":1696954149,"current_range_meters":16400,"station_id":"","pricing_plan_id":"free"},{"bike_id":"36dfaa93-6331-4ac5-930f-e63016ee4d14","system_id":"levelo_inurba_marseille","lat":43.302759,"lon":5.400793,"is_reserved":false,"is_disabled":false,"rental_uris":{"android":"levelo://app?vid=36dfaa93-6331-4ac5-930f-e63016ee4d14","ios":"levelo://app?vid=36dfaa93-6331-4ac5-930f-e63016ee4d14"},"vehicle_type_id":"4","last_reported":1696954149,"current_range_meters":26800,"station_id":"ce4bgvh2rcd13ifvqcs0","pricing_plan_id":"free"},{"bike_id":"b5b102b5-63af-45dc-bd75-06655fd31b28","system_id":"levelo_inurba_marseille","lat":43.302759,"lon":5.400793,"is_reserved":false,"is_disabled":false,"rental_uris":{"android":"levelo://app?vid=b5b102b5-63af-45dc-bd75-06655fd31b28","ios":"levelo://app?vid=b5b102b5-63af-45dc-bd75-06655fd31b28"},"vehicle_type_id":"4","last_reported":1696954149,"current_range_meters":800,"station_id":"ce4bgvh2rcd13ifvqcs0","pricing_plan_id":"free"},{"bike_id":"5656ee0e-7962-45b0-881b-660fa6ec295d","system_id":"levelo_inurba_marseille","lat":43.286039,"lon":5.370681,"is_reserved":false,"is_disabled":false,"rental_uris":{"android":"levelo://app?vid=5656ee0e-7962-45b0-881b-660fa6ec295d","ios":"levelo://app?vid=5656ee0e-7962-45b0-881b-660fa6ec295d"},"vehicle_type_id":"4","last_reported":1696954149,"current_range_meters":31200,"station_id":"ce4bht12rcd13ifvqi60","pricing_plan_id":"free"},{"bike_id":"67267d25-aad2-4be1-b7e7-1f18e8af3b86","system_id":"levelo_inurba_marseille","lat":43.33907,"lon":5.35656,"is_reserved":false,"is_disabled":false,"rental_uris":{"android":"levelo://app?vid=67267d25-aad2-4be1-b7e7-1f18e8af3b86","ios":"levelo://app?vid=67267d25-aad2-4be1-b7e7-1f18e8af3b86"},"vehicle_type_id":"4","last_reported":1696954149,"current_range_meters":0,"station_id":"","pricing_plan_id":"free"},{"bike_id":"f35c5f73-8967-4b15-b9a3-cd805574b5ef","system_id":"levelo_inurba_marseille","lat":43.33483,"lon":5.38996,"is_reserved":false,"is_disabled":false,"rental_uris":{"android":"levelo://app?vid=f35c5f73-8967-4b15-b9a3-cd805574b5ef","ios":"levelo://app?vid=f35c5f73-8967-4b15-b9a3-cd805574b5ef"},"vehicle_type_id":"4","last_reported":1696954149,"current_range_meters":10400,"station_id":"","pricing_plan_id":"free"},{"bike_id":"c8e5b845-9a9e-438b-8a01-e0f16e043114","system_id":"levelo_inurba_marseille","lat":43.291971,"lon":5.393265,"is_reserved":false,"is_disabled":false,"rental_uris":{"android":"levelo://app?vid=c8e5b845-9a9e-438b-8a01-e0f16e043114","ios":"levelo://app?vid=c8e5b845-9a9e-438b-8a01-e0f16e043114"},"vehicle_type_id":"4","last_reported":1696954149,"current_range_meters":26400,"station_id":"ce4bho92rcd13ifvqh3g","pricing_plan_id":"free"},{"bike_id":"7b6a6488-c6ec-4718-baf4-80c1f85903f2","system_id":"levelo_inurba_marseille","lat":43.33103,"lon":5.39697,"is_reserved":false,"is_disabled":false,"rental_uris":{"android":"levelo://app?vid=7b6a6488-c6ec-4718-baf4-80c1f85903f2","ios":"levelo://app?vid=7b6a6488-c6ec-4718-baf4-80c1f85903f2"},"vehicle_type_id":"4","last_reported":1696954149,"current_range_meters":4400,"station_id":"","pricing_plan_id":"free"},{"bike_id":"f0a1b823-598d-44f4-9d2b-f67ee99c7457","system_id":"levelo_inurba_marseille","lat":43.284664,"lon":5.359072,"is_reserved":false,"is_disabled":false,"rental_uris":{"android":"levelo://app?vid=f0a1b823-598d-44f4-9d2b-f67ee99c7457","ios":"levelo://app?vid=f0a1b823-598d-44f4-9d2b-f67ee99c7457"},"vehicle_type_id":"4","last_reported":1696954149,"current_range_meters":19200,"station_id":"","pricing_plan_id":"free"},{"bike_id":"96ebd9f7-1573-4309-a677-41465e945ed9","system_id":"levelo_inurba_marseille","lat":43.28466,"lon":5.35886,"is_reserved":false,"is_disabled":false,"rental_uris":{"android":"levelo://app?vid=96ebd9f7-1573-4309-a677-41465e945ed9","ios":"levelo://app?vid=96ebd9f7-1573-4309-a677-41465e945ed9"},"vehicle_type_id":"4","last_reported":1696954149,"current_range_meters":22400,"station_id":"ce4bhah2rcd13ifvqei0","pricing_plan_id":"free"},{"bike_id":"20dabc70-917d-4f2e-b8d5-2342dd6acd52","system_id":"levelo_inurba_marseille","lat":43.284534,"lon":5.358662,"is_reserved":false,"is_disabled":false,"rental_uris":{"android":"levelo://app?vid=20dabc70-917d-4f2e-b8d5-2342dd6acd52","ios":"levelo://app?vid=20dabc70-917d-4f2e-b8d5-2342dd6acd52"},"vehicle_type_id":"4","last_reported":1696954149,"current_range_meters":26800,"station_id":"ce4bhah2rcd13ifvqei0","pricing_plan_id":"free"},{"bike_id":"ab8abb7f-c7ab-4a7c-bd36-10eccd8a515d","system_id":"levelo_inurba_marseille","lat":43.31621,"lon":5.40613,"is_reserved":false,"is_disabled":false,"rental_uris":{"android":"levelo://app?vid=ab8abb7f-c7ab-4a7c-bd36-10eccd8a515d","ios":"levelo://app?vid=ab8abb7f-c7ab-4a7c-bd36-10eccd8a515d"},"vehicle_type_id":"4","last_reported":1696954149,"current_range_meters":15600,"station_id":"","pricing_plan_id":"free"},{"bike_id":"ef595ded-539a-4ea3-b651-ca820330c4a9","system_id":"levelo_inurba_marseille","lat":43.284604,"lon":5.3589,"is_reserved":false,"is_disabled":false,"rental_uris":{"android":"levelo://app?vid=ef595ded-539a-4ea3-b651-ca820330c4a9","ios":"levelo://app?vid=ef595ded-539a-4ea3-b651-ca820330c4a9"},"vehicle_type_id":"4","last_reported":1696954149,"current_range_meters":0,"station_id":"ce4bhah2rcd13ifvqei0","pricing_plan_id":"free"},{"bike_id":"bbd80b51-93b2-4481-9260-2b04d30027ae","system_id":"levelo_inurba_marseille","lat":43.286163,"lon":5.351121,"is_reserved":false,"is_disabled":false,"rental_uris":{"android":"levelo://app?vid=bbd80b51-93b2-4481-9260-2b04d30027ae","ios":"levelo://app?vid=bbd80b51-93b2-4481-9260-2b04d30027ae"},"vehicle_type_id":"4","last_reported":1696954149,"current_range_meters":4000,"station_id":"","pricing_plan_id":"free"},{"bike_id":"494c8af3-8e07-46aa-9f8a-60d77ed9c900","system_id":"levelo_inurba_marseille","lat":43.286167,"lon":5.351026,"is_reserved":false,"is_disabled":false,"rental_uris":{"android":"levelo://app?vid=494c8af3-8e07-46aa-9f8a-60d77ed9c900","ios":"levelo://app?vid=494c8af3-8e07-46aa-9f8a-60d77ed9c900"},"vehicle_type_id":"4","last_reported":1696954149,"current_range_meters":12000,"station_id":"","pricing_plan_id":"free"},{"bike_id":"6b735d37-82b9-4574-b0d5-a1df8aac59ff","system_id":"levelo_inurba_marseille","lat":43.286152,"lon":5.351072,"is_reserved":false,"is_disabled":false,"rental_uris":{"android":"levelo://app?vid=6b735d37-82b9-4574-b0d5-a1df8aac59ff","ios":"levelo://app?vid=6b735d37-82b9-4574-b0d5-a1df8aac59ff"},"vehicle_type_id":"4","last_reported":1696954149,"current_range_meters":30800,"station_id":"","pricing_plan_id":"free"},{"bike_id":"86dcd223-4005-49e3-952f-282ab6153631","system_id":"levelo_inurba_marseille","lat":43.286157,"lon":5.351048,"is_reserved":false,"is_disabled":false,"rental_uris":{"android":"levelo://app?vid=86dcd223-4005-49e3-952f-282ab6153631","ios":"levelo://app?vid=86dcd223-4005-49e3-952f-282ab6153631"},"vehicle_type_id":"4","last_reported":1696954149,"current_range_meters":24000,"station_id":"","pricing_plan_id":"free"},{"bike_id":"3f8eaedf-8593-411c-9a94-1e7af32abe59","system_id":"levelo_inurba_marseille","lat":43.28613,"lon":5.35096,"is_reserved":false,"is_disabled":false,"rental_uris":{"android":"levelo://app?vid=3f8eaedf-8593-411c-9a94-1e7af32abe59","ios":"levelo://app?vid=3f8eaedf-8593-411c-9a94-1e7af32abe59"},"vehicle_type_id":"4","last_reported":1696954149,"current_range_meters":31200,"station_id":"ce4bhch2rcd13ifvqeug","pricing_plan_id":"free"},{"bike_id":"8b3fd766-771f-404d-a216-2f17d246932a","system_id":"levelo_inurba_marseille","lat":43.33894,"lon":5.38459,"is_reserved":false,"is_disabled":false,"rental_uris":{"android":"levelo://app?vid=8b3fd766-771f-404d-a216-2f17d246932a","ios":"levelo://app?vid=8b3fd766-771f-404d-a216-2f17d246932a"},"vehicle_type_id":"4","last_reported":1696954149,"current_range_meters":8000,"station_id":"","pricing_plan_id":"free"},{"bike_id":"a851df1c-9cb4-47da-91c4-59959e2a6e96","system_id":"levelo_inurba_marseille","lat":43.295798,"lon":5.399691,"is_reserved":false,"is_disabled":false,"rental_uris":{"android":"levelo://app?vid=a851df1c-9cb4-47da-91c4-59959e2a6e96","ios":"levelo://app?vid=a851df1c-9cb4-47da-91c4-59959e2a6e96"},"vehicle_type_id":"4","last_reported":1696954149,"current_range_meters":16400,"station_id":"","pricing_plan_id":"free"},{"bike_id":"9711d633-e3f0-430d-b868-56abb2f9ba45","system_id":"levelo_inurba_marseille","lat":43.29566,"lon":5.39964,"is_reserved":false,"is_disabled":false,"rental_uris":{"android":"levelo://app?vid=9711d633-e3f0-430d-b868-56abb2f9ba45","ios":"levelo://app?vid=9711d633-e3f0-430d-b868-56abb2f9ba45"},"vehicle_type_id":"4","last_reported":1696954149,"current_range_meters":29200,"station_id":"ce4bh312rcd13ifvqdj0","pricing_plan_id":"free"},{"bike_id":"691064c3-61cd-4e50-b1f2-c9114afd2b08","system_id":"levelo_inurba_marseille","lat":43.332485,"lon":5.3982,"is_reserved":false,"is_disabled":false,"rental_uris":{"android":"levelo://app?vid=691064c3-61cd-4e50-b1f2-c9114afd2b08","ios":"levelo://app?vid=691064c3-61cd-4e50-b1f2-c9114afd2b08"},"vehicle_type_id":"4","last_reported":1696954149,"current_range_meters":23200,"station_id":"","pricing_plan_id":"free"},{"bike_id":"979e170d-e599-485b-b52a-f222ae6d8c72","system_id":"levelo_inurba_marseille","lat":43.33739,"lon":5.39102,"is_reserved":false,"is_disabled":false,"rental_uris":{"android":"levelo://app?vid=979e170d-e599-485b-b52a-f222ae6d8c72","ios":"levelo://app?vid=979e170d-e599-485b-b52a-f222ae6d8c72"},"vehicle_type_id":"4","last_reported":1696954149,"current_range_meters":5600,"station_id":"","pricing_plan_id":"free"},{"bike_id":"ddc68901-2e09-491d-9c65-02a5b5ee46c5","system_id":"levelo_inurba_marseille","lat":43.285016,"lon":5.38443,"is_reserved":false,"is_disabled":false,"rental_uris":{"android":"levelo://app?vid=ddc68901-2e09-491d-9c65-02a5b5ee46c5","ios":"levelo://app?vid=ddc68901-2e09-491d-9c65-02a5b5ee46c5"},"vehicle_type_id":"4","last_reported":1696954149,"current_range_meters":14400,"station_id":"ce4bh512rcd13ifvqe3g","pricing_plan_id":"free"},{"bike_id":"13385f06-76cf-4a37-a515-306eeb12ce99","system_id":"levelo_inurba_marseille","lat":43.309589,"lon":5.390258,"is_reserved":false,"is_disabled":false,"rental_uris":{"android":"levelo://app?vid=13385f06-76cf-4a37-a515-306eeb12ce99","ios":"levelo://app?vid=13385f06-76cf-4a37-a515-306eeb12ce99"},"vehicle_type_id":"4","last_reported":1696954149,"current_range_meters":9600,"station_id":"ce4bgup2rcd13ifvqco0","pricing_plan_id":"free"},{"bike_id":"7b4aa130-1b74-42ca-8404-3fc83189795e","system_id":"levelo_inurba_marseille","lat":43.28486,"lon":5.38436,"is_reserved":false,"is_disabled":false,"rental_uris":{"android":"levelo://app?vid=7b4aa130-1b74-42ca-8404-3fc83189795e","ios":"levelo://app?vid=7b4aa130-1b74-42ca-8404-3fc83189795e"},"vehicle_type_id":"4","last_reported":1696954149,"current_range_meters":30000,"station_id":"ce4bh512rcd13ifvqe3g","pricing_plan_id":"free"},{"bike_id":"4bd3312b-c136-47d8-8ab5-7d8d35a9eed9","system_id":"levelo_inurba_marseille","lat":43.32366,"lon":5.40634,"is_reserved":false,"is_disabled":false,"rental_uris":{"android":"levelo://app?vid=4bd3312b-c136-47d8-8ab5-7d8d35a9eed9","ios":"levelo://app?vid=4bd3312b-c136-47d8-8ab5-7d8d35a9eed9"},"vehicle_type_id":"4","last_reported":1696954149,"current_range_meters":28400,"station_id":"ce4bhq92rcd13ifvqhjg","pricing_plan_id":"free"},{"bike_id":"41a944c5-3446-49be-ae89-62ef858b8086","system_id":"levelo_inurba_marseille","lat":43.288497,"lon":5.393089,"is_reserved":false,"is_disabled":false,"rental_uris":{"android":"levelo://app?vid=41a944c5-3446-49be-ae89-62ef858b8086","ios":"levelo://app?vid=41a944c5-3446-49be-ae89-62ef858b8086"},"vehicle_type_id":"4","last_reported":1696954149,"current_range_meters":17600,"station_id":"ce4bh2p2rcd13ifvqdi0","pricing_plan_id":"free"},{"bike_id":"c84afc24-e428-4bd9-bffc-76d0802cec69","system_id":"levelo_inurba_marseille","lat":43.32536,"lon":5.40567,"is_reserved":false,"is_disabled":false,"rental_uris":{"android":"levelo://app?vid=c84afc24-e428-4bd9-bffc-76d0802cec69","ios":"levelo://app?vid=c84afc24-e428-4bd9-bffc-76d0802cec69"},"vehicle_type_id":"4","last_reported":1696954149,"current_range_meters":0,"station_id":"","pricing_plan_id":"free"},{"bike_id":"de29160b-ed41-4165-9a89-9fec45c33399","system_id":"levelo_inurba_marseille","lat":43.28426,"lon":5.34984,"is_reserved":false,"is_disabled":false,"rental_uris":{"android":"levelo://app?vid=de29160b-ed41-4165-9a89-9fec45c33399","ios":"levelo://app?vid=de29160b-ed41-4165-9a89-9fec45c33399"},"vehicle_type_id":"4","last_reported":1696954149,"current_range_meters":0,"station_id":"ce4bhbh2rcd13ifvqepg","pricing_plan_id":"free"},{"bike_id":"f28f02a8-240a-4f62-86ef-03cf650a8693","system_id":"levelo_inurba_marseille","lat":43.265714,"lon":5.372891,"is_reserved":false,"is_disabled":false,"rental_uris":{"android":"levelo://app?vid=f28f02a8-240a-4f62-86ef-03cf650a8693","ios":"levelo://app?vid=f28f02a8-240a-4f62-86ef-03cf650a8693"},"vehicle_type_id":"4","last_reported":1696954149,"current_range_meters":0,"station_id":"ce4bhg12rcd13ifvqf70","pricing_plan_id":"free"},{"bike_id":"eb028789-5112-4418-bf32-c34e8611be70","system_id":"levelo_inurba_marseille","lat":43.289363,"lon":5.396322,"is_reserved":false,"is_disabled":false,"rental_uris":{"android":"levelo://app?vid=eb028789-5112-4418-bf32-c34e8611be70","ios":"levelo://app?vid=eb028789-5112-4418-bf32-c34e8611be70"},"vehicle_type_id":"4","last_reported":1696954149,"current_range_meters":27200,"station_id":"ce4bh3h2rcd13ifvqdn0","pricing_plan_id":"free"},{"bike_id":"469ff509-6ffd-41fa-82ab-84cf09a851c1","system_id":"levelo_inurba_marseille","lat":43.292724,"lon":5.401131,"is_reserved":false,"is_disabled":false,"rental_uris":{"android":"levelo://app?vid=469ff509-6ffd-41fa-82ab-84cf09a851c1","ios":"levelo://app?vid=469ff509-6ffd-41fa-82ab-84cf09a851c1"},"vehicle_type_id":"4","last_reported":1696954149,"current_range_meters":0,"station_id":"ce4bh312rcd13ifvqdk0","pricing_plan_id":"free"},{"bike_id":"cab5f142-b288-4e40-b3ab-1487819f0b75","system_id":"levelo_inurba_marseille","lat":43.282754,"lon":5.350519,"is_reserved":false,"is_disabled":false,"rental_uris":{"android":"levelo://app?vid=cab5f142-b288-4e40-b3ab-1487819f0b75","ios":"levelo://app?vid=cab5f142-b288-4e40-b3ab-1487819f0b75"},"vehicle_type_id":"4","last_reported":1696954149,"current_range_meters":29200,"station_id":"ce4bhbp2rcd13ifvqerg","pricing_plan_id":"free"},{"bike_id":"16d00c78-1d92-41e0-b6c6-043c321c6557","system_id":"levelo_inurba_marseille","lat":43.283502,"lon":5.386471,"is_reserved":false,"is_disabled":false,"rental_uris":{"android":"levelo://app?vid=16d00c78-1d92-41e0-b6c6-043c321c6557","ios":"levelo://app?vid=16d00c78-1d92-41e0-b6c6-043c321c6557"},"vehicle_type_id":"4","last_reported":1696954149,"current_range_meters":13200,"station_id":"ce4bh492rcd13ifvqdvg","pricing_plan_id":"free"},{"bike_id":"01d3ee69-cd50-44db-bfe9-11d804a04086","system_id":"levelo_inurba_marseille","lat":43.312347,"lon":5.411453,"is_reserved":false,"is_disabled":false,"rental_uris":{"android":"levelo://app?vid=01d3ee69-cd50-44db-bfe9-11d804a04086","ios":"levelo://app?vid=01d3ee69-cd50-44db-bfe9-11d804a04086"},"vehicle_type_id":"4","last_reported":1696954149,"current_range_meters":0,"station_id":"","pricing_plan_id":"free"},{"bike_id":"d9375a4d-af2f-4516-a1ef-50d9b16b30bc","system_id":"levelo_inurba_marseille","lat":43.282592,"lon":5.350565,"is_reserved":false,"is_disabled":false,"rental_uris":{"android":"levelo://app?vid=d9375a4d-af2f-4516-a1ef-50d9b16b30bc","ios":"levelo://app?vid=d9375a4d-af2f-4516-a1ef-50d9b16b30bc"},"vehicle_type_id":"4","last_reported":1696954149,"current_range_meters":4400,"station_id":"ce4bhbp2rcd13ifvqerg","pricing_plan_id":"free"},{"bike_id":"2168f134-73a4-478e-80c9-d0d53e99af4e","system_id":"levelo_inurba_marseille","lat":43.32382,"lon":5.40902,"is_reserved":false,"is_disabled":false,"rental_uris":{"android":"levelo://app?vid=2168f134-73a4-478e-80c9-d0d53e99af4e","ios":"levelo://app?vid=2168f134-73a4-478e-80c9-d0d53e99af4e"},"vehicle_type_id":"4","last_reported":1696954149,"current_range_meters":0,"station_id":"","pricing_plan_id":"free"},{"bike_id":"020c59e6-ea56-4976-9842-0352b6c2e605","system_id":"levelo_inurba_marseille","lat":43.281044,"lon":5.378308,"is_reserved":false,"is_disabled":false,"rental_uris":{"android":"levelo://app?vid=020c59e6-ea56-4976-9842-0352b6c2e605","ios":"levelo://app?vid=020c59e6-ea56-4976-9842-0352b6c2e605"},"vehicle_type_id":"4","last_reported":1696954149,"current_range_meters":24400,"station_id":"ce4bha12rcd13ifvqee0","pricing_plan_id":"free"},{"bike_id":"1165a81c-07ba-4de4-92fd-2e6656b5161b","system_id":"levelo_inurba_marseille","lat":43.304188,"lon":5.412904,"is_reserved":false,"is_disabled":false,"rental_uris":{"android":"levelo://app?vid=1165a81c-07ba-4de4-92fd-2e6656b5161b","ios":"levelo://app?vid=1165a81c-07ba-4de4-92fd-2e6656b5161b"},"vehicle_type_id":"4","last_reported":1696954149,"current_range_meters":14400,"station_id":"ce4bhop2rcd13ifvqh8g","pricing_plan_id":"free"},{"bike_id":"4d864564-e985-4a5f-bd2d-ae15571ca1ee","system_id":"levelo_inurba_marseille","lat":43.34357,"lon":5.38363,"is_reserved":false,"is_disabled":false,"rental_uris":{"android":"levelo://app?vid=4d864564-e985-4a5f-bd2d-ae15571ca1ee","ios":"levelo://app?vid=4d864564-e985-4a5f-bd2d-ae15571ca1ee"},"vehicle_type_id":"4","last_reported":1696954149,"current_range_meters":16400,"station_id":"","pricing_plan_id":"free"},{"bike_id":"0ce76b8b-2e00-4992-b3b5-72420cb4b006","system_id":"levelo_inurba_marseille","lat":43.32658,"lon":5.40955,"is_reserved":false,"is_disabled":false,"rental_uris":{"android":"levelo://app?vid=0ce76b8b-2e00-4992-b3b5-72420cb4b006","ios":"levelo://app?vid=0ce76b8b-2e00-4992-b3b5-72420cb4b006"},"vehicle_type_id":"4","last_reported":1696954149,"current_range_meters":0,"station_id":"ce4bhpp2rcd13ifvqhgg","pricing_plan_id":"free"},{"bike_id":"14b61463-b7c2-4629-97d6-bf0f47b738bb","system_id":"levelo_inurba_marseille","lat":43.281457,"lon":5.38532,"is_reserved":false,"is_disabled":false,"rental_uris":{"android":"levelo://app?vid=14b61463-b7c2-4629-97d6-bf0f47b738bb","ios":"levelo://app?vid=14b61463-b7c2-4629-97d6-bf0f47b738bb"},"vehicle_type_id":"4","last_reported":1696954149,"current_range_meters":1200,"station_id":"","pricing_plan_id":"free"},{"bike_id":"0ed0ad5a-81f8-4d54-b57a-fefabaad1f9e","system_id":"levelo_inurba_marseille","lat":43.34632,"lon":5.37617,"is_reserved":false,"is_disabled":false,"rental_uris":{"android":"levelo://app?vid=0ed0ad5a-81f8-4d54-b57a-fefabaad1f9e","ios":"levelo://app?vid=0ed0ad5a-81f8-4d54-b57a-fefabaad1f9e"},"vehicle_type_id":"4","last_reported":1696954149,"current_range_meters":11200,"station_id":"","pricing_plan_id":"free"},{"bike_id":"fbe84689-e4ad-43d0-b5eb-93ddc61c0d75","system_id":"levelo_inurba_marseille","lat":43.32669,"lon":5.41071,"is_reserved":false,"is_disabled":false,"rental_uris":{"android":"levelo://app?vid=fbe84689-e4ad-43d0-b5eb-93ddc61c0d75","ios":"levelo://app?vid=fbe84689-e4ad-43d0-b5eb-93ddc61c0d75"},"vehicle_type_id":"4","last_reported":1696954149,"current_range_meters":25600,"station_id":"","pricing_plan_id":"free"},{"bike_id":"1d15d7e1-3b52-44e5-916e-55df05e050ae","system_id":"levelo_inurba_marseille","lat":43.279087,"lon":5.380114,"is_reserved":false,"is_disabled":false,"rental_uris":{"android":"levelo://app?vid=1d15d7e1-3b52-44e5-916e-55df05e050ae","ios":"levelo://app?vid=1d15d7e1-3b52-44e5-916e-55df05e050ae"},"vehicle_type_id":"4","last_reported":1696954149,"current_range_meters":1200,"station_id":"ce4bhf92rcd13ifvqf50","pricing_plan_id":"free"},{"bike_id":"69cb4574-9668-4f7f-b899-4229f1f52c09","system_id":"levelo_inurba_marseille","lat":43.287154,"lon":5.399979,"is_reserved":false,"is_disabled":false,"rental_uris":{"android":"levelo://app?vid=69cb4574-9668-4f7f-b899-4229f1f52c09","ios":"levelo://app?vid=69cb4574-9668-4f7f-b899-4229f1f52c09"},"vehicle_type_id":"4","last_reported":1696954149,"current_range_meters":30800,"station_id":"ce4bho92rcd13ifvqh3g","pricing_plan_id":"free"},{"bike_id":"cd090b16-ac60-4ca2-a2a8-29d13a00441b","system_id":"levelo_inurba_marseille","lat":43.2788,"lon":5.38175,"is_reserved":false,"is_disabled":false,"rental_uris":{"android":"levelo://app?vid=cd090b16-ac60-4ca2-a2a8-29d13a00441b","ios":"levelo://app?vid=cd090b16-ac60-4ca2-a2a8-29d13a00441b"},"vehicle_type_id":"4","last_reported":1696954149,"current_range_meters":0,"station_id":"ce4bha12rcd13ifvqee0","pricing_plan_id":"free"},{"bike_id":"5b276282-9734-4b1e-b568-ea419108e192","system_id":"levelo_inurba_marseille","lat":43.292571,"lon":5.409107,"is_reserved":false,"is_disabled":false,"rental_uris":{"android":"levelo://app?vid=5b276282-9734-4b1e-b568-ea419108e192","ios":"levelo://app?vid=5b276282-9734-4b1e-b568-ea419108e192"},"vehicle_type_id":"4","last_reported":1696954149,"current_range_meters":24800,"station_id":"ce4bh192rcd13ifvqdc0","pricing_plan_id":"free"},{"bike_id":"1e1c8c9c-a20d-4700-bdbb-13e62b643de5","system_id":"levelo_inurba_marseille","lat":43.276192,"lon":5.361049,"is_reserved":false,"is_disabled":false,"rental_uris":{"android":"levelo://app?vid=1e1c8c9c-a20d-4700-bdbb-13e62b643de5","ios":"levelo://app?vid=1e1c8c9c-a20d-4700-bdbb-13e62b643de5"},"vehicle_type_id":"4","last_reported":1696954149,"current_range_meters":27600,"station_id":"ce4bgj92rcd13ifvqbe0","pricing_plan_id":"free"},{"bike_id":"dfcc5f7c-105e-49a1-a0a4-e34f4f91f2a4","system_id":"levelo_inurba_marseille","lat":43.276172,"lon":5.361017,"is_reserved":false,"is_disabled":false,"rental_uris":{"android":"levelo://app?vid=dfcc5f7c-105e-49a1-a0a4-e34f4f91f2a4","ios":"levelo://app?vid=dfcc5f7c-105e-49a1-a0a4-e34f4f91f2a4"},"vehicle_type_id":"4","last_reported":1696954149,"current_range_meters":27200,"station_id":"","pricing_plan_id":"free"},{"bike_id":"9545ca84-38e6-456e-ad00-ecd14a1e433f","system_id":"levelo_inurba_marseille","lat":43.276138,"lon":5.361016,"is_reserved":false,"is_disabled":false,"rental_uris":{"android":"levelo://app?vid=9545ca84-38e6-456e-ad00-ecd14a1e433f","ios":"levelo://app?vid=9545ca84-38e6-456e-ad00-ecd14a1e433f"},"vehicle_type_id":"4","last_reported":1696954149,"current_range_meters":30800,"station_id":"","pricing_plan_id":"free"},{"bike_id":"eacafb46-ec42-454d-b535-57affb872ac9","system_id":"levelo_inurba_marseille","lat":43.276095,"lon":5.360954,"is_reserved":false,"is_disabled":false,"rental_uris":{"android":"levelo://app?vid=eacafb46-ec42-454d-b535-57affb872ac9","ios":"levelo://app?vid=eacafb46-ec42-454d-b535-57affb872ac9"},"vehicle_type_id":"4","last_reported":1696954149,"current_range_meters":30400,"station_id":"","pricing_plan_id":"free"},{"bike_id":"3fe56494-78d3-41b7-819b-4f29a0a0d1b8","system_id":"levelo_inurba_marseille","lat":43.27672,"lon":5.38009,"is_reserved":false,"is_disabled":false,"rental_uris":{"android":"levelo://app?vid=3fe56494-78d3-41b7-819b-4f29a0a0d1b8","ios":"levelo://app?vid=3fe56494-78d3-41b7-819b-4f29a0a0d1b8"},"vehicle_type_id":"4","last_reported":1696954149,"current_range_meters":24000,"station_id":"","pricing_plan_id":"free"},{"bike_id":"b32362f8-ecfe-48b8-9dc1-8c76c1d99667","system_id":"levelo_inurba_marseille","lat":43.278343,"lon":5.38961,"is_reserved":false,"is_disabled":false,"rental_uris":{"android":"levelo://app?vid=b32362f8-ecfe-48b8-9dc1-8c76c1d99667","ios":"levelo://app?vid=b32362f8-ecfe-48b8-9dc1-8c76c1d99667"},"vehicle_type_id":"4","last_reported":1696954149,"current_range_meters":0,"station_id":"","pricing_plan_id":"free"},{"bike_id":"fd3a44e9-0097-4994-9781-ac2c8451a090","system_id":"levelo_inurba_marseille","lat":43.275625,"lon":5.384392,"is_reserved":false,"is_disabled":false,"rental_uris":{"android":"levelo://app?vid=fd3a44e9-0097-4994-9781-ac2c8451a090","ios":"levelo://app?vid=fd3a44e9-0097-4994-9781-ac2c8451a090"},"vehicle_type_id":"4","last_reported":1696954149,"current_range_meters":23600,"station_id":"ce4bhh92rcd13ifvqfi0","pricing_plan_id":"free"},{"bike_id":"925cc8e4-50cb-44ca-a7b1-6b9e9e6adbba","system_id":"levelo_inurba_marseille","lat":43.27375,"lon":5.3624,"is_reserved":false,"is_disabled":false,"rental_uris":{"android":"levelo://app?vid=925cc8e4-50cb-44ca-a7b1-6b9e9e6adbba","ios":"levelo://app?vid=925cc8e4-50cb-44ca-a7b1-6b9e9e6adbba"},"vehicle_type_id":"4","last_reported":1696954149,"current_range_meters":28800,"station_id":"ce4bhbh2rcd13ifvqeo0","pricing_plan_id":"free"},{"bike_id":"00e523d3-9891-4518-8f9e-26f51605e3c8","system_id":"levelo_inurba_marseille","lat":43.275625,"lon":5.384392,"is_reserved":false,"is_disabled":false,"rental_uris":{"android":"levelo://app?vid=00e523d3-9891-4518-8f9e-26f51605e3c8","ios":"levelo://app?vid=00e523d3-9891-4518-8f9e-26f51605e3c8"},"vehicle_type_id":"4","last_reported":1696954149,"current_range_meters":19200,"station_id":"ce4bhh92rcd13ifvqfi0","pricing_plan_id":"free"},{"bike_id":"8b5fc64e-58c6-4c02-9f32-b04222fbd329","system_id":"levelo_inurba_marseille","lat":43.283343,"lon":5.402554,"is_reserved":false,"is_disabled":false,"rental_uris":{"android":"levelo://app?vid=8b5fc64e-58c6-4c02-9f32-b04222fbd329","ios":"levelo://app?vid=8b5fc64e-58c6-4c02-9f32-b04222fbd329"},"vehicle_type_id":"4","last_reported":1696954149,"current_range_meters":13600,"station_id":"","pricing_plan_id":"free"},{"bike_id":"70cfd93b-531b-4296-96c2-994448fbee2e","system_id":"levelo_inurba_marseille","lat":43.276293,"lon":5.390934,"is_reserved":false,"is_disabled":false,"rental_uris":{"android":"levelo://app?vid=70cfd93b-531b-4296-96c2-994448fbee2e","ios":"levelo://app?vid=70cfd93b-531b-4296-96c2-994448fbee2e"},"vehicle_type_id":"4","last_reported":1696954149,"current_range_meters":0,"station_id":"","pricing_plan_id":"free"},{"bike_id":"cb4d521e-d111-4485-9167-ca8bd10895ec","system_id":"levelo_inurba_marseille","lat":43.317348,"lon":5.423831,"is_reserved":false,"is_disabled":false,"rental_uris":{"android":"levelo://app?vid=cb4d521e-d111-4485-9167-ca8bd10895ec","ios":"levelo://app?vid=cb4d521e-d111-4485-9167-ca8bd10895ec"},"vehicle_type_id":"4","last_reported":1696954149,"current_range_meters":30800,"station_id":"","pricing_plan_id":"free"},{"bike_id":"61544d6a-7323-447a-a081-e411b262973a","system_id":"levelo_inurba_marseille","lat":43.317181,"lon":5.424014,"is_reserved":false,"is_disabled":false,"rental_uris":{"android":"levelo://app?vid=61544d6a-7323-447a-a081-e411b262973a","ios":"levelo://app?vid=61544d6a-7323-447a-a081-e411b262973a"},"vehicle_type_id":"4","last_reported":1696954149,"current_range_meters":18400,"station_id":"ce4bhp92rcd13ifvqhbg","pricing_plan_id":"free"},{"bike_id":"bfd4646e-79e7-493e-b667-a92c4096c604","system_id":"levelo_inurba_marseille","lat":43.2732,"lon":5.39092,"is_reserved":false,"is_disabled":false,"rental_uris":{"android":"levelo://app?vid=bfd4646e-79e7-493e-b667-a92c4096c604","ios":"levelo://app?vid=bfd4646e-79e7-493e-b667-a92c4096c604"},"vehicle_type_id":"4","last_reported":1696954149,"current_range_meters":28000,"station_id":"ce4bhgp2rcd13ifvqfe0","pricing_plan_id":"free"},{"bike_id":"d3c88eb6-a2f1-499b-8b7d-7f57d1eba6c6","system_id":"levelo_inurba_marseille","lat":43.323464,"lon":5.406297,"is_reserved":false,"is_disabled":false,"rental_uris":{"android":"levelo://app?vid=d3c88eb6-a2f1-499b-8b7d-7f57d1eba6c6","ios":"levelo://app?vid=d3c88eb6-a2f1-499b-8b7d-7f57d1eba6c6"},"vehicle_type_id":"4","last_reported":1696954149,"current_range_meters":17200,"station_id":"ce4bhq92rcd13ifvqhjg","pricing_plan_id":"free"},{"bike_id":"cd9dd4a7-aa78-4918-88d1-ccde02d0fd55","system_id":"levelo_inurba_marseille","lat":43.272124,"lon":5.391768,"is_reserved":false,"is_disabled":false,"rental_uris":{"android":"levelo://app?vid=cd9dd4a7-aa78-4918-88d1-ccde02d0fd55","ios":"levelo://app?vid=cd9dd4a7-aa78-4918-88d1-ccde02d0fd55"},"vehicle_type_id":"4","last_reported":1696954149,"current_range_meters":26000,"station_id":"ce4bhhp2rcd13ifvqfm0","pricing_plan_id":"free"},{"bike_id":"d5d70dbe-f176-45ae-be72-50635d221675","system_id":"levelo_inurba_marseille","lat":43.278128,"lon":5.407195,"is_reserved":false,"is_disabled":false,"rental_uris":{"android":"levelo://app?vid=d5d70dbe-f176-45ae-be72-50635d221675","ios":"levelo://app?vid=d5d70dbe-f176-45ae-be72-50635d221675"},"vehicle_type_id":"4","last_reported":1696954149,"current_range_meters":25600,"station_id":"ce4bhnh2rcd13ifvqgtg","pricing_plan_id":"free"},{"bike_id":"39062851-b062-4ef1-a0c1-a9615129ac78","system_id":"levelo_inurba_marseille","lat":43.269467,"lon":5.386439,"is_reserved":false,"is_disabled":false,"rental_uris":{"android":"levelo://app?vid=39062851-b062-4ef1-a0c1-a9615129ac78","ios":"levelo://app?vid=39062851-b062-4ef1-a0c1-a9615129ac78"},"vehicle_type_id":"4","last_reported":1696954149,"current_range_meters":0,"station_id":"ce4bhh92rcd13ifvqfh0","pricing_plan_id":"free"},{"bike_id":"adb54670-cc9f-46aa-b90f-8fb17f357678","system_id":"levelo_inurba_marseille","lat":43.26681,"lon":5.382694,"is_reserved":false,"is_disabled":false,"rental_uris":{"android":"levelo://app?vid=adb54670-cc9f-46aa-b90f-8fb17f357678","ios":"levelo://app?vid=adb54670-cc9f-46aa-b90f-8fb17f357678"},"vehicle_type_id":"4","last_reported":1696954149,"current_range_meters":26000,"station_id":"ce4bhg92rcd13ifvqf90","pricing_plan_id":"free"},{"bike_id":"19e3997b-663c-44bb-832b-9c412cd71690","system_id":"levelo_inurba_marseille","lat":43.325818,"lon":5.429533,"is_reserved":false,"is_disabled":false,"rental_uris":{"android":"levelo://app?vid=19e3997b-663c-44bb-832b-9c412cd71690","ios":"levelo://app?vid=19e3997b-663c-44bb-832b-9c412cd71690"},"vehicle_type_id":"4","last_reported":1696954149,"current_range_meters":22400,"station_id":"","pricing_plan_id":"free"},{"bike_id":"10264151-75ac-4b6e-beb6-5b0c1fe03040","system_id":"levelo_inurba_marseille","lat":43.272124,"lon":5.391768,"is_reserved":false,"is_disabled":false,"rental_uris":{"android":"levelo://app?vid=10264151-75ac-4b6e-beb6-5b0c1fe03040","ios":"levelo://app?vid=10264151-75ac-4b6e-beb6-5b0c1fe03040"},"vehicle_type_id":"4","last_reported":1696954149,"current_range_meters":26400,"station_id":"ce4bhhp2rcd13ifvqfm0","pricing_plan_id":"free"},{"bike_id":"53f60525-c8a5-4870-8505-87c8ce4fddc0","system_id":"levelo_inurba_marseille","lat":43.279658,"lon":5.415862,"is_reserved":false,"is_disabled":false,"rental_uris":{"android":"levelo://app?vid=53f60525-c8a5-4870-8505-87c8ce4fddc0","ios":"levelo://app?vid=53f60525-c8a5-4870-8505-87c8ce4fddc0"},"vehicle_type_id":"4","last_reported":1696954149,"current_range_meters":0,"station_id":"","pricing_plan_id":"free"},{"bike_id":"a1860f3f-3279-466a-837e-112ae5be5c09","system_id":"levelo_inurba_marseille","lat":43.2799,"lon":5.41645,"is_reserved":false,"is_disabled":false,"rental_uris":{"android":"levelo://app?vid=a1860f3f-3279-466a-837e-112ae5be5c09","ios":"levelo://app?vid=a1860f3f-3279-466a-837e-112ae5be5c09"},"vehicle_type_id":"4","last_reported":1696954149,"current_range_meters":24000,"station_id":"ce4bho12rcd13ifvqh1g","pricing_plan_id":"free"},{"bike_id":"9f768aff-d661-4891-8523-d5f14615d235","system_id":"levelo_inurba_marseille","lat":43.279948,"lon":5.41661,"is_reserved":false,"is_disabled":false,"rental_uris":{"android":"levelo://app?vid=9f768aff-d661-4891-8523-d5f14615d235","ios":"levelo://app?vid=9f768aff-d661-4891-8523-d5f14615d235"},"vehicle_type_id":"4","last_reported":1696954149,"current_range_meters":6400,"station_id":"","pricing_plan_id":"free"},{"bike_id":"46110b61-1b33-49cf-b205-8f66c58aca19","system_id":"levelo_inurba_marseille","lat":43.279924,"lon":5.416808,"is_reserved":false,"is_disabled":false,"rental_uris":{"android":"levelo://app?vid=46110b61-1b33-49cf-b205-8f66c58aca19","ios":"levelo://app?vid=46110b61-1b33-49cf-b205-8f66c58aca19"},"vehicle_type_id":"4","last_reported":1696954149,"current_range_meters":0,"station_id":"","pricing_plan_id":"free"},{"bike_id":"ba767f52-a9f8-455a-a8d3-724aae526edb","system_id":"levelo_inurba_marseille","lat":43.279675,"lon":5.418185,"is_reserved":false,"is_disabled":false,"rental_uris":{"android":"levelo://app?vid=ba767f52-a9f8-455a-a8d3-724aae526edb","ios":"levelo://app?vid=ba767f52-a9f8-455a-a8d3-724aae526edb"},"vehicle_type_id":"4","last_reported":1696954149,"current_range_meters":20800,"station_id":"ce4bgh92rcd13ifvqb50","pricing_plan_id":"free"},{"bike_id":"957b6afa-8d3f-4cc7-a203-d6f9c88597da","system_id":"levelo_inurba_marseille","lat":43.265684,"lon":5.39011,"is_reserved":false,"is_disabled":false,"rental_uris":{"android":"levelo://app?vid=957b6afa-8d3f-4cc7-a203-d6f9c88597da","ios":"levelo://app?vid=957b6afa-8d3f-4cc7-a203-d6f9c88597da"},"vehicle_type_id":"4","last_reported":1696954149,"current_range_meters":21200,"station_id":"","pricing_plan_id":"free"},{"bike_id":"8d2ab8ac-9f56-4e9a-85b2-91af491f78b3","system_id":"levelo_inurba_marseille","lat":43.26559,"lon":5.39003,"is_reserved":false,"is_disabled":false,"rental_uris":{"android":"levelo://app?vid=8d2ab8ac-9f56-4e9a-85b2-91af491f78b3","ios":"levelo://app?vid=8d2ab8ac-9f56-4e9a-85b2-91af491f78b3"},"vehicle_type_id":"4","last_reported":1696954149,"current_range_meters":0,"station_id":"ce4bhe12rcd13ifvqf30","pricing_plan_id":"free"},{"bike_id":"6bd6e9f8-58bd-4a6e-bdf2-98a844756d8b","system_id":"levelo_inurba_marseille","lat":43.26946,"lon":5.40258,"is_reserved":false,"is_disabled":false,"rental_uris":{"android":"levelo://app?vid=6bd6e9f8-58bd-4a6e-bdf2-98a844756d8b","ios":"levelo://app?vid=6bd6e9f8-58bd-4a6e-bdf2-98a844756d8b"},"vehicle_type_id":"4","last_reported":1696954149,"current_range_meters":1600,"station_id":"cjm6bp8fraef2m0cb0m0","pricing_plan_id":"free"},{"bike_id":"50f62072-d58a-4919-9728-fd4f1eea21fc","system_id":"levelo_inurba_marseille","lat":43.271368,"lon":5.40928,"is_reserved":false,"is_disabled":false,"rental_uris":{"android":"levelo://app?vid=50f62072-d58a-4919-9728-fd4f1eea21fc","ios":"levelo://app?vid=50f62072-d58a-4919-9728-fd4f1eea21fc"},"vehicle_type_id":"4","last_reported":1696954149,"current_range_meters":26800,"station_id":"ce4bhl12rcd13ifvqgf0","pricing_plan_id":"free"},{"bike_id":"52c5c711-aaf4-4236-b76b-e519ba3b6141","system_id":"levelo_inurba_marseille","lat":43.31755,"lon":5.43803,"is_reserved":false,"is_disabled":false,"rental_uris":{"android":"levelo://app?vid=52c5c711-aaf4-4236-b76b-e519ba3b6141","ios":"levelo://app?vid=52c5c711-aaf4-4236-b76b-e519ba3b6141"},"vehicle_type_id":"4","last_reported":1696954149,"current_range_meters":26000,"station_id":"","pricing_plan_id":"free"},{"bike_id":"c8a3234e-c700-4888-9122-6e89314987f6","system_id":"levelo_inurba_marseille","lat":43.281586,"lon":5.426459,"is_reserved":false,"is_disabled":false,"rental_uris":{"android":"levelo://app?vid=c8a3234e-c700-4888-9122-6e89314987f6","ios":"levelo://app?vid=c8a3234e-c700-4888-9122-6e89314987f6"},"vehicle_type_id":"4","last_reported":1696954149,"current_range_meters":26400,"station_id":"","pricing_plan_id":"free"},{"bike_id":"c79e4bb5-b0ba-4db8-b0cd-85afbb3e2b8a","system_id":"levelo_inurba_marseille","lat":43.260909,"lon":5.397591,"is_reserved":false,"is_disabled":false,"rental_uris":{"android":"levelo://app?vid=c79e4bb5-b0ba-4db8-b0cd-85afbb3e2b8a","ios":"levelo://app?vid=c79e4bb5-b0ba-4db8-b0cd-85afbb3e2b8a"},"vehicle_type_id":"4","last_reported":1696954149,"current_range_meters":11600,"station_id":"ce4bhi12rcd13ifvqfq0","pricing_plan_id":"free"},{"bike_id":"62041404-1432-4212-b650-2870c9db96e9","system_id":"levelo_inurba_marseille","lat":43.27492,"lon":5.42455,"is_reserved":false,"is_disabled":false,"rental_uris":{"android":"levelo://app?vid=62041404-1432-4212-b650-2870c9db96e9","ios":"levelo://app?vid=62041404-1432-4212-b650-2870c9db96e9"},"vehicle_type_id":"4","last_reported":1696954149,"current_range_meters":0,"station_id":"","pricing_plan_id":"free"},{"bike_id":"a7dc1a70-b36e-4b7b-b4a8-5a8103509410","system_id":"levelo_inurba_marseille","lat":43.260909,"lon":5.397591,"is_reserved":false,"is_disabled":false,"rental_uris":{"android":"levelo://app?vid=a7dc1a70-b36e-4b7b-b4a8-5a8103509410","ios":"levelo://app?vid=a7dc1a70-b36e-4b7b-b4a8-5a8103509410"},"vehicle_type_id":"4","last_reported":1696954149,"current_range_meters":10800,"station_id":"ce4bhi12rcd13ifvqfq0","pricing_plan_id":"free"},{"bike_id":"b64d8e11-258d-4631-89ea-40aabd9a9864","system_id":"levelo_inurba_marseille","lat":43.258205,"lon":5.394369,"is_reserved":false,"is_disabled":false,"rental_uris":{"android":"levelo://app?vid=b64d8e11-258d-4631-89ea-40aabd9a9864","ios":"levelo://app?vid=b64d8e11-258d-4631-89ea-40aabd9a9864"},"vehicle_type_id":"4","last_reported":1696954149,"current_range_meters":6000,"station_id":"ce4bhip2rcd13ifvqft0","pricing_plan_id":"free"},{"bike_id":"c524fa05-a475-4fd1-ba07-cbdb7ad9795d","system_id":"levelo_inurba_marseille","lat":43.254945,"lon":5.376454,"is_reserved":false,"is_disabled":false,"rental_uris":{"android":"levelo://app?vid=c524fa05-a475-4fd1-ba07-cbdb7ad9795d","ios":"levelo://app?vid=c524fa05-a475-4fd1-ba07-cbdb7ad9795d"},"vehicle_type_id":"4","last_reported":1696954149,"current_range_meters":0,"station_id":"ce4bhh12rcd13ifvqff0","pricing_plan_id":"free"},{"bike_id":"be971e09-3ce4-4611-8fe3-d7b0de9eb148","system_id":"levelo_inurba_marseille","lat":43.258205,"lon":5.394369,"is_reserved":false,"is_disabled":false,"rental_uris":{"android":"levelo://app?vid=be971e09-3ce4-4611-8fe3-d7b0de9eb148","ios":"levelo://app?vid=be971e09-3ce4-4611-8fe3-d7b0de9eb148"},"vehicle_type_id":"4","last_reported":1696954149,"current_range_meters":21600,"station_id":"ce4bhip2rcd13ifvqft0","pricing_plan_id":"free"},{"bike_id":"202d6862-4810-407f-ac6c-d3b365e65e1f","system_id":"levelo_inurba_marseille","lat":43.260219,"lon":5.37546,"is_reserved":false,"is_disabled":false,"rental_uris":{"android":"levelo://app?vid=202d6862-4810-407f-ac6c-d3b365e65e1f","ios":"levelo://app?vid=202d6862-4810-407f-ac6c-d3b365e65e1f"},"vehicle_type_id":"4","last_reported":1696954149,"current_range_meters":0,"station_id":"ce4bhgh2rcd13ifvqfa0","pricing_plan_id":"free"},{"bike_id":"e03b97c1-c55a-44f9-9703-fa8ab190c8f2","system_id":"levelo_inurba_marseille","lat":43.270721,"lon":5.422764,"is_reserved":false,"is_disabled":false,"rental_uris":{"android":"levelo://app?vid=e03b97c1-c55a-44f9-9703-fa8ab190c8f2","ios":"levelo://app?vid=e03b97c1-c55a-44f9-9703-fa8ab190c8f2"},"vehicle_type_id":"4","last_reported":1696954149,"current_range_meters":3200,"station_id":"ce4bhk92rcd13ifvqgb0","pricing_plan_id":"free"},{"bike_id":"81e01bbf-b40e-4463-b07a-c1da9902b416","system_id":"levelo_inurba_marseille","lat":43.259013,"lon":5.409301,"is_reserved":false,"is_disabled":false,"rental_uris":{"android":"levelo://app?vid=81e01bbf-b40e-4463-b07a-c1da9902b416","ios":"levelo://app?vid=81e01bbf-b40e-4463-b07a-c1da9902b416"},"vehicle_type_id":"4","last_reported":1696954149,"current_range_meters":16000,"station_id":"ce4bhm92rcd13ifvqglg","pricing_plan_id":"free"},{"bike_id":"cd6f4382-f1bf-40a5-976b-98697bdcb0fb","system_id":"levelo_inurba_marseille","lat":43.270721,"lon":5.422764,"is_reserved":false,"is_disabled":false,"rental_uris":{"android":"levelo://app?vid=cd6f4382-f1bf-40a5-976b-98697bdcb0fb","ios":"levelo://app?vid=cd6f4382-f1bf-40a5-976b-98697bdcb0fb"},"vehicle_type_id":"4","last_reported":1696954149,"current_range_meters":12800,"station_id":"ce4bhk92rcd13ifvqgb0","pricing_plan_id":"free"},{"bike_id":"b56bb3f9-d17d-4652-8dc9-86b00d597cb3","system_id":"levelo_inurba_marseille","lat":43.250966,"lon":5.395186,"is_reserved":false,"is_disabled":false,"rental_uris":{"android":"levelo://app?vid=b56bb3f9-d17d-4652-8dc9-86b00d597cb3","ios":"levelo://app?vid=b56bb3f9-d17d-4652-8dc9-86b00d597cb3"},"vehicle_type_id":"4","last_reported":1696954149,"current_range_meters":30800,"station_id":"ce4bhm12rcd13ifvqgkg","pricing_plan_id":"free"},{"bike_id":"b0d2c850-ac59-42bb-a783-dede1b4e0211","system_id":"levelo_inurba_marseille","lat":43.24693,"lon":5.382096,"is_reserved":false,"is_disabled":false,"rental_uris":{"android":"levelo://app?vid=b0d2c850-ac59-42bb-a783-dede1b4e0211","ios":"levelo://app?vid=b0d2c850-ac59-42bb-a783-dede1b4e0211"},"vehicle_type_id":"4","last_reported":1696954149,"current_range_meters":3600,"station_id":"ce4bhih2rcd13ifvqfr0","pricing_plan_id":"free"},{"bike_id":"8a6eb59d-c643-4b04-af8d-dac2ee0cc41c","system_id":"levelo_inurba_marseille","lat":43.25163,"lon":5.40601,"is_reserved":false,"is_disabled":false,"rental_uris":{"android":"levelo://app?vid=8a6eb59d-c643-4b04-af8d-dac2ee0cc41c","ios":"levelo://app?vid=8a6eb59d-c643-4b04-af8d-dac2ee0cc41c"},"vehicle_type_id":"4","last_reported":1696954149,"current_range_meters":14000,"station_id":"","pricing_plan_id":"free"},{"bike_id":"081474ca-a212-48b1-9d4b-0e7febcc355f","system_id":"levelo_inurba_marseille","lat":43.245581,"lon":5.395069,"is_reserved":false,"is_disabled":false,"rental_uris":{"android":"levelo://app?vid=081474ca-a212-48b1-9d4b-0e7febcc355f","ios":"levelo://app?vid=081474ca-a212-48b1-9d4b-0e7febcc355f"},"vehicle_type_id":"4","last_reported":1696954149,"current_range_meters":0,"station_id":"ce4bhlp2rcd13ifvqgjg","pricing_plan_id":"free"},{"bike_id":"40424a7f-1a6b-458e-9b43-b8e25c5806e1","system_id":"levelo_inurba_marseille","lat":43.240687,"lon":5.377686,"is_reserved":false,"is_disabled":false,"rental_uris":{"android":"levelo://app?vid=40424a7f-1a6b-458e-9b43-b8e25c5806e1","ios":"levelo://app?vid=40424a7f-1a6b-458e-9b43-b8e25c5806e1"},"vehicle_type_id":"4","last_reported":1696954149,"current_range_meters":0,"station_id":"ce4bhnp2rcd13ifvqgvg","pricing_plan_id":"free"},{"bike_id":"ace280ad-7558-49be-a1ba-14bb616baf63","system_id":"levelo_inurba_marseille","lat":43.239588,"lon":5.366238,"is_reserved":false,"is_disabled":false,"rental_uris":{"android":"levelo://app?vid=ace280ad-7558-49be-a1ba-14bb616baf63","ios":"levelo://app?vid=ace280ad-7558-49be-a1ba-14bb616baf63"},"vehicle_type_id":"4","last_reported":1696954149,"current_range_meters":800,"station_id":"ce4bhi12rcd13ifvqfp0","pricing_plan_id":"free"},{"bike_id":"48871ce8-9abb-4df2-8cd8-4431965aa4d2","system_id":"levelo_inurba_marseille","lat":43.239647,"lon":5.366322,"is_reserved":false,"is_disabled":false,"rental_uris":{"android":"levelo://app?vid=48871ce8-9abb-4df2-8cd8-4431965aa4d2","ios":"levelo://app?vid=48871ce8-9abb-4df2-8cd8-4431965aa4d2"},"vehicle_type_id":"4","last_reported":1696954149,"current_range_meters":8400,"station_id":"","pricing_plan_id":"free"},{"bike_id":"61756bef-e065-47be-83b2-e5da0e141fb5","system_id":"levelo_inurba_marseille","lat":43.241782,"lon":5.397261,"is_reserved":false,"is_disabled":false,"rental_uris":{"android":"levelo://app?vid=61756bef-e065-47be-83b2-e5da0e141fb5","ios":"levelo://app?vid=61756bef-e065-47be-83b2-e5da0e141fb5"},"vehicle_type_id":"4","last_reported":1696954149,"current_range_meters":29200,"station_id":"ce4bhn12rcd13ifvqgpg","pricing_plan_id":"free"},{"bike_id":"fa16487e-2e30-412d-b20a-ba21612d9767","system_id":"levelo_inurba_marseille","lat":43.231988,"lon":5.355559,"is_reserved":false,"is_disabled":false,"rental_uris":{"android":"levelo://app?vid=fa16487e-2e30-412d-b20a-ba21612d9767","ios":"levelo://app?vid=fa16487e-2e30-412d-b20a-ba21612d9767"},"vehicle_type_id":"4","last_reported":1696954149,"current_range_meters":400,"station_id":"ce4bhu92rcd13ifvqi70","pricing_plan_id":"free"},{"bike_id":"9c0a0796-cd18-457d-acc0-6d95c8ab2254","system_id":"levelo_inurba_marseille","lat":43.231923,"lon":5.355545,"is_reserved":false,"is_disabled":false,"rental_uris":{"android":"levelo://app?vid=9c0a0796-cd18-457d-acc0-6d95c8ab2254","ios":"levelo://app?vid=9c0a0796-cd18-457d-acc0-6d95c8ab2254"},"vehicle_type_id":"4","last_reported":1696954149,"current_range_meters":31600,"station_id":"ce4bhu92rcd13ifvqi70","pricing_plan_id":"free"},{"bike_id":"c827ed1e-b94e-4091-a894-8c31d0387478","system_id":"levelo_inurba_marseille","lat":43.231923,"lon":5.355545,"is_reserved":false,"is_disabled":false,"rental_uris":{"android":"levelo://app?vid=c827ed1e-b94e-4091-a894-8c31d0387478","ios":"levelo://app?vid=c827ed1e-b94e-4091-a894-8c31d0387478"},"vehicle_type_id":"4","last_reported":1696954149,"current_range_meters":30800,"station_id":"ce4bhu92rcd13ifvqi70","pricing_plan_id":"free"},{"bike_id":"578fa459-f824-4034-9b82-1cc6a169924a","system_id":"levelo_inurba_marseille","lat":43.231919,"lon":5.355532,"is_reserved":false,"is_disabled":false,"rental_uris":{"android":"levelo://app?vid=578fa459-f824-4034-9b82-1cc6a169924a","ios":"levelo://app?vid=578fa459-f824-4034-9b82-1cc6a169924a"},"vehicle_type_id":"4","last_reported":1696954149,"current_range_meters":31200,"station_id":"ce4bhu92rcd13ifvqi70","pricing_plan_id":"free"},{"bike_id":"88869351-9eb7-4fb8-adc5-1273b605519a","system_id":"levelo_inurba_marseille","lat":43.231923,"lon":5.355545,"is_reserved":false,"is_disabled":false,"rental_uris":{"android":"levelo://app?vid=88869351-9eb7-4fb8-adc5-1273b605519a","ios":"levelo://app?vid=88869351-9eb7-4fb8-adc5-1273b605519a"},"vehicle_type_id":"4","last_reported":1696954149,"current_range_meters":19600,"station_id":"ce4bhu92rcd13ifvqi70","pricing_plan_id":"free"},{"bike_id":"f5d57fae-aa58-428e-a13b-98ac2626cd2e","system_id":"levelo_inurba_marseille","lat":43.231919,"lon":5.355532,"is_reserved":false,"is_disabled":false,"rental_uris":{"android":"levelo://app?vid=f5d57fae-aa58-428e-a13b-98ac2626cd2e","ios":"levelo://app?vid=f5d57fae-aa58-428e-a13b-98ac2626cd2e"},"vehicle_type_id":"4","last_reported":1696954149,"current_range_meters":12800,"station_id":"ce4bhu92rcd13ifvqi70","pricing_plan_id":"free"},{"bike_id":"d8d8fc8a-2007-4c59-9369-be5ade6889f8","system_id":"levelo_inurba_marseille","lat":43.231944,"lon":5.355535,"is_reserved":false,"is_disabled":false,"rental_uris":{"android":"levelo://app?vid=d8d8fc8a-2007-4c59-9369-be5ade6889f8","ios":"levelo://app?vid=d8d8fc8a-2007-4c59-9369-be5ade6889f8"},"vehicle_type_id":"4","last_reported":1696954149,"current_range_meters":16000,"station_id":"ce4bhu92rcd13ifvqi70","pricing_plan_id":"free"},{"bike_id":"e35f4aa0-6488-4337-b605-d4d0f9756b74","system_id":"levelo_inurba_marseille","lat":43.23192,"lon":5.35547,"is_reserved":false,"is_disabled":false,"rental_uris":{"android":"levelo://app?vid=e35f4aa0-6488-4337-b605-d4d0f9756b74","ios":"levelo://app?vid=e35f4aa0-6488-4337-b605-d4d0f9756b74"},"vehicle_type_id":"4","last_reported":1696954149,"current_range_meters":15600,"station_id":"ce4bhu92rcd13ifvqi70","pricing_plan_id":"free"},{"bike_id":"b2686103-e85a-4c5a-93df-1adf86734520","system_id":"levelo_inurba_marseille","lat":43.231793,"lon":5.400044,"is_reserved":false,"is_disabled":false,"rental_uris":{"android":"levelo://app?vid=b2686103-e85a-4c5a-93df-1adf86734520","ios":"levelo://app?vid=b2686103-e85a-4c5a-93df-1adf86734520"},"vehicle_type_id":"4","last_reported":1696954149,"current_range_meters":12000,"station_id":"ce4bhn12rcd13ifvqgqg","pricing_plan_id":"free"},{"bike_id":"e3f6efcb-1eb5-436b-8ea5-7ffbf5d70638","system_id":"levelo_inurba_marseille","lat":43.231793,"lon":5.400044,"is_reserved":false,"is_disabled":false,"rental_uris":{"android":"levelo://app?vid=e3f6efcb-1eb5-436b-8ea5-7ffbf5d70638","ios":"levelo://app?vid=e3f6efcb-1eb5-436b-8ea5-7ffbf5d70638"},"vehicle_type_id":"4","last_reported":1696954149,"current_range_meters":4800,"station_id":"ce4bhn12rcd13ifvqgqg","pricing_plan_id":"free"},{"bike_id":"ff51c944-7c46-4a9b-a101-ad62f07f506a","system_id":"levelo_inurba_marseille","lat":43.231793,"lon":5.400044,"is_reserved":false,"is_disabled":false,"rental_uris":{"android":"levelo://app?vid=ff51c944-7c46-4a9b-a101-ad62f07f506a","ios":"levelo://app?vid=ff51c944-7c46-4a9b-a101-ad62f07f506a"},"vehicle_type_id":"4","last_reported":1696954149,"current_range_meters":22800,"station_id":"ce4bhn12rcd13ifvqgqg","pricing_plan_id":"free"}]}}