{"last_updated":1762423975,"ttl":60,"version":"2.2","data":{"bikes":[{"bike_id":"9c46a9f5-39cb-461a-ac28-286dc216524b","system_id":"levelo_inurba_marseille","lat":43.337444,"lon":5.374475,"is_reserved":false,"is_disabled":false,"rental_uris":{"android":"levelo://app?vid=9c46a9f5-39cb-461a-ac28-286dc216524b","ios":"levelo://app?vid=9c46a9f5-39cb-461a-ac28-286dc216524b"},"vehicle_type_id":"4","last_reported":1762423975,"current_range_meters":0,"station_id":"","pricing_plan_id":"cebpf4jnsgd1na2vs0mg"},{"bike_id":"29023553-f0a8-4016-aa8b-62309e5c8329","system_id":"levelo_inurba_marseille","lat":43.23161,"lon":5.43708,"is_reserved":false,"is_disabled":false,"rental_uris":{"android":"levelo://app?vid=29023553-f0a8-4016-aa8b-62309e5c8329","ios":"levelo://app?vid=29023553-f0a8-4016-aa8b-62309e5c8329"},"vehicle_type_id":"4","last_reported":1762423975,"current_range_meters":2800,"station_id":"ce4bhmp2rcd13ifvqgog","pricing_plan_id":"cebpf4jnsgd1na2vs0mg"},{"bike_id":"7c10b4b0-d136-4598-8289-7216cf6023cd","system_id":"levelo_inurba_marseille","lat":43.29936,"lon":5.36555,"is_reserved":false,"is_disabled":false,"rental_uris":{"android":"levelo://app?vid=7c10b4b0-d136-4598-8289-7216cf6023cd","ios":"levelo://app?vid=7c10b4b0-d136-4598-8289-7216cf6023cd"},"vehicle_type_id":"4","last_reported":1762423975,"current_range_meters":2800,"station_id":"ce4bgm92rcd13ifvqbr0","pricing_plan_id":"cebpf4jnsgd1na2vs0mg"},{"bike_id":"c552633d-6e30-4421-952f-1873cb41905a","system_id":"levelo_inurba_marseille","lat":43.26762,"lon":5.39433,"is_reserved":false,"is_disabled":false,"rental_uris":{"android":"levelo://app?vid=c552633d-6e30-4421-952f-1873cb41905a","ios":"levelo://app?vid=c552633d-6e30-4421-952f-1873cb41905a"},"vehicle_type_id":"4","last_reported":1762423975,"current_range_meters":2800,"station_id":"ce4bhh12rcd13ifvqfg0","pricing_plan_id":"cebpf4jnsgd1na2vs0mg"},{"bike_id":"ca027186-72c6-4358-8d7a-70b219e6273a","system_id":"levelo_inurba_marseille","lat":43.35094,"lon":5.38087,"is_reserved":false,"is_disabled":false,"rental_uris":{"android":"levelo://app?vid=ca027186-72c6-4358-8d7a-70b219e6273a","ios":"levelo://app?vid=ca027186-72c6-4358-8d7a-70b219e6273a"},"vehicle_type_id":"4","last_reported":1762423975,"current_range_meters":3200,"station_id":"","pricing_plan_id":"cebpf4jnsgd1na2vs0mg"},{"bike_id":"0bfb11d9-5b04-41a9-9d43-68a2d0c18f09","system_id":"levelo_inurba_marseille","lat":43.28712,"lon":5.37933,"is_reserved":false,"is_disabled":false,"rental_uris":{"android":"levelo://app?vid=0bfb11d9-5b04-41a9-9d43-68a2d0c18f09","ios":"levelo://app?vid=0bfb11d9-5b04-41a9-9d43-68a2d0c18f09"},"vehicle_type_id":"4","last_reported":1762423975,"current_range_meters":3200,"station_id":"ce4bh9p2rcd13ifvqec0","pricing_plan_id":"cebpf4jnsgd1na2vs0mg"},{"bike_id":"f96cbccc-904a-4d92-84ac-d0b40601097c","system_id":"levelo_inurba_marseille","lat":43.24069,"lon":5.37734,"is_reserved":false,"is_disabled":true,"rental_uris":{"android":"levelo://app?vid=f96cbccc-904a-4d92-84ac-d0b40601097c","ios":"levelo://app?vid=f96cbccc-904a-4d92-84ac-d0b40601097c"},"vehicle_type_id":"4","last_reported":1762423975,"current_range_meters":4000,"station_id":"ce4bhnp2rcd13ifvqgvg","pricing_plan_id":"cebpf4jnsgd1na2vs0mg"},{"bike_id":"0d5a3c89-2ee1-4d7e-a426-1c7d357ba47f","system_id":"levelo_inurba_marseille","lat":43.274953,"lon":5.424532,"is_reserved":false,"is_disabled":false,"rental_uris":{"android":"levelo://app?vid=0d5a3c89-2ee1-4d7e-a426-1c7d357ba47f","ios":"levelo://app?vid=0d5a3c89-2ee1-4d7e-a426-1c7d357ba47f"},"vehicle_type_id":"4","last_reported":1762423975,"current_range_meters":4000,"station_id":"ce4bhn92rcd13ifvqgrg","pricing_plan_id":"cebpf4jnsgd1na2vs0mg"},{"bike_id":"45c64788-77dc-49f3-8db4-26dd4169f3d1","system_id":"levelo_inurba_marseille","lat":43.28863,"lon":5.35853,"is_reserved":false,"is_disabled":false,"rental_uris":{"android":"levelo://app?vid=45c64788-77dc-49f3-8db4-26dd4169f3d1","ios":"levelo://app?vid=45c64788-77dc-49f3-8db4-26dd4169f3d1"},"vehicle_type_id":"4","last_reported":1762423975,"current_range_meters":4000,"station_id":"ce4bhb12rcd13ifvqem0","pricing_plan_id":"cebpf4jnsgd1na2vs0mg"},{"bike_id":"5e6b5e6b-9f8a-43ab-9eb8-b69e41a6c1e6","system_id":"levelo_inurba_marseille","lat":43.225298,"lon":5.348365,"is_reserved":false,"is_disabled":false,"rental_uris":{"android":"levelo://app?vid=5e6b5e6b-9f8a-43ab-9eb8-b69e41a6c1e6","ios":"levelo://app?vid=5e6b5e6b-9f8a-43ab-9eb8-b69e41a6c1e6"},"vehicle_type_id":"4","last_reported":1762423975,"current_range_meters":4800,"station_id":"","pricing_plan_id":"cebpf4jnsgd1na2vs0mg"},{"bike_id":"1b584201-02bf-4ab1-8dd9-7acf8c31a5c4","system_id":"levelo_inurba_marseille","lat":43.32368,"lon":5.38886,"is_reserved":false,"is_disabled":false,"rental_uris":{"android":"levelo://app?vid=1b584201-02bf-4ab1-8dd9-7acf8c31a5c4","ios":"levelo://app?vid=1b584201-02bf-4ab1-8dd9-7acf8c31a5c4"},"vehicle_type_id":"4","last_reported":1762423975,"current_range_meters":5600,"station_id":"ce4bhqp2rcd13ifvqhog","pricing_plan_id":"cebpf4jnsgd1na2vs0mg"},{"bike_id":"8c54a7cf-4724-4e9d-bc1c-dde0e51ab645","system_id":"levelo_inurba_marseille","lat":43.26779,"lon":5.39419,"is_reserved":false,"is_disabled":false,"rental_uris":{"android":"levelo://app?vid=8c54a7cf-4724-4e9d-bc1c-dde0e51ab645","ios":"levelo://app?vid=8c54a7cf-4724-4e9d-bc1c-dde0e51ab645"},"vehicle_type_id":"4","last_reported":1762423975,"current_range_meters":5600,"station_id":"ce4bhh12rcd13ifvqfg0","pricing_plan_id":"cebpf4jnsgd1na2vs0mg"},{"bike_id":"43241b2a-4cb5-4e4c-8865-8a8693625499","system_id":"levelo_inurba_marseille","lat":43.31299,"lon":5.37823,"is_reserved":false,"is_disabled":false,"rental_uris":{"android":"levelo://app?vid=43241b2a-4cb5-4e4c-8865-8a8693625499","ios":"levelo://app?vid=43241b2a-4cb5-4e4c-8865-8a8693625499"},"vehicle_type_id":"4","last_reported":1762423975,"current_range_meters":5600,"station_id":"","pricing_plan_id":"cebpf4jnsgd1na2vs0mg"},{"bike_id":"5f731f76-9d83-42a2-9f7f-71c03353ee11","system_id":"levelo_inurba_marseille","lat":43.226788,"lon":5.415871,"is_reserved":false,"is_disabled":false,"rental_uris":{"android":"levelo://app?vid=5f731f76-9d83-42a2-9f7f-71c03353ee11","ios":"levelo://app?vid=5f731f76-9d83-42a2-9f7f-71c03353ee11"},"vehicle_type_id":"4","last_reported":1762423975,"current_range_meters":5600,"station_id":"ce4bgj92rcd13ifvqbd0","pricing_plan_id":"cebpf4jnsgd1na2vs0mg"},{"bike_id":"b8303d24-003f-4ccf-9978-9e2b4ba18f92","system_id":"levelo_inurba_marseille","lat":43.313615,"lon":5.38494,"is_reserved":false,"is_disabled":false,"rental_uris":{"android":"levelo://app?vid=b8303d24-003f-4ccf-9978-9e2b4ba18f92","ios":"levelo://app?vid=b8303d24-003f-4ccf-9978-9e2b4ba18f92"},"vehicle_type_id":"4","last_reported":1762423975,"current_range_meters":6000,"station_id":"ce4bgt92rcd13ifvqcf0","pricing_plan_id":"cebpf4jnsgd1na2vs0mg"},{"bike_id":"cd9c6c8f-813a-4b2c-b0c7-7a3265cb2fa0","system_id":"levelo_inurba_marseille","lat":43.24244,"lon":5.39324,"is_reserved":false,"is_disabled":false,"rental_uris":{"android":"levelo://app?vid=cd9c6c8f-813a-4b2c-b0c7-7a3265cb2fa0","ios":"levelo://app?vid=cd9c6c8f-813a-4b2c-b0c7-7a3265cb2fa0"},"vehicle_type_id":"4","last_reported":1762423975,"current_range_meters":6000,"station_id":"","pricing_plan_id":"cebpf4jnsgd1na2vs0mg"},{"bike_id":"a15fa65a-ff44-40bc-bb9d-1506aea08e5e","system_id":"levelo_inurba_marseille","lat":43.29277,"lon":5.36842,"is_reserved":false,"is_disabled":false,"rental_uris":{"android":"levelo://app?vid=a15fa65a-ff44-40bc-bb9d-1506aea08e5e","ios":"levelo://app?vid=a15fa65a-ff44-40bc-bb9d-1506aea08e5e"},"vehicle_type_id":"4","last_reported":1762423975,"current_range_meters":6000,"station_id":"ce4bhbp2rcd13ifvqesg","pricing_plan_id":"cebpf4jnsgd1na2vs0mg"},{"bike_id":"9db23817-100d-4feb-906a-faeaa5a942cd","system_id":"levelo_inurba_marseille","lat":43.30553,"lon":5.36547,"is_reserved":false,"is_disabled":false,"rental_uris":{"android":"levelo://app?vid=9db23817-100d-4feb-906a-faeaa5a942cd","ios":"levelo://app?vid=9db23817-100d-4feb-906a-faeaa5a942cd"},"vehicle_type_id":"4","last_reported":1762423975,"current_range_meters":6000,"station_id":"ce4bgs12rcd13ifvqcag","pricing_plan_id":"cebpf4jnsgd1na2vs0mg"},{"bike_id":"0365544e-ea8c-4189-ae62-5521c9f0b92c","system_id":"levelo_inurba_marseille","lat":43.29263,"lon":5.37622,"is_reserved":false,"is_disabled":false,"rental_uris":{"android":"levelo://app?vid=0365544e-ea8c-4189-ae62-5521c9f0b92c","ios":"levelo://app?vid=0365544e-ea8c-4189-ae62-5521c9f0b92c"},"vehicle_type_id":"4","last_reported":1762423975,"current_range_meters":6000,"station_id":"ce4bgi12rcd13ifvqb80","pricing_plan_id":"cebpf4jnsgd1na2vs0mg"},{"bike_id":"d175e642-a5a5-45ef-ad60-78ec35ca804e","system_id":"levelo_inurba_marseille","lat":43.2849,"lon":5.38421,"is_reserved":false,"is_disabled":false,"rental_uris":{"android":"levelo://app?vid=d175e642-a5a5-45ef-ad60-78ec35ca804e","ios":"levelo://app?vid=d175e642-a5a5-45ef-ad60-78ec35ca804e"},"vehicle_type_id":"4","last_reported":1762423975,"current_range_meters":6400,"station_id":"ce4bh512rcd13ifvqe3g","pricing_plan_id":"cebpf4jnsgd1na2vs0mg"},{"bike_id":"de1f2696-e2e2-4353-9572-223439f5eeed","system_id":"levelo_inurba_marseille","lat":43.2512,"lon":5.403163,"is_reserved":false,"is_disabled":false,"rental_uris":{"android":"levelo://app?vid=de1f2696-e2e2-4353-9572-223439f5eeed","ios":"levelo://app?vid=de1f2696-e2e2-4353-9572-223439f5eeed"},"vehicle_type_id":"4","last_reported":1762423975,"current_range_meters":6400,"station_id":"ce4bhlh2rcd13ifvqgig","pricing_plan_id":"cebpf4jnsgd1na2vs0mg"},{"bike_id":"ea4f4b84-78b0-4180-a7f8-ecb8c6182713","system_id":"levelo_inurba_marseille","lat":43.2953,"lon":5.36104,"is_reserved":false,"is_disabled":true,"rental_uris":{"android":"levelo://app?vid=ea4f4b84-78b0-4180-a7f8-ecb8c6182713","ios":"levelo://app?vid=ea4f4b84-78b0-4180-a7f8-ecb8c6182713"},"vehicle_type_id":"4","last_reported":1762423975,"current_range_meters":6400,"station_id":"","pricing_plan_id":"cebpf4jnsgd1na2vs0mg"},{"bike_id":"c615c809-92b3-49e1-81f4-a4d9dc450c97","system_id":"levelo_inurba_marseille","lat":43.284884,"lon":5.384166,"is_reserved":false,"is_disabled":false,"rental_uris":{"android":"levelo://app?vid=c615c809-92b3-49e1-81f4-a4d9dc450c97","ios":"levelo://app?vid=c615c809-92b3-49e1-81f4-a4d9dc450c97"},"vehicle_type_id":"4","last_reported":1762423975,"current_range_meters":6400,"station_id":"ce4bh512rcd13ifvqe3g","pricing_plan_id":"cebpf4jnsgd1na2vs0mg"},{"bike_id":"88c6174e-347b-46fd-bb97-b08f443e1027","system_id":"levelo_inurba_marseille","lat":43.3016,"lon":5.38075,"is_reserved":false,"is_disabled":false,"rental_uris":{"android":"levelo://app?vid=88c6174e-347b-46fd-bb97-b08f443e1027","ios":"levelo://app?vid=88c6174e-347b-46fd-bb97-b08f443e1027"},"vehicle_type_id":"4","last_reported":1762423975,"current_range_meters":6400,"station_id":"","pricing_plan_id":"cebpf4jnsgd1na2vs0mg"},{"bike_id":"2b090eae-5e28-4bf3-847d-73a941156e1b","system_id":"levelo_inurba_marseille","lat":43.2679,"lon":5.3942,"is_reserved":false,"is_disabled":false,"rental_uris":{"android":"levelo://app?vid=2b090eae-5e28-4bf3-847d-73a941156e1b","ios":"levelo://app?vid=2b090eae-5e28-4bf3-847d-73a941156e1b"},"vehicle_type_id":"4","last_reported":1762423975,"current_range_meters":6800,"station_id":"ce4bhh12rcd13ifvqfg0","pricing_plan_id":"cebpf4jnsgd1na2vs0mg"},{"bike_id":"9b7e4229-56a4-4605-8ea2-a2504f1d7602","system_id":"levelo_inurba_marseille","lat":43.28614,"lon":5.35102,"is_reserved":false,"is_disabled":false,"rental_uris":{"android":"levelo://app?vid=9b7e4229-56a4-4605-8ea2-a2504f1d7602","ios":"levelo://app?vid=9b7e4229-56a4-4605-8ea2-a2504f1d7602"},"vehicle_type_id":"4","last_reported":1762423975,"current_range_meters":6800,"station_id":"ce4bhch2rcd13ifvqeug","pricing_plan_id":"cebpf4jnsgd1na2vs0mg"},{"bike_id":"03f10189-c890-4039-9bdf-a58c7ece9035","system_id":"levelo_inurba_marseille","lat":43.28969,"lon":5.37865,"is_reserved":false,"is_disabled":false,"rental_uris":{"android":"levelo://app?vid=03f10189-c890-4039-9bdf-a58c7ece9035","ios":"levelo://app?vid=03f10189-c890-4039-9bdf-a58c7ece9035"},"vehicle_type_id":"4","last_reported":1762423975,"current_range_meters":6800,"station_id":"ce4bh9p2rcd13ifvqed0","pricing_plan_id":"cebpf4jnsgd1na2vs0mg"},{"bike_id":"016919e9-8762-40c2-9ae1-0cd98b92b766","system_id":"levelo_inurba_marseille","lat":43.23168,"lon":5.43697,"is_reserved":false,"is_disabled":false,"rental_uris":{"android":"levelo://app?vid=016919e9-8762-40c2-9ae1-0cd98b92b766","ios":"levelo://app?vid=016919e9-8762-40c2-9ae1-0cd98b92b766"},"vehicle_type_id":"4","last_reported":1762423975,"current_range_meters":7200,"station_id":"ce4bhmp2rcd13ifvqgog","pricing_plan_id":"cebpf4jnsgd1na2vs0mg"},{"bike_id":"f917c26a-47e1-4253-83de-3939e5439e59","system_id":"levelo_inurba_marseille","lat":43.28976,"lon":5.37842,"is_reserved":false,"is_disabled":false,"rental_uris":{"android":"levelo://app?vid=f917c26a-47e1-4253-83de-3939e5439e59","ios":"levelo://app?vid=f917c26a-47e1-4253-83de-3939e5439e59"},"vehicle_type_id":"4","last_reported":1762423975,"current_range_meters":7200,"station_id":"ce4bh9p2rcd13ifvqed0","pricing_plan_id":"cebpf4jnsgd1na2vs0mg"},{"bike_id":"7cce9635-6f40-4831-8da1-5c8d9e99a184","system_id":"levelo_inurba_marseille","lat":43.26699,"lon":5.38272,"is_reserved":false,"is_disabled":false,"rental_uris":{"android":"levelo://app?vid=7cce9635-6f40-4831-8da1-5c8d9e99a184","ios":"levelo://app?vid=7cce9635-6f40-4831-8da1-5c8d9e99a184"},"vehicle_type_id":"4","last_reported":1762423975,"current_range_meters":7200,"station_id":"ce4bhg92rcd13ifvqf90","pricing_plan_id":"cebpf4jnsgd1na2vs0mg"},{"bike_id":"36dadbf7-a228-4f6f-8b08-391008b68693","system_id":"levelo_inurba_marseille","lat":43.34551,"lon":5.36847,"is_reserved":false,"is_disabled":false,"rental_uris":{"android":"levelo://app?vid=36dadbf7-a228-4f6f-8b08-391008b68693","ios":"levelo://app?vid=36dadbf7-a228-4f6f-8b08-391008b68693"},"vehicle_type_id":"4","last_reported":1762423975,"current_range_meters":7200,"station_id":"","pricing_plan_id":"cebpf4jnsgd1na2vs0mg"},{"bike_id":"e7002296-a724-4792-9c77-9aa7da662e7d","system_id":"levelo_inurba_marseille","lat":43.29752,"lon":5.36248,"is_reserved":false,"is_disabled":false,"rental_uris":{"android":"levelo://app?vid=e7002296-a724-4792-9c77-9aa7da662e7d","ios":"levelo://app?vid=e7002296-a724-4792-9c77-9aa7da662e7d"},"vehicle_type_id":"4","last_reported":1762423975,"current_range_meters":7200,"station_id":"","pricing_plan_id":"cebpf4jnsgd1na2vs0mg"},{"bike_id":"dcd7cc05-09ca-451c-b5c3-aec30ed844a3","system_id":"levelo_inurba_marseille","lat":43.29435,"lon":5.42729,"is_reserved":false,"is_disabled":false,"rental_uris":{"android":"levelo://app?vid=dcd7cc05-09ca-451c-b5c3-aec30ed844a3","ios":"levelo://app?vid=dcd7cc05-09ca-451c-b5c3-aec30ed844a3"},"vehicle_type_id":"4","last_reported":1762423975,"current_range_meters":8000,"station_id":"","pricing_plan_id":"cebpf4jnsgd1na2vs0mg"},{"bike_id":"f9092b8b-f8d5-4fa7-b2da-db639c54cc1c","system_id":"levelo_inurba_marseille","lat":43.32108,"lon":5.36798,"is_reserved":false,"is_disabled":false,"rental_uris":{"android":"levelo://app?vid=f9092b8b-f8d5-4fa7-b2da-db639c54cc1c","ios":"levelo://app?vid=f9092b8b-f8d5-4fa7-b2da-db639c54cc1c"},"vehicle_type_id":"4","last_reported":1762423975,"current_range_meters":8000,"station_id":"ce4bhrh2rcd13ifvqhug","pricing_plan_id":"cebpf4jnsgd1na2vs0mg"},{"bike_id":"f91039f9-2380-4439-87b2-33f7430803e6","system_id":"levelo_inurba_marseille","lat":43.24952,"lon":5.40493,"is_reserved":false,"is_disabled":false,"rental_uris":{"android":"levelo://app?vid=f91039f9-2380-4439-87b2-33f7430803e6","ios":"levelo://app?vid=f91039f9-2380-4439-87b2-33f7430803e6"},"vehicle_type_id":"4","last_reported":1762423975,"current_range_meters":8000,"station_id":"st_d2ngiaodas8pm72gd1h0","pricing_plan_id":"cebpf4jnsgd1na2vs0mg"},{"bike_id":"765b9661-2b24-4c0f-a9fb-732d7409b10c","system_id":"levelo_inurba_marseille","lat":43.21615,"lon":5.34433,"is_reserved":false,"is_disabled":false,"rental_uris":{"android":"levelo://app?vid=765b9661-2b24-4c0f-a9fb-732d7409b10c","ios":"levelo://app?vid=765b9661-2b24-4c0f-a9fb-732d7409b10c"},"vehicle_type_id":"4","last_reported":1762423975,"current_range_meters":8000,"station_id":"","pricing_plan_id":"cebpf4jnsgd1na2vs0mg"},{"bike_id":"ac3661dd-248f-4b92-ad04-1fbf8e5c6660","system_id":"levelo_inurba_marseille","lat":43.28041,"lon":5.36929,"is_reserved":false,"is_disabled":true,"rental_uris":{"android":"levelo://app?vid=ac3661dd-248f-4b92-ad04-1fbf8e5c6660","ios":"levelo://app?vid=ac3661dd-248f-4b92-ad04-1fbf8e5c6660"},"vehicle_type_id":"4","last_reported":1762423975,"current_range_meters":8000,"station_id":"ce4bha12rcd13ifvqef0","pricing_plan_id":"cebpf4jnsgd1na2vs0mg"},{"bike_id":"dc6e4c2c-223e-452d-a4f5-a4515a266851","system_id":"levelo_inurba_marseille","lat":43.29261,"lon":5.37616,"is_reserved":false,"is_disabled":false,"rental_uris":{"android":"levelo://app?vid=dc6e4c2c-223e-452d-a4f5-a4515a266851","ios":"levelo://app?vid=dc6e4c2c-223e-452d-a4f5-a4515a266851"},"vehicle_type_id":"4","last_reported":1762423975,"current_range_meters":8000,"station_id":"ce4bgi12rcd13ifvqb80","pricing_plan_id":"cebpf4jnsgd1na2vs0mg"},{"bike_id":"02c565c9-e1be-4475-b1a9-b37751cdb830","system_id":"levelo_inurba_marseille","lat":43.34317,"lon":5.34786,"is_reserved":false,"is_disabled":false,"rental_uris":{"android":"levelo://app?vid=02c565c9-e1be-4475-b1a9-b37751cdb830","ios":"levelo://app?vid=02c565c9-e1be-4475-b1a9-b37751cdb830"},"vehicle_type_id":"4","last_reported":1762423975,"current_range_meters":8400,"station_id":"","pricing_plan_id":"cebpf4jnsgd1na2vs0mg"},{"bike_id":"3db2b20c-93a7-4b6a-ac03-32000f602a98","system_id":"levelo_inurba_marseille","lat":43.33609,"lon":5.41009,"is_reserved":false,"is_disabled":false,"rental_uris":{"android":"levelo://app?vid=3db2b20c-93a7-4b6a-ac03-32000f602a98","ios":"levelo://app?vid=3db2b20c-93a7-4b6a-ac03-32000f602a98"},"vehicle_type_id":"4","last_reported":1762423975,"current_range_meters":8400,"station_id":"ce4bhqh2rcd13ifvqhmg","pricing_plan_id":"cebpf4jnsgd1na2vs0mg"},{"bike_id":"94b0c8b8-8f4c-4510-99c3-3125e8372759","system_id":"levelo_inurba_marseille","lat":43.271355,"lon":5.422269,"is_reserved":false,"is_disabled":false,"rental_uris":{"android":"levelo://app?vid=94b0c8b8-8f4c-4510-99c3-3125e8372759","ios":"levelo://app?vid=94b0c8b8-8f4c-4510-99c3-3125e8372759"},"vehicle_type_id":"4","last_reported":1762423975,"current_range_meters":8400,"station_id":"ce4bhk92rcd13ifvqgb0","pricing_plan_id":"cebpf4jnsgd1na2vs0mg"},{"bike_id":"3ed02add-87f3-41d7-bdf1-1cf82493034f","system_id":"levelo_inurba_marseille","lat":43.293152,"lon":5.383267,"is_reserved":false,"is_disabled":false,"rental_uris":{"android":"levelo://app?vid=3ed02add-87f3-41d7-bdf1-1cf82493034f","ios":"levelo://app?vid=3ed02add-87f3-41d7-bdf1-1cf82493034f"},"vehicle_type_id":"4","last_reported":1762423975,"current_range_meters":8400,"station_id":"","pricing_plan_id":"cebpf4jnsgd1na2vs0mg"},{"bike_id":"0846a934-19a4-41c6-aaca-22036f49c490","system_id":"levelo_inurba_marseille","lat":43.29721,"lon":5.37693,"is_reserved":false,"is_disabled":false,"rental_uris":{"android":"levelo://app?vid=0846a934-19a4-41c6-aaca-22036f49c490","ios":"levelo://app?vid=0846a934-19a4-41c6-aaca-22036f49c490"},"vehicle_type_id":"4","last_reported":1762423975,"current_range_meters":8800,"station_id":"ce4bgkh2rcd13ifvqbl0","pricing_plan_id":"cebpf4jnsgd1na2vs0mg"},{"bike_id":"d3a8c452-bd73-4909-9cfe-f1c0285f3d0c","system_id":"levelo_inurba_marseille","lat":43.2848,"lon":5.48379,"is_reserved":false,"is_disabled":false,"rental_uris":{"android":"levelo://app?vid=d3a8c452-bd73-4909-9cfe-f1c0285f3d0c","ios":"levelo://app?vid=d3a8c452-bd73-4909-9cfe-f1c0285f3d0c"},"vehicle_type_id":"4","last_reported":1762423975,"current_range_meters":9200,"station_id":"","pricing_plan_id":"cebpf4jnsgd1na2vs0mg"},{"bike_id":"12105137-9d40-4e30-a243-dec6a5ef268a","system_id":"levelo_inurba_marseille","lat":43.27506,"lon":5.42453,"is_reserved":false,"is_disabled":false,"rental_uris":{"android":"levelo://app?vid=12105137-9d40-4e30-a243-dec6a5ef268a","ios":"levelo://app?vid=12105137-9d40-4e30-a243-dec6a5ef268a"},"vehicle_type_id":"4","last_reported":1762423975,"current_range_meters":9200,"station_id":"ce4bhn92rcd13ifvqgrg","pricing_plan_id":"cebpf4jnsgd1na2vs0mg"},{"bike_id":"571bd3a6-912b-44a3-9841-50c558a61481","system_id":"levelo_inurba_marseille","lat":43.2813,"lon":5.40554,"is_reserved":false,"is_disabled":false,"rental_uris":{"android":"levelo://app?vid=571bd3a6-912b-44a3-9841-50c558a61481","ios":"levelo://app?vid=571bd3a6-912b-44a3-9841-50c558a61481"},"vehicle_type_id":"4","last_reported":1762423975,"current_range_meters":9200,"station_id":"","pricing_plan_id":"cebpf4jnsgd1na2vs0mg"},{"bike_id":"57606b66-f9ad-4f30-bf12-9583c24842c0","system_id":"levelo_inurba_marseille","lat":43.2938,"lon":5.37834,"is_reserved":false,"is_disabled":false,"rental_uris":{"android":"levelo://app?vid=57606b66-f9ad-4f30-bf12-9583c24842c0","ios":"levelo://app?vid=57606b66-f9ad-4f30-bf12-9583c24842c0"},"vehicle_type_id":"4","last_reported":1762423975,"current_range_meters":9200,"station_id":"ce4bgjh2rcd13ifvqbf0","pricing_plan_id":"cebpf4jnsgd1na2vs0mg"},{"bike_id":"a80322af-ed5b-4292-a927-2fe8792435d5","system_id":"levelo_inurba_marseille","lat":43.294048,"lon":5.384531,"is_reserved":false,"is_disabled":false,"rental_uris":{"android":"levelo://app?vid=a80322af-ed5b-4292-a927-2fe8792435d5","ios":"levelo://app?vid=a80322af-ed5b-4292-a927-2fe8792435d5"},"vehicle_type_id":"4","last_reported":1762423975,"current_range_meters":9200,"station_id":"","pricing_plan_id":"cebpf4jnsgd1na2vs0mg"},{"bike_id":"c925bd5e-b07a-492e-b030-6365260c497d","system_id":"levelo_inurba_marseille","lat":43.31068,"lon":5.38355,"is_reserved":false,"is_disabled":false,"rental_uris":{"android":"levelo://app?vid=c925bd5e-b07a-492e-b030-6365260c497d","ios":"levelo://app?vid=c925bd5e-b07a-492e-b030-6365260c497d"},"vehicle_type_id":"4","last_reported":1762423975,"current_range_meters":9600,"station_id":"ce4bgv92rcd13ifvqcr0","pricing_plan_id":"cebpf4jnsgd1na2vs0mg"},{"bike_id":"b6eda660-38a0-4534-ab3f-390d8da6ca45","system_id":"levelo_inurba_marseille","lat":43.32365,"lon":5.36758,"is_reserved":false,"is_disabled":false,"rental_uris":{"android":"levelo://app?vid=b6eda660-38a0-4534-ab3f-390d8da6ca45","ios":"levelo://app?vid=b6eda660-38a0-4534-ab3f-390d8da6ca45"},"vehicle_type_id":"4","last_reported":1762423975,"current_range_meters":9600,"station_id":"ce4bhsh2rcd13ifvqi2g","pricing_plan_id":"cebpf4jnsgd1na2vs0mg"},{"bike_id":"92e05ec2-1045-430a-b555-d4ccefa81b42","system_id":"levelo_inurba_marseille","lat":43.27964,"lon":5.38729,"is_reserved":false,"is_disabled":false,"rental_uris":{"android":"levelo://app?vid=92e05ec2-1045-430a-b555-d4ccefa81b42","ios":"levelo://app?vid=92e05ec2-1045-430a-b555-d4ccefa81b42"},"vehicle_type_id":"4","last_reported":1762423975,"current_range_meters":10000,"station_id":"ce4bhg12rcd13ifvqf80","pricing_plan_id":"cebpf4jnsgd1na2vs0mg"},{"bike_id":"b6d6d19c-e715-4854-aa86-a2663abc2396","system_id":"levelo_inurba_marseille","lat":43.326607,"lon":5.409987,"is_reserved":false,"is_disabled":false,"rental_uris":{"android":"levelo://app?vid=b6d6d19c-e715-4854-aa86-a2663abc2396","ios":"levelo://app?vid=b6d6d19c-e715-4854-aa86-a2663abc2396"},"vehicle_type_id":"4","last_reported":1762423975,"current_range_meters":10000,"station_id":"ce4bhpp2rcd13ifvqhgg","pricing_plan_id":"cebpf4jnsgd1na2vs0mg"},{"bike_id":"e1e2978a-2bfe-417c-a948-b2ecf328a036","system_id":"levelo_inurba_marseille","lat":43.29267,"lon":5.40901,"is_reserved":false,"is_disabled":false,"rental_uris":{"android":"levelo://app?vid=e1e2978a-2bfe-417c-a948-b2ecf328a036","ios":"levelo://app?vid=e1e2978a-2bfe-417c-a948-b2ecf328a036"},"vehicle_type_id":"4","last_reported":1762423975,"current_range_meters":10000,"station_id":"ce4bh192rcd13ifvqdc0","pricing_plan_id":"cebpf4jnsgd1na2vs0mg"},{"bike_id":"794b0378-7658-40ab-8f57-a84e739e60bf","system_id":"levelo_inurba_marseille","lat":43.24178,"lon":5.39708,"is_reserved":false,"is_disabled":false,"rental_uris":{"android":"levelo://app?vid=794b0378-7658-40ab-8f57-a84e739e60bf","ios":"levelo://app?vid=794b0378-7658-40ab-8f57-a84e739e60bf"},"vehicle_type_id":"4","last_reported":1762423975,"current_range_meters":10000,"station_id":"ce4bhn12rcd13ifvqgpg","pricing_plan_id":"cebpf4jnsgd1na2vs0mg"},{"bike_id":"81dcc136-dea2-46c0-98af-42dbdee92b54","system_id":"levelo_inurba_marseille","lat":43.285083,"lon":5.484325,"is_reserved":false,"is_disabled":false,"rental_uris":{"android":"levelo://app?vid=81dcc136-dea2-46c0-98af-42dbdee92b54","ios":"levelo://app?vid=81dcc136-dea2-46c0-98af-42dbdee92b54"},"vehicle_type_id":"4","last_reported":1762423975,"current_range_meters":10000,"station_id":"","pricing_plan_id":"cebpf4jnsgd1na2vs0mg"},{"bike_id":"c301443d-d9f0-44ba-bd57-a48267ea9286","system_id":"levelo_inurba_marseille","lat":43.292661,"lon":5.384346,"is_reserved":false,"is_disabled":false,"rental_uris":{"android":"levelo://app?vid=c301443d-d9f0-44ba-bd57-a48267ea9286","ios":"levelo://app?vid=c301443d-d9f0-44ba-bd57-a48267ea9286"},"vehicle_type_id":"4","last_reported":1762423975,"current_range_meters":10800,"station_id":"ce4bh692rcd13ifvqea0","pricing_plan_id":"cebpf4jnsgd1na2vs0mg"},{"bike_id":"b18e6319-a2bf-4f85-9d9d-f2c90d832d7b","system_id":"levelo_inurba_marseille","lat":43.2669,"lon":5.38259,"is_reserved":false,"is_disabled":false,"rental_uris":{"android":"levelo://app?vid=b18e6319-a2bf-4f85-9d9d-f2c90d832d7b","ios":"levelo://app?vid=b18e6319-a2bf-4f85-9d9d-f2c90d832d7b"},"vehicle_type_id":"4","last_reported":1762423975,"current_range_meters":10800,"station_id":"ce4bhg92rcd13ifvqf90","pricing_plan_id":"cebpf4jnsgd1na2vs0mg"},{"bike_id":"112ea096-95cf-4747-a20e-b14d7f15de67","system_id":"levelo_inurba_marseille","lat":43.29267,"lon":5.38443,"is_reserved":false,"is_disabled":false,"rental_uris":{"android":"levelo://app?vid=112ea096-95cf-4747-a20e-b14d7f15de67","ios":"levelo://app?vid=112ea096-95cf-4747-a20e-b14d7f15de67"},"vehicle_type_id":"4","last_reported":1762423975,"current_range_meters":10800,"station_id":"ce4bh692rcd13ifvqea0","pricing_plan_id":"cebpf4jnsgd1na2vs0mg"},{"bike_id":"42d2792a-88bd-48e5-afe0-4b6400cd337a","system_id":"levelo_inurba_marseille","lat":43.31673,"lon":5.38224,"is_reserved":false,"is_disabled":false,"rental_uris":{"android":"levelo://app?vid=42d2792a-88bd-48e5-afe0-4b6400cd337a","ios":"levelo://app?vid=42d2792a-88bd-48e5-afe0-4b6400cd337a"},"vehicle_type_id":"4","last_reported":1762423975,"current_range_meters":10800,"station_id":"","pricing_plan_id":"cebpf4jnsgd1na2vs0mg"},{"bike_id":"341b8648-1055-4832-9a1f-322572b56071","system_id":"levelo_inurba_marseille","lat":43.312192,"lon":5.368631,"is_reserved":false,"is_disabled":false,"rental_uris":{"android":"levelo://app?vid=341b8648-1055-4832-9a1f-322572b56071","ios":"levelo://app?vid=341b8648-1055-4832-9a1f-322572b56071"},"vehicle_type_id":"4","last_reported":1762423975,"current_range_meters":10800,"station_id":"","pricing_plan_id":"cebpf4jnsgd1na2vs0mg"},{"bike_id":"94b06f3e-9c43-404e-899a-d1e48d6d7a76","system_id":"levelo_inurba_marseille","lat":43.287102,"lon":5.399967,"is_reserved":false,"is_disabled":false,"rental_uris":{"android":"levelo://app?vid=94b06f3e-9c43-404e-899a-d1e48d6d7a76","ios":"levelo://app?vid=94b06f3e-9c43-404e-899a-d1e48d6d7a76"},"vehicle_type_id":"4","last_reported":1762423975,"current_range_meters":11200,"station_id":"ce4bho92rcd13ifvqh3g","pricing_plan_id":"cebpf4jnsgd1na2vs0mg"},{"bike_id":"bcb3c39b-ec48-48ef-9eac-eb8b71840959","system_id":"levelo_inurba_marseille","lat":43.33757,"lon":5.37464,"is_reserved":false,"is_disabled":false,"rental_uris":{"android":"levelo://app?vid=bcb3c39b-ec48-48ef-9eac-eb8b71840959","ios":"levelo://app?vid=bcb3c39b-ec48-48ef-9eac-eb8b71840959"},"vehicle_type_id":"4","last_reported":1762423975,"current_range_meters":11200,"station_id":"","pricing_plan_id":"cebpf4jnsgd1na2vs0mg"},{"bike_id":"670e5c7c-b18b-446f-b0e0-668f8bc35b5e","system_id":"levelo_inurba_marseille","lat":43.26564,"lon":5.39007,"is_reserved":false,"is_disabled":false,"rental_uris":{"android":"levelo://app?vid=670e5c7c-b18b-446f-b0e0-668f8bc35b5e","ios":"levelo://app?vid=670e5c7c-b18b-446f-b0e0-668f8bc35b5e"},"vehicle_type_id":"4","last_reported":1762423975,"current_range_meters":11200,"station_id":"ce4bhe12rcd13ifvqf30","pricing_plan_id":"cebpf4jnsgd1na2vs0mg"},{"bike_id":"b37e3eee-8b5c-4e7f-9d0d-91f9bf235122","system_id":"levelo_inurba_marseille","lat":43.30531,"lon":5.38411,"is_reserved":false,"is_disabled":false,"rental_uris":{"android":"levelo://app?vid=b37e3eee-8b5c-4e7f-9d0d-91f9bf235122","ios":"levelo://app?vid=b37e3eee-8b5c-4e7f-9d0d-91f9bf235122"},"vehicle_type_id":"4","last_reported":1762423975,"current_range_meters":11600,"station_id":"ce4bgg92rcd13ifvqb30","pricing_plan_id":"cebpf4jnsgd1na2vs0mg"},{"bike_id":"a715c0ef-3857-414c-967a-b5d1a542eb13","system_id":"levelo_inurba_marseille","lat":43.22539,"lon":5.34833,"is_reserved":false,"is_disabled":false,"rental_uris":{"android":"levelo://app?vid=a715c0ef-3857-414c-967a-b5d1a542eb13","ios":"levelo://app?vid=a715c0ef-3857-414c-967a-b5d1a542eb13"},"vehicle_type_id":"4","last_reported":1762423975,"current_range_meters":11600,"station_id":"","pricing_plan_id":"cebpf4jnsgd1na2vs0mg"},{"bike_id":"2c89c3ed-62de-4c74-8e11-a37172c6c77b","system_id":"levelo_inurba_marseille","lat":43.22873,"lon":5.4024,"is_reserved":false,"is_disabled":false,"rental_uris":{"android":"levelo://app?vid=2c89c3ed-62de-4c74-8e11-a37172c6c77b","ios":"levelo://app?vid=2c89c3ed-62de-4c74-8e11-a37172c6c77b"},"vehicle_type_id":"4","last_reported":1762423975,"current_range_meters":11600,"station_id":"","pricing_plan_id":"cebpf4jnsgd1na2vs0mg"},{"bike_id":"57eca65a-dab1-4980-9cbb-35a91c321ab2","system_id":"levelo_inurba_marseille","lat":43.293126,"lon":5.371618,"is_reserved":false,"is_disabled":false,"rental_uris":{"android":"levelo://app?vid=57eca65a-dab1-4980-9cbb-35a91c321ab2","ios":"levelo://app?vid=57eca65a-dab1-4980-9cbb-35a91c321ab2"},"vehicle_type_id":"4","last_reported":1762423975,"current_range_meters":11600,"station_id":"ce4bgh92rcd13ifvqb40","pricing_plan_id":"cebpf4jnsgd1na2vs0mg"},{"bike_id":"f6645b15-6d58-48de-94f0-ee582b80e28b","system_id":"levelo_inurba_marseille","lat":43.28277,"lon":5.35054,"is_reserved":false,"is_disabled":true,"rental_uris":{"android":"levelo://app?vid=f6645b15-6d58-48de-94f0-ee582b80e28b","ios":"levelo://app?vid=f6645b15-6d58-48de-94f0-ee582b80e28b"},"vehicle_type_id":"4","last_reported":1762423975,"current_range_meters":11600,"station_id":"ce4bhbp2rcd13ifvqerg","pricing_plan_id":"cebpf4jnsgd1na2vs0mg"},{"bike_id":"7573b0ce-2bea-4f9b-b8d0-df9704e404a1","system_id":"levelo_inurba_marseille","lat":43.337444,"lon":5.374475,"is_reserved":false,"is_disabled":false,"rental_uris":{"android":"levelo://app?vid=7573b0ce-2bea-4f9b-b8d0-df9704e404a1","ios":"levelo://app?vid=7573b0ce-2bea-4f9b-b8d0-df9704e404a1"},"vehicle_type_id":"4","last_reported":1762423975,"current_range_meters":11600,"station_id":"","pricing_plan_id":"cebpf4jnsgd1na2vs0mg"},{"bike_id":"a9fb0910-ebf4-402d-9c6d-3739c453471e","system_id":"levelo_inurba_marseille","lat":43.30374,"lon":5.42479,"is_reserved":false,"is_disabled":false,"rental_uris":{"android":"levelo://app?vid=a9fb0910-ebf4-402d-9c6d-3739c453471e","ios":"levelo://app?vid=a9fb0910-ebf4-402d-9c6d-3739c453471e"},"vehicle_type_id":"4","last_reported":1762423975,"current_range_meters":12000,"station_id":"ce4bhoh2rcd13ifvqh6g","pricing_plan_id":"cebpf4jnsgd1na2vs0mg"},{"bike_id":"d4b794b4-99f5-4da9-afee-48d6fee810a9","system_id":"levelo_inurba_marseille","lat":43.23969,"lon":5.36625,"is_reserved":false,"is_disabled":false,"rental_uris":{"android":"levelo://app?vid=d4b794b4-99f5-4da9-afee-48d6fee810a9","ios":"levelo://app?vid=d4b794b4-99f5-4da9-afee-48d6fee810a9"},"vehicle_type_id":"4","last_reported":1762423975,"current_range_meters":12000,"station_id":"ce4bhi12rcd13ifvqfp0","pricing_plan_id":"cebpf4jnsgd1na2vs0mg"},{"bike_id":"332ea5f8-d8ad-4878-bba6-2a32605882e6","system_id":"levelo_inurba_marseille","lat":43.32103,"lon":5.36799,"is_reserved":false,"is_disabled":false,"rental_uris":{"android":"levelo://app?vid=332ea5f8-d8ad-4878-bba6-2a32605882e6","ios":"levelo://app?vid=332ea5f8-d8ad-4878-bba6-2a32605882e6"},"vehicle_type_id":"4","last_reported":1762423975,"current_range_meters":12000,"station_id":"ce4bhrh2rcd13ifvqhug","pricing_plan_id":"cebpf4jnsgd1na2vs0mg"},{"bike_id":"de75ab52-f538-45bc-8252-0d7739c20f09","system_id":"levelo_inurba_marseille","lat":43.2904,"lon":5.37572,"is_reserved":false,"is_disabled":false,"rental_uris":{"android":"levelo://app?vid=de75ab52-f538-45bc-8252-0d7739c20f09","ios":"levelo://app?vid=de75ab52-f538-45bc-8252-0d7739c20f09"},"vehicle_type_id":"4","last_reported":1762423975,"current_range_meters":12400,"station_id":"ce4bh692rcd13ifvqe90","pricing_plan_id":"cebpf4jnsgd1na2vs0mg"},{"bike_id":"dae30738-204c-4787-a9b5-e056fa94e0c9","system_id":"levelo_inurba_marseille","lat":43.22572,"lon":5.41628,"is_reserved":false,"is_disabled":false,"rental_uris":{"android":"levelo://app?vid=dae30738-204c-4787-a9b5-e056fa94e0c9","ios":"levelo://app?vid=dae30738-204c-4787-a9b5-e056fa94e0c9"},"vehicle_type_id":"4","last_reported":1762423975,"current_range_meters":12400,"station_id":"st_d2o4gvlbi1j2169b742g","pricing_plan_id":"cebpf4jnsgd1na2vs0mg"},{"bike_id":"929999a6-b071-4278-81b4-e68a96607eec","system_id":"levelo_inurba_marseille","lat":43.24075,"lon":5.37768,"is_reserved":false,"is_disabled":false,"rental_uris":{"android":"levelo://app?vid=929999a6-b071-4278-81b4-e68a96607eec","ios":"levelo://app?vid=929999a6-b071-4278-81b4-e68a96607eec"},"vehicle_type_id":"4","last_reported":1762423975,"current_range_meters":12400,"station_id":"ce4bhnp2rcd13ifvqgvg","pricing_plan_id":"cebpf4jnsgd1na2vs0mg"},{"bike_id":"ac476264-8637-45e1-ab30-cfbe9efcde98","system_id":"levelo_inurba_marseille","lat":43.27316,"lon":5.39125,"is_reserved":false,"is_disabled":false,"rental_uris":{"android":"levelo://app?vid=ac476264-8637-45e1-ab30-cfbe9efcde98","ios":"levelo://app?vid=ac476264-8637-45e1-ab30-cfbe9efcde98"},"vehicle_type_id":"4","last_reported":1762423975,"current_range_meters":12400,"station_id":"ce4bhgp2rcd13ifvqfe0","pricing_plan_id":"cebpf4jnsgd1na2vs0mg"},{"bike_id":"ddeaa719-beea-4500-8aff-3836fff83949","system_id":"levelo_inurba_marseille","lat":43.3128,"lon":5.4676,"is_reserved":false,"is_disabled":false,"rental_uris":{"android":"levelo://app?vid=ddeaa719-beea-4500-8aff-3836fff83949","ios":"levelo://app?vid=ddeaa719-beea-4500-8aff-3836fff83949"},"vehicle_type_id":"4","last_reported":1762423975,"current_range_meters":12400,"station_id":"","pricing_plan_id":"cebpf4jnsgd1na2vs0mg"},{"bike_id":"5a569876-708b-4b97-a5d1-afbf99e41066","system_id":"levelo_inurba_marseille","lat":43.32108,"lon":5.36779,"is_reserved":false,"is_disabled":false,"rental_uris":{"android":"levelo://app?vid=5a569876-708b-4b97-a5d1-afbf99e41066","ios":"levelo://app?vid=5a569876-708b-4b97-a5d1-afbf99e41066"},"vehicle_type_id":"4","last_reported":1762423975,"current_range_meters":12400,"station_id":"ce4bhrh2rcd13ifvqhug","pricing_plan_id":"cebpf4jnsgd1na2vs0mg"},{"bike_id":"c88c878c-8bbd-48f5-a7b4-9067bdef03b1","system_id":"levelo_inurba_marseille","lat":43.29759,"lon":5.42763,"is_reserved":false,"is_disabled":false,"rental_uris":{"android":"levelo://app?vid=c88c878c-8bbd-48f5-a7b4-9067bdef03b1","ios":"levelo://app?vid=c88c878c-8bbd-48f5-a7b4-9067bdef03b1"},"vehicle_type_id":"4","last_reported":1762423975,"current_range_meters":12800,"station_id":"st_d3md5207bmas73dh9klg","pricing_plan_id":"cebpf4jnsgd1na2vs0mg"},{"bike_id":"c5e66bde-ea8e-4689-a6cc-bdc719e0e462","system_id":"levelo_inurba_marseille","lat":43.275679,"lon":5.384244,"is_reserved":false,"is_disabled":false,"rental_uris":{"android":"levelo://app?vid=c5e66bde-ea8e-4689-a6cc-bdc719e0e462","ios":"levelo://app?vid=c5e66bde-ea8e-4689-a6cc-bdc719e0e462"},"vehicle_type_id":"4","last_reported":1762423975,"current_range_meters":12800,"station_id":"ce4bhh92rcd13ifvqfi0","pricing_plan_id":"cebpf4jnsgd1na2vs0mg"},{"bike_id":"09ed3eb5-c2d4-4c5e-b9d1-44fb102a0a7e","system_id":"levelo_inurba_marseille","lat":43.22565,"lon":5.41629,"is_reserved":false,"is_disabled":false,"rental_uris":{"android":"levelo://app?vid=09ed3eb5-c2d4-4c5e-b9d1-44fb102a0a7e","ios":"levelo://app?vid=09ed3eb5-c2d4-4c5e-b9d1-44fb102a0a7e"},"vehicle_type_id":"4","last_reported":1762423975,"current_range_meters":12800,"station_id":"st_d2o4gvlbi1j2169b742g","pricing_plan_id":"cebpf4jnsgd1na2vs0mg"},{"bike_id":"83f0b677-7d19-4265-a5bc-613d01c002ff","system_id":"levelo_inurba_marseille","lat":43.32134,"lon":5.36767,"is_reserved":false,"is_disabled":false,"rental_uris":{"android":"levelo://app?vid=83f0b677-7d19-4265-a5bc-613d01c002ff","ios":"levelo://app?vid=83f0b677-7d19-4265-a5bc-613d01c002ff"},"vehicle_type_id":"4","last_reported":1762423975,"current_range_meters":12800,"station_id":"ce4bhrh2rcd13ifvqhug","pricing_plan_id":"cebpf4jnsgd1na2vs0mg"},{"bike_id":"58b563fa-4d8e-412e-a312-e3020dea96d9","system_id":"levelo_inurba_marseille","lat":43.27054,"lon":5.40261,"is_reserved":false,"is_disabled":false,"rental_uris":{"android":"levelo://app?vid=58b563fa-4d8e-412e-a312-e3020dea96d9","ios":"levelo://app?vid=58b563fa-4d8e-412e-a312-e3020dea96d9"},"vehicle_type_id":"4","last_reported":1762423975,"current_range_meters":12800,"station_id":"ce4bhk92rcd13ifvqgc0","pricing_plan_id":"cebpf4jnsgd1na2vs0mg"},{"bike_id":"a737b0b8-d8f3-4589-842a-fce029979d54","system_id":"levelo_inurba_marseille","lat":43.233182,"lon":5.436188,"is_reserved":false,"is_disabled":false,"rental_uris":{"android":"levelo://app?vid=a737b0b8-d8f3-4589-842a-fce029979d54","ios":"levelo://app?vid=a737b0b8-d8f3-4589-842a-fce029979d54"},"vehicle_type_id":"4","last_reported":1762423975,"current_range_meters":13600,"station_id":"","pricing_plan_id":"cebpf4jnsgd1na2vs0mg"},{"bike_id":"8d00dbca-b5c1-42d2-89ba-f167016578da","system_id":"levelo_inurba_marseille","lat":43.29849,"lon":5.36281,"is_reserved":false,"is_disabled":false,"rental_uris":{"android":"levelo://app?vid=8d00dbca-b5c1-42d2-89ba-f167016578da","ios":"levelo://app?vid=8d00dbca-b5c1-42d2-89ba-f167016578da"},"vehicle_type_id":"4","last_reported":1762423975,"current_range_meters":13600,"station_id":"ce4bgpp2rcd13ifvqc3g","pricing_plan_id":"cebpf4jnsgd1na2vs0mg"},{"bike_id":"ab9b2bcc-ea75-449d-adbb-4add292d38c4","system_id":"levelo_inurba_marseille","lat":43.34122,"lon":5.38363,"is_reserved":false,"is_disabled":false,"rental_uris":{"android":"levelo://app?vid=ab9b2bcc-ea75-449d-adbb-4add292d38c4","ios":"levelo://app?vid=ab9b2bcc-ea75-449d-adbb-4add292d38c4"},"vehicle_type_id":"4","last_reported":1762423975,"current_range_meters":13600,"station_id":"","pricing_plan_id":"cebpf4jnsgd1na2vs0mg"},{"bike_id":"3ffe2c7b-f27f-49bd-95c3-0ecfbf0880d2","system_id":"levelo_inurba_marseille","lat":43.307035,"lon":5.384314,"is_reserved":false,"is_disabled":false,"rental_uris":{"android":"levelo://app?vid=3ffe2c7b-f27f-49bd-95c3-0ecfbf0880d2","ios":"levelo://app?vid=3ffe2c7b-f27f-49bd-95c3-0ecfbf0880d2"},"vehicle_type_id":"4","last_reported":1762423975,"current_range_meters":13600,"station_id":"","pricing_plan_id":"cebpf4jnsgd1na2vs0mg"},{"bike_id":"71967476-752a-4f5e-b222-99c0eea95f39","system_id":"levelo_inurba_marseille","lat":43.32314,"lon":5.38416,"is_reserved":false,"is_disabled":false,"rental_uris":{"android":"levelo://app?vid=71967476-752a-4f5e-b222-99c0eea95f39","ios":"levelo://app?vid=71967476-752a-4f5e-b222-99c0eea95f39"},"vehicle_type_id":"4","last_reported":1762423975,"current_range_meters":13600,"station_id":"","pricing_plan_id":"cebpf4jnsgd1na2vs0mg"},{"bike_id":"d3646e1d-2757-405e-8448-30454ce31dc0","system_id":"levelo_inurba_marseille","lat":43.3013,"lon":5.39871,"is_reserved":false,"is_disabled":false,"rental_uris":{"android":"levelo://app?vid=d3646e1d-2757-405e-8448-30454ce31dc0","ios":"levelo://app?vid=d3646e1d-2757-405e-8448-30454ce31dc0"},"vehicle_type_id":"4","last_reported":1762423975,"current_range_meters":13600,"station_id":"ce4bh0h2rcd13ifvqd40","pricing_plan_id":"cebpf4jnsgd1na2vs0mg"},{"bike_id":"65363b1f-aeab-46b9-a6bc-793f50a40e22","system_id":"levelo_inurba_marseille","lat":43.28264,"lon":5.35056,"is_reserved":false,"is_disabled":true,"rental_uris":{"android":"levelo://app?vid=65363b1f-aeab-46b9-a6bc-793f50a40e22","ios":"levelo://app?vid=65363b1f-aeab-46b9-a6bc-793f50a40e22"},"vehicle_type_id":"4","last_reported":1762423975,"current_range_meters":13600,"station_id":"ce4bhbp2rcd13ifvqerg","pricing_plan_id":"cebpf4jnsgd1na2vs0mg"},{"bike_id":"bd3d6166-ef12-455e-9330-7bbb61173a8e","system_id":"levelo_inurba_marseille","lat":43.29861,"lon":5.36278,"is_reserved":false,"is_disabled":false,"rental_uris":{"android":"levelo://app?vid=bd3d6166-ef12-455e-9330-7bbb61173a8e","ios":"levelo://app?vid=bd3d6166-ef12-455e-9330-7bbb61173a8e"},"vehicle_type_id":"4","last_reported":1762423975,"current_range_meters":14000,"station_id":"ce4bgpp2rcd13ifvqc3g","pricing_plan_id":"cebpf4jnsgd1na2vs0mg"},{"bike_id":"56d34c6d-4b17-45a3-8855-f46cd66b0e07","system_id":"levelo_inurba_marseille","lat":43.24074,"lon":5.37765,"is_reserved":false,"is_disabled":false,"rental_uris":{"android":"levelo://app?vid=56d34c6d-4b17-45a3-8855-f46cd66b0e07","ios":"levelo://app?vid=56d34c6d-4b17-45a3-8855-f46cd66b0e07"},"vehicle_type_id":"4","last_reported":1762423975,"current_range_meters":14000,"station_id":"ce4bhnp2rcd13ifvqgvg","pricing_plan_id":"cebpf4jnsgd1na2vs0mg"},{"bike_id":"bb1b1199-0aff-4e93-9dcc-486912ec5f57","system_id":"levelo_inurba_marseille","lat":43.24196,"lon":5.39726,"is_reserved":false,"is_disabled":false,"rental_uris":{"android":"levelo://app?vid=bb1b1199-0aff-4e93-9dcc-486912ec5f57","ios":"levelo://app?vid=bb1b1199-0aff-4e93-9dcc-486912ec5f57"},"vehicle_type_id":"4","last_reported":1762423975,"current_range_meters":14000,"station_id":"ce4bhn12rcd13ifvqgpg","pricing_plan_id":"cebpf4jnsgd1na2vs0mg"},{"bike_id":"59b31ef2-3fe3-46e5-b5a5-685f264695ce","system_id":"levelo_inurba_marseille","lat":43.28487,"lon":5.48401,"is_reserved":false,"is_disabled":false,"rental_uris":{"android":"levelo://app?vid=59b31ef2-3fe3-46e5-b5a5-685f264695ce","ios":"levelo://app?vid=59b31ef2-3fe3-46e5-b5a5-685f264695ce"},"vehicle_type_id":"4","last_reported":1762423975,"current_range_meters":14000,"station_id":"","pricing_plan_id":"cebpf4jnsgd1na2vs0mg"},{"bike_id":"f615e670-b201-415a-a7be-64d20a60bd9f","system_id":"levelo_inurba_marseille","lat":43.304382,"lon":5.36859,"is_reserved":false,"is_disabled":false,"rental_uris":{"android":"levelo://app?vid=f615e670-b201-415a-a7be-64d20a60bd9f","ios":"levelo://app?vid=f615e670-b201-415a-a7be-64d20a60bd9f"},"vehicle_type_id":"4","last_reported":1762423975,"current_range_meters":14400,"station_id":"ce4bgrp2rcd13ifvqc9g","pricing_plan_id":"cebpf4jnsgd1na2vs0mg"},{"bike_id":"d6868fe2-8dfb-4b03-9b67-46fb9e01fade","system_id":"levelo_inurba_marseille","lat":43.28268,"lon":5.3508,"is_reserved":false,"is_disabled":true,"rental_uris":{"android":"levelo://app?vid=d6868fe2-8dfb-4b03-9b67-46fb9e01fade","ios":"levelo://app?vid=d6868fe2-8dfb-4b03-9b67-46fb9e01fade"},"vehicle_type_id":"4","last_reported":1762423975,"current_range_meters":14400,"station_id":"ce4bhbp2rcd13ifvqerg","pricing_plan_id":"cebpf4jnsgd1na2vs0mg"},{"bike_id":"5e3412dd-2232-4a2f-a361-0045d58481df","system_id":"levelo_inurba_marseille","lat":43.33753,"lon":5.37439,"is_reserved":false,"is_disabled":false,"rental_uris":{"android":"levelo://app?vid=5e3412dd-2232-4a2f-a361-0045d58481df","ios":"levelo://app?vid=5e3412dd-2232-4a2f-a361-0045d58481df"},"vehicle_type_id":"4","last_reported":1762423975,"current_range_meters":14400,"station_id":"","pricing_plan_id":"cebpf4jnsgd1na2vs0mg"},{"bike_id":"ab3a4d6b-b442-44b9-8f02-c1c222f445ba","system_id":"levelo_inurba_marseille","lat":43.274484,"lon":5.392652,"is_reserved":false,"is_disabled":false,"rental_uris":{"android":"levelo://app?vid=ab3a4d6b-b442-44b9-8f02-c1c222f445ba","ios":"levelo://app?vid=ab3a4d6b-b442-44b9-8f02-c1c222f445ba"},"vehicle_type_id":"4","last_reported":1762423975,"current_range_meters":14800,"station_id":"","pricing_plan_id":"cebpf4jnsgd1na2vs0mg"},{"bike_id":"9a7007ab-d863-4c92-a736-9a68d316b6cc","system_id":"levelo_inurba_marseille","lat":43.30151,"lon":5.37422,"is_reserved":false,"is_disabled":false,"rental_uris":{"android":"levelo://app?vid=9a7007ab-d863-4c92-a736-9a68d316b6cc","ios":"levelo://app?vid=9a7007ab-d863-4c92-a736-9a68d316b6cc"},"vehicle_type_id":"4","last_reported":1762423975,"current_range_meters":14800,"station_id":"ce4bgs92rcd13ifvqcc0","pricing_plan_id":"cebpf4jnsgd1na2vs0mg"},{"bike_id":"bbf096f7-123d-4f98-a337-eb1e868936f8","system_id":"levelo_inurba_marseille","lat":43.287,"lon":5.3739,"is_reserved":false,"is_disabled":false,"rental_uris":{"android":"levelo://app?vid=bbf096f7-123d-4f98-a337-eb1e868936f8","ios":"levelo://app?vid=bbf096f7-123d-4f98-a337-eb1e868936f8"},"vehicle_type_id":"4","last_reported":1762423975,"current_range_meters":14800,"station_id":"ce4bh3p2rcd13ifvqdq0","pricing_plan_id":"cebpf4jnsgd1na2vs0mg"},{"bike_id":"f984d26b-5940-41fb-8621-4fe616e764ba","system_id":"levelo_inurba_marseille","lat":43.31761,"lon":5.39009,"is_reserved":false,"is_disabled":false,"rental_uris":{"android":"levelo://app?vid=f984d26b-5940-41fb-8621-4fe616e764ba","ios":"levelo://app?vid=f984d26b-5940-41fb-8621-4fe616e764ba"},"vehicle_type_id":"4","last_reported":1762423975,"current_range_meters":14800,"station_id":"ce4bhqp2rcd13ifvqhng","pricing_plan_id":"cebpf4jnsgd1na2vs0mg"},{"bike_id":"8edbd335-6405-4e7f-82b9-837eea31165c","system_id":"levelo_inurba_marseille","lat":43.30543,"lon":5.36558,"is_reserved":false,"is_disabled":false,"rental_uris":{"android":"levelo://app?vid=8edbd335-6405-4e7f-82b9-837eea31165c","ios":"levelo://app?vid=8edbd335-6405-4e7f-82b9-837eea31165c"},"vehicle_type_id":"4","last_reported":1762423975,"current_range_meters":14800,"station_id":"ce4bgs12rcd13ifvqcag","pricing_plan_id":"cebpf4jnsgd1na2vs0mg"},{"bike_id":"f3080d76-d1d2-442b-a61f-92b9c969ee87","system_id":"levelo_inurba_marseille","lat":43.29258,"lon":5.37623,"is_reserved":false,"is_disabled":false,"rental_uris":{"android":"levelo://app?vid=f3080d76-d1d2-442b-a61f-92b9c969ee87","ios":"levelo://app?vid=f3080d76-d1d2-442b-a61f-92b9c969ee87"},"vehicle_type_id":"4","last_reported":1762423975,"current_range_meters":15200,"station_id":"ce4bgi12rcd13ifvqb80","pricing_plan_id":"cebpf4jnsgd1na2vs0mg"},{"bike_id":"a92c495e-0af2-4151-8f1d-381b706eb6ed","system_id":"levelo_inurba_marseille","lat":43.29037,"lon":5.39975,"is_reserved":false,"is_disabled":false,"rental_uris":{"android":"levelo://app?vid=a92c495e-0af2-4151-8f1d-381b706eb6ed","ios":"levelo://app?vid=a92c495e-0af2-4151-8f1d-381b706eb6ed"},"vehicle_type_id":"4","last_reported":1762423975,"current_range_meters":15200,"station_id":"ce4bh392rcd13ifvqdm0","pricing_plan_id":"cebpf4jnsgd1na2vs0mg"},{"bike_id":"880839ab-93e8-4133-a550-b6816ee5cf48","system_id":"levelo_inurba_marseille","lat":43.25872,"lon":5.39911,"is_reserved":false,"is_disabled":false,"rental_uris":{"android":"levelo://app?vid=880839ab-93e8-4133-a550-b6816ee5cf48","ios":"levelo://app?vid=880839ab-93e8-4133-a550-b6816ee5cf48"},"vehicle_type_id":"4","last_reported":1762423975,"current_range_meters":15200,"station_id":"ce4bhl92rcd13ifvqghg","pricing_plan_id":"cebpf4jnsgd1na2vs0mg"},{"bike_id":"1a18a8e9-480a-460d-ab82-93e2f65f8d99","system_id":"levelo_inurba_marseille","lat":43.33591,"lon":5.40967,"is_reserved":false,"is_disabled":false,"rental_uris":{"android":"levelo://app?vid=1a18a8e9-480a-460d-ab82-93e2f65f8d99","ios":"levelo://app?vid=1a18a8e9-480a-460d-ab82-93e2f65f8d99"},"vehicle_type_id":"4","last_reported":1762423975,"current_range_meters":15200,"station_id":"","pricing_plan_id":"cebpf4jnsgd1na2vs0mg"},{"bike_id":"e22b345d-4f89-4072-adbf-98664e18b0de","system_id":"levelo_inurba_marseille","lat":43.21196,"lon":5.35079,"is_reserved":false,"is_disabled":false,"rental_uris":{"android":"levelo://app?vid=e22b345d-4f89-4072-adbf-98664e18b0de","ios":"levelo://app?vid=e22b345d-4f89-4072-adbf-98664e18b0de"},"vehicle_type_id":"4","last_reported":1762423975,"current_range_meters":15200,"station_id":"st_cvj6sg6p6f1abm77japg","pricing_plan_id":"cebpf4jnsgd1na2vs0mg"},{"bike_id":"90fb8975-4c34-4228-869a-efb507d720cf","system_id":"levelo_inurba_marseille","lat":43.27469,"lon":5.42491,"is_reserved":false,"is_disabled":false,"rental_uris":{"android":"levelo://app?vid=90fb8975-4c34-4228-869a-efb507d720cf","ios":"levelo://app?vid=90fb8975-4c34-4228-869a-efb507d720cf"},"vehicle_type_id":"4","last_reported":1762423975,"current_range_meters":16000,"station_id":"ce4bhn92rcd13ifvqgrg","pricing_plan_id":"cebpf4jnsgd1na2vs0mg"},{"bike_id":"6a42e4f7-845c-47f4-ad07-a32651c6888f","system_id":"levelo_inurba_marseille","lat":43.2923,"lon":5.36075,"is_reserved":false,"is_disabled":false,"rental_uris":{"android":"levelo://app?vid=6a42e4f7-845c-47f4-ad07-a32651c6888f","ios":"levelo://app?vid=6a42e4f7-845c-47f4-ad07-a32651c6888f"},"vehicle_type_id":"4","last_reported":1762423975,"current_range_meters":16000,"station_id":"ce4bhbh2rcd13ifvqeqg","pricing_plan_id":"cebpf4jnsgd1na2vs0mg"},{"bike_id":"58913ae0-74ea-49b4-8d46-6c500447e71d","system_id":"levelo_inurba_marseille","lat":43.29863,"lon":5.37621,"is_reserved":false,"is_disabled":false,"rental_uris":{"android":"levelo://app?vid=58913ae0-74ea-49b4-8d46-6c500447e71d","ios":"levelo://app?vid=58913ae0-74ea-49b4-8d46-6c500447e71d"},"vehicle_type_id":"4","last_reported":1762423975,"current_range_meters":16000,"station_id":"","pricing_plan_id":"cebpf4jnsgd1na2vs0mg"},{"bike_id":"48c2b0b9-f598-42fb-baa7-44213ce03a52","system_id":"levelo_inurba_marseille","lat":43.231519,"lon":5.437176,"is_reserved":false,"is_disabled":false,"rental_uris":{"android":"levelo://app?vid=48c2b0b9-f598-42fb-baa7-44213ce03a52","ios":"levelo://app?vid=48c2b0b9-f598-42fb-baa7-44213ce03a52"},"vehicle_type_id":"4","last_reported":1762423975,"current_range_meters":16000,"station_id":"ce4bhmp2rcd13ifvqgog","pricing_plan_id":"cebpf4jnsgd1na2vs0mg"},{"bike_id":"d0581743-e06c-4ad1-9f8a-41b25975ba07","system_id":"levelo_inurba_marseille","lat":43.29825,"lon":5.44055,"is_reserved":false,"is_disabled":false,"rental_uris":{"android":"levelo://app?vid=d0581743-e06c-4ad1-9f8a-41b25975ba07","ios":"levelo://app?vid=d0581743-e06c-4ad1-9f8a-41b25975ba07"},"vehicle_type_id":"4","last_reported":1762423975,"current_range_meters":16000,"station_id":"st_d3jp68qikq2c7381ktn0","pricing_plan_id":"cebpf4jnsgd1na2vs0mg"},{"bike_id":"57353adb-5f20-43c2-abfb-e8b73e40a00e","system_id":"levelo_inurba_marseille","lat":43.29524,"lon":5.39038,"is_reserved":false,"is_disabled":false,"rental_uris":{"android":"levelo://app?vid=57353adb-5f20-43c2-abfb-e8b73e40a00e","ios":"levelo://app?vid=57353adb-5f20-43c2-abfb-e8b73e40a00e"},"vehicle_type_id":"4","last_reported":1762423975,"current_range_meters":16000,"station_id":"ce4bh3p2rcd13ifvqdp0","pricing_plan_id":"cebpf4jnsgd1na2vs0mg"},{"bike_id":"ff983867-b5fe-4757-b612-f3a7448314ff","system_id":"levelo_inurba_marseille","lat":43.33608,"lon":5.41031,"is_reserved":false,"is_disabled":false,"rental_uris":{"android":"levelo://app?vid=ff983867-b5fe-4757-b612-f3a7448314ff","ios":"levelo://app?vid=ff983867-b5fe-4757-b612-f3a7448314ff"},"vehicle_type_id":"4","last_reported":1762423975,"current_range_meters":16000,"station_id":"ce4bhqh2rcd13ifvqhmg","pricing_plan_id":"cebpf4jnsgd1na2vs0mg"},{"bike_id":"dec507c1-6699-4a54-9215-69c5203b9f32","system_id":"levelo_inurba_marseille","lat":43.301616,"lon":5.38082,"is_reserved":false,"is_disabled":false,"rental_uris":{"android":"levelo://app?vid=dec507c1-6699-4a54-9215-69c5203b9f32","ios":"levelo://app?vid=dec507c1-6699-4a54-9215-69c5203b9f32"},"vehicle_type_id":"4","last_reported":1762423975,"current_range_meters":16400,"station_id":"ce4bgjp2rcd13ifvqbh0","pricing_plan_id":"cebpf4jnsgd1na2vs0mg"},{"bike_id":"218d47a3-c6e7-4c3c-9685-02a7ebcef396","system_id":"levelo_inurba_marseille","lat":43.25942,"lon":5.40917,"is_reserved":false,"is_disabled":false,"rental_uris":{"android":"levelo://app?vid=218d47a3-c6e7-4c3c-9685-02a7ebcef396","ios":"levelo://app?vid=218d47a3-c6e7-4c3c-9685-02a7ebcef396"},"vehicle_type_id":"4","last_reported":1762423975,"current_range_meters":16400,"station_id":"ce4bhm92rcd13ifvqglg","pricing_plan_id":"cebpf4jnsgd1na2vs0mg"},{"bike_id":"ad0ec38c-bf9e-425e-bee7-e409615c19a4","system_id":"levelo_inurba_marseille","lat":43.29704,"lon":5.376974,"is_reserved":false,"is_disabled":false,"rental_uris":{"android":"levelo://app?vid=ad0ec38c-bf9e-425e-bee7-e409615c19a4","ios":"levelo://app?vid=ad0ec38c-bf9e-425e-bee7-e409615c19a4"},"vehicle_type_id":"4","last_reported":1762423975,"current_range_meters":16400,"station_id":"ce4bgkh2rcd13ifvqbl0","pricing_plan_id":"cebpf4jnsgd1na2vs0mg"},{"bike_id":"43cfab9e-f547-4304-9999-4a8329474751","system_id":"levelo_inurba_marseille","lat":43.212098,"lon":5.350859,"is_reserved":false,"is_disabled":false,"rental_uris":{"android":"levelo://app?vid=43cfab9e-f547-4304-9999-4a8329474751","ios":"levelo://app?vid=43cfab9e-f547-4304-9999-4a8329474751"},"vehicle_type_id":"4","last_reported":1762423975,"current_range_meters":16400,"station_id":"st_cvj6sg6p6f1abm77japg","pricing_plan_id":"cebpf4jnsgd1na2vs0mg"},{"bike_id":"33ae4984-5f12-485a-9589-62afcaed0591","system_id":"levelo_inurba_marseille","lat":43.29142,"lon":5.40797,"is_reserved":false,"is_disabled":false,"rental_uris":{"android":"levelo://app?vid=33ae4984-5f12-485a-9589-62afcaed0591","ios":"levelo://app?vid=33ae4984-5f12-485a-9589-62afcaed0591"},"vehicle_type_id":"4","last_reported":1762423975,"current_range_meters":16400,"station_id":"","pricing_plan_id":"cebpf4jnsgd1na2vs0mg"},{"bike_id":"edea4877-215d-4fb6-9a6c-e256376f39f0","system_id":"levelo_inurba_marseille","lat":43.29249,"lon":5.37628,"is_reserved":false,"is_disabled":false,"rental_uris":{"android":"levelo://app?vid=edea4877-215d-4fb6-9a6c-e256376f39f0","ios":"levelo://app?vid=edea4877-215d-4fb6-9a6c-e256376f39f0"},"vehicle_type_id":"4","last_reported":1762423975,"current_range_meters":16800,"station_id":"ce4bgi12rcd13ifvqb80","pricing_plan_id":"cebpf4jnsgd1na2vs0mg"},{"bike_id":"f48b29eb-575d-4db6-a3a4-cd1e3710c8ab","system_id":"levelo_inurba_marseille","lat":43.27959,"lon":5.38696,"is_reserved":false,"is_disabled":false,"rental_uris":{"android":"levelo://app?vid=f48b29eb-575d-4db6-a3a4-cd1e3710c8ab","ios":"levelo://app?vid=f48b29eb-575d-4db6-a3a4-cd1e3710c8ab"},"vehicle_type_id":"4","last_reported":1762423975,"current_range_meters":16800,"station_id":"ce4bhg12rcd13ifvqf80","pricing_plan_id":"cebpf4jnsgd1na2vs0mg"},{"bike_id":"1c1406c3-ccbf-4c7e-948d-af3d562996c8","system_id":"levelo_inurba_marseille","lat":43.29821,"lon":5.44059,"is_reserved":false,"is_disabled":false,"rental_uris":{"android":"levelo://app?vid=1c1406c3-ccbf-4c7e-948d-af3d562996c8","ios":"levelo://app?vid=1c1406c3-ccbf-4c7e-948d-af3d562996c8"},"vehicle_type_id":"4","last_reported":1762423975,"current_range_meters":16800,"station_id":"st_d3jp68qikq2c7381ktn0","pricing_plan_id":"cebpf4jnsgd1na2vs0mg"},{"bike_id":"59f126a1-3f54-4674-9d02-3170f771521b","system_id":"levelo_inurba_marseille","lat":43.30779,"lon":5.37657,"is_reserved":false,"is_disabled":false,"rental_uris":{"android":"levelo://app?vid=59f126a1-3f54-4674-9d02-3170f771521b","ios":"levelo://app?vid=59f126a1-3f54-4674-9d02-3170f771521b"},"vehicle_type_id":"4","last_reported":1762423975,"current_range_meters":16800,"station_id":"ce4bgv92rcd13ifvqcq0","pricing_plan_id":"cebpf4jnsgd1na2vs0mg"},{"bike_id":"64a5bd43-b081-4848-bb81-3f0b198b4a6e","system_id":"levelo_inurba_marseille","lat":43.293735,"lon":5.384695,"is_reserved":false,"is_disabled":false,"rental_uris":{"android":"levelo://app?vid=64a5bd43-b081-4848-bb81-3f0b198b4a6e","ios":"levelo://app?vid=64a5bd43-b081-4848-bb81-3f0b198b4a6e"},"vehicle_type_id":"4","last_reported":1762423975,"current_range_meters":16800,"station_id":"ce4bhhp2rcd13ifvqfm0","pricing_plan_id":"cebpf4jnsgd1na2vs0mg"},{"bike_id":"b6d6ed38-4c87-427d-b530-709237f9a962","system_id":"levelo_inurba_marseille","lat":43.23164,"lon":5.43694,"is_reserved":false,"is_disabled":false,"rental_uris":{"android":"levelo://app?vid=b6d6ed38-4c87-427d-b530-709237f9a962","ios":"levelo://app?vid=b6d6ed38-4c87-427d-b530-709237f9a962"},"vehicle_type_id":"4","last_reported":1762423975,"current_range_meters":16800,"station_id":"ce4bhmp2rcd13ifvqgog","pricing_plan_id":"cebpf4jnsgd1na2vs0mg"},{"bike_id":"6b965bfc-884a-484d-88c5-749454f2331e","system_id":"levelo_inurba_marseille","lat":43.27496,"lon":5.4246,"is_reserved":false,"is_disabled":true,"rental_uris":{"android":"levelo://app?vid=6b965bfc-884a-484d-88c5-749454f2331e","ios":"levelo://app?vid=6b965bfc-884a-484d-88c5-749454f2331e"},"vehicle_type_id":"4","last_reported":1762423975,"current_range_meters":16800,"station_id":"ce4bhn92rcd13ifvqgrg","pricing_plan_id":"cebpf4jnsgd1na2vs0mg"},{"bike_id":"7f765d5c-c788-4359-b193-b0c38d9af2c0","system_id":"levelo_inurba_marseille","lat":43.23154,"lon":5.43723,"is_reserved":false,"is_disabled":false,"rental_uris":{"android":"levelo://app?vid=7f765d5c-c788-4359-b193-b0c38d9af2c0","ios":"levelo://app?vid=7f765d5c-c788-4359-b193-b0c38d9af2c0"},"vehicle_type_id":"4","last_reported":1762423975,"current_range_meters":16800,"station_id":"ce4bhmp2rcd13ifvqgog","pricing_plan_id":"cebpf4jnsgd1na2vs0mg"},{"bike_id":"548d52fc-2f99-49b4-bb3b-df9aacaed4b3","system_id":"levelo_inurba_marseille","lat":43.30774,"lon":5.37651,"is_reserved":false,"is_disabled":false,"rental_uris":{"android":"levelo://app?vid=548d52fc-2f99-49b4-bb3b-df9aacaed4b3","ios":"levelo://app?vid=548d52fc-2f99-49b4-bb3b-df9aacaed4b3"},"vehicle_type_id":"4","last_reported":1762423975,"current_range_meters":17200,"station_id":"ce4bgv92rcd13ifvqcq0","pricing_plan_id":"cebpf4jnsgd1na2vs0mg"},{"bike_id":"d98fae59-ff60-41e6-b471-90b576c490fa","system_id":"levelo_inurba_marseille","lat":43.29196,"lon":5.35798,"is_reserved":false,"is_disabled":true,"rental_uris":{"android":"levelo://app?vid=d98fae59-ff60-41e6-b471-90b576c490fa","ios":"levelo://app?vid=d98fae59-ff60-41e6-b471-90b576c490fa"},"vehicle_type_id":"4","last_reported":1762423975,"current_range_meters":17200,"station_id":"ce4bhb12rcd13ifvqel0","pricing_plan_id":"cebpf4jnsgd1na2vs0mg"},{"bike_id":"b3671278-75ca-4e8b-b595-5907dfbd876e","system_id":"levelo_inurba_marseille","lat":43.24082,"lon":5.37757,"is_reserved":false,"is_disabled":false,"rental_uris":{"android":"levelo://app?vid=b3671278-75ca-4e8b-b595-5907dfbd876e","ios":"levelo://app?vid=b3671278-75ca-4e8b-b595-5907dfbd876e"},"vehicle_type_id":"4","last_reported":1762423975,"current_range_meters":17200,"station_id":"ce4bhnp2rcd13ifvqgvg","pricing_plan_id":"cebpf4jnsgd1na2vs0mg"},{"bike_id":"c8f136e5-31d7-40da-91e8-58d3251aaaa1","system_id":"levelo_inurba_marseille","lat":43.29257,"lon":5.36852,"is_reserved":false,"is_disabled":true,"rental_uris":{"android":"levelo://app?vid=c8f136e5-31d7-40da-91e8-58d3251aaaa1","ios":"levelo://app?vid=c8f136e5-31d7-40da-91e8-58d3251aaaa1"},"vehicle_type_id":"4","last_reported":1762423975,"current_range_meters":17200,"station_id":"ce4bhbp2rcd13ifvqesg","pricing_plan_id":"cebpf4jnsgd1na2vs0mg"},{"bike_id":"b2ee5b49-600b-4507-ad32-80e18dcfde19","system_id":"levelo_inurba_marseille","lat":43.24085,"lon":5.37756,"is_reserved":false,"is_disabled":false,"rental_uris":{"android":"levelo://app?vid=b2ee5b49-600b-4507-ad32-80e18dcfde19","ios":"levelo://app?vid=b2ee5b49-600b-4507-ad32-80e18dcfde19"},"vehicle_type_id":"4","last_reported":1762423975,"current_range_meters":17200,"station_id":"ce4bhnp2rcd13ifvqgvg","pricing_plan_id":"cebpf4jnsgd1na2vs0mg"},{"bike_id":"d4e350b2-17ed-4f06-a4e6-9a77f8576c62","system_id":"levelo_inurba_marseille","lat":43.23148,"lon":5.43708,"is_reserved":false,"is_disabled":false,"rental_uris":{"android":"levelo://app?vid=d4e350b2-17ed-4f06-a4e6-9a77f8576c62","ios":"levelo://app?vid=d4e350b2-17ed-4f06-a4e6-9a77f8576c62"},"vehicle_type_id":"4","last_reported":1762423975,"current_range_meters":17200,"station_id":"ce4bhmp2rcd13ifvqgog","pricing_plan_id":"cebpf4jnsgd1na2vs0mg"},{"bike_id":"e4a3f7f8-6f38-4d59-9ec4-b054bcf3325b","system_id":"levelo_inurba_marseille","lat":43.24081,"lon":5.37774,"is_reserved":false,"is_disabled":false,"rental_uris":{"android":"levelo://app?vid=e4a3f7f8-6f38-4d59-9ec4-b054bcf3325b","ios":"levelo://app?vid=e4a3f7f8-6f38-4d59-9ec4-b054bcf3325b"},"vehicle_type_id":"4","last_reported":1762423975,"current_range_meters":17200,"station_id":"ce4bhnp2rcd13ifvqgvg","pricing_plan_id":"cebpf4jnsgd1na2vs0mg"},{"bike_id":"269ead20-5180-418a-b856-6799bdd59ae9","system_id":"levelo_inurba_marseille","lat":43.2742,"lon":5.3942,"is_reserved":false,"is_disabled":false,"rental_uris":{"android":"levelo://app?vid=269ead20-5180-418a-b856-6799bdd59ae9","ios":"levelo://app?vid=269ead20-5180-418a-b856-6799bdd59ae9"},"vehicle_type_id":"4","last_reported":1762423975,"current_range_meters":17200,"station_id":"ce4bhdp2rcd13ifvqf20","pricing_plan_id":"cebpf4jnsgd1na2vs0mg"},{"bike_id":"5ef84235-eddd-425b-8be4-c31c46a00271","system_id":"levelo_inurba_marseille","lat":43.241708,"lon":5.363999,"is_reserved":false,"is_disabled":false,"rental_uris":{"android":"levelo://app?vid=5ef84235-eddd-425b-8be4-c31c46a00271","ios":"levelo://app?vid=5ef84235-eddd-425b-8be4-c31c46a00271"},"vehicle_type_id":"4","last_reported":1762423975,"current_range_meters":17200,"station_id":"cpo36qri1sfpv3e86is0","pricing_plan_id":"cebpf4jnsgd1na2vs0mg"},{"bike_id":"6f7316b6-7794-4dd2-b5d2-399fa4c4f2b8","system_id":"levelo_inurba_marseille","lat":43.30461,"lon":5.37899,"is_reserved":false,"is_disabled":false,"rental_uris":{"android":"levelo://app?vid=6f7316b6-7794-4dd2-b5d2-399fa4c4f2b8","ios":"levelo://app?vid=6f7316b6-7794-4dd2-b5d2-399fa4c4f2b8"},"vehicle_type_id":"4","last_reported":1762423975,"current_range_meters":17200,"station_id":"ce4bgup2rcd13ifvqcn0","pricing_plan_id":"cebpf4jnsgd1na2vs0mg"},{"bike_id":"63c55f34-59ab-41c7-9fbd-1c0276a7218f","system_id":"levelo_inurba_marseille","lat":43.279465,"lon":5.39873,"is_reserved":false,"is_disabled":false,"rental_uris":{"android":"levelo://app?vid=63c55f34-59ab-41c7-9fbd-1c0276a7218f","ios":"levelo://app?vid=63c55f34-59ab-41c7-9fbd-1c0276a7218f"},"vehicle_type_id":"4","last_reported":1762423975,"current_range_meters":17600,"station_id":"ce4bhg12rcd13ifvqf80","pricing_plan_id":"cebpf4jnsgd1na2vs0mg"},{"bike_id":"8c469623-2e38-46c0-af40-d2bd7c685bdf","system_id":"levelo_inurba_marseille","lat":43.323681,"lon":5.388661,"is_reserved":false,"is_disabled":false,"rental_uris":{"android":"levelo://app?vid=8c469623-2e38-46c0-af40-d2bd7c685bdf","ios":"levelo://app?vid=8c469623-2e38-46c0-af40-d2bd7c685bdf"},"vehicle_type_id":"4","last_reported":1762423975,"current_range_meters":17600,"station_id":"ce4bhqp2rcd13ifvqhog","pricing_plan_id":"cebpf4jnsgd1na2vs0mg"},{"bike_id":"06f25dea-ca18-4cca-a251-573298dd6aba","system_id":"levelo_inurba_marseille","lat":43.321084,"lon":5.367928,"is_reserved":false,"is_disabled":false,"rental_uris":{"android":"levelo://app?vid=06f25dea-ca18-4cca-a251-573298dd6aba","ios":"levelo://app?vid=06f25dea-ca18-4cca-a251-573298dd6aba"},"vehicle_type_id":"4","last_reported":1762423975,"current_range_meters":17600,"station_id":"ce4bhrh2rcd13ifvqhug","pricing_plan_id":"cebpf4jnsgd1na2vs0mg"},{"bike_id":"0ab43d90-1272-4d3e-93ca-d153c21b67be","system_id":"levelo_inurba_marseille","lat":43.30554,"lon":5.36527,"is_reserved":false,"is_disabled":false,"rental_uris":{"android":"levelo://app?vid=0ab43d90-1272-4d3e-93ca-d153c21b67be","ios":"levelo://app?vid=0ab43d90-1272-4d3e-93ca-d153c21b67be"},"vehicle_type_id":"4","last_reported":1762423975,"current_range_meters":17600,"station_id":"ce4bgs12rcd13ifvqcag","pricing_plan_id":"cebpf4jnsgd1na2vs0mg"},{"bike_id":"83e960e8-9160-4897-b8dc-26435c25dd10","system_id":"levelo_inurba_marseille","lat":43.30922,"lon":5.36841,"is_reserved":false,"is_disabled":false,"rental_uris":{"android":"levelo://app?vid=83e960e8-9160-4897-b8dc-26435c25dd10","ios":"levelo://app?vid=83e960e8-9160-4897-b8dc-26435c25dd10"},"vehicle_type_id":"4","last_reported":1762423975,"current_range_meters":17600,"station_id":"ce4bgn92rcd13ifvqbvg","pricing_plan_id":"cebpf4jnsgd1na2vs0mg"},{"bike_id":"2e828f2c-0438-4aa4-8266-b2a4233ae4a4","system_id":"levelo_inurba_marseille","lat":43.30151,"lon":5.3808,"is_reserved":false,"is_disabled":false,"rental_uris":{"android":"levelo://app?vid=2e828f2c-0438-4aa4-8266-b2a4233ae4a4","ios":"levelo://app?vid=2e828f2c-0438-4aa4-8266-b2a4233ae4a4"},"vehicle_type_id":"4","last_reported":1762423975,"current_range_meters":17600,"station_id":"ce4bgjp2rcd13ifvqbh0","pricing_plan_id":"cebpf4jnsgd1na2vs0mg"},{"bike_id":"7fa71568-a2cb-429b-9c74-cf9956d3e09a","system_id":"levelo_inurba_marseille","lat":43.30189,"lon":5.36618,"is_reserved":false,"is_disabled":false,"rental_uris":{"android":"levelo://app?vid=7fa71568-a2cb-429b-9c74-cf9956d3e09a","ios":"levelo://app?vid=7fa71568-a2cb-429b-9c74-cf9956d3e09a"},"vehicle_type_id":"4","last_reported":1762423975,"current_range_meters":18000,"station_id":"ce4bgrh2rcd13ifvqc8g","pricing_plan_id":"cebpf4jnsgd1na2vs0mg"},{"bike_id":"4e87d557-fc93-49b9-a683-28fb43a9036d","system_id":"levelo_inurba_marseille","lat":43.279752,"lon":5.387476,"is_reserved":false,"is_disabled":false,"rental_uris":{"android":"levelo://app?vid=4e87d557-fc93-49b9-a683-28fb43a9036d","ios":"levelo://app?vid=4e87d557-fc93-49b9-a683-28fb43a9036d"},"vehicle_type_id":"4","last_reported":1762423975,"current_range_meters":18000,"station_id":"ce4bhg12rcd13ifvqf80","pricing_plan_id":"cebpf4jnsgd1na2vs0mg"},{"bike_id":"711b5184-06a1-46c6-b1ad-270408b914a4","system_id":"levelo_inurba_marseille","lat":43.30018,"lon":5.4098,"is_reserved":false,"is_disabled":false,"rental_uris":{"android":"levelo://app?vid=711b5184-06a1-46c6-b1ad-270408b914a4","ios":"levelo://app?vid=711b5184-06a1-46c6-b1ad-270408b914a4"},"vehicle_type_id":"4","last_reported":1762423975,"current_range_meters":18000,"station_id":"","pricing_plan_id":"cebpf4jnsgd1na2vs0mg"},{"bike_id":"93e6a07d-d8bb-454c-bdc6-c18d03370aca","system_id":"levelo_inurba_marseille","lat":43.30311,"lon":5.36904,"is_reserved":false,"is_disabled":false,"rental_uris":{"android":"levelo://app?vid=93e6a07d-d8bb-454c-bdc6-c18d03370aca","ios":"levelo://app?vid=93e6a07d-d8bb-454c-bdc6-c18d03370aca"},"vehicle_type_id":"4","last_reported":1762423975,"current_range_meters":18000,"station_id":"ce4bgqh2rcd13ifvqc5g","pricing_plan_id":"cebpf4jnsgd1na2vs0mg"},{"bike_id":"8aba6a3b-fd13-4733-a719-6d7546477997","system_id":"levelo_inurba_marseille","lat":43.297429,"lon":5.376919,"is_reserved":false,"is_disabled":false,"rental_uris":{"android":"levelo://app?vid=8aba6a3b-fd13-4733-a719-6d7546477997","ios":"levelo://app?vid=8aba6a3b-fd13-4733-a719-6d7546477997"},"vehicle_type_id":"4","last_reported":1762423975,"current_range_meters":18000,"station_id":"ce4bgkh2rcd13ifvqbl0","pricing_plan_id":"cebpf4jnsgd1na2vs0mg"},{"bike_id":"28b54568-250f-48ad-b030-25d760bf4abc","system_id":"levelo_inurba_marseille","lat":43.321093,"lon":5.367884,"is_reserved":false,"is_disabled":false,"rental_uris":{"android":"levelo://app?vid=28b54568-250f-48ad-b030-25d760bf4abc","ios":"levelo://app?vid=28b54568-250f-48ad-b030-25d760bf4abc"},"vehicle_type_id":"4","last_reported":1762423975,"current_range_meters":18000,"station_id":"ce4bhrh2rcd13ifvqhug","pricing_plan_id":"cebpf4jnsgd1na2vs0mg"},{"bike_id":"89882961-73f6-4bf2-9d4b-4021203899cc","system_id":"levelo_inurba_marseille","lat":43.24086,"lon":5.37769,"is_reserved":false,"is_disabled":false,"rental_uris":{"android":"levelo://app?vid=89882961-73f6-4bf2-9d4b-4021203899cc","ios":"levelo://app?vid=89882961-73f6-4bf2-9d4b-4021203899cc"},"vehicle_type_id":"4","last_reported":1762423975,"current_range_meters":18000,"station_id":"ce4bhnp2rcd13ifvqgvg","pricing_plan_id":"cebpf4jnsgd1na2vs0mg"},{"bike_id":"7e7e467c-85bc-4d9b-9f29-0566fe0bfb1a","system_id":"levelo_inurba_marseille","lat":43.29369,"lon":5.37833,"is_reserved":false,"is_disabled":false,"rental_uris":{"android":"levelo://app?vid=7e7e467c-85bc-4d9b-9f29-0566fe0bfb1a","ios":"levelo://app?vid=7e7e467c-85bc-4d9b-9f29-0566fe0bfb1a"},"vehicle_type_id":"4","last_reported":1762423975,"current_range_meters":18000,"station_id":"ce4bgjh2rcd13ifvqbf0","pricing_plan_id":"cebpf4jnsgd1na2vs0mg"},{"bike_id":"ea7c93f5-45ff-40e7-8dd0-c602191b4699","system_id":"levelo_inurba_marseille","lat":43.270542,"lon":5.402614,"is_reserved":false,"is_disabled":false,"rental_uris":{"android":"levelo://app?vid=ea7c93f5-45ff-40e7-8dd0-c602191b4699","ios":"levelo://app?vid=ea7c93f5-45ff-40e7-8dd0-c602191b4699"},"vehicle_type_id":"4","last_reported":1762423975,"current_range_meters":18000,"station_id":"ce4bhk92rcd13ifvqgc0","pricing_plan_id":"cebpf4jnsgd1na2vs0mg"},{"bike_id":"a906c8f7-b25b-4dd8-acc7-fd101c297e0c","system_id":"levelo_inurba_marseille","lat":43.25932,"lon":5.40894,"is_reserved":false,"is_disabled":false,"rental_uris":{"android":"levelo://app?vid=a906c8f7-b25b-4dd8-acc7-fd101c297e0c","ios":"levelo://app?vid=a906c8f7-b25b-4dd8-acc7-fd101c297e0c"},"vehicle_type_id":"4","last_reported":1762423975,"current_range_meters":18000,"station_id":"ce4bhm92rcd13ifvqglg","pricing_plan_id":"cebpf4jnsgd1na2vs0mg"},{"bike_id":"2abe9563-3708-4a64-b3ef-5b33e6aaf908","system_id":"levelo_inurba_marseille","lat":43.33602,"lon":5.41005,"is_reserved":false,"is_disabled":false,"rental_uris":{"android":"levelo://app?vid=2abe9563-3708-4a64-b3ef-5b33e6aaf908","ios":"levelo://app?vid=2abe9563-3708-4a64-b3ef-5b33e6aaf908"},"vehicle_type_id":"4","last_reported":1762423975,"current_range_meters":18000,"station_id":"ce4bhqh2rcd13ifvqhmg","pricing_plan_id":"cebpf4jnsgd1na2vs0mg"},{"bike_id":"5a12b886-bc02-4d43-89f6-b7038461e865","system_id":"levelo_inurba_marseille","lat":43.29628,"lon":5.37727,"is_reserved":false,"is_disabled":false,"rental_uris":{"android":"levelo://app?vid=5a12b886-bc02-4d43-89f6-b7038461e865","ios":"levelo://app?vid=5a12b886-bc02-4d43-89f6-b7038461e865"},"vehicle_type_id":"4","last_reported":1762423975,"current_range_meters":18000,"station_id":"ce4bgi92rcd13ifvqb90","pricing_plan_id":"cebpf4jnsgd1na2vs0mg"},{"bike_id":"364e7252-6c8d-481d-b075-6ed46540f13b","system_id":"levelo_inurba_marseille","lat":43.2628,"lon":5.39844,"is_reserved":false,"is_disabled":false,"rental_uris":{"android":"levelo://app?vid=364e7252-6c8d-481d-b075-6ed46540f13b","ios":"levelo://app?vid=364e7252-6c8d-481d-b075-6ed46540f13b"},"vehicle_type_id":"4","last_reported":1762423975,"current_range_meters":18800,"station_id":"","pricing_plan_id":"cebpf4jnsgd1na2vs0mg"},{"bike_id":"1023c061-6b16-4e64-bfd8-deb065f669b9","system_id":"levelo_inurba_marseille","lat":43.29623,"lon":5.37723,"is_reserved":false,"is_disabled":false,"rental_uris":{"android":"levelo://app?vid=1023c061-6b16-4e64-bfd8-deb065f669b9","ios":"levelo://app?vid=1023c061-6b16-4e64-bfd8-deb065f669b9"},"vehicle_type_id":"4","last_reported":1762423975,"current_range_meters":18800,"station_id":"ce4bgi92rcd13ifvqb90","pricing_plan_id":"cebpf4jnsgd1na2vs0mg"},{"bike_id":"9bcb01c6-33c3-42f9-ac7b-62f19f6020f0","system_id":"levelo_inurba_marseille","lat":43.23188,"lon":5.35558,"is_reserved":false,"is_disabled":false,"rental_uris":{"android":"levelo://app?vid=9bcb01c6-33c3-42f9-ac7b-62f19f6020f0","ios":"levelo://app?vid=9bcb01c6-33c3-42f9-ac7b-62f19f6020f0"},"vehicle_type_id":"4","last_reported":1762423975,"current_range_meters":18800,"station_id":"ce4bhu92rcd13ifvqi70","pricing_plan_id":"cebpf4jnsgd1na2vs0mg"},{"bike_id":"65d83eaf-428a-43cd-a356-ecaed95948ff","system_id":"levelo_inurba_marseille","lat":43.24867,"lon":5.39746,"is_reserved":false,"is_disabled":false,"rental_uris":{"android":"levelo://app?vid=65d83eaf-428a-43cd-a356-ecaed95948ff","ios":"levelo://app?vid=65d83eaf-428a-43cd-a356-ecaed95948ff"},"vehicle_type_id":"4","last_reported":1762423975,"current_range_meters":18800,"station_id":"","pricing_plan_id":"cebpf4jnsgd1na2vs0mg"},{"bike_id":"735af335-66bf-4340-87fb-78f795989dcc","system_id":"levelo_inurba_marseille","lat":43.29909,"lon":5.38233,"is_reserved":false,"is_disabled":false,"rental_uris":{"android":"levelo://app?vid=735af335-66bf-4340-87fb-78f795989dcc","ios":"levelo://app?vid=735af335-66bf-4340-87fb-78f795989dcc"},"vehicle_type_id":"4","last_reported":1762423975,"current_range_meters":18800,"station_id":"","pricing_plan_id":"cebpf4jnsgd1na2vs0mg"},{"bike_id":"329070e8-d502-4a6c-b48c-e60c98fc285b","system_id":"levelo_inurba_marseille","lat":43.31266,"lon":5.38954,"is_reserved":false,"is_disabled":false,"rental_uris":{"android":"levelo://app?vid=329070e8-d502-4a6c-b48c-e60c98fc285b","ios":"levelo://app?vid=329070e8-d502-4a6c-b48c-e60c98fc285b"},"vehicle_type_id":"4","last_reported":1762423975,"current_range_meters":18800,"station_id":"","pricing_plan_id":"cebpf4jnsgd1na2vs0mg"},{"bike_id":"acd11f1f-a797-4d8a-ac97-7cfd85277af2","system_id":"levelo_inurba_marseille","lat":43.229338,"lon":5.353888,"is_reserved":false,"is_disabled":false,"rental_uris":{"android":"levelo://app?vid=acd11f1f-a797-4d8a-ac97-7cfd85277af2","ios":"levelo://app?vid=acd11f1f-a797-4d8a-ac97-7cfd85277af2"},"vehicle_type_id":"4","last_reported":1762423975,"current_range_meters":18800,"station_id":"cpo3532slgdg3j2ikp40","pricing_plan_id":"cebpf4jnsgd1na2vs0mg"},{"bike_id":"4db561fa-0133-449c-a0eb-011343a5bd3a","system_id":"levelo_inurba_marseille","lat":43.28863,"lon":5.42515,"is_reserved":false,"is_disabled":false,"rental_uris":{"android":"levelo://app?vid=4db561fa-0133-449c-a0eb-011343a5bd3a","ios":"levelo://app?vid=4db561fa-0133-449c-a0eb-011343a5bd3a"},"vehicle_type_id":"4","last_reported":1762423975,"current_range_meters":18800,"station_id":"st_d3b462108ojc7389ooeg","pricing_plan_id":"cebpf4jnsgd1na2vs0mg"},{"bike_id":"a0780bc9-5bab-46f2-8d08-98e1e3141e80","system_id":"levelo_inurba_marseille","lat":43.30928,"lon":5.36836,"is_reserved":false,"is_disabled":false,"rental_uris":{"android":"levelo://app?vid=a0780bc9-5bab-46f2-8d08-98e1e3141e80","ios":"levelo://app?vid=a0780bc9-5bab-46f2-8d08-98e1e3141e80"},"vehicle_type_id":"4","last_reported":1762423975,"current_range_meters":18800,"station_id":"ce4bgn92rcd13ifvqbvg","pricing_plan_id":"cebpf4jnsgd1na2vs0mg"},{"bike_id":"1d778f0d-ff5a-4913-8985-bfa5b488afe0","system_id":"levelo_inurba_marseille","lat":43.24083,"lon":5.37753,"is_reserved":false,"is_disabled":false,"rental_uris":{"android":"levelo://app?vid=1d778f0d-ff5a-4913-8985-bfa5b488afe0","ios":"levelo://app?vid=1d778f0d-ff5a-4913-8985-bfa5b488afe0"},"vehicle_type_id":"4","last_reported":1762423975,"current_range_meters":19200,"station_id":"ce4bhnp2rcd13ifvqgvg","pricing_plan_id":"cebpf4jnsgd1na2vs0mg"},{"bike_id":"1bfe6d9c-c8f3-407c-a530-c64229d5c671","system_id":"levelo_inurba_marseille","lat":43.26559,"lon":5.37287,"is_reserved":false,"is_disabled":false,"rental_uris":{"android":"levelo://app?vid=1bfe6d9c-c8f3-407c-a530-c64229d5c671","ios":"levelo://app?vid=1bfe6d9c-c8f3-407c-a530-c64229d5c671"},"vehicle_type_id":"4","last_reported":1762423975,"current_range_meters":19200,"station_id":"ce4bhg12rcd13ifvqf70","pricing_plan_id":"cebpf4jnsgd1na2vs0mg"},{"bike_id":"7981b8a8-930e-4d00-9589-7b6562c38465","system_id":"levelo_inurba_marseille","lat":43.29794,"lon":5.37082,"is_reserved":false,"is_disabled":false,"rental_uris":{"android":"levelo://app?vid=7981b8a8-930e-4d00-9589-7b6562c38465","ios":"levelo://app?vid=7981b8a8-930e-4d00-9589-7b6562c38465"},"vehicle_type_id":"4","last_reported":1762423975,"current_range_meters":19200,"station_id":"ce4bgop2rcd13ifvqc1g","pricing_plan_id":"cebpf4jnsgd1na2vs0mg"},{"bike_id":"ada7c068-07f5-4885-8cb5-5c4f9b537ace","system_id":"levelo_inurba_marseille","lat":43.23151,"lon":5.43711,"is_reserved":false,"is_disabled":false,"rental_uris":{"android":"levelo://app?vid=ada7c068-07f5-4885-8cb5-5c4f9b537ace","ios":"levelo://app?vid=ada7c068-07f5-4885-8cb5-5c4f9b537ace"},"vehicle_type_id":"4","last_reported":1762423975,"current_range_meters":19200,"station_id":"ce4bhmp2rcd13ifvqgog","pricing_plan_id":"cebpf4jnsgd1na2vs0mg"},{"bike_id":"aa9b409b-c6df-4fe5-932f-a82c17cc1a1b","system_id":"levelo_inurba_marseille","lat":43.30155,"lon":5.38083,"is_reserved":false,"is_disabled":false,"rental_uris":{"android":"levelo://app?vid=aa9b409b-c6df-4fe5-932f-a82c17cc1a1b","ios":"levelo://app?vid=aa9b409b-c6df-4fe5-932f-a82c17cc1a1b"},"vehicle_type_id":"4","last_reported":1762423975,"current_range_meters":19200,"station_id":"ce4bgjp2rcd13ifvqbh0","pricing_plan_id":"cebpf4jnsgd1na2vs0mg"},{"bike_id":"61ddc86e-4057-408e-b8be-fe33b31fd070","system_id":"levelo_inurba_marseille","lat":43.23199,"lon":5.3554,"is_reserved":false,"is_disabled":false,"rental_uris":{"android":"levelo://app?vid=61ddc86e-4057-408e-b8be-fe33b31fd070","ios":"levelo://app?vid=61ddc86e-4057-408e-b8be-fe33b31fd070"},"vehicle_type_id":"4","last_reported":1762423975,"current_range_meters":19200,"station_id":"ce4bhu92rcd13ifvqi70","pricing_plan_id":"cebpf4jnsgd1na2vs0mg"},{"bike_id":"06550014-c76f-452c-9d3f-81902acf3e08","system_id":"levelo_inurba_marseille","lat":43.30927,"lon":5.36865,"is_reserved":false,"is_disabled":false,"rental_uris":{"android":"levelo://app?vid=06550014-c76f-452c-9d3f-81902acf3e08","ios":"levelo://app?vid=06550014-c76f-452c-9d3f-81902acf3e08"},"vehicle_type_id":"4","last_reported":1762423975,"current_range_meters":19200,"station_id":"ce4bgn92rcd13ifvqbvg","pricing_plan_id":"cebpf4jnsgd1na2vs0mg"},{"bike_id":"45d0ddf3-6d11-4eea-9bbd-4b77d908f1e0","system_id":"levelo_inurba_marseille","lat":43.33613,"lon":5.41029,"is_reserved":false,"is_disabled":false,"rental_uris":{"android":"levelo://app?vid=45d0ddf3-6d11-4eea-9bbd-4b77d908f1e0","ios":"levelo://app?vid=45d0ddf3-6d11-4eea-9bbd-4b77d908f1e0"},"vehicle_type_id":"4","last_reported":1762423975,"current_range_meters":19600,"station_id":"ce4bhqh2rcd13ifvqhmg","pricing_plan_id":"cebpf4jnsgd1na2vs0mg"},{"bike_id":"41e27a68-b799-483e-9ce2-0ac230bb9171","system_id":"levelo_inurba_marseille","lat":43.30543,"lon":5.36693,"is_reserved":false,"is_disabled":false,"rental_uris":{"android":"levelo://app?vid=41e27a68-b799-483e-9ce2-0ac230bb9171","ios":"levelo://app?vid=41e27a68-b799-483e-9ce2-0ac230bb9171"},"vehicle_type_id":"4","last_reported":1762423975,"current_range_meters":19600,"station_id":"ce4bgrp2rcd13ifvqc9g","pricing_plan_id":"cebpf4jnsgd1na2vs0mg"},{"bike_id":"16c06b59-1af1-4860-9663-0d947fdc150e","system_id":"levelo_inurba_marseille","lat":43.29623,"lon":5.37719,"is_reserved":false,"is_disabled":false,"rental_uris":{"android":"levelo://app?vid=16c06b59-1af1-4860-9663-0d947fdc150e","ios":"levelo://app?vid=16c06b59-1af1-4860-9663-0d947fdc150e"},"vehicle_type_id":"4","last_reported":1762423975,"current_range_meters":19600,"station_id":"ce4bgi92rcd13ifvqb90","pricing_plan_id":"cebpf4jnsgd1na2vs0mg"},{"bike_id":"55c6a609-9074-4f89-a752-5a65b39a1df5","system_id":"levelo_inurba_marseille","lat":43.32109,"lon":5.36769,"is_reserved":false,"is_disabled":false,"rental_uris":{"android":"levelo://app?vid=55c6a609-9074-4f89-a752-5a65b39a1df5","ios":"levelo://app?vid=55c6a609-9074-4f89-a752-5a65b39a1df5"},"vehicle_type_id":"4","last_reported":1762423975,"current_range_meters":19600,"station_id":"ce4bhrh2rcd13ifvqhug","pricing_plan_id":"cebpf4jnsgd1na2vs0mg"},{"bike_id":"07b02f80-e962-43d2-b916-5af4c062b60a","system_id":"levelo_inurba_marseille","lat":43.23151,"lon":5.43719,"is_reserved":false,"is_disabled":false,"rental_uris":{"android":"levelo://app?vid=07b02f80-e962-43d2-b916-5af4c062b60a","ios":"levelo://app?vid=07b02f80-e962-43d2-b916-5af4c062b60a"},"vehicle_type_id":"4","last_reported":1762423975,"current_range_meters":19600,"station_id":"ce4bhmp2rcd13ifvqgog","pricing_plan_id":"cebpf4jnsgd1na2vs0mg"},{"bike_id":"a88522c2-7f31-460d-8b59-1c10109fed19","system_id":"levelo_inurba_marseille","lat":43.31449,"lon":5.37591,"is_reserved":false,"is_disabled":false,"rental_uris":{"android":"levelo://app?vid=a88522c2-7f31-460d-8b59-1c10109fed19","ios":"levelo://app?vid=a88522c2-7f31-460d-8b59-1c10109fed19"},"vehicle_type_id":"4","last_reported":1762423975,"current_range_meters":19600,"station_id":"","pricing_plan_id":"cebpf4jnsgd1na2vs0mg"},{"bike_id":"33564b2e-8f7f-4690-9c0c-a3e0fe8d09e8","system_id":"levelo_inurba_marseille","lat":43.24177,"lon":5.39739,"is_reserved":false,"is_disabled":false,"rental_uris":{"android":"levelo://app?vid=33564b2e-8f7f-4690-9c0c-a3e0fe8d09e8","ios":"levelo://app?vid=33564b2e-8f7f-4690-9c0c-a3e0fe8d09e8"},"vehicle_type_id":"4","last_reported":1762423975,"current_range_meters":19600,"station_id":"ce4bhn12rcd13ifvqgpg","pricing_plan_id":"cebpf4jnsgd1na2vs0mg"},{"bike_id":"d9217edb-2a77-46d2-8c74-1939f00ab8dd","system_id":"levelo_inurba_marseille","lat":43.25093,"lon":5.39518,"is_reserved":false,"is_disabled":false,"rental_uris":{"android":"levelo://app?vid=d9217edb-2a77-46d2-8c74-1939f00ab8dd","ios":"levelo://app?vid=d9217edb-2a77-46d2-8c74-1939f00ab8dd"},"vehicle_type_id":"4","last_reported":1762423975,"current_range_meters":19600,"station_id":"ce4bhm12rcd13ifvqgkg","pricing_plan_id":"cebpf4jnsgd1na2vs0mg"},{"bike_id":"e5c83a94-b528-415b-9c33-c933fff54edb","system_id":"levelo_inurba_marseille","lat":43.25934,"lon":5.40909,"is_reserved":false,"is_disabled":false,"rental_uris":{"android":"levelo://app?vid=e5c83a94-b528-415b-9c33-c933fff54edb","ios":"levelo://app?vid=e5c83a94-b528-415b-9c33-c933fff54edb"},"vehicle_type_id":"4","last_reported":1762423975,"current_range_meters":20000,"station_id":"ce4bhm92rcd13ifvqglg","pricing_plan_id":"cebpf4jnsgd1na2vs0mg"},{"bike_id":"4e0aa5e9-ea69-438f-a398-8bc5a68e8cda","system_id":"levelo_inurba_marseille","lat":43.30034,"lon":5.44846,"is_reserved":false,"is_disabled":false,"rental_uris":{"android":"levelo://app?vid=4e0aa5e9-ea69-438f-a398-8bc5a68e8cda","ios":"levelo://app?vid=4e0aa5e9-ea69-438f-a398-8bc5a68e8cda"},"vehicle_type_id":"4","last_reported":1762423975,"current_range_meters":20000,"station_id":"","pricing_plan_id":"cebpf4jnsgd1na2vs0mg"},{"bike_id":"26bc1f70-36c7-4f9e-a611-efa0ae0c71e3","system_id":"levelo_inurba_marseille","lat":43.28729,"lon":5.37939,"is_reserved":false,"is_disabled":false,"rental_uris":{"android":"levelo://app?vid=26bc1f70-36c7-4f9e-a611-efa0ae0c71e3","ios":"levelo://app?vid=26bc1f70-36c7-4f9e-a611-efa0ae0c71e3"},"vehicle_type_id":"4","last_reported":1762423975,"current_range_meters":20000,"station_id":"ce4bh9p2rcd13ifvqec0","pricing_plan_id":"cebpf4jnsgd1na2vs0mg"},{"bike_id":"f737235a-f2f4-4637-9155-2fa5fbbd117d","system_id":"levelo_inurba_marseille","lat":43.256252,"lon":5.382343,"is_reserved":false,"is_disabled":false,"rental_uris":{"android":"levelo://app?vid=f737235a-f2f4-4637-9155-2fa5fbbd117d","ios":"levelo://app?vid=f737235a-f2f4-4637-9155-2fa5fbbd117d"},"vehicle_type_id":"4","last_reported":1762423975,"current_range_meters":20000,"station_id":"ce4bhih2rcd13ifvqfs0","pricing_plan_id":"cebpf4jnsgd1na2vs0mg"},{"bike_id":"dca521ca-2a99-4ec3-ae9a-73b5df3e212f","system_id":"levelo_inurba_marseille","lat":43.30951,"lon":5.39035,"is_reserved":false,"is_disabled":false,"rental_uris":{"android":"levelo://app?vid=dca521ca-2a99-4ec3-ae9a-73b5df3e212f","ios":"levelo://app?vid=dca521ca-2a99-4ec3-ae9a-73b5df3e212f"},"vehicle_type_id":"4","last_reported":1762423975,"current_range_meters":20000,"station_id":"ce4bgup2rcd13ifvqco0","pricing_plan_id":"cebpf4jnsgd1na2vs0mg"},{"bike_id":"3c8b4334-dfd7-4f19-810e-bc8658ba2fad","system_id":"levelo_inurba_marseille","lat":43.30556,"lon":5.3653,"is_reserved":false,"is_disabled":false,"rental_uris":{"android":"levelo://app?vid=3c8b4334-dfd7-4f19-810e-bc8658ba2fad","ios":"levelo://app?vid=3c8b4334-dfd7-4f19-810e-bc8658ba2fad"},"vehicle_type_id":"4","last_reported":1762423975,"current_range_meters":20000,"station_id":"ce4bgs12rcd13ifvqcag","pricing_plan_id":"cebpf4jnsgd1na2vs0mg"},{"bike_id":"2214147d-b2bc-47a5-8262-b29a2f3cbd90","system_id":"levelo_inurba_marseille","lat":43.28865,"lon":5.42504,"is_reserved":false,"is_disabled":false,"rental_uris":{"android":"levelo://app?vid=2214147d-b2bc-47a5-8262-b29a2f3cbd90","ios":"levelo://app?vid=2214147d-b2bc-47a5-8262-b29a2f3cbd90"},"vehicle_type_id":"4","last_reported":1762423975,"current_range_meters":20000,"station_id":"st_d3b462108ojc7389ooeg","pricing_plan_id":"cebpf4jnsgd1na2vs0mg"},{"bike_id":"ba00a797-bc94-42f1-aba8-9bf207fe458c","system_id":"levelo_inurba_marseille","lat":43.30541,"lon":5.3654,"is_reserved":false,"is_disabled":false,"rental_uris":{"android":"levelo://app?vid=ba00a797-bc94-42f1-aba8-9bf207fe458c","ios":"levelo://app?vid=ba00a797-bc94-42f1-aba8-9bf207fe458c"},"vehicle_type_id":"4","last_reported":1762423975,"current_range_meters":20000,"station_id":"ce4bgs12rcd13ifvqcag","pricing_plan_id":"cebpf4jnsgd1na2vs0mg"},{"bike_id":"439c53c6-f824-45cf-979a-29d4a8e7f60e","system_id":"levelo_inurba_marseille","lat":43.30961,"lon":5.39039,"is_reserved":false,"is_disabled":false,"rental_uris":{"android":"levelo://app?vid=439c53c6-f824-45cf-979a-29d4a8e7f60e","ios":"levelo://app?vid=439c53c6-f824-45cf-979a-29d4a8e7f60e"},"vehicle_type_id":"4","last_reported":1762423975,"current_range_meters":20400,"station_id":"ce4bgup2rcd13ifvqco0","pricing_plan_id":"cebpf4jnsgd1na2vs0mg"},{"bike_id":"5209d8a8-f471-47fd-9727-fa8450139952","system_id":"levelo_inurba_marseille","lat":43.29843,"lon":5.36266,"is_reserved":false,"is_disabled":false,"rental_uris":{"android":"levelo://app?vid=5209d8a8-f471-47fd-9727-fa8450139952","ios":"levelo://app?vid=5209d8a8-f471-47fd-9727-fa8450139952"},"vehicle_type_id":"4","last_reported":1762423975,"current_range_meters":20400,"station_id":"ce4bgpp2rcd13ifvqc3g","pricing_plan_id":"cebpf4jnsgd1na2vs0mg"},{"bike_id":"1c00dc3a-2c98-4d26-a48f-4093630a1fde","system_id":"levelo_inurba_marseille","lat":43.324807,"lon":5.365739,"is_reserved":false,"is_disabled":false,"rental_uris":{"android":"levelo://app?vid=1c00dc3a-2c98-4d26-a48f-4093630a1fde","ios":"levelo://app?vid=1c00dc3a-2c98-4d26-a48f-4093630a1fde"},"vehicle_type_id":"4","last_reported":1762423975,"current_range_meters":20400,"station_id":"ce4bhs12rcd13ifvqhvg","pricing_plan_id":"cebpf4jnsgd1na2vs0mg"},{"bike_id":"15386ba2-3479-4132-96ad-c6e734c56cc5","system_id":"levelo_inurba_marseille","lat":43.31277,"lon":5.40158,"is_reserved":false,"is_disabled":false,"rental_uris":{"android":"levelo://app?vid=15386ba2-3479-4132-96ad-c6e734c56cc5","ios":"levelo://app?vid=15386ba2-3479-4132-96ad-c6e734c56cc5"},"vehicle_type_id":"4","last_reported":1762423975,"current_range_meters":20400,"station_id":"ce4bh092rcd13ifvqd30","pricing_plan_id":"cebpf4jnsgd1na2vs0mg"},{"bike_id":"adea28db-b28d-4997-9795-9e72c68e1628","system_id":"levelo_inurba_marseille","lat":43.29805,"lon":5.38105,"is_reserved":false,"is_disabled":false,"rental_uris":{"android":"levelo://app?vid=adea28db-b28d-4997-9795-9e72c68e1628","ios":"levelo://app?vid=adea28db-b28d-4997-9795-9e72c68e1628"},"vehicle_type_id":"4","last_reported":1762423975,"current_range_meters":20400,"station_id":"ce4bgip2rcd13ifvqbb0","pricing_plan_id":"cebpf4jnsgd1na2vs0mg"},{"bike_id":"a7628e15-e703-4ea9-b322-ccb8d1addac4","system_id":"levelo_inurba_marseille","lat":43.31512,"lon":5.37296,"is_reserved":false,"is_disabled":false,"rental_uris":{"android":"levelo://app?vid=a7628e15-e703-4ea9-b322-ccb8d1addac4","ios":"levelo://app?vid=a7628e15-e703-4ea9-b322-ccb8d1addac4"},"vehicle_type_id":"4","last_reported":1762423975,"current_range_meters":20400,"station_id":"ce4bgt12rcd13ifvqcd0","pricing_plan_id":"cebpf4jnsgd1na2vs0mg"},{"bike_id":"2dd6e189-051d-42d1-a5e8-cea28781026e","system_id":"levelo_inurba_marseille","lat":43.30531,"lon":5.36709,"is_reserved":false,"is_disabled":false,"rental_uris":{"android":"levelo://app?vid=2dd6e189-051d-42d1-a5e8-cea28781026e","ios":"levelo://app?vid=2dd6e189-051d-42d1-a5e8-cea28781026e"},"vehicle_type_id":"4","last_reported":1762423975,"current_range_meters":20400,"station_id":"ce4bgrp2rcd13ifvqc9g","pricing_plan_id":"cebpf4jnsgd1na2vs0mg"},{"bike_id":"2067816a-139d-494d-9279-f9692a346c62","system_id":"levelo_inurba_marseille","lat":43.30481,"lon":5.37908,"is_reserved":false,"is_disabled":false,"rental_uris":{"android":"levelo://app?vid=2067816a-139d-494d-9279-f9692a346c62","ios":"levelo://app?vid=2067816a-139d-494d-9279-f9692a346c62"},"vehicle_type_id":"4","last_reported":1762423975,"current_range_meters":20400,"station_id":"ce4bgup2rcd13ifvqcn0","pricing_plan_id":"cebpf4jnsgd1na2vs0mg"},{"bike_id":"88b36161-103b-402d-94fe-dbcca8d1c5ba","system_id":"levelo_inurba_marseille","lat":43.30151,"lon":5.38084,"is_reserved":false,"is_disabled":false,"rental_uris":{"android":"levelo://app?vid=88b36161-103b-402d-94fe-dbcca8d1c5ba","ios":"levelo://app?vid=88b36161-103b-402d-94fe-dbcca8d1c5ba"},"vehicle_type_id":"4","last_reported":1762423975,"current_range_meters":20400,"station_id":"ce4bgjp2rcd13ifvqbh0","pricing_plan_id":"cebpf4jnsgd1na2vs0mg"},{"bike_id":"87ca5933-626d-4942-bad3-14d38332fe8d","system_id":"levelo_inurba_marseille","lat":43.299723,"lon":5.3717,"is_reserved":false,"is_disabled":false,"rental_uris":{"android":"levelo://app?vid=87ca5933-626d-4942-bad3-14d38332fe8d","ios":"levelo://app?vid=87ca5933-626d-4942-bad3-14d38332fe8d"},"vehicle_type_id":"4","last_reported":1762423975,"current_range_meters":20400,"station_id":"ce4bgr92rcd13ifvqc7g","pricing_plan_id":"cebpf4jnsgd1na2vs0mg"},{"bike_id":"f5730f3f-6a60-4592-9649-fb02db2e0043","system_id":"levelo_inurba_marseille","lat":43.30151,"lon":5.38082,"is_reserved":false,"is_disabled":false,"rental_uris":{"android":"levelo://app?vid=f5730f3f-6a60-4592-9649-fb02db2e0043","ios":"levelo://app?vid=f5730f3f-6a60-4592-9649-fb02db2e0043"},"vehicle_type_id":"4","last_reported":1762423975,"current_range_meters":20400,"station_id":"ce4bgjp2rcd13ifvqbh0","pricing_plan_id":"cebpf4jnsgd1na2vs0mg"},{"bike_id":"3a6b939b-8483-4a00-8652-d825cdd856d7","system_id":"levelo_inurba_marseille","lat":43.22559,"lon":5.4162,"is_reserved":false,"is_disabled":false,"rental_uris":{"android":"levelo://app?vid=3a6b939b-8483-4a00-8652-d825cdd856d7","ios":"levelo://app?vid=3a6b939b-8483-4a00-8652-d825cdd856d7"},"vehicle_type_id":"4","last_reported":1762423975,"current_range_meters":20400,"station_id":"st_d2o4gvlbi1j2169b742g","pricing_plan_id":"cebpf4jnsgd1na2vs0mg"},{"bike_id":"9599e800-c0f3-4d1c-ae6f-0370f8960f5c","system_id":"levelo_inurba_marseille","lat":43.32108,"lon":5.36778,"is_reserved":false,"is_disabled":false,"rental_uris":{"android":"levelo://app?vid=9599e800-c0f3-4d1c-ae6f-0370f8960f5c","ios":"levelo://app?vid=9599e800-c0f3-4d1c-ae6f-0370f8960f5c"},"vehicle_type_id":"4","last_reported":1762423975,"current_range_meters":20400,"station_id":"ce4bhrh2rcd13ifvqhug","pricing_plan_id":"cebpf4jnsgd1na2vs0mg"},{"bike_id":"a7b238a7-5e34-4e2e-8aaf-504e3ea91965","system_id":"levelo_inurba_marseille","lat":43.28697,"lon":5.39983,"is_reserved":false,"is_disabled":false,"rental_uris":{"android":"levelo://app?vid=a7b238a7-5e34-4e2e-8aaf-504e3ea91965","ios":"levelo://app?vid=a7b238a7-5e34-4e2e-8aaf-504e3ea91965"},"vehicle_type_id":"4","last_reported":1762423975,"current_range_meters":20400,"station_id":"ce4bho92rcd13ifvqh3g","pricing_plan_id":"cebpf4jnsgd1na2vs0mg"},{"bike_id":"310115a0-7bf2-4a4a-9d53-56bf6918e4d0","system_id":"levelo_inurba_marseille","lat":43.28477,"lon":5.48396,"is_reserved":false,"is_disabled":false,"rental_uris":{"android":"levelo://app?vid=310115a0-7bf2-4a4a-9d53-56bf6918e4d0","ios":"levelo://app?vid=310115a0-7bf2-4a4a-9d53-56bf6918e4d0"},"vehicle_type_id":"4","last_reported":1762423975,"current_range_meters":20800,"station_id":"st_d3svhcjqgbts73a3dn0g","pricing_plan_id":"cebpf4jnsgd1na2vs0mg"},{"bike_id":"9350f380-0894-488f-93ed-c8c017fa2838","system_id":"levelo_inurba_marseille","lat":43.27495,"lon":5.42448,"is_reserved":false,"is_disabled":false,"rental_uris":{"android":"levelo://app?vid=9350f380-0894-488f-93ed-c8c017fa2838","ios":"levelo://app?vid=9350f380-0894-488f-93ed-c8c017fa2838"},"vehicle_type_id":"4","last_reported":1762423975,"current_range_meters":20800,"station_id":"ce4bhn92rcd13ifvqgrg","pricing_plan_id":"cebpf4jnsgd1na2vs0mg"},{"bike_id":"0e800075-2647-4925-8094-b937d0244889","system_id":"levelo_inurba_marseille","lat":43.28554,"lon":5.4017,"is_reserved":false,"is_disabled":false,"rental_uris":{"android":"levelo://app?vid=0e800075-2647-4925-8094-b937d0244889","ios":"levelo://app?vid=0e800075-2647-4925-8094-b937d0244889"},"vehicle_type_id":"4","last_reported":1762423975,"current_range_meters":20800,"station_id":"","pricing_plan_id":"cebpf4jnsgd1na2vs0mg"},{"bike_id":"913a5552-32ee-4db3-b492-0736645dfae4","system_id":"levelo_inurba_marseille","lat":43.30579,"lon":5.36724,"is_reserved":false,"is_disabled":false,"rental_uris":{"android":"levelo://app?vid=913a5552-32ee-4db3-b492-0736645dfae4","ios":"levelo://app?vid=913a5552-32ee-4db3-b492-0736645dfae4"},"vehicle_type_id":"4","last_reported":1762423975,"current_range_meters":20800,"station_id":"ce4bgrp2rcd13ifvqc9g","pricing_plan_id":"cebpf4jnsgd1na2vs0mg"},{"bike_id":"adc728c4-7d88-468c-be89-220c19218372","system_id":"levelo_inurba_marseille","lat":43.32371,"lon":5.38331,"is_reserved":false,"is_disabled":false,"rental_uris":{"android":"levelo://app?vid=adc728c4-7d88-468c-be89-220c19218372","ios":"levelo://app?vid=adc728c4-7d88-468c-be89-220c19218372"},"vehicle_type_id":"4","last_reported":1762423975,"current_range_meters":20800,"station_id":"","pricing_plan_id":"cebpf4jnsgd1na2vs0mg"},{"bike_id":"e6268c5b-e960-40fb-a98f-006dda2f66c1","system_id":"levelo_inurba_marseille","lat":43.23149,"lon":5.43707,"is_reserved":false,"is_disabled":false,"rental_uris":{"android":"levelo://app?vid=e6268c5b-e960-40fb-a98f-006dda2f66c1","ios":"levelo://app?vid=e6268c5b-e960-40fb-a98f-006dda2f66c1"},"vehicle_type_id":"4","last_reported":1762423975,"current_range_meters":20800,"station_id":"ce4bhmp2rcd13ifvqgog","pricing_plan_id":"cebpf4jnsgd1na2vs0mg"},{"bike_id":"14a9a516-5d6c-4018-94fe-ffcfc99a0213","system_id":"levelo_inurba_marseille","lat":43.30043,"lon":5.37577,"is_reserved":false,"is_disabled":false,"rental_uris":{"android":"levelo://app?vid=14a9a516-5d6c-4018-94fe-ffcfc99a0213","ios":"levelo://app?vid=14a9a516-5d6c-4018-94fe-ffcfc99a0213"},"vehicle_type_id":"4","last_reported":1762423975,"current_range_meters":20800,"station_id":"","pricing_plan_id":"cebpf4jnsgd1na2vs0mg"},{"bike_id":"79606fcb-c57e-4cfd-a218-339376c90dd9","system_id":"levelo_inurba_marseille","lat":43.27217,"lon":5.39183,"is_reserved":false,"is_disabled":true,"rental_uris":{"android":"levelo://app?vid=79606fcb-c57e-4cfd-a218-339376c90dd9","ios":"levelo://app?vid=79606fcb-c57e-4cfd-a218-339376c90dd9"},"vehicle_type_id":"4","last_reported":1762423975,"current_range_meters":20800,"station_id":"ce4bhhp2rcd13ifvqfm0","pricing_plan_id":"cebpf4jnsgd1na2vs0mg"},{"bike_id":"3bb950be-e830-486c-bce8-819a5d4202fd","system_id":"levelo_inurba_marseille","lat":43.25948,"lon":5.40894,"is_reserved":false,"is_disabled":false,"rental_uris":{"android":"levelo://app?vid=3bb950be-e830-486c-bce8-819a5d4202fd","ios":"levelo://app?vid=3bb950be-e830-486c-bce8-819a5d4202fd"},"vehicle_type_id":"4","last_reported":1762423975,"current_range_meters":20800,"station_id":"ce4bhm92rcd13ifvqglg","pricing_plan_id":"cebpf4jnsgd1na2vs0mg"},{"bike_id":"305495de-daf9-4e0a-86da-ea422789951b","system_id":"levelo_inurba_marseille","lat":43.28765,"lon":5.36924,"is_reserved":false,"is_disabled":false,"rental_uris":{"android":"levelo://app?vid=305495de-daf9-4e0a-86da-ea422789951b","ios":"levelo://app?vid=305495de-daf9-4e0a-86da-ea422789951b"},"vehicle_type_id":"4","last_reported":1762423975,"current_range_meters":20800,"station_id":"","pricing_plan_id":"cebpf4jnsgd1na2vs0mg"},{"bike_id":"9d5a05c8-7e53-4e3f-a29b-3f512ef18ea9","system_id":"levelo_inurba_marseille","lat":43.297848,"lon":5.404446,"is_reserved":false,"is_disabled":false,"rental_uris":{"android":"levelo://app?vid=9d5a05c8-7e53-4e3f-a29b-3f512ef18ea9","ios":"levelo://app?vid=9d5a05c8-7e53-4e3f-a29b-3f512ef18ea9"},"vehicle_type_id":"4","last_reported":1762423975,"current_range_meters":20800,"station_id":"ce4bh112rcd13ifvqd90","pricing_plan_id":"cebpf4jnsgd1na2vs0mg"},{"bike_id":"401209f9-1098-407a-9275-182f209531f6","system_id":"levelo_inurba_marseille","lat":43.29544,"lon":5.4226,"is_reserved":false,"is_disabled":false,"rental_uris":{"android":"levelo://app?vid=401209f9-1098-407a-9275-182f209531f6","ios":"levelo://app?vid=401209f9-1098-407a-9275-182f209531f6"},"vehicle_type_id":"4","last_reported":1762423975,"current_range_meters":20800,"station_id":"ce4bhph2rcd13ifvqhdg","pricing_plan_id":"cebpf4jnsgd1na2vs0mg"},{"bike_id":"df281fc9-ef56-4d5a-adc7-0c99630f0fd4","system_id":"levelo_inurba_marseille","lat":43.27983,"lon":5.38754,"is_reserved":false,"is_disabled":false,"rental_uris":{"android":"levelo://app?vid=df281fc9-ef56-4d5a-adc7-0c99630f0fd4","ios":"levelo://app?vid=df281fc9-ef56-4d5a-adc7-0c99630f0fd4"},"vehicle_type_id":"4","last_reported":1762423975,"current_range_meters":20800,"station_id":"ce4bhg12rcd13ifvqf80","pricing_plan_id":"cebpf4jnsgd1na2vs0mg"},{"bike_id":"51c0963b-0704-4d25-b139-177939289c2d","system_id":"levelo_inurba_marseille","lat":43.2408,"lon":5.37759,"is_reserved":false,"is_disabled":false,"rental_uris":{"android":"levelo://app?vid=51c0963b-0704-4d25-b139-177939289c2d","ios":"levelo://app?vid=51c0963b-0704-4d25-b139-177939289c2d"},"vehicle_type_id":"4","last_reported":1762423975,"current_range_meters":21600,"station_id":"ce4bhnp2rcd13ifvqgvg","pricing_plan_id":"cebpf4jnsgd1na2vs0mg"},{"bike_id":"0a693bd9-ea79-409d-9256-4f1db0292c0c","system_id":"levelo_inurba_marseille","lat":43.297071,"lon":5.362925,"is_reserved":false,"is_disabled":false,"rental_uris":{"android":"levelo://app?vid=0a693bd9-ea79-409d-9256-4f1db0292c0c","ios":"levelo://app?vid=0a693bd9-ea79-409d-9256-4f1db0292c0c"},"vehicle_type_id":"4","last_reported":1762423975,"current_range_meters":21600,"station_id":"","pricing_plan_id":"cebpf4jnsgd1na2vs0mg"},{"bike_id":"41515a08-b388-4193-afc8-6b6c8e2e33b4","system_id":"levelo_inurba_marseille","lat":43.27065,"lon":5.38311,"is_reserved":false,"is_disabled":false,"rental_uris":{"android":"levelo://app?vid=41515a08-b388-4193-afc8-6b6c8e2e33b4","ios":"levelo://app?vid=41515a08-b388-4193-afc8-6b6c8e2e33b4"},"vehicle_type_id":"4","last_reported":1762423975,"current_range_meters":21600,"station_id":"st_d3n2fo6cfp8s73cte1j0","pricing_plan_id":"cebpf4jnsgd1na2vs0mg"},{"bike_id":"a3ed2831-b345-4d55-8837-e5c9fd94792d","system_id":"levelo_inurba_marseille","lat":43.29032,"lon":5.386513,"is_reserved":false,"is_disabled":false,"rental_uris":{"android":"levelo://app?vid=a3ed2831-b345-4d55-8837-e5c9fd94792d","ios":"levelo://app?vid=a3ed2831-b345-4d55-8837-e5c9fd94792d"},"vehicle_type_id":"4","last_reported":1762423975,"current_range_meters":22000,"station_id":"ce4bh4p2rcd13ifvqe0g","pricing_plan_id":"cebpf4jnsgd1na2vs0mg"},{"bike_id":"cc626737-750c-4db0-b285-4329999a7484","system_id":"levelo_inurba_marseille","lat":43.26557,"lon":5.37284,"is_reserved":false,"is_disabled":false,"rental_uris":{"android":"levelo://app?vid=cc626737-750c-4db0-b285-4329999a7484","ios":"levelo://app?vid=cc626737-750c-4db0-b285-4329999a7484"},"vehicle_type_id":"4","last_reported":1762423975,"current_range_meters":22000,"station_id":"ce4bhg12rcd13ifvqf70","pricing_plan_id":"cebpf4jnsgd1na2vs0mg"},{"bike_id":"985fd220-fc0f-4316-8f14-5b81bf274698","system_id":"levelo_inurba_marseille","lat":43.29264,"lon":5.36851,"is_reserved":false,"is_disabled":true,"rental_uris":{"android":"levelo://app?vid=985fd220-fc0f-4316-8f14-5b81bf274698","ios":"levelo://app?vid=985fd220-fc0f-4316-8f14-5b81bf274698"},"vehicle_type_id":"4","last_reported":1762423975,"current_range_meters":22000,"station_id":"ce4bhbp2rcd13ifvqesg","pricing_plan_id":"cebpf4jnsgd1na2vs0mg"},