{"last_updated":1748592877,"ttl":60,"version":"2.2","data":{"bikes":[{"bike_id":"3f0441b1-6cb6-41fd-b679-f454d34b2118","system_id":"levelo_inurba_marseille","lat":43.21174,"lon":5.35101,"is_reserved":false,"is_disabled":false,"rental_uris":{"android":"levelo://app?vid=3f0441b1-6cb6-41fd-b679-f454d34b2118","ios":"levelo://app?vid=3f0441b1-6cb6-41fd-b679-f454d34b2118"},"vehicle_type_id":"4","last_reported":1748592878,"current_range_meters":2800,"station_id":"st_cvj6sg6p6f1abm77japg","pricing_plan_id":"cebpf4jnsgd1na2vs0mg"},{"bike_id":"78353d3a-f046-4900-8502-614ce335636a","system_id":"levelo_inurba_marseille","lat":43.29047,"lon":5.35906,"is_reserved":false,"is_disabled":true,"rental_uris":{"android":"levelo://app?vid=78353d3a-f046-4900-8502-614ce335636a","ios":"levelo://app?vid=78353d3a-f046-4900-8502-614ce335636a"},"vehicle_type_id":"4","last_reported":1748592878,"current_range_meters":3200,"station_id":"ce4bha92rcd13ifvqeg0","pricing_plan_id":"cebpf4jnsgd1na2vs0mg"},{"bike_id":"24204c04-5d8c-4ac1-bc38-3e364dee5b7a","system_id":"levelo_inurba_marseille","lat":43.30246,"lon":5.41311,"is_reserved":false,"is_disabled":false,"rental_uris":{"android":"levelo://app?vid=24204c04-5d8c-4ac1-bc38-3e364dee5b7a","ios":"levelo://app?vid=24204c04-5d8c-4ac1-bc38-3e364dee5b7a"},"vehicle_type_id":"4","last_reported":1748592878,"current_range_meters":3200,"station_id":"","pricing_plan_id":"cebpf4jnsgd1na2vs0mg"},{"bike_id":"a9dd31b3-7d5d-4c43-a5e2-c2e9e371ae5e","system_id":"levelo_inurba_marseille","lat":43.31388,"lon":5.36689,"is_reserved":false,"is_disabled":false,"rental_uris":{"android":"levelo://app?vid=a9dd31b3-7d5d-4c43-a5e2-c2e9e371ae5e","ios":"levelo://app?vid=a9dd31b3-7d5d-4c43-a5e2-c2e9e371ae5e"},"vehicle_type_id":"4","last_reported":1748592878,"current_range_meters":3200,"station_id":"","pricing_plan_id":"cebpf4jnsgd1na2vs0mg"},{"bike_id":"8ccff767-5004-479d-b533-41e88263e8d2","system_id":"levelo_inurba_marseille","lat":43.28634,"lon":5.3508,"is_reserved":false,"is_disabled":false,"rental_uris":{"android":"levelo://app?vid=8ccff767-5004-479d-b533-41e88263e8d2","ios":"levelo://app?vid=8ccff767-5004-479d-b533-41e88263e8d2"},"vehicle_type_id":"4","last_reported":1748592878,"current_range_meters":3200,"station_id":"ce4bhch2rcd13ifvqeug","pricing_plan_id":"cebpf4jnsgd1na2vs0mg"},{"bike_id":"11488e1b-74ae-4459-8884-1588199aa112","system_id":"levelo_inurba_marseille","lat":43.26915,"lon":5.40255,"is_reserved":false,"is_disabled":false,"rental_uris":{"android":"levelo://app?vid=11488e1b-74ae-4459-8884-1588199aa112","ios":"levelo://app?vid=11488e1b-74ae-4459-8884-1588199aa112"},"vehicle_type_id":"4","last_reported":1748592878,"current_range_meters":3600,"station_id":"cjm6bp8fraef2m0cb0m0","pricing_plan_id":"cebpf4jnsgd1na2vs0mg"},{"bike_id":"a9f5bbf1-df27-40f5-a40c-bd07c353b284","system_id":"levelo_inurba_marseille","lat":43.304169,"lon":5.397522,"is_reserved":false,"is_disabled":false,"rental_uris":{"android":"levelo://app?vid=a9f5bbf1-df27-40f5-a40c-bd07c353b284","ios":"levelo://app?vid=a9f5bbf1-df27-40f5-a40c-bd07c353b284"},"vehicle_type_id":"4","last_reported":1748592878,"current_range_meters":3600,"station_id":"ce4bh092rcd13ifvqd20","pricing_plan_id":"cebpf4jnsgd1na2vs0mg"},{"bike_id":"cf7a9d4e-5bab-4160-b1bf-8c7fcb6a5133","system_id":"levelo_inurba_marseille","lat":43.282668,"lon":5.350609,"is_reserved":false,"is_disabled":false,"rental_uris":{"android":"levelo://app?vid=cf7a9d4e-5bab-4160-b1bf-8c7fcb6a5133","ios":"levelo://app?vid=cf7a9d4e-5bab-4160-b1bf-8c7fcb6a5133"},"vehicle_type_id":"4","last_reported":1748592878,"current_range_meters":3600,"station_id":"","pricing_plan_id":"cebpf4jnsgd1na2vs0mg"},{"bike_id":"ae9cc218-c9c3-4859-8f34-380b4c57b3f0","system_id":"levelo_inurba_marseille","lat":43.31704,"lon":5.43706,"is_reserved":false,"is_disabled":false,"rental_uris":{"android":"levelo://app?vid=ae9cc218-c9c3-4859-8f34-380b4c57b3f0","ios":"levelo://app?vid=ae9cc218-c9c3-4859-8f34-380b4c57b3f0"},"vehicle_type_id":"4","last_reported":1748592878,"current_range_meters":4000,"station_id":"ce4bhp92rcd13ifvqhcg","pricing_plan_id":"cebpf4jnsgd1na2vs0mg"},{"bike_id":"c006505c-40ec-4dbb-8fb7-e9d75b9aa51f","system_id":"levelo_inurba_marseille","lat":43.3315,"lon":5.38105,"is_reserved":false,"is_disabled":false,"rental_uris":{"android":"levelo://app?vid=c006505c-40ec-4dbb-8fb7-e9d75b9aa51f","ios":"levelo://app?vid=c006505c-40ec-4dbb-8fb7-e9d75b9aa51f"},"vehicle_type_id":"4","last_reported":1748592878,"current_range_meters":4400,"station_id":"","pricing_plan_id":"cebpf4jnsgd1na2vs0mg"},{"bike_id":"ff6334ca-1730-4c7d-9848-1881a3416f0d","system_id":"levelo_inurba_marseille","lat":43.295775,"lon":5.367374,"is_reserved":false,"is_disabled":true,"rental_uris":{"android":"levelo://app?vid=ff6334ca-1730-4c7d-9848-1881a3416f0d","ios":"levelo://app?vid=ff6334ca-1730-4c7d-9848-1881a3416f0d"},"vehicle_type_id":"4","last_reported":1748592878,"current_range_meters":4400,"station_id":"","pricing_plan_id":"cebpf4jnsgd1na2vs0mg"},{"bike_id":"2f650bb1-6027-4191-83d2-16315820a0a7","system_id":"levelo_inurba_marseille","lat":43.299966,"lon":5.373556,"is_reserved":false,"is_disabled":false,"rental_uris":{"android":"levelo://app?vid=2f650bb1-6027-4191-83d2-16315820a0a7","ios":"levelo://app?vid=2f650bb1-6027-4191-83d2-16315820a0a7"},"vehicle_type_id":"4","last_reported":1748592878,"current_range_meters":4400,"station_id":"","pricing_plan_id":"cebpf4jnsgd1na2vs0mg"},{"bike_id":"015f9af9-da45-4c09-9c85-f29c0e49ce0d","system_id":"levelo_inurba_marseille","lat":43.24164,"lon":5.36401,"is_reserved":false,"is_disabled":true,"rental_uris":{"android":"levelo://app?vid=015f9af9-da45-4c09-9c85-f29c0e49ce0d","ios":"levelo://app?vid=015f9af9-da45-4c09-9c85-f29c0e49ce0d"},"vehicle_type_id":"4","last_reported":1748592878,"current_range_meters":4800,"station_id":"cpo36qri1sfpv3e86is0","pricing_plan_id":"cebpf4jnsgd1na2vs0mg"},{"bike_id":"eb4b3905-d697-4843-bcd5-622b64c07feb","system_id":"levelo_inurba_marseille","lat":43.2314,"lon":5.43716,"is_reserved":false,"is_disabled":false,"rental_uris":{"android":"levelo://app?vid=eb4b3905-d697-4843-bcd5-622b64c07feb","ios":"levelo://app?vid=eb4b3905-d697-4843-bcd5-622b64c07feb"},"vehicle_type_id":"4","last_reported":1748592878,"current_range_meters":5600,"station_id":"ce4bhmp2rcd13ifvqgog","pricing_plan_id":"cebpf4jnsgd1na2vs0mg"},{"bike_id":"467f8a47-c2bb-4de1-8820-3f593392b65b","system_id":"levelo_inurba_marseille","lat":43.23148,"lon":5.43723,"is_reserved":false,"is_disabled":false,"rental_uris":{"android":"levelo://app?vid=467f8a47-c2bb-4de1-8820-3f593392b65b","ios":"levelo://app?vid=467f8a47-c2bb-4de1-8820-3f593392b65b"},"vehicle_type_id":"4","last_reported":1748592878,"current_range_meters":5600,"station_id":"ce4bhmp2rcd13ifvqgog","pricing_plan_id":"cebpf4jnsgd1na2vs0mg"},{"bike_id":"968d135c-a713-45bf-a4f5-1267a832ad45","system_id":"levelo_inurba_marseille","lat":43.30255,"lon":5.40079,"is_reserved":false,"is_disabled":false,"rental_uris":{"android":"levelo://app?vid=968d135c-a713-45bf-a4f5-1267a832ad45","ios":"levelo://app?vid=968d135c-a713-45bf-a4f5-1267a832ad45"},"vehicle_type_id":"4","last_reported":1748592878,"current_range_meters":6000,"station_id":"ce4bgvh2rcd13ifvqcs0","pricing_plan_id":"cebpf4jnsgd1na2vs0mg"},{"bike_id":"047bbed6-33d9-4486-b038-6c0f2513bd98","system_id":"levelo_inurba_marseille","lat":43.24687,"lon":5.38142,"is_reserved":false,"is_disabled":false,"rental_uris":{"android":"levelo://app?vid=047bbed6-33d9-4486-b038-6c0f2513bd98","ios":"levelo://app?vid=047bbed6-33d9-4486-b038-6c0f2513bd98"},"vehicle_type_id":"4","last_reported":1748592878,"current_range_meters":6000,"station_id":"ce4bhih2rcd13ifvqfr0","pricing_plan_id":"cebpf4jnsgd1na2vs0mg"},{"bike_id":"439c2428-01fc-4528-992a-e5af19ad7cb7","system_id":"levelo_inurba_marseille","lat":43.3137,"lon":5.38506,"is_reserved":false,"is_disabled":false,"rental_uris":{"android":"levelo://app?vid=439c2428-01fc-4528-992a-e5af19ad7cb7","ios":"levelo://app?vid=439c2428-01fc-4528-992a-e5af19ad7cb7"},"vehicle_type_id":"4","last_reported":1748592878,"current_range_meters":6000,"station_id":"ce4bgt92rcd13ifvqcf0","pricing_plan_id":"cebpf4jnsgd1na2vs0mg"},{"bike_id":"92cc41b1-86b4-4ddd-8208-549b320e7443","system_id":"levelo_inurba_marseille","lat":43.32657,"lon":5.40997,"is_reserved":false,"is_disabled":false,"rental_uris":{"android":"levelo://app?vid=92cc41b1-86b4-4ddd-8208-549b320e7443","ios":"levelo://app?vid=92cc41b1-86b4-4ddd-8208-549b320e7443"},"vehicle_type_id":"4","last_reported":1748592878,"current_range_meters":6400,"station_id":"ce4bhpp2rcd13ifvqhgg","pricing_plan_id":"cebpf4jnsgd1na2vs0mg"},{"bike_id":"7c6e48ab-b87e-4e89-9339-a1a2992e6797","system_id":"levelo_inurba_marseille","lat":43.26124,"lon":5.41457,"is_reserved":false,"is_disabled":false,"rental_uris":{"android":"levelo://app?vid=7c6e48ab-b87e-4e89-9339-a1a2992e6797","ios":"levelo://app?vid=7c6e48ab-b87e-4e89-9339-a1a2992e6797"},"vehicle_type_id":"4","last_reported":1748592878,"current_range_meters":6400,"station_id":"","pricing_plan_id":"cebpf4jnsgd1na2vs0mg"},{"bike_id":"b932b841-99d8-42f3-ad6a-b348874a3c78","system_id":"levelo_inurba_marseille","lat":43.27956,"lon":5.38712,"is_reserved":false,"is_disabled":false,"rental_uris":{"android":"levelo://app?vid=b932b841-99d8-42f3-ad6a-b348874a3c78","ios":"levelo://app?vid=b932b841-99d8-42f3-ad6a-b348874a3c78"},"vehicle_type_id":"4","last_reported":1748592878,"current_range_meters":6400,"station_id":"ce4bhg12rcd13ifvqf80","pricing_plan_id":"cebpf4jnsgd1na2vs0mg"},{"bike_id":"d59936d1-8ec8-4f42-8df1-dcddc80cd126","system_id":"levelo_inurba_marseille","lat":43.28938,"lon":5.39653,"is_reserved":false,"is_disabled":false,"rental_uris":{"android":"levelo://app?vid=d59936d1-8ec8-4f42-8df1-dcddc80cd126","ios":"levelo://app?vid=d59936d1-8ec8-4f42-8df1-dcddc80cd126"},"vehicle_type_id":"4","last_reported":1748592878,"current_range_meters":6400,"station_id":"ce4bh3h2rcd13ifvqdn0","pricing_plan_id":"cebpf4jnsgd1na2vs0mg"},{"bike_id":"5830f9d0-898a-45c7-9d43-586e6cb150c1","system_id":"levelo_inurba_marseille","lat":43.33603,"lon":5.41038,"is_reserved":false,"is_disabled":false,"rental_uris":{"android":"levelo://app?vid=5830f9d0-898a-45c7-9d43-586e6cb150c1","ios":"levelo://app?vid=5830f9d0-898a-45c7-9d43-586e6cb150c1"},"vehicle_type_id":"4","last_reported":1748592878,"current_range_meters":6400,"station_id":"ce4bhqh2rcd13ifvqhmg","pricing_plan_id":"cebpf4jnsgd1na2vs0mg"},{"bike_id":"b9ae16bc-ec39-406e-9e42-55cba52b28fe","system_id":"levelo_inurba_marseille","lat":43.26015,"lon":5.4173,"is_reserved":false,"is_disabled":false,"rental_uris":{"android":"levelo://app?vid=b9ae16bc-ec39-406e-9e42-55cba52b28fe","ios":"levelo://app?vid=b9ae16bc-ec39-406e-9e42-55cba52b28fe"},"vehicle_type_id":"4","last_reported":1748592878,"current_range_meters":6400,"station_id":"","pricing_plan_id":"cebpf4jnsgd1na2vs0mg"},{"bike_id":"419806d9-a0ba-4539-b6a3-66d05e973434","system_id":"levelo_inurba_marseille","lat":43.212047,"lon":5.350713,"is_reserved":false,"is_disabled":false,"rental_uris":{"android":"levelo://app?vid=419806d9-a0ba-4539-b6a3-66d05e973434","ios":"levelo://app?vid=419806d9-a0ba-4539-b6a3-66d05e973434"},"vehicle_type_id":"4","last_reported":1748592878,"current_range_meters":6400,"station_id":"st_cvj6sg6p6f1abm77japg","pricing_plan_id":"cebpf4jnsgd1na2vs0mg"},{"bike_id":"53532794-4f3c-48c5-8d7b-50d3a0c2e665","system_id":"levelo_inurba_marseille","lat":43.28606,"lon":5.37067,"is_reserved":false,"is_disabled":false,"rental_uris":{"android":"levelo://app?vid=53532794-4f3c-48c5-8d7b-50d3a0c2e665","ios":"levelo://app?vid=53532794-4f3c-48c5-8d7b-50d3a0c2e665"},"vehicle_type_id":"4","last_reported":1748592878,"current_range_meters":6800,"station_id":"ce4bht12rcd13ifvqi60","pricing_plan_id":"cebpf4jnsgd1na2vs0mg"},{"bike_id":"8c869018-c2f1-47df-8e3b-e48407b32a24","system_id":"levelo_inurba_marseille","lat":43.271942,"lon":5.409943,"is_reserved":false,"is_disabled":false,"rental_uris":{"android":"levelo://app?vid=8c869018-c2f1-47df-8e3b-e48407b32a24","ios":"levelo://app?vid=8c869018-c2f1-47df-8e3b-e48407b32a24"},"vehicle_type_id":"4","last_reported":1748592878,"current_range_meters":6800,"station_id":"ce4bhl12rcd13ifvqgf0","pricing_plan_id":"cebpf4jnsgd1na2vs0mg"},{"bike_id":"497ec4a5-8002-40cf-b66d-3b629c958e7f","system_id":"levelo_inurba_marseille","lat":43.29207,"lon":5.40039,"is_reserved":false,"is_disabled":false,"rental_uris":{"android":"levelo://app?vid=497ec4a5-8002-40cf-b66d-3b629c958e7f","ios":"levelo://app?vid=497ec4a5-8002-40cf-b66d-3b629c958e7f"},"vehicle_type_id":"4","last_reported":1748592878,"current_range_meters":6800,"station_id":"","pricing_plan_id":"cebpf4jnsgd1na2vs0mg"},{"bike_id":"41cf7030-3e0f-483a-81c2-cfc2aacafa1e","system_id":"levelo_inurba_marseille","lat":43.25473,"lon":5.37649,"is_reserved":false,"is_disabled":false,"rental_uris":{"android":"levelo://app?vid=41cf7030-3e0f-483a-81c2-cfc2aacafa1e","ios":"levelo://app?vid=41cf7030-3e0f-483a-81c2-cfc2aacafa1e"},"vehicle_type_id":"4","last_reported":1748592878,"current_range_meters":6800,"station_id":"ce4bhh12rcd13ifvqff0","pricing_plan_id":"cebpf4jnsgd1na2vs0mg"},{"bike_id":"faef4eb4-18ac-462d-b4ca-b66224371625","system_id":"levelo_inurba_marseille","lat":43.308155,"lon":5.435249,"is_reserved":false,"is_disabled":false,"rental_uris":{"android":"levelo://app?vid=faef4eb4-18ac-462d-b4ca-b66224371625","ios":"levelo://app?vid=faef4eb4-18ac-462d-b4ca-b66224371625"},"vehicle_type_id":"4","last_reported":1748592878,"current_range_meters":6800,"station_id":"ce4bhph2rcd13ifvqheg","pricing_plan_id":"cebpf4jnsgd1na2vs0mg"},{"bike_id":"2ff1147e-0a3f-4b61-8103-39164286459b","system_id":"levelo_inurba_marseille","lat":43.25899,"lon":5.40894,"is_reserved":false,"is_disabled":false,"rental_uris":{"android":"levelo://app?vid=2ff1147e-0a3f-4b61-8103-39164286459b","ios":"levelo://app?vid=2ff1147e-0a3f-4b61-8103-39164286459b"},"vehicle_type_id":"4","last_reported":1748592878,"current_range_meters":7200,"station_id":"ce4bhm92rcd13ifvqglg","pricing_plan_id":"cebpf4jnsgd1na2vs0mg"},{"bike_id":"c20cde3d-efa4-4792-85cb-bcd9537bb570","system_id":"levelo_inurba_marseille","lat":43.24165,"lon":5.363915,"is_reserved":false,"is_disabled":false,"rental_uris":{"android":"levelo://app?vid=c20cde3d-efa4-4792-85cb-bcd9537bb570","ios":"levelo://app?vid=c20cde3d-efa4-4792-85cb-bcd9537bb570"},"vehicle_type_id":"4","last_reported":1748592878,"current_range_meters":7200,"station_id":"cpo36qri1sfpv3e86is0","pricing_plan_id":"cebpf4jnsgd1na2vs0mg"},{"bike_id":"699cf79a-0487-4f97-8655-716236252f3c","system_id":"levelo_inurba_marseille","lat":43.27052,"lon":5.40258,"is_reserved":false,"is_disabled":false,"rental_uris":{"android":"levelo://app?vid=699cf79a-0487-4f97-8655-716236252f3c","ios":"levelo://app?vid=699cf79a-0487-4f97-8655-716236252f3c"},"vehicle_type_id":"4","last_reported":1748592878,"current_range_meters":7200,"station_id":"ce4bhk92rcd13ifvqgc0","pricing_plan_id":"cebpf4jnsgd1na2vs0mg"},{"bike_id":"c1f1b357-e142-4962-86c7-4cc1efbffe16","system_id":"levelo_inurba_marseille","lat":43.31334,"lon":5.39687,"is_reserved":false,"is_disabled":false,"rental_uris":{"android":"levelo://app?vid=c1f1b357-e142-4962-86c7-4cc1efbffe16","ios":"levelo://app?vid=c1f1b357-e142-4962-86c7-4cc1efbffe16"},"vehicle_type_id":"4","last_reported":1748592878,"current_range_meters":7200,"station_id":"ce4bgvp2rcd13ifvqcu0","pricing_plan_id":"cebpf4jnsgd1na2vs0mg"},{"bike_id":"8b4430ef-1852-41ab-b269-6e80b33d877e","system_id":"levelo_inurba_marseille","lat":43.30944,"lon":5.39029,"is_reserved":false,"is_disabled":true,"rental_uris":{"android":"levelo://app?vid=8b4430ef-1852-41ab-b269-6e80b33d877e","ios":"levelo://app?vid=8b4430ef-1852-41ab-b269-6e80b33d877e"},"vehicle_type_id":"4","last_reported":1748592878,"current_range_meters":7200,"station_id":"ce4bgup2rcd13ifvqco0","pricing_plan_id":"cebpf4jnsgd1na2vs0mg"},{"bike_id":"453cce4f-5d27-46da-8719-da33a38132da","system_id":"levelo_inurba_marseille","lat":43.27942,"lon":5.3873,"is_reserved":false,"is_disabled":false,"rental_uris":{"android":"levelo://app?vid=453cce4f-5d27-46da-8719-da33a38132da","ios":"levelo://app?vid=453cce4f-5d27-46da-8719-da33a38132da"},"vehicle_type_id":"4","last_reported":1748592878,"current_range_meters":7200,"station_id":"ce4bhg12rcd13ifvqf80","pricing_plan_id":"cebpf4jnsgd1na2vs0mg"},{"bike_id":"299bc464-0062-40b9-b8fd-94e53cb49a69","system_id":"levelo_inurba_marseille","lat":43.29614,"lon":5.37187,"is_reserved":false,"is_disabled":false,"rental_uris":{"android":"levelo://app?vid=299bc464-0062-40b9-b8fd-94e53cb49a69","ios":"levelo://app?vid=299bc464-0062-40b9-b8fd-94e53cb49a69"},"vehicle_type_id":"4","last_reported":1748592878,"current_range_meters":8000,"station_id":"ce4bgnh2rcd13ifvqc0g","pricing_plan_id":"cebpf4jnsgd1na2vs0mg"},{"bike_id":"ef3d53ac-b0f8-4dba-89f7-e04aa5060268","system_id":"levelo_inurba_marseille","lat":43.26682,"lon":5.38274,"is_reserved":false,"is_disabled":false,"rental_uris":{"android":"levelo://app?vid=ef3d53ac-b0f8-4dba-89f7-e04aa5060268","ios":"levelo://app?vid=ef3d53ac-b0f8-4dba-89f7-e04aa5060268"},"vehicle_type_id":"4","last_reported":1748592878,"current_range_meters":8000,"station_id":"ce4bhg92rcd13ifvqf90","pricing_plan_id":"cebpf4jnsgd1na2vs0mg"},{"bike_id":"64c40546-fc5d-4693-9ccf-3699b6dff106","system_id":"levelo_inurba_marseille","lat":43.21199,"lon":5.35067,"is_reserved":false,"is_disabled":false,"rental_uris":{"android":"levelo://app?vid=64c40546-fc5d-4693-9ccf-3699b6dff106","ios":"levelo://app?vid=64c40546-fc5d-4693-9ccf-3699b6dff106"},"vehicle_type_id":"4","last_reported":1748592878,"current_range_meters":8000,"station_id":"st_cvj6sg6p6f1abm77japg","pricing_plan_id":"cebpf4jnsgd1na2vs0mg"},{"bike_id":"97f2a24b-6742-4dac-86de-e097aec6e88b","system_id":"levelo_inurba_marseille","lat":43.21189,"lon":5.35076,"is_reserved":false,"is_disabled":false,"rental_uris":{"android":"levelo://app?vid=97f2a24b-6742-4dac-86de-e097aec6e88b","ios":"levelo://app?vid=97f2a24b-6742-4dac-86de-e097aec6e88b"},"vehicle_type_id":"4","last_reported":1748592878,"current_range_meters":8000,"station_id":"","pricing_plan_id":"cebpf4jnsgd1na2vs0mg"},{"bike_id":"2ae5aa0d-3661-4c17-a6e7-cf416fccb513","system_id":"levelo_inurba_marseille","lat":43.25934,"lon":5.40895,"is_reserved":false,"is_disabled":false,"rental_uris":{"android":"levelo://app?vid=2ae5aa0d-3661-4c17-a6e7-cf416fccb513","ios":"levelo://app?vid=2ae5aa0d-3661-4c17-a6e7-cf416fccb513"},"vehicle_type_id":"4","last_reported":1748592878,"current_range_meters":8000,"station_id":"ce4bhm92rcd13ifvqglg","pricing_plan_id":"cebpf4jnsgd1na2vs0mg"},{"bike_id":"923769ae-aca1-42b9-940d-03fce1829cbd","system_id":"levelo_inurba_marseille","lat":43.30899,"lon":5.36865,"is_reserved":false,"is_disabled":false,"rental_uris":{"android":"levelo://app?vid=923769ae-aca1-42b9-940d-03fce1829cbd","ios":"levelo://app?vid=923769ae-aca1-42b9-940d-03fce1829cbd"},"vehicle_type_id":"4","last_reported":1748592878,"current_range_meters":8000,"station_id":"ce4bgn92rcd13ifvqbvg","pricing_plan_id":"cebpf4jnsgd1na2vs0mg"},{"bike_id":"c97c7aff-a44a-433f-b1e1-c4cf53d64484","system_id":"levelo_inurba_marseille","lat":43.27931,"lon":5.39578,"is_reserved":false,"is_disabled":false,"rental_uris":{"android":"levelo://app?vid=c97c7aff-a44a-433f-b1e1-c4cf53d64484","ios":"levelo://app?vid=c97c7aff-a44a-433f-b1e1-c4cf53d64484"},"vehicle_type_id":"4","last_reported":1748592878,"current_range_meters":8400,"station_id":"ce4bhf92rcd13ifvqf40","pricing_plan_id":"cebpf4jnsgd1na2vs0mg"},{"bike_id":"42dca157-bdb0-4361-8022-7979135f94aa","system_id":"levelo_inurba_marseille","lat":43.28575,"lon":5.3655,"is_reserved":false,"is_disabled":false,"rental_uris":{"android":"levelo://app?vid=42dca157-bdb0-4361-8022-7979135f94aa","ios":"levelo://app?vid=42dca157-bdb0-4361-8022-7979135f94aa"},"vehicle_type_id":"4","last_reported":1748592878,"current_range_meters":8400,"station_id":"","pricing_plan_id":"cebpf4jnsgd1na2vs0mg"},{"bike_id":"aae5f7c7-b30a-474f-bb09-cb9f5f8f5101","system_id":"levelo_inurba_marseille","lat":43.24164,"lon":5.36396,"is_reserved":false,"is_disabled":false,"rental_uris":{"android":"levelo://app?vid=aae5f7c7-b30a-474f-bb09-cb9f5f8f5101","ios":"levelo://app?vid=aae5f7c7-b30a-474f-bb09-cb9f5f8f5101"},"vehicle_type_id":"4","last_reported":1748592878,"current_range_meters":8400,"station_id":"cpo36qri1sfpv3e86is0","pricing_plan_id":"cebpf4jnsgd1na2vs0mg"},{"bike_id":"4386d4a8-531e-4c7d-9f32-7ea81e53d2b3","system_id":"levelo_inurba_marseille","lat":43.2894,"lon":5.396273,"is_reserved":false,"is_disabled":false,"rental_uris":{"android":"levelo://app?vid=4386d4a8-531e-4c7d-9f32-7ea81e53d2b3","ios":"levelo://app?vid=4386d4a8-531e-4c7d-9f32-7ea81e53d2b3"},"vehicle_type_id":"4","last_reported":1748592878,"current_range_meters":8400,"station_id":"ce4bh3h2rcd13ifvqdn0","pricing_plan_id":"cebpf4jnsgd1na2vs0mg"},{"bike_id":"a1bd1933-8e5e-485a-87f8-6511e5e61e69","system_id":"levelo_inurba_marseille","lat":43.21192,"lon":5.35073,"is_reserved":false,"is_disabled":false,"rental_uris":{"android":"levelo://app?vid=a1bd1933-8e5e-485a-87f8-6511e5e61e69","ios":"levelo://app?vid=a1bd1933-8e5e-485a-87f8-6511e5e61e69"},"vehicle_type_id":"4","last_reported":1748592878,"current_range_meters":8400,"station_id":"","pricing_plan_id":"cebpf4jnsgd1na2vs0mg"},{"bike_id":"fa06fc02-b704-43f1-9283-8d139b1aa485","system_id":"levelo_inurba_marseille","lat":43.25945,"lon":5.40894,"is_reserved":false,"is_disabled":false,"rental_uris":{"android":"levelo://app?vid=fa06fc02-b704-43f1-9283-8d139b1aa485","ios":"levelo://app?vid=fa06fc02-b704-43f1-9283-8d139b1aa485"},"vehicle_type_id":"4","last_reported":1748592878,"current_range_meters":8800,"station_id":"ce4bhm92rcd13ifvqglg","pricing_plan_id":"cebpf4jnsgd1na2vs0mg"},{"bike_id":"0e009545-9acc-491d-b143-22cbd0096db4","system_id":"levelo_inurba_marseille","lat":43.33816,"lon":5.3926,"is_reserved":false,"is_disabled":false,"rental_uris":{"android":"levelo://app?vid=0e009545-9acc-491d-b143-22cbd0096db4","ios":"levelo://app?vid=0e009545-9acc-491d-b143-22cbd0096db4"},"vehicle_type_id":"4","last_reported":1748592878,"current_range_meters":8800,"station_id":"","pricing_plan_id":"cebpf4jnsgd1na2vs0mg"},{"bike_id":"6f58ec22-f2ee-49d1-b77b-cf58866a5e83","system_id":"levelo_inurba_marseille","lat":43.27304,"lon":5.39078,"is_reserved":false,"is_disabled":true,"rental_uris":{"android":"levelo://app?vid=6f58ec22-f2ee-49d1-b77b-cf58866a5e83","ios":"levelo://app?vid=6f58ec22-f2ee-49d1-b77b-cf58866a5e83"},"vehicle_type_id":"4","last_reported":1748592878,"current_range_meters":8800,"station_id":"","pricing_plan_id":"cebpf4jnsgd1na2vs0mg"},{"bike_id":"e997ff03-e3d7-45f1-9f4e-fa41cdd5326b","system_id":"levelo_inurba_marseille","lat":43.3149,"lon":5.373,"is_reserved":false,"is_disabled":false,"rental_uris":{"android":"levelo://app?vid=e997ff03-e3d7-45f1-9f4e-fa41cdd5326b","ios":"levelo://app?vid=e997ff03-e3d7-45f1-9f4e-fa41cdd5326b"},"vehicle_type_id":"4","last_reported":1748592878,"current_range_meters":8400,"station_id":"ce4bgt12rcd13ifvqcd0","pricing_plan_id":"cebpf4jnsgd1na2vs0mg"},{"bike_id":"ed1a6081-75be-44b2-a209-668e8f50f0aa","system_id":"levelo_inurba_marseille","lat":43.30644,"lon":5.40089,"is_reserved":false,"is_disabled":false,"rental_uris":{"android":"levelo://app?vid=ed1a6081-75be-44b2-a209-668e8f50f0aa","ios":"levelo://app?vid=ed1a6081-75be-44b2-a209-668e8f50f0aa"},"vehicle_type_id":"4","last_reported":1748592878,"current_range_meters":8800,"station_id":"ce4bh112rcd13ifvqda0","pricing_plan_id":"cebpf4jnsgd1na2vs0mg"},{"bike_id":"339f38b0-f75b-4455-bd41-33673ac56d64","system_id":"levelo_inurba_marseille","lat":43.30981,"lon":5.41728,"is_reserved":false,"is_disabled":false,"rental_uris":{"android":"levelo://app?vid=339f38b0-f75b-4455-bd41-33673ac56d64","ios":"levelo://app?vid=339f38b0-f75b-4455-bd41-33673ac56d64"},"vehicle_type_id":"4","last_reported":1748592878,"current_range_meters":8800,"station_id":"","pricing_plan_id":"cebpf4jnsgd1na2vs0mg"},{"bike_id":"54911b11-8d5c-4045-84a4-61dc99690418","system_id":"levelo_inurba_marseille","lat":43.2119,"lon":5.35074,"is_reserved":false,"is_disabled":false,"rental_uris":{"android":"levelo://app?vid=54911b11-8d5c-4045-84a4-61dc99690418","ios":"levelo://app?vid=54911b11-8d5c-4045-84a4-61dc99690418"},"vehicle_type_id":"4","last_reported":1748592878,"current_range_meters":8800,"station_id":"","pricing_plan_id":"cebpf4jnsgd1na2vs0mg"},{"bike_id":"08818466-c8d1-44f6-a5b1-b36755983432","system_id":"levelo_inurba_marseille","lat":43.320864,"lon":5.440812,"is_reserved":false,"is_disabled":false,"rental_uris":{"android":"levelo://app?vid=08818466-c8d1-44f6-a5b1-b36755983432","ios":"levelo://app?vid=08818466-c8d1-44f6-a5b1-b36755983432"},"vehicle_type_id":"4","last_reported":1748592878,"current_range_meters":8800,"station_id":"","pricing_plan_id":"cebpf4jnsgd1na2vs0mg"},{"bike_id":"1439e623-036f-4242-89ca-d02bdf995a2f","system_id":"levelo_inurba_marseille","lat":43.273737,"lon":5.362567,"is_reserved":false,"is_disabled":false,"rental_uris":{"android":"levelo://app?vid=1439e623-036f-4242-89ca-d02bdf995a2f","ios":"levelo://app?vid=1439e623-036f-4242-89ca-d02bdf995a2f"},"vehicle_type_id":"4","last_reported":1748592878,"current_range_meters":8800,"station_id":"ce4bhbh2rcd13ifvqeo0","pricing_plan_id":"cebpf4jnsgd1na2vs0mg"},{"bike_id":"69e1ae52-6d61-421b-a99d-c62c78c4a4d8","system_id":"levelo_inurba_marseille","lat":43.23178,"lon":5.39994,"is_reserved":false,"is_disabled":false,"rental_uris":{"android":"levelo://app?vid=69e1ae52-6d61-421b-a99d-c62c78c4a4d8","ios":"levelo://app?vid=69e1ae52-6d61-421b-a99d-c62c78c4a4d8"},"vehicle_type_id":"4","last_reported":1748592878,"current_range_meters":9200,"station_id":"ce4bhn12rcd13ifvqgqg","pricing_plan_id":"cebpf4jnsgd1na2vs0mg"},{"bike_id":"42457cf4-066b-4e99-be8a-c611cdb501b2","system_id":"levelo_inurba_marseille","lat":43.23325,"lon":5.36163,"is_reserved":false,"is_disabled":false,"rental_uris":{"android":"levelo://app?vid=42457cf4-066b-4e99-be8a-c611cdb501b2","ios":"levelo://app?vid=42457cf4-066b-4e99-be8a-c611cdb501b2"},"vehicle_type_id":"4","last_reported":1748592878,"current_range_meters":9200,"station_id":"","pricing_plan_id":"cebpf4jnsgd1na2vs0mg"},{"bike_id":"438d1ea3-5c8f-4d35-9360-e6d605c5cfb2","system_id":"levelo_inurba_marseille","lat":43.24672,"lon":5.38152,"is_reserved":false,"is_disabled":false,"rental_uris":{"android":"levelo://app?vid=438d1ea3-5c8f-4d35-9360-e6d605c5cfb2","ios":"levelo://app?vid=438d1ea3-5c8f-4d35-9360-e6d605c5cfb2"},"vehicle_type_id":"4","last_reported":1748592878,"current_range_meters":9200,"station_id":"ce4bhih2rcd13ifvqfr0","pricing_plan_id":"cebpf4jnsgd1na2vs0mg"},{"bike_id":"ebfdf01b-f1ed-4fe5-9076-840bdfdff4ce","system_id":"levelo_inurba_marseille","lat":43.309492,"lon":5.390316,"is_reserved":false,"is_disabled":false,"rental_uris":{"android":"levelo://app?vid=ebfdf01b-f1ed-4fe5-9076-840bdfdff4ce","ios":"levelo://app?vid=ebfdf01b-f1ed-4fe5-9076-840bdfdff4ce"},"vehicle_type_id":"4","last_reported":1748592878,"current_range_meters":9200,"station_id":"ce4bgup2rcd13ifvqco0","pricing_plan_id":"cebpf4jnsgd1na2vs0mg"},{"bike_id":"04c49220-7a35-477c-9a01-0c7650744921","system_id":"levelo_inurba_marseille","lat":43.32485,"lon":5.36584,"is_reserved":false,"is_disabled":false,"rental_uris":{"android":"levelo://app?vid=04c49220-7a35-477c-9a01-0c7650744921","ios":"levelo://app?vid=04c49220-7a35-477c-9a01-0c7650744921"},"vehicle_type_id":"4","last_reported":1748592878,"current_range_meters":9200,"station_id":"ce4bhs12rcd13ifvqhvg","pricing_plan_id":"cebpf4jnsgd1na2vs0mg"},{"bike_id":"00f77637-c960-45d0-b516-a2f6a0285858","system_id":"levelo_inurba_marseille","lat":43.29729,"lon":5.38545,"is_reserved":false,"is_disabled":false,"rental_uris":{"android":"levelo://app?vid=00f77637-c960-45d0-b516-a2f6a0285858","ios":"levelo://app?vid=00f77637-c960-45d0-b516-a2f6a0285858"},"vehicle_type_id":"4","last_reported":1748592878,"current_range_meters":9200,"station_id":"","pricing_plan_id":"cebpf4jnsgd1na2vs0mg"},{"bike_id":"64864384-5888-49d8-b447-ac40385fe3be","system_id":"levelo_inurba_marseille","lat":43.310848,"lon":5.424274,"is_reserved":false,"is_disabled":false,"rental_uris":{"android":"levelo://app?vid=64864384-5888-49d8-b447-ac40385fe3be","ios":"levelo://app?vid=64864384-5888-49d8-b447-ac40385fe3be"},"vehicle_type_id":"4","last_reported":1748592878,"current_range_meters":9200,"station_id":"ce4bhp92rcd13ifvqhag","pricing_plan_id":"cebpf4jnsgd1na2vs0mg"},{"bike_id":"8231def7-2bb5-4db5-b373-b1e78cb73988","system_id":"levelo_inurba_marseille","lat":43.21191,"lon":5.35079,"is_reserved":false,"is_disabled":false,"rental_uris":{"android":"levelo://app?vid=8231def7-2bb5-4db5-b373-b1e78cb73988","ios":"levelo://app?vid=8231def7-2bb5-4db5-b373-b1e78cb73988"},"vehicle_type_id":"4","last_reported":1748592878,"current_range_meters":9200,"station_id":"st_cvj6sg6p6f1abm77japg","pricing_plan_id":"cebpf4jnsgd1na2vs0mg"},{"bike_id":"b0f67d6d-3250-42ef-8f19-4e74e6760f9a","system_id":"levelo_inurba_marseille","lat":43.343978,"lon":5.381464,"is_reserved":false,"is_disabled":false,"rental_uris":{"android":"levelo://app?vid=b0f67d6d-3250-42ef-8f19-4e74e6760f9a","ios":"levelo://app?vid=b0f67d6d-3250-42ef-8f19-4e74e6760f9a"},"vehicle_type_id":"4","last_reported":1748592878,"current_range_meters":9200,"station_id":"","pricing_plan_id":"cebpf4jnsgd1na2vs0mg"},{"bike_id":"a426f99b-d34a-41bf-bbda-59f7dfd6939b","system_id":"levelo_inurba_marseille","lat":43.255796,"lon":5.382262,"is_reserved":false,"is_disabled":false,"rental_uris":{"android":"levelo://app?vid=a426f99b-d34a-41bf-bbda-59f7dfd6939b","ios":"levelo://app?vid=a426f99b-d34a-41bf-bbda-59f7dfd6939b"},"vehicle_type_id":"4","last_reported":1748592878,"current_range_meters":9600,"station_id":"ce501612rcd8frsf0b60","pricing_plan_id":"cebpf4jnsgd1na2vs0mg"},{"bike_id":"8f4889ad-b6a1-4b5e-98e3-57d3a45f1b3f","system_id":"levelo_inurba_marseille","lat":43.30415,"lon":5.39746,"is_reserved":false,"is_disabled":false,"rental_uris":{"android":"levelo://app?vid=8f4889ad-b6a1-4b5e-98e3-57d3a45f1b3f","ios":"levelo://app?vid=8f4889ad-b6a1-4b5e-98e3-57d3a45f1b3f"},"vehicle_type_id":"4","last_reported":1748592878,"current_range_meters":9600,"station_id":"ce4bh092rcd13ifvqd20","pricing_plan_id":"cebpf4jnsgd1na2vs0mg"},{"bike_id":"d2efc7ef-e8cf-48f9-9e09-ac995bd4b4ef","system_id":"levelo_inurba_marseille","lat":43.28585,"lon":5.38469,"is_reserved":false,"is_disabled":false,"rental_uris":{"android":"levelo://app?vid=d2efc7ef-e8cf-48f9-9e09-ac995bd4b4ef","ios":"levelo://app?vid=d2efc7ef-e8cf-48f9-9e09-ac995bd4b4ef"},"vehicle_type_id":"4","last_reported":1748592878,"current_range_meters":9600,"station_id":"ce4bh512rcd13ifvqe3g","pricing_plan_id":"cebpf4jnsgd1na2vs0mg"},{"bike_id":"cd438c88-7f17-4c01-b238-d05b58df7798","system_id":"levelo_inurba_marseille","lat":43.279667,"lon":5.387389,"is_reserved":false,"is_disabled":false,"rental_uris":{"android":"levelo://app?vid=cd438c88-7f17-4c01-b238-d05b58df7798","ios":"levelo://app?vid=cd438c88-7f17-4c01-b238-d05b58df7798"},"vehicle_type_id":"4","last_reported":1748592878,"current_range_meters":9600,"station_id":"ce4bhg12rcd13ifvqf80","pricing_plan_id":"cebpf4jnsgd1na2vs0mg"},{"bike_id":"f8d26ebd-9168-41c8-9f49-36e1a1965f63","system_id":"levelo_inurba_marseille","lat":43.2989,"lon":5.43667,"is_reserved":false,"is_disabled":false,"rental_uris":{"android":"levelo://app?vid=f8d26ebd-9168-41c8-9f49-36e1a1965f63","ios":"levelo://app?vid=f8d26ebd-9168-41c8-9f49-36e1a1965f63"},"vehicle_type_id":"4","last_reported":1748592878,"current_range_meters":9600,"station_id":"ce4bhpp2rcd13ifvqhfg","pricing_plan_id":"cebpf4jnsgd1na2vs0mg"},{"bike_id":"9656913e-5d0a-47f7-b654-a4bd8d02350a","system_id":"levelo_inurba_marseille","lat":43.2928,"lon":5.40116,"is_reserved":false,"is_disabled":false,"rental_uris":{"android":"levelo://app?vid=9656913e-5d0a-47f7-b654-a4bd8d02350a","ios":"levelo://app?vid=9656913e-5d0a-47f7-b654-a4bd8d02350a"},"vehicle_type_id":"4","last_reported":1748592878,"current_range_meters":9600,"station_id":"ce4bh312rcd13ifvqdk0","pricing_plan_id":"cebpf4jnsgd1na2vs0mg"},{"bike_id":"c666405f-462c-40b6-aad2-05c3e84c9054","system_id":"levelo_inurba_marseille","lat":43.24162,"lon":5.36392,"is_reserved":false,"is_disabled":false,"rental_uris":{"android":"levelo://app?vid=c666405f-462c-40b6-aad2-05c3e84c9054","ios":"levelo://app?vid=c666405f-462c-40b6-aad2-05c3e84c9054"},"vehicle_type_id":"4","last_reported":1748592878,"current_range_meters":9600,"station_id":"cpo36qri1sfpv3e86is0","pricing_plan_id":"cebpf4jnsgd1na2vs0mg"},{"bike_id":"ee0b2739-f706-4413-8a3f-4522ecbda914","system_id":"levelo_inurba_marseille","lat":43.29517,"lon":5.39409,"is_reserved":false,"is_disabled":false,"rental_uris":{"android":"levelo://app?vid=ee0b2739-f706-4413-8a3f-4522ecbda914","ios":"levelo://app?vid=ee0b2739-f706-4413-8a3f-4522ecbda914"},"vehicle_type_id":"4","last_reported":1748592878,"current_range_meters":10000,"station_id":"","pricing_plan_id":"cebpf4jnsgd1na2vs0mg"},{"bike_id":"db99c86a-92ad-49eb-bc30-204eb80916e9","system_id":"levelo_inurba_marseille","lat":43.29013,"lon":5.38138,"is_reserved":false,"is_disabled":false,"rental_uris":{"android":"levelo://app?vid=db99c86a-92ad-49eb-bc30-204eb80916e9","ios":"levelo://app?vid=db99c86a-92ad-49eb-bc30-204eb80916e9"},"vehicle_type_id":"4","last_reported":1748592878,"current_range_meters":10000,"station_id":"ce4bh4p2rcd13ifvqe1g","pricing_plan_id":"cebpf4jnsgd1na2vs0mg"},{"bike_id":"f5733814-9732-4748-bcc9-3b2fac8e1564","system_id":"levelo_inurba_marseille","lat":43.31256,"lon":5.37829,"is_reserved":false,"is_disabled":false,"rental_uris":{"android":"levelo://app?vid=f5733814-9732-4748-bcc9-3b2fac8e1564","ios":"levelo://app?vid=f5733814-9732-4748-bcc9-3b2fac8e1564"},"vehicle_type_id":"4","last_reported":1748592878,"current_range_meters":10000,"station_id":"","pricing_plan_id":"cebpf4jnsgd1na2vs0mg"},{"bike_id":"9106b7cd-70ae-456d-906e-062a4ff9165b","system_id":"levelo_inurba_marseille","lat":43.330189,"lon":5.394494,"is_reserved":false,"is_disabled":false,"rental_uris":{"android":"levelo://app?vid=9106b7cd-70ae-456d-906e-062a4ff9165b","ios":"levelo://app?vid=9106b7cd-70ae-456d-906e-062a4ff9165b"},"vehicle_type_id":"4","last_reported":1748592878,"current_range_meters":10000,"station_id":"","pricing_plan_id":"cebpf4jnsgd1na2vs0mg"},{"bike_id":"81dedcf5-3b05-43e1-add4-e5585c2ab925","system_id":"levelo_inurba_marseille","lat":43.248098,"lon":5.374626,"is_reserved":false,"is_disabled":true,"rental_uris":{"android":"levelo://app?vid=81dedcf5-3b05-43e1-add4-e5585c2ab925","ios":"levelo://app?vid=81dedcf5-3b05-43e1-add4-e5585c2ab925"},"vehicle_type_id":"4","last_reported":1748592878,"current_range_meters":10000,"station_id":"ce4bhgh2rcd13ifvqfb0","pricing_plan_id":"cebpf4jnsgd1na2vs0mg"},{"bike_id":"be4a640d-0c26-4675-b5c4-320922c50d85","system_id":"levelo_inurba_marseille","lat":43.3037,"lon":5.42483,"is_reserved":false,"is_disabled":false,"rental_uris":{"android":"levelo://app?vid=be4a640d-0c26-4675-b5c4-320922c50d85","ios":"levelo://app?vid=be4a640d-0c26-4675-b5c4-320922c50d85"},"vehicle_type_id":"4","last_reported":1748592878,"current_range_meters":10800,"station_id":"ce4bhoh2rcd13ifvqh6g","pricing_plan_id":"cebpf4jnsgd1na2vs0mg"},{"bike_id":"0dc000bd-368c-4c59-a0e5-9ddd5a5b10f3","system_id":"levelo_inurba_marseille","lat":43.3234,"lon":5.40617,"is_reserved":false,"is_disabled":true,"rental_uris":{"android":"levelo://app?vid=0dc000bd-368c-4c59-a0e5-9ddd5a5b10f3","ios":"levelo://app?vid=0dc000bd-368c-4c59-a0e5-9ddd5a5b10f3"},"vehicle_type_id":"4","last_reported":1748592878,"current_range_meters":10800,"station_id":"ce4bhq92rcd13ifvqhjg","pricing_plan_id":"cebpf4jnsgd1na2vs0mg"},{"bike_id":"efbc0702-18dd-4c41-989d-36f407c4e0eb","system_id":"levelo_inurba_marseille","lat":43.29097,"lon":5.38124,"is_reserved":false,"is_disabled":false,"rental_uris":{"android":"levelo://app?vid=efbc0702-18dd-4c41-989d-36f407c4e0eb","ios":"levelo://app?vid=efbc0702-18dd-4c41-989d-36f407c4e0eb"},"vehicle_type_id":"4","last_reported":1748592878,"current_range_meters":10800,"station_id":"ce4bh512rcd13ifvqe2g","pricing_plan_id":"cebpf4jnsgd1na2vs0mg"},{"bike_id":"e044c9db-ce02-4ecf-bf86-8eaa46f9c414","system_id":"levelo_inurba_marseille","lat":43.2571,"lon":5.39142,"is_reserved":false,"is_disabled":false,"rental_uris":{"android":"levelo://app?vid=e044c9db-ce02-4ecf-bf86-8eaa46f9c414","ios":"levelo://app?vid=e044c9db-ce02-4ecf-bf86-8eaa46f9c414"},"vehicle_type_id":"4","last_reported":1748592878,"current_range_meters":10800,"station_id":"","pricing_plan_id":"cebpf4jnsgd1na2vs0mg"},{"bike_id":"c6db7724-9a49-416b-8d08-0ca0825c616e","system_id":"levelo_inurba_marseille","lat":43.309227,"lon":5.401438,"is_reserved":false,"is_disabled":false,"rental_uris":{"android":"levelo://app?vid=c6db7724-9a49-416b-8d08-0ca0825c616e","ios":"levelo://app?vid=c6db7724-9a49-416b-8d08-0ca0825c616e"},"vehicle_type_id":"4","last_reported":1748592878,"current_range_meters":10800,"station_id":"ce4bgvp2rcd13ifvqct0","pricing_plan_id":"cebpf4jnsgd1na2vs0mg"},{"bike_id":"a3d2a94f-e1c2-4171-a9aa-7cb1bd87dcc0","system_id":"levelo_inurba_marseille","lat":43.31354,"lon":5.36719,"is_reserved":false,"is_disabled":false,"rental_uris":{"android":"levelo://app?vid=a3d2a94f-e1c2-4171-a9aa-7cb1bd87dcc0","ios":"levelo://app?vid=a3d2a94f-e1c2-4171-a9aa-7cb1bd87dcc0"},"vehicle_type_id":"4","last_reported":1748592878,"current_range_meters":10800,"station_id":"ce4bgr92rcd13ifvqc6g","pricing_plan_id":"cebpf4jnsgd1na2vs0mg"},{"bike_id":"b1070e7a-8a40-475b-91ea-d34046de595b","system_id":"levelo_inurba_marseille","lat":43.27936,"lon":5.38745,"is_reserved":false,"is_disabled":false,"rental_uris":{"android":"levelo://app?vid=b1070e7a-8a40-475b-91ea-d34046de595b","ios":"levelo://app?vid=b1070e7a-8a40-475b-91ea-d34046de595b"},"vehicle_type_id":"4","last_reported":1748592878,"current_range_meters":10800,"station_id":"ce4bhg12rcd13ifvqf80","pricing_plan_id":"cebpf4jnsgd1na2vs0mg"},{"bike_id":"546b439f-af24-4eac-b40b-8e4bc74cee33","system_id":"levelo_inurba_marseille","lat":43.27966,"lon":5.3874,"is_reserved":false,"is_disabled":false,"rental_uris":{"android":"levelo://app?vid=546b439f-af24-4eac-b40b-8e4bc74cee33","ios":"levelo://app?vid=546b439f-af24-4eac-b40b-8e4bc74cee33"},"vehicle_type_id":"4","last_reported":1748592878,"current_range_meters":10800,"station_id":"ce4bhg12rcd13ifvqf80","pricing_plan_id":"cebpf4jnsgd1na2vs0mg"},{"bike_id":"a0733277-9572-4c49-b86b-a255c71a8787","system_id":"levelo_inurba_marseille","lat":43.27184,"lon":5.40997,"is_reserved":false,"is_disabled":false,"rental_uris":{"android":"levelo://app?vid=a0733277-9572-4c49-b86b-a255c71a8787","ios":"levelo://app?vid=a0733277-9572-4c49-b86b-a255c71a8787"},"vehicle_type_id":"4","last_reported":1748592878,"current_range_meters":10800,"station_id":"ce4bhl12rcd13ifvqgf0","pricing_plan_id":"cebpf4jnsgd1na2vs0mg"},{"bike_id":"e9cda520-c6f4-465d-ad7f-8c059b3dc45a","system_id":"levelo_inurba_marseille","lat":43.313967,"lon":5.383993,"is_reserved":false,"is_disabled":false,"rental_uris":{"android":"levelo://app?vid=e9cda520-c6f4-465d-ad7f-8c059b3dc45a","ios":"levelo://app?vid=e9cda520-c6f4-465d-ad7f-8c059b3dc45a"},"vehicle_type_id":"4","last_reported":1748592878,"current_range_meters":10800,"station_id":"","pricing_plan_id":"cebpf4jnsgd1na2vs0mg"},{"bike_id":"54e0c0f7-b8f3-48f3-a8b9-65efc0d1fd7c","system_id":"levelo_inurba_marseille","lat":43.31311,"lon":5.36763,"is_reserved":false,"is_disabled":false,"rental_uris":{"android":"levelo://app?vid=54e0c0f7-b8f3-48f3-a8b9-65efc0d1fd7c","ios":"levelo://app?vid=54e0c0f7-b8f3-48f3-a8b9-65efc0d1fd7c"},"vehicle_type_id":"4","last_reported":1748592878,"current_range_meters":10800,"station_id":"","pricing_plan_id":"cebpf4jnsgd1na2vs0mg"},{"bike_id":"0d021fa5-f24c-4d64-a714-3c7445f5e8d8","system_id":"levelo_inurba_marseille","lat":43.283413,"lon":5.38111,"is_reserved":false,"is_disabled":true,"rental_uris":{"android":"levelo://app?vid=0d021fa5-f24c-4d64-a714-3c7445f5e8d8","ios":"levelo://app?vid=0d021fa5-f24c-4d64-a714-3c7445f5e8d8"},"vehicle_type_id":"4","last_reported":1748592878,"current_range_meters":10800,"station_id":"ce4bh412rcd13ifvqdr0","pricing_plan_id":"cebpf4jnsgd1na2vs0mg"},{"bike_id":"1be21534-ca7b-4f38-8bff-a7515afc85f6","system_id":"levelo_inurba_marseille","lat":43.24805,"lon":5.37465,"is_reserved":false,"is_disabled":false,"rental_uris":{"android":"levelo://app?vid=1be21534-ca7b-4f38-8bff-a7515afc85f6","ios":"levelo://app?vid=1be21534-ca7b-4f38-8bff-a7515afc85f6"},"vehicle_type_id":"4","last_reported":1748592878,"current_range_meters":10800,"station_id":"ce4bhgh2rcd13ifvqfb0","pricing_plan_id":"cebpf4jnsgd1na2vs0mg"},{"bike_id":"3cd9ded2-027b-4023-b70f-0cbbb98ccb35","system_id":"levelo_inurba_marseille","lat":43.27196,"lon":5.39197,"is_reserved":false,"is_disabled":true,"rental_uris":{"android":"levelo://app?vid=3cd9ded2-027b-4023-b70f-0cbbb98ccb35","ios":"levelo://app?vid=3cd9ded2-027b-4023-b70f-0cbbb98ccb35"},"vehicle_type_id":"4","last_reported":1748592878,"current_range_meters":10800,"station_id":"ce4bhhp2rcd13ifvqfm0","pricing_plan_id":"cebpf4jnsgd1na2vs0mg"},{"bike_id":"e6fd2ca1-d968-4e6d-950a-3de70295f052","system_id":"levelo_inurba_marseille","lat":43.28418,"lon":5.3499,"is_reserved":false,"is_disabled":false,"rental_uris":{"android":"levelo://app?vid=e6fd2ca1-d968-4e6d-950a-3de70295f052","ios":"levelo://app?vid=e6fd2ca1-d968-4e6d-950a-3de70295f052"},"vehicle_type_id":"4","last_reported":1748592878,"current_range_meters":10800,"station_id":"ce4bhbh2rcd13ifvqepg","pricing_plan_id":"cebpf4jnsgd1na2vs0mg"},{"bike_id":"a4b76fe5-7bf0-4f86-b675-67301c06e06d","system_id":"levelo_inurba_marseille","lat":43.25002,"lon":5.389336,"is_reserved":false,"is_disabled":false,"rental_uris":{"android":"levelo://app?vid=a4b76fe5-7bf0-4f86-b675-67301c06e06d","ios":"levelo://app?vid=a4b76fe5-7bf0-4f86-b675-67301c06e06d"},"vehicle_type_id":"4","last_reported":1748592878,"current_range_meters":11200,"station_id":"ce4bhgp2rcd13ifvqfd0","pricing_plan_id":"cebpf4jnsgd1na2vs0mg"},{"bike_id":"bd5bfe9a-a724-4c9f-939d-a364f666def0","system_id":"levelo_inurba_marseille","lat":43.293633,"lon":5.378583,"is_reserved":false,"is_disabled":false,"rental_uris":{"android":"levelo://app?vid=bd5bfe9a-a724-4c9f-939d-a364f666def0","ios":"levelo://app?vid=bd5bfe9a-a724-4c9f-939d-a364f666def0"},"vehicle_type_id":"4","last_reported":1748592878,"current_range_meters":11200,"station_id":"ce4bgjh2rcd13ifvqbf0","pricing_plan_id":"cebpf4jnsgd1na2vs0mg"},{"bike_id":"a61a3505-681a-4fe1-a69c-a7338a5be1d2","system_id":"levelo_inurba_marseille","lat":43.25924,"lon":5.40906,"is_reserved":false,"is_disabled":false,"rental_uris":{"android":"levelo://app?vid=a61a3505-681a-4fe1-a69c-a7338a5be1d2","ios":"levelo://app?vid=a61a3505-681a-4fe1-a69c-a7338a5be1d2"},"vehicle_type_id":"4","last_reported":1748592878,"current_range_meters":11200,"station_id":"ce4bhm92rcd13ifvqglg","pricing_plan_id":"cebpf4jnsgd1na2vs0mg"},{"bike_id":"d7f1c75d-958d-4305-a2f7-b70acbe0c642","system_id":"levelo_inurba_marseille","lat":43.30891,"lon":5.40097,"is_reserved":false,"is_disabled":false,"rental_uris":{"android":"levelo://app?vid=d7f1c75d-958d-4305-a2f7-b70acbe0c642","ios":"levelo://app?vid=d7f1c75d-958d-4305-a2f7-b70acbe0c642"},"vehicle_type_id":"4","last_reported":1748592878,"current_range_meters":11200,"station_id":"ce4bgvp2rcd13ifvqct0","pricing_plan_id":"cebpf4jnsgd1na2vs0mg"},{"bike_id":"eeaaba6b-0ce0-43ef-a3d9-c4275a8344eb","system_id":"levelo_inurba_marseille","lat":43.2572,"lon":5.41107,"is_reserved":false,"is_disabled":false,"rental_uris":{"android":"levelo://app?vid=eeaaba6b-0ce0-43ef-a3d9-c4275a8344eb","ios":"levelo://app?vid=eeaaba6b-0ce0-43ef-a3d9-c4275a8344eb"},"vehicle_type_id":"4","last_reported":1748592878,"current_range_meters":11200,"station_id":"ce4bhkp2rcd13ifvqgd0","pricing_plan_id":"cebpf4jnsgd1na2vs0mg"},{"bike_id":"89560cc3-0f0f-483a-8378-9cf91c48db3d","system_id":"levelo_inurba_marseille","lat":43.27176,"lon":5.40998,"is_reserved":false,"is_disabled":false,"rental_uris":{"android":"levelo://app?vid=89560cc3-0f0f-483a-8378-9cf91c48db3d","ios":"levelo://app?vid=89560cc3-0f0f-483a-8378-9cf91c48db3d"},"vehicle_type_id":"4","last_reported":1748592878,"current_range_meters":11600,"station_id":"ce4bhl12rcd13ifvqgf0","pricing_plan_id":"cebpf4jnsgd1na2vs0mg"},{"bike_id":"ec0aa1e8-e8bb-47d5-a5f1-c8147f4dccd9","system_id":"levelo_inurba_marseille","lat":43.32504,"lon":5.3661,"is_reserved":false,"is_disabled":false,"rental_uris":{"android":"levelo://app?vid=ec0aa1e8-e8bb-47d5-a5f1-c8147f4dccd9","ios":"levelo://app?vid=ec0aa1e8-e8bb-47d5-a5f1-c8147f4dccd9"},"vehicle_type_id":"4","last_reported":1748592878,"current_range_meters":11600,"station_id":"ce4bhs12rcd13ifvqhvg","pricing_plan_id":"cebpf4jnsgd1na2vs0mg"},{"bike_id":"035ef2a5-f196-4640-952d-2fa29fb106c6","system_id":"levelo_inurba_marseille","lat":43.2903,"lon":5.379522,"is_reserved":false,"is_disabled":false,"rental_uris":{"android":"levelo://app?vid=035ef2a5-f196-4640-952d-2fa29fb106c6","ios":"levelo://app?vid=035ef2a5-f196-4640-952d-2fa29fb106c6"},"vehicle_type_id":"4","last_reported":1748592878,"current_range_meters":11600,"station_id":"ce4bh8p2rcd13ifvqeb0","pricing_plan_id":"cebpf4jnsgd1na2vs0mg"},{"bike_id":"bc97dac4-f623-45ab-acd6-622fe1887964","system_id":"levelo_inurba_marseille","lat":43.269527,"lon":5.386323,"is_reserved":false,"is_disabled":false,"rental_uris":{"android":"levelo://app?vid=bc97dac4-f623-45ab-acd6-622fe1887964","ios":"levelo://app?vid=bc97dac4-f623-45ab-acd6-622fe1887964"},"vehicle_type_id":"4","last_reported":1748592878,"current_range_meters":11600,"station_id":"ce4bhh92rcd13ifvqfh0","pricing_plan_id":"cebpf4jnsgd1na2vs0mg"},{"bike_id":"bcdd4d25-65d7-4155-8272-c9feb77a32bc","system_id":"levelo_inurba_marseille","lat":43.30911,"lon":5.3685,"is_reserved":false,"is_disabled":false,"rental_uris":{"android":"levelo://app?vid=bcdd4d25-65d7-4155-8272-c9feb77a32bc","ios":"levelo://app?vid=bcdd4d25-65d7-4155-8272-c9feb77a32bc"},"vehicle_type_id":"4","last_reported":1748592878,"current_range_meters":11600,"station_id":"ce4bgn92rcd13ifvqbvg","pricing_plan_id":"cebpf4jnsgd1na2vs0mg"},{"bike_id":"5c61419d-2f34-47a9-908a-330db7e51539","system_id":"levelo_inurba_marseille","lat":43.25714,"lon":5.41119,"is_reserved":false,"is_disabled":false,"rental_uris":{"android":"levelo://app?vid=5c61419d-2f34-47a9-908a-330db7e51539","ios":"levelo://app?vid=5c61419d-2f34-47a9-908a-330db7e51539"},"vehicle_type_id":"4","last_reported":1748592878,"current_range_meters":11600,"station_id":"ce4bhkp2rcd13ifvqgd0","pricing_plan_id":"cebpf4jnsgd1na2vs0mg"},{"bike_id":"a370c1cf-72a5-42a9-a232-813d0ad4b08a","system_id":"levelo_inurba_marseille","lat":43.30938,"lon":5.39027,"is_reserved":false,"is_disabled":false,"rental_uris":{"android":"levelo://app?vid=a370c1cf-72a5-42a9-a232-813d0ad4b08a","ios":"levelo://app?vid=a370c1cf-72a5-42a9-a232-813d0ad4b08a"},"vehicle_type_id":"4","last_reported":1748592878,"current_range_meters":11600,"station_id":"ce4bgup2rcd13ifvqco0","pricing_plan_id":"cebpf4jnsgd1na2vs0mg"},{"bike_id":"3dd1b342-5d0a-4155-9da3-0dd9cd16e16e","system_id":"levelo_inurba_marseille","lat":43.22914,"lon":5.35388,"is_reserved":false,"is_disabled":false,"rental_uris":{"android":"levelo://app?vid=3dd1b342-5d0a-4155-9da3-0dd9cd16e16e","ios":"levelo://app?vid=3dd1b342-5d0a-4155-9da3-0dd9cd16e16e"},"vehicle_type_id":"4","last_reported":1748592878,"current_range_meters":12000,"station_id":"cpo3532slgdg3j2ikp40","pricing_plan_id":"cebpf4jnsgd1na2vs0mg"},{"bike_id":"94d74484-c00f-4773-98b4-43f5ef9035c3","system_id":"levelo_inurba_marseille","lat":43.26193,"lon":5.40445,"is_reserved":false,"is_disabled":false,"rental_uris":{"android":"levelo://app?vid=94d74484-c00f-4773-98b4-43f5ef9035c3","ios":"levelo://app?vid=94d74484-c00f-4773-98b4-43f5ef9035c3"},"vehicle_type_id":"4","last_reported":1748592878,"current_range_meters":12000,"station_id":"ce4bhmh2rcd13ifvqgmg","pricing_plan_id":"cebpf4jnsgd1na2vs0mg"},{"bike_id":"abb8e33b-e663-4a8b-88d2-b0e186bde40e","system_id":"levelo_inurba_marseille","lat":43.25928,"lon":5.40897,"is_reserved":false,"is_disabled":false,"rental_uris":{"android":"levelo://app?vid=abb8e33b-e663-4a8b-88d2-b0e186bde40e","ios":"levelo://app?vid=abb8e33b-e663-4a8b-88d2-b0e186bde40e"},"vehicle_type_id":"4","last_reported":1748592878,"current_range_meters":12000,"station_id":"ce4bhm92rcd13ifvqglg","pricing_plan_id":"cebpf4jnsgd1na2vs0mg"},{"bike_id":"4c1bc0d5-ca0d-48f8-9c1e-c24c3646d244","system_id":"levelo_inurba_marseille","lat":43.27622,"lon":5.36106,"is_reserved":false,"is_disabled":false,"rental_uris":{"android":"levelo://app?vid=4c1bc0d5-ca0d-48f8-9c1e-c24c3646d244","ios":"levelo://app?vid=4c1bc0d5-ca0d-48f8-9c1e-c24c3646d244"},"vehicle_type_id":"4","last_reported":1748592878,"current_range_meters":12000,"station_id":"ce4bgj92rcd13ifvqbe0","pricing_plan_id":"cebpf4jnsgd1na2vs0mg"},{"bike_id":"5d9c2b5a-5cc2-458b-8808-5bcd9b06bfc1","system_id":"levelo_inurba_marseille","lat":43.23063,"lon":5.35488,"is_reserved":false,"is_disabled":false,"rental_uris":{"android":"levelo://app?vid=5d9c2b5a-5cc2-458b-8808-5bcd9b06bfc1","ios":"levelo://app?vid=5d9c2b5a-5cc2-458b-8808-5bcd9b06bfc1"},"vehicle_type_id":"4","last_reported":1748592878,"current_range_meters":12400,"station_id":"","pricing_plan_id":"cebpf4jnsgd1na2vs0mg"},{"bike_id":"1a033729-7d76-4cd7-b553-fd0ee867bce4","system_id":"levelo_inurba_marseille","lat":43.30944,"lon":5.39022,"is_reserved":false,"is_disabled":false,"rental_uris":{"android":"levelo://app?vid=1a033729-7d76-4cd7-b553-fd0ee867bce4","ios":"levelo://app?vid=1a033729-7d76-4cd7-b553-fd0ee867bce4"},"vehicle_type_id":"4","last_reported":1748592878,"current_range_meters":12400,"station_id":"ce4bgup2rcd13ifvqco0","pricing_plan_id":"cebpf4jnsgd1na2vs0mg"},{"bike_id":"d041ba9b-b157-420b-92de-857f860b4947","system_id":"levelo_inurba_marseille","lat":43.28196,"lon":5.39046,"is_reserved":false,"is_disabled":false,"rental_uris":{"android":"levelo://app?vid=d041ba9b-b157-420b-92de-857f860b4947","ios":"levelo://app?vid=d041ba9b-b157-420b-92de-857f860b4947"},"vehicle_type_id":"4","last_reported":1748592878,"current_range_meters":12400,"station_id":"","pricing_plan_id":"cebpf4jnsgd1na2vs0mg"},{"bike_id":"24fa3015-2be2-4b42-9e9f-dbfb367d125b","system_id":"levelo_inurba_marseille","lat":43.21765,"lon":5.34593,"is_reserved":false,"is_disabled":false,"rental_uris":{"android":"levelo://app?vid=24fa3015-2be2-4b42-9e9f-dbfb367d125b","ios":"levelo://app?vid=24fa3015-2be2-4b42-9e9f-dbfb367d125b"},"vehicle_type_id":"4","last_reported":1748592878,"current_range_meters":12400,"station_id":"st_cvj6r9ubvosntc0bgbag","pricing_plan_id":"cebpf4jnsgd1na2vs0mg"},{"bike_id":"7d5ccf32-a06c-497f-987c-d0b0b04cb5ae","system_id":"levelo_inurba_marseille","lat":43.32339,"lon":5.40616,"is_reserved":false,"is_disabled":false,"rental_uris":{"android":"levelo://app?vid=7d5ccf32-a06c-497f-987c-d0b0b04cb5ae","ios":"levelo://app?vid=7d5ccf32-a06c-497f-987c-d0b0b04cb5ae"},"vehicle_type_id":"4","last_reported":1748592878,"current_range_meters":12400,"station_id":"ce4bhq92rcd13ifvqhjg","pricing_plan_id":"cebpf4jnsgd1na2vs0mg"},{"bike_id":"6d9461e9-afcf-430b-8179-bb7d54f00db5","system_id":"levelo_inurba_marseille","lat":43.31505,"lon":5.373,"is_reserved":false,"is_disabled":false,"rental_uris":{"android":"levelo://app?vid=6d9461e9-afcf-430b-8179-bb7d54f00db5","ios":"levelo://app?vid=6d9461e9-afcf-430b-8179-bb7d54f00db5"},"vehicle_type_id":"4","last_reported":1748592878,"current_range_meters":12400,"station_id":"ce4bgt12rcd13ifvqcd0","pricing_plan_id":"cebpf4jnsgd1na2vs0mg"},{"bike_id":"ded2a088-e4b4-4368-a494-e90fbbdb8186","system_id":"levelo_inurba_marseille","lat":43.26955,"lon":5.38628,"is_reserved":false,"is_disabled":false,"rental_uris":{"android":"levelo://app?vid=ded2a088-e4b4-4368-a494-e90fbbdb8186","ios":"levelo://app?vid=ded2a088-e4b4-4368-a494-e90fbbdb8186"},"vehicle_type_id":"4","last_reported":1748592878,"current_range_meters":12400,"station_id":"ce4bhh92rcd13ifvqfh0","pricing_plan_id":"cebpf4jnsgd1na2vs0mg"},{"bike_id":"a8d4273b-613f-442b-bea9-7c462c2c1bbc","system_id":"levelo_inurba_marseille","lat":43.26224,"lon":5.40455,"is_reserved":false,"is_disabled":false,"rental_uris":{"android":"levelo://app?vid=a8d4273b-613f-442b-bea9-7c462c2c1bbc","ios":"levelo://app?vid=a8d4273b-613f-442b-bea9-7c462c2c1bbc"},"vehicle_type_id":"4","last_reported":1748592878,"current_range_meters":12400,"station_id":"ce4bhmh2rcd13ifvqgmg","pricing_plan_id":"cebpf4jnsgd1na2vs0mg"},{"bike_id":"ff9471be-89b1-46b3-9e35-bcd86f5c1820","system_id":"levelo_inurba_marseille","lat":43.29293,"lon":5.37466,"is_reserved":false,"is_disabled":false,"rental_uris":{"android":"levelo://app?vid=ff9471be-89b1-46b3-9e35-bcd86f5c1820","ios":"levelo://app?vid=ff9471be-89b1-46b3-9e35-bcd86f5c1820"},"vehicle_type_id":"4","last_reported":1748592878,"current_range_meters":12400,"station_id":"ce4bgi12rcd13ifvqb70","pricing_plan_id":"cebpf4jnsgd1na2vs0mg"},{"bike_id":"9578bbef-2818-4347-8570-60c62d6a33c6","system_id":"levelo_inurba_marseille","lat":43.31762,"lon":5.3902,"is_reserved":false,"is_disabled":false,"rental_uris":{"android":"levelo://app?vid=9578bbef-2818-4347-8570-60c62d6a33c6","ios":"levelo://app?vid=9578bbef-2818-4347-8570-60c62d6a33c6"},"vehicle_type_id":"4","last_reported":1748592878,"current_range_meters":12400,"station_id":"ce4bhqp2rcd13ifvqhng","pricing_plan_id":"cebpf4jnsgd1na2vs0mg"},{"bike_id":"c9b16b3f-d77e-4adf-8c10-65c6e295aa7d","system_id":"levelo_inurba_marseille","lat":43.27975,"lon":5.38726,"is_reserved":false,"is_disabled":false,"rental_uris":{"android":"levelo://app?vid=c9b16b3f-d77e-4adf-8c10-65c6e295aa7d","ios":"levelo://app?vid=c9b16b3f-d77e-4adf-8c10-65c6e295aa7d"},"vehicle_type_id":"4","last_reported":1748592878,"current_range_meters":12800,"station_id":"ce4bhg12rcd13ifvqf80","pricing_plan_id":"cebpf4jnsgd1na2vs0mg"},{"bike_id":"7243d7c8-02f5-4392-89cf-8c360e846d55","system_id":"levelo_inurba_marseille","lat":43.252746,"lon":5.378332,"is_reserved":false,"is_disabled":false,"rental_uris":{"android":"levelo://app?vid=7243d7c8-02f5-4392-89cf-8c360e846d55","ios":"levelo://app?vid=7243d7c8-02f5-4392-89cf-8c360e846d55"},"vehicle_type_id":"4","last_reported":1748592878,"current_range_meters":12800,"station_id":"","pricing_plan_id":"cebpf4jnsgd1na2vs0mg"},{"bike_id":"27c8c33c-c13c-4cba-a08e-e2577b7035fd","system_id":"levelo_inurba_marseille","lat":43.2971,"lon":5.37691,"is_reserved":false,"is_disabled":false,"rental_uris":{"android":"levelo://app?vid=27c8c33c-c13c-4cba-a08e-e2577b7035fd","ios":"levelo://app?vid=27c8c33c-c13c-4cba-a08e-e2577b7035fd"},"vehicle_type_id":"4","last_reported":1748592878,"current_range_meters":12800,"station_id":"ce4bgkh2rcd13ifvqbl0","pricing_plan_id":"cebpf4jnsgd1na2vs0mg"},{"bike_id":"990df701-79a7-41ec-b963-3693dc590a87","system_id":"levelo_inurba_marseille","lat":43.30175,"lon":5.37909,"is_reserved":false,"is_disabled":false,"rental_uris":{"android":"levelo://app?vid=990df701-79a7-41ec-b963-3693dc590a87","ios":"levelo://app?vid=990df701-79a7-41ec-b963-3693dc590a87"},"vehicle_type_id":"4","last_reported":1748592878,"current_range_meters":12800,"station_id":"","pricing_plan_id":"cebpf4jnsgd1na2vs0mg"},{"bike_id":"9afff74f-25c0-4cce-8476-3dd3e572dd8c","system_id":"levelo_inurba_marseille","lat":43.24077,"lon":5.37754,"is_reserved":false,"is_disabled":false,"rental_uris":{"android":"levelo://app?vid=9afff74f-25c0-4cce-8476-3dd3e572dd8c","ios":"levelo://app?vid=9afff74f-25c0-4cce-8476-3dd3e572dd8c"},"vehicle_type_id":"4","last_reported":1748592878,"current_range_meters":13600,"station_id":"ce4bhnp2rcd13ifvqgvg","pricing_plan_id":"cebpf4jnsgd1na2vs0mg"},{"bike_id":"038aa1e9-8369-44f4-9cb8-c8ebe1b5ad34","system_id":"levelo_inurba_marseille","lat":43.29729,"lon":5.37696,"is_reserved":false,"is_disabled":false,"rental_uris":{"android":"levelo://app?vid=038aa1e9-8369-44f4-9cb8-c8ebe1b5ad34","ios":"levelo://app?vid=038aa1e9-8369-44f4-9cb8-c8ebe1b5ad34"},"vehicle_type_id":"4","last_reported":1748592878,"current_range_meters":12800,"station_id":"ce4bgkh2rcd13ifvqbl0","pricing_plan_id":"cebpf4jnsgd1na2vs0mg"},{"bike_id":"2236b6c0-f763-40f5-8e40-14b379518f91","system_id":"levelo_inurba_marseille","lat":43.246047,"lon":5.39306,"is_reserved":false,"is_disabled":false,"rental_uris":{"android":"levelo://app?vid=2236b6c0-f763-40f5-8e40-14b379518f91","ios":"levelo://app?vid=2236b6c0-f763-40f5-8e40-14b379518f91"},"vehicle_type_id":"4","last_reported":1748592878,"current_range_meters":13600,"station_id":"","pricing_plan_id":"cebpf4jnsgd1na2vs0mg"},{"bike_id":"cd85ece0-e2f3-4caa-bbf2-457082671004","system_id":"levelo_inurba_marseille","lat":43.240494,"lon":5.367496,"is_reserved":false,"is_disabled":true,"rental_uris":{"android":"levelo://app?vid=cd85ece0-e2f3-4caa-bbf2-457082671004","ios":"levelo://app?vid=cd85ece0-e2f3-4caa-bbf2-457082671004"},"vehicle_type_id":"4","last_reported":1748592878,"current_range_meters":13600,"station_id":"","pricing_plan_id":"cebpf4jnsgd1na2vs0mg"},{"bike_id":"81929695-c996-4344-b136-61f971835187","system_id":"levelo_inurba_marseille","lat":43.26226,"lon":5.37434,"is_reserved":false,"is_disabled":false,"rental_uris":{"android":"levelo://app?vid=81929695-c996-4344-b136-61f971835187","ios":"levelo://app?vid=81929695-c996-4344-b136-61f971835187"},"vehicle_type_id":"4","last_reported":1748592878,"current_range_meters":13600,"station_id":"ce4bhgp2rcd13ifvqfc0","pricing_plan_id":"cebpf4jnsgd1na2vs0mg"},{"bike_id":"0fdbfe14-1e41-4787-a602-096062dd4129","system_id":"levelo_inurba_marseille","lat":43.28603,"lon":5.37076,"is_reserved":false,"is_disabled":false,"rental_uris":{"android":"levelo://app?vid=0fdbfe14-1e41-4787-a602-096062dd4129","ios":"levelo://app?vid=0fdbfe14-1e41-4787-a602-096062dd4129"},"vehicle_type_id":"4","last_reported":1748592878,"current_range_meters":13600,"station_id":"ce4bht12rcd13ifvqi60","pricing_plan_id":"cebpf4jnsgd1na2vs0mg"},{"bike_id":"0bdee142-1fda-4a23-9616-8b7744765971","system_id":"levelo_inurba_marseille","lat":43.24669,"lon":5.38176,"is_reserved":false,"is_disabled":false,"rental_uris":{"android":"levelo://app?vid=0bdee142-1fda-4a23-9616-8b7744765971","ios":"levelo://app?vid=0bdee142-1fda-4a23-9616-8b7744765971"},"vehicle_type_id":"4","last_reported":1748592878,"current_range_meters":14000,"station_id":"ce4bhih2rcd13ifvqfr0","pricing_plan_id":"cebpf4jnsgd1na2vs0mg"},{"bike_id":"f30d532a-5239-405b-8f04-4f3e1a44b964","system_id":"levelo_inurba_marseille","lat":43.27239,"lon":5.39203,"is_reserved":false,"is_disabled":false,"rental_uris":{"android":"levelo://app?vid=f30d532a-5239-405b-8f04-4f3e1a44b964","ios":"levelo://app?vid=f30d532a-5239-405b-8f04-4f3e1a44b964"},"vehicle_type_id":"4","last_reported":1748592878,"current_range_meters":14000,"station_id":"ce4bhhp2rcd13ifvqfm0","pricing_plan_id":"cebpf4jnsgd1na2vs0mg"},{"bike_id":"9fe1e697-36ec-421f-b0be-031c2f5ed7f3","system_id":"levelo_inurba_marseille","lat":43.337704,"lon":5.374296,"is_reserved":false,"is_disabled":false,"rental_uris":{"android":"levelo://app?vid=9fe1e697-36ec-421f-b0be-031c2f5ed7f3","ios":"levelo://app?vid=9fe1e697-36ec-421f-b0be-031c2f5ed7f3"},"vehicle_type_id":"4","last_reported":1748592878,"current_range_meters":14000,"station_id":"","pricing_plan_id":"cebpf4jnsgd1na2vs0mg"},{"bike_id":"8a17b903-cbef-4ca1-985e-91f7861d3ad0","system_id":"levelo_inurba_marseille","lat":43.24152,"lon":5.36416,"is_reserved":false,"is_disabled":true,"rental_uris":{"android":"levelo://app?vid=8a17b903-cbef-4ca1-985e-91f7861d3ad0","ios":"levelo://app?vid=8a17b903-cbef-4ca1-985e-91f7861d3ad0"},"vehicle_type_id":"4","last_reported":1748592878,"current_range_meters":14000,"station_id":"cpo36qri1sfpv3e86is0","pricing_plan_id":"cebpf4jnsgd1na2vs0mg"},{"bike_id":"b57b57c1-ef49-4a6b-8e1f-d4bdc403446f","system_id":"levelo_inurba_marseille","lat":43.30645,"lon":5.40087,"is_reserved":false,"is_disabled":false,"rental_uris":{"android":"levelo://app?vid=b57b57c1-ef49-4a6b-8e1f-d4bdc403446f","ios":"levelo://app?vid=b57b57c1-ef49-4a6b-8e1f-d4bdc403446f"},"vehicle_type_id":"4","last_reported":1748592878,"current_range_meters":14000,"station_id":"ce4bh112rcd13ifvqda0","pricing_plan_id":"cebpf4jnsgd1na2vs0mg"},{"bike_id":"eef3edab-c7bc-4626-8a57-2353989bd7cc","system_id":"levelo_inurba_marseille","lat":43.24069,"lon":5.37761,"is_reserved":false,"is_disabled":true,"rental_uris":{"android":"levelo://app?vid=eef3edab-c7bc-4626-8a57-2353989bd7cc","ios":"levelo://app?vid=eef3edab-c7bc-4626-8a57-2353989bd7cc"},"vehicle_type_id":"4","last_reported":1748592878,"current_range_meters":14000,"station_id":"ce4bhnp2rcd13ifvqgvg","pricing_plan_id":"cebpf4jnsgd1na2vs0mg"},{"bike_id":"8fed41b2-9d6b-4474-8486-624fae52b6a2","system_id":"levelo_inurba_marseille","lat":43.27958,"lon":5.41029,"is_reserved":false,"is_disabled":true,"rental_uris":{"android":"levelo://app?vid=8fed41b2-9d6b-4474-8486-624fae52b6a2","ios":"levelo://app?vid=8fed41b2-9d6b-4474-8486-624fae52b6a2"},"vehicle_type_id":"4","last_reported":1748592878,"current_range_meters":14000,"station_id":"ce4bhnp2rcd13ifvqh0g","pricing_plan_id":"cebpf4jnsgd1na2vs0mg"},{"bike_id":"ec99f384-d898-41dd-b58c-5d977d5ab448","system_id":"levelo_inurba_marseille","lat":43.274379,"lon":5.361437,"is_reserved":false,"is_disabled":false,"rental_uris":{"android":"levelo://app?vid=ec99f384-d898-41dd-b58c-5d977d5ab448","ios":"levelo://app?vid=ec99f384-d898-41dd-b58c-5d977d5ab448"},"vehicle_type_id":"4","last_reported":1748592878,"current_range_meters":14000,"station_id":"ce4bh692rcd13ifvqea0","pricing_plan_id":"cebpf4jnsgd1na2vs0mg"},{"bike_id":"6df4bae9-d54c-4738-a698-ea9e949fbaea","system_id":"levelo_inurba_marseille","lat":43.2582,"lon":5.39435,"is_reserved":false,"is_disabled":false,"rental_uris":{"android":"levelo://app?vid=6df4bae9-d54c-4738-a698-ea9e949fbaea","ios":"levelo://app?vid=6df4bae9-d54c-4738-a698-ea9e949fbaea"},"vehicle_type_id":"4","last_reported":1748592878,"current_range_meters":14400,"station_id":"ce4bhip2rcd13ifvqft0","pricing_plan_id":"cebpf4jnsgd1na2vs0mg"},{"bike_id":"a66565e0-7cf2-44c3-8a3f-e024cc3cf1e0","system_id":"levelo_inurba_marseille","lat":43.29259,"lon":5.37614,"is_reserved":false,"is_disabled":false,"rental_uris":{"android":"levelo://app?vid=a66565e0-7cf2-44c3-8a3f-e024cc3cf1e0","ios":"levelo://app?vid=a66565e0-7cf2-44c3-8a3f-e024cc3cf1e0"},"vehicle_type_id":"4","last_reported":1748592878,"current_range_meters":14400,"station_id":"ce4bgi12rcd13ifvqb80","pricing_plan_id":"cebpf4jnsgd1na2vs0mg"},{"bike_id":"2be6f613-1d2e-4314-b7c8-a27f95203c5e","system_id":"levelo_inurba_marseille","lat":43.27947,"lon":5.38744,"is_reserved":false,"is_disabled":false,"rental_uris":{"android":"levelo://app?vid=2be6f613-1d2e-4314-b7c8-a27f95203c5e","ios":"levelo://app?vid=2be6f613-1d2e-4314-b7c8-a27f95203c5e"},"vehicle_type_id":"4","last_reported":1748592878,"current_range_meters":14400,"station_id":"ce4bhg12rcd13ifvqf80","pricing_plan_id":"cebpf4jnsgd1na2vs0mg"},{"bike_id":"d7a91929-e8d0-4e05-a434-6316c1c28bf3","system_id":"levelo_inurba_marseille","lat":43.23179,"lon":5.39993,"is_reserved":false,"is_disabled":false,"rental_uris":{"android":"levelo://app?vid=d7a91929-e8d0-4e05-a434-6316c1c28bf3","ios":"levelo://app?vid=d7a91929-e8d0-4e05-a434-6316c1c28bf3"},"vehicle_type_id":"4","last_reported":1748592878,"current_range_meters":14400,"station_id":"ce4bhn12rcd13ifvqgqg","pricing_plan_id":"cebpf4jnsgd1na2vs0mg"},{"bike_id":"eabdda0a-0863-422e-a202-efdbab1b7f18","system_id":"levelo_inurba_marseille","lat":43.29848,"lon":5.36285,"is_reserved":false,"is_disabled":false,"rental_uris":{"android":"levelo://app?vid=eabdda0a-0863-422e-a202-efdbab1b7f18","ios":"levelo://app?vid=eabdda0a-0863-422e-a202-efdbab1b7f18"},"vehicle_type_id":"4","last_reported":1748592878,"current_range_meters":7200,"station_id":"ce4bgpp2rcd13ifvqc3g","pricing_plan_id":"cebpf4jnsgd1na2vs0mg"},{"bike_id":"7b71cf50-9c91-42e6-8766-5bd1376b8bde","system_id":"levelo_inurba_marseille","lat":43.29615,"lon":5.37746,"is_reserved":false,"is_disabled":false,"rental_uris":{"android":"levelo://app?vid=7b71cf50-9c91-42e6-8766-5bd1376b8bde","ios":"levelo://app?vid=7b71cf50-9c91-42e6-8766-5bd1376b8bde"},"vehicle_type_id":"4","last_reported":1748592878,"current_range_meters":15200,"station_id":"ce4bgi92rcd13ifvqb90","pricing_plan_id":"cebpf4jnsgd1na2vs0mg"},{"bike_id":"f2e7b7a7-5af2-4bec-a5a6-bb8fe4377c78","system_id":"levelo_inurba_marseille","lat":43.26209,"lon":5.37441,"is_reserved":false,"is_disabled":false,"rental_uris":{"android":"levelo://app?vid=f2e7b7a7-5af2-4bec-a5a6-bb8fe4377c78","ios":"levelo://app?vid=f2e7b7a7-5af2-4bec-a5a6-bb8fe4377c78"},"vehicle_type_id":"4","last_reported":1748592878,"current_range_meters":14400,"station_id":"ce4bhgp2rcd13ifvqfc0","pricing_plan_id":"cebpf4jnsgd1na2vs0mg"},{"bike_id":"c15ffdc2-74f4-4829-a183-8922571dd04a","system_id":"levelo_inurba_marseille","lat":43.2985,"lon":5.36274,"is_reserved":false,"is_disabled":false,"rental_uris":{"android":"levelo://app?vid=c15ffdc2-74f4-4829-a183-8922571dd04a","ios":"levelo://app?vid=c15ffdc2-74f4-4829-a183-8922571dd04a"},"vehicle_type_id":"4","last_reported":1748592878,"current_range_meters":14800,"station_id":"ce4bgpp2rcd13ifvqc3g","pricing_plan_id":"cebpf4jnsgd1na2vs0mg"},{"bike_id":"854c0867-77a6-4b6e-8a7f-2ec3cfed8fdb","system_id":"levelo_inurba_marseille","lat":43.25921,"lon":5.40876,"is_reserved":false,"is_disabled":false,"rental_uris":{"android":"levelo://app?vid=854c0867-77a6-4b6e-8a7f-2ec3cfed8fdb","ios":"levelo://app?vid=854c0867-77a6-4b6e-8a7f-2ec3cfed8fdb"},"vehicle_type_id":"4","last_reported":1748592878,"current_range_meters":14800,"station_id":"ce4bhm92rcd13ifvqglg","pricing_plan_id":"cebpf4jnsgd1na2vs0mg"},{"bike_id":"3cfcd708-bb66-4827-988c-59ab1f9ea42d","system_id":"levelo_inurba_marseille","lat":43.26225,"lon":5.4046,"is_reserved":false,"is_disabled":false,"rental_uris":{"android":"levelo://app?vid=3cfcd708-bb66-4827-988c-59ab1f9ea42d","ios":"levelo://app?vid=3cfcd708-bb66-4827-988c-59ab1f9ea42d"},"vehicle_type_id":"4","last_reported":1748592878,"current_range_meters":14800,"station_id":"ce4bhmh2rcd13ifvqgmg","pricing_plan_id":"cebpf4jnsgd1na2vs0mg"},{"bike_id":"cecccb03-d5e1-44f8-9176-a22550f751c7","system_id":"levelo_inurba_marseille","lat":43.32535,"lon":5.41442,"is_reserved":false,"is_disabled":false,"rental_uris":{"android":"levelo://app?vid=cecccb03-d5e1-44f8-9176-a22550f751c7","ios":"levelo://app?vid=cecccb03-d5e1-44f8-9176-a22550f751c7"},"vehicle_type_id":"4","last_reported":1748592878,"current_range_meters":14800,"station_id":"ce4bhq12rcd13ifvqhhg","pricing_plan_id":"cebpf4jnsgd1na2vs0mg"},{"bike_id":"a37443ea-b2cd-47c4-a061-e43164acc50e","system_id":"levelo_inurba_marseille","lat":43.297119,"lon":5.376891,"is_reserved":false,"is_disabled":false,"rental_uris":{"android":"levelo://app?vid=a37443ea-b2cd-47c4-a061-e43164acc50e","ios":"levelo://app?vid=a37443ea-b2cd-47c4-a061-e43164acc50e"},"vehicle_type_id":"4","last_reported":1748592878,"current_range_meters":14800,"station_id":"ce4bgkh2rcd13ifvqbl0","pricing_plan_id":"cebpf4jnsgd1na2vs0mg"},{"bike_id":"9ea654fd-9c6b-45ea-9771-15bf83e7f507","system_id":"levelo_inurba_marseille","lat":43.26942,"lon":5.40248,"is_reserved":false,"is_disabled":false,"rental_uris":{"android":"levelo://app?vid=9ea654fd-9c6b-45ea-9771-15bf83e7f507","ios":"levelo://app?vid=9ea654fd-9c6b-45ea-9771-15bf83e7f507"},"vehicle_type_id":"4","last_reported":1748592878,"current_range_meters":14800,"station_id":"cjm6bp8fraef2m0cb0m0","pricing_plan_id":"cebpf4jnsgd1na2vs0mg"},{"bike_id":"b18036e4-cdbb-441f-a4f1-99c9cdbece34","system_id":"levelo_inurba_marseille","lat":43.29492,"lon":5.39095,"is_reserved":false,"is_disabled":false,"rental_uris":{"android":"levelo://app?vid=b18036e4-cdbb-441f-a4f1-99c9cdbece34","ios":"levelo://app?vid=b18036e4-cdbb-441f-a4f1-99c9cdbece34"},"vehicle_type_id":"4","last_reported":1748592878,"current_range_meters":14800,"station_id":"","pricing_plan_id":"cebpf4jnsgd1na2vs0mg"},{"bike_id":"7772ee7a-25f5-4bc7-a3bc-e28a5309d741","system_id":"levelo_inurba_marseille","lat":43.30368,"lon":5.42477,"is_reserved":false,"is_disabled":true,"rental_uris":{"android":"levelo://app?vid=7772ee7a-25f5-4bc7-a3bc-e28a5309d741","ios":"levelo://app?vid=7772ee7a-25f5-4bc7-a3bc-e28a5309d741"},"vehicle_type_id":"4","last_reported":1748592878,"current_range_meters":14800,"station_id":"ce4bhoh2rcd13ifvqh6g","pricing_plan_id":"cebpf4jnsgd1na2vs0mg"},{"bike_id":"60a0dbe0-ff9d-48df-9236-aec610355fef","system_id":"levelo_inurba_marseille","lat":43.2904,"lon":5.3757,"is_reserved":false,"is_disabled":false,"rental_uris":{"android":"levelo://app?vid=60a0dbe0-ff9d-48df-9236-aec610355fef","ios":"levelo://app?vid=60a0dbe0-ff9d-48df-9236-aec610355fef"},"vehicle_type_id":"4","last_reported":1748592878,"current_range_meters":14400,"station_id":"ce4bh692rcd13ifvqe90","pricing_plan_id":"cebpf4jnsgd1na2vs0mg"},{"bike_id":"f6bd1e51-65ae-438d-bd18-93ca0a076c16","system_id":"levelo_inurba_marseille","lat":43.293,"lon":5.37453,"is_reserved":false,"is_disabled":false,"rental_uris":{"android":"levelo://app?vid=f6bd1e51-65ae-438d-bd18-93ca0a076c16","ios":"levelo://app?vid=f6bd1e51-65ae-438d-bd18-93ca0a076c16"},"vehicle_type_id":"4","last_reported":1748592878,"current_range_meters":14800,"station_id":"ce4bgi12rcd13ifvqb70","pricing_plan_id":"cebpf4jnsgd1na2vs0mg"},{"bike_id":"6629a3b8-7b02-4017-b9d4-e76883d08714","system_id":"levelo_inurba_marseille","lat":43.26786,"lon":5.39406,"is_reserved":false,"is_disabled":false,"rental_uris":{"android":"levelo://app?vid=6629a3b8-7b02-4017-b9d4-e76883d08714","ios":"levelo://app?vid=6629a3b8-7b02-4017-b9d4-e76883d08714"},"vehicle_type_id":"4","last_reported":1748592878,"current_range_meters":15200,"station_id":"ce4bhh12rcd13ifvqfg0","pricing_plan_id":"cebpf4jnsgd1na2vs0mg"},{"bike_id":"aa06a186-a5ae-4dd5-a938-3e5c2030375b","system_id":"levelo_inurba_marseille","lat":43.28941,"lon":5.39628,"is_reserved":false,"is_disabled":false,"rental_uris":{"android":"levelo://app?vid=aa06a186-a5ae-4dd5-a938-3e5c2030375b","ios":"levelo://app?vid=aa06a186-a5ae-4dd5-a938-3e5c2030375b"},"vehicle_type_id":"4","last_reported":1748592878,"current_range_meters":15200,"station_id":"ce4bh3h2rcd13ifvqdn0","pricing_plan_id":"cebpf4jnsgd1na2vs0mg"},{"bike_id":"950a66c6-0112-4714-a007-202e42172c1f","system_id":"levelo_inurba_marseille","lat":43.24798,"lon":5.37455,"is_reserved":false,"is_disabled":false,"rental_uris":{"android":"levelo://app?vid=950a66c6-0112-4714-a007-202e42172c1f","ios":"levelo://app?vid=950a66c6-0112-4714-a007-202e42172c1f"},"vehicle_type_id":"4","last_reported":1748592878,"current_range_meters":16000,"station_id":"ce4bhgh2rcd13ifvqfb0","pricing_plan_id":"cebpf4jnsgd1na2vs0mg"},{"bike_id":"30c0360d-3b58-44ff-a262-1c15bc51a067","system_id":"levelo_inurba_marseille","lat":43.26191,"lon":5.3745,"is_reserved":false,"is_disabled":false,"rental_uris":{"android":"levelo://app?vid=30c0360d-3b58-44ff-a262-1c15bc51a067","ios":"levelo://app?vid=30c0360d-3b58-44ff-a262-1c15bc51a067"},"vehicle_type_id":"4","last_reported":1748592878,"current_range_meters":16000,"station_id":"ce4bhgp2rcd13ifvqfc0","pricing_plan_id":"cebpf4jnsgd1na2vs0mg"},{"bike_id":"bf9ada33-fac3-4c6c-a22e-d3b48e785518","system_id":"levelo_inurba_marseille","lat":43.28016,"lon":5.40873,"is_reserved":false,"is_disabled":false,"rental_uris":{"android":"levelo://app?vid=bf9ada33-fac3-4c6c-a22e-d3b48e785518","ios":"levelo://app?vid=bf9ada33-fac3-4c6c-a22e-d3b48e785518"},"vehicle_type_id":"4","last_reported":1748592878,"current_range_meters":16000,"station_id":"","pricing_plan_id":"cebpf4jnsgd1na2vs0mg"},{"bike_id":"67a6560c-83dc-490e-9fc7-f17e3d931afd","system_id":"levelo_inurba_marseille","lat":43.24159,"lon":5.36397,"is_reserved":false,"is_disabled":false,"rental_uris":{"android":"levelo://app?vid=67a6560c-83dc-490e-9fc7-f17e3d931afd","ios":"levelo://app?vid=67a6560c-83dc-490e-9fc7-f17e3d931afd"},"vehicle_type_id":"4","last_reported":1748592878,"current_range_meters":16000,"station_id":"cpo36qri1sfpv3e86is0","pricing_plan_id":"cebpf4jnsgd1na2vs0mg"},{"bike_id":"d6d1ada7-d095-4848-a9c7-71d520f6d868","system_id":"levelo_inurba_marseille","lat":43.299666,"lon":5.384894,"is_reserved":false,"is_disabled":false,"rental_uris":{"android":"levelo://app?vid=d6d1ada7-d095-4848-a9c7-71d520f6d868","ios":"levelo://app?vid=d6d1ada7-d095-4848-a9c7-71d520f6d868"},"vehicle_type_id":"4","last_reported":1748592878,"current_range_meters":16000,"station_id":"","pricing_plan_id":"cebpf4jnsgd1na2vs0mg"},{"bike_id":"565b3e3d-698b-4f09-8892-9a3ab833c044","system_id":"levelo_inurba_marseille","lat":43.27102,"lon":5.36279,"is_reserved":false,"is_disabled":false,"rental_uris":{"android":"levelo://app?vid=565b3e3d-698b-4f09-8892-9a3ab833c044","ios":"levelo://app?vid=565b3e3d-698b-4f09-8892-9a3ab833c044"},"vehicle_type_id":"4","last_reported":1748592878,"current_range_meters":16000,"station_id":"","pricing_plan_id":"cebpf4jnsgd1na2vs0mg"},{"bike_id":"dd34afa2-f665-4263-85a8-7de7dbd3a196","system_id":"levelo_inurba_marseille","lat":43.27623,"lon":5.397,"is_reserved":false,"is_disabled":false,"rental_uris":{"android":"levelo://app?vid=dd34afa2-f665-4263-85a8-7de7dbd3a196","ios":"levelo://app?vid=dd34afa2-f665-4263-85a8-7de7dbd3a196"},"vehicle_type_id":"4","last_reported":1748592878,"current_range_meters":16000,"station_id":"","pricing_plan_id":"cebpf4jnsgd1na2vs0mg"},{"bike_id":"69362ca8-aad5-4f84-99b8-c7328973ac4f","system_id":"levelo_inurba_marseille","lat":43.23139,"lon":5.43727,"is_reserved":false,"is_disabled":false,"rental_uris":{"android":"levelo://app?vid=69362ca8-aad5-4f84-99b8-c7328973ac4f","ios":"levelo://app?vid=69362ca8-aad5-4f84-99b8-c7328973ac4f"},"vehicle_type_id":"4","last_reported":1748592878,"current_range_meters":15200,"station_id":"ce4bhmp2rcd13ifvqgog","pricing_plan_id":"cebpf4jnsgd1na2vs0mg"},{"bike_id":"7eca6927-0eee-41fb-838c-8606d041ec62","system_id":"levelo_inurba_marseille","lat":43.26232,"lon":5.40451,"is_reserved":false,"is_disabled":false,"rental_uris":{"android":"levelo://app?vid=7eca6927-0eee-41fb-838c-8606d041ec62","ios":"levelo://app?vid=7eca6927-0eee-41fb-838c-8606d041ec62"},"vehicle_type_id":"4","last_reported":1748592878,"current_range_meters":16400,"station_id":"ce4bhmh2rcd13ifvqgmg","pricing_plan_id":"cebpf4jnsgd1na2vs0mg"},{"bike_id":"adb1842d-29fb-417f-912f-8eef6495ed52","system_id":"levelo_inurba_marseille","lat":43.29518,"lon":5.37497,"is_reserved":false,"is_disabled":false,"rental_uris":{"android":"levelo://app?vid=adb1842d-29fb-417f-912f-8eef6495ed52","ios":"levelo://app?vid=adb1842d-29fb-417f-912f-8eef6495ed52"},"vehicle_type_id":"4","last_reported":1748592878,"current_range_meters":16000,"station_id":"ce4bgkp2rcd13ifvqbmg","pricing_plan_id":"cebpf4jnsgd1na2vs0mg"},{"bike_id":"ec022027-7e65-473a-bd6a-c00b33a3551d","system_id":"levelo_inurba_marseille","lat":43.29963,"lon":5.38498,"is_reserved":false,"is_disabled":false,"rental_uris":{"android":"levelo://app?vid=ec022027-7e65-473a-bd6a-c00b33a3551d","ios":"levelo://app?vid=ec022027-7e65-473a-bd6a-c00b33a3551d"},"vehicle_type_id":"4","last_reported":1748592878,"current_range_meters":16400,"station_id":"ce4bgj92rcd13ifvqbd0","pricing_plan_id":"cebpf4jnsgd1na2vs0mg"},{"bike_id":"a1b28146-67ba-460f-a3b6-23293e9aee3a","system_id":"levelo_inurba_marseille","lat":43.2861,"lon":5.35111,"is_reserved":false,"is_disabled":true,"rental_uris":{"android":"levelo://app?vid=a1b28146-67ba-460f-a3b6-23293e9aee3a","ios":"levelo://app?vid=a1b28146-67ba-460f-a3b6-23293e9aee3a"},"vehicle_type_id":"4","last_reported":1748592878,"current_range_meters":16400,"station_id":"ce4bhch2rcd13ifvqeug","pricing_plan_id":"cebpf4jnsgd1na2vs0mg"},{"bike_id":"d5717ce5-c661-467b-a0d0-ac1d0564b554","system_id":"levelo_inurba_marseille","lat":43.31999,"lon":5.3816,"is_reserved":false,"is_disabled":false,"rental_uris":{"android":"levelo://app?vid=d5717ce5-c661-467b-a0d0-ac1d0564b554","ios":"levelo://app?vid=d5717ce5-c661-467b-a0d0-ac1d0564b554"},"vehicle_type_id":"4","last_reported":1748592878,"current_range_meters":16400,"station_id":"ce4bhr12rcd13ifvqhpg","pricing_plan_id":"cebpf4jnsgd1na2vs0mg"},{"bike_id":"aafe2f57-e2ec-44cd-b95f-d6871f482382","system_id":"levelo_inurba_marseille","lat":43.3065,"lon":5.4007,"is_reserved":false,"is_disabled":false,"rental_uris":{"android":"levelo://app?vid=aafe2f57-e2ec-44cd-b95f-d6871f482382","ios":"levelo://app?vid=aafe2f57-e2ec-44cd-b95f-d6871f482382"},"vehicle_type_id":"4","last_reported":1748592878,"current_range_meters":16400,"station_id":"ce4bh112rcd13ifvqda0","pricing_plan_id":"cebpf4jnsgd1na2vs0mg"},{"bike_id":"4289d9d3-597a-40d4-abeb-090b88130b31","system_id":"levelo_inurba_marseille","lat":43.28147,"lon":5.4264,"is_reserved":false,"is_disabled":false,"rental_uris":{"android":"levelo://app?vid=4289d9d3-597a-40d4-abeb-090b88130b31","ios":"levelo://app?vid=4289d9d3-597a-40d4-abeb-090b88130b31"},"vehicle_type_id":"4","last_reported":1748592878,"current_range_meters":16800,"station_id":"ce4bhnh2rcd13ifvqgug","pricing_plan_id":"cebpf4jnsgd1na2vs0mg"},{"bike_id":"7e2cea13-6584-4328-9ce6-100c60b09dd7","system_id":"levelo_inurba_marseille","lat":43.30535,"lon":5.36518,"is_reserved":false,"is_disabled":false,"rental_uris":{"android":"levelo://app?vid=7e2cea13-6584-4328-9ce6-100c60b09dd7","ios":"levelo://app?vid=7e2cea13-6584-4328-9ce6-100c60b09dd7"},"vehicle_type_id":"4","last_reported":1748592878,"current_range_meters":16800,"station_id":"ce4bgs12rcd13ifvqcag","pricing_plan_id":"cebpf4jnsgd1na2vs0mg"},{"bike_id":"53149a50-42d6-422b-81ff-d309079f9b29","system_id":"levelo_inurba_marseille","lat":43.25933,"lon":5.40887,"is_reserved":false,"is_disabled":false,"rental_uris":{"android":"levelo://app?vid=53149a50-42d6-422b-81ff-d309079f9b29","ios":"levelo://app?vid=53149a50-42d6-422b-81ff-d309079f9b29"},"vehicle_type_id":"4","last_reported":1748592878,"current_range_meters":16800,"station_id":"ce4bhm92rcd13ifvqglg","pricing_plan_id":"cebpf4jnsgd1na2vs0mg"},{"bike_id":"71930e17-fe3c-443f-b621-4d725e50390f","system_id":"levelo_inurba_marseille","lat":43.33724,"lon":5.39194,"is_reserved":false,"is_disabled":false,"rental_uris":{"android":"levelo://app?vid=71930e17-fe3c-443f-b621-4d725e50390f","ios":"levelo://app?vid=71930e17-fe3c-443f-b621-4d725e50390f"},"vehicle_type_id":"4","last_reported":1748592878,"current_range_meters":16800,"station_id":"ce4bhr92rcd13ifvqhsg","pricing_plan_id":"cebpf4jnsgd1na2vs0mg"},{"bike_id":"f47d5d15-b929-42e8-aa00-5bc8a2dc15e4","system_id":"levelo_inurba_marseille","lat":43.22502,"lon":5.34785,"is_reserved":false,"is_disabled":false,"rental_uris":{"android":"levelo://app?vid=f47d5d15-b929-42e8-aa00-5bc8a2dc15e4","ios":"levelo://app?vid=f47d5d15-b929-42e8-aa00-5bc8a2dc15e4"},"vehicle_type_id":"4","last_reported":1748592878,"current_range_meters":16800,"station_id":"","pricing_plan_id":"cebpf4jnsgd1na2vs0mg"},{"bike_id":"6f2f0ec1-945c-4513-b149-7f58a31531e0","system_id":"levelo_inurba_marseille","lat":43.25901,"lon":5.40878,"is_reserved":false,"is_disabled":false,"rental_uris":{"android":"levelo://app?vid=6f2f0ec1-945c-4513-b149-7f58a31531e0","ios":"levelo://app?vid=6f2f0ec1-945c-4513-b149-7f58a31531e0"},"vehicle_type_id":"4","last_reported":1748592878,"current_range_meters":17200,"station_id":"ce4bhm92rcd13ifvqglg","pricing_plan_id":"cebpf4jnsgd1na2vs0mg"},{"bike_id":"769bf774-ef8d-46a0-b7de-5f61cbc6536d","system_id":"levelo_inurba_marseille","lat":43.313277,"lon":5.39698,"is_reserved":false,"is_disabled":false,"rental_uris":{"android":"levelo://app?vid=769bf774-ef8d-46a0-b7de-5f61cbc6536d","ios":"levelo://app?vid=769bf774-ef8d-46a0-b7de-5f61cbc6536d"},"vehicle_type_id":"4","last_reported":1748592878,"current_range_meters":17200,"station_id":"ce4bgvp2rcd13ifvqcu0","pricing_plan_id":"cebpf4jnsgd1na2vs0mg"},{"bike_id":"7ff2154e-488d-48af-bd8c-e578242027fc","system_id":"levelo_inurba_marseille","lat":43.29524,"lon":5.3854,"is_reserved":false,"is_disabled":false,"rental_uris":{"android":"levelo://app?vid=7ff2154e-488d-48af-bd8c-e578242027fc","ios":"levelo://app?vid=7ff2154e-488d-48af-bd8c-e578242027fc"},"vehicle_type_id":"4","last_reported":1748592878,"current_range_meters":16800,"station_id":"ce4bgih2rcd13ifvqba0","pricing_plan_id":"cebpf4jnsgd1na2vs0mg"},{"bike_id":"f5f3c231-531f-4ead-aba7-cb3c00ff5a10","system_id":"levelo_inurba_marseille","lat":43.284088,"lon":5.374999,"is_reserved":false,"is_disabled":false,"rental_uris":{"android":"levelo://app?vid=f5f3c231-531f-4ead-aba7-cb3c00ff5a10","ios":"levelo://app?vid=f5f3c231-531f-4ead-aba7-cb3c00ff5a10"},"vehicle_type_id":"4","last_reported":1748592878,"current_range_meters":17200,"station_id":"ce4bh412rcd13ifvqds0","pricing_plan_id":"cebpf4jnsgd1na2vs0mg"},{"bike_id":"65cbc169-797e-4e8e-8be8-c90cfcafc3ac","system_id":"levelo_inurba_marseille","lat":43.281586,"lon":5.426445,"is_reserved":false,"is_disabled":false,"rental_uris":{"android":"levelo://app?vid=65cbc169-797e-4e8e-8be8-c90cfcafc3ac","ios":"levelo://app?vid=65cbc169-797e-4e8e-8be8-c90cfcafc3ac"},"vehicle_type_id":"4","last_reported":1748592878,"current_range_meters":17200,"station_id":"ce4bhnh2rcd13ifvqgug","pricing_plan_id":"cebpf4jnsgd1na2vs0mg"},{"bike_id":"c6edeaa8-286a-4072-9db4-ae3a11de5279","system_id":"levelo_inurba_marseille","lat":43.26948,"lon":5.40244,"is_reserved":false,"is_disabled":false,"rental_uris":{"android":"levelo://app?vid=c6edeaa8-286a-4072-9db4-ae3a11de5279","ios":"levelo://app?vid=c6edeaa8-286a-4072-9db4-ae3a11de5279"},"vehicle_type_id":"4","last_reported":1748592878,"current_range_meters":17200,"station_id":"cjm6bp8fraef2m0cb0m0","pricing_plan_id":"cebpf4jnsgd1na2vs0mg"},{"bike_id":"b08361b1-e7ec-4a5b-8edb-7c4c7ccf8a2b","system_id":"levelo_inurba_marseille","lat":43.32104,"lon":5.36786,"is_reserved":false,"is_disabled":false,"rental_uris":{"android":"levelo://app?vid=b08361b1-e7ec-4a5b-8edb-7c4c7ccf8a2b","ios":"levelo://app?vid=b08361b1-e7ec-4a5b-8edb-7c4c7ccf8a2b"},"vehicle_type_id":"4","last_reported":1748592878,"current_range_meters":17200,"station_id":"ce4bhrh2rcd13ifvqhug","pricing_plan_id":"cebpf4jnsgd1na2vs0mg"},{"bike_id":"6ce57084-f339-406a-94f2-c6df26143420","system_id":"levelo_inurba_marseille","lat":43.29617,"lon":5.37752,"is_reserved":false,"is_disabled":false,"rental_uris":{"android":"levelo://app?vid=6ce57084-f339-406a-94f2-c6df26143420","ios":"levelo://app?vid=6ce57084-f339-406a-94f2-c6df26143420"},"vehicle_type_id":"4","last_reported":1748592878,"current_range_meters":17200,"station_id":"ce4bgi92rcd13ifvqb90","pricing_plan_id":"cebpf4jnsgd1na2vs0mg"},{"bike_id":"5f2393fd-1a3f-4e2a-b888-e72e4724ef0d","system_id":"levelo_inurba_marseille","lat":43.29779,"lon":5.37102,"is_reserved":false,"is_disabled":false,"rental_uris":{"android":"levelo://app?vid=5f2393fd-1a3f-4e2a-b888-e72e4724ef0d","ios":"levelo://app?vid=5f2393fd-1a3f-4e2a-b888-e72e4724ef0d"},"vehicle_type_id":"4","last_reported":1748592878,"current_range_meters":17600,"station_id":"ce4bgop2rcd13ifvqc1g","pricing_plan_id":"cebpf4jnsgd1na2vs0mg"},{"bike_id":"45fe38e3-f8b0-4003-b3b2-7f189c52b654","system_id":"levelo_inurba_marseille","lat":43.279189,"lon":5.395767,"is_reserved":false,"is_disabled":false,"rental_uris":{"android":"levelo://app?vid=45fe38e3-f8b0-4003-b3b2-7f189c52b654","ios":"levelo://app?vid=45fe38e3-f8b0-4003-b3b2-7f189c52b654"},"vehicle_type_id":"4","last_reported":1748592878,"current_range_meters":17600,"station_id":"ce4bhf92rcd13ifvqf40","pricing_plan_id":"cebpf4jnsgd1na2vs0mg"},{"bike_id":"f8744558-165a-4330-bada-23eebb8b5743","system_id":"levelo_inurba_marseille","lat":43.29301,"lon":5.37163,"is_reserved":false,"is_disabled":false,"rental_uris":{"android":"levelo://app?vid=f8744558-165a-4330-bada-23eebb8b5743","ios":"levelo://app?vid=f8744558-165a-4330-bada-23eebb8b5743"},"vehicle_type_id":"4","last_reported":1748592878,"current_range_meters":17600,"station_id":"ce4bgh92rcd13ifvqb40","pricing_plan_id":"cebpf4jnsgd1na2vs0mg"},{"bike_id":"04226d7a-6e69-4c2e-8695-3839e17c2528","system_id":"levelo_inurba_marseille","lat":43.26212,"lon":5.37435,"is_reserved":false,"is_disabled":false,"rental_uris":{"android":"levelo://app?vid=04226d7a-6e69-4c2e-8695-3839e17c2528","ios":"levelo://app?vid=04226d7a-6e69-4c2e-8695-3839e17c2528"},"vehicle_type_id":"4","last_reported":1748592878,"current_range_meters":17600,"station_id":"ce4bhgp2rcd13ifvqfc0","pricing_plan_id":"cebpf4jnsgd1na2vs0mg"},{"bike_id":"71ea6fe0-b43c-461e-9136-c17f3fbf09ca","system_id":"levelo_inurba_marseille","lat":43.30178,"lon":5.36626,"is_reserved":false,"is_disabled":false,"rental_uris":{"android":"levelo://app?vid=71ea6fe0-b43c-461e-9136-c17f3fbf09ca","ios":"levelo://app?vid=71ea6fe0-b43c-461e-9136-c17f3fbf09ca"},"vehicle_type_id":"4","last_reported":1748592878,"current_range_meters":17200,"station_id":"ce4bgrh2rcd13ifvqc8g","pricing_plan_id":"cebpf4jnsgd1na2vs0mg"},{"bike_id":"7f82359d-86fb-4e1e-900b-4db77f7d35b2","system_id":"levelo_inurba_marseille","lat":43.29574,"lon":5.37504,"is_reserved":false,"is_disabled":false,"rental_uris":{"android":"levelo://app?vid=7f82359d-86fb-4e1e-900b-4db77f7d35b2","ios":"levelo://app?vid=7f82359d-86fb-4e1e-900b-4db77f7d35b2"},"vehicle_type_id":"4","last_reported":1748592878,"current_range_meters":17600,"station_id":"ce4bgh92rcd13ifvqb50","pricing_plan_id":"cebpf4jnsgd1na2vs0mg"},{"bike_id":"6fb49c67-8467-4b53-b723-3d49ba420b09","system_id":"levelo_inurba_marseille","lat":43.27826,"lon":5.39204,"is_reserved":false,"is_disabled":false,"rental_uris":{"android":"levelo://app?vid=6fb49c67-8467-4b53-b723-3d49ba420b09","ios":"levelo://app?vid=6fb49c67-8467-4b53-b723-3d49ba420b09"},"vehicle_type_id":"4","last_reported":1748592878,"current_range_meters":17600,"station_id":"ce4bhjp2rcd13ifvqga0","pricing_plan_id":"cebpf4jnsgd1na2vs0mg"},{"bike_id":"810b0761-d40c-45f4-a39c-da290b77b9dc","system_id":"levelo_inurba_marseille","lat":43.31687,"lon":5.40463,"is_reserved":false,"is_disabled":false,"rental_uris":{"android":"levelo://app?vid=810b0761-d40c-45f4-a39c-da290b77b9dc","ios":"levelo://app?vid=810b0761-d40c-45f4-a39c-da290b77b9dc"},"vehicle_type_id":"4","last_reported":1748592878,"current_range_meters":17600,"station_id":"ce4bh012rcd13ifvqd00","pricing_plan_id":"cebpf4jnsgd1na2vs0mg"},{"bike_id":"b2e1edc0-4b20-414d-a9ef-1e7fcf64e8d2","system_id":"levelo_inurba_marseille","lat":43.33764,"lon":5.37471,"is_reserved":false,"is_disabled":true,"rental_uris":{"android":"levelo://app?vid=b2e1edc0-4b20-414d-a9ef-1e7fcf64e8d2","ios":"levelo://app?vid=b2e1edc0-4b20-414d-a9ef-1e7fcf64e8d2"},"vehicle_type_id":"4","last_reported":1748592878,"current_range_meters":17600,"station_id":"","pricing_plan_id":"cebpf4jnsgd1na2vs0mg"},{"bike_id":"d829a4bf-b563-4af4-8631-228fad0248f3","system_id":"levelo_inurba_marseille","lat":43.22925,"lon":5.35377,"is_reserved":false,"is_disabled":false,"rental_uris":{"android":"levelo://app?vid=d829a4bf-b563-4af4-8631-228fad0248f3","ios":"levelo://app?vid=d829a4bf-b563-4af4-8631-228fad0248f3"},"vehicle_type_id":"4","last_reported":1748592878,"current_range_meters":17600,"station_id":"cpo3532slgdg3j2ikp40","pricing_plan_id":"cebpf4jnsgd1na2vs0mg"},{"bike_id":"8f84a160-74be-4e22-9ec1-aeb73ba0a348","system_id":"levelo_inurba_marseille","lat":43.2582,"lon":5.39433,"is_reserved":false,"is_disabled":false,"rental_uris":{"android":"levelo://app?vid=8f84a160-74be-4e22-9ec1-aeb73ba0a348","ios":"levelo://app?vid=8f84a160-74be-4e22-9ec1-aeb73ba0a348"},"vehicle_type_id":"4","last_reported":1748592878,"current_range_meters":18000,"station_id":"ce4bhip2rcd13ifvqft0","pricing_plan_id":"cebpf4jnsgd1na2vs0mg"},{"bike_id":"9dba3947-4a34-482c-b805-ddc0f699cb96","system_id":"levelo_inurba_marseille","lat":43.32992,"lon":5.38343,"is_reserved":false,"is_disabled":false,"rental_uris":{"android":"levelo://app?vid=9dba3947-4a34-482c-b805-ddc0f699cb96","ios":"levelo://app?vid=9dba3947-4a34-482c-b805-ddc0f699cb96"},"vehicle_type_id":"4","last_reported":1748592878,"current_range_meters":18000,"station_id":"","pricing_plan_id":"cebpf4jnsgd1na2vs0mg"},{"bike_id":"caa9d509-5126-4f4f-a6d8-382fb8a943ad","system_id":"levelo_inurba_marseille","lat":43.24387,"lon":5.37059,"is_reserved":false,"is_disabled":false,"rental_uris":{"android":"levelo://app?vid=caa9d509-5126-4f4f-a6d8-382fb8a943ad","ios":"levelo://app?vid=caa9d509-5126-4f4f-a6d8-382fb8a943ad"},"vehicle_type_id":"4","last_reported":1748592878,"current_range_meters":18000,"station_id":"ce4bhhh2rcd13ifvqfk0","pricing_plan_id":"cebpf4jnsgd1na2vs0mg"},{"bike_id":"bb56f75d-b7f3-41c8-9a48-29c33ecb8eea","system_id":"levelo_inurba_marseille","lat":43.27936,"lon":5.41061,"is_reserved":false,"is_disabled":false,"rental_uris":{"android":"levelo://app?vid=bb56f75d-b7f3-41c8-9a48-29c33ecb8eea","ios":"levelo://app?vid=bb56f75d-b7f3-41c8-9a48-29c33ecb8eea"},"vehicle_type_id":"4","last_reported":1748592878,"current_range_meters":18000,"station_id":"ce4bhnp2rcd13ifvqh0g","pricing_plan_id":"cebpf4jnsgd1na2vs0mg"},{"bike_id":"86743a6e-4e25-42b0-bcef-f941dfbebb8e","system_id":"levelo_inurba_marseille","lat":43.30931,"lon":5.40149,"is_reserved":false,"is_disabled":false,"rental_uris":{"android":"levelo://app?vid=86743a6e-4e25-42b0-bcef-f941dfbebb8e","ios":"levelo://app?vid=86743a6e-4e25-42b0-bcef-f941dfbebb8e"},"vehicle_type_id":"4","last_reported":1748592878,"current_range_meters":18000,"station_id":"ce4bgvp2rcd13ifvqct0","pricing_plan_id":"cebpf4jnsgd1na2vs0mg"},{"bike_id":"4fd6362c-11c9-4e87-8c2b-017c150ef5ab","system_id":"levelo_inurba_marseille","lat":43.31187,"lon":5.40134,"is_reserved":false,"is_disabled":false,"rental_uris":{"android":"levelo://app?vid=4fd6362c-11c9-4e87-8c2b-017c150ef5ab","ios":"levelo://app?vid=4fd6362c-11c9-4e87-8c2b-017c150ef5ab"},"vehicle_type_id":"4","last_reported":1748592878,"current_range_meters":18000,"station_id":"","pricing_plan_id":"cebpf4jnsgd1na2vs0mg"},{"bike_id":"171af1d5-209b-45f5-8e5c-a795eb850765","system_id":"levelo_inurba_marseille","lat":43.25502,"lon":5.37649,"is_reserved":false,"is_disabled":false,"rental_uris":{"android":"levelo://app?vid=171af1d5-209b-45f5-8e5c-a795eb850765","ios":"levelo://app?vid=171af1d5-209b-45f5-8e5c-a795eb850765"},"vehicle_type_id":"4","last_reported":1748592878,"current_range_meters":18000,"station_id":"ce4bhh12rcd13ifvqff0","pricing_plan_id":"cebpf4jnsgd1na2vs0mg"},{"bike_id":"15da55b1-1376-4e2d-8e65-24dbca6a4a8d","system_id":"levelo_inurba_marseille","lat":43.33743,"lon":5.37402,"is_reserved":false,"is_disabled":false,"rental_uris":{"android":"levelo://app?vid=15da55b1-1376-4e2d-8e65-24dbca6a4a8d","ios":"levelo://app?vid=15da55b1-1376-4e2d-8e65-24dbca6a4a8d"},"vehicle_type_id":"4","last_reported":1748592878,"current_range_meters":18000,"station_id":"","pricing_plan_id":"cebpf4jnsgd1na2vs0mg"},{"bike_id":"e95dd718-a813-4ea4-93ba-6ece27e48317","system_id":"levelo_inurba_marseille","lat":43.30942,"lon":5.39047,"is_reserved":false,"is_disabled":false,"rental_uris":{"android":"levelo://app?vid=e95dd718-a813-4ea4-93ba-6ece27e48317","ios":"levelo://app?vid=e95dd718-a813-4ea4-93ba-6ece27e48317"},"vehicle_type_id":"4","last_reported":1748592878,"current_range_meters":18000,"station_id":"ce4bgup2rcd13ifvqco0","pricing_plan_id":"cebpf4jnsgd1na2vs0mg"},{"bike_id":"559bde76-31d4-4dfd-b96d-a77675b7aa3b","system_id":"levelo_inurba_marseille","lat":43.28709,"lon":5.39984,"is_reserved":false,"is_disabled":false,"rental_uris":{"android":"levelo://app?vid=559bde76-31d4-4dfd-b96d-a77675b7aa3b","ios":"levelo://app?vid=559bde76-31d4-4dfd-b96d-a77675b7aa3b"},"vehicle_type_id":"4","last_reported":1748592878,"current_range_meters":18000,"station_id":"ce4bho92rcd13ifvqh3g","pricing_plan_id":"cebpf4jnsgd1na2vs0mg"},{"bike_id":"6b6d90cb-02cb-46b6-8f71-6eff09e03917","system_id":"levelo_inurba_marseille","lat":43.29512,"lon":5.38912,"is_reserved":false,"is_disabled":false,"rental_uris":{"android":"levelo://app?vid=6b6d90cb-02cb-46b6-8f71-6eff09e03917","ios":"levelo://app?vid=6b6d90cb-02cb-46b6-8f71-6eff09e03917"},"vehicle_type_id":"4","last_reported":1748592878,"current_range_meters":18000,"station_id":"","pricing_plan_id":"cebpf4jnsgd1na2vs0mg"},{"bike_id":"96748cbb-a713-4b06-a9de-8dab522d597a","system_id":"levelo_inurba_marseille","lat":43.255,"lon":5.37651,"is_reserved":false,"is_disabled":false,"rental_uris":{"android":"levelo://app?vid=96748cbb-a713-4b06-a9de-8dab522d597a","ios":"levelo://app?vid=96748cbb-a713-4b06-a9de-8dab522d597a"},"vehicle_type_id":"4","last_reported":1748592878,"current_range_meters":18000,"station_id":"ce4bhh12rcd13ifvqff0","pricing_plan_id":"cebpf4jnsgd1na2vs0mg"},{"bike_id":"3d195318-0d26-40fe-b3db-097a9a81e2fa","system_id":"levelo_inurba_marseille","lat":43.3108,"lon":5.4245,"is_reserved":false,"is_disabled":false,"rental_uris":{"android":"levelo://app?vid=3d195318-0d26-40fe-b3db-097a9a81e2fa","ios":"levelo://app?vid=3d195318-0d26-40fe-b3db-097a9a81e2fa"},"vehicle_type_id":"4","last_reported":1748592878,"current_range_meters":18800,"station_id":"ce4bhp92rcd13ifvqhag","pricing_plan_id":"cebpf4jnsgd1na2vs0mg"},{"bike_id":"a99f9d60-bf6a-43af-8453-0c423a442e0a","system_id":"levelo_inurba_marseille","lat":43.22888,"lon":5.35276,"is_reserved":false,"is_disabled":false,"rental_uris":{"android":"levelo://app?vid=a99f9d60-bf6a-43af-8453-0c423a442e0a","ios":"levelo://app?vid=a99f9d60-bf6a-43af-8453-0c423a442e0a"},"vehicle_type_id":"4","last_reported":1748592878,"current_range_meters":18800,"station_id":"","pricing_plan_id":"cebpf4jnsgd1na2vs0mg"},{"bike_id":"45bf351d-f7d2-4b3b-aebd-b8dd1b023d0f","system_id":"levelo_inurba_marseille","lat":43.30426,"lon":5.39728,"is_reserved":false,"is_disabled":false,"rental_uris":{"android":"levelo://app?vid=45bf351d-f7d2-4b3b-aebd-b8dd1b023d0f","ios":"levelo://app?vid=45bf351d-f7d2-4b3b-aebd-b8dd1b023d0f"},"vehicle_type_id":"4","last_reported":1748592878,"current_range_meters":18800,"station_id":"ce4bh092rcd13ifvqd20","pricing_plan_id":"cebpf4jnsgd1na2vs0mg"},{"bike_id":"d3480cdc-8d69-49da-9cf4-a3333ad6d7c8","system_id":"levelo_inurba_marseille","lat":43.29204,"lon":5.39329,"is_reserved":false,"is_disabled":false,"rental_uris":{"android":"levelo://app?vid=d3480cdc-8d69-49da-9cf4-a3333ad6d7c8","ios":"levelo://app?vid=d3480cdc-8d69-49da-9cf4-a3333ad6d7c8"},"vehicle_type_id":"4","last_reported":1748592878,"current_range_meters":18000,"station_id":"ce4bh192rcd13ifvqdd0","pricing_plan_id":"cebpf4jnsgd1na2vs0mg"},{"bike_id":"24498e89-12ab-49a6-8279-e6a69f31d1fa","system_id":"levelo_inurba_marseille","lat":43.28151,"lon":5.42639,"is_reserved":false,"is_disabled":false,"rental_uris":{"android":"levelo://app?vid=24498e89-12ab-49a6-8279-e6a69f31d1fa","ios":"levelo://app?vid=24498e89-12ab-49a6-8279-e6a69f31d1fa"},"vehicle_type_id":"4","last_reported":1748592878,"current_range_meters":18800,"station_id":"ce4bhnh2rcd13ifvqgug","pricing_plan_id":"cebpf4jnsgd1na2vs0mg"},{"bike_id":"c91f1625-7f90-4a00-9508-9a7baf7ca6b6","system_id":"levelo_inurba_marseille","lat":43.3178,"lon":5.4361,"is_reserved":false,"is_disabled":false,"rental_uris":{"android":"levelo://app?vid=c91f1625-7f90-4a00-9508-9a7baf7ca6b6","ios":"levelo://app?vid=c91f1625-7f90-4a00-9508-9a7baf7ca6b6"},"vehicle_type_id":"4","last_reported":1748592878,"current_range_meters":18800,"station_id":"","pricing_plan_id":"cebpf4jnsgd1na2vs0mg"},{"bike_id":"c639c8b7-5b85-4086-9ccd-0594027cb63e","system_id":"levelo_inurba_marseille","lat":43.299819,"lon":5.371722,"is_reserved":false,"is_disabled":false,"rental_uris":{"android":"levelo://app?vid=c639c8b7-5b85-4086-9ccd-0594027cb63e","ios":"levelo://app?vid=c639c8b7-5b85-4086-9ccd-0594027cb63e"},"vehicle_type_id":"4","last_reported":1748592878,"current_range_meters":18800,"station_id":"ce4bgr92rcd13ifvqc7g","pricing_plan_id":"cebpf4jnsgd1na2vs0mg"},{"bike_id":"571cb7a1-9b05-43a0-92f7-497924765fd7","system_id":"levelo_inurba_marseille","lat":43.296235,"lon":5.377155,"is_reserved":false,"is_disabled":false,"rental_uris":{"android":"levelo://app?vid=571cb7a1-9b05-43a0-92f7-497924765fd7","ios":"levelo://app?vid=571cb7a1-9b05-43a0-92f7-497924765fd7"},"vehicle_type_id":"4","last_reported":1748592878,"current_range_meters":18000,"station_id":"ce4bgi92rcd13ifvqb90","pricing_plan_id":"cebpf4jnsgd1na2vs0mg"},{"bike_id":"b8f71423-9965-487c-b796-6d9e3ff98860","system_id":"levelo_inurba_marseille","lat":43.29024,"lon":5.38152,"is_reserved":false,"is_disabled":false,"rental_uris":{"android":"levelo://app?vid=b8f71423-9965-487c-b796-6d9e3ff98860","ios":"levelo://app?vid=b8f71423-9965-487c-b796-6d9e3ff98860"},"vehicle_type_id":"4","last_reported":1748592878,"current_range_meters":18800,"station_id":"ce4bh4p2rcd13ifvqe1g","pricing_plan_id":"cebpf4jnsgd1na2vs0mg"},{"bike_id":"8a76f533-9f37-46a8-acc6-afe8e7521236","system_id":"levelo_inurba_marseille","lat":43.28566,"lon":5.39472,"is_reserved":false,"is_disabled":true,"rental_uris":{"android":"levelo://app?vid=8a76f533-9f37-46a8-acc6-afe8e7521236","ios":"levelo://app?vid=8a76f533-9f37-46a8-acc6-afe8e7521236"},"vehicle_type_id":"4","last_reported":1748592878,"current_range_meters":18800,"station_id":"ce4bh292rcd13ifvqdg0","pricing_plan_id":"cebpf4jnsgd1na2vs0mg"},{"bike_id":"7a0aa199-534b-49d6-bfe2-d355b8f98bf9","system_id":"levelo_inurba_marseille","lat":43.287123,"lon":5.400313,"is_reserved":false,"is_disabled":false,"rental_uris":{"android":"levelo://app?vid=7a0aa199-534b-49d6-bfe2-d355b8f98bf9","ios":"levelo://app?vid=7a0aa199-534b-49d6-bfe2-d355b8f98bf9"},"vehicle_type_id":"4","last_reported":1748592878,"current_range_meters":19200,"station_id":"ce4bho92rcd13ifvqh3g","pricing_plan_id":"cebpf4jnsgd1na2vs0mg"},{"bike_id":"57d1fd2f-0f6d-4033-85d5-5fe808277119","system_id":"levelo_inurba_marseille","lat":43.246846,"lon":5.381654,"is_reserved":false,"is_disabled":false,"rental_uris":{"android":"levelo://app?vid=57d1fd2f-0f6d-4033-85d5-5fe808277119","ios":"levelo://app?vid=57d1fd2f-0f6d-4033-85d5-5fe808277119"},"vehicle_type_id":"4","last_reported":1748592878,"current_range_meters":19200,"station_id":"ce4bhih2rcd13ifvqfr0","pricing_plan_id":"cebpf4jnsgd1na2vs0mg"},{"bike_id":"10e37bf9-7b2a-442d-960d-16a61243041f","system_id":"levelo_inurba_marseille","lat":43.31479,"lon":5.3723,"is_reserved":false,"is_disabled":false,"rental_uris":{"android":"levelo://app?vid=10e37bf9-7b2a-442d-960d-16a61243041f","ios":"levelo://app?vid=10e37bf9-7b2a-442d-960d-16a61243041f"},"vehicle_type_id":"4","last_reported":1748592878,"current_range_meters":19200,"station_id":"","pricing_plan_id":"cebpf4jnsgd1na2vs0mg"},{"bike_id":"aac52b41-0e87-4d6b-8828-a3a6fc208104","system_id":"levelo_inurba_marseille","lat":43.23149,"lon":5.43722,"is_reserved":false,"is_disabled":false,"rental_uris":{"android":"levelo://app?vid=aac52b41-0e87-4d6b-8828-a3a6fc208104","ios":"levelo://app?vid=aac52b41-0e87-4d6b-8828-a3a6fc208104"},"vehicle_type_id":"4","last_reported":1748592878,"current_range_meters":19200,"station_id":"ce4bhmp2rcd13ifvqgog","pricing_plan_id":"cebpf4jnsgd1na2vs0mg"},{"bike_id":"3db51e81-ebca-4c44-baa7-4ade1b33302b","system_id":"levelo_inurba_marseille","lat":43.30409,"lon":5.3975,"is_reserved":false,"is_disabled":false,"rental_uris":{"android":"levelo://app?vid=3db51e81-ebca-4c44-baa7-4ade1b33302b","ios":"levelo://app?vid=3db51e81-ebca-4c44-baa7-4ade1b33302b"},"vehicle_type_id":"4","last_reported":1748592878,"current_range_meters":19200,"station_id":"ce4bh092rcd13ifvqd20","pricing_plan_id":"cebpf4jnsgd1na2vs0mg"},{"bike_id":"8abd4006-6501-4ca3-b874-5737bba2f16b","system_id":"levelo_inurba_marseille","lat":43.25498,"lon":5.37652,"is_reserved":false,"is_disabled":false,"rental_uris":{"android":"levelo://app?vid=8abd4006-6501-4ca3-b874-5737bba2f16b","ios":"levelo://app?vid=8abd4006-6501-4ca3-b874-5737bba2f16b"},"vehicle_type_id":"4","last_reported":1748592878,"current_range_meters":19200,"station_id":"ce4bhh12rcd13ifvqff0","pricing_plan_id":"cebpf4jnsgd1na2vs0mg"},{"bike_id":"c28439ba-51b8-4edc-9906-bfe0d3ce3538","system_id":"levelo_inurba_marseille","lat":43.26786,"lon":5.39413,"is_reserved":false,"is_disabled":false,"rental_uris":{"android":"levelo://app?vid=c28439ba-51b8-4edc-9906-bfe0d3ce3538","ios":"levelo://app?vid=c28439ba-51b8-4edc-9906-bfe0d3ce3538"},