{"last_updated":1758017448,"ttl":60,"version":"2.2","data":{"bikes":[{"bike_id":"f86833db-ee25-4ec5-ae87-3a6af90a7ca5","system_id":"levelo_inurba_marseille","lat":43.30144,"lon":5.37424,"is_reserved":false,"is_disabled":false,"rental_uris":{"android":"levelo://app?vid=f86833db-ee25-4ec5-ae87-3a6af90a7ca5","ios":"levelo://app?vid=f86833db-ee25-4ec5-ae87-3a6af90a7ca5"},"vehicle_type_id":"4","last_reported":1758017448,"current_range_meters":2800,"station_id":"ce4bgs92rcd13ifvqcc0","pricing_plan_id":"cebpf4jnsgd1na2vs0mg"},{"bike_id":"d9c11a94-d122-4240-b95b-24fdee8810ac","system_id":"levelo_inurba_marseille","lat":43.282713,"lon":5.399049,"is_reserved":false,"is_disabled":false,"rental_uris":{"android":"levelo://app?vid=d9c11a94-d122-4240-b95b-24fdee8810ac","ios":"levelo://app?vid=d9c11a94-d122-4240-b95b-24fdee8810ac"},"vehicle_type_id":"4","last_reported":1758017448,"current_range_meters":2800,"station_id":"","pricing_plan_id":"cebpf4jnsgd1na2vs0mg"},{"bike_id":"c5cba6d7-e282-4417-a818-5fc0802dcb08","system_id":"levelo_inurba_marseille","lat":43.33761,"lon":5.3745,"is_reserved":false,"is_disabled":false,"rental_uris":{"android":"levelo://app?vid=c5cba6d7-e282-4417-a818-5fc0802dcb08","ios":"levelo://app?vid=c5cba6d7-e282-4417-a818-5fc0802dcb08"},"vehicle_type_id":"4","last_reported":1758017448,"current_range_meters":2800,"station_id":"","pricing_plan_id":"cebpf4jnsgd1na2vs0mg"},{"bike_id":"77700349-252f-42e4-a60e-68e90e3df688","system_id":"levelo_inurba_marseille","lat":43.28368,"lon":5.38634,"is_reserved":false,"is_disabled":true,"rental_uris":{"android":"levelo://app?vid=77700349-252f-42e4-a60e-68e90e3df688","ios":"levelo://app?vid=77700349-252f-42e4-a60e-68e90e3df688"},"vehicle_type_id":"4","last_reported":1758017448,"current_range_meters":2800,"station_id":"ce4bh492rcd13ifvqdvg","pricing_plan_id":"cebpf4jnsgd1na2vs0mg"},{"bike_id":"03809294-3a3e-4efa-afda-0ac11dcf72fc","system_id":"levelo_inurba_marseille","lat":43.33738,"lon":5.37493,"is_reserved":false,"is_disabled":false,"rental_uris":{"android":"levelo://app?vid=03809294-3a3e-4efa-afda-0ac11dcf72fc","ios":"levelo://app?vid=03809294-3a3e-4efa-afda-0ac11dcf72fc"},"vehicle_type_id":"4","last_reported":1758017448,"current_range_meters":2800,"station_id":"","pricing_plan_id":"cebpf4jnsgd1na2vs0mg"},{"bike_id":"d765e876-dc94-417e-ad8c-0ac49bf5261a","system_id":"levelo_inurba_marseille","lat":43.33468,"lon":5.36116,"is_reserved":false,"is_disabled":false,"rental_uris":{"android":"levelo://app?vid=d765e876-dc94-417e-ad8c-0ac49bf5261a","ios":"levelo://app?vid=d765e876-dc94-417e-ad8c-0ac49bf5261a"},"vehicle_type_id":"4","last_reported":1758017448,"current_range_meters":3200,"station_id":"","pricing_plan_id":"cebpf4jnsgd1na2vs0mg"},{"bike_id":"4f9bd625-ea72-423e-9234-f59f397dfa3c","system_id":"levelo_inurba_marseille","lat":43.21219,"lon":5.3506,"is_reserved":false,"is_disabled":false,"rental_uris":{"android":"levelo://app?vid=4f9bd625-ea72-423e-9234-f59f397dfa3c","ios":"levelo://app?vid=4f9bd625-ea72-423e-9234-f59f397dfa3c"},"vehicle_type_id":"4","last_reported":1758017448,"current_range_meters":3200,"station_id":"","pricing_plan_id":"cebpf4jnsgd1na2vs0mg"},{"bike_id":"92328f20-9c61-4621-aefd-c280af7d31a0","system_id":"levelo_inurba_marseille","lat":43.28862,"lon":5.42521,"is_reserved":false,"is_disabled":false,"rental_uris":{"android":"levelo://app?vid=92328f20-9c61-4621-aefd-c280af7d31a0","ios":"levelo://app?vid=92328f20-9c61-4621-aefd-c280af7d31a0"},"vehicle_type_id":"4","last_reported":1758017448,"current_range_meters":3200,"station_id":"","pricing_plan_id":"cebpf4jnsgd1na2vs0mg"},{"bike_id":"41e9314f-b1a8-4d82-8550-e614cf83f3f1","system_id":"levelo_inurba_marseille","lat":43.30322,"lon":5.40438,"is_reserved":false,"is_disabled":false,"rental_uris":{"android":"levelo://app?vid=41e9314f-b1a8-4d82-8550-e614cf83f3f1","ios":"levelo://app?vid=41e9314f-b1a8-4d82-8550-e614cf83f3f1"},"vehicle_type_id":"4","last_reported":1758017448,"current_range_meters":3200,"station_id":"ce4bh012rcd13ifvqd10","pricing_plan_id":"cebpf4jnsgd1na2vs0mg"},{"bike_id":"35ee721d-d3e4-47f2-a6ca-4e21af0fed65","system_id":"levelo_inurba_marseille","lat":43.26571,"lon":5.3901,"is_reserved":false,"is_disabled":false,"rental_uris":{"android":"levelo://app?vid=35ee721d-d3e4-47f2-a6ca-4e21af0fed65","ios":"levelo://app?vid=35ee721d-d3e4-47f2-a6ca-4e21af0fed65"},"vehicle_type_id":"4","last_reported":1758017448,"current_range_meters":3600,"station_id":"ce4bhe12rcd13ifvqf30","pricing_plan_id":"cebpf4jnsgd1na2vs0mg"},{"bike_id":"2f175d1e-8f4c-42b1-a898-7fe13525d692","system_id":"levelo_inurba_marseille","lat":43.31077,"lon":5.38348,"is_reserved":false,"is_disabled":false,"rental_uris":{"android":"levelo://app?vid=2f175d1e-8f4c-42b1-a898-7fe13525d692","ios":"levelo://app?vid=2f175d1e-8f4c-42b1-a898-7fe13525d692"},"vehicle_type_id":"4","last_reported":1758017448,"current_range_meters":3600,"station_id":"ce4bgv92rcd13ifvqcr0","pricing_plan_id":"cebpf4jnsgd1na2vs0mg"},{"bike_id":"ce3a93b4-1fab-4b26-9c7f-d472546d1842","system_id":"levelo_inurba_marseille","lat":43.30174,"lon":5.38074,"is_reserved":false,"is_disabled":false,"rental_uris":{"android":"levelo://app?vid=ce3a93b4-1fab-4b26-9c7f-d472546d1842","ios":"levelo://app?vid=ce3a93b4-1fab-4b26-9c7f-d472546d1842"},"vehicle_type_id":"4","last_reported":1758017448,"current_range_meters":3600,"station_id":"ce4bgjp2rcd13ifvqbh0","pricing_plan_id":"cebpf4jnsgd1na2vs0mg"},{"bike_id":"d2564424-254e-43b7-a1b8-eba95ce91091","system_id":"levelo_inurba_marseille","lat":43.289921,"lon":5.381309,"is_reserved":false,"is_disabled":false,"rental_uris":{"android":"levelo://app?vid=d2564424-254e-43b7-a1b8-eba95ce91091","ios":"levelo://app?vid=d2564424-254e-43b7-a1b8-eba95ce91091"},"vehicle_type_id":"4","last_reported":1758017448,"current_range_meters":4000,"station_id":"ce4bh4p2rcd13ifvqe1g","pricing_plan_id":"cebpf4jnsgd1na2vs0mg"},{"bike_id":"c37933c6-f301-4e72-ae28-b86236887c46","system_id":"levelo_inurba_marseille","lat":43.225329,"lon":5.348362,"is_reserved":false,"is_disabled":false,"rental_uris":{"android":"levelo://app?vid=c37933c6-f301-4e72-ae28-b86236887c46","ios":"levelo://app?vid=c37933c6-f301-4e72-ae28-b86236887c46"},"vehicle_type_id":"4","last_reported":1758017448,"current_range_meters":4000,"station_id":"","pricing_plan_id":"cebpf4jnsgd1na2vs0mg"},{"bike_id":"4ec115f7-70e2-44a0-950b-cc56db458600","system_id":"levelo_inurba_marseille","lat":43.21748,"lon":5.34608,"is_reserved":false,"is_disabled":true,"rental_uris":{"android":"levelo://app?vid=4ec115f7-70e2-44a0-950b-cc56db458600","ios":"levelo://app?vid=4ec115f7-70e2-44a0-950b-cc56db458600"},"vehicle_type_id":"4","last_reported":1758017448,"current_range_meters":4000,"station_id":"st_cvj6r9ubvosntc0bgbag","pricing_plan_id":"cebpf4jnsgd1na2vs0mg"},{"bike_id":"8b01cb9d-990f-4e9a-be22-10013c8b7e86","system_id":"levelo_inurba_marseille","lat":43.29323,"lon":5.41167,"is_reserved":false,"is_disabled":false,"rental_uris":{"android":"levelo://app?vid=8b01cb9d-990f-4e9a-be22-10013c8b7e86","ios":"levelo://app?vid=8b01cb9d-990f-4e9a-be22-10013c8b7e86"},"vehicle_type_id":"4","last_reported":1758017448,"current_range_meters":4000,"station_id":"","pricing_plan_id":"cebpf4jnsgd1na2vs0mg"},{"bike_id":"3bd79661-6def-43c8-b210-869fd67a5981","system_id":"levelo_inurba_marseille","lat":43.30895,"lon":5.36885,"is_reserved":false,"is_disabled":false,"rental_uris":{"android":"levelo://app?vid=3bd79661-6def-43c8-b210-869fd67a5981","ios":"levelo://app?vid=3bd79661-6def-43c8-b210-869fd67a5981"},"vehicle_type_id":"4","last_reported":1758017448,"current_range_meters":4400,"station_id":"ce4bgn92rcd13ifvqbvg","pricing_plan_id":"cebpf4jnsgd1na2vs0mg"},{"bike_id":"6b5b3c8e-1efc-443e-8d65-f1b5bb18a3da","system_id":"levelo_inurba_marseille","lat":43.26837,"lon":5.3966,"is_reserved":false,"is_disabled":false,"rental_uris":{"android":"levelo://app?vid=6b5b3c8e-1efc-443e-8d65-f1b5bb18a3da","ios":"levelo://app?vid=6b5b3c8e-1efc-443e-8d65-f1b5bb18a3da"},"vehicle_type_id":"4","last_reported":1758017448,"current_range_meters":4400,"station_id":"","pricing_plan_id":"cebpf4jnsgd1na2vs0mg"},{"bike_id":"b982f00c-34a9-4ed3-b17f-5c48d0cb70b9","system_id":"levelo_inurba_marseille","lat":43.23696,"lon":5.36078,"is_reserved":false,"is_disabled":false,"rental_uris":{"android":"levelo://app?vid=b982f00c-34a9-4ed3-b17f-5c48d0cb70b9","ios":"levelo://app?vid=b982f00c-34a9-4ed3-b17f-5c48d0cb70b9"},"vehicle_type_id":"4","last_reported":1758017448,"current_range_meters":4400,"station_id":"","pricing_plan_id":"cebpf4jnsgd1na2vs0mg"},{"bike_id":"aa91dd1f-0396-4a43-aa36-e3a577181865","system_id":"levelo_inurba_marseille","lat":43.286735,"lon":5.386801,"is_reserved":false,"is_disabled":false,"rental_uris":{"android":"levelo://app?vid=aa91dd1f-0396-4a43-aa36-e3a577181865","ios":"levelo://app?vid=aa91dd1f-0396-4a43-aa36-e3a577181865"},"vehicle_type_id":"4","last_reported":1758017448,"current_range_meters":4800,"station_id":"","pricing_plan_id":"cebpf4jnsgd1na2vs0mg"},{"bike_id":"be1084cb-f20a-4d55-96a5-a59af56c5ea0","system_id":"levelo_inurba_marseille","lat":43.28411,"lon":5.37528,"is_reserved":false,"is_disabled":false,"rental_uris":{"android":"levelo://app?vid=be1084cb-f20a-4d55-96a5-a59af56c5ea0","ios":"levelo://app?vid=be1084cb-f20a-4d55-96a5-a59af56c5ea0"},"vehicle_type_id":"4","last_reported":1758017448,"current_range_meters":4800,"station_id":"ce4bh412rcd13ifvqds0","pricing_plan_id":"cebpf4jnsgd1na2vs0mg"},{"bike_id":"fa46b46d-431e-4759-81ea-3b18be307071","system_id":"levelo_inurba_marseille","lat":43.23155,"lon":5.437,"is_reserved":false,"is_disabled":false,"rental_uris":{"android":"levelo://app?vid=fa46b46d-431e-4759-81ea-3b18be307071","ios":"levelo://app?vid=fa46b46d-431e-4759-81ea-3b18be307071"},"vehicle_type_id":"4","last_reported":1758017448,"current_range_meters":4800,"station_id":"ce4bhmp2rcd13ifvqgog","pricing_plan_id":"cebpf4jnsgd1na2vs0mg"},{"bike_id":"f7f40cd7-f7d8-40bf-a0cf-1477d8ccea7e","system_id":"levelo_inurba_marseille","lat":43.25861,"lon":5.39895,"is_reserved":false,"is_disabled":false,"rental_uris":{"android":"levelo://app?vid=f7f40cd7-f7d8-40bf-a0cf-1477d8ccea7e","ios":"levelo://app?vid=f7f40cd7-f7d8-40bf-a0cf-1477d8ccea7e"},"vehicle_type_id":"4","last_reported":1758017448,"current_range_meters":5600,"station_id":"ce4bhl92rcd13ifvqghg","pricing_plan_id":"cebpf4jnsgd1na2vs0mg"},{"bike_id":"a234c8d6-1e23-409a-95bc-672a869cb12e","system_id":"levelo_inurba_marseille","lat":43.32697,"lon":5.40295,"is_reserved":false,"is_disabled":false,"rental_uris":{"android":"levelo://app?vid=a234c8d6-1e23-409a-95bc-672a869cb12e","ios":"levelo://app?vid=a234c8d6-1e23-409a-95bc-672a869cb12e"},"vehicle_type_id":"4","last_reported":1758017448,"current_range_meters":5600,"station_id":"","pricing_plan_id":"cebpf4jnsgd1na2vs0mg"},{"bike_id":"dd32f779-e928-424d-999f-b730cf475fa7","system_id":"levelo_inurba_marseille","lat":43.22399,"lon":5.34657,"is_reserved":false,"is_disabled":false,"rental_uris":{"android":"levelo://app?vid=dd32f779-e928-424d-999f-b730cf475fa7","ios":"levelo://app?vid=dd32f779-e928-424d-999f-b730cf475fa7"},"vehicle_type_id":"4","last_reported":1758017448,"current_range_meters":6000,"station_id":"","pricing_plan_id":"cebpf4jnsgd1na2vs0mg"},{"bike_id":"d1a284cb-9631-4a5c-ac70-7495f839f4c7","system_id":"levelo_inurba_marseille","lat":43.28959,"lon":5.36416,"is_reserved":false,"is_disabled":false,"rental_uris":{"android":"levelo://app?vid=d1a284cb-9631-4a5c-ac70-7495f839f4c7","ios":"levelo://app?vid=d1a284cb-9631-4a5c-ac70-7495f839f4c7"},"vehicle_type_id":"4","last_reported":1758017448,"current_range_meters":6000,"station_id":"ce4bhc92rcd13ifvqetg","pricing_plan_id":"cebpf4jnsgd1na2vs0mg"},{"bike_id":"0a15ba0d-25a8-4aec-8a5a-aa8bd4284804","system_id":"levelo_inurba_marseille","lat":43.24166,"lon":5.36395,"is_reserved":false,"is_disabled":false,"rental_uris":{"android":"levelo://app?vid=0a15ba0d-25a8-4aec-8a5a-aa8bd4284804","ios":"levelo://app?vid=0a15ba0d-25a8-4aec-8a5a-aa8bd4284804"},"vehicle_type_id":"4","last_reported":1758017448,"current_range_meters":6400,"station_id":"cpo36qri1sfpv3e86is0","pricing_plan_id":"cebpf4jnsgd1na2vs0mg"},{"bike_id":"10ac610a-1b95-4acc-ad7e-96b983f979b8","system_id":"levelo_inurba_marseille","lat":43.31341,"lon":5.36726,"is_reserved":false,"is_disabled":false,"rental_uris":{"android":"levelo://app?vid=10ac610a-1b95-4acc-ad7e-96b983f979b8","ios":"levelo://app?vid=10ac610a-1b95-4acc-ad7e-96b983f979b8"},"vehicle_type_id":"4","last_reported":1758017448,"current_range_meters":6400,"station_id":"ce4bgr92rcd13ifvqc6g","pricing_plan_id":"cebpf4jnsgd1na2vs0mg"},{"bike_id":"337984be-6b49-4c11-94ae-6aa515cdd390","system_id":"levelo_inurba_marseille","lat":43.3123,"lon":5.36867,"is_reserved":false,"is_disabled":false,"rental_uris":{"android":"levelo://app?vid=337984be-6b49-4c11-94ae-6aa515cdd390","ios":"levelo://app?vid=337984be-6b49-4c11-94ae-6aa515cdd390"},"vehicle_type_id":"4","last_reported":1758017448,"current_range_meters":6400,"station_id":"ce4bgl92rcd13ifvqbq0","pricing_plan_id":"cebpf4jnsgd1na2vs0mg"},{"bike_id":"00eca7eb-d478-4c0c-85e6-4d3697f8c956","system_id":"levelo_inurba_marseille","lat":43.28412,"lon":5.34978,"is_reserved":false,"is_disabled":false,"rental_uris":{"android":"levelo://app?vid=00eca7eb-d478-4c0c-85e6-4d3697f8c956","ios":"levelo://app?vid=00eca7eb-d478-4c0c-85e6-4d3697f8c956"},"vehicle_type_id":"4","last_reported":1758017448,"current_range_meters":6400,"station_id":"ce4bhbh2rcd13ifvqepg","pricing_plan_id":"cebpf4jnsgd1na2vs0mg"},{"bike_id":"cbe7e003-0b84-462d-9869-5f1ffd170daf","system_id":"levelo_inurba_marseille","lat":43.29173,"lon":5.3715,"is_reserved":false,"is_disabled":false,"rental_uris":{"android":"levelo://app?vid=cbe7e003-0b84-462d-9869-5f1ffd170daf","ios":"levelo://app?vid=cbe7e003-0b84-462d-9869-5f1ffd170daf"},"vehicle_type_id":"4","last_reported":1758017448,"current_range_meters":6800,"station_id":"ce4bha92rcd13ifvqeh0","pricing_plan_id":"cebpf4jnsgd1na2vs0mg"},{"bike_id":"12d09ce9-4ba9-4afa-b904-3e7dbc5885cd","system_id":"levelo_inurba_marseille","lat":43.26949,"lon":5.38629,"is_reserved":false,"is_disabled":false,"rental_uris":{"android":"levelo://app?vid=12d09ce9-4ba9-4afa-b904-3e7dbc5885cd","ios":"levelo://app?vid=12d09ce9-4ba9-4afa-b904-3e7dbc5885cd"},"vehicle_type_id":"4","last_reported":1758017448,"current_range_meters":6800,"station_id":"ce4bhh92rcd13ifvqfh0","pricing_plan_id":"cebpf4jnsgd1na2vs0mg"},{"bike_id":"27bc6b0c-c22e-494b-ab92-4e390584592b","system_id":"levelo_inurba_marseille","lat":43.33741,"lon":5.37484,"is_reserved":false,"is_disabled":false,"rental_uris":{"android":"levelo://app?vid=27bc6b0c-c22e-494b-ab92-4e390584592b","ios":"levelo://app?vid=27bc6b0c-c22e-494b-ab92-4e390584592b"},"vehicle_type_id":"4","last_reported":1758017448,"current_range_meters":6800,"station_id":"","pricing_plan_id":"cebpf4jnsgd1na2vs0mg"},{"bike_id":"d86661af-ef9e-4ffe-8e85-024176f6aa44","system_id":"levelo_inurba_marseille","lat":43.32492,"lon":5.36563,"is_reserved":false,"is_disabled":false,"rental_uris":{"android":"levelo://app?vid=d86661af-ef9e-4ffe-8e85-024176f6aa44","ios":"levelo://app?vid=d86661af-ef9e-4ffe-8e85-024176f6aa44"},"vehicle_type_id":"4","last_reported":1758017448,"current_range_meters":7200,"station_id":"ce4bhs12rcd13ifvqhvg","pricing_plan_id":"cebpf4jnsgd1na2vs0mg"},{"bike_id":"45c61ecc-4e2d-42e1-82e1-9eeaf7233cd5","system_id":"levelo_inurba_marseille","lat":43.32362,"lon":5.367526,"is_reserved":false,"is_disabled":false,"rental_uris":{"android":"levelo://app?vid=45c61ecc-4e2d-42e1-82e1-9eeaf7233cd5","ios":"levelo://app?vid=45c61ecc-4e2d-42e1-82e1-9eeaf7233cd5"},"vehicle_type_id":"4","last_reported":1758017448,"current_range_meters":7200,"station_id":"ce4bhsh2rcd13ifvqi2g","pricing_plan_id":"cebpf4jnsgd1na2vs0mg"},{"bike_id":"c8ebc05b-3866-4d13-bef2-bb091998e1a6","system_id":"levelo_inurba_marseille","lat":43.28262,"lon":5.3508,"is_reserved":false,"is_disabled":false,"rental_uris":{"android":"levelo://app?vid=c8ebc05b-3866-4d13-bef2-bb091998e1a6","ios":"levelo://app?vid=c8ebc05b-3866-4d13-bef2-bb091998e1a6"},"vehicle_type_id":"4","last_reported":1758017448,"current_range_meters":7200,"station_id":"ce4bhbp2rcd13ifvqerg","pricing_plan_id":"cebpf4jnsgd1na2vs0mg"},{"bike_id":"2536f2d7-28d0-4aac-9d78-87eb29fe78d1","system_id":"levelo_inurba_marseille","lat":43.25117,"lon":5.40321,"is_reserved":false,"is_disabled":false,"rental_uris":{"android":"levelo://app?vid=2536f2d7-28d0-4aac-9d78-87eb29fe78d1","ios":"levelo://app?vid=2536f2d7-28d0-4aac-9d78-87eb29fe78d1"},"vehicle_type_id":"4","last_reported":1758017448,"current_range_meters":9600,"station_id":"ce4bhlh2rcd13ifvqgig","pricing_plan_id":"cebpf4jnsgd1na2vs0mg"},{"bike_id":"ec6e181c-e801-4014-b9e6-39e29da3f78c","system_id":"levelo_inurba_marseille","lat":43.29234,"lon":5.37651,"is_reserved":false,"is_disabled":false,"rental_uris":{"android":"levelo://app?vid=ec6e181c-e801-4014-b9e6-39e29da3f78c","ios":"levelo://app?vid=ec6e181c-e801-4014-b9e6-39e29da3f78c"},"vehicle_type_id":"4","last_reported":1758017448,"current_range_meters":7200,"station_id":"ce4bgi12rcd13ifvqb80","pricing_plan_id":"cebpf4jnsgd1na2vs0mg"},{"bike_id":"e55ae905-9410-44da-8e6c-dadab4fedc17","system_id":"levelo_inurba_marseille","lat":43.225334,"lon":5.348372,"is_reserved":false,"is_disabled":false,"rental_uris":{"android":"levelo://app?vid=e55ae905-9410-44da-8e6c-dadab4fedc17","ios":"levelo://app?vid=e55ae905-9410-44da-8e6c-dadab4fedc17"},"vehicle_type_id":"4","last_reported":1758017448,"current_range_meters":7200,"station_id":"","pricing_plan_id":"cebpf4jnsgd1na2vs0mg"},{"bike_id":"2adf1f60-de92-4aa2-8674-9690efeaa86a","system_id":"levelo_inurba_marseille","lat":43.31525,"lon":5.38045,"is_reserved":false,"is_disabled":false,"rental_uris":{"android":"levelo://app?vid=2adf1f60-de92-4aa2-8674-9690efeaa86a","ios":"levelo://app?vid=2adf1f60-de92-4aa2-8674-9690efeaa86a"},"vehicle_type_id":"4","last_reported":1758017448,"current_range_meters":7200,"station_id":"ce4bhsp2rcd13ifvqi50","pricing_plan_id":"cebpf4jnsgd1na2vs0mg"},{"bike_id":"8e72503b-4fb7-440e-b51e-e45b1cddfd4c","system_id":"levelo_inurba_marseille","lat":43.26565,"lon":5.3905,"is_reserved":false,"is_disabled":true,"rental_uris":{"android":"levelo://app?vid=8e72503b-4fb7-440e-b51e-e45b1cddfd4c","ios":"levelo://app?vid=8e72503b-4fb7-440e-b51e-e45b1cddfd4c"},"vehicle_type_id":"4","last_reported":1758017448,"current_range_meters":8000,"station_id":"ce4bhe12rcd13ifvqf30","pricing_plan_id":"cebpf4jnsgd1na2vs0mg"},{"bike_id":"4e4d44f2-9f3c-4ab2-873e-d28399cbb506","system_id":"levelo_inurba_marseille","lat":43.28291,"lon":5.3508,"is_reserved":false,"is_disabled":false,"rental_uris":{"android":"levelo://app?vid=4e4d44f2-9f3c-4ab2-873e-d28399cbb506","ios":"levelo://app?vid=4e4d44f2-9f3c-4ab2-873e-d28399cbb506"},"vehicle_type_id":"4","last_reported":1758017448,"current_range_meters":8000,"station_id":"ce4bhbp2rcd13ifvqerg","pricing_plan_id":"cebpf4jnsgd1na2vs0mg"},{"bike_id":"e7a329bd-ed66-4ac7-aaba-63f2810ddd86","system_id":"levelo_inurba_marseille","lat":43.31859,"lon":5.37206,"is_reserved":false,"is_disabled":true,"rental_uris":{"android":"levelo://app?vid=e7a329bd-ed66-4ac7-aaba-63f2810ddd86","ios":"levelo://app?vid=e7a329bd-ed66-4ac7-aaba-63f2810ddd86"},"vehicle_type_id":"4","last_reported":1758017448,"current_range_meters":8000,"station_id":"","pricing_plan_id":"cebpf4jnsgd1na2vs0mg"},{"bike_id":"3497e7a2-d1ac-45c8-b73f-5afe1dfc9c24","system_id":"levelo_inurba_marseille","lat":43.2862,"lon":5.3706,"is_reserved":false,"is_disabled":false,"rental_uris":{"android":"levelo://app?vid=3497e7a2-d1ac-45c8-b73f-5afe1dfc9c24","ios":"levelo://app?vid=3497e7a2-d1ac-45c8-b73f-5afe1dfc9c24"},"vehicle_type_id":"4","last_reported":1758017448,"current_range_meters":8000,"station_id":"ce4bht12rcd13ifvqi60","pricing_plan_id":"cebpf4jnsgd1na2vs0mg"},{"bike_id":"57127154-7e15-4346-89ed-ab9d76ef9c2c","system_id":"levelo_inurba_marseille","lat":43.28838,"lon":5.36326,"is_reserved":false,"is_disabled":false,"rental_uris":{"android":"levelo://app?vid=57127154-7e15-4346-89ed-ab9d76ef9c2c","ios":"levelo://app?vid=57127154-7e15-4346-89ed-ab9d76ef9c2c"},"vehicle_type_id":"4","last_reported":1758017448,"current_range_meters":8000,"station_id":"","pricing_plan_id":"cebpf4jnsgd1na2vs0mg"},{"bike_id":"275e4295-5f0d-47f0-bb67-58e2c775225d","system_id":"levelo_inurba_marseille","lat":43.29604,"lon":5.38102,"is_reserved":false,"is_disabled":false,"rental_uris":{"android":"levelo://app?vid=275e4295-5f0d-47f0-bb67-58e2c775225d","ios":"levelo://app?vid=275e4295-5f0d-47f0-bb67-58e2c775225d"},"vehicle_type_id":"4","last_reported":1758017448,"current_range_meters":8000,"station_id":"ce4bgl12rcd13ifvqbo0","pricing_plan_id":"cebpf4jnsgd1na2vs0mg"},{"bike_id":"0cc43392-0623-46b4-b28b-f93569f72d61","system_id":"levelo_inurba_marseille","lat":43.260615,"lon":5.420192,"is_reserved":false,"is_disabled":false,"rental_uris":{"android":"levelo://app?vid=0cc43392-0623-46b4-b28b-f93569f72d61","ios":"levelo://app?vid=0cc43392-0623-46b4-b28b-f93569f72d61"},"vehicle_type_id":"4","last_reported":1758017448,"current_range_meters":8400,"station_id":"","pricing_plan_id":"cebpf4jnsgd1na2vs0mg"},{"bike_id":"a4899312-2b15-4864-9490-57373e46a89e","system_id":"levelo_inurba_marseille","lat":43.299159,"lon":5.374779,"is_reserved":false,"is_disabled":false,"rental_uris":{"android":"levelo://app?vid=a4899312-2b15-4864-9490-57373e46a89e","ios":"levelo://app?vid=a4899312-2b15-4864-9490-57373e46a89e"},"vehicle_type_id":"4","last_reported":1758017448,"current_range_meters":8400,"station_id":"ce4bgjh2rcd13ifvqbg0","pricing_plan_id":"cebpf4jnsgd1na2vs0mg"},{"bike_id":"a1cf20c8-d2ca-4582-ba8e-a6b3d6fb75d2","system_id":"levelo_inurba_marseille","lat":43.25118,"lon":5.40318,"is_reserved":false,"is_disabled":false,"rental_uris":{"android":"levelo://app?vid=a1cf20c8-d2ca-4582-ba8e-a6b3d6fb75d2","ios":"levelo://app?vid=a1cf20c8-d2ca-4582-ba8e-a6b3d6fb75d2"},"vehicle_type_id":"4","last_reported":1758017448,"current_range_meters":8400,"station_id":"ce4bhlh2rcd13ifvqgig","pricing_plan_id":"cebpf4jnsgd1na2vs0mg"},{"bike_id":"f7825ce6-de89-45bf-831f-3599d0d91c3c","system_id":"levelo_inurba_marseille","lat":43.30728,"lon":5.36869,"is_reserved":false,"is_disabled":false,"rental_uris":{"android":"levelo://app?vid=f7825ce6-de89-45bf-831f-3599d0d91c3c","ios":"levelo://app?vid=f7825ce6-de89-45bf-831f-3599d0d91c3c"},"vehicle_type_id":"4","last_reported":1758017448,"current_range_meters":8800,"station_id":"","pricing_plan_id":"cebpf4jnsgd1na2vs0mg"},{"bike_id":"a9836c02-80b0-4d47-85e0-6a9b9f66b4e3","system_id":"levelo_inurba_marseille","lat":43.304315,"lon":5.388948,"is_reserved":false,"is_disabled":false,"rental_uris":{"android":"levelo://app?vid=a9836c02-80b0-4d47-85e0-6a9b9f66b4e3","ios":"levelo://app?vid=a9836c02-80b0-4d47-85e0-6a9b9f66b4e3"},"vehicle_type_id":"4","last_reported":1758017448,"current_range_meters":8800,"station_id":"ce4bgk12rcd13ifvqbi0","pricing_plan_id":"cebpf4jnsgd1na2vs0mg"},{"bike_id":"322c1f5a-85db-4ef6-bcd4-1b5c417c8ee0","system_id":"levelo_inurba_marseille","lat":43.3377,"lon":5.37488,"is_reserved":false,"is_disabled":false,"rental_uris":{"android":"levelo://app?vid=322c1f5a-85db-4ef6-bcd4-1b5c417c8ee0","ios":"levelo://app?vid=322c1f5a-85db-4ef6-bcd4-1b5c417c8ee0"},"vehicle_type_id":"4","last_reported":1758017448,"current_range_meters":9200,"station_id":"","pricing_plan_id":"cebpf4jnsgd1na2vs0mg"},{"bike_id":"d46eab98-8b2f-4783-b1f8-078d8a09ef49","system_id":"levelo_inurba_marseille","lat":43.27558,"lon":5.38422,"is_reserved":false,"is_disabled":false,"rental_uris":{"android":"levelo://app?vid=d46eab98-8b2f-4783-b1f8-078d8a09ef49","ios":"levelo://app?vid=d46eab98-8b2f-4783-b1f8-078d8a09ef49"},"vehicle_type_id":"4","last_reported":1758017448,"current_range_meters":9200,"station_id":"ce4bhh92rcd13ifvqfi0","pricing_plan_id":"cebpf4jnsgd1na2vs0mg"},{"bike_id":"aad91558-2fa2-4735-9cf4-1451f2ced0d4","system_id":"levelo_inurba_marseille","lat":43.2781,"lon":5.40714,"is_reserved":false,"is_disabled":false,"rental_uris":{"android":"levelo://app?vid=aad91558-2fa2-4735-9cf4-1451f2ced0d4","ios":"levelo://app?vid=aad91558-2fa2-4735-9cf4-1451f2ced0d4"},"vehicle_type_id":"4","last_reported":1758017448,"current_range_meters":9200,"station_id":"ce4bhnh2rcd13ifvqgtg","pricing_plan_id":"cebpf4jnsgd1na2vs0mg"},{"bike_id":"b4d56b4b-4edf-44d6-8e09-474b99a66dd5","system_id":"levelo_inurba_marseille","lat":43.30533,"lon":5.38423,"is_reserved":false,"is_disabled":false,"rental_uris":{"android":"levelo://app?vid=b4d56b4b-4edf-44d6-8e09-474b99a66dd5","ios":"levelo://app?vid=b4d56b4b-4edf-44d6-8e09-474b99a66dd5"},"vehicle_type_id":"4","last_reported":1758017448,"current_range_meters":9200,"station_id":"ce4bgg92rcd13ifvqb30","pricing_plan_id":"cebpf4jnsgd1na2vs0mg"},{"bike_id":"6de961f4-dfa9-497f-a6b2-c9b7d812e754","system_id":"levelo_inurba_marseille","lat":43.25108,"lon":5.40325,"is_reserved":false,"is_disabled":false,"rental_uris":{"android":"levelo://app?vid=6de961f4-dfa9-497f-a6b2-c9b7d812e754","ios":"levelo://app?vid=6de961f4-dfa9-497f-a6b2-c9b7d812e754"},"vehicle_type_id":"4","last_reported":1758017448,"current_range_meters":9600,"station_id":"ce4bhlh2rcd13ifvqgig","pricing_plan_id":"cebpf4jnsgd1na2vs0mg"},{"bike_id":"6019f712-e505-4ba8-9ef2-7c4515dc477e","system_id":"levelo_inurba_marseille","lat":43.312167,"lon":5.368434,"is_reserved":false,"is_disabled":false,"rental_uris":{"android":"levelo://app?vid=6019f712-e505-4ba8-9ef2-7c4515dc477e","ios":"levelo://app?vid=6019f712-e505-4ba8-9ef2-7c4515dc477e"},"vehicle_type_id":"4","last_reported":1758017448,"current_range_meters":9600,"station_id":"ce4bgl92rcd13ifvqbq0","pricing_plan_id":"cebpf4jnsgd1na2vs0mg"},{"bike_id":"a155e67d-bec0-4326-ae57-c035ef5e1c81","system_id":"levelo_inurba_marseille","lat":43.298933,"lon":5.43678,"is_reserved":false,"is_disabled":false,"rental_uris":{"android":"levelo://app?vid=a155e67d-bec0-4326-ae57-c035ef5e1c81","ios":"levelo://app?vid=a155e67d-bec0-4326-ae57-c035ef5e1c81"},"vehicle_type_id":"4","last_reported":1758017448,"current_range_meters":9600,"station_id":"ce4bhpp2rcd13ifvqhfg","pricing_plan_id":"cebpf4jnsgd1na2vs0mg"},{"bike_id":"34539d66-9bce-4d1c-8b94-78e2e11c6e1a","system_id":"levelo_inurba_marseille","lat":43.288633,"lon":5.425095,"is_reserved":false,"is_disabled":false,"rental_uris":{"android":"levelo://app?vid=34539d66-9bce-4d1c-8b94-78e2e11c6e1a","ios":"levelo://app?vid=34539d66-9bce-4d1c-8b94-78e2e11c6e1a"},"vehicle_type_id":"4","last_reported":1758017448,"current_range_meters":9600,"station_id":"","pricing_plan_id":"cebpf4jnsgd1na2vs0mg"},{"bike_id":"4b3d29e4-4d48-4f95-a652-be16bfec385d","system_id":"levelo_inurba_marseille","lat":43.29901,"lon":5.37634,"is_reserved":false,"is_disabled":false,"rental_uris":{"android":"levelo://app?vid=4b3d29e4-4d48-4f95-a652-be16bfec385d","ios":"levelo://app?vid=4b3d29e4-4d48-4f95-a652-be16bfec385d"},"vehicle_type_id":"4","last_reported":1758017448,"current_range_meters":9600,"station_id":"","pricing_plan_id":"cebpf4jnsgd1na2vs0mg"},{"bike_id":"da3741fe-5c55-4503-95cd-34cc474715d7","system_id":"levelo_inurba_marseille","lat":43.24648,"lon":5.38892,"is_reserved":false,"is_disabled":false,"rental_uris":{"android":"levelo://app?vid=da3741fe-5c55-4503-95cd-34cc474715d7","ios":"levelo://app?vid=da3741fe-5c55-4503-95cd-34cc474715d7"},"vehicle_type_id":"4","last_reported":1758017448,"current_range_meters":9600,"station_id":"ce4bhg12rcd13ifvqf60","pricing_plan_id":"cebpf4jnsgd1na2vs0mg"},{"bike_id":"ed320bc0-5d92-4f45-bb9f-5a6073a23e27","system_id":"levelo_inurba_marseille","lat":43.254534,"lon":5.376823,"is_reserved":false,"is_disabled":false,"rental_uris":{"android":"levelo://app?vid=ed320bc0-5d92-4f45-bb9f-5a6073a23e27","ios":"levelo://app?vid=ed320bc0-5d92-4f45-bb9f-5a6073a23e27"},"vehicle_type_id":"4","last_reported":1758017448,"current_range_meters":9600,"station_id":"ce4bhh12rcd13ifvqff0","pricing_plan_id":"cebpf4jnsgd1na2vs0mg"},{"bike_id":"d73ebff0-d957-41dc-a638-29b88edc4926","system_id":"levelo_inurba_marseille","lat":43.22556,"lon":5.41613,"is_reserved":false,"is_disabled":false,"rental_uris":{"android":"levelo://app?vid=d73ebff0-d957-41dc-a638-29b88edc4926","ios":"levelo://app?vid=d73ebff0-d957-41dc-a638-29b88edc4926"},"vehicle_type_id":"4","last_reported":1758017448,"current_range_meters":10000,"station_id":"st_d2o4gvlbi1j2169b742g","pricing_plan_id":"cebpf4jnsgd1na2vs0mg"},{"bike_id":"4e1abc3e-8304-48cb-9a82-71a6f234187a","system_id":"levelo_inurba_marseille","lat":43.27812,"lon":5.407124,"is_reserved":false,"is_disabled":false,"rental_uris":{"android":"levelo://app?vid=4e1abc3e-8304-48cb-9a82-71a6f234187a","ios":"levelo://app?vid=4e1abc3e-8304-48cb-9a82-71a6f234187a"},"vehicle_type_id":"4","last_reported":1758017448,"current_range_meters":10000,"station_id":"ce4bhnh2rcd13ifvqgtg","pricing_plan_id":"cebpf4jnsgd1na2vs0mg"},{"bike_id":"336c74d9-d9c9-46d7-a94b-134b36ad023a","system_id":"levelo_inurba_marseille","lat":43.29858,"lon":5.37826,"is_reserved":false,"is_disabled":false,"rental_uris":{"android":"levelo://app?vid=336c74d9-d9c9-46d7-a94b-134b36ad023a","ios":"levelo://app?vid=336c74d9-d9c9-46d7-a94b-134b36ad023a"},"vehicle_type_id":"4","last_reported":1758017448,"current_range_meters":10000,"station_id":"","pricing_plan_id":"cebpf4jnsgd1na2vs0mg"},{"bike_id":"511f6c29-3390-4042-b48e-75a4d61a54e0","system_id":"levelo_inurba_marseille","lat":43.32031,"lon":5.36742,"is_reserved":false,"is_disabled":false,"rental_uris":{"android":"levelo://app?vid=511f6c29-3390-4042-b48e-75a4d61a54e0","ios":"levelo://app?vid=511f6c29-3390-4042-b48e-75a4d61a54e0"},"vehicle_type_id":"4","last_reported":1758017448,"current_range_meters":10000,"station_id":"","pricing_plan_id":"cebpf4jnsgd1na2vs0mg"},{"bike_id":"68657626-417f-4a6a-b6a9-68ab1b2f5726","system_id":"levelo_inurba_marseille","lat":43.29843,"lon":5.36272,"is_reserved":false,"is_disabled":false,"rental_uris":{"android":"levelo://app?vid=68657626-417f-4a6a-b6a9-68ab1b2f5726","ios":"levelo://app?vid=68657626-417f-4a6a-b6a9-68ab1b2f5726"},"vehicle_type_id":"4","last_reported":1758017448,"current_range_meters":10000,"station_id":"ce4bgpp2rcd13ifvqc3g","pricing_plan_id":"cebpf4jnsgd1na2vs0mg"},{"bike_id":"cd02c080-8936-4e2b-af4d-301cbe8eb8f1","system_id":"levelo_inurba_marseille","lat":43.300511,"lon":5.40357,"is_reserved":false,"is_disabled":false,"rental_uris":{"android":"levelo://app?vid=cd02c080-8936-4e2b-af4d-301cbe8eb8f1","ios":"levelo://app?vid=cd02c080-8936-4e2b-af4d-301cbe8eb8f1"},"vehicle_type_id":"4","last_reported":1758017448,"current_range_meters":10800,"station_id":"","pricing_plan_id":"cebpf4jnsgd1na2vs0mg"},{"bike_id":"a696dd6a-d6f9-47b7-a79d-789f9c273771","system_id":"levelo_inurba_marseille","lat":43.32337,"lon":5.36722,"is_reserved":false,"is_disabled":false,"rental_uris":{"android":"levelo://app?vid=a696dd6a-d6f9-47b7-a79d-789f9c273771","ios":"levelo://app?vid=a696dd6a-d6f9-47b7-a79d-789f9c273771"},"vehicle_type_id":"4","last_reported":1758017448,"current_range_meters":10800,"station_id":"ce4bhsh2rcd13ifvqi2g","pricing_plan_id":"cebpf4jnsgd1na2vs0mg"},{"bike_id":"c07e7a2d-d8a6-4efd-8723-e965be4d1a74","system_id":"levelo_inurba_marseille","lat":43.22533,"lon":5.348367,"is_reserved":false,"is_disabled":false,"rental_uris":{"android":"levelo://app?vid=c07e7a2d-d8a6-4efd-8723-e965be4d1a74","ios":"levelo://app?vid=c07e7a2d-d8a6-4efd-8723-e965be4d1a74"},"vehicle_type_id":"4","last_reported":1758017448,"current_range_meters":10800,"station_id":"","pricing_plan_id":"cebpf4jnsgd1na2vs0mg"},{"bike_id":"e5c0f9fa-aa79-401b-ac6b-a846850c5345","system_id":"levelo_inurba_marseille","lat":43.27852,"lon":5.38484,"is_reserved":false,"is_disabled":false,"rental_uris":{"android":"levelo://app?vid=e5c0f9fa-aa79-401b-ac6b-a846850c5345","ios":"levelo://app?vid=e5c0f9fa-aa79-401b-ac6b-a846850c5345"},"vehicle_type_id":"4","last_reported":1758017448,"current_range_meters":10800,"station_id":"","pricing_plan_id":"cebpf4jnsgd1na2vs0mg"},{"bike_id":"7f789b9d-2b92-476e-9d08-49249afcf126","system_id":"levelo_inurba_marseille","lat":43.30898,"lon":5.36846,"is_reserved":false,"is_disabled":false,"rental_uris":{"android":"levelo://app?vid=7f789b9d-2b92-476e-9d08-49249afcf126","ios":"levelo://app?vid=7f789b9d-2b92-476e-9d08-49249afcf126"},"vehicle_type_id":"4","last_reported":1758017448,"current_range_meters":11200,"station_id":"ce4bgn92rcd13ifvqbvg","pricing_plan_id":"cebpf4jnsgd1na2vs0mg"},{"bike_id":"aef17ce4-0b79-4124-be17-f912e32b928a","system_id":"levelo_inurba_marseille","lat":43.25092,"lon":5.39516,"is_reserved":false,"is_disabled":false,"rental_uris":{"android":"levelo://app?vid=aef17ce4-0b79-4124-be17-f912e32b928a","ios":"levelo://app?vid=aef17ce4-0b79-4124-be17-f912e32b928a"},"vehicle_type_id":"4","last_reported":1758017448,"current_range_meters":11200,"station_id":"ce4bhm12rcd13ifvqgkg","pricing_plan_id":"cebpf4jnsgd1na2vs0mg"},{"bike_id":"8ef8bf7d-8a91-4724-8c2e-ddeef723e28a","system_id":"levelo_inurba_marseille","lat":43.27036,"lon":5.37923,"is_reserved":false,"is_disabled":false,"rental_uris":{"android":"levelo://app?vid=8ef8bf7d-8a91-4724-8c2e-ddeef723e28a","ios":"levelo://app?vid=8ef8bf7d-8a91-4724-8c2e-ddeef723e28a"},"vehicle_type_id":"4","last_reported":1758017448,"current_range_meters":11200,"station_id":"","pricing_plan_id":"cebpf4jnsgd1na2vs0mg"},{"bike_id":"77246e06-46b3-406d-9b69-b9b3e2cbdee1","system_id":"levelo_inurba_marseille","lat":43.28067,"lon":5.38673,"is_reserved":false,"is_disabled":false,"rental_uris":{"android":"levelo://app?vid=77246e06-46b3-406d-9b69-b9b3e2cbdee1","ios":"levelo://app?vid=77246e06-46b3-406d-9b69-b9b3e2cbdee1"},"vehicle_type_id":"4","last_reported":1758017448,"current_range_meters":11200,"station_id":"","pricing_plan_id":"cebpf4jnsgd1na2vs0mg"},{"bike_id":"d44e2875-153c-4af8-85f5-ba78e28c45d3","system_id":"levelo_inurba_marseille","lat":43.32483,"lon":5.36588,"is_reserved":false,"is_disabled":false,"rental_uris":{"android":"levelo://app?vid=d44e2875-153c-4af8-85f5-ba78e28c45d3","ios":"levelo://app?vid=d44e2875-153c-4af8-85f5-ba78e28c45d3"},"vehicle_type_id":"4","last_reported":1758017448,"current_range_meters":11200,"station_id":"ce4bhs12rcd13ifvqhvg","pricing_plan_id":"cebpf4jnsgd1na2vs0mg"},{"bike_id":"64ee806c-afa4-4e3d-bdf2-4c2198847f6e","system_id":"levelo_inurba_marseille","lat":43.28149,"lon":5.4266,"is_reserved":false,"is_disabled":false,"rental_uris":{"android":"levelo://app?vid=64ee806c-afa4-4e3d-bdf2-4c2198847f6e","ios":"levelo://app?vid=64ee806c-afa4-4e3d-bdf2-4c2198847f6e"},"vehicle_type_id":"4","last_reported":1758017448,"current_range_meters":11600,"station_id":"ce4bhnh2rcd13ifvqgug","pricing_plan_id":"cebpf4jnsgd1na2vs0mg"},{"bike_id":"e824d254-16a6-4ae4-983a-05af083f4c81","system_id":"levelo_inurba_marseille","lat":43.21753,"lon":5.34607,"is_reserved":false,"is_disabled":false,"rental_uris":{"android":"levelo://app?vid=e824d254-16a6-4ae4-983a-05af083f4c81","ios":"levelo://app?vid=e824d254-16a6-4ae4-983a-05af083f4c81"},"vehicle_type_id":"4","last_reported":1758017448,"current_range_meters":11600,"station_id":"","pricing_plan_id":"cebpf4jnsgd1na2vs0mg"},{"bike_id":"05e01389-efa9-4a95-bcc4-c13b089f2f93","system_id":"levelo_inurba_marseille","lat":43.231781,"lon":5.399852,"is_reserved":false,"is_disabled":false,"rental_uris":{"android":"levelo://app?vid=05e01389-efa9-4a95-bcc4-c13b089f2f93","ios":"levelo://app?vid=05e01389-efa9-4a95-bcc4-c13b089f2f93"},"vehicle_type_id":"4","last_reported":1758017448,"current_range_meters":11600,"station_id":"ce4bhn12rcd13ifvqgqg","pricing_plan_id":"cebpf4jnsgd1na2vs0mg"},{"bike_id":"10b8538c-9fe1-4873-bc11-f56b18c25ed5","system_id":"levelo_inurba_marseille","lat":43.30318,"lon":5.37666,"is_reserved":false,"is_disabled":false,"rental_uris":{"android":"levelo://app?vid=10b8538c-9fe1-4873-bc11-f56b18c25ed5","ios":"levelo://app?vid=10b8538c-9fe1-4873-bc11-f56b18c25ed5"},"vehicle_type_id":"4","last_reported":1758017448,"current_range_meters":11600,"station_id":"ce4bguh2rcd13ifvqcj0","pricing_plan_id":"cebpf4jnsgd1na2vs0mg"},{"bike_id":"02d56be7-a682-4563-9ee2-79054ee7d3d9","system_id":"levelo_inurba_marseille","lat":43.3446,"lon":5.43112,"is_reserved":false,"is_disabled":false,"rental_uris":{"android":"levelo://app?vid=02d56be7-a682-4563-9ee2-79054ee7d3d9","ios":"levelo://app?vid=02d56be7-a682-4563-9ee2-79054ee7d3d9"},"vehicle_type_id":"4","last_reported":1758017448,"current_range_meters":11600,"station_id":"","pricing_plan_id":"cebpf4jnsgd1na2vs0mg"},{"bike_id":"ac340abf-24c3-418f-9e97-0eb4212ba73f","system_id":"levelo_inurba_marseille","lat":43.309077,"lon":5.368408,"is_reserved":false,"is_disabled":false,"rental_uris":{"android":"levelo://app?vid=ac340abf-24c3-418f-9e97-0eb4212ba73f","ios":"levelo://app?vid=ac340abf-24c3-418f-9e97-0eb4212ba73f"},"vehicle_type_id":"4","last_reported":1758017448,"current_range_meters":12000,"station_id":"ce4bgn92rcd13ifvqbvg","pricing_plan_id":"cebpf4jnsgd1na2vs0mg"},{"bike_id":"5c0b2341-c41a-4f62-9e5f-92e6a593fad9","system_id":"levelo_inurba_marseille","lat":43.337799,"lon":5.374306,"is_reserved":false,"is_disabled":false,"rental_uris":{"android":"levelo://app?vid=5c0b2341-c41a-4f62-9e5f-92e6a593fad9","ios":"levelo://app?vid=5c0b2341-c41a-4f62-9e5f-92e6a593fad9"},"vehicle_type_id":"4","last_reported":1758017448,"current_range_meters":12400,"station_id":"","pricing_plan_id":"cebpf4jnsgd1na2vs0mg"},{"bike_id":"fe9f38a3-79c8-40c2-b17b-c2687463ee3a","system_id":"levelo_inurba_marseille","lat":43.26061,"lon":5.39397,"is_reserved":false,"is_disabled":false,"rental_uris":{"android":"levelo://app?vid=fe9f38a3-79c8-40c2-b17b-c2687463ee3a","ios":"levelo://app?vid=fe9f38a3-79c8-40c2-b17b-c2687463ee3a"},"vehicle_type_id":"4","last_reported":1758017448,"current_range_meters":12400,"station_id":"ce4bhh92rcd13ifvqfj0","pricing_plan_id":"cebpf4jnsgd1na2vs0mg"},{"bike_id":"d28c30f7-d993-418e-b279-e6e75970549b","system_id":"levelo_inurba_marseille","lat":43.29602,"lon":5.37742,"is_reserved":false,"is_disabled":true,"rental_uris":{"android":"levelo://app?vid=d28c30f7-d993-418e-b279-e6e75970549b","ios":"levelo://app?vid=d28c30f7-d993-418e-b279-e6e75970549b"},"vehicle_type_id":"4","last_reported":1758017448,"current_range_meters":12400,"station_id":"ce4bgi92rcd13ifvqb90","pricing_plan_id":"cebpf4jnsgd1na2vs0mg"},{"bike_id":"5efa838c-da34-4ab0-a61b-66d07b34aae7","system_id":"levelo_inurba_marseille","lat":43.32347,"lon":5.36766,"is_reserved":false,"is_disabled":false,"rental_uris":{"android":"levelo://app?vid=5efa838c-da34-4ab0-a61b-66d07b34aae7","ios":"levelo://app?vid=5efa838c-da34-4ab0-a61b-66d07b34aae7"},"vehicle_type_id":"4","last_reported":1758017448,"current_range_meters":12400,"station_id":"ce4bhsh2rcd13ifvqi2g","pricing_plan_id":"cebpf4jnsgd1na2vs0mg"},{"bike_id":"f1320f53-bc8c-473b-9ebf-9ff84e1efa8b","system_id":"levelo_inurba_marseille","lat":43.29536,"lon":5.37501,"is_reserved":false,"is_disabled":false,"rental_uris":{"android":"levelo://app?vid=f1320f53-bc8c-473b-9ebf-9ff84e1efa8b","ios":"levelo://app?vid=f1320f53-bc8c-473b-9ebf-9ff84e1efa8b"},"vehicle_type_id":"4","last_reported":1758017448,"current_range_meters":12800,"station_id":"ce4bgkp2rcd13ifvqbmg","pricing_plan_id":"cebpf4jnsgd1na2vs0mg"},{"bike_id":"1bb4b7a0-fdce-4e98-bedc-b3b11443edfc","system_id":"levelo_inurba_marseille","lat":43.284152,"lon":5.375025,"is_reserved":false,"is_disabled":false,"rental_uris":{"android":"levelo://app?vid=1bb4b7a0-fdce-4e98-bedc-b3b11443edfc","ios":"levelo://app?vid=1bb4b7a0-fdce-4e98-bedc-b3b11443edfc"},"vehicle_type_id":"4","last_reported":1758017448,"current_range_meters":12800,"station_id":"ce4bh412rcd13ifvqds0","pricing_plan_id":"cebpf4jnsgd1na2vs0mg"},{"bike_id":"aef4fc9f-9276-4521-b84c-9779a04141db","system_id":"levelo_inurba_marseille","lat":43.30336,"lon":5.40431,"is_reserved":false,"is_disabled":false,"rental_uris":{"android":"levelo://app?vid=aef4fc9f-9276-4521-b84c-9779a04141db","ios":"levelo://app?vid=aef4fc9f-9276-4521-b84c-9779a04141db"},"vehicle_type_id":"4","last_reported":1758017448,"current_range_meters":12800,"station_id":"ce4bh012rcd13ifvqd10","pricing_plan_id":"cebpf4jnsgd1na2vs0mg"},{"bike_id":"6f5db6da-4fc0-4c0c-8f3c-82bebb94ed89","system_id":"levelo_inurba_marseille","lat":43.25008,"lon":5.3894,"is_reserved":false,"is_disabled":false,"rental_uris":{"android":"levelo://app?vid=6f5db6da-4fc0-4c0c-8f3c-82bebb94ed89","ios":"levelo://app?vid=6f5db6da-4fc0-4c0c-8f3c-82bebb94ed89"},"vehicle_type_id":"4","last_reported":1758017448,"current_range_meters":12800,"station_id":"ce4bhgp2rcd13ifvqfd0","pricing_plan_id":"cebpf4jnsgd1na2vs0mg"},{"bike_id":"aa26253d-0905-4257-ab25-1dd1a772a851","system_id":"levelo_inurba_marseille","lat":43.29859,"lon":5.37671,"is_reserved":false,"is_disabled":false,"rental_uris":{"android":"levelo://app?vid=aa26253d-0905-4257-ab25-1dd1a772a851","ios":"levelo://app?vid=aa26253d-0905-4257-ab25-1dd1a772a851"},"vehicle_type_id":"4","last_reported":1758017448,"current_range_meters":13600,"station_id":"","pricing_plan_id":"cebpf4jnsgd1na2vs0mg"},{"bike_id":"ac432599-4ed2-49ea-90e3-e09e4f087455","system_id":"levelo_inurba_marseille","lat":43.33601,"lon":5.410401,"is_reserved":false,"is_disabled":false,"rental_uris":{"android":"levelo://app?vid=ac432599-4ed2-49ea-90e3-e09e4f087455","ios":"levelo://app?vid=ac432599-4ed2-49ea-90e3-e09e4f087455"},"vehicle_type_id":"4","last_reported":1758017448,"current_range_meters":13600,"station_id":"ce4bhqh2rcd13ifvqhmg","pricing_plan_id":"cebpf4jnsgd1na2vs0mg"},{"bike_id":"55fd6fff-dcb7-4abc-96da-7d2107813a54","system_id":"levelo_inurba_marseille","lat":43.29577,"lon":5.36746,"is_reserved":false,"is_disabled":false,"rental_uris":{"android":"levelo://app?vid=55fd6fff-dcb7-4abc-96da-7d2107813a54","ios":"levelo://app?vid=55fd6fff-dcb7-4abc-96da-7d2107813a54"},"vehicle_type_id":"4","last_reported":1758017448,"current_range_meters":13600,"station_id":"ce4bgph2rcd13ifvqc2g","pricing_plan_id":"cebpf4jnsgd1na2vs0mg"},{"bike_id":"985da782-39f5-4a7b-90a4-0bd526db6019","system_id":"levelo_inurba_marseille","lat":43.31707,"lon":5.37739,"is_reserved":false,"is_disabled":false,"rental_uris":{"android":"levelo://app?vid=985da782-39f5-4a7b-90a4-0bd526db6019","ios":"levelo://app?vid=985da782-39f5-4a7b-90a4-0bd526db6019"},"vehicle_type_id":"4","last_reported":1758017448,"current_range_meters":14000,"station_id":"ce4bgth2rcd13ifvqch0","pricing_plan_id":"cebpf4jnsgd1na2vs0mg"},{"bike_id":"fbf68d05-5125-49dc-91fb-265fd58ee496","system_id":"levelo_inurba_marseille","lat":43.240644,"lon":5.377726,"is_reserved":false,"is_disabled":false,"rental_uris":{"android":"levelo://app?vid=fbf68d05-5125-49dc-91fb-265fd58ee496","ios":"levelo://app?vid=fbf68d05-5125-49dc-91fb-265fd58ee496"},"vehicle_type_id":"4","last_reported":1758017448,"current_range_meters":14000,"station_id":"ce4bhnp2rcd13ifvqgvg","pricing_plan_id":"cebpf4jnsgd1na2vs0mg"},{"bike_id":"fb351b77-39b9-4407-912a-c1008fce46ae","system_id":"levelo_inurba_marseille","lat":43.313367,"lon":5.367099,"is_reserved":false,"is_disabled":false,"rental_uris":{"android":"levelo://app?vid=fb351b77-39b9-4407-912a-c1008fce46ae","ios":"levelo://app?vid=fb351b77-39b9-4407-912a-c1008fce46ae"},"vehicle_type_id":"4","last_reported":1758017448,"current_range_meters":14000,"station_id":"","pricing_plan_id":"cebpf4jnsgd1na2vs0mg"},{"bike_id":"20b73f19-94a9-4422-8287-288687278c23","system_id":"levelo_inurba_marseille","lat":43.24076,"lon":5.37738,"is_reserved":false,"is_disabled":false,"rental_uris":{"android":"levelo://app?vid=20b73f19-94a9-4422-8287-288687278c23","ios":"levelo://app?vid=20b73f19-94a9-4422-8287-288687278c23"},"vehicle_type_id":"4","last_reported":1758017448,"current_range_meters":14400,"station_id":"ce4bhnp2rcd13ifvqgvg","pricing_plan_id":"cebpf4jnsgd1na2vs0mg"},{"bike_id":"8db6cdbc-49d8-4d9e-9a02-005d16d4aa1d","system_id":"levelo_inurba_marseille","lat":43.27494,"lon":5.42454,"is_reserved":false,"is_disabled":false,"rental_uris":{"android":"levelo://app?vid=8db6cdbc-49d8-4d9e-9a02-005d16d4aa1d","ios":"levelo://app?vid=8db6cdbc-49d8-4d9e-9a02-005d16d4aa1d"},"vehicle_type_id":"4","last_reported":1758017448,"current_range_meters":14400,"station_id":"ce4bhn92rcd13ifvqgrg","pricing_plan_id":"cebpf4jnsgd1na2vs0mg"},{"bike_id":"3b26aa0d-3679-4b4c-9b55-1096f6d08a9d","system_id":"levelo_inurba_marseille","lat":43.31296,"lon":5.39395,"is_reserved":false,"is_disabled":false,"rental_uris":{"android":"levelo://app?vid=3b26aa0d-3679-4b4c-9b55-1096f6d08a9d","ios":"levelo://app?vid=3b26aa0d-3679-4b4c-9b55-1096f6d08a9d"},"vehicle_type_id":"4","last_reported":1758017448,"current_range_meters":14400,"station_id":"","pricing_plan_id":"cebpf4jnsgd1na2vs0mg"},{"bike_id":"cd2513dc-3627-4964-a0b1-d4c9260c4c8e","system_id":"levelo_inurba_marseille","lat":43.24076,"lon":5.37756,"is_reserved":false,"is_disabled":false,"rental_uris":{"android":"levelo://app?vid=cd2513dc-3627-4964-a0b1-d4c9260c4c8e","ios":"levelo://app?vid=cd2513dc-3627-4964-a0b1-d4c9260c4c8e"},"vehicle_type_id":"4","last_reported":1758017448,"current_range_meters":14400,"station_id":"ce4bhnp2rcd13ifvqgvg","pricing_plan_id":"cebpf4jnsgd1na2vs0mg"},{"bike_id":"7729a132-b6ea-47b5-9801-8a75fb760d55","system_id":"levelo_inurba_marseille","lat":43.31495,"lon":5.3731,"is_reserved":false,"is_disabled":false,"rental_uris":{"android":"levelo://app?vid=7729a132-b6ea-47b5-9801-8a75fb760d55","ios":"levelo://app?vid=7729a132-b6ea-47b5-9801-8a75fb760d55"},"vehicle_type_id":"4","last_reported":1758017448,"current_range_meters":14400,"station_id":"ce4bgt12rcd13ifvqcd0","pricing_plan_id":"cebpf4jnsgd1na2vs0mg"},{"bike_id":"2ba6d751-735d-4f3f-b471-7e3f5bc5e1b1","system_id":"levelo_inurba_marseille","lat":43.321016,"lon":5.367834,"is_reserved":false,"is_disabled":false,"rental_uris":{"android":"levelo://app?vid=2ba6d751-735d-4f3f-b471-7e3f5bc5e1b1","ios":"levelo://app?vid=2ba6d751-735d-4f3f-b471-7e3f5bc5e1b1"},"vehicle_type_id":"4","last_reported":1758017448,"current_range_meters":14400,"station_id":"ce4bhrh2rcd13ifvqhug","pricing_plan_id":"cebpf4jnsgd1na2vs0mg"},{"bike_id":"66e4218a-9958-44a2-8fcb-335bf5fade68","system_id":"levelo_inurba_marseille","lat":43.231486,"lon":5.437118,"is_reserved":false,"is_disabled":false,"rental_uris":{"android":"levelo://app?vid=66e4218a-9958-44a2-8fcb-335bf5fade68","ios":"levelo://app?vid=66e4218a-9958-44a2-8fcb-335bf5fade68"},"vehicle_type_id":"4","last_reported":1758017448,"current_range_meters":14800,"station_id":"ce4bhmp2rcd13ifvqgog","pricing_plan_id":"cebpf4jnsgd1na2vs0mg"},{"bike_id":"f12a004e-6c40-4dde-8ab0-e8d5c7636720","system_id":"levelo_inurba_marseille","lat":43.25798,"lon":5.41038,"is_reserved":false,"is_disabled":false,"rental_uris":{"android":"levelo://app?vid=f12a004e-6c40-4dde-8ab0-e8d5c7636720","ios":"levelo://app?vid=f12a004e-6c40-4dde-8ab0-e8d5c7636720"},"vehicle_type_id":"4","last_reported":1758017448,"current_range_meters":14800,"station_id":"","pricing_plan_id":"cebpf4jnsgd1na2vs0mg"},{"bike_id":"7401f904-c7a5-4420-9a38-b32c76084c39","system_id":"levelo_inurba_marseille","lat":43.28266,"lon":5.35079,"is_reserved":false,"is_disabled":false,"rental_uris":{"android":"levelo://app?vid=7401f904-c7a5-4420-9a38-b32c76084c39","ios":"levelo://app?vid=7401f904-c7a5-4420-9a38-b32c76084c39"},"vehicle_type_id":"4","last_reported":1758017448,"current_range_meters":14800,"station_id":"ce4bhbp2rcd13ifvqerg","pricing_plan_id":"cebpf4jnsgd1na2vs0mg"},{"bike_id":"4ac1e307-0a1d-414e-aae5-4ffe47a2898a","system_id":"levelo_inurba_marseille","lat":43.27617,"lon":5.36108,"is_reserved":false,"is_disabled":false,"rental_uris":{"android":"levelo://app?vid=4ac1e307-0a1d-414e-aae5-4ffe47a2898a","ios":"levelo://app?vid=4ac1e307-0a1d-414e-aae5-4ffe47a2898a"},"vehicle_type_id":"4","last_reported":1758017448,"current_range_meters":14800,"station_id":"ce4bgj92rcd13ifvqbe0","pricing_plan_id":"cebpf4jnsgd1na2vs0mg"},{"bike_id":"0049acfe-97a7-4c73-afbf-6c0e3d2fdff3","system_id":"levelo_inurba_marseille","lat":43.284876,"lon":5.385559,"is_reserved":false,"is_disabled":true,"rental_uris":{"android":"levelo://app?vid=0049acfe-97a7-4c73-afbf-6c0e3d2fdff3","ios":"levelo://app?vid=0049acfe-97a7-4c73-afbf-6c0e3d2fdff3"},"vehicle_type_id":"4","last_reported":1758017448,"current_range_meters":14800,"station_id":"ce4bh8p2rcd13ifvqeb0","pricing_plan_id":"cebpf4jnsgd1na2vs0mg"},{"bike_id":"ece07351-e21d-4c48-bd8e-d6076d0d6379","system_id":"levelo_inurba_marseille","lat":43.28493,"lon":5.37496,"is_reserved":false,"is_disabled":false,"rental_uris":{"android":"levelo://app?vid=ece07351-e21d-4c48-bd8e-d6076d0d6379","ios":"levelo://app?vid=ece07351-e21d-4c48-bd8e-d6076d0d6379"},"vehicle_type_id":"4","last_reported":1758017448,"current_range_meters":15200,"station_id":"","pricing_plan_id":"cebpf4jnsgd1na2vs0mg"},{"bike_id":"819acd2d-1fa5-4830-afb3-48b5185776e3","system_id":"levelo_inurba_marseille","lat":43.29895,"lon":5.43688,"is_reserved":false,"is_disabled":false,"rental_uris":{"android":"levelo://app?vid=819acd2d-1fa5-4830-afb3-48b5185776e3","ios":"levelo://app?vid=819acd2d-1fa5-4830-afb3-48b5185776e3"},"vehicle_type_id":"4","last_reported":1758017448,"current_range_meters":15200,"station_id":"ce4bhpp2rcd13ifvqhfg","pricing_plan_id":"cebpf4jnsgd1na2vs0mg"},{"bike_id":"c5db8956-5cb9-45c3-98ae-2d5ca5a164f9","system_id":"levelo_inurba_marseille","lat":43.30544,"lon":5.367258,"is_reserved":false,"is_disabled":false,"rental_uris":{"android":"levelo://app?vid=c5db8956-5cb9-45c3-98ae-2d5ca5a164f9","ios":"levelo://app?vid=c5db8956-5cb9-45c3-98ae-2d5ca5a164f9"},"vehicle_type_id":"4","last_reported":1758017448,"current_range_meters":15200,"station_id":"ce4bgrp2rcd13ifvqc9g","pricing_plan_id":"cebpf4jnsgd1na2vs0mg"},{"bike_id":"ef138f30-dc7a-4879-9aa7-48d4ab0f561b","system_id":"levelo_inurba_marseille","lat":43.24992,"lon":5.38934,"is_reserved":false,"is_disabled":false,"rental_uris":{"android":"levelo://app?vid=ef138f30-dc7a-4879-9aa7-48d4ab0f561b","ios":"levelo://app?vid=ef138f30-dc7a-4879-9aa7-48d4ab0f561b"},"vehicle_type_id":"4","last_reported":1758017448,"current_range_meters":15200,"station_id":"ce4bhgp2rcd13ifvqfd0","pricing_plan_id":"cebpf4jnsgd1na2vs0mg"},{"bike_id":"62473aca-5d60-4f9b-8d0a-e6ce0ea7fc2f","system_id":"levelo_inurba_marseille","lat":43.30351,"lon":5.36594,"is_reserved":false,"is_disabled":false,"rental_uris":{"android":"levelo://app?vid=62473aca-5d60-4f9b-8d0a-e6ce0ea7fc2f","ios":"levelo://app?vid=62473aca-5d60-4f9b-8d0a-e6ce0ea7fc2f"},"vehicle_type_id":"4","last_reported":1758017448,"current_range_meters":16000,"station_id":"","pricing_plan_id":"cebpf4jnsgd1na2vs0mg"},{"bike_id":"b790cddf-9efc-4e43-b7b9-8f0186b4e0ba","system_id":"levelo_inurba_marseille","lat":43.25331,"lon":5.42168,"is_reserved":false,"is_disabled":true,"rental_uris":{"android":"levelo://app?vid=b790cddf-9efc-4e43-b7b9-8f0186b4e0ba","ios":"levelo://app?vid=b790cddf-9efc-4e43-b7b9-8f0186b4e0ba"},"vehicle_type_id":"4","last_reported":1758017448,"current_range_meters":16000,"station_id":"st_d2m65c5bi1j21697t3ng","pricing_plan_id":"cebpf4jnsgd1na2vs0mg"},{"bike_id":"11555ead-152a-4e2f-ac3e-7aaa852c50e5","system_id":"levelo_inurba_marseille","lat":43.225326,"lon":5.348358,"is_reserved":false,"is_disabled":false,"rental_uris":{"android":"levelo://app?vid=11555ead-152a-4e2f-ac3e-7aaa852c50e5","ios":"levelo://app?vid=11555ead-152a-4e2f-ac3e-7aaa852c50e5"},"vehicle_type_id":"4","last_reported":1758017448,"current_range_meters":16000,"station_id":"","pricing_plan_id":"cebpf4jnsgd1na2vs0mg"},{"bike_id":"368a91ec-cb70-4067-b444-0e1d2797b583","system_id":"levelo_inurba_marseille","lat":43.28269,"lon":5.35062,"is_reserved":false,"is_disabled":false,"rental_uris":{"android":"levelo://app?vid=368a91ec-cb70-4067-b444-0e1d2797b583","ios":"levelo://app?vid=368a91ec-cb70-4067-b444-0e1d2797b583"},"vehicle_type_id":"4","last_reported":1758017448,"current_range_meters":15200,"station_id":"ce4bhbp2rcd13ifvqerg","pricing_plan_id":"cebpf4jnsgd1na2vs0mg"},{"bike_id":"af855c88-100f-429f-ba0c-3dad51b30928","system_id":"levelo_inurba_marseille","lat":43.2121,"lon":5.35062,"is_reserved":false,"is_disabled":false,"rental_uris":{"android":"levelo://app?vid=af855c88-100f-429f-ba0c-3dad51b30928","ios":"levelo://app?vid=af855c88-100f-429f-ba0c-3dad51b30928"},"vehicle_type_id":"4","last_reported":1758017448,"current_range_meters":16000,"station_id":"st_cvj6sg6p6f1abm77japg","pricing_plan_id":"cebpf4jnsgd1na2vs0mg"},{"bike_id":"a3d33d42-aa34-4635-b98b-9c16c8962415","system_id":"levelo_inurba_marseille","lat":43.28992,"lon":5.35621,"is_reserved":false,"is_disabled":false,"rental_uris":{"android":"levelo://app?vid=a3d33d42-aa34-4635-b98b-9c16c8962415","ios":"levelo://app?vid=a3d33d42-aa34-4635-b98b-9c16c8962415"},"vehicle_type_id":"4","last_reported":1758017448,"current_range_meters":16000,"station_id":"ce4bhb92rcd13ifvqen0","pricing_plan_id":"cebpf4jnsgd1na2vs0mg"},{"bike_id":"d158bd34-2435-451b-ba25-71e3f4280d1c","system_id":"levelo_inurba_marseille","lat":43.29607,"lon":5.37732,"is_reserved":false,"is_disabled":false,"rental_uris":{"android":"levelo://app?vid=d158bd34-2435-451b-ba25-71e3f4280d1c","ios":"levelo://app?vid=d158bd34-2435-451b-ba25-71e3f4280d1c"},"vehicle_type_id":"4","last_reported":1758017448,"current_range_meters":16000,"station_id":"ce4bgi92rcd13ifvqb90","pricing_plan_id":"cebpf4jnsgd1na2vs0mg"},{"bike_id":"c8144899-9b41-4fd4-84a4-755117cb116d","system_id":"levelo_inurba_marseille","lat":43.284722,"lon":5.384208,"is_reserved":false,"is_disabled":false,"rental_uris":{"android":"levelo://app?vid=c8144899-9b41-4fd4-84a4-755117cb116d","ios":"levelo://app?vid=c8144899-9b41-4fd4-84a4-755117cb116d"},"vehicle_type_id":"4","last_reported":1758017448,"current_range_meters":16000,"station_id":"","pricing_plan_id":"cebpf4jnsgd1na2vs0mg"},{"bike_id":"f8273183-9030-46d2-bba8-574eec947f38","system_id":"levelo_inurba_marseille","lat":43.28859,"lon":5.35857,"is_reserved":false,"is_disabled":false,"rental_uris":{"android":"levelo://app?vid=f8273183-9030-46d2-bba8-574eec947f38","ios":"levelo://app?vid=f8273183-9030-46d2-bba8-574eec947f38"},"vehicle_type_id":"4","last_reported":1758017448,"current_range_meters":16000,"station_id":"ce4bhb12rcd13ifvqem0","pricing_plan_id":"cebpf4jnsgd1na2vs0mg"},{"bike_id":"88a8a850-d513-47ec-8870-e7210ef51b52","system_id":"levelo_inurba_marseille","lat":43.29929,"lon":5.38523,"is_reserved":false,"is_disabled":false,"rental_uris":{"android":"levelo://app?vid=88a8a850-d513-47ec-8870-e7210ef51b52","ios":"levelo://app?vid=88a8a850-d513-47ec-8870-e7210ef51b52"},"vehicle_type_id":"4","last_reported":1758017448,"current_range_meters":16400,"station_id":"","pricing_plan_id":"cebpf4jnsgd1na2vs0mg"},{"bike_id":"7263464e-6e48-4361-99fb-36b8de52f749","system_id":"levelo_inurba_marseille","lat":43.27902,"lon":5.38017,"is_reserved":false,"is_disabled":false,"rental_uris":{"android":"levelo://app?vid=7263464e-6e48-4361-99fb-36b8de52f749","ios":"levelo://app?vid=7263464e-6e48-4361-99fb-36b8de52f749"},"vehicle_type_id":"4","last_reported":1758017448,"current_range_meters":16400,"station_id":"ce4bhf92rcd13ifvqf50","pricing_plan_id":"cebpf4jnsgd1na2vs0mg"},{"bike_id":"82e0bfcc-bba2-4c2c-9484-d3ca3b13a18b","system_id":"levelo_inurba_marseille","lat":43.29448,"lon":5.37569,"is_reserved":false,"is_disabled":false,"rental_uris":{"android":"levelo://app?vid=82e0bfcc-bba2-4c2c-9484-d3ca3b13a18b","ios":"levelo://app?vid=82e0bfcc-bba2-4c2c-9484-d3ca3b13a18b"},"vehicle_type_id":"4","last_reported":1758017448,"current_range_meters":16400,"station_id":"","pricing_plan_id":"cebpf4jnsgd1na2vs0mg"},{"bike_id":"f5538dd9-94c3-433e-ada5-fc5d10ad63b0","system_id":"levelo_inurba_marseille","lat":43.30921,"lon":5.36848,"is_reserved":false,"is_disabled":false,"rental_uris":{"android":"levelo://app?vid=f5538dd9-94c3-433e-ada5-fc5d10ad63b0","ios":"levelo://app?vid=f5538dd9-94c3-433e-ada5-fc5d10ad63b0"},"vehicle_type_id":"4","last_reported":1758017448,"current_range_meters":16400,"station_id":"ce4bgn92rcd13ifvqbvg","pricing_plan_id":"cebpf4jnsgd1na2vs0mg"},{"bike_id":"40495e59-b743-486e-987c-cb0c3ab2f191","system_id":"levelo_inurba_marseille","lat":43.33372,"lon":5.41191,"is_reserved":false,"is_disabled":false,"rental_uris":{"android":"levelo://app?vid=40495e59-b743-486e-987c-cb0c3ab2f191","ios":"levelo://app?vid=40495e59-b743-486e-987c-cb0c3ab2f191"},"vehicle_type_id":"4","last_reported":1758017448,"current_range_meters":16400,"station_id":"","pricing_plan_id":"cebpf4jnsgd1na2vs0mg"},{"bike_id":"32df7e8f-395c-4163-a3fe-ab37bd69eba4","system_id":"levelo_inurba_marseille","lat":43.28283,"lon":5.35046,"is_reserved":false,"is_disabled":false,"rental_uris":{"android":"levelo://app?vid=32df7e8f-395c-4163-a3fe-ab37bd69eba4","ios":"levelo://app?vid=32df7e8f-395c-4163-a3fe-ab37bd69eba4"},"vehicle_type_id":"4","last_reported":1758017448,"current_range_meters":16400,"station_id":"ce4bhbp2rcd13ifvqerg","pricing_plan_id":"cebpf4jnsgd1na2vs0mg"},{"bike_id":"e169d61c-cff0-4bf1-a7f2-bcee039065a7","system_id":"levelo_inurba_marseille","lat":43.24382,"lon":5.3706,"is_reserved":false,"is_disabled":false,"rental_uris":{"android":"levelo://app?vid=e169d61c-cff0-4bf1-a7f2-bcee039065a7","ios":"levelo://app?vid=e169d61c-cff0-4bf1-a7f2-bcee039065a7"},"vehicle_type_id":"4","last_reported":1758017448,"current_range_meters":16000,"station_id":"ce4bhhh2rcd13ifvqfk0","pricing_plan_id":"cebpf4jnsgd1na2vs0mg"},{"bike_id":"30dbcd00-b9a9-48cf-9c9a-22422cc17227","system_id":"levelo_inurba_marseille","lat":43.26191,"lon":5.40446,"is_reserved":false,"is_disabled":false,"rental_uris":{"android":"levelo://app?vid=30dbcd00-b9a9-48cf-9c9a-22422cc17227","ios":"levelo://app?vid=30dbcd00-b9a9-48cf-9c9a-22422cc17227"},"vehicle_type_id":"4","last_reported":1758017448,"current_range_meters":16400,"station_id":"ce4bhmh2rcd13ifvqgmg","pricing_plan_id":"cebpf4jnsgd1na2vs0mg"},{"bike_id":"ca2bf168-d24d-46fc-9ec2-e8d067f4b5c5","system_id":"levelo_inurba_marseille","lat":43.26789,"lon":5.39412,"is_reserved":false,"is_disabled":false,"rental_uris":{"android":"levelo://app?vid=ca2bf168-d24d-46fc-9ec2-e8d067f4b5c5","ios":"levelo://app?vid=ca2bf168-d24d-46fc-9ec2-e8d067f4b5c5"},"vehicle_type_id":"4","last_reported":1758017448,"current_range_meters":16400,"station_id":"ce4bhh12rcd13ifvqfg0","pricing_plan_id":"cebpf4jnsgd1na2vs0mg"},{"bike_id":"8ad3dab9-1d2d-4ac0-a622-2705413043f8","system_id":"levelo_inurba_marseille","lat":43.24626,"lon":5.43148,"is_reserved":false,"is_disabled":false,"rental_uris":{"android":"levelo://app?vid=8ad3dab9-1d2d-4ac0-a622-2705413043f8","ios":"levelo://app?vid=8ad3dab9-1d2d-4ac0-a622-2705413043f8"},"vehicle_type_id":"4","last_reported":1758017448,"current_range_meters":16400,"station_id":"st_d2m6c4gdas8pm72e190g","pricing_plan_id":"cebpf4jnsgd1na2vs0mg"},{"bike_id":"e9e8e6f5-19a7-4f81-b0a8-fbaa3138496a","system_id":"levelo_inurba_marseille","lat":43.27422,"lon":5.39433,"is_reserved":false,"is_disabled":false,"rental_uris":{"android":"levelo://app?vid=e9e8e6f5-19a7-4f81-b0a8-fbaa3138496a","ios":"levelo://app?vid=e9e8e6f5-19a7-4f81-b0a8-fbaa3138496a"},"vehicle_type_id":"4","last_reported":1758017448,"current_range_meters":16400,"station_id":"ce4bhdp2rcd13ifvqf20","pricing_plan_id":"cebpf4jnsgd1na2vs0mg"},{"bike_id":"ebcc5693-8f6d-401c-bac4-e33b46e9e75a","system_id":"levelo_inurba_marseille","lat":43.27498,"lon":5.42451,"is_reserved":false,"is_disabled":true,"rental_uris":{"android":"levelo://app?vid=ebcc5693-8f6d-401c-bac4-e33b46e9e75a","ios":"levelo://app?vid=ebcc5693-8f6d-401c-bac4-e33b46e9e75a"},"vehicle_type_id":"4","last_reported":1758017448,"current_range_meters":16400,"station_id":"ce4bhn92rcd13ifvqgrg","pricing_plan_id":"cebpf4jnsgd1na2vs0mg"},{"bike_id":"e475e9f0-91d5-4f8c-a272-09b31ed2056d","system_id":"levelo_inurba_marseille","lat":43.23133,"lon":5.43706,"is_reserved":false,"is_disabled":false,"rental_uris":{"android":"levelo://app?vid=e475e9f0-91d5-4f8c-a272-09b31ed2056d","ios":"levelo://app?vid=e475e9f0-91d5-4f8c-a272-09b31ed2056d"},"vehicle_type_id":"4","last_reported":1758017448,"current_range_meters":16400,"station_id":"ce4bhmp2rcd13ifvqgog","pricing_plan_id":"cebpf4jnsgd1na2vs0mg"},{"bike_id":"003515e8-8117-44bb-979d-5f47e8d50fda","system_id":"levelo_inurba_marseille","lat":43.30617,"lon":5.37575,"is_reserved":false,"is_disabled":false,"rental_uris":{"android":"levelo://app?vid=003515e8-8117-44bb-979d-5f47e8d50fda","ios":"levelo://app?vid=003515e8-8117-44bb-979d-5f47e8d50fda"},"vehicle_type_id":"4","last_reported":1758017448,"current_range_meters":16800,"station_id":"","pricing_plan_id":"cebpf4jnsgd1na2vs0mg"},{"bike_id":"5961a840-33db-4edd-b578-d1d5e9e82e5f","system_id":"levelo_inurba_marseille","lat":43.30101,"lon":5.38158,"is_reserved":false,"is_disabled":false,"rental_uris":{"android":"levelo://app?vid=5961a840-33db-4edd-b578-d1d5e9e82e5f","ios":"levelo://app?vid=5961a840-33db-4edd-b578-d1d5e9e82e5f"},"vehicle_type_id":"4","last_reported":1758017448,"current_range_meters":16800,"station_id":"ce4bgjp2rcd13ifvqbh0","pricing_plan_id":"cebpf4jnsgd1na2vs0mg"},{"bike_id":"a05fdb49-e038-4a84-8ea1-52f3eaaf07b1","system_id":"levelo_inurba_marseille","lat":43.22556,"lon":5.41636,"is_reserved":false,"is_disabled":false,"rental_uris":{"android":"levelo://app?vid=a05fdb49-e038-4a84-8ea1-52f3eaaf07b1","ios":"levelo://app?vid=a05fdb49-e038-4a84-8ea1-52f3eaaf07b1"},"vehicle_type_id":"4","last_reported":1758017448,"current_range_meters":16800,"station_id":"st_d2o4gvlbi1j2169b742g","pricing_plan_id":"cebpf4jnsgd1na2vs0mg"},{"bike_id":"8658106d-d24b-4523-b9f5-766b40a7f230","system_id":"levelo_inurba_marseille","lat":43.28701,"lon":5.37399,"is_reserved":false,"is_disabled":false,"rental_uris":{"android":"levelo://app?vid=8658106d-d24b-4523-b9f5-766b40a7f230","ios":"levelo://app?vid=8658106d-d24b-4523-b9f5-766b40a7f230"},"vehicle_type_id":"4","last_reported":1758017448,"current_range_meters":16800,"station_id":"ce4bh3p2rcd13ifvqdq0","pricing_plan_id":"cebpf4jnsgd1na2vs0mg"},{"bike_id":"b49a5ec3-3e6b-47ce-b8a2-b5fe4a4c5a7c","system_id":"levelo_inurba_marseille","lat":43.30929,"lon":5.40147,"is_reserved":false,"is_disabled":false,"rental_uris":{"android":"levelo://app?vid=b49a5ec3-3e6b-47ce-b8a2-b5fe4a4c5a7c","ios":"levelo://app?vid=b49a5ec3-3e6b-47ce-b8a2-b5fe4a4c5a7c"},"vehicle_type_id":"4","last_reported":1758017448,"current_range_meters":16800,"station_id":"ce4bgvp2rcd13ifvqct0","pricing_plan_id":"cebpf4jnsgd1na2vs0mg"},{"bike_id":"96644ae3-2807-4f95-a981-fef4ac2b0e69","system_id":"levelo_inurba_marseille","lat":43.225329,"lon":5.34835,"is_reserved":false,"is_disabled":false,"rental_uris":{"android":"levelo://app?vid=96644ae3-2807-4f95-a981-fef4ac2b0e69","ios":"levelo://app?vid=96644ae3-2807-4f95-a981-fef4ac2b0e69"},"vehicle_type_id":"4","last_reported":1758017448,"current_range_meters":16800,"station_id":"","pricing_plan_id":"cebpf4jnsgd1na2vs0mg"},{"bike_id":"20b55fc7-55c9-4b33-98a2-109605dfc668","system_id":"levelo_inurba_marseille","lat":43.312286,"lon":5.368657,"is_reserved":false,"is_disabled":false,"rental_uris":{"android":"levelo://app?vid=20b55fc7-55c9-4b33-98a2-109605dfc668","ios":"levelo://app?vid=20b55fc7-55c9-4b33-98a2-109605dfc668"},"vehicle_type_id":"4","last_reported":1758017448,"current_range_meters":16800,"station_id":"ce4bgl92rcd13ifvqbq0","pricing_plan_id":"cebpf4jnsgd1na2vs0mg"},{"bike_id":"b410ca3d-60d7-440b-9b61-7f908f6ead7c","system_id":"levelo_inurba_marseille","lat":43.23149,"lon":5.43717,"is_reserved":false,"is_disabled":false,"rental_uris":{"android":"levelo://app?vid=b410ca3d-60d7-440b-9b61-7f908f6ead7c","ios":"levelo://app?vid=b410ca3d-60d7-440b-9b61-7f908f6ead7c"},"vehicle_type_id":"4","last_reported":1758017448,"current_range_meters":16800,"station_id":"ce4bhmp2rcd13ifvqgog","pricing_plan_id":"cebpf4jnsgd1na2vs0mg"},{"bike_id":"5468743a-d065-4569-944f-260b4bcb1af3","system_id":"levelo_inurba_marseille","lat":43.25932,"lon":5.40903,"is_reserved":false,"is_disabled":false,"rental_uris":{"android":"levelo://app?vid=5468743a-d065-4569-944f-260b4bcb1af3","ios":"levelo://app?vid=5468743a-d065-4569-944f-260b4bcb1af3"},"vehicle_type_id":"4","last_reported":1758017448,"current_range_meters":17200,"station_id":"ce4bhm92rcd13ifvqglg","pricing_plan_id":"cebpf4jnsgd1na2vs0mg"},{"bike_id":"237ff8c3-18a9-4403-94a8-15862296b062","system_id":"levelo_inurba_marseille","lat":43.23155,"lon":5.43714,"is_reserved":false,"is_disabled":false,"rental_uris":{"android":"levelo://app?vid=237ff8c3-18a9-4403-94a8-15862296b062","ios":"levelo://app?vid=237ff8c3-18a9-4403-94a8-15862296b062"},"vehicle_type_id":"4","last_reported":1758017448,"current_range_meters":17200,"station_id":"ce4bhmp2rcd13ifvqgog","pricing_plan_id":"cebpf4jnsgd1na2vs0mg"},{"bike_id":"ca5a1340-d41e-49f3-95f8-599734e0a36c","system_id":"levelo_inurba_marseille","lat":43.225336,"lon":5.348339,"is_reserved":false,"is_disabled":false,"rental_uris":{"android":"levelo://app?vid=ca5a1340-d41e-49f3-95f8-599734e0a36c","ios":"levelo://app?vid=ca5a1340-d41e-49f3-95f8-599734e0a36c"},"vehicle_type_id":"4","last_reported":1758017448,"current_range_meters":17200,"station_id":"","pricing_plan_id":"cebpf4jnsgd1na2vs0mg"},{"bike_id":"5dbca62f-7019-41e0-bb60-cbaa2e477dc8","system_id":"levelo_inurba_marseille","lat":43.30909,"lon":5.3685,"is_reserved":false,"is_disabled":false,"rental_uris":{"android":"levelo://app?vid=5dbca62f-7019-41e0-bb60-cbaa2e477dc8","ios":"levelo://app?vid=5dbca62f-7019-41e0-bb60-cbaa2e477dc8"},"vehicle_type_id":"4","last_reported":1758017448,"current_range_meters":17200,"station_id":"ce4bgn92rcd13ifvqbvg","pricing_plan_id":"cebpf4jnsgd1na2vs0mg"},{"bike_id":"f06653f0-ee36-461a-8e31-6a41ed4897e8","system_id":"levelo_inurba_marseille","lat":43.29004,"lon":5.3561,"is_reserved":false,"is_disabled":false,"rental_uris":{"android":"levelo://app?vid=f06653f0-ee36-461a-8e31-6a41ed4897e8","ios":"levelo://app?vid=f06653f0-ee36-461a-8e31-6a41ed4897e8"},"vehicle_type_id":"4","last_reported":1758017448,"current_range_meters":17200,"station_id":"ce4bhb92rcd13ifvqen0","pricing_plan_id":"cebpf4jnsgd1na2vs0mg"},{"bike_id":"03b7a8a1-453f-46ab-9165-dfd8c4b2032d","system_id":"levelo_inurba_marseille","lat":43.30266,"lon":5.37691,"is_reserved":false,"is_disabled":false,"rental_uris":{"android":"levelo://app?vid=03b7a8a1-453f-46ab-9165-dfd8c4b2032d","ios":"levelo://app?vid=03b7a8a1-453f-46ab-9165-dfd8c4b2032d"},"vehicle_type_id":"4","last_reported":1758017448,"current_range_meters":17600,"station_id":"ce4bguh2rcd13ifvqcj0","pricing_plan_id":"cebpf4jnsgd1na2vs0mg"},{"bike_id":"624f8ade-bc84-464f-a2ab-5b4fcbade8db","system_id":"levelo_inurba_marseille","lat":43.2861,"lon":5.35106,"is_reserved":false,"is_disabled":false,"rental_uris":{"android":"levelo://app?vid=624f8ade-bc84-464f-a2ab-5b4fcbade8db","ios":"levelo://app?vid=624f8ade-bc84-464f-a2ab-5b4fcbade8db"},"vehicle_type_id":"4","last_reported":1758017448,"current_range_meters":17600,"station_id":"ce4bhch2rcd13ifvqeug","pricing_plan_id":"cebpf4jnsgd1na2vs0mg"},{"bike_id":"47e5ef79-96be-4aaf-a29f-b36e439986f3","system_id":"levelo_inurba_marseille","lat":43.27495,"lon":5.42453,"is_reserved":false,"is_disabled":false,"rental_uris":{"android":"levelo://app?vid=47e5ef79-96be-4aaf-a29f-b36e439986f3","ios":"levelo://app?vid=47e5ef79-96be-4aaf-a29f-b36e439986f3"},"vehicle_type_id":"4","last_reported":1758017448,"current_range_meters":17600,"station_id":"ce4bhn92rcd13ifvqgrg","pricing_plan_id":"cebpf4jnsgd1na2vs0mg"},{"bike_id":"fcd56ccc-f0ab-49ef-a538-8c498b5ecd49","system_id":"levelo_inurba_marseille","lat":43.22572,"lon":5.4165,"is_reserved":false,"is_disabled":false,"rental_uris":{"android":"levelo://app?vid=fcd56ccc-f0ab-49ef-a538-8c498b5ecd49","ios":"levelo://app?vid=fcd56ccc-f0ab-49ef-a538-8c498b5ecd49"},"vehicle_type_id":"4","last_reported":1758017448,"current_range_meters":17600,"station_id":"st_d2o4gvlbi1j2169b742g","pricing_plan_id":"cebpf4jnsgd1na2vs0mg"},{"bike_id":"a82a7526-88da-4d23-a47e-62861b854467","system_id":"levelo_inurba_marseille","lat":43.231322,"lon":5.437609,"is_reserved":false,"is_disabled":false,"rental_uris":{"android":"levelo://app?vid=a82a7526-88da-4d23-a47e-62861b854467","ios":"levelo://app?vid=a82a7526-88da-4d23-a47e-62861b854467"},"vehicle_type_id":"4","last_reported":1758017448,"current_range_meters":17600,"station_id":"","pricing_plan_id":"cebpf4jnsgd1na2vs0mg"},{"bike_id":"d1788760-0706-4b90-8999-db00a9e42210","system_id":"levelo_inurba_marseille","lat":43.32659,"lon":5.41005,"is_reserved":false,"is_disabled":true,"rental_uris":{"android":"levelo://app?vid=d1788760-0706-4b90-8999-db00a9e42210","ios":"levelo://app?vid=d1788760-0706-4b90-8999-db00a9e42210"},"vehicle_type_id":"4","last_reported":1758017448,"current_range_meters":17600,"station_id":"","pricing_plan_id":"cebpf4jnsgd1na2vs0mg"},{"bike_id":"22f0687d-25d3-4094-9c4a-293a61e189a6","system_id":"levelo_inurba_marseille","lat":43.24058,"lon":5.40688,"is_reserved":false,"is_disabled":false,"rental_uris":{"android":"levelo://app?vid=22f0687d-25d3-4094-9c4a-293a61e189a6","ios":"levelo://app?vid=22f0687d-25d3-4094-9c4a-293a61e189a6"},"vehicle_type_id":"4","last_reported":1758017448,"current_range_meters":17600,"station_id":"","pricing_plan_id":"cebpf4jnsgd1na2vs0mg"},{"bike_id":"d66079b8-e1e6-49f6-8513-918b3ce83cf8","system_id":"levelo_inurba_marseille","lat":43.26223,"lon":5.4044,"is_reserved":false,"is_disabled":false,"rental_uris":{"android":"levelo://app?vid=d66079b8-e1e6-49f6-8513-918b3ce83cf8","ios":"levelo://app?vid=d66079b8-e1e6-49f6-8513-918b3ce83cf8"},"vehicle_type_id":"4","last_reported":1758017448,"current_range_meters":17600,"station_id":"ce4bhmh2rcd13ifvqgmg","pricing_plan_id":"cebpf4jnsgd1na2vs0mg"},{"bike_id":"14f88e73-f446-4a21-816e-a8f294af2f1c","system_id":"levelo_inurba_marseille","lat":43.2407,"lon":5.37765,"is_reserved":false,"is_disabled":false,"rental_uris":{"android":"levelo://app?vid=14f88e73-f446-4a21-816e-a8f294af2f1c","ios":"levelo://app?vid=14f88e73-f446-4a21-816e-a8f294af2f1c"},"vehicle_type_id":"4","last_reported":1758017448,"current_range_meters":17600,"station_id":"ce4bhnp2rcd13ifvqgvg","pricing_plan_id":"cebpf4jnsgd1na2vs0mg"},{"bike_id":"94bed273-39db-456c-8361-c2445aab3472","system_id":"levelo_inurba_marseille","lat":43.26929,"lon":5.38698,"is_reserved":false,"is_disabled":false,"rental_uris":{"android":"levelo://app?vid=94bed273-39db-456c-8361-c2445aab3472","ios":"levelo://app?vid=94bed273-39db-456c-8361-c2445aab3472"},"vehicle_type_id":"4","last_reported":1758017448,"current_range_meters":17600,"station_id":"ce4bhh92rcd13ifvqfh0","pricing_plan_id":"cebpf4jnsgd1na2vs0mg"},{"bike_id":"1640a101-a331-49f0-aafd-f32c0bbd8bb8","system_id":"levelo_inurba_marseille","lat":43.31704,"lon":5.37742,"is_reserved":false,"is_disabled":false,"rental_uris":{"android":"levelo://app?vid=1640a101-a331-49f0-aafd-f32c0bbd8bb8","ios":"levelo://app?vid=1640a101-a331-49f0-aafd-f32c0bbd8bb8"},"vehicle_type_id":"4","last_reported":1758017448,"current_range_meters":18000,"station_id":"ce4bgth2rcd13ifvqch0","pricing_plan_id":"cebpf4jnsgd1na2vs0mg"},{"bike_id":"4d428ea9-1dcb-4a75-b622-5cb7b20a1dad","system_id":"levelo_inurba_marseille","lat":43.323592,"lon":5.367556,"is_reserved":false,"is_disabled":false,"rental_uris":{"android":"levelo://app?vid=4d428ea9-1dcb-4a75-b622-5cb7b20a1dad","ios":"levelo://app?vid=4d428ea9-1dcb-4a75-b622-5cb7b20a1dad"},"vehicle_type_id":"4","last_reported":1758017448,"current_range_meters":18000,"station_id":"ce4bhsh2rcd13ifvqi2g","pricing_plan_id":"cebpf4jnsgd1na2vs0mg"},{"bike_id":"88a4bc06-6261-4921-890d-d133aa4606a8","system_id":"levelo_inurba_marseille","lat":43.337444,"lon":5.374475,"is_reserved":false,"is_disabled":false,"rental_uris":{"android":"levelo://app?vid=88a4bc06-6261-4921-890d-d133aa4606a8","ios":"levelo://app?vid=88a4bc06-6261-4921-890d-d133aa4606a8"},"vehicle_type_id":"4","last_reported":1758017448,"current_range_meters":18000,"station_id":"","pricing_plan_id":"cebpf4jnsgd1na2vs0mg"},{"bike_id":"591cfb6c-28da-415e-8617-7887b07a7d9f","system_id":"levelo_inurba_marseille","lat":43.32492,"lon":5.36552,"is_reserved":false,"is_disabled":false,"rental_uris":{"android":"levelo://app?vid=591cfb6c-28da-415e-8617-7887b07a7d9f","ios":"levelo://app?vid=591cfb6c-28da-415e-8617-7887b07a7d9f"},"vehicle_type_id":"4","last_reported":1758017448,"current_range_meters":18000,"station_id":"ce4bhs12rcd13ifvqhvg","pricing_plan_id":"cebpf4jnsgd1na2vs0mg"},{"bike_id":"0ab1fcc1-3b1a-4b8c-bbce-f1ae33b1ecf7","system_id":"levelo_inurba_marseille","lat":43.24669,"lon":5.38161,"is_reserved":false,"is_disabled":false,"rental_uris":{"android":"levelo://app?vid=0ab1fcc1-3b1a-4b8c-bbce-f1ae33b1ecf7","ios":"levelo://app?vid=0ab1fcc1-3b1a-4b8c-bbce-f1ae33b1ecf7"},"vehicle_type_id":"4","last_reported":1758017448,"current_range_meters":18000,"station_id":"ce4bhih2rcd13ifvqfr0","pricing_plan_id":"cebpf4jnsgd1na2vs0mg"},{"bike_id":"2921459d-63c9-4aed-a19c-c83b132593aa","system_id":"levelo_inurba_marseille","lat":43.30165,"lon":5.3808,"is_reserved":false,"is_disabled":false,"rental_uris":{"android":"levelo://app?vid=2921459d-63c9-4aed-a19c-c83b132593aa","ios":"levelo://app?vid=2921459d-63c9-4aed-a19c-c83b132593aa"},"vehicle_type_id":"4","last_reported":1758017448,"current_range_meters":18000,"station_id":"ce4bgjp2rcd13ifvqbh0","pricing_plan_id":"cebpf4jnsgd1na2vs0mg"},{"bike_id":"37ceed78-dfa7-4592-941c-1704bf168b3e","system_id":"levelo_inurba_marseille","lat":43.28672,"lon":5.3635,"is_reserved":false,"is_disabled":false,"rental_uris":{"android":"levelo://app?vid=37ceed78-dfa7-4592-941c-1704bf168b3e","ios":"levelo://app?vid=37ceed78-dfa7-4592-941c-1704bf168b3e"},"vehicle_type_id":"4","last_reported":1758017448,"current_range_meters":18000,"station_id":"ce4bhah2rcd13ifvqej0","pricing_plan_id":"cebpf4jnsgd1na2vs0mg"},{"bike_id":"23e1572e-7ccb-4eea-8020-599035749c9e","system_id":"levelo_inurba_marseille","lat":43.238385,"lon":5.365552,"is_reserved":false,"is_disabled":false,"rental_uris":{"android":"levelo://app?vid=23e1572e-7ccb-4eea-8020-599035749c9e","ios":"levelo://app?vid=23e1572e-7ccb-4eea-8020-599035749c9e"},"vehicle_type_id":"4","last_reported":1758017448,"current_range_meters":18000,"station_id":"","pricing_plan_id":"cebpf4jnsgd1na2vs0mg"},{"bike_id":"eb6cbeef-bc92-4528-a915-7b01f98754fe","system_id":"levelo_inurba_marseille","lat":43.302812,"lon":5.374389,"is_reserved":false,"is_disabled":false,"rental_uris":{"android":"levelo://app?vid=eb6cbeef-bc92-4528-a915-7b01f98754fe","ios":"levelo://app?vid=eb6cbeef-bc92-4528-a915-7b01f98754fe"},"vehicle_type_id":"4","last_reported":1758017448,"current_range_meters":18000,"station_id":"","pricing_plan_id":"cebpf4jnsgd1na2vs0mg"},{"bike_id":"b2b3f118-f930-4549-8d49-265a30e53939","system_id":"levelo_inurba_marseille","lat":43.24164,"lon":5.36391,"is_reserved":false,"is_disabled":false,"rental_uris":{"android":"levelo://app?vid=b2b3f118-f930-4549-8d49-265a30e53939","ios":"levelo://app?vid=b2b3f118-f930-4549-8d49-265a30e53939"},"vehicle_type_id":"4","last_reported":1758017448,"current_range_meters":18000,"station_id":"cpo36qri1sfpv3e86is0","pricing_plan_id":"cebpf4jnsgd1na2vs0mg"},{"bike_id":"f3d7f9a9-680d-4777-825b-26af443c4000","system_id":"levelo_inurba_marseille","lat":43.30143,"lon":5.39851,"is_reserved":false,"is_disabled":false,"rental_uris":{"android":"levelo://app?vid=f3d7f9a9-680d-4777-825b-26af443c4000","ios":"levelo://app?vid=f3d7f9a9-680d-4777-825b-26af443c4000"},"vehicle_type_id":"4","last_reported":1758017448,"current_range_meters":18000,"station_id":"ce4bh0h2rcd13ifvqd40","pricing_plan_id":"cebpf4jnsgd1na2vs0mg"},{"bike_id":"cab0d9ac-08ed-4e4c-8ace-b91f6646aaa5","system_id":"levelo_inurba_marseille","lat":43.2623,"lon":5.40446,"is_reserved":false,"is_disabled":false,"rental_uris":{"android":"levelo://app?vid=cab0d9ac-08ed-4e4c-8ace-b91f6646aaa5","ios":"levelo://app?vid=cab0d9ac-08ed-4e4c-8ace-b91f6646aaa5"},"vehicle_type_id":"4","last_reported":1758017448,"current_range_meters":18000,"station_id":"ce4bhmh2rcd13ifvqgmg","pricing_plan_id":"cebpf4jnsgd1na2vs0mg"},{"bike_id":"5129e005-2452-471a-a768-673c73b41b5f","system_id":"levelo_inurba_marseille","lat":43.33614,"lon":5.41016,"is_reserved":false,"is_disabled":false,"rental_uris":{"android":"levelo://app?vid=5129e005-2452-471a-a768-673c73b41b5f","ios":"levelo://app?vid=5129e005-2452-471a-a768-673c73b41b5f"},"vehicle_type_id":"4","last_reported":1758017448,"current_range_meters":18000,"station_id":"ce4bhqh2rcd13ifvqhmg","pricing_plan_id":"cebpf4jnsgd1na2vs0mg"},{"bike_id":"81187f1b-b13b-4bac-8c60-df1377fc0cb3","system_id":"levelo_inurba_marseille","lat":43.30168,"lon":5.38082,"is_reserved":false,"is_disabled":false,"rental_uris":{"android":"levelo://app?vid=81187f1b-b13b-4bac-8c60-df1377fc0cb3","ios":"levelo://app?vid=81187f1b-b13b-4bac-8c60-df1377fc0cb3"},"vehicle_type_id":"4","last_reported":1758017448,"current_range_meters":18000,"station_id":"ce4bgjp2rcd13ifvqbh0","pricing_plan_id":"cebpf4jnsgd1na2vs0mg"},{"bike_id":"a20b9347-5750-4b22-92f9-cac6fa873bc5","system_id":"levelo_inurba_marseille","lat":43.30803,"lon":5.43525,"is_reserved":false,"is_disabled":false,"rental_uris":{"android":"levelo://app?vid=a20b9347-5750-4b22-92f9-cac6fa873bc5","ios":"levelo://app?vid=a20b9347-5750-4b22-92f9-cac6fa873bc5"},"vehicle_type_id":"4","last_reported":1758017448,"current_range_meters":18000,"station_id":"ce4bhph2rcd13ifvqheg","pricing_plan_id":"cebpf4jnsgd1na2vs0mg"},{"bike_id":"176eac5d-fbdc-453f-a22e-eb7bf985c6c4","system_id":"levelo_inurba_marseille","lat":43.287996,"lon":5.378277,"is_reserved":false,"is_disabled":false,"rental_uris":{"android":"levelo://app?vid=176eac5d-fbdc-453f-a22e-eb7bf985c6c4","ios":"levelo://app?vid=176eac5d-fbdc-453f-a22e-eb7bf985c6c4"},"vehicle_type_id":"4","last_reported":1758017448,"current_range_meters":18800,"station_id":"","pricing_plan_id":"cebpf4jnsgd1na2vs0mg"},{"bike_id":"3f1f73e6-bfac-49a9-8d7e-94c0152665ee","system_id":"levelo_inurba_marseille","lat":43.29578,"lon":5.37492,"is_reserved":false,"is_disabled":false,"rental_uris":{"android":"levelo://app?vid=3f1f73e6-bfac-49a9-8d7e-94c0152665ee","ios":"levelo://app?vid=3f1f73e6-bfac-49a9-8d7e-94c0152665ee"},"vehicle_type_id":"4","last_reported":1758017448,"current_range_meters":18800,"station_id":"ce4bgh92rcd13ifvqb50","pricing_plan_id":"cebpf4jnsgd1na2vs0mg"},{"bike_id":"5fef58db-d358-40a4-b054-8d5e4132c10e","system_id":"levelo_inurba_marseille","lat":43.29862,"lon":5.37914,"is_reserved":false,"is_disabled":false,"rental_uris":{"android":"levelo://app?vid=5fef58db-d358-40a4-b054-8d5e4132c10e","ios":"levelo://app?vid=5fef58db-d358-40a4-b054-8d5e4132c10e"},"vehicle_type_id":"4","last_reported":1758017448,"current_range_meters":18800,"station_id":"","pricing_plan_id":"cebpf4jnsgd1na2vs0mg"},{"bike_id":"b98d0b55-e76c-4726-90ef-39276f92eab4","system_id":"levelo_inurba_marseille","lat":43.30299,"lon":5.38635,"is_reserved":false,"is_disabled":false,"rental_uris":{"android":"levelo://app?vid=b98d0b55-e76c-4726-90ef-39276f92eab4","ios":"levelo://app?vid=b98d0b55-e76c-4726-90ef-39276f92eab4"},"vehicle_type_id":"4","last_reported":1758017448,"current_range_meters":18800,"station_id":"","pricing_plan_id":"cebpf4jnsgd1na2vs0mg"},{"bike_id":"46cbcee3-845b-447b-a395-16f85ed6d743","system_id":"levelo_inurba_marseille","lat":43.30534,"lon":5.36697,"is_reserved":false,"is_disabled":false,"rental_uris":{"android":"levelo://app?vid=46cbcee3-845b-447b-a395-16f85ed6d743","ios":"levelo://app?vid=46cbcee3-845b-447b-a395-16f85ed6d743"},"vehicle_type_id":"4","last_reported":1758017448,"current_range_meters":18800,"station_id":"ce4bgrp2rcd13ifvqc9g","pricing_plan_id":"cebpf4jnsgd1na2vs0mg"},{"bike_id":"fc246d18-b557-4cf0-a3aa-c0c818be8f0c","system_id":"levelo_inurba_marseille","lat":43.29238,"lon":5.37654,"is_reserved":false,"is_disabled":false,"rental_uris":{"android":"levelo://app?vid=fc246d18-b557-4cf0-a3aa-c0c818be8f0c","ios":"levelo://app?vid=fc246d18-b557-4cf0-a3aa-c0c818be8f0c"},"vehicle_type_id":"4","last_reported":1758017448,"current_range_meters":18800,"station_id":"ce4bgi12rcd13ifvqb80","pricing_plan_id":"cebpf4jnsgd1na2vs0mg"},{"bike_id":"797d594a-91b3-4375-ad0d-bc637135bfd1","system_id":"levelo_inurba_marseille","lat":43.31362,"lon":5.37133,"is_reserved":false,"is_disabled":false,"rental_uris":{"android":"levelo://app?vid=797d594a-91b3-4375-ad0d-bc637135bfd1","ios":"levelo://app?vid=797d594a-91b3-4375-ad0d-bc637135bfd1"},"vehicle_type_id":"4","last_reported":1758017448,"current_range_meters":18800,"station_id":"","pricing_plan_id":"cebpf4jnsgd1na2vs0mg"},{"bike_id":"5701fe9c-3e98-4b9f-a910-5eb395d4e5d3","system_id":"levelo_inurba_marseille","lat":43.305389,"lon":5.384223,"is_reserved":false,"is_disabled":false,"rental_uris":{"android":"levelo://app?vid=5701fe9c-3e98-4b9f-a910-5eb395d4e5d3","ios":"levelo://app?vid=5701fe9c-3e98-4b9f-a910-5eb395d4e5d3"},"vehicle_type_id":"4","last_reported":1758017448,"current_range_meters":18800,"station_id":"","pricing_plan_id":"cebpf4jnsgd1na2vs0mg"},{"bike_id":"17d2e23f-2e4e-4271-a94a-92e2b9352a8c","system_id":"levelo_inurba_marseille","lat":43.336081,"lon":5.410265,"is_reserved":false,"is_disabled":false,"rental_uris":{"android":"levelo://app?vid=17d2e23f-2e4e-4271-a94a-92e2b9352a8c","ios":"levelo://app?vid=17d2e23f-2e4e-4271-a94a-92e2b9352a8c"},"vehicle_type_id":"4","last_reported":1758017448,"current_range_meters":18800,"station_id":"ce4bhqh2rcd13ifvqhmg","pricing_plan_id":"cebpf4jnsgd1na2vs0mg"},{"bike_id":"2098e9cb-557c-4f53-85f2-265df9ccd555","system_id":"levelo_inurba_marseille","lat":43.312282,"lon":5.368682,"is_reserved":false,"is_disabled":false,"rental_uris":{"android":"levelo://app?vid=2098e9cb-557c-4f53-85f2-265df9ccd555","ios":"levelo://app?vid=2098e9cb-557c-4f53-85f2-265df9ccd555"},"vehicle_type_id":"4","last_reported":1758017448,"current_range_meters":18800,"station_id":"ce4bgl92rcd13ifvqbq0","pricing_plan_id":"cebpf4jnsgd1na2vs0mg"},{"bike_id":"d500502c-ca7d-4d82-907e-13560cfa06b0","system_id":"levelo_inurba_marseille","lat":43.23139,"lon":5.43725,"is_reserved":false,"is_disabled":false,"rental_uris":{"android":"levelo://app?vid=d500502c-ca7d-4d82-907e-13560cfa06b0","ios":"levelo://app?vid=d500502c-ca7d-4d82-907e-13560cfa06b0"},"vehicle_type_id":"4","last_reported":1758017448,"current_range_meters":19200,"station_id":"ce4bhmp2rcd13ifvqgog","pricing_plan_id":"cebpf4jnsgd1na2vs0mg"},{"bike_id":"c8a7dee6-2332-4a84-a508-681234669df9","system_id":"levelo_inurba_marseille","lat":43.25937,"lon":5.40893,"is_reserved":false,"is_disabled":false,"rental_uris":{"android":"levelo://app?vid=c8a7dee6-2332-4a84-a508-681234669df9","ios":"levelo://app?vid=c8a7dee6-2332-4a84-a508-681234669df9"},"vehicle_type_id":"4","last_reported":1758017448,"current_range_meters":19200,"station_id":"ce4bhm92rcd13ifvqglg","pricing_plan_id":"cebpf4jnsgd1na2vs0mg"},{"bike_id":"2885ad03-8f73-4983-9c6c-3e2545368ab4","system_id":"levelo_inurba_marseille","lat":43.309473,"lon":5.390295,"is_reserved":false,"is_disabled":false,"rental_uris":{"android":"levelo://app?vid=2885ad03-8f73-4983-9c6c-3e2545368ab4","ios":"levelo://app?vid=2885ad03-8f73-4983-9c6c-3e2545368ab4"},"vehicle_type_id":"4","last_reported":1758017448,"current_range_meters":19200,"station_id":"ce4bgup2rcd13ifvqco0","pricing_plan_id":"cebpf4jnsgd1na2vs0mg"},{"bike_id":"c4706891-6ce1-4440-91ff-a3ecf2ff007e","system_id":"levelo_inurba_marseille","lat":43.24382,"lon":5.37479,"is_reserved":false,"is_disabled":false,"rental_uris":{"android":"levelo://app?vid=c4706891-6ce1-4440-91ff-a3ecf2ff007e","ios":"levelo://app?vid=c4706891-6ce1-4440-91ff-a3ecf2ff007e"},"vehicle_type_id":"4","last_reported":1758017448,"current_range_meters":19200,"station_id":"","pricing_plan_id":"cebpf4jnsgd1na2vs0mg"},{"bike_id":"7bc981e2-9b37-4f57-a238-db58aaaa0f1e","system_id":"levelo_inurba_marseille","lat":43.24623,"lon":5.43154,"is_reserved":false,"is_disabled":false,"rental_uris":{"android":"levelo://app?vid=7bc981e2-9b37-4f57-a238-db58aaaa0f1e","ios":"levelo://app?vid=7bc981e2-9b37-4f57-a238-db58aaaa0f1e"},"vehicle_type_id":"4","last_reported":1758017448,"current_range_meters":19200,"station_id":"st_d2m6c4gdas8pm72e190g","pricing_plan_id":"cebpf4jnsgd1na2vs0mg"},{"bike_id":"ca586d3a-f254-48f8-a0da-7a5b5535e6fb","system_id":"levelo_inurba_marseille","lat":43.259393,"lon":5.408649,"is_reserved":false,"is_disabled":false,"rental_uris":{"android":"levelo://app?vid=ca586d3a-f254-48f8-a0da-7a5b5535e6fb","ios":"levelo://app?vid=ca586d3a-f254-48f8-a0da-7a5b5535e6fb"},"vehicle_type_id":"4","last_reported":1758017448,"current_range_meters":19200,"station_id":"ce4bhm92rcd13ifvqglg","pricing_plan_id":"cebpf4jnsgd1na2vs0mg"},{"bike_id":"26d32f40-abd9-41e8-ad33-e16c33cbf788","system_id":"levelo_inurba_marseille","lat":43.29958,"lon":5.37743,"is_reserved":false,"is_disabled":false,"rental_uris":{"android":"levelo://app?vid=26d32f40-abd9-41e8-ad33-e16c33cbf788","ios":"levelo://app?vid=26d32f40-abd9-41e8-ad33-e16c33cbf788"},"vehicle_type_id":"4","last_reported":1758017448,"current_range_meters":19200,"station_id":"","pricing_plan_id":"cebpf4jnsgd1na2vs0mg"},{"bike_id":"91dc583f-7e3e-4a17-966b-3380d26b2b4b","system_id":"levelo_inurba_marseille","lat":43.26227,"lon":5.40452,"is_reserved":false,"is_disabled":false,"rental_uris":{"android":"levelo://app?vid=91dc583f-7e3e-4a17-966b-3380d26b2b4b","ios":"levelo://app?vid=91dc583f-7e3e-4a17-966b-3380d26b2b4b"},"vehicle_type_id":"4","last_reported":1758017448,"current_range_meters":19200,"station_id":"ce4bhmh2rcd13ifvqgmg","pricing_plan_id":"cebpf4jnsgd1na2vs0mg"},{"bike_id":"17a16791-c64a-4de6-b932-62ed3f85a7ed","system_id":"levelo_inurba_marseille","lat":43.305528,"lon":5.365611,"is_reserved":false,"is_disabled":false,"rental_uris":{"android":"levelo://app?vid=17a16791-c64a-4de6-b932-62ed3f85a7ed","ios":"levelo://app?vid=17a16791-c64a-4de6-b932-62ed3f85a7ed"},"vehicle_type_id":"4","last_reported":1758017448,"current_range_meters":19200,"station_id":"","pricing_plan_id":"cebpf4jnsgd1na2vs0mg"},{"bike_id":"c2a02b0c-0400-47d0-814e-3740047e19dc","system_id":"levelo_inurba_marseille","lat":43.2256,"lon":5.41639,"is_reserved":false,"is_disabled":false,"rental_uris":{"android":"levelo://app?vid=c2a02b0c-0400-47d0-814e-3740047e19dc","ios":"levelo://app?vid=c2a02b0c-0400-47d0-814e-3740047e19dc"},"vehicle_type_id":"4","last_reported":1758017448,"current_range_meters":19200,"station_id":"st_d2o4gvlbi1j2169b742g","pricing_plan_id":"cebpf4jnsgd1na2vs0mg"},{"bike_id":"67395a08-14b0-4739-b75b-9370e4c8f162","system_id":"levelo_inurba_marseille","lat":43.27295,"lon":5.39095,"is_reserved":false,"is_disabled":false,"rental_uris":{"android":"levelo://app?vid=67395a08-14b0-4739-b75b-9370e4c8f162","ios":"levelo://app?vid=67395a08-14b0-4739-b75b-9370e4c8f162"},"vehicle_type_id":"4","last_reported":1758017448,"current_range_meters":19200,"station_id":"ce4bhgp2rcd13ifvqfe0","pricing_plan_id":"cebpf4jnsgd1na2vs0mg"},{"bike_id":"6a71954b-5bea-4ab4-a171-617ccbfe49ab","system_id":"levelo_inurba_marseille","lat":43.274941,"lon":5.42452,"is_reserved":false,"is_disabled":false,"rental_uris":{"android":"levelo://app?vid=6a71954b-5bea-4ab4-a171-617ccbfe49ab","ios":"levelo://app?vid=6a71954b-5bea-4ab4-a171-617ccbfe49ab"},"vehicle_type_id":"4","last_reported":1758017448,"current_range_meters":19200,"station_id":"ce4bhn92rcd13ifvqgrg","pricing_plan_id":"cebpf4jnsgd1na2vs0mg"},{"bike_id":"d16d25b0-e15e-472f-9b86-3b8202686d4e","system_id":"levelo_inurba_marseille","lat":43.29004,"lon":5.35607,"is_reserved":false,"is_disabled":false,"rental_uris":{"android":"levelo://app?vid=d16d25b0-e15e-472f-9b86-3b8202686d4e","ios":"levelo://app?vid=d16d25b0-e15e-472f-9b86-3b8202686d4e"},"vehicle_type_id":"4","last_reported":1758017448,"current_range_meters":19200,"station_id":"ce4bhb92rcd13ifvqen0","pricing_plan_id":"cebpf4jnsgd1na2vs0mg"},{"bike_id":"b54090b0-a95a-41f1-8000-dc47c0944737","system_id":"levelo_inurba_marseille","lat":43.23179,"lon":5.39986,"is_reserved":false,"is_disabled":false,"rental_uris":{"android":"levelo://app?vid=b54090b0-a95a-41f1-8000-dc47c0944737","ios":"levelo://app?vid=b54090b0-a95a-41f1-8000-dc47c0944737"},"vehicle_type_id":"4","last_reported":1758017448,"current_range_meters":19600,"station_id":"ce4bhn12rcd13ifvqgqg","pricing_plan_id":"cebpf4jnsgd1na2vs0mg"},{"bike_id":"64b1deee-ef02-45e9-a66a-3e5e20b8d612","system_id":"levelo_inurba_marseille","lat":43.299284,"lon":5.385203,"is_reserved":false,"is_disabled":false,"rental_uris":{"android":"levelo://app?vid=64b1deee-ef02-45e9-a66a-3e5e20b8d612","ios":"levelo://app?vid=64b1deee-ef02-45e9-a66a-3e5e20b8d612"},"vehicle_type_id":"4","last_reported":1758017448,"current_range_meters":19600,"station_id":"ce4bgop2rcd13ifvqc1g","pricing_plan_id":"cebpf4jnsgd1na2vs0mg"},{"bike_id":"e5e6286a-9a1d-46e6-8fe8-b383ff7159a8","system_id":"levelo_inurba_marseille","lat":43.30156,"lon":5.38091,"is_reserved":false,"is_disabled":false,"rental_uris":{"android":"levelo://app?vid=e5e6286a-9a1d-46e6-8fe8-b383ff7159a8","ios":"levelo://app?vid=e5e6286a-9a1d-46e6-8fe8-b383ff7159a8"},"vehicle_type_id":"4","last_reported":1758017448,"current_range_meters":19600,"station_id":"ce4bgjp2rcd13ifvqbh0","pricing_plan_id":"cebpf4jnsgd1na2vs0mg"},{"bike_id":"f1fe2279-b0ed-4000-8627-a2a1af5f39eb","system_id":"levelo_inurba_marseille","lat":43.28001,"lon":5.41664,"is_reserved":false,"is_disabled":false,"rental_uris":{"android":"levelo://app?vid=f1fe2279-b0ed-4000-8627-a2a1af5f39eb","ios":"levelo://app?vid=f1fe2279-b0ed-4000-8627-a2a1af5f39eb"},"vehicle_type_id":"4","last_reported":1758017448,"current_range_meters":19600,"station_id":"ce4bho12rcd13ifvqh1g","pricing_plan_id":"cebpf4jnsgd1na2vs0mg"},{"bike_id":"f15aaa53-50e1-4eba-916a-b5e7d3c9eb6b","system_id":"levelo_inurba_marseille","lat":43.33612,"lon":5.41014,"is_reserved":false,"is_disabled":false,"rental_uris":{"android":"levelo://app?vid=f15aaa53-50e1-4eba-916a-b5e7d3c9eb6b","ios":"levelo://app?vid=f15aaa53-50e1-4eba-916a-b5e7d3c9eb6b"},"vehicle_type_id":"4","last_reported":1758017448,"current_range_meters":19600,"station_id":"ce4bhqh2rcd13ifvqhmg","pricing_plan_id":"cebpf4jnsgd1na2vs0mg"},{"bike_id":"eafdced8-1196-4f3e-8a1f-747c119e41dc","system_id":"levelo_inurba_marseille","lat":43.231505,"lon":5.437165,"is_reserved":false,"is_disabled":false,"rental_uris":{"android":"levelo://app?vid=eafdced8-1196-4f3e-8a1f-747c119e41dc","ios":"levelo://app?vid=eafdced8-1196-4f3e-8a1f-747c119e41dc"},"vehicle_type_id":"4","last_reported":1758017448,"current_range_meters":19600,"station_id":"ce4bhmp2rcd13ifvqgog","pricing_plan_id":"cebpf4jnsgd1na2vs0mg"},{"bike_id":"4cf2a432-f926-4917-afcc-3fb4d29450f6","system_id":"levelo_inurba_marseille","lat":43.30327,"lon":5.40439,"is_reserved":false,"is_disabled":false,"rental_uris":{"android":"levelo://app?vid=4cf2a432-f926-4917-afcc-3fb4d29450f6","ios":"levelo://app?vid=4cf2a432-f926-4917-afcc-3fb4d29450f6"},"vehicle_type_id":"4","last_reported":1758017448,"current_range_meters":19600,"station_id":"ce4bh012rcd13ifvqd10","pricing_plan_id":"cebpf4jnsgd1na2vs0mg"},{"bike_id":"de91248e-7746-48b1-8975-85d2c7b0c7a8","system_id":"levelo_inurba_marseille","lat":43.246339,"lon":5.3812,"is_reserved":false,"is_disabled":false,"rental_uris":{"android":"levelo://app?vid=de91248e-7746-48b1-8975-85d2c7b0c7a8","ios":"levelo://app?vid=de91248e-7746-48b1-8975-85d2c7b0c7a8"},"vehicle_type_id":"4","last_reported":1758017448,"current_range_meters":19600,"station_id":"ce4bhih2rcd13ifvqfr0","pricing_plan_id":"cebpf4jnsgd1na2vs0mg"},{"bike_id":"8084f508-f3b1-438e-a32d-e2b25161aa3b","system_id":"levelo_inurba_marseille","lat":43.26955,"lon":5.38631,"is_reserved":false,"is_disabled":false,"rental_uris":{"android":"levelo://app?vid=8084f508-f3b1-438e-a32d-e2b25161aa3b","ios":"levelo://app?vid=8084f508-f3b1-438e-a32d-e2b25161aa3b"},"vehicle_type_id":"4","last_reported":1758017448,"current_range_meters":20000,"station_id":"ce4bhh92rcd13ifvqfh0","pricing_plan_id":"cebpf4jnsgd1na2vs0mg"},{"bike_id":"8b9120a0-ade2-4bc4-a705-0b82d1ec64c1","system_id":"levelo_inurba_marseille","lat":43.31285,"lon":5.36865,"is_reserved":false,"is_disabled":false,"rental_uris":{"android":"levelo://app?vid=8b9120a0-ade2-4bc4-a705-0b82d1ec64c1","ios":"levelo://app?vid=8b9120a0-ade2-4bc4-a705-0b82d1ec64c1"},"vehicle_type_id":"4","last_reported":1758017448,"current_range_meters":20000,"station_id":"ce4bgl92rcd13ifvqbq0","pricing_plan_id":"cebpf4jnsgd1na2vs0mg"},{"bike_id":"91b7b267-8d5f-4f3d-bd63-2285a4dda8fe","system_id":"levelo_inurba_marseille","lat":43.23145,"lon":5.43713,"is_reserved":false,"is_disabled":false,"rental_uris":{"android":"levelo://app?vid=91b7b267-8d5f-4f3d-bd63-2285a4dda8fe","ios":"levelo://app?vid=91b7b267-8d5f-4f3d-bd63-2285a4dda8fe"},"vehicle_type_id":"4","last_reported":1758017448,"current_range_meters":20000,"station_id":"ce4bhmp2rcd13ifvqgog","pricing_plan_id":"cebpf4jnsgd1na2vs0mg"},{"bike_id":"141fa817-86eb-47c4-9126-4046f87f4222","system_id":"levelo_inurba_marseille","lat":43.31336,"lon":5.37911,"is_reserved":false,"is_disabled":false,"rental_uris":{"android":"levelo://app?vid=141fa817-86eb-47c4-9126-4046f87f4222","ios":"levelo://app?vid=141fa817-86eb-47c4-9126-4046f87f4222"},"vehicle_type_id":"4","last_reported":1758017448,"current_range_meters":20000,"station_id":"","pricing_plan_id":"cebpf4jnsgd1na2vs0mg"},{"bike_id":"49e7f881-1f16-44f4-9040-d324d46fa397","system_id":"levelo_inurba_marseille","lat":43.32104,"lon":5.367761,"is_reserved":false,"is_disabled":false,"rental_uris":{"android":"levelo://app?vid=49e7f881-1f16-44f4-9040-d324d46fa397","ios":"levelo://app?vid=49e7f881-1f16-44f4-9040-d324d46fa397"},"vehicle_type_id":"4","last_reported":1758017448,"current_range_meters":20000,"station_id":"ce4bhrh2rcd13ifvqhug","pricing_plan_id":"cebpf4jnsgd1na2vs0mg"},{"bike_id":"8f0dc60f-9a1b-4505-aee7-b591cbe9b702","system_id":"levelo_inurba_marseille","lat":43.29097,"lon":5.38137,"is_reserved":false,"is_disabled":false,"rental_uris":{"android":"levelo://app?vid=8f0dc60f-9a1b-4505-aee7-b591cbe9b702","ios":"levelo://app?vid=8f0dc60f-9a1b-4505-aee7-b591cbe9b702"},"vehicle_type_id":"4","last_reported":1758017448,"current_range_meters":20000,"station_id":"ce4bh512rcd13ifvqe2g","pricing_plan_id":"cebpf4jnsgd1na2vs0mg"},{"bike_id":"12ed275c-70fb-427c-8a23-83bbe71ff8b9","system_id":"levelo_inurba_marseille","lat":43.24621,"lon":5.43151,"is_reserved":false,"is_disabled":false,"rental_uris":{"android":"levelo://app?vid=12ed275c-70fb-427c-8a23-83bbe71ff8b9","ios":"levelo://app?vid=12ed275c-70fb-427c-8a23-83bbe71ff8b9"},"vehicle_type_id":"4","last_reported":1758017448,"current_range_meters":20000,"station_id":"st_d2m6c4gdas8pm72e190g","pricing_plan_id":"cebpf4jnsgd1na2vs0mg"},{"bike_id":"f7c103d0-ba5f-4a70-8c50-f341e562294a","system_id":"levelo_inurba_marseille","lat":43.2958,"lon":5.38006,"is_reserved":false,"is_disabled":false,"rental_uris":{"android":"levelo://app?vid=f7c103d0-ba5f-4a70-8c50-f341e562294a","ios":"levelo://app?vid=f7c103d0-ba5f-4a70-8c50-f341e562294a"},"vehicle_type_id":"4","last_reported":1758017448,"current_range_meters":20000,"station_id":"","pricing_plan_id":"cebpf4jnsgd1na2vs0mg"},{"bike_id":"fe9409d3-0394-4d4c-aa25-32ff76e4319f","system_id":"levelo_inurba_marseille","lat":43.30801,"lon":5.43527,"is_reserved":false,"is_disabled":false,"rental_uris":{"android":"levelo://app?vid=fe9409d3-0394-4d4c-aa25-32ff76e4319f","ios":"levelo://app?vid=fe9409d3-0394-4d4c-aa25-32ff76e4319f"},"vehicle_type_id":"4","last_reported":1758017448,"current_range_meters":20000,"station_id":"ce4bhph2rcd13ifvqheg","pricing_plan_id":"cebpf4jnsgd1na2vs0mg"},{"bike_id":"48bc3ff5-6c19-40f8-b499-bf7c8d6b9f0a","system_id":"levelo_inurba_marseille","lat":43.3362,"lon":5.40994,"is_reserved":false,"is_disabled":false,"rental_uris":{"android":"levelo://app?vid=48bc3ff5-6c19-40f8-b499-bf7c8d6b9f0a","ios":"levelo://app?vid=48bc3ff5-6c19-40f8-b499-bf7c8d6b9f0a"},"vehicle_type_id":"4","last_reported":1758017448,"current_range_meters":20000,"station_id":"ce4bhqh2rcd13ifvqhmg","pricing_plan_id":"cebpf4jnsgd1na2vs0mg"},{"bike_id":"9b717e40-b361-45f0-a703-618b4dac9174","system_id":"levelo_inurba_marseille","lat":43.30135,"lon":5.37406,"is_reserved":false,"is_disabled":false,"rental_uris":{"android":"levelo://app?vid=9b717e40-b361-45f0-a703-618b4dac9174","ios":"levelo://app?vid=9b717e40-b361-45f0-a703-618b4dac9174"},"vehicle_type_id":"4","last_reported":1758017448,"current_range_meters":20000,"station_id":"ce4bgs92rcd13ifvqcc0","pricing_plan_id":"cebpf4jnsgd1na2vs0mg"},{"bike_id":"baeb5df2-ed48-420d-a44b-b5e9e1c9f604","system_id":"levelo_inurba_marseille","lat":43.301423,"lon":5.374182,"is_reserved":false,"is_disabled":false,"rental_uris":{"android":"levelo://app?vid=baeb5df2-ed48-420d-a44b-b5e9e1c9f604","ios":"levelo://app?vid=baeb5df2-ed48-420d-a44b-b5e9e1c9f604"},"vehicle_type_id":"4","last_reported":1758017448,"current_range_meters":20000,"station_id":"","pricing_plan_id":"cebpf4jnsgd1na2vs0mg"},{"bike_id":"63c2bec2-56ae-42d4-a965-91defc1f04e9","system_id":"levelo_inurba_marseille","lat":43.29697,"lon":5.38016,"is_reserved":false,"is_disabled":false,"rental_uris":{"android":"levelo://app?vid=63c2bec2-56ae-42d4-a965-91defc1f04e9","ios":"levelo://app?vid=63c2bec2-56ae-42d4-a965-91defc1f04e9"},"vehicle_type_id":"4","last_reported":1758017448,"current_range_meters":20400,"station_id":"","pricing_plan_id":"cebpf4jnsgd1na2vs0mg"},{"bike_id":"55dfb17a-dc13-4669-82ac-2c676d600c2d","system_id":"levelo_inurba_marseille","lat":43.31351,"lon":5.37936,"is_reserved":false,"is_disabled":false,"rental_uris":{"android":"levelo://app?vid=55dfb17a-dc13-4669-82ac-2c676d600c2d","ios":"levelo://app?vid=55dfb17a-dc13-4669-82ac-2c676d600c2d"},"vehicle_type_id":"4","last_reported":1758017448,"current_range_meters":20400,"station_id":"","pricing_plan_id":"cebpf4jnsgd1na2vs0mg"},{"bike_id":"714776df-40c3-4776-bf56-c60b7450b546","system_id":"levelo_inurba_marseille","lat":43.3232,"lon":5.36699,"is_reserved":false,"is_disabled":false,"rental_uris":{"android":"levelo://app?vid=714776df-40c3-4776-bf56-c60b7450b546","ios":"levelo://app?vid=714776df-40c3-4776-bf56-c60b7450b546"},"vehicle_type_id":"4","last_reported":1758017448,"current_range_meters":20400,"station_id":"ce4bhsh2rcd13ifvqi2g","pricing_plan_id":"cebpf4jnsgd1na2vs0mg"},{"bike_id":"bbc9e4b4-fd43-4967-aa4e-e05e8411b40d","system_id":"levelo_inurba_marseille","lat":43.295929,"lon":5.375235,"is_reserved":false,"is_disabled":false,"rental_uris":{"android":"levelo://app?vid=bbc9e4b4-fd43-4967-aa4e-e05e8411b40d","ios":"levelo://app?vid=bbc9e4b4-fd43-4967-aa4e-e05e8411b40d"},"vehicle_type_id":"4","last_reported":1758017448,"current_range_meters":20400,"station_id":"ce4bgj92rcd13ifvqbd0","pricing_plan_id":"cebpf4jnsgd1na2vs0mg"},{"bike_id":"847c563c-25c6-479b-b033-458d474a63df","system_id":"levelo_inurba_marseille","lat":43.30888,"lon":5.36881,"is_reserved":false,"is_disabled":false,"rental_uris":{"android":"levelo://app?vid=847c563c-25c6-479b-b033-458d474a63df","ios":"levelo://app?vid=847c563c-25c6-479b-b033-458d474a63df"},"vehicle_type_id":"4","last_reported":1758017448,"current_range_meters":20400,"station_id":"ce4bgn92rcd13ifvqbvg","pricing_plan_id":"cebpf4jnsgd1na2vs0mg"},{"bike_id":"06f2b59e-ada7-47da-ac8b-cdb8a6e9bb65","system_id":"levelo_inurba_marseille","lat":43.30906,"lon":5.36856,"is_reserved":false,"is_disabled":false,"rental_uris":{"android":"levelo://app?vid=06f2b59e-ada7-47da-ac8b-cdb8a6e9bb65","ios":"levelo://app?vid=06f2b59e-ada7-47da-ac8b-cdb8a6e9bb65"},"vehicle_type_id":"4","last_reported":1758017448,"current_range_meters":20400,"station_id":"ce4bgn92rcd13ifvqbvg","pricing_plan_id":"cebpf4jnsgd1na2vs0mg"},{"bike_id":"0a0ae3d4-b2a8-449b-bbeb-2458398497f6","system_id":"levelo_inurba_marseille","lat":43.312221,"lon":5.368724,"is_reserved":false,"is_disabled":false,"rental_uris":{"android":"levelo://app?vid=0a0ae3d4-b2a8-449b-bbeb-2458398497f6","ios":"levelo://app?vid=0a0ae3d4-b2a8-449b-bbeb-2458398497f6"},"vehicle_type_id":"4","last_reported":1758017448,"current_range_meters":20400,"station_id":"ce4bgl92rcd13ifvqbq0","pricing_plan_id":"cebpf4jnsgd1na2vs0mg"},