{"last_updated":1781596236,"ttl":60,"version":"2.2","data":{"bikes":[{"bike_id":"aa997b49-7107-451c-9394-34a2015508bd","system_id":"levelo_inurba_marseille","lat":43.337444,"lon":5.374475,"is_reserved":false,"is_disabled":false,"rental_uris":{"android":"levelo://app?vid=aa997b49-7107-451c-9394-34a2015508bd","ios":"levelo://app?vid=aa997b49-7107-451c-9394-34a2015508bd"},"vehicle_type_id":"4","last_reported":1781596237,"current_range_meters":0,"station_id":"","pricing_plan_id":"cebpf4jnsgd1na2vs0mg"},{"bike_id":"f20c30d3-a689-4bfe-86ed-2563c9c3b77d","system_id":"levelo_inurba_marseille","lat":43.30924,"lon":5.40142,"is_reserved":false,"is_disabled":false,"rental_uris":{"android":"levelo://app?vid=f20c30d3-a689-4bfe-86ed-2563c9c3b77d","ios":"levelo://app?vid=f20c30d3-a689-4bfe-86ed-2563c9c3b77d"},"vehicle_type_id":"4","last_reported":1781596237,"current_range_meters":1200,"station_id":"ce4bgvp2rcd13ifvqct0","pricing_plan_id":"cebpf4jnsgd1na2vs0mg"},{"bike_id":"091e76b8-fcdc-4514-a7ce-e8c3271c57cf","system_id":"levelo_inurba_marseille","lat":43.30299,"lon":5.36889,"is_reserved":false,"is_disabled":false,"rental_uris":{"android":"levelo://app?vid=091e76b8-fcdc-4514-a7ce-e8c3271c57cf","ios":"levelo://app?vid=091e76b8-fcdc-4514-a7ce-e8c3271c57cf"},"vehicle_type_id":"4","last_reported":1781596237,"current_range_meters":1200,"station_id":"ce4bgqh2rcd13ifvqc5g","pricing_plan_id":"cebpf4jnsgd1na2vs0mg"},{"bike_id":"19e1e4a2-a8a6-41eb-9a3b-fd90864c402a","system_id":"levelo_inurba_marseille","lat":43.24963,"lon":5.40476,"is_reserved":false,"is_disabled":false,"rental_uris":{"android":"levelo://app?vid=19e1e4a2-a8a6-41eb-9a3b-fd90864c402a","ios":"levelo://app?vid=19e1e4a2-a8a6-41eb-9a3b-fd90864c402a"},"vehicle_type_id":"4","last_reported":1781596237,"current_range_meters":2800,"station_id":"st_d2ngiaodas8pm72gd1h0","pricing_plan_id":"cebpf4jnsgd1na2vs0mg"},{"bike_id":"16a8babb-6c2c-495e-8729-7c8dedd151bd","system_id":"levelo_inurba_marseille","lat":43.31882,"lon":5.36815,"is_reserved":false,"is_disabled":false,"rental_uris":{"android":"levelo://app?vid=16a8babb-6c2c-495e-8729-7c8dedd151bd","ios":"levelo://app?vid=16a8babb-6c2c-495e-8729-7c8dedd151bd"},"vehicle_type_id":"4","last_reported":1781596237,"current_range_meters":2800,"station_id":"st_d6o2h0d0559c73evc1b0","pricing_plan_id":"cebpf4jnsgd1na2vs0mg"},{"bike_id":"b386797a-6f94-4d27-811b-cd60a0731c37","system_id":"levelo_inurba_marseille","lat":43.29795,"lon":5.38082,"is_reserved":false,"is_disabled":false,"rental_uris":{"android":"levelo://app?vid=b386797a-6f94-4d27-811b-cd60a0731c37","ios":"levelo://app?vid=b386797a-6f94-4d27-811b-cd60a0731c37"},"vehicle_type_id":"4","last_reported":1781596237,"current_range_meters":2800,"station_id":"ce4bgip2rcd13ifvqbb0","pricing_plan_id":"cebpf4jnsgd1na2vs0mg"},{"bike_id":"936dfda5-be18-4412-a93f-8c09c57a8772","system_id":"levelo_inurba_marseille","lat":43.29268,"lon":5.37495,"is_reserved":false,"is_disabled":false,"rental_uris":{"android":"levelo://app?vid=936dfda5-be18-4412-a93f-8c09c57a8772","ios":"levelo://app?vid=936dfda5-be18-4412-a93f-8c09c57a8772"},"vehicle_type_id":"4","last_reported":1781596237,"current_range_meters":2800,"station_id":"ce4bgi12rcd13ifvqb70","pricing_plan_id":"cebpf4jnsgd1na2vs0mg"},{"bike_id":"3eaed9f7-b6d6-4461-9d7b-13a9b0b83cfb","system_id":"levelo_inurba_marseille","lat":43.231494,"lon":5.437074,"is_reserved":false,"is_disabled":false,"rental_uris":{"android":"levelo://app?vid=3eaed9f7-b6d6-4461-9d7b-13a9b0b83cfb","ios":"levelo://app?vid=3eaed9f7-b6d6-4461-9d7b-13a9b0b83cfb"},"vehicle_type_id":"4","last_reported":1781596237,"current_range_meters":2800,"station_id":"ce4bhmp2rcd13ifvqgog","pricing_plan_id":"cebpf4jnsgd1na2vs0mg"},{"bike_id":"82d81374-4fb4-47be-8b7b-917755afa823","system_id":"levelo_inurba_marseille","lat":43.2949,"lon":5.4331,"is_reserved":false,"is_disabled":false,"rental_uris":{"android":"levelo://app?vid=82d81374-4fb4-47be-8b7b-917755afa823","ios":"levelo://app?vid=82d81374-4fb4-47be-8b7b-917755afa823"},"vehicle_type_id":"4","last_reported":1781596237,"current_range_meters":2800,"station_id":"st_d3j5ugp08ojc73fj9d10","pricing_plan_id":"cebpf4jnsgd1na2vs0mg"},{"bike_id":"8993ceac-08c5-4594-8d8f-7f015569df33","system_id":"levelo_inurba_marseille","lat":43.28475,"lon":5.38411,"is_reserved":false,"is_disabled":false,"rental_uris":{"android":"levelo://app?vid=8993ceac-08c5-4594-8d8f-7f015569df33","ios":"levelo://app?vid=8993ceac-08c5-4594-8d8f-7f015569df33"},"vehicle_type_id":"4","last_reported":1781596237,"current_range_meters":2800,"station_id":"ce4bh512rcd13ifvqe3g","pricing_plan_id":"cebpf4jnsgd1na2vs0mg"},{"bike_id":"559e7685-b413-4ce6-9a78-44309b581920","system_id":"levelo_inurba_marseille","lat":43.29688,"lon":5.36963,"is_reserved":false,"is_disabled":false,"rental_uris":{"android":"levelo://app?vid=559e7685-b413-4ce6-9a78-44309b581920","ios":"levelo://app?vid=559e7685-b413-4ce6-9a78-44309b581920"},"vehicle_type_id":"4","last_reported":1781596237,"current_range_meters":2800,"station_id":"","pricing_plan_id":"cebpf4jnsgd1na2vs0mg"},{"bike_id":"480c8d6a-9b5f-48ac-baa4-8f936a5cba2b","system_id":"levelo_inurba_marseille","lat":43.29025,"lon":5.3813,"is_reserved":false,"is_disabled":true,"rental_uris":{"android":"levelo://app?vid=480c8d6a-9b5f-48ac-baa4-8f936a5cba2b","ios":"levelo://app?vid=480c8d6a-9b5f-48ac-baa4-8f936a5cba2b"},"vehicle_type_id":"4","last_reported":1781596237,"current_range_meters":2800,"station_id":"ce4bh4p2rcd13ifvqe1g","pricing_plan_id":"cebpf4jnsgd1na2vs0mg"},{"bike_id":"dcd3d462-d0c5-4d07-90df-bc080d656cb6","system_id":"levelo_inurba_marseille","lat":43.29774,"lon":5.38538,"is_reserved":false,"is_disabled":false,"rental_uris":{"android":"levelo://app?vid=dcd3d462-d0c5-4d07-90df-bc080d656cb6","ios":"levelo://app?vid=dcd3d462-d0c5-4d07-90df-bc080d656cb6"},"vehicle_type_id":"4","last_reported":1781596237,"current_range_meters":2800,"station_id":"","pricing_plan_id":"cebpf4jnsgd1na2vs0mg"},{"bike_id":"e3a905d4-c9c3-4770-b82f-da66d38b2d76","system_id":"levelo_inurba_marseille","lat":43.25084,"lon":5.39499,"is_reserved":false,"is_disabled":false,"rental_uris":{"android":"levelo://app?vid=e3a905d4-c9c3-4770-b82f-da66d38b2d76","ios":"levelo://app?vid=e3a905d4-c9c3-4770-b82f-da66d38b2d76"},"vehicle_type_id":"4","last_reported":1781596237,"current_range_meters":2800,"station_id":"ce4bhm12rcd13ifvqgkg","pricing_plan_id":"cebpf4jnsgd1na2vs0mg"},{"bike_id":"10ae738d-d002-42f9-bf2c-3e00b52c1c42","system_id":"levelo_inurba_marseille","lat":43.29043,"lon":5.37567,"is_reserved":false,"is_disabled":false,"rental_uris":{"android":"levelo://app?vid=10ae738d-d002-42f9-bf2c-3e00b52c1c42","ios":"levelo://app?vid=10ae738d-d002-42f9-bf2c-3e00b52c1c42"},"vehicle_type_id":"4","last_reported":1781596237,"current_range_meters":2800,"station_id":"ce4bh692rcd13ifvqe90","pricing_plan_id":"cebpf4jnsgd1na2vs0mg"},{"bike_id":"46142ebd-3de9-448d-855f-36bd87e5fd0b","system_id":"levelo_inurba_marseille","lat":43.24064,"lon":5.37759,"is_reserved":false,"is_disabled":false,"rental_uris":{"android":"levelo://app?vid=46142ebd-3de9-448d-855f-36bd87e5fd0b","ios":"levelo://app?vid=46142ebd-3de9-448d-855f-36bd87e5fd0b"},"vehicle_type_id":"4","last_reported":1781596237,"current_range_meters":3200,"station_id":"ce4bhnp2rcd13ifvqgvg","pricing_plan_id":"cebpf4jnsgd1na2vs0mg"},{"bike_id":"2b0774fd-df4e-4faa-94e4-5ca52189b44e","system_id":"levelo_inurba_marseille","lat":43.29183,"lon":5.35981,"is_reserved":false,"is_disabled":true,"rental_uris":{"android":"levelo://app?vid=2b0774fd-df4e-4faa-94e4-5ca52189b44e","ios":"levelo://app?vid=2b0774fd-df4e-4faa-94e4-5ca52189b44e"},"vehicle_type_id":"4","last_reported":1781596237,"current_range_meters":3200,"station_id":"","pricing_plan_id":"cebpf4jnsgd1na2vs0mg"},{"bike_id":"5bc84a42-041f-41bc-97a6-acdafa8686cf","system_id":"levelo_inurba_marseille","lat":43.31219,"lon":5.36851,"is_reserved":false,"is_disabled":false,"rental_uris":{"android":"levelo://app?vid=5bc84a42-041f-41bc-97a6-acdafa8686cf","ios":"levelo://app?vid=5bc84a42-041f-41bc-97a6-acdafa8686cf"},"vehicle_type_id":"4","last_reported":1781596237,"current_range_meters":3200,"station_id":"ce4bgl92rcd13ifvqbq0","pricing_plan_id":"cebpf4jnsgd1na2vs0mg"},{"bike_id":"a1821697-2b4c-487e-8864-601e3fd2c0ca","system_id":"levelo_inurba_marseille","lat":43.31191,"lon":5.36794,"is_reserved":false,"is_disabled":false,"rental_uris":{"android":"levelo://app?vid=a1821697-2b4c-487e-8864-601e3fd2c0ca","ios":"levelo://app?vid=a1821697-2b4c-487e-8864-601e3fd2c0ca"},"vehicle_type_id":"4","last_reported":1781596237,"current_range_meters":3200,"station_id":"","pricing_plan_id":"cebpf4jnsgd1na2vs0mg"},{"bike_id":"5facccd1-eb1b-491a-8e59-a9747c3934ea","system_id":"levelo_inurba_marseille","lat":43.286168,"lon":5.3987,"is_reserved":false,"is_disabled":false,"rental_uris":{"android":"levelo://app?vid=5facccd1-eb1b-491a-8e59-a9747c3934ea","ios":"levelo://app?vid=5facccd1-eb1b-491a-8e59-a9747c3934ea"},"vehicle_type_id":"4","last_reported":1781596237,"current_range_meters":3200,"station_id":"st_d4a7ka997mjs738ck50g","pricing_plan_id":"cebpf4jnsgd1na2vs0mg"},{"bike_id":"14e43900-63e6-455b-8e9e-136684ce88ca","system_id":"levelo_inurba_marseille","lat":43.29294,"lon":5.37467,"is_reserved":false,"is_disabled":false,"rental_uris":{"android":"levelo://app?vid=14e43900-63e6-455b-8e9e-136684ce88ca","ios":"levelo://app?vid=14e43900-63e6-455b-8e9e-136684ce88ca"},"vehicle_type_id":"4","last_reported":1781596237,"current_range_meters":3200,"station_id":"ce4bgi12rcd13ifvqb70","pricing_plan_id":"cebpf4jnsgd1na2vs0mg"},{"bike_id":"b1a7b4e2-c4de-4929-b9de-8b1c38cd950b","system_id":"levelo_inurba_marseille","lat":43.30849,"lon":5.3831,"is_reserved":false,"is_disabled":false,"rental_uris":{"android":"levelo://app?vid=b1a7b4e2-c4de-4929-b9de-8b1c38cd950b","ios":"levelo://app?vid=b1a7b4e2-c4de-4929-b9de-8b1c38cd950b"},"vehicle_type_id":"4","last_reported":1781596237,"current_range_meters":3200,"station_id":"","pricing_plan_id":"cebpf4jnsgd1na2vs0mg"},{"bike_id":"59859869-1d08-4255-aed5-3178217b2d8d","system_id":"levelo_inurba_marseille","lat":43.25935,"lon":5.40909,"is_reserved":false,"is_disabled":false,"rental_uris":{"android":"levelo://app?vid=59859869-1d08-4255-aed5-3178217b2d8d","ios":"levelo://app?vid=59859869-1d08-4255-aed5-3178217b2d8d"},"vehicle_type_id":"4","last_reported":1781596237,"current_range_meters":3200,"station_id":"ce4bhm92rcd13ifvqglg","pricing_plan_id":"cebpf4jnsgd1na2vs0mg"},{"bike_id":"fe17abf5-a8b7-44ea-a779-8c4eae17cc21","system_id":"levelo_inurba_marseille","lat":43.26661,"lon":5.38289,"is_reserved":false,"is_disabled":false,"rental_uris":{"android":"levelo://app?vid=fe17abf5-a8b7-44ea-a779-8c4eae17cc21","ios":"levelo://app?vid=fe17abf5-a8b7-44ea-a779-8c4eae17cc21"},"vehicle_type_id":"4","last_reported":1781596237,"current_range_meters":3200,"station_id":"ce4bhg92rcd13ifvqf90","pricing_plan_id":"cebpf4jnsgd1na2vs0mg"},{"bike_id":"5ff5bf73-eda2-471b-b651-43b5f50ff5f3","system_id":"levelo_inurba_marseille","lat":43.30931,"lon":5.36831,"is_reserved":false,"is_disabled":false,"rental_uris":{"android":"levelo://app?vid=5ff5bf73-eda2-471b-b651-43b5f50ff5f3","ios":"levelo://app?vid=5ff5bf73-eda2-471b-b651-43b5f50ff5f3"},"vehicle_type_id":"4","last_reported":1781596237,"current_range_meters":3200,"station_id":"ce4bgn92rcd13ifvqbvg","pricing_plan_id":"cebpf4jnsgd1na2vs0mg"},{"bike_id":"ede501e1-ac6b-419f-91d8-52a9e484b3db","system_id":"levelo_inurba_marseille","lat":43.27093,"lon":5.42286,"is_reserved":false,"is_disabled":true,"rental_uris":{"android":"levelo://app?vid=ede501e1-ac6b-419f-91d8-52a9e484b3db","ios":"levelo://app?vid=ede501e1-ac6b-419f-91d8-52a9e484b3db"},"vehicle_type_id":"4","last_reported":1781596237,"current_range_meters":3200,"station_id":"ce4bhk92rcd13ifvqgb0","pricing_plan_id":"cebpf4jnsgd1na2vs0mg"},{"bike_id":"28d68514-628b-497a-8dfc-b15d7e44b891","system_id":"levelo_inurba_marseille","lat":43.29712,"lon":5.36621,"is_reserved":false,"is_disabled":true,"rental_uris":{"android":"levelo://app?vid=28d68514-628b-497a-8dfc-b15d7e44b891","ios":"levelo://app?vid=28d68514-628b-497a-8dfc-b15d7e44b891"},"vehicle_type_id":"4","last_reported":1781596237,"current_range_meters":3200,"station_id":"ce4bgn12rcd13ifvqbt0","pricing_plan_id":"cebpf4jnsgd1na2vs0mg"},{"bike_id":"9e52e5fc-e1d9-4df7-8d60-5ee633d3bd6b","system_id":"levelo_inurba_marseille","lat":43.31253,"lon":5.38469,"is_reserved":false,"is_disabled":false,"rental_uris":{"android":"levelo://app?vid=9e52e5fc-e1d9-4df7-8d60-5ee633d3bd6b","ios":"levelo://app?vid=9e52e5fc-e1d9-4df7-8d60-5ee633d3bd6b"},"vehicle_type_id":"4","last_reported":1781596237,"current_range_meters":3200,"station_id":"","pricing_plan_id":"cebpf4jnsgd1na2vs0mg"},{"bike_id":"ad9fc3d6-18db-47eb-82f7-49728d600a2c","system_id":"levelo_inurba_marseille","lat":43.29128,"lon":5.38072,"is_reserved":false,"is_disabled":false,"rental_uris":{"android":"levelo://app?vid=ad9fc3d6-18db-47eb-82f7-49728d600a2c","ios":"levelo://app?vid=ad9fc3d6-18db-47eb-82f7-49728d600a2c"},"vehicle_type_id":"4","last_reported":1781596237,"current_range_meters":3600,"station_id":"","pricing_plan_id":"cebpf4jnsgd1na2vs0mg"},{"bike_id":"065b6009-2e7a-45cb-bd50-ea574925cd7f","system_id":"levelo_inurba_marseille","lat":43.25427,"lon":5.42745,"is_reserved":false,"is_disabled":false,"rental_uris":{"android":"levelo://app?vid=065b6009-2e7a-45cb-bd50-ea574925cd7f","ios":"levelo://app?vid=065b6009-2e7a-45cb-bd50-ea574925cd7f"},"vehicle_type_id":"4","last_reported":1781596237,"current_range_meters":3600,"station_id":"","pricing_plan_id":"cebpf4jnsgd1na2vs0mg"},{"bike_id":"a34f2957-86a7-4362-a6aa-2f5ed5a651f6","system_id":"levelo_inurba_marseille","lat":43.31413,"lon":5.36719,"is_reserved":false,"is_disabled":true,"rental_uris":{"android":"levelo://app?vid=a34f2957-86a7-4362-a6aa-2f5ed5a651f6","ios":"levelo://app?vid=a34f2957-86a7-4362-a6aa-2f5ed5a651f6"},"vehicle_type_id":"4","last_reported":1781596237,"current_range_meters":3600,"station_id":"","pricing_plan_id":"cebpf4jnsgd1na2vs0mg"},{"bike_id":"9aabb9cd-8524-48e4-bf52-6dd774a8bb60","system_id":"levelo_inurba_marseille","lat":43.32358,"lon":5.36743,"is_reserved":false,"is_disabled":false,"rental_uris":{"android":"levelo://app?vid=9aabb9cd-8524-48e4-bf52-6dd774a8bb60","ios":"levelo://app?vid=9aabb9cd-8524-48e4-bf52-6dd774a8bb60"},"vehicle_type_id":"4","last_reported":1781596237,"current_range_meters":3600,"station_id":"ce4bhsh2rcd13ifvqi2g","pricing_plan_id":"cebpf4jnsgd1na2vs0mg"},{"bike_id":"63787175-31eb-4558-96d5-7ddcc7376d06","system_id":"levelo_inurba_marseille","lat":43.23166,"lon":5.35577,"is_reserved":false,"is_disabled":false,"rental_uris":{"android":"levelo://app?vid=63787175-31eb-4558-96d5-7ddcc7376d06","ios":"levelo://app?vid=63787175-31eb-4558-96d5-7ddcc7376d06"},"vehicle_type_id":"4","last_reported":1781596237,"current_range_meters":3600,"station_id":"ce4bhu92rcd13ifvqi70","pricing_plan_id":"cebpf4jnsgd1na2vs0mg"},{"bike_id":"8dbdffd6-18cf-432c-9bd5-7d3e1f87b52d","system_id":"levelo_inurba_marseille","lat":43.23965,"lon":5.36628,"is_reserved":false,"is_disabled":false,"rental_uris":{"android":"levelo://app?vid=8dbdffd6-18cf-432c-9bd5-7d3e1f87b52d","ios":"levelo://app?vid=8dbdffd6-18cf-432c-9bd5-7d3e1f87b52d"},"vehicle_type_id":"4","last_reported":1781596237,"current_range_meters":3600,"station_id":"ce4bhi12rcd13ifvqfp0","pricing_plan_id":"cebpf4jnsgd1na2vs0mg"},{"bike_id":"ac0387b8-b30c-4b5d-ad98-7280018d1aa7","system_id":"levelo_inurba_marseille","lat":43.24664,"lon":5.38148,"is_reserved":false,"is_disabled":false,"rental_uris":{"android":"levelo://app?vid=ac0387b8-b30c-4b5d-ad98-7280018d1aa7","ios":"levelo://app?vid=ac0387b8-b30c-4b5d-ad98-7280018d1aa7"},"vehicle_type_id":"4","last_reported":1781596237,"current_range_meters":3600,"station_id":"ce4bhih2rcd13ifvqfr0","pricing_plan_id":"cebpf4jnsgd1na2vs0mg"},{"bike_id":"1c1e003d-d96e-41d2-8037-f2baed700164","system_id":"levelo_inurba_marseille","lat":43.309,"lon":5.36869,"is_reserved":false,"is_disabled":false,"rental_uris":{"android":"levelo://app?vid=1c1e003d-d96e-41d2-8037-f2baed700164","ios":"levelo://app?vid=1c1e003d-d96e-41d2-8037-f2baed700164"},"vehicle_type_id":"4","last_reported":1781596237,"current_range_meters":3600,"station_id":"ce4bgn92rcd13ifvqbvg","pricing_plan_id":"cebpf4jnsgd1na2vs0mg"},{"bike_id":"be5704b1-e64f-4576-bbc5-c2fe2d2d07d5","system_id":"levelo_inurba_marseille","lat":43.31331,"lon":5.36711,"is_reserved":false,"is_disabled":false,"rental_uris":{"android":"levelo://app?vid=be5704b1-e64f-4576-bbc5-c2fe2d2d07d5","ios":"levelo://app?vid=be5704b1-e64f-4576-bbc5-c2fe2d2d07d5"},"vehicle_type_id":"4","last_reported":1781596237,"current_range_meters":3600,"station_id":"ce4bgr92rcd13ifvqc6g","pricing_plan_id":"cebpf4jnsgd1na2vs0mg"},{"bike_id":"7d52ecc5-6050-4293-9a52-e51342dbfe2a","system_id":"levelo_inurba_marseille","lat":43.31217,"lon":5.36826,"is_reserved":false,"is_disabled":false,"rental_uris":{"android":"levelo://app?vid=7d52ecc5-6050-4293-9a52-e51342dbfe2a","ios":"levelo://app?vid=7d52ecc5-6050-4293-9a52-e51342dbfe2a"},"vehicle_type_id":"4","last_reported":1781596237,"current_range_meters":3600,"station_id":"ce4bgl92rcd13ifvqbq0","pricing_plan_id":"cebpf4jnsgd1na2vs0mg"},{"bike_id":"c2cdc4fb-c88c-40fe-9359-d929da0af253","system_id":"levelo_inurba_marseille","lat":43.225344,"lon":5.348326,"is_reserved":false,"is_disabled":false,"rental_uris":{"android":"levelo://app?vid=c2cdc4fb-c88c-40fe-9359-d929da0af253","ios":"levelo://app?vid=c2cdc4fb-c88c-40fe-9359-d929da0af253"},"vehicle_type_id":"4","last_reported":1781596237,"current_range_meters":3600,"station_id":"st_cvj5dfep6f1abm77gieg","pricing_plan_id":"cebpf4jnsgd1na2vs0mg"},{"bike_id":"4dda2717-19b7-4c1b-8217-0b2a9fae8a2e","system_id":"levelo_inurba_marseille","lat":43.31699,"lon":5.37792,"is_reserved":false,"is_disabled":false,"rental_uris":{"android":"levelo://app?vid=4dda2717-19b7-4c1b-8217-0b2a9fae8a2e","ios":"levelo://app?vid=4dda2717-19b7-4c1b-8217-0b2a9fae8a2e"},"vehicle_type_id":"4","last_reported":1781596237,"current_range_meters":3600,"station_id":"ce4bgth2rcd13ifvqch0","pricing_plan_id":"cebpf4jnsgd1na2vs0mg"},{"bike_id":"e554398a-9030-41f3-bb44-77777ba9a348","system_id":"levelo_inurba_marseille","lat":43.293819,"lon":5.372818,"is_reserved":false,"is_disabled":false,"rental_uris":{"android":"levelo://app?vid=e554398a-9030-41f3-bb44-77777ba9a348","ios":"levelo://app?vid=e554398a-9030-41f3-bb44-77777ba9a348"},"vehicle_type_id":"4","last_reported":1781596237,"current_range_meters":3600,"station_id":"ce4bgh92rcd13ifvqb40","pricing_plan_id":"cebpf4jnsgd1na2vs0mg"},{"bike_id":"8e03a099-3603-4e3e-ae5e-b9e0742fdeae","system_id":"levelo_inurba_marseille","lat":43.286,"lon":5.39904,"is_reserved":false,"is_disabled":true,"rental_uris":{"android":"levelo://app?vid=8e03a099-3603-4e3e-ae5e-b9e0742fdeae","ios":"levelo://app?vid=8e03a099-3603-4e3e-ae5e-b9e0742fdeae"},"vehicle_type_id":"4","last_reported":1781596237,"current_range_meters":3600,"station_id":"ce4bho92rcd13ifvqh3g","pricing_plan_id":"cebpf4jnsgd1na2vs0mg"},{"bike_id":"1f3f27c8-d8d1-4f39-8ef1-9165723bd20e","system_id":"levelo_inurba_marseille","lat":43.30338,"lon":5.40718,"is_reserved":false,"is_disabled":false,"rental_uris":{"android":"levelo://app?vid=1f3f27c8-d8d1-4f39-8ef1-9165723bd20e","ios":"levelo://app?vid=1f3f27c8-d8d1-4f39-8ef1-9165723bd20e"},"vehicle_type_id":"4","last_reported":1781596237,"current_range_meters":3600,"station_id":"","pricing_plan_id":"cebpf4jnsgd1na2vs0mg"},{"bike_id":"719e511b-3d56-42bb-bd13-9807736e0037","system_id":"levelo_inurba_marseille","lat":43.24774,"lon":5.37441,"is_reserved":false,"is_disabled":false,"rental_uris":{"android":"levelo://app?vid=719e511b-3d56-42bb-bd13-9807736e0037","ios":"levelo://app?vid=719e511b-3d56-42bb-bd13-9807736e0037"},"vehicle_type_id":"4","last_reported":1781596237,"current_range_meters":4000,"station_id":"ce4bhgh2rcd13ifvqfb0","pricing_plan_id":"cebpf4jnsgd1na2vs0mg"},{"bike_id":"a7423333-6c27-4dfa-8b68-5eb468877668","system_id":"levelo_inurba_marseille","lat":43.32495,"lon":5.38291,"is_reserved":false,"is_disabled":false,"rental_uris":{"android":"levelo://app?vid=a7423333-6c27-4dfa-8b68-5eb468877668","ios":"levelo://app?vid=a7423333-6c27-4dfa-8b68-5eb468877668"},"vehicle_type_id":"4","last_reported":1781596237,"current_range_meters":4000,"station_id":"st_d4asgbiv49dc73anf9m0","pricing_plan_id":"cebpf4jnsgd1na2vs0mg"},{"bike_id":"f2147611-27bf-42ae-ac2c-97c355791add","system_id":"levelo_inurba_marseille","lat":43.2902,"lon":5.38138,"is_reserved":false,"is_disabled":false,"rental_uris":{"android":"levelo://app?vid=f2147611-27bf-42ae-ac2c-97c355791add","ios":"levelo://app?vid=f2147611-27bf-42ae-ac2c-97c355791add"},"vehicle_type_id":"4","last_reported":1781596237,"current_range_meters":4000,"station_id":"ce4bh4p2rcd13ifvqe1g","pricing_plan_id":"cebpf4jnsgd1na2vs0mg"},{"bike_id":"17180ebe-55c3-43c4-baf2-f968c9e4fb21","system_id":"levelo_inurba_marseille","lat":43.24568,"lon":5.41622,"is_reserved":false,"is_disabled":false,"rental_uris":{"android":"levelo://app?vid=17180ebe-55c3-43c4-baf2-f968c9e4fb21","ios":"levelo://app?vid=17180ebe-55c3-43c4-baf2-f968c9e4fb21"},"vehicle_type_id":"4","last_reported":1781596237,"current_range_meters":4000,"station_id":"","pricing_plan_id":"cebpf4jnsgd1na2vs0mg"},{"bike_id":"cf738518-8c8a-4295-9678-1a955c521a10","system_id":"levelo_inurba_marseille","lat":43.24482,"lon":5.42538,"is_reserved":false,"is_disabled":true,"rental_uris":{"android":"levelo://app?vid=cf738518-8c8a-4295-9678-1a955c521a10","ios":"levelo://app?vid=cf738518-8c8a-4295-9678-1a955c521a10"},"vehicle_type_id":"4","last_reported":1781596237,"current_range_meters":4000,"station_id":"st_d4a3vfp97mjs738cd8kg","pricing_plan_id":"cebpf4jnsgd1na2vs0mg"},{"bike_id":"0ed74b88-02bb-4e6a-bac8-0265efdf81e4","system_id":"levelo_inurba_marseille","lat":43.21745,"lon":5.34589,"is_reserved":false,"is_disabled":true,"rental_uris":{"android":"levelo://app?vid=0ed74b88-02bb-4e6a-bac8-0265efdf81e4","ios":"levelo://app?vid=0ed74b88-02bb-4e6a-bac8-0265efdf81e4"},"vehicle_type_id":"4","last_reported":1781596237,"current_range_meters":4000,"station_id":"st_cvj6r9ubvosntc0bgbag","pricing_plan_id":"cebpf4jnsgd1na2vs0mg"},{"bike_id":"d27f1b82-f6a1-46ff-8f2b-1d48ea3e4d67","system_id":"levelo_inurba_marseille","lat":43.23057,"lon":5.35505,"is_reserved":false,"is_disabled":false,"rental_uris":{"android":"levelo://app?vid=d27f1b82-f6a1-46ff-8f2b-1d48ea3e4d67","ios":"levelo://app?vid=d27f1b82-f6a1-46ff-8f2b-1d48ea3e4d67"},"vehicle_type_id":"4","last_reported":1781596237,"current_range_meters":4000,"station_id":"cpo3342slgdg3j2ifvpg","pricing_plan_id":"cebpf4jnsgd1na2vs0mg"},{"bike_id":"27c9adf0-5a2d-4b40-a0d2-7e33166d8640","system_id":"levelo_inurba_marseille","lat":43.28,"lon":5.38674,"is_reserved":false,"is_disabled":true,"rental_uris":{"android":"levelo://app?vid=27c9adf0-5a2d-4b40-a0d2-7e33166d8640","ios":"levelo://app?vid=27c9adf0-5a2d-4b40-a0d2-7e33166d8640"},"vehicle_type_id":"4","last_reported":1781596237,"current_range_meters":4000,"station_id":"","pricing_plan_id":"cebpf4jnsgd1na2vs0mg"},{"bike_id":"9743948b-c46e-4e8f-a6f3-84b573fce9b8","system_id":"levelo_inurba_marseille","lat":43.28066,"lon":5.35342,"is_reserved":false,"is_disabled":true,"rental_uris":{"android":"levelo://app?vid=9743948b-c46e-4e8f-a6f3-84b573fce9b8","ios":"levelo://app?vid=9743948b-c46e-4e8f-a6f3-84b573fce9b8"},"vehicle_type_id":"4","last_reported":1781596237,"current_range_meters":4000,"station_id":"","pricing_plan_id":"cebpf4jnsgd1na2vs0mg"},{"bike_id":"e24ee435-28fc-4183-a5b5-680e22b01863","system_id":"levelo_inurba_marseille","lat":43.23193,"lon":5.3555,"is_reserved":false,"is_disabled":false,"rental_uris":{"android":"levelo://app?vid=e24ee435-28fc-4183-a5b5-680e22b01863","ios":"levelo://app?vid=e24ee435-28fc-4183-a5b5-680e22b01863"},"vehicle_type_id":"4","last_reported":1781596237,"current_range_meters":4000,"station_id":"ce4bhu92rcd13ifvqi70","pricing_plan_id":"cebpf4jnsgd1na2vs0mg"},{"bike_id":"6edd77a1-681d-4a38-8b0b-415104a5228b","system_id":"levelo_inurba_marseille","lat":43.26556,"lon":5.4032,"is_reserved":false,"is_disabled":false,"rental_uris":{"android":"levelo://app?vid=6edd77a1-681d-4a38-8b0b-415104a5228b","ios":"levelo://app?vid=6edd77a1-681d-4a38-8b0b-415104a5228b"},"vehicle_type_id":"4","last_reported":1781596237,"current_range_meters":4000,"station_id":"ce4bhmp2rcd13ifvqgng","pricing_plan_id":"cebpf4jnsgd1na2vs0mg"},{"bike_id":"e0feb090-02e8-435b-988a-cbd276485185","system_id":"levelo_inurba_marseille","lat":43.2849,"lon":5.38417,"is_reserved":false,"is_disabled":true,"rental_uris":{"android":"levelo://app?vid=e0feb090-02e8-435b-988a-cbd276485185","ios":"levelo://app?vid=e0feb090-02e8-435b-988a-cbd276485185"},"vehicle_type_id":"4","last_reported":1781596237,"current_range_meters":4000,"station_id":"ce4bh512rcd13ifvqe3g","pricing_plan_id":"cebpf4jnsgd1na2vs0mg"},{"bike_id":"f96a82cf-2478-478f-a02f-07c9cfa3e703","system_id":"levelo_inurba_marseille","lat":43.30461,"lon":5.37912,"is_reserved":false,"is_disabled":false,"rental_uris":{"android":"levelo://app?vid=f96a82cf-2478-478f-a02f-07c9cfa3e703","ios":"levelo://app?vid=f96a82cf-2478-478f-a02f-07c9cfa3e703"},"vehicle_type_id":"4","last_reported":1781596237,"current_range_meters":4000,"station_id":"ce4bgup2rcd13ifvqcn0","pricing_plan_id":"cebpf4jnsgd1na2vs0mg"},{"bike_id":"64a70af1-09eb-4ba9-b431-77cc40355826","system_id":"levelo_inurba_marseille","lat":43.30945,"lon":5.39037,"is_reserved":false,"is_disabled":false,"rental_uris":{"android":"levelo://app?vid=64a70af1-09eb-4ba9-b431-77cc40355826","ios":"levelo://app?vid=64a70af1-09eb-4ba9-b431-77cc40355826"},"vehicle_type_id":"4","last_reported":1781596237,"current_range_meters":4000,"station_id":"ce4bgup2rcd13ifvqco0","pricing_plan_id":"cebpf4jnsgd1na2vs0mg"},{"bike_id":"e5fc4621-c5a4-4c12-9489-89d196f79039","system_id":"levelo_inurba_marseille","lat":43.29374,"lon":5.37858,"is_reserved":false,"is_disabled":false,"rental_uris":{"android":"levelo://app?vid=e5fc4621-c5a4-4c12-9489-89d196f79039","ios":"levelo://app?vid=e5fc4621-c5a4-4c12-9489-89d196f79039"},"vehicle_type_id":"4","last_reported":1781596237,"current_range_meters":4000,"station_id":"ce4bgjh2rcd13ifvqbf0","pricing_plan_id":"cebpf4jnsgd1na2vs0mg"},{"bike_id":"85966d85-f405-4b8d-8627-a33ebd9b258f","system_id":"levelo_inurba_marseille","lat":43.28689,"lon":5.46891,"is_reserved":false,"is_disabled":false,"rental_uris":{"android":"levelo://app?vid=85966d85-f405-4b8d-8627-a33ebd9b258f","ios":"levelo://app?vid=85966d85-f405-4b8d-8627-a33ebd9b258f"},"vehicle_type_id":"4","last_reported":1781596237,"current_range_meters":4000,"station_id":"","pricing_plan_id":"cebpf4jnsgd1na2vs0mg"},{"bike_id":"198213cd-6c32-46ac-9299-65cb1e70e364","system_id":"levelo_inurba_marseille","lat":43.29555,"lon":5.42295,"is_reserved":false,"is_disabled":false,"rental_uris":{"android":"levelo://app?vid=198213cd-6c32-46ac-9299-65cb1e70e364","ios":"levelo://app?vid=198213cd-6c32-46ac-9299-65cb1e70e364"},"vehicle_type_id":"4","last_reported":1781596237,"current_range_meters":4000,"station_id":"ce4bhph2rcd13ifvqhdg","pricing_plan_id":"cebpf4jnsgd1na2vs0mg"},{"bike_id":"d932a5be-13d7-4c2c-8061-c002db7b6b3a","system_id":"levelo_inurba_marseille","lat":43.28397,"lon":5.45942,"is_reserved":false,"is_disabled":false,"rental_uris":{"android":"levelo://app?vid=d932a5be-13d7-4c2c-8061-c002db7b6b3a","ios":"levelo://app?vid=d932a5be-13d7-4c2c-8061-c002db7b6b3a"},"vehicle_type_id":"4","last_reported":1781596237,"current_range_meters":4000,"station_id":"","pricing_plan_id":"cebpf4jnsgd1na2vs0mg"},{"bike_id":"9d50f63e-5200-4887-a517-fe7fb178b3b7","system_id":"levelo_inurba_marseille","lat":43.2991,"lon":5.38763,"is_reserved":false,"is_disabled":false,"rental_uris":{"android":"levelo://app?vid=9d50f63e-5200-4887-a517-fe7fb178b3b7","ios":"levelo://app?vid=9d50f63e-5200-4887-a517-fe7fb178b3b7"},"vehicle_type_id":"4","last_reported":1781596237,"current_range_meters":4000,"station_id":"","pricing_plan_id":"cebpf4jnsgd1na2vs0mg"},{"bike_id":"4abbd38b-a90d-4a66-9195-882e1426f7a6","system_id":"levelo_inurba_marseille","lat":43.33534,"lon":5.37468,"is_reserved":false,"is_disabled":false,"rental_uris":{"android":"levelo://app?vid=4abbd38b-a90d-4a66-9195-882e1426f7a6","ios":"levelo://app?vid=4abbd38b-a90d-4a66-9195-882e1426f7a6"},"vehicle_type_id":"4","last_reported":1781596237,"current_range_meters":4000,"station_id":"st_d46tts09ee8s73dlu43g","pricing_plan_id":"cebpf4jnsgd1na2vs0mg"},{"bike_id":"61192ebe-27e0-45e0-be33-ab2a7ff89581","system_id":"levelo_inurba_marseille","lat":43.31377,"lon":5.38489,"is_reserved":false,"is_disabled":false,"rental_uris":{"android":"levelo://app?vid=61192ebe-27e0-45e0-be33-ab2a7ff89581","ios":"levelo://app?vid=61192ebe-27e0-45e0-be33-ab2a7ff89581"},"vehicle_type_id":"4","last_reported":1781596237,"current_range_meters":4000,"station_id":"ce4bgt92rcd13ifvqcf0","pricing_plan_id":"cebpf4jnsgd1na2vs0mg"},{"bike_id":"2123c7ab-875f-4b38-8ccb-b36a19d2969c","system_id":"levelo_inurba_marseille","lat":43.32072,"lon":5.3745,"is_reserved":false,"is_disabled":false,"rental_uris":{"android":"levelo://app?vid=2123c7ab-875f-4b38-8ccb-b36a19d2969c","ios":"levelo://app?vid=2123c7ab-875f-4b38-8ccb-b36a19d2969c"},"vehicle_type_id":"4","last_reported":1781596237,"current_range_meters":4000,"station_id":"","pricing_plan_id":"cebpf4jnsgd1na2vs0mg"},{"bike_id":"297278de-fd5f-4616-b21c-f978459a9284","system_id":"levelo_inurba_marseille","lat":43.27623,"lon":5.36095,"is_reserved":false,"is_disabled":false,"rental_uris":{"android":"levelo://app?vid=297278de-fd5f-4616-b21c-f978459a9284","ios":"levelo://app?vid=297278de-fd5f-4616-b21c-f978459a9284"},"vehicle_type_id":"4","last_reported":1781596237,"current_range_meters":4000,"station_id":"ce4bgj92rcd13ifvqbe0","pricing_plan_id":"cebpf4jnsgd1na2vs0mg"},{"bike_id":"c23fb373-7ad9-4348-a0f0-23ba5090a9b3","system_id":"levelo_inurba_marseille","lat":43.2925,"lon":5.38032,"is_reserved":false,"is_disabled":false,"rental_uris":{"android":"levelo://app?vid=c23fb373-7ad9-4348-a0f0-23ba5090a9b3","ios":"levelo://app?vid=c23fb373-7ad9-4348-a0f0-23ba5090a9b3"},"vehicle_type_id":"4","last_reported":1781596237,"current_range_meters":4000,"station_id":"","pricing_plan_id":"cebpf4jnsgd1na2vs0mg"},{"bike_id":"1462a447-be18-41a8-9ef6-9fa96faf5ad3","system_id":"levelo_inurba_marseille","lat":43.26795,"lon":5.39407,"is_reserved":false,"is_disabled":false,"rental_uris":{"android":"levelo://app?vid=1462a447-be18-41a8-9ef6-9fa96faf5ad3","ios":"levelo://app?vid=1462a447-be18-41a8-9ef6-9fa96faf5ad3"},"vehicle_type_id":"4","last_reported":1781596237,"current_range_meters":4000,"station_id":"ce4bhh12rcd13ifvqfg0","pricing_plan_id":"cebpf4jnsgd1na2vs0mg"},{"bike_id":"34624d46-65a4-4a75-9d5f-549007b8851f","system_id":"levelo_inurba_marseille","lat":43.337533,"lon":5.374474,"is_reserved":false,"is_disabled":false,"rental_uris":{"android":"levelo://app?vid=34624d46-65a4-4a75-9d5f-549007b8851f","ios":"levelo://app?vid=34624d46-65a4-4a75-9d5f-549007b8851f"},"vehicle_type_id":"4","last_reported":1781596237,"current_range_meters":4400,"station_id":"","pricing_plan_id":"cebpf4jnsgd1na2vs0mg"},{"bike_id":"405ecebe-7d2d-4e31-b2bd-149a70110f7b","system_id":"levelo_inurba_marseille","lat":43.29576,"lon":5.36736,"is_reserved":false,"is_disabled":false,"rental_uris":{"android":"levelo://app?vid=405ecebe-7d2d-4e31-b2bd-149a70110f7b","ios":"levelo://app?vid=405ecebe-7d2d-4e31-b2bd-149a70110f7b"},"vehicle_type_id":"4","last_reported":1781596237,"current_range_meters":4400,"station_id":"ce4bgph2rcd13ifvqc2g","pricing_plan_id":"cebpf4jnsgd1na2vs0mg"},{"bike_id":"e2313909-b6a7-45a5-a8c8-987d11ccd375","system_id":"levelo_inurba_marseille","lat":43.23959,"lon":5.36641,"is_reserved":false,"is_disabled":false,"rental_uris":{"android":"levelo://app?vid=e2313909-b6a7-45a5-a8c8-987d11ccd375","ios":"levelo://app?vid=e2313909-b6a7-45a5-a8c8-987d11ccd375"},"vehicle_type_id":"4","last_reported":1781596237,"current_range_meters":4400,"station_id":"ce4bhi12rcd13ifvqfp0","pricing_plan_id":"cebpf4jnsgd1na2vs0mg"},{"bike_id":"9fa2b198-91e8-4801-855e-2a4740e04268","system_id":"levelo_inurba_marseille","lat":43.29238,"lon":5.40896,"is_reserved":false,"is_disabled":false,"rental_uris":{"android":"levelo://app?vid=9fa2b198-91e8-4801-855e-2a4740e04268","ios":"levelo://app?vid=9fa2b198-91e8-4801-855e-2a4740e04268"},"vehicle_type_id":"4","last_reported":1781596237,"current_range_meters":4400,"station_id":"ce4bh192rcd13ifvqdc0","pricing_plan_id":"cebpf4jnsgd1na2vs0mg"},{"bike_id":"c423ec8c-e621-4b0c-85a5-977f8573defa","system_id":"levelo_inurba_marseille","lat":43.28211,"lon":5.39024,"is_reserved":false,"is_disabled":false,"rental_uris":{"android":"levelo://app?vid=c423ec8c-e621-4b0c-85a5-977f8573defa","ios":"levelo://app?vid=c423ec8c-e621-4b0c-85a5-977f8573defa"},"vehicle_type_id":"4","last_reported":1781596237,"current_range_meters":4400,"station_id":"ce4bhn92rcd13ifvqgsg","pricing_plan_id":"cebpf4jnsgd1na2vs0mg"},{"bike_id":"e6e7c8fc-7a32-4d23-b263-ec3eec9fdffb","system_id":"levelo_inurba_marseille","lat":43.2848,"lon":5.48391,"is_reserved":false,"is_disabled":false,"rental_uris":{"android":"levelo://app?vid=e6e7c8fc-7a32-4d23-b263-ec3eec9fdffb","ios":"levelo://app?vid=e6e7c8fc-7a32-4d23-b263-ec3eec9fdffb"},"vehicle_type_id":"4","last_reported":1781596237,"current_range_meters":4400,"station_id":"st_d3svhcjqgbts73a3dn0g","pricing_plan_id":"cebpf4jnsgd1na2vs0mg"},{"bike_id":"115917ea-70e0-4721-8d9e-17cab6e29fa8","system_id":"levelo_inurba_marseille","lat":43.30137,"lon":5.37424,"is_reserved":false,"is_disabled":false,"rental_uris":{"android":"levelo://app?vid=115917ea-70e0-4721-8d9e-17cab6e29fa8","ios":"levelo://app?vid=115917ea-70e0-4721-8d9e-17cab6e29fa8"},"vehicle_type_id":"4","last_reported":1781596237,"current_range_meters":4400,"station_id":"ce4bgs92rcd13ifvqcc0","pricing_plan_id":"cebpf4jnsgd1na2vs0mg"},{"bike_id":"37656a11-7f6c-4e33-91a8-6172aab04362","system_id":"levelo_inurba_marseille","lat":43.28969,"lon":5.37809,"is_reserved":false,"is_disabled":false,"rental_uris":{"android":"levelo://app?vid=37656a11-7f6c-4e33-91a8-6172aab04362","ios":"levelo://app?vid=37656a11-7f6c-4e33-91a8-6172aab04362"},"vehicle_type_id":"4","last_reported":1781596237,"current_range_meters":4400,"station_id":"ce4bh9p2rcd13ifvqed0","pricing_plan_id":"cebpf4jnsgd1na2vs0mg"},{"bike_id":"3ee94fc0-8fea-4372-9289-fdd37c039599","system_id":"levelo_inurba_marseille","lat":43.32132,"lon":5.36797,"is_reserved":false,"is_disabled":false,"rental_uris":{"android":"levelo://app?vid=3ee94fc0-8fea-4372-9289-fdd37c039599","ios":"levelo://app?vid=3ee94fc0-8fea-4372-9289-fdd37c039599"},"vehicle_type_id":"4","last_reported":1781596237,"current_range_meters":4400,"station_id":"","pricing_plan_id":"cebpf4jnsgd1na2vs0mg"},{"bike_id":"faab199b-f195-4600-9ace-1813703a26b2","system_id":"levelo_inurba_marseille","lat":43.22416,"lon":5.34753,"is_reserved":false,"is_disabled":false,"rental_uris":{"android":"levelo://app?vid=faab199b-f195-4600-9ace-1813703a26b2","ios":"levelo://app?vid=faab199b-f195-4600-9ace-1813703a26b2"},"vehicle_type_id":"4","last_reported":1781596237,"current_range_meters":4400,"station_id":"","pricing_plan_id":"cebpf4jnsgd1na2vs0mg"},{"bike_id":"c324f0c1-2267-4771-8379-c897baca7ba6","system_id":"levelo_inurba_marseille","lat":43.29591,"lon":5.38094,"is_reserved":false,"is_disabled":true,"rental_uris":{"android":"levelo://app?vid=c324f0c1-2267-4771-8379-c897baca7ba6","ios":"levelo://app?vid=c324f0c1-2267-4771-8379-c897baca7ba6"},"vehicle_type_id":"4","last_reported":1781596237,"current_range_meters":4400,"station_id":"ce4bgl12rcd13ifvqbo0","pricing_plan_id":"cebpf4jnsgd1na2vs0mg"},{"bike_id":"7ad6749c-d621-468a-b3c9-10abd95885e0","system_id":"levelo_inurba_marseille","lat":43.2256,"lon":5.41632,"is_reserved":false,"is_disabled":false,"rental_uris":{"android":"levelo://app?vid=7ad6749c-d621-468a-b3c9-10abd95885e0","ios":"levelo://app?vid=7ad6749c-d621-468a-b3c9-10abd95885e0"},"vehicle_type_id":"4","last_reported":1781596237,"current_range_meters":4800,"station_id":"st_d2o4gvlbi1j2169b742g","pricing_plan_id":"cebpf4jnsgd1na2vs0mg"},{"bike_id":"f9f0444d-e71b-44cf-beb3-4e9ec180d7a0","system_id":"levelo_inurba_marseille","lat":43.26784,"lon":5.39414,"is_reserved":false,"is_disabled":true,"rental_uris":{"android":"levelo://app?vid=f9f0444d-e71b-44cf-beb3-4e9ec180d7a0","ios":"levelo://app?vid=f9f0444d-e71b-44cf-beb3-4e9ec180d7a0"},"vehicle_type_id":"4","last_reported":1781596237,"current_range_meters":4800,"station_id":"ce4bhh12rcd13ifvqfg0","pricing_plan_id":"cebpf4jnsgd1na2vs0mg"},{"bike_id":"3ab7283d-633d-42fc-b5ac-58fde1581d89","system_id":"levelo_inurba_marseille","lat":43.30957,"lon":5.39034,"is_reserved":false,"is_disabled":false,"rental_uris":{"android":"levelo://app?vid=3ab7283d-633d-42fc-b5ac-58fde1581d89","ios":"levelo://app?vid=3ab7283d-633d-42fc-b5ac-58fde1581d89"},"vehicle_type_id":"4","last_reported":1781596237,"current_range_meters":4800,"station_id":"ce4bgup2rcd13ifvqco0","pricing_plan_id":"cebpf4jnsgd1na2vs0mg"},{"bike_id":"c91dbe3c-f9ab-4aa2-8d6c-ffc25383acc9","system_id":"levelo_inurba_marseille","lat":43.31363,"lon":5.36714,"is_reserved":false,"is_disabled":false,"rental_uris":{"android":"levelo://app?vid=c91dbe3c-f9ab-4aa2-8d6c-ffc25383acc9","ios":"levelo://app?vid=c91dbe3c-f9ab-4aa2-8d6c-ffc25383acc9"},"vehicle_type_id":"4","last_reported":1781596237,"current_range_meters":4800,"station_id":"ce4bgr92rcd13ifvqc6g","pricing_plan_id":"cebpf4jnsgd1na2vs0mg"},{"bike_id":"3b6818b8-9c82-4bd3-b2a4-d38a38b4db1b","system_id":"levelo_inurba_marseille","lat":43.28148,"lon":5.4261,"is_reserved":false,"is_disabled":false,"rental_uris":{"android":"levelo://app?vid=3b6818b8-9c82-4bd3-b2a4-d38a38b4db1b","ios":"levelo://app?vid=3b6818b8-9c82-4bd3-b2a4-d38a38b4db1b"},"vehicle_type_id":"4","last_reported":1781596237,"current_range_meters":4800,"station_id":"ce4bhnh2rcd13ifvqgug","pricing_plan_id":"cebpf4jnsgd1na2vs0mg"},{"bike_id":"6a196ced-67e3-4dab-8bd0-3a8d7db0d897","system_id":"levelo_inurba_marseille","lat":43.33588,"lon":5.40999,"is_reserved":false,"is_disabled":false,"rental_uris":{"android":"levelo://app?vid=6a196ced-67e3-4dab-8bd0-3a8d7db0d897","ios":"levelo://app?vid=6a196ced-67e3-4dab-8bd0-3a8d7db0d897"},"vehicle_type_id":"4","last_reported":1781596237,"current_range_meters":4800,"station_id":"ce4bhqh2rcd13ifvqhmg","pricing_plan_id":"cebpf4jnsgd1na2vs0mg"},{"bike_id":"dd75378f-bb7c-47cd-89f2-6eeb092130cb","system_id":"levelo_inurba_marseille","lat":43.31886,"lon":5.36801,"is_reserved":false,"is_disabled":false,"rental_uris":{"android":"levelo://app?vid=dd75378f-bb7c-47cd-89f2-6eeb092130cb","ios":"levelo://app?vid=dd75378f-bb7c-47cd-89f2-6eeb092130cb"},"vehicle_type_id":"4","last_reported":1781596237,"current_range_meters":4800,"station_id":"st_d6o2h0d0559c73evc1b0","pricing_plan_id":"cebpf4jnsgd1na2vs0mg"},{"bike_id":"f9ad348e-581c-4bfe-ae5c-69a0be30be7f","system_id":"levelo_inurba_marseille","lat":43.28434,"lon":5.37165,"is_reserved":false,"is_disabled":true,"rental_uris":{"android":"levelo://app?vid=f9ad348e-581c-4bfe-ae5c-69a0be30be7f","ios":"levelo://app?vid=f9ad348e-581c-4bfe-ae5c-69a0be30be7f"},"vehicle_type_id":"4","last_reported":1781596237,"current_range_meters":4800,"station_id":"","pricing_plan_id":"cebpf4jnsgd1na2vs0mg"},{"bike_id":"5ff6a1f4-e6ae-4565-a8e0-3c185de29345","system_id":"levelo_inurba_marseille","lat":43.28935,"lon":5.39644,"is_reserved":false,"is_disabled":false,"rental_uris":{"android":"levelo://app?vid=5ff6a1f4-e6ae-4565-a8e0-3c185de29345","ios":"levelo://app?vid=5ff6a1f4-e6ae-4565-a8e0-3c185de29345"},"vehicle_type_id":"4","last_reported":1781596237,"current_range_meters":4800,"station_id":"ce4bh3h2rcd13ifvqdn0","pricing_plan_id":"cebpf4jnsgd1na2vs0mg"},{"bike_id":"1066ffdb-1fb4-4374-a881-2eb6af6437b1","system_id":"levelo_inurba_marseille","lat":43.25089,"lon":5.39519,"is_reserved":false,"is_disabled":false,"rental_uris":{"android":"levelo://app?vid=1066ffdb-1fb4-4374-a881-2eb6af6437b1","ios":"levelo://app?vid=1066ffdb-1fb4-4374-a881-2eb6af6437b1"},"vehicle_type_id":"4","last_reported":1781596237,"current_range_meters":4800,"station_id":"ce4bhm12rcd13ifvqgkg","pricing_plan_id":"cebpf4jnsgd1na2vs0mg"},{"bike_id":"db41b9eb-9acb-49cf-84cd-8f9e13edc202","system_id":"levelo_inurba_marseille","lat":43.30207,"lon":5.41775,"is_reserved":false,"is_disabled":false,"rental_uris":{"android":"levelo://app?vid=db41b9eb-9acb-49cf-84cd-8f9e13edc202","ios":"levelo://app?vid=db41b9eb-9acb-49cf-84cd-8f9e13edc202"},"vehicle_type_id":"4","last_reported":1781596237,"current_range_meters":4800,"station_id":"","pricing_plan_id":"cebpf4jnsgd1na2vs0mg"},{"bike_id":"2b7626d6-d914-474c-a5bd-6eeedfb6dda2","system_id":"levelo_inurba_marseille","lat":43.29609,"lon":5.37697,"is_reserved":false,"is_disabled":false,"rental_uris":{"android":"levelo://app?vid=2b7626d6-d914-474c-a5bd-6eeedfb6dda2","ios":"levelo://app?vid=2b7626d6-d914-474c-a5bd-6eeedfb6dda2"},"vehicle_type_id":"4","last_reported":1781596237,"current_range_meters":4800,"station_id":"ce4bgi92rcd13ifvqb90","pricing_plan_id":"cebpf4jnsgd1na2vs0mg"},{"bike_id":"bebe8c03-9684-4d05-b9e8-5857f587d6f6","system_id":"levelo_inurba_marseille","lat":43.29142,"lon":5.38472,"is_reserved":false,"is_disabled":false,"rental_uris":{"android":"levelo://app?vid=bebe8c03-9684-4d05-b9e8-5857f587d6f6","ios":"levelo://app?vid=bebe8c03-9684-4d05-b9e8-5857f587d6f6"},"vehicle_type_id":"4","last_reported":1781596237,"current_range_meters":4800,"station_id":"","pricing_plan_id":"cebpf4jnsgd1na2vs0mg"},{"bike_id":"6c71d98a-202a-4097-b5a5-5671215d6806","system_id":"levelo_inurba_marseille","lat":43.27405,"lon":5.38698,"is_reserved":false,"is_disabled":false,"rental_uris":{"android":"levelo://app?vid=6c71d98a-202a-4097-b5a5-5671215d6806","ios":"levelo://app?vid=6c71d98a-202a-4097-b5a5-5671215d6806"},"vehicle_type_id":"4","last_reported":1781596237,"current_range_meters":4800,"station_id":"","pricing_plan_id":"cebpf4jnsgd1na2vs0mg"},{"bike_id":"dd216b64-ad82-4611-a1cc-17633086668b","system_id":"levelo_inurba_marseille","lat":43.269365,"lon":5.402609,"is_reserved":false,"is_disabled":false,"rental_uris":{"android":"levelo://app?vid=dd216b64-ad82-4611-a1cc-17633086668b","ios":"levelo://app?vid=dd216b64-ad82-4611-a1cc-17633086668b"},"vehicle_type_id":"4","last_reported":1781596237,"current_range_meters":4800,"station_id":"cjm6bp8fraef2m0cb0m0","pricing_plan_id":"cebpf4jnsgd1na2vs0mg"},{"bike_id":"9ba69182-8c52-4be5-bed9-40882e575160","system_id":"levelo_inurba_marseille","lat":43.244689,"lon":5.425338,"is_reserved":false,"is_disabled":false,"rental_uris":{"android":"levelo://app?vid=9ba69182-8c52-4be5-bed9-40882e575160","ios":"levelo://app?vid=9ba69182-8c52-4be5-bed9-40882e575160"},"vehicle_type_id":"4","last_reported":1781596237,"current_range_meters":4800,"station_id":"st_d4a3vfp97mjs738cd8kg","pricing_plan_id":"cebpf4jnsgd1na2vs0mg"},{"bike_id":"cd06302c-11e6-4b40-8f44-7b482b32d4dc","system_id":"levelo_inurba_marseille","lat":43.31211,"lon":5.36871,"is_reserved":false,"is_disabled":true,"rental_uris":{"android":"levelo://app?vid=cd06302c-11e6-4b40-8f44-7b482b32d4dc","ios":"levelo://app?vid=cd06302c-11e6-4b40-8f44-7b482b32d4dc"},"vehicle_type_id":"4","last_reported":1781596237,"current_range_meters":4800,"station_id":"ce4bgl92rcd13ifvqbq0","pricing_plan_id":"cebpf4jnsgd1na2vs0mg"},{"bike_id":"72b1bac8-80d2-4e6e-a042-9ca1e1bb6b29","system_id":"levelo_inurba_marseille","lat":43.29043,"lon":5.39972,"is_reserved":false,"is_disabled":false,"rental_uris":{"android":"levelo://app?vid=72b1bac8-80d2-4e6e-a042-9ca1e1bb6b29","ios":"levelo://app?vid=72b1bac8-80d2-4e6e-a042-9ca1e1bb6b29"},"vehicle_type_id":"4","last_reported":1781596237,"current_range_meters":5600,"station_id":"ce4bh392rcd13ifvqdm0","pricing_plan_id":"cebpf4jnsgd1na2vs0mg"},{"bike_id":"ccff0d65-a8f7-44be-b82a-69dbb09dcdb7","system_id":"levelo_inurba_marseille","lat":43.29525,"lon":5.39357,"is_reserved":false,"is_disabled":true,"rental_uris":{"android":"levelo://app?vid=ccff0d65-a8f7-44be-b82a-69dbb09dcdb7","ios":"levelo://app?vid=ccff0d65-a8f7-44be-b82a-69dbb09dcdb7"},"vehicle_type_id":"4","last_reported":1781596237,"current_range_meters":5600,"station_id":"ce4bh292rcd13ifvqdf0","pricing_plan_id":"cebpf4jnsgd1na2vs0mg"},{"bike_id":"ec99797d-880b-49b2-aa8c-cf7ac0a78451","system_id":"levelo_inurba_marseille","lat":43.30788,"lon":5.37654,"is_reserved":false,"is_disabled":false,"rental_uris":{"android":"levelo://app?vid=ec99797d-880b-49b2-aa8c-cf7ac0a78451","ios":"levelo://app?vid=ec99797d-880b-49b2-aa8c-cf7ac0a78451"},"vehicle_type_id":"4","last_reported":1781596237,"current_range_meters":5600,"station_id":"ce4bgv92rcd13ifvqcq0","pricing_plan_id":"cebpf4jnsgd1na2vs0mg"},{"bike_id":"8ac4c1f7-a708-4f96-b505-f368096cff26","system_id":"levelo_inurba_marseille","lat":43.24393,"lon":5.3705,"is_reserved":false,"is_disabled":false,"rental_uris":{"android":"levelo://app?vid=8ac4c1f7-a708-4f96-b505-f368096cff26","ios":"levelo://app?vid=8ac4c1f7-a708-4f96-b505-f368096cff26"},"vehicle_type_id":"4","last_reported":1781596237,"current_range_meters":5600,"station_id":"ce4bhhh2rcd13ifvqfk0","pricing_plan_id":"cebpf4jnsgd1na2vs0mg"},{"bike_id":"6cbab291-c5ca-4879-8bda-0eb64a5e7303","system_id":"levelo_inurba_marseille","lat":43.24157,"lon":5.36388,"is_reserved":false,"is_disabled":false,"rental_uris":{"android":"levelo://app?vid=6cbab291-c5ca-4879-8bda-0eb64a5e7303","ios":"levelo://app?vid=6cbab291-c5ca-4879-8bda-0eb64a5e7303"},"vehicle_type_id":"4","last_reported":1781596237,"current_range_meters":5600,"station_id":"cpo36qri1sfpv3e86is0","pricing_plan_id":"cebpf4jnsgd1na2vs0mg"},{"bike_id":"d1fe4607-d904-483c-ab68-d6487b306366","system_id":"levelo_inurba_marseille","lat":43.27193,"lon":5.3921,"is_reserved":false,"is_disabled":true,"rental_uris":{"android":"levelo://app?vid=d1fe4607-d904-483c-ab68-d6487b306366","ios":"levelo://app?vid=d1fe4607-d904-483c-ab68-d6487b306366"},"vehicle_type_id":"4","last_reported":1781596237,"current_range_meters":5600,"station_id":"ce4bhhp2rcd13ifvqfm0","pricing_plan_id":"cebpf4jnsgd1na2vs0mg"},{"bike_id":"ea1a1f61-9226-4d96-bdb8-fdf7e7152e9a","system_id":"levelo_inurba_marseille","lat":43.29198,"lon":5.35793,"is_reserved":false,"is_disabled":false,"rental_uris":{"android":"levelo://app?vid=ea1a1f61-9226-4d96-bdb8-fdf7e7152e9a","ios":"levelo://app?vid=ea1a1f61-9226-4d96-bdb8-fdf7e7152e9a"},"vehicle_type_id":"4","last_reported":1781596237,"current_range_meters":5600,"station_id":"ce4bhb12rcd13ifvqel0","pricing_plan_id":"cebpf4jnsgd1na2vs0mg"},{"bike_id":"a64a1f24-af2f-4647-8d91-f1b50e0e246d","system_id":"levelo_inurba_marseille","lat":43.29306,"lon":5.374508,"is_reserved":false,"is_disabled":false,"rental_uris":{"android":"levelo://app?vid=a64a1f24-af2f-4647-8d91-f1b50e0e246d","ios":"levelo://app?vid=a64a1f24-af2f-4647-8d91-f1b50e0e246d"},"vehicle_type_id":"4","last_reported":1781596237,"current_range_meters":5600,"station_id":"ce4bgi12rcd13ifvqb70","pricing_plan_id":"cebpf4jnsgd1na2vs0mg"},{"bike_id":"b7a0027f-2809-4186-9f3d-37df70b8d370","system_id":"levelo_inurba_marseille","lat":43.3136,"lon":5.38487,"is_reserved":false,"is_disabled":false,"rental_uris":{"android":"levelo://app?vid=b7a0027f-2809-4186-9f3d-37df70b8d370","ios":"levelo://app?vid=b7a0027f-2809-4186-9f3d-37df70b8d370"},"vehicle_type_id":"4","last_reported":1781596237,"current_range_meters":5600,"station_id":"ce4bgt92rcd13ifvqcf0","pricing_plan_id":"cebpf4jnsgd1na2vs0mg"},{"bike_id":"58928b62-b7f2-45cf-b6f2-4dc4c39c7722","system_id":"levelo_inurba_marseille","lat":43.295897,"lon":5.385462,"is_reserved":false,"is_disabled":false,"rental_uris":{"android":"levelo://app?vid=58928b62-b7f2-45cf-b6f2-4dc4c39c7722","ios":"levelo://app?vid=58928b62-b7f2-45cf-b6f2-4dc4c39c7722"},"vehicle_type_id":"4","last_reported":1781596237,"current_range_meters":5600,"station_id":"","pricing_plan_id":"cebpf4jnsgd1na2vs0mg"},{"bike_id":"7b85899f-ec0e-4617-8a0e-aa86d7cef6cf","system_id":"levelo_inurba_marseille","lat":43.28935,"lon":5.36566,"is_reserved":false,"is_disabled":false,"rental_uris":{"android":"levelo://app?vid=7b85899f-ec0e-4617-8a0e-aa86d7cef6cf","ios":"levelo://app?vid=7b85899f-ec0e-4617-8a0e-aa86d7cef6cf"},"vehicle_type_id":"4","last_reported":1781596237,"current_range_meters":5600,"station_id":"","pricing_plan_id":"cebpf4jnsgd1na2vs0mg"},{"bike_id":"4da64aaa-07c6-4e3f-a981-6e55ac68ca8b","system_id":"levelo_inurba_marseille","lat":43.28135,"lon":5.38912,"is_reserved":false,"is_disabled":false,"rental_uris":{"android":"levelo://app?vid=4da64aaa-07c6-4e3f-a981-6e55ac68ca8b","ios":"levelo://app?vid=4da64aaa-07c6-4e3f-a981-6e55ac68ca8b"},"vehicle_type_id":"4","last_reported":1781596237,"current_range_meters":5600,"station_id":"","pricing_plan_id":"cebpf4jnsgd1na2vs0mg"},{"bike_id":"85c13243-7921-4bc5-aeeb-8615f18e1cbd","system_id":"levelo_inurba_marseille","lat":43.26395,"lon":5.4105,"is_reserved":false,"is_disabled":false,"rental_uris":{"android":"levelo://app?vid=85c13243-7921-4bc5-aeeb-8615f18e1cbd","ios":"levelo://app?vid=85c13243-7921-4bc5-aeeb-8615f18e1cbd"},"vehicle_type_id":"4","last_reported":1781596237,"current_range_meters":5600,"station_id":"st_d4e5ca6na9uc73bfl5fg","pricing_plan_id":"cebpf4jnsgd1na2vs0mg"},{"bike_id":"35cc2a94-d0cd-4829-9a80-dd7ac1fb2e92","system_id":"levelo_inurba_marseille","lat":43.29557,"lon":5.3751,"is_reserved":false,"is_disabled":false,"rental_uris":{"android":"levelo://app?vid=35cc2a94-d0cd-4829-9a80-dd7ac1fb2e92","ios":"levelo://app?vid=35cc2a94-d0cd-4829-9a80-dd7ac1fb2e92"},"vehicle_type_id":"4","last_reported":1781596237,"current_range_meters":5600,"station_id":"ce4bgh92rcd13ifvqb50","pricing_plan_id":"cebpf4jnsgd1na2vs0mg"},{"bike_id":"b4730d5c-df75-42d5-84ec-3d7263fb3091","system_id":"levelo_inurba_marseille","lat":43.22673,"lon":5.34795,"is_reserved":false,"is_disabled":false,"rental_uris":{"android":"levelo://app?vid=b4730d5c-df75-42d5-84ec-3d7263fb3091","ios":"levelo://app?vid=b4730d5c-df75-42d5-84ec-3d7263fb3091"},"vehicle_type_id":"4","last_reported":1781596237,"current_range_meters":6000,"station_id":"","pricing_plan_id":"cebpf4jnsgd1na2vs0mg"},{"bike_id":"cfd6030a-67d9-4620-83d0-1ab92a24ede3","system_id":"levelo_inurba_marseille","lat":43.27514,"lon":5.41587,"is_reserved":false,"is_disabled":false,"rental_uris":{"android":"levelo://app?vid=cfd6030a-67d9-4620-83d0-1ab92a24ede3","ios":"levelo://app?vid=cfd6030a-67d9-4620-83d0-1ab92a24ede3"},"vehicle_type_id":"4","last_reported":1781596237,"current_range_meters":6000,"station_id":"st_d6im8g6chgec73a5pndg","pricing_plan_id":"cebpf4jnsgd1na2vs0mg"},{"bike_id":"92132944-91e0-4e0a-8448-3f1a1dc8d8c9","system_id":"levelo_inurba_marseille","lat":43.32518,"lon":5.38358,"is_reserved":false,"is_disabled":false,"rental_uris":{"android":"levelo://app?vid=92132944-91e0-4e0a-8448-3f1a1dc8d8c9","ios":"levelo://app?vid=92132944-91e0-4e0a-8448-3f1a1dc8d8c9"},"vehicle_type_id":"4","last_reported":1781596237,"current_range_meters":6000,"station_id":"","pricing_plan_id":"cebpf4jnsgd1na2vs0mg"},{"bike_id":"846efb49-dc50-4ee1-b3c8-d207b5acedf0","system_id":"levelo_inurba_marseille","lat":43.31685,"lon":5.4047,"is_reserved":false,"is_disabled":false,"rental_uris":{"android":"levelo://app?vid=846efb49-dc50-4ee1-b3c8-d207b5acedf0","ios":"levelo://app?vid=846efb49-dc50-4ee1-b3c8-d207b5acedf0"},"vehicle_type_id":"4","last_reported":1781596237,"current_range_meters":6000,"station_id":"ce4bh012rcd13ifvqd00","pricing_plan_id":"cebpf4jnsgd1na2vs0mg"},{"bike_id":"a4bbebc0-9eaf-4b8d-85e0-6a168e141b9a","system_id":"levelo_inurba_marseille","lat":43.25937,"lon":5.40898,"is_reserved":false,"is_disabled":false,"rental_uris":{"android":"levelo://app?vid=a4bbebc0-9eaf-4b8d-85e0-6a168e141b9a","ios":"levelo://app?vid=a4bbebc0-9eaf-4b8d-85e0-6a168e141b9a"},"vehicle_type_id":"4","last_reported":1781596237,"current_range_meters":6000,"station_id":"ce4bhm92rcd13ifvqglg","pricing_plan_id":"cebpf4jnsgd1na2vs0mg"},{"bike_id":"ff241622-405a-4955-937c-75f7b16cc558","system_id":"levelo_inurba_marseille","lat":43.3015,"lon":5.38092,"is_reserved":false,"is_disabled":false,"rental_uris":{"android":"levelo://app?vid=ff241622-405a-4955-937c-75f7b16cc558","ios":"levelo://app?vid=ff241622-405a-4955-937c-75f7b16cc558"},"vehicle_type_id":"4","last_reported":1781596237,"current_range_meters":6000,"station_id":"ce4bgjp2rcd13ifvqbh0","pricing_plan_id":"cebpf4jnsgd1na2vs0mg"},{"bike_id":"648ef1a4-2a63-4e20-b8a1-a352790d5738","system_id":"levelo_inurba_marseille","lat":43.31333,"lon":5.36696,"is_reserved":false,"is_disabled":false,"rental_uris":{"android":"levelo://app?vid=648ef1a4-2a63-4e20-b8a1-a352790d5738","ios":"levelo://app?vid=648ef1a4-2a63-4e20-b8a1-a352790d5738"},"vehicle_type_id":"4","last_reported":1781596237,"current_range_meters":6000,"station_id":"ce4bgr92rcd13ifvqc6g","pricing_plan_id":"cebpf4jnsgd1na2vs0mg"},{"bike_id":"f01e238c-d3bf-454b-8ae5-6b703f18f700","system_id":"levelo_inurba_marseille","lat":43.297885,"lon":5.370996,"is_reserved":false,"is_disabled":false,"rental_uris":{"android":"levelo://app?vid=f01e238c-d3bf-454b-8ae5-6b703f18f700","ios":"levelo://app?vid=f01e238c-d3bf-454b-8ae5-6b703f18f700"},"vehicle_type_id":"4","last_reported":1781596237,"current_range_meters":6000,"station_id":"ce4bgop2rcd13ifvqc1g","pricing_plan_id":"cebpf4jnsgd1na2vs0mg"},{"bike_id":"ba64b955-0d73-4058-8738-77a03cf2dc7a","system_id":"levelo_inurba_marseille","lat":43.22552,"lon":5.41653,"is_reserved":false,"is_disabled":false,"rental_uris":{"android":"levelo://app?vid=ba64b955-0d73-4058-8738-77a03cf2dc7a","ios":"levelo://app?vid=ba64b955-0d73-4058-8738-77a03cf2dc7a"},"vehicle_type_id":"4","last_reported":1781596237,"current_range_meters":6000,"station_id":"st_d2o4gvlbi1j2169b742g","pricing_plan_id":"cebpf4jnsgd1na2vs0mg"},{"bike_id":"5ba5ca3b-373f-47a4-8ede-22d92aac3721","system_id":"levelo_inurba_marseille","lat":43.2893,"lon":5.36374,"is_reserved":false,"is_disabled":true,"rental_uris":{"android":"levelo://app?vid=5ba5ca3b-373f-47a4-8ede-22d92aac3721","ios":"levelo://app?vid=5ba5ca3b-373f-47a4-8ede-22d92aac3721"},"vehicle_type_id":"4","last_reported":1781596237,"current_range_meters":6000,"station_id":"ce4bhc92rcd13ifvqetg","pricing_plan_id":"cebpf4jnsgd1na2vs0mg"},{"bike_id":"fc330720-30fd-4948-9971-1a95a83d03fc","system_id":"levelo_inurba_marseille","lat":43.2796,"lon":5.41017,"is_reserved":false,"is_disabled":false,"rental_uris":{"android":"levelo://app?vid=fc330720-30fd-4948-9971-1a95a83d03fc","ios":"levelo://app?vid=fc330720-30fd-4948-9971-1a95a83d03fc"},"vehicle_type_id":"4","last_reported":1781596237,"current_range_meters":6000,"station_id":"ce4bhnp2rcd13ifvqh0g","pricing_plan_id":"cebpf4jnsgd1na2vs0mg"},{"bike_id":"d5508669-6646-45f6-9fa1-a09fb472fd0b","system_id":"levelo_inurba_marseille","lat":43.29198,"lon":5.39312,"is_reserved":false,"is_disabled":true,"rental_uris":{"android":"levelo://app?vid=d5508669-6646-45f6-9fa1-a09fb472fd0b","ios":"levelo://app?vid=d5508669-6646-45f6-9fa1-a09fb472fd0b"},"vehicle_type_id":"4","last_reported":1781596237,"current_range_meters":6000,"station_id":"ce4bh192rcd13ifvqdd0","pricing_plan_id":"cebpf4jnsgd1na2vs0mg"},{"bike_id":"e19a2b9d-c42d-4230-8c63-3a57ee9f732d","system_id":"levelo_inurba_marseille","lat":43.28472,"lon":5.48387,"is_reserved":false,"is_disabled":false,"rental_uris":{"android":"levelo://app?vid=e19a2b9d-c42d-4230-8c63-3a57ee9f732d","ios":"levelo://app?vid=e19a2b9d-c42d-4230-8c63-3a57ee9f732d"},"vehicle_type_id":"4","last_reported":1781596237,"current_range_meters":6000,"station_id":"st_d3svhcjqgbts73a3dn0g","pricing_plan_id":"cebpf4jnsgd1na2vs0mg"},{"bike_id":"70b3318a-59c1-4a72-8c49-58fa39dd4268","system_id":"levelo_inurba_marseille","lat":43.30956,"lon":5.39038,"is_reserved":false,"is_disabled":false,"rental_uris":{"android":"levelo://app?vid=70b3318a-59c1-4a72-8c49-58fa39dd4268","ios":"levelo://app?vid=70b3318a-59c1-4a72-8c49-58fa39dd4268"},"vehicle_type_id":"4","last_reported":1781596237,"current_range_meters":6000,"station_id":"ce4bgup2rcd13ifvqco0","pricing_plan_id":"cebpf4jnsgd1na2vs0mg"},{"bike_id":"57543d5e-3270-4e53-a483-1b61881a6416","system_id":"levelo_inurba_marseille","lat":43.2638,"lon":5.41054,"is_reserved":false,"is_disabled":false,"rental_uris":{"android":"levelo://app?vid=57543d5e-3270-4e53-a483-1b61881a6416","ios":"levelo://app?vid=57543d5e-3270-4e53-a483-1b61881a6416"},"vehicle_type_id":"4","last_reported":1781596237,"current_range_meters":6000,"station_id":"st_d4e5ca6na9uc73bfl5fg","pricing_plan_id":"cebpf4jnsgd1na2vs0mg"},{"bike_id":"c28399f7-e7e6-4290-8184-02ca1cf16ff7","system_id":"levelo_inurba_marseille","lat":43.31254,"lon":5.36857,"is_reserved":false,"is_disabled":false,"rental_uris":{"android":"levelo://app?vid=c28399f7-e7e6-4290-8184-02ca1cf16ff7","ios":"levelo://app?vid=c28399f7-e7e6-4290-8184-02ca1cf16ff7"},"vehicle_type_id":"4","last_reported":1781596237,"current_range_meters":6000,"station_id":"ce4bgl92rcd13ifvqbq0","pricing_plan_id":"cebpf4jnsgd1na2vs0mg"},{"bike_id":"0213ac5a-1137-4629-8208-c62c36eb2c1f","system_id":"levelo_inurba_marseille","lat":43.24948,"lon":5.40476,"is_reserved":false,"is_disabled":false,"rental_uris":{"android":"levelo://app?vid=0213ac5a-1137-4629-8208-c62c36eb2c1f","ios":"levelo://app?vid=0213ac5a-1137-4629-8208-c62c36eb2c1f"},"vehicle_type_id":"4","last_reported":1781596237,"current_range_meters":6000,"station_id":"st_d2ngiaodas8pm72gd1h0","pricing_plan_id":"cebpf4jnsgd1na2vs0mg"},{"bike_id":"37086bdb-0b16-420e-a396-3a7db4249bc8","system_id":"levelo_inurba_marseille","lat":43.23359,"lon":5.43607,"is_reserved":false,"is_disabled":false,"rental_uris":{"android":"levelo://app?vid=37086bdb-0b16-420e-a396-3a7db4249bc8","ios":"levelo://app?vid=37086bdb-0b16-420e-a396-3a7db4249bc8"},"vehicle_type_id":"4","last_reported":1781596237,"current_range_meters":6000,"station_id":"","pricing_plan_id":"cebpf4jnsgd1na2vs0mg"},{"bike_id":"b036162c-184b-47b0-b9b2-a69688b907c3","system_id":"levelo_inurba_marseille","lat":43.29763,"lon":5.36735,"is_reserved":false,"is_disabled":false,"rental_uris":{"android":"levelo://app?vid=b036162c-184b-47b0-b9b2-a69688b907c3","ios":"levelo://app?vid=b036162c-184b-47b0-b9b2-a69688b907c3"},"vehicle_type_id":"4","last_reported":1781596237,"current_range_meters":6000,"station_id":"","pricing_plan_id":"cebpf4jnsgd1na2vs0mg"},{"bike_id":"cbebc6ee-f2ad-49d7-856d-25be310145af","system_id":"levelo_inurba_marseille","lat":43.29518,"lon":5.393994,"is_reserved":false,"is_disabled":true,"rental_uris":{"android":"levelo://app?vid=cbebc6ee-f2ad-49d7-856d-25be310145af","ios":"levelo://app?vid=cbebc6ee-f2ad-49d7-856d-25be310145af"},"vehicle_type_id":"4","last_reported":1781596237,"current_range_meters":6400,"station_id":"","pricing_plan_id":"cebpf4jnsgd1na2vs0mg"},{"bike_id":"86ee25b2-2f21-424f-9c42-98211711660b","system_id":"levelo_inurba_marseille","lat":43.23971,"lon":5.36621,"is_reserved":false,"is_disabled":false,"rental_uris":{"android":"levelo://app?vid=86ee25b2-2f21-424f-9c42-98211711660b","ios":"levelo://app?vid=86ee25b2-2f21-424f-9c42-98211711660b"},"vehicle_type_id":"4","last_reported":1781596237,"current_range_meters":6400,"station_id":"ce4bhi12rcd13ifvqfp0","pricing_plan_id":"cebpf4jnsgd1na2vs0mg"},{"bike_id":"6ece36cf-6929-4dff-95a4-0da954ae57c0","system_id":"levelo_inurba_marseille","lat":43.29666,"lon":5.37683,"is_reserved":false,"is_disabled":false,"rental_uris":{"android":"levelo://app?vid=6ece36cf-6929-4dff-95a4-0da954ae57c0","ios":"levelo://app?vid=6ece36cf-6929-4dff-95a4-0da954ae57c0"},"vehicle_type_id":"4","last_reported":1781596237,"current_range_meters":6400,"station_id":"ce4bgkh2rcd13ifvqbl0","pricing_plan_id":"cebpf4jnsgd1na2vs0mg"},{"bike_id":"596ce3b1-87f7-408e-8d07-41f96804a7ec","system_id":"levelo_inurba_marseille","lat":43.24532,"lon":5.41149,"is_reserved":false,"is_disabled":true,"rental_uris":{"android":"levelo://app?vid=596ce3b1-87f7-408e-8d07-41f96804a7ec","ios":"levelo://app?vid=596ce3b1-87f7-408e-8d07-41f96804a7ec"},"vehicle_type_id":"4","last_reported":1781596237,"current_range_meters":6400,"station_id":"","pricing_plan_id":"cebpf4jnsgd1na2vs0mg"},{"bike_id":"652501cd-58a0-40ec-8409-d9ad72f51281","system_id":"levelo_inurba_marseille","lat":43.30778,"lon":5.37627,"is_reserved":false,"is_disabled":true,"rental_uris":{"android":"levelo://app?vid=652501cd-58a0-40ec-8409-d9ad72f51281","ios":"levelo://app?vid=652501cd-58a0-40ec-8409-d9ad72f51281"},"vehicle_type_id":"4","last_reported":1781596237,"current_range_meters":6400,"station_id":"ce4bgv92rcd13ifvqcq0","pricing_plan_id":"cebpf4jnsgd1na2vs0mg"},{"bike_id":"6b45431a-66a8-46f1-bf22-71735207618f","system_id":"levelo_inurba_marseille","lat":43.29082,"lon":5.3814,"is_reserved":false,"is_disabled":false,"rental_uris":{"android":"levelo://app?vid=6b45431a-66a8-46f1-bf22-71735207618f","ios":"levelo://app?vid=6b45431a-66a8-46f1-bf22-71735207618f"},"vehicle_type_id":"4","last_reported":1781596237,"current_range_meters":6400,"station_id":"ce4bh512rcd13ifvqe2g","pricing_plan_id":"cebpf4jnsgd1na2vs0mg"},{"bike_id":"af1cfd66-b4cd-4c11-9c78-51e97b5d50f9","system_id":"levelo_inurba_marseille","lat":43.29165,"lon":5.37156,"is_reserved":false,"is_disabled":false,"rental_uris":{"android":"levelo://app?vid=af1cfd66-b4cd-4c11-9c78-51e97b5d50f9","ios":"levelo://app?vid=af1cfd66-b4cd-4c11-9c78-51e97b5d50f9"},"vehicle_type_id":"4","last_reported":1781596237,"current_range_meters":6400,"station_id":"ce4bha92rcd13ifvqeh0","pricing_plan_id":"cebpf4jnsgd1na2vs0mg"},{"bike_id":"c8358c4f-314d-41c2-9d70-c9dd28e7c16d","system_id":"levelo_inurba_marseille","lat":43.33151,"lon":5.37946,"is_reserved":false,"is_disabled":false,"rental_uris":{"android":"levelo://app?vid=c8358c4f-314d-41c2-9d70-c9dd28e7c16d","ios":"levelo://app?vid=c8358c4f-314d-41c2-9d70-c9dd28e7c16d"},"vehicle_type_id":"4","last_reported":1781596237,"current_range_meters":6400,"station_id":"","pricing_plan_id":"cebpf4jnsgd1na2vs0mg"},{"bike_id":"0664e133-7b00-41bb-8bd6-5fd89c6bf821","system_id":"levelo_inurba_marseille","lat":43.27728,"lon":5.39601,"is_reserved":false,"is_disabled":false,"rental_uris":{"android":"levelo://app?vid=0664e133-7b00-41bb-8bd6-5fd89c6bf821","ios":"levelo://app?vid=0664e133-7b00-41bb-8bd6-5fd89c6bf821"},"vehicle_type_id":"4","last_reported":1781596237,"current_range_meters":6400,"station_id":"","pricing_plan_id":"cebpf4jnsgd1na2vs0mg"},{"bike_id":"8c986069-cdd5-410c-97d1-d4a610b76b92","system_id":"levelo_inurba_marseille","lat":43.26194,"lon":5.3744,"is_reserved":false,"is_disabled":true,"rental_uris":{"android":"levelo://app?vid=8c986069-cdd5-410c-97d1-d4a610b76b92","ios":"levelo://app?vid=8c986069-cdd5-410c-97d1-d4a610b76b92"},"vehicle_type_id":"4","last_reported":1781596237,"current_range_meters":6400,"station_id":"","pricing_plan_id":"cebpf4jnsgd1na2vs0mg"},{"bike_id":"1e805f45-94b9-4d5c-8991-1a4dce4a5839","system_id":"levelo_inurba_marseille","lat":43.24711,"lon":5.39487,"is_reserved":false,"is_disabled":false,"rental_uris":{"android":"levelo://app?vid=1e805f45-94b9-4d5c-8991-1a4dce4a5839","ios":"levelo://app?vid=1e805f45-94b9-4d5c-8991-1a4dce4a5839"},"vehicle_type_id":"4","last_reported":1781596237,"current_range_meters":6400,"station_id":"","pricing_plan_id":"cebpf4jnsgd1na2vs0mg"},{"bike_id":"552bd980-f5a7-4c04-b35c-da4d40bdd299","system_id":"levelo_inurba_marseille","lat":43.28708,"lon":5.46678,"is_reserved":false,"is_disabled":false,"rental_uris":{"android":"levelo://app?vid=552bd980-f5a7-4c04-b35c-da4d40bdd299","ios":"levelo://app?vid=552bd980-f5a7-4c04-b35c-da4d40bdd299"},"vehicle_type_id":"4","last_reported":1781596237,"current_range_meters":6400,"station_id":"st_d6tc3vkotcvc738tfjhg","pricing_plan_id":"cebpf4jnsgd1na2vs0mg"},{"bike_id":"32315ed8-aff5-442e-a5fc-a92f71df1c6a","system_id":"levelo_inurba_marseille","lat":43.279504,"lon":5.387202,"is_reserved":false,"is_disabled":false,"rental_uris":{"android":"levelo://app?vid=32315ed8-aff5-442e-a5fc-a92f71df1c6a","ios":"levelo://app?vid=32315ed8-aff5-442e-a5fc-a92f71df1c6a"},"vehicle_type_id":"4","last_reported":1781596237,"current_range_meters":6400,"station_id":"","pricing_plan_id":"cebpf4jnsgd1na2vs0mg"},{"bike_id":"2aa5eac9-c087-436b-b40f-d916197fd321","system_id":"levelo_inurba_marseille","lat":43.29607,"lon":5.37476,"is_reserved":false,"is_disabled":true,"rental_uris":{"android":"levelo://app?vid=2aa5eac9-c087-436b-b40f-d916197fd321","ios":"levelo://app?vid=2aa5eac9-c087-436b-b40f-d916197fd321"},"vehicle_type_id":"4","last_reported":1781596237,"current_range_meters":6400,"station_id":"","pricing_plan_id":"cebpf4jnsgd1na2vs0mg"},{"bike_id":"db9f8069-11de-48e2-9bee-2dcfc7c1fc26","system_id":"levelo_inurba_marseille","lat":43.29247,"lon":5.40917,"is_reserved":false,"is_disabled":false,"rental_uris":{"android":"levelo://app?vid=db9f8069-11de-48e2-9bee-2dcfc7c1fc26","ios":"levelo://app?vid=db9f8069-11de-48e2-9bee-2dcfc7c1fc26"},"vehicle_type_id":"4","last_reported":1781596237,"current_range_meters":6400,"station_id":"ce4bh192rcd13ifvqdc0","pricing_plan_id":"cebpf4jnsgd1na2vs0mg"},{"bike_id":"0cca5a1f-7507-49f7-9791-cbaeb1832311","system_id":"levelo_inurba_marseille","lat":43.24462,"lon":5.43965,"is_reserved":false,"is_disabled":false,"rental_uris":{"android":"levelo://app?vid=0cca5a1f-7507-49f7-9791-cbaeb1832311","ios":"levelo://app?vid=0cca5a1f-7507-49f7-9791-cbaeb1832311"},"vehicle_type_id":"4","last_reported":1781596237,"current_range_meters":6400,"station_id":"","pricing_plan_id":"cebpf4jnsgd1na2vs0mg"},{"bike_id":"df6a8f78-ee7d-4db1-9811-03e57c820235","system_id":"levelo_inurba_marseille","lat":43.31238,"lon":5.36797,"is_reserved":false,"is_disabled":true,"rental_uris":{"android":"levelo://app?vid=df6a8f78-ee7d-4db1-9811-03e57c820235","ios":"levelo://app?vid=df6a8f78-ee7d-4db1-9811-03e57c820235"},"vehicle_type_id":"4","last_reported":1781596237,"current_range_meters":6400,"station_id":"","pricing_plan_id":"cebpf4jnsgd1na2vs0mg"},{"bike_id":"cf1fb0fa-2675-4627-b381-bf9ecdab92bd","system_id":"levelo_inurba_marseille","lat":43.30959,"lon":5.39025,"is_reserved":false,"is_disabled":false,"rental_uris":{"android":"levelo://app?vid=cf1fb0fa-2675-4627-b381-bf9ecdab92bd","ios":"levelo://app?vid=cf1fb0fa-2675-4627-b381-bf9ecdab92bd"},"vehicle_type_id":"4","last_reported":1781596237,"current_range_meters":6400,"station_id":"ce4bgup2rcd13ifvqco0","pricing_plan_id":"cebpf4jnsgd1na2vs0mg"},{"bike_id":"ee17339f-9a50-4499-a870-3575b6ddb9df","system_id":"levelo_inurba_marseille","lat":43.28474,"lon":5.48399,"is_reserved":false,"is_disabled":false,"rental_uris":{"android":"levelo://app?vid=ee17339f-9a50-4499-a870-3575b6ddb9df","ios":"levelo://app?vid=ee17339f-9a50-4499-a870-3575b6ddb9df"},"vehicle_type_id":"4","last_reported":1781596237,"current_range_meters":6400,"station_id":"st_d3svhcjqgbts73a3dn0g","pricing_plan_id":"cebpf4jnsgd1na2vs0mg"},{"bike_id":"644eacd3-fcd1-49d3-9e60-c79490364449","system_id":"levelo_inurba_marseille","lat":43.32675,"lon":5.40163,"is_reserved":false,"is_disabled":false,"rental_uris":{"android":"levelo://app?vid=644eacd3-fcd1-49d3-9e60-c79490364449","ios":"levelo://app?vid=644eacd3-fcd1-49d3-9e60-c79490364449"},"vehicle_type_id":"4","last_reported":1781596237,"current_range_meters":6400,"station_id":"","pricing_plan_id":"cebpf4jnsgd1na2vs0mg"},{"bike_id":"07b5b769-6460-4f1b-8bc5-605e5ec4fd02","system_id":"levelo_inurba_marseille","lat":43.30534,"lon":5.36509,"is_reserved":false,"is_disabled":false,"rental_uris":{"android":"levelo://app?vid=07b5b769-6460-4f1b-8bc5-605e5ec4fd02","ios":"levelo://app?vid=07b5b769-6460-4f1b-8bc5-605e5ec4fd02"},"vehicle_type_id":"4","last_reported":1781596237,"current_range_meters":6400,"station_id":"","pricing_plan_id":"cebpf4jnsgd1na2vs0mg"},{"bike_id":"13cd1dce-eff5-4e79-ab7b-208b7daf0217","system_id":"levelo_inurba_marseille","lat":43.32515,"lon":5.414423,"is_reserved":false,"is_disabled":false,"rental_uris":{"android":"levelo://app?vid=13cd1dce-eff5-4e79-ab7b-208b7daf0217","ios":"levelo://app?vid=13cd1dce-eff5-4e79-ab7b-208b7daf0217"},"vehicle_type_id":"4","last_reported":1781596237,"current_range_meters":6400,"station_id":"ce4bhq12rcd13ifvqhhg","pricing_plan_id":"cebpf4jnsgd1na2vs0mg"},{"bike_id":"51f745fa-3c53-461d-b870-31922a948693","system_id":"levelo_inurba_marseille","lat":43.23165,"lon":5.40486,"is_reserved":false,"is_disabled":false,"rental_uris":{"android":"levelo://app?vid=51f745fa-3c53-461d-b870-31922a948693","ios":"levelo://app?vid=51f745fa-3c53-461d-b870-31922a948693"},"vehicle_type_id":"4","last_reported":1781596237,"current_range_meters":6400,"station_id":"","pricing_plan_id":"cebpf4jnsgd1na2vs0mg"},{"bike_id":"46545e80-77f6-4a7e-b78d-8c58ea9fe0f9","system_id":"levelo_inurba_marseille","lat":43.32485,"lon":5.36554,"is_reserved":false,"is_disabled":false,"rental_uris":{"android":"levelo://app?vid=46545e80-77f6-4a7e-b78d-8c58ea9fe0f9","ios":"levelo://app?vid=46545e80-77f6-4a7e-b78d-8c58ea9fe0f9"},"vehicle_type_id":"4","last_reported":1781596237,"current_range_meters":6400,"station_id":"ce4bhs12rcd13ifvqhvg","pricing_plan_id":"cebpf4jnsgd1na2vs0mg"},{"bike_id":"8975bbfe-7692-4d21-bfe6-ffb910e52416","system_id":"levelo_inurba_marseille","lat":43.32381,"lon":5.36715,"is_reserved":false,"is_disabled":false,"rental_uris":{"android":"levelo://app?vid=8975bbfe-7692-4d21-bfe6-ffb910e52416","ios":"levelo://app?vid=8975bbfe-7692-4d21-bfe6-ffb910e52416"},"vehicle_type_id":"4","last_reported":1781596237,"current_range_meters":6800,"station_id":"","pricing_plan_id":"cebpf4jnsgd1na2vs0mg"},{"bike_id":"0288c1db-f577-4062-a209-8c48c789b027","system_id":"levelo_inurba_marseille","lat":43.29201,"lon":5.36011,"is_reserved":false,"is_disabled":false,"rental_uris":{"android":"levelo://app?vid=0288c1db-f577-4062-a209-8c48c789b027","ios":"levelo://app?vid=0288c1db-f577-4062-a209-8c48c789b027"},"vehicle_type_id":"4","last_reported":1781596237,"current_range_meters":6800,"station_id":"","pricing_plan_id":"cebpf4jnsgd1na2vs0mg"},{"bike_id":"cddad825-ea1f-4531-a7f2-5ab6b54d16e8","system_id":"levelo_inurba_marseille","lat":43.29316,"lon":5.3949,"is_reserved":false,"is_disabled":false,"rental_uris":{"android":"levelo://app?vid=cddad825-ea1f-4531-a7f2-5ab6b54d16e8","ios":"levelo://app?vid=cddad825-ea1f-4531-a7f2-5ab6b54d16e8"},"vehicle_type_id":"4","last_reported":1781596237,"current_range_meters":6800,"station_id":"","pricing_plan_id":"cebpf4jnsgd1na2vs0mg"},{"bike_id":"4d0e7fbe-16a4-4627-8e98-5e56b9b270e6","system_id":"levelo_inurba_marseille","lat":43.27208,"lon":5.39181,"is_reserved":false,"is_disabled":false,"rental_uris":{"android":"levelo://app?vid=4d0e7fbe-16a4-4627-8e98-5e56b9b270e6","ios":"levelo://app?vid=4d0e7fbe-16a4-4627-8e98-5e56b9b270e6"},"vehicle_type_id":"4","last_reported":1781596237,"current_range_meters":6800,"station_id":"ce4bhhp2rcd13ifvqfm0","pricing_plan_id":"cebpf4jnsgd1na2vs0mg"},{"bike_id":"4bde50df-6da3-4c75-b961-168af5e4d377","system_id":"levelo_inurba_marseille","lat":43.25087,"lon":5.39522,"is_reserved":false,"is_disabled":false,"rental_uris":{"android":"levelo://app?vid=4bde50df-6da3-4c75-b961-168af5e4d377","ios":"levelo://app?vid=4bde50df-6da3-4c75-b961-168af5e4d377"},"vehicle_type_id":"4","last_reported":1781596237,"current_range_meters":6800,"station_id":"ce4bhm12rcd13ifvqgkg","pricing_plan_id":"cebpf4jnsgd1na2vs0mg"},{"bike_id":"667daf79-e1dd-4c3d-9a8e-d3556ed06539","system_id":"levelo_inurba_marseille","lat":43.25588,"lon":5.38248,"is_reserved":false,"is_disabled":false,"rental_uris":{"android":"levelo://app?vid=667daf79-e1dd-4c3d-9a8e-d3556ed06539","ios":"levelo://app?vid=667daf79-e1dd-4c3d-9a8e-d3556ed06539"},"vehicle_type_id":"4","last_reported":1781596237,"current_range_meters":6800,"station_id":"ce4bhih2rcd13ifvqfs0","pricing_plan_id":"cebpf4jnsgd1na2vs0mg"},{"bike_id":"d851c8c8-fe58-4f4f-8195-0abaa5a8cbcc","system_id":"levelo_inurba_marseille","lat":43.27922,"lon":5.38727,"is_reserved":false,"is_disabled":false,"rental_uris":{"android":"levelo://app?vid=d851c8c8-fe58-4f4f-8195-0abaa5a8cbcc","ios":"levelo://app?vid=d851c8c8-fe58-4f4f-8195-0abaa5a8cbcc"},"vehicle_type_id":"4","last_reported":1781596237,"current_range_meters":6800,"station_id":"","pricing_plan_id":"cebpf4jnsgd1na2vs0mg"},{"bike_id":"9c866a69-4578-4890-bdf7-f63af74dc162","system_id":"levelo_inurba_marseille","lat":43.30947,"lon":5.36839,"is_reserved":false,"is_disabled":false,"rental_uris":{"android":"levelo://app?vid=9c866a69-4578-4890-bdf7-f63af74dc162","ios":"levelo://app?vid=9c866a69-4578-4890-bdf7-f63af74dc162"},"vehicle_type_id":"4","last_reported":1781596237,"current_range_meters":6800,"station_id":"ce4bgn92rcd13ifvqbvg","pricing_plan_id":"cebpf4jnsgd1na2vs0mg"},{"bike_id":"57b07549-a96e-4ec6-b0fa-6b611c6ad420","system_id":"levelo_inurba_marseille","lat":43.32105,"lon":5.36767,"is_reserved":false,"is_disabled":false,"rental_uris":{"android":"levelo://app?vid=57b07549-a96e-4ec6-b0fa-6b611c6ad420","ios":"levelo://app?vid=57b07549-a96e-4ec6-b0fa-6b611c6ad420"},"vehicle_type_id":"4","last_reported":1781596237,"current_range_meters":6800,"station_id":"ce4bhrh2rcd13ifvqhug","pricing_plan_id":"cebpf4jnsgd1na2vs0mg"},{"bike_id":"50a4ac47-4426-4904-9e85-894204c1b3e6","system_id":"levelo_inurba_marseille","lat":43.26933,"lon":5.38908,"is_reserved":false,"is_disabled":false,"rental_uris":{"android":"levelo://app?vid=50a4ac47-4426-4904-9e85-894204c1b3e6","ios":"levelo://app?vid=50a4ac47-4426-4904-9e85-894204c1b3e6"},"vehicle_type_id":"4","last_reported":1781596237,"current_range_meters":6800,"station_id":"ce4bhhh2rcd13ifvqfl0","pricing_plan_id":"cebpf4jnsgd1na2vs0mg"},{"bike_id":"d4122e20-6e23-4da9-951b-c3367463d54e","system_id":"levelo_inurba_marseille","lat":43.24996,"lon":5.38926,"is_reserved":false,"is_disabled":false,"rental_uris":{"android":"levelo://app?vid=d4122e20-6e23-4da9-951b-c3367463d54e","ios":"levelo://app?vid=d4122e20-6e23-4da9-951b-c3367463d54e"},"vehicle_type_id":"4","last_reported":1781596237,"current_range_meters":6800,"station_id":"ce4bhgp2rcd13ifvqfd0","pricing_plan_id":"cebpf4jnsgd1na2vs0mg"},{"bike_id":"080ae7f8-ebed-4d77-8980-50cc1035d758","system_id":"levelo_inurba_marseille","lat":43.2972,"lon":5.37662,"is_reserved":false,"is_disabled":true,"rental_uris":{"android":"levelo://app?vid=080ae7f8-ebed-4d77-8980-50cc1035d758","ios":"levelo://app?vid=080ae7f8-ebed-4d77-8980-50cc1035d758"},"vehicle_type_id":"4","last_reported":1781596237,"current_range_meters":6800,"station_id":"ce4bgkh2rcd13ifvqbl0","pricing_plan_id":"cebpf4jnsgd1na2vs0mg"},{"bike_id":"1176e056-508b-4f45-9139-b6c669b5ab65","system_id":"levelo_inurba_marseille","lat":43.28486,"lon":5.48386,"is_reserved":false,"is_disabled":false,"rental_uris":{"android":"levelo://app?vid=1176e056-508b-4f45-9139-b6c669b5ab65","ios":"levelo://app?vid=1176e056-508b-4f45-9139-b6c669b5ab65"},"vehicle_type_id":"4","last_reported":1781596237,"current_range_meters":6800,"station_id":"st_d3svhcjqgbts73a3dn0g","pricing_plan_id":"cebpf4jnsgd1na2vs0mg"},{"bike_id":"7c03db94-6fe3-4182-abc9-1f74746d5fbd","system_id":"levelo_inurba_marseille","lat":43.30455,"lon":5.37888,"is_reserved":false,"is_disabled":true,"rental_uris":{"android":"levelo://app?vid=7c03db94-6fe3-4182-abc9-1f74746d5fbd","ios":"levelo://app?vid=7c03db94-6fe3-4182-abc9-1f74746d5fbd"},"vehicle_type_id":"4","last_reported":1781596237,"current_range_meters":6800,"station_id":"ce4bgup2rcd13ifvqcn0","pricing_plan_id":"cebpf4jnsgd1na2vs0mg"},{"bike_id":"69ff9e27-e6f4-44f6-b66f-bd4f1371d05b","system_id":"levelo_inurba_marseille","lat":43.29486,"lon":5.43294,"is_reserved":false,"is_disabled":false,"rental_uris":{"android":"levelo://app?vid=69ff9e27-e6f4-44f6-b66f-bd4f1371d05b","ios":"levelo://app?vid=69ff9e27-e6f4-44f6-b66f-bd4f1371d05b"},"vehicle_type_id":"4","last_reported":1781596237,"current_range_meters":6800,"station_id":"st_d3j5ugp08ojc73fj9d10","pricing_plan_id":"cebpf4jnsgd1na2vs0mg"},{"bike_id":"dd33fe62-4196-4497-9c18-a047c29ff1fd","system_id":"levelo_inurba_marseille","lat":43.298807,"lon":5.388963,"is_reserved":false,"is_disabled":true,"rental_uris":{"android":"levelo://app?vid=dd33fe62-4196-4497-9c18-a047c29ff1fd","ios":"levelo://app?vid=dd33fe62-4196-4497-9c18-a047c29ff1fd"},"vehicle_type_id":"4","last_reported":1781596237,"current_range_meters":6800,"station_id":"ce4bh392rcd13ifvqdl0","pricing_plan_id":"cebpf4jnsgd1na2vs0mg"},{"bike_id":"539c560c-4cb7-4c5f-a88e-d55a8e3a9efd","system_id":"levelo_inurba_marseille","lat":43.29845,"lon":5.36256,"is_reserved":false,"is_disabled":false,"rental_uris":{"android":"levelo://app?vid=539c560c-4cb7-4c5f-a88e-d55a8e3a9efd","ios":"levelo://app?vid=539c560c-4cb7-4c5f-a88e-d55a8e3a9efd"},"vehicle_type_id":"4","last_reported":1781596237,"current_range_meters":6800,"station_id":"ce4bgpp2rcd13ifvqc3g","pricing_plan_id":"cebpf4jnsgd1na2vs0mg"},{"bike_id":"19b33546-3c6a-4895-9fef-ae00d03347d6","system_id":"levelo_inurba_marseille","lat":43.312266,"lon":5.368477,"is_reserved":false,"is_disabled":false,"rental_uris":{"android":"levelo://app?vid=19b33546-3c6a-4895-9fef-ae00d03347d6","ios":"levelo://app?vid=19b33546-3c6a-4895-9fef-ae00d03347d6"},"vehicle_type_id":"4","last_reported":1781596237,"current_range_meters":6800,"station_id":"ce4bgl92rcd13ifvqbq0","pricing_plan_id":"cebpf4jnsgd1na2vs0mg"},{"bike_id":"fbcae408-5e0b-477b-82b0-a7b83c0223a6","system_id":"levelo_inurba_marseille","lat":43.25576,"lon":5.38238,"is_reserved":false,"is_disabled":false,"rental_uris":{"android":"levelo://app?vid=fbcae408-5e0b-477b-82b0-a7b83c0223a6","ios":"levelo://app?vid=fbcae408-5e0b-477b-82b0-a7b83c0223a6"},"vehicle_type_id":"4","last_reported":1781596237,"current_range_meters":7200,"station_id":"ce4bhih2rcd13ifvqfs0","pricing_plan_id":"cebpf4jnsgd1na2vs0mg"},{"bike_id":"5c84af3f-18a3-4867-8dc3-b8e76a3c2346","system_id":"levelo_inurba_marseille","lat":43.26941,"lon":5.38632,"is_reserved":false,"is_disabled":true,"rental_uris":{"android":"levelo://app?vid=5c84af3f-18a3-4867-8dc3-b8e76a3c2346","ios":"levelo://app?vid=5c84af3f-18a3-4867-8dc3-b8e76a3c2346"},"vehicle_type_id":"4","last_reported":1781596237,"current_range_meters":7200,"station_id":"ce4bhh92rcd13ifvqfh0","pricing_plan_id":"cebpf4jnsgd1na2vs0mg"},{"bike_id":"652ad637-1471-4e30-b9a2-0525a87c5327","system_id":"levelo_inurba_marseille","lat":43.29263,"lon":5.37617,"is_reserved":false,"is_disabled":false,"rental_uris":{"android":"levelo://app?vid=652ad637-1471-4e30-b9a2-0525a87c5327","ios":"levelo://app?vid=652ad637-1471-4e30-b9a2-0525a87c5327"},"vehicle_type_id":"4","last_reported":1781596237,"current_range_meters":7200,"station_id":"ce4bgi12rcd13ifvqb80","pricing_plan_id":"cebpf4jnsgd1na2vs0mg"},{"bike_id":"3f1e297d-55bd-4cd9-bf63-bfc3f5a86811","system_id":"levelo_inurba_marseille","lat":43.29996,"lon":5.37839,"is_reserved":false,"is_disabled":false,"rental_uris":{"android":"levelo://app?vid=3f1e297d-55bd-4cd9-bf63-bfc3f5a86811","ios":"levelo://app?vid=3f1e297d-55bd-4cd9-bf63-bfc3f5a86811"},"vehicle_type_id":"4","last_reported":1781596237,"current_range_meters":7200,"station_id":"","pricing_plan_id":"cebpf4jnsgd1na2vs0mg"},{"bike_id":"31c504f7-a794-4699-a565-63192e74d9e8","system_id":"levelo_inurba_marseille","lat":43.299066,"lon":5.381389,"is_reserved":false,"is_disabled":false,"rental_uris":{"android":"levelo://app?vid=31c504f7-a794-4699-a565-63192e74d9e8","ios":"levelo://app?vid=31c504f7-a794-4699-a565-63192e74d9e8"},"vehicle_type_id":"4","last_reported":1781596237,"current_range_meters":7200,"station_id":"ce4bgj12rcd13ifvqbc0","pricing_plan_id":"cebpf4jnsgd1na2vs0mg"},{"bike_id":"0abd20f0-1763-441f-826e-af3fd592ee3b","system_id":"levelo_inurba_marseille","lat":43.30922,"lon":5.36836,"is_reserved":false,"is_disabled":false,"rental_uris":{"android":"levelo://app?vid=0abd20f0-1763-441f-826e-af3fd592ee3b","ios":"levelo://app?vid=0abd20f0-1763-441f-826e-af3fd592ee3b"},"vehicle_type_id":"4","last_reported":1781596237,"current_range_meters":7200,"station_id":"ce4bgn92rcd13ifvqbvg","pricing_plan_id":"cebpf4jnsgd1na2vs0mg"},{"bike_id":"63c1cc80-26eb-4316-ac5a-c4cbb05fbdb4","system_id":"levelo_inurba_marseille","lat":43.28472,"lon":5.48377,"is_reserved":false,"is_disabled":false,"rental_uris":{"android":"levelo://app?vid=63c1cc80-26eb-4316-ac5a-c4cbb05fbdb4","ios":"levelo://app?vid=63c1cc80-26eb-4316-ac5a-c4cbb05fbdb4"},"vehicle_type_id":"4","last_reported":1781596237,"current_range_meters":7200,"station_id":"st_d3svhcjqgbts73a3dn0g","pricing_plan_id":"cebpf4jnsgd1na2vs0mg"},{"bike_id":"a75f7f80-a470-41cb-ac6f-6abc7358bddc","system_id":"levelo_inurba_marseille","lat":43.24676,"lon":5.38172,"is_reserved":false,"is_disabled":false,"rental_uris":{"android":"levelo://app?vid=a75f7f80-a470-41cb-ac6f-6abc7358bddc","ios":"levelo://app?vid=a75f7f80-a470-41cb-ac6f-6abc7358bddc"},"vehicle_type_id":"4","last_reported":1781596237,"current_range_meters":7200,"station_id":"ce4bhih2rcd13ifvqfr0","pricing_plan_id":"cebpf4jnsgd1na2vs0mg"},{"bike_id":"c30ae016-4834-496e-b8ac-bfe62c120025","system_id":"levelo_inurba_marseille","lat":43.24474,"lon":5.42535,"is_reserved":false,"is_disabled":false,"rental_uris":{"android":"levelo://app?vid=c30ae016-4834-496e-b8ac-bfe62c120025","ios":"levelo://app?vid=c30ae016-4834-496e-b8ac-bfe62c120025"},"vehicle_type_id":"4","last_reported":1781596237,"current_range_meters":7200,"station_id":"st_d4a3vfp97mjs738cd8kg","pricing_plan_id":"cebpf4jnsgd1na2vs0mg"},{"bike_id":"1d66768f-2869-4826-adb3-e04e46e8f715","system_id":"levelo_inurba_marseille","lat":43.33554,"lon":5.37463,"is_reserved":false,"is_disabled":false,"rental_uris":{"android":"levelo://app?vid=1d66768f-2869-4826-adb3-e04e46e8f715","ios":"levelo://app?vid=1d66768f-2869-4826-adb3-e04e46e8f715"},"vehicle_type_id":"4","last_reported":1781596237,"current_range_meters":7200,"station_id":"st_d46tts09ee8s73dlu43g","pricing_plan_id":"cebpf4jnsgd1na2vs0mg"},{"bike_id":"21242544-9e4c-461d-8c3c-60ea61faef13","system_id":"levelo_inurba_marseille","lat":43.31761,"lon":5.39017,"is_reserved":false,"is_disabled":false,"rental_uris":{"android":"levelo://app?vid=21242544-9e4c-461d-8c3c-60ea61faef13","ios":"levelo://app?vid=21242544-9e4c-461d-8c3c-60ea61faef13"},"vehicle_type_id":"4","last_reported":1781596237,"current_range_meters":7200,"station_id":"ce4bhqp2rcd13ifvqhng","pricing_plan_id":"cebpf4jnsgd1na2vs0mg"},{"bike_id":"5786c557-9560-4a10-93e8-f8d4cebf391f","system_id":"levelo_inurba_marseille","lat":43.25073,"lon":5.39544,"is_reserved":false,"is_disabled":false,"rental_uris":{"android":"levelo://app?vid=5786c557-9560-4a10-93e8-f8d4cebf391f","ios":"levelo://app?vid=5786c557-9560-4a10-93e8-f8d4cebf391f"},"vehicle_type_id":"4","last_reported":1781596237,"current_range_meters":7200,"station_id":"ce4bhm12rcd13ifvqgkg","pricing_plan_id":"cebpf4jnsgd1na2vs0mg"},{"bike_id":"9a17ac7a-4779-4d8b-98a6-dcf5e41c6d29","system_id":"levelo_inurba_marseille","lat":43.23967,"lon":5.36618,"is_reserved":false,"is_disabled":false,"rental_uris":{"android":"levelo://app?vid=9a17ac7a-4779-4d8b-98a6-dcf5e41c6d29","ios":"levelo://app?vid=9a17ac7a-4779-4d8b-98a6-dcf5e41c6d29"},"vehicle_type_id":"4","last_reported":1781596237,"current_range_meters":7200,"station_id":"ce4bhi12rcd13ifvqfp0","pricing_plan_id":"cebpf4jnsgd1na2vs0mg"},{"bike_id":"24ab2018-e47d-455c-a0b0-f6a54ae21bcc","system_id":"levelo_inurba_marseille","lat":43.27817,"lon":5.40683,"is_reserved":false,"is_disabled":true,"rental_uris":{"android":"levelo://app?vid=24ab2018-e47d-455c-a0b0-f6a54ae21bcc","ios":"levelo://app?vid=24ab2018-e47d-455c-a0b0-f6a54ae21bcc"},"vehicle_type_id":"4","last_reported":1781596237,"current_range_meters":7200,"station_id":"ce4bhnh2rcd13ifvqgtg","pricing_plan_id":"cebpf4jnsgd1na2vs0mg"},{"bike_id":"3bccd0f8-c96a-4dbf-9045-4ed262ee8b44","system_id":"levelo_inurba_marseille","lat":43.26793,"lon":5.39415,"is_reserved":false,"is_disabled":false,"rental_uris":{"android":"levelo://app?vid=3bccd0f8-c96a-4dbf-9045-4ed262ee8b44","ios":"levelo://app?vid=3bccd0f8-c96a-4dbf-9045-4ed262ee8b44"},"vehicle_type_id":"4","last_reported":1781596237,"current_range_meters":7200,"station_id":"ce4bhh12rcd13ifvqfg0","pricing_plan_id":"cebpf4jnsgd1na2vs0mg"},{"bike_id":"d405dd66-58bd-4376-a5c2-93e2248e5e05","system_id":"levelo_inurba_marseille","lat":43.30906,"lon":5.36857,"is_reserved":false,"is_disabled":false,"rental_uris":{"android":"levelo://app?vid=d405dd66-58bd-4376-a5c2-93e2248e5e05","ios":"levelo://app?vid=d405dd66-58bd-4376-a5c2-93e2248e5e05"},"vehicle_type_id":"4","last_reported":1781596237,"current_range_meters":7200,"station_id":"ce4bgn92rcd13ifvqbvg","pricing_plan_id":"cebpf4jnsgd1na2vs0mg"},{"bike_id":"be6a70b7-6594-448b-8779-f0c66f7a8eda","system_id":"levelo_inurba_marseille","lat":43.30457,"lon":5.37912,"is_reserved":false,"is_disabled":false,"rental_uris":{"android":"levelo://app?vid=be6a70b7-6594-448b-8779-f0c66f7a8eda","ios":"levelo://app?vid=be6a70b7-6594-448b-8779-f0c66f7a8eda"},"vehicle_type_id":"4","last_reported":1781596237,"current_range_meters":7200,"station_id":"ce4bgup2rcd13ifvqcn0","pricing_plan_id":"cebpf4jnsgd1na2vs0mg"},{"bike_id":"4b1184e8-72be-4f4a-85b1-5a6611344efb","system_id":"levelo_inurba_marseille","lat":43.27942,"lon":5.41043,"is_reserved":false,"is_disabled":false,"rental_uris":{"android":"levelo://app?vid=4b1184e8-72be-4f4a-85b1-5a6611344efb","ios":"levelo://app?vid=4b1184e8-72be-4f4a-85b1-5a6611344efb"},"vehicle_type_id":"4","last_reported":1781596237,"current_range_meters":7200,"station_id":"ce4bhnp2rcd13ifvqh0g","pricing_plan_id":"cebpf4jnsgd1na2vs0mg"},{"bike_id":"3a46714c-439b-4ccd-bcaf-8bab07093116","system_id":"levelo_inurba_marseille","lat":43.28527,"lon":5.3849,"is_reserved":false,"is_disabled":false,"rental_uris":{"android":"levelo://app?vid=3a46714c-439b-4ccd-bcaf-8bab07093116","ios":"levelo://app?vid=3a46714c-439b-4ccd-bcaf-8bab07093116"},"vehicle_type_id":"4","last_reported":1781596237,"current_range_meters":7200,"station_id":"","pricing_plan_id":"cebpf4jnsgd1na2vs0mg"},{"bike_id":"55284478-6c38-4211-8eb3-3e942febd525","system_id":"levelo_inurba_marseille","lat":43.28697,"lon":5.46679,"is_reserved":false,"is_disabled":false,"rental_uris":{"android":"levelo://app?vid=55284478-6c38-4211-8eb3-3e942febd525","ios":"levelo://app?vid=55284478-6c38-4211-8eb3-3e942febd525"},"vehicle_type_id":"4","last_reported":1781596237,"current_range_meters":7200,"station_id":"st_d6tc3vkotcvc738tfjhg","pricing_plan_id":"cebpf4jnsgd1na2vs0mg"},{"bike_id":"af1b3a4b-2825-40b9-94fc-904b7df48800","system_id":"levelo_inurba_marseille","lat":43.2794,"lon":5.41049,"is_reserved":false,"is_disabled":false,"rental_uris":{"android":"levelo://app?vid=af1b3a4b-2825-40b9-94fc-904b7df48800","ios":"levelo://app?vid=af1b3a4b-2825-40b9-94fc-904b7df48800"},"vehicle_type_id":"4","last_reported":1781596237,"current_range_meters":7200,"station_id":"ce4bhnp2rcd13ifvqh0g","pricing_plan_id":"cebpf4jnsgd1na2vs0mg"},{"bike_id":"6dd7a66f-91da-44f0-bc59-3790f3629b34","system_id":"levelo_inurba_marseille","lat":43.27073,"lon":5.42279,"is_reserved":false,"is_disabled":false,"rental_uris":{"android":"levelo://app?vid=6dd7a66f-91da-44f0-bc59-3790f3629b34","ios":"levelo://app?vid=6dd7a66f-91da-44f0-bc59-3790f3629b34"},"vehicle_type_id":"4","last_reported":1781596237,"current_range_meters":7200,"station_id":"ce4bhk92rcd13ifvqgb0","pricing_plan_id":"cebpf4jnsgd1na2vs0mg"},{"bike_id":"998002b7-86f0-4bf1-bce2-27c72133fddf","system_id":"levelo_inurba_marseille","lat":43.30446,"lon":5.37903,"is_reserved":false,"is_disabled":false,"rental_uris":{"android":"levelo://app?vid=998002b7-86f0-4bf1-bce2-27c72133fddf","ios":"levelo://app?vid=998002b7-86f0-4bf1-bce2-27c72133fddf"},"vehicle_type_id":"4","last_reported":1781596237,"current_range_meters":7200,"station_id":"ce4bgup2rcd13ifvqcn0","pricing_plan_id":"cebpf4jnsgd1na2vs0mg"},{"bike_id":"9316c0ed-2cb5-4b2f-8ec0-932240104021","system_id":"levelo_inurba_marseille","lat":43.30542,"lon":5.38427,"is_reserved":false,"is_disabled":false,"rental_uris":{"android":"levelo://app?vid=9316c0ed-2cb5-4b2f-8ec0-932240104021","ios":"levelo://app?vid=9316c0ed-2cb5-4b2f-8ec0-932240104021"},"vehicle_type_id":"4","last_reported":1781596237,"current_range_meters":8000,"station_id":"ce4bgg92rcd13ifvqb30","pricing_plan_id":"cebpf4jnsgd1na2vs0mg"},{"bike_id":"d1a71da9-9b42-4e6c-825f-93adbdce2249","system_id":"levelo_inurba_marseille","lat":43.30889,"lon":5.37202,"is_reserved":false,"is_disabled":true,"rental_uris":{"android":"levelo://app?vid=d1a71da9-9b42-4e6c-825f-93adbdce2249","ios":"levelo://app?vid=d1a71da9-9b42-4e6c-825f-93adbdce2249"},"vehicle_type_id":"4","last_reported":1781596237,"current_range_meters":8000,"station_id":"ce4bguh2rcd13ifvqckg","pricing_plan_id":"cebpf4jnsgd1na2vs0mg"},{"bike_id":"08fa2fe4-76a4-4e56-97b7-8d2e6cad8c69","system_id":"levelo_inurba_marseille","lat":43.29001,"lon":5.35616,"is_reserved":false,"is_disabled":true,"rental_uris":{"android":"levelo://app?vid=08fa2fe4-76a4-4e56-97b7-8d2e6cad8c69","ios":"levelo://app?vid=08fa2fe4-76a4-4e56-97b7-8d2e6cad8c69"},"vehicle_type_id":"4","last_reported":1781596237,"current_range_meters":8000,"station_id":"ce4bhb92rcd13ifvqen0","pricing_plan_id":"cebpf4jnsgd1na2vs0mg"},{"bike_id":"bbacbbb1-2394-40bd-9832-5b78a6947353","system_id":"levelo_inurba_marseille","lat":43.29785,"lon":5.40394,"is_reserved":false,"is_disabled":true,"rental_uris":{"android":"levelo://app?vid=bbacbbb1-2394-40bd-9832-5b78a6947353","ios":"levelo://app?vid=bbacbbb1-2394-40bd-9832-5b78a6947353"},"vehicle_type_id":"4","last_reported":1781596237,"current_range_meters":8000,"station_id":"ce4bh112rcd13ifvqd90","pricing_plan_id":"cebpf4jnsgd1na2vs0mg"},{"bike_id":"87846115-8400-498e-8cf7-6c0620a731ea","system_id":"levelo_inurba_marseille","lat":43.28479,"lon":5.48371,"is_reserved":false,"is_disabled":false,"rental_uris":{"android":"levelo://app?vid=87846115-8400-498e-8cf7-6c0620a731ea","ios":"levelo://app?vid=87846115-8400-498e-8cf7-6c0620a731ea"},"vehicle_type_id":"4","last_reported":1781596237,"current_range_meters":8000,"station_id":"st_d3svhcjqgbts73a3dn0g","pricing_plan_id":"cebpf4jnsgd1na2vs0mg"},{"bike_id":"3e0db31d-6c43-49e6-9e36-c0830e3b11a1","system_id":"levelo_inurba_marseille","lat":43.32362,"lon":5.36716,"is_reserved":false,"is_disabled":false,"rental_uris":{"android":"levelo://app?vid=3e0db31d-6c43-49e6-9e36-c0830e3b11a1","ios":"levelo://app?vid=3e0db31d-6c43-49e6-9e36-c0830e3b11a1"},"vehicle_type_id":"4","last_reported":1781596237,"current_range_meters":8000,"station_id":"ce4bhsh2rcd13ifvqi2g","pricing_plan_id":"cebpf4jnsgd1na2vs0mg"},{"bike_id":"eedfa3a8-b4a8-408b-9081-52bfc010c558","system_id":"levelo_inurba_marseille","lat":43.32556,"lon":5.41463,"is_reserved":false,"is_disabled":false,"rental_uris":{"android":"levelo://app?vid=eedfa3a8-b4a8-408b-9081-52bfc010c558","ios":"levelo://app?vid=eedfa3a8-b4a8-408b-9081-52bfc010c558"},"vehicle_type_id":"4","last_reported":1781596237,"current_range_meters":8000,"station_id":"ce4bhq12rcd13ifvqhhg","pricing_plan_id":"cebpf4jnsgd1na2vs0mg"},{"bike_id":"779a3112-4608-475e-bcad-71e35d676d18","system_id":"levelo_inurba_marseille","lat":43.29892,"lon":5.38108,"is_reserved":false,"is_disabled":true,"rental_uris":{"android":"levelo://app?vid=779a3112-4608-475e-bcad-71e35d676d18","ios":"levelo://app?vid=779a3112-4608-475e-bcad-71e35d676d18"},"vehicle_type_id":"4","last_reported":1781596237,"current_range_meters":8000,"station_id":"ce4bgj12rcd13ifvqbc0","pricing_plan_id":"cebpf4jnsgd1na2vs0mg"},{"bike_id":"4d8c51f0-5780-4dc0-8aca-97fafb11355d","system_id":"levelo_inurba_marseille","lat":43.25923,"lon":5.40908,"is_reserved":false,"is_disabled":false,"rental_uris":{"android":"levelo://app?vid=4d8c51f0-5780-4dc0-8aca-97fafb11355d","ios":"levelo://app?vid=4d8c51f0-5780-4dc0-8aca-97fafb11355d"},"vehicle_type_id":"4","last_reported":1781596237,"current_range_meters":8000,"station_id":"ce4bhm92rcd13ifvqglg","pricing_plan_id":"cebpf4jnsgd1na2vs0mg"},{"bike_id":"554507aa-e034-42e3-a419-4b02718cff3e","system_id":"levelo_inurba_marseille","lat":43.30145,"lon":5.39878,"is_reserved":false,"is_disabled":true,"rental_uris":{"android":"levelo://app?vid=554507aa-e034-42e3-a419-4b02718cff3e","ios":"levelo://app?vid=554507aa-e034-42e3-a419-4b02718cff3e"},"vehicle_type_id":"4","last_reported":1781596237,"current_range_meters":8000,"station_id":"ce4bh0h2rcd13ifvqd40","pricing_plan_id":"cebpf4jnsgd1na2vs0mg"},{"bike_id":"574d1002-3801-4f0f-93f3-afd198211729","system_id":"levelo_inurba_marseille","lat":43.31089,"lon":5.42438,"is_reserved":false,"is_disabled":true,"rental_uris":{"android":"levelo://app?vid=574d1002-3801-4f0f-93f3-afd198211729","ios":"levelo://app?vid=574d1002-3801-4f0f-93f3-afd198211729"},"vehicle_type_id":"4","last_reported":1781596237,"current_range_meters":8000,"station_id":"ce4bhp92rcd13ifvqhag","pricing_plan_id":"cebpf4jnsgd1na2vs0mg"},{"bike_id":"30b0c986-9a38-4eaa-8e67-5bc71ee92d28","system_id":"levelo_inurba_marseille","lat":43.24066,"lon":5.37748,"is_reserved":false,"is_disabled":false,"rental_uris":{"android":"levelo://app?vid=30b0c986-9a38-4eaa-8e67-5bc71ee92d28","ios":"levelo://app?vid=30b0c986-9a38-4eaa-8e67-5bc71ee92d28"},"vehicle_type_id":"4","last_reported":1781596237,"current_range_meters":8000,"station_id":"ce4bhnp2rcd13ifvqgvg","pricing_plan_id":"cebpf4jnsgd1na2vs0mg"},{"bike_id":"6a289758-c23e-4c1e-8dd4-e36bda731f2d","system_id":"levelo_inurba_marseille","lat":43.29311,"lon":5.37169,"is_reserved":false,"is_disabled":false,"rental_uris":{"android":"levelo://app?vid=6a289758-c23e-4c1e-8dd4-e36bda731f2d","ios":"levelo://app?vid=6a289758-c23e-4c1e-8dd4-e36bda731f2d"},"vehicle_type_id":"4","last_reported":1781596237,"current_range_meters":8000,"station_id":"ce4bgh92rcd13ifvqb40","pricing_plan_id":"cebpf4jnsgd1na2vs0mg"},{"bike_id":"abc92aa8-b9f3-42af-a8f9-a92a8b068ce5","system_id":"levelo_inurba_marseille","lat":43.31353,"lon":5.38498,"is_reserved":false,"is_disabled":false,"rental_uris":{"android":"levelo://app?vid=abc92aa8-b9f3-42af-a8f9-a92a8b068ce5","ios":"levelo://app?vid=abc92aa8-b9f3-42af-a8f9-a92a8b068ce5"},"vehicle_type_id":"4","last_reported":1781596237,"current_range_meters":8000,"station_id":"ce4bgt92rcd13ifvqcf0","pricing_plan_id":"cebpf4jnsgd1na2vs0mg"},{"bike_id":"0fe2aa10-9e82-4407-931f-5a86fbaa0e3f","system_id":"levelo_inurba_marseille","lat":43.2638,"lon":5.41084,"is_reserved":false,"is_disabled":true,"rental_uris":{"android":"levelo://app?vid=0fe2aa10-9e82-4407-931f-5a86fbaa0e3f","ios":"levelo://app?vid=0fe2aa10-9e82-4407-931f-5a86fbaa0e3f"},"vehicle_type_id":"4","last_reported":1781596237,"current_range_meters":8000,"station_id":"st_d4e5ca6na9uc73bfl5fg","pricing_plan_id":"cebpf4jnsgd1na2vs0mg"},{"bike_id":"8ed8fba0-b4ab-4893-abdb-a8fd7ce7606c","system_id":"levelo_inurba_marseille","lat":43.25137,"lon":5.40329,"is_reserved":false,"is_disabled":false,"rental_uris":{"android":"levelo://app?vid=8ed8fba0-b4ab-4893-abdb-a8fd7ce7606c","ios":"levelo://app?vid=8ed8fba0-b4ab-4893-abdb-a8fd7ce7606c"},"vehicle_type_id":"4","last_reported":1781596237,"current_range_meters":8000,"station_id":"ce4bhlh2rcd13ifvqgig","pricing_plan_id":"cebpf4jnsgd1na2vs0mg"},{"bike_id":"20d28c91-ba68-4575-a0fd-d55e19c32593","system_id":"levelo_inurba_marseille","lat":43.28483,"lon":5.48373,"is_reserved":false,"is_disabled":false,"rental_uris":{"android":"levelo://app?vid=20d28c91-ba68-4575-a0fd-d55e19c32593","ios":"levelo://app?vid=20d28c91-ba68-4575-a0fd-d55e19c32593"},"vehicle_type_id":"4","last_reported":1781596237,"current_range_meters":8000,"station_id":"st_d3svhcjqgbts73a3dn0g","pricing_plan_id":"cebpf4jnsgd1na2vs0mg"},{"bike_id":"e1b2170b-08b4-42fa-b2a2-076b040aa4a4","system_id":"levelo_inurba_marseille","lat":43.24543,"lon":5.39525,"is_reserved":false,"is_disabled":false,"rental_uris":{"android":"levelo://app?vid=e1b2170b-08b4-42fa-b2a2-076b040aa4a4","ios":"levelo://app?vid=e1b2170b-08b4-42fa-b2a2-076b040aa4a4"},"vehicle_type_id":"4","last_reported":1781596237,"current_range_meters":8000,"station_id":"ce4bhlp2rcd13ifvqgjg","pricing_plan_id":"cebpf4jnsgd1na2vs0mg"},{"bike_id":"324545b8-5767-4627-8302-98846305b6bf","system_id":"levelo_inurba_marseille","lat":43.2649,"lon":5.39545,"is_reserved":false,"is_disabled":false,"rental_uris":{"android":"levelo://app?vid=324545b8-5767-4627-8302-98846305b6bf","ios":"levelo://app?vid=324545b8-5767-4627-8302-98846305b6bf"},"vehicle_type_id":"4","last_reported":1781596237,"current_range_meters":8000,"station_id":"ce4bhi12rcd13ifvqfq0","pricing_plan_id":"cebpf4jnsgd1na2vs0mg"},{"bike_id":"280d03f8-d509-4ce9-a1b8-8667ebb7e127","system_id":"levelo_inurba_marseille","lat":43.2586,"lon":5.38871,"is_reserved":false,"is_disabled":false,"rental_uris":{"android":"levelo://app?vid=280d03f8-d509-4ce9-a1b8-8667ebb7e127","ios":"levelo://app?vid=280d03f8-d509-4ce9-a1b8-8667ebb7e127"},"vehicle_type_id":"4","last_reported":1781596237,"current_range_meters":8000,"station_id":"","pricing_plan_id":"cebpf4jnsgd1na2vs0mg"},{"bike_id":"e18f4c88-bd99-4150-b117-3bdadd746841","system_id":"levelo_inurba_marseille","lat":43.28716,"lon":5.46694,"is_reserved":false,"is_disabled":false,"rental_uris":{"android":"levelo://app?vid=e18f4c88-bd99-4150-b117-3bdadd746841","ios":"levelo://app?vid=e18f4c88-bd99-4150-b117-3bdadd746841"},"vehicle_type_id":"4","last_reported":1781596237,"current_range_meters":8000,"station_id":"st_d6tc3vkotcvc738tfjhg","pricing_plan_id":"cebpf4jnsgd1na2vs0mg"},{"bike_id":"78657639-19dd-49f6-870d-19629f31103e","system_id":"levelo_inurba_marseille","lat":43.31819,"lon":5.37996,"is_reserved":false,"is_disabled":false,"rental_uris":{"android":"levelo://app?vid=78657639-19dd-49f6-870d-19629f31103e","ios":"levelo://app?vid=78657639-19dd-49f6-870d-19629f31103e"},"vehicle_type_id":"4","last_reported":1781596237,"current_range_meters":8000,"station_id":"","pricing_plan_id":"cebpf4jnsgd1na2vs0mg"},{"bike_id":"57d472c5-7a46-4183-946c-6c6c3bf6ec1a","system_id":"levelo_inurba_marseille","lat":43.26534,"lon":5.3729,"is_reserved":false,"is_disabled":false,"rental_uris":{"android":"levelo://app?vid=57d472c5-7a46-4183-946c-6c6c3bf6ec1a","ios":"levelo://app?vid=57d472c5-7a46-4183-946c-6c6c3bf6ec1a"},"vehicle_type_id":"4","last_reported":1781596237,"current_range_meters":8000,"station_id":"ce4bhg12rcd13ifvqf70","pricing_plan_id":"cebpf4jnsgd1na2vs0mg"},{"bike_id":"57a964d9-4642-433e-a5ba-e93ac3d8b94c","system_id":"levelo_inurba_marseille","lat":43.29937,"lon":5.36525,"is_reserved":false,"is_disabled":true,"rental_uris":{"android":"levelo://app?vid=57a964d9-4642-433e-a5ba-e93ac3d8b94c","ios":"levelo://app?vid=57a964d9-4642-433e-a5ba-e93ac3d8b94c"},"vehicle_type_id":"4","last_reported":1781596237,"current_range_meters":8000,"station_id":"ce4bgm92rcd13ifvqbr0","pricing_plan_id":"cebpf4jnsgd1na2vs0mg"},{"bike_id":"40ecdfdd-c953-451d-ad17-b10a2d91fb3c","system_id":"levelo_inurba_marseille","lat":43.25089,"lon":5.39521,"is_reserved":false,"is_disabled":false,"rental_uris":{"android":"levelo://app?vid=40ecdfdd-c953-451d-ad17-b10a2d91fb3c","ios":"levelo://app?vid=40ecdfdd-c953-451d-ad17-b10a2d91fb3c"},"vehicle_type_id":"4","last_reported":1781596237,"current_range_meters":8000,"station_id":"ce4bhm12rcd13ifvqgkg","pricing_plan_id":"cebpf4jnsgd1na2vs0mg"},{"bike_id":"b74763e0-4cb6-49b1-9f1d-f654ab489391","system_id":"levelo_inurba_marseille","lat":43.22539,"lon":5.34831,"is_reserved":false,"is_disabled":false,"rental_uris":{"android":"levelo://app?vid=b74763e0-4cb6-49b1-9f1d-f654ab489391","ios":"levelo://app?vid=b74763e0-4cb6-49b1-9f1d-f654ab489391"},"vehicle_type_id":"4","last_reported":1781596237,"current_range_meters":8000,"station_id":"st_cvj5dfep6f1abm77gieg","pricing_plan_id":"cebpf4jnsgd1na2vs0mg"},{"bike_id":"4b5426be-9611-4d02-918d-053e1cce99b9","system_id":"levelo_inurba_marseille","lat":43.26347,"lon":5.41081,"is_reserved":false,"is_disabled":false,"rental_uris":{"android":"levelo://app?vid=4b5426be-9611-4d02-918d-053e1cce99b9","ios":"levelo://app?vid=4b5426be-9611-4d02-918d-053e1cce99b9"},"vehicle_type_id":"4","last_reported":1781596237,"current_range_meters":8400,"station_id":"st_d4e5ca6na9uc73bfl5fg","pricing_plan_id":"cebpf4jnsgd1na2vs0mg"},