{"last_updated":1703550838,"ttl":30,"version":"2.2","data":{"bikes":[{"bike_id":"6e23419d-4c8a-49d5-9746-07762211e5d6","system_id":"levelo_inurba_marseille","lat":43.3123,"lon":5.36848,"is_reserved":false,"is_disabled":false,"rental_uris":{"android":"levelo://app?vid=6e23419d-4c8a-49d5-9746-07762211e5d6","ios":"levelo://app?vid=6e23419d-4c8a-49d5-9746-07762211e5d6"},"vehicle_type_id":"4","last_reported":1703550839,"current_range_meters":31200,"station_id":"ce4bgl92rcd13ifvqbq0","pricing_plan_id":"free"},{"bike_id":"5638fa84-5757-41eb-9f19-89da68b06bc4","system_id":"levelo_inurba_marseille","lat":43.312239,"lon":5.368562,"is_reserved":false,"is_disabled":false,"rental_uris":{"android":"levelo://app?vid=5638fa84-5757-41eb-9f19-89da68b06bc4","ios":"levelo://app?vid=5638fa84-5757-41eb-9f19-89da68b06bc4"},"vehicle_type_id":"4","last_reported":1703550839,"current_range_meters":28800,"station_id":"ce4bgl92rcd13ifvqbq0","pricing_plan_id":"free"},{"bike_id":"199bdff0-0a22-4389-b670-1ad3d6a26ebd","system_id":"levelo_inurba_marseille","lat":43.312287,"lon":5.368627,"is_reserved":false,"is_disabled":false,"rental_uris":{"android":"levelo://app?vid=199bdff0-0a22-4389-b670-1ad3d6a26ebd","ios":"levelo://app?vid=199bdff0-0a22-4389-b670-1ad3d6a26ebd"},"vehicle_type_id":"4","last_reported":1703550839,"current_range_meters":19600,"station_id":"ce4bgl92rcd13ifvqbq0","pricing_plan_id":"free"},{"bike_id":"03d3923e-593f-40f3-b167-c1e438adf6cb","system_id":"levelo_inurba_marseille","lat":43.31232,"lon":5.36866,"is_reserved":false,"is_disabled":false,"rental_uris":{"android":"levelo://app?vid=03d3923e-593f-40f3-b167-c1e438adf6cb","ios":"levelo://app?vid=03d3923e-593f-40f3-b167-c1e438adf6cb"},"vehicle_type_id":"4","last_reported":1703550839,"current_range_meters":31200,"station_id":"ce4bgl92rcd13ifvqbq0","pricing_plan_id":"free"},{"bike_id":"90c4e781-4718-4887-9d11-bc440c61018f","system_id":"levelo_inurba_marseille","lat":43.309017,"lon":5.368407,"is_reserved":false,"is_disabled":false,"rental_uris":{"android":"levelo://app?vid=90c4e781-4718-4887-9d11-bc440c61018f","ios":"levelo://app?vid=90c4e781-4718-4887-9d11-bc440c61018f"},"vehicle_type_id":"4","last_reported":1703550839,"current_range_meters":18400,"station_id":"ce4bgn92rcd13ifvqbvg","pricing_plan_id":"free"},{"bike_id":"8dca0bcc-0173-4a99-a64c-a7b59c845a59","system_id":"levelo_inurba_marseille","lat":43.314811,"lon":5.373103,"is_reserved":false,"is_disabled":false,"rental_uris":{"android":"levelo://app?vid=8dca0bcc-0173-4a99-a64c-a7b59c845a59","ios":"levelo://app?vid=8dca0bcc-0173-4a99-a64c-a7b59c845a59"},"vehicle_type_id":"4","last_reported":1703550839,"current_range_meters":24800,"station_id":"ce4bgt12rcd13ifvqcd0","pricing_plan_id":"free"},{"bike_id":"cead5cf2-2178-4f12-9569-d1238c5ed777","system_id":"levelo_inurba_marseille","lat":43.314811,"lon":5.373103,"is_reserved":false,"is_disabled":false,"rental_uris":{"android":"levelo://app?vid=cead5cf2-2178-4f12-9569-d1238c5ed777","ios":"levelo://app?vid=cead5cf2-2178-4f12-9569-d1238c5ed777"},"vehicle_type_id":"4","last_reported":1703550839,"current_range_meters":16800,"station_id":"ce4bgt12rcd13ifvqcd0","pricing_plan_id":"free"},{"bike_id":"cc2f4e4f-2b28-4e84-be8f-32c8a171c9e1","system_id":"levelo_inurba_marseille","lat":43.316183,"lon":5.373042,"is_reserved":false,"is_disabled":false,"rental_uris":{"android":"levelo://app?vid=cc2f4e4f-2b28-4e84-be8f-32c8a171c9e1","ios":"levelo://app?vid=cc2f4e4f-2b28-4e84-be8f-32c8a171c9e1"},"vehicle_type_id":"4","last_reported":1703550839,"current_range_meters":26000,"station_id":"","pricing_plan_id":"free"},{"bike_id":"d2be49f4-d512-450f-80de-370a6da97420","system_id":"levelo_inurba_marseille","lat":43.318964,"lon":5.36877,"is_reserved":false,"is_disabled":false,"rental_uris":{"android":"levelo://app?vid=d2be49f4-d512-450f-80de-370a6da97420","ios":"levelo://app?vid=d2be49f4-d512-450f-80de-370a6da97420"},"vehicle_type_id":"4","last_reported":1703550839,"current_range_meters":8800,"station_id":"","pricing_plan_id":"free"},{"bike_id":"ed0ee458-d167-4624-8c61-96e3c5ea9645","system_id":"levelo_inurba_marseille","lat":43.305706,"lon":5.365654,"is_reserved":false,"is_disabled":false,"rental_uris":{"android":"levelo://app?vid=ed0ee458-d167-4624-8c61-96e3c5ea9645","ios":"levelo://app?vid=ed0ee458-d167-4624-8c61-96e3c5ea9645"},"vehicle_type_id":"4","last_reported":1703550839,"current_range_meters":4000,"station_id":"ce4bgs12rcd13ifvqcag","pricing_plan_id":"free"},{"bike_id":"1a71022c-fdb5-4632-a425-38d7ef4f21e4","system_id":"levelo_inurba_marseille","lat":43.318369,"lon":5.373936,"is_reserved":false,"is_disabled":false,"rental_uris":{"android":"levelo://app?vid=1a71022c-fdb5-4632-a425-38d7ef4f21e4","ios":"levelo://app?vid=1a71022c-fdb5-4632-a425-38d7ef4f21e4"},"vehicle_type_id":"4","last_reported":1703550839,"current_range_meters":0,"station_id":"","pricing_plan_id":"free"},{"bike_id":"5a73aab7-09b4-48d6-b54c-5aaa4ec3dcc0","system_id":"levelo_inurba_marseille","lat":43.311131,"lon":5.377651,"is_reserved":false,"is_disabled":false,"rental_uris":{"android":"levelo://app?vid=5a73aab7-09b4-48d6-b54c-5aaa4ec3dcc0","ios":"levelo://app?vid=5a73aab7-09b4-48d6-b54c-5aaa4ec3dcc0"},"vehicle_type_id":"4","last_reported":1703550839,"current_range_meters":10400,"station_id":"ce4bgt92rcd13ifvqcg0","pricing_plan_id":"free"},{"bike_id":"5a5c19bd-2852-4b8d-8cf6-f2c9bb53a79d","system_id":"levelo_inurba_marseille","lat":43.311131,"lon":5.377651,"is_reserved":false,"is_disabled":false,"rental_uris":{"android":"levelo://app?vid=5a5c19bd-2852-4b8d-8cf6-f2c9bb53a79d","ios":"levelo://app?vid=5a5c19bd-2852-4b8d-8cf6-f2c9bb53a79d"},"vehicle_type_id":"4","last_reported":1703550839,"current_range_meters":26800,"station_id":"ce4bgt92rcd13ifvqcg0","pricing_plan_id":"free"},{"bike_id":"a3653722-7878-4751-9775-51566a1a16ca","system_id":"levelo_inurba_marseille","lat":43.311131,"lon":5.377651,"is_reserved":false,"is_disabled":false,"rental_uris":{"android":"levelo://app?vid=a3653722-7878-4751-9775-51566a1a16ca","ios":"levelo://app?vid=a3653722-7878-4751-9775-51566a1a16ca"},"vehicle_type_id":"4","last_reported":1703550839,"current_range_meters":23200,"station_id":"ce4bgt92rcd13ifvqcg0","pricing_plan_id":"free"},{"bike_id":"01c47931-569a-48c3-9891-42dc90e36b1a","system_id":"levelo_inurba_marseille","lat":43.311131,"lon":5.377651,"is_reserved":false,"is_disabled":false,"rental_uris":{"android":"levelo://app?vid=01c47931-569a-48c3-9891-42dc90e36b1a","ios":"levelo://app?vid=01c47931-569a-48c3-9891-42dc90e36b1a"},"vehicle_type_id":"4","last_reported":1703550839,"current_range_meters":16000,"station_id":"ce4bgt92rcd13ifvqcg0","pricing_plan_id":"free"},{"bike_id":"9c0a7070-f843-4178-9889-659edeccc0a2","system_id":"levelo_inurba_marseille","lat":43.311256,"lon":5.377671,"is_reserved":false,"is_disabled":false,"rental_uris":{"android":"levelo://app?vid=9c0a7070-f843-4178-9889-659edeccc0a2","ios":"levelo://app?vid=9c0a7070-f843-4178-9889-659edeccc0a2"},"vehicle_type_id":"4","last_reported":1703550839,"current_range_meters":25200,"station_id":"ce4bgt92rcd13ifvqcg0","pricing_plan_id":"free"},{"bike_id":"757d7b06-9591-43f4-9f2e-8e8a6701d35e","system_id":"levelo_inurba_marseille","lat":43.31121,"lon":5.3777,"is_reserved":false,"is_disabled":false,"rental_uris":{"android":"levelo://app?vid=757d7b06-9591-43f4-9f2e-8e8a6701d35e","ios":"levelo://app?vid=757d7b06-9591-43f4-9f2e-8e8a6701d35e"},"vehicle_type_id":"4","last_reported":1703550839,"current_range_meters":18800,"station_id":"ce4bgt92rcd13ifvqcg0","pricing_plan_id":"free"},{"bike_id":"9152484a-8e6d-4af8-a30f-445f3424d945","system_id":"levelo_inurba_marseille","lat":43.311209,"lon":5.377703,"is_reserved":false,"is_disabled":false,"rental_uris":{"android":"levelo://app?vid=9152484a-8e6d-4af8-a30f-445f3424d945","ios":"levelo://app?vid=9152484a-8e6d-4af8-a30f-445f3424d945"},"vehicle_type_id":"4","last_reported":1703550839,"current_range_meters":0,"station_id":"ce4bgt92rcd13ifvqcg0","pricing_plan_id":"free"},{"bike_id":"988c8d7f-bb79-4a6c-b63c-0e5007b7494b","system_id":"levelo_inurba_marseille","lat":43.31119,"lon":5.37773,"is_reserved":false,"is_disabled":false,"rental_uris":{"android":"levelo://app?vid=988c8d7f-bb79-4a6c-b63c-0e5007b7494b","ios":"levelo://app?vid=988c8d7f-bb79-4a6c-b63c-0e5007b7494b"},"vehicle_type_id":"4","last_reported":1703550839,"current_range_meters":11600,"station_id":"ce4bgt92rcd13ifvqcg0","pricing_plan_id":"free"},{"bike_id":"d3de8212-6286-49a4-b0d3-fd02d927aba1","system_id":"levelo_inurba_marseille","lat":43.311133,"lon":5.377725,"is_reserved":false,"is_disabled":false,"rental_uris":{"android":"levelo://app?vid=d3de8212-6286-49a4-b0d3-fd02d927aba1","ios":"levelo://app?vid=d3de8212-6286-49a4-b0d3-fd02d927aba1"},"vehicle_type_id":"4","last_reported":1703550839,"current_range_meters":30000,"station_id":"ce4bgt92rcd13ifvqcg0","pricing_plan_id":"free"},{"bike_id":"a595995d-ca34-4930-a8fc-5ab581fe8d5e","system_id":"levelo_inurba_marseille","lat":43.307945,"lon":5.376487,"is_reserved":false,"is_disabled":false,"rental_uris":{"android":"levelo://app?vid=a595995d-ca34-4930-a8fc-5ab581fe8d5e","ios":"levelo://app?vid=a595995d-ca34-4930-a8fc-5ab581fe8d5e"},"vehicle_type_id":"4","last_reported":1703550839,"current_range_meters":28000,"station_id":"ce4bgv92rcd13ifvqcq0","pricing_plan_id":"free"},{"bike_id":"e6eefbd8-ecea-42cb-8c7a-0640952ddaea","system_id":"levelo_inurba_marseille","lat":43.31778,"lon":5.37908,"is_reserved":false,"is_disabled":false,"rental_uris":{"android":"levelo://app?vid=e6eefbd8-ecea-42cb-8c7a-0640952ddaea","ios":"levelo://app?vid=e6eefbd8-ecea-42cb-8c7a-0640952ddaea"},"vehicle_type_id":"4","last_reported":1703550839,"current_range_meters":21600,"station_id":"","pricing_plan_id":"free"},{"bike_id":"b0787be5-4497-48ab-a3e6-bdf8e9978161","system_id":"levelo_inurba_marseille","lat":43.308012,"lon":5.381511,"is_reserved":false,"is_disabled":false,"rental_uris":{"android":"levelo://app?vid=b0787be5-4497-48ab-a3e6-bdf8e9978161","ios":"levelo://app?vid=b0787be5-4497-48ab-a3e6-bdf8e9978161"},"vehicle_type_id":"4","last_reported":1703550839,"current_range_meters":30400,"station_id":"ce4bgt12rcd13ifvqce0","pricing_plan_id":"free"},{"bike_id":"229bf2d1-d7ea-45b8-a9e5-3e136a1e156c","system_id":"levelo_inurba_marseille","lat":43.308012,"lon":5.381511,"is_reserved":false,"is_disabled":false,"rental_uris":{"android":"levelo://app?vid=229bf2d1-d7ea-45b8-a9e5-3e136a1e156c","ios":"levelo://app?vid=229bf2d1-d7ea-45b8-a9e5-3e136a1e156c"},"vehicle_type_id":"4","last_reported":1703550839,"current_range_meters":17200,"station_id":"ce4bgt12rcd13ifvqce0","pricing_plan_id":"free"},{"bike_id":"cf197552-f0ad-4f9e-84d7-f131d006ff1e","system_id":"levelo_inurba_marseille","lat":43.308012,"lon":5.381511,"is_reserved":false,"is_disabled":false,"rental_uris":{"android":"levelo://app?vid=cf197552-f0ad-4f9e-84d7-f131d006ff1e","ios":"levelo://app?vid=cf197552-f0ad-4f9e-84d7-f131d006ff1e"},"vehicle_type_id":"4","last_reported":1703550839,"current_range_meters":12000,"station_id":"ce4bgt12rcd13ifvqce0","pricing_plan_id":"free"},{"bike_id":"ef105d1c-f939-4984-a867-8e83b6ea2d00","system_id":"levelo_inurba_marseille","lat":43.308012,"lon":5.381511,"is_reserved":false,"is_disabled":false,"rental_uris":{"android":"levelo://app?vid=ef105d1c-f939-4984-a867-8e83b6ea2d00","ios":"levelo://app?vid=ef105d1c-f939-4984-a867-8e83b6ea2d00"},"vehicle_type_id":"4","last_reported":1703550839,"current_range_meters":16800,"station_id":"ce4bgt12rcd13ifvqce0","pricing_plan_id":"free"},{"bike_id":"a1e72ce1-f608-4e4e-a7fb-e2cd494c0466","system_id":"levelo_inurba_marseille","lat":43.308012,"lon":5.381511,"is_reserved":false,"is_disabled":false,"rental_uris":{"android":"levelo://app?vid=a1e72ce1-f608-4e4e-a7fb-e2cd494c0466","ios":"levelo://app?vid=a1e72ce1-f608-4e4e-a7fb-e2cd494c0466"},"vehicle_type_id":"4","last_reported":1703550839,"current_range_meters":4400,"station_id":"ce4bgt12rcd13ifvqce0","pricing_plan_id":"free"},{"bike_id":"ad66302c-bb27-48a2-a02f-94a6a5b512f3","system_id":"levelo_inurba_marseille","lat":43.308012,"lon":5.381511,"is_reserved":false,"is_disabled":false,"rental_uris":{"android":"levelo://app?vid=ad66302c-bb27-48a2-a02f-94a6a5b512f3","ios":"levelo://app?vid=ad66302c-bb27-48a2-a02f-94a6a5b512f3"},"vehicle_type_id":"4","last_reported":1703550839,"current_range_meters":26000,"station_id":"ce4bgt12rcd13ifvqce0","pricing_plan_id":"free"},{"bike_id":"f5c0e4d6-16bd-47eb-ba92-aa201d0984ce","system_id":"levelo_inurba_marseille","lat":43.324771,"lon":5.36557,"is_reserved":false,"is_disabled":false,"rental_uris":{"android":"levelo://app?vid=f5c0e4d6-16bd-47eb-ba92-aa201d0984ce","ios":"levelo://app?vid=f5c0e4d6-16bd-47eb-ba92-aa201d0984ce"},"vehicle_type_id":"4","last_reported":1703550839,"current_range_meters":31200,"station_id":"ce4bhs12rcd13ifvqhvg","pricing_plan_id":"free"},{"bike_id":"673afe24-13ca-4117-906e-0ada444292f1","system_id":"levelo_inurba_marseille","lat":43.324771,"lon":5.36557,"is_reserved":false,"is_disabled":false,"rental_uris":{"android":"levelo://app?vid=673afe24-13ca-4117-906e-0ada444292f1","ios":"levelo://app?vid=673afe24-13ca-4117-906e-0ada444292f1"},"vehicle_type_id":"4","last_reported":1703550839,"current_range_meters":23600,"station_id":"ce4bhs12rcd13ifvqhvg","pricing_plan_id":"free"},{"bike_id":"c179e3f6-d96b-484f-8c69-1c965447df14","system_id":"levelo_inurba_marseille","lat":43.324771,"lon":5.36557,"is_reserved":false,"is_disabled":false,"rental_uris":{"android":"levelo://app?vid=c179e3f6-d96b-484f-8c69-1c965447df14","ios":"levelo://app?vid=c179e3f6-d96b-484f-8c69-1c965447df14"},"vehicle_type_id":"4","last_reported":1703550839,"current_range_meters":31200,"station_id":"ce4bhs12rcd13ifvqhvg","pricing_plan_id":"free"},{"bike_id":"9011995a-6fb0-4e38-9a9b-bdcc1110a2a4","system_id":"levelo_inurba_marseille","lat":43.30377,"lon":5.37851,"is_reserved":false,"is_disabled":false,"rental_uris":{"android":"levelo://app?vid=9011995a-6fb0-4e38-9a9b-bdcc1110a2a4","ios":"levelo://app?vid=9011995a-6fb0-4e38-9a9b-bdcc1110a2a4"},"vehicle_type_id":"4","last_reported":1703550839,"current_range_meters":20800,"station_id":"ce4bgup2rcd13ifvqcn0","pricing_plan_id":"free"},{"bike_id":"0f2f937d-76fd-40c6-b60d-f8845eb7f120","system_id":"levelo_inurba_marseille","lat":43.30143,"lon":5.37413,"is_reserved":false,"is_disabled":false,"rental_uris":{"android":"levelo://app?vid=0f2f937d-76fd-40c6-b60d-f8845eb7f120","ios":"levelo://app?vid=0f2f937d-76fd-40c6-b60d-f8845eb7f120"},"vehicle_type_id":"4","last_reported":1703550839,"current_range_meters":16400,"station_id":"ce4bgs92rcd13ifvqcc0","pricing_plan_id":"free"},{"bike_id":"70b0ad2a-6533-4324-9176-53aa3f1f6a7a","system_id":"levelo_inurba_marseille","lat":43.32,"lon":5.3814,"is_reserved":false,"is_disabled":false,"rental_uris":{"android":"levelo://app?vid=70b0ad2a-6533-4324-9176-53aa3f1f6a7a","ios":"levelo://app?vid=70b0ad2a-6533-4324-9176-53aa3f1f6a7a"},"vehicle_type_id":"4","last_reported":1703550839,"current_range_meters":4800,"station_id":"ce4bhr12rcd13ifvqhpg","pricing_plan_id":"free"},{"bike_id":"28941dab-2134-4d7a-bbf7-eba2c6616dfb","system_id":"levelo_inurba_marseille","lat":43.319935,"lon":5.381699,"is_reserved":false,"is_disabled":false,"rental_uris":{"android":"levelo://app?vid=28941dab-2134-4d7a-bbf7-eba2c6616dfb","ios":"levelo://app?vid=28941dab-2134-4d7a-bbf7-eba2c6616dfb"},"vehicle_type_id":"4","last_reported":1703550839,"current_range_meters":20000,"station_id":"ce4bhr12rcd13ifvqhpg","pricing_plan_id":"free"},{"bike_id":"93f8fb21-a5a0-4c1a-91d1-c0567aaac083","system_id":"levelo_inurba_marseille","lat":43.319935,"lon":5.381699,"is_reserved":false,"is_disabled":false,"rental_uris":{"android":"levelo://app?vid=93f8fb21-a5a0-4c1a-91d1-c0567aaac083","ios":"levelo://app?vid=93f8fb21-a5a0-4c1a-91d1-c0567aaac083"},"vehicle_type_id":"4","last_reported":1703550839,"current_range_meters":24800,"station_id":"ce4bhr12rcd13ifvqhpg","pricing_plan_id":"free"},{"bike_id":"94a3ebcd-0c4e-449c-a10d-4ce3f1b66e63","system_id":"levelo_inurba_marseille","lat":43.313571,"lon":5.384829,"is_reserved":false,"is_disabled":false,"rental_uris":{"android":"levelo://app?vid=94a3ebcd-0c4e-449c-a10d-4ce3f1b66e63","ios":"levelo://app?vid=94a3ebcd-0c4e-449c-a10d-4ce3f1b66e63"},"vehicle_type_id":"4","last_reported":1703550839,"current_range_meters":25200,"station_id":"ce4bgt92rcd13ifvqcf0","pricing_plan_id":"free"},{"bike_id":"f4b3e50f-30c2-4fad-8ab1-4f6739011a14","system_id":"levelo_inurba_marseille","lat":43.313571,"lon":5.384829,"is_reserved":false,"is_disabled":false,"rental_uris":{"android":"levelo://app?vid=f4b3e50f-30c2-4fad-8ab1-4f6739011a14","ios":"levelo://app?vid=f4b3e50f-30c2-4fad-8ab1-4f6739011a14"},"vehicle_type_id":"4","last_reported":1703550839,"current_range_meters":29200,"station_id":"ce4bgt92rcd13ifvqcf0","pricing_plan_id":"free"},{"bike_id":"055860aa-c12e-42e1-9679-02f108662236","system_id":"levelo_inurba_marseille","lat":43.313571,"lon":5.384829,"is_reserved":false,"is_disabled":false,"rental_uris":{"android":"levelo://app?vid=055860aa-c12e-42e1-9679-02f108662236","ios":"levelo://app?vid=055860aa-c12e-42e1-9679-02f108662236"},"vehicle_type_id":"4","last_reported":1703550839,"current_range_meters":13600,"station_id":"ce4bgt92rcd13ifvqcf0","pricing_plan_id":"free"},{"bike_id":"b26b2b33-f8e1-4efa-bfc1-7e9278bee934","system_id":"levelo_inurba_marseille","lat":43.313571,"lon":5.384829,"is_reserved":false,"is_disabled":false,"rental_uris":{"android":"levelo://app?vid=b26b2b33-f8e1-4efa-bfc1-7e9278bee934","ios":"levelo://app?vid=b26b2b33-f8e1-4efa-bfc1-7e9278bee934"},"vehicle_type_id":"4","last_reported":1703550839,"current_range_meters":22000,"station_id":"ce4bgt92rcd13ifvqcf0","pricing_plan_id":"free"},{"bike_id":"bde236ab-7f3b-43db-8fed-22a76f00eb35","system_id":"levelo_inurba_marseille","lat":43.313571,"lon":5.384829,"is_reserved":false,"is_disabled":false,"rental_uris":{"android":"levelo://app?vid=bde236ab-7f3b-43db-8fed-22a76f00eb35","ios":"levelo://app?vid=bde236ab-7f3b-43db-8fed-22a76f00eb35"},"vehicle_type_id":"4","last_reported":1703550839,"current_range_meters":31200,"station_id":"ce4bgt92rcd13ifvqcf0","pricing_plan_id":"free"},{"bike_id":"e469245c-d31a-45c2-94bd-d7d556dea335","system_id":"levelo_inurba_marseille","lat":43.313571,"lon":5.384829,"is_reserved":false,"is_disabled":false,"rental_uris":{"android":"levelo://app?vid=e469245c-d31a-45c2-94bd-d7d556dea335","ios":"levelo://app?vid=e469245c-d31a-45c2-94bd-d7d556dea335"},"vehicle_type_id":"4","last_reported":1703550839,"current_range_meters":28800,"station_id":"ce4bgt92rcd13ifvqcf0","pricing_plan_id":"free"},{"bike_id":"3a21796f-521a-4ee5-b26e-ba8190bec170","system_id":"levelo_inurba_marseille","lat":43.299724,"lon":5.371829,"is_reserved":false,"is_disabled":false,"rental_uris":{"android":"levelo://app?vid=3a21796f-521a-4ee5-b26e-ba8190bec170","ios":"levelo://app?vid=3a21796f-521a-4ee5-b26e-ba8190bec170"},"vehicle_type_id":"4","last_reported":1703550839,"current_range_meters":26400,"station_id":"ce4bgr92rcd13ifvqc7g","pricing_plan_id":"free"},{"bike_id":"27aef149-ae08-45f5-9ff8-976f0c03b2e1","system_id":"levelo_inurba_marseille","lat":43.299724,"lon":5.371829,"is_reserved":false,"is_disabled":false,"rental_uris":{"android":"levelo://app?vid=27aef149-ae08-45f5-9ff8-976f0c03b2e1","ios":"levelo://app?vid=27aef149-ae08-45f5-9ff8-976f0c03b2e1"},"vehicle_type_id":"4","last_reported":1703550839,"current_range_meters":15600,"station_id":"ce4bgr92rcd13ifvqc7g","pricing_plan_id":"free"},{"bike_id":"ffa18e00-56e1-42d2-b5e3-5555b04a51b4","system_id":"levelo_inurba_marseille","lat":43.298433,"lon":5.362774,"is_reserved":false,"is_disabled":false,"rental_uris":{"android":"levelo://app?vid=ffa18e00-56e1-42d2-b5e3-5555b04a51b4","ios":"levelo://app?vid=ffa18e00-56e1-42d2-b5e3-5555b04a51b4"},"vehicle_type_id":"4","last_reported":1703550839,"current_range_meters":30000,"station_id":"ce4bgpp2rcd13ifvqc3g","pricing_plan_id":"free"},{"bike_id":"14e113e1-e172-4c57-ae02-7bf73a95d21b","system_id":"levelo_inurba_marseille","lat":43.298433,"lon":5.362774,"is_reserved":false,"is_disabled":false,"rental_uris":{"android":"levelo://app?vid=14e113e1-e172-4c57-ae02-7bf73a95d21b","ios":"levelo://app?vid=14e113e1-e172-4c57-ae02-7bf73a95d21b"},"vehicle_type_id":"4","last_reported":1703550839,"current_range_meters":30000,"station_id":"ce4bgpp2rcd13ifvqc3g","pricing_plan_id":"free"},{"bike_id":"8b414ef6-e648-4831-9810-a223151100af","system_id":"levelo_inurba_marseille","lat":43.298433,"lon":5.362774,"is_reserved":false,"is_disabled":false,"rental_uris":{"android":"levelo://app?vid=8b414ef6-e648-4831-9810-a223151100af","ios":"levelo://app?vid=8b414ef6-e648-4831-9810-a223151100af"},"vehicle_type_id":"4","last_reported":1703550839,"current_range_meters":30000,"station_id":"ce4bgpp2rcd13ifvqc3g","pricing_plan_id":"free"},{"bike_id":"755e31db-0c7e-4e3e-9d1d-38bd7d5b4038","system_id":"levelo_inurba_marseille","lat":43.298433,"lon":5.362774,"is_reserved":false,"is_disabled":false,"rental_uris":{"android":"levelo://app?vid=755e31db-0c7e-4e3e-9d1d-38bd7d5b4038","ios":"levelo://app?vid=755e31db-0c7e-4e3e-9d1d-38bd7d5b4038"},"vehicle_type_id":"4","last_reported":1703550839,"current_range_meters":30800,"station_id":"ce4bgpp2rcd13ifvqc3g","pricing_plan_id":"free"},{"bike_id":"ab96af4a-dea2-445d-86c8-b091967ed0ee","system_id":"levelo_inurba_marseille","lat":43.311722,"lon":5.387247,"is_reserved":false,"is_disabled":false,"rental_uris":{"android":"levelo://app?vid=ab96af4a-dea2-445d-86c8-b091967ed0ee","ios":"levelo://app?vid=ab96af4a-dea2-445d-86c8-b091967ed0ee"},"vehicle_type_id":"4","last_reported":1703550839,"current_range_meters":26800,"station_id":"ce4bgv12rcd13ifvqcp0","pricing_plan_id":"free"},{"bike_id":"3540d652-83ee-4e54-82bb-c4527c65e1e6","system_id":"levelo_inurba_marseille","lat":43.299243,"lon":5.374807,"is_reserved":false,"is_disabled":false,"rental_uris":{"android":"levelo://app?vid=3540d652-83ee-4e54-82bb-c4527c65e1e6","ios":"levelo://app?vid=3540d652-83ee-4e54-82bb-c4527c65e1e6"},"vehicle_type_id":"4","last_reported":1703550839,"current_range_meters":24000,"station_id":"ce4bgjh2rcd13ifvqbg0","pricing_plan_id":"free"},{"bike_id":"86304e2e-1d9c-46a6-a416-6dd59af081ce","system_id":"levelo_inurba_marseille","lat":43.299243,"lon":5.37481,"is_reserved":false,"is_disabled":false,"rental_uris":{"android":"levelo://app?vid=86304e2e-1d9c-46a6-a416-6dd59af081ce","ios":"levelo://app?vid=86304e2e-1d9c-46a6-a416-6dd59af081ce"},"vehicle_type_id":"4","last_reported":1703550839,"current_range_meters":19600,"station_id":"ce4bgjh2rcd13ifvqbg0","pricing_plan_id":"free"},{"bike_id":"0499cd73-dd0e-46a8-ab06-642255cb7ff9","system_id":"levelo_inurba_marseille","lat":43.311722,"lon":5.387247,"is_reserved":false,"is_disabled":false,"rental_uris":{"android":"levelo://app?vid=0499cd73-dd0e-46a8-ab06-642255cb7ff9","ios":"levelo://app?vid=0499cd73-dd0e-46a8-ab06-642255cb7ff9"},"vehicle_type_id":"4","last_reported":1703550839,"current_range_meters":30400,"station_id":"ce4bgv12rcd13ifvqcp0","pricing_plan_id":"free"},{"bike_id":"916a3e4e-4291-4c30-a6ac-c0fab32214fa","system_id":"levelo_inurba_marseille","lat":43.299243,"lon":5.37481,"is_reserved":false,"is_disabled":false,"rental_uris":{"android":"levelo://app?vid=916a3e4e-4291-4c30-a6ac-c0fab32214fa","ios":"levelo://app?vid=916a3e4e-4291-4c30-a6ac-c0fab32214fa"},"vehicle_type_id":"4","last_reported":1703550839,"current_range_meters":17600,"station_id":"ce4bgjh2rcd13ifvqbg0","pricing_plan_id":"free"},{"bike_id":"51714c4a-3132-4951-88ec-80e85fa125e8","system_id":"levelo_inurba_marseille","lat":43.32778,"lon":5.36704,"is_reserved":false,"is_disabled":false,"rental_uris":{"android":"levelo://app?vid=51714c4a-3132-4951-88ec-80e85fa125e8","ios":"levelo://app?vid=51714c4a-3132-4951-88ec-80e85fa125e8"},"vehicle_type_id":"4","last_reported":1703550839,"current_range_meters":7600,"station_id":"","pricing_plan_id":"free"},{"bike_id":"6f67326a-1664-406f-9978-902e013e2357","system_id":"levelo_inurba_marseille","lat":43.32828,"lon":5.36674,"is_reserved":false,"is_disabled":false,"rental_uris":{"android":"levelo://app?vid=6f67326a-1664-406f-9978-902e013e2357","ios":"levelo://app?vid=6f67326a-1664-406f-9978-902e013e2357"},"vehicle_type_id":"4","last_reported":1703550839,"current_range_meters":13600,"station_id":"ce4bhs92rcd13ifvqi0g","pricing_plan_id":"free"},{"bike_id":"904f83aa-e9ab-401d-84c1-9edfed82b884","system_id":"levelo_inurba_marseille","lat":43.328371,"lon":5.366909,"is_reserved":false,"is_disabled":false,"rental_uris":{"android":"levelo://app?vid=904f83aa-e9ab-401d-84c1-9edfed82b884","ios":"levelo://app?vid=904f83aa-e9ab-401d-84c1-9edfed82b884"},"vehicle_type_id":"4","last_reported":1703550839,"current_range_meters":21600,"station_id":"ce4bhs92rcd13ifvqi0g","pricing_plan_id":"free"},{"bike_id":"a448ca86-2b35-41e1-89c4-32a99bab0563","system_id":"levelo_inurba_marseille","lat":43.328371,"lon":5.366909,"is_reserved":false,"is_disabled":false,"rental_uris":{"android":"levelo://app?vid=a448ca86-2b35-41e1-89c4-32a99bab0563","ios":"levelo://app?vid=a448ca86-2b35-41e1-89c4-32a99bab0563"},"vehicle_type_id":"4","last_reported":1703550839,"current_range_meters":10000,"station_id":"ce4bhs92rcd13ifvqi0g","pricing_plan_id":"free"},{"bike_id":"605ea525-b7e3-49e5-9226-8acaed7e2b8b","system_id":"levelo_inurba_marseille","lat":43.297163,"lon":5.365866,"is_reserved":false,"is_disabled":false,"rental_uris":{"android":"levelo://app?vid=605ea525-b7e3-49e5-9226-8acaed7e2b8b","ios":"levelo://app?vid=605ea525-b7e3-49e5-9226-8acaed7e2b8b"},"vehicle_type_id":"4","last_reported":1703550839,"current_range_meters":27200,"station_id":"ce4bgn12rcd13ifvqbt0","pricing_plan_id":"free"},{"bike_id":"d82e0fe3-0b0d-4ebc-8296-54c2b9d919cd","system_id":"levelo_inurba_marseille","lat":43.328329,"lon":5.366839,"is_reserved":false,"is_disabled":false,"rental_uris":{"android":"levelo://app?vid=d82e0fe3-0b0d-4ebc-8296-54c2b9d919cd","ios":"levelo://app?vid=d82e0fe3-0b0d-4ebc-8296-54c2b9d919cd"},"vehicle_type_id":"4","last_reported":1703550839,"current_range_meters":12800,"station_id":"ce4bhs92rcd13ifvqi0g","pricing_plan_id":"free"},{"bike_id":"de708f00-7118-4d7c-9021-d7dcbd798473","system_id":"levelo_inurba_marseille","lat":43.32833,"lon":5.36691,"is_reserved":false,"is_disabled":false,"rental_uris":{"android":"levelo://app?vid=de708f00-7118-4d7c-9021-d7dcbd798473","ios":"levelo://app?vid=de708f00-7118-4d7c-9021-d7dcbd798473"},"vehicle_type_id":"4","last_reported":1703550839,"current_range_meters":28000,"station_id":"ce4bhs92rcd13ifvqi0g","pricing_plan_id":"free"},{"bike_id":"eba6867d-6d75-4354-b206-2059ecdc5071","system_id":"levelo_inurba_marseille","lat":43.32834,"lon":5.36689,"is_reserved":false,"is_disabled":false,"rental_uris":{"android":"levelo://app?vid=eba6867d-6d75-4354-b206-2059ecdc5071","ios":"levelo://app?vid=eba6867d-6d75-4354-b206-2059ecdc5071"},"vehicle_type_id":"4","last_reported":1703550839,"current_range_meters":9200,"station_id":"ce4bhs92rcd13ifvqi0g","pricing_plan_id":"free"},{"bike_id":"b0820bb7-0f3d-4184-b295-60ce5f91e973","system_id":"levelo_inurba_marseille","lat":43.297163,"lon":5.365866,"is_reserved":false,"is_disabled":false,"rental_uris":{"android":"levelo://app?vid=b0820bb7-0f3d-4184-b295-60ce5f91e973","ios":"levelo://app?vid=b0820bb7-0f3d-4184-b295-60ce5f91e973"},"vehicle_type_id":"4","last_reported":1703550839,"current_range_meters":30000,"station_id":"ce4bgn12rcd13ifvqbt0","pricing_plan_id":"free"},{"bike_id":"0bb4153f-1504-485b-aa48-4570feec2be4","system_id":"levelo_inurba_marseille","lat":43.297163,"lon":5.365866,"is_reserved":false,"is_disabled":false,"rental_uris":{"android":"levelo://app?vid=0bb4153f-1504-485b-aa48-4570feec2be4","ios":"levelo://app?vid=0bb4153f-1504-485b-aa48-4570feec2be4"},"vehicle_type_id":"4","last_reported":1703550839,"current_range_meters":21200,"station_id":"ce4bgn12rcd13ifvqbt0","pricing_plan_id":"free"},{"bike_id":"921b424d-ad0d-4c7a-9d74-66e3a49bfa19","system_id":"levelo_inurba_marseille","lat":43.32934,"lon":5.36612,"is_reserved":false,"is_disabled":false,"rental_uris":{"android":"levelo://app?vid=921b424d-ad0d-4c7a-9d74-66e3a49bfa19","ios":"levelo://app?vid=921b424d-ad0d-4c7a-9d74-66e3a49bfa19"},"vehicle_type_id":"4","last_reported":1703550839,"current_range_meters":23200,"station_id":"","pricing_plan_id":"free"},{"bike_id":"168ff66e-d3f0-4405-8a42-4e492b51d94f","system_id":"levelo_inurba_marseille","lat":43.295874,"lon":5.367589,"is_reserved":false,"is_disabled":false,"rental_uris":{"android":"levelo://app?vid=168ff66e-d3f0-4405-8a42-4e492b51d94f","ios":"levelo://app?vid=168ff66e-d3f0-4405-8a42-4e492b51d94f"},"vehicle_type_id":"4","last_reported":1703550839,"current_range_meters":11200,"station_id":"ce4bgph2rcd13ifvqc2g","pricing_plan_id":"free"},{"bike_id":"06e957bd-df49-4d32-abc4-2e72cf631ab7","system_id":"levelo_inurba_marseille","lat":43.29573,"lon":5.367355,"is_reserved":false,"is_disabled":false,"rental_uris":{"android":"levelo://app?vid=06e957bd-df49-4d32-abc4-2e72cf631ab7","ios":"levelo://app?vid=06e957bd-df49-4d32-abc4-2e72cf631ab7"},"vehicle_type_id":"4","last_reported":1703550839,"current_range_meters":26400,"station_id":"ce4bgph2rcd13ifvqc2g","pricing_plan_id":"free"},{"bike_id":"91a9ae8b-2432-4d2e-9d2d-48c4ab3ffd37","system_id":"levelo_inurba_marseille","lat":43.296921,"lon":5.376579,"is_reserved":false,"is_disabled":false,"rental_uris":{"android":"levelo://app?vid=91a9ae8b-2432-4d2e-9d2d-48c4ab3ffd37","ios":"levelo://app?vid=91a9ae8b-2432-4d2e-9d2d-48c4ab3ffd37"},"vehicle_type_id":"4","last_reported":1703550839,"current_range_meters":28800,"station_id":"ce4bgkh2rcd13ifvqbl0","pricing_plan_id":"free"},{"bike_id":"8cdfb88e-e140-445a-b6b9-f417da148278","system_id":"levelo_inurba_marseille","lat":43.309589,"lon":5.390258,"is_reserved":false,"is_disabled":false,"rental_uris":{"android":"levelo://app?vid=8cdfb88e-e140-445a-b6b9-f417da148278","ios":"levelo://app?vid=8cdfb88e-e140-445a-b6b9-f417da148278"},"vehicle_type_id":"4","last_reported":1703550839,"current_range_meters":30800,"station_id":"ce4bgup2rcd13ifvqco0","pricing_plan_id":"free"},{"bike_id":"f8f64ece-6363-4d47-8124-7f69d646e7b2","system_id":"levelo_inurba_marseille","lat":43.309589,"lon":5.390258,"is_reserved":false,"is_disabled":false,"rental_uris":{"android":"levelo://app?vid=f8f64ece-6363-4d47-8124-7f69d646e7b2","ios":"levelo://app?vid=f8f64ece-6363-4d47-8124-7f69d646e7b2"},"vehicle_type_id":"4","last_reported":1703550839,"current_range_meters":30000,"station_id":"ce4bgup2rcd13ifvqco0","pricing_plan_id":"free"},{"bike_id":"89a283eb-dc87-422c-b7ed-761c11ff3d6f","system_id":"levelo_inurba_marseille","lat":43.309589,"lon":5.390258,"is_reserved":false,"is_disabled":false,"rental_uris":{"android":"levelo://app?vid=89a283eb-dc87-422c-b7ed-761c11ff3d6f","ios":"levelo://app?vid=89a283eb-dc87-422c-b7ed-761c11ff3d6f"},"vehicle_type_id":"4","last_reported":1703550839,"current_range_meters":27200,"station_id":"ce4bgup2rcd13ifvqco0","pricing_plan_id":"free"},{"bike_id":"adaf1ec1-1576-4d92-98f8-5bebc30ae754","system_id":"levelo_inurba_marseille","lat":43.304278,"lon":5.388868,"is_reserved":false,"is_disabled":false,"rental_uris":{"android":"levelo://app?vid=adaf1ec1-1576-4d92-98f8-5bebc30ae754","ios":"levelo://app?vid=adaf1ec1-1576-4d92-98f8-5bebc30ae754"},"vehicle_type_id":"4","last_reported":1703550839,"current_range_meters":29600,"station_id":"ce4bgk12rcd13ifvqbi0","pricing_plan_id":"free"},{"bike_id":"a4bc8190-0840-4f0e-8db5-d772625564f5","system_id":"levelo_inurba_marseille","lat":43.298037,"lon":5.381066,"is_reserved":false,"is_disabled":false,"rental_uris":{"android":"levelo://app?vid=a4bc8190-0840-4f0e-8db5-d772625564f5","ios":"levelo://app?vid=a4bc8190-0840-4f0e-8db5-d772625564f5"},"vehicle_type_id":"4","last_reported":1703550839,"current_range_meters":27200,"station_id":"ce4bgip2rcd13ifvqbb0","pricing_plan_id":"free"},{"bike_id":"3698a174-c9d0-4313-991e-4aeb2e4b52e8","system_id":"levelo_inurba_marseille","lat":43.309039,"lon":5.371797,"is_reserved":false,"is_disabled":false,"rental_uris":{"android":"levelo://app?vid=3698a174-c9d0-4313-991e-4aeb2e4b52e8","ios":"levelo://app?vid=3698a174-c9d0-4313-991e-4aeb2e4b52e8"},"vehicle_type_id":"4","last_reported":1703550839,"current_range_meters":10000,"station_id":"ce4bguh2rcd13ifvqckg","pricing_plan_id":"free"},{"bike_id":"f4d47485-447d-436a-a0e0-2685883390a3","system_id":"levelo_inurba_marseille","lat":43.299717,"lon":5.384845,"is_reserved":false,"is_disabled":false,"rental_uris":{"android":"levelo://app?vid=f4d47485-447d-436a-a0e0-2685883390a3","ios":"levelo://app?vid=f4d47485-447d-436a-a0e0-2685883390a3"},"vehicle_type_id":"4","last_reported":1703550839,"current_range_meters":10800,"station_id":"ce4bgj92rcd13ifvqbd0","pricing_plan_id":"free"},{"bike_id":"92e95abc-9d2a-41e0-ba9f-2a6c71fb8e80","system_id":"levelo_inurba_marseille","lat":43.32367,"lon":5.388836,"is_reserved":false,"is_disabled":false,"rental_uris":{"android":"levelo://app?vid=92e95abc-9d2a-41e0-ba9f-2a6c71fb8e80","ios":"levelo://app?vid=92e95abc-9d2a-41e0-ba9f-2a6c71fb8e80"},"vehicle_type_id":"4","last_reported":1703550839,"current_range_meters":1200,"station_id":"ce4bhqp2rcd13ifvqhog","pricing_plan_id":"free"},{"bike_id":"f0f12ac5-1666-4a3a-a9a8-494990a6c085","system_id":"levelo_inurba_marseille","lat":43.32367,"lon":5.388836,"is_reserved":false,"is_disabled":false,"rental_uris":{"android":"levelo://app?vid=f0f12ac5-1666-4a3a-a9a8-494990a6c085","ios":"levelo://app?vid=f0f12ac5-1666-4a3a-a9a8-494990a6c085"},"vehicle_type_id":"4","last_reported":1703550839,"current_range_meters":18800,"station_id":"ce4bhqp2rcd13ifvqhog","pricing_plan_id":"free"},{"bike_id":"15836e91-eb0f-490a-9e87-3e187366ee7b","system_id":"levelo_inurba_marseille","lat":43.29602,"lon":5.381084,"is_reserved":false,"is_disabled":false,"rental_uris":{"android":"levelo://app?vid=15836e91-eb0f-490a-9e87-3e187366ee7b","ios":"levelo://app?vid=15836e91-eb0f-490a-9e87-3e187366ee7b"},"vehicle_type_id":"4","last_reported":1703550839,"current_range_meters":14800,"station_id":"ce4bgl12rcd13ifvqbo0","pricing_plan_id":"free"},{"bike_id":"7a37a047-f2d5-4c20-800a-cf853a793084","system_id":"levelo_inurba_marseille","lat":43.29602,"lon":5.381084,"is_reserved":false,"is_disabled":false,"rental_uris":{"android":"levelo://app?vid=7a37a047-f2d5-4c20-800a-cf853a793084","ios":"levelo://app?vid=7a37a047-f2d5-4c20-800a-cf853a793084"},"vehicle_type_id":"4","last_reported":1703550839,"current_range_meters":21200,"station_id":"ce4bgl12rcd13ifvqbo0","pricing_plan_id":"free"},{"bike_id":"e0f74817-3071-444d-9d77-cd26f5d66ea5","system_id":"levelo_inurba_marseille","lat":43.293259,"lon":5.371586,"is_reserved":false,"is_disabled":false,"rental_uris":{"android":"levelo://app?vid=e0f74817-3071-444d-9d77-cd26f5d66ea5","ios":"levelo://app?vid=e0f74817-3071-444d-9d77-cd26f5d66ea5"},"vehicle_type_id":"4","last_reported":1703550839,"current_range_meters":29600,"station_id":"ce4bgh92rcd13ifvqb40","pricing_plan_id":"free"},{"bike_id":"06bd850f-eb79-4fca-bf70-822288b6fc83","system_id":"levelo_inurba_marseille","lat":43.292749,"lon":5.368402,"is_reserved":false,"is_disabled":false,"rental_uris":{"android":"levelo://app?vid=06bd850f-eb79-4fca-bf70-822288b6fc83","ios":"levelo://app?vid=06bd850f-eb79-4fca-bf70-822288b6fc83"},"vehicle_type_id":"4","last_reported":1703550839,"current_range_meters":6400,"station_id":"ce4bhbp2rcd13ifvqesg","pricing_plan_id":"free"},{"bike_id":"030d2fa3-310b-4963-800f-1cf053b25b8d","system_id":"levelo_inurba_marseille","lat":43.292749,"lon":5.368402,"is_reserved":false,"is_disabled":false,"rental_uris":{"android":"levelo://app?vid=030d2fa3-310b-4963-800f-1cf053b25b8d","ios":"levelo://app?vid=030d2fa3-310b-4963-800f-1cf053b25b8d"},"vehicle_type_id":"4","last_reported":1703550839,"current_range_meters":0,"station_id":"ce4bhbp2rcd13ifvqesg","pricing_plan_id":"free"},{"bike_id":"66090169-56d0-4327-ac4a-5a0739ff15e9","system_id":"levelo_inurba_marseille","lat":43.292749,"lon":5.368402,"is_reserved":false,"is_disabled":false,"rental_uris":{"android":"levelo://app?vid=66090169-56d0-4327-ac4a-5a0739ff15e9","ios":"levelo://app?vid=66090169-56d0-4327-ac4a-5a0739ff15e9"},"vehicle_type_id":"4","last_reported":1703550839,"current_range_meters":13600,"station_id":"ce4bhbp2rcd13ifvqesg","pricing_plan_id":"free"},{"bike_id":"884182bf-3c6d-48d3-b8eb-c4065d87ab20","system_id":"levelo_inurba_marseille","lat":43.305994,"lon":5.393687,"is_reserved":false,"is_disabled":false,"rental_uris":{"android":"levelo://app?vid=884182bf-3c6d-48d3-b8eb-c4065d87ab20","ios":"levelo://app?vid=884182bf-3c6d-48d3-b8eb-c4065d87ab20"},"vehicle_type_id":"4","last_reported":1703550839,"current_range_meters":28800,"station_id":"ce4bh0p2rcd13ifvqd80","pricing_plan_id":"free"},{"bike_id":"89867a69-c089-47be-910e-1c8a1d09a954","system_id":"levelo_inurba_marseille","lat":43.32587,"lon":5.388967,"is_reserved":false,"is_disabled":false,"rental_uris":{"android":"levelo://app?vid=89867a69-c089-47be-910e-1c8a1d09a954","ios":"levelo://app?vid=89867a69-c089-47be-910e-1c8a1d09a954"},"vehicle_type_id":"4","last_reported":1703550839,"current_range_meters":15600,"station_id":"","pricing_plan_id":"free"},{"bike_id":"2b8a7470-bf5d-4d76-95a7-5af72995e357","system_id":"levelo_inurba_marseille","lat":43.298755,"lon":5.389152,"is_reserved":false,"is_disabled":false,"rental_uris":{"android":"levelo://app?vid=2b8a7470-bf5d-4d76-95a7-5af72995e357","ios":"levelo://app?vid=2b8a7470-bf5d-4d76-95a7-5af72995e357"},"vehicle_type_id":"4","last_reported":1703550839,"current_range_meters":19600,"station_id":"","pricing_plan_id":"free"},{"bike_id":"511b17e2-5e78-4d33-84c5-ce65cb435dd6","system_id":"levelo_inurba_marseille","lat":43.291994,"lon":5.357886,"is_reserved":false,"is_disabled":false,"rental_uris":{"android":"levelo://app?vid=511b17e2-5e78-4d33-84c5-ce65cb435dd6","ios":"levelo://app?vid=511b17e2-5e78-4d33-84c5-ce65cb435dd6"},"vehicle_type_id":"4","last_reported":1703550839,"current_range_meters":22400,"station_id":"ce4bhb12rcd13ifvqel0","pricing_plan_id":"free"},{"bike_id":"5b23cfcf-e3f7-4476-a240-b688ce204afb","system_id":"levelo_inurba_marseille","lat":43.309038,"lon":5.396546,"is_reserved":false,"is_disabled":false,"rental_uris":{"android":"levelo://app?vid=5b23cfcf-e3f7-4476-a240-b688ce204afb","ios":"levelo://app?vid=5b23cfcf-e3f7-4476-a240-b688ce204afb"},"vehicle_type_id":"4","last_reported":1703550839,"current_range_meters":31200,"station_id":"ce4bh012rcd13ifvqcv0","pricing_plan_id":"free"},{"bike_id":"03e32cbe-5393-440a-870a-77f5f867ef4f","system_id":"levelo_inurba_marseille","lat":43.309038,"lon":5.396546,"is_reserved":false,"is_disabled":false,"rental_uris":{"android":"levelo://app?vid=03e32cbe-5393-440a-870a-77f5f867ef4f","ios":"levelo://app?vid=03e32cbe-5393-440a-870a-77f5f867ef4f"},"vehicle_type_id":"4","last_reported":1703550839,"current_range_meters":29200,"station_id":"ce4bh012rcd13ifvqcv0","pricing_plan_id":"free"},{"bike_id":"3b6a2954-e5f3-459d-a612-236a61fd8a06","system_id":"levelo_inurba_marseille","lat":43.313291,"lon":5.396838,"is_reserved":false,"is_disabled":false,"rental_uris":{"android":"levelo://app?vid=3b6a2954-e5f3-459d-a612-236a61fd8a06","ios":"levelo://app?vid=3b6a2954-e5f3-459d-a612-236a61fd8a06"},"vehicle_type_id":"4","last_reported":1703550839,"current_range_meters":31600,"station_id":"ce4bgvp2rcd13ifvqcu0","pricing_plan_id":"free"},{"bike_id":"a09ebeed-7558-444f-95b7-aa722d223366","system_id":"levelo_inurba_marseille","lat":43.30886,"lon":5.396431,"is_reserved":false,"is_disabled":false,"rental_uris":{"android":"levelo://app?vid=a09ebeed-7558-444f-95b7-aa722d223366","ios":"levelo://app?vid=a09ebeed-7558-444f-95b7-aa722d223366"},"vehicle_type_id":"4","last_reported":1703550839,"current_range_meters":31200,"station_id":"ce4bh012rcd13ifvqcv0","pricing_plan_id":"free"},{"bike_id":"2050bbd9-9ea3-4674-a01e-c5ff6f9b8ab7","system_id":"levelo_inurba_marseille","lat":43.313291,"lon":5.396838,"is_reserved":false,"is_disabled":false,"rental_uris":{"android":"levelo://app?vid=2050bbd9-9ea3-4674-a01e-c5ff6f9b8ab7","ios":"levelo://app?vid=2050bbd9-9ea3-4674-a01e-c5ff6f9b8ab7"},"vehicle_type_id":"4","last_reported":1703550839,"current_range_meters":31600,"station_id":"ce4bgvp2rcd13ifvqcu0","pricing_plan_id":"free"},{"bike_id":"559788c7-5ce5-4749-98b3-3bfad09f16ba","system_id":"levelo_inurba_marseille","lat":43.313291,"lon":5.396838,"is_reserved":false,"is_disabled":false,"rental_uris":{"android":"levelo://app?vid=559788c7-5ce5-4749-98b3-3bfad09f16ba","ios":"levelo://app?vid=559788c7-5ce5-4749-98b3-3bfad09f16ba"},"vehicle_type_id":"4","last_reported":1703550839,"current_range_meters":24400,"station_id":"ce4bgvp2rcd13ifvqcu0","pricing_plan_id":"free"},{"bike_id":"935c3644-4d70-4774-bca2-bde5dbd5623a","system_id":"levelo_inurba_marseille","lat":43.313291,"lon":5.396838,"is_reserved":false,"is_disabled":false,"rental_uris":{"android":"levelo://app?vid=935c3644-4d70-4774-bca2-bde5dbd5623a","ios":"levelo://app?vid=935c3644-4d70-4774-bca2-bde5dbd5623a"},"vehicle_type_id":"4","last_reported":1703550839,"current_range_meters":25200,"station_id":"ce4bgvp2rcd13ifvqcu0","pricing_plan_id":"free"},{"bike_id":"cbf87d32-5f9f-4e25-8d2a-c13a87fd1b81","system_id":"levelo_inurba_marseille","lat":43.309038,"lon":5.396546,"is_reserved":false,"is_disabled":false,"rental_uris":{"android":"levelo://app?vid=cbf87d32-5f9f-4e25-8d2a-c13a87fd1b81","ios":"levelo://app?vid=cbf87d32-5f9f-4e25-8d2a-c13a87fd1b81"},"vehicle_type_id":"4","last_reported":1703550839,"current_range_meters":22800,"station_id":"ce4bh012rcd13ifvqcv0","pricing_plan_id":"free"},{"bike_id":"a4894250-475a-4850-803d-b1f1e47758c8","system_id":"levelo_inurba_marseille","lat":43.309038,"lon":5.396546,"is_reserved":false,"is_disabled":false,"rental_uris":{"android":"levelo://app?vid=a4894250-475a-4850-803d-b1f1e47758c8","ios":"levelo://app?vid=a4894250-475a-4850-803d-b1f1e47758c8"},"vehicle_type_id":"4","last_reported":1703550839,"current_range_meters":28000,"station_id":"ce4bh012rcd13ifvqcv0","pricing_plan_id":"free"},{"bike_id":"fd7106b3-1b00-4cfd-b7e1-bebc56a9f351","system_id":"levelo_inurba_marseille","lat":43.313291,"lon":5.396838,"is_reserved":false,"is_disabled":false,"rental_uris":{"android":"levelo://app?vid=fd7106b3-1b00-4cfd-b7e1-bebc56a9f351","ios":"levelo://app?vid=fd7106b3-1b00-4cfd-b7e1-bebc56a9f351"},"vehicle_type_id":"4","last_reported":1703550839,"current_range_meters":21200,"station_id":"ce4bgvp2rcd13ifvqcu0","pricing_plan_id":"free"},{"bike_id":"3e9d5027-cf94-4fae-a1ab-27fc8e6ea03e","system_id":"levelo_inurba_marseille","lat":43.302008,"lon":5.394694,"is_reserved":false,"is_disabled":false,"rental_uris":{"android":"levelo://app?vid=3e9d5027-cf94-4fae-a1ab-27fc8e6ea03e","ios":"levelo://app?vid=3e9d5027-cf94-4fae-a1ab-27fc8e6ea03e"},"vehicle_type_id":"4","last_reported":1703550839,"current_range_meters":30800,"station_id":"ce4bh0p2rcd13ifvqd70","pricing_plan_id":"free"},{"bike_id":"16f8efc4-719f-4826-9ad5-4198c6933537","system_id":"levelo_inurba_marseille","lat":43.302008,"lon":5.394694,"is_reserved":false,"is_disabled":false,"rental_uris":{"android":"levelo://app?vid=16f8efc4-719f-4826-9ad5-4198c6933537","ios":"levelo://app?vid=16f8efc4-719f-4826-9ad5-4198c6933537"},"vehicle_type_id":"4","last_reported":1703550839,"current_range_meters":31600,"station_id":"ce4bh0p2rcd13ifvqd70","pricing_plan_id":"free"},{"bike_id":"6098573f-4343-4363-b89f-9c71a3092806","system_id":"levelo_inurba_marseille","lat":43.290624,"lon":5.359245,"is_reserved":false,"is_disabled":false,"rental_uris":{"android":"levelo://app?vid=6098573f-4343-4363-b89f-9c71a3092806","ios":"levelo://app?vid=6098573f-4343-4363-b89f-9c71a3092806"},"vehicle_type_id":"4","last_reported":1703550839,"current_range_meters":30400,"station_id":"ce4bha92rcd13ifvqeg0","pricing_plan_id":"free"},{"bike_id":"fb7d75c1-b6db-48c1-9151-cfb26e121a64","system_id":"levelo_inurba_marseille","lat":43.290631,"lon":5.359244,"is_reserved":false,"is_disabled":false,"rental_uris":{"android":"levelo://app?vid=fb7d75c1-b6db-48c1-9151-cfb26e121a64","ios":"levelo://app?vid=fb7d75c1-b6db-48c1-9151-cfb26e121a64"},"vehicle_type_id":"4","last_reported":1703550839,"current_range_meters":32000,"station_id":"ce4bha92rcd13ifvqeg0","pricing_plan_id":"free"},{"bike_id":"77034b14-71e0-462c-bfe9-35de574dc949","system_id":"levelo_inurba_marseille","lat":43.290631,"lon":5.359244,"is_reserved":false,"is_disabled":false,"rental_uris":{"android":"levelo://app?vid=77034b14-71e0-462c-bfe9-35de574dc949","ios":"levelo://app?vid=77034b14-71e0-462c-bfe9-35de574dc949"},"vehicle_type_id":"4","last_reported":1703550839,"current_range_meters":23200,"station_id":"ce4bha92rcd13ifvqeg0","pricing_plan_id":"free"},{"bike_id":"a0fbc6e3-fe09-42d1-940e-0369d1c298c1","system_id":"levelo_inurba_marseille","lat":43.289184,"lon":5.366408,"is_reserved":false,"is_disabled":false,"rental_uris":{"android":"levelo://app?vid=a0fbc6e3-fe09-42d1-940e-0369d1c298c1","ios":"levelo://app?vid=a0fbc6e3-fe09-42d1-940e-0369d1c298c1"},"vehicle_type_id":"4","last_reported":1703550839,"current_range_meters":23200,"station_id":"ce4bhap2rcd13ifvqek0","pricing_plan_id":"free"},{"bike_id":"f64b2816-740f-4ed3-9c66-5f8302a4b6ad","system_id":"levelo_inurba_marseille","lat":43.289184,"lon":5.366408,"is_reserved":false,"is_disabled":false,"rental_uris":{"android":"levelo://app?vid=f64b2816-740f-4ed3-9c66-5f8302a4b6ad","ios":"levelo://app?vid=f64b2816-740f-4ed3-9c66-5f8302a4b6ad"},"vehicle_type_id":"4","last_reported":1703550839,"current_range_meters":17600,"station_id":"ce4bhap2rcd13ifvqek0","pricing_plan_id":"free"},{"bike_id":"3cfe96a3-6060-479e-9672-44239fc6a538","system_id":"levelo_inurba_marseille","lat":43.289184,"lon":5.366408,"is_reserved":false,"is_disabled":false,"rental_uris":{"android":"levelo://app?vid=3cfe96a3-6060-479e-9672-44239fc6a538","ios":"levelo://app?vid=3cfe96a3-6060-479e-9672-44239fc6a538"},"vehicle_type_id":"4","last_reported":1703550839,"current_range_meters":26000,"station_id":"ce4bhap2rcd13ifvqek0","pricing_plan_id":"free"},{"bike_id":"9b541573-0f7c-4ea7-9a62-e1c365a7afab","system_id":"levelo_inurba_marseille","lat":43.292543,"lon":5.383273,"is_reserved":false,"is_disabled":false,"rental_uris":{"android":"levelo://app?vid=9b541573-0f7c-4ea7-9a62-e1c365a7afab","ios":"levelo://app?vid=9b541573-0f7c-4ea7-9a62-e1c365a7afab"},"vehicle_type_id":"4","last_reported":1703550839,"current_range_meters":10400,"station_id":"","pricing_plan_id":"free"},{"bike_id":"c1dddbb1-6e43-4a11-9a98-1329171787de","system_id":"levelo_inurba_marseille","lat":43.289468,"lon":5.363719,"is_reserved":false,"is_disabled":false,"rental_uris":{"android":"levelo://app?vid=c1dddbb1-6e43-4a11-9a98-1329171787de","ios":"levelo://app?vid=c1dddbb1-6e43-4a11-9a98-1329171787de"},"vehicle_type_id":"4","last_reported":1703550839,"current_range_meters":28000,"station_id":"ce4bhc92rcd13ifvqetg","pricing_plan_id":"free"},{"bike_id":"62bf6474-2f5b-467a-9de4-44c81cb637ee","system_id":"levelo_inurba_marseille","lat":43.289184,"lon":5.366408,"is_reserved":false,"is_disabled":false,"rental_uris":{"android":"levelo://app?vid=62bf6474-2f5b-467a-9de4-44c81cb637ee","ios":"levelo://app?vid=62bf6474-2f5b-467a-9de4-44c81cb637ee"},"vehicle_type_id":"4","last_reported":1703550839,"current_range_meters":32000,"station_id":"ce4bhap2rcd13ifvqek0","pricing_plan_id":"free"},{"bike_id":"0c796245-0468-4d2d-a7ff-ee305d874b7c","system_id":"levelo_inurba_marseille","lat":43.292644,"lon":5.384257,"is_reserved":false,"is_disabled":false,"rental_uris":{"android":"levelo://app?vid=0c796245-0468-4d2d-a7ff-ee305d874b7c","ios":"levelo://app?vid=0c796245-0468-4d2d-a7ff-ee305d874b7c"},"vehicle_type_id":"4","last_reported":1703550839,"current_range_meters":29200,"station_id":"ce4bh692rcd13ifvqea0","pricing_plan_id":"free"},{"bike_id":"123be526-0c34-40da-b8c5-23f36922cf15","system_id":"levelo_inurba_marseille","lat":43.30472,"lon":5.398022,"is_reserved":false,"is_disabled":false,"rental_uris":{"android":"levelo://app?vid=123be526-0c34-40da-b8c5-23f36922cf15","ios":"levelo://app?vid=123be526-0c34-40da-b8c5-23f36922cf15"},"vehicle_type_id":"4","last_reported":1703550839,"current_range_meters":26400,"station_id":"","pricing_plan_id":"free"},{"bike_id":"90de7a9b-f686-4a8e-917b-ac839c3f6577","system_id":"levelo_inurba_marseille","lat":43.29001,"lon":5.35611,"is_reserved":false,"is_disabled":false,"rental_uris":{"android":"levelo://app?vid=90de7a9b-f686-4a8e-917b-ac839c3f6577","ios":"levelo://app?vid=90de7a9b-f686-4a8e-917b-ac839c3f6577"},"vehicle_type_id":"4","last_reported":1703550839,"current_range_meters":25600,"station_id":"ce4bhb92rcd13ifvqen0","pricing_plan_id":"free"},{"bike_id":"98d51770-9eed-4bc2-b0ce-719ecb7f2c73","system_id":"levelo_inurba_marseille","lat":43.290103,"lon":5.356114,"is_reserved":false,"is_disabled":false,"rental_uris":{"android":"levelo://app?vid=98d51770-9eed-4bc2-b0ce-719ecb7f2c73","ios":"levelo://app?vid=98d51770-9eed-4bc2-b0ce-719ecb7f2c73"},"vehicle_type_id":"4","last_reported":1703550839,"current_range_meters":31200,"station_id":"ce4bhb92rcd13ifvqen0","pricing_plan_id":"free"},{"bike_id":"ac2e8b5b-ae91-4244-9c0f-2c250de68bb5","system_id":"levelo_inurba_marseille","lat":43.290995,"lon":5.381361,"is_reserved":false,"is_disabled":false,"rental_uris":{"android":"levelo://app?vid=ac2e8b5b-ae91-4244-9c0f-2c250de68bb5","ios":"levelo://app?vid=ac2e8b5b-ae91-4244-9c0f-2c250de68bb5"},"vehicle_type_id":"4","last_reported":1703550839,"current_range_meters":26800,"station_id":"ce4bh512rcd13ifvqe2g","pricing_plan_id":"free"},{"bike_id":"1e5965e6-7fef-4c02-b82f-613501ff7ecb","system_id":"levelo_inurba_marseille","lat":43.290995,"lon":5.381361,"is_reserved":false,"is_disabled":false,"rental_uris":{"android":"levelo://app?vid=1e5965e6-7fef-4c02-b82f-613501ff7ecb","ios":"levelo://app?vid=1e5965e6-7fef-4c02-b82f-613501ff7ecb"},"vehicle_type_id":"4","last_reported":1703550839,"current_range_meters":27600,"station_id":"ce4bh512rcd13ifvqe2g","pricing_plan_id":"free"},{"bike_id":"22313407-9d09-435f-b158-10ab3c8b5aa7","system_id":"levelo_inurba_marseille","lat":43.297876,"lon":5.393427,"is_reserved":false,"is_disabled":false,"rental_uris":{"android":"levelo://app?vid=22313407-9d09-435f-b158-10ab3c8b5aa7","ios":"levelo://app?vid=22313407-9d09-435f-b158-10ab3c8b5aa7"},"vehicle_type_id":"4","last_reported":1703550839,"current_range_meters":31200,"station_id":"chh1huq6cuj3fo74tm60","pricing_plan_id":"free"},{"bike_id":"5d1bde58-2c7b-438a-bd37-7bc100df62bf","system_id":"levelo_inurba_marseille","lat":43.33024,"lon":5.39037,"is_reserved":false,"is_disabled":false,"rental_uris":{"android":"levelo://app?vid=5d1bde58-2c7b-438a-bd37-7bc100df62bf","ios":"levelo://app?vid=5d1bde58-2c7b-438a-bd37-7bc100df62bf"},"vehicle_type_id":"4","last_reported":1703550839,"current_range_meters":15200,"station_id":"","pricing_plan_id":"free"},{"bike_id":"d66ba10a-fb8d-42bb-8cca-f983f5659773","system_id":"levelo_inurba_marseille","lat":43.330442,"lon":5.389148,"is_reserved":false,"is_disabled":false,"rental_uris":{"android":"levelo://app?vid=d66ba10a-fb8d-42bb-8cca-f983f5659773","ios":"levelo://app?vid=d66ba10a-fb8d-42bb-8cca-f983f5659773"},"vehicle_type_id":"4","last_reported":1703550839,"current_range_meters":11200,"station_id":"ce4bhr92rcd13ifvqhrg","pricing_plan_id":"free"},{"bike_id":"7244b12c-a4ed-4fcc-a53c-0222ae84e7e2","system_id":"levelo_inurba_marseille","lat":43.33118,"lon":5.389753,"is_reserved":false,"is_disabled":false,"rental_uris":{"android":"levelo://app?vid=7244b12c-a4ed-4fcc-a53c-0222ae84e7e2","ios":"levelo://app?vid=7244b12c-a4ed-4fcc-a53c-0222ae84e7e2"},"vehicle_type_id":"4","last_reported":1703550839,"current_range_meters":28400,"station_id":"","pricing_plan_id":"free"},{"bike_id":"eaf3efb5-7f3b-4978-8399-92e33ced4f65","system_id":"levelo_inurba_marseille","lat":43.2901,"lon":5.381269,"is_reserved":false,"is_disabled":false,"rental_uris":{"android":"levelo://app?vid=eaf3efb5-7f3b-4978-8399-92e33ced4f65","ios":"levelo://app?vid=eaf3efb5-7f3b-4978-8399-92e33ced4f65"},"vehicle_type_id":"4","last_reported":1703550839,"current_range_meters":28400,"station_id":"ce4bh4p2rcd13ifvqe1g","pricing_plan_id":"free"},{"bike_id":"a32b0f98-c5b3-4da9-8322-44322d6de289","system_id":"levelo_inurba_marseille","lat":43.312609,"lon":5.401662,"is_reserved":false,"is_disabled":false,"rental_uris":{"android":"levelo://app?vid=a32b0f98-c5b3-4da9-8322-44322d6de289","ios":"levelo://app?vid=a32b0f98-c5b3-4da9-8322-44322d6de289"},"vehicle_type_id":"4","last_reported":1703550839,"current_range_meters":4800,"station_id":"ce4bh092rcd13ifvqd30","pricing_plan_id":"free"},{"bike_id":"2833dfd8-3be6-4273-acec-b3d5598a1114","system_id":"levelo_inurba_marseille","lat":43.301117,"lon":5.398795,"is_reserved":false,"is_disabled":false,"rental_uris":{"android":"levelo://app?vid=2833dfd8-3be6-4273-acec-b3d5598a1114","ios":"levelo://app?vid=2833dfd8-3be6-4273-acec-b3d5598a1114"},"vehicle_type_id":"4","last_reported":1703550839,"current_range_meters":24000,"station_id":"ce4bh0h2rcd13ifvqd40","pricing_plan_id":"free"},{"bike_id":"75637737-35ea-4ea3-a8b3-22367431bccc","system_id":"levelo_inurba_marseille","lat":43.30642,"lon":5.401031,"is_reserved":false,"is_disabled":false,"rental_uris":{"android":"levelo://app?vid=75637737-35ea-4ea3-a8b3-22367431bccc","ios":"levelo://app?vid=75637737-35ea-4ea3-a8b3-22367431bccc"},"vehicle_type_id":"4","last_reported":1703550839,"current_range_meters":16400,"station_id":"ce4bh112rcd13ifvqda0","pricing_plan_id":"free"},{"bike_id":"1dc0891e-bdae-4471-9be5-e8ba59d42c01","system_id":"levelo_inurba_marseille","lat":43.28727,"lon":5.36078,"is_reserved":false,"is_disabled":false,"rental_uris":{"android":"levelo://app?vid=1dc0891e-bdae-4471-9be5-e8ba59d42c01","ios":"levelo://app?vid=1dc0891e-bdae-4471-9be5-e8ba59d42c01"},"vehicle_type_id":"4","last_reported":1703550839,"current_range_meters":27200,"station_id":"cki0cbj6b192h4jlfktg","pricing_plan_id":"free"},{"bike_id":"bdc79caa-a9ac-492f-ad8a-f494fffc7711","system_id":"levelo_inurba_marseille","lat":43.298681,"lon":5.397225,"is_reserved":false,"is_disabled":false,"rental_uris":{"android":"levelo://app?vid=bdc79caa-a9ac-492f-ad8a-f494fffc7711","ios":"levelo://app?vid=bdc79caa-a9ac-492f-ad8a-f494fffc7711"},"vehicle_type_id":"4","last_reported":1703550839,"current_range_meters":27600,"station_id":"ce4bh0h2rcd13ifvqd50","pricing_plan_id":"free"},{"bike_id":"4c73b77b-19bd-43ef-a3ea-8d96fd96cd22","system_id":"levelo_inurba_marseille","lat":43.298755,"lon":5.397343,"is_reserved":false,"is_disabled":false,"rental_uris":{"android":"levelo://app?vid=4c73b77b-19bd-43ef-a3ea-8d96fd96cd22","ios":"levelo://app?vid=4c73b77b-19bd-43ef-a3ea-8d96fd96cd22"},"vehicle_type_id":"4","last_reported":1703550839,"current_range_meters":10800,"station_id":"ce4bh0h2rcd13ifvqd50","pricing_plan_id":"free"},{"bike_id":"88c1e555-050c-4447-8b6e-626ddd3f4e8d","system_id":"levelo_inurba_marseille","lat":43.286591,"lon":5.363346,"is_reserved":false,"is_disabled":false,"rental_uris":{"android":"levelo://app?vid=88c1e555-050c-4447-8b6e-626ddd3f4e8d","ios":"levelo://app?vid=88c1e555-050c-4447-8b6e-626ddd3f4e8d"},"vehicle_type_id":"4","last_reported":1703550839,"current_range_meters":29200,"station_id":"ce4bhah2rcd13ifvqej0","pricing_plan_id":"free"},{"bike_id":"d1a4f31e-aafb-4816-b00c-5d47b6c25908","system_id":"levelo_inurba_marseille","lat":43.298681,"lon":5.397225,"is_reserved":false,"is_disabled":false,"rental_uris":{"android":"levelo://app?vid=d1a4f31e-aafb-4816-b00c-5d47b6c25908","ios":"levelo://app?vid=d1a4f31e-aafb-4816-b00c-5d47b6c25908"},"vehicle_type_id":"4","last_reported":1703550839,"current_range_meters":27200,"station_id":"ce4bh0h2rcd13ifvqd50","pricing_plan_id":"free"},{"bike_id":"790ac815-6fb3-4772-9fb6-1d8b35d6fe27","system_id":"levelo_inurba_marseille","lat":43.286961,"lon":5.373785,"is_reserved":false,"is_disabled":false,"rental_uris":{"android":"levelo://app?vid=790ac815-6fb3-4772-9fb6-1d8b35d6fe27","ios":"levelo://app?vid=790ac815-6fb3-4772-9fb6-1d8b35d6fe27"},"vehicle_type_id":"4","last_reported":1703550839,"current_range_meters":31200,"station_id":"ce4bh3p2rcd13ifvqdq0","pricing_plan_id":"free"},{"bike_id":"f1e6b07c-b097-4f5e-a548-e044341b46f6","system_id":"levelo_inurba_marseille","lat":43.286961,"lon":5.373785,"is_reserved":false,"is_disabled":false,"rental_uris":{"android":"levelo://app?vid=f1e6b07c-b097-4f5e-a548-e044341b46f6","ios":"levelo://app?vid=f1e6b07c-b097-4f5e-a548-e044341b46f6"},"vehicle_type_id":"4","last_reported":1703550839,"current_range_meters":21600,"station_id":"ce4bh3p2rcd13ifvqdq0","pricing_plan_id":"free"},{"bike_id":"9496b644-3f9b-4d7b-9bed-90d4d931946f","system_id":"levelo_inurba_marseille","lat":43.290345,"lon":5.38646,"is_reserved":false,"is_disabled":false,"rental_uris":{"android":"levelo://app?vid=9496b644-3f9b-4d7b-9bed-90d4d931946f","ios":"levelo://app?vid=9496b644-3f9b-4d7b-9bed-90d4d931946f"},"vehicle_type_id":"4","last_reported":1703550839,"current_range_meters":30400,"station_id":"ce4bh4p2rcd13ifvqe0g","pricing_plan_id":"free"},{"bike_id":"137bbfc5-9177-4077-99a9-f5aca3ded894","system_id":"levelo_inurba_marseille","lat":43.290345,"lon":5.38646,"is_reserved":false,"is_disabled":false,"rental_uris":{"android":"levelo://app?vid=137bbfc5-9177-4077-99a9-f5aca3ded894","ios":"levelo://app?vid=137bbfc5-9177-4077-99a9-f5aca3ded894"},"vehicle_type_id":"4","last_reported":1703550839,"current_range_meters":31200,"station_id":"ce4bh4p2rcd13ifvqe0g","pricing_plan_id":"free"},{"bike_id":"9d25bbe6-6121-406d-8803-a340738149c8","system_id":"levelo_inurba_marseille","lat":43.289307,"lon":5.38406,"is_reserved":false,"is_disabled":false,"rental_uris":{"android":"levelo://app?vid=9d25bbe6-6121-406d-8803-a340738149c8","ios":"levelo://app?vid=9d25bbe6-6121-406d-8803-a340738149c8"},"vehicle_type_id":"4","last_reported":1703550839,"current_range_meters":28000,"station_id":"ce4bh612rcd13ifvqe6g","pricing_plan_id":"free"},{"bike_id":"6f48802a-aabd-4cbf-92b7-90c8ca1b4c16","system_id":"levelo_inurba_marseille","lat":43.290345,"lon":5.38646,"is_reserved":false,"is_disabled":false,"rental_uris":{"android":"levelo://app?vid=6f48802a-aabd-4cbf-92b7-90c8ca1b4c16","ios":"levelo://app?vid=6f48802a-aabd-4cbf-92b7-90c8ca1b4c16"},"vehicle_type_id":"4","last_reported":1703550839,"current_range_meters":31200,"station_id":"ce4bh4p2rcd13ifvqe0g","pricing_plan_id":"free"},{"bike_id":"a4f81d61-acdb-444b-af8b-b6298de33ea6","system_id":"levelo_inurba_marseille","lat":43.290345,"lon":5.38646,"is_reserved":false,"is_disabled":false,"rental_uris":{"android":"levelo://app?vid=a4f81d61-acdb-444b-af8b-b6298de33ea6","ios":"levelo://app?vid=a4f81d61-acdb-444b-af8b-b6298de33ea6"},"vehicle_type_id":"4","last_reported":1703550839,"current_range_meters":30400,"station_id":"ce4bh4p2rcd13ifvqe0g","pricing_plan_id":"free"},{"bike_id":"d59e8884-ab49-4eee-b8d1-c25f52a7bbc0","system_id":"levelo_inurba_marseille","lat":43.290345,"lon":5.38646,"is_reserved":false,"is_disabled":false,"rental_uris":{"android":"levelo://app?vid=d59e8884-ab49-4eee-b8d1-c25f52a7bbc0","ios":"levelo://app?vid=d59e8884-ab49-4eee-b8d1-c25f52a7bbc0"},"vehicle_type_id":"4","last_reported":1703550839,"current_range_meters":30400,"station_id":"ce4bh4p2rcd13ifvqe0g","pricing_plan_id":"free"},{"bike_id":"7e829bda-2845-4e55-9917-ce53827c35af","system_id":"levelo_inurba_marseille","lat":43.302759,"lon":5.400793,"is_reserved":false,"is_disabled":false,"rental_uris":{"android":"levelo://app?vid=7e829bda-2845-4e55-9917-ce53827c35af","ios":"levelo://app?vid=7e829bda-2845-4e55-9917-ce53827c35af"},"vehicle_type_id":"4","last_reported":1703550839,"current_range_meters":28400,"station_id":"ce4bgvh2rcd13ifvqcs0","pricing_plan_id":"free"},{"bike_id":"58287bc2-f798-447f-98f0-1feb0986d5f9","system_id":"levelo_inurba_marseille","lat":43.289307,"lon":5.38406,"is_reserved":false,"is_disabled":false,"rental_uris":{"android":"levelo://app?vid=58287bc2-f798-447f-98f0-1feb0986d5f9","ios":"levelo://app?vid=58287bc2-f798-447f-98f0-1feb0986d5f9"},"vehicle_type_id":"4","last_reported":1703550839,"current_range_meters":8000,"station_id":"ce4bh612rcd13ifvqe6g","pricing_plan_id":"free"},{"bike_id":"e7b4f42d-8789-4c22-a9ad-b8df2995cdc0","system_id":"levelo_inurba_marseille","lat":43.289307,"lon":5.38406,"is_reserved":false,"is_disabled":false,"rental_uris":{"android":"levelo://app?vid=e7b4f42d-8789-4c22-a9ad-b8df2995cdc0","ios":"levelo://app?vid=e7b4f42d-8789-4c22-a9ad-b8df2995cdc0"},"vehicle_type_id":"4","last_reported":1703550839,"current_range_meters":18400,"station_id":"ce4bh612rcd13ifvqe6g","pricing_plan_id":"free"},{"bike_id":"6cb565a1-22af-4182-97ba-9fbf5d6944b7","system_id":"levelo_inurba_marseille","lat":43.289307,"lon":5.38406,"is_reserved":false,"is_disabled":false,"rental_uris":{"android":"levelo://app?vid=6cb565a1-22af-4182-97ba-9fbf5d6944b7","ios":"levelo://app?vid=6cb565a1-22af-4182-97ba-9fbf5d6944b7"},"vehicle_type_id":"4","last_reported":1703550839,"current_range_meters":18000,"station_id":"ce4bh612rcd13ifvqe6g","pricing_plan_id":"free"},{"bike_id":"69043c95-7f11-44e3-9d9e-48493c9210d8","system_id":"levelo_inurba_marseille","lat":43.289307,"lon":5.38406,"is_reserved":false,"is_disabled":false,"rental_uris":{"android":"levelo://app?vid=69043c95-7f11-44e3-9d9e-48493c9210d8","ios":"levelo://app?vid=69043c95-7f11-44e3-9d9e-48493c9210d8"},"vehicle_type_id":"4","last_reported":1703550839,"current_range_meters":31600,"station_id":"ce4bh612rcd13ifvqe6g","pricing_plan_id":"free"},{"bike_id":"a0b03d8e-4166-4eac-aae3-14551c30d7f6","system_id":"levelo_inurba_marseille","lat":43.289307,"lon":5.38406,"is_reserved":false,"is_disabled":false,"rental_uris":{"android":"levelo://app?vid=a0b03d8e-4166-4eac-aae3-14551c30d7f6","ios":"levelo://app?vid=a0b03d8e-4166-4eac-aae3-14551c30d7f6"},"vehicle_type_id":"4","last_reported":1703550839,"current_range_meters":21200,"station_id":"ce4bh612rcd13ifvqe6g","pricing_plan_id":"free"},{"bike_id":"6eb8d9bf-bb36-4f48-939a-2a05e59dc9ed","system_id":"levelo_inurba_marseille","lat":43.289307,"lon":5.38406,"is_reserved":false,"is_disabled":false,"rental_uris":{"android":"levelo://app?vid=6eb8d9bf-bb36-4f48-939a-2a05e59dc9ed","ios":"levelo://app?vid=6eb8d9bf-bb36-4f48-939a-2a05e59dc9ed"},"vehicle_type_id":"4","last_reported":1703550839,"current_range_meters":2000,"station_id":"ce4bh612rcd13ifvqe6g","pricing_plan_id":"free"},{"bike_id":"b1e2fac1-ee45-435a-901a-6584c957bb41","system_id":"levelo_inurba_marseille","lat":43.289307,"lon":5.38406,"is_reserved":false,"is_disabled":false,"rental_uris":{"android":"levelo://app?vid=b1e2fac1-ee45-435a-901a-6584c957bb41","ios":"levelo://app?vid=b1e2fac1-ee45-435a-901a-6584c957bb41"},"vehicle_type_id":"4","last_reported":1703550839,"current_range_meters":11200,"station_id":"ce4bh612rcd13ifvqe6g","pricing_plan_id":"free"},{"bike_id":"52c029a7-64b7-4ecb-8d86-7dad3ee1d688","system_id":"levelo_inurba_marseille","lat":43.290336,"lon":5.386425,"is_reserved":false,"is_disabled":false,"rental_uris":{"android":"levelo://app?vid=52c029a7-64b7-4ecb-8d86-7dad3ee1d688","ios":"levelo://app?vid=52c029a7-64b7-4ecb-8d86-7dad3ee1d688"},"vehicle_type_id":"4","last_reported":1703550839,"current_range_meters":25200,"station_id":"ce4bh4p2rcd13ifvqe0g","pricing_plan_id":"free"},{"bike_id":"1d6d2765-b86f-4dbb-b22e-8120456f6c79","system_id":"levelo_inurba_marseille","lat":43.302759,"lon":5.400793,"is_reserved":false,"is_disabled":false,"rental_uris":{"android":"levelo://app?vid=1d6d2765-b86f-4dbb-b22e-8120456f6c79","ios":"levelo://app?vid=1d6d2765-b86f-4dbb-b22e-8120456f6c79"},"vehicle_type_id":"4","last_reported":1703550839,"current_range_meters":27200,"station_id":"ce4bgvh2rcd13ifvqcs0","pricing_plan_id":"free"},{"bike_id":"cf47eae7-64a8-4b5f-8cd7-ad467acd2fa2","system_id":"levelo_inurba_marseille","lat":43.290336,"lon":5.386425,"is_reserved":false,"is_disabled":false,"rental_uris":{"android":"levelo://app?vid=cf47eae7-64a8-4b5f-8cd7-ad467acd2fa2","ios":"levelo://app?vid=cf47eae7-64a8-4b5f-8cd7-ad467acd2fa2"},"vehicle_type_id":"4","last_reported":1703550839,"current_range_meters":20000,"station_id":"ce4bh4p2rcd13ifvqe0g","pricing_plan_id":"free"},{"bike_id":"b06074ef-2bdc-492f-8a62-f1079c7b33cd","system_id":"levelo_inurba_marseille","lat":43.302759,"lon":5.400793,"is_reserved":false,"is_disabled":false,"rental_uris":{"android":"levelo://app?vid=b06074ef-2bdc-492f-8a62-f1079c7b33cd","ios":"levelo://app?vid=b06074ef-2bdc-492f-8a62-f1079c7b33cd"},"vehicle_type_id":"4","last_reported":1703550839,"current_range_meters":30000,"station_id":"ce4bgvh2rcd13ifvqcs0","pricing_plan_id":"free"},{"bike_id":"c4491d0c-74af-4d88-864d-4c53251d5027","system_id":"levelo_inurba_marseille","lat":43.286039,"lon":5.370679,"is_reserved":false,"is_disabled":false,"rental_uris":{"android":"levelo://app?vid=c4491d0c-74af-4d88-864d-4c53251d5027","ios":"levelo://app?vid=c4491d0c-74af-4d88-864d-4c53251d5027"},"vehicle_type_id":"4","last_reported":1703550839,"current_range_meters":27600,"station_id":"ce4bht12rcd13ifvqi60","pricing_plan_id":"free"},{"bike_id":"b269c749-19b3-457a-9f11-021ccc443c55","system_id":"levelo_inurba_marseille","lat":43.286039,"lon":5.370679,"is_reserved":false,"is_disabled":false,"rental_uris":{"android":"levelo://app?vid=b269c749-19b3-457a-9f11-021ccc443c55","ios":"levelo://app?vid=b269c749-19b3-457a-9f11-021ccc443c55"},"vehicle_type_id":"4","last_reported":1703550839,"current_range_meters":6400,"station_id":"ce4bht12rcd13ifvqi60","pricing_plan_id":"free"},{"bike_id":"e42f2d48-1eac-4ea9-97da-9a200b97c493","system_id":"levelo_inurba_marseille","lat":43.28608,"lon":5.37066,"is_reserved":false,"is_disabled":false,"rental_uris":{"android":"levelo://app?vid=e42f2d48-1eac-4ea9-97da-9a200b97c493","ios":"levelo://app?vid=e42f2d48-1eac-4ea9-97da-9a200b97c493"},"vehicle_type_id":"4","last_reported":1703550839,"current_range_meters":5600,"station_id":"ce4bht12rcd13ifvqi60","pricing_plan_id":"free"},{"bike_id":"0ade99fb-20fc-423b-a697-58876a6bf0b1","system_id":"levelo_inurba_marseille","lat":43.287076,"lon":5.379398,"is_reserved":false,"is_disabled":false,"rental_uris":{"android":"levelo://app?vid=0ade99fb-20fc-423b-a697-58876a6bf0b1","ios":"levelo://app?vid=0ade99fb-20fc-423b-a697-58876a6bf0b1"},"vehicle_type_id":"4","last_reported":1703550839,"current_range_meters":20400,"station_id":"ce4bh9p2rcd13ifvqec0","pricing_plan_id":"free"},{"bike_id":"10cebbf1-af0e-4a22-9946-79b30eaf225b","system_id":"levelo_inurba_marseille","lat":43.316821,"lon":5.404737,"is_reserved":false,"is_disabled":false,"rental_uris":{"android":"levelo://app?vid=10cebbf1-af0e-4a22-9946-79b30eaf225b","ios":"levelo://app?vid=10cebbf1-af0e-4a22-9946-79b30eaf225b"},"vehicle_type_id":"4","last_reported":1703550839,"current_range_meters":12000,"station_id":"ce4bh012rcd13ifvqd00","pricing_plan_id":"free"},{"bike_id":"880207f4-6a01-41ac-bf9d-6be9d2e67b87","system_id":"levelo_inurba_marseille","lat":43.316821,"lon":5.404737,"is_reserved":false,"is_disabled":false,"rental_uris":{"android":"levelo://app?vid=880207f4-6a01-41ac-bf9d-6be9d2e67b87","ios":"levelo://app?vid=880207f4-6a01-41ac-bf9d-6be9d2e67b87"},"vehicle_type_id":"4","last_reported":1703550839,"current_range_meters":6800,"station_id":"ce4bh012rcd13ifvqd00","pricing_plan_id":"free"},{"bike_id":"9da4e2c0-85e0-48e8-84ca-a8131ebea362","system_id":"levelo_inurba_marseille","lat":43.316828,"lon":5.404723,"is_reserved":false,"is_disabled":false,"rental_uris":{"android":"levelo://app?vid=9da4e2c0-85e0-48e8-84ca-a8131ebea362","ios":"levelo://app?vid=9da4e2c0-85e0-48e8-84ca-a8131ebea362"},"vehicle_type_id":"4","last_reported":1703550839,"current_range_meters":26800,"station_id":"ce4bh012rcd13ifvqd00","pricing_plan_id":"free"},{"bike_id":"d3f87648-fa46-4e0f-85a3-39f063b748e0","system_id":"levelo_inurba_marseille","lat":43.33263,"lon":5.3943,"is_reserved":false,"is_disabled":false,"rental_uris":{"android":"levelo://app?vid=d3f87648-fa46-4e0f-85a3-39f063b748e0","ios":"levelo://app?vid=d3f87648-fa46-4e0f-85a3-39f063b748e0"},"vehicle_type_id":"4","last_reported":1703550839,"current_range_meters":27200,"station_id":"","pricing_plan_id":"free"},{"bike_id":"7f6daaf6-8c88-4ae4-8839-35343aa252fd","system_id":"levelo_inurba_marseille","lat":43.2921,"lon":5.39325,"is_reserved":false,"is_disabled":false,"rental_uris":{"android":"levelo://app?vid=7f6daaf6-8c88-4ae4-8839-35343aa252fd","ios":"levelo://app?vid=7f6daaf6-8c88-4ae4-8839-35343aa252fd"},"vehicle_type_id":"4","last_reported":1703550839,"current_range_meters":31200,"station_id":"ce4bh192rcd13ifvqdd0","pricing_plan_id":"free"},{"bike_id":"fcb2927b-41c2-46f0-a085-ab2a10a8a5ee","system_id":"levelo_inurba_marseille","lat":43.29195,"lon":5.39314,"is_reserved":false,"is_disabled":false,"rental_uris":{"android":"levelo://app?vid=fcb2927b-41c2-46f0-a085-ab2a10a8a5ee","ios":"levelo://app?vid=fcb2927b-41c2-46f0-a085-ab2a10a8a5ee"},"vehicle_type_id":"4","last_reported":1703550839,"current_range_meters":22000,"station_id":"ce4bh192rcd13ifvqdd0","pricing_plan_id":"free"},{"bike_id":"6ad63d7f-d25d-47bc-8c04-0a5f23d00133","system_id":"levelo_inurba_marseille","lat":43.29194,"lon":5.393164,"is_reserved":false,"is_disabled":false,"rental_uris":{"android":"levelo://app?vid=6ad63d7f-d25d-47bc-8c04-0a5f23d00133","ios":"levelo://app?vid=6ad63d7f-d25d-47bc-8c04-0a5f23d00133"},"vehicle_type_id":"4","last_reported":1703550839,"current_range_meters":0,"station_id":"ce4bh192rcd13ifvqdd0","pricing_plan_id":"free"},{"bike_id":"f7ed3370-523c-4c2f-845c-836ae642af5e","system_id":"levelo_inurba_marseille","lat":43.29187,"lon":5.39323,"is_reserved":false,"is_disabled":false,"rental_uris":{"android":"levelo://app?vid=f7ed3370-523c-4c2f-845c-836ae642af5e","ios":"levelo://app?vid=f7ed3370-523c-4c2f-845c-836ae642af5e"},"vehicle_type_id":"4","last_reported":1703550839,"current_range_meters":29200,"station_id":"ce4bh192rcd13ifvqdd0","pricing_plan_id":"free"},{"bike_id":"82c00ffb-cb4f-4b90-94b6-9f251ef253b7","system_id":"levelo_inurba_marseille","lat":43.291994,"lon":5.392907,"is_reserved":false,"is_disabled":false,"rental_uris":{"android":"levelo://app?vid=82c00ffb-cb4f-4b90-94b6-9f251ef253b7","ios":"levelo://app?vid=82c00ffb-cb4f-4b90-94b6-9f251ef253b7"},"vehicle_type_id":"4","last_reported":1703550839,"current_range_meters":26800,"station_id":"ce4bh192rcd13ifvqdd0","pricing_plan_id":"free"},{"bike_id":"e2adfa7c-882e-48a1-9ee4-b36e6186ebbf","system_id":"levelo_inurba_marseille","lat":43.330912,"lon":5.396935,"is_reserved":false,"is_disabled":false,"rental_uris":{"android":"levelo://app?vid=e2adfa7c-882e-48a1-9ee4-b36e6186ebbf","ios":"levelo://app?vid=e2adfa7c-882e-48a1-9ee4-b36e6186ebbf"},"vehicle_type_id":"4","last_reported":1703550839,"current_range_meters":5200,"station_id":"","pricing_plan_id":"free"},{"bike_id":"89b601d7-1041-4206-a269-8c4b9f7560a5","system_id":"levelo_inurba_marseille","lat":43.284538,"lon":5.358657,"is_reserved":false,"is_disabled":false,"rental_uris":{"android":"levelo://app?vid=89b601d7-1041-4206-a269-8c4b9f7560a5","ios":"levelo://app?vid=89b601d7-1041-4206-a269-8c4b9f7560a5"},"vehicle_type_id":"4","last_reported":1703550839,"current_range_meters":31200,"station_id":"ce4bhah2rcd13ifvqei0","pricing_plan_id":"free"},{"bike_id":"6fce6cf9-3857-4ce7-8dd8-c8d6febadb9e","system_id":"levelo_inurba_marseille","lat":43.284538,"lon":5.358657,"is_reserved":false,"is_disabled":false,"rental_uris":{"android":"levelo://app?vid=6fce6cf9-3857-4ce7-8dd8-c8d6febadb9e","ios":"levelo://app?vid=6fce6cf9-3857-4ce7-8dd8-c8d6febadb9e"},"vehicle_type_id":"4","last_reported":1703550839,"current_range_meters":31200,"station_id":"ce4bhah2rcd13ifvqei0","pricing_plan_id":"free"},{"bike_id":"fbcd6f70-0756-4675-acb3-7efc3adc3d5d","system_id":"levelo_inurba_marseille","lat":43.284534,"lon":5.358662,"is_reserved":false,"is_disabled":false,"rental_uris":{"android":"levelo://app?vid=fbcd6f70-0756-4675-acb3-7efc3adc3d5d","ios":"levelo://app?vid=fbcd6f70-0756-4675-acb3-7efc3adc3d5d"},"vehicle_type_id":"4","last_reported":1703550839,"current_range_meters":28400,"station_id":"ce4bhah2rcd13ifvqei0","pricing_plan_id":"free"},{"bike_id":"ee8641c0-9856-478b-89a3-d33c38c3843a","system_id":"levelo_inurba_marseille","lat":43.284538,"lon":5.358657,"is_reserved":false,"is_disabled":false,"rental_uris":{"android":"levelo://app?vid=ee8641c0-9856-478b-89a3-d33c38c3843a","ios":"levelo://app?vid=ee8641c0-9856-478b-89a3-d33c38c3843a"},"vehicle_type_id":"4","last_reported":1703550839,"current_range_meters":26400,"station_id":"ce4bhah2rcd13ifvqei0","pricing_plan_id":"free"},{"bike_id":"739a8e6f-1442-437a-9f38-ede859472acd","system_id":"levelo_inurba_marseille","lat":43.285856,"lon":5.350771,"is_reserved":false,"is_disabled":false,"rental_uris":{"android":"levelo://app?vid=739a8e6f-1442-437a-9f38-ede859472acd","ios":"levelo://app?vid=739a8e6f-1442-437a-9f38-ede859472acd"},"vehicle_type_id":"4","last_reported":1703550839,"current_range_meters":29200,"station_id":"ce4bhch2rcd13ifvqeug","pricing_plan_id":"free"},{"bike_id":"bdc90deb-ee84-4059-a9d5-d8c0dea7f16a","system_id":"levelo_inurba_marseille","lat":43.283998,"lon":5.375062,"is_reserved":false,"is_disabled":false,"rental_uris":{"android":"levelo://app?vid=bdc90deb-ee84-4059-a9d5-d8c0dea7f16a","ios":"levelo://app?vid=bdc90deb-ee84-4059-a9d5-d8c0dea7f16a"},"vehicle_type_id":"4","last_reported":1703550839,"current_range_meters":5200,"station_id":"ce4bh412rcd13ifvqds0","pricing_plan_id":"free"},{"bike_id":"039ceecd-3506-4419-ad48-bf31b196e9b3","system_id":"levelo_inurba_marseille","lat":43.283998,"lon":5.375062,"is_reserved":false,"is_disabled":false,"rental_uris":{"android":"levelo://app?vid=039ceecd-3506-4419-ad48-bf31b196e9b3","ios":"levelo://app?vid=039ceecd-3506-4419-ad48-bf31b196e9b3"},"vehicle_type_id":"4","last_reported":1703550839,"current_range_meters":30800,"station_id":"ce4bh412rcd13ifvqds0","pricing_plan_id":"free"},{"bike_id":"48beaf25-d1bf-418f-9498-b59264478e75","system_id":"levelo_inurba_marseille","lat":43.283998,"lon":5.375062,"is_reserved":false,"is_disabled":false,"rental_uris":{"android":"levelo://app?vid=48beaf25-d1bf-418f-9498-b59264478e75","ios":"levelo://app?vid=48beaf25-d1bf-418f-9498-b59264478e75"},"vehicle_type_id":"4","last_reported":1703550839,"current_range_meters":20800,"station_id":"ce4bh412rcd13ifvqds0","pricing_plan_id":"free"},{"bike_id":"bcb850ea-4558-48f8-884b-17064076fc95","system_id":"levelo_inurba_marseille","lat":43.283998,"lon":5.375062,"is_reserved":false,"is_disabled":false,"rental_uris":{"android":"levelo://app?vid=bcb850ea-4558-48f8-884b-17064076fc95","ios":"levelo://app?vid=bcb850ea-4558-48f8-884b-17064076fc95"},"vehicle_type_id":"4","last_reported":1703550839,"current_range_meters":18800,"station_id":"ce4bh412rcd13ifvqds0","pricing_plan_id":"free"},{"bike_id":"e485450b-2736-4f4c-b94b-0da5a69b88aa","system_id":"levelo_inurba_marseille","lat":43.33195,"lon":5.39738,"is_reserved":false,"is_disabled":false,"rental_uris":{"android":"levelo://app?vid=e485450b-2736-4f4c-b94b-0da5a69b88aa","ios":"levelo://app?vid=e485450b-2736-4f4c-b94b-0da5a69b88aa"},"vehicle_type_id":"4","last_reported":1703550839,"current_range_meters":23200,"station_id":"","pricing_plan_id":"free"},{"bike_id":"4b388e93-8359-494a-93e7-a691dd1edc09","system_id":"levelo_inurba_marseille","lat":43.331596,"lon":5.398093,"is_reserved":false,"is_disabled":false,"rental_uris":{"android":"levelo://app?vid=4b388e93-8359-494a-93e7-a691dd1edc09","ios":"levelo://app?vid=4b388e93-8359-494a-93e7-a691dd1edc09"},"vehicle_type_id":"4","last_reported":1703550839,"current_range_meters":26800,"station_id":"","pricing_plan_id":"free"},{"bike_id":"c8e4841c-10ff-4802-9b08-54b764c03bb3","system_id":"levelo_inurba_marseille","lat":43.319179,"lon":5.407725,"is_reserved":false,"is_disabled":false,"rental_uris":{"android":"levelo://app?vid=c8e4841c-10ff-4802-9b08-54b764c03bb3","ios":"levelo://app?vid=c8e4841c-10ff-4802-9b08-54b764c03bb3"},"vehicle_type_id":"4","last_reported":1703550839,"current_range_meters":30800,"station_id":"ce4bhq12rcd13ifvqhig","pricing_plan_id":"free"},{"bike_id":"ff6ebe2d-10e0-4bee-8d5b-0d34d0573673","system_id":"levelo_inurba_marseille","lat":43.337187,"lon":5.391616,"is_reserved":false,"is_disabled":false,"rental_uris":{"android":"levelo://app?vid=ff6ebe2d-10e0-4bee-8d5b-0d34d0573673","ios":"levelo://app?vid=ff6ebe2d-10e0-4bee-8d5b-0d34d0573673"},"vehicle_type_id":"4","last_reported":1703550839,"current_range_meters":20000,"station_id":"ce4bhr92rcd13ifvqhsg","pricing_plan_id":"free"},{"bike_id":"63fae42d-a0bd-4901-961a-eefb9392deee","system_id":"levelo_inurba_marseille","lat":43.337168,"lon":5.391825,"is_reserved":false,"is_disabled":false,"rental_uris":{"android":"levelo://app?vid=63fae42d-a0bd-4901-961a-eefb9392deee","ios":"levelo://app?vid=63fae42d-a0bd-4901-961a-eefb9392deee"},"vehicle_type_id":"4","last_reported":1703550839,"current_range_meters":28400,"station_id":"ce4bhr92rcd13ifvqhsg","pricing_plan_id":"free"},{"bike_id":"9960fa43-3a3b-4d5b-8fe2-258b49d47b49","system_id":"levelo_inurba_marseille","lat":43.323464,"lon":5.406297,"is_reserved":false,"is_disabled":false,"rental_uris":{"android":"levelo://app?vid=9960fa43-3a3b-4d5b-8fe2-258b49d47b49","ios":"levelo://app?vid=9960fa43-3a3b-4d5b-8fe2-258b49d47b49"},"vehicle_type_id":"4","last_reported":1703550839,"current_range_meters":28000,"station_id":"ce4bhq92rcd13ifvqhjg","pricing_plan_id":"free"},{"bike_id":"a330c8f1-3748-4c5a-a422-58099001eb59","system_id":"levelo_inurba_marseille","lat":43.284793,"lon":5.384119,"is_reserved":false,"is_disabled":false,"rental_uris":{"android":"levelo://app?vid=a330c8f1-3748-4c5a-a422-58099001eb59","ios":"levelo://app?vid=a330c8f1-3748-4c5a-a422-58099001eb59"},"vehicle_type_id":"4","last_reported":1703550839,"current_range_meters":7600,"station_id":"ce4bh512rcd13ifvqe3g","pricing_plan_id":"free"},{"bike_id":"f631ad28-14e3-4577-9260-72e979008b6f","system_id":"levelo_inurba_marseille","lat":43.284793,"lon":5.384113,"is_reserved":false,"is_disabled":false,"rental_uris":{"android":"levelo://app?vid=f631ad28-14e3-4577-9260-72e979008b6f","ios":"levelo://app?vid=f631ad28-14e3-4577-9260-72e979008b6f"},"vehicle_type_id":"4","last_reported":1703550839,"current_range_meters":26800,"station_id":"ce4bh512rcd13ifvqe3g","pricing_plan_id":"free"},{"bike_id":"c23bfb09-46f4-4c45-a8df-1c4a34a35133","system_id":"levelo_inurba_marseille","lat":43.284793,"lon":5.384119,"is_reserved":false,"is_disabled":false,"rental_uris":{"android":"levelo://app?vid=c23bfb09-46f4-4c45-a8df-1c4a34a35133","ios":"levelo://app?vid=c23bfb09-46f4-4c45-a8df-1c4a34a35133"},"vehicle_type_id":"4","last_reported":1703550839,"current_range_meters":28800,"station_id":"ce4bh512rcd13ifvqe3g","pricing_plan_id":"free"},{"bike_id":"36200fb8-d55a-4742-968b-cab955b97ce3","system_id":"levelo_inurba_marseille","lat":43.288501,"lon":5.393087,"is_reserved":false,"is_disabled":false,"rental_uris":{"android":"levelo://app?vid=36200fb8-d55a-4742-968b-cab955b97ce3","ios":"levelo://app?vid=36200fb8-d55a-4742-968b-cab955b97ce3"},"vehicle_type_id":"4","last_reported":1703550839,"current_range_meters":25200,"station_id":"ce4bh2p2rcd13ifvqdi0","pricing_plan_id":"free"},{"bike_id":"083b1d94-37b7-4f65-ad73-6ccd228910b2","system_id":"levelo_inurba_marseille","lat":43.288501,"lon":5.393087,"is_reserved":false,"is_disabled":false,"rental_uris":{"android":"levelo://app?vid=083b1d94-37b7-4f65-ad73-6ccd228910b2","ios":"levelo://app?vid=083b1d94-37b7-4f65-ad73-6ccd228910b2"},"vehicle_type_id":"4","last_reported":1703550839,"current_range_meters":31600,"station_id":"ce4bh2p2rcd13ifvqdi0","pricing_plan_id":"free"},{"bike_id":"f2f1ff8c-db1f-4a4e-bd4a-93f4fadac928","system_id":"levelo_inurba_marseille","lat":43.288501,"lon":5.393087,"is_reserved":false,"is_disabled":false,"rental_uris":{"android":"levelo://app?vid=f2f1ff8c-db1f-4a4e-bd4a-93f4fadac928","ios":"levelo://app?vid=f2f1ff8c-db1f-4a4e-bd4a-93f4fadac928"},"vehicle_type_id":"4","last_reported":1703550839,"current_range_meters":22800,"station_id":"ce4bh2p2rcd13ifvqdi0","pricing_plan_id":"free"},{"bike_id":"21c5977c-e44d-4792-8049-9fddceb8af16","system_id":"levelo_inurba_marseille","lat":43.283494,"lon":5.380945,"is_reserved":false,"is_disabled":false,"rental_uris":{"android":"levelo://app?vid=21c5977c-e44d-4792-8049-9fddceb8af16","ios":"levelo://app?vid=21c5977c-e44d-4792-8049-9fddceb8af16"},"vehicle_type_id":"4","last_reported":1703550839,"current_range_meters":28400,"station_id":"ce4bh412rcd13ifvqdr0","pricing_plan_id":"free"},{"bike_id":"947337ad-8e07-4f0c-baac-ef42a7c1a269","system_id":"levelo_inurba_marseille","lat":43.283494,"lon":5.380945,"is_reserved":false,"is_disabled":false,"rental_uris":{"android":"levelo://app?vid=947337ad-8e07-4f0c-baac-ef42a7c1a269","ios":"levelo://app?vid=947337ad-8e07-4f0c-baac-ef42a7c1a269"},"vehicle_type_id":"4","last_reported":1703550839,"current_range_meters":26800,"station_id":"ce4bh412rcd13ifvqdr0","pricing_plan_id":"free"},{"bike_id":"ebbbdec0-9f54-4c60-a0d7-9d8e824a6cff","system_id":"levelo_inurba_marseille","lat":43.284217,"lon":5.349697,"is_reserved":false,"is_disabled":false,"rental_uris":{"android":"levelo://app?vid=ebbbdec0-9f54-4c60-a0d7-9d8e824a6cff","ios":"levelo://app?vid=ebbbdec0-9f54-4c60-a0d7-9d8e824a6cff"},"vehicle_type_id":"4","last_reported":1703550839,"current_range_meters":25600,"station_id":"ce4bhbh2rcd13ifvqepg","pricing_plan_id":"free"},{"bike_id":"67c860af-a545-462e-a832-ee135739c3ac","system_id":"levelo_inurba_marseille","lat":43.292724,"lon":5.401131,"is_reserved":false,"is_disabled":false,"rental_uris":{"android":"levelo://app?vid=67c860af-a545-462e-a832-ee135739c3ac","ios":"levelo://app?vid=67c860af-a545-462e-a832-ee135739c3ac"},"vehicle_type_id":"4","last_reported":1703550839,"current_range_meters":30000,"station_id":"ce4bh312rcd13ifvqdk0","pricing_plan_id":"free"},{"bike_id":"3ce3aabc-b68d-4c3e-a9f1-aed7cb134479","system_id":"levelo_inurba_marseille","lat":43.292724,"lon":5.401131,"is_reserved":false,"is_disabled":false,"rental_uris":{"android":"levelo://app?vid=3ce3aabc-b68d-4c3e-a9f1-aed7cb134479","ios":"levelo://app?vid=3ce3aabc-b68d-4c3e-a9f1-aed7cb134479"},"vehicle_type_id":"4","last_reported":1703550839,"current_range_meters":9200,"station_id":"ce4bh312rcd13ifvqdk0","pricing_plan_id":"free"},{"bike_id":"6e5263b3-89cd-47ec-b2ac-b9c98b7365c8","system_id":"levelo_inurba_marseille","lat":43.292724,"lon":5.401131,"is_reserved":false,"is_disabled":false,"rental_uris":{"android":"levelo://app?vid=6e5263b3-89cd-47ec-b2ac-b9c98b7365c8","ios":"levelo://app?vid=6e5263b3-89cd-47ec-b2ac-b9c98b7365c8"},"vehicle_type_id":"4","last_reported":1703550839,"current_range_meters":24800,"station_id":"ce4bh312rcd13ifvqdk0","pricing_plan_id":"free"},{"bike_id":"23f42c90-f703-4dcb-9a0b-9ef346f75e5f","system_id":"levelo_inurba_marseille","lat":43.292724,"lon":5.401131,"is_reserved":false,"is_disabled":false,"rental_uris":{"android":"levelo://app?vid=23f42c90-f703-4dcb-9a0b-9ef346f75e5f","ios":"levelo://app?vid=23f42c90-f703-4dcb-9a0b-9ef346f75e5f"},"vehicle_type_id":"4","last_reported":1703550839,"current_range_meters":31200,"station_id":"ce4bh312rcd13ifvqdk0","pricing_plan_id":"free"},{"bike_id":"2c868722-ead2-4a2a-9832-7433fb8fa5d0","system_id":"levelo_inurba_marseille","lat":43.292724,"lon":5.401131,"is_reserved":false,"is_disabled":false,"rental_uris":{"android":"levelo://app?vid=2c868722-ead2-4a2a-9832-7433fb8fa5d0","ios":"levelo://app?vid=2c868722-ead2-4a2a-9832-7433fb8fa5d0"},"vehicle_type_id":"4","last_reported":1703550839,"current_range_meters":19200,"station_id":"ce4bh312rcd13ifvqdk0","pricing_plan_id":"free"},{"bike_id":"a5903c35-02ac-49f8-9021-9912f2b27929","system_id":"levelo_inurba_marseille","lat":43.292724,"lon":5.401131,"is_reserved":false,"is_disabled":false,"rental_uris":{"android":"levelo://app?vid=a5903c35-02ac-49f8-9021-9912f2b27929","ios":"levelo://app?vid=a5903c35-02ac-49f8-9021-9912f2b27929"},"vehicle_type_id":"4","last_reported":1703550839,"current_range_meters":9600,"station_id":"ce4bh312rcd13ifvqdk0","pricing_plan_id":"free"},{"bike_id":"3e354e7a-9409-4433-bad8-323656faecfb","system_id":"levelo_inurba_marseille","lat":43.292724,"lon":5.401131,"is_reserved":false,"is_disabled":false,"rental_uris":{"android":"levelo://app?vid=3e354e7a-9409-4433-bad8-323656faecfb","ios":"levelo://app?vid=3e354e7a-9409-4433-bad8-323656faecfb"},"vehicle_type_id":"4","last_reported":1703550839,"current_range_meters":26800,"station_id":"ce4bh312rcd13ifvqdk0","pricing_plan_id":"free"},{"bike_id":"ab9919cd-9d87-43a5-815e-a50389f1cfca","system_id":"levelo_inurba_marseille","lat":43.282747,"lon":5.350663,"is_reserved":false,"is_disabled":false,"rental_uris":{"android":"levelo://app?vid=ab9919cd-9d87-43a5-815e-a50389f1cfca","ios":"levelo://app?vid=ab9919cd-9d87-43a5-815e-a50389f1cfca"},"vehicle_type_id":"4","last_reported":1703550839,"current_range_meters":2800,"station_id":"ce4bhbp2rcd13ifvqerg","pricing_plan_id":"free"},{"bike_id":"45d89010-e66e-46e9-8eb1-0d97202c8f8f","system_id":"levelo_inurba_marseille","lat":43.282695,"lon":5.350765,"is_reserved":false,"is_disabled":false,"rental_uris":{"android":"levelo://app?vid=45d89010-e66e-46e9-8eb1-0d97202c8f8f","ios":"levelo://app?vid=45d89010-e66e-46e9-8eb1-0d97202c8f8f"},"vehicle_type_id":"4","last_reported":1703550839,"current_range_meters":20000,"station_id":"ce4bhbp2rcd13ifvqerg","pricing_plan_id":"free"},{"bike_id":"353cde31-cc8d-40f2-9681-7fefb09b4248","system_id":"levelo_inurba_marseille","lat":43.283502,"lon":5.386471,"is_reserved":false,"is_disabled":false,"rental_uris":{"android":"levelo://app?vid=353cde31-cc8d-40f2-9681-7fefb09b4248","ios":"levelo://app?vid=353cde31-cc8d-40f2-9681-7fefb09b4248"},"vehicle_type_id":"4","last_reported":1703550839,"current_range_meters":28400,"station_id":"ce4bh492rcd13ifvqdvg","pricing_plan_id":"free"},{"bike_id":"292da800-d823-4458-af5b-2dcfce36f85d","system_id":"levelo_inurba_marseille","lat":43.283502,"lon":5.386471,"is_reserved":false,"is_disabled":false,"rental_uris":{"android":"levelo://app?vid=292da800-d823-4458-af5b-2dcfce36f85d","ios":"levelo://app?vid=292da800-d823-4458-af5b-2dcfce36f85d"},"vehicle_type_id":"4","last_reported":1703550839,"current_range_meters":25200,"station_id":"ce4bh492rcd13ifvqdvg","pricing_plan_id":"free"},{"bike_id":"8e1e5075-acdf-40bf-8641-6d76203f8b9f","system_id":"levelo_inurba_marseille","lat":43.282688,"lon":5.350682,"is_reserved":false,"is_disabled":false,"rental_uris":{"android":"levelo://app?vid=8e1e5075-acdf-40bf-8641-6d76203f8b9f","ios":"levelo://app?vid=8e1e5075-acdf-40bf-8641-6d76203f8b9f"},"vehicle_type_id":"4","last_reported":1703550839,"current_range_meters":22800,"station_id":"ce4bhbp2rcd13ifvqerg","pricing_plan_id":"free"},{"bike_id":"3783edd5-be5f-4f0d-b65a-641a7a7d8dd9","system_id":"levelo_inurba_marseille","lat":43.282692,"lon":5.350612,"is_reserved":false,"is_disabled":false,"rental_uris":{"android":"levelo://app?vid=3783edd5-be5f-4f0d-b65a-641a7a7d8dd9","ios":"levelo://app?vid=3783edd5-be5f-4f0d-b65a-641a7a7d8dd9"},"vehicle_type_id":"4","last_reported":1703550839,"current_range_meters":21600,"station_id":"ce4bhbp2rcd13ifvqerg","pricing_plan_id":"free"},{"bike_id":"eab693ef-28fa-44d6-9255-f2069bdb2eca","system_id":"levelo_inurba_marseille","lat":43.283502,"lon":5.386471,"is_reserved":false,"is_disabled":false,"rental_uris":{"android":"levelo://app?vid=eab693ef-28fa-44d6-9255-f2069bdb2eca","ios":"levelo://app?vid=eab693ef-28fa-44d6-9255-f2069bdb2eca"},"vehicle_type_id":"4","last_reported":1703550839,"current_range_meters":14800,"station_id":"ce4bh492rcd13ifvqdvg","pricing_plan_id":"free"},{"bike_id":"e4c77ab0-8855-4b37-a4aa-f63792fd4724","system_id":"levelo_inurba_marseille","lat":43.28264,"lon":5.350686,"is_reserved":false,"is_disabled":false,"rental_uris":{"android":"levelo://app?vid=e4c77ab0-8855-4b37-a4aa-f63792fd4724","ios":"levelo://app?vid=e4c77ab0-8855-4b37-a4aa-f63792fd4724"},"vehicle_type_id":"4","last_reported":1703550839,"current_range_meters":18400,"station_id":"ce4bhbp2rcd13ifvqerg","pricing_plan_id":"free"},{"bike_id":"b02f5bc1-8928-43c3-9ad0-daad87044c65","system_id":"levelo_inurba_marseille","lat":43.283502,"lon":5.386471,"is_reserved":false,"is_disabled":false,"rental_uris":{"android":"levelo://app?vid=b02f5bc1-8928-43c3-9ad0-daad87044c65","ios":"levelo://app?vid=b02f5bc1-8928-43c3-9ad0-daad87044c65"},"vehicle_type_id":"4","last_reported":1703550839,"current_range_meters":32000,"station_id":"ce4bh492rcd13ifvqdvg","pricing_plan_id":"free"},{"bike_id":"fb7d0bc6-86ce-461d-86b8-b74184538e74","system_id":"levelo_inurba_marseille","lat":43.29041,"lon":5.399634,"is_reserved":false,"is_disabled":false,"rental_uris":{"android":"levelo://app?vid=fb7d0bc6-86ce-461d-86b8-b74184538e74","ios":"levelo://app?vid=fb7d0bc6-86ce-461d-86b8-b74184538e74"},"vehicle_type_id":"4","last_reported":1703550839,"current_range_meters":27200,"station_id":"ce4bh392rcd13ifvqdm0","pricing_plan_id":"free"},{"bike_id":"553e18cd-1f68-46c0-83c2-9bcb3e5d7688","system_id":"levelo_inurba_marseille","lat":43.283502,"lon":5.386471,"is_reserved":false,"is_disabled":false,"rental_uris":{"android":"levelo://app?vid=553e18cd-1f68-46c0-83c2-9bcb3e5d7688","ios":"levelo://app?vid=553e18cd-1f68-46c0-83c2-9bcb3e5d7688"},"vehicle_type_id":"4","last_reported":1703550839,"current_range_meters":18000,"station_id":"ce4bh492rcd13ifvqdvg","pricing_plan_id":"free"},{"bike_id":"d8a90793-66ed-413f-a51b-1cddee949aea","system_id":"levelo_inurba_marseille","lat":43.29635,"lon":5.40586,"is_reserved":false,"is_disabled":false,"rental_uris":{"android":"levelo://app?vid=d8a90793-66ed-413f-a51b-1cddee949aea","ios":"levelo://app?vid=d8a90793-66ed-413f-a51b-1cddee949aea"},"vehicle_type_id":"4","last_reported":1703550839,"current_range_meters":24800,"station_id":"ce4bh0h2rcd13ifvqd60","pricing_plan_id":"free"},{"bike_id":"e470c810-e00b-4004-984f-e8ac4ee05588","system_id":"levelo_inurba_marseille","lat":43.29633,"lon":5.40592,"is_reserved":false,"is_disabled":false,"rental_uris":{"android":"levelo://app?vid=e470c810-e00b-4004-984f-e8ac4ee05588","ios":"levelo://app?vid=e470c810-e00b-4004-984f-e8ac4ee05588"},"vehicle_type_id":"4","last_reported":1703550839,"current_range_meters":17600,"station_id":"ce4bh0h2rcd13ifvqd60","pricing_plan_id":"free"},{"bike_id":"3b1e13dc-4738-4e01-8c1c-d42078ed7023","system_id":"levelo_inurba_marseille","lat":43.29632,"lon":5.40593,"is_reserved":false,"is_disabled":false,"rental_uris":{"android":"levelo://app?vid=3b1e13dc-4738-4e01-8c1c-d42078ed7023","ios":"levelo://app?vid=3b1e13dc-4738-4e01-8c1c-d42078ed7023"},"vehicle_type_id":"4","last_reported":1703550839,"current_range_meters":17600,"station_id":"ce4bh0h2rcd13ifvqd60","pricing_plan_id":"free"},{"bike_id":"c8a60e82-3aa3-4d1b-aaad-6cd1c7b2d919","system_id":"levelo_inurba_marseille","lat":43.29631,"lon":5.40595,"is_reserved":false,"is_disabled":false,"rental_uris":{"android":"levelo://app?vid=c8a60e82-3aa3-4d1b-aaad-6cd1c7b2d919","ios":"levelo://app?vid=c8a60e82-3aa3-4d1b-aaad-6cd1c7b2d919"},"vehicle_type_id":"4","last_reported":1703550839,"current_range_meters":25600,"station_id":"ce4bh0h2rcd13ifvqd60","pricing_plan_id":"free"},{"bike_id":"c9b9528e-b886-4ad1-b739-64e9b7db55ce","system_id":"levelo_inurba_marseille","lat":43.281018,"lon":5.378518,"is_reserved":false,"is_disabled":false,"rental_uris":{"android":"levelo://app?vid=c9b9528e-b886-4ad1-b739-64e9b7db55ce","ios":"levelo://app?vid=c9b9528e-b886-4ad1-b739-64e9b7db55ce"},"vehicle_type_id":"4","last_reported":1703550839,"current_range_meters":28000,"station_id":"ce4bha12rcd13ifvqee0","pricing_plan_id":"free"},{"bike_id":"c9029fdb-6b28-4937-9e57-397e4a9d9c8f","system_id":"levelo_inurba_marseille","lat":43.281,"lon":5.37846,"is_reserved":false,"is_disabled":false,"rental_uris":{"android":"levelo://app?vid=c9029fdb-6b28-4937-9e57-397e4a9d9c8f","ios":"levelo://app?vid=c9029fdb-6b28-4937-9e57-397e4a9d9c8f"},"vehicle_type_id":"4","last_reported":1703550839,"current_range_meters":22000,"station_id":"ce4bha12rcd13ifvqee0","pricing_plan_id":"free"},{"bike_id":"b249b881-2268-4fe7-b11a-6b7969ff6d3d","system_id":"levelo_inurba_marseille","lat":43.281,"lon":5.37849,"is_reserved":false,"is_disabled":false,"rental_uris":{"android":"levelo://app?vid=b249b881-2268-4fe7-b11a-6b7969ff6d3d","ios":"levelo://app?vid=b249b881-2268-4fe7-b11a-6b7969ff6d3d"},"vehicle_type_id":"4","last_reported":1703550839,"current_range_meters":28000,"station_id":"ce4bha12rcd13ifvqee0","pricing_plan_id":"free"},{"bike_id":"b06fa1c2-73ac-4c11-97f8-6cd45aefbeb3","system_id":"levelo_inurba_marseille","lat":43.29628,"lon":5.40598,"is_reserved":false,"is_disabled":false,"rental_uris":{"android":"levelo://app?vid=b06fa1c2-73ac-4c11-97f8-6cd45aefbeb3","ios":"levelo://app?vid=b06fa1c2-73ac-4c11-97f8-6cd45aefbeb3"},"vehicle_type_id":"4","last_reported":1703550839,"current_range_meters":25200,"station_id":"ce4bh0h2rcd13ifvqd60","pricing_plan_id":"free"},{"bike_id":"8db6b4f9-191b-4caa-9cb4-1dec4ffefaf6","system_id":"levelo_inurba_marseille","lat":43.29632,"lon":5.40602,"is_reserved":false,"is_disabled":false,"rental_uris":{"android":"levelo://app?vid=8db6b4f9-191b-4caa-9cb4-1dec4ffefaf6","ios":"levelo://app?vid=8db6b4f9-191b-4caa-9cb4-1dec4ffefaf6"},"vehicle_type_id":"4","last_reported":1703550839,"current_range_meters":26800,"station_id":"ce4bh0h2rcd13ifvqd60","pricing_plan_id":"free"},{"bike_id":"e0fc6142-98ef-4764-966c-e402f88b477e","system_id":"levelo_inurba_marseille","lat":43.29625,"lon":5.40597,"is_reserved":false,"is_disabled":false,"rental_uris":{"android":"levelo://app?vid=e0fc6142-98ef-4764-966c-e402f88b477e","ios":"levelo://app?vid=e0fc6142-98ef-4764-966c-e402f88b477e"},"vehicle_type_id":"4","last_reported":1703550839,"current_range_meters":15600,"station_id":"ce4bh0h2rcd13ifvqd60","pricing_plan_id":"free"},{"bike_id":"9bb6a6c3-6541-45b4-9094-59038b8a200b","system_id":"levelo_inurba_marseille","lat":43.284462,"lon":5.392121,"is_reserved":false,"is_disabled":false,"rental_uris":{"android":"levelo://app?vid=9bb6a6c3-6541-45b4-9094-59038b8a200b","ios":"levelo://app?vid=9bb6a6c3-6541-45b4-9094-59038b8a200b"},"vehicle_type_id":"4","last_reported":1703550839,"current_range_meters":22800,"station_id":"ce4bhoh2rcd13ifvqh5g","pricing_plan_id":"free"},{"bike_id":"b49fe28a-d2e0-4b8f-8be2-38af94ab767c","system_id":"levelo_inurba_marseille","lat":43.285742,"lon":5.395004,"is_reserved":false,"is_disabled":false,"rental_uris":{"android":"levelo://app?vid=b49fe28a-d2e0-4b8f-8be2-38af94ab767c","ios":"levelo://app?vid=b49fe28a-d2e0-4b8f-8be2-38af94ab767c"},"vehicle_type_id":"4","last_reported":1703550839,"current_range_meters":20400,"station_id":"ce4bh292rcd13ifvqdg0","pricing_plan_id":"free"},{"bike_id":"5aa50031-41a1-4732-9cc9-ff224b00fb7f","system_id":"levelo_inurba_marseille","lat":43.28573,"lon":5.394992,"is_reserved":false,"is_disabled":false,"rental_uris":{"android":"levelo://app?vid=5aa50031-41a1-4732-9cc9-ff224b00fb7f","ios":"levelo://app?vid=5aa50031-41a1-4732-9cc9-ff224b00fb7f"},"vehicle_type_id":"4","last_reported":1703550839,"current_range_meters":26800,"station_id":"ce4bh292rcd13ifvqdg0","pricing_plan_id":"free"},{"bike_id":"3f64d92d-bd78-4747-8a6e-ff5758299350","system_id":"levelo_inurba_marseille","lat":43.326605,"lon":5.409903,"is_reserved":false,"is_disabled":false,"rental_uris":{"android":"levelo://app?vid=3f64d92d-bd78-4747-8a6e-ff5758299350","ios":"levelo://app?vid=3f64d92d-bd78-4747-8a6e-ff5758299350"},"vehicle_type_id":"4","last_reported":1703550839,"current_range_meters":27600,"station_id":"ce4bhpp2rcd13ifvqhgg","pricing_plan_id":"free"},{"bike_id":"3be5b2ea-a08f-4fb2-a63f-0263ec672b46","system_id":"levelo_inurba_marseille","lat":43.279087,"lon":5.380114,"is_reserved":false,"is_disabled":false,"rental_uris":{"android":"levelo://app?vid=3be5b2ea-a08f-4fb2-a63f-0263ec672b46","ios":"levelo://app?vid=3be5b2ea-a08f-4fb2-a63f-0263ec672b46"},"vehicle_type_id":"4","last_reported":1703550839,"current_range_meters":24000,"station_id":"ce4bhf92rcd13ifvqf50","pricing_plan_id":"free"},{"bike_id":"bc1f7b15-1c1c-41f9-9939-342701df6c92","system_id":"levelo_inurba_marseille","lat":43.279087,"lon":5.380114,"is_reserved":false,"is_disabled":false,"rental_uris":{"android":"levelo://app?vid=bc1f7b15-1c1c-41f9-9939-342701df6c92","ios":"levelo://app?vid=bc1f7b15-1c1c-41f9-9939-342701df6c92"},"vehicle_type_id":"4","last_reported":1703550839,"current_range_meters":18400,"station_id":"ce4bhf92rcd13ifvqf50","pricing_plan_id":"free"},{"bike_id":"7d171910-dde2-4f48-9b64-ae51040cce09","system_id":"levelo_inurba_marseille","lat":43.287154,"lon":5.399979,"is_reserved":false,"is_disabled":false,"rental_uris":{"android":"levelo://app?vid=7d171910-dde2-4f48-9b64-ae51040cce09","ios":"levelo://app?vid=7d171910-dde2-4f48-9b64-ae51040cce09"},"vehicle_type_id":"4","last_reported":1703550839,"current_range_meters":28000,"station_id":"ce4bho92rcd13ifvqh3g","pricing_plan_id":"free"},{"bike_id":"b27d41a7-f223-4fad-bd57-3fde72531d30","system_id":"levelo_inurba_marseille","lat":43.287154,"lon":5.399979,"is_reserved":false,"is_disabled":false,"rental_uris":{"android":"levelo://app?vid=b27d41a7-f223-4fad-bd57-3fde72531d30","ios":"levelo://app?vid=b27d41a7-f223-4fad-bd57-3fde72531d30"},"vehicle_type_id":"4","last_reported":1703550839,"current_range_meters":19200,"station_id":"ce4bho92rcd13ifvqh3g","pricing_plan_id":"free"},{"bike_id":"0da42c14-3355-4e23-b868-19cf3af299aa","system_id":"levelo_inurba_marseille","lat":43.286953,"lon":5.399911,"is_reserved":false,"is_disabled":false,"rental_uris":{"android":"levelo://app?vid=0da42c14-3355-4e23-b868-19cf3af299aa","ios":"levelo://app?vid=0da42c14-3355-4e23-b868-19cf3af299aa"},"vehicle_type_id":"4","last_reported":1703550839,"current_range_meters":24400,"station_id":"","pricing_plan_id":"free"},{"bike_id":"8dc1a192-1b6f-467a-861b-d4c6f7601906","system_id":"levelo_inurba_marseille","lat":43.299579,"lon":5.413255,"is_reserved":false,"is_disabled":false,"rental_uris":{"android":"levelo://app?vid=8dc1a192-1b6f-467a-861b-d4c6f7601906","ios":"levelo://app?vid=8dc1a192-1b6f-467a-861b-d4c6f7601906"},"vehicle_type_id":"4","last_reported":1703550839,"current_range_meters":30400,"station_id":"ce4bhp12rcd13ifvqh9g","pricing_plan_id":"free"},{"bike_id":"34158c04-90ab-44ff-844e-fe8c6866438b","system_id":"levelo_inurba_marseille","lat":43.299577,"lon":5.413277,"is_reserved":false,"is_disabled":false,"rental_uris":{"android":"levelo://app?vid=34158c04-90ab-44ff-844e-fe8c6866438b","ios":"levelo://app?vid=34158c04-90ab-44ff-844e-fe8c6866438b"},"vehicle_type_id":"4","last_reported":1703550839,"current_range_meters":30000,"station_id":"ce4bhp12rcd13ifvqh9g","pricing_plan_id":"free"},{"bike_id":"2950f92c-3e43-4204-b7ae-3f0ac182f86d","system_id":"levelo_inurba_marseille","lat":43.279742,"lon":5.38744,"is_reserved":false,"is_disabled":false,"rental_uris":{"android":"levelo://app?vid=2950f92c-3e43-4204-b7ae-3f0ac182f86d","ios":"levelo://app?vid=2950f92c-3e43-4204-b7ae-3f0ac182f86d"},"vehicle_type_id":"4","last_reported":1703550839,"current_range_meters":30800,"station_id":"ce4bhg12rcd13ifvqf80","pricing_plan_id":"free"},{"bike_id":"84bc6c29-0db0-4164-9413-324d02b029ef","system_id":"levelo_inurba_marseille","lat":43.279742,"lon":5.38744,"is_reserved":false,"is_disabled":false,"rental_uris":{"android":"levelo://app?vid=84bc6c29-0db0-4164-9413-324d02b029ef","ios":"levelo://app?vid=84bc6c29-0db0-4164-9413-324d02b029ef"},"vehicle_type_id":"4","last_reported":1703550839,"current_range_meters":29200,"station_id":"ce4bhg12rcd13ifvqf80","pricing_plan_id":"free"},{"bike_id":"9ac416a4-4386-400e-b4a2-475eb2577ea6","system_id":"levelo_inurba_marseille","lat":43.279742,"lon":5.38744,"is_reserved":false,"is_disabled":false,"rental_uris":{"android":"levelo://app?vid=9ac416a4-4386-400e-b4a2-475eb2577ea6","ios":"levelo://app?vid=9ac416a4-4386-400e-b4a2-475eb2577ea6"},"vehicle_type_id":"4","last_reported":1703550839,"current_range_meters":25600,"station_id":"ce4bhg12rcd13ifvqf80","pricing_plan_id":"free"},