{"last_updated":1773161144,"ttl":60,"version":"2.2","data":{"bikes":[{"bike_id":"d836b3f9-d22b-4e36-9788-587fa8497bc6","system_id":"levelo_inurba_marseille","lat":43.24168,"lon":5.36389,"is_reserved":false,"is_disabled":false,"rental_uris":{"android":"levelo://app?vid=d836b3f9-d22b-4e36-9788-587fa8497bc6","ios":"levelo://app?vid=d836b3f9-d22b-4e36-9788-587fa8497bc6"},"vehicle_type_id":"4","last_reported":1773161145,"current_range_meters":9600,"station_id":"cpo36qri1sfpv3e86is0","pricing_plan_id":"cebpf4jnsgd1na2vs0mg"},{"bike_id":"550f0157-9dee-4681-8f50-3896b766742f","system_id":"levelo_inurba_marseille","lat":43.25866,"lon":5.39895,"is_reserved":false,"is_disabled":false,"rental_uris":{"android":"levelo://app?vid=550f0157-9dee-4681-8f50-3896b766742f","ios":"levelo://app?vid=550f0157-9dee-4681-8f50-3896b766742f"},"vehicle_type_id":"4","last_reported":1773161145,"current_range_meters":39200,"station_id":"ce4bhl92rcd13ifvqghg","pricing_plan_id":"cebpf4jnsgd1na2vs0mg"},{"bike_id":"0d48f89b-e3f0-414c-ad21-b9d26e02c61b","system_id":"levelo_inurba_marseille","lat":43.29711,"lon":5.36595,"is_reserved":false,"is_disabled":false,"rental_uris":{"android":"levelo://app?vid=0d48f89b-e3f0-414c-ad21-b9d26e02c61b","ios":"levelo://app?vid=0d48f89b-e3f0-414c-ad21-b9d26e02c61b"},"vehicle_type_id":"4","last_reported":1773161145,"current_range_meters":30800,"station_id":"ce4bgn12rcd13ifvqbt0","pricing_plan_id":"cebpf4jnsgd1na2vs0mg"},{"bike_id":"dcb476bc-523e-425a-9356-29a2d8b88b51","system_id":"levelo_inurba_marseille","lat":43.29041,"lon":5.38651,"is_reserved":false,"is_disabled":false,"rental_uris":{"android":"levelo://app?vid=dcb476bc-523e-425a-9356-29a2d8b88b51","ios":"levelo://app?vid=dcb476bc-523e-425a-9356-29a2d8b88b51"},"vehicle_type_id":"4","last_reported":1773161145,"current_range_meters":20000,"station_id":"ce4bh4p2rcd13ifvqe0g","pricing_plan_id":"cebpf4jnsgd1na2vs0mg"},{"bike_id":"038070d3-dd96-4a80-ac3a-8c818a259593","system_id":"levelo_inurba_marseille","lat":43.3089,"lon":5.39679,"is_reserved":false,"is_disabled":false,"rental_uris":{"android":"levelo://app?vid=038070d3-dd96-4a80-ac3a-8c818a259593","ios":"levelo://app?vid=038070d3-dd96-4a80-ac3a-8c818a259593"},"vehicle_type_id":"4","last_reported":1773161145,"current_range_meters":39200,"station_id":"ce4bh012rcd13ifvqcv0","pricing_plan_id":"cebpf4jnsgd1na2vs0mg"},{"bike_id":"aaa57c9c-a5dc-480c-97b9-d3c8d31e41e6","system_id":"levelo_inurba_marseille","lat":43.30551,"lon":5.3653,"is_reserved":false,"is_disabled":false,"rental_uris":{"android":"levelo://app?vid=aaa57c9c-a5dc-480c-97b9-d3c8d31e41e6","ios":"levelo://app?vid=aaa57c9c-a5dc-480c-97b9-d3c8d31e41e6"},"vehicle_type_id":"4","last_reported":1773161145,"current_range_meters":37600,"station_id":"ce4bgs12rcd13ifvqcag","pricing_plan_id":"cebpf4jnsgd1na2vs0mg"},{"bike_id":"bc51ce21-8f59-4dff-816b-f1d6d16e19a8","system_id":"levelo_inurba_marseille","lat":43.29299,"lon":5.4011,"is_reserved":false,"is_disabled":false,"rental_uris":{"android":"levelo://app?vid=bc51ce21-8f59-4dff-816b-f1d6d16e19a8","ios":"levelo://app?vid=bc51ce21-8f59-4dff-816b-f1d6d16e19a8"},"vehicle_type_id":"4","last_reported":1773161145,"current_range_meters":16400,"station_id":"ce4bh312rcd13ifvqdk0","pricing_plan_id":"cebpf4jnsgd1na2vs0mg"},{"bike_id":"957d5153-e7e5-4874-9557-99dd830de934","system_id":"levelo_inurba_marseille","lat":43.3464,"lon":5.36722,"is_reserved":false,"is_disabled":false,"rental_uris":{"android":"levelo://app?vid=957d5153-e7e5-4874-9557-99dd830de934","ios":"levelo://app?vid=957d5153-e7e5-4874-9557-99dd830de934"},"vehicle_type_id":"4","last_reported":1773161145,"current_range_meters":33200,"station_id":"","pricing_plan_id":"cebpf4jnsgd1na2vs0mg"},{"bike_id":"8a02182f-689c-45f9-b6f7-71f07d4dd71d","system_id":"levelo_inurba_marseille","lat":43.27423,"lon":5.39422,"is_reserved":false,"is_disabled":false,"rental_uris":{"android":"levelo://app?vid=8a02182f-689c-45f9-b6f7-71f07d4dd71d","ios":"levelo://app?vid=8a02182f-689c-45f9-b6f7-71f07d4dd71d"},"vehicle_type_id":"4","last_reported":1773161145,"current_range_meters":34000,"station_id":"ce4bhdp2rcd13ifvqf20","pricing_plan_id":"cebpf4jnsgd1na2vs0mg"},{"bike_id":"4b816d63-fc3c-45dd-aea6-96b4203fe4c8","system_id":"levelo_inurba_marseille","lat":43.28477,"lon":5.48388,"is_reserved":false,"is_disabled":false,"rental_uris":{"android":"levelo://app?vid=4b816d63-fc3c-45dd-aea6-96b4203fe4c8","ios":"levelo://app?vid=4b816d63-fc3c-45dd-aea6-96b4203fe4c8"},"vehicle_type_id":"4","last_reported":1773161145,"current_range_meters":38000,"station_id":"st_d3svhcjqgbts73a3dn0g","pricing_plan_id":"cebpf4jnsgd1na2vs0mg"},{"bike_id":"9548c5b7-5eac-46d1-8ff7-8823f888763f","system_id":"levelo_inurba_marseille","lat":43.33176,"lon":5.37729,"is_reserved":false,"is_disabled":false,"rental_uris":{"android":"levelo://app?vid=9548c5b7-5eac-46d1-8ff7-8823f888763f","ios":"levelo://app?vid=9548c5b7-5eac-46d1-8ff7-8823f888763f"},"vehicle_type_id":"4","last_reported":1773161145,"current_range_meters":33600,"station_id":"st_d46cu089ee8s73dldbu0","pricing_plan_id":"cebpf4jnsgd1na2vs0mg"},{"bike_id":"7f4a5dc3-3d0c-42cb-90e4-9c2d478919d0","system_id":"levelo_inurba_marseille","lat":43.29627,"lon":5.37141,"is_reserved":false,"is_disabled":false,"rental_uris":{"android":"levelo://app?vid=7f4a5dc3-3d0c-42cb-90e4-9c2d478919d0","ios":"levelo://app?vid=7f4a5dc3-3d0c-42cb-90e4-9c2d478919d0"},"vehicle_type_id":"4","last_reported":1773161145,"current_range_meters":36800,"station_id":"ce4bgnh2rcd13ifvqc0g","pricing_plan_id":"cebpf4jnsgd1na2vs0mg"},{"bike_id":"a8c8cdb1-ae95-4e02-aac9-d9f56c4e0944","system_id":"levelo_inurba_marseille","lat":43.28623,"lon":5.35106,"is_reserved":false,"is_disabled":false,"rental_uris":{"android":"levelo://app?vid=a8c8cdb1-ae95-4e02-aac9-d9f56c4e0944","ios":"levelo://app?vid=a8c8cdb1-ae95-4e02-aac9-d9f56c4e0944"},"vehicle_type_id":"4","last_reported":1773161145,"current_range_meters":25200,"station_id":"ce4bhch2rcd13ifvqeug","pricing_plan_id":"cebpf4jnsgd1na2vs0mg"},{"bike_id":"2e3bdd21-d806-4d6a-9aef-090b2353cdc7","system_id":"levelo_inurba_marseille","lat":43.29076,"lon":5.37142,"is_reserved":false,"is_disabled":false,"rental_uris":{"android":"levelo://app?vid=2e3bdd21-d806-4d6a-9aef-090b2353cdc7","ios":"levelo://app?vid=2e3bdd21-d806-4d6a-9aef-090b2353cdc7"},"vehicle_type_id":"4","last_reported":1773161145,"current_range_meters":33200,"station_id":"ce4bh5p2rcd13ifvqe4g","pricing_plan_id":"cebpf4jnsgd1na2vs0mg"},{"bike_id":"4a58236a-bfdd-4080-905c-95d2f2c8d0d2","system_id":"levelo_inurba_marseille","lat":43.28205,"lon":5.39026,"is_reserved":false,"is_disabled":false,"rental_uris":{"android":"levelo://app?vid=4a58236a-bfdd-4080-905c-95d2f2c8d0d2","ios":"levelo://app?vid=4a58236a-bfdd-4080-905c-95d2f2c8d0d2"},"vehicle_type_id":"4","last_reported":1773161145,"current_range_meters":27200,"station_id":"","pricing_plan_id":"cebpf4jnsgd1na2vs0mg"},{"bike_id":"b32e1fec-13ae-4c1f-b583-73be3e302a01","system_id":"levelo_inurba_marseille","lat":43.2481,"lon":5.37472,"is_reserved":false,"is_disabled":false,"rental_uris":{"android":"levelo://app?vid=b32e1fec-13ae-4c1f-b583-73be3e302a01","ios":"levelo://app?vid=b32e1fec-13ae-4c1f-b583-73be3e302a01"},"vehicle_type_id":"4","last_reported":1773161145,"current_range_meters":35200,"station_id":"ce4bhgh2rcd13ifvqfb0","pricing_plan_id":"cebpf4jnsgd1na2vs0mg"},{"bike_id":"323faba3-8759-487f-b1a9-0d4cac89e696","system_id":"levelo_inurba_marseille","lat":43.28466,"lon":5.35884,"is_reserved":false,"is_disabled":false,"rental_uris":{"android":"levelo://app?vid=323faba3-8759-487f-b1a9-0d4cac89e696","ios":"levelo://app?vid=323faba3-8759-487f-b1a9-0d4cac89e696"},"vehicle_type_id":"4","last_reported":1773161145,"current_range_meters":24000,"station_id":"ce4bhah2rcd13ifvqei0","pricing_plan_id":"cebpf4jnsgd1na2vs0mg"},{"bike_id":"dc76a1aa-8d60-466b-aafa-cba2b93d0830","system_id":"levelo_inurba_marseille","lat":43.30493,"lon":5.37878,"is_reserved":false,"is_disabled":false,"rental_uris":{"android":"levelo://app?vid=dc76a1aa-8d60-466b-aafa-cba2b93d0830","ios":"levelo://app?vid=dc76a1aa-8d60-466b-aafa-cba2b93d0830"},"vehicle_type_id":"4","last_reported":1773161145,"current_range_meters":38800,"station_id":"ce4bgup2rcd13ifvqcn0","pricing_plan_id":"cebpf4jnsgd1na2vs0mg"},{"bike_id":"abd13d01-d3b3-4b8f-a3f9-05a8c130dea1","system_id":"levelo_inurba_marseille","lat":43.28086,"lon":5.39672,"is_reserved":false,"is_disabled":false,"rental_uris":{"android":"levelo://app?vid=abd13d01-d3b3-4b8f-a3f9-05a8c130dea1","ios":"levelo://app?vid=abd13d01-d3b3-4b8f-a3f9-05a8c130dea1"},"vehicle_type_id":"4","last_reported":1773161145,"current_range_meters":38000,"station_id":"ce4bho12rcd13ifvqh2g","pricing_plan_id":"cebpf4jnsgd1na2vs0mg"},{"bike_id":"cdbdca19-fc21-4706-8259-1f61d6e2fc5c","system_id":"levelo_inurba_marseille","lat":43.30363,"lon":5.41879,"is_reserved":false,"is_disabled":false,"rental_uris":{"android":"levelo://app?vid=cdbdca19-fc21-4706-8259-1f61d6e2fc5c","ios":"levelo://app?vid=cdbdca19-fc21-4706-8259-1f61d6e2fc5c"},"vehicle_type_id":"4","last_reported":1773161145,"current_range_meters":33600,"station_id":"ce4bhop2rcd13ifvqh7g","pricing_plan_id":"cebpf4jnsgd1na2vs0mg"},{"bike_id":"bcd27a1d-25c8-40a5-b9e7-b0f8934b6110","system_id":"levelo_inurba_marseille","lat":43.28914,"lon":5.38366,"is_reserved":false,"is_disabled":false,"rental_uris":{"android":"levelo://app?vid=bcd27a1d-25c8-40a5-b9e7-b0f8934b6110","ios":"levelo://app?vid=bcd27a1d-25c8-40a5-b9e7-b0f8934b6110"},"vehicle_type_id":"4","last_reported":1773161145,"current_range_meters":32400,"station_id":"ce4bh612rcd13ifvqe6g","pricing_plan_id":"cebpf4jnsgd1na2vs0mg"},{"bike_id":"9cc09629-76f8-46a4-a76a-172ee2993776","system_id":"levelo_inurba_marseille","lat":43.32132,"lon":5.36784,"is_reserved":false,"is_disabled":false,"rental_uris":{"android":"levelo://app?vid=9cc09629-76f8-46a4-a76a-172ee2993776","ios":"levelo://app?vid=9cc09629-76f8-46a4-a76a-172ee2993776"},"vehicle_type_id":"4","last_reported":1773161145,"current_range_meters":31200,"station_id":"ce4bhrh2rcd13ifvqhug","pricing_plan_id":"cebpf4jnsgd1na2vs0mg"},{"bike_id":"8b0f1346-6330-4238-948b-5b6886eebaf3","system_id":"levelo_inurba_marseille","lat":43.32289,"lon":5.38268,"is_reserved":false,"is_disabled":false,"rental_uris":{"android":"levelo://app?vid=8b0f1346-6330-4238-948b-5b6886eebaf3","ios":"levelo://app?vid=8b0f1346-6330-4238-948b-5b6886eebaf3"},"vehicle_type_id":"4","last_reported":1773161145,"current_range_meters":37600,"station_id":"ce4bhr12rcd13ifvqhqg","pricing_plan_id":"cebpf4jnsgd1na2vs0mg"},{"bike_id":"f472922e-3918-465e-8921-8220b570c110","system_id":"levelo_inurba_marseille","lat":43.28726,"lon":5.36078,"is_reserved":false,"is_disabled":false,"rental_uris":{"android":"levelo://app?vid=f472922e-3918-465e-8921-8220b570c110","ios":"levelo://app?vid=f472922e-3918-465e-8921-8220b570c110"},"vehicle_type_id":"4","last_reported":1773161145,"current_range_meters":32800,"station_id":"cki0cbj6b192h4jlfktg","pricing_plan_id":"cebpf4jnsgd1na2vs0mg"},{"bike_id":"28dedda3-db35-403e-8ce9-44e2889a24bf","system_id":"levelo_inurba_marseille","lat":43.30791,"lon":5.37652,"is_reserved":false,"is_disabled":false,"rental_uris":{"android":"levelo://app?vid=28dedda3-db35-403e-8ce9-44e2889a24bf","ios":"levelo://app?vid=28dedda3-db35-403e-8ce9-44e2889a24bf"},"vehicle_type_id":"4","last_reported":1773161145,"current_range_meters":14400,"station_id":"ce4bgv92rcd13ifvqcq0","pricing_plan_id":"cebpf4jnsgd1na2vs0mg"},{"bike_id":"b5369474-d595-42d6-ba6e-c39f04602da0","system_id":"levelo_inurba_marseille","lat":43.22564,"lon":5.41631,"is_reserved":false,"is_disabled":false,"rental_uris":{"android":"levelo://app?vid=b5369474-d595-42d6-ba6e-c39f04602da0","ios":"levelo://app?vid=b5369474-d595-42d6-ba6e-c39f04602da0"},"vehicle_type_id":"4","last_reported":1773161145,"current_range_meters":38800,"station_id":"st_d2o4gvlbi1j2169b742g","pricing_plan_id":"cebpf4jnsgd1na2vs0mg"},{"bike_id":"5c75f21b-7e95-43b6-a338-699ae6c6da3a","system_id":"levelo_inurba_marseille","lat":43.25854,"lon":5.39466,"is_reserved":false,"is_disabled":false,"rental_uris":{"android":"levelo://app?vid=5c75f21b-7e95-43b6-a338-699ae6c6da3a","ios":"levelo://app?vid=5c75f21b-7e95-43b6-a338-699ae6c6da3a"},"vehicle_type_id":"4","last_reported":1773161145,"current_range_meters":11200,"station_id":"ce4bhip2rcd13ifvqft0","pricing_plan_id":"cebpf4jnsgd1na2vs0mg"},{"bike_id":"defb3785-ffdb-45c6-b37a-b3aa30aa857c","system_id":"levelo_inurba_marseille","lat":43.2417,"lon":5.39735,"is_reserved":false,"is_disabled":false,"rental_uris":{"android":"levelo://app?vid=defb3785-ffdb-45c6-b37a-b3aa30aa857c","ios":"levelo://app?vid=defb3785-ffdb-45c6-b37a-b3aa30aa857c"},"vehicle_type_id":"4","last_reported":1773161145,"current_range_meters":38000,"station_id":"ce4bhn12rcd13ifvqgpg","pricing_plan_id":"cebpf4jnsgd1na2vs0mg"},{"bike_id":"ffca8b48-6a41-4c14-bbf9-9d4227cddf8b","system_id":"levelo_inurba_marseille","lat":43.31689,"lon":5.4047,"is_reserved":false,"is_disabled":false,"rental_uris":{"android":"levelo://app?vid=ffca8b48-6a41-4c14-bbf9-9d4227cddf8b","ios":"levelo://app?vid=ffca8b48-6a41-4c14-bbf9-9d4227cddf8b"},"vehicle_type_id":"4","last_reported":1773161145,"current_range_meters":39200,"station_id":"ce4bh012rcd13ifvqd00","pricing_plan_id":"cebpf4jnsgd1na2vs0mg"},{"bike_id":"95e41b16-0580-4a20-81b3-62d1707c0e5d","system_id":"levelo_inurba_marseille","lat":43.24557,"lon":5.39532,"is_reserved":false,"is_disabled":true,"rental_uris":{"android":"levelo://app?vid=95e41b16-0580-4a20-81b3-62d1707c0e5d","ios":"levelo://app?vid=95e41b16-0580-4a20-81b3-62d1707c0e5d"},"vehicle_type_id":"4","last_reported":1773161145,"current_range_meters":400,"station_id":"ce4bhlp2rcd13ifvqgjg","pricing_plan_id":"cebpf4jnsgd1na2vs0mg"},{"bike_id":"8d12a126-50e3-409d-8ddd-3c1b7f8683e3","system_id":"levelo_inurba_marseille","lat":43.28576,"lon":5.395,"is_reserved":false,"is_disabled":false,"rental_uris":{"android":"levelo://app?vid=8d12a126-50e3-409d-8ddd-3c1b7f8683e3","ios":"levelo://app?vid=8d12a126-50e3-409d-8ddd-3c1b7f8683e3"},"vehicle_type_id":"4","last_reported":1773161145,"current_range_meters":36800,"station_id":"ce4bh292rcd13ifvqdg0","pricing_plan_id":"cebpf4jnsgd1na2vs0mg"},{"bike_id":"c3a6abe6-c2fe-4a0d-bd39-b1c9edd3f158","system_id":"levelo_inurba_marseille","lat":43.29522,"lon":5.37516,"is_reserved":false,"is_disabled":false,"rental_uris":{"android":"levelo://app?vid=c3a6abe6-c2fe-4a0d-bd39-b1c9edd3f158","ios":"levelo://app?vid=c3a6abe6-c2fe-4a0d-bd39-b1c9edd3f158"},"vehicle_type_id":"4","last_reported":1773161145,"current_range_meters":39200,"station_id":"ce4bgkp2rcd13ifvqbmg","pricing_plan_id":"cebpf4jnsgd1na2vs0mg"},{"bike_id":"4879d3c3-e3b5-42ca-ab65-740f4f2a8681","system_id":"levelo_inurba_marseille","lat":43.24181,"lon":5.36402,"is_reserved":false,"is_disabled":false,"rental_uris":{"android":"levelo://app?vid=4879d3c3-e3b5-42ca-ab65-740f4f2a8681","ios":"levelo://app?vid=4879d3c3-e3b5-42ca-ab65-740f4f2a8681"},"vehicle_type_id":"4","last_reported":1773161145,"current_range_meters":15200,"station_id":"cpo36qri1sfpv3e86is0","pricing_plan_id":"cebpf4jnsgd1na2vs0mg"},{"bike_id":"406dc9a2-14d2-43f3-b09a-1270cddb760c","system_id":"levelo_inurba_marseille","lat":43.29916,"lon":5.37473,"is_reserved":false,"is_disabled":false,"rental_uris":{"android":"levelo://app?vid=406dc9a2-14d2-43f3-b09a-1270cddb760c","ios":"levelo://app?vid=406dc9a2-14d2-43f3-b09a-1270cddb760c"},"vehicle_type_id":"4","last_reported":1773161145,"current_range_meters":39200,"station_id":"ce4bgjh2rcd13ifvqbg0","pricing_plan_id":"cebpf4jnsgd1na2vs0mg"},{"bike_id":"1050dc77-ddb3-4265-81c3-5d9c1c8c54b9","system_id":"levelo_inurba_marseille","lat":43.29038,"lon":5.38643,"is_reserved":false,"is_disabled":false,"rental_uris":{"android":"levelo://app?vid=1050dc77-ddb3-4265-81c3-5d9c1c8c54b9","ios":"levelo://app?vid=1050dc77-ddb3-4265-81c3-5d9c1c8c54b9"},"vehicle_type_id":"4","last_reported":1773161145,"current_range_meters":28400,"station_id":"ce4bh4p2rcd13ifvqe0g","pricing_plan_id":"cebpf4jnsgd1na2vs0mg"},{"bike_id":"05681e4e-87b0-4520-8776-5b1952252019","system_id":"levelo_inurba_marseille","lat":43.30323,"lon":5.36888,"is_reserved":false,"is_disabled":false,"rental_uris":{"android":"levelo://app?vid=05681e4e-87b0-4520-8776-5b1952252019","ios":"levelo://app?vid=05681e4e-87b0-4520-8776-5b1952252019"},"vehicle_type_id":"4","last_reported":1773161145,"current_range_meters":32000,"station_id":"ce4bgqh2rcd13ifvqc5g","pricing_plan_id":"cebpf4jnsgd1na2vs0mg"},{"bike_id":"2c836b03-51a7-4097-96f7-8a0f0d0e719d","system_id":"levelo_inurba_marseille","lat":43.2484,"lon":5.37474,"is_reserved":false,"is_disabled":false,"rental_uris":{"android":"levelo://app?vid=2c836b03-51a7-4097-96f7-8a0f0d0e719d","ios":"levelo://app?vid=2c836b03-51a7-4097-96f7-8a0f0d0e719d"},"vehicle_type_id":"4","last_reported":1773161145,"current_range_meters":37600,"station_id":"","pricing_plan_id":"cebpf4jnsgd1na2vs0mg"},{"bike_id":"842e27a6-5d76-45f6-9bcb-6e4a753be90c","system_id":"levelo_inurba_marseille","lat":43.29601,"lon":5.37741,"is_reserved":false,"is_disabled":false,"rental_uris":{"android":"levelo://app?vid=842e27a6-5d76-45f6-9bcb-6e4a753be90c","ios":"levelo://app?vid=842e27a6-5d76-45f6-9bcb-6e4a753be90c"},"vehicle_type_id":"4","last_reported":1773161145,"current_range_meters":7200,"station_id":"ce4bgi92rcd13ifvqb90","pricing_plan_id":"cebpf4jnsgd1na2vs0mg"},{"bike_id":"8c7782e1-107f-434e-a211-e451e78368f1","system_id":"levelo_inurba_marseille","lat":43.25851,"lon":5.39902,"is_reserved":false,"is_disabled":false,"rental_uris":{"android":"levelo://app?vid=8c7782e1-107f-434e-a211-e451e78368f1","ios":"levelo://app?vid=8c7782e1-107f-434e-a211-e451e78368f1"},"vehicle_type_id":"4","last_reported":1773161145,"current_range_meters":27200,"station_id":"ce4bhl92rcd13ifvqghg","pricing_plan_id":"cebpf4jnsgd1na2vs0mg"},{"bike_id":"05a6aeb6-8ecc-444c-a68d-cdb267f43480","system_id":"levelo_inurba_marseille","lat":43.24638,"lon":5.38919,"is_reserved":false,"is_disabled":false,"rental_uris":{"android":"levelo://app?vid=05a6aeb6-8ecc-444c-a68d-cdb267f43480","ios":"levelo://app?vid=05a6aeb6-8ecc-444c-a68d-cdb267f43480"},"vehicle_type_id":"4","last_reported":1773161145,"current_range_meters":38800,"station_id":"ce4bhg12rcd13ifvqf60","pricing_plan_id":"cebpf4jnsgd1na2vs0mg"},{"bike_id":"20f50ff7-9f50-40ec-b2d6-60a07798d798","system_id":"levelo_inurba_marseille","lat":43.31328,"lon":5.39688,"is_reserved":false,"is_disabled":false,"rental_uris":{"android":"levelo://app?vid=20f50ff7-9f50-40ec-b2d6-60a07798d798","ios":"levelo://app?vid=20f50ff7-9f50-40ec-b2d6-60a07798d798"},"vehicle_type_id":"4","last_reported":1773161145,"current_range_meters":30400,"station_id":"ce4bgvp2rcd13ifvqcu0","pricing_plan_id":"cebpf4jnsgd1na2vs0mg"},{"bike_id":"941ec6ae-979a-4205-b2af-d407a3814e27","system_id":"levelo_inurba_marseille","lat":43.29029,"lon":5.37564,"is_reserved":false,"is_disabled":false,"rental_uris":{"android":"levelo://app?vid=941ec6ae-979a-4205-b2af-d407a3814e27","ios":"levelo://app?vid=941ec6ae-979a-4205-b2af-d407a3814e27"},"vehicle_type_id":"4","last_reported":1773161145,"current_range_meters":30000,"station_id":"ce4bh692rcd13ifvqe90","pricing_plan_id":"cebpf4jnsgd1na2vs0mg"},{"bike_id":"a5642da5-590f-492f-89f9-0fbe17148ab4","system_id":"levelo_inurba_marseille","lat":43.2381,"lon":5.36675,"is_reserved":false,"is_disabled":false,"rental_uris":{"android":"levelo://app?vid=a5642da5-590f-492f-89f9-0fbe17148ab4","ios":"levelo://app?vid=a5642da5-590f-492f-89f9-0fbe17148ab4"},"vehicle_type_id":"4","last_reported":1773161145,"current_range_meters":17200,"station_id":"st_d3nk18o9ro0c73en2l3g","pricing_plan_id":"cebpf4jnsgd1na2vs0mg"},{"bike_id":"ed8dec86-aa91-45f9-93c0-8464f27d0f2d","system_id":"levelo_inurba_marseille","lat":43.29514,"lon":5.38557,"is_reserved":false,"is_disabled":false,"rental_uris":{"android":"levelo://app?vid=ed8dec86-aa91-45f9-93c0-8464f27d0f2d","ios":"levelo://app?vid=ed8dec86-aa91-45f9-93c0-8464f27d0f2d"},"vehicle_type_id":"4","last_reported":1773161145,"current_range_meters":24800,"station_id":"ce4bgih2rcd13ifvqba0","pricing_plan_id":"cebpf4jnsgd1na2vs0mg"},{"bike_id":"c04b7ea1-2477-47ee-9bc7-3a1a9a81d319","system_id":"levelo_inurba_marseille","lat":43.27574,"lon":5.38418,"is_reserved":false,"is_disabled":false,"rental_uris":{"android":"levelo://app?vid=c04b7ea1-2477-47ee-9bc7-3a1a9a81d319","ios":"levelo://app?vid=c04b7ea1-2477-47ee-9bc7-3a1a9a81d319"},"vehicle_type_id":"4","last_reported":1773161145,"current_range_meters":29600,"station_id":"ce4bhh92rcd13ifvqfi0","pricing_plan_id":"cebpf4jnsgd1na2vs0mg"},{"bike_id":"525d593e-e5ab-4f9b-a084-f494d61aa115","system_id":"levelo_inurba_marseille","lat":43.3035,"lon":5.41875,"is_reserved":false,"is_disabled":false,"rental_uris":{"android":"levelo://app?vid=525d593e-e5ab-4f9b-a084-f494d61aa115","ios":"levelo://app?vid=525d593e-e5ab-4f9b-a084-f494d61aa115"},"vehicle_type_id":"4","last_reported":1773161145,"current_range_meters":38800,"station_id":"ce4bhop2rcd13ifvqh7g","pricing_plan_id":"cebpf4jnsgd1na2vs0mg"},{"bike_id":"92888867-ec24-4049-b299-6740fb029c61","system_id":"levelo_inurba_marseille","lat":43.286153,"lon":5.351064,"is_reserved":false,"is_disabled":false,"rental_uris":{"android":"levelo://app?vid=92888867-ec24-4049-b299-6740fb029c61","ios":"levelo://app?vid=92888867-ec24-4049-b299-6740fb029c61"},"vehicle_type_id":"4","last_reported":1773161145,"current_range_meters":12000,"station_id":"ce4bhch2rcd13ifvqeug","pricing_plan_id":"cebpf4jnsgd1na2vs0mg"},{"bike_id":"37aea754-58d3-485a-a8ae-ff52a49b08d0","system_id":"levelo_inurba_marseille","lat":43.27187,"lon":5.40985,"is_reserved":false,"is_disabled":false,"rental_uris":{"android":"levelo://app?vid=37aea754-58d3-485a-a8ae-ff52a49b08d0","ios":"levelo://app?vid=37aea754-58d3-485a-a8ae-ff52a49b08d0"},"vehicle_type_id":"4","last_reported":1773161145,"current_range_meters":39200,"station_id":"ce4bhl12rcd13ifvqgf0","pricing_plan_id":"cebpf4jnsgd1na2vs0mg"},{"bike_id":"e07c8a4d-7c0b-425f-b967-0ea81b913cdb","system_id":"levelo_inurba_marseille","lat":43.31279,"lon":5.40152,"is_reserved":false,"is_disabled":false,"rental_uris":{"android":"levelo://app?vid=e07c8a4d-7c0b-425f-b967-0ea81b913cdb","ios":"levelo://app?vid=e07c8a4d-7c0b-425f-b967-0ea81b913cdb"},"vehicle_type_id":"4","last_reported":1773161145,"current_range_meters":26800,"station_id":"ce4bh092rcd13ifvqd30","pricing_plan_id":"cebpf4jnsgd1na2vs0mg"},{"bike_id":"19978875-9c6e-45ef-ae36-aa9c375e7262","system_id":"levelo_inurba_marseille","lat":43.26561,"lon":5.37284,"is_reserved":false,"is_disabled":false,"rental_uris":{"android":"levelo://app?vid=19978875-9c6e-45ef-ae36-aa9c375e7262","ios":"levelo://app?vid=19978875-9c6e-45ef-ae36-aa9c375e7262"},"vehicle_type_id":"4","last_reported":1773161145,"current_range_meters":18000,"station_id":"ce4bhg12rcd13ifvqf70","pricing_plan_id":"cebpf4jnsgd1na2vs0mg"},{"bike_id":"584f94a8-9738-4289-81b1-d1bf00e66289","system_id":"levelo_inurba_marseille","lat":43.29798,"lon":5.421,"is_reserved":false,"is_disabled":false,"rental_uris":{"android":"levelo://app?vid=584f94a8-9738-4289-81b1-d1bf00e66289","ios":"levelo://app?vid=584f94a8-9738-4289-81b1-d1bf00e66289"},"vehicle_type_id":"4","last_reported":1773161145,"current_range_meters":38400,"station_id":"","pricing_plan_id":"cebpf4jnsgd1na2vs0mg"},{"bike_id":"05ec2ed9-d3b8-45aa-8136-afe753cd886b","system_id":"levelo_inurba_marseille","lat":43.27508,"lon":5.41566,"is_reserved":false,"is_disabled":false,"rental_uris":{"android":"levelo://app?vid=05ec2ed9-d3b8-45aa-8136-afe753cd886b","ios":"levelo://app?vid=05ec2ed9-d3b8-45aa-8136-afe753cd886b"},"vehicle_type_id":"4","last_reported":1773161145,"current_range_meters":22800,"station_id":"st_d6im8g6chgec73a5pndg","pricing_plan_id":"cebpf4jnsgd1na2vs0mg"},{"bike_id":"c7ebcb10-e005-458a-b417-1dde5e562ec0","system_id":"levelo_inurba_marseille","lat":43.29543,"lon":5.3741,"is_reserved":false,"is_disabled":false,"rental_uris":{"android":"levelo://app?vid=c7ebcb10-e005-458a-b417-1dde5e562ec0","ios":"levelo://app?vid=c7ebcb10-e005-458a-b417-1dde5e562ec0"},"vehicle_type_id":"4","last_reported":1773161145,"current_range_meters":28000,"station_id":"","pricing_plan_id":"cebpf4jnsgd1na2vs0mg"},{"bike_id":"f3711349-3e20-461a-bd4e-fc3af2d6debc","system_id":"levelo_inurba_marseille","lat":43.28546,"lon":5.4411,"is_reserved":false,"is_disabled":false,"rental_uris":{"android":"levelo://app?vid=f3711349-3e20-461a-bd4e-fc3af2d6debc","ios":"levelo://app?vid=f3711349-3e20-461a-bd4e-fc3af2d6debc"},"vehicle_type_id":"4","last_reported":1773161145,"current_range_meters":8800,"station_id":"st_d3j3df2ikq2c7380ej80","pricing_plan_id":"cebpf4jnsgd1na2vs0mg"},{"bike_id":"dac88c77-5ce3-4ff3-a483-208fcbd9c040","system_id":"levelo_inurba_marseille","lat":43.30421,"lon":5.41312,"is_reserved":false,"is_disabled":false,"rental_uris":{"android":"levelo://app?vid=dac88c77-5ce3-4ff3-a483-208fcbd9c040","ios":"levelo://app?vid=dac88c77-5ce3-4ff3-a483-208fcbd9c040"},"vehicle_type_id":"4","last_reported":1773161145,"current_range_meters":22800,"station_id":"ce4bhop2rcd13ifvqh8g","pricing_plan_id":"cebpf4jnsgd1na2vs0mg"},{"bike_id":"146fdbe8-7e75-426c-9732-45b5ee14bcc0","system_id":"levelo_inurba_marseille","lat":43.23186,"lon":5.39963,"is_reserved":false,"is_disabled":false,"rental_uris":{"android":"levelo://app?vid=146fdbe8-7e75-426c-9732-45b5ee14bcc0","ios":"levelo://app?vid=146fdbe8-7e75-426c-9732-45b5ee14bcc0"},"vehicle_type_id":"4","last_reported":1773161145,"current_range_meters":39200,"station_id":"ce4bhn12rcd13ifvqgqg","pricing_plan_id":"cebpf4jnsgd1na2vs0mg"},{"bike_id":"622e5860-5704-4572-9f37-ca7b41d86075","system_id":"levelo_inurba_marseille","lat":43.32081,"lon":5.36763,"is_reserved":false,"is_disabled":false,"rental_uris":{"android":"levelo://app?vid=622e5860-5704-4572-9f37-ca7b41d86075","ios":"levelo://app?vid=622e5860-5704-4572-9f37-ca7b41d86075"},"vehicle_type_id":"4","last_reported":1773161145,"current_range_meters":39200,"station_id":"ce4bhrh2rcd13ifvqhug","pricing_plan_id":"cebpf4jnsgd1na2vs0mg"},{"bike_id":"df54282d-462c-4c9d-8e19-ace663d2371a","system_id":"levelo_inurba_marseille","lat":43.30207,"lon":5.39438,"is_reserved":false,"is_disabled":false,"rental_uris":{"android":"levelo://app?vid=df54282d-462c-4c9d-8e19-ace663d2371a","ios":"levelo://app?vid=df54282d-462c-4c9d-8e19-ace663d2371a"},"vehicle_type_id":"4","last_reported":1773161145,"current_range_meters":28000,"station_id":"ce4bh0p2rcd13ifvqd70","pricing_plan_id":"cebpf4jnsgd1na2vs0mg"},{"bike_id":"50f5dd10-198d-4bca-9bd8-0b5f78f3555f","system_id":"levelo_inurba_marseille","lat":43.30551,"lon":5.36712,"is_reserved":false,"is_disabled":false,"rental_uris":{"android":"levelo://app?vid=50f5dd10-198d-4bca-9bd8-0b5f78f3555f","ios":"levelo://app?vid=50f5dd10-198d-4bca-9bd8-0b5f78f3555f"},"vehicle_type_id":"4","last_reported":1773161145,"current_range_meters":39200,"station_id":"ce4bgrp2rcd13ifvqc9g","pricing_plan_id":"cebpf4jnsgd1na2vs0mg"},{"bike_id":"ba73a012-feeb-47aa-a729-e6a647324b84","system_id":"levelo_inurba_marseille","lat":43.29264,"lon":5.36834,"is_reserved":false,"is_disabled":false,"rental_uris":{"android":"levelo://app?vid=ba73a012-feeb-47aa-a729-e6a647324b84","ios":"levelo://app?vid=ba73a012-feeb-47aa-a729-e6a647324b84"},"vehicle_type_id":"4","last_reported":1773161145,"current_range_meters":38400,"station_id":"ce4bhbp2rcd13ifvqesg","pricing_plan_id":"cebpf4jnsgd1na2vs0mg"},{"bike_id":"f52414b5-cfe2-4b29-8917-7566f508a9c3","system_id":"levelo_inurba_marseille","lat":43.2534,"lon":5.42171,"is_reserved":false,"is_disabled":false,"rental_uris":{"android":"levelo://app?vid=f52414b5-cfe2-4b29-8917-7566f508a9c3","ios":"levelo://app?vid=f52414b5-cfe2-4b29-8917-7566f508a9c3"},"vehicle_type_id":"4","last_reported":1773161145,"current_range_meters":30800,"station_id":"st_d2m65c5bi1j21697t3ng","pricing_plan_id":"cebpf4jnsgd1na2vs0mg"},{"bike_id":"c362226c-b2de-4377-a9e9-4f9590f8d22f","system_id":"levelo_inurba_marseille","lat":43.28841,"lon":5.35833,"is_reserved":false,"is_disabled":false,"rental_uris":{"android":"levelo://app?vid=c362226c-b2de-4377-a9e9-4f9590f8d22f","ios":"levelo://app?vid=c362226c-b2de-4377-a9e9-4f9590f8d22f"},"vehicle_type_id":"4","last_reported":1773161145,"current_range_meters":30400,"station_id":"ce4bhb12rcd13ifvqem0","pricing_plan_id":"cebpf4jnsgd1na2vs0mg"},{"bike_id":"531e89df-7d89-4282-92a7-19804985cdf6","system_id":"levelo_inurba_marseille","lat":43.24808,"lon":5.37456,"is_reserved":false,"is_disabled":false,"rental_uris":{"android":"levelo://app?vid=531e89df-7d89-4282-92a7-19804985cdf6","ios":"levelo://app?vid=531e89df-7d89-4282-92a7-19804985cdf6"},"vehicle_type_id":"4","last_reported":1773161145,"current_range_meters":38800,"station_id":"ce4bhgh2rcd13ifvqfb0","pricing_plan_id":"cebpf4jnsgd1na2vs0mg"},{"bike_id":"9b48402e-3ef0-4e83-aa48-db41cf0891a9","system_id":"levelo_inurba_marseille","lat":43.27058,"lon":5.38252,"is_reserved":false,"is_disabled":false,"rental_uris":{"android":"levelo://app?vid=9b48402e-3ef0-4e83-aa48-db41cf0891a9","ios":"levelo://app?vid=9b48402e-3ef0-4e83-aa48-db41cf0891a9"},"vehicle_type_id":"4","last_reported":1773161145,"current_range_meters":22800,"station_id":"","pricing_plan_id":"cebpf4jnsgd1na2vs0mg"},{"bike_id":"b60e7979-d245-4589-aeff-feb5d374d842","system_id":"levelo_inurba_marseille","lat":43.29902,"lon":5.37466,"is_reserved":false,"is_disabled":false,"rental_uris":{"android":"levelo://app?vid=b60e7979-d245-4589-aeff-feb5d374d842","ios":"levelo://app?vid=b60e7979-d245-4589-aeff-feb5d374d842"},"vehicle_type_id":"4","last_reported":1773161145,"current_range_meters":35200,"station_id":"ce4bgjh2rcd13ifvqbg0","pricing_plan_id":"cebpf4jnsgd1na2vs0mg"},{"bike_id":"4b5116e0-5a5c-4dc0-9155-ccbc69c13cef","system_id":"levelo_inurba_marseille","lat":43.27092,"lon":5.42281,"is_reserved":false,"is_disabled":false,"rental_uris":{"android":"levelo://app?vid=4b5116e0-5a5c-4dc0-9155-ccbc69c13cef","ios":"levelo://app?vid=4b5116e0-5a5c-4dc0-9155-ccbc69c13cef"},"vehicle_type_id":"4","last_reported":1773161145,"current_range_meters":39200,"station_id":"ce4bhk92rcd13ifvqgb0","pricing_plan_id":"cebpf4jnsgd1na2vs0mg"},{"bike_id":"776c7139-46f9-4661-9648-a6d21904bde0","system_id":"levelo_inurba_marseille","lat":43.29539,"lon":5.38538,"is_reserved":false,"is_disabled":false,"rental_uris":{"android":"levelo://app?vid=776c7139-46f9-4661-9648-a6d21904bde0","ios":"levelo://app?vid=776c7139-46f9-4661-9648-a6d21904bde0"},"vehicle_type_id":"4","last_reported":1773161145,"current_range_meters":25200,"station_id":"ce4bgih2rcd13ifvqba0","pricing_plan_id":"cebpf4jnsgd1na2vs0mg"},{"bike_id":"93610280-3e40-40c2-8a0c-0a8ce5075865","system_id":"levelo_inurba_marseille","lat":43.29727,"lon":5.41059,"is_reserved":false,"is_disabled":false,"rental_uris":{"android":"levelo://app?vid=93610280-3e40-40c2-8a0c-0a8ce5075865","ios":"levelo://app?vid=93610280-3e40-40c2-8a0c-0a8ce5075865"},"vehicle_type_id":"4","last_reported":1773161145,"current_range_meters":32800,"station_id":"","pricing_plan_id":"cebpf4jnsgd1na2vs0mg"},{"bike_id":"7cc5092d-b341-4b1c-a8fb-feb688948375","system_id":"levelo_inurba_marseille","lat":43.28674,"lon":5.38669,"is_reserved":false,"is_disabled":false,"rental_uris":{"android":"levelo://app?vid=7cc5092d-b341-4b1c-a8fb-feb688948375","ios":"levelo://app?vid=7cc5092d-b341-4b1c-a8fb-feb688948375"},"vehicle_type_id":"4","last_reported":1773161145,"current_range_meters":34000,"station_id":"ce4bh492rcd13ifvqdug","pricing_plan_id":"cebpf4jnsgd1na2vs0mg"},{"bike_id":"905cd94e-2347-4c21-891c-949be2f37f85","system_id":"levelo_inurba_marseille","lat":43.29811,"lon":5.4188,"is_reserved":false,"is_disabled":false,"rental_uris":{"android":"levelo://app?vid=905cd94e-2347-4c21-891c-949be2f37f85","ios":"levelo://app?vid=905cd94e-2347-4c21-891c-949be2f37f85"},"vehicle_type_id":"4","last_reported":1773161145,"current_range_meters":32400,"station_id":"","pricing_plan_id":"cebpf4jnsgd1na2vs0mg"},{"bike_id":"f4c2c458-3357-4fa4-993e-2866374e35fc","system_id":"levelo_inurba_marseille","lat":43.29028,"lon":5.37568,"is_reserved":false,"is_disabled":false,"rental_uris":{"android":"levelo://app?vid=f4c2c458-3357-4fa4-993e-2866374e35fc","ios":"levelo://app?vid=f4c2c458-3357-4fa4-993e-2866374e35fc"},"vehicle_type_id":"4","last_reported":1773161145,"current_range_meters":14800,"station_id":"ce4bh692rcd13ifvqe90","pricing_plan_id":"cebpf4jnsgd1na2vs0mg"},{"bike_id":"e0dc69a6-751b-446d-8ea4-e240757d48e0","system_id":"levelo_inurba_marseille","lat":43.29614,"lon":5.37488,"is_reserved":false,"is_disabled":false,"rental_uris":{"android":"levelo://app?vid=e0dc69a6-751b-446d-8ea4-e240757d48e0","ios":"levelo://app?vid=e0dc69a6-751b-446d-8ea4-e240757d48e0"},"vehicle_type_id":"4","last_reported":1773161145,"current_range_meters":12400,"station_id":"","pricing_plan_id":"cebpf4jnsgd1na2vs0mg"},{"bike_id":"20b79eb8-e78d-4f06-9f31-d6b6c4b067a2","system_id":"levelo_inurba_marseille","lat":43.26064,"lon":5.39389,"is_reserved":false,"is_disabled":false,"rental_uris":{"android":"levelo://app?vid=20b79eb8-e78d-4f06-9f31-d6b6c4b067a2","ios":"levelo://app?vid=20b79eb8-e78d-4f06-9f31-d6b6c4b067a2"},"vehicle_type_id":"4","last_reported":1773161145,"current_range_meters":20800,"station_id":"ce4bhh92rcd13ifvqfj0","pricing_plan_id":"cebpf4jnsgd1na2vs0mg"},{"bike_id":"9dcd69a8-245d-4121-a0fa-05057d3d8876","system_id":"levelo_inurba_marseille","lat":43.28162,"lon":5.42647,"is_reserved":false,"is_disabled":false,"rental_uris":{"android":"levelo://app?vid=9dcd69a8-245d-4121-a0fa-05057d3d8876","ios":"levelo://app?vid=9dcd69a8-245d-4121-a0fa-05057d3d8876"},"vehicle_type_id":"4","last_reported":1773161145,"current_range_meters":25600,"station_id":"ce4bhnh2rcd13ifvqgug","pricing_plan_id":"cebpf4jnsgd1na2vs0mg"},{"bike_id":"413c5488-8e0c-42a5-9c2a-f5011c038966","system_id":"levelo_inurba_marseille","lat":43.25573,"lon":5.38213,"is_reserved":false,"is_disabled":false,"rental_uris":{"android":"levelo://app?vid=413c5488-8e0c-42a5-9c2a-f5011c038966","ios":"levelo://app?vid=413c5488-8e0c-42a5-9c2a-f5011c038966"},"vehicle_type_id":"4","last_reported":1773161145,"current_range_meters":39200,"station_id":"ce4bhih2rcd13ifvqfs0","pricing_plan_id":"cebpf4jnsgd1na2vs0mg"},{"bike_id":"c267c79e-32a4-4d3d-aa80-b6550f0342e0","system_id":"levelo_inurba_marseille","lat":43.26563,"lon":5.40322,"is_reserved":false,"is_disabled":false,"rental_uris":{"android":"levelo://app?vid=c267c79e-32a4-4d3d-aa80-b6550f0342e0","ios":"levelo://app?vid=c267c79e-32a4-4d3d-aa80-b6550f0342e0"},"vehicle_type_id":"4","last_reported":1773161145,"current_range_meters":12400,"station_id":"ce4bhmp2rcd13ifvqgng","pricing_plan_id":"cebpf4jnsgd1na2vs0mg"},{"bike_id":"746e0eb6-cb0e-42a4-8d32-3df772ab60dc","system_id":"levelo_inurba_marseille","lat":43.2844,"lon":5.34997,"is_reserved":false,"is_disabled":false,"rental_uris":{"android":"levelo://app?vid=746e0eb6-cb0e-42a4-8d32-3df772ab60dc","ios":"levelo://app?vid=746e0eb6-cb0e-42a4-8d32-3df772ab60dc"},"vehicle_type_id":"4","last_reported":1773161145,"current_range_meters":38400,"station_id":"ce4bhbh2rcd13ifvqepg","pricing_plan_id":"cebpf4jnsgd1na2vs0mg"},{"bike_id":"d9084fab-d9aa-4edd-8989-c2edf4959f5d","system_id":"levelo_inurba_marseille","lat":43.2664,"lon":5.38266,"is_reserved":false,"is_disabled":false,"rental_uris":{"android":"levelo://app?vid=d9084fab-d9aa-4edd-8989-c2edf4959f5d","ios":"levelo://app?vid=d9084fab-d9aa-4edd-8989-c2edf4959f5d"},"vehicle_type_id":"4","last_reported":1773161145,"current_range_meters":39200,"station_id":"ce4bhg92rcd13ifvqf90","pricing_plan_id":"cebpf4jnsgd1na2vs0mg"},{"bike_id":"d600fe0a-56d2-4a7b-8c97-cc5010c8cd24","system_id":"levelo_inurba_marseille","lat":43.3378,"lon":5.3747,"is_reserved":false,"is_disabled":true,"rental_uris":{"android":"levelo://app?vid=d600fe0a-56d2-4a7b-8c97-cc5010c8cd24","ios":"levelo://app?vid=d600fe0a-56d2-4a7b-8c97-cc5010c8cd24"},"vehicle_type_id":"4","last_reported":1773161145,"current_range_meters":38400,"station_id":"","pricing_plan_id":"cebpf4jnsgd1na2vs0mg"},{"bike_id":"6896d8eb-6c9e-4011-bd7c-c8043863197c","system_id":"levelo_inurba_marseille","lat":43.24825,"lon":5.37462,"is_reserved":false,"is_disabled":false,"rental_uris":{"android":"levelo://app?vid=6896d8eb-6c9e-4011-bd7c-c8043863197c","ios":"levelo://app?vid=6896d8eb-6c9e-4011-bd7c-c8043863197c"},"vehicle_type_id":"4","last_reported":1773161145,"current_range_meters":24000,"station_id":"ce4bhgh2rcd13ifvqfb0","pricing_plan_id":"cebpf4jnsgd1na2vs0mg"},{"bike_id":"5c62e568-d02b-4a90-93ef-f8e3b6ced1b9","system_id":"levelo_inurba_marseille","lat":43.31879,"lon":5.39997,"is_reserved":false,"is_disabled":false,"rental_uris":{"android":"levelo://app?vid=5c62e568-d02b-4a90-93ef-f8e3b6ced1b9","ios":"levelo://app?vid=5c62e568-d02b-4a90-93ef-f8e3b6ced1b9"},"vehicle_type_id":"4","last_reported":1773161145,"current_range_meters":3600,"station_id":"","pricing_plan_id":"cebpf4jnsgd1na2vs0mg"},{"bike_id":"edff2cc4-a071-4a15-bf25-7895bd87b49e","system_id":"levelo_inurba_marseille","lat":43.22562,"lon":5.41623,"is_reserved":false,"is_disabled":false,"rental_uris":{"android":"levelo://app?vid=edff2cc4-a071-4a15-bf25-7895bd87b49e","ios":"levelo://app?vid=edff2cc4-a071-4a15-bf25-7895bd87b49e"},"vehicle_type_id":"4","last_reported":1773161145,"current_range_meters":39200,"station_id":"st_d2o4gvlbi1j2169b742g","pricing_plan_id":"cebpf4jnsgd1na2vs0mg"},{"bike_id":"e4897773-fef9-446d-a205-6ea4308f3d60","system_id":"levelo_inurba_marseille","lat":43.22563,"lon":5.41619,"is_reserved":false,"is_disabled":false,"rental_uris":{"android":"levelo://app?vid=e4897773-fef9-446d-a205-6ea4308f3d60","ios":"levelo://app?vid=e4897773-fef9-446d-a205-6ea4308f3d60"},"vehicle_type_id":"4","last_reported":1773161145,"current_range_meters":5600,"station_id":"st_d2o4gvlbi1j2169b742g","pricing_plan_id":"cebpf4jnsgd1na2vs0mg"},{"bike_id":"33eb8fb3-603e-4c84-a933-cc95f133c3af","system_id":"levelo_inurba_marseille","lat":43.29603,"lon":5.3757,"is_reserved":false,"is_disabled":false,"rental_uris":{"android":"levelo://app?vid=33eb8fb3-603e-4c84-a933-cc95f133c3af","ios":"levelo://app?vid=33eb8fb3-603e-4c84-a933-cc95f133c3af"},"vehicle_type_id":"4","last_reported":1773161145,"current_range_meters":24000,"station_id":"ce4bgh92rcd13ifvqb50","pricing_plan_id":"cebpf4jnsgd1na2vs0mg"},{"bike_id":"ab87e6ae-e537-453e-9b37-b773a1065a7e","system_id":"levelo_inurba_marseille","lat":43.25351,"lon":5.42171,"is_reserved":false,"is_disabled":false,"rental_uris":{"android":"levelo://app?vid=ab87e6ae-e537-453e-9b37-b773a1065a7e","ios":"levelo://app?vid=ab87e6ae-e537-453e-9b37-b773a1065a7e"},"vehicle_type_id":"4","last_reported":1773161145,"current_range_meters":34000,"station_id":"st_d2m65c5bi1j21697t3ng","pricing_plan_id":"cebpf4jnsgd1na2vs0mg"},{"bike_id":"ef43e318-c00c-44b5-9fb0-7afc200a5f51","system_id":"levelo_inurba_marseille","lat":43.2982,"lon":5.41425,"is_reserved":false,"is_disabled":false,"rental_uris":{"android":"levelo://app?vid=ef43e318-c00c-44b5-9fb0-7afc200a5f51","ios":"levelo://app?vid=ef43e318-c00c-44b5-9fb0-7afc200a5f51"},"vehicle_type_id":"4","last_reported":1773161145,"current_range_meters":38400,"station_id":"","pricing_plan_id":"cebpf4jnsgd1na2vs0mg"},{"bike_id":"2dd8ddd9-664e-4642-9240-247dbfabe4b0","system_id":"levelo_inurba_marseille","lat":43.29093,"lon":5.35577,"is_reserved":false,"is_disabled":false,"rental_uris":{"android":"levelo://app?vid=2dd8ddd9-664e-4642-9240-247dbfabe4b0","ios":"levelo://app?vid=2dd8ddd9-664e-4642-9240-247dbfabe4b0"},"vehicle_type_id":"4","last_reported":1773161145,"current_range_meters":12000,"station_id":"ce4bhb92rcd13ifvqen0","pricing_plan_id":"cebpf4jnsgd1na2vs0mg"},{"bike_id":"c049346c-44ba-497f-87f3-b13f785fc7c7","system_id":"levelo_inurba_marseille","lat":43.29501,"lon":5.3633,"is_reserved":false,"is_disabled":false,"rental_uris":{"android":"levelo://app?vid=c049346c-44ba-497f-87f3-b13f785fc7c7","ios":"levelo://app?vid=c049346c-44ba-497f-87f3-b13f785fc7c7"},"vehicle_type_id":"4","last_reported":1773161145,"current_range_meters":23200,"station_id":"","pricing_plan_id":"cebpf4jnsgd1na2vs0mg"},{"bike_id":"616f491c-e223-4356-9301-075ecb9eb28b","system_id":"levelo_inurba_marseille","lat":43.26239,"lon":5.40445,"is_reserved":false,"is_disabled":false,"rental_uris":{"android":"levelo://app?vid=616f491c-e223-4356-9301-075ecb9eb28b","ios":"levelo://app?vid=616f491c-e223-4356-9301-075ecb9eb28b"},"vehicle_type_id":"4","last_reported":1773161145,"current_range_meters":30800,"station_id":"ce4bhmh2rcd13ifvqgmg","pricing_plan_id":"cebpf4jnsgd1na2vs0mg"},{"bike_id":"e594ab4f-99d7-486f-a0b3-3cdbb6a3f196","system_id":"levelo_inurba_marseille","lat":43.2848,"lon":5.48405,"is_reserved":false,"is_disabled":false,"rental_uris":{"android":"levelo://app?vid=e594ab4f-99d7-486f-a0b3-3cdbb6a3f196","ios":"levelo://app?vid=e594ab4f-99d7-486f-a0b3-3cdbb6a3f196"},"vehicle_type_id":"4","last_reported":1773161145,"current_range_meters":32800,"station_id":"","pricing_plan_id":"cebpf4jnsgd1na2vs0mg"},{"bike_id":"88f8f69f-0b19-4e26-b645-04516592598b","system_id":"levelo_inurba_marseille","lat":43.25328,"lon":5.42161,"is_reserved":false,"is_disabled":false,"rental_uris":{"android":"levelo://app?vid=88f8f69f-0b19-4e26-b645-04516592598b","ios":"levelo://app?vid=88f8f69f-0b19-4e26-b645-04516592598b"},"vehicle_type_id":"4","last_reported":1773161145,"current_range_meters":14400,"station_id":"st_d2m65c5bi1j21697t3ng","pricing_plan_id":"cebpf4jnsgd1na2vs0mg"},{"bike_id":"11f1fdce-9987-446d-9ecb-d09d969f4ba8","system_id":"levelo_inurba_marseille","lat":43.2848,"lon":5.48391,"is_reserved":false,"is_disabled":false,"rental_uris":{"android":"levelo://app?vid=11f1fdce-9987-446d-9ecb-d09d969f4ba8","ios":"levelo://app?vid=11f1fdce-9987-446d-9ecb-d09d969f4ba8"},"vehicle_type_id":"4","last_reported":1773161145,"current_range_meters":34800,"station_id":"","pricing_plan_id":"cebpf4jnsgd1na2vs0mg"},{"bike_id":"57da3ae9-5ad3-4451-a8fc-ae54a96ca841","system_id":"levelo_inurba_marseille","lat":43.28455,"lon":5.35884,"is_reserved":false,"is_disabled":false,"rental_uris":{"android":"levelo://app?vid=57da3ae9-5ad3-4451-a8fc-ae54a96ca841","ios":"levelo://app?vid=57da3ae9-5ad3-4451-a8fc-ae54a96ca841"},"vehicle_type_id":"4","last_reported":1773161145,"current_range_meters":38000,"station_id":"ce4bhah2rcd13ifvqei0","pricing_plan_id":"cebpf4jnsgd1na2vs0mg"},{"bike_id":"08c4662f-b8a6-4676-a2aa-27498ff34122","system_id":"levelo_inurba_marseille","lat":43.32122,"lon":5.36824,"is_reserved":false,"is_disabled":false,"rental_uris":{"android":"levelo://app?vid=08c4662f-b8a6-4676-a2aa-27498ff34122","ios":"levelo://app?vid=08c4662f-b8a6-4676-a2aa-27498ff34122"},"vehicle_type_id":"4","last_reported":1773161145,"current_range_meters":25200,"station_id":"ce4bhrh2rcd13ifvqhug","pricing_plan_id":"cebpf4jnsgd1na2vs0mg"},{"bike_id":"9a0031d7-25bf-4e8c-94ff-4784503d9cac","system_id":"levelo_inurba_marseille","lat":43.24351,"lon":5.44111,"is_reserved":false,"is_disabled":false,"rental_uris":{"android":"levelo://app?vid=9a0031d7-25bf-4e8c-94ff-4784503d9cac","ios":"levelo://app?vid=9a0031d7-25bf-4e8c-94ff-4784503d9cac"},"vehicle_type_id":"4","last_reported":1773161145,"current_range_meters":12000,"station_id":"","pricing_plan_id":"cebpf4jnsgd1na2vs0mg"},{"bike_id":"cad85399-ce9b-4502-a9d5-67d50bad52cc","system_id":"levelo_inurba_marseille","lat":43.2294,"lon":5.35377,"is_reserved":false,"is_disabled":false,"rental_uris":{"android":"levelo://app?vid=cad85399-ce9b-4502-a9d5-67d50bad52cc","ios":"levelo://app?vid=cad85399-ce9b-4502-a9d5-67d50bad52cc"},"vehicle_type_id":"4","last_reported":1773161145,"current_range_meters":19200,"station_id":"cpo3532slgdg3j2ikp40","pricing_plan_id":"cebpf4jnsgd1na2vs0mg"},{"bike_id":"233070bd-d63a-484b-ac5f-4e4cfc50e592","system_id":"levelo_inurba_marseille","lat":43.26676,"lon":5.38282,"is_reserved":false,"is_disabled":false,"rental_uris":{"android":"levelo://app?vid=233070bd-d63a-484b-ac5f-4e4cfc50e592","ios":"levelo://app?vid=233070bd-d63a-484b-ac5f-4e4cfc50e592"},"vehicle_type_id":"4","last_reported":1773161145,"current_range_meters":30400,"station_id":"ce4bhg92rcd13ifvqf90","pricing_plan_id":"cebpf4jnsgd1na2vs0mg"},{"bike_id":"f8dcf932-e5a5-4919-a259-b3f403784a9a","system_id":"levelo_inurba_marseille","lat":43.26942,"lon":5.4025,"is_reserved":false,"is_disabled":true,"rental_uris":{"android":"levelo://app?vid=f8dcf932-e5a5-4919-a259-b3f403784a9a","ios":"levelo://app?vid=f8dcf932-e5a5-4919-a259-b3f403784a9a"},"vehicle_type_id":"4","last_reported":1773161145,"current_range_meters":1600,"station_id":"cjm6bp8fraef2m0cb0m0","pricing_plan_id":"cebpf4jnsgd1na2vs0mg"},{"bike_id":"ea21537d-918a-492c-a00d-aa6c3e5c9df0","system_id":"levelo_inurba_marseille","lat":43.22564,"lon":5.41626,"is_reserved":false,"is_disabled":false,"rental_uris":{"android":"levelo://app?vid=ea21537d-918a-492c-a00d-aa6c3e5c9df0","ios":"levelo://app?vid=ea21537d-918a-492c-a00d-aa6c3e5c9df0"},"vehicle_type_id":"4","last_reported":1773161145,"current_range_meters":22400,"station_id":"st_d2o4gvlbi1j2169b742g","pricing_plan_id":"cebpf4jnsgd1na2vs0mg"},{"bike_id":"f3db9b7c-2b10-49c3-ba53-fc7aefcbeb46","system_id":"levelo_inurba_marseille","lat":43.2768,"lon":5.38933,"is_reserved":false,"is_disabled":false,"rental_uris":{"android":"levelo://app?vid=f3db9b7c-2b10-49c3-ba53-fc7aefcbeb46","ios":"levelo://app?vid=f3db9b7c-2b10-49c3-ba53-fc7aefcbeb46"},"vehicle_type_id":"4","last_reported":1773161145,"current_range_meters":32400,"station_id":"ce4bhi12rcd13ifvqfo0","pricing_plan_id":"cebpf4jnsgd1na2vs0mg"},{"bike_id":"04d68502-e0df-44ef-98ff-8751e9131415","system_id":"levelo_inurba_marseille","lat":43.24165,"lon":5.36386,"is_reserved":false,"is_disabled":false,"rental_uris":{"android":"levelo://app?vid=04d68502-e0df-44ef-98ff-8751e9131415","ios":"levelo://app?vid=04d68502-e0df-44ef-98ff-8751e9131415"},"vehicle_type_id":"4","last_reported":1773161145,"current_range_meters":19600,"station_id":"cpo36qri1sfpv3e86is0","pricing_plan_id":"cebpf4jnsgd1na2vs0mg"},{"bike_id":"53c3c43d-a8df-40a0-a9b7-1df58d7e3850","system_id":"levelo_inurba_marseille","lat":43.29521,"lon":5.39042,"is_reserved":false,"is_disabled":false,"rental_uris":{"android":"levelo://app?vid=53c3c43d-a8df-40a0-a9b7-1df58d7e3850","ios":"levelo://app?vid=53c3c43d-a8df-40a0-a9b7-1df58d7e3850"},"vehicle_type_id":"4","last_reported":1773161145,"current_range_meters":38000,"station_id":"ce4bh3p2rcd13ifvqdp0","pricing_plan_id":"cebpf4jnsgd1na2vs0mg"},{"bike_id":"b0f2a4eb-d88d-4f92-bc17-613d81a4dc45","system_id":"levelo_inurba_marseille","lat":43.31361,"lon":5.38493,"is_reserved":false,"is_disabled":false,"rental_uris":{"android":"levelo://app?vid=b0f2a4eb-d88d-4f92-bc17-613d81a4dc45","ios":"levelo://app?vid=b0f2a4eb-d88d-4f92-bc17-613d81a4dc45"},"vehicle_type_id":"4","last_reported":1773161145,"current_range_meters":23200,"station_id":"ce4bgt92rcd13ifvqcf0","pricing_plan_id":"cebpf4jnsgd1na2vs0mg"},{"bike_id":"75fdfb90-ee0d-47d3-af9a-0975dd074a09","system_id":"levelo_inurba_marseille","lat":43.2317,"lon":5.43692,"is_reserved":false,"is_disabled":false,"rental_uris":{"android":"levelo://app?vid=75fdfb90-ee0d-47d3-af9a-0975dd074a09","ios":"levelo://app?vid=75fdfb90-ee0d-47d3-af9a-0975dd074a09"},"vehicle_type_id":"4","last_reported":1773161145,"current_range_meters":25600,"station_id":"ce4bhmp2rcd13ifvqgog","pricing_plan_id":"cebpf4jnsgd1na2vs0mg"},{"bike_id":"e4fb4206-bd3b-4666-a857-d85bc7288c6f","system_id":"levelo_inurba_marseille","lat":43.30382,"lon":5.42478,"is_reserved":false,"is_disabled":false,"rental_uris":{"android":"levelo://app?vid=e4fb4206-bd3b-4666-a857-d85bc7288c6f","ios":"levelo://app?vid=e4fb4206-bd3b-4666-a857-d85bc7288c6f"},"vehicle_type_id":"4","last_reported":1773161145,"current_range_meters":36000,"station_id":"ce4bhoh2rcd13ifvqh6g","pricing_plan_id":"cebpf4jnsgd1na2vs0mg"},{"bike_id":"a7986b89-cfcc-41ec-8e0e-a75228e40442","system_id":"levelo_inurba_marseille","lat":43.3105,"lon":5.37159,"is_reserved":false,"is_disabled":false,"rental_uris":{"android":"levelo://app?vid=a7986b89-cfcc-41ec-8e0e-a75228e40442","ios":"levelo://app?vid=a7986b89-cfcc-41ec-8e0e-a75228e40442"},"vehicle_type_id":"4","last_reported":1773161145,"current_range_meters":31200,"station_id":"st_d4kl2rp97mjs73e7tdfg","pricing_plan_id":"cebpf4jnsgd1na2vs0mg"},{"bike_id":"072f5be3-e2d3-4243-a280-aa67dfb573ae","system_id":"levelo_inurba_marseille","lat":43.31188,"lon":5.37677,"is_reserved":false,"is_disabled":false,"rental_uris":{"android":"levelo://app?vid=072f5be3-e2d3-4243-a280-aa67dfb573ae","ios":"levelo://app?vid=072f5be3-e2d3-4243-a280-aa67dfb573ae"},"vehicle_type_id":"4","last_reported":1773161145,"current_range_meters":34000,"station_id":"","pricing_plan_id":"cebpf4jnsgd1na2vs0mg"},{"bike_id":"f069985b-4c79-4175-9e28-889f5d37f2db","system_id":"levelo_inurba_marseille","lat":43.2669,"lon":5.38261,"is_reserved":false,"is_disabled":false,"rental_uris":{"android":"levelo://app?vid=f069985b-4c79-4175-9e28-889f5d37f2db","ios":"levelo://app?vid=f069985b-4c79-4175-9e28-889f5d37f2db"},"vehicle_type_id":"4","last_reported":1773161145,"current_range_meters":21600,"station_id":"ce4bhg92rcd13ifvqf90","pricing_plan_id":"cebpf4jnsgd1na2vs0mg"},{"bike_id":"56c28435-14f4-4036-93e7-9a447a8b0e88","system_id":"levelo_inurba_marseille","lat":43.29371,"lon":5.37846,"is_reserved":false,"is_disabled":true,"rental_uris":{"android":"levelo://app?vid=56c28435-14f4-4036-93e7-9a447a8b0e88","ios":"levelo://app?vid=56c28435-14f4-4036-93e7-9a447a8b0e88"},"vehicle_type_id":"4","last_reported":1773161145,"current_range_meters":27600,"station_id":"ce4bgjh2rcd13ifvqbf0","pricing_plan_id":"cebpf4jnsgd1na2vs0mg"},{"bike_id":"e9fd6972-e022-4385-80c1-64b318e81f36","system_id":"levelo_inurba_marseille","lat":43.2549,"lon":5.37668,"is_reserved":false,"is_disabled":false,"rental_uris":{"android":"levelo://app?vid=e9fd6972-e022-4385-80c1-64b318e81f36","ios":"levelo://app?vid=e9fd6972-e022-4385-80c1-64b318e81f36"},"vehicle_type_id":"4","last_reported":1773161145,"current_range_meters":38400,"station_id":"ce4bhh12rcd13ifvqff0","pricing_plan_id":"cebpf4jnsgd1na2vs0mg"},{"bike_id":"48de4b6d-dc4e-42e1-8b88-f8d00fc373c6","system_id":"levelo_inurba_marseille","lat":43.30892,"lon":5.39654,"is_reserved":false,"is_disabled":false,"rental_uris":{"android":"levelo://app?vid=48de4b6d-dc4e-42e1-8b88-f8d00fc373c6","ios":"levelo://app?vid=48de4b6d-dc4e-42e1-8b88-f8d00fc373c6"},"vehicle_type_id":"4","last_reported":1773161145,"current_range_meters":29600,"station_id":"ce4bh012rcd13ifvqcv0","pricing_plan_id":"cebpf4jnsgd1na2vs0mg"},{"bike_id":"7e3bb1c1-f504-4b29-b169-7e546daec31f","system_id":"levelo_inurba_marseille","lat":43.24823,"lon":5.37461,"is_reserved":false,"is_disabled":false,"rental_uris":{"android":"levelo://app?vid=7e3bb1c1-f504-4b29-b169-7e546daec31f","ios":"levelo://app?vid=7e3bb1c1-f504-4b29-b169-7e546daec31f"},"vehicle_type_id":"4","last_reported":1773161145,"current_range_meters":35600,"station_id":"ce4bhgh2rcd13ifvqfb0","pricing_plan_id":"cebpf4jnsgd1na2vs0mg"},{"bike_id":"5ec941bb-869a-4f1b-aa5f-942521973d3a","system_id":"levelo_inurba_marseille","lat":43.28088,"lon":5.39651,"is_reserved":false,"is_disabled":false,"rental_uris":{"android":"levelo://app?vid=5ec941bb-869a-4f1b-aa5f-942521973d3a","ios":"levelo://app?vid=5ec941bb-869a-4f1b-aa5f-942521973d3a"},"vehicle_type_id":"4","last_reported":1773161145,"current_range_meters":25200,"station_id":"ce4bho12rcd13ifvqh2g","pricing_plan_id":"cebpf4jnsgd1na2vs0mg"},{"bike_id":"79ce6a44-61dd-477c-aa0b-1a849bd10fcb","system_id":"levelo_inurba_marseille","lat":43.28481,"lon":5.48388,"is_reserved":false,"is_disabled":false,"rental_uris":{"android":"levelo://app?vid=79ce6a44-61dd-477c-aa0b-1a849bd10fcb","ios":"levelo://app?vid=79ce6a44-61dd-477c-aa0b-1a849bd10fcb"},"vehicle_type_id":"4","last_reported":1773161145,"current_range_meters":25600,"station_id":"","pricing_plan_id":"cebpf4jnsgd1na2vs0mg"},{"bike_id":"ac8308a4-f739-4875-98d8-249fe4c0d891","system_id":"levelo_inurba_marseille","lat":43.3249,"lon":5.36567,"is_reserved":false,"is_disabled":false,"rental_uris":{"android":"levelo://app?vid=ac8308a4-f739-4875-98d8-249fe4c0d891","ios":"levelo://app?vid=ac8308a4-f739-4875-98d8-249fe4c0d891"},"vehicle_type_id":"4","last_reported":1773161145,"current_range_meters":39200,"station_id":"ce4bhs12rcd13ifvqhvg","pricing_plan_id":"cebpf4jnsgd1na2vs0mg"},{"bike_id":"63839d01-be07-406c-b01e-08930e985ea6","system_id":"levelo_inurba_marseille","lat":43.29027,"lon":5.38133,"is_reserved":false,"is_disabled":false,"rental_uris":{"android":"levelo://app?vid=63839d01-be07-406c-b01e-08930e985ea6","ios":"levelo://app?vid=63839d01-be07-406c-b01e-08930e985ea6"},"vehicle_type_id":"4","last_reported":1773161145,"current_range_meters":27200,"station_id":"ce4bh4p2rcd13ifvqe1g","pricing_plan_id":"cebpf4jnsgd1na2vs0mg"},{"bike_id":"56e934f8-1611-4f0a-86cb-381dca45d0d4","system_id":"levelo_inurba_marseille","lat":43.30474,"lon":5.37894,"is_reserved":false,"is_disabled":false,"rental_uris":{"android":"levelo://app?vid=56e934f8-1611-4f0a-86cb-381dca45d0d4","ios":"levelo://app?vid=56e934f8-1611-4f0a-86cb-381dca45d0d4"},"vehicle_type_id":"4","last_reported":1773161145,"current_range_meters":39200,"station_id":"ce4bgup2rcd13ifvqcn0","pricing_plan_id":"cebpf4jnsgd1na2vs0mg"},{"bike_id":"0ed628aa-cdbb-47aa-af6e-5b9f120f8712","system_id":"levelo_inurba_marseille","lat":43.30431,"lon":5.37326,"is_reserved":false,"is_disabled":false,"rental_uris":{"android":"levelo://app?vid=0ed628aa-cdbb-47aa-af6e-5b9f120f8712","ios":"levelo://app?vid=0ed628aa-cdbb-47aa-af6e-5b9f120f8712"},"vehicle_type_id":"4","last_reported":1773161145,"current_range_meters":28800,"station_id":"","pricing_plan_id":"cebpf4jnsgd1na2vs0mg"},{"bike_id":"6966191e-2a59-4d90-83f5-9dbb328087a0","system_id":"levelo_inurba_marseille","lat":43.28476,"lon":5.48385,"is_reserved":false,"is_disabled":false,"rental_uris":{"android":"levelo://app?vid=6966191e-2a59-4d90-83f5-9dbb328087a0","ios":"levelo://app?vid=6966191e-2a59-4d90-83f5-9dbb328087a0"},"vehicle_type_id":"4","last_reported":1773161145,"current_range_meters":4400,"station_id":"","pricing_plan_id":"cebpf4jnsgd1na2vs0mg"},{"bike_id":"c67245cb-2170-4bce-8da2-b23385e30ee9","system_id":"levelo_inurba_marseille","lat":43.29718,"lon":5.42547,"is_reserved":false,"is_disabled":false,"rental_uris":{"android":"levelo://app?vid=c67245cb-2170-4bce-8da2-b23385e30ee9","ios":"levelo://app?vid=c67245cb-2170-4bce-8da2-b23385e30ee9"},"vehicle_type_id":"4","last_reported":1773161145,"current_range_meters":14800,"station_id":"","pricing_plan_id":"cebpf4jnsgd1na2vs0mg"},{"bike_id":"230684f5-ca8a-4bef-8f26-953b1777592b","system_id":"levelo_inurba_marseille","lat":43.30536,"lon":5.36535,"is_reserved":false,"is_disabled":false,"rental_uris":{"android":"levelo://app?vid=230684f5-ca8a-4bef-8f26-953b1777592b","ios":"levelo://app?vid=230684f5-ca8a-4bef-8f26-953b1777592b"},"vehicle_type_id":"4","last_reported":1773161145,"current_range_meters":17200,"station_id":"ce4bgs12rcd13ifvqcag","pricing_plan_id":"cebpf4jnsgd1na2vs0mg"},{"bike_id":"7efcf4c7-49f4-4be3-9e95-91715385053b","system_id":"levelo_inurba_marseille","lat":43.30318,"lon":5.36886,"is_reserved":false,"is_disabled":false,"rental_uris":{"android":"levelo://app?vid=7efcf4c7-49f4-4be3-9e95-91715385053b","ios":"levelo://app?vid=7efcf4c7-49f4-4be3-9e95-91715385053b"},"vehicle_type_id":"4","last_reported":1773161145,"current_range_meters":17200,"station_id":"ce4bgqh2rcd13ifvqc5g","pricing_plan_id":"cebpf4jnsgd1na2vs0mg"},{"bike_id":"b7e35d72-969e-4bf5-a3a7-5c6489e97a1a","system_id":"levelo_inurba_marseille","lat":43.23201,"lon":5.35548,"is_reserved":false,"is_disabled":false,"rental_uris":{"android":"levelo://app?vid=b7e35d72-969e-4bf5-a3a7-5c6489e97a1a","ios":"levelo://app?vid=b7e35d72-969e-4bf5-a3a7-5c6489e97a1a"},"vehicle_type_id":"4","last_reported":1773161145,"current_range_meters":38400,"station_id":"ce4bhu92rcd13ifvqi70","pricing_plan_id":"cebpf4jnsgd1na2vs0mg"},{"bike_id":"bf275f03-35c5-471f-ad8b-bfd2cca8af8b","system_id":"levelo_inurba_marseille","lat":43.29528,"lon":5.39398,"is_reserved":false,"is_disabled":false,"rental_uris":{"android":"levelo://app?vid=bf275f03-35c5-471f-ad8b-bfd2cca8af8b","ios":"levelo://app?vid=bf275f03-35c5-471f-ad8b-bfd2cca8af8b"},"vehicle_type_id":"4","last_reported":1773161145,"current_range_meters":29600,"station_id":"ce4bh292rcd13ifvqdf0","pricing_plan_id":"cebpf4jnsgd1na2vs0mg"},{"bike_id":"d216debe-13ad-497c-9809-383a47cc5ef9","system_id":"levelo_inurba_marseille","lat":43.32354,"lon":5.36732,"is_reserved":false,"is_disabled":false,"rental_uris":{"android":"levelo://app?vid=d216debe-13ad-497c-9809-383a47cc5ef9","ios":"levelo://app?vid=d216debe-13ad-497c-9809-383a47cc5ef9"},"vehicle_type_id":"4","last_reported":1773161145,"current_range_meters":38000,"station_id":"ce4bhsh2rcd13ifvqi2g","pricing_plan_id":"cebpf4jnsgd1na2vs0mg"},{"bike_id":"32c4f1f7-17c8-4a03-b0d8-54ddb0b13de5","system_id":"levelo_inurba_marseille","lat":43.3354,"lon":5.37457,"is_reserved":false,"is_disabled":false,"rental_uris":{"android":"levelo://app?vid=32c4f1f7-17c8-4a03-b0d8-54ddb0b13de5","ios":"levelo://app?vid=32c4f1f7-17c8-4a03-b0d8-54ddb0b13de5"},"vehicle_type_id":"4","last_reported":1773161145,"current_range_meters":33600,"station_id":"st_d46tts09ee8s73dlu43g","pricing_plan_id":"cebpf4jnsgd1na2vs0mg"},{"bike_id":"e93e4b05-492f-4c51-865b-dc3c2bd2e4bd","system_id":"levelo_inurba_marseille","lat":43.25339,"lon":5.42176,"is_reserved":false,"is_disabled":false,"rental_uris":{"android":"levelo://app?vid=e93e4b05-492f-4c51-865b-dc3c2bd2e4bd","ios":"levelo://app?vid=e93e4b05-492f-4c51-865b-dc3c2bd2e4bd"},"vehicle_type_id":"4","last_reported":1773161145,"current_range_meters":30800,"station_id":"st_d2m65c5bi1j21697t3ng","pricing_plan_id":"cebpf4jnsgd1na2vs0mg"},{"bike_id":"77cce443-3f90-4239-836a-70a21471f733","system_id":"levelo_inurba_marseille","lat":43.27072,"lon":5.38303,"is_reserved":false,"is_disabled":false,"rental_uris":{"android":"levelo://app?vid=77cce443-3f90-4239-836a-70a21471f733","ios":"levelo://app?vid=77cce443-3f90-4239-836a-70a21471f733"},"vehicle_type_id":"4","last_reported":1773161145,"current_range_meters":33200,"station_id":"st_d3n2fo6cfp8s73cte1j0","pricing_plan_id":"cebpf4jnsgd1na2vs0mg"},{"bike_id":"5dc10d3b-d152-4b43-a148-8bf3d9e14a39","system_id":"levelo_inurba_marseille","lat":43.24166,"lon":5.36384,"is_reserved":false,"is_disabled":false,"rental_uris":{"android":"levelo://app?vid=5dc10d3b-d152-4b43-a148-8bf3d9e14a39","ios":"levelo://app?vid=5dc10d3b-d152-4b43-a148-8bf3d9e14a39"},"vehicle_type_id":"4","last_reported":1773161145,"current_range_meters":20400,"station_id":"cpo36qri1sfpv3e86is0","pricing_plan_id":"cebpf4jnsgd1na2vs0mg"},{"bike_id":"b1b72e65-4541-4aa5-9464-619c22b58492","system_id":"levelo_inurba_marseille","lat":43.27574,"lon":5.39632,"is_reserved":false,"is_disabled":false,"rental_uris":{"android":"levelo://app?vid=b1b72e65-4541-4aa5-9464-619c22b58492","ios":"levelo://app?vid=b1b72e65-4541-4aa5-9464-619c22b58492"},"vehicle_type_id":"4","last_reported":1773161145,"current_range_meters":27200,"station_id":"","pricing_plan_id":"cebpf4jnsgd1na2vs0mg"},{"bike_id":"f9a68242-23fc-4cd9-b53d-f178755c0970","system_id":"levelo_inurba_marseille","lat":43.24387,"lon":5.37035,"is_reserved":false,"is_disabled":false,"rental_uris":{"android":"levelo://app?vid=f9a68242-23fc-4cd9-b53d-f178755c0970","ios":"levelo://app?vid=f9a68242-23fc-4cd9-b53d-f178755c0970"},"vehicle_type_id":"4","last_reported":1773161145,"current_range_meters":12000,"station_id":"ce4bhhh2rcd13ifvqfk0","pricing_plan_id":"cebpf4jnsgd1na2vs0mg"},{"bike_id":"2882ff64-4b69-4646-94c7-860d0be78035","system_id":"levelo_inurba_marseille","lat":43.29288,"lon":5.37427,"is_reserved":false,"is_disabled":false,"rental_uris":{"android":"levelo://app?vid=2882ff64-4b69-4646-94c7-860d0be78035","ios":"levelo://app?vid=2882ff64-4b69-4646-94c7-860d0be78035"},"vehicle_type_id":"4","last_reported":1773161145,"current_range_meters":28800,"station_id":"ce4bgi12rcd13ifvqb70","pricing_plan_id":"cebpf4jnsgd1na2vs0mg"},{"bike_id":"beae6932-1cb2-42f4-a0be-e7fa4a6e5cad","system_id":"levelo_inurba_marseille","lat":43.24993,"lon":5.38931,"is_reserved":false,"is_disabled":false,"rental_uris":{"android":"levelo://app?vid=beae6932-1cb2-42f4-a0be-e7fa4a6e5cad","ios":"levelo://app?vid=beae6932-1cb2-42f4-a0be-e7fa4a6e5cad"},"vehicle_type_id":"4","last_reported":1773161145,"current_range_meters":39200,"station_id":"ce4bhgp2rcd13ifvqfd0","pricing_plan_id":"cebpf4jnsgd1na2vs0mg"},{"bike_id":"cbef5c0b-d109-4c17-ab0b-db0d45f1dcb1","system_id":"levelo_inurba_marseille","lat":43.3055,"lon":5.36704,"is_reserved":false,"is_disabled":false,"rental_uris":{"android":"levelo://app?vid=cbef5c0b-d109-4c17-ab0b-db0d45f1dcb1","ios":"levelo://app?vid=cbef5c0b-d109-4c17-ab0b-db0d45f1dcb1"},"vehicle_type_id":"4","last_reported":1773161145,"current_range_meters":12400,"station_id":"ce4bgrp2rcd13ifvqc9g","pricing_plan_id":"cebpf4jnsgd1na2vs0mg"},{"bike_id":"0976d995-0bd5-4a37-a12f-7573097cdbbf","system_id":"levelo_inurba_marseille","lat":43.24397,"lon":5.37066,"is_reserved":false,"is_disabled":false,"rental_uris":{"android":"levelo://app?vid=0976d995-0bd5-4a37-a12f-7573097cdbbf","ios":"levelo://app?vid=0976d995-0bd5-4a37-a12f-7573097cdbbf"},"vehicle_type_id":"4","last_reported":1773161145,"current_range_meters":37600,"station_id":"ce4bhhh2rcd13ifvqfk0","pricing_plan_id":"cebpf4jnsgd1na2vs0mg"},{"bike_id":"d3b471e2-eaea-40d6-b207-95b0d07845f0","system_id":"levelo_inurba_marseille","lat":43.27958,"lon":5.41044,"is_reserved":false,"is_disabled":false,"rental_uris":{"android":"levelo://app?vid=d3b471e2-eaea-40d6-b207-95b0d07845f0","ios":"levelo://app?vid=d3b471e2-eaea-40d6-b207-95b0d07845f0"},"vehicle_type_id":"4","last_reported":1773161145,"current_range_meters":6000,"station_id":"ce4bhnp2rcd13ifvqh0g","pricing_plan_id":"cebpf4jnsgd1na2vs0mg"},{"bike_id":"6adc31c4-5cfa-4d5b-a4ca-9f1f649c5b2c","system_id":"levelo_inurba_marseille","lat":43.298,"lon":5.42723,"is_reserved":false,"is_disabled":false,"rental_uris":{"android":"levelo://app?vid=6adc31c4-5cfa-4d5b-a4ca-9f1f649c5b2c","ios":"levelo://app?vid=6adc31c4-5cfa-4d5b-a4ca-9f1f649c5b2c"},"vehicle_type_id":"4","last_reported":1773161145,"current_range_meters":4000,"station_id":"","pricing_plan_id":"cebpf4jnsgd1na2vs0mg"},{"bike_id":"e1cada09-0f6f-4e0e-80bd-ce03940a1372","system_id":"levelo_inurba_marseille","lat":43.29267,"lon":5.36846,"is_reserved":false,"is_disabled":false,"rental_uris":{"android":"levelo://app?vid=e1cada09-0f6f-4e0e-80bd-ce03940a1372","ios":"levelo://app?vid=e1cada09-0f6f-4e0e-80bd-ce03940a1372"},"vehicle_type_id":"4","last_reported":1773161145,"current_range_meters":9200,"station_id":"ce4bhbp2rcd13ifvqesg","pricing_plan_id":"cebpf4jnsgd1na2vs0mg"},{"bike_id":"f6bf9564-52b6-4a7a-a275-e35fdff422de","system_id":"levelo_inurba_marseille","lat":43.32426,"lon":5.36828,"is_reserved":false,"is_disabled":false,"rental_uris":{"android":"levelo://app?vid=f6bf9564-52b6-4a7a-a275-e35fdff422de","ios":"levelo://app?vid=f6bf9564-52b6-4a7a-a275-e35fdff422de"},"vehicle_type_id":"4","last_reported":1773161145,"current_range_meters":4000,"station_id":"","pricing_plan_id":"cebpf4jnsgd1na2vs0mg"},{"bike_id":"6aa36d9f-70c1-4c9d-8b61-bc5c0dc04dda","system_id":"levelo_inurba_marseille","lat":43.28846,"lon":5.35862,"is_reserved":false,"is_disabled":false,"rental_uris":{"android":"levelo://app?vid=6aa36d9f-70c1-4c9d-8b61-bc5c0dc04dda","ios":"levelo://app?vid=6aa36d9f-70c1-4c9d-8b61-bc5c0dc04dda"},"vehicle_type_id":"4","last_reported":1773161145,"current_range_meters":36400,"station_id":"ce4bhb12rcd13ifvqem0","pricing_plan_id":"cebpf4jnsgd1na2vs0mg"},{"bike_id":"2564c1c9-01d0-4cc8-af33-cb04d53dfb74","system_id":"levelo_inurba_marseille","lat":43.27071,"lon":5.4228,"is_reserved":false,"is_disabled":false,"rental_uris":{"android":"levelo://app?vid=2564c1c9-01d0-4cc8-af33-cb04d53dfb74","ios":"levelo://app?vid=2564c1c9-01d0-4cc8-af33-cb04d53dfb74"},"vehicle_type_id":"4","last_reported":1773161145,"current_range_meters":10800,"station_id":"ce4bhk92rcd13ifvqgb0","pricing_plan_id":"cebpf4jnsgd1na2vs0mg"},{"bike_id":"e0895cfa-58f2-410b-9447-f6faa5ea96de","system_id":"levelo_inurba_marseille","lat":43.29531,"lon":5.38537,"is_reserved":false,"is_disabled":false,"rental_uris":{"android":"levelo://app?vid=e0895cfa-58f2-410b-9447-f6faa5ea96de","ios":"levelo://app?vid=e0895cfa-58f2-410b-9447-f6faa5ea96de"},"vehicle_type_id":"4","last_reported":1773161145,"current_range_meters":38000,"station_id":"ce4bgih2rcd13ifvqba0","pricing_plan_id":"cebpf4jnsgd1na2vs0mg"},{"bike_id":"70eb5991-e6a2-48a6-9096-34883bd6e6d6","system_id":"levelo_inurba_marseille","lat":43.30132,"lon":5.37426,"is_reserved":false,"is_disabled":false,"rental_uris":{"android":"levelo://app?vid=70eb5991-e6a2-48a6-9096-34883bd6e6d6","ios":"levelo://app?vid=70eb5991-e6a2-48a6-9096-34883bd6e6d6"},"vehicle_type_id":"4","last_reported":1773161145,"current_range_meters":11600,"station_id":"ce4bgs92rcd13ifvqcc0","pricing_plan_id":"cebpf4jnsgd1na2vs0mg"},{"bike_id":"1ed78316-1378-4cf1-89dc-82486992174d","system_id":"levelo_inurba_marseille","lat":43.279694,"lon":5.387333,"is_reserved":false,"is_disabled":false,"rental_uris":{"android":"levelo://app?vid=1ed78316-1378-4cf1-89dc-82486992174d","ios":"levelo://app?vid=1ed78316-1378-4cf1-89dc-82486992174d"},"vehicle_type_id":"4","last_reported":1773161145,"current_range_meters":17600,"station_id":"ce4bhg12rcd13ifvqf80","pricing_plan_id":"cebpf4jnsgd1na2vs0mg"},{"bike_id":"d11c2b21-3699-4e7d-a1d0-26a0401e2028","system_id":"levelo_inurba_marseille","lat":43.29263,"lon":5.36853,"is_reserved":false,"is_disabled":false,"rental_uris":{"android":"levelo://app?vid=d11c2b21-3699-4e7d-a1d0-26a0401e2028","ios":"levelo://app?vid=d11c2b21-3699-4e7d-a1d0-26a0401e2028"},"vehicle_type_id":"4","last_reported":1773161145,"current_range_meters":15200,"station_id":"ce4bhbp2rcd13ifvqesg","pricing_plan_id":"cebpf4jnsgd1na2vs0mg"},{"bike_id":"1894cbdf-95b2-416a-a4e6-2db6e1035c00","system_id":"levelo_inurba_marseille","lat":43.23183,"lon":5.3998,"is_reserved":false,"is_disabled":false,"rental_uris":{"android":"levelo://app?vid=1894cbdf-95b2-416a-a4e6-2db6e1035c00","ios":"levelo://app?vid=1894cbdf-95b2-416a-a4e6-2db6e1035c00"},"vehicle_type_id":"4","last_reported":1773161145,"current_range_meters":33600,"station_id":"ce4bhn12rcd13ifvqgqg","pricing_plan_id":"cebpf4jnsgd1na2vs0mg"},{"bike_id":"aa7846f4-b1ad-4842-94ec-40bb6540815a","system_id":"levelo_inurba_marseille","lat":43.25113,"lon":5.40319,"is_reserved":false,"is_disabled":false,"rental_uris":{"android":"levelo://app?vid=aa7846f4-b1ad-4842-94ec-40bb6540815a","ios":"levelo://app?vid=aa7846f4-b1ad-4842-94ec-40bb6540815a"},"vehicle_type_id":"4","last_reported":1773161145,"current_range_meters":18800,"station_id":"ce4bhlh2rcd13ifvqgig","pricing_plan_id":"cebpf4jnsgd1na2vs0mg"},{"bike_id":"71b9343c-1a8e-45a2-b779-3627b4118083","system_id":"levelo_inurba_marseille","lat":43.27837,"lon":5.39204,"is_reserved":false,"is_disabled":false,"rental_uris":{"android":"levelo://app?vid=71b9343c-1a8e-45a2-b779-3627b4118083","ios":"levelo://app?vid=71b9343c-1a8e-45a2-b779-3627b4118083"},"vehicle_type_id":"4","last_reported":1773161145,"current_range_meters":29600,"station_id":"ce4bhjp2rcd13ifvqga0","pricing_plan_id":"cebpf4jnsgd1na2vs0mg"},{"bike_id":"7492f64a-feec-4475-a8ac-d4bd70e8ae1e","system_id":"levelo_inurba_marseille","lat":43.23159,"lon":5.43716,"is_reserved":false,"is_disabled":false,"rental_uris":{"android":"levelo://app?vid=7492f64a-feec-4475-a8ac-d4bd70e8ae1e","ios":"levelo://app?vid=7492f64a-feec-4475-a8ac-d4bd70e8ae1e"},"vehicle_type_id":"4","last_reported":1773161145,"current_range_meters":20800,"station_id":"ce4bhmp2rcd13ifvqgog","pricing_plan_id":"cebpf4jnsgd1na2vs0mg"},{"bike_id":"f6bdd654-2c17-4423-a6da-56551502bd1c","system_id":"levelo_inurba_marseille","lat":43.31227,"lon":5.36835,"is_reserved":false,"is_disabled":false,"rental_uris":{"android":"levelo://app?vid=f6bdd654-2c17-4423-a6da-56551502bd1c","ios":"levelo://app?vid=f6bdd654-2c17-4423-a6da-56551502bd1c"},"vehicle_type_id":"4","last_reported":1773161145,"current_range_meters":28000,"station_id":"ce4bgl92rcd13ifvqbq0","pricing_plan_id":"cebpf4jnsgd1na2vs0mg"},{"bike_id":"afa20618-0d5e-4dda-934c-d6c0b2a9d26b","system_id":"levelo_inurba_marseille","lat":43.30461,"lon":5.37909,"is_reserved":false,"is_disabled":false,"rental_uris":{"android":"levelo://app?vid=afa20618-0d5e-4dda-934c-d6c0b2a9d26b","ios":"levelo://app?vid=afa20618-0d5e-4dda-934c-d6c0b2a9d26b"},"vehicle_type_id":"4","last_reported":1773161145,"current_range_meters":29600,"station_id":"ce4bgup2rcd13ifvqcn0","pricing_plan_id":"cebpf4jnsgd1na2vs0mg"},{"bike_id":"7d8cf687-571d-4566-9524-f7ce2cd75638","system_id":"levelo_inurba_marseille","lat":43.27685,"lon":5.38904,"is_reserved":false,"is_disabled":false,"rental_uris":{"android":"levelo://app?vid=7d8cf687-571d-4566-9524-f7ce2cd75638","ios":"levelo://app?vid=7d8cf687-571d-4566-9524-f7ce2cd75638"},"vehicle_type_id":"4","last_reported":1773161145,"current_range_meters":28000,"station_id":"ce4bhi12rcd13ifvqfo0","pricing_plan_id":"cebpf4jnsgd1na2vs0mg"},{"bike_id":"36185798-542b-4b93-bc3e-cbff3e1de22d","system_id":"levelo_inurba_marseille","lat":43.30377,"lon":5.42496,"is_reserved":false,"is_disabled":false,"rental_uris":{"android":"levelo://app?vid=36185798-542b-4b93-bc3e-cbff3e1de22d","ios":"levelo://app?vid=36185798-542b-4b93-bc3e-cbff3e1de22d"},"vehicle_type_id":"4","last_reported":1773161145,"current_range_meters":38800,"station_id":"ce4bhoh2rcd13ifvqh6g","pricing_plan_id":"cebpf4jnsgd1na2vs0mg"},{"bike_id":"6292764a-36d3-4177-868b-8d28df16d07a","system_id":"levelo_inurba_marseille","lat":43.25097,"lon":5.39529,"is_reserved":false,"is_disabled":false,"rental_uris":{"android":"levelo://app?vid=6292764a-36d3-4177-868b-8d28df16d07a","ios":"levelo://app?vid=6292764a-36d3-4177-868b-8d28df16d07a"},"vehicle_type_id":"4","last_reported":1773161145,"current_range_meters":39200,"station_id":"ce4bhm12rcd13ifvqgkg","pricing_plan_id":"cebpf4jnsgd1na2vs0mg"},{"bike_id":"a6152a37-0e0f-4342-85ea-20dd708f93ee","system_id":"levelo_inurba_marseille","lat":43.23147,"lon":5.43691,"is_reserved":false,"is_disabled":false,"rental_uris":{"android":"levelo://app?vid=a6152a37-0e0f-4342-85ea-20dd708f93ee","ios":"levelo://app?vid=a6152a37-0e0f-4342-85ea-20dd708f93ee"},"vehicle_type_id":"4","last_reported":1773161145,"current_range_meters":36000,"station_id":"ce4bhmp2rcd13ifvqgog","pricing_plan_id":"cebpf4jnsgd1na2vs0mg"},{"bike_id":"b5031150-212c-46d1-8fce-204661d26643","system_id":"levelo_inurba_marseille","lat":43.27189,"lon":5.40997,"is_reserved":false,"is_disabled":false,"rental_uris":{"android":"levelo://app?vid=b5031150-212c-46d1-8fce-204661d26643","ios":"levelo://app?vid=b5031150-212c-46d1-8fce-204661d26643"},"vehicle_type_id":"4","last_reported":1773161145,"current_range_meters":15200,"station_id":"ce4bhl12rcd13ifvqgf0","pricing_plan_id":"cebpf4jnsgd1na2vs0mg"},{"bike_id":"155701bd-eb61-4942-8b53-e5cd5b347b9a","system_id":"levelo_inurba_marseille","lat":43.2377,"lon":5.36616,"is_reserved":false,"is_disabled":false,"rental_uris":{"android":"levelo://app?vid=155701bd-eb61-4942-8b53-e5cd5b347b9a","ios":"levelo://app?vid=155701bd-eb61-4942-8b53-e5cd5b347b9a"},"vehicle_type_id":"4","last_reported":1773161145,"current_range_meters":34800,"station_id":"st_d3nk18o9ro0c73en2l3g","pricing_plan_id":"cebpf4jnsgd1na2vs0mg"},{"bike_id":"eb6311ab-4de2-4622-ba3b-6e336388a7f5","system_id":"levelo_inurba_marseille","lat":43.29641,"lon":5.40598,"is_reserved":false,"is_disabled":false,"rental_uris":{"android":"levelo://app?vid=eb6311ab-4de2-4622-ba3b-6e336388a7f5","ios":"levelo://app?vid=eb6311ab-4de2-4622-ba3b-6e336388a7f5"},"vehicle_type_id":"4","last_reported":1773161145,"current_range_meters":35200,"station_id":"ce4bh0h2rcd13ifvqd60","pricing_plan_id":"cebpf4jnsgd1na2vs0mg"},{"bike_id":"3f813cae-35f7-4984-9f1c-a6e1c5afe8e2","system_id":"levelo_inurba_marseille","lat":43.25003,"lon":5.38934,"is_reserved":false,"is_disabled":false,"rental_uris":{"android":"levelo://app?vid=3f813cae-35f7-4984-9f1c-a6e1c5afe8e2","ios":"levelo://app?vid=3f813cae-35f7-4984-9f1c-a6e1c5afe8e2"},"vehicle_type_id":"4","last_reported":1773161145,"current_range_meters":28800,"station_id":"ce4bhgp2rcd13ifvqfd0","pricing_plan_id":"cebpf4jnsgd1na2vs0mg"},{"bike_id":"3ed9dacd-47d5-473e-a4ab-a372d8e4176a","system_id":"levelo_inurba_marseille","lat":43.30129,"lon":5.39901,"is_reserved":false,"is_disabled":true,"rental_uris":{"android":"levelo://app?vid=3ed9dacd-47d5-473e-a4ab-a372d8e4176a","ios":"levelo://app?vid=3ed9dacd-47d5-473e-a4ab-a372d8e4176a"},"vehicle_type_id":"4","last_reported":1773161145,"current_range_meters":24800,"station_id":"ce4bh0h2rcd13ifvqd40","pricing_plan_id":"cebpf4jnsgd1na2vs0mg"},{"bike_id":"886c2525-0660-4804-abab-93e69c48e04e","system_id":"levelo_inurba_marseille","lat":43.29534,"lon":5.38548,"is_reserved":false,"is_disabled":false,"rental_uris":{"android":"levelo://app?vid=886c2525-0660-4804-abab-93e69c48e04e","ios":"levelo://app?vid=886c2525-0660-4804-abab-93e69c48e04e"},"vehicle_type_id":"4","last_reported":1773161145,"current_range_meters":22000,"station_id":"ce4bgih2rcd13ifvqba0","pricing_plan_id":"cebpf4jnsgd1na2vs0mg"},{"bike_id":"4e956f28-e508-44a2-9ec5-1e1c02c725a1","system_id":"levelo_inurba_marseille","lat":43.28919,"lon":5.38398,"is_reserved":false,"is_disabled":false,"rental_uris":{"android":"levelo://app?vid=4e956f28-e508-44a2-9ec5-1e1c02c725a1","ios":"levelo://app?vid=4e956f28-e508-44a2-9ec5-1e1c02c725a1"},"vehicle_type_id":"4","last_reported":1773161145,"current_range_meters":36400,"station_id":"ce4bh612rcd13ifvqe6g","pricing_plan_id":"cebpf4jnsgd1na2vs0mg"},{"bike_id":"dfae5a88-49a8-4074-a086-8f0a7c6162a7","system_id":"levelo_inurba_marseille","lat":43.30462,"lon":5.37905,"is_reserved":false,"is_disabled":false,"rental_uris":{"android":"levelo://app?vid=dfae5a88-49a8-4074-a086-8f0a7c6162a7","ios":"levelo://app?vid=dfae5a88-49a8-4074-a086-8f0a7c6162a7"},"vehicle_type_id":"4","last_reported":1773161145,"current_range_meters":38000,"station_id":"ce4bgup2rcd13ifvqcn0","pricing_plan_id":"cebpf4jnsgd1na2vs0mg"},{"bike_id":"2ec0274c-2f06-446d-81f5-e93be9c57adb","system_id":"levelo_inurba_marseille","lat":43.29287,"lon":5.36838,"is_reserved":false,"is_disabled":false,"rental_uris":{"android":"levelo://app?vid=2ec0274c-2f06-446d-81f5-e93be9c57adb","ios":"levelo://app?vid=2ec0274c-2f06-446d-81f5-e93be9c57adb"},"vehicle_type_id":"4","last_reported":1773161145,"current_range_meters":18800,"station_id":"ce4bhbp2rcd13ifvqesg","pricing_plan_id":"cebpf4jnsgd1na2vs0mg"},{"bike_id":"4e13cebf-e3bd-4977-8d80-663fe93eec9a","system_id":"levelo_inurba_marseille","lat":43.31363,"lon":5.36723,"is_reserved":false,"is_disabled":false,"rental_uris":{"android":"levelo://app?vid=4e13cebf-e3bd-4977-8d80-663fe93eec9a","ios":"levelo://app?vid=4e13cebf-e3bd-4977-8d80-663fe93eec9a"},"vehicle_type_id":"4","last_reported":1773161145,"current_range_meters":6000,"station_id":"ce4bgr92rcd13ifvqc6g","pricing_plan_id":"cebpf4jnsgd1na2vs0mg"},{"bike_id":"f209da0e-c66e-4d4b-8b80-d2a5b00bf540","system_id":"levelo_inurba_marseille","lat":43.28414,"lon":5.34974,"is_reserved":false,"is_disabled":false,"rental_uris":{"android":"levelo://app?vid=f209da0e-c66e-4d4b-8b80-d2a5b00bf540","ios":"levelo://app?vid=f209da0e-c66e-4d4b-8b80-d2a5b00bf540"},"vehicle_type_id":"4","last_reported":1773161145,"current_range_meters":33200,"station_id":"ce4bhbh2rcd13ifvqepg","pricing_plan_id":"cebpf4jnsgd1na2vs0mg"},{"bike_id":"51bda1bd-6bc4-4bfc-831f-4faf0d9deb17","system_id":"levelo_inurba_marseille","lat":43.26056,"lon":5.39384,"is_reserved":false,"is_disabled":false,"rental_uris":{"android":"levelo://app?vid=51bda1bd-6bc4-4bfc-831f-4faf0d9deb17","ios":"levelo://app?vid=51bda1bd-6bc4-4bfc-831f-4faf0d9deb17"},"vehicle_type_id":"4","last_reported":1773161145,"current_range_meters":39200,"station_id":"ce4bhh92rcd13ifvqfj0","pricing_plan_id":"cebpf4jnsgd1na2vs0mg"},{"bike_id":"7a48aa37-47dc-42ed-a3e8-fdbe67199869","system_id":"levelo_inurba_marseille","lat":43.27328,"lon":5.39121,"is_reserved":false,"is_disabled":false,"rental_uris":{"android":"levelo://app?vid=7a48aa37-47dc-42ed-a3e8-fdbe67199869","ios":"levelo://app?vid=7a48aa37-47dc-42ed-a3e8-fdbe67199869"},"vehicle_type_id":"4","last_reported":1773161145,"current_range_meters":28000,"station_id":"ce4bhgp2rcd13ifvqfe0","pricing_plan_id":"cebpf4jnsgd1na2vs0mg"},{"bike_id":"f780a682-e0f8-417c-aace-a2c147eaf4c1","system_id":"levelo_inurba_marseille","lat":43.25831,"lon":5.39417,"is_reserved":false,"is_disabled":false,"rental_uris":{"android":"levelo://app?vid=f780a682-e0f8-417c-aace-a2c147eaf4c1","ios":"levelo://app?vid=f780a682-e0f8-417c-aace-a2c147eaf4c1"},"vehicle_type_id":"4","last_reported":1773161145,"current_range_meters":39200,"station_id":"ce4bhip2rcd13ifvqft0","pricing_plan_id":"cebpf4jnsgd1na2vs0mg"},{"bike_id":"204d42a9-563d-4c76-915f-f87f91c21570","system_id":"levelo_inurba_marseille","lat":43.31533,"lon":5.37322,"is_reserved":false,"is_disabled":false,"rental_uris":{"android":"levelo://app?vid=204d42a9-563d-4c76-915f-f87f91c21570","ios":"levelo://app?vid=204d42a9-563d-4c76-915f-f87f91c21570"},"vehicle_type_id":"4","last_reported":1773161145,"current_range_meters":31200,"station_id":"","pricing_plan_id":"cebpf4jnsgd1na2vs0mg"},{"bike_id":"23fc598d-f808-4287-a2fb-dcbe6bd11524","system_id":"levelo_inurba_marseille","lat":43.28487,"lon":5.48386,"is_reserved":false,"is_disabled":false,"rental_uris":{"android":"levelo://app?vid=23fc598d-f808-4287-a2fb-dcbe6bd11524","ios":"levelo://app?vid=23fc598d-f808-4287-a2fb-dcbe6bd11524"},"vehicle_type_id":"4","last_reported":1773161145,"current_range_meters":38400,"station_id":"","pricing_plan_id":"cebpf4jnsgd1na2vs0mg"},{"bike_id":"f0d85e77-c78a-4899-b931-126b1bdccc38","system_id":"levelo_inurba_marseille","lat":43.22559,"lon":5.41639,"is_reserved":false,"is_disabled":false,"rental_uris":{"android":"levelo://app?vid=f0d85e77-c78a-4899-b931-126b1bdccc38","ios":"levelo://app?vid=f0d85e77-c78a-4899-b931-126b1bdccc38"},"vehicle_type_id":"4","last_reported":1773161145,"current_range_meters":10000,"station_id":"st_d2o4gvlbi1j2169b742g","pricing_plan_id":"cebpf4jnsgd1na2vs0mg"},{"bike_id":"5cc41755-622f-43f0-bf63-96397bacfedb","system_id":"levelo_inurba_marseille","lat":43.27917,"lon":5.39617,"is_reserved":false,"is_disabled":false,"rental_uris":{"android":"levelo://app?vid=5cc41755-622f-43f0-bf63-96397bacfedb","ios":"levelo://app?vid=5cc41755-622f-43f0-bf63-96397bacfedb"},"vehicle_type_id":"4","last_reported":1773161145,"current_range_meters":19600,"station_id":"ce4bhf92rcd13ifvqf40","pricing_plan_id":"cebpf4jnsgd1na2vs0mg"},{"bike_id":"3afa846a-3499-402e-8576-cc13bd78fadf","system_id":"levelo_inurba_marseille","lat":43.2961,"lon":5.381,"is_reserved":false,"is_disabled":true,"rental_uris":{"android":"levelo://app?vid=3afa846a-3499-402e-8576-cc13bd78fadf","ios":"levelo://app?vid=3afa846a-3499-402e-8576-cc13bd78fadf"},"vehicle_type_id":"4","last_reported":1773161145,"current_range_meters":8800,"station_id":"ce4bgl12rcd13ifvqbo0","pricing_plan_id":"cebpf4jnsgd1na2vs0mg"},{"bike_id":"e908eecd-35a2-4531-9960-1a51a5026415","system_id":"levelo_inurba_marseille","lat":43.29731,"lon":5.37658,"is_reserved":false,"is_disabled":false,"rental_uris":{"android":"levelo://app?vid=e908eecd-35a2-4531-9960-1a51a5026415","ios":"levelo://app?vid=e908eecd-35a2-4531-9960-1a51a5026415"},"vehicle_type_id":"4","last_reported":1773161145,"current_range_meters":36800,"station_id":"ce4bgkh2rcd13ifvqbl0","pricing_plan_id":"cebpf4jnsgd1na2vs0mg"},{"bike_id":"41f5cbc8-3931-4343-9d0c-20d53996ae1f","system_id":"levelo_inurba_marseille","lat":43.26787,"lon":5.39437,"is_reserved":false,"is_disabled":false,"rental_uris":{"android":"levelo://app?vid=41f5cbc8-3931-4343-9d0c-20d53996ae1f","ios":"levelo://app?vid=41f5cbc8-3931-4343-9d0c-20d53996ae1f"},"vehicle_type_id":"4","last_reported":1773161145,"current_range_meters":38400,"station_id":"ce4bhh12rcd13ifvqfg0","pricing_plan_id":"cebpf4jnsgd1na2vs0mg"},{"bike_id":"d847e106-f4a4-4ad9-a368-60f92acf97c7","system_id":"levelo_inurba_marseille","lat":43.28675,"lon":5.38674,"is_reserved":false,"is_disabled":false,"rental_uris":{"android":"levelo://app?vid=d847e106-f4a4-4ad9-a368-60f92acf97c7","ios":"levelo://app?vid=d847e106-f4a4-4ad9-a368-60f92acf97c7"},"vehicle_type_id":"4","last_reported":1773161145,"current_range_meters":38000,"station_id":"ce4bh492rcd13ifvqdug","pricing_plan_id":"cebpf4jnsgd1na2vs0mg"},{"bike_id":"0be1578d-7b76-4f05-919a-fbdc689d3564","system_id":"levelo_inurba_marseille","lat":43.27803,"lon":5.4071,"is_reserved":false,"is_disabled":false,"rental_uris":{"android":"levelo://app?vid=0be1578d-7b76-4f05-919a-fbdc689d3564","ios":"levelo://app?vid=0be1578d-7b76-4f05-919a-fbdc689d3564"},"vehicle_type_id":"4","last_reported":1773161145,"current_range_meters":39200,"station_id":"ce4bhnh2rcd13ifvqgtg","pricing_plan_id":"cebpf4jnsgd1na2vs0mg"},{"bike_id":"d59f6bda-e40b-42f3-90c3-d9ad1181f0c5","system_id":"levelo_inurba_marseille","lat":43.2466,"lon":5.389,"is_reserved":false,"is_disabled":false,"rental_uris":{"android":"levelo://app?vid=d59f6bda-e40b-42f3-90c3-d9ad1181f0c5","ios":"levelo://app?vid=d59f6bda-e40b-42f3-90c3-d9ad1181f0c5"},"vehicle_type_id":"4","last_reported":1773161145,"current_range_meters":17200,"station_id":"ce4bhg12rcd13ifvqf60","pricing_plan_id":"cebpf4jnsgd1na2vs0mg"},{"bike_id":"0dc7d051-af04-437a-b2fa-8ebd74a906d3","system_id":"levelo_inurba_marseille","lat":43.29635,"lon":5.40602,"is_reserved":false,"is_disabled":false,"rental_uris":{"android":"levelo://app?vid=0dc7d051-af04-437a-b2fa-8ebd74a906d3","ios":"levelo://app?vid=0dc7d051-af04-437a-b2fa-8ebd74a906d3"},"vehicle_type_id":"4","last_reported":1773161145,"current_range_meters":27600,"station_id":"ce4bh0h2rcd13ifvqd60","pricing_plan_id":"cebpf4jnsgd1na2vs0mg"},{"bike_id":"5bab29ae-c4bc-4a09-9205-2680625e98ce","system_id":"levelo_inurba_marseille","lat":43.31484,"lon":5.373,"is_reserved":false,"is_disabled":false,"rental_uris":{"android":"levelo://app?vid=5bab29ae-c4bc-4a09-9205-2680625e98ce","ios":"levelo://app?vid=5bab29ae-c4bc-4a09-9205-2680625e98ce"},"vehicle_type_id":"4","last_reported":1773161145,"current_range_meters":16000,"station_id":"ce4bgt12rcd13ifvqcd0","pricing_plan_id":"cebpf4jnsgd1na2vs0mg"},{"bike_id":"f9e9b065-2bea-4b87-a17e-af8e646f9e7a","system_id":"levelo_inurba_marseille","lat":43.26786,"lon":5.39419,"is_reserved":false,"is_disabled":false,"rental_uris":{"android":"levelo://app?vid=f9e9b065-2bea-4b87-a17e-af8e646f9e7a","ios":"levelo://app?vid=f9e9b065-2bea-4b87-a17e-af8e646f9e7a"},"vehicle_type_id":"4","last_reported":1773161145,"current_range_meters":39200,"station_id":"ce4bhh12rcd13ifvqfg0","pricing_plan_id":"cebpf4jnsgd1na2vs0mg"},{"bike_id":"9a4c9fe6-93e6-431c-8db6-1a67b0134b2c","system_id":"levelo_inurba_marseille","lat":43.26553,"lon":5.37298,"is_reserved":false,"is_disabled":false,"rental_uris":{"android":"levelo://app?vid=9a4c9fe6-93e6-431c-8db6-1a67b0134b2c","ios":"levelo://app?vid=9a4c9fe6-93e6-431c-8db6-1a67b0134b2c"},"vehicle_type_id":"4","last_reported":1773161145,"current_range_meters":38000,"station_id":"ce4bhg12rcd13ifvqf70","pricing_plan_id":"cebpf4jnsgd1na2vs0mg"},{"bike_id":"54aa5aea-6018-471a-96e1-3c75b95f3618","system_id":"levelo_inurba_marseille","lat":43.2991,"lon":5.38603,"is_reserved":false,"is_disabled":false,"rental_uris":{"android":"levelo://app?vid=54aa5aea-6018-471a-96e1-3c75b95f3618","ios":"levelo://app?vid=54aa5aea-6018-471a-96e1-3c75b95f3618"},"vehicle_type_id":"4","last_reported":1773161145,"current_range_meters":30000,"station_id":"","pricing_plan_id":"cebpf4jnsgd1na2vs0mg"},{"bike_id":"8999fafd-32f3-45bd-83e4-89aff47247e5","system_id":"levelo_inurba_marseille","lat":43.23186,"lon":5.39983,"is_reserved":false,"is_disabled":false,"rental_uris":{"android":"levelo://app?vid=8999fafd-32f3-45bd-83e4-89aff47247e5","ios":"levelo://app?vid=8999fafd-32f3-45bd-83e4-89aff47247e5"},"vehicle_type_id":"4","last_reported":1773161145,"current_range_meters":35600,"station_id":"ce4bhn12rcd13ifvqgqg","pricing_plan_id":"cebpf4jnsgd1na2vs0mg"},{"bike_id":"4d650b84-4c87-42d2-8dd7-e4c822bb0148","system_id":"levelo_inurba_marseille","lat":43.29569,"lon":5.3752,"is_reserved":false,"is_disabled":false,"rental_uris":{"android":"levelo://app?vid=4d650b84-4c87-42d2-8dd7-e4c822bb0148","ios":"levelo://app?vid=4d650b84-4c87-42d2-8dd7-e4c822bb0148"},"vehicle_type_id":"4","last_reported":1773161145,"current_range_meters":28000,"station_id":"ce4bgh92rcd13ifvqb50","pricing_plan_id":"cebpf4jnsgd1na2vs0mg"},{"bike_id":"0b395ff4-c873-4b2f-9ea7-2d652ba5bbce","system_id":"levelo_inurba_marseille","lat":43.29058,"lon":5.38656,"is_reserved":false,"is_disabled":false,"rental_uris":{"android":"levelo://app?vid=0b395ff4-c873-4b2f-9ea7-2d652ba5bbce","ios":"levelo://app?vid=0b395ff4-c873-4b2f-9ea7-2d652ba5bbce"},"vehicle_type_id":"4","last_reported":1773161145,"current_range_meters":4800,"station_id":"ce4bh4p2rcd13ifvqe0g","pricing_plan_id":"cebpf4jnsgd1na2vs0mg"},{"bike_id":"8e111d64-f1b3-4021-a61d-c4f0bc524c61","system_id":"levelo_inurba_marseille","lat":43.31889,"lon":5.4074,"is_reserved":false,"is_disabled":false,"rental_uris":{"android":"levelo://app?vid=8e111d64-f1b3-4021-a61d-c4f0bc524c61","ios":"levelo://app?vid=8e111d64-f1b3-4021-a61d-c4f0bc524c61"},"vehicle_type_id":"4","last_reported":1773161145,"current_range_meters":34800,"station_id":"ce4bhq12rcd13ifvqhig","pricing_plan_id":"cebpf4jnsgd1na2vs0mg"},{"bike_id":"26dee4a1-0455-4ca6-af36-bbbedcdf9dcb","system_id":"levelo_inurba_marseille","lat":43.28264,"lon":5.35064,"is_reserved":false,"is_disabled":false,"rental_uris":{"android":"levelo://app?vid=26dee4a1-0455-4ca6-af36-bbbedcdf9dcb","ios":"levelo://app?vid=26dee4a1-0455-4ca6-af36-bbbedcdf9dcb"},"vehicle_type_id":"4","last_reported":1773161145,"current_range_meters":39200,"station_id":"ce4bhbp2rcd13ifvqerg","pricing_plan_id":"cebpf4jnsgd1na2vs0mg"},{"bike_id":"86a27d56-a425-48ed-be8d-deb254057217","system_id":"levelo_inurba_marseille","lat":43.29311,"lon":5.37448,"is_reserved":false,"is_disabled":false,"rental_uris":{"android":"levelo://app?vid=86a27d56-a425-48ed-be8d-deb254057217","ios":"levelo://app?vid=86a27d56-a425-48ed-be8d-deb254057217"},"vehicle_type_id":"4","last_reported":1773161145,"current_range_meters":12000,"station_id":"ce4bgi12rcd13ifvqb70","pricing_plan_id":"cebpf4jnsgd1na2vs0mg"},{"bike_id":"0aeb38fa-e819-4e3a-ac85-ae986333141d","system_id":"levelo_inurba_marseille","lat":43.2455,"lon":5.39518,"is_reserved":false,"is_disabled":false,"rental_uris":{"android":"levelo://app?vid=0aeb38fa-e819-4e3a-ac85-ae986333141d","ios":"levelo://app?vid=0aeb38fa-e819-4e3a-ac85-ae986333141d"},"vehicle_type_id":"4","last_reported":1773161145,"current_range_meters":38800,"station_id":"ce4bhlp2rcd13ifvqgjg","pricing_plan_id":"cebpf4jnsgd1na2vs0mg"},{"bike_id":"7a3b5875-f1e8-4acd-acbf-c2a29528e4b7","system_id":"levelo_inurba_marseille","lat":43.28501,"lon":5.48394,"is_reserved":false,"is_disabled":false,"rental_uris":{"android":"levelo://app?vid=7a3b5875-f1e8-4acd-acbf-c2a29528e4b7","ios":"levelo://app?vid=7a3b5875-f1e8-4acd-acbf-c2a29528e4b7"},"vehicle_type_id":"4","last_reported":1773161145,"current_range_meters":10800,"station_id":"st_d3svhcjqgbts73a3dn0g","pricing_plan_id":"cebpf4jnsgd1na2vs0mg"},{"bike_id":"9cd21b4f-5b91-47c4-9f59-c7c5557c0e8a","system_id":"levelo_inurba_marseille","lat":43.31228,"lon":5.3689,"is_reserved":false,"is_disabled":false,"rental_uris":{"android":"levelo://app?vid=9cd21b4f-5b91-47c4-9f59-c7c5557c0e8a","ios":"levelo://app?vid=9cd21b4f-5b91-47c4-9f59-c7c5557c0e8a"},"vehicle_type_id":"4","last_reported":1773161145,"current_range_meters":39200,"station_id":"ce4bgl92rcd13ifvqbq0","pricing_plan_id":"cebpf4jnsgd1na2vs0mg"},{"bike_id":"ae4181aa-8dc8-4249-8735-32d22936bfd0","system_id":"levelo_inurba_marseille","lat":43.23193,"lon":5.35569,"is_reserved":false,"is_disabled":false,"rental_uris":{"android":"levelo://app?vid=ae4181aa-8dc8-4249-8735-32d22936bfd0","ios":"levelo://app?vid=ae4181aa-8dc8-4249-8735-32d22936bfd0"},"vehicle_type_id":"4","last_reported":1773161145,"current_range_meters":28000,"station_id":"ce4bhu92rcd13ifvqi70","pricing_plan_id":"cebpf4jnsgd1na2vs0mg"},{"bike_id":"e7b6972b-117e-47e0-9f41-cbcc9b6a3781","system_id":"levelo_inurba_marseille","lat":43.32115,"lon":5.36762,"is_reserved":false,"is_disabled":false,"rental_uris":{"android":"levelo://app?vid=e7b6972b-117e-47e0-9f41-cbcc9b6a3781","ios":"levelo://app?vid=e7b6972b-117e-47e0-9f41-cbcc9b6a3781"},"vehicle_type_id":"4","last_reported":1773161145,"current_range_meters":6000,"station_id":"ce4bhrh2rcd13ifvqhug","pricing_plan_id":"cebpf4jnsgd1na2vs0mg"},{"bike_id":"efe94c12-4a4e-4fc5-b885-e268783a5d47","system_id":"levelo_inurba_marseille","lat":43.29288,"lon":5.40138,"is_reserved":false,"is_disabled":false,"rental_uris":{"android":"levelo://app?vid=efe94c12-4a4e-4fc5-b885-e268783a5d47","ios":"levelo://app?vid=efe94c12-4a4e-4fc5-b885-e268783a5d47"},"vehicle_type_id":"4","last_reported":1773161145,"current_range_meters":37600,"station_id":"ce4bh312rcd13ifvqdk0","pricing_plan_id":"cebpf4jnsgd1na2vs0mg"},{"bike_id":"d3611ff2-55b3-42cc-9920-0abd14ff4bd3","system_id":"levelo_inurba_marseille","lat":43.31219,"lon":5.36867,"is_reserved":false,"is_disabled":false,"rental_uris":{"android":"levelo://app?vid=d3611ff2-55b3-42cc-9920-0abd14ff4bd3","ios":"levelo://app?vid=d3611ff2-55b3-42cc-9920-0abd14ff4bd3"},"vehicle_type_id":"4","last_reported":1773161145,"current_range_meters":39200,"station_id":"ce4bgl92rcd13ifvqbq0","pricing_plan_id":"cebpf4jnsgd1na2vs0mg"},{"bike_id":"c0a268ef-3df0-48cf-b8ff-5d785a90bfac","system_id":"levelo_inurba_marseille","lat":43.2846,"lon":5.35889,"is_reserved":false,"is_disabled":false,"rental_uris":{"android":"levelo://app?vid=c0a268ef-3df0-48cf-b8ff-5d785a90bfac","ios":"levelo://app?vid=c0a268ef-3df0-48cf-b8ff-5d785a90bfac"},"vehicle_type_id":"4","last_reported":1773161145,"current_range_meters":19200,"station_id":"ce4bhah2rcd13ifvqei0","pricing_plan_id":"cebpf4jnsgd1na2vs0mg"},{"bike_id":"dff627b8-e846-4bdc-9ada-a335ec273009","system_id":"levelo_inurba_marseille","lat":43.30519,"lon":5.36713,"is_reserved":false,"is_disabled":false,"rental_uris":{"android":"levelo://app?vid=dff627b8-e846-4bdc-9ada-a335ec273009","ios":"levelo://app?vid=dff627b8-e846-4bdc-9ada-a335ec273009"},"vehicle_type_id":"4","last_reported":1773161145,"current_range_meters":27600,"station_id":"ce4bgrp2rcd13ifvqc9g","pricing_plan_id":"cebpf4jnsgd1na2vs0mg"},{"bike_id":"95c838b6-559a-4f36-bfca-f3c07c27cd05","system_id":"levelo_inurba_marseille","lat":43.31258,"lon":5.36871,"is_reserved":false,"is_disabled":false,"rental_uris":{"android":"levelo://app?vid=95c838b6-559a-4f36-bfca-f3c07c27cd05","ios":"levelo://app?vid=95c838b6-559a-4f36-bfca-f3c07c27cd05"},"vehicle_type_id":"4","last_reported":1773161145,"current_range_meters":38000,"station_id":"ce4bgl92rcd13ifvqbq0","pricing_plan_id":"cebpf4jnsgd1na2vs0mg"},{"bike_id":"6ed774aa-58ca-468f-a182-875ede51e8eb","system_id":"levelo_inurba_marseille","lat":43.23774,"lon":5.36637,"is_reserved":false,"is_disabled":false,"rental_uris":{"android":"levelo://app?vid=6ed774aa-58ca-468f-a182-875ede51e8eb","ios":"levelo://app?vid=6ed774aa-58ca-468f-a182-875ede51e8eb"},"vehicle_type_id":"4","last_reported":1773161145,"current_range_meters":27200,"station_id":"st_d3nk18o9ro0c73en2l3g","pricing_plan_id":"cebpf4jnsgd1na2vs0mg"},{"bike_id":"9d35e768-173e-4f08-9c10-937cc61fdb33","system_id":"levelo_inurba_marseille","lat":43.26787,"lon":5.39417,"is_reserved":false,"is_disabled":false,"rental_uris":{"android":"levelo://app?vid=9d35e768-173e-4f08-9c10-937cc61fdb33","ios":"levelo://app?vid=9d35e768-173e-4f08-9c10-937cc61fdb33"},"vehicle_type_id":"4","last_reported":1773161145,"current_range_meters":39200,"station_id":"ce4bhh12rcd13ifvqfg0","pricing_plan_id":"cebpf4jnsgd1na2vs0mg"},{"bike_id":"ca5ec5a0-afef-4cf5-af3f-37cc7af0adb0","system_id":"levelo_inurba_marseille","lat":43.29818,"lon":5.44069,"is_reserved":false,"is_disabled":false,"rental_uris":{"android":"levelo://app?vid=ca5ec5a0-afef-4cf5-af3f-37cc7af0adb0","ios":"levelo://app?vid=ca5ec5a0-afef-4cf5-af3f-37cc7af0adb0"},"vehicle_type_id":"4","last_reported":1773161145,"current_range_meters":10000,"station_id":"st_d3jp68qikq2c7381ktn0","pricing_plan_id":"cebpf4jnsgd1na2vs0mg"},{"bike_id":"22784876-c845-4205-8cb6-c0d593f7b521","system_id":"levelo_inurba_marseille","lat":43.31169,"lon":5.38713,"is_reserved":false,"is_disabled":false,"rental_uris":{"android":"levelo://app?vid=22784876-c845-4205-8cb6-c0d593f7b521","ios":"levelo://app?vid=22784876-c845-4205-8cb6-c0d593f7b521"},"vehicle_type_id":"4","last_reported":1773161145,"current_range_meters":16000,"station_id":"ce4bgv12rcd13ifvqcp0","pricing_plan_id":"cebpf4jnsgd1na2vs0mg"},{"bike_id":"16fca746-db2b-4325-9b35-d5b1120f9b27","system_id":"levelo_inurba_marseille","lat":43.2481,"lon":5.3745,"is_reserved":false,"is_disabled":false,"rental_uris":{"android":"levelo://app?vid=16fca746-db2b-4325-9b35-d5b1120f9b27","ios":"levelo://app?vid=16fca746-db2b-4325-9b35-d5b1120f9b27"},"vehicle_type_id":"4","last_reported":1773161145,"current_range_meters":37600,"station_id":"ce4bhgh2rcd13ifvqfb0","pricing_plan_id":"cebpf4jnsgd1na2vs0mg"},{"bike_id":"411fc1bb-6a16-4323-a09c-297d138188e9","system_id":"levelo_inurba_marseille","lat":43.29524,"lon":5.37482,"is_reserved":false,"is_disabled":false,"rental_uris":{"android":"levelo://app?vid=411fc1bb-6a16-4323-a09c-297d138188e9","ios":"levelo://app?vid=411fc1bb-6a16-4323-a09c-297d138188e9"},"vehicle_type_id":"4","last_reported":1773161145,"current_range_meters":19600,"station_id":"ce4bgkp2rcd13ifvqbmg","pricing_plan_id":"cebpf4jnsgd1na2vs0mg"},{"bike_id":"862ae9f1-1e1c-4c24-b8f6-3e5a7a323000","system_id":"levelo_inurba_marseille","lat":43.31763,"lon":5.39017,"is_reserved":false,"is_disabled":false,"rental_uris":{"android":"levelo://app?vid=862ae9f1-1e1c-4c24-b8f6-3e5a7a323000","ios":"levelo://app?vid=862ae9f1-1e1c-4c24-b8f6-3e5a7a323000"},"vehicle_type_id":"4","last_reported":1773161145,"current_range_meters":20800,"station_id":"ce4bhqp2rcd13ifvqhng","pricing_plan_id":"cebpf4jnsgd1na2vs0mg"},{"bike_id":"f744b058-869a-4309-b7a3-346185addabf","system_id":"levelo_inurba_marseille","lat":43.28854,"lon":5.35852,"is_reserved":false,"is_disabled":false,"rental_uris":{"android":"levelo://app?vid=f744b058-869a-4309-b7a3-346185addabf","ios":"levelo://app?vid=f744b058-869a-4309-b7a3-346185addabf"},"vehicle_type_id":"4","last_reported":1773161145,"current_range_meters":35200,"station_id":"ce4bhb12rcd13ifvqem0","pricing_plan_id":"cebpf4jnsgd1na2vs0mg"},{"bike_id":"ead25f31-2dab-4b6f-b9e2-10955ceb0747","system_id":"levelo_inurba_marseille","lat":43.28358,"lon":5.38116,"is_reserved":false,"is_disabled":false,"rental_uris":{"android":"levelo://app?vid=ead25f31-2dab-4b6f-b9e2-10955ceb0747","ios":"levelo://app?vid=ead25f31-2dab-4b6f-b9e2-10955ceb0747"},"vehicle_type_id":"4","last_reported":1773161145,"current_range_meters":8000,"station_id":"ce4bh412rcd13ifvqdr0","pricing_plan_id":"cebpf4jnsgd1na2vs0mg"},{"bike_id":"e194b9dd-ba26-47fb-82be-2bd044515e32","system_id":"levelo_inurba_marseille","lat":43.26057,"lon":5.39418,"is_reserved":false,"is_disabled":false,"rental_uris":{"android":"levelo://app?vid=e194b9dd-ba26-47fb-82be-2bd044515e32","ios":"levelo://app?vid=e194b9dd-ba26-47fb-82be-2bd044515e32"},"vehicle_type_id":"4","last_reported":1773161145,"current_range_meters":34800,"station_id":"ce4bhh92rcd13ifvqfj0","pricing_plan_id":"cebpf4jnsgd1na2vs0mg"},{"bike_id":"ad634767-f5a6-44ed-9e7c-31e61c152056","system_id":"levelo_inurba_marseille","lat":43.25088,"lon":5.39525,"is_reserved":false,"is_disabled":true,"rental_uris":{"android":"levelo://app?vid=ad634767-f5a6-44ed-9e7c-31e61c152056","ios":"levelo://app?vid=ad634767-f5a6-44ed-9e7c-31e61c152056"},"vehicle_type_id":"4","last_reported":1773161145,"current_range_meters":1200,"station_id":"ce4bhm12rcd13ifvqgkg","pricing_plan_id":"cebpf4jnsgd1na2vs0mg"},{"bike_id":"ba1bacf8-2043-4fd1-8e1d-80abbe8a45d4","system_id":"levelo_inurba_marseille","lat":43.27988,"lon":5.40016,"is_reserved":false,"is_disabled":false,"rental_uris":{"android":"levelo://app?vid=ba1bacf8-2043-4fd1-8e1d-80abbe8a45d4","ios":"levelo://app?vid=ba1bacf8-2043-4fd1-8e1d-80abbe8a45d4"},"vehicle_type_id":"4","last_reported":1773161145,"current_range_meters":24000,"station_id":"ce4bho92rcd13ifvqh4g","pricing_plan_id":"cebpf4jnsgd1na2vs0mg"},{"bike_id":"38e327ec-96cd-495d-8603-363acb557dc8","system_id":"levelo_inurba_marseille","lat":43.27947,"lon":5.4104,"is_reserved":false,"is_disabled":false,"rental_uris":{"android":"levelo://app?vid=38e327ec-96cd-495d-8603-363acb557dc8","ios":"levelo://app?vid=38e327ec-96cd-495d-8603-363acb557dc8"},"vehicle_type_id":"4","last_reported":1773161145,"current_range_meters":39200,"station_id":"ce4bhnp2rcd13ifvqh0g","pricing_plan_id":"cebpf4jnsgd1na2vs0mg"},{"bike_id":"11eec229-b8b4-4ec3-9970-a5032e1213f7","system_id":"levelo_inurba_marseille","lat":43.29802,"lon":5.37649,"is_reserved":false,"is_disabled":false,"rental_uris":{"android":"levelo://app?vid=11eec229-b8b4-4ec3-9970-a5032e1213f7","ios":"levelo://app?vid=11eec229-b8b4-4ec3-9970-a5032e1213f7"},"vehicle_type_id":"4","last_reported":1773161145,"current_range_meters":27200,"station_id":"","pricing_plan_id":"cebpf4jnsgd1na2vs0mg"},{"bike_id":"56a13019-3af6-40ed-823c-6996f22c7520","system_id":"levelo_inurba_marseille","lat":43.24548,"lon":5.39507,"is_reserved":false,"is_disabled":false,"rental_uris":{"android":"levelo://app?vid=56a13019-3af6-40ed-823c-6996f22c7520","ios":"levelo://app?vid=56a13019-3af6-40ed-823c-6996f22c7520"},"vehicle_type_id":"4","last_reported":1773161145,"current_range_meters":28000,"station_id":"ce4bhlp2rcd13ifvqgjg","pricing_plan_id":"cebpf4jnsgd1na2vs0mg"},{"bike_id":"d9a31234-4bed-4726-8dc6-a1b99d6491e7","system_id":"levelo_inurba_marseille","lat":43.24816,"lon":5.37453,"is_reserved":false,"is_disabled":false,"rental_uris":{"android":"levelo://app?vid=d9a31234-4bed-4726-8dc6-a1b99d6491e7","ios":"levelo://app?vid=d9a31234-4bed-4726-8dc6-a1b99d6491e7"},"vehicle_type_id":"4","last_reported":1773161145,"current_range_meters":28400,"station_id":"ce4bhgh2rcd13ifvqfb0","pricing_plan_id":"cebpf4jnsgd1na2vs0mg"},{"bike_id":"2a0c21c5-bab3-440b-b4b2-c2f9cd86fda4","system_id":"levelo_inurba_marseille","lat":43.29621,"lon":5.37163,"is_reserved":false,"is_disabled":false,"rental_uris":{"android":"levelo://app?vid=2a0c21c5-bab3-440b-b4b2-c2f9cd86fda4","ios":"levelo://app?vid=2a0c21c5-bab3-440b-b4b2-c2f9cd86fda4"},"vehicle_type_id":"4","last_reported":1773161145,"current_range_meters":30400,"station_id":"ce4bgnh2rcd13ifvqc0g","pricing_plan_id":"cebpf4jnsgd1na2vs0mg"},{"bike_id":"a1b97774-f99b-4c85-b6e5-fd9fc2000065","system_id":"levelo_inurba_marseille","lat":43.23194,"lon":5.35548,"is_reserved":false,"is_disabled":false,"rental_uris":{"android":"levelo://app?vid=a1b97774-f99b-4c85-b6e5-fd9fc2000065","ios":"levelo://app?vid=a1b97774-f99b-4c85-b6e5-fd9fc2000065"},"vehicle_type_id":"4","last_reported":1773161145,"current_range_meters":32400,"station_id":"ce4bhu92rcd13ifvqi70","pricing_plan_id":"cebpf4jnsgd1na2vs0mg"},{"bike_id":"f2f11f16-ffac-4834-b3a3-9eb953b6107d","system_id":"levelo_inurba_marseille","lat":43.29277,"lon":5.36847,"is_reserved":false,"is_disabled":false,"rental_uris":{"android":"levelo://app?vid=f2f11f16-ffac-4834-b3a3-9eb953b6107d","ios":"levelo://app?vid=f2f11f16-ffac-4834-b3a3-9eb953b6107d"},"vehicle_type_id":"4","last_reported":1773161145,"current_range_meters":20400,"station_id":"ce4bhbp2rcd13ifvqesg","pricing_plan_id":"cebpf4jnsgd1na2vs0mg"},{"bike_id":"0a8773fd-ceaa-46a5-99ad-e092a7f8104a","system_id":"levelo_inurba_marseille","lat":43.2902,"lon":5.3862,"is_reserved":false,"is_disabled":false,"rental_uris":{"android":"levelo://app?vid=0a8773fd-ceaa-46a5-99ad-e092a7f8104a","ios":"levelo://app?vid=0a8773fd-ceaa-46a5-99ad-e092a7f8104a"},