{"last_updated":1732011062,"ttl":60,"version":"2.2","data":{"bikes":[{"bike_id":"0e1c2a5a-9d09-47c3-98ea-6ec79f6c76a5","system_id":"levelo_inurba_marseille","lat":43.313,"lon":5.36715,"is_reserved":false,"is_disabled":true,"rental_uris":{"android":"levelo://app?vid=0e1c2a5a-9d09-47c3-98ea-6ec79f6c76a5","ios":"levelo://app?vid=0e1c2a5a-9d09-47c3-98ea-6ec79f6c76a5"},"vehicle_type_id":"4","last_reported":1732011062,"current_range_meters":0,"station_id":"ce4bgr92rcd13ifvqc6g","pricing_plan_id":"cebpf4jnsgd1na2vs0mg"},{"bike_id":"8eee82bc-1982-4bd2-808a-3b622929f9f2","system_id":"levelo_inurba_marseille","lat":43.27833,"lon":5.39202,"is_reserved":false,"is_disabled":false,"rental_uris":{"android":"levelo://app?vid=8eee82bc-1982-4bd2-808a-3b622929f9f2","ios":"levelo://app?vid=8eee82bc-1982-4bd2-808a-3b622929f9f2"},"vehicle_type_id":"4","last_reported":1732011062,"current_range_meters":18800,"station_id":"ce4bhjp2rcd13ifvqga0","pricing_plan_id":"cebpf4jnsgd1na2vs0mg"},{"bike_id":"7f51cb17-6f5b-4ee6-a2a5-2fef689a15a9","system_id":"levelo_inurba_marseille","lat":43.27948,"lon":5.41041,"is_reserved":false,"is_disabled":true,"rental_uris":{"android":"levelo://app?vid=7f51cb17-6f5b-4ee6-a2a5-2fef689a15a9","ios":"levelo://app?vid=7f51cb17-6f5b-4ee6-a2a5-2fef689a15a9"},"vehicle_type_id":"4","last_reported":1732011062,"current_range_meters":29600,"station_id":"ce4bhnp2rcd13ifvqh0g","pricing_plan_id":"cebpf4jnsgd1na2vs0mg"},{"bike_id":"56b1e23a-a8b6-4eed-a858-f200a5a0a62a","system_id":"levelo_inurba_marseille","lat":43.23148,"lon":5.43727,"is_reserved":false,"is_disabled":false,"rental_uris":{"android":"levelo://app?vid=56b1e23a-a8b6-4eed-a858-f200a5a0a62a","ios":"levelo://app?vid=56b1e23a-a8b6-4eed-a858-f200a5a0a62a"},"vehicle_type_id":"4","last_reported":1732011062,"current_range_meters":8000,"station_id":"ce4bhmp2rcd13ifvqgog","pricing_plan_id":"cebpf4jnsgd1na2vs0mg"},{"bike_id":"bb9ea763-6e93-4922-b0c2-ce9421dca49b","system_id":"levelo_inurba_marseille","lat":43.25932,"lon":5.40911,"is_reserved":false,"is_disabled":true,"rental_uris":{"android":"levelo://app?vid=bb9ea763-6e93-4922-b0c2-ce9421dca49b","ios":"levelo://app?vid=bb9ea763-6e93-4922-b0c2-ce9421dca49b"},"vehicle_type_id":"4","last_reported":1732011062,"current_range_meters":0,"station_id":"ce4bhm92rcd13ifvqglg","pricing_plan_id":"cebpf4jnsgd1na2vs0mg"},{"bike_id":"696dad62-b035-4843-b522-aad62f104751","system_id":"levelo_inurba_marseille","lat":43.34147,"lon":5.40914,"is_reserved":false,"is_disabled":false,"rental_uris":{"android":"levelo://app?vid=696dad62-b035-4843-b522-aad62f104751","ios":"levelo://app?vid=696dad62-b035-4843-b522-aad62f104751"},"vehicle_type_id":"4","last_reported":1732011062,"current_range_meters":25600,"station_id":"ce4bhqh2rcd13ifvqhlg","pricing_plan_id":"cebpf4jnsgd1na2vs0mg"},{"bike_id":"9502eb2d-3d88-47b6-823d-d0a9ae92ce64","system_id":"levelo_inurba_marseille","lat":43.29912,"lon":5.37464,"is_reserved":false,"is_disabled":false,"rental_uris":{"android":"levelo://app?vid=9502eb2d-3d88-47b6-823d-d0a9ae92ce64","ios":"levelo://app?vid=9502eb2d-3d88-47b6-823d-d0a9ae92ce64"},"vehicle_type_id":"4","last_reported":1732011062,"current_range_meters":15200,"station_id":"ce4bgjh2rcd13ifvqbg0","pricing_plan_id":"cebpf4jnsgd1na2vs0mg"},{"bike_id":"a610b5e5-5360-499a-a79b-c6b716a2a903","system_id":"levelo_inurba_marseille","lat":43.29067,"lon":5.37163,"is_reserved":false,"is_disabled":false,"rental_uris":{"android":"levelo://app?vid=a610b5e5-5360-499a-a79b-c6b716a2a903","ios":"levelo://app?vid=a610b5e5-5360-499a-a79b-c6b716a2a903"},"vehicle_type_id":"4","last_reported":1732011062,"current_range_meters":38000,"station_id":"ce4bh5p2rcd13ifvqe4g","pricing_plan_id":"cebpf4jnsgd1na2vs0mg"},{"bike_id":"ab8b3dcb-d33d-4854-a37e-2243fffa6f29","system_id":"levelo_inurba_marseille","lat":43.30148,"lon":5.38079,"is_reserved":false,"is_disabled":false,"rental_uris":{"android":"levelo://app?vid=ab8b3dcb-d33d-4854-a37e-2243fffa6f29","ios":"levelo://app?vid=ab8b3dcb-d33d-4854-a37e-2243fffa6f29"},"vehicle_type_id":"4","last_reported":1732011062,"current_range_meters":35600,"station_id":"ce4bgjp2rcd13ifvqbh0","pricing_plan_id":"cebpf4jnsgd1na2vs0mg"},{"bike_id":"83669109-7550-4233-aa88-c125b219f8c3","system_id":"levelo_inurba_marseille","lat":43.30467,"lon":5.37905,"is_reserved":false,"is_disabled":false,"rental_uris":{"android":"levelo://app?vid=83669109-7550-4233-aa88-c125b219f8c3","ios":"levelo://app?vid=83669109-7550-4233-aa88-c125b219f8c3"},"vehicle_type_id":"4","last_reported":1732011062,"current_range_meters":26800,"station_id":"ce4bgup2rcd13ifvqcn0","pricing_plan_id":"cebpf4jnsgd1na2vs0mg"},{"bike_id":"0699f1c2-b7e4-449f-b358-06a7b93e0378","system_id":"levelo_inurba_marseille","lat":43.30911,"lon":5.36848,"is_reserved":false,"is_disabled":false,"rental_uris":{"android":"levelo://app?vid=0699f1c2-b7e4-449f-b358-06a7b93e0378","ios":"levelo://app?vid=0699f1c2-b7e4-449f-b358-06a7b93e0378"},"vehicle_type_id":"4","last_reported":1732011062,"current_range_meters":18800,"station_id":"ce4bgn92rcd13ifvqbvg","pricing_plan_id":"cebpf4jnsgd1na2vs0mg"},{"bike_id":"ad462c4b-e81f-4e31-9bd9-51270a96d164","system_id":"levelo_inurba_marseille","lat":43.254987,"lon":5.376491,"is_reserved":false,"is_disabled":false,"rental_uris":{"android":"levelo://app?vid=ad462c4b-e81f-4e31-9bd9-51270a96d164","ios":"levelo://app?vid=ad462c4b-e81f-4e31-9bd9-51270a96d164"},"vehicle_type_id":"4","last_reported":1732011062,"current_range_meters":24400,"station_id":"ce4bhh12rcd13ifvqff0","pricing_plan_id":"cebpf4jnsgd1na2vs0mg"},{"bike_id":"ceb034b7-363b-4228-b7d7-d1c762fca8f7","system_id":"levelo_inurba_marseille","lat":43.3015,"lon":5.38081,"is_reserved":false,"is_disabled":false,"rental_uris":{"android":"levelo://app?vid=ceb034b7-363b-4228-b7d7-d1c762fca8f7","ios":"levelo://app?vid=ceb034b7-363b-4228-b7d7-d1c762fca8f7"},"vehicle_type_id":"4","last_reported":1732011062,"current_range_meters":36800,"station_id":"ce4bgjp2rcd13ifvqbh0","pricing_plan_id":"cebpf4jnsgd1na2vs0mg"},{"bike_id":"55dfcf5a-ba1e-4c0d-8b08-a99a7c3dc723","system_id":"levelo_inurba_marseille","lat":43.30555,"lon":5.36516,"is_reserved":false,"is_disabled":false,"rental_uris":{"android":"levelo://app?vid=55dfcf5a-ba1e-4c0d-8b08-a99a7c3dc723","ios":"levelo://app?vid=55dfcf5a-ba1e-4c0d-8b08-a99a7c3dc723"},"vehicle_type_id":"4","last_reported":1732011062,"current_range_meters":38800,"station_id":"ce4bgs12rcd13ifvqcag","pricing_plan_id":"cebpf4jnsgd1na2vs0mg"},{"bike_id":"e08875d1-5eda-43a9-a5b5-ee3ebd16c83c","system_id":"levelo_inurba_marseille","lat":43.25006,"lon":5.38912,"is_reserved":false,"is_disabled":false,"rental_uris":{"android":"levelo://app?vid=e08875d1-5eda-43a9-a5b5-ee3ebd16c83c","ios":"levelo://app?vid=e08875d1-5eda-43a9-a5b5-ee3ebd16c83c"},"vehicle_type_id":"4","last_reported":1732011062,"current_range_meters":36400,"station_id":"ce4bhgp2rcd13ifvqfd0","pricing_plan_id":"cebpf4jnsgd1na2vs0mg"},{"bike_id":"b1879da0-4952-4a10-8d90-fd2192536eda","system_id":"levelo_inurba_marseille","lat":43.23154,"lon":5.43719,"is_reserved":false,"is_disabled":false,"rental_uris":{"android":"levelo://app?vid=b1879da0-4952-4a10-8d90-fd2192536eda","ios":"levelo://app?vid=b1879da0-4952-4a10-8d90-fd2192536eda"},"vehicle_type_id":"4","last_reported":1732011062,"current_range_meters":39200,"station_id":"ce4bhmp2rcd13ifvqgog","pricing_plan_id":"cebpf4jnsgd1na2vs0mg"},{"bike_id":"2f2740e1-ad4a-4efb-b1f1-826e784f47c8","system_id":"levelo_inurba_marseille","lat":43.2594,"lon":5.40904,"is_reserved":false,"is_disabled":false,"rental_uris":{"android":"levelo://app?vid=2f2740e1-ad4a-4efb-b1f1-826e784f47c8","ios":"levelo://app?vid=2f2740e1-ad4a-4efb-b1f1-826e784f47c8"},"vehicle_type_id":"4","last_reported":1732011062,"current_range_meters":17200,"station_id":"ce4bhm92rcd13ifvqglg","pricing_plan_id":"cebpf4jnsgd1na2vs0mg"},{"bike_id":"6318a922-12a3-439f-95f1-abb2a8c8e59a","system_id":"levelo_inurba_marseille","lat":43.30133,"lon":5.38768,"is_reserved":false,"is_disabled":false,"rental_uris":{"android":"levelo://app?vid=6318a922-12a3-439f-95f1-abb2a8c8e59a","ios":"levelo://app?vid=6318a922-12a3-439f-95f1-abb2a8c8e59a"},"vehicle_type_id":"4","last_reported":1732011062,"current_range_meters":10800,"station_id":"ce4bghh2rcd13ifvqb60","pricing_plan_id":"cebpf4jnsgd1na2vs0mg"},{"bike_id":"09fb76ce-1486-4798-87e7-08071f3648cd","system_id":"levelo_inurba_marseille","lat":43.2582,"lon":5.39434,"is_reserved":false,"is_disabled":false,"rental_uris":{"android":"levelo://app?vid=09fb76ce-1486-4798-87e7-08071f3648cd","ios":"levelo://app?vid=09fb76ce-1486-4798-87e7-08071f3648cd"},"vehicle_type_id":"4","last_reported":1732011062,"current_range_meters":18800,"station_id":"ce4bhip2rcd13ifvqft0","pricing_plan_id":"cebpf4jnsgd1na2vs0mg"},{"bike_id":"8e7e7187-e587-44ac-886b-f69ece72d624","system_id":"levelo_inurba_marseille","lat":43.30956,"lon":5.39054,"is_reserved":false,"is_disabled":false,"rental_uris":{"android":"levelo://app?vid=8e7e7187-e587-44ac-886b-f69ece72d624","ios":"levelo://app?vid=8e7e7187-e587-44ac-886b-f69ece72d624"},"vehicle_type_id":"4","last_reported":1732011062,"current_range_meters":39200,"station_id":"ce4bgup2rcd13ifvqco0","pricing_plan_id":"cebpf4jnsgd1na2vs0mg"},{"bike_id":"1dc270f8-c0fd-4cd3-abb0-026fecbae2de","system_id":"levelo_inurba_marseille","lat":43.24087,"lon":5.37749,"is_reserved":false,"is_disabled":true,"rental_uris":{"android":"levelo://app?vid=1dc270f8-c0fd-4cd3-abb0-026fecbae2de","ios":"levelo://app?vid=1dc270f8-c0fd-4cd3-abb0-026fecbae2de"},"vehicle_type_id":"4","last_reported":1732011062,"current_range_meters":25600,"station_id":"ce4bhnp2rcd13ifvqgvg","pricing_plan_id":"cebpf4jnsgd1na2vs0mg"},{"bike_id":"13730e63-f792-4a51-aa7a-ae9d1cbf3e41","system_id":"levelo_inurba_marseille","lat":43.29981,"lon":5.37182,"is_reserved":false,"is_disabled":false,"rental_uris":{"android":"levelo://app?vid=13730e63-f792-4a51-aa7a-ae9d1cbf3e41","ios":"levelo://app?vid=13730e63-f792-4a51-aa7a-ae9d1cbf3e41"},"vehicle_type_id":"4","last_reported":1732011062,"current_range_meters":37600,"station_id":"ce4bgr92rcd13ifvqc7g","pricing_plan_id":"cebpf4jnsgd1na2vs0mg"},{"bike_id":"1ceca4c0-e64b-47cd-84e8-4eaf493a34ff","system_id":"levelo_inurba_marseille","lat":43.30308,"lon":5.40266,"is_reserved":false,"is_disabled":true,"rental_uris":{"android":"levelo://app?vid=1ceca4c0-e64b-47cd-84e8-4eaf493a34ff","ios":"levelo://app?vid=1ceca4c0-e64b-47cd-84e8-4eaf493a34ff"},"vehicle_type_id":"4","last_reported":1732011062,"current_range_meters":0,"station_id":"","pricing_plan_id":"cebpf4jnsgd1na2vs0mg"},{"bike_id":"67e7be22-2de4-40ec-8f9a-2c37035192f6","system_id":"levelo_inurba_marseille","lat":43.24073,"lon":5.37764,"is_reserved":false,"is_disabled":false,"rental_uris":{"android":"levelo://app?vid=67e7be22-2de4-40ec-8f9a-2c37035192f6","ios":"levelo://app?vid=67e7be22-2de4-40ec-8f9a-2c37035192f6"},"vehicle_type_id":"4","last_reported":1732011062,"current_range_meters":25600,"station_id":"ce4bhnp2rcd13ifvqgvg","pricing_plan_id":"cebpf4jnsgd1na2vs0mg"},{"bike_id":"f6453858-b013-4cc9-bf49-2d63665aac07","system_id":"levelo_inurba_marseille","lat":43.28265,"lon":5.35064,"is_reserved":false,"is_disabled":false,"rental_uris":{"android":"levelo://app?vid=f6453858-b013-4cc9-bf49-2d63665aac07","ios":"levelo://app?vid=f6453858-b013-4cc9-bf49-2d63665aac07"},"vehicle_type_id":"4","last_reported":1732011062,"current_range_meters":27600,"station_id":"ce4bhbp2rcd13ifvqerg","pricing_plan_id":"cebpf4jnsgd1na2vs0mg"},{"bike_id":"7ae9340b-ad64-49a4-af84-4b3833728baf","system_id":"levelo_inurba_marseille","lat":43.25503,"lon":5.3765,"is_reserved":false,"is_disabled":false,"rental_uris":{"android":"levelo://app?vid=7ae9340b-ad64-49a4-af84-4b3833728baf","ios":"levelo://app?vid=7ae9340b-ad64-49a4-af84-4b3833728baf"},"vehicle_type_id":"4","last_reported":1732011062,"current_range_meters":16400,"station_id":"ce4bhh12rcd13ifvqff0","pricing_plan_id":"cebpf4jnsgd1na2vs0mg"},{"bike_id":"73035774-c229-4ffc-bdf9-36362f2cdc64","system_id":"levelo_inurba_marseille","lat":43.27201,"lon":5.39195,"is_reserved":false,"is_disabled":true,"rental_uris":{"android":"levelo://app?vid=73035774-c229-4ffc-bdf9-36362f2cdc64","ios":"levelo://app?vid=73035774-c229-4ffc-bdf9-36362f2cdc64"},"vehicle_type_id":"4","last_reported":1732011062,"current_range_meters":0,"station_id":"ce4bhhp2rcd13ifvqfm0","pricing_plan_id":"cebpf4jnsgd1na2vs0mg"},{"bike_id":"1ac65e1e-014d-49d1-8041-c3162a2565bf","system_id":"levelo_inurba_marseille","lat":43.29715,"lon":5.3771,"is_reserved":false,"is_disabled":false,"rental_uris":{"android":"levelo://app?vid=1ac65e1e-014d-49d1-8041-c3162a2565bf","ios":"levelo://app?vid=1ac65e1e-014d-49d1-8041-c3162a2565bf"},"vehicle_type_id":"4","last_reported":1732011062,"current_range_meters":35200,"station_id":"ce4bgkh2rcd13ifvqbl0","pricing_plan_id":"cebpf4jnsgd1na2vs0mg"},{"bike_id":"c909d17a-6117-477e-a413-6471255f018b","system_id":"levelo_inurba_marseille","lat":43.26945,"lon":5.38651,"is_reserved":false,"is_disabled":false,"rental_uris":{"android":"levelo://app?vid=c909d17a-6117-477e-a413-6471255f018b","ios":"levelo://app?vid=c909d17a-6117-477e-a413-6471255f018b"},"vehicle_type_id":"4","last_reported":1732011062,"current_range_meters":38800,"station_id":"ce4bhh92rcd13ifvqfh0","pricing_plan_id":"cebpf4jnsgd1na2vs0mg"},{"bike_id":"e558fbe9-1349-4b04-9ba5-017d39440129","system_id":"levelo_inurba_marseille","lat":43.30167,"lon":5.38066,"is_reserved":false,"is_disabled":false,"rental_uris":{"android":"levelo://app?vid=e558fbe9-1349-4b04-9ba5-017d39440129","ios":"levelo://app?vid=e558fbe9-1349-4b04-9ba5-017d39440129"},"vehicle_type_id":"4","last_reported":1732011062,"current_range_meters":19200,"station_id":"ce4bgjp2rcd13ifvqbh0","pricing_plan_id":"cebpf4jnsgd1na2vs0mg"},{"bike_id":"74a095eb-1835-47a0-a475-28dc99d16ff9","system_id":"levelo_inurba_marseille","lat":43.29298,"lon":5.37451,"is_reserved":false,"is_disabled":false,"rental_uris":{"android":"levelo://app?vid=74a095eb-1835-47a0-a475-28dc99d16ff9","ios":"levelo://app?vid=74a095eb-1835-47a0-a475-28dc99d16ff9"},"vehicle_type_id":"4","last_reported":1732011062,"current_range_meters":39200,"station_id":"ce4bgi12rcd13ifvqb70","pricing_plan_id":"cebpf4jnsgd1na2vs0mg"},{"bike_id":"3e89d28f-51c8-41c4-8b09-ee3fc9f6be6f","system_id":"levelo_inurba_marseille","lat":43.32472,"lon":5.36554,"is_reserved":false,"is_disabled":false,"rental_uris":{"android":"levelo://app?vid=3e89d28f-51c8-41c4-8b09-ee3fc9f6be6f","ios":"levelo://app?vid=3e89d28f-51c8-41c4-8b09-ee3fc9f6be6f"},"vehicle_type_id":"4","last_reported":1732011062,"current_range_meters":4800,"station_id":"ce4bhs12rcd13ifvqhvg","pricing_plan_id":"cebpf4jnsgd1na2vs0mg"},{"bike_id":"f8cace8e-2751-4e68-9d93-8ea7831bcf1a","system_id":"levelo_inurba_marseille","lat":43.30125,"lon":5.39854,"is_reserved":false,"is_disabled":false,"rental_uris":{"android":"levelo://app?vid=f8cace8e-2751-4e68-9d93-8ea7831bcf1a","ios":"levelo://app?vid=f8cace8e-2751-4e68-9d93-8ea7831bcf1a"},"vehicle_type_id":"4","last_reported":1732011062,"current_range_meters":20000,"station_id":"ce4bh0h2rcd13ifvqd40","pricing_plan_id":"cebpf4jnsgd1na2vs0mg"},{"bike_id":"e361f0ea-e7a3-47b8-9666-75bca25face6","system_id":"levelo_inurba_marseille","lat":43.29915,"lon":5.37472,"is_reserved":false,"is_disabled":false,"rental_uris":{"android":"levelo://app?vid=e361f0ea-e7a3-47b8-9666-75bca25face6","ios":"levelo://app?vid=e361f0ea-e7a3-47b8-9666-75bca25face6"},"vehicle_type_id":"4","last_reported":1732011062,"current_range_meters":38800,"station_id":"ce4bgjh2rcd13ifvqbg0","pricing_plan_id":"cebpf4jnsgd1na2vs0mg"},{"bike_id":"9ce67508-8b06-4b57-9464-c2d28878484d","system_id":"levelo_inurba_marseille","lat":43.34146,"lon":5.40904,"is_reserved":false,"is_disabled":false,"rental_uris":{"android":"levelo://app?vid=9ce67508-8b06-4b57-9464-c2d28878484d","ios":"levelo://app?vid=9ce67508-8b06-4b57-9464-c2d28878484d"},"vehicle_type_id":"4","last_reported":1732011062,"current_range_meters":27600,"station_id":"ce4bhqh2rcd13ifvqhlg","pricing_plan_id":"cebpf4jnsgd1na2vs0mg"},{"bike_id":"27cb55ac-f1bd-4915-be42-351148146d90","system_id":"levelo_inurba_marseille","lat":43.31342,"lon":5.36725,"is_reserved":false,"is_disabled":false,"rental_uris":{"android":"levelo://app?vid=27cb55ac-f1bd-4915-be42-351148146d90","ios":"levelo://app?vid=27cb55ac-f1bd-4915-be42-351148146d90"},"vehicle_type_id":"4","last_reported":1732011062,"current_range_meters":32000,"station_id":"ce4bgr92rcd13ifvqc6g","pricing_plan_id":"cebpf4jnsgd1na2vs0mg"},{"bike_id":"45949901-07a0-4edb-9e1b-0e2169a074dc","system_id":"levelo_inurba_marseille","lat":43.30522,"lon":5.36689,"is_reserved":false,"is_disabled":false,"rental_uris":{"android":"levelo://app?vid=45949901-07a0-4edb-9e1b-0e2169a074dc","ios":"levelo://app?vid=45949901-07a0-4edb-9e1b-0e2169a074dc"},"vehicle_type_id":"4","last_reported":1732011062,"current_range_meters":39200,"station_id":"ce4bgrp2rcd13ifvqc9g","pricing_plan_id":"cebpf4jnsgd1na2vs0mg"},{"bike_id":"1341a828-b981-4198-a789-8a5791ca7539","system_id":"levelo_inurba_marseille","lat":43.25003,"lon":5.38911,"is_reserved":false,"is_disabled":false,"rental_uris":{"android":"levelo://app?vid=1341a828-b981-4198-a789-8a5791ca7539","ios":"levelo://app?vid=1341a828-b981-4198-a789-8a5791ca7539"},"vehicle_type_id":"4","last_reported":1732011062,"current_range_meters":36800,"station_id":"ce4bhgp2rcd13ifvqfd0","pricing_plan_id":"cebpf4jnsgd1na2vs0mg"},{"bike_id":"b4c6db65-509a-4b31-a5b8-05c1e0b8b2a9","system_id":"levelo_inurba_marseille","lat":43.30598,"lon":5.37209,"is_reserved":false,"is_disabled":false,"rental_uris":{"android":"levelo://app?vid=b4c6db65-509a-4b31-a5b8-05c1e0b8b2a9","ios":"levelo://app?vid=b4c6db65-509a-4b31-a5b8-05c1e0b8b2a9"},"vehicle_type_id":"4","last_reported":1732011062,"current_range_meters":28000,"station_id":"ce4bgqh2rcd13ifvqc4g","pricing_plan_id":"cebpf4jnsgd1na2vs0mg"},{"bike_id":"9ad03d5b-80cc-4617-b477-34bb93e2d3f6","system_id":"levelo_inurba_marseille","lat":43.3014,"lon":5.37406,"is_reserved":false,"is_disabled":false,"rental_uris":{"android":"levelo://app?vid=9ad03d5b-80cc-4617-b477-34bb93e2d3f6","ios":"levelo://app?vid=9ad03d5b-80cc-4617-b477-34bb93e2d3f6"},"vehicle_type_id":"4","last_reported":1732011062,"current_range_meters":35600,"station_id":"ce4bgs92rcd13ifvqcc0","pricing_plan_id":"cebpf4jnsgd1na2vs0mg"},{"bike_id":"e3511c0c-eb2b-4100-bb2d-c5ebcd644bea","system_id":"levelo_inurba_marseille","lat":43.23959,"lon":5.36623,"is_reserved":false,"is_disabled":true,"rental_uris":{"android":"levelo://app?vid=e3511c0c-eb2b-4100-bb2d-c5ebcd644bea","ios":"levelo://app?vid=e3511c0c-eb2b-4100-bb2d-c5ebcd644bea"},"vehicle_type_id":"4","last_reported":1732011062,"current_range_meters":36800,"station_id":"ce4bhi12rcd13ifvqfp0","pricing_plan_id":"cebpf4jnsgd1na2vs0mg"},{"bike_id":"5917a06d-1a89-42ee-9c96-70b3e49f2520","system_id":"levelo_inurba_marseille","lat":43.31701,"lon":5.40466,"is_reserved":false,"is_disabled":true,"rental_uris":{"android":"levelo://app?vid=5917a06d-1a89-42ee-9c96-70b3e49f2520","ios":"levelo://app?vid=5917a06d-1a89-42ee-9c96-70b3e49f2520"},"vehicle_type_id":"4","last_reported":1732011062,"current_range_meters":13600,"station_id":"ce4bh012rcd13ifvqd00","pricing_plan_id":"cebpf4jnsgd1na2vs0mg"},{"bike_id":"7c1fb462-847d-4126-8726-9a70b5e7e7d8","system_id":"levelo_inurba_marseille","lat":43.26947,"lon":5.38625,"is_reserved":false,"is_disabled":false,"rental_uris":{"android":"levelo://app?vid=7c1fb462-847d-4126-8726-9a70b5e7e7d8","ios":"levelo://app?vid=7c1fb462-847d-4126-8726-9a70b5e7e7d8"},"vehicle_type_id":"4","last_reported":1732011062,"current_range_meters":30800,"station_id":"ce4bhh92rcd13ifvqfh0","pricing_plan_id":"cebpf4jnsgd1na2vs0mg"},{"bike_id":"0ae43ad8-7108-4495-908e-f716a5c3355b","system_id":"levelo_inurba_marseille","lat":43.25936,"lon":5.40895,"is_reserved":false,"is_disabled":false,"rental_uris":{"android":"levelo://app?vid=0ae43ad8-7108-4495-908e-f716a5c3355b","ios":"levelo://app?vid=0ae43ad8-7108-4495-908e-f716a5c3355b"},"vehicle_type_id":"4","last_reported":1732011062,"current_range_meters":36400,"station_id":"ce4bhm92rcd13ifvqglg","pricing_plan_id":"cebpf4jnsgd1na2vs0mg"},{"bike_id":"5c786160-2855-4635-8178-de38327b0aa2","system_id":"levelo_inurba_marseille","lat":43.30943,"lon":5.3903,"is_reserved":false,"is_disabled":false,"rental_uris":{"android":"levelo://app?vid=5c786160-2855-4635-8178-de38327b0aa2","ios":"levelo://app?vid=5c786160-2855-4635-8178-de38327b0aa2"},"vehicle_type_id":"4","last_reported":1732011062,"current_range_meters":6400,"station_id":"ce4bgup2rcd13ifvqco0","pricing_plan_id":"cebpf4jnsgd1na2vs0mg"},{"bike_id":"19964f03-ceaf-4621-8b57-b6da4494d96e","system_id":"levelo_inurba_marseille","lat":43.29263,"lon":5.38443,"is_reserved":false,"is_disabled":false,"rental_uris":{"android":"levelo://app?vid=19964f03-ceaf-4621-8b57-b6da4494d96e","ios":"levelo://app?vid=19964f03-ceaf-4621-8b57-b6da4494d96e"},"vehicle_type_id":"4","last_reported":1732011062,"current_range_meters":38000,"station_id":"ce4bh692rcd13ifvqea0","pricing_plan_id":"cebpf4jnsgd1na2vs0mg"},{"bike_id":"e4200a2f-51c9-4a2d-93c0-970a40d32e47","system_id":"levelo_inurba_marseille","lat":43.3016,"lon":5.38083,"is_reserved":false,"is_disabled":false,"rental_uris":{"android":"levelo://app?vid=e4200a2f-51c9-4a2d-93c0-970a40d32e47","ios":"levelo://app?vid=e4200a2f-51c9-4a2d-93c0-970a40d32e47"},"vehicle_type_id":"4","last_reported":1732011062,"current_range_meters":14800,"station_id":"ce4bgjp2rcd13ifvqbh0","pricing_plan_id":"cebpf4jnsgd1na2vs0mg"},{"bike_id":"1cc90608-5a84-4c67-ae6a-369c2355d020","system_id":"levelo_inurba_marseille","lat":43.24081,"lon":5.37753,"is_reserved":false,"is_disabled":false,"rental_uris":{"android":"levelo://app?vid=1cc90608-5a84-4c67-ae6a-369c2355d020","ios":"levelo://app?vid=1cc90608-5a84-4c67-ae6a-369c2355d020"},"vehicle_type_id":"4","last_reported":1732011062,"current_range_meters":30000,"station_id":"ce4bhnp2rcd13ifvqgvg","pricing_plan_id":"cebpf4jnsgd1na2vs0mg"},{"bike_id":"9f48a3fa-abf8-448c-86ff-07a542626bbd","system_id":"levelo_inurba_marseille","lat":43.30285,"lon":5.37687,"is_reserved":false,"is_disabled":false,"rental_uris":{"android":"levelo://app?vid=9f48a3fa-abf8-448c-86ff-07a542626bbd","ios":"levelo://app?vid=9f48a3fa-abf8-448c-86ff-07a542626bbd"},"vehicle_type_id":"4","last_reported":1732011062,"current_range_meters":38400,"station_id":"ce4bguh2rcd13ifvqcj0","pricing_plan_id":"cebpf4jnsgd1na2vs0mg"},{"bike_id":"fefdee1c-9b22-4528-b57d-4124b76a55ba","system_id":"levelo_inurba_marseille","lat":43.26896,"lon":5.40328,"is_reserved":false,"is_disabled":false,"rental_uris":{"android":"levelo://app?vid=fefdee1c-9b22-4528-b57d-4124b76a55ba","ios":"levelo://app?vid=fefdee1c-9b22-4528-b57d-4124b76a55ba"},"vehicle_type_id":"4","last_reported":1732011062,"current_range_meters":18000,"station_id":"ce501612rcd8frsf0b60","pricing_plan_id":"cebpf4jnsgd1na2vs0mg"},{"bike_id":"a17c76e2-461b-4a15-bf38-3ca0fd0bdb2c","system_id":"levelo_inurba_marseille","lat":43.30955,"lon":5.39037,"is_reserved":false,"is_disabled":false,"rental_uris":{"android":"levelo://app?vid=a17c76e2-461b-4a15-bf38-3ca0fd0bdb2c","ios":"levelo://app?vid=a17c76e2-461b-4a15-bf38-3ca0fd0bdb2c"},"vehicle_type_id":"4","last_reported":1732011062,"current_range_meters":25200,"station_id":"ce4bgup2rcd13ifvqco0","pricing_plan_id":"cebpf4jnsgd1na2vs0mg"},{"bike_id":"3f095bc8-9af8-4b0b-a298-157d8e949f36","system_id":"levelo_inurba_marseille","lat":43.27672,"lon":5.38887,"is_reserved":false,"is_disabled":true,"rental_uris":{"android":"levelo://app?vid=3f095bc8-9af8-4b0b-a298-157d8e949f36","ios":"levelo://app?vid=3f095bc8-9af8-4b0b-a298-157d8e949f36"},"vehicle_type_id":"4","last_reported":1732011062,"current_range_meters":6800,"station_id":"ce4bhi12rcd13ifvqfo0","pricing_plan_id":"cebpf4jnsgd1na2vs0mg"},{"bike_id":"d22a11e0-d2d3-46b2-838b-6f45174270e1","system_id":"levelo_inurba_marseille","lat":43.25821,"lon":5.39436,"is_reserved":false,"is_disabled":false,"rental_uris":{"android":"levelo://app?vid=d22a11e0-d2d3-46b2-838b-6f45174270e1","ios":"levelo://app?vid=d22a11e0-d2d3-46b2-838b-6f45174270e1"},"vehicle_type_id":"4","last_reported":1732011062,"current_range_meters":24400,"station_id":"ce4bhip2rcd13ifvqft0","pricing_plan_id":"cebpf4jnsgd1na2vs0mg"},{"bike_id":"d9191eb3-d044-4aba-ba0e-dd3c3b6c8bb3","system_id":"levelo_inurba_marseille","lat":43.31346,"lon":5.36713,"is_reserved":false,"is_disabled":false,"rental_uris":{"android":"levelo://app?vid=d9191eb3-d044-4aba-ba0e-dd3c3b6c8bb3","ios":"levelo://app?vid=d9191eb3-d044-4aba-ba0e-dd3c3b6c8bb3"},"vehicle_type_id":"4","last_reported":1732011062,"current_range_meters":39200,"station_id":"ce4bgr92rcd13ifvqc6g","pricing_plan_id":"cebpf4jnsgd1na2vs0mg"},{"bike_id":"e9591178-cdc3-434f-a4e8-8a21a67ac277","system_id":"levelo_inurba_marseille","lat":43.30539,"lon":5.36698,"is_reserved":false,"is_disabled":false,"rental_uris":{"android":"levelo://app?vid=e9591178-cdc3-434f-a4e8-8a21a67ac277","ios":"levelo://app?vid=e9591178-cdc3-434f-a4e8-8a21a67ac277"},"vehicle_type_id":"4","last_reported":1732011062,"current_range_meters":20000,"station_id":"ce4bgrp2rcd13ifvqc9g","pricing_plan_id":"cebpf4jnsgd1na2vs0mg"},{"bike_id":"d674a550-723f-4e20-a0c2-89aa344c2ade","system_id":"levelo_inurba_marseille","lat":43.28213,"lon":5.44372,"is_reserved":false,"is_disabled":false,"rental_uris":{"android":"levelo://app?vid=d674a550-723f-4e20-a0c2-89aa344c2ade","ios":"levelo://app?vid=d674a550-723f-4e20-a0c2-89aa344c2ade"},"vehicle_type_id":"4","last_reported":1732011062,"current_range_meters":3200,"station_id":"","pricing_plan_id":"cebpf4jnsgd1na2vs0mg"},{"bike_id":"81ea8344-2c34-49ab-98e1-1b417b1f2880","system_id":"levelo_inurba_marseille","lat":43.30604,"lon":5.37209,"is_reserved":false,"is_disabled":false,"rental_uris":{"android":"levelo://app?vid=81ea8344-2c34-49ab-98e1-1b417b1f2880","ios":"levelo://app?vid=81ea8344-2c34-49ab-98e1-1b417b1f2880"},"vehicle_type_id":"4","last_reported":1732011062,"current_range_meters":15200,"station_id":"ce4bgqh2rcd13ifvqc4g","pricing_plan_id":"cebpf4jnsgd1na2vs0mg"},{"bike_id":"41b2a974-6656-4fdc-9657-d75024b40bbf","system_id":"levelo_inurba_marseille","lat":43.2849,"lon":5.38588,"is_reserved":false,"is_disabled":false,"rental_uris":{"android":"levelo://app?vid=41b2a974-6656-4fdc-9657-d75024b40bbf","ios":"levelo://app?vid=41b2a974-6656-4fdc-9657-d75024b40bbf"},"vehicle_type_id":"4","last_reported":1732011062,"current_range_meters":12800,"station_id":"ce4bh8p2rcd13ifvqeb0","pricing_plan_id":"cebpf4jnsgd1na2vs0mg"},{"bike_id":"fa3a9abd-3fb7-4ad7-ac48-cbf8154f7c74","system_id":"levelo_inurba_marseille","lat":43.29305,"lon":5.37153,"is_reserved":false,"is_disabled":false,"rental_uris":{"android":"levelo://app?vid=fa3a9abd-3fb7-4ad7-ac48-cbf8154f7c74","ios":"levelo://app?vid=fa3a9abd-3fb7-4ad7-ac48-cbf8154f7c74"},"vehicle_type_id":"4","last_reported":1732011062,"current_range_meters":38800,"station_id":"ce4bgh92rcd13ifvqb40","pricing_plan_id":"cebpf4jnsgd1na2vs0mg"},{"bike_id":"fab435eb-fc24-4869-9400-ba5219069b91","system_id":"levelo_inurba_marseille","lat":43.2873,"lon":5.36071,"is_reserved":false,"is_disabled":false,"rental_uris":{"android":"levelo://app?vid=fab435eb-fc24-4869-9400-ba5219069b91","ios":"levelo://app?vid=fab435eb-fc24-4869-9400-ba5219069b91"},"vehicle_type_id":"4","last_reported":1732011062,"current_range_meters":35200,"station_id":"cki0cbj6b192h4jlfktg","pricing_plan_id":"cebpf4jnsgd1na2vs0mg"},{"bike_id":"9d5bcf12-9fb6-4e76-95c0-05b8114802da","system_id":"levelo_inurba_marseille","lat":43.30242,"lon":5.40046,"is_reserved":false,"is_disabled":false,"rental_uris":{"android":"levelo://app?vid=9d5bcf12-9fb6-4e76-95c0-05b8114802da","ios":"levelo://app?vid=9d5bcf12-9fb6-4e76-95c0-05b8114802da"},"vehicle_type_id":"4","last_reported":1732011062,"current_range_meters":13600,"station_id":"ce4bgvh2rcd13ifvqcs0","pricing_plan_id":"cebpf4jnsgd1na2vs0mg"},{"bike_id":"76b26817-8a0e-47d4-9818-68227ec46540","system_id":"levelo_inurba_marseille","lat":43.290672,"lon":5.371524,"is_reserved":false,"is_disabled":true,"rental_uris":{"android":"levelo://app?vid=76b26817-8a0e-47d4-9818-68227ec46540","ios":"levelo://app?vid=76b26817-8a0e-47d4-9818-68227ec46540"},"vehicle_type_id":"4","last_reported":1732011062,"current_range_meters":37600,"station_id":"ce4bh5p2rcd13ifvqe4g","pricing_plan_id":"cebpf4jnsgd1na2vs0mg"},{"bike_id":"fc7685bc-12d2-4453-957c-236516983ef0","system_id":"levelo_inurba_marseille","lat":43.24389,"lon":5.37056,"is_reserved":false,"is_disabled":true,"rental_uris":{"android":"levelo://app?vid=fc7685bc-12d2-4453-957c-236516983ef0","ios":"levelo://app?vid=fc7685bc-12d2-4453-957c-236516983ef0"},"vehicle_type_id":"4","last_reported":1732011062,"current_range_meters":1200,"station_id":"ce4bhhh2rcd13ifvqfk0","pricing_plan_id":"cebpf4jnsgd1na2vs0mg"},{"bike_id":"3c845471-a1cb-4db8-bd83-ebb4e6ea7851","system_id":"levelo_inurba_marseille","lat":43.29791,"lon":5.37103,"is_reserved":false,"is_disabled":false,"rental_uris":{"android":"levelo://app?vid=3c845471-a1cb-4db8-bd83-ebb4e6ea7851","ios":"levelo://app?vid=3c845471-a1cb-4db8-bd83-ebb4e6ea7851"},"vehicle_type_id":"4","last_reported":1732011062,"current_range_meters":36800,"station_id":"ce4bgop2rcd13ifvqc1g","pricing_plan_id":"cebpf4jnsgd1na2vs0mg"},{"bike_id":"26cebf06-260c-4863-8cb4-8027a65a5ba0","system_id":"levelo_inurba_marseille","lat":43.33612,"lon":5.41028,"is_reserved":false,"is_disabled":false,"rental_uris":{"android":"levelo://app?vid=26cebf06-260c-4863-8cb4-8027a65a5ba0","ios":"levelo://app?vid=26cebf06-260c-4863-8cb4-8027a65a5ba0"},"vehicle_type_id":"4","last_reported":1732011062,"current_range_meters":38400,"station_id":"ce4bhqh2rcd13ifvqhmg","pricing_plan_id":"cebpf4jnsgd1na2vs0mg"},{"bike_id":"b32ab7b4-2eec-4765-a42c-b81de2b303bb","system_id":"levelo_inurba_marseille","lat":43.25824,"lon":5.39437,"is_reserved":false,"is_disabled":false,"rental_uris":{"android":"levelo://app?vid=b32ab7b4-2eec-4765-a42c-b81de2b303bb","ios":"levelo://app?vid=b32ab7b4-2eec-4765-a42c-b81de2b303bb"},"vehicle_type_id":"4","last_reported":1732011062,"current_range_meters":27600,"station_id":"ce4bhip2rcd13ifvqft0","pricing_plan_id":"cebpf4jnsgd1na2vs0mg"},{"bike_id":"485c42e1-4ef4-4016-b20e-635dbedce0c7","system_id":"levelo_inurba_marseille","lat":43.26785,"lon":5.39417,"is_reserved":false,"is_disabled":false,"rental_uris":{"android":"levelo://app?vid=485c42e1-4ef4-4016-b20e-635dbedce0c7","ios":"levelo://app?vid=485c42e1-4ef4-4016-b20e-635dbedce0c7"},"vehicle_type_id":"4","last_reported":1732011062,"current_range_meters":17600,"station_id":"ce4bhh12rcd13ifvqfg0","pricing_plan_id":"cebpf4jnsgd1na2vs0mg"},{"bike_id":"4ebc87da-5f5a-4c8c-90f6-6d9b4554ca3e","system_id":"levelo_inurba_marseille","lat":43.30605,"lon":5.37238,"is_reserved":false,"is_disabled":false,"rental_uris":{"android":"levelo://app?vid=4ebc87da-5f5a-4c8c-90f6-6d9b4554ca3e","ios":"levelo://app?vid=4ebc87da-5f5a-4c8c-90f6-6d9b4554ca3e"},"vehicle_type_id":"4","last_reported":1732011062,"current_range_meters":36800,"station_id":"ce4bgqh2rcd13ifvqc4g","pricing_plan_id":"cebpf4jnsgd1na2vs0mg"},{"bike_id":"00614b7c-a9a7-449f-a82b-bd0f64fd964d","system_id":"levelo_inurba_marseille","lat":43.29052,"lon":5.3757,"is_reserved":false,"is_disabled":false,"rental_uris":{"android":"levelo://app?vid=00614b7c-a9a7-449f-a82b-bd0f64fd964d","ios":"levelo://app?vid=00614b7c-a9a7-449f-a82b-bd0f64fd964d"},"vehicle_type_id":"4","last_reported":1732011062,"current_range_meters":38800,"station_id":"ce4bh692rcd13ifvqe90","pricing_plan_id":"cebpf4jnsgd1na2vs0mg"},{"bike_id":"c965d922-041e-4314-8721-46b1ef5413d3","system_id":"levelo_inurba_marseille","lat":43.26203,"lon":5.37929,"is_reserved":false,"is_disabled":false,"rental_uris":{"android":"levelo://app?vid=c965d922-041e-4314-8721-46b1ef5413d3","ios":"levelo://app?vid=c965d922-041e-4314-8721-46b1ef5413d3"},"vehicle_type_id":"4","last_reported":1732011062,"current_range_meters":28800,"station_id":"ce4bhjp2rcd13ifvqg90","pricing_plan_id":"cebpf4jnsgd1na2vs0mg"},{"bike_id":"ae2400e2-f3e7-4866-8508-eafa26d0549c","system_id":"levelo_inurba_marseille","lat":43.30354,"lon":5.41874,"is_reserved":false,"is_disabled":false,"rental_uris":{"android":"levelo://app?vid=ae2400e2-f3e7-4866-8508-eafa26d0549c","ios":"levelo://app?vid=ae2400e2-f3e7-4866-8508-eafa26d0549c"},"vehicle_type_id":"4","last_reported":1732011062,"current_range_meters":38000,"station_id":"ce4bhop2rcd13ifvqh7g","pricing_plan_id":"cebpf4jnsgd1na2vs0mg"},{"bike_id":"bc249293-6395-4334-b84a-652f70f197fc","system_id":"levelo_inurba_marseille","lat":43.27633,"lon":5.42643,"is_reserved":false,"is_disabled":true,"rental_uris":{"android":"levelo://app?vid=bc249293-6395-4334-b84a-652f70f197fc","ios":"levelo://app?vid=bc249293-6395-4334-b84a-652f70f197fc"},"vehicle_type_id":"4","last_reported":1732011062,"current_range_meters":400,"station_id":"","pricing_plan_id":"cebpf4jnsgd1na2vs0mg"},{"bike_id":"af9f6026-a818-44d2-880b-80abb57007dc","system_id":"levelo_inurba_marseille","lat":43.29913,"lon":5.37463,"is_reserved":false,"is_disabled":false,"rental_uris":{"android":"levelo://app?vid=af9f6026-a818-44d2-880b-80abb57007dc","ios":"levelo://app?vid=af9f6026-a818-44d2-880b-80abb57007dc"},"vehicle_type_id":"4","last_reported":1732011062,"current_range_meters":38000,"station_id":"ce4bgjh2rcd13ifvqbg0","pricing_plan_id":"cebpf4jnsgd1na2vs0mg"},{"bike_id":"d3a4d1e9-fe3a-49c1-838e-f0a3660cc538","system_id":"levelo_inurba_marseille","lat":43.30146,"lon":5.38083,"is_reserved":false,"is_disabled":false,"rental_uris":{"android":"levelo://app?vid=d3a4d1e9-fe3a-49c1-838e-f0a3660cc538","ios":"levelo://app?vid=d3a4d1e9-fe3a-49c1-838e-f0a3660cc538"},"vehicle_type_id":"4","last_reported":1732011062,"current_range_meters":37600,"station_id":"ce4bgjp2rcd13ifvqbh0","pricing_plan_id":"cebpf4jnsgd1na2vs0mg"},{"bike_id":"be1dd5f8-91fc-4786-8461-76cd869dae13","system_id":"levelo_inurba_marseille","lat":43.31982,"lon":5.41584,"is_reserved":false,"is_disabled":true,"rental_uris":{"android":"levelo://app?vid=be1dd5f8-91fc-4786-8461-76cd869dae13","ios":"levelo://app?vid=be1dd5f8-91fc-4786-8461-76cd869dae13"},"vehicle_type_id":"4","last_reported":1732011062,"current_range_meters":26800,"station_id":"","pricing_plan_id":"cebpf4jnsgd1na2vs0mg"},{"bike_id":"faa3accd-82ad-4ab4-8459-e7f3d78bab6c","system_id":"levelo_inurba_marseille","lat":43.28153,"lon":5.4264,"is_reserved":false,"is_disabled":false,"rental_uris":{"android":"levelo://app?vid=faa3accd-82ad-4ab4-8459-e7f3d78bab6c","ios":"levelo://app?vid=faa3accd-82ad-4ab4-8459-e7f3d78bab6c"},"vehicle_type_id":"4","last_reported":1732011062,"current_range_meters":39200,"station_id":"ce4bhnh2rcd13ifvqgug","pricing_plan_id":"cebpf4jnsgd1na2vs0mg"},{"bike_id":"ee5ad2bc-dd93-4a60-9deb-ff629596020e","system_id":"levelo_inurba_marseille","lat":43.24183,"lon":5.39728,"is_reserved":false,"is_disabled":false,"rental_uris":{"android":"levelo://app?vid=ee5ad2bc-dd93-4a60-9deb-ff629596020e","ios":"levelo://app?vid=ee5ad2bc-dd93-4a60-9deb-ff629596020e"},"vehicle_type_id":"4","last_reported":1732011062,"current_range_meters":38800,"station_id":"ce4bhn12rcd13ifvqgpg","pricing_plan_id":"cebpf4jnsgd1na2vs0mg"},{"bike_id":"0bb5e1a1-51d8-4941-980f-b98a84364589","system_id":"levelo_inurba_marseille","lat":43.30135,"lon":5.37421,"is_reserved":false,"is_disabled":false,"rental_uris":{"android":"levelo://app?vid=0bb5e1a1-51d8-4941-980f-b98a84364589","ios":"levelo://app?vid=0bb5e1a1-51d8-4941-980f-b98a84364589"},"vehicle_type_id":"4","last_reported":1732011062,"current_range_meters":28800,"station_id":"ce4bgs92rcd13ifvqcc0","pricing_plan_id":"cebpf4jnsgd1na2vs0mg"},{"bike_id":"682bb224-3de5-46b1-9046-5f7e6e1f27ca","system_id":"levelo_inurba_marseille","lat":43.28672,"lon":5.38673,"is_reserved":false,"is_disabled":false,"rental_uris":{"android":"levelo://app?vid=682bb224-3de5-46b1-9046-5f7e6e1f27ca","ios":"levelo://app?vid=682bb224-3de5-46b1-9046-5f7e6e1f27ca"},"vehicle_type_id":"4","last_reported":1732011062,"current_range_meters":38800,"station_id":"ce4bh492rcd13ifvqdug","pricing_plan_id":"cebpf4jnsgd1na2vs0mg"},{"bike_id":"e5e2248a-03d3-4b07-b4f7-fd61796e9419","system_id":"levelo_inurba_marseille","lat":43.29986,"lon":5.38072,"is_reserved":false,"is_disabled":true,"rental_uris":{"android":"levelo://app?vid=e5e2248a-03d3-4b07-b4f7-fd61796e9419","ios":"levelo://app?vid=e5e2248a-03d3-4b07-b4f7-fd61796e9419"},"vehicle_type_id":"4","last_reported":1732011062,"current_range_meters":0,"station_id":"","pricing_plan_id":"cebpf4jnsgd1na2vs0mg"},{"bike_id":"6ceef664-acd2-42e1-b843-e993f58ca8f0","system_id":"levelo_inurba_marseille","lat":43.33601,"lon":5.41031,"is_reserved":false,"is_disabled":false,"rental_uris":{"android":"levelo://app?vid=6ceef664-acd2-42e1-b843-e993f58ca8f0","ios":"levelo://app?vid=6ceef664-acd2-42e1-b843-e993f58ca8f0"},"vehicle_type_id":"4","last_reported":1732011062,"current_range_meters":17600,"station_id":"ce4bhqh2rcd13ifvqhmg","pricing_plan_id":"cebpf4jnsgd1na2vs0mg"},{"bike_id":"17499d31-2db8-4aec-84ea-c73c6e953f7f","system_id":"levelo_inurba_marseille","lat":43.30597,"lon":5.3721,"is_reserved":false,"is_disabled":false,"rental_uris":{"android":"levelo://app?vid=17499d31-2db8-4aec-84ea-c73c6e953f7f","ios":"levelo://app?vid=17499d31-2db8-4aec-84ea-c73c6e953f7f"},"vehicle_type_id":"4","last_reported":1732011062,"current_range_meters":30400,"station_id":"ce4bgqh2rcd13ifvqc4g","pricing_plan_id":"cebpf4jnsgd1na2vs0mg"},{"bike_id":"56edd46b-d236-45f1-ba2f-1f7d8acc3af2","system_id":"levelo_inurba_marseille","lat":43.33763,"lon":5.37435,"is_reserved":false,"is_disabled":false,"rental_uris":{"android":"levelo://app?vid=56edd46b-d236-45f1-ba2f-1f7d8acc3af2","ios":"levelo://app?vid=56edd46b-d236-45f1-ba2f-1f7d8acc3af2"},"vehicle_type_id":"4","last_reported":1732011062,"current_range_meters":38000,"station_id":"","pricing_plan_id":"cebpf4jnsgd1na2vs0mg"},{"bike_id":"c8b8b3c2-768c-4dcb-bbc8-6306e75702bc","system_id":"levelo_inurba_marseille","lat":43.28471,"lon":5.35877,"is_reserved":false,"is_disabled":false,"rental_uris":{"android":"levelo://app?vid=c8b8b3c2-768c-4dcb-bbc8-6306e75702bc","ios":"levelo://app?vid=c8b8b3c2-768c-4dcb-bbc8-6306e75702bc"},"vehicle_type_id":"4","last_reported":1732011062,"current_range_meters":22400,"station_id":"ce4bhah2rcd13ifvqei0","pricing_plan_id":"cebpf4jnsgd1na2vs0mg"},{"bike_id":"7a49a17d-f3c6-4da6-9fca-d2e398361cf7","system_id":"levelo_inurba_marseille","lat":43.26207,"lon":5.37448,"is_reserved":false,"is_disabled":false,"rental_uris":{"android":"levelo://app?vid=7a49a17d-f3c6-4da6-9fca-d2e398361cf7","ios":"levelo://app?vid=7a49a17d-f3c6-4da6-9fca-d2e398361cf7"},"vehicle_type_id":"4","last_reported":1732011062,"current_range_meters":4800,"station_id":"ce4bhgp2rcd13ifvqfc0","pricing_plan_id":"cebpf4jnsgd1na2vs0mg"},{"bike_id":"a1bbca6e-55c9-4e70-9956-b9e44ef3e4fc","system_id":"levelo_inurba_marseille","lat":43.26781,"lon":5.39416,"is_reserved":false,"is_disabled":true,"rental_uris":{"android":"levelo://app?vid=a1bbca6e-55c9-4e70-9956-b9e44ef3e4fc","ios":"levelo://app?vid=a1bbca6e-55c9-4e70-9956-b9e44ef3e4fc"},"vehicle_type_id":"4","last_reported":1732011062,"current_range_meters":10000,"station_id":"ce4bhh12rcd13ifvqfg0","pricing_plan_id":"cebpf4jnsgd1na2vs0mg"},{"bike_id":"bf0dbec3-41a1-47e6-b0a5-643c02c873aa","system_id":"levelo_inurba_marseille","lat":43.283724,"lon":5.386218,"is_reserved":false,"is_disabled":false,"rental_uris":{"android":"levelo://app?vid=bf0dbec3-41a1-47e6-b0a5-643c02c873aa","ios":"levelo://app?vid=bf0dbec3-41a1-47e6-b0a5-643c02c873aa"},"vehicle_type_id":"4","last_reported":1732011062,"current_range_meters":17600,"station_id":"ce4bh492rcd13ifvqdvg","pricing_plan_id":"cebpf4jnsgd1na2vs0mg"},{"bike_id":"d6efe9b0-b4e9-4e49-baf5-57e7580b2300","system_id":"levelo_inurba_marseille","lat":43.26683,"lon":5.3827,"is_reserved":false,"is_disabled":false,"rental_uris":{"android":"levelo://app?vid=d6efe9b0-b4e9-4e49-baf5-57e7580b2300","ios":"levelo://app?vid=d6efe9b0-b4e9-4e49-baf5-57e7580b2300"},"vehicle_type_id":"4","last_reported":1732011062,"current_range_meters":24400,"station_id":"ce4bhg92rcd13ifvqf90","pricing_plan_id":"cebpf4jnsgd1na2vs0mg"},{"bike_id":"1a098a79-b9cd-42e6-a616-d186d3aa3585","system_id":"levelo_inurba_marseille","lat":43.30955,"lon":5.39026,"is_reserved":false,"is_disabled":false,"rental_uris":{"android":"levelo://app?vid=1a098a79-b9cd-42e6-a616-d186d3aa3585","ios":"levelo://app?vid=1a098a79-b9cd-42e6-a616-d186d3aa3585"},"vehicle_type_id":"4","last_reported":1732011062,"current_range_meters":7200,"station_id":"ce4bgup2rcd13ifvqco0","pricing_plan_id":"cebpf4jnsgd1na2vs0mg"},{"bike_id":"2a270517-9d5b-492f-a609-2bf32ee97d0e","system_id":"levelo_inurba_marseille","lat":43.29579,"lon":5.37498,"is_reserved":false,"is_disabled":true,"rental_uris":{"android":"levelo://app?vid=2a270517-9d5b-492f-a609-2bf32ee97d0e","ios":"levelo://app?vid=2a270517-9d5b-492f-a609-2bf32ee97d0e"},"vehicle_type_id":"4","last_reported":1732011062,"current_range_meters":34000,"station_id":"ce4bgh92rcd13ifvqb50","pricing_plan_id":"cebpf4jnsgd1na2vs0mg"},{"bike_id":"7289239c-a3b0-403c-b810-a6e7cb8c855e","system_id":"levelo_inurba_marseille","lat":43.29038,"lon":5.37557,"is_reserved":false,"is_disabled":true,"rental_uris":{"android":"levelo://app?vid=7289239c-a3b0-403c-b810-a6e7cb8c855e","ios":"levelo://app?vid=7289239c-a3b0-403c-b810-a6e7cb8c855e"},"vehicle_type_id":"4","last_reported":1732011062,"current_range_meters":2800,"station_id":"ce4bh692rcd13ifvqe90","pricing_plan_id":"cebpf4jnsgd1na2vs0mg"},{"bike_id":"c03ea13e-ec3d-4e9c-8ee1-f9051ad9ba43","system_id":"levelo_inurba_marseille","lat":43.29273,"lon":5.36845,"is_reserved":false,"is_disabled":false,"rental_uris":{"android":"levelo://app?vid=c03ea13e-ec3d-4e9c-8ee1-f9051ad9ba43","ios":"levelo://app?vid=c03ea13e-ec3d-4e9c-8ee1-f9051ad9ba43"},"vehicle_type_id":"4","last_reported":1732011062,"current_range_meters":38000,"station_id":"ce4bhbp2rcd13ifvqesg","pricing_plan_id":"cebpf4jnsgd1na2vs0mg"},{"bike_id":"e872e288-7898-4d61-9856-14094895d63e","system_id":"levelo_inurba_marseille","lat":43.2871,"lon":5.39979,"is_reserved":false,"is_disabled":false,"rental_uris":{"android":"levelo://app?vid=e872e288-7898-4d61-9856-14094895d63e","ios":"levelo://app?vid=e872e288-7898-4d61-9856-14094895d63e"},"vehicle_type_id":"4","last_reported":1732011062,"current_range_meters":26800,"station_id":"ce4bho92rcd13ifvqh3g","pricing_plan_id":"cebpf4jnsgd1na2vs0mg"},{"bike_id":"756bb2aa-068f-463e-9297-6710d258bf29","system_id":"levelo_inurba_marseille","lat":43.2695,"lon":5.38637,"is_reserved":false,"is_disabled":false,"rental_uris":{"android":"levelo://app?vid=756bb2aa-068f-463e-9297-6710d258bf29","ios":"levelo://app?vid=756bb2aa-068f-463e-9297-6710d258bf29"},"vehicle_type_id":"4","last_reported":1732011062,"current_range_meters":25200,"station_id":"ce4bhh92rcd13ifvqfh0","pricing_plan_id":"cebpf4jnsgd1na2vs0mg"},{"bike_id":"1ff970a9-d231-4bbd-92a9-fc25fa1a5bc7","system_id":"levelo_inurba_marseille","lat":43.30149,"lon":5.38087,"is_reserved":false,"is_disabled":false,"rental_uris":{"android":"levelo://app?vid=1ff970a9-d231-4bbd-92a9-fc25fa1a5bc7","ios":"levelo://app?vid=1ff970a9-d231-4bbd-92a9-fc25fa1a5bc7"},"vehicle_type_id":"4","last_reported":1732011062,"current_range_meters":38000,"station_id":"ce4bgjp2rcd13ifvqbh0","pricing_plan_id":"cebpf4jnsgd1na2vs0mg"},{"bike_id":"f1888b1a-22ac-4f8d-8a07-bea9e3e6d605","system_id":"levelo_inurba_marseille","lat":43.30906,"lon":5.36849,"is_reserved":false,"is_disabled":false,"rental_uris":{"android":"levelo://app?vid=f1888b1a-22ac-4f8d-8a07-bea9e3e6d605","ios":"levelo://app?vid=f1888b1a-22ac-4f8d-8a07-bea9e3e6d605"},"vehicle_type_id":"4","last_reported":1732011062,"current_range_meters":22400,"station_id":"ce4bgn92rcd13ifvqbvg","pricing_plan_id":"cebpf4jnsgd1na2vs0mg"},{"bike_id":"08e5ab45-b337-4a2f-9261-ecef53f26147","system_id":"levelo_inurba_marseille","lat":43.30276,"lon":5.37691,"is_reserved":false,"is_disabled":false,"rental_uris":{"android":"levelo://app?vid=08e5ab45-b337-4a2f-9261-ecef53f26147","ios":"levelo://app?vid=08e5ab45-b337-4a2f-9261-ecef53f26147"},"vehicle_type_id":"4","last_reported":1732011062,"current_range_meters":11200,"station_id":"ce4bguh2rcd13ifvqcj0","pricing_plan_id":"cebpf4jnsgd1na2vs0mg"},{"bike_id":"24b2c3eb-8b9b-40a7-8aad-177c7a5a5f47","system_id":"levelo_inurba_marseille","lat":43.26934,"lon":5.38909,"is_reserved":false,"is_disabled":true,"rental_uris":{"android":"levelo://app?vid=24b2c3eb-8b9b-40a7-8aad-177c7a5a5f47","ios":"levelo://app?vid=24b2c3eb-8b9b-40a7-8aad-177c7a5a5f47"},"vehicle_type_id":"4","last_reported":1732011062,"current_range_meters":0,"station_id":"ce4bhhh2rcd13ifvqfl0","pricing_plan_id":"cebpf4jnsgd1na2vs0mg"},{"bike_id":"0c21866d-64a6-48bd-84ec-2cdb016bb953","system_id":"levelo_inurba_marseille","lat":43.24391,"lon":5.37056,"is_reserved":false,"is_disabled":true,"rental_uris":{"android":"levelo://app?vid=0c21866d-64a6-48bd-84ec-2cdb016bb953","ios":"levelo://app?vid=0c21866d-64a6-48bd-84ec-2cdb016bb953"},"vehicle_type_id":"4","last_reported":1732011062,"current_range_meters":0,"station_id":"ce4bhhh2rcd13ifvqfk0","pricing_plan_id":"cebpf4jnsgd1na2vs0mg"},{"bike_id":"6de1d38f-96e9-4031-a311-be1e58204c58","system_id":"levelo_inurba_marseille","lat":43.30143,"lon":5.3986,"is_reserved":false,"is_disabled":false,"rental_uris":{"android":"levelo://app?vid=6de1d38f-96e9-4031-a311-be1e58204c58","ios":"levelo://app?vid=6de1d38f-96e9-4031-a311-be1e58204c58"},"vehicle_type_id":"4","last_reported":1732011062,"current_range_meters":38800,"station_id":"ce4bh0h2rcd13ifvqd40","pricing_plan_id":"cebpf4jnsgd1na2vs0mg"},{"bike_id":"8d9c7874-6ecd-4ea0-a9e8-ef53041c8d83","system_id":"levelo_inurba_marseille","lat":43.31361,"lon":5.385,"is_reserved":false,"is_disabled":true,"rental_uris":{"android":"levelo://app?vid=8d9c7874-6ecd-4ea0-a9e8-ef53041c8d83","ios":"levelo://app?vid=8d9c7874-6ecd-4ea0-a9e8-ef53041c8d83"},"vehicle_type_id":"4","last_reported":1732011062,"current_range_meters":36800,"station_id":"ce4bgt92rcd13ifvqcf0","pricing_plan_id":"cebpf4jnsgd1na2vs0mg"},{"bike_id":"9b4d52a8-a22b-418c-a556-65afaca3a235","system_id":"levelo_inurba_marseille","lat":43.337444,"lon":5.374475,"is_reserved":false,"is_disabled":false,"rental_uris":{"android":"levelo://app?vid=9b4d52a8-a22b-418c-a556-65afaca3a235","ios":"levelo://app?vid=9b4d52a8-a22b-418c-a556-65afaca3a235"},"vehicle_type_id":"4","last_reported":1732011062,"current_range_meters":38000,"station_id":"","pricing_plan_id":"cebpf4jnsgd1na2vs0mg"},{"bike_id":"d11f792a-d702-4584-a3d4-51714936f580","system_id":"levelo_inurba_marseille","lat":43.30609,"lon":5.37223,"is_reserved":false,"is_disabled":false,"rental_uris":{"android":"levelo://app?vid=d11f792a-d702-4584-a3d4-51714936f580","ios":"levelo://app?vid=d11f792a-d702-4584-a3d4-51714936f580"},"vehicle_type_id":"4","last_reported":1732011062,"current_range_meters":28400,"station_id":"ce4bgqh2rcd13ifvqc4g","pricing_plan_id":"cebpf4jnsgd1na2vs0mg"},{"bike_id":"d6e54eb8-b569-4670-b12b-fc7e345ccec9","system_id":"levelo_inurba_marseille","lat":43.29729,"lon":5.37689,"is_reserved":false,"is_disabled":false,"rental_uris":{"android":"levelo://app?vid=d6e54eb8-b569-4670-b12b-fc7e345ccec9","ios":"levelo://app?vid=d6e54eb8-b569-4670-b12b-fc7e345ccec9"},"vehicle_type_id":"4","last_reported":1732011062,"current_range_meters":36800,"station_id":"ce4bgkh2rcd13ifvqbl0","pricing_plan_id":"cebpf4jnsgd1na2vs0mg"},{"bike_id":"d1b604a8-334d-4cfc-ba9c-720d8061c18c","system_id":"levelo_inurba_marseille","lat":43.30604,"lon":5.37219,"is_reserved":false,"is_disabled":false,"rental_uris":{"android":"levelo://app?vid=d1b604a8-334d-4cfc-ba9c-720d8061c18c","ios":"levelo://app?vid=d1b604a8-334d-4cfc-ba9c-720d8061c18c"},"vehicle_type_id":"4","last_reported":1732011062,"current_range_meters":24800,"station_id":"ce4bgqh2rcd13ifvqc4g","pricing_plan_id":"cebpf4jnsgd1na2vs0mg"},{"bike_id":"cd75eccf-6644-4ce9-b3ae-17a02a26ec35","system_id":"levelo_inurba_marseille","lat":43.31353,"lon":5.36716,"is_reserved":false,"is_disabled":false,"rental_uris":{"android":"levelo://app?vid=cd75eccf-6644-4ce9-b3ae-17a02a26ec35","ios":"levelo://app?vid=cd75eccf-6644-4ce9-b3ae-17a02a26ec35"},"vehicle_type_id":"4","last_reported":1732011062,"current_range_meters":39200,"station_id":"ce4bgr92rcd13ifvqc6g","pricing_plan_id":"cebpf4jnsgd1na2vs0mg"},{"bike_id":"7980e3b1-166c-4b72-ba02-214fed298b36","system_id":"levelo_inurba_marseille","lat":43.290943,"lon":5.38152,"is_reserved":false,"is_disabled":false,"rental_uris":{"android":"levelo://app?vid=7980e3b1-166c-4b72-ba02-214fed298b36","ios":"levelo://app?vid=7980e3b1-166c-4b72-ba02-214fed298b36"},"vehicle_type_id":"4","last_reported":1732011062,"current_range_meters":16800,"station_id":"ce4bh512rcd13ifvqe2g","pricing_plan_id":"cebpf4jnsgd1na2vs0mg"},{"bike_id":"518fe038-4998-4612-a13d-47f0d0362382","system_id":"levelo_inurba_marseille","lat":43.29527,"lon":5.37496,"is_reserved":false,"is_disabled":false,"rental_uris":{"android":"levelo://app?vid=518fe038-4998-4612-a13d-47f0d0362382","ios":"levelo://app?vid=518fe038-4998-4612-a13d-47f0d0362382"},"vehicle_type_id":"4","last_reported":1732011062,"current_range_meters":36800,"station_id":"ce4bgkp2rcd13ifvqbmg","pricing_plan_id":"cebpf4jnsgd1na2vs0mg"},{"bike_id":"6311c235-dfde-49a7-8e19-b672e2a906e1","system_id":"levelo_inurba_marseille","lat":43.30948,"lon":5.39042,"is_reserved":false,"is_disabled":true,"rental_uris":{"android":"levelo://app?vid=6311c235-dfde-49a7-8e19-b672e2a906e1","ios":"levelo://app?vid=6311c235-dfde-49a7-8e19-b672e2a906e1"},"vehicle_type_id":"4","last_reported":1732011062,"current_range_meters":7200,"station_id":"ce4bgup2rcd13ifvqco0","pricing_plan_id":"cebpf4jnsgd1na2vs0mg"},{"bike_id":"6f8c8a03-a3ac-433d-8ff0-b00910417904","system_id":"levelo_inurba_marseille","lat":43.24078,"lon":5.37739,"is_reserved":false,"is_disabled":false,"rental_uris":{"android":"levelo://app?vid=6f8c8a03-a3ac-433d-8ff0-b00910417904","ios":"levelo://app?vid=6f8c8a03-a3ac-433d-8ff0-b00910417904"},"vehicle_type_id":"4","last_reported":1732011062,"current_range_meters":38800,"station_id":"ce4bhnp2rcd13ifvqgvg","pricing_plan_id":"cebpf4jnsgd1na2vs0mg"},{"bike_id":"10cdeb80-91be-444c-9ab8-8730d872b06d","system_id":"levelo_inurba_marseille","lat":43.29035,"lon":5.39984,"is_reserved":false,"is_disabled":true,"rental_uris":{"android":"levelo://app?vid=10cdeb80-91be-444c-9ab8-8730d872b06d","ios":"levelo://app?vid=10cdeb80-91be-444c-9ab8-8730d872b06d"},"vehicle_type_id":"4","last_reported":1732011062,"current_range_meters":19600,"station_id":"ce4bh392rcd13ifvqdm0","pricing_plan_id":"cebpf4jnsgd1na2vs0mg"},{"bike_id":"fb3f24bb-68e3-4ddf-a369-7fa3d021de09","system_id":"levelo_inurba_marseille","lat":43.29505,"lon":5.37507,"is_reserved":false,"is_disabled":false,"rental_uris":{"android":"levelo://app?vid=fb3f24bb-68e3-4ddf-a369-7fa3d021de09","ios":"levelo://app?vid=fb3f24bb-68e3-4ddf-a369-7fa3d021de09"},"vehicle_type_id":"4","last_reported":1732011062,"current_range_meters":24800,"station_id":"ce4bgkp2rcd13ifvqbmg","pricing_plan_id":"cebpf4jnsgd1na2vs0mg"},{"bike_id":"b9f521ff-4210-48a8-86f2-695a4551af32","system_id":"levelo_inurba_marseille","lat":43.29175,"lon":5.37139,"is_reserved":false,"is_disabled":true,"rental_uris":{"android":"levelo://app?vid=b9f521ff-4210-48a8-86f2-695a4551af32","ios":"levelo://app?vid=b9f521ff-4210-48a8-86f2-695a4551af32"},"vehicle_type_id":"4","last_reported":1732011062,"current_range_meters":12800,"station_id":"ce4bha92rcd13ifvqeh0","pricing_plan_id":"cebpf4jnsgd1na2vs0mg"},{"bike_id":"0b733133-03c9-4766-961e-92b775b50bbc","system_id":"levelo_inurba_marseille","lat":43.28193,"lon":5.44267,"is_reserved":false,"is_disabled":true,"rental_uris":{"android":"levelo://app?vid=0b733133-03c9-4766-961e-92b775b50bbc","ios":"levelo://app?vid=0b733133-03c9-4766-961e-92b775b50bbc"},"vehicle_type_id":"4","last_reported":1732011062,"current_range_meters":0,"station_id":"","pricing_plan_id":"cebpf4jnsgd1na2vs0mg"},{"bike_id":"74eb70e9-b94e-49a5-9a48-368b4be133db","system_id":"levelo_inurba_marseille","lat":43.307963,"lon":5.435147,"is_reserved":false,"is_disabled":false,"rental_uris":{"android":"levelo://app?vid=74eb70e9-b94e-49a5-9a48-368b4be133db","ios":"levelo://app?vid=74eb70e9-b94e-49a5-9a48-368b4be133db"},"vehicle_type_id":"4","last_reported":1732011062,"current_range_meters":38800,"station_id":"ce4bhph2rcd13ifvqheg","pricing_plan_id":"cebpf4jnsgd1na2vs0mg"},{"bike_id":"4cba050b-d851-4ee5-8ce0-ea7f25d9c27b","system_id":"levelo_inurba_marseille","lat":43.27494,"lon":5.42451,"is_reserved":false,"is_disabled":true,"rental_uris":{"android":"levelo://app?vid=4cba050b-d851-4ee5-8ce0-ea7f25d9c27b","ios":"levelo://app?vid=4cba050b-d851-4ee5-8ce0-ea7f25d9c27b"},"vehicle_type_id":"4","last_reported":1732011062,"current_range_meters":38000,"station_id":"ce4bhn92rcd13ifvqgrg","pricing_plan_id":"cebpf4jnsgd1na2vs0mg"},{"bike_id":"c4c95739-ad31-423c-a98a-2aaceff657a2","system_id":"levelo_inurba_marseille","lat":43.30955,"lon":5.39035,"is_reserved":false,"is_disabled":true,"rental_uris":{"android":"levelo://app?vid=c4c95739-ad31-423c-a98a-2aaceff657a2","ios":"levelo://app?vid=c4c95739-ad31-423c-a98a-2aaceff657a2"},"vehicle_type_id":"4","last_reported":1732011062,"current_range_meters":12400,"station_id":"ce4bgup2rcd13ifvqco0","pricing_plan_id":"cebpf4jnsgd1na2vs0mg"},{"bike_id":"e47d7c70-2839-409d-a310-ddbca439b392","system_id":"levelo_inurba_marseille","lat":43.27492,"lon":5.42456,"is_reserved":false,"is_disabled":false,"rental_uris":{"android":"levelo://app?vid=e47d7c70-2839-409d-a310-ddbca439b392","ios":"levelo://app?vid=e47d7c70-2839-409d-a310-ddbca439b392"},"vehicle_type_id":"4","last_reported":1732011062,"current_range_meters":30400,"station_id":"ce4bhn92rcd13ifvqgrg","pricing_plan_id":"cebpf4jnsgd1na2vs0mg"},{"bike_id":"9082f350-f064-4220-a24a-7c400d315f3b","system_id":"levelo_inurba_marseille","lat":43.24078,"lon":5.37756,"is_reserved":false,"is_disabled":false,"rental_uris":{"android":"levelo://app?vid=9082f350-f064-4220-a24a-7c400d315f3b","ios":"levelo://app?vid=9082f350-f064-4220-a24a-7c400d315f3b"},"vehicle_type_id":"4","last_reported":1732011062,"current_range_meters":36800,"station_id":"ce4bhnp2rcd13ifvqgvg","pricing_plan_id":"cebpf4jnsgd1na2vs0mg"},{"bike_id":"8c0f7771-880b-4614-abc8-3e41755a48fc","system_id":"levelo_inurba_marseille","lat":43.29039,"lon":5.39973,"is_reserved":false,"is_disabled":true,"rental_uris":{"android":"levelo://app?vid=8c0f7771-880b-4614-abc8-3e41755a48fc","ios":"levelo://app?vid=8c0f7771-880b-4614-abc8-3e41755a48fc"},"vehicle_type_id":"4","last_reported":1732011062,"current_range_meters":0,"station_id":"ce4bh392rcd13ifvqdm0","pricing_plan_id":"cebpf4jnsgd1na2vs0mg"},{"bike_id":"ff78d3fd-1323-4be7-9b8e-cca0330f5550","system_id":"levelo_inurba_marseille","lat":43.30536,"lon":5.36693,"is_reserved":false,"is_disabled":false,"rental_uris":{"android":"levelo://app?vid=ff78d3fd-1323-4be7-9b8e-cca0330f5550","ios":"levelo://app?vid=ff78d3fd-1323-4be7-9b8e-cca0330f5550"},"vehicle_type_id":"4","last_reported":1732011062,"current_range_meters":34000,"station_id":"ce4bgrp2rcd13ifvqc9g","pricing_plan_id":"cebpf4jnsgd1na2vs0mg"},{"bike_id":"bf616fda-0885-4bcf-8258-bc47aa3041a1","system_id":"levelo_inurba_marseille","lat":43.32483,"lon":5.36572,"is_reserved":false,"is_disabled":false,"rental_uris":{"android":"levelo://app?vid=bf616fda-0885-4bcf-8258-bc47aa3041a1","ios":"levelo://app?vid=bf616fda-0885-4bcf-8258-bc47aa3041a1"},"vehicle_type_id":"4","last_reported":1732011062,"current_range_meters":39200,"station_id":"ce4bhs12rcd13ifvqhvg","pricing_plan_id":"cebpf4jnsgd1na2vs0mg"},{"bike_id":"f52431c3-a0fa-4826-a02b-0d71a6a0f875","system_id":"levelo_inurba_marseille","lat":43.30288,"lon":5.37695,"is_reserved":false,"is_disabled":false,"rental_uris":{"android":"levelo://app?vid=f52431c3-a0fa-4826-a02b-0d71a6a0f875","ios":"levelo://app?vid=f52431c3-a0fa-4826-a02b-0d71a6a0f875"},"vehicle_type_id":"4","last_reported":1732011062,"current_range_meters":14800,"station_id":"ce4bguh2rcd13ifvqcj0","pricing_plan_id":"cebpf4jnsgd1na2vs0mg"},{"bike_id":"71324b49-1f17-4af6-89f7-e3218a4d4e19","system_id":"levelo_inurba_marseille","lat":43.24068,"lon":5.37763,"is_reserved":false,"is_disabled":false,"rental_uris":{"android":"levelo://app?vid=71324b49-1f17-4af6-89f7-e3218a4d4e19","ios":"levelo://app?vid=71324b49-1f17-4af6-89f7-e3218a4d4e19"},"vehicle_type_id":"4","last_reported":1732011062,"current_range_meters":38800,"station_id":"ce4bhnp2rcd13ifvqgvg","pricing_plan_id":"cebpf4jnsgd1na2vs0mg"},{"bike_id":"6799c54c-4cd6-4d25-a1cb-a4067a584a72","system_id":"levelo_inurba_marseille","lat":43.33725,"lon":5.3918,"is_reserved":false,"is_disabled":false,"rental_uris":{"android":"levelo://app?vid=6799c54c-4cd6-4d25-a1cb-a4067a584a72","ios":"levelo://app?vid=6799c54c-4cd6-4d25-a1cb-a4067a584a72"},"vehicle_type_id":"4","last_reported":1732011062,"current_range_meters":13600,"station_id":"ce4bhr92rcd13ifvqhsg","pricing_plan_id":"cebpf4jnsgd1na2vs0mg"},{"bike_id":"20d43469-0b35-4110-9c40-be0f1a781705","system_id":"levelo_inurba_marseille","lat":43.26212,"lon":5.37437,"is_reserved":false,"is_disabled":false,"rental_uris":{"android":"levelo://app?vid=20d43469-0b35-4110-9c40-be0f1a781705","ios":"levelo://app?vid=20d43469-0b35-4110-9c40-be0f1a781705"},"vehicle_type_id":"4","last_reported":1732011062,"current_range_meters":28000,"station_id":"ce4bhgp2rcd13ifvqfc0","pricing_plan_id":"cebpf4jnsgd1na2vs0mg"},{"bike_id":"66010a32-01cb-4e8c-b4d4-e9efb6ebfb75","system_id":"levelo_inurba_marseille","lat":43.31226,"lon":5.36848,"is_reserved":false,"is_disabled":false,"rental_uris":{"android":"levelo://app?vid=66010a32-01cb-4e8c-b4d4-e9efb6ebfb75","ios":"levelo://app?vid=66010a32-01cb-4e8c-b4d4-e9efb6ebfb75"},"vehicle_type_id":"4","last_reported":1732011062,"current_range_meters":6800,"station_id":"ce4bgl92rcd13ifvqbq0","pricing_plan_id":"cebpf4jnsgd1na2vs0mg"},{"bike_id":"9f1dfffb-1213-4f6e-84d3-a2f0789a9ef3","system_id":"levelo_inurba_marseille","lat":43.27619,"lon":5.3587,"is_reserved":false,"is_disabled":true,"rental_uris":{"android":"levelo://app?vid=9f1dfffb-1213-4f6e-84d3-a2f0789a9ef3","ios":"levelo://app?vid=9f1dfffb-1213-4f6e-84d3-a2f0789a9ef3"},"vehicle_type_id":"4","last_reported":1732011062,"current_range_meters":0,"station_id":"","pricing_plan_id":"cebpf4jnsgd1na2vs0mg"},{"bike_id":"8dfe3502-1a44-41d0-93ec-2f8847296f61","system_id":"levelo_inurba_marseille","lat":43.29191,"lon":5.35804,"is_reserved":false,"is_disabled":true,"rental_uris":{"android":"levelo://app?vid=8dfe3502-1a44-41d0-93ec-2f8847296f61","ios":"levelo://app?vid=8dfe3502-1a44-41d0-93ec-2f8847296f61"},"vehicle_type_id":"4","last_reported":1732011062,"current_range_meters":39200,"station_id":"ce4bhb12rcd13ifvqel0","pricing_plan_id":"cebpf4jnsgd1na2vs0mg"},{"bike_id":"954054ad-77ac-46c3-a1b5-c8fc266a522b","system_id":"levelo_inurba_marseille","lat":43.31725,"lon":5.42397,"is_reserved":false,"is_disabled":false,"rental_uris":{"android":"levelo://app?vid=954054ad-77ac-46c3-a1b5-c8fc266a522b","ios":"levelo://app?vid=954054ad-77ac-46c3-a1b5-c8fc266a522b"},"vehicle_type_id":"4","last_reported":1732011062,"current_range_meters":38800,"station_id":"ce4bhp92rcd13ifvqhbg","pricing_plan_id":"cebpf4jnsgd1na2vs0mg"},{"bike_id":"d3845bde-cb25-4ef5-9dc8-d90b98cea816","system_id":"levelo_inurba_marseille","lat":43.29291,"lon":5.37454,"is_reserved":false,"is_disabled":false,"rental_uris":{"android":"levelo://app?vid=d3845bde-cb25-4ef5-9dc8-d90b98cea816","ios":"levelo://app?vid=d3845bde-cb25-4ef5-9dc8-d90b98cea816"},"vehicle_type_id":"4","last_reported":1732011062,"current_range_meters":37600,"station_id":"ce4bgi12rcd13ifvqb70","pricing_plan_id":"cebpf4jnsgd1na2vs0mg"},{"bike_id":"6e7f4885-6098-4e72-8df9-bb89b19c5bef","system_id":"levelo_inurba_marseille","lat":43.29277,"lon":5.40175,"is_reserved":false,"is_disabled":false,"rental_uris":{"android":"levelo://app?vid=6e7f4885-6098-4e72-8df9-bb89b19c5bef","ios":"levelo://app?vid=6e7f4885-6098-4e72-8df9-bb89b19c5bef"},"vehicle_type_id":"4","last_reported":1732011062,"current_range_meters":18000,"station_id":"ce4bh312rcd13ifvqdk0","pricing_plan_id":"cebpf4jnsgd1na2vs0mg"},{"bike_id":"353c6a8d-965b-4c4e-afca-3ed0328c2d2e","system_id":"levelo_inurba_marseille","lat":43.26062,"lon":5.39398,"is_reserved":false,"is_disabled":false,"rental_uris":{"android":"levelo://app?vid=353c6a8d-965b-4c4e-afca-3ed0328c2d2e","ios":"levelo://app?vid=353c6a8d-965b-4c4e-afca-3ed0328c2d2e"},"vehicle_type_id":"4","last_reported":1732011062,"current_range_meters":29600,"station_id":"ce4bhh92rcd13ifvqfj0","pricing_plan_id":"cebpf4jnsgd1na2vs0mg"},{"bike_id":"2d983866-913c-4390-ae48-1873d10c9730","system_id":"levelo_inurba_marseille","lat":43.24812,"lon":5.37457,"is_reserved":false,"is_disabled":true,"rental_uris":{"android":"levelo://app?vid=2d983866-913c-4390-ae48-1873d10c9730","ios":"levelo://app?vid=2d983866-913c-4390-ae48-1873d10c9730"},"vehicle_type_id":"4","last_reported":1732011062,"current_range_meters":16800,"station_id":"ce4bhgh2rcd13ifvqfb0","pricing_plan_id":"cebpf4jnsgd1na2vs0mg"},{"bike_id":"bab65bde-058b-478e-ae1f-b087d5eb58da","system_id":"levelo_inurba_marseille","lat":43.30465,"lon":5.379,"is_reserved":false,"is_disabled":false,"rental_uris":{"android":"levelo://app?vid=bab65bde-058b-478e-ae1f-b087d5eb58da","ios":"levelo://app?vid=bab65bde-058b-478e-ae1f-b087d5eb58da"},"vehicle_type_id":"4","last_reported":1732011062,"current_range_meters":37600,"station_id":"ce4bgup2rcd13ifvqcn0","pricing_plan_id":"cebpf4jnsgd1na2vs0mg"},{"bike_id":"363f48e9-100c-4bad-8a1d-33fb4ec06082","system_id":"levelo_inurba_marseille","lat":43.30137,"lon":5.39865,"is_reserved":false,"is_disabled":false,"rental_uris":{"android":"levelo://app?vid=363f48e9-100c-4bad-8a1d-33fb4ec06082","ios":"levelo://app?vid=363f48e9-100c-4bad-8a1d-33fb4ec06082"},"vehicle_type_id":"4","last_reported":1732011062,"current_range_meters":38000,"station_id":"ce4bh0h2rcd13ifvqd40","pricing_plan_id":"cebpf4jnsgd1na2vs0mg"},{"bike_id":"23652d48-f01f-4bbf-a184-4995db5230ae","system_id":"levelo_inurba_marseille","lat":43.30177,"lon":5.38092,"is_reserved":false,"is_disabled":false,"rental_uris":{"android":"levelo://app?vid=23652d48-f01f-4bbf-a184-4995db5230ae","ios":"levelo://app?vid=23652d48-f01f-4bbf-a184-4995db5230ae"},"vehicle_type_id":"4","last_reported":1732011062,"current_range_meters":24400,"station_id":"ce4bgjp2rcd13ifvqbh0","pricing_plan_id":"cebpf4jnsgd1na2vs0mg"},{"bike_id":"88196073-5d79-4eef-8b98-5b6c67eee457","system_id":"levelo_inurba_marseille","lat":43.31083,"lon":5.4243,"is_reserved":false,"is_disabled":true,"rental_uris":{"android":"levelo://app?vid=88196073-5d79-4eef-8b98-5b6c67eee457","ios":"levelo://app?vid=88196073-5d79-4eef-8b98-5b6c67eee457"},"vehicle_type_id":"4","last_reported":1732011062,"current_range_meters":17200,"station_id":"ce4bhp92rcd13ifvqhag","pricing_plan_id":"cebpf4jnsgd1na2vs0mg"},{"bike_id":"dc6d24e2-2777-4e90-a873-656596156e63","system_id":"levelo_inurba_marseille","lat":43.33604,"lon":5.41025,"is_reserved":false,"is_disabled":false,"rental_uris":{"android":"levelo://app?vid=dc6d24e2-2777-4e90-a873-656596156e63","ios":"levelo://app?vid=dc6d24e2-2777-4e90-a873-656596156e63"},"vehicle_type_id":"4","last_reported":1732011062,"current_range_meters":17600,"station_id":"ce4bhqh2rcd13ifvqhmg","pricing_plan_id":"cebpf4jnsgd1na2vs0mg"},{"bike_id":"4430c7fe-75c4-4750-ade5-2860cae79f17","system_id":"levelo_inurba_marseille","lat":43.23154,"lon":5.43699,"is_reserved":false,"is_disabled":false,"rental_uris":{"android":"levelo://app?vid=4430c7fe-75c4-4750-ade5-2860cae79f17","ios":"levelo://app?vid=4430c7fe-75c4-4750-ade5-2860cae79f17"},"vehicle_type_id":"4","last_reported":1732011062,"current_range_meters":39200,"station_id":"ce4bhmp2rcd13ifvqgog","pricing_plan_id":"cebpf4jnsgd1na2vs0mg"},{"bike_id":"f15110b1-9ad0-4511-9f39-4df279907618","system_id":"levelo_inurba_marseille","lat":43.29179,"lon":5.37156,"is_reserved":false,"is_disabled":false,"rental_uris":{"android":"levelo://app?vid=f15110b1-9ad0-4511-9f39-4df279907618","ios":"levelo://app?vid=f15110b1-9ad0-4511-9f39-4df279907618"},"vehicle_type_id":"4","last_reported":1732011062,"current_range_meters":30400,"station_id":"ce4bha92rcd13ifvqeh0","pricing_plan_id":"cebpf4jnsgd1na2vs0mg"},{"bike_id":"e264033a-f915-4b27-a08a-2f42cfcf052a","system_id":"levelo_inurba_marseille","lat":43.3376,"lon":5.37446,"is_reserved":false,"is_disabled":false,"rental_uris":{"android":"levelo://app?vid=e264033a-f915-4b27-a08a-2f42cfcf052a","ios":"levelo://app?vid=e264033a-f915-4b27-a08a-2f42cfcf052a"},"vehicle_type_id":"4","last_reported":1732011062,"current_range_meters":38800,"station_id":"","pricing_plan_id":"cebpf4jnsgd1na2vs0mg"},{"bike_id":"affc6a42-c87f-4640-9297-4a4ea6bc3ad3","system_id":"levelo_inurba_marseille","lat":43.29557,"lon":5.42275,"is_reserved":false,"is_disabled":false,"rental_uris":{"android":"levelo://app?vid=affc6a42-c87f-4640-9297-4a4ea6bc3ad3","ios":"levelo://app?vid=affc6a42-c87f-4640-9297-4a4ea6bc3ad3"},"vehicle_type_id":"4","last_reported":1732011062,"current_range_meters":38800,"station_id":"ce4bhph2rcd13ifvqhdg","pricing_plan_id":"cebpf4jnsgd1na2vs0mg"},{"bike_id":"4f14da66-0701-4e79-bbfa-695c95f1a9a0","system_id":"levelo_inurba_marseille","lat":43.30262,"lon":5.3959,"is_reserved":false,"is_disabled":false,"rental_uris":{"android":"levelo://app?vid=4f14da66-0701-4e79-bbfa-695c95f1a9a0","ios":"levelo://app?vid=4f14da66-0701-4e79-bbfa-695c95f1a9a0"},"vehicle_type_id":"4","last_reported":1732011062,"current_range_meters":33600,"station_id":"","pricing_plan_id":"cebpf4jnsgd1na2vs0mg"},{"bike_id":"46a26a57-a4a6-4961-908e-0c57dbac61e7","system_id":"levelo_inurba_marseille","lat":43.26493,"lon":5.39544,"is_reserved":false,"is_disabled":false,"rental_uris":{"android":"levelo://app?vid=46a26a57-a4a6-4961-908e-0c57dbac61e7","ios":"levelo://app?vid=46a26a57-a4a6-4961-908e-0c57dbac61e7"},"vehicle_type_id":"4","last_reported":1732011062,"current_range_meters":31200,"station_id":"ce4bhi12rcd13ifvqfq0","pricing_plan_id":"cebpf4jnsgd1na2vs0mg"},{"bike_id":"123862ba-68e2-48f6-a477-31ab9dae8bd5","system_id":"levelo_inurba_marseille","lat":43.337444,"lon":5.374475,"is_reserved":false,"is_disabled":true,"rental_uris":{"android":"levelo://app?vid=123862ba-68e2-48f6-a477-31ab9dae8bd5","ios":"levelo://app?vid=123862ba-68e2-48f6-a477-31ab9dae8bd5"},"vehicle_type_id":"4","last_reported":1732011062,"current_range_meters":16400,"station_id":"","pricing_plan_id":"cebpf4jnsgd1na2vs0mg"},{"bike_id":"25ddf417-8230-4dbc-b38a-2b2cb1ba9d73","system_id":"levelo_inurba_marseille","lat":43.30289,"lon":5.37689,"is_reserved":false,"is_disabled":true,"rental_uris":{"android":"levelo://app?vid=25ddf417-8230-4dbc-b38a-2b2cb1ba9d73","ios":"levelo://app?vid=25ddf417-8230-4dbc-b38a-2b2cb1ba9d73"},"vehicle_type_id":"4","last_reported":1732011062,"current_range_meters":10800,"station_id":"ce4bguh2rcd13ifvqcj0","pricing_plan_id":"cebpf4jnsgd1na2vs0mg"},{"bike_id":"8f9c2ea5-118d-4ec2-84a9-6cf6c2843205","system_id":"levelo_inurba_marseille","lat":43.262,"lon":5.37447,"is_reserved":false,"is_disabled":false,"rental_uris":{"android":"levelo://app?vid=8f9c2ea5-118d-4ec2-84a9-6cf6c2843205","ios":"levelo://app?vid=8f9c2ea5-118d-4ec2-84a9-6cf6c2843205"},"vehicle_type_id":"4","last_reported":1732011062,"current_range_meters":22400,"station_id":"ce4bhgp2rcd13ifvqfc0","pricing_plan_id":"cebpf4jnsgd1na2vs0mg"},{"bike_id":"2efb20d7-33b5-4daf-943b-210f5236bdea","system_id":"levelo_inurba_marseille","lat":43.30589,"lon":5.39353,"is_reserved":false,"is_disabled":false,"rental_uris":{"android":"levelo://app?vid=2efb20d7-33b5-4daf-943b-210f5236bdea","ios":"levelo://app?vid=2efb20d7-33b5-4daf-943b-210f5236bdea"},"vehicle_type_id":"4","last_reported":1732011062,"current_range_meters":28800,"station_id":"ce4bh0p2rcd13ifvqd80","pricing_plan_id":"cebpf4jnsgd1na2vs0mg"},{"bike_id":"c0414705-628e-4ecb-a390-6a6747dfe975","system_id":"levelo_inurba_marseille","lat":43.28972,"lon":5.37817,"is_reserved":false,"is_disabled":false,"rental_uris":{"android":"levelo://app?vid=c0414705-628e-4ecb-a390-6a6747dfe975","ios":"levelo://app?vid=c0414705-628e-4ecb-a390-6a6747dfe975"},"vehicle_type_id":"4","last_reported":1732011062,"current_range_meters":35600,"station_id":"ce4bh9p2rcd13ifvqed0","pricing_plan_id":"cebpf4jnsgd1na2vs0mg"},{"bike_id":"39e53801-da3e-4c0c-a56f-94942d8ebc7e","system_id":"levelo_inurba_marseille","lat":43.31367,"lon":5.38496,"is_reserved":false,"is_disabled":false,"rental_uris":{"android":"levelo://app?vid=39e53801-da3e-4c0c-a56f-94942d8ebc7e","ios":"levelo://app?vid=39e53801-da3e-4c0c-a56f-94942d8ebc7e"},"vehicle_type_id":"4","last_reported":1732011062,"current_range_meters":40000,"station_id":"ce4bgt92rcd13ifvqcf0","pricing_plan_id":"cebpf4jnsgd1na2vs0mg"},{"bike_id":"c9d38752-0196-4fdb-8e87-b59e624cbbe6","system_id":"levelo_inurba_marseille","lat":43.24078,"lon":5.37756,"is_reserved":false,"is_disabled":false,"rental_uris":{"android":"levelo://app?vid=c9d38752-0196-4fdb-8e87-b59e624cbbe6","ios":"levelo://app?vid=c9d38752-0196-4fdb-8e87-b59e624cbbe6"},"vehicle_type_id":"4","last_reported":1732011062,"current_range_meters":38800,"station_id":"ce4bhnp2rcd13ifvqgvg","pricing_plan_id":"cebpf4jnsgd1na2vs0mg"},{"bike_id":"f0f17b7f-3dc4-4e68-ab2f-b5ca340ead61","system_id":"levelo_inurba_marseille","lat":43.2847,"lon":5.38404,"is_reserved":false,"is_disabled":false,"rental_uris":{"android":"levelo://app?vid=f0f17b7f-3dc4-4e68-ab2f-b5ca340ead61","ios":"levelo://app?vid=f0f17b7f-3dc4-4e68-ab2f-b5ca340ead61"},"vehicle_type_id":"4","last_reported":1732011062,"current_range_meters":27600,"station_id":"ce4bh512rcd13ifvqe3g","pricing_plan_id":"cebpf4jnsgd1na2vs0mg"},{"bike_id":"3fd41a9f-ee28-4ac6-9678-0bf0033a5ead","system_id":"levelo_inurba_marseille","lat":43.30324,"lon":5.36893,"is_reserved":false,"is_disabled":false,"rental_uris":{"android":"levelo://app?vid=3fd41a9f-ee28-4ac6-9678-0bf0033a5ead","ios":"levelo://app?vid=3fd41a9f-ee28-4ac6-9678-0bf0033a5ead"},"vehicle_type_id":"4","last_reported":1732011062,"current_range_meters":30000,"station_id":"ce4bgqh2rcd13ifvqc5g","pricing_plan_id":"cebpf4jnsgd1na2vs0mg"},{"bike_id":"db0720ad-5349-46c0-a472-f76cf7d087ab","system_id":"levelo_inurba_marseille","lat":43.28109,"lon":5.3783,"is_reserved":false,"is_disabled":false,"rental_uris":{"android":"levelo://app?vid=db0720ad-5349-46c0-a472-f76cf7d087ab","ios":"levelo://app?vid=db0720ad-5349-46c0-a472-f76cf7d087ab"},"vehicle_type_id":"4","last_reported":1732011062,"current_range_meters":37600,"station_id":"ce4bha12rcd13ifvqee0","pricing_plan_id":"cebpf4jnsgd1na2vs0mg"},{"bike_id":"6163eb4e-0d90-4775-9849-f1d6b6c25581","system_id":"levelo_inurba_marseille","lat":43.29028,"lon":5.38632,"is_reserved":false,"is_disabled":false,"rental_uris":{"android":"levelo://app?vid=6163eb4e-0d90-4775-9849-f1d6b6c25581","ios":"levelo://app?vid=6163eb4e-0d90-4775-9849-f1d6b6c25581"},"vehicle_type_id":"4","last_reported":1732011062,"current_range_meters":38800,"station_id":"ce4bh4p2rcd13ifvqe0g","pricing_plan_id":"cebpf4jnsgd1na2vs0mg"},{"bike_id":"efaa20f7-d2fb-4778-9ca3-b17e9193d440","system_id":"levelo_inurba_marseille","lat":43.33728,"lon":5.39167,"is_reserved":false,"is_disabled":false,"rental_uris":{"android":"levelo://app?vid=efaa20f7-d2fb-4778-9ca3-b17e9193d440","ios":"levelo://app?vid=efaa20f7-d2fb-4778-9ca3-b17e9193d440"},"vehicle_type_id":"4","last_reported":1732011062,"current_range_meters":38800,"station_id":"ce4bhr92rcd13ifvqhsg","pricing_plan_id":"cebpf4jnsgd1na2vs0mg"},{"bike_id":"4b1089fa-7b1e-4c9e-b4cc-042056d6026b","system_id":"levelo_inurba_marseille","lat":43.30208,"lon":5.3946,"is_reserved":false,"is_disabled":true,"rental_uris":{"android":"levelo://app?vid=4b1089fa-7b1e-4c9e-b4cc-042056d6026b","ios":"levelo://app?vid=4b1089fa-7b1e-4c9e-b4cc-042056d6026b"},"vehicle_type_id":"4","last_reported":1732011062,"current_range_meters":28400,"station_id":"ce4bh0p2rcd13ifvqd70","pricing_plan_id":"cebpf4jnsgd1na2vs0mg"},{"bike_id":"1bd32540-20e1-4f47-8ed8-28012e297c26","system_id":"levelo_inurba_marseille","lat":43.32539,"lon":5.41446,"is_reserved":false,"is_disabled":false,"rental_uris":{"android":"levelo://app?vid=1bd32540-20e1-4f47-8ed8-28012e297c26","ios":"levelo://app?vid=1bd32540-20e1-4f47-8ed8-28012e297c26"},"vehicle_type_id":"4","last_reported":1732011062,"current_range_meters":20000,"station_id":"ce4bhq12rcd13ifvqhhg","pricing_plan_id":"cebpf4jnsgd1na2vs0mg"},{"bike_id":"d5d93423-8b59-49ff-a38f-f9112bad0624","system_id":"levelo_inurba_marseille","lat":43.23153,"lon":5.43707,"is_reserved":false,"is_disabled":true,"rental_uris":{"android":"levelo://app?vid=d5d93423-8b59-49ff-a38f-f9112bad0624","ios":"levelo://app?vid=d5d93423-8b59-49ff-a38f-f9112bad0624"},"vehicle_type_id":"4","last_reported":1732011062,"current_range_meters":19600,"station_id":"ce4bhmp2rcd13ifvqgog","pricing_plan_id":"cebpf4jnsgd1na2vs0mg"},{"bike_id":"e2f6a0a8-eb6e-492e-a17f-6bde58b9d768","system_id":"levelo_inurba_marseille","lat":43.29846,"lon":5.36274,"is_reserved":false,"is_disabled":false,"rental_uris":{"android":"levelo://app?vid=e2f6a0a8-eb6e-492e-a17f-6bde58b9d768","ios":"levelo://app?vid=e2f6a0a8-eb6e-492e-a17f-6bde58b9d768"},"vehicle_type_id":"4","last_reported":1732011062,"current_range_meters":37600,"station_id":"ce4bgpp2rcd13ifvqc3g","pricing_plan_id":"cebpf4jnsgd1na2vs0mg"},{"bike_id":"cda5d921-6da1-47fc-a138-92315e85d6fc","system_id":"levelo_inurba_marseille","lat":43.28074,"lon":5.39659,"is_reserved":false,"is_disabled":false,"rental_uris":{"android":"levelo://app?vid=cda5d921-6da1-47fc-a138-92315e85d6fc","ios":"levelo://app?vid=cda5d921-6da1-47fc-a138-92315e85d6fc"},"vehicle_type_id":"4","last_reported":1732011062,"current_range_meters":38400,"station_id":"ce4bho12rcd13ifvqh2g","pricing_plan_id":"cebpf4jnsgd1na2vs0mg"},{"bike_id":"fbf50743-a751-4d22-8d7f-9047b9d72787","system_id":"levelo_inurba_marseille","lat":43.33333,"lon":5.41865,"is_reserved":false,"is_disabled":false,"rental_uris":{"android":"levelo://app?vid=fbf50743-a751-4d22-8d7f-9047b9d72787","ios":"levelo://app?vid=fbf50743-a751-4d22-8d7f-9047b9d72787"},"vehicle_type_id":"4","last_reported":1732011062,"current_range_meters":28000,"station_id":"","pricing_plan_id":"cebpf4jnsgd1na2vs0mg"},{"bike_id":"3048e108-c55f-405b-8916-31638314913e","system_id":"levelo_inurba_marseille","lat":43.28271,"lon":5.35062,"is_reserved":false,"is_disabled":true,"rental_uris":{"android":"levelo://app?vid=3048e108-c55f-405b-8916-31638314913e","ios":"levelo://app?vid=3048e108-c55f-405b-8916-31638314913e"},"vehicle_type_id":"4","last_reported":1732011062,"current_range_meters":1600,"station_id":"ce4bhbp2rcd13ifvqerg","pricing_plan_id":"cebpf4jnsgd1na2vs0mg"},{"bike_id":"f05450f9-d880-476e-a80a-efdb890dd318","system_id":"levelo_inurba_marseille","lat":43.30953,"lon":5.3904,"is_reserved":false,"is_disabled":true,"rental_uris":{"android":"levelo://app?vid=f05450f9-d880-476e-a80a-efdb890dd318","ios":"levelo://app?vid=f05450f9-d880-476e-a80a-efdb890dd318"},"vehicle_type_id":"4","last_reported":1732011062,"current_range_meters":0,"station_id":"ce4bgup2rcd13ifvqco0","pricing_plan_id":"cebpf4jnsgd1na2vs0mg"},{"bike_id":"219656c0-67d1-41e4-acab-237791f01352","system_id":"levelo_inurba_marseille","lat":43.26203,"lon":5.37929,"is_reserved":false,"is_disabled":false,"rental_uris":{"android":"levelo://app?vid=219656c0-67d1-41e4-acab-237791f01352","ios":"levelo://app?vid=219656c0-67d1-41e4-acab-237791f01352"},"vehicle_type_id":"4","last_reported":1732011062,"current_range_meters":14800,"station_id":"ce4bhjp2rcd13ifvqg90","pricing_plan_id":"cebpf4jnsgd1na2vs0mg"},{"bike_id":"e724f48d-7831-4a53-bd1c-2ddf0f9a9faa","system_id":"levelo_inurba_marseille","lat":43.30324,"lon":5.36907,"is_reserved":false,"is_disabled":false,"rental_uris":{"android":"levelo://app?vid=e724f48d-7831-4a53-bd1c-2ddf0f9a9faa","ios":"levelo://app?vid=e724f48d-7831-4a53-bd1c-2ddf0f9a9faa"},"vehicle_type_id":"4","last_reported":1732011062,"current_range_meters":8400,"station_id":"ce4bgqh2rcd13ifvqc5g","pricing_plan_id":"cebpf4jnsgd1na2vs0mg"},{"bike_id":"abb6771c-4def-4b0e-bb37-1f080fc9082c","system_id":"levelo_inurba_marseille","lat":43.292725,"lon":5.368768,"is_reserved":false,"is_disabled":false,"rental_uris":{"android":"levelo://app?vid=abb6771c-4def-4b0e-bb37-1f080fc9082c","ios":"levelo://app?vid=abb6771c-4def-4b0e-bb37-1f080fc9082c"},"vehicle_type_id":"4","last_reported":1732011062,"current_range_meters":36000,"station_id":"ce4bhbp2rcd13ifvqesg","pricing_plan_id":"cebpf4jnsgd1na2vs0mg"},{"bike_id":"f0e2f4e5-f602-4a1c-ba1a-aa1d1150f28c","system_id":"levelo_inurba_marseille","lat":43.29628,"lon":5.40595,"is_reserved":false,"is_disabled":true,"rental_uris":{"android":"levelo://app?vid=f0e2f4e5-f602-4a1c-ba1a-aa1d1150f28c","ios":"levelo://app?vid=f0e2f4e5-f602-4a1c-ba1a-aa1d1150f28c"},"vehicle_type_id":"4","last_reported":1732011062,"current_range_meters":38800,"station_id":"ce4bh0h2rcd13ifvqd60","pricing_plan_id":"cebpf4jnsgd1na2vs0mg"},{"bike_id":"f9a8ee78-c6b1-4f65-9e22-f5d1574bd022","system_id":"levelo_inurba_marseille","lat":43.30956,"lon":5.39027,"is_reserved":false,"is_disabled":false,"rental_uris":{"android":"levelo://app?vid=f9a8ee78-c6b1-4f65-9e22-f5d1574bd022","ios":"levelo://app?vid=f9a8ee78-c6b1-4f65-9e22-f5d1574bd022"},"vehicle_type_id":"4","last_reported":1732011062,"current_range_meters":30000,"station_id":"ce4bgup2rcd13ifvqco0","pricing_plan_id":"cebpf4jnsgd1na2vs0mg"},{"bike_id":"628384db-a629-44bc-856e-9d5ee504cce9","system_id":"levelo_inurba_marseille","lat":43.25002,"lon":5.38925,"is_reserved":false,"is_disabled":true,"rental_uris":{"android":"levelo://app?vid=628384db-a629-44bc-856e-9d5ee504cce9","ios":"levelo://app?vid=628384db-a629-44bc-856e-9d5ee504cce9"},"vehicle_type_id":"4","last_reported":1732011062,"current_range_meters":39200,"station_id":"ce4bhgp2rcd13ifvqfd0","pricing_plan_id":"cebpf4jnsgd1na2vs0mg"},{"bike_id":"36738142-d2ff-4088-b452-61c504dfea94","system_id":"levelo_inurba_marseille","lat":43.28476,"lon":5.38408,"is_reserved":false,"is_disabled":false,"rental_uris":{"android":"levelo://app?vid=36738142-d2ff-4088-b452-61c504dfea94","ios":"levelo://app?vid=36738142-d2ff-4088-b452-61c504dfea94"},"vehicle_type_id":"4","last_reported":1732011062,"current_range_meters":30000,"station_id":"ce4bh512rcd13ifvqe3g","pricing_plan_id":"cebpf4jnsgd1na2vs0mg"},{"bike_id":"81f9fe4a-dfb3-4b4f-8aab-e637efb806dc","system_id":"levelo_inurba_marseille","lat":43.25861,"lon":5.39903,"is_reserved":false,"is_disabled":false,"rental_uris":{"android":"levelo://app?vid=81f9fe4a-dfb3-4b4f-8aab-e637efb806dc","ios":"levelo://app?vid=81f9fe4a-dfb3-4b4f-8aab-e637efb806dc"},"vehicle_type_id":"4","last_reported":1732011062,"current_range_meters":8800,"station_id":"ce4bhl92rcd13ifvqghg","pricing_plan_id":"cebpf4jnsgd1na2vs0mg"},{"bike_id":"7ea19c1c-29fb-4d24-8a2a-b83dcdd28a03","system_id":"levelo_inurba_marseille","lat":43.28418,"lon":5.374434,"is_reserved":false,"is_disabled":false,"rental_uris":{"android":"levelo://app?vid=7ea19c1c-29fb-4d24-8a2a-b83dcdd28a03","ios":"levelo://app?vid=7ea19c1c-29fb-4d24-8a2a-b83dcdd28a03"},"vehicle_type_id":"4","last_reported":1732011062,"current_range_meters":34000,"station_id":"ce4bh412rcd13ifvqds0","pricing_plan_id":"cebpf4jnsgd1na2vs0mg"},{"bike_id":"03d81797-2d3e-41fb-83d2-92ced9838d9a","system_id":"levelo_inurba_marseille","lat":43.26802,"lon":5.40266,"is_reserved":false,"is_disabled":true,"rental_uris":{"android":"levelo://app?vid=03d81797-2d3e-41fb-83d2-92ced9838d9a","ios":"levelo://app?vid=03d81797-2d3e-41fb-83d2-92ced9838d9a"},"vehicle_type_id":"4","last_reported":1732011062,"current_range_meters":28400,"station_id":"ce501612rcd8frsf0b60","pricing_plan_id":"cebpf4jnsgd1na2vs0mg"},{"bike_id":"e33a3691-cc51-4144-a57a-d483ec05c372","system_id":"levelo_inurba_marseille","lat":43.27998,"lon":5.41662,"is_reserved":false,"is_disabled":false,"rental_uris":{"android":"levelo://app?vid=e33a3691-cc51-4144-a57a-d483ec05c372","ios":"levelo://app?vid=e33a3691-cc51-4144-a57a-d483ec05c372"},"vehicle_type_id":"4","last_reported":1732011062,"current_range_meters":31200,"station_id":"ce4bho12rcd13ifvqh1g","pricing_plan_id":"cebpf4jnsgd1na2vs0mg"},{"bike_id":"7e225853-ea2f-419d-a4b1-862371673496","system_id":"levelo_inurba_marseille","lat":43.26684,"lon":5.38271,"is_reserved":false,"is_disabled":false,"rental_uris":{"android":"levelo://app?vid=7e225853-ea2f-419d-a4b1-862371673496","ios":"levelo://app?vid=7e225853-ea2f-419d-a4b1-862371673496"},"vehicle_type_id":"4","last_reported":1732011062,"current_range_meters":10000,"station_id":"ce4bhg92rcd13ifvqf90","pricing_plan_id":"cebpf4jnsgd1na2vs0mg"},{"bike_id":"209fb4d1-72f4-458c-8ec5-067e1928fc59","system_id":"levelo_inurba_marseille","lat":43.24077,"lon":5.3774,"is_reserved":false,"is_disabled":false,"rental_uris":{"android":"levelo://app?vid=209fb4d1-72f4-458c-8ec5-067e1928fc59","ios":"levelo://app?vid=209fb4d1-72f4-458c-8ec5-067e1928fc59"},"vehicle_type_id":"4","last_reported":1732011062,"current_range_meters":32000,"station_id":"ce4bhnp2rcd13ifvqgvg","pricing_plan_id":"cebpf4jnsgd1na2vs0mg"},{"bike_id":"4de41581-3b4d-48da-b235-99669862c70a","system_id":"levelo_inurba_marseille","lat":43.29617,"lon":5.37704,"is_reserved":false,"is_disabled":true,"rental_uris":{"android":"levelo://app?vid=4de41581-3b4d-48da-b235-99669862c70a","ios":"levelo://app?vid=4de41581-3b4d-48da-b235-99669862c70a"},"vehicle_type_id":"4","last_reported":1732011062,"current_range_meters":28800,"station_id":"ce4bgi92rcd13ifvqb90","pricing_plan_id":"cebpf4jnsgd1na2vs0mg"},{"bike_id":"2910f69a-6dac-4d69-a60d-e4f1b8cce200","system_id":"levelo_inurba_marseille","lat":43.27818,"lon":5.40717,"is_reserved":false,"is_disabled":true,"rental_uris":{"android":"levelo://app?vid=2910f69a-6dac-4d69-a60d-e4f1b8cce200","ios":"levelo://app?vid=2910f69a-6dac-4d69-a60d-e4f1b8cce200"},"vehicle_type_id":"4","last_reported":1732011062,"current_range_meters":20400,"station_id":"ce4bhnh2rcd13ifvqgtg","pricing_plan_id":"cebpf4jnsgd1na2vs0mg"},{"bike_id":"3d4a8a11-cd8e-4217-a130-2b8f97253671","system_id":"levelo_inurba_marseille","lat":43.30277,"lon":5.377,"is_reserved":false,"is_disabled":false,"rental_uris":{"android":"levelo://app?vid=3d4a8a11-cd8e-4217-a130-2b8f97253671","ios":"levelo://app?vid=3d4a8a11-cd8e-4217-a130-2b8f97253671"},"vehicle_type_id":"4","last_reported":1732011062,"current_range_meters":38800,"station_id":"ce4bguh2rcd13ifvqcj0","pricing_plan_id":"cebpf4jnsgd1na2vs0mg"},{"bike_id":"6742ab6d-dbbb-46c0-943b-e50d79670836","system_id":"levelo_inurba_marseille","lat":43.29753,"lon":5.36574,"is_reserved":false,"is_disabled":false,"rental_uris":{"android":"levelo://app?vid=6742ab6d-dbbb-46c0-943b-e50d79670836","ios":"levelo://app?vid=6742ab6d-dbbb-46c0-943b-e50d79670836"},"vehicle_type_id":"4","last_reported":1732011062,"current_range_meters":34000,"station_id":"ce4bgn12rcd13ifvqbt0","pricing_plan_id":"cebpf4jnsgd1na2vs0mg"},{"bike_id":"953bdd78-0286-4c0a-ba2e-04996f889638","system_id":"levelo_inurba_marseille","lat":43.2827,"lon":5.35052,"is_reserved":false,"is_disabled":false,"rental_uris":{"android":"levelo://app?vid=953bdd78-0286-4c0a-ba2e-04996f889638","ios":"levelo://app?vid=953bdd78-0286-4c0a-ba2e-04996f889638"},"vehicle_type_id":"4","last_reported":1732011062,"current_range_meters":29600,"station_id":"ce4bhbp2rcd13ifvqerg","pricing_plan_id":"cebpf4jnsgd1na2vs0mg"},{"bike_id":"85782696-36f2-4c33-98b6-2d88f8670e2c","system_id":"levelo_inurba_marseille","lat":43.31081,"lon":5.42429,"is_reserved":false,"is_disabled":false,"rental_uris":{"android":"levelo://app?vid=85782696-36f2-4c33-98b6-2d88f8670e2c","ios":"levelo://app?vid=85782696-36f2-4c33-98b6-2d88f8670e2c"},"vehicle_type_id":"4","last_reported":1732011062,"current_range_meters":36400,"station_id":"ce4bhp92rcd13ifvqhag","pricing_plan_id":"cebpf4jnsgd1na2vs0mg"},{"bike_id":"ae7e4626-b855-42c3-8deb-f7819a519ff2","system_id":"levelo_inurba_marseille","lat":43.30139,"lon":5.3742,"is_reserved":false,"is_disabled":false,"rental_uris":{"android":"levelo://app?vid=ae7e4626-b855-42c3-8deb-f7819a519ff2","ios":"levelo://app?vid=ae7e4626-b855-42c3-8deb-f7819a519ff2"},"vehicle_type_id":"4","last_reported":1732011062,"current_range_meters":27200,"station_id":"ce4bgs92rcd13ifvqcc0","pricing_plan_id":"cebpf4jnsgd1na2vs0mg"},{"bike_id":"408d6180-b8cc-47cb-8280-9835657424af","system_id":"levelo_inurba_marseille","lat":43.30154,"lon":5.38085,"is_reserved":false,"is_disabled":false,"rental_uris":{"android":"levelo://app?vid=408d6180-b8cc-47cb-8280-9835657424af","ios":"levelo://app?vid=408d6180-b8cc-47cb-8280-9835657424af"},"vehicle_type_id":"4","last_reported":1732011062,"current_range_meters":36800,"station_id":"ce4bgjp2rcd13ifvqbh0","pricing_plan_id":"cebpf4jnsgd1na2vs0mg"},{"bike_id":"7a1d8a89-2a7e-4939-ab1a-d9cdb7e81301","system_id":"levelo_inurba_marseille","lat":43.29867,"lon":5.36719,"is_reserved":false,"is_disabled":true,"rental_uris":{"android":"levelo://app?vid=7a1d8a89-2a7e-4939-ab1a-d9cdb7e81301","ios":"levelo://app?vid=7a1d8a89-2a7e-4939-ab1a-d9cdb7e81301"},"vehicle_type_id":"4","last_reported":1732011062,"current_range_meters":0,"station_id":"","pricing_plan_id":"cebpf4jnsgd1na2vs0mg"},{"bike_id":"c46435fb-ac45-4251-8f82-c93eda02ef2f","system_id":"levelo_inurba_marseille","lat":43.31077,"lon":5.42432,"is_reserved":false,"is_disabled":false,"rental_uris":{"android":"levelo://app?vid=c46435fb-ac45-4251-8f82-c93eda02ef2f","ios":"levelo://app?vid=c46435fb-ac45-4251-8f82-c93eda02ef2f"},"vehicle_type_id":"4","last_reported":1732011062,"current_range_meters":3200,"station_id":"ce4bhp92rcd13ifvqhag","pricing_plan_id":"cebpf4jnsgd1na2vs0mg"},{"bike_id":"84add0bd-cb10-4dcb-82e1-3da91d21fda0","system_id":"levelo_inurba_marseille","lat":43.29899,"lon":5.43668,"is_reserved":false,"is_disabled":false,"rental_uris":{"android":"levelo://app?vid=84add0bd-cb10-4dcb-82e1-3da91d21fda0","ios":"levelo://app?vid=84add0bd-cb10-4dcb-82e1-3da91d21fda0"},"vehicle_type_id":"4","last_reported":1732011062,"current_range_meters":36800,"station_id":"ce4bhpp2rcd13ifvqhfg","pricing_plan_id":"cebpf4jnsgd1na2vs0mg"},{"bike_id":"00a36eb1-c31f-4b0d-85b0-eb7aa11e8e55","system_id":"levelo_inurba_marseille","lat":43.29046,"lon":5.39956,"is_reserved":false,"is_disabled":true,"rental_uris":{"android":"levelo://app?vid=00a36eb1-c31f-4b0d-85b0-eb7aa11e8e55","ios":"levelo://app?vid=00a36eb1-c31f-4b0d-85b0-eb7aa11e8e55"},"vehicle_type_id":"4","last_reported":1732011062,"current_range_meters":0,"station_id":"ce4bh392rcd13ifvqdm0","pricing_plan_id":"cebpf4jnsgd1na2vs0mg"},{"bike_id":"ac9d2f49-8491-4f64-8df3-f15847cdf648","system_id":"levelo_inurba_marseille","lat":43.29913,"lon":5.38141,"is_reserved":false,"is_disabled":false,"rental_uris":{"android":"levelo://app?vid=ac9d2f49-8491-4f64-8df3-f15847cdf648","ios":"levelo://app?vid=ac9d2f49-8491-4f64-8df3-f15847cdf648"},"vehicle_type_id":"4","last_reported":1732011062,"current_range_meters":3600,"station_id":"ce4bgj12rcd13ifvqbc0","pricing_plan_id":"cebpf4jnsgd1na2vs0mg"},{"bike_id":"e81e7989-3f84-4e11-b6ae-d08ecc21bdf5","system_id":"levelo_inurba_marseille","lat":43.25112,"lon":5.40321,"is_reserved":false,"is_disabled":false,"rental_uris":{"android":"levelo://app?vid=e81e7989-3f84-4e11-b6ae-d08ecc21bdf5","ios":"levelo://app?vid=e81e7989-3f84-4e11-b6ae-d08ecc21bdf5"},"vehicle_type_id":"4","last_reported":1732011062,"current_range_meters":31200,"station_id":"ce4bhlh2rcd13ifvqgig","pricing_plan_id":"cebpf4jnsgd1na2vs0mg"},{"bike_id":"e7b2a60d-cab5-4f35-b015-81a6810f7c4b","system_id":"levelo_inurba_marseille","lat":43.29026,"lon":5.37571,"is_reserved":false,"is_disabled":false,"rental_uris":{"android":"levelo://app?vid=e7b2a60d-cab5-4f35-b015-81a6810f7c4b","ios":"levelo://app?vid=e7b2a60d-cab5-4f35-b015-81a6810f7c4b"},"vehicle_type_id":"4","last_reported":1732011062,"current_range_meters":9600,"station_id":"ce4bh692rcd13ifvqe90","pricing_plan_id":"cebpf4jnsgd1na2vs0mg"},{"bike_id":"d482b473-8011-43d1-9203-ef428f8af553","system_id":"levelo_inurba_marseille","lat":43.2955,"lon":5.42285,"is_reserved":false,"is_disabled":false,"rental_uris":{"android":"levelo://app?vid=d482b473-8011-43d1-9203-ef428f8af553","ios":"levelo://app?vid=d482b473-8011-43d1-9203-ef428f8af553"},"vehicle_type_id":"4","last_reported":1732011062,"current_range_meters":16400,"station_id":"ce4bhph2rcd13ifvqhdg","pricing_plan_id":"cebpf4jnsgd1na2vs0mg"},{"bike_id":"baed21b4-b397-414d-8b75-d87ea9b6a0ac","system_id":"levelo_inurba_marseille","lat":43.28106,"lon":5.37844,"is_reserved":false,"is_disabled":false,"rental_uris":{"android":"levelo://app?vid=baed21b4-b397-414d-8b75-d87ea9b6a0ac","ios":"levelo://app?vid=baed21b4-b397-414d-8b75-d87ea9b6a0ac"},"vehicle_type_id":"4","last_reported":1732011062,"current_range_meters":38000,"station_id":"ce4bha12rcd13ifvqee0","pricing_plan_id":"cebpf4jnsgd1na2vs0mg"},{"bike_id":"39fe7f4c-753f-4ff2-8898-a7e615c9b6d8","system_id":"levelo_inurba_marseille","lat":43.28615,"lon":5.35107,"is_reserved":false,"is_disabled":false,"rental_uris":{"android":"levelo://app?vid=39fe7f4c-753f-4ff2-8898-a7e615c9b6d8","ios":"levelo://app?vid=39fe7f4c-753f-4ff2-8898-a7e615c9b6d8"},"vehicle_type_id":"4","last_reported":1732011062,"current_range_meters":6400,"station_id":"ce4bhch2rcd13ifvqeug","pricing_plan_id":"cebpf4jnsgd1na2vs0mg"},{"bike_id":"cde5eb04-35f5-4971-aec4-8004f9b2dcd9","system_id":"levelo_inurba_marseille","lat":43.2827,"lon":5.35072,"is_reserved":false,"is_disabled":true,"rental_uris":{"android":"levelo://app?vid=cde5eb04-35f5-4971-aec4-8004f9b2dcd9","ios":"levelo://app?vid=cde5eb04-35f5-4971-aec4-8004f9b2dcd9"},"vehicle_type_id":"4","last_reported":1732011062,"current_range_meters":34000,"station_id":"ce4bhbp2rcd13ifvqerg","pricing_plan_id":"cebpf4jnsgd1na2vs0mg"},{"bike_id":"d94562ce-5e3b-4d15-a704-2e7d52662514","system_id":"levelo_inurba_marseille","lat":43.29305,"lon":5.37165,"is_reserved":false,"is_disabled":false,"rental_uris":{"android":"levelo://app?vid=d94562ce-5e3b-4d15-a704-2e7d52662514","ios":"levelo://app?vid=d94562ce-5e3b-4d15-a704-2e7d52662514"},"vehicle_type_id":"4","last_reported":1732011062,"current_range_meters":22000,"station_id":"ce4bgh92rcd13ifvqb40","pricing_plan_id":"cebpf4jnsgd1na2vs0mg"},{"bike_id":"c285c11f-9b36-4bc2-b2d9-efcee1febd1b","system_id":"levelo_inurba_marseille","lat":43.34144,"lon":5.40903,"is_reserved":false,"is_disabled":false,"rental_uris":{"android":"levelo://app?vid=c285c11f-9b36-4bc2-b2d9-efcee1febd1b","ios":"levelo://app?vid=c285c11f-9b36-4bc2-b2d9-efcee1febd1b"},"vehicle_type_id":"4","last_reported":1732011062,"current_range_meters":16400,"station_id":"ce4bhqh2rcd13ifvqhlg","pricing_plan_id":"cebpf4jnsgd1na2vs0mg"},{"bike_id":"810c9fc0-4aef-4f2b-830e-02a29828d02c","system_id":"levelo_inurba_marseille","lat":43.28967,"lon":5.37833,"is_reserved":false,"is_disabled":false,"rental_uris":{"android":"levelo://app?vid=810c9fc0-4aef-4f2b-830e-02a29828d02c","ios":"levelo://app?vid=810c9fc0-4aef-4f2b-830e-02a29828d02c"},"vehicle_type_id":"4","last_reported":1732011062,"current_range_meters":17200,"station_id":"ce4bh9p2rcd13ifvqed0","pricing_plan_id":"cebpf4jnsgd1na2vs0mg"},{"bike_id":"6ebbdc8a-f3a1-40d2-968e-7409574b7edc","system_id":"levelo_inurba_marseille","lat":43.325443,"lon":5.414391,"is_reserved":false,"is_disabled":false,"rental_uris":{"android":"levelo://app?vid=6ebbdc8a-f3a1-40d2-968e-7409574b7edc","ios":"levelo://app?vid=6ebbdc8a-f3a1-40d2-968e-7409574b7edc"},"vehicle_type_id":"4","last_reported":1732011062,"current_range_meters":38800,"station_id":"ce4bhq12rcd13ifvqhhg","pricing_plan_id":"cebpf4jnsgd1na2vs0mg"},{"bike_id":"0e2bbe61-8f31-47ba-b582-6a82d0b052e0","system_id":"levelo_inurba_marseille","lat":43.290176,"lon":5.383474,"is_reserved":false,"is_disabled":false,"rental_uris":{"android":"levelo://app?vid=0e2bbe61-8f31-47ba-b582-6a82d0b052e0","ios":"levelo://app?vid=0e2bbe61-8f31-47ba-b582-6a82d0b052e0"},"vehicle_type_id":"4","last_reported":1732011062,"current_range_meters":29600,"station_id":"ce4bgip2rcd13ifvqbb0","pricing_plan_id":"cebpf4jnsgd1na2vs0mg"},{"bike_id":"bff402ee-970d-46d4-8d25-a5216fd3bac3","system_id":"levelo_inurba_marseille","lat":43.25016,"lon":5.38917,"is_reserved":false,"is_disabled":true,"rental_uris":{"android":"levelo://app?vid=bff402ee-970d-46d4-8d25-a5216fd3bac3","ios":"levelo://app?vid=bff402ee-970d-46d4-8d25-a5216fd3bac3"},"vehicle_type_id":"4","last_reported":1732011062,"current_range_meters":4800,"station_id":"ce4bhgp2rcd13ifvqfd0","pricing_plan_id":"cebpf4jnsgd1na2vs0mg"},{"bike_id":"c3bc0f64-f384-48a7-9517-04f95522a7e3","system_id":"levelo_inurba_marseille","lat":43.318242,"lon":5.37611,"is_reserved":false,"is_disabled":true,"rental_uris":{"android":"levelo://app?vid=c3bc0f64-f384-48a7-9517-04f95522a7e3","ios":"levelo://app?vid=c3bc0f64-f384-48a7-9517-04f95522a7e3"},"vehicle_type_id":"4","last_reported":1732011062,"current_range_meters":16000,"station_id":"","pricing_plan_id":"cebpf4jnsgd1na2vs0mg"},{"bike_id":"6d976d7b-38bf-4a66-a0b3-32506a02b80d","system_id":"levelo_inurba_marseille","lat":43.29167,"lon":5.37168,"is_reserved":false,"is_disabled":false,"rental_uris":{"android":"levelo://app?vid=6d976d7b-38bf-4a66-a0b3-32506a02b80d","ios":"levelo://app?vid=6d976d7b-38bf-4a66-a0b3-32506a02b80d"},"vehicle_type_id":"4","last_reported":1732011062,"current_range_meters":32000,"station_id":"ce4bha92rcd13ifvqeh0","pricing_plan_id":"cebpf4jnsgd1na2vs0mg"},{"bike_id":"c3adda95-8823-44a7-ab6f-ce72306eabe1","system_id":"levelo_inurba_marseille","lat":43.27427,"lon":5.39406,"is_reserved":false,"is_disabled":true,"rental_uris":{"android":"levelo://app?vid=c3adda95-8823-44a7-ab6f-ce72306eabe1","ios":"levelo://app?vid=c3adda95-8823-44a7-ab6f-ce72306eabe1"},"vehicle_type_id":"4","last_reported":1732011062,"current_range_meters":37600,"station_id":"ce4bhdp2rcd13ifvqf20","pricing_plan_id":"cebpf4jnsgd1na2vs0mg"},{"bike_id":"0f7d3f82-6b41-4aca-b79e-c6aaeac6d97f","system_id":"levelo_inurba_marseille","lat":43.30545,"lon":5.36689,"is_reserved":false,"is_disabled":true,"rental_uris":{"android":"levelo://app?vid=0f7d3f82-6b41-4aca-b79e-c6aaeac6d97f","ios":"levelo://app?vid=0f7d3f82-6b41-4aca-b79e-c6aaeac6d97f"},"vehicle_type_id":"4","last_reported":1732011062,"current_range_meters":39200,"station_id":"ce4bgrp2rcd13ifvqc9g","pricing_plan_id":"cebpf4jnsgd1na2vs0mg"},{"bike_id":"7e9220d9-e2d6-4886-aaac-9b9710a81880","system_id":"levelo_inurba_marseille","lat":43.29527,"lon":5.37504,"is_reserved":false,"is_disabled":false,"rental_uris":{"android":"levelo://app?vid=7e9220d9-e2d6-4886-aaac-9b9710a81880","ios":"levelo://app?vid=7e9220d9-e2d6-4886-aaac-9b9710a81880"},"vehicle_type_id":"4","last_reported":1732011062,"current_range_meters":22800,"station_id":"ce4bgkp2rcd13ifvqbmg","pricing_plan_id":"cebpf4jnsgd1na2vs0mg"},{"bike_id":"76d06047-6022-43bd-b1fc-c4ae5ef0c8b9","system_id":"levelo_inurba_marseille","lat":43.30281,"lon":5.37699,"is_reserved":false,"is_disabled":false,"rental_uris":{"android":"levelo://app?vid=76d06047-6022-43bd-b1fc-c4ae5ef0c8b9","ios":"levelo://app?vid=76d06047-6022-43bd-b1fc-c4ae5ef0c8b9"},"vehicle_type_id":"4","last_reported":1732011062,"current_range_meters":37600,"station_id":"ce4bguh2rcd13ifvqcj0","pricing_plan_id":"cebpf4jnsgd1na2vs0mg"},{"bike_id":"02c4176e-f331-4d90-892e-a79efbd5b7c8","system_id":"levelo_inurba_marseille","lat":43.24077,"lon":5.37755,"is_reserved":false,"is_disabled":false,"rental_uris":{"android":"levelo://app?vid=02c4176e-f331-4d90-892e-a79efbd5b7c8","ios":"levelo://app?vid=02c4176e-f331-4d90-892e-a79efbd5b7c8"},"vehicle_type_id":"4","last_reported":1732011062,"current_range_meters":38800,"station_id":"ce4bhnp2rcd13ifvqgvg","pricing_plan_id":"cebpf4jnsgd1na2vs0mg"},{"bike_id":"729f081d-5184-4f31-801f-2b41f23e3a17","system_id":"levelo_inurba_marseille","lat":43.33112,"lon":5.3821,"is_reserved":false,"is_disabled":true,"rental_uris":{"android":"levelo://app?vid=729f081d-5184-4f31-801f-2b41f23e3a17","ios":"levelo://app?vid=729f081d-5184-4f31-801f-2b41f23e3a17"},"vehicle_type_id":"4","last_reported":1732011062,"current_range_meters":35200,"station_id":"","pricing_plan_id":"cebpf4jnsgd1na2vs0mg"},{"bike_id":"638f8d00-ceb3-4062-9f5f-ca647d7df496","system_id":"levelo_inurba_marseille","lat":43.27422,"lon":5.3941,"is_reserved":false,"is_disabled":true,"rental_uris":{"android":"levelo://app?vid=638f8d00-ceb3-4062-9f5f-ca647d7df496","ios":"levelo://app?vid=638f8d00-ceb3-4062-9f5f-ca647d7df496"},"vehicle_type_id":"4","last_reported":1732011062,"current_range_meters":28400,"station_id":"ce4bhdp2rcd13ifvqf20","pricing_plan_id":"cebpf4jnsgd1na2vs0mg"},{"bike_id":"25d784e2-bad5-4648-8abc-849445b4c4c8","system_id":"levelo_inurba_marseille","lat":43.24082,"lon":5.37746,"is_reserved":false,"is_disabled":false,"rental_uris":{"android":"levelo://app?vid=25d784e2-bad5-4648-8abc-849445b4c4c8","ios":"levelo://app?vid=25d784e2-bad5-4648-8abc-849445b4c4c8"},"vehicle_type_id":"4","last_reported":1732011062,"current_range_meters":38800,"station_id":"ce4bhnp2rcd13ifvqgvg","pricing_plan_id":"cebpf4jnsgd1na2vs0mg"},{"bike_id":"4a4eab77-725b-412c-9743-c096390a45fd","system_id":"levelo_inurba_marseille","lat":43.280321,"lon":5.369518,"is_reserved":false,"is_disabled":false,"rental_uris":{"android":"levelo://app?vid=4a4eab77-725b-412c-9743-c096390a45fd","ios":"levelo://app?vid=4a4eab77-725b-412c-9743-c096390a45fd"},"vehicle_type_id":"4","last_reported":1732011062,"current_range_meters":37600,"station_id":"ce4bha12rcd13ifvqef0","pricing_plan_id":"cebpf4jnsgd1na2vs0mg"},{"bike_id":"fc86b385-912d-4c41-84c7-adb8e8df3dc0","system_id":"levelo_inurba_marseille","lat":43.29557,"lon":5.42286,"is_reserved":false,"is_disabled":false,"rental_uris":{"android":"levelo://app?vid=fc86b385-912d-4c41-84c7-adb8e8df3dc0","ios":"levelo://app?vid=fc86b385-912d-4c41-84c7-adb8e8df3dc0"},"vehicle_type_id":"4","last_reported":1732011062,"current_range_meters":18000,"station_id":"ce4bhph2rcd13ifvqhdg","pricing_plan_id":"cebpf4jnsgd1na2vs0mg"},{"bike_id":"fe329a77-e269-4bcf-a39a-93ffd701de4f","system_id":"levelo_inurba_marseille","lat":43.31227,"lon":5.36849,"is_reserved":false,"is_disabled":false,"rental_uris":{"android":"levelo://app?vid=fe329a77-e269-4bcf-a39a-93ffd701de4f","ios":"levelo://app?vid=fe329a77-e269-4bcf-a39a-93ffd701de4f"},"vehicle_type_id":"4","last_reported":1732011062,"current_range_meters":16800,"station_id":"ce4bgl92rcd13ifvqbq0","pricing_plan_id":"cebpf4jnsgd1na2vs0mg"},{"bike_id":"f9f9dba0-efee-416d-9533-78f43fc97c56","system_id":"levelo_inurba_marseille","lat":43.30323,"lon":5.36905,"is_reserved":false,"is_disabled":false,"rental_uris":{"android":"levelo://app?vid=f9f9dba0-efee-416d-9533-78f43fc97c56","ios":"levelo://app?vid=f9f9dba0-efee-416d-9533-78f43fc97c56"},"vehicle_type_id":"4","last_reported":1732011062,"current_range_meters":32800,"station_id":"ce4bgqh2rcd13ifvqc5g","pricing_plan_id":"cebpf4jnsgd1na2vs0mg"},{"bike_id":"3d25d818-80cf-415a-996a-afc2d01ce97b","system_id":"levelo_inurba_marseille","lat":43.27792,"lon":5.40721,"is_reserved":false,"is_disabled":false,"rental_uris":{"android":"levelo://app?vid=3d25d818-80cf-415a-996a-afc2d01ce97b","ios":"levelo://app?vid=3d25d818-80cf-415a-996a-afc2d01ce97b"},"vehicle_type_id":"4","last_reported":1732011062,"current_range_meters":16800,"station_id":"ce4bhnh2rcd13ifvqgtg","pricing_plan_id":"cebpf4jnsgd1na2vs0mg"},{"bike_id":"2b00ab0c-c098-436f-bcb8-982d84d2f87f","system_id":"levelo_inurba_marseille","lat":43.26486,"lon":5.3955,"is_reserved":false,"is_disabled":false,"rental_uris":{"android":"levelo://app?vid=2b00ab0c-c098-436f-bcb8-982d84d2f87f","ios":"levelo://app?vid=2b00ab0c-c098-436f-bcb8-982d84d2f87f"},"vehicle_type_id":"4","last_reported":1732011062,"current_range_meters":24000,"station_id":"ce4bhi12rcd13ifvqfq0","pricing_plan_id":"cebpf4jnsgd1na2vs0mg"},{"bike_id":"64ed23a0-3533-4dca-8fb9-650aaf2586c1","system_id":"levelo_inurba_marseille","lat":43.31716,"lon":5.42395,"is_reserved":false,"is_disabled":false,"rental_uris":{"android":"levelo://app?vid=64ed23a0-3533-4dca-8fb9-650aaf2586c1","ios":"levelo://app?vid=64ed23a0-3533-4dca-8fb9-650aaf2586c1"},