{"last_updated":1739552852,"ttl":60,"version":"2.2","data":{"bikes":[{"bike_id":"07129200-6445-4031-903d-a1861e87bf23","system_id":"levelo_inurba_marseille","lat":43.29064,"lon":5.37188,"is_reserved":false,"is_disabled":false,"rental_uris":{"android":"levelo://app?vid=07129200-6445-4031-903d-a1861e87bf23","ios":"levelo://app?vid=07129200-6445-4031-903d-a1861e87bf23"},"vehicle_type_id":"4","last_reported":1739552852,"current_range_meters":22400,"station_id":"ce4bh5p2rcd13ifvqe4g","pricing_plan_id":"cebpf4jnsgd1na2vs0mg"},{"bike_id":"97e0581b-d753-422a-8ea1-362fb0b99f1e","system_id":"levelo_inurba_marseille","lat":43.27809,"lon":5.40708,"is_reserved":false,"is_disabled":false,"rental_uris":{"android":"levelo://app?vid=97e0581b-d753-422a-8ea1-362fb0b99f1e","ios":"levelo://app?vid=97e0581b-d753-422a-8ea1-362fb0b99f1e"},"vehicle_type_id":"4","last_reported":1739552852,"current_range_meters":30800,"station_id":"ce4bhnh2rcd13ifvqgtg","pricing_plan_id":"cebpf4jnsgd1na2vs0mg"},{"bike_id":"4b856b37-c266-4ed6-a192-579c911eeb60","system_id":"levelo_inurba_marseille","lat":43.29793,"lon":5.37107,"is_reserved":false,"is_disabled":false,"rental_uris":{"android":"levelo://app?vid=4b856b37-c266-4ed6-a192-579c911eeb60","ios":"levelo://app?vid=4b856b37-c266-4ed6-a192-579c911eeb60"},"vehicle_type_id":"4","last_reported":1739552852,"current_range_meters":30000,"station_id":"ce4bgop2rcd13ifvqc1g","pricing_plan_id":"cebpf4jnsgd1na2vs0mg"},{"bike_id":"719a875a-0651-4af4-9cdb-36248ea3b24a","system_id":"levelo_inurba_marseille","lat":43.28349,"lon":5.38978,"is_reserved":false,"is_disabled":false,"rental_uris":{"android":"levelo://app?vid=719a875a-0651-4af4-9cdb-36248ea3b24a","ios":"levelo://app?vid=719a875a-0651-4af4-9cdb-36248ea3b24a"},"vehicle_type_id":"4","last_reported":1739552852,"current_range_meters":16000,"station_id":"","pricing_plan_id":"cebpf4jnsgd1na2vs0mg"},{"bike_id":"fcf6e3bc-ce4e-42d8-a10d-15bfa74cd183","system_id":"levelo_inurba_marseille","lat":43.29024,"lon":5.38642,"is_reserved":false,"is_disabled":false,"rental_uris":{"android":"levelo://app?vid=fcf6e3bc-ce4e-42d8-a10d-15bfa74cd183","ios":"levelo://app?vid=fcf6e3bc-ce4e-42d8-a10d-15bfa74cd183"},"vehicle_type_id":"4","last_reported":1739552852,"current_range_meters":38800,"station_id":"ce4bh4p2rcd13ifvqe0g","pricing_plan_id":"cebpf4jnsgd1na2vs0mg"},{"bike_id":"b969a61c-64b2-4795-91b7-063788c654e6","system_id":"levelo_inurba_marseille","lat":43.30626,"lon":5.40086,"is_reserved":false,"is_disabled":false,"rental_uris":{"android":"levelo://app?vid=b969a61c-64b2-4795-91b7-063788c654e6","ios":"levelo://app?vid=b969a61c-64b2-4795-91b7-063788c654e6"},"vehicle_type_id":"4","last_reported":1739552852,"current_range_meters":18000,"station_id":"ce4bh112rcd13ifvqda0","pricing_plan_id":"cebpf4jnsgd1na2vs0mg"},{"bike_id":"aeeb603c-9e21-471f-a3b4-471a46d5c228","system_id":"levelo_inurba_marseille","lat":43.24158,"lon":5.36399,"is_reserved":false,"is_disabled":false,"rental_uris":{"android":"levelo://app?vid=aeeb603c-9e21-471f-a3b4-471a46d5c228","ios":"levelo://app?vid=aeeb603c-9e21-471f-a3b4-471a46d5c228"},"vehicle_type_id":"4","last_reported":1739552852,"current_range_meters":20800,"station_id":"cpo36qri1sfpv3e86is0","pricing_plan_id":"cebpf4jnsgd1na2vs0mg"},{"bike_id":"1d4165b9-e8af-42e7-8e88-54a0f84b4f26","system_id":"levelo_inurba_marseille","lat":43.231927,"lon":5.399707,"is_reserved":false,"is_disabled":false,"rental_uris":{"android":"levelo://app?vid=1d4165b9-e8af-42e7-8e88-54a0f84b4f26","ios":"levelo://app?vid=1d4165b9-e8af-42e7-8e88-54a0f84b4f26"},"vehicle_type_id":"4","last_reported":1739552852,"current_range_meters":29600,"station_id":"ce4bhn12rcd13ifvqgqg","pricing_plan_id":"cebpf4jnsgd1na2vs0mg"},{"bike_id":"c1e76274-801b-4893-b793-e635178d8b86","system_id":"levelo_inurba_marseille","lat":43.23963,"lon":5.36633,"is_reserved":false,"is_disabled":true,"rental_uris":{"android":"levelo://app?vid=c1e76274-801b-4893-b793-e635178d8b86","ios":"levelo://app?vid=c1e76274-801b-4893-b793-e635178d8b86"},"vehicle_type_id":"4","last_reported":1739552852,"current_range_meters":800,"station_id":"ce4bhi12rcd13ifvqfp0","pricing_plan_id":"cebpf4jnsgd1na2vs0mg"},{"bike_id":"ae878cc4-84be-4f66-b7f1-72c49f520e78","system_id":"levelo_inurba_marseille","lat":43.29364,"lon":5.37838,"is_reserved":false,"is_disabled":false,"rental_uris":{"android":"levelo://app?vid=ae878cc4-84be-4f66-b7f1-72c49f520e78","ios":"levelo://app?vid=ae878cc4-84be-4f66-b7f1-72c49f520e78"},"vehicle_type_id":"4","last_reported":1739552852,"current_range_meters":38800,"station_id":"ce4bgjh2rcd13ifvqbf0","pricing_plan_id":"cebpf4jnsgd1na2vs0mg"},{"bike_id":"3d55dfbc-79dc-4a16-8c46-cf49fec8982e","system_id":"levelo_inurba_marseille","lat":43.24391,"lon":5.37056,"is_reserved":false,"is_disabled":false,"rental_uris":{"android":"levelo://app?vid=3d55dfbc-79dc-4a16-8c46-cf49fec8982e","ios":"levelo://app?vid=3d55dfbc-79dc-4a16-8c46-cf49fec8982e"},"vehicle_type_id":"4","last_reported":1739552852,"current_range_meters":38800,"station_id":"ce4bhhh2rcd13ifvqfk0","pricing_plan_id":"cebpf4jnsgd1na2vs0mg"},{"bike_id":"3014b1d8-517c-4cb4-a431-215e5921ec5f","system_id":"levelo_inurba_marseille","lat":43.31178,"lon":5.38732,"is_reserved":false,"is_disabled":false,"rental_uris":{"android":"levelo://app?vid=3014b1d8-517c-4cb4-a431-215e5921ec5f","ios":"levelo://app?vid=3014b1d8-517c-4cb4-a431-215e5921ec5f"},"vehicle_type_id":"4","last_reported":1739552852,"current_range_meters":29600,"station_id":"ce4bgv12rcd13ifvqcp0","pricing_plan_id":"cebpf4jnsgd1na2vs0mg"},{"bike_id":"92d6d43e-5f62-4eaf-9585-016f2c6050bb","system_id":"levelo_inurba_marseille","lat":43.2998,"lon":5.37177,"is_reserved":false,"is_disabled":false,"rental_uris":{"android":"levelo://app?vid=92d6d43e-5f62-4eaf-9585-016f2c6050bb","ios":"levelo://app?vid=92d6d43e-5f62-4eaf-9585-016f2c6050bb"},"vehicle_type_id":"4","last_reported":1739552852,"current_range_meters":16800,"station_id":"ce4bgr92rcd13ifvqc7g","pricing_plan_id":"cebpf4jnsgd1na2vs0mg"},{"bike_id":"c74f8124-73dc-4bd8-a98e-9fa42c510bc4","system_id":"levelo_inurba_marseille","lat":43.23187,"lon":5.4,"is_reserved":false,"is_disabled":false,"rental_uris":{"android":"levelo://app?vid=c74f8124-73dc-4bd8-a98e-9fa42c510bc4","ios":"levelo://app?vid=c74f8124-73dc-4bd8-a98e-9fa42c510bc4"},"vehicle_type_id":"4","last_reported":1739552852,"current_range_meters":28400,"station_id":"ce4bhn12rcd13ifvqgqg","pricing_plan_id":"cebpf4jnsgd1na2vs0mg"},{"bike_id":"eace11fc-366d-49db-ab9f-2f957d528477","system_id":"levelo_inurba_marseille","lat":43.255,"lon":5.37655,"is_reserved":false,"is_disabled":false,"rental_uris":{"android":"levelo://app?vid=eace11fc-366d-49db-ab9f-2f957d528477","ios":"levelo://app?vid=eace11fc-366d-49db-ab9f-2f957d528477"},"vehicle_type_id":"4","last_reported":1739552852,"current_range_meters":38400,"station_id":"ce4bhh12rcd13ifvqff0","pricing_plan_id":"cebpf4jnsgd1na2vs0mg"},{"bike_id":"5d2484e8-d08f-4bba-ae77-36cb31e97e9b","system_id":"levelo_inurba_marseille","lat":43.29567,"lon":5.4224,"is_reserved":false,"is_disabled":false,"rental_uris":{"android":"levelo://app?vid=5d2484e8-d08f-4bba-ae77-36cb31e97e9b","ios":"levelo://app?vid=5d2484e8-d08f-4bba-ae77-36cb31e97e9b"},"vehicle_type_id":"4","last_reported":1739552852,"current_range_meters":33600,"station_id":"ce4bhph2rcd13ifvqhdg","pricing_plan_id":"cebpf4jnsgd1na2vs0mg"},{"bike_id":"6b42f4f1-2360-420a-81a5-fa8f868ac30d","system_id":"levelo_inurba_marseille","lat":43.27199,"lon":5.39028,"is_reserved":false,"is_disabled":false,"rental_uris":{"android":"levelo://app?vid=6b42f4f1-2360-420a-81a5-fa8f868ac30d","ios":"levelo://app?vid=6b42f4f1-2360-420a-81a5-fa8f868ac30d"},"vehicle_type_id":"4","last_reported":1739552852,"current_range_meters":36800,"station_id":"","pricing_plan_id":"cebpf4jnsgd1na2vs0mg"},{"bike_id":"c3fc4d9c-9722-4fad-8d64-356a520f9340","system_id":"levelo_inurba_marseille","lat":43.30104,"lon":5.39077,"is_reserved":false,"is_disabled":false,"rental_uris":{"android":"levelo://app?vid=c3fc4d9c-9722-4fad-8d64-356a520f9340","ios":"levelo://app?vid=c3fc4d9c-9722-4fad-8d64-356a520f9340"},"vehicle_type_id":"4","last_reported":1739552852,"current_range_meters":36800,"station_id":"ce4bh192rcd13ifvqdb0","pricing_plan_id":"cebpf4jnsgd1na2vs0mg"},{"bike_id":"90eef825-4468-4024-ba81-7968196c1088","system_id":"levelo_inurba_marseille","lat":43.2961,"lon":5.3812,"is_reserved":false,"is_disabled":false,"rental_uris":{"android":"levelo://app?vid=90eef825-4468-4024-ba81-7968196c1088","ios":"levelo://app?vid=90eef825-4468-4024-ba81-7968196c1088"},"vehicle_type_id":"4","last_reported":1739552852,"current_range_meters":38000,"station_id":"ce4bgl12rcd13ifvqbo0","pricing_plan_id":"cebpf4jnsgd1na2vs0mg"},{"bike_id":"e6ed16f7-c691-4c9c-85ac-522bc9282388","system_id":"levelo_inurba_marseille","lat":43.30299,"lon":5.39207,"is_reserved":false,"is_disabled":false,"rental_uris":{"android":"levelo://app?vid=e6ed16f7-c691-4c9c-85ac-522bc9282388","ios":"levelo://app?vid=e6ed16f7-c691-4c9c-85ac-522bc9282388"},"vehicle_type_id":"4","last_reported":1739552852,"current_range_meters":33200,"station_id":"ce4bgkh2rcd13ifvqbk0","pricing_plan_id":"cebpf4jnsgd1na2vs0mg"},{"bike_id":"abd6269b-eb43-4a11-a48a-da63e695ea4c","system_id":"levelo_inurba_marseille","lat":43.31685,"lon":5.40474,"is_reserved":false,"is_disabled":false,"rental_uris":{"android":"levelo://app?vid=abd6269b-eb43-4a11-a48a-da63e695ea4c","ios":"levelo://app?vid=abd6269b-eb43-4a11-a48a-da63e695ea4c"},"vehicle_type_id":"4","last_reported":1739552852,"current_range_meters":16400,"station_id":"ce4bh012rcd13ifvqd00","pricing_plan_id":"cebpf4jnsgd1na2vs0mg"},{"bike_id":"b34c6303-752a-46a1-93ad-ddbc991e20b6","system_id":"levelo_inurba_marseille","lat":43.23072,"lon":5.35496,"is_reserved":false,"is_disabled":false,"rental_uris":{"android":"levelo://app?vid=b34c6303-752a-46a1-93ad-ddbc991e20b6","ios":"levelo://app?vid=b34c6303-752a-46a1-93ad-ddbc991e20b6"},"vehicle_type_id":"4","last_reported":1739552852,"current_range_meters":38800,"station_id":"cpo3342slgdg3j2ifvpg","pricing_plan_id":"cebpf4jnsgd1na2vs0mg"},{"bike_id":"7c26eb17-9b06-4805-b368-faef5c61e3aa","system_id":"levelo_inurba_marseille","lat":43.30302,"lon":5.39198,"is_reserved":false,"is_disabled":false,"rental_uris":{"android":"levelo://app?vid=7c26eb17-9b06-4805-b368-faef5c61e3aa","ios":"levelo://app?vid=7c26eb17-9b06-4805-b368-faef5c61e3aa"},"vehicle_type_id":"4","last_reported":1739552852,"current_range_meters":38800,"station_id":"ce4bgkh2rcd13ifvqbk0","pricing_plan_id":"cebpf4jnsgd1na2vs0mg"},{"bike_id":"acb3f0a4-af5a-43ef-8bf8-1c8f8196607e","system_id":"levelo_inurba_marseille","lat":43.29034,"lon":5.37571,"is_reserved":false,"is_disabled":false,"rental_uris":{"android":"levelo://app?vid=acb3f0a4-af5a-43ef-8bf8-1c8f8196607e","ios":"levelo://app?vid=acb3f0a4-af5a-43ef-8bf8-1c8f8196607e"},"vehicle_type_id":"4","last_reported":1739552852,"current_range_meters":38800,"station_id":"ce4bh692rcd13ifvqe90","pricing_plan_id":"cebpf4jnsgd1na2vs0mg"},{"bike_id":"1300f95a-15ad-4299-a221-177495e93e42","system_id":"levelo_inurba_marseille","lat":43.32663,"lon":5.40989,"is_reserved":false,"is_disabled":false,"rental_uris":{"android":"levelo://app?vid=1300f95a-15ad-4299-a221-177495e93e42","ios":"levelo://app?vid=1300f95a-15ad-4299-a221-177495e93e42"},"vehicle_type_id":"4","last_reported":1739552852,"current_range_meters":26000,"station_id":"ce4bhpp2rcd13ifvqhgg","pricing_plan_id":"cebpf4jnsgd1na2vs0mg"},{"bike_id":"59234d21-556f-417c-805c-86ab04d4b499","system_id":"levelo_inurba_marseille","lat":43.29262,"lon":5.38435,"is_reserved":false,"is_disabled":false,"rental_uris":{"android":"levelo://app?vid=59234d21-556f-417c-805c-86ab04d4b499","ios":"levelo://app?vid=59234d21-556f-417c-805c-86ab04d4b499"},"vehicle_type_id":"4","last_reported":1739552852,"current_range_meters":37600,"station_id":"ce4bh692rcd13ifvqea0","pricing_plan_id":"cebpf4jnsgd1na2vs0mg"},{"bike_id":"db0c59a5-e36c-460d-a199-b553cfb8a418","system_id":"levelo_inurba_marseille","lat":43.28381,"lon":5.42968,"is_reserved":false,"is_disabled":false,"rental_uris":{"android":"levelo://app?vid=db0c59a5-e36c-460d-a199-b553cfb8a418","ios":"levelo://app?vid=db0c59a5-e36c-460d-a199-b553cfb8a418"},"vehicle_type_id":"4","last_reported":1739552852,"current_range_meters":25200,"station_id":"","pricing_plan_id":"cebpf4jnsgd1na2vs0mg"},{"bike_id":"0ac5780d-30c3-4391-a9b4-d272c9462659","system_id":"levelo_inurba_marseille","lat":43.28464,"lon":5.35896,"is_reserved":false,"is_disabled":false,"rental_uris":{"android":"levelo://app?vid=0ac5780d-30c3-4391-a9b4-d272c9462659","ios":"levelo://app?vid=0ac5780d-30c3-4391-a9b4-d272c9462659"},"vehicle_type_id":"4","last_reported":1739552852,"current_range_meters":20400,"station_id":"ce4bhah2rcd13ifvqei0","pricing_plan_id":"cebpf4jnsgd1na2vs0mg"},{"bike_id":"5b94872e-e8e0-48b1-a4f8-764a45f452f2","system_id":"levelo_inurba_marseille","lat":43.30543,"lon":5.36734,"is_reserved":false,"is_disabled":false,"rental_uris":{"android":"levelo://app?vid=5b94872e-e8e0-48b1-a4f8-764a45f452f2","ios":"levelo://app?vid=5b94872e-e8e0-48b1-a4f8-764a45f452f2"},"vehicle_type_id":"4","last_reported":1739552852,"current_range_meters":38800,"station_id":"ce4bgrp2rcd13ifvqc9g","pricing_plan_id":"cebpf4jnsgd1na2vs0mg"},{"bike_id":"3ca277b3-738a-4372-8d5a-c5488adafb3f","system_id":"levelo_inurba_marseille","lat":43.30524,"lon":5.36721,"is_reserved":false,"is_disabled":false,"rental_uris":{"android":"levelo://app?vid=3ca277b3-738a-4372-8d5a-c5488adafb3f","ios":"levelo://app?vid=3ca277b3-738a-4372-8d5a-c5488adafb3f"},"vehicle_type_id":"4","last_reported":1739552852,"current_range_meters":8000,"station_id":"ce4bgrp2rcd13ifvqc9g","pricing_plan_id":"cebpf4jnsgd1na2vs0mg"},{"bike_id":"d430bbf5-dcb4-4006-8220-7af0587abbc5","system_id":"levelo_inurba_marseille","lat":43.25085,"lon":5.39524,"is_reserved":false,"is_disabled":false,"rental_uris":{"android":"levelo://app?vid=d430bbf5-dcb4-4006-8220-7af0587abbc5","ios":"levelo://app?vid=d430bbf5-dcb4-4006-8220-7af0587abbc5"},"vehicle_type_id":"4","last_reported":1739552852,"current_range_meters":33200,"station_id":"ce4bhm12rcd13ifvqgkg","pricing_plan_id":"cebpf4jnsgd1na2vs0mg"},{"bike_id":"f1c49cdb-c423-415c-badc-8e4cfb5c6b43","system_id":"levelo_inurba_marseille","lat":43.29961,"lon":5.38539,"is_reserved":false,"is_disabled":false,"rental_uris":{"android":"levelo://app?vid=f1c49cdb-c423-415c-badc-8e4cfb5c6b43","ios":"levelo://app?vid=f1c49cdb-c423-415c-badc-8e4cfb5c6b43"},"vehicle_type_id":"4","last_reported":1739552852,"current_range_meters":19200,"station_id":"ce4bgj92rcd13ifvqbd0","pricing_plan_id":"cebpf4jnsgd1na2vs0mg"},{"bike_id":"77199d23-32e6-4212-95ff-7ee9972b2938","system_id":"levelo_inurba_marseille","lat":43.26686,"lon":5.38275,"is_reserved":false,"is_disabled":false,"rental_uris":{"android":"levelo://app?vid=77199d23-32e6-4212-95ff-7ee9972b2938","ios":"levelo://app?vid=77199d23-32e6-4212-95ff-7ee9972b2938"},"vehicle_type_id":"4","last_reported":1739552852,"current_range_meters":6400,"station_id":"ce4bhg92rcd13ifvqf90","pricing_plan_id":"cebpf4jnsgd1na2vs0mg"},{"bike_id":"5f59e0e5-9a6c-41bd-887d-7024a4204312","system_id":"levelo_inurba_marseille","lat":43.30882,"lon":5.39656,"is_reserved":false,"is_disabled":false,"rental_uris":{"android":"levelo://app?vid=5f59e0e5-9a6c-41bd-887d-7024a4204312","ios":"levelo://app?vid=5f59e0e5-9a6c-41bd-887d-7024a4204312"},"vehicle_type_id":"4","last_reported":1739552852,"current_range_meters":16400,"station_id":"ce4bh012rcd13ifvqcv0","pricing_plan_id":"cebpf4jnsgd1na2vs0mg"},{"bike_id":"6a0d30d0-3af2-4a20-8a0e-e3490c89ef3d","system_id":"levelo_inurba_marseille","lat":43.30928,"lon":5.40152,"is_reserved":false,"is_disabled":false,"rental_uris":{"android":"levelo://app?vid=6a0d30d0-3af2-4a20-8a0e-e3490c89ef3d","ios":"levelo://app?vid=6a0d30d0-3af2-4a20-8a0e-e3490c89ef3d"},"vehicle_type_id":"4","last_reported":1739552852,"current_range_meters":38800,"station_id":"ce4bgvp2rcd13ifvqct0","pricing_plan_id":"cebpf4jnsgd1na2vs0mg"},{"bike_id":"2de3d260-2417-4bc8-86ce-3bc3b1a20af3","system_id":"levelo_inurba_marseille","lat":43.255,"lon":5.37648,"is_reserved":false,"is_disabled":false,"rental_uris":{"android":"levelo://app?vid=2de3d260-2417-4bc8-86ce-3bc3b1a20af3","ios":"levelo://app?vid=2de3d260-2417-4bc8-86ce-3bc3b1a20af3"},"vehicle_type_id":"4","last_reported":1739552852,"current_range_meters":33200,"station_id":"ce4bhh12rcd13ifvqff0","pricing_plan_id":"cebpf4jnsgd1na2vs0mg"},{"bike_id":"6e595a5a-187a-43fe-8209-fb98c46cdcb6","system_id":"levelo_inurba_marseille","lat":43.29195,"lon":5.39313,"is_reserved":false,"is_disabled":false,"rental_uris":{"android":"levelo://app?vid=6e595a5a-187a-43fe-8209-fb98c46cdcb6","ios":"levelo://app?vid=6e595a5a-187a-43fe-8209-fb98c46cdcb6"},"vehicle_type_id":"4","last_reported":1739552852,"current_range_meters":28000,"station_id":"ce4bh192rcd13ifvqdd0","pricing_plan_id":"cebpf4jnsgd1na2vs0mg"},{"bike_id":"bb4f5597-3059-4c0a-8aeb-b1c2d59ac7c2","system_id":"levelo_inurba_marseille","lat":43.30934,"lon":5.40152,"is_reserved":false,"is_disabled":false,"rental_uris":{"android":"levelo://app?vid=bb4f5597-3059-4c0a-8aeb-b1c2d59ac7c2","ios":"levelo://app?vid=bb4f5597-3059-4c0a-8aeb-b1c2d59ac7c2"},"vehicle_type_id":"4","last_reported":1739552852,"current_range_meters":28400,"station_id":"ce4bgvp2rcd13ifvqct0","pricing_plan_id":"cebpf4jnsgd1na2vs0mg"},{"bike_id":"1d05ce6e-1734-4772-8152-5ca8d1f77901","system_id":"levelo_inurba_marseille","lat":43.2963,"lon":5.40592,"is_reserved":false,"is_disabled":true,"rental_uris":{"android":"levelo://app?vid=1d05ce6e-1734-4772-8152-5ca8d1f77901","ios":"levelo://app?vid=1d05ce6e-1734-4772-8152-5ca8d1f77901"},"vehicle_type_id":"4","last_reported":1739552852,"current_range_meters":2000,"station_id":"ce4bh0h2rcd13ifvqd60","pricing_plan_id":"cebpf4jnsgd1na2vs0mg"},{"bike_id":"c0273cc7-74d9-482c-b776-112a87f9e2e2","system_id":"levelo_inurba_marseille","lat":43.26197,"lon":5.3745,"is_reserved":false,"is_disabled":false,"rental_uris":{"android":"levelo://app?vid=c0273cc7-74d9-482c-b776-112a87f9e2e2","ios":"levelo://app?vid=c0273cc7-74d9-482c-b776-112a87f9e2e2"},"vehicle_type_id":"4","last_reported":1739552852,"current_range_meters":38800,"station_id":"ce4bhgp2rcd13ifvqfc0","pricing_plan_id":"cebpf4jnsgd1na2vs0mg"},{"bike_id":"13381766-a05c-46f4-a33d-551be18b8ec4","system_id":"levelo_inurba_marseille","lat":43.296049,"lon":5.380976,"is_reserved":false,"is_disabled":false,"rental_uris":{"android":"levelo://app?vid=13381766-a05c-46f4-a33d-551be18b8ec4","ios":"levelo://app?vid=13381766-a05c-46f4-a33d-551be18b8ec4"},"vehicle_type_id":"4","last_reported":1739552852,"current_range_meters":28400,"station_id":"ce4bgl12rcd13ifvqbo0","pricing_plan_id":"cebpf4jnsgd1na2vs0mg"},{"bike_id":"f92e748a-9f9b-4e54-8084-07e33515f3d5","system_id":"levelo_inurba_marseille","lat":43.2707,"lon":5.39343,"is_reserved":false,"is_disabled":true,"rental_uris":{"android":"levelo://app?vid=f92e748a-9f9b-4e54-8084-07e33515f3d5","ios":"levelo://app?vid=f92e748a-9f9b-4e54-8084-07e33515f3d5"},"vehicle_type_id":"4","last_reported":1739552852,"current_range_meters":0,"station_id":"","pricing_plan_id":"cebpf4jnsgd1na2vs0mg"},{"bike_id":"0fb180c6-8d92-4019-9452-8dd31a86f0c9","system_id":"levelo_inurba_marseille","lat":43.28437,"lon":5.3918,"is_reserved":false,"is_disabled":true,"rental_uris":{"android":"levelo://app?vid=0fb180c6-8d92-4019-9452-8dd31a86f0c9","ios":"levelo://app?vid=0fb180c6-8d92-4019-9452-8dd31a86f0c9"},"vehicle_type_id":"4","last_reported":1739552852,"current_range_meters":1600,"station_id":"ce4bhoh2rcd13ifvqh5g","pricing_plan_id":"cebpf4jnsgd1na2vs0mg"},{"bike_id":"704ec19d-e7c0-4858-a423-dcfa560220a5","system_id":"levelo_inurba_marseille","lat":43.23196,"lon":5.3999,"is_reserved":false,"is_disabled":false,"rental_uris":{"android":"levelo://app?vid=704ec19d-e7c0-4858-a423-dcfa560220a5","ios":"levelo://app?vid=704ec19d-e7c0-4858-a423-dcfa560220a5"},"vehicle_type_id":"4","last_reported":1739552852,"current_range_meters":32800,"station_id":"ce4bhn12rcd13ifvqgqg","pricing_plan_id":"cebpf4jnsgd1na2vs0mg"},{"bike_id":"190dec22-0cb7-45f1-8633-559b8c1913e5","system_id":"levelo_inurba_marseille","lat":43.27568,"lon":5.38438,"is_reserved":false,"is_disabled":false,"rental_uris":{"android":"levelo://app?vid=190dec22-0cb7-45f1-8633-559b8c1913e5","ios":"levelo://app?vid=190dec22-0cb7-45f1-8633-559b8c1913e5"},"vehicle_type_id":"4","last_reported":1739552852,"current_range_meters":38800,"station_id":"ce4bhh92rcd13ifvqfi0","pricing_plan_id":"cebpf4jnsgd1na2vs0mg"},{"bike_id":"ac8dde57-0274-480f-b484-2422ffeb743c","system_id":"levelo_inurba_marseille","lat":43.29709,"lon":5.3662,"is_reserved":false,"is_disabled":false,"rental_uris":{"android":"levelo://app?vid=ac8dde57-0274-480f-b484-2422ffeb743c","ios":"levelo://app?vid=ac8dde57-0274-480f-b484-2422ffeb743c"},"vehicle_type_id":"4","last_reported":1739552852,"current_range_meters":38000,"station_id":"ce4bgn12rcd13ifvqbt0","pricing_plan_id":"cebpf4jnsgd1na2vs0mg"},{"bike_id":"36a6e17a-dbe5-4514-9632-9b46954dfacf","system_id":"levelo_inurba_marseille","lat":43.24381,"lon":5.37052,"is_reserved":false,"is_disabled":false,"rental_uris":{"android":"levelo://app?vid=36a6e17a-dbe5-4514-9632-9b46954dfacf","ios":"levelo://app?vid=36a6e17a-dbe5-4514-9632-9b46954dfacf"},"vehicle_type_id":"4","last_reported":1739552852,"current_range_meters":3200,"station_id":"ce4bhhh2rcd13ifvqfk0","pricing_plan_id":"cebpf4jnsgd1na2vs0mg"},{"bike_id":"9cf8e6d9-67b8-441b-8ab4-08ef8560d2b0","system_id":"levelo_inurba_marseille","lat":43.33514,"lon":5.35585,"is_reserved":false,"is_disabled":true,"rental_uris":{"android":"levelo://app?vid=9cf8e6d9-67b8-441b-8ab4-08ef8560d2b0","ios":"levelo://app?vid=9cf8e6d9-67b8-441b-8ab4-08ef8560d2b0"},"vehicle_type_id":"4","last_reported":1739552852,"current_range_meters":0,"station_id":"","pricing_plan_id":"cebpf4jnsgd1na2vs0mg"},{"bike_id":"e1a1f1cb-1cd2-425d-947b-f9f8d6f37381","system_id":"levelo_inurba_marseille","lat":43.28476,"lon":5.38418,"is_reserved":false,"is_disabled":false,"rental_uris":{"android":"levelo://app?vid=e1a1f1cb-1cd2-425d-947b-f9f8d6f37381","ios":"levelo://app?vid=e1a1f1cb-1cd2-425d-947b-f9f8d6f37381"},"vehicle_type_id":"4","last_reported":1739552852,"current_range_meters":33200,"station_id":"ce4bh512rcd13ifvqe3g","pricing_plan_id":"cebpf4jnsgd1na2vs0mg"},{"bike_id":"6279f888-1d4b-4ebb-b3f2-c7248902b00f","system_id":"levelo_inurba_marseille","lat":43.25503,"lon":5.3767,"is_reserved":false,"is_disabled":false,"rental_uris":{"android":"levelo://app?vid=6279f888-1d4b-4ebb-b3f2-c7248902b00f","ios":"levelo://app?vid=6279f888-1d4b-4ebb-b3f2-c7248902b00f"},"vehicle_type_id":"4","last_reported":1739552852,"current_range_meters":16800,"station_id":"ce4bhh12rcd13ifvqff0","pricing_plan_id":"cebpf4jnsgd1na2vs0mg"},{"bike_id":"0a19cb1a-3855-4f92-9afa-f1920bd5d6f1","system_id":"levelo_inurba_marseille","lat":43.2937,"lon":5.37879,"is_reserved":false,"is_disabled":false,"rental_uris":{"android":"levelo://app?vid=0a19cb1a-3855-4f92-9afa-f1920bd5d6f1","ios":"levelo://app?vid=0a19cb1a-3855-4f92-9afa-f1920bd5d6f1"},"vehicle_type_id":"4","last_reported":1739552852,"current_range_meters":18800,"station_id":"ce4bgjh2rcd13ifvqbf0","pricing_plan_id":"cebpf4jnsgd1na2vs0mg"},{"bike_id":"6325645e-69a7-4669-ba80-2d681afae85c","system_id":"levelo_inurba_marseille","lat":43.26927,"lon":5.38894,"is_reserved":false,"is_disabled":false,"rental_uris":{"android":"levelo://app?vid=6325645e-69a7-4669-ba80-2d681afae85c","ios":"levelo://app?vid=6325645e-69a7-4669-ba80-2d681afae85c"},"vehicle_type_id":"4","last_reported":1739552852,"current_range_meters":38800,"station_id":"ce4bhhh2rcd13ifvqfl0","pricing_plan_id":"cebpf4jnsgd1na2vs0mg"},{"bike_id":"b98f34ea-d0f1-4780-9074-f2573c8d1af3","system_id":"levelo_inurba_marseille","lat":43.29262,"lon":5.38445,"is_reserved":false,"is_disabled":false,"rental_uris":{"android":"levelo://app?vid=b98f34ea-d0f1-4780-9074-f2573c8d1af3","ios":"levelo://app?vid=b98f34ea-d0f1-4780-9074-f2573c8d1af3"},"vehicle_type_id":"4","last_reported":1739552852,"current_range_meters":38800,"station_id":"ce4bh692rcd13ifvqea0","pricing_plan_id":"cebpf4jnsgd1na2vs0mg"},{"bike_id":"702279ff-6173-4c74-a6c6-d3df78622bd6","system_id":"levelo_inurba_marseille","lat":43.30959,"lon":5.39036,"is_reserved":false,"is_disabled":true,"rental_uris":{"android":"levelo://app?vid=702279ff-6173-4c74-a6c6-d3df78622bd6","ios":"levelo://app?vid=702279ff-6173-4c74-a6c6-d3df78622bd6"},"vehicle_type_id":"4","last_reported":1739552852,"current_range_meters":14000,"station_id":"ce4bgup2rcd13ifvqco0","pricing_plan_id":"cebpf4jnsgd1na2vs0mg"},{"bike_id":"51ab7186-5043-4bed-baca-73708608a302","system_id":"levelo_inurba_marseille","lat":43.29584,"lon":5.37026,"is_reserved":false,"is_disabled":true,"rental_uris":{"android":"levelo://app?vid=51ab7186-5043-4bed-baca-73708608a302","ios":"levelo://app?vid=51ab7186-5043-4bed-baca-73708608a302"},"vehicle_type_id":"4","last_reported":1739552852,"current_range_meters":0,"station_id":"","pricing_plan_id":"cebpf4jnsgd1na2vs0mg"},{"bike_id":"b49b9b90-872b-466e-865f-9d2f9243720a","system_id":"levelo_inurba_marseille","lat":43.30594,"lon":5.37207,"is_reserved":false,"is_disabled":false,"rental_uris":{"android":"levelo://app?vid=b49b9b90-872b-466e-865f-9d2f9243720a","ios":"levelo://app?vid=b49b9b90-872b-466e-865f-9d2f9243720a"},"vehicle_type_id":"4","last_reported":1739552852,"current_range_meters":27200,"station_id":"ce4bgqh2rcd13ifvqc4g","pricing_plan_id":"cebpf4jnsgd1na2vs0mg"},{"bike_id":"ed4b99fc-26c2-4de0-a85b-37cf5128fbf7","system_id":"levelo_inurba_marseille","lat":43.29864,"lon":5.39739,"is_reserved":false,"is_disabled":false,"rental_uris":{"android":"levelo://app?vid=ed4b99fc-26c2-4de0-a85b-37cf5128fbf7","ios":"levelo://app?vid=ed4b99fc-26c2-4de0-a85b-37cf5128fbf7"},"vehicle_type_id":"4","last_reported":1739552852,"current_range_meters":24800,"station_id":"ce4bh0h2rcd13ifvqd50","pricing_plan_id":"cebpf4jnsgd1na2vs0mg"},{"bike_id":"d3fc5f7e-9983-4343-a9af-f36df7d45f29","system_id":"levelo_inurba_marseille","lat":43.2319,"lon":5.3999,"is_reserved":false,"is_disabled":false,"rental_uris":{"android":"levelo://app?vid=d3fc5f7e-9983-4343-a9af-f36df7d45f29","ios":"levelo://app?vid=d3fc5f7e-9983-4343-a9af-f36df7d45f29"},"vehicle_type_id":"4","last_reported":1739552852,"current_range_meters":18800,"station_id":"ce4bhn12rcd13ifvqgqg","pricing_plan_id":"cebpf4jnsgd1na2vs0mg"},{"bike_id":"3726052c-435c-4e9a-97b4-6741247fd797","system_id":"levelo_inurba_marseille","lat":43.28417,"lon":5.34985,"is_reserved":false,"is_disabled":false,"rental_uris":{"android":"levelo://app?vid=3726052c-435c-4e9a-97b4-6741247fd797","ios":"levelo://app?vid=3726052c-435c-4e9a-97b4-6741247fd797"},"vehicle_type_id":"4","last_reported":1739552852,"current_range_meters":32000,"station_id":"ce4bhbh2rcd13ifvqepg","pricing_plan_id":"cebpf4jnsgd1na2vs0mg"},{"bike_id":"a957ceea-f9ee-4522-a714-0b9b1ae52161","system_id":"levelo_inurba_marseille","lat":43.27061,"lon":5.40267,"is_reserved":false,"is_disabled":false,"rental_uris":{"android":"levelo://app?vid=a957ceea-f9ee-4522-a714-0b9b1ae52161","ios":"levelo://app?vid=a957ceea-f9ee-4522-a714-0b9b1ae52161"},"vehicle_type_id":"4","last_reported":1739552852,"current_range_meters":30800,"station_id":"ce4bhk92rcd13ifvqgc0","pricing_plan_id":"cebpf4jnsgd1na2vs0mg"},{"bike_id":"b11b619e-c94e-46e8-b16b-aea5f66d4d00","system_id":"levelo_inurba_marseille","lat":43.29512,"lon":5.39034,"is_reserved":false,"is_disabled":false,"rental_uris":{"android":"levelo://app?vid=b11b619e-c94e-46e8-b16b-aea5f66d4d00","ios":"levelo://app?vid=b11b619e-c94e-46e8-b16b-aea5f66d4d00"},"vehicle_type_id":"4","last_reported":1739552852,"current_range_meters":36400,"station_id":"ce4bh3p2rcd13ifvqdp0","pricing_plan_id":"cebpf4jnsgd1na2vs0mg"},{"bike_id":"c40e2cb9-b89c-4dbd-956b-535ef79f1d37","system_id":"levelo_inurba_marseille","lat":43.24807,"lon":5.37459,"is_reserved":false,"is_disabled":false,"rental_uris":{"android":"levelo://app?vid=c40e2cb9-b89c-4dbd-956b-535ef79f1d37","ios":"levelo://app?vid=c40e2cb9-b89c-4dbd-956b-535ef79f1d37"},"vehicle_type_id":"4","last_reported":1739552852,"current_range_meters":27200,"station_id":"ce4bhgh2rcd13ifvqfb0","pricing_plan_id":"cebpf4jnsgd1na2vs0mg"},{"bike_id":"6d14ffd0-8cb0-40f3-8b6f-5b79b4098bae","system_id":"levelo_inurba_marseille","lat":43.28116,"lon":5.37863,"is_reserved":false,"is_disabled":false,"rental_uris":{"android":"levelo://app?vid=6d14ffd0-8cb0-40f3-8b6f-5b79b4098bae","ios":"levelo://app?vid=6d14ffd0-8cb0-40f3-8b6f-5b79b4098bae"},"vehicle_type_id":"4","last_reported":1739552852,"current_range_meters":36800,"station_id":"ce4bha12rcd13ifvqee0","pricing_plan_id":"cebpf4jnsgd1na2vs0mg"},{"bike_id":"333946c8-1518-4495-85da-e9172c26eb3f","system_id":"levelo_inurba_marseille","lat":43.28695,"lon":5.37389,"is_reserved":false,"is_disabled":false,"rental_uris":{"android":"levelo://app?vid=333946c8-1518-4495-85da-e9172c26eb3f","ios":"levelo://app?vid=333946c8-1518-4495-85da-e9172c26eb3f"},"vehicle_type_id":"4","last_reported":1739552852,"current_range_meters":28400,"station_id":"ce4bh3p2rcd13ifvqdq0","pricing_plan_id":"cebpf4jnsgd1na2vs0mg"},{"bike_id":"24f49b1d-f018-4b50-9ffd-66b887dbd99f","system_id":"levelo_inurba_marseille","lat":43.2693,"lon":5.38926,"is_reserved":false,"is_disabled":false,"rental_uris":{"android":"levelo://app?vid=24f49b1d-f018-4b50-9ffd-66b887dbd99f","ios":"levelo://app?vid=24f49b1d-f018-4b50-9ffd-66b887dbd99f"},"vehicle_type_id":"4","last_reported":1739552852,"current_range_meters":23200,"station_id":"ce4bhhh2rcd13ifvqfl0","pricing_plan_id":"cebpf4jnsgd1na2vs0mg"},{"bike_id":"feb81031-ecb8-4db8-9c13-5977ea4c30a9","system_id":"levelo_inurba_marseille","lat":43.29522,"lon":5.37498,"is_reserved":false,"is_disabled":false,"rental_uris":{"android":"levelo://app?vid=feb81031-ecb8-4db8-9c13-5977ea4c30a9","ios":"levelo://app?vid=feb81031-ecb8-4db8-9c13-5977ea4c30a9"},"vehicle_type_id":"4","last_reported":1739552852,"current_range_meters":22000,"station_id":"ce4bgkp2rcd13ifvqbmg","pricing_plan_id":"cebpf4jnsgd1na2vs0mg"},{"bike_id":"f67769ce-8582-4370-b6be-9404879b31d0","system_id":"levelo_inurba_marseille","lat":43.29421,"lon":5.38633,"is_reserved":false,"is_disabled":false,"rental_uris":{"android":"levelo://app?vid=f67769ce-8582-4370-b6be-9404879b31d0","ios":"levelo://app?vid=f67769ce-8582-4370-b6be-9404879b31d0"},"vehicle_type_id":"4","last_reported":1739552852,"current_range_meters":9600,"station_id":"ce4bh2h2rcd13ifvqdh0","pricing_plan_id":"cebpf4jnsgd1na2vs0mg"},{"bike_id":"c8c0516c-62b0-4cbf-88f8-60819aff6581","system_id":"levelo_inurba_marseille","lat":43.25491,"lon":5.37649,"is_reserved":false,"is_disabled":true,"rental_uris":{"android":"levelo://app?vid=c8c0516c-62b0-4cbf-88f8-60819aff6581","ios":"levelo://app?vid=c8c0516c-62b0-4cbf-88f8-60819aff6581"},"vehicle_type_id":"4","last_reported":1739552852,"current_range_meters":17200,"station_id":"ce4bhh12rcd13ifvqff0","pricing_plan_id":"cebpf4jnsgd1na2vs0mg"},{"bike_id":"0bd1a399-2480-469c-91cd-e64288e63568","system_id":"levelo_inurba_marseille","lat":43.30365,"lon":5.41882,"is_reserved":false,"is_disabled":false,"rental_uris":{"android":"levelo://app?vid=0bd1a399-2480-469c-91cd-e64288e63568","ios":"levelo://app?vid=0bd1a399-2480-469c-91cd-e64288e63568"},"vehicle_type_id":"4","last_reported":1739552852,"current_range_meters":38800,"station_id":"ce4bhop2rcd13ifvqh7g","pricing_plan_id":"cebpf4jnsgd1na2vs0mg"},{"bike_id":"1e059a21-f6ec-4591-9ae0-dced5b8bf4f6","system_id":"levelo_inurba_marseille","lat":43.30086,"lon":5.39091,"is_reserved":false,"is_disabled":false,"rental_uris":{"android":"levelo://app?vid=1e059a21-f6ec-4591-9ae0-dced5b8bf4f6","ios":"levelo://app?vid=1e059a21-f6ec-4591-9ae0-dced5b8bf4f6"},"vehicle_type_id":"4","last_reported":1739552852,"current_range_meters":36000,"station_id":"ce4bh192rcd13ifvqdb0","pricing_plan_id":"cebpf4jnsgd1na2vs0mg"},{"bike_id":"2e8fc403-db89-4ec8-942c-727343aeca53","system_id":"levelo_inurba_marseille","lat":43.29002,"lon":5.35615,"is_reserved":false,"is_disabled":false,"rental_uris":{"android":"levelo://app?vid=2e8fc403-db89-4ec8-942c-727343aeca53","ios":"levelo://app?vid=2e8fc403-db89-4ec8-942c-727343aeca53"},"vehicle_type_id":"4","last_reported":1739552852,"current_range_meters":38800,"station_id":"ce4bhb92rcd13ifvqen0","pricing_plan_id":"cebpf4jnsgd1na2vs0mg"},{"bike_id":"2adb6645-7d62-4dc9-96f9-80e7f84e9e95","system_id":"levelo_inurba_marseille","lat":43.25595,"lon":5.38221,"is_reserved":false,"is_disabled":false,"rental_uris":{"android":"levelo://app?vid=2adb6645-7d62-4dc9-96f9-80e7f84e9e95","ios":"levelo://app?vid=2adb6645-7d62-4dc9-96f9-80e7f84e9e95"},"vehicle_type_id":"4","last_reported":1739552852,"current_range_meters":35600,"station_id":"ce4bhih2rcd13ifvqfs0","pricing_plan_id":"cebpf4jnsgd1na2vs0mg"},{"bike_id":"69901931-b51c-453f-987f-21137ab8ac55","system_id":"levelo_inurba_marseille","lat":43.26932,"lon":5.40268,"is_reserved":false,"is_disabled":false,"rental_uris":{"android":"levelo://app?vid=69901931-b51c-453f-987f-21137ab8ac55","ios":"levelo://app?vid=69901931-b51c-453f-987f-21137ab8ac55"},"vehicle_type_id":"4","last_reported":1739552852,"current_range_meters":27600,"station_id":"cjm6bp8fraef2m0cb0m0","pricing_plan_id":"cebpf4jnsgd1na2vs0mg"},{"bike_id":"2d4913bd-a714-4d5f-8263-dd063d2bbf2b","system_id":"levelo_inurba_marseille","lat":43.25818,"lon":5.39423,"is_reserved":false,"is_disabled":false,"rental_uris":{"android":"levelo://app?vid=2d4913bd-a714-4d5f-8263-dd063d2bbf2b","ios":"levelo://app?vid=2d4913bd-a714-4d5f-8263-dd063d2bbf2b"},"vehicle_type_id":"4","last_reported":1739552852,"current_range_meters":11600,"station_id":"ce4bhip2rcd13ifvqft0","pricing_plan_id":"cebpf4jnsgd1na2vs0mg"},{"bike_id":"a70729f0-bf50-486d-acf1-77ab278c9efb","system_id":"levelo_inurba_marseille","lat":43.27718,"lon":5.41975,"is_reserved":false,"is_disabled":false,"rental_uris":{"android":"levelo://app?vid=a70729f0-bf50-486d-acf1-77ab278c9efb","ios":"levelo://app?vid=a70729f0-bf50-486d-acf1-77ab278c9efb"},"vehicle_type_id":"4","last_reported":1739552852,"current_range_meters":19200,"station_id":"","pricing_plan_id":"cebpf4jnsgd1na2vs0mg"},{"bike_id":"cb2c880d-6099-4e99-b126-5db2ed775e84","system_id":"levelo_inurba_marseille","lat":43.25014,"lon":5.38937,"is_reserved":false,"is_disabled":false,"rental_uris":{"android":"levelo://app?vid=cb2c880d-6099-4e99-b126-5db2ed775e84","ios":"levelo://app?vid=cb2c880d-6099-4e99-b126-5db2ed775e84"},"vehicle_type_id":"4","last_reported":1739552852,"current_range_meters":38800,"station_id":"ce4bhgp2rcd13ifvqfd0","pricing_plan_id":"cebpf4jnsgd1na2vs0mg"},{"bike_id":"07cce0e4-c34c-4c6c-b7f3-11be90ceb56c","system_id":"levelo_inurba_marseille","lat":43.30257,"lon":5.39636,"is_reserved":false,"is_disabled":false,"rental_uris":{"android":"levelo://app?vid=07cce0e4-c34c-4c6c-b7f3-11be90ceb56c","ios":"levelo://app?vid=07cce0e4-c34c-4c6c-b7f3-11be90ceb56c"},"vehicle_type_id":"4","last_reported":1739552852,"current_range_meters":12000,"station_id":"","pricing_plan_id":"cebpf4jnsgd1na2vs0mg"},{"bike_id":"eb4b5a8a-7ccb-401a-ae98-94e0934d6e44","system_id":"levelo_inurba_marseille","lat":43.27982,"lon":5.41677,"is_reserved":false,"is_disabled":false,"rental_uris":{"android":"levelo://app?vid=eb4b5a8a-7ccb-401a-ae98-94e0934d6e44","ios":"levelo://app?vid=eb4b5a8a-7ccb-401a-ae98-94e0934d6e44"},"vehicle_type_id":"4","last_reported":1739552852,"current_range_meters":30800,"station_id":"ce4bho12rcd13ifvqh1g","pricing_plan_id":"cebpf4jnsgd1na2vs0mg"},{"bike_id":"2533b922-bc35-4de8-9109-768b6e8dc037","system_id":"levelo_inurba_marseille","lat":43.29258,"lon":5.38445,"is_reserved":false,"is_disabled":false,"rental_uris":{"android":"levelo://app?vid=2533b922-bc35-4de8-9109-768b6e8dc037","ios":"levelo://app?vid=2533b922-bc35-4de8-9109-768b6e8dc037"},"vehicle_type_id":"4","last_reported":1739552852,"current_range_meters":38800,"station_id":"ce4bh692rcd13ifvqea0","pricing_plan_id":"cebpf4jnsgd1na2vs0mg"},{"bike_id":"f95c598b-73a5-4793-bd58-d5ddde21f497","system_id":"levelo_inurba_marseille","lat":43.28616,"lon":5.35104,"is_reserved":false,"is_disabled":false,"rental_uris":{"android":"levelo://app?vid=f95c598b-73a5-4793-bd58-d5ddde21f497","ios":"levelo://app?vid=f95c598b-73a5-4793-bd58-d5ddde21f497"},"vehicle_type_id":"4","last_reported":1739552852,"current_range_meters":18800,"station_id":"ce4bhch2rcd13ifvqeug","pricing_plan_id":"cebpf4jnsgd1na2vs0mg"},{"bike_id":"fb664545-ab38-45f6-8244-b76e351a8baa","system_id":"levelo_inurba_marseille","lat":43.30289,"lon":5.37693,"is_reserved":false,"is_disabled":false,"rental_uris":{"android":"levelo://app?vid=fb664545-ab38-45f6-8244-b76e351a8baa","ios":"levelo://app?vid=fb664545-ab38-45f6-8244-b76e351a8baa"},"vehicle_type_id":"4","last_reported":1739552852,"current_range_meters":38800,"station_id":"ce4bguh2rcd13ifvqcj0","pricing_plan_id":"cebpf4jnsgd1na2vs0mg"},{"bike_id":"f7722aa8-7dbb-40b4-8785-faf5a2e7b631","system_id":"levelo_inurba_marseille","lat":43.25004,"lon":5.38934,"is_reserved":false,"is_disabled":false,"rental_uris":{"android":"levelo://app?vid=f7722aa8-7dbb-40b4-8785-faf5a2e7b631","ios":"levelo://app?vid=f7722aa8-7dbb-40b4-8785-faf5a2e7b631"},"vehicle_type_id":"4","last_reported":1739552852,"current_range_meters":38800,"station_id":"ce4bhgp2rcd13ifvqfd0","pricing_plan_id":"cebpf4jnsgd1na2vs0mg"},{"bike_id":"577cb53f-ab8a-4bfa-8061-840317475338","system_id":"levelo_inurba_marseille","lat":43.24393,"lon":5.37056,"is_reserved":false,"is_disabled":false,"rental_uris":{"android":"levelo://app?vid=577cb53f-ab8a-4bfa-8061-840317475338","ios":"levelo://app?vid=577cb53f-ab8a-4bfa-8061-840317475338"},"vehicle_type_id":"4","last_reported":1739552852,"current_range_meters":38800,"station_id":"ce4bhhh2rcd13ifvqfk0","pricing_plan_id":"cebpf4jnsgd1na2vs0mg"},{"bike_id":"f98b3cf7-0cb7-4bcf-83bb-ea4a678cea92","system_id":"levelo_inurba_marseille","lat":43.29258,"lon":5.3845,"is_reserved":false,"is_disabled":false,"rental_uris":{"android":"levelo://app?vid=f98b3cf7-0cb7-4bcf-83bb-ea4a678cea92","ios":"levelo://app?vid=f98b3cf7-0cb7-4bcf-83bb-ea4a678cea92"},"vehicle_type_id":"4","last_reported":1739552852,"current_range_meters":26800,"station_id":"ce4bh692rcd13ifvqea0","pricing_plan_id":"cebpf4jnsgd1na2vs0mg"},{"bike_id":"62997ab2-046b-45d5-b8cf-ffc389fd3fd1","system_id":"levelo_inurba_marseille","lat":43.29908,"lon":5.36452,"is_reserved":false,"is_disabled":false,"rental_uris":{"android":"levelo://app?vid=62997ab2-046b-45d5-b8cf-ffc389fd3fd1","ios":"levelo://app?vid=62997ab2-046b-45d5-b8cf-ffc389fd3fd1"},"vehicle_type_id":"4","last_reported":1739552852,"current_range_meters":33600,"station_id":"ce4bgm92rcd13ifvqbr0","pricing_plan_id":"cebpf4jnsgd1na2vs0mg"},{"bike_id":"4017c6c7-485e-4548-9e9b-9473996c0899","system_id":"levelo_inurba_marseille","lat":43.30543,"lon":5.3654,"is_reserved":false,"is_disabled":false,"rental_uris":{"android":"levelo://app?vid=4017c6c7-485e-4548-9e9b-9473996c0899","ios":"levelo://app?vid=4017c6c7-485e-4548-9e9b-9473996c0899"},"vehicle_type_id":"4","last_reported":1739552852,"current_range_meters":3600,"station_id":"ce4bgs12rcd13ifvqcag","pricing_plan_id":"cebpf4jnsgd1na2vs0mg"},{"bike_id":"cb7c180e-0a65-42fc-919e-0f3021528e8b","system_id":"levelo_inurba_marseille","lat":43.29931,"lon":5.36539,"is_reserved":false,"is_disabled":false,"rental_uris":{"android":"levelo://app?vid=cb7c180e-0a65-42fc-919e-0f3021528e8b","ios":"levelo://app?vid=cb7c180e-0a65-42fc-919e-0f3021528e8b"},"vehicle_type_id":"4","last_reported":1739552852,"current_range_meters":19600,"station_id":"ce4bgm92rcd13ifvqbr0","pricing_plan_id":"cebpf4jnsgd1na2vs0mg"},{"bike_id":"23849fcd-4bc4-44f6-8337-e9a9a16fe0e7","system_id":"levelo_inurba_marseille","lat":43.29754,"lon":5.47962,"is_reserved":false,"is_disabled":false,"rental_uris":{"android":"levelo://app?vid=23849fcd-4bc4-44f6-8337-e9a9a16fe0e7","ios":"levelo://app?vid=23849fcd-4bc4-44f6-8337-e9a9a16fe0e7"},"vehicle_type_id":"4","last_reported":1739552852,"current_range_meters":2800,"station_id":"","pricing_plan_id":"cebpf4jnsgd1na2vs0mg"},{"bike_id":"95ae2a22-aed7-4d28-b9ea-dca74e26051e","system_id":"levelo_inurba_marseille","lat":43.30902,"lon":5.3688,"is_reserved":false,"is_disabled":false,"rental_uris":{"android":"levelo://app?vid=95ae2a22-aed7-4d28-b9ea-dca74e26051e","ios":"levelo://app?vid=95ae2a22-aed7-4d28-b9ea-dca74e26051e"},"vehicle_type_id":"4","last_reported":1739552852,"current_range_meters":38800,"station_id":"ce4bgn92rcd13ifvqbvg","pricing_plan_id":"cebpf4jnsgd1na2vs0mg"},{"bike_id":"25a0020e-c454-4908-a019-edd94f18a655","system_id":"levelo_inurba_marseille","lat":43.31322,"lon":5.39702,"is_reserved":false,"is_disabled":false,"rental_uris":{"android":"levelo://app?vid=25a0020e-c454-4908-a019-edd94f18a655","ios":"levelo://app?vid=25a0020e-c454-4908-a019-edd94f18a655"},"vehicle_type_id":"4","last_reported":1739552852,"current_range_meters":27600,"station_id":"ce4bgvp2rcd13ifvqcu0","pricing_plan_id":"cebpf4jnsgd1na2vs0mg"},{"bike_id":"70cebe69-45e5-45b6-bf22-ea6d7c47ad4a","system_id":"levelo_inurba_marseille","lat":43.30114,"lon":5.39881,"is_reserved":false,"is_disabled":false,"rental_uris":{"android":"levelo://app?vid=70cebe69-45e5-45b6-bf22-ea6d7c47ad4a","ios":"levelo://app?vid=70cebe69-45e5-45b6-bf22-ea6d7c47ad4a"},"vehicle_type_id":"4","last_reported":1739552852,"current_range_meters":6800,"station_id":"ce4bh0h2rcd13ifvqd40","pricing_plan_id":"cebpf4jnsgd1na2vs0mg"},{"bike_id":"d1b7e7c3-d876-4585-aa93-a701646b8c19","system_id":"levelo_inurba_marseille","lat":43.23194,"lon":5.39994,"is_reserved":false,"is_disabled":false,"rental_uris":{"android":"levelo://app?vid=d1b7e7c3-d876-4585-aa93-a701646b8c19","ios":"levelo://app?vid=d1b7e7c3-d876-4585-aa93-a701646b8c19"},"vehicle_type_id":"4","last_reported":1739552852,"current_range_meters":33600,"station_id":"ce4bhn12rcd13ifvqgqg","pricing_plan_id":"cebpf4jnsgd1na2vs0mg"},{"bike_id":"dc4fc55f-0ea9-49a1-bb39-4722eda2c2cd","system_id":"levelo_inurba_marseille","lat":43.29928,"lon":5.37651,"is_reserved":false,"is_disabled":false,"rental_uris":{"android":"levelo://app?vid=dc4fc55f-0ea9-49a1-bb39-4722eda2c2cd","ios":"levelo://app?vid=dc4fc55f-0ea9-49a1-bb39-4722eda2c2cd"},"vehicle_type_id":"4","last_reported":1739552852,"current_range_meters":21600,"station_id":"","pricing_plan_id":"cebpf4jnsgd1na2vs0mg"},{"bike_id":"c89e8576-aa6b-4f02-b633-1f8e869c50fe","system_id":"levelo_inurba_marseille","lat":43.29711,"lon":5.37695,"is_reserved":false,"is_disabled":false,"rental_uris":{"android":"levelo://app?vid=c89e8576-aa6b-4f02-b633-1f8e869c50fe","ios":"levelo://app?vid=c89e8576-aa6b-4f02-b633-1f8e869c50fe"},"vehicle_type_id":"4","last_reported":1739552852,"current_range_meters":33600,"station_id":"ce4bgkh2rcd13ifvqbl0","pricing_plan_id":"cebpf4jnsgd1na2vs0mg"},{"bike_id":"f4819c25-3e00-41ce-8105-106f04d74119","system_id":"levelo_inurba_marseille","lat":43.25578,"lon":5.38241,"is_reserved":false,"is_disabled":false,"rental_uris":{"android":"levelo://app?vid=f4819c25-3e00-41ce-8105-106f04d74119","ios":"levelo://app?vid=f4819c25-3e00-41ce-8105-106f04d74119"},"vehicle_type_id":"4","last_reported":1739552852,"current_range_meters":38800,"station_id":"ce4bhih2rcd13ifvqfs0","pricing_plan_id":"cebpf4jnsgd1na2vs0mg"},{"bike_id":"74e61451-83ce-4524-b0e7-3fb0b32641a8","system_id":"levelo_inurba_marseille","lat":43.28977,"lon":5.37833,"is_reserved":false,"is_disabled":false,"rental_uris":{"android":"levelo://app?vid=74e61451-83ce-4524-b0e7-3fb0b32641a8","ios":"levelo://app?vid=74e61451-83ce-4524-b0e7-3fb0b32641a8"},"vehicle_type_id":"4","last_reported":1739552852,"current_range_meters":32000,"station_id":"ce4bh9p2rcd13ifvqed0","pricing_plan_id":"cebpf4jnsgd1na2vs0mg"},{"bike_id":"4ad51a02-f2dd-46e4-a406-ba69455ffee4","system_id":"levelo_inurba_marseille","lat":43.28019,"lon":5.40845,"is_reserved":false,"is_disabled":false,"rental_uris":{"android":"levelo://app?vid=4ad51a02-f2dd-46e4-a406-ba69455ffee4","ios":"levelo://app?vid=4ad51a02-f2dd-46e4-a406-ba69455ffee4"},"vehicle_type_id":"4","last_reported":1739552852,"current_range_meters":11600,"station_id":"","pricing_plan_id":"cebpf4jnsgd1na2vs0mg"},{"bike_id":"17b38a89-eb01-4a5d-9e3f-4540b0bd95b8","system_id":"levelo_inurba_marseille","lat":43.2512,"lon":5.40318,"is_reserved":false,"is_disabled":false,"rental_uris":{"android":"levelo://app?vid=17b38a89-eb01-4a5d-9e3f-4540b0bd95b8","ios":"levelo://app?vid=17b38a89-eb01-4a5d-9e3f-4540b0bd95b8"},"vehicle_type_id":"4","last_reported":1739552852,"current_range_meters":38800,"station_id":"ce4bhlh2rcd13ifvqgig","pricing_plan_id":"cebpf4jnsgd1na2vs0mg"},{"bike_id":"bf7d337c-6423-4c9f-92a3-1b70d110e15a","system_id":"levelo_inurba_marseille","lat":43.25501,"lon":5.37654,"is_reserved":false,"is_disabled":false,"rental_uris":{"android":"levelo://app?vid=bf7d337c-6423-4c9f-92a3-1b70d110e15a","ios":"levelo://app?vid=bf7d337c-6423-4c9f-92a3-1b70d110e15a"},"vehicle_type_id":"4","last_reported":1739552852,"current_range_meters":27600,"station_id":"ce4bhh12rcd13ifvqff0","pricing_plan_id":"cebpf4jnsgd1na2vs0mg"},{"bike_id":"00a4e08f-061f-446d-9506-371f75a97092","system_id":"levelo_inurba_marseille","lat":43.27996,"lon":5.40035,"is_reserved":false,"is_disabled":false,"rental_uris":{"android":"levelo://app?vid=00a4e08f-061f-446d-9506-371f75a97092","ios":"levelo://app?vid=00a4e08f-061f-446d-9506-371f75a97092"},"vehicle_type_id":"4","last_reported":1739552852,"current_range_meters":21600,"station_id":"ce4bho92rcd13ifvqh4g","pricing_plan_id":"cebpf4jnsgd1na2vs0mg"},{"bike_id":"70806d95-a9c9-4e2b-bac6-20b07025c798","system_id":"levelo_inurba_marseille","lat":43.28464,"lon":5.37584,"is_reserved":false,"is_disabled":false,"rental_uris":{"android":"levelo://app?vid=70806d95-a9c9-4e2b-bac6-20b07025c798","ios":"levelo://app?vid=70806d95-a9c9-4e2b-bac6-20b07025c798"},"vehicle_type_id":"4","last_reported":1739552852,"current_range_meters":34800,"station_id":"ce4bh512rcd13ifvqe3g","pricing_plan_id":"cebpf4jnsgd1na2vs0mg"},{"bike_id":"03eba1d0-92c1-4e6e-a4d0-7c546f2439c0","system_id":"levelo_inurba_marseille","lat":43.337444,"lon":5.374475,"is_reserved":false,"is_disabled":true,"rental_uris":{"android":"levelo://app?vid=03eba1d0-92c1-4e6e-a4d0-7c546f2439c0","ios":"levelo://app?vid=03eba1d0-92c1-4e6e-a4d0-7c546f2439c0"},"vehicle_type_id":"4","last_reported":1739552852,"current_range_meters":0,"station_id":"","pricing_plan_id":"cebpf4jnsgd1na2vs0mg"},{"bike_id":"1504eae3-2c47-4bb5-8078-902e9ea1cb61","system_id":"levelo_inurba_marseille","lat":43.27318,"lon":5.39089,"is_reserved":false,"is_disabled":false,"rental_uris":{"android":"levelo://app?vid=1504eae3-2c47-4bb5-8078-902e9ea1cb61","ios":"levelo://app?vid=1504eae3-2c47-4bb5-8078-902e9ea1cb61"},"vehicle_type_id":"4","last_reported":1739552852,"current_range_meters":30000,"station_id":"ce4bhgp2rcd13ifvqfe0","pricing_plan_id":"cebpf4jnsgd1na2vs0mg"},{"bike_id":"37d274bc-7488-45e2-be26-b72715489ecd","system_id":"levelo_inurba_marseille","lat":43.2845,"lon":5.39205,"is_reserved":false,"is_disabled":true,"rental_uris":{"android":"levelo://app?vid=37d274bc-7488-45e2-be26-b72715489ecd","ios":"levelo://app?vid=37d274bc-7488-45e2-be26-b72715489ecd"},"vehicle_type_id":"4","last_reported":1739552852,"current_range_meters":38800,"station_id":"ce4bhoh2rcd13ifvqh5g","pricing_plan_id":"cebpf4jnsgd1na2vs0mg"},{"bike_id":"8208b9be-b2fb-4d4a-9708-6254e17f01c5","system_id":"levelo_inurba_marseille","lat":43.2549,"lon":5.37649,"is_reserved":false,"is_disabled":false,"rental_uris":{"android":"levelo://app?vid=8208b9be-b2fb-4d4a-9708-6254e17f01c5","ios":"levelo://app?vid=8208b9be-b2fb-4d4a-9708-6254e17f01c5"},"vehicle_type_id":"4","last_reported":1739552852,"current_range_meters":36800,"station_id":"ce4bhh12rcd13ifvqff0","pricing_plan_id":"cebpf4jnsgd1na2vs0mg"},{"bike_id":"a170b211-c142-460b-9fc9-9e53ceb12694","system_id":"levelo_inurba_marseille","lat":43.31078,"lon":5.38349,"is_reserved":false,"is_disabled":false,"rental_uris":{"android":"levelo://app?vid=a170b211-c142-460b-9fc9-9e53ceb12694","ios":"levelo://app?vid=a170b211-c142-460b-9fc9-9e53ceb12694"},"vehicle_type_id":"4","last_reported":1739552852,"current_range_meters":38400,"station_id":"ce4bgv92rcd13ifvqcr0","pricing_plan_id":"cebpf4jnsgd1na2vs0mg"},{"bike_id":"bf4aa825-b151-4831-a620-7f9eb59e17ec","system_id":"levelo_inurba_marseille","lat":43.27971,"lon":5.38735,"is_reserved":false,"is_disabled":true,"rental_uris":{"android":"levelo://app?vid=bf4aa825-b151-4831-a620-7f9eb59e17ec","ios":"levelo://app?vid=bf4aa825-b151-4831-a620-7f9eb59e17ec"},"vehicle_type_id":"4","last_reported":1739552852,"current_range_meters":1200,"station_id":"ce4bhg12rcd13ifvqf80","pricing_plan_id":"cebpf4jnsgd1na2vs0mg"},{"bike_id":"5016e875-414a-41bd-8f00-6a5845e39ba6","system_id":"levelo_inurba_marseille","lat":43.30806,"lon":5.43516,"is_reserved":false,"is_disabled":false,"rental_uris":{"android":"levelo://app?vid=5016e875-414a-41bd-8f00-6a5845e39ba6","ios":"levelo://app?vid=5016e875-414a-41bd-8f00-6a5845e39ba6"},"vehicle_type_id":"4","last_reported":1739552852,"current_range_meters":33600,"station_id":"ce4bhph2rcd13ifvqheg","pricing_plan_id":"cebpf4jnsgd1na2vs0mg"},{"bike_id":"283e69ea-73d2-4b99-bf14-5bf7704cdaf0","system_id":"levelo_inurba_marseille","lat":43.25091,"lon":5.3952,"is_reserved":false,"is_disabled":false,"rental_uris":{"android":"levelo://app?vid=283e69ea-73d2-4b99-bf14-5bf7704cdaf0","ios":"levelo://app?vid=283e69ea-73d2-4b99-bf14-5bf7704cdaf0"},"vehicle_type_id":"4","last_reported":1739552852,"current_range_meters":37600,"station_id":"ce4bhm12rcd13ifvqgkg","pricing_plan_id":"cebpf4jnsgd1na2vs0mg"},{"bike_id":"0e27a273-b179-4c27-8c6c-b607691a0412","system_id":"levelo_inurba_marseille","lat":43.29107,"lon":5.38133,"is_reserved":false,"is_disabled":false,"rental_uris":{"android":"levelo://app?vid=0e27a273-b179-4c27-8c6c-b607691a0412","ios":"levelo://app?vid=0e27a273-b179-4c27-8c6c-b607691a0412"},"vehicle_type_id":"4","last_reported":1739552852,"current_range_meters":38800,"station_id":"ce4bh512rcd13ifvqe2g","pricing_plan_id":"cebpf4jnsgd1na2vs0mg"},{"bike_id":"8a64ccef-59a8-4138-9675-07c356315e03","system_id":"levelo_inurba_marseille","lat":43.29683,"lon":5.37295,"is_reserved":false,"is_disabled":false,"rental_uris":{"android":"levelo://app?vid=8a64ccef-59a8-4138-9675-07c356315e03","ios":"levelo://app?vid=8a64ccef-59a8-4138-9675-07c356315e03"},"vehicle_type_id":"4","last_reported":1739552852,"current_range_meters":38000,"station_id":"ce4bgk12rcd13ifvqbj0","pricing_plan_id":"cebpf4jnsgd1na2vs0mg"},{"bike_id":"c4dd8c87-904d-40b1-9909-dc1c913c73e8","system_id":"levelo_inurba_marseille","lat":43.25857,"lon":5.39921,"is_reserved":false,"is_disabled":false,"rental_uris":{"android":"levelo://app?vid=c4dd8c87-904d-40b1-9909-dc1c913c73e8","ios":"levelo://app?vid=c4dd8c87-904d-40b1-9909-dc1c913c73e8"},"vehicle_type_id":"4","last_reported":1739552852,"current_range_meters":38800,"station_id":"ce4bhl92rcd13ifvqghg","pricing_plan_id":"cebpf4jnsgd1na2vs0mg"},{"bike_id":"3e87dcc7-7cea-4475-a5fb-757c699c3604","system_id":"levelo_inurba_marseille","lat":43.2986,"lon":5.39728,"is_reserved":false,"is_disabled":false,"rental_uris":{"android":"levelo://app?vid=3e87dcc7-7cea-4475-a5fb-757c699c3604","ios":"levelo://app?vid=3e87dcc7-7cea-4475-a5fb-757c699c3604"},"vehicle_type_id":"4","last_reported":1739552852,"current_range_meters":38000,"station_id":"ce4bh0h2rcd13ifvqd50","pricing_plan_id":"cebpf4jnsgd1na2vs0mg"},{"bike_id":"23e8dbf6-fc13-4f57-ad69-6249d03e37b8","system_id":"levelo_inurba_marseille","lat":43.30904,"lon":5.37192,"is_reserved":false,"is_disabled":false,"rental_uris":{"android":"levelo://app?vid=23e8dbf6-fc13-4f57-ad69-6249d03e37b8","ios":"levelo://app?vid=23e8dbf6-fc13-4f57-ad69-6249d03e37b8"},"vehicle_type_id":"4","last_reported":1739552852,"current_range_meters":24000,"station_id":"ce4bguh2rcd13ifvqckg","pricing_plan_id":"cebpf4jnsgd1na2vs0mg"},{"bike_id":"bd1fbd17-5ecd-4c2a-9290-d1ffd1a70214","system_id":"levelo_inurba_marseille","lat":43.29554,"lon":5.423,"is_reserved":false,"is_disabled":false,"rental_uris":{"android":"levelo://app?vid=bd1fbd17-5ecd-4c2a-9290-d1ffd1a70214","ios":"levelo://app?vid=bd1fbd17-5ecd-4c2a-9290-d1ffd1a70214"},"vehicle_type_id":"4","last_reported":1739552852,"current_range_meters":36400,"station_id":"ce4bhph2rcd13ifvqhdg","pricing_plan_id":"cebpf4jnsgd1na2vs0mg"},{"bike_id":"492e558b-0ce5-4984-b6b1-1d33f225a96b","system_id":"levelo_inurba_marseille","lat":43.24187,"lon":5.36401,"is_reserved":false,"is_disabled":false,"rental_uris":{"android":"levelo://app?vid=492e558b-0ce5-4984-b6b1-1d33f225a96b","ios":"levelo://app?vid=492e558b-0ce5-4984-b6b1-1d33f225a96b"},"vehicle_type_id":"4","last_reported":1739552852,"current_range_meters":37600,"station_id":"cpo36qri1sfpv3e86is0","pricing_plan_id":"cebpf4jnsgd1na2vs0mg"},{"bike_id":"8bce93c9-dbb4-465e-ab71-851dd9633402","system_id":"levelo_inurba_marseille","lat":43.27066,"lon":5.40254,"is_reserved":false,"is_disabled":true,"rental_uris":{"android":"levelo://app?vid=8bce93c9-dbb4-465e-ab71-851dd9633402","ios":"levelo://app?vid=8bce93c9-dbb4-465e-ab71-851dd9633402"},"vehicle_type_id":"4","last_reported":1739552852,"current_range_meters":400,"station_id":"ce4bhk92rcd13ifvqgc0","pricing_plan_id":"cebpf4jnsgd1na2vs0mg"},{"bike_id":"0b381da5-0c32-4b3f-aad8-d1ddba311a69","system_id":"levelo_inurba_marseille","lat":43.28417,"lon":5.3499,"is_reserved":false,"is_disabled":false,"rental_uris":{"android":"levelo://app?vid=0b381da5-0c32-4b3f-aad8-d1ddba311a69","ios":"levelo://app?vid=0b381da5-0c32-4b3f-aad8-d1ddba311a69"},"vehicle_type_id":"4","last_reported":1739552852,"current_range_meters":24800,"station_id":"ce4bhbh2rcd13ifvqepg","pricing_plan_id":"cebpf4jnsgd1na2vs0mg"},{"bike_id":"b3b6f050-f475-463b-9313-1a22d4caa120","system_id":"levelo_inurba_marseille","lat":43.30573,"lon":5.36559,"is_reserved":false,"is_disabled":false,"rental_uris":{"android":"levelo://app?vid=b3b6f050-f475-463b-9313-1a22d4caa120","ios":"levelo://app?vid=b3b6f050-f475-463b-9313-1a22d4caa120"},"vehicle_type_id":"4","last_reported":1739552852,"current_range_meters":30800,"station_id":"ce4bgs12rcd13ifvqcag","pricing_plan_id":"cebpf4jnsgd1na2vs0mg"},{"bike_id":"59f1ac15-b8d7-4194-8b6b-5db0a84196af","system_id":"levelo_inurba_marseille","lat":43.27999,"lon":5.40017,"is_reserved":false,"is_disabled":false,"rental_uris":{"android":"levelo://app?vid=59f1ac15-b8d7-4194-8b6b-5db0a84196af","ios":"levelo://app?vid=59f1ac15-b8d7-4194-8b6b-5db0a84196af"},"vehicle_type_id":"4","last_reported":1739552852,"current_range_meters":12000,"station_id":"ce4bho92rcd13ifvqh4g","pricing_plan_id":"cebpf4jnsgd1na2vs0mg"},{"bike_id":"4a952340-3ff3-422a-8e56-52faffd8c272","system_id":"levelo_inurba_marseille","lat":43.30096,"lon":5.39076,"is_reserved":false,"is_disabled":false,"rental_uris":{"android":"levelo://app?vid=4a952340-3ff3-422a-8e56-52faffd8c272","ios":"levelo://app?vid=4a952340-3ff3-422a-8e56-52faffd8c272"},"vehicle_type_id":"4","last_reported":1739552852,"current_range_meters":38800,"station_id":"ce4bh192rcd13ifvqdb0","pricing_plan_id":"cebpf4jnsgd1na2vs0mg"},{"bike_id":"ff489825-db76-49d3-aa98-c1c0aaa6bdad","system_id":"levelo_inurba_marseille","lat":43.29238,"lon":5.36663,"is_reserved":false,"is_disabled":false,"rental_uris":{"android":"levelo://app?vid=ff489825-db76-49d3-aa98-c1c0aaa6bdad","ios":"levelo://app?vid=ff489825-db76-49d3-aa98-c1c0aaa6bdad"},"vehicle_type_id":"4","last_reported":1739552852,"current_range_meters":6800,"station_id":"","pricing_plan_id":"cebpf4jnsgd1na2vs0mg"},{"bike_id":"dc710a51-cc92-4e15-ae02-d9723dde87cf","system_id":"levelo_inurba_marseille","lat":43.291,"lon":5.38147,"is_reserved":false,"is_disabled":false,"rental_uris":{"android":"levelo://app?vid=dc710a51-cc92-4e15-ae02-d9723dde87cf","ios":"levelo://app?vid=dc710a51-cc92-4e15-ae02-d9723dde87cf"},"vehicle_type_id":"4","last_reported":1739552852,"current_range_meters":28000,"station_id":"ce4bh512rcd13ifvqe2g","pricing_plan_id":"cebpf4jnsgd1na2vs0mg"},{"bike_id":"5c866377-fe38-44cd-a863-54b2355763e9","system_id":"levelo_inurba_marseille","lat":43.29029,"lon":5.38641,"is_reserved":false,"is_disabled":false,"rental_uris":{"android":"levelo://app?vid=5c866377-fe38-44cd-a863-54b2355763e9","ios":"levelo://app?vid=5c866377-fe38-44cd-a863-54b2355763e9"},"vehicle_type_id":"4","last_reported":1739552852,"current_range_meters":24400,"station_id":"ce4bh4p2rcd13ifvqe0g","pricing_plan_id":"cebpf4jnsgd1na2vs0mg"},{"bike_id":"8afabee6-63e2-412b-8a06-4286892f224b","system_id":"levelo_inurba_marseille","lat":43.29529,"lon":5.39048,"is_reserved":false,"is_disabled":false,"rental_uris":{"android":"levelo://app?vid=8afabee6-63e2-412b-8a06-4286892f224b","ios":"levelo://app?vid=8afabee6-63e2-412b-8a06-4286892f224b"},"vehicle_type_id":"4","last_reported":1739552852,"current_range_meters":29600,"station_id":"ce4bh3p2rcd13ifvqdp0","pricing_plan_id":"cebpf4jnsgd1na2vs0mg"},{"bike_id":"facec3af-dad1-4e2e-bcea-e0541e28e3e2","system_id":"levelo_inurba_marseille","lat":43.28935,"lon":5.36645,"is_reserved":false,"is_disabled":false,"rental_uris":{"android":"levelo://app?vid=facec3af-dad1-4e2e-bcea-e0541e28e3e2","ios":"levelo://app?vid=facec3af-dad1-4e2e-bcea-e0541e28e3e2"},"vehicle_type_id":"4","last_reported":1739552852,"current_range_meters":19600,"station_id":"ce4bhap2rcd13ifvqek0","pricing_plan_id":"cebpf4jnsgd1na2vs0mg"},{"bike_id":"85d24a4d-5b3f-4a2c-957d-09d3f550ee51","system_id":"levelo_inurba_marseille","lat":43.27923,"lon":5.39576,"is_reserved":false,"is_disabled":true,"rental_uris":{"android":"levelo://app?vid=85d24a4d-5b3f-4a2c-957d-09d3f550ee51","ios":"levelo://app?vid=85d24a4d-5b3f-4a2c-957d-09d3f550ee51"},"vehicle_type_id":"4","last_reported":1739552852,"current_range_meters":0,"station_id":"ce4bhf92rcd13ifvqf40","pricing_plan_id":"cebpf4jnsgd1na2vs0mg"},{"bike_id":"4ea2ddd8-d745-4f9a-9819-b4a078722dd4","system_id":"levelo_inurba_marseille","lat":43.30529,"lon":5.36526,"is_reserved":false,"is_disabled":false,"rental_uris":{"android":"levelo://app?vid=4ea2ddd8-d745-4f9a-9819-b4a078722dd4","ios":"levelo://app?vid=4ea2ddd8-d745-4f9a-9819-b4a078722dd4"},"vehicle_type_id":"4","last_reported":1739552852,"current_range_meters":38800,"station_id":"ce4bgs12rcd13ifvqcag","pricing_plan_id":"cebpf4jnsgd1na2vs0mg"},{"bike_id":"64827720-c2e5-4d81-bfed-1c4da7e9a69c","system_id":"levelo_inurba_marseille","lat":43.26499,"lon":5.39542,"is_reserved":false,"is_disabled":false,"rental_uris":{"android":"levelo://app?vid=64827720-c2e5-4d81-bfed-1c4da7e9a69c","ios":"levelo://app?vid=64827720-c2e5-4d81-bfed-1c4da7e9a69c"},"vehicle_type_id":"4","last_reported":1739552852,"current_range_meters":18000,"station_id":"ce4bhi12rcd13ifvqfq0","pricing_plan_id":"cebpf4jnsgd1na2vs0mg"},{"bike_id":"34d190c8-c9ae-47ad-8f5a-8fd7ee28b595","system_id":"levelo_inurba_marseille","lat":43.28842,"lon":5.35857,"is_reserved":false,"is_disabled":false,"rental_uris":{"android":"levelo://app?vid=34d190c8-c9ae-47ad-8f5a-8fd7ee28b595","ios":"levelo://app?vid=34d190c8-c9ae-47ad-8f5a-8fd7ee28b595"},"vehicle_type_id":"4","last_reported":1739552852,"current_range_meters":30000,"station_id":"ce4bhb12rcd13ifvqem0","pricing_plan_id":"cebpf4jnsgd1na2vs0mg"},{"bike_id":"7bb3c3c1-6da2-4ce4-8250-65715dd162df","system_id":"levelo_inurba_marseille","lat":43.27426,"lon":5.39422,"is_reserved":false,"is_disabled":true,"rental_uris":{"android":"levelo://app?vid=7bb3c3c1-6da2-4ce4-8250-65715dd162df","ios":"levelo://app?vid=7bb3c3c1-6da2-4ce4-8250-65715dd162df"},"vehicle_type_id":"4","last_reported":1739552852,"current_range_meters":0,"station_id":"ce4bhdp2rcd13ifvqf20","pricing_plan_id":"cebpf4jnsgd1na2vs0mg"},{"bike_id":"db081ba9-176b-4fc9-8df9-e8e41a9487a5","system_id":"levelo_inurba_marseille","lat":43.29897,"lon":5.38914,"is_reserved":false,"is_disabled":false,"rental_uris":{"android":"levelo://app?vid=db081ba9-176b-4fc9-8df9-e8e41a9487a5","ios":"levelo://app?vid=db081ba9-176b-4fc9-8df9-e8e41a9487a5"},"vehicle_type_id":"4","last_reported":1739552852,"current_range_meters":34000,"station_id":"ce4bh392rcd13ifvqdl0","pricing_plan_id":"cebpf4jnsgd1na2vs0mg"},{"bike_id":"564e4ed5-f649-48be-9fea-a5c4e638ce90","system_id":"levelo_inurba_marseille","lat":43.27066,"lon":5.40259,"is_reserved":false,"is_disabled":false,"rental_uris":{"android":"levelo://app?vid=564e4ed5-f649-48be-9fea-a5c4e638ce90","ios":"levelo://app?vid=564e4ed5-f649-48be-9fea-a5c4e638ce90"},"vehicle_type_id":"4","last_reported":1739552852,"current_range_meters":32000,"station_id":"ce4bhk92rcd13ifvqgc0","pricing_plan_id":"cebpf4jnsgd1na2vs0mg"},{"bike_id":"469df817-c238-4d61-8781-dabb1a74fb52","system_id":"levelo_inurba_marseille","lat":43.30609,"lon":5.37128,"is_reserved":false,"is_disabled":false,"rental_uris":{"android":"levelo://app?vid=469df817-c238-4d61-8781-dabb1a74fb52","ios":"levelo://app?vid=469df817-c238-4d61-8781-dabb1a74fb52"},"vehicle_type_id":"4","last_reported":1739552852,"current_range_meters":36800,"station_id":"","pricing_plan_id":"cebpf4jnsgd1na2vs0mg"},{"bike_id":"e56dea71-e97f-44c1-9fcb-d0b50fe35746","system_id":"levelo_inurba_marseille","lat":43.2917,"lon":5.37156,"is_reserved":false,"is_disabled":false,"rental_uris":{"android":"levelo://app?vid=e56dea71-e97f-44c1-9fcb-d0b50fe35746","ios":"levelo://app?vid=e56dea71-e97f-44c1-9fcb-d0b50fe35746"},"vehicle_type_id":"4","last_reported":1739552852,"current_range_meters":36800,"station_id":"ce4bha92rcd13ifvqeh0","pricing_plan_id":"cebpf4jnsgd1na2vs0mg"},{"bike_id":"5429a055-5c17-4863-ac08-ee7234bc7af8","system_id":"levelo_inurba_marseille","lat":43.32276,"lon":5.36843,"is_reserved":false,"is_disabled":false,"rental_uris":{"android":"levelo://app?vid=5429a055-5c17-4863-ac08-ee7234bc7af8","ios":"levelo://app?vid=5429a055-5c17-4863-ac08-ee7234bc7af8"},"vehicle_type_id":"4","last_reported":1739552852,"current_range_meters":36400,"station_id":"","pricing_plan_id":"cebpf4jnsgd1na2vs0mg"},{"bike_id":"12d18cba-fc00-4a74-8dfc-32a88e58af06","system_id":"levelo_inurba_marseille","lat":43.31116,"lon":5.37773,"is_reserved":false,"is_disabled":false,"rental_uris":{"android":"levelo://app?vid=12d18cba-fc00-4a74-8dfc-32a88e58af06","ios":"levelo://app?vid=12d18cba-fc00-4a74-8dfc-32a88e58af06"},"vehicle_type_id":"4","last_reported":1739552852,"current_range_meters":13600,"station_id":"ce4bgt92rcd13ifvqcg0","pricing_plan_id":"cebpf4jnsgd1na2vs0mg"},{"bike_id":"6c54bd98-99ce-4c61-b914-dd19c3edf238","system_id":"levelo_inurba_marseille","lat":43.24795,"lon":5.37459,"is_reserved":false,"is_disabled":false,"rental_uris":{"android":"levelo://app?vid=6c54bd98-99ce-4c61-b914-dd19c3edf238","ios":"levelo://app?vid=6c54bd98-99ce-4c61-b914-dd19c3edf238"},"vehicle_type_id":"4","last_reported":1739552852,"current_range_meters":38800,"station_id":"ce4bhgh2rcd13ifvqfb0","pricing_plan_id":"cebpf4jnsgd1na2vs0mg"},{"bike_id":"859c79c3-9c5b-47b3-94ad-94355d1f1457","system_id":"levelo_inurba_marseille","lat":43.24401,"lon":5.37076,"is_reserved":false,"is_disabled":false,"rental_uris":{"android":"levelo://app?vid=859c79c3-9c5b-47b3-94ad-94355d1f1457","ios":"levelo://app?vid=859c79c3-9c5b-47b3-94ad-94355d1f1457"},"vehicle_type_id":"4","last_reported":1739552852,"current_range_meters":11200,"station_id":"ce4bhhh2rcd13ifvqfk0","pricing_plan_id":"cebpf4jnsgd1na2vs0mg"},{"bike_id":"085d3b28-d10c-4b86-9755-e0c0f5278ea1","system_id":"levelo_inurba_marseille","lat":43.29937,"lon":5.36552,"is_reserved":false,"is_disabled":false,"rental_uris":{"android":"levelo://app?vid=085d3b28-d10c-4b86-9755-e0c0f5278ea1","ios":"levelo://app?vid=085d3b28-d10c-4b86-9755-e0c0f5278ea1"},"vehicle_type_id":"4","last_reported":1739552852,"current_range_meters":20000,"station_id":"ce4bgm92rcd13ifvqbr0","pricing_plan_id":"cebpf4jnsgd1na2vs0mg"},{"bike_id":"ec852300-ed2d-4d02-a9b0-189d8c79428c","system_id":"levelo_inurba_marseille","lat":43.30302,"lon":5.36912,"is_reserved":false,"is_disabled":false,"rental_uris":{"android":"levelo://app?vid=ec852300-ed2d-4d02-a9b0-189d8c79428c","ios":"levelo://app?vid=ec852300-ed2d-4d02-a9b0-189d8c79428c"},"vehicle_type_id":"4","last_reported":1739552852,"current_range_meters":20000,"station_id":"ce4bgqh2rcd13ifvqc5g","pricing_plan_id":"cebpf4jnsgd1na2vs0mg"},{"bike_id":"93b2bead-6d7d-47b0-acbc-2c4d6703f671","system_id":"levelo_inurba_marseille","lat":43.2986,"lon":5.36285,"is_reserved":false,"is_disabled":false,"rental_uris":{"android":"levelo://app?vid=93b2bead-6d7d-47b0-acbc-2c4d6703f671","ios":"levelo://app?vid=93b2bead-6d7d-47b0-acbc-2c4d6703f671"},"vehicle_type_id":"4","last_reported":1739552852,"current_range_meters":38800,"station_id":"ce4bgpp2rcd13ifvqc3g","pricing_plan_id":"cebpf4jnsgd1na2vs0mg"},{"bike_id":"744fb4f1-7e88-4d15-903d-8b369cd072b0","system_id":"levelo_inurba_marseille","lat":43.2995,"lon":5.38541,"is_reserved":false,"is_disabled":true,"rental_uris":{"android":"levelo://app?vid=744fb4f1-7e88-4d15-903d-8b369cd072b0","ios":"levelo://app?vid=744fb4f1-7e88-4d15-903d-8b369cd072b0"},"vehicle_type_id":"4","last_reported":1739552852,"current_range_meters":0,"station_id":"","pricing_plan_id":"cebpf4jnsgd1na2vs0mg"},{"bike_id":"981f0c84-c763-4744-ab7e-6d6374d30546","system_id":"levelo_inurba_marseille","lat":43.25496,"lon":5.37652,"is_reserved":false,"is_disabled":false,"rental_uris":{"android":"levelo://app?vid=981f0c84-c763-4744-ab7e-6d6374d30546","ios":"levelo://app?vid=981f0c84-c763-4744-ab7e-6d6374d30546"},"vehicle_type_id":"4","last_reported":1739552852,"current_range_meters":30800,"station_id":"ce4bhh12rcd13ifvqff0","pricing_plan_id":"cebpf4jnsgd1na2vs0mg"},{"bike_id":"cf32f974-176f-413e-ae8d-12ed37a9cd2b","system_id":"levelo_inurba_marseille","lat":43.2889,"lon":5.42867,"is_reserved":false,"is_disabled":false,"rental_uris":{"android":"levelo://app?vid=cf32f974-176f-413e-ae8d-12ed37a9cd2b","ios":"levelo://app?vid=cf32f974-176f-413e-ae8d-12ed37a9cd2b"},"vehicle_type_id":"4","last_reported":1739552852,"current_range_meters":10800,"station_id":"","pricing_plan_id":"cebpf4jnsgd1na2vs0mg"},{"bike_id":"4c17efce-6413-4534-8267-7be847b3cdde","system_id":"levelo_inurba_marseille","lat":43.30109,"lon":5.39067,"is_reserved":false,"is_disabled":false,"rental_uris":{"android":"levelo://app?vid=4c17efce-6413-4534-8267-7be847b3cdde","ios":"levelo://app?vid=4c17efce-6413-4534-8267-7be847b3cdde"},"vehicle_type_id":"4","last_reported":1739552852,"current_range_meters":38800,"station_id":"ce4bh192rcd13ifvqdb0","pricing_plan_id":"cebpf4jnsgd1na2vs0mg"},{"bike_id":"24c9fd7a-dfb5-4755-9c33-7fb2bb66a39c","system_id":"levelo_inurba_marseille","lat":43.31229,"lon":5.37395,"is_reserved":false,"is_disabled":false,"rental_uris":{"android":"levelo://app?vid=24c9fd7a-dfb5-4755-9c33-7fb2bb66a39c","ios":"levelo://app?vid=24c9fd7a-dfb5-4755-9c33-7fb2bb66a39c"},"vehicle_type_id":"4","last_reported":1739552852,"current_range_meters":7200,"station_id":"","pricing_plan_id":"cebpf4jnsgd1na2vs0mg"},{"bike_id":"30a0387a-b4f9-4e4b-9234-535a916f7f58","system_id":"levelo_inurba_marseille","lat":43.26207,"lon":5.37941,"is_reserved":false,"is_disabled":false,"rental_uris":{"android":"levelo://app?vid=30a0387a-b4f9-4e4b-9234-535a916f7f58","ios":"levelo://app?vid=30a0387a-b4f9-4e4b-9234-535a916f7f58"},"vehicle_type_id":"4","last_reported":1739552852,"current_range_meters":2800,"station_id":"ce4bhjp2rcd13ifvqg90","pricing_plan_id":"cebpf4jnsgd1na2vs0mg"},{"bike_id":"f3577e40-d3b4-4c9c-af82-d1b37865ee10","system_id":"levelo_inurba_marseille","lat":43.25578,"lon":5.38256,"is_reserved":false,"is_disabled":false,"rental_uris":{"android":"levelo://app?vid=f3577e40-d3b4-4c9c-af82-d1b37865ee10","ios":"levelo://app?vid=f3577e40-d3b4-4c9c-af82-d1b37865ee10"},"vehicle_type_id":"4","last_reported":1739552852,"current_range_meters":8000,"station_id":"ce4bhih2rcd13ifvqfs0","pricing_plan_id":"cebpf4jnsgd1na2vs0mg"},{"bike_id":"9fe907ee-be20-4d9f-97d2-4d173f819e3b","system_id":"levelo_inurba_marseille","lat":43.29633,"lon":5.3716,"is_reserved":false,"is_disabled":false,"rental_uris":{"android":"levelo://app?vid=9fe907ee-be20-4d9f-97d2-4d173f819e3b","ios":"levelo://app?vid=9fe907ee-be20-4d9f-97d2-4d173f819e3b"},"vehicle_type_id":"4","last_reported":1739552852,"current_range_meters":12000,"station_id":"ce4bgnh2rcd13ifvqc0g","pricing_plan_id":"cebpf4jnsgd1na2vs0mg"},{"bike_id":"02dd5004-90f6-4274-b567-f6406bd72f04","system_id":"levelo_inurba_marseille","lat":43.27822,"lon":5.40709,"is_reserved":false,"is_disabled":false,"rental_uris":{"android":"levelo://app?vid=02dd5004-90f6-4274-b567-f6406bd72f04","ios":"levelo://app?vid=02dd5004-90f6-4274-b567-f6406bd72f04"},"vehicle_type_id":"4","last_reported":1739552852,"current_range_meters":5600,"station_id":"ce4bhnh2rcd13ifvqgtg","pricing_plan_id":"cebpf4jnsgd1na2vs0mg"},{"bike_id":"a8cb174b-a028-4d1e-9d57-786b91606ee0","system_id":"levelo_inurba_marseille","lat":43.27167,"lon":5.41005,"is_reserved":false,"is_disabled":false,"rental_uris":{"android":"levelo://app?vid=a8cb174b-a028-4d1e-9d57-786b91606ee0","ios":"levelo://app?vid=a8cb174b-a028-4d1e-9d57-786b91606ee0"},"vehicle_type_id":"4","last_reported":1739552852,"current_range_meters":24000,"station_id":"ce4bhl12rcd13ifvqgf0","pricing_plan_id":"cebpf4jnsgd1na2vs0mg"},{"bike_id":"a0b5fc8f-c939-4ac7-b932-de16b49d87dc","system_id":"levelo_inurba_marseille","lat":43.30319,"lon":5.4045,"is_reserved":false,"is_disabled":false,"rental_uris":{"android":"levelo://app?vid=a0b5fc8f-c939-4ac7-b932-de16b49d87dc","ios":"levelo://app?vid=a0b5fc8f-c939-4ac7-b932-de16b49d87dc"},"vehicle_type_id":"4","last_reported":1739552852,"current_range_meters":37600,"station_id":"ce4bh012rcd13ifvqd10","pricing_plan_id":"cebpf4jnsgd1na2vs0mg"},{"bike_id":"4a9c98be-9ea5-4e24-880f-c50568f6c04f","system_id":"levelo_inurba_marseille","lat":43.26935,"lon":5.38907,"is_reserved":false,"is_disabled":false,"rental_uris":{"android":"levelo://app?vid=4a9c98be-9ea5-4e24-880f-c50568f6c04f","ios":"levelo://app?vid=4a9c98be-9ea5-4e24-880f-c50568f6c04f"},"vehicle_type_id":"4","last_reported":1739552852,"current_range_meters":38800,"station_id":"ce4bhhh2rcd13ifvqfl0","pricing_plan_id":"cebpf4jnsgd1na2vs0mg"},{"bike_id":"8aaaf4bd-52d3-4c02-95f5-a362afb418f3","system_id":"levelo_inurba_marseille","lat":43.28692,"lon":5.37404,"is_reserved":false,"is_disabled":false,"rental_uris":{"android":"levelo://app?vid=8aaaf4bd-52d3-4c02-95f5-a362afb418f3","ios":"levelo://app?vid=8aaaf4bd-52d3-4c02-95f5-a362afb418f3"},"vehicle_type_id":"4","last_reported":1739552852,"current_range_meters":34800,"station_id":"ce4bh3p2rcd13ifvqdq0","pricing_plan_id":"cebpf4jnsgd1na2vs0mg"},{"bike_id":"9ca4262e-1f55-43a1-8034-df86233e1596","system_id":"levelo_inurba_marseille","lat":43.296005,"lon":5.381028,"is_reserved":false,"is_disabled":false,"rental_uris":{"android":"levelo://app?vid=9ca4262e-1f55-43a1-8034-df86233e1596","ios":"levelo://app?vid=9ca4262e-1f55-43a1-8034-df86233e1596"},"vehicle_type_id":"4","last_reported":1739552852,"current_range_meters":19200,"station_id":"ce4bgl12rcd13ifvqbo0","pricing_plan_id":"cebpf4jnsgd1na2vs0mg"},{"bike_id":"8982d3a8-3817-4157-825b-6c6cffa0cd99","system_id":"levelo_inurba_marseille","lat":43.29986,"lon":5.38498,"is_reserved":false,"is_disabled":false,"rental_uris":{"android":"levelo://app?vid=8982d3a8-3817-4157-825b-6c6cffa0cd99","ios":"levelo://app?vid=8982d3a8-3817-4157-825b-6c6cffa0cd99"},"vehicle_type_id":"4","last_reported":1739552852,"current_range_meters":24400,"station_id":"ce4bgj92rcd13ifvqbd0","pricing_plan_id":"cebpf4jnsgd1na2vs0mg"},{"bike_id":"9a490f44-e60a-422f-8258-97362c608cf9","system_id":"levelo_inurba_marseille","lat":43.31114,"lon":5.3778,"is_reserved":false,"is_disabled":false,"rental_uris":{"android":"levelo://app?vid=9a490f44-e60a-422f-8258-97362c608cf9","ios":"levelo://app?vid=9a490f44-e60a-422f-8258-97362c608cf9"},"vehicle_type_id":"4","last_reported":1739552852,"current_range_meters":16400,"station_id":"ce4bgt92rcd13ifvqcg0","pricing_plan_id":"cebpf4jnsgd1na2vs0mg"},{"bike_id":"4c509751-6ff3-4dad-b0ba-1fc5be5f9d37","system_id":"levelo_inurba_marseille","lat":43.30541,"lon":5.36534,"is_reserved":false,"is_disabled":false,"rental_uris":{"android":"levelo://app?vid=4c509751-6ff3-4dad-b0ba-1fc5be5f9d37","ios":"levelo://app?vid=4c509751-6ff3-4dad-b0ba-1fc5be5f9d37"},"vehicle_type_id":"4","last_reported":1739552852,"current_range_meters":33200,"station_id":"ce4bgs12rcd13ifvqcag","pricing_plan_id":"cebpf4jnsgd1na2vs0mg"},{"bike_id":"25e2f5c0-d416-4e0e-b10b-80dd1188218e","system_id":"levelo_inurba_marseille","lat":43.298,"lon":5.40409,"is_reserved":false,"is_disabled":false,"rental_uris":{"android":"levelo://app?vid=25e2f5c0-d416-4e0e-b10b-80dd1188218e","ios":"levelo://app?vid=25e2f5c0-d416-4e0e-b10b-80dd1188218e"},"vehicle_type_id":"4","last_reported":1739552852,"current_range_meters":37600,"station_id":"ce4bh112rcd13ifvqd90","pricing_plan_id":"cebpf4jnsgd1na2vs0mg"},{"bike_id":"ddf1d674-41d6-443f-b0f1-1da7df267862","system_id":"levelo_inurba_marseille","lat":43.230513,"lon":5.355027,"is_reserved":false,"is_disabled":false,"rental_uris":{"android":"levelo://app?vid=ddf1d674-41d6-443f-b0f1-1da7df267862","ios":"levelo://app?vid=ddf1d674-41d6-443f-b0f1-1da7df267862"},"vehicle_type_id":"4","last_reported":1739552852,"current_range_meters":24800,"station_id":"cpo3342slgdg3j2ifvpg","pricing_plan_id":"cebpf4jnsgd1na2vs0mg"},{"bike_id":"5b87e34f-e9bb-47d0-829d-382e7c8b0a92","system_id":"levelo_inurba_marseille","lat":43.24649,"lon":5.38894,"is_reserved":false,"is_disabled":false,"rental_uris":{"android":"levelo://app?vid=5b87e34f-e9bb-47d0-829d-382e7c8b0a92","ios":"levelo://app?vid=5b87e34f-e9bb-47d0-829d-382e7c8b0a92"},"vehicle_type_id":"4","last_reported":1739552852,"current_range_meters":9200,"station_id":"ce4bhg12rcd13ifvqf60","pricing_plan_id":"cebpf4jnsgd1na2vs0mg"},{"bike_id":"1a1cb256-3b19-4e4f-b9dc-dae154ac3702","system_id":"levelo_inurba_marseille","lat":43.26232,"lon":5.37429,"is_reserved":false,"is_disabled":false,"rental_uris":{"android":"levelo://app?vid=1a1cb256-3b19-4e4f-b9dc-dae154ac3702","ios":"levelo://app?vid=1a1cb256-3b19-4e4f-b9dc-dae154ac3702"},"vehicle_type_id":"4","last_reported":1739552852,"current_range_meters":32000,"station_id":"ce4bhgp2rcd13ifvqfc0","pricing_plan_id":"cebpf4jnsgd1na2vs0mg"},{"bike_id":"961a673c-d947-4d26-a3ae-77c8bcc99d44","system_id":"levelo_inurba_marseille","lat":43.25501,"lon":5.37651,"is_reserved":false,"is_disabled":false,"rental_uris":{"android":"levelo://app?vid=961a673c-d947-4d26-a3ae-77c8bcc99d44","ios":"levelo://app?vid=961a673c-d947-4d26-a3ae-77c8bcc99d44"},"vehicle_type_id":"4","last_reported":1739552852,"current_range_meters":6400,"station_id":"ce4bhh12rcd13ifvqff0","pricing_plan_id":"cebpf4jnsgd1na2vs0mg"},{"bike_id":"9916c697-7537-46b8-88dc-843eadd09b1e","system_id":"levelo_inurba_marseille","lat":43.31165,"lon":5.38724,"is_reserved":false,"is_disabled":false,"rental_uris":{"android":"levelo://app?vid=9916c697-7537-46b8-88dc-843eadd09b1e","ios":"levelo://app?vid=9916c697-7537-46b8-88dc-843eadd09b1e"},"vehicle_type_id":"4","last_reported":1739552852,"current_range_meters":30800,"station_id":"ce4bgv12rcd13ifvqcp0","pricing_plan_id":"cebpf4jnsgd1na2vs0mg"},{"bike_id":"c9645a26-5874-480f-a11e-46d2257542e0","system_id":"levelo_inurba_marseille","lat":43.27553,"lon":5.387,"is_reserved":false,"is_disabled":false,"rental_uris":{"android":"levelo://app?vid=c9645a26-5874-480f-a11e-46d2257542e0","ios":"levelo://app?vid=c9645a26-5874-480f-a11e-46d2257542e0"},"vehicle_type_id":"4","last_reported":1739552852,"current_range_meters":32800,"station_id":"","pricing_plan_id":"cebpf4jnsgd1na2vs0mg"},{"bike_id":"4450d397-c7c4-4c68-aed9-fa811598c082","system_id":"levelo_inurba_marseille","lat":43.32537,"lon":5.36515,"is_reserved":false,"is_disabled":false,"rental_uris":{"android":"levelo://app?vid=4450d397-c7c4-4c68-aed9-fa811598c082","ios":"levelo://app?vid=4450d397-c7c4-4c68-aed9-fa811598c082"},"vehicle_type_id":"4","last_reported":1739552852,"current_range_meters":29600,"station_id":"","pricing_plan_id":"cebpf4jnsgd1na2vs0mg"},{"bike_id":"d27b74ac-113c-4fd0-b908-2d78c11f3530","system_id":"levelo_inurba_marseille","lat":43.3043,"lon":5.38886,"is_reserved":false,"is_disabled":false,"rental_uris":{"android":"levelo://app?vid=d27b74ac-113c-4fd0-b908-2d78c11f3530","ios":"levelo://app?vid=d27b74ac-113c-4fd0-b908-2d78c11f3530"},"vehicle_type_id":"4","last_reported":1739552852,"current_range_meters":18000,"station_id":"ce4bgk12rcd13ifvqbi0","pricing_plan_id":"cebpf4jnsgd1na2vs0mg"},{"bike_id":"28a16aee-71d6-4cb1-b35a-d4320a6bf584","system_id":"levelo_inurba_marseille","lat":43.32369,"lon":5.38874,"is_reserved":false,"is_disabled":false,"rental_uris":{"android":"levelo://app?vid=28a16aee-71d6-4cb1-b35a-d4320a6bf584","ios":"levelo://app?vid=28a16aee-71d6-4cb1-b35a-d4320a6bf584"},"vehicle_type_id":"4","last_reported":1739552852,"current_range_meters":24000,"station_id":"ce4bhqp2rcd13ifvqhog","pricing_plan_id":"cebpf4jnsgd1na2vs0mg"},{"bike_id":"59cb679e-245c-46b7-bc74-dfa7c14bb16c","system_id":"levelo_inurba_marseille","lat":43.29004,"lon":5.35617,"is_reserved":false,"is_disabled":true,"rental_uris":{"android":"levelo://app?vid=59cb679e-245c-46b7-bc74-dfa7c14bb16c","ios":"levelo://app?vid=59cb679e-245c-46b7-bc74-dfa7c14bb16c"},"vehicle_type_id":"4","last_reported":1739552852,"current_range_meters":38800,"station_id":"ce4bhb92rcd13ifvqen0","pricing_plan_id":"cebpf4jnsgd1na2vs0mg"},{"bike_id":"36ac1b33-f00e-4eb9-b212-c06976f935f5","system_id":"levelo_inurba_marseille","lat":43.27668,"lon":5.38893,"is_reserved":false,"is_disabled":false,"rental_uris":{"android":"levelo://app?vid=36ac1b33-f00e-4eb9-b212-c06976f935f5","ios":"levelo://app?vid=36ac1b33-f00e-4eb9-b212-c06976f935f5"},"vehicle_type_id":"4","last_reported":1739552852,"current_range_meters":35600,"station_id":"ce4bhi12rcd13ifvqfo0","pricing_plan_id":"cebpf4jnsgd1na2vs0mg"},{"bike_id":"a8bc8483-ceef-456e-92ec-efcc9ae8cb95","system_id":"levelo_inurba_marseille","lat":43.27611,"lon":5.36115,"is_reserved":false,"is_disabled":false,"rental_uris":{"android":"levelo://app?vid=a8bc8483-ceef-456e-92ec-efcc9ae8cb95","ios":"levelo://app?vid=a8bc8483-ceef-456e-92ec-efcc9ae8cb95"},"vehicle_type_id":"4","last_reported":1739552852,"current_range_meters":38000,"station_id":"ce4bgj92rcd13ifvqbe0","pricing_plan_id":"cebpf4jnsgd1na2vs0mg"},{"bike_id":"ef8053eb-5d87-4eff-b714-0726f282fbc9","system_id":"levelo_inurba_marseille","lat":43.27818,"lon":5.40722,"is_reserved":false,"is_disabled":false,"rental_uris":{"android":"levelo://app?vid=ef8053eb-5d87-4eff-b714-0726f282fbc9","ios":"levelo://app?vid=ef8053eb-5d87-4eff-b714-0726f282fbc9"},"vehicle_type_id":"4","last_reported":1739552852,"current_range_meters":12000,"station_id":"ce4bhnh2rcd13ifvqgtg","pricing_plan_id":"cebpf4jnsgd1na2vs0mg"},{"bike_id":"6b656e81-a99f-458b-b133-2509327cf097","system_id":"levelo_inurba_marseille","lat":43.2825,"lon":5.36088,"is_reserved":false,"is_disabled":false,"rental_uris":{"android":"levelo://app?vid=6b656e81-a99f-458b-b133-2509327cf097","ios":"levelo://app?vid=6b656e81-a99f-458b-b133-2509327cf097"},"vehicle_type_id":"4","last_reported":1739552852,"current_range_meters":12800,"station_id":"","pricing_plan_id":"cebpf4jnsgd1na2vs0mg"},{"bike_id":"fb27585c-d37a-46e8-9dff-7cf672c65eab","system_id":"levelo_inurba_marseille","lat":43.30151,"lon":5.374107,"is_reserved":false,"is_disabled":false,"rental_uris":{"android":"levelo://app?vid=fb27585c-d37a-46e8-9dff-7cf672c65eab","ios":"levelo://app?vid=fb27585c-d37a-46e8-9dff-7cf672c65eab"},"vehicle_type_id":"4","last_reported":1739552852,"current_range_meters":26000,"station_id":"ce4bgs92rcd13ifvqcc0","pricing_plan_id":"cebpf4jnsgd1na2vs0mg"},{"bike_id":"b7675672-ea91-4212-a3c2-1e75ea117425","system_id":"levelo_inurba_marseille","lat":43.28153,"lon":5.42646,"is_reserved":false,"is_disabled":true,"rental_uris":{"android":"levelo://app?vid=b7675672-ea91-4212-a3c2-1e75ea117425","ios":"levelo://app?vid=b7675672-ea91-4212-a3c2-1e75ea117425"},"vehicle_type_id":"4","last_reported":1739552852,"current_range_meters":400,"station_id":"ce4bhnh2rcd13ifvqgug","pricing_plan_id":"cebpf4jnsgd1na2vs0mg"},{"bike_id":"8cd34743-59ad-4597-983e-df465622bf8b","system_id":"levelo_inurba_marseille","lat":43.28691,"lon":5.38668,"is_reserved":false,"is_disabled":false,"rental_uris":{"android":"levelo://app?vid=8cd34743-59ad-4597-983e-df465622bf8b","ios":"levelo://app?vid=8cd34743-59ad-4597-983e-df465622bf8b"},"vehicle_type_id":"4","last_reported":1739552852,"current_range_meters":38800,"station_id":"ce4bh492rcd13ifvqdug","pricing_plan_id":"cebpf4jnsgd1na2vs0mg"},{"bike_id":"2fc0a9cc-670d-4db6-87bb-824abe353b61","system_id":"levelo_inurba_marseille","lat":43.29555,"lon":5.42294,"is_reserved":false,"is_disabled":false,"rental_uris":{"android":"levelo://app?vid=2fc0a9cc-670d-4db6-87bb-824abe353b61","ios":"levelo://app?vid=2fc0a9cc-670d-4db6-87bb-824abe353b61"},"vehicle_type_id":"4","last_reported":1739552852,"current_range_meters":28800,"station_id":"ce4bhph2rcd13ifvqhdg","pricing_plan_id":"cebpf4jnsgd1na2vs0mg"},{"bike_id":"97d5f463-3a89-4c90-bf0c-940e2db707a8","system_id":"levelo_inurba_marseille","lat":43.27847,"lon":5.39231,"is_reserved":false,"is_disabled":false,"rental_uris":{"android":"levelo://app?vid=97d5f463-3a89-4c90-bf0c-940e2db707a8","ios":"levelo://app?vid=97d5f463-3a89-4c90-bf0c-940e2db707a8"},"vehicle_type_id":"4","last_reported":1739552852,"current_range_meters":38800,"station_id":"ce4bhjp2rcd13ifvqga0","pricing_plan_id":"cebpf4jnsgd1na2vs0mg"},{"bike_id":"bc2d6f30-01ba-49a0-b027-6ae9177d6482","system_id":"levelo_inurba_marseille","lat":43.31316,"lon":5.39708,"is_reserved":false,"is_disabled":false,"rental_uris":{"android":"levelo://app?vid=bc2d6f30-01ba-49a0-b027-6ae9177d6482","ios":"levelo://app?vid=bc2d6f30-01ba-49a0-b027-6ae9177d6482"},"vehicle_type_id":"4","last_reported":1739552852,"current_range_meters":14000,"station_id":"ce4bgvp2rcd13ifvqcu0","pricing_plan_id":"cebpf4jnsgd1na2vs0mg"},{"bike_id":"53c5123e-435e-4aee-91a5-e6ad241f2d76","system_id":"levelo_inurba_marseille","lat":43.31271,"lon":5.36829,"is_reserved":false,"is_disabled":false,"rental_uris":{"android":"levelo://app?vid=53c5123e-435e-4aee-91a5-e6ad241f2d76","ios":"levelo://app?vid=53c5123e-435e-4aee-91a5-e6ad241f2d76"},"vehicle_type_id":"4","last_reported":1739552852,"current_range_meters":24000,"station_id":"","pricing_plan_id":"cebpf4jnsgd1na2vs0mg"},{"bike_id":"62862006-05b4-4c32-b74d-3d73ca0f3a49","system_id":"levelo_inurba_marseille","lat":43.29493,"lon":5.36395,"is_reserved":false,"is_disabled":true,"rental_uris":{"android":"levelo://app?vid=62862006-05b4-4c32-b74d-3d73ca0f3a49","ios":"levelo://app?vid=62862006-05b4-4c32-b74d-3d73ca0f3a49"},"vehicle_type_id":"4","last_reported":1739552852,"current_range_meters":25600,"station_id":"","pricing_plan_id":"cebpf4jnsgd1na2vs0mg"},{"bike_id":"cf0e725c-44cd-44a8-9a81-55c99ac7471b","system_id":"levelo_inurba_marseille","lat":43.29534,"lon":5.39405,"is_reserved":false,"is_disabled":false,"rental_uris":{"android":"levelo://app?vid=cf0e725c-44cd-44a8-9a81-55c99ac7471b","ios":"levelo://app?vid=cf0e725c-44cd-44a8-9a81-55c99ac7471b"},"vehicle_type_id":"4","last_reported":1739552852,"current_range_meters":33200,"station_id":"ce4bh292rcd13ifvqdf0","pricing_plan_id":"cebpf4jnsgd1na2vs0mg"},{"bike_id":"55c71887-75ae-440f-aed8-5a0380896118","system_id":"levelo_inurba_marseille","lat":43.298501,"lon":5.362921,"is_reserved":false,"is_disabled":true,"rental_uris":{"android":"levelo://app?vid=55c71887-75ae-440f-aed8-5a0380896118","ios":"levelo://app?vid=55c71887-75ae-440f-aed8-5a0380896118"},"vehicle_type_id":"4","last_reported":1739552852,"current_range_meters":36000,"station_id":"ce4bgpp2rcd13ifvqc3g","pricing_plan_id":"cebpf4jnsgd1na2vs0mg"},{"bike_id":"d53dfbe1-e8b6-48e2-bf13-5a5bbc2c73e4","system_id":"levelo_inurba_marseille","lat":43.30451,"lon":5.38897,"is_reserved":false,"is_disabled":false,"rental_uris":{"android":"levelo://app?vid=d53dfbe1-e8b6-48e2-bf13-5a5bbc2c73e4","ios":"levelo://app?vid=d53dfbe1-e8b6-48e2-bf13-5a5bbc2c73e4"},"vehicle_type_id":"4","last_reported":1739552852,"current_range_meters":38000,"station_id":"ce4bgk12rcd13ifvqbi0","pricing_plan_id":"cebpf4jnsgd1na2vs0mg"},{"bike_id":"63dcde03-1c93-4b06-98de-c17e2e2a1b80","system_id":"levelo_inurba_marseille","lat":43.30358,"lon":5.41894,"is_reserved":false,"is_disabled":false,"rental_uris":{"android":"levelo://app?vid=63dcde03-1c93-4b06-98de-c17e2e2a1b80","ios":"levelo://app?vid=63dcde03-1c93-4b06-98de-c17e2e2a1b80"},"vehicle_type_id":"4","last_reported":1739552852,"current_range_meters":38800,"station_id":"ce4bhop2rcd13ifvqh7g","pricing_plan_id":"cebpf4jnsgd1na2vs0mg"},{"bike_id":"687a86aa-c5b0-48d7-901b-9b842cb4e172","system_id":"levelo_inurba_marseille","lat":43.2954,"lon":5.3941,"is_reserved":false,"is_disabled":false,"rental_uris":{"android":"levelo://app?vid=687a86aa-c5b0-48d7-901b-9b842cb4e172","ios":"levelo://app?vid=687a86aa-c5b0-48d7-901b-9b842cb4e172"},"vehicle_type_id":"4","last_reported":1739552852,"current_range_meters":38800,"station_id":"ce4bh292rcd13ifvqdf0","pricing_plan_id":"cebpf4jnsgd1na2vs0mg"},{"bike_id":"3760be46-9947-4266-a54f-ee253cc823c2","system_id":"levelo_inurba_marseille","lat":43.287,"lon":5.37421,"is_reserved":false,"is_disabled":false,"rental_uris":{"android":"levelo://app?vid=3760be46-9947-4266-a54f-ee253cc823c2","ios":"levelo://app?vid=3760be46-9947-4266-a54f-ee253cc823c2"},"vehicle_type_id":"4","last_reported":1739552852,"current_range_meters":38400,"station_id":"ce4bh3p2rcd13ifvqdq0","pricing_plan_id":"cebpf4jnsgd1na2vs0mg"},{"bike_id":"c57791be-34c6-48a3-9ddf-175290ebf2ed","system_id":"levelo_inurba_marseille","lat":43.28466,"lon":5.35899,"is_reserved":false,"is_disabled":false,"rental_uris":{"android":"levelo://app?vid=c57791be-34c6-48a3-9ddf-175290ebf2ed","ios":"levelo://app?vid=c57791be-34c6-48a3-9ddf-175290ebf2ed"},"vehicle_type_id":"4","last_reported":1739552852,"current_range_meters":35600,"station_id":"ce4bhah2rcd13ifvqei0","pricing_plan_id":"cebpf4jnsgd1na2vs0mg"},{"bike_id":"19a5647a-b57f-4bbb-afce-edaed3e78496","system_id":"levelo_inurba_marseille","lat":43.29097,"lon":5.38132,"is_reserved":false,"is_disabled":false,"rental_uris":{"android":"levelo://app?vid=19a5647a-b57f-4bbb-afce-edaed3e78496","ios":"levelo://app?vid=19a5647a-b57f-4bbb-afce-edaed3e78496"},"vehicle_type_id":"4","last_reported":1739552852,"current_range_meters":8000,"station_id":"ce4bh512rcd13ifvqe2g","pricing_plan_id":"cebpf4jnsgd1na2vs0mg"},{"bike_id":"e031351b-efdb-4640-8255-b69e1640bbff","system_id":"levelo_inurba_marseille","lat":43.24165,"lon":5.36401,"is_reserved":false,"is_disabled":false,"rental_uris":{"android":"levelo://app?vid=e031351b-efdb-4640-8255-b69e1640bbff","ios":"levelo://app?vid=e031351b-efdb-4640-8255-b69e1640bbff"},"vehicle_type_id":"4","last_reported":1739552852,"current_range_meters":33200,"station_id":"cpo36qri1sfpv3e86is0","pricing_plan_id":"cebpf4jnsgd1na2vs0mg"},{"bike_id":"c159cea5-51cc-4c79-b782-4a4f30004ebd","system_id":"levelo_inurba_marseille","lat":43.26803,"lon":5.40263,"is_reserved":false,"is_disabled":false,"rental_uris":{"android":"levelo://app?vid=c159cea5-51cc-4c79-b782-4a4f30004ebd","ios":"levelo://app?vid=c159cea5-51cc-4c79-b782-4a4f30004ebd"},"vehicle_type_id":"4","last_reported":1739552852,"current_range_meters":28400,"station_id":"ce501612rcd8frsf0b60","pricing_plan_id":"cebpf4jnsgd1na2vs0mg"},{"bike_id":"ee566f3d-0e78-4ced-ac1b-e3b33c18e89e","system_id":"levelo_inurba_marseille","lat":43.24392,"lon":5.37055,"is_reserved":false,"is_disabled":false,"rental_uris":{"android":"levelo://app?vid=ee566f3d-0e78-4ced-ac1b-e3b33c18e89e","ios":"levelo://app?vid=ee566f3d-0e78-4ced-ac1b-e3b33c18e89e"},"vehicle_type_id":"4","last_reported":1739552852,"current_range_meters":16800,"station_id":"ce4bhhh2rcd13ifvqfk0","pricing_plan_id":"cebpf4jnsgd1na2vs0mg"},{"bike_id":"9f5b28b3-de36-489c-8b1f-d67c9f0958c9","system_id":"levelo_inurba_marseille","lat":43.30298,"lon":5.3922,"is_reserved":false,"is_disabled":false,"rental_uris":{"android":"levelo://app?vid=9f5b28b3-de36-489c-8b1f-d67c9f0958c9","ios":"levelo://app?vid=9f5b28b3-de36-489c-8b1f-d67c9f0958c9"},"vehicle_type_id":"4","last_reported":1739552852,"current_range_meters":9200,"station_id":"ce4bgkh2rcd13ifvqbk0","pricing_plan_id":"cebpf4jnsgd1na2vs0mg"},{"bike_id":"fe2f6787-4ebb-4359-8526-74fd6a592b79","system_id":"levelo_inurba_marseille","lat":43.26954,"lon":5.38911,"is_reserved":false,"is_disabled":false,"rental_uris":{"android":"levelo://app?vid=fe2f6787-4ebb-4359-8526-74fd6a592b79","ios":"levelo://app?vid=fe2f6787-4ebb-4359-8526-74fd6a592b79"},"vehicle_type_id":"4","last_reported":1739552852,"current_range_meters":38800,"station_id":"ce4bhhh2rcd13ifvqfl0","pricing_plan_id":"cebpf4jnsgd1na2vs0mg"},{"bike_id":"c640fc38-e54b-4af1-92ad-d2c50e20e738","system_id":"levelo_inurba_marseille","lat":43.24995,"lon":5.38938,"is_reserved":false,"is_disabled":false,"rental_uris":{"android":"levelo://app?vid=c640fc38-e54b-4af1-92ad-d2c50e20e738","ios":"levelo://app?vid=c640fc38-e54b-4af1-92ad-d2c50e20e738"},"vehicle_type_id":"4","last_reported":1739552852,"current_range_meters":38800,"station_id":"ce4bhgp2rcd13ifvqfd0","pricing_plan_id":"cebpf4jnsgd1na2vs0mg"},{"bike_id":"cd2d2ac0-93da-45ff-8e41-9606ca6ca619","system_id":"levelo_inurba_marseille","lat":43.25824,"lon":5.39421,"is_reserved":false,"is_disabled":false,"rental_uris":{"android":"levelo://app?vid=cd2d2ac0-93da-45ff-8e41-9606ca6ca619","ios":"levelo://app?vid=cd2d2ac0-93da-45ff-8e41-9606ca6ca619"},"vehicle_type_id":"4","last_reported":1739552852,"current_range_meters":31200,"station_id":"ce4bhip2rcd13ifvqft0","pricing_plan_id":"cebpf4jnsgd1na2vs0mg"},{"bike_id":"4b4ff2ab-54b3-450d-a22e-f77e3c328d3a","system_id":"levelo_inurba_marseille","lat":43.28575,"lon":5.39499,"is_reserved":false,"is_disabled":false,"rental_uris":{"android":"levelo://app?vid=4b4ff2ab-54b3-450d-a22e-f77e3c328d3a","ios":"levelo://app?vid=4b4ff2ab-54b3-450d-a22e-f77e3c328d3a"},"vehicle_type_id":"4","last_reported":1739552852,"current_range_meters":36800,"station_id":"ce4bh292rcd13ifvqdg0","pricing_plan_id":"cebpf4jnsgd1na2vs0mg"},{"bike_id":"d61b535d-dc41-47cd-b998-2449198d56eb","system_id":"levelo_inurba_marseille","lat":43.29077,"lon":5.37158,"is_reserved":false,"is_disabled":false,"rental_uris":{"android":"levelo://app?vid=d61b535d-dc41-47cd-b998-2449198d56eb","ios":"levelo://app?vid=d61b535d-dc41-47cd-b998-2449198d56eb"},"vehicle_type_id":"4","last_reported":1739552852,"current_range_meters":24800,"station_id":"ce4bh5p2rcd13ifvqe4g","pricing_plan_id":"cebpf4jnsgd1na2vs0mg"},{"bike_id":"a5541ec0-8cb6-4cd4-9cad-08b3e9b15c0d","system_id":"levelo_inurba_marseille","lat":43.305957,"lon":5.371713,"is_reserved":false,"is_disabled":false,"rental_uris":{"android":"levelo://app?vid=a5541ec0-8cb6-4cd4-9cad-08b3e9b15c0d","ios":"levelo://app?vid=a5541ec0-8cb6-4cd4-9cad-08b3e9b15c0d"},"vehicle_type_id":"4","last_reported":1739552852,"current_range_meters":25200,"station_id":"ce4bgqh2rcd13ifvqc4g","pricing_plan_id":"cebpf4jnsgd1na2vs0mg"},{"bike_id":"cf04ebfb-ccfd-4a9d-b3a7-c07736d53678","system_id":"levelo_inurba_marseille","lat":43.30279,"lon":5.37701,"is_reserved":false,"is_disabled":false,"rental_uris":{"android":"levelo://app?vid=cf04ebfb-ccfd-4a9d-b3a7-c07736d53678","ios":"levelo://app?vid=cf04ebfb-ccfd-4a9d-b3a7-c07736d53678"},"vehicle_type_id":"4","last_reported":1739552852,"current_range_meters":20400,"station_id":"ce4bguh2rcd13ifvqcj0","pricing_plan_id":"cebpf4jnsgd1na2vs0mg"},{"bike_id":"fc1cdf3d-f624-44fc-b746-766fd54a496e","system_id":"levelo_inurba_marseille","lat":43.29221,"lon":5.36081,"is_reserved":false,"is_disabled":false,"rental_uris":{"android":"levelo://app?vid=fc1cdf3d-f624-44fc-b746-766fd54a496e","ios":"levelo://app?vid=fc1cdf3d-f624-44fc-b746-766fd54a496e"},"vehicle_type_id":"4","last_reported":1739552852,"current_range_meters":22000,"station_id":"ce4bhbh2rcd13ifvqeqg","pricing_plan_id":"cebpf4jnsgd1na2vs0mg"},{"bike_id":"3643e00e-d557-45c3-9c3a-156a3faa0884","system_id":"levelo_inurba_marseille","lat":43.24392,"lon":5.37066,"is_reserved":false,"is_disabled":false,"rental_uris":{"android":"levelo://app?vid=3643e00e-d557-45c3-9c3a-156a3faa0884","ios":"levelo://app?vid=3643e00e-d557-45c3-9c3a-156a3faa0884"},"vehicle_type_id":"4","last_reported":1739552852,"current_range_meters":22000,"station_id":"ce4bhhh2rcd13ifvqfk0","pricing_plan_id":"cebpf4jnsgd1na2vs0mg"},{"bike_id":"a0f3b484-b0e7-4ed2-8c7c-86fc1fec1e14","system_id":"levelo_inurba_marseille","lat":43.29623,"lon":5.37221,"is_reserved":false,"is_disabled":false,"rental_uris":{"android":"levelo://app?vid=a0f3b484-b0e7-4ed2-8c7c-86fc1fec1e14","ios":"levelo://app?vid=a0f3b484-b0e7-4ed2-8c7c-86fc1fec1e14"},"vehicle_type_id":"4","last_reported":1739552852,"current_range_meters":32400,"station_id":"","pricing_plan_id":"cebpf4jnsgd1na2vs0mg"},{"bike_id":"9c2e2cc2-efe7-4681-b8e2-75afd031ae67","system_id":"levelo_inurba_marseille","lat":43.28681,"lon":5.38676,"is_reserved":false,"is_disabled":false,"rental_uris":{"android":"levelo://app?vid=9c2e2cc2-efe7-4681-b8e2-75afd031ae67","ios":"levelo://app?vid=9c2e2cc2-efe7-4681-b8e2-75afd031ae67"},"vehicle_type_id":"4","last_reported":1739552852,"current_range_meters":38400,"station_id":"ce4bh492rcd13ifvqdug","pricing_plan_id":"cebpf4jnsgd1na2vs0mg"},{"bike_id":"b6e01b35-7f6e-4174-86a0-abcf5069756c","system_id":"levelo_inurba_marseille","lat":43.24393,"lon":5.3706,"is_reserved":false,"is_disabled":false,"rental_uris":{"android":"levelo://app?vid=b6e01b35-7f6e-4174-86a0-abcf5069756c","ios":"levelo://app?vid=b6e01b35-7f6e-4174-86a0-abcf5069756c"},"vehicle_type_id":"4","last_reported":1739552852,"current_range_meters":23200,"station_id":"ce4bhhh2rcd13ifvqfk0","pricing_plan_id":"cebpf4jnsgd1na2vs0mg"},{"bike_id":"caba4a46-ac8a-4cd5-a6f7-23d339aea856","system_id":"levelo_inurba_marseille","lat":43.29523,"lon":5.3903,"is_reserved":false,"is_disabled":false,"rental_uris":{"android":"levelo://app?vid=caba4a46-ac8a-4cd5-a6f7-23d339aea856","ios":"levelo://app?vid=caba4a46-ac8a-4cd5-a6f7-23d339aea856"},"vehicle_type_id":"4","last_reported":1739552852,"current_range_meters":6000,"station_id":"ce4bh3p2rcd13ifvqdp0","pricing_plan_id":"cebpf4jnsgd1na2vs0mg"},{"bike_id":"d416e95d-a967-4111-8f22-5cff311f8b65","system_id":"levelo_inurba_marseille","lat":43.30271,"lon":5.39426,"is_reserved":false,"is_disabled":false,"rental_uris":{"android":"levelo://app?vid=d416e95d-a967-4111-8f22-5cff311f8b65","ios":"levelo://app?vid=d416e95d-a967-4111-8f22-5cff311f8b65"},"vehicle_type_id":"4","last_reported":1739552852,"current_range_meters":38400,"station_id":"ce4bh0p2rcd13ifvqd70","pricing_plan_id":"cebpf4jnsgd1na2vs0mg"},{"bike_id":"84827ac4-279e-4c53-a759-06dc24cb686a","system_id":"levelo_inurba_marseille","lat":43.30322,"lon":5.40444,"is_reserved":false,"is_disabled":false,"rental_uris":{"android":"levelo://app?vid=84827ac4-279e-4c53-a759-06dc24cb686a","ios":"levelo://app?vid=84827ac4-279e-4c53-a759-06dc24cb686a"},"vehicle_type_id":"4","last_reported":1739552852,"current_range_meters":37600,"station_id":"ce4bh012rcd13ifvqd10","pricing_plan_id":"cebpf4jnsgd1na2vs0mg"},{"bike_id":"4b3b058c-c5a1-4062-abcf-879b0c789eeb","system_id":"levelo_inurba_marseille","lat":43.29518,"lon":5.39028,"is_reserved":false,"is_disabled":false,"rental_uris":{"android":"levelo://app?vid=4b3b058c-c5a1-4062-abcf-879b0c789eeb","ios":"levelo://app?vid=4b3b058c-c5a1-4062-abcf-879b0c789eeb"},"vehicle_type_id":"4","last_reported":1739552852,"current_range_meters":32000,"station_id":"ce4bh3p2rcd13ifvqdp0","pricing_plan_id":"cebpf4jnsgd1na2vs0mg"},{"bike_id":"670ff0cb-6ab4-4521-8054-c372c22f71fd","system_id":"levelo_inurba_marseille","lat":43.27946,"lon":5.41047,"is_reserved":false,"is_disabled":true,"rental_uris":{"android":"levelo://app?vid=670ff0cb-6ab4-4521-8054-c372c22f71fd","ios":"levelo://app?vid=670ff0cb-6ab4-4521-8054-c372c22f71fd"},"vehicle_type_id":"4","last_reported":1739552852,"current_range_meters":0,"station_id":"ce4bhnp2rcd13ifvqh0g","pricing_plan_id":"cebpf4jnsgd1na2vs0mg"},{"bike_id":"90d6b28b-d2ff-499b-949c-5a4f2ff008b1","system_id":"levelo_inurba_marseille","lat":43.24389,"lon":5.37053,"is_reserved":false,"is_disabled":false,"rental_uris":{"android":"levelo://app?vid=90d6b28b-d2ff-499b-949c-5a4f2ff008b1","ios":"levelo://app?vid=90d6b28b-d2ff-499b-949c-5a4f2ff008b1"},"vehicle_type_id":"4","last_reported":1739552852,"current_range_meters":38800,"station_id":"ce4bhhh2rcd13ifvqfk0","pricing_plan_id":"cebpf4jnsgd1na2vs0mg"},{"bike_id":"71ef33f5-8165-4223-a78b-4f290e38078d","system_id":"levelo_inurba_marseille","lat":43.31318,"lon":5.39711,"is_reserved":false,"is_disabled":false,"rental_uris":{"android":"levelo://app?vid=71ef33f5-8165-4223-a78b-4f290e38078d","ios":"levelo://app?vid=71ef33f5-8165-4223-a78b-4f290e38078d"},"vehicle_type_id":"4","last_reported":1739552852,"current_range_meters":39200,"station_id":"ce4bgvp2rcd13ifvqcu0","pricing_plan_id":"cebpf4jnsgd1na2vs0mg"},{"bike_id":"9d51d88e-d809-4dcf-a731-ab39e9958059","system_id":"levelo_inurba_marseille","lat":43.25919,"lon":5.40889,"is_reserved":false,"is_disabled":false,"rental_uris":{"android":"levelo://app?vid=9d51d88e-d809-4dcf-a731-ab39e9958059","ios":"levelo://app?vid=9d51d88e-d809-4dcf-a731-ab39e9958059"},"vehicle_type_id":"4","last_reported":1739552852,"current_range_meters":29600,"station_id":"ce4bhm92rcd13ifvqglg","pricing_plan_id":"cebpf4jnsgd1na2vs0mg"},{"bike_id":"c1665b9a-8804-49fb-a2e7-87ab5bdd8b6d","system_id":"levelo_inurba_marseille","lat":43.3374,"lon":5.3921,"is_reserved":false,"is_disabled":false,"rental_uris":{"android":"levelo://app?vid=c1665b9a-8804-49fb-a2e7-87ab5bdd8b6d","ios":"levelo://app?vid=c1665b9a-8804-49fb-a2e7-87ab5bdd8b6d"},"vehicle_type_id":"4","last_reported":1739552852,"current_range_meters":38800,"station_id":"ce4bhr92rcd13ifvqhsg","pricing_plan_id":"cebpf4jnsgd1na2vs0mg"},{"bike_id":"5701a4f2-9f37-4fa3-a591-868e3ff71bc8","system_id":"levelo_inurba_marseille","lat":43.27326,"lon":5.39114,"is_reserved":false,"is_disabled":false,"rental_uris":{"android":"levelo://app?vid=5701a4f2-9f37-4fa3-a591-868e3ff71bc8","ios":"levelo://app?vid=5701a4f2-9f37-4fa3-a591-868e3ff71bc8"},"vehicle_type_id":"4","last_reported":1739552852,"current_range_meters":20800,"station_id":"ce4bhgp2rcd13ifvqfe0","pricing_plan_id":"cebpf4jnsgd1na2vs0mg"},{"bike_id":"4feae0f5-1785-4b64-891e-c5392c5608ab","system_id":"levelo_inurba_marseille","lat":43.30925,"lon":5.40145,"is_reserved":false,"is_disabled":false,"rental_uris":{"android":"levelo://app?vid=4feae0f5-1785-4b64-891e-c5392c5608ab","ios":"levelo://app?vid=4feae0f5-1785-4b64-891e-c5392c5608ab"},"vehicle_type_id":"4","last_reported":1739552852,"current_range_meters":14400,"station_id":"ce4bgvp2rcd13ifvqct0","pricing_plan_id":"cebpf4jnsgd1na2vs0mg"},{"bike_id":"318f54ce-be01-47d6-829a-f493e582e806","system_id":"levelo_inurba_marseille","lat":43.32107,"lon":5.36784,"is_reserved":false,"is_disabled":false,"rental_uris":{"android":"levelo://app?vid=318f54ce-be01-47d6-829a-f493e582e806","ios":"levelo://app?vid=318f54ce-be01-47d6-829a-f493e582e806"},"vehicle_type_id":"4","last_reported":1739552852,"current_range_meters":38800,"station_id":"ce4bhrh2rcd13ifvqhug","pricing_plan_id":"cebpf4jnsgd1na2vs0mg"},{"bike_id":"45f7128b-3250-4955-bf98-eb74b3897be8","system_id":"levelo_inurba_marseille","lat":43.29707,"lon":5.36609,"is_reserved":false,"is_disabled":false,"rental_uris":{"android":"levelo://app?vid=45f7128b-3250-4955-bf98-eb74b3897be8","ios":"levelo://app?vid=45f7128b-3250-4955-bf98-eb74b3897be8"},"vehicle_type_id":"4","last_reported":1739552852,"current_range_meters":11600,"station_id":"ce4bgn12rcd13ifvqbt0","pricing_plan_id":"cebpf4jnsgd1na2vs0mg"},{"bike_id":"d157203c-3a5b-4bbc-9638-6eefce740d5e","system_id":"levelo_inurba_marseille","lat":43.23199,"lon":5.35553,"is_reserved":false,"is_disabled":false,"rental_uris":{"android":"levelo://app?vid=d157203c-3a5b-4bbc-9638-6eefce740d5e","ios":"levelo://app?vid=d157203c-3a5b-4bbc-9638-6eefce740d5e"},