{"last_updated":1760800116,"ttl":60,"version":"2.2","data":{"bikes":[{"bike_id":"063e1086-9c5b-4abc-ac7c-37372c76ff3b","system_id":"levelo_inurba_marseille","lat":43.29761,"lon":5.42782,"is_reserved":false,"is_disabled":false,"rental_uris":{"android":"levelo://app?vid=063e1086-9c5b-4abc-ac7c-37372c76ff3b","ios":"levelo://app?vid=063e1086-9c5b-4abc-ac7c-37372c76ff3b"},"vehicle_type_id":"4","last_reported":1760800116,"current_range_meters":2800,"station_id":"st_d3md5207bmas73dh9klg","pricing_plan_id":"cebpf4jnsgd1na2vs0mg"},{"bike_id":"377dd231-0728-4047-bfe7-a46e6a5e7172","system_id":"levelo_inurba_marseille","lat":43.26185,"lon":5.37457,"is_reserved":false,"is_disabled":false,"rental_uris":{"android":"levelo://app?vid=377dd231-0728-4047-bfe7-a46e6a5e7172","ios":"levelo://app?vid=377dd231-0728-4047-bfe7-a46e6a5e7172"},"vehicle_type_id":"4","last_reported":1760800116,"current_range_meters":2800,"station_id":"ce4bhgp2rcd13ifvqfc0","pricing_plan_id":"cebpf4jnsgd1na2vs0mg"},{"bike_id":"bad36fec-8555-434d-8e9d-d15286e5e1c6","system_id":"levelo_inurba_marseille","lat":43.292289,"lon":5.360525,"is_reserved":false,"is_disabled":true,"rental_uris":{"android":"levelo://app?vid=bad36fec-8555-434d-8e9d-d15286e5e1c6","ios":"levelo://app?vid=bad36fec-8555-434d-8e9d-d15286e5e1c6"},"vehicle_type_id":"4","last_reported":1760800116,"current_range_meters":2800,"station_id":"","pricing_plan_id":"cebpf4jnsgd1na2vs0mg"},{"bike_id":"8981e510-46ad-4eba-b835-6987b2f1bcbd","system_id":"levelo_inurba_marseille","lat":43.21186,"lon":5.35079,"is_reserved":false,"is_disabled":true,"rental_uris":{"android":"levelo://app?vid=8981e510-46ad-4eba-b835-6987b2f1bcbd","ios":"levelo://app?vid=8981e510-46ad-4eba-b835-6987b2f1bcbd"},"vehicle_type_id":"4","last_reported":1760800116,"current_range_meters":2800,"station_id":"st_cvj6sg6p6f1abm77japg","pricing_plan_id":"cebpf4jnsgd1na2vs0mg"},{"bike_id":"1514cfd3-c76c-49fd-858b-13e815c70138","system_id":"levelo_inurba_marseille","lat":43.31795,"lon":5.38864,"is_reserved":false,"is_disabled":false,"rental_uris":{"android":"levelo://app?vid=1514cfd3-c76c-49fd-858b-13e815c70138","ios":"levelo://app?vid=1514cfd3-c76c-49fd-858b-13e815c70138"},"vehicle_type_id":"4","last_reported":1760800116,"current_range_meters":2800,"station_id":"","pricing_plan_id":"cebpf4jnsgd1na2vs0mg"},{"bike_id":"0ec283cc-de8b-4ba5-bf3e-425d02f119fe","system_id":"levelo_inurba_marseille","lat":43.281007,"lon":5.378337,"is_reserved":false,"is_disabled":false,"rental_uris":{"android":"levelo://app?vid=0ec283cc-de8b-4ba5-bf3e-425d02f119fe","ios":"levelo://app?vid=0ec283cc-de8b-4ba5-bf3e-425d02f119fe"},"vehicle_type_id":"4","last_reported":1760800116,"current_range_meters":2800,"station_id":"ce4bha12rcd13ifvqee0","pricing_plan_id":"cebpf4jnsgd1na2vs0mg"},{"bike_id":"d0ecaaac-32f5-408f-bcf6-0107d8b6f33f","system_id":"levelo_inurba_marseille","lat":43.290518,"lon":5.359116,"is_reserved":false,"is_disabled":false,"rental_uris":{"android":"levelo://app?vid=d0ecaaac-32f5-408f-bcf6-0107d8b6f33f","ios":"levelo://app?vid=d0ecaaac-32f5-408f-bcf6-0107d8b6f33f"},"vehicle_type_id":"4","last_reported":1760800116,"current_range_meters":2800,"station_id":"","pricing_plan_id":"cebpf4jnsgd1na2vs0mg"},{"bike_id":"4da87973-f96e-452f-aed2-cadb7bb03ed1","system_id":"levelo_inurba_marseille","lat":43.26199,"lon":5.37934,"is_reserved":false,"is_disabled":false,"rental_uris":{"android":"levelo://app?vid=4da87973-f96e-452f-aed2-cadb7bb03ed1","ios":"levelo://app?vid=4da87973-f96e-452f-aed2-cadb7bb03ed1"},"vehicle_type_id":"4","last_reported":1760800116,"current_range_meters":2800,"station_id":"ce4bhjp2rcd13ifvqg90","pricing_plan_id":"cebpf4jnsgd1na2vs0mg"},{"bike_id":"145c25a5-4e2b-4a28-9947-706822b83f9b","system_id":"levelo_inurba_marseille","lat":43.21743,"lon":5.34613,"is_reserved":false,"is_disabled":false,"rental_uris":{"android":"levelo://app?vid=145c25a5-4e2b-4a28-9947-706822b83f9b","ios":"levelo://app?vid=145c25a5-4e2b-4a28-9947-706822b83f9b"},"vehicle_type_id":"4","last_reported":1760800116,"current_range_meters":2800,"station_id":"st_cvj6r9ubvosntc0bgbag","pricing_plan_id":"cebpf4jnsgd1na2vs0mg"},{"bike_id":"3598b383-579b-47d9-89b6-df786d16c45f","system_id":"levelo_inurba_marseille","lat":43.29427,"lon":5.37495,"is_reserved":false,"is_disabled":false,"rental_uris":{"android":"levelo://app?vid=3598b383-579b-47d9-89b6-df786d16c45f","ios":"levelo://app?vid=3598b383-579b-47d9-89b6-df786d16c45f"},"vehicle_type_id":"4","last_reported":1760800116,"current_range_meters":2800,"station_id":"","pricing_plan_id":"cebpf4jnsgd1na2vs0mg"},{"bike_id":"395314b9-fea3-4a4a-8145-cf7ab2d4c961","system_id":"levelo_inurba_marseille","lat":43.323624,"lon":5.367565,"is_reserved":false,"is_disabled":false,"rental_uris":{"android":"levelo://app?vid=395314b9-fea3-4a4a-8145-cf7ab2d4c961","ios":"levelo://app?vid=395314b9-fea3-4a4a-8145-cf7ab2d4c961"},"vehicle_type_id":"4","last_reported":1760800116,"current_range_meters":2800,"station_id":"ce4bhsh2rcd13ifvqi2g","pricing_plan_id":"cebpf4jnsgd1na2vs0mg"},{"bike_id":"dcbf231a-229e-4db6-87c0-b8e5a684cefb","system_id":"levelo_inurba_marseille","lat":43.22558,"lon":5.41636,"is_reserved":false,"is_disabled":false,"rental_uris":{"android":"levelo://app?vid=dcbf231a-229e-4db6-87c0-b8e5a684cefb","ios":"levelo://app?vid=dcbf231a-229e-4db6-87c0-b8e5a684cefb"},"vehicle_type_id":"4","last_reported":1760800116,"current_range_meters":3200,"station_id":"st_d2o4gvlbi1j2169b742g","pricing_plan_id":"cebpf4jnsgd1na2vs0mg"},{"bike_id":"72e19380-3ad3-4b2c-a79c-87c6e9a51b30","system_id":"levelo_inurba_marseille","lat":43.27997,"lon":5.4002,"is_reserved":false,"is_disabled":false,"rental_uris":{"android":"levelo://app?vid=72e19380-3ad3-4b2c-a79c-87c6e9a51b30","ios":"levelo://app?vid=72e19380-3ad3-4b2c-a79c-87c6e9a51b30"},"vehicle_type_id":"4","last_reported":1760800116,"current_range_meters":3200,"station_id":"ce4bho92rcd13ifvqh4g","pricing_plan_id":"cebpf4jnsgd1na2vs0mg"},{"bike_id":"121f55c8-5a85-4142-a96c-bf52eb873442","system_id":"levelo_inurba_marseille","lat":43.30466,"lon":5.36921,"is_reserved":false,"is_disabled":false,"rental_uris":{"android":"levelo://app?vid=121f55c8-5a85-4142-a96c-bf52eb873442","ios":"levelo://app?vid=121f55c8-5a85-4142-a96c-bf52eb873442"},"vehicle_type_id":"4","last_reported":1760800116,"current_range_meters":3200,"station_id":"","pricing_plan_id":"cebpf4jnsgd1na2vs0mg"},{"bike_id":"f4280437-faf0-488d-b833-f5627b020b65","system_id":"levelo_inurba_marseille","lat":43.30132,"lon":5.38781,"is_reserved":false,"is_disabled":false,"rental_uris":{"android":"levelo://app?vid=f4280437-faf0-488d-b833-f5627b020b65","ios":"levelo://app?vid=f4280437-faf0-488d-b833-f5627b020b65"},"vehicle_type_id":"4","last_reported":1760800116,"current_range_meters":3200,"station_id":"ce4bghh2rcd13ifvqb60","pricing_plan_id":"cebpf4jnsgd1na2vs0mg"},{"bike_id":"6eca0b23-a830-4779-8b28-b3d01213472f","system_id":"levelo_inurba_marseille","lat":43.30933,"lon":5.40161,"is_reserved":false,"is_disabled":false,"rental_uris":{"android":"levelo://app?vid=6eca0b23-a830-4779-8b28-b3d01213472f","ios":"levelo://app?vid=6eca0b23-a830-4779-8b28-b3d01213472f"},"vehicle_type_id":"4","last_reported":1760800116,"current_range_meters":3200,"station_id":"ce4bgvp2rcd13ifvqct0","pricing_plan_id":"cebpf4jnsgd1na2vs0mg"},{"bike_id":"b6556eb6-1b08-48db-81ba-f04eaa12cfdc","system_id":"levelo_inurba_marseille","lat":43.217467,"lon":5.346032,"is_reserved":false,"is_disabled":false,"rental_uris":{"android":"levelo://app?vid=b6556eb6-1b08-48db-81ba-f04eaa12cfdc","ios":"levelo://app?vid=b6556eb6-1b08-48db-81ba-f04eaa12cfdc"},"vehicle_type_id":"4","last_reported":1760800116,"current_range_meters":3600,"station_id":"","pricing_plan_id":"cebpf4jnsgd1na2vs0mg"},{"bike_id":"7ec8b36f-6f1a-41f0-a03a-a45e51acb027","system_id":"levelo_inurba_marseille","lat":43.21739,"lon":5.34618,"is_reserved":false,"is_disabled":true,"rental_uris":{"android":"levelo://app?vid=7ec8b36f-6f1a-41f0-a03a-a45e51acb027","ios":"levelo://app?vid=7ec8b36f-6f1a-41f0-a03a-a45e51acb027"},"vehicle_type_id":"4","last_reported":1760800116,"current_range_meters":3600,"station_id":"st_cvj6r9ubvosntc0bgbag","pricing_plan_id":"cebpf4jnsgd1na2vs0mg"},{"bike_id":"3f778403-cb24-45c3-9fce-d4f7d8b540c8","system_id":"levelo_inurba_marseille","lat":43.30462,"lon":5.37905,"is_reserved":false,"is_disabled":false,"rental_uris":{"android":"levelo://app?vid=3f778403-cb24-45c3-9fce-d4f7d8b540c8","ios":"levelo://app?vid=3f778403-cb24-45c3-9fce-d4f7d8b540c8"},"vehicle_type_id":"4","last_reported":1760800116,"current_range_meters":3600,"station_id":"ce4bgup2rcd13ifvqcn0","pricing_plan_id":"cebpf4jnsgd1na2vs0mg"},{"bike_id":"2b8af817-17ab-46f0-a2c4-8072bc431f46","system_id":"levelo_inurba_marseille","lat":43.23147,"lon":5.43725,"is_reserved":false,"is_disabled":false,"rental_uris":{"android":"levelo://app?vid=2b8af817-17ab-46f0-a2c4-8072bc431f46","ios":"levelo://app?vid=2b8af817-17ab-46f0-a2c4-8072bc431f46"},"vehicle_type_id":"4","last_reported":1760800116,"current_range_meters":3600,"station_id":"ce4bhmp2rcd13ifvqgog","pricing_plan_id":"cebpf4jnsgd1na2vs0mg"},{"bike_id":"6704ec32-7822-4a9f-bb55-1d0d7191240f","system_id":"levelo_inurba_marseille","lat":43.217461,"lon":5.34594,"is_reserved":false,"is_disabled":false,"rental_uris":{"android":"levelo://app?vid=6704ec32-7822-4a9f-bb55-1d0d7191240f","ios":"levelo://app?vid=6704ec32-7822-4a9f-bb55-1d0d7191240f"},"vehicle_type_id":"4","last_reported":1760800116,"current_range_meters":4000,"station_id":"st_cvj6r9ubvosntc0bgbag","pricing_plan_id":"cebpf4jnsgd1na2vs0mg"},{"bike_id":"d86e3403-0bd5-441b-9e92-e3cf2d6c7c66","system_id":"levelo_inurba_marseille","lat":43.22559,"lon":5.4163,"is_reserved":false,"is_disabled":false,"rental_uris":{"android":"levelo://app?vid=d86e3403-0bd5-441b-9e92-e3cf2d6c7c66","ios":"levelo://app?vid=d86e3403-0bd5-441b-9e92-e3cf2d6c7c66"},"vehicle_type_id":"4","last_reported":1760800116,"current_range_meters":4000,"station_id":"st_d2o4gvlbi1j2169b742g","pricing_plan_id":"cebpf4jnsgd1na2vs0mg"},{"bike_id":"5959b819-a2fd-4cd9-b685-c1861816e5d0","system_id":"levelo_inurba_marseille","lat":43.268837,"lon":5.369304,"is_reserved":false,"is_disabled":false,"rental_uris":{"android":"levelo://app?vid=5959b819-a2fd-4cd9-b685-c1861816e5d0","ios":"levelo://app?vid=5959b819-a2fd-4cd9-b685-c1861816e5d0"},"vehicle_type_id":"4","last_reported":1760800116,"current_range_meters":4000,"station_id":"","pricing_plan_id":"cebpf4jnsgd1na2vs0mg"},{"bike_id":"0c9a1edf-e1cf-4072-a697-e6cd31e9290d","system_id":"levelo_inurba_marseille","lat":43.284149,"lon":5.349772,"is_reserved":false,"is_disabled":false,"rental_uris":{"android":"levelo://app?vid=0c9a1edf-e1cf-4072-a697-e6cd31e9290d","ios":"levelo://app?vid=0c9a1edf-e1cf-4072-a697-e6cd31e9290d"},"vehicle_type_id":"4","last_reported":1760800116,"current_range_meters":4000,"station_id":"","pricing_plan_id":"cebpf4jnsgd1na2vs0mg"},{"bike_id":"69adf493-d1ca-4187-b7fe-15a97428b463","system_id":"levelo_inurba_marseille","lat":43.28445,"lon":5.39206,"is_reserved":false,"is_disabled":false,"rental_uris":{"android":"levelo://app?vid=69adf493-d1ca-4187-b7fe-15a97428b463","ios":"levelo://app?vid=69adf493-d1ca-4187-b7fe-15a97428b463"},"vehicle_type_id":"4","last_reported":1760800116,"current_range_meters":4000,"station_id":"ce4bhoh2rcd13ifvqh5g","pricing_plan_id":"cebpf4jnsgd1na2vs0mg"},{"bike_id":"7f609d44-4599-4142-a9ec-8a1fee688a7a","system_id":"levelo_inurba_marseille","lat":43.302887,"lon":5.392216,"is_reserved":false,"is_disabled":false,"rental_uris":{"android":"levelo://app?vid=7f609d44-4599-4142-a9ec-8a1fee688a7a","ios":"levelo://app?vid=7f609d44-4599-4142-a9ec-8a1fee688a7a"},"vehicle_type_id":"4","last_reported":1760800116,"current_range_meters":4000,"station_id":"ce4bgkh2rcd13ifvqbk0","pricing_plan_id":"cebpf4jnsgd1na2vs0mg"},{"bike_id":"e257a5c9-b99e-4af1-ac4f-b017f1c8b418","system_id":"levelo_inurba_marseille","lat":43.33759,"lon":5.37438,"is_reserved":false,"is_disabled":false,"rental_uris":{"android":"levelo://app?vid=e257a5c9-b99e-4af1-ac4f-b017f1c8b418","ios":"levelo://app?vid=e257a5c9-b99e-4af1-ac4f-b017f1c8b418"},"vehicle_type_id":"4","last_reported":1760800116,"current_range_meters":4400,"station_id":"","pricing_plan_id":"cebpf4jnsgd1na2vs0mg"},{"bike_id":"fdfa653a-80a4-493d-8bbc-f374513f1911","system_id":"levelo_inurba_marseille","lat":43.28938,"lon":5.36644,"is_reserved":false,"is_disabled":false,"rental_uris":{"android":"levelo://app?vid=fdfa653a-80a4-493d-8bbc-f374513f1911","ios":"levelo://app?vid=fdfa653a-80a4-493d-8bbc-f374513f1911"},"vehicle_type_id":"4","last_reported":1760800116,"current_range_meters":4400,"station_id":"ce4bhap2rcd13ifvqek0","pricing_plan_id":"cebpf4jnsgd1na2vs0mg"},{"bike_id":"19d00b8c-4758-499b-bd93-82d99a1d5c05","system_id":"levelo_inurba_marseille","lat":43.27937,"lon":5.41047,"is_reserved":false,"is_disabled":false,"rental_uris":{"android":"levelo://app?vid=19d00b8c-4758-499b-bd93-82d99a1d5c05","ios":"levelo://app?vid=19d00b8c-4758-499b-bd93-82d99a1d5c05"},"vehicle_type_id":"4","last_reported":1760800116,"current_range_meters":4400,"station_id":"ce4bhnp2rcd13ifvqh0g","pricing_plan_id":"cebpf4jnsgd1na2vs0mg"},{"bike_id":"1bf1b82a-ea8e-46ad-9ecf-02fde315b1a9","system_id":"levelo_inurba_marseille","lat":43.283604,"lon":5.354879,"is_reserved":false,"is_disabled":false,"rental_uris":{"android":"levelo://app?vid=1bf1b82a-ea8e-46ad-9ecf-02fde315b1a9","ios":"levelo://app?vid=1bf1b82a-ea8e-46ad-9ecf-02fde315b1a9"},"vehicle_type_id":"4","last_reported":1760800116,"current_range_meters":4400,"station_id":"ce4bhah2rcd13ifvqei0","pricing_plan_id":"cebpf4jnsgd1na2vs0mg"},{"bike_id":"677999c6-f013-44b2-94bd-8b7ef48b7686","system_id":"levelo_inurba_marseille","lat":43.231557,"lon":5.437128,"is_reserved":false,"is_disabled":false,"rental_uris":{"android":"levelo://app?vid=677999c6-f013-44b2-94bd-8b7ef48b7686","ios":"levelo://app?vid=677999c6-f013-44b2-94bd-8b7ef48b7686"},"vehicle_type_id":"4","last_reported":1760800116,"current_range_meters":4800,"station_id":"ce4bhmp2rcd13ifvqgog","pricing_plan_id":"cebpf4jnsgd1na2vs0mg"},{"bike_id":"d5fcaea4-873f-41d4-b7d9-3b6cbacf7961","system_id":"levelo_inurba_marseille","lat":43.255056,"lon":5.376504,"is_reserved":false,"is_disabled":false,"rental_uris":{"android":"levelo://app?vid=d5fcaea4-873f-41d4-b7d9-3b6cbacf7961","ios":"levelo://app?vid=d5fcaea4-873f-41d4-b7d9-3b6cbacf7961"},"vehicle_type_id":"4","last_reported":1760800116,"current_range_meters":4800,"station_id":"ce4bhh12rcd13ifvqff0","pricing_plan_id":"cebpf4jnsgd1na2vs0mg"},{"bike_id":"73a62b98-4ad8-4388-bf2e-db9fdd0f07ae","system_id":"levelo_inurba_marseille","lat":43.24182,"lon":5.3973,"is_reserved":false,"is_disabled":false,"rental_uris":{"android":"levelo://app?vid=73a62b98-4ad8-4388-bf2e-db9fdd0f07ae","ios":"levelo://app?vid=73a62b98-4ad8-4388-bf2e-db9fdd0f07ae"},"vehicle_type_id":"4","last_reported":1760800116,"current_range_meters":4800,"station_id":"ce4bhn12rcd13ifvqgpg","pricing_plan_id":"cebpf4jnsgd1na2vs0mg"},{"bike_id":"bfbac971-c671-4fc6-891a-3e0df562b539","system_id":"levelo_inurba_marseille","lat":43.26031,"lon":5.37553,"is_reserved":false,"is_disabled":false,"rental_uris":{"android":"levelo://app?vid=bfbac971-c671-4fc6-891a-3e0df562b539","ios":"levelo://app?vid=bfbac971-c671-4fc6-891a-3e0df562b539"},"vehicle_type_id":"4","last_reported":1760800116,"current_range_meters":4800,"station_id":"ce4bhgh2rcd13ifvqfa0","pricing_plan_id":"cebpf4jnsgd1na2vs0mg"},{"bike_id":"9cfb6b0f-3c60-42ce-ae0c-4938f4acdcb0","system_id":"levelo_inurba_marseille","lat":43.2998,"lon":5.38486,"is_reserved":false,"is_disabled":false,"rental_uris":{"android":"levelo://app?vid=9cfb6b0f-3c60-42ce-ae0c-4938f4acdcb0","ios":"levelo://app?vid=9cfb6b0f-3c60-42ce-ae0c-4938f4acdcb0"},"vehicle_type_id":"4","last_reported":1760800116,"current_range_meters":4800,"station_id":"ce4bgj92rcd13ifvqbd0","pricing_plan_id":"cebpf4jnsgd1na2vs0mg"},{"bike_id":"5be69cb4-8651-4bc0-9efc-8167bd935fd0","system_id":"levelo_inurba_marseille","lat":43.27999,"lon":5.41664,"is_reserved":false,"is_disabled":false,"rental_uris":{"android":"levelo://app?vid=5be69cb4-8651-4bc0-9efc-8167bd935fd0","ios":"levelo://app?vid=5be69cb4-8651-4bc0-9efc-8167bd935fd0"},"vehicle_type_id":"4","last_reported":1760800116,"current_range_meters":5600,"station_id":"ce4bho12rcd13ifvqh1g","pricing_plan_id":"cebpf4jnsgd1na2vs0mg"},{"bike_id":"e0200377-f665-4be3-b11c-af2b5dae5124","system_id":"levelo_inurba_marseille","lat":43.27896,"lon":5.37996,"is_reserved":false,"is_disabled":false,"rental_uris":{"android":"levelo://app?vid=e0200377-f665-4be3-b11c-af2b5dae5124","ios":"levelo://app?vid=e0200377-f665-4be3-b11c-af2b5dae5124"},"vehicle_type_id":"4","last_reported":1760800116,"current_range_meters":5600,"station_id":"ce4bhf92rcd13ifvqf50","pricing_plan_id":"cebpf4jnsgd1na2vs0mg"},{"bike_id":"ca14c915-0361-4c0d-9307-5c9fbc4de036","system_id":"levelo_inurba_marseille","lat":43.32358,"lon":5.36757,"is_reserved":false,"is_disabled":false,"rental_uris":{"android":"levelo://app?vid=ca14c915-0361-4c0d-9307-5c9fbc4de036","ios":"levelo://app?vid=ca14c915-0361-4c0d-9307-5c9fbc4de036"},"vehicle_type_id":"4","last_reported":1760800116,"current_range_meters":5600,"station_id":"ce4bhsh2rcd13ifvqi2g","pricing_plan_id":"cebpf4jnsgd1na2vs0mg"},{"bike_id":"adf33086-2c47-43a8-bdb3-38d0be03f11b","system_id":"levelo_inurba_marseille","lat":43.28206,"lon":5.39043,"is_reserved":false,"is_disabled":false,"rental_uris":{"android":"levelo://app?vid=adf33086-2c47-43a8-bdb3-38d0be03f11b","ios":"levelo://app?vid=adf33086-2c47-43a8-bdb3-38d0be03f11b"},"vehicle_type_id":"4","last_reported":1760800116,"current_range_meters":5600,"station_id":"ce4bhn92rcd13ifvqgsg","pricing_plan_id":"cebpf4jnsgd1na2vs0mg"},{"bike_id":"ea7cb060-d598-4dde-8fb1-5edc70aa26d8","system_id":"levelo_inurba_marseille","lat":43.264879,"lon":5.395471,"is_reserved":false,"is_disabled":true,"rental_uris":{"android":"levelo://app?vid=ea7cb060-d598-4dde-8fb1-5edc70aa26d8","ios":"levelo://app?vid=ea7cb060-d598-4dde-8fb1-5edc70aa26d8"},"vehicle_type_id":"4","last_reported":1760800116,"current_range_meters":5600,"station_id":"ce4bhi12rcd13ifvqfq0","pricing_plan_id":"cebpf4jnsgd1na2vs0mg"},{"bike_id":"44738fa1-4aa3-4f30-a637-db8bb283ab65","system_id":"levelo_inurba_marseille","lat":43.2846,"lon":5.35882,"is_reserved":false,"is_disabled":false,"rental_uris":{"android":"levelo://app?vid=44738fa1-4aa3-4f30-a637-db8bb283ab65","ios":"levelo://app?vid=44738fa1-4aa3-4f30-a637-db8bb283ab65"},"vehicle_type_id":"4","last_reported":1760800116,"current_range_meters":5600,"station_id":"ce4bhah2rcd13ifvqei0","pricing_plan_id":"cebpf4jnsgd1na2vs0mg"},{"bike_id":"319ca0b6-643b-48b4-abfd-ce9e2dffe92f","system_id":"levelo_inurba_marseille","lat":43.22566,"lon":5.41633,"is_reserved":false,"is_disabled":false,"rental_uris":{"android":"levelo://app?vid=319ca0b6-643b-48b4-abfd-ce9e2dffe92f","ios":"levelo://app?vid=319ca0b6-643b-48b4-abfd-ce9e2dffe92f"},"vehicle_type_id":"4","last_reported":1760800116,"current_range_meters":6000,"station_id":"st_d2o4gvlbi1j2169b742g","pricing_plan_id":"cebpf4jnsgd1na2vs0mg"},{"bike_id":"24d82d64-1145-442f-a9f5-19238b0b39ef","system_id":"levelo_inurba_marseille","lat":43.272133,"lon":5.391866,"is_reserved":false,"is_disabled":false,"rental_uris":{"android":"levelo://app?vid=24d82d64-1145-442f-a9f5-19238b0b39ef","ios":"levelo://app?vid=24d82d64-1145-442f-a9f5-19238b0b39ef"},"vehicle_type_id":"4","last_reported":1760800116,"current_range_meters":6000,"station_id":"","pricing_plan_id":"cebpf4jnsgd1na2vs0mg"},{"bike_id":"97cf9ee0-9f54-4373-aeb0-5a0a2146aa5e","system_id":"levelo_inurba_marseille","lat":43.211925,"lon":5.350694,"is_reserved":false,"is_disabled":false,"rental_uris":{"android":"levelo://app?vid=97cf9ee0-9f54-4373-aeb0-5a0a2146aa5e","ios":"levelo://app?vid=97cf9ee0-9f54-4373-aeb0-5a0a2146aa5e"},"vehicle_type_id":"4","last_reported":1760800116,"current_range_meters":6400,"station_id":"st_cvj6sg6p6f1abm77japg","pricing_plan_id":"cebpf4jnsgd1na2vs0mg"},{"bike_id":"6aa2dc58-5a5c-4eb7-8f4b-b92abb701c65","system_id":"levelo_inurba_marseille","lat":43.26553,"lon":5.37289,"is_reserved":false,"is_disabled":false,"rental_uris":{"android":"levelo://app?vid=6aa2dc58-5a5c-4eb7-8f4b-b92abb701c65","ios":"levelo://app?vid=6aa2dc58-5a5c-4eb7-8f4b-b92abb701c65"},"vehicle_type_id":"4","last_reported":1760800116,"current_range_meters":6400,"station_id":"ce4bhg12rcd13ifvqf70","pricing_plan_id":"cebpf4jnsgd1na2vs0mg"},{"bike_id":"d88f8f0c-8e28-4d17-ba47-b404d6f3080b","system_id":"levelo_inurba_marseille","lat":43.297089,"lon":5.376927,"is_reserved":false,"is_disabled":false,"rental_uris":{"android":"levelo://app?vid=d88f8f0c-8e28-4d17-ba47-b404d6f3080b","ios":"levelo://app?vid=d88f8f0c-8e28-4d17-ba47-b404d6f3080b"},"vehicle_type_id":"4","last_reported":1760800116,"current_range_meters":6400,"station_id":"ce4bgkh2rcd13ifvqbl0","pricing_plan_id":"cebpf4jnsgd1na2vs0mg"},{"bike_id":"457fa0e2-2d46-4491-aff6-c8ab0d71b701","system_id":"levelo_inurba_marseille","lat":43.24805,"lon":5.37457,"is_reserved":false,"is_disabled":false,"rental_uris":{"android":"levelo://app?vid=457fa0e2-2d46-4491-aff6-c8ab0d71b701","ios":"levelo://app?vid=457fa0e2-2d46-4491-aff6-c8ab0d71b701"},"vehicle_type_id":"4","last_reported":1760800116,"current_range_meters":6400,"station_id":"ce4bhgh2rcd13ifvqfb0","pricing_plan_id":"cebpf4jnsgd1na2vs0mg"},{"bike_id":"18450335-3b41-4f11-b491-a6b2732daa55","system_id":"levelo_inurba_marseille","lat":43.24805,"lon":5.37465,"is_reserved":false,"is_disabled":false,"rental_uris":{"android":"levelo://app?vid=18450335-3b41-4f11-b491-a6b2732daa55","ios":"levelo://app?vid=18450335-3b41-4f11-b491-a6b2732daa55"},"vehicle_type_id":"4","last_reported":1760800116,"current_range_meters":6400,"station_id":"ce4bhgh2rcd13ifvqfb0","pricing_plan_id":"cebpf4jnsgd1na2vs0mg"},{"bike_id":"fde0bd3b-fb7c-42d0-b1da-9b3563029725","system_id":"levelo_inurba_marseille","lat":43.26198,"lon":5.37441,"is_reserved":false,"is_disabled":false,"rental_uris":{"android":"levelo://app?vid=fde0bd3b-fb7c-42d0-b1da-9b3563029725","ios":"levelo://app?vid=fde0bd3b-fb7c-42d0-b1da-9b3563029725"},"vehicle_type_id":"4","last_reported":1760800116,"current_range_meters":6400,"station_id":"ce4bhgp2rcd13ifvqfc0","pricing_plan_id":"cebpf4jnsgd1na2vs0mg"},{"bike_id":"b198fdae-a02e-4380-b40a-23fa0f5e4197","system_id":"levelo_inurba_marseille","lat":43.28623,"lon":5.40702,"is_reserved":false,"is_disabled":false,"rental_uris":{"android":"levelo://app?vid=b198fdae-a02e-4380-b40a-23fa0f5e4197","ios":"levelo://app?vid=b198fdae-a02e-4380-b40a-23fa0f5e4197"},"vehicle_type_id":"4","last_reported":1760800116,"current_range_meters":6400,"station_id":"","pricing_plan_id":"cebpf4jnsgd1na2vs0mg"},{"bike_id":"9e745356-2a0e-4e77-bfbd-7d92f18b63c4","system_id":"levelo_inurba_marseille","lat":43.28444,"lon":5.39212,"is_reserved":false,"is_disabled":false,"rental_uris":{"android":"levelo://app?vid=9e745356-2a0e-4e77-bfbd-7d92f18b63c4","ios":"levelo://app?vid=9e745356-2a0e-4e77-bfbd-7d92f18b63c4"},"vehicle_type_id":"4","last_reported":1760800116,"current_range_meters":6400,"station_id":"ce4bhoh2rcd13ifvqh5g","pricing_plan_id":"cebpf4jnsgd1na2vs0mg"},{"bike_id":"f683ee1f-76a9-4bbf-90f0-7d50d3530876","system_id":"levelo_inurba_marseille","lat":43.2174,"lon":5.34602,"is_reserved":false,"is_disabled":false,"rental_uris":{"android":"levelo://app?vid=f683ee1f-76a9-4bbf-90f0-7d50d3530876","ios":"levelo://app?vid=f683ee1f-76a9-4bbf-90f0-7d50d3530876"},"vehicle_type_id":"4","last_reported":1760800116,"current_range_meters":6800,"station_id":"st_cvj6r9ubvosntc0bgbag","pricing_plan_id":"cebpf4jnsgd1na2vs0mg"},{"bike_id":"e34774cc-86e9-4738-ad61-428682eb5e24","system_id":"levelo_inurba_marseille","lat":43.21745,"lon":5.34605,"is_reserved":false,"is_disabled":false,"rental_uris":{"android":"levelo://app?vid=e34774cc-86e9-4738-ad61-428682eb5e24","ios":"levelo://app?vid=e34774cc-86e9-4738-ad61-428682eb5e24"},"vehicle_type_id":"4","last_reported":1760800116,"current_range_meters":6800,"station_id":"st_cvj6r9ubvosntc0bgbag","pricing_plan_id":"cebpf4jnsgd1na2vs0mg"},{"bike_id":"e6fa02b1-1d32-4f92-bc22-b739f0ec4b58","system_id":"levelo_inurba_marseille","lat":43.2987,"lon":5.43628,"is_reserved":false,"is_disabled":false,"rental_uris":{"android":"levelo://app?vid=e6fa02b1-1d32-4f92-bc22-b739f0ec4b58","ios":"levelo://app?vid=e6fa02b1-1d32-4f92-bc22-b739f0ec4b58"},"vehicle_type_id":"4","last_reported":1760800116,"current_range_meters":6800,"station_id":"ce4bhpp2rcd13ifvqhfg","pricing_plan_id":"cebpf4jnsgd1na2vs0mg"},{"bike_id":"416f580b-31c7-4ade-8604-dbd86eb8155f","system_id":"levelo_inurba_marseille","lat":43.28158,"lon":5.42126,"is_reserved":false,"is_disabled":false,"rental_uris":{"android":"levelo://app?vid=416f580b-31c7-4ade-8604-dbd86eb8155f","ios":"levelo://app?vid=416f580b-31c7-4ade-8604-dbd86eb8155f"},"vehicle_type_id":"4","last_reported":1760800116,"current_range_meters":6800,"station_id":"","pricing_plan_id":"cebpf4jnsgd1na2vs0mg"},{"bike_id":"ebc27309-61c2-40a5-8811-b40b2cdd7f84","system_id":"levelo_inurba_marseille","lat":43.28265,"lon":5.35065,"is_reserved":false,"is_disabled":false,"rental_uris":{"android":"levelo://app?vid=ebc27309-61c2-40a5-8811-b40b2cdd7f84","ios":"levelo://app?vid=ebc27309-61c2-40a5-8811-b40b2cdd7f84"},"vehicle_type_id":"4","last_reported":1760800116,"current_range_meters":6800,"station_id":"ce4bhbp2rcd13ifvqerg","pricing_plan_id":"cebpf4jnsgd1na2vs0mg"},{"bike_id":"edc2b540-f4d1-424e-9002-80823ed0b6b2","system_id":"levelo_inurba_marseille","lat":43.28368,"lon":5.370208,"is_reserved":false,"is_disabled":false,"rental_uris":{"android":"levelo://app?vid=edc2b540-f4d1-424e-9002-80823ed0b6b2","ios":"levelo://app?vid=edc2b540-f4d1-424e-9002-80823ed0b6b2"},"vehicle_type_id":"4","last_reported":1760800116,"current_range_meters":6800,"station_id":"","pricing_plan_id":"cebpf4jnsgd1na2vs0mg"},{"bike_id":"5fe6e873-dba1-40dd-bc65-77de126f2710","system_id":"levelo_inurba_marseille","lat":43.332893,"lon":5.395256,"is_reserved":false,"is_disabled":false,"rental_uris":{"android":"levelo://app?vid=5fe6e873-dba1-40dd-bc65-77de126f2710","ios":"levelo://app?vid=5fe6e873-dba1-40dd-bc65-77de126f2710"},"vehicle_type_id":"4","last_reported":1760800116,"current_range_meters":6800,"station_id":"","pricing_plan_id":"cebpf4jnsgd1na2vs0mg"},{"bike_id":"4ac9503e-7b01-4c0d-9dde-a0f8cb0d7b94","system_id":"levelo_inurba_marseille","lat":43.21187,"lon":5.35071,"is_reserved":false,"is_disabled":false,"rental_uris":{"android":"levelo://app?vid=4ac9503e-7b01-4c0d-9dde-a0f8cb0d7b94","ios":"levelo://app?vid=4ac9503e-7b01-4c0d-9dde-a0f8cb0d7b94"},"vehicle_type_id":"4","last_reported":1760800116,"current_range_meters":6800,"station_id":"st_cvj6sg6p6f1abm77japg","pricing_plan_id":"cebpf4jnsgd1na2vs0mg"},{"bike_id":"16789bb3-7db4-4f6f-9ca4-a55ba188278d","system_id":"levelo_inurba_marseille","lat":43.24181,"lon":5.39725,"is_reserved":false,"is_disabled":false,"rental_uris":{"android":"levelo://app?vid=16789bb3-7db4-4f6f-9ca4-a55ba188278d","ios":"levelo://app?vid=16789bb3-7db4-4f6f-9ca4-a55ba188278d"},"vehicle_type_id":"4","last_reported":1760800116,"current_range_meters":6800,"station_id":"ce4bhn12rcd13ifvqgpg","pricing_plan_id":"cebpf4jnsgd1na2vs0mg"},{"bike_id":"9dd1d8fe-c2a8-4a70-a175-61f5f9fe7fd2","system_id":"levelo_inurba_marseille","lat":43.321469,"lon":5.387369,"is_reserved":false,"is_disabled":false,"rental_uris":{"android":"levelo://app?vid=9dd1d8fe-c2a8-4a70-a175-61f5f9fe7fd2","ios":"levelo://app?vid=9dd1d8fe-c2a8-4a70-a175-61f5f9fe7fd2"},"vehicle_type_id":"4","last_reported":1760800116,"current_range_meters":7200,"station_id":"","pricing_plan_id":"cebpf4jnsgd1na2vs0mg"},{"bike_id":"2f281224-0b56-4523-9f40-0e49fe174ff2","system_id":"levelo_inurba_marseille","lat":43.29377,"lon":5.37864,"is_reserved":false,"is_disabled":false,"rental_uris":{"android":"levelo://app?vid=2f281224-0b56-4523-9f40-0e49fe174ff2","ios":"levelo://app?vid=2f281224-0b56-4523-9f40-0e49fe174ff2"},"vehicle_type_id":"4","last_reported":1760800116,"current_range_meters":7200,"station_id":"ce4bgjh2rcd13ifvqbf0","pricing_plan_id":"cebpf4jnsgd1na2vs0mg"},{"bike_id":"d3666e6e-6762-44e9-9cdc-b2e57459c4bc","system_id":"levelo_inurba_marseille","lat":43.29515,"lon":5.39403,"is_reserved":false,"is_disabled":false,"rental_uris":{"android":"levelo://app?vid=d3666e6e-6762-44e9-9cdc-b2e57459c4bc","ios":"levelo://app?vid=d3666e6e-6762-44e9-9cdc-b2e57459c4bc"},"vehicle_type_id":"4","last_reported":1760800116,"current_range_meters":7200,"station_id":"ce4bh292rcd13ifvqdf0","pricing_plan_id":"cebpf4jnsgd1na2vs0mg"},{"bike_id":"91302a02-918d-42ee-845e-9a5f084fda48","system_id":"levelo_inurba_marseille","lat":43.28937,"lon":5.36642,"is_reserved":false,"is_disabled":false,"rental_uris":{"android":"levelo://app?vid=91302a02-918d-42ee-845e-9a5f084fda48","ios":"levelo://app?vid=91302a02-918d-42ee-845e-9a5f084fda48"},"vehicle_type_id":"4","last_reported":1760800116,"current_range_meters":7200,"station_id":"ce4bhap2rcd13ifvqek0","pricing_plan_id":"cebpf4jnsgd1na2vs0mg"},{"bike_id":"965fe0ca-08c3-43a1-876e-32d7f986a4be","system_id":"levelo_inurba_marseille","lat":43.29569,"lon":5.37528,"is_reserved":false,"is_disabled":false,"rental_uris":{"android":"levelo://app?vid=965fe0ca-08c3-43a1-876e-32d7f986a4be","ios":"levelo://app?vid=965fe0ca-08c3-43a1-876e-32d7f986a4be"},"vehicle_type_id":"4","last_reported":1760800116,"current_range_meters":8000,"station_id":"ce4bgh92rcd13ifvqb50","pricing_plan_id":"cebpf4jnsgd1na2vs0mg"},{"bike_id":"83070744-3fa3-4e8d-8994-a13ab31b56c5","system_id":"levelo_inurba_marseille","lat":43.24813,"lon":5.37431,"is_reserved":false,"is_disabled":false,"rental_uris":{"android":"levelo://app?vid=83070744-3fa3-4e8d-8994-a13ab31b56c5","ios":"levelo://app?vid=83070744-3fa3-4e8d-8994-a13ab31b56c5"},"vehicle_type_id":"4","last_reported":1760800116,"current_range_meters":8000,"station_id":"ce4bhgh2rcd13ifvqfb0","pricing_plan_id":"cebpf4jnsgd1na2vs0mg"},{"bike_id":"c5e45447-2956-450f-bd7e-88aaf308c04d","system_id":"levelo_inurba_marseille","lat":43.28994,"lon":5.36541,"is_reserved":false,"is_disabled":false,"rental_uris":{"android":"levelo://app?vid=c5e45447-2956-450f-bd7e-88aaf308c04d","ios":"levelo://app?vid=c5e45447-2956-450f-bd7e-88aaf308c04d"},"vehicle_type_id":"4","last_reported":1760800116,"current_range_meters":8000,"station_id":"","pricing_plan_id":"cebpf4jnsgd1na2vs0mg"},{"bike_id":"a0856da1-8658-48fa-8ade-94cf6b175bef","system_id":"levelo_inurba_marseille","lat":43.21753,"lon":5.34598,"is_reserved":false,"is_disabled":false,"rental_uris":{"android":"levelo://app?vid=a0856da1-8658-48fa-8ade-94cf6b175bef","ios":"levelo://app?vid=a0856da1-8658-48fa-8ade-94cf6b175bef"},"vehicle_type_id":"4","last_reported":1760800116,"current_range_meters":8000,"station_id":"st_cvj6r9ubvosntc0bgbag","pricing_plan_id":"cebpf4jnsgd1na2vs0mg"},{"bike_id":"8e7dcb0e-65b8-4597-834d-3673bacf15fb","system_id":"levelo_inurba_marseille","lat":43.2706,"lon":5.42298,"is_reserved":false,"is_disabled":false,"rental_uris":{"android":"levelo://app?vid=8e7dcb0e-65b8-4597-834d-3673bacf15fb","ios":"levelo://app?vid=8e7dcb0e-65b8-4597-834d-3673bacf15fb"},"vehicle_type_id":"4","last_reported":1760800116,"current_range_meters":8000,"station_id":"ce4bhk92rcd13ifvqgb0","pricing_plan_id":"cebpf4jnsgd1na2vs0mg"},{"bike_id":"6b20794b-bf55-4723-a28f-fddaf191342f","system_id":"levelo_inurba_marseille","lat":43.28263,"lon":5.35068,"is_reserved":false,"is_disabled":false,"rental_uris":{"android":"levelo://app?vid=6b20794b-bf55-4723-a28f-fddaf191342f","ios":"levelo://app?vid=6b20794b-bf55-4723-a28f-fddaf191342f"},"vehicle_type_id":"4","last_reported":1760800116,"current_range_meters":8000,"station_id":"","pricing_plan_id":"cebpf4jnsgd1na2vs0mg"},{"bike_id":"3b7dcef1-a053-42c6-a90b-2e90d183394e","system_id":"levelo_inurba_marseille","lat":43.22556,"lon":5.41629,"is_reserved":false,"is_disabled":false,"rental_uris":{"android":"levelo://app?vid=3b7dcef1-a053-42c6-a90b-2e90d183394e","ios":"levelo://app?vid=3b7dcef1-a053-42c6-a90b-2e90d183394e"},"vehicle_type_id":"4","last_reported":1760800116,"current_range_meters":8000,"station_id":"st_d2o4gvlbi1j2169b742g","pricing_plan_id":"cebpf4jnsgd1na2vs0mg"},{"bike_id":"f84657a4-2f22-4572-9119-2112bb537db2","system_id":"levelo_inurba_marseille","lat":43.26211,"lon":5.37448,"is_reserved":false,"is_disabled":false,"rental_uris":{"android":"levelo://app?vid=f84657a4-2f22-4572-9119-2112bb537db2","ios":"levelo://app?vid=f84657a4-2f22-4572-9119-2112bb537db2"},"vehicle_type_id":"4","last_reported":1760800116,"current_range_meters":8000,"station_id":"ce4bhgp2rcd13ifvqfc0","pricing_plan_id":"cebpf4jnsgd1na2vs0mg"},{"bike_id":"4b08cfe7-5df1-4e29-905e-03a9992f8dfa","system_id":"levelo_inurba_marseille","lat":43.33773,"lon":5.37456,"is_reserved":false,"is_disabled":false,"rental_uris":{"android":"levelo://app?vid=4b08cfe7-5df1-4e29-905e-03a9992f8dfa","ios":"levelo://app?vid=4b08cfe7-5df1-4e29-905e-03a9992f8dfa"},"vehicle_type_id":"4","last_reported":1760800116,"current_range_meters":8000,"station_id":"","pricing_plan_id":"cebpf4jnsgd1na2vs0mg"},{"bike_id":"dd2034ff-bf83-4da8-8702-84765557dfa7","system_id":"levelo_inurba_marseille","lat":43.21754,"lon":5.34605,"is_reserved":false,"is_disabled":false,"rental_uris":{"android":"levelo://app?vid=dd2034ff-bf83-4da8-8702-84765557dfa7","ios":"levelo://app?vid=dd2034ff-bf83-4da8-8702-84765557dfa7"},"vehicle_type_id":"4","last_reported":1760800116,"current_range_meters":8000,"station_id":"st_cvj6r9ubvosntc0bgbag","pricing_plan_id":"cebpf4jnsgd1na2vs0mg"},{"bike_id":"0f9c20ae-f80b-4bc4-a84d-e94070c41d3b","system_id":"levelo_inurba_marseille","lat":43.22574,"lon":5.41622,"is_reserved":false,"is_disabled":false,"rental_uris":{"android":"levelo://app?vid=0f9c20ae-f80b-4bc4-a84d-e94070c41d3b","ios":"levelo://app?vid=0f9c20ae-f80b-4bc4-a84d-e94070c41d3b"},"vehicle_type_id":"4","last_reported":1760800116,"current_range_meters":8000,"station_id":"st_d2o4gvlbi1j2169b742g","pricing_plan_id":"cebpf4jnsgd1na2vs0mg"},{"bike_id":"fc07a09f-c1c3-4ddb-a84f-013fa158fd89","system_id":"levelo_inurba_marseille","lat":43.2984,"lon":5.36267,"is_reserved":false,"is_disabled":false,"rental_uris":{"android":"levelo://app?vid=fc07a09f-c1c3-4ddb-a84f-013fa158fd89","ios":"levelo://app?vid=fc07a09f-c1c3-4ddb-a84f-013fa158fd89"},"vehicle_type_id":"4","last_reported":1760800116,"current_range_meters":8000,"station_id":"ce4bgpp2rcd13ifvqc3g","pricing_plan_id":"cebpf4jnsgd1na2vs0mg"},{"bike_id":"a817b630-bbed-48d3-97f4-9bd571b9ebab","system_id":"levelo_inurba_marseille","lat":43.29986,"lon":5.37347,"is_reserved":false,"is_disabled":false,"rental_uris":{"android":"levelo://app?vid=a817b630-bbed-48d3-97f4-9bd571b9ebab","ios":"levelo://app?vid=a817b630-bbed-48d3-97f4-9bd571b9ebab"},"vehicle_type_id":"4","last_reported":1760800116,"current_range_meters":8000,"station_id":"","pricing_plan_id":"cebpf4jnsgd1na2vs0mg"},{"bike_id":"68dd9504-198d-4336-80c1-86f44880eacd","system_id":"levelo_inurba_marseille","lat":43.24675,"lon":5.38153,"is_reserved":false,"is_disabled":false,"rental_uris":{"android":"levelo://app?vid=68dd9504-198d-4336-80c1-86f44880eacd","ios":"levelo://app?vid=68dd9504-198d-4336-80c1-86f44880eacd"},"vehicle_type_id":"4","last_reported":1760800116,"current_range_meters":8400,"station_id":"ce4bhih2rcd13ifvqfr0","pricing_plan_id":"cebpf4jnsgd1na2vs0mg"},{"bike_id":"27931748-b975-4b63-bb68-f2b7eb85bb52","system_id":"levelo_inurba_marseille","lat":43.28154,"lon":5.42651,"is_reserved":false,"is_disabled":false,"rental_uris":{"android":"levelo://app?vid=27931748-b975-4b63-bb68-f2b7eb85bb52","ios":"levelo://app?vid=27931748-b975-4b63-bb68-f2b7eb85bb52"},"vehicle_type_id":"4","last_reported":1760800116,"current_range_meters":8400,"station_id":"ce4bhnh2rcd13ifvqgug","pricing_plan_id":"cebpf4jnsgd1na2vs0mg"},{"bike_id":"245a030c-0c43-41f8-a4cc-088d55252b06","system_id":"levelo_inurba_marseille","lat":43.244739,"lon":5.369355,"is_reserved":false,"is_disabled":false,"rental_uris":{"android":"levelo://app?vid=245a030c-0c43-41f8-a4cc-088d55252b06","ios":"levelo://app?vid=245a030c-0c43-41f8-a4cc-088d55252b06"},"vehicle_type_id":"4","last_reported":1760800116,"current_range_meters":8400,"station_id":"","pricing_plan_id":"cebpf4jnsgd1na2vs0mg"},{"bike_id":"9935715f-e2e1-4492-af79-04b421a18d41","system_id":"levelo_inurba_marseille","lat":43.29263,"lon":5.38446,"is_reserved":false,"is_disabled":false,"rental_uris":{"android":"levelo://app?vid=9935715f-e2e1-4492-af79-04b421a18d41","ios":"levelo://app?vid=9935715f-e2e1-4492-af79-04b421a18d41"},"vehicle_type_id":"4","last_reported":1760800116,"current_range_meters":8400,"station_id":"ce4bh692rcd13ifvqea0","pricing_plan_id":"cebpf4jnsgd1na2vs0mg"},{"bike_id":"8bd272a3-683a-4148-9970-3334beb0a457","system_id":"levelo_inurba_marseille","lat":43.28499,"lon":5.44115,"is_reserved":false,"is_disabled":false,"rental_uris":{"android":"levelo://app?vid=8bd272a3-683a-4148-9970-3334beb0a457","ios":"levelo://app?vid=8bd272a3-683a-4148-9970-3334beb0a457"},"vehicle_type_id":"4","last_reported":1760800116,"current_range_meters":8400,"station_id":"st_d3j3df2ikq2c7380ej80","pricing_plan_id":"cebpf4jnsgd1na2vs0mg"},{"bike_id":"dcbc14c1-a636-45c7-ac8c-8b1b19b1a1d4","system_id":"levelo_inurba_marseille","lat":43.24803,"lon":5.37455,"is_reserved":false,"is_disabled":false,"rental_uris":{"android":"levelo://app?vid=dcbc14c1-a636-45c7-ac8c-8b1b19b1a1d4","ios":"levelo://app?vid=dcbc14c1-a636-45c7-ac8c-8b1b19b1a1d4"},"vehicle_type_id":"4","last_reported":1760800116,"current_range_meters":8400,"station_id":"ce4bhgh2rcd13ifvqfb0","pricing_plan_id":"cebpf4jnsgd1na2vs0mg"},{"bike_id":"bcda6811-da87-40c1-a424-12a36b8f6585","system_id":"levelo_inurba_marseille","lat":43.32114,"lon":5.36777,"is_reserved":false,"is_disabled":false,"rental_uris":{"android":"levelo://app?vid=bcda6811-da87-40c1-a424-12a36b8f6585","ios":"levelo://app?vid=bcda6811-da87-40c1-a424-12a36b8f6585"},"vehicle_type_id":"4","last_reported":1760800116,"current_range_meters":8800,"station_id":"ce4bhrh2rcd13ifvqhug","pricing_plan_id":"cebpf4jnsgd1na2vs0mg"},{"bike_id":"1635e8f5-55f1-483f-9b99-d898263e1137","system_id":"levelo_inurba_marseille","lat":43.29061,"lon":5.37159,"is_reserved":false,"is_disabled":false,"rental_uris":{"android":"levelo://app?vid=1635e8f5-55f1-483f-9b99-d898263e1137","ios":"levelo://app?vid=1635e8f5-55f1-483f-9b99-d898263e1137"},"vehicle_type_id":"4","last_reported":1760800116,"current_range_meters":8800,"station_id":"ce4bh5p2rcd13ifvqe4g","pricing_plan_id":"cebpf4jnsgd1na2vs0mg"},{"bike_id":"665359f1-1775-4231-9860-38cbb9531dd0","system_id":"levelo_inurba_marseille","lat":43.21743,"lon":5.34607,"is_reserved":false,"is_disabled":false,"rental_uris":{"android":"levelo://app?vid=665359f1-1775-4231-9860-38cbb9531dd0","ios":"levelo://app?vid=665359f1-1775-4231-9860-38cbb9531dd0"},"vehicle_type_id":"4","last_reported":1760800116,"current_range_meters":8800,"station_id":"st_cvj6r9ubvosntc0bgbag","pricing_plan_id":"cebpf4jnsgd1na2vs0mg"},{"bike_id":"1d210b84-9016-47a7-91c0-be8b7909e805","system_id":"levelo_inurba_marseille","lat":43.2174,"lon":5.34603,"is_reserved":false,"is_disabled":false,"rental_uris":{"android":"levelo://app?vid=1d210b84-9016-47a7-91c0-be8b7909e805","ios":"levelo://app?vid=1d210b84-9016-47a7-91c0-be8b7909e805"},"vehicle_type_id":"4","last_reported":1760800116,"current_range_meters":8800,"station_id":"st_cvj6r9ubvosntc0bgbag","pricing_plan_id":"cebpf4jnsgd1na2vs0mg"},{"bike_id":"35b8cfb0-4a26-40e9-91b3-f6b8c572d962","system_id":"levelo_inurba_marseille","lat":43.29685,"lon":5.37293,"is_reserved":false,"is_disabled":false,"rental_uris":{"android":"levelo://app?vid=35b8cfb0-4a26-40e9-91b3-f6b8c572d962","ios":"levelo://app?vid=35b8cfb0-4a26-40e9-91b3-f6b8c572d962"},"vehicle_type_id":"4","last_reported":1760800116,"current_range_meters":8800,"station_id":"ce4bgk12rcd13ifvqbj0","pricing_plan_id":"cebpf4jnsgd1na2vs0mg"},{"bike_id":"cc3dbeb4-7b2d-4780-95dd-cfdaab96f3d5","system_id":"levelo_inurba_marseille","lat":43.28952,"lon":5.364525,"is_reserved":false,"is_disabled":false,"rental_uris":{"android":"levelo://app?vid=cc3dbeb4-7b2d-4780-95dd-cfdaab96f3d5","ios":"levelo://app?vid=cc3dbeb4-7b2d-4780-95dd-cfdaab96f3d5"},"vehicle_type_id":"4","last_reported":1760800116,"current_range_meters":8800,"station_id":"ce4bhc92rcd13ifvqetg","pricing_plan_id":"cebpf4jnsgd1na2vs0mg"},{"bike_id":"6d532728-1294-45bc-a29f-47186cf02531","system_id":"levelo_inurba_marseille","lat":43.31345,"lon":5.36714,"is_reserved":false,"is_disabled":false,"rental_uris":{"android":"levelo://app?vid=6d532728-1294-45bc-a29f-47186cf02531","ios":"levelo://app?vid=6d532728-1294-45bc-a29f-47186cf02531"},"vehicle_type_id":"4","last_reported":1760800116,"current_range_meters":9200,"station_id":"ce4bgr92rcd13ifvqc6g","pricing_plan_id":"cebpf4jnsgd1na2vs0mg"},{"bike_id":"26668d0d-5d69-41ea-bcb8-9057602c0c37","system_id":"levelo_inurba_marseille","lat":43.31158,"lon":5.38717,"is_reserved":false,"is_disabled":false,"rental_uris":{"android":"levelo://app?vid=26668d0d-5d69-41ea-bcb8-9057602c0c37","ios":"levelo://app?vid=26668d0d-5d69-41ea-bcb8-9057602c0c37"},"vehicle_type_id":"4","last_reported":1760800116,"current_range_meters":9200,"station_id":"ce4bgv12rcd13ifvqcp0","pricing_plan_id":"cebpf4jnsgd1na2vs0mg"},{"bike_id":"256e1c2b-f989-48f3-8f14-1e5a9f078ea3","system_id":"levelo_inurba_marseille","lat":43.30444,"lon":5.38889,"is_reserved":false,"is_disabled":false,"rental_uris":{"android":"levelo://app?vid=256e1c2b-f989-48f3-8f14-1e5a9f078ea3","ios":"levelo://app?vid=256e1c2b-f989-48f3-8f14-1e5a9f078ea3"},"vehicle_type_id":"4","last_reported":1760800116,"current_range_meters":9200,"station_id":"ce4bgk12rcd13ifvqbi0","pricing_plan_id":"cebpf4jnsgd1na2vs0mg"},{"bike_id":"1d7552c9-08f3-4fc0-8d3e-2efe48717e9a","system_id":"levelo_inurba_marseille","lat":43.2867,"lon":5.36342,"is_reserved":false,"is_disabled":false,"rental_uris":{"android":"levelo://app?vid=1d7552c9-08f3-4fc0-8d3e-2efe48717e9a","ios":"levelo://app?vid=1d7552c9-08f3-4fc0-8d3e-2efe48717e9a"},"vehicle_type_id":"4","last_reported":1760800116,"current_range_meters":9600,"station_id":"ce4bhah2rcd13ifvqej0","pricing_plan_id":"cebpf4jnsgd1na2vs0mg"},{"bike_id":"b3edc609-7782-46af-831c-544f1d118f47","system_id":"levelo_inurba_marseille","lat":43.30804,"lon":5.43531,"is_reserved":false,"is_disabled":false,"rental_uris":{"android":"levelo://app?vid=b3edc609-7782-46af-831c-544f1d118f47","ios":"levelo://app?vid=b3edc609-7782-46af-831c-544f1d118f47"},"vehicle_type_id":"4","last_reported":1760800116,"current_range_meters":9600,"station_id":"ce4bhph2rcd13ifvqheg","pricing_plan_id":"cebpf4jnsgd1na2vs0mg"},{"bike_id":"f016d088-33da-42b4-95a8-c6f9fa3dec33","system_id":"levelo_inurba_marseille","lat":43.28409,"lon":5.34994,"is_reserved":false,"is_disabled":false,"rental_uris":{"android":"levelo://app?vid=f016d088-33da-42b4-95a8-c6f9fa3dec33","ios":"levelo://app?vid=f016d088-33da-42b4-95a8-c6f9fa3dec33"},"vehicle_type_id":"4","last_reported":1760800116,"current_range_meters":9600,"station_id":"ce4bhbh2rcd13ifvqepg","pricing_plan_id":"cebpf4jnsgd1na2vs0mg"},{"bike_id":"924ac669-be8b-47aa-9a8e-6f22baf815eb","system_id":"levelo_inurba_marseille","lat":43.337692,"lon":5.374734,"is_reserved":false,"is_disabled":false,"rental_uris":{"android":"levelo://app?vid=924ac669-be8b-47aa-9a8e-6f22baf815eb","ios":"levelo://app?vid=924ac669-be8b-47aa-9a8e-6f22baf815eb"},"vehicle_type_id":"4","last_reported":1760800116,"current_range_meters":10000,"station_id":"","pricing_plan_id":"cebpf4jnsgd1na2vs0mg"},{"bike_id":"aecd33f5-0899-4965-93ff-c5068d55e28f","system_id":"levelo_inurba_marseille","lat":43.211947,"lon":5.350727,"is_reserved":false,"is_disabled":false,"rental_uris":{"android":"levelo://app?vid=aecd33f5-0899-4965-93ff-c5068d55e28f","ios":"levelo://app?vid=aecd33f5-0899-4965-93ff-c5068d55e28f"},"vehicle_type_id":"4","last_reported":1760800116,"current_range_meters":10000,"station_id":"","pricing_plan_id":"cebpf4jnsgd1na2vs0mg"},{"bike_id":"b97ec83c-18a6-4cb5-b106-ac4bcd141669","system_id":"levelo_inurba_marseille","lat":43.27942,"lon":5.41051,"is_reserved":false,"is_disabled":false,"rental_uris":{"android":"levelo://app?vid=b97ec83c-18a6-4cb5-b106-ac4bcd141669","ios":"levelo://app?vid=b97ec83c-18a6-4cb5-b106-ac4bcd141669"},"vehicle_type_id":"4","last_reported":1760800116,"current_range_meters":10000,"station_id":"ce4bhnp2rcd13ifvqh0g","pricing_plan_id":"cebpf4jnsgd1na2vs0mg"},{"bike_id":"8e6781bb-2e20-454e-8191-54182f17bdfc","system_id":"levelo_inurba_marseille","lat":43.217499,"lon":5.346028,"is_reserved":false,"is_disabled":true,"rental_uris":{"android":"levelo://app?vid=8e6781bb-2e20-454e-8191-54182f17bdfc","ios":"levelo://app?vid=8e6781bb-2e20-454e-8191-54182f17bdfc"},"vehicle_type_id":"4","last_reported":1760800116,"current_range_meters":10000,"station_id":"st_cvj6r9ubvosntc0bgbag","pricing_plan_id":"cebpf4jnsgd1na2vs0mg"},{"bike_id":"bfcde80b-c124-41f8-b995-2aaf3c798af5","system_id":"levelo_inurba_marseille","lat":43.21182,"lon":5.35089,"is_reserved":false,"is_disabled":false,"rental_uris":{"android":"levelo://app?vid=bfcde80b-c124-41f8-b995-2aaf3c798af5","ios":"levelo://app?vid=bfcde80b-c124-41f8-b995-2aaf3c798af5"},"vehicle_type_id":"4","last_reported":1760800116,"current_range_meters":10000,"station_id":"st_cvj6sg6p6f1abm77japg","pricing_plan_id":"cebpf4jnsgd1na2vs0mg"},{"bike_id":"b783941d-3d20-459b-8414-7196b02f9f26","system_id":"levelo_inurba_marseille","lat":43.21752,"lon":5.34599,"is_reserved":false,"is_disabled":false,"rental_uris":{"android":"levelo://app?vid=b783941d-3d20-459b-8414-7196b02f9f26","ios":"levelo://app?vid=b783941d-3d20-459b-8414-7196b02f9f26"},"vehicle_type_id":"4","last_reported":1760800116,"current_range_meters":10800,"station_id":"st_cvj6r9ubvosntc0bgbag","pricing_plan_id":"cebpf4jnsgd1na2vs0mg"},{"bike_id":"ff86eea6-c1e6-4578-b1e5-0e4fb5f089c5","system_id":"levelo_inurba_marseille","lat":43.285513,"lon":5.384287,"is_reserved":false,"is_disabled":false,"rental_uris":{"android":"levelo://app?vid=ff86eea6-c1e6-4578-b1e5-0e4fb5f089c5","ios":"levelo://app?vid=ff86eea6-c1e6-4578-b1e5-0e4fb5f089c5"},"vehicle_type_id":"4","last_reported":1760800116,"current_range_meters":10800,"station_id":"","pricing_plan_id":"cebpf4jnsgd1na2vs0mg"},{"bike_id":"f79ed942-86fc-4b27-9729-61cda708bb82","system_id":"levelo_inurba_marseille","lat":43.337444,"lon":5.374475,"is_reserved":false,"is_disabled":false,"rental_uris":{"android":"levelo://app?vid=f79ed942-86fc-4b27-9729-61cda708bb82","ios":"levelo://app?vid=f79ed942-86fc-4b27-9729-61cda708bb82"},"vehicle_type_id":"4","last_reported":1760800116,"current_range_meters":10800,"station_id":"","pricing_plan_id":"cebpf4jnsgd1na2vs0mg"},{"bike_id":"e427aaaf-ebc8-4540-808e-fa07955f06df","system_id":"levelo_inurba_marseille","lat":43.258817,"lon":5.394327,"is_reserved":false,"is_disabled":false,"rental_uris":{"android":"levelo://app?vid=e427aaaf-ebc8-4540-808e-fa07955f06df","ios":"levelo://app?vid=e427aaaf-ebc8-4540-808e-fa07955f06df"},"vehicle_type_id":"4","last_reported":1760800116,"current_range_meters":10800,"station_id":"","pricing_plan_id":"cebpf4jnsgd1na2vs0mg"},{"bike_id":"a2041a0e-0549-490e-8bae-b4f7562275c2","system_id":"levelo_inurba_marseille","lat":43.284151,"lon":5.349774,"is_reserved":false,"is_disabled":false,"rental_uris":{"android":"levelo://app?vid=a2041a0e-0549-490e-8bae-b4f7562275c2","ios":"levelo://app?vid=a2041a0e-0549-490e-8bae-b4f7562275c2"},"vehicle_type_id":"4","last_reported":1760800116,"current_range_meters":10800,"station_id":"","pricing_plan_id":"cebpf4jnsgd1na2vs0mg"},{"bike_id":"fad2b63f-2533-4c97-b3d2-88d6a2206de6","system_id":"levelo_inurba_marseille","lat":43.284,"lon":5.34981,"is_reserved":false,"is_disabled":false,"rental_uris":{"android":"levelo://app?vid=fad2b63f-2533-4c97-b3d2-88d6a2206de6","ios":"levelo://app?vid=fad2b63f-2533-4c97-b3d2-88d6a2206de6"},"vehicle_type_id":"4","last_reported":1760800116,"current_range_meters":11200,"station_id":"ce4bhbh2rcd13ifvqepg","pricing_plan_id":"cebpf4jnsgd1na2vs0mg"},{"bike_id":"ae53efbf-d0aa-428b-bdf8-1ad75c06fbc0","system_id":"levelo_inurba_marseille","lat":43.30534,"lon":5.36558,"is_reserved":false,"is_disabled":false,"rental_uris":{"android":"levelo://app?vid=ae53efbf-d0aa-428b-bdf8-1ad75c06fbc0","ios":"levelo://app?vid=ae53efbf-d0aa-428b-bdf8-1ad75c06fbc0"},"vehicle_type_id":"4","last_reported":1760800116,"current_range_meters":11200,"station_id":"ce4bgs12rcd13ifvqcag","pricing_plan_id":"cebpf4jnsgd1na2vs0mg"},{"bike_id":"180ee3d4-31dd-4f33-a792-2ca8614cf528","system_id":"levelo_inurba_marseille","lat":43.284096,"lon":5.349763,"is_reserved":false,"is_disabled":false,"rental_uris":{"android":"levelo://app?vid=180ee3d4-31dd-4f33-a792-2ca8614cf528","ios":"levelo://app?vid=180ee3d4-31dd-4f33-a792-2ca8614cf528"},"vehicle_type_id":"4","last_reported":1760800116,"current_range_meters":11200,"station_id":"ce4bhbh2rcd13ifvqepg","pricing_plan_id":"cebpf4jnsgd1na2vs0mg"},{"bike_id":"681debbd-6f7c-4ae1-a7f3-daf9f3bd0882","system_id":"levelo_inurba_marseille","lat":43.24804,"lon":5.37458,"is_reserved":false,"is_disabled":false,"rental_uris":{"android":"levelo://app?vid=681debbd-6f7c-4ae1-a7f3-daf9f3bd0882","ios":"levelo://app?vid=681debbd-6f7c-4ae1-a7f3-daf9f3bd0882"},"vehicle_type_id":"4","last_reported":1760800116,"current_range_meters":11200,"station_id":"ce4bhgh2rcd13ifvqfb0","pricing_plan_id":"cebpf4jnsgd1na2vs0mg"},{"bike_id":"75b02a51-1325-435e-9661-29bb451a696a","system_id":"levelo_inurba_marseille","lat":43.31448,"lon":5.38488,"is_reserved":false,"is_disabled":false,"rental_uris":{"android":"levelo://app?vid=75b02a51-1325-435e-9661-29bb451a696a","ios":"levelo://app?vid=75b02a51-1325-435e-9661-29bb451a696a"},"vehicle_type_id":"4","last_reported":1760800116,"current_range_meters":11200,"station_id":"","pricing_plan_id":"cebpf4jnsgd1na2vs0mg"},{"bike_id":"f6938577-7efd-4cb5-86ea-0183c16c552d","system_id":"levelo_inurba_marseille","lat":43.27944,"lon":5.41037,"is_reserved":false,"is_disabled":false,"rental_uris":{"android":"levelo://app?vid=f6938577-7efd-4cb5-86ea-0183c16c552d","ios":"levelo://app?vid=f6938577-7efd-4cb5-86ea-0183c16c552d"},"vehicle_type_id":"4","last_reported":1760800116,"current_range_meters":11600,"station_id":"ce4bhnp2rcd13ifvqh0g","pricing_plan_id":"cebpf4jnsgd1na2vs0mg"},{"bike_id":"0b170382-a38a-48fc-b060-b901de311f1a","system_id":"levelo_inurba_marseille","lat":43.33047,"lon":5.39024,"is_reserved":false,"is_disabled":false,"rental_uris":{"android":"levelo://app?vid=0b170382-a38a-48fc-b060-b901de311f1a","ios":"levelo://app?vid=0b170382-a38a-48fc-b060-b901de311f1a"},"vehicle_type_id":"4","last_reported":1760800116,"current_range_meters":11600,"station_id":"ce4bhr92rcd13ifvqhrg","pricing_plan_id":"cebpf4jnsgd1na2vs0mg"},{"bike_id":"cf42df93-97f4-4aa6-9c34-41f16a52a1db","system_id":"levelo_inurba_marseille","lat":43.247889,"lon":5.374347,"is_reserved":false,"is_disabled":false,"rental_uris":{"android":"levelo://app?vid=cf42df93-97f4-4aa6-9c34-41f16a52a1db","ios":"levelo://app?vid=cf42df93-97f4-4aa6-9c34-41f16a52a1db"},"vehicle_type_id":"4","last_reported":1760800116,"current_range_meters":11600,"station_id":"ce4bhgh2rcd13ifvqfb0","pricing_plan_id":"cebpf4jnsgd1na2vs0mg"},{"bike_id":"8c30526d-4d62-49e0-92a1-2ed039e24496","system_id":"levelo_inurba_marseille","lat":43.28698,"lon":5.38305,"is_reserved":false,"is_disabled":false,"rental_uris":{"android":"levelo://app?vid=8c30526d-4d62-49e0-92a1-2ed039e24496","ios":"levelo://app?vid=8c30526d-4d62-49e0-92a1-2ed039e24496"},"vehicle_type_id":"4","last_reported":1760800116,"current_range_meters":12000,"station_id":"","pricing_plan_id":"cebpf4jnsgd1na2vs0mg"},{"bike_id":"35945e6c-5efc-4da0-935e-00a0136458ac","system_id":"levelo_inurba_marseille","lat":43.26206,"lon":5.37444,"is_reserved":false,"is_disabled":false,"rental_uris":{"android":"levelo://app?vid=35945e6c-5efc-4da0-935e-00a0136458ac","ios":"levelo://app?vid=35945e6c-5efc-4da0-935e-00a0136458ac"},"vehicle_type_id":"4","last_reported":1760800116,"current_range_meters":12000,"station_id":"ce4bhgp2rcd13ifvqfc0","pricing_plan_id":"cebpf4jnsgd1na2vs0mg"},{"bike_id":"5ec36f29-a595-43fb-81bc-e1f6ecf04525","system_id":"levelo_inurba_marseille","lat":43.21193,"lon":5.35077,"is_reserved":false,"is_disabled":true,"rental_uris":{"android":"levelo://app?vid=5ec36f29-a595-43fb-81bc-e1f6ecf04525","ios":"levelo://app?vid=5ec36f29-a595-43fb-81bc-e1f6ecf04525"},"vehicle_type_id":"4","last_reported":1760800116,"current_range_meters":12000,"station_id":"st_cvj6sg6p6f1abm77japg","pricing_plan_id":"cebpf4jnsgd1na2vs0mg"},{"bike_id":"727ededc-4fb4-4d25-97c3-f6ad92d2e8ad","system_id":"levelo_inurba_marseille","lat":43.24167,"lon":5.36398,"is_reserved":false,"is_disabled":false,"rental_uris":{"android":"levelo://app?vid=727ededc-4fb4-4d25-97c3-f6ad92d2e8ad","ios":"levelo://app?vid=727ededc-4fb4-4d25-97c3-f6ad92d2e8ad"},"vehicle_type_id":"4","last_reported":1760800116,"current_range_meters":12000,"station_id":"cpo36qri1sfpv3e86is0","pricing_plan_id":"cebpf4jnsgd1na2vs0mg"},{"bike_id":"1daeed89-fe36-4a09-a725-7000f1ad2d21","system_id":"levelo_inurba_marseille","lat":43.21746,"lon":5.34601,"is_reserved":false,"is_disabled":false,"rental_uris":{"android":"levelo://app?vid=1daeed89-fe36-4a09-a725-7000f1ad2d21","ios":"levelo://app?vid=1daeed89-fe36-4a09-a725-7000f1ad2d21"},"vehicle_type_id":"4","last_reported":1760800116,"current_range_meters":12400,"station_id":"st_cvj6r9ubvosntc0bgbag","pricing_plan_id":"cebpf4jnsgd1na2vs0mg"},{"bike_id":"e3730964-c49b-4260-a3b6-75623c604482","system_id":"levelo_inurba_marseille","lat":43.26192,"lon":5.37452,"is_reserved":false,"is_disabled":false,"rental_uris":{"android":"levelo://app?vid=e3730964-c49b-4260-a3b6-75623c604482","ios":"levelo://app?vid=e3730964-c49b-4260-a3b6-75623c604482"},"vehicle_type_id":"4","last_reported":1760800116,"current_range_meters":12400,"station_id":"ce4bhgp2rcd13ifvqfc0","pricing_plan_id":"cebpf4jnsgd1na2vs0mg"},{"bike_id":"7e98c73c-0daf-470c-8187-471fc9a15ebd","system_id":"levelo_inurba_marseille","lat":43.2417,"lon":5.36411,"is_reserved":false,"is_disabled":false,"rental_uris":{"android":"levelo://app?vid=7e98c73c-0daf-470c-8187-471fc9a15ebd","ios":"levelo://app?vid=7e98c73c-0daf-470c-8187-471fc9a15ebd"},"vehicle_type_id":"4","last_reported":1760800116,"current_range_meters":12400,"station_id":"cpo36qri1sfpv3e86is0","pricing_plan_id":"cebpf4jnsgd1na2vs0mg"},{"bike_id":"8b0516c5-3e42-4520-851b-fad88f8b96c0","system_id":"levelo_inurba_marseille","lat":43.27942,"lon":5.41051,"is_reserved":false,"is_disabled":false,"rental_uris":{"android":"levelo://app?vid=8b0516c5-3e42-4520-851b-fad88f8b96c0","ios":"levelo://app?vid=8b0516c5-3e42-4520-851b-fad88f8b96c0"},"vehicle_type_id":"4","last_reported":1760800116,"current_range_meters":12400,"station_id":"ce4bhnp2rcd13ifvqh0g","pricing_plan_id":"cebpf4jnsgd1na2vs0mg"},{"bike_id":"b35843bb-8826-4f0d-a706-15255e94599e","system_id":"levelo_inurba_marseille","lat":43.27942,"lon":5.40378,"is_reserved":false,"is_disabled":false,"rental_uris":{"android":"levelo://app?vid=b35843bb-8826-4f0d-a706-15255e94599e","ios":"levelo://app?vid=b35843bb-8826-4f0d-a706-15255e94599e"},"vehicle_type_id":"4","last_reported":1760800116,"current_range_meters":12400,"station_id":"","pricing_plan_id":"cebpf4jnsgd1na2vs0mg"},{"bike_id":"0a414463-fe1a-4833-8a11-178a3c2c879a","system_id":"levelo_inurba_marseille","lat":43.29852,"lon":5.37897,"is_reserved":false,"is_disabled":false,"rental_uris":{"android":"levelo://app?vid=0a414463-fe1a-4833-8a11-178a3c2c879a","ios":"levelo://app?vid=0a414463-fe1a-4833-8a11-178a3c2c879a"},"vehicle_type_id":"4","last_reported":1760800116,"current_range_meters":12800,"station_id":"","pricing_plan_id":"cebpf4jnsgd1na2vs0mg"},{"bike_id":"5c984b9a-d3ae-46a5-8510-44106865f7d4","system_id":"levelo_inurba_marseille","lat":43.28609,"lon":5.35105,"is_reserved":false,"is_disabled":false,"rental_uris":{"android":"levelo://app?vid=5c984b9a-d3ae-46a5-8510-44106865f7d4","ios":"levelo://app?vid=5c984b9a-d3ae-46a5-8510-44106865f7d4"},"vehicle_type_id":"4","last_reported":1760800116,"current_range_meters":12800,"station_id":"ce4bhch2rcd13ifvqeug","pricing_plan_id":"cebpf4jnsgd1na2vs0mg"},{"bike_id":"ea883585-d0e4-4bcb-922c-57b2a3efdeac","system_id":"levelo_inurba_marseille","lat":43.30512,"lon":5.3681,"is_reserved":false,"is_disabled":false,"rental_uris":{"android":"levelo://app?vid=ea883585-d0e4-4bcb-922c-57b2a3efdeac","ios":"levelo://app?vid=ea883585-d0e4-4bcb-922c-57b2a3efdeac"},"vehicle_type_id":"4","last_reported":1760800116,"current_range_meters":12800,"station_id":"","pricing_plan_id":"cebpf4jnsgd1na2vs0mg"},{"bike_id":"07ce9a66-8ab3-4275-90f1-a1ac376c06c3","system_id":"levelo_inurba_marseille","lat":43.28424,"lon":5.34987,"is_reserved":false,"is_disabled":false,"rental_uris":{"android":"levelo://app?vid=07ce9a66-8ab3-4275-90f1-a1ac376c06c3","ios":"levelo://app?vid=07ce9a66-8ab3-4275-90f1-a1ac376c06c3"},"vehicle_type_id":"4","last_reported":1760800116,"current_range_meters":12800,"station_id":"ce4bhbh2rcd13ifvqepg","pricing_plan_id":"cebpf4jnsgd1na2vs0mg"},{"bike_id":"587199f8-8f8a-40ac-a953-777ecb8b00fb","system_id":"levelo_inurba_marseille","lat":43.2737,"lon":5.3625,"is_reserved":false,"is_disabled":false,"rental_uris":{"android":"levelo://app?vid=587199f8-8f8a-40ac-a953-777ecb8b00fb","ios":"levelo://app?vid=587199f8-8f8a-40ac-a953-777ecb8b00fb"},"vehicle_type_id":"4","last_reported":1760800116,"current_range_meters":12800,"station_id":"ce4bhbh2rcd13ifvqeo0","pricing_plan_id":"cebpf4jnsgd1na2vs0mg"},{"bike_id":"070e978c-0c49-428d-be41-8f584b34add1","system_id":"levelo_inurba_marseille","lat":43.24165,"lon":5.36393,"is_reserved":false,"is_disabled":false,"rental_uris":{"android":"levelo://app?vid=070e978c-0c49-428d-be41-8f584b34add1","ios":"levelo://app?vid=070e978c-0c49-428d-be41-8f584b34add1"},"vehicle_type_id":"4","last_reported":1760800116,"current_range_meters":12800,"station_id":"cpo36qri1sfpv3e86is0","pricing_plan_id":"cebpf4jnsgd1na2vs0mg"},{"bike_id":"3ebfd743-df1b-4249-8e6e-54b16b0ab693","system_id":"levelo_inurba_marseille","lat":43.28617,"lon":5.35106,"is_reserved":false,"is_disabled":false,"rental_uris":{"android":"levelo://app?vid=3ebfd743-df1b-4249-8e6e-54b16b0ab693","ios":"levelo://app?vid=3ebfd743-df1b-4249-8e6e-54b16b0ab693"},"vehicle_type_id":"4","last_reported":1760800116,"current_range_meters":13600,"station_id":"ce4bhch2rcd13ifvqeug","pricing_plan_id":"cebpf4jnsgd1na2vs0mg"},{"bike_id":"78e7a881-e383-4bb8-99be-a31ca5735071","system_id":"levelo_inurba_marseille","lat":43.21736,"lon":5.34605,"is_reserved":false,"is_disabled":false,"rental_uris":{"android":"levelo://app?vid=78e7a881-e383-4bb8-99be-a31ca5735071","ios":"levelo://app?vid=78e7a881-e383-4bb8-99be-a31ca5735071"},"vehicle_type_id":"4","last_reported":1760800116,"current_range_meters":13600,"station_id":"st_cvj6r9ubvosntc0bgbag","pricing_plan_id":"cebpf4jnsgd1na2vs0mg"},{"bike_id":"23d41a40-c2c8-4b1b-ab87-58223543eb75","system_id":"levelo_inurba_marseille","lat":43.24169,"lon":5.36404,"is_reserved":false,"is_disabled":false,"rental_uris":{"android":"levelo://app?vid=23d41a40-c2c8-4b1b-ab87-58223543eb75","ios":"levelo://app?vid=23d41a40-c2c8-4b1b-ab87-58223543eb75"},"vehicle_type_id":"4","last_reported":1760800116,"current_range_meters":13600,"station_id":"cpo36qri1sfpv3e86is0","pricing_plan_id":"cebpf4jnsgd1na2vs0mg"},{"bike_id":"8df55d1c-f117-4d7e-bf77-2c1831e1b3d7","system_id":"levelo_inurba_marseille","lat":43.23762,"lon":5.36637,"is_reserved":false,"is_disabled":false,"rental_uris":{"android":"levelo://app?vid=8df55d1c-f117-4d7e-bf77-2c1831e1b3d7","ios":"levelo://app?vid=8df55d1c-f117-4d7e-bf77-2c1831e1b3d7"},"vehicle_type_id":"4","last_reported":1760800116,"current_range_meters":13600,"station_id":"st_d3nk18o9ro0c73en2l3g","pricing_plan_id":"cebpf4jnsgd1na2vs0mg"},{"bike_id":"b1db1391-3474-48f3-85bd-dfc79b190eda","system_id":"levelo_inurba_marseille","lat":43.29278,"lon":5.36108,"is_reserved":false,"is_disabled":false,"rental_uris":{"android":"levelo://app?vid=b1db1391-3474-48f3-85bd-dfc79b190eda","ios":"levelo://app?vid=b1db1391-3474-48f3-85bd-dfc79b190eda"},"vehicle_type_id":"4","last_reported":1760800116,"current_range_meters":13600,"station_id":"","pricing_plan_id":"cebpf4jnsgd1na2vs0mg"},{"bike_id":"ae6eb0f2-4874-4ceb-8d8c-7385a8266f58","system_id":"levelo_inurba_marseille","lat":43.2953,"lon":5.3793,"is_reserved":false,"is_disabled":false,"rental_uris":{"android":"levelo://app?vid=ae6eb0f2-4874-4ceb-8d8c-7385a8266f58","ios":"levelo://app?vid=ae6eb0f2-4874-4ceb-8d8c-7385a8266f58"},"vehicle_type_id":"4","last_reported":1760800116,"current_range_meters":13600,"station_id":"","pricing_plan_id":"cebpf4jnsgd1na2vs0mg"},{"bike_id":"9aca6410-dfe2-4f0b-8309-4bbe61aef318","system_id":"levelo_inurba_marseille","lat":43.33034,"lon":5.39043,"is_reserved":false,"is_disabled":false,"rental_uris":{"android":"levelo://app?vid=9aca6410-dfe2-4f0b-8309-4bbe61aef318","ios":"levelo://app?vid=9aca6410-dfe2-4f0b-8309-4bbe61aef318"},"vehicle_type_id":"4","last_reported":1760800116,"current_range_meters":14000,"station_id":"ce4bhr92rcd13ifvqhrg","pricing_plan_id":"cebpf4jnsgd1na2vs0mg"},{"bike_id":"c8e7e487-2046-4072-98bc-53764ffcd62b","system_id":"levelo_inurba_marseille","lat":43.25839,"lon":5.39426,"is_reserved":false,"is_disabled":false,"rental_uris":{"android":"levelo://app?vid=c8e7e487-2046-4072-98bc-53764ffcd62b","ios":"levelo://app?vid=c8e7e487-2046-4072-98bc-53764ffcd62b"},"vehicle_type_id":"4","last_reported":1760800116,"current_range_meters":14000,"station_id":"ce4bhip2rcd13ifvqft0","pricing_plan_id":"cebpf4jnsgd1na2vs0mg"},{"bike_id":"a9df1999-35ba-4aea-bf41-5ab7d43175f1","system_id":"levelo_inurba_marseille","lat":43.2481,"lon":5.3746,"is_reserved":false,"is_disabled":false,"rental_uris":{"android":"levelo://app?vid=a9df1999-35ba-4aea-bf41-5ab7d43175f1","ios":"levelo://app?vid=a9df1999-35ba-4aea-bf41-5ab7d43175f1"},"vehicle_type_id":"4","last_reported":1760800116,"current_range_meters":14000,"station_id":"ce4bhgh2rcd13ifvqfb0","pricing_plan_id":"cebpf4jnsgd1na2vs0mg"},{"bike_id":"2ddc65e1-e578-4165-b0bf-675e45a5f894","system_id":"levelo_inurba_marseille","lat":43.26173,"lon":5.37455,"is_reserved":false,"is_disabled":false,"rental_uris":{"android":"levelo://app?vid=2ddc65e1-e578-4165-b0bf-675e45a5f894","ios":"levelo://app?vid=2ddc65e1-e578-4165-b0bf-675e45a5f894"},"vehicle_type_id":"4","last_reported":1760800116,"current_range_meters":14000,"station_id":"ce4bhgp2rcd13ifvqfc0","pricing_plan_id":"cebpf4jnsgd1na2vs0mg"},{"bike_id":"fa68b210-55bb-4a86-a8f5-f651a77004e6","system_id":"levelo_inurba_marseille","lat":43.23197,"lon":5.35563,"is_reserved":false,"is_disabled":false,"rental_uris":{"android":"levelo://app?vid=fa68b210-55bb-4a86-a8f5-f651a77004e6","ios":"levelo://app?vid=fa68b210-55bb-4a86-a8f5-f651a77004e6"},"vehicle_type_id":"4","last_reported":1760800116,"current_range_meters":14000,"station_id":"ce4bhu92rcd13ifvqi70","pricing_plan_id":"cebpf4jnsgd1na2vs0mg"},{"bike_id":"e978660f-731d-4a95-8df5-e0a54d8fe8be","system_id":"levelo_inurba_marseille","lat":43.21185,"lon":5.35054,"is_reserved":false,"is_disabled":true,"rental_uris":{"android":"levelo://app?vid=e978660f-731d-4a95-8df5-e0a54d8fe8be","ios":"levelo://app?vid=e978660f-731d-4a95-8df5-e0a54d8fe8be"},"vehicle_type_id":"4","last_reported":1760800116,"current_range_meters":14000,"station_id":"st_cvj6sg6p6f1abm77japg","pricing_plan_id":"cebpf4jnsgd1na2vs0mg"},{"bike_id":"6ae3999d-8e42-4188-91df-342af8411ca2","system_id":"levelo_inurba_marseille","lat":43.250719,"lon":5.403463,"is_reserved":false,"is_disabled":false,"rental_uris":{"android":"levelo://app?vid=6ae3999d-8e42-4188-91df-342af8411ca2","ios":"levelo://app?vid=6ae3999d-8e42-4188-91df-342af8411ca2"},"vehicle_type_id":"4","last_reported":1760800116,"current_range_meters":14000,"station_id":"ce4bhlh2rcd13ifvqgig","pricing_plan_id":"cebpf4jnsgd1na2vs0mg"},{"bike_id":"7544d6bc-f9ec-4764-8a2b-6e7b7c3d4c5f","system_id":"levelo_inurba_marseille","lat":43.23195,"lon":5.35554,"is_reserved":false,"is_disabled":false,"rental_uris":{"android":"levelo://app?vid=7544d6bc-f9ec-4764-8a2b-6e7b7c3d4c5f","ios":"levelo://app?vid=7544d6bc-f9ec-4764-8a2b-6e7b7c3d4c5f"},"vehicle_type_id":"4","last_reported":1760800116,"current_range_meters":14400,"station_id":"ce4bhu92rcd13ifvqi70","pricing_plan_id":"cebpf4jnsgd1na2vs0mg"},{"bike_id":"57bc8ade-2963-404c-8f8d-cc0d93e1312e","system_id":"levelo_inurba_marseille","lat":43.286115,"lon":5.351105,"is_reserved":false,"is_disabled":false,"rental_uris":{"android":"levelo://app?vid=57bc8ade-2963-404c-8f8d-cc0d93e1312e","ios":"levelo://app?vid=57bc8ade-2963-404c-8f8d-cc0d93e1312e"},"vehicle_type_id":"4","last_reported":1760800116,"current_range_meters":14400,"station_id":"ce4bhbh2rcd13ifvqeqg","pricing_plan_id":"cebpf4jnsgd1na2vs0mg"},{"bike_id":"b5384ef3-f722-490e-a099-66d8c4d1cd6b","system_id":"levelo_inurba_marseille","lat":43.285434,"lon":5.44111,"is_reserved":false,"is_disabled":false,"rental_uris":{"android":"levelo://app?vid=b5384ef3-f722-490e-a099-66d8c4d1cd6b","ios":"levelo://app?vid=b5384ef3-f722-490e-a099-66d8c4d1cd6b"},"vehicle_type_id":"4","last_reported":1760800116,"current_range_meters":14400,"station_id":"st_d3j3df2ikq2c7380ej80","pricing_plan_id":"cebpf4jnsgd1na2vs0mg"},{"bike_id":"c6227cff-120f-49c6-93a2-5454dd916cde","system_id":"levelo_inurba_marseille","lat":43.26546,"lon":5.37288,"is_reserved":false,"is_disabled":true,"rental_uris":{"android":"levelo://app?vid=c6227cff-120f-49c6-93a2-5454dd916cde","ios":"levelo://app?vid=c6227cff-120f-49c6-93a2-5454dd916cde"},"vehicle_type_id":"4","last_reported":1760800116,"current_range_meters":14400,"station_id":"ce4bhg12rcd13ifvqf70","pricing_plan_id":"cebpf4jnsgd1na2vs0mg"},{"bike_id":"a5033313-b1cf-42c2-ba00-485dec4dba02","system_id":"levelo_inurba_marseille","lat":43.29044,"lon":5.35913,"is_reserved":false,"is_disabled":false,"rental_uris":{"android":"levelo://app?vid=a5033313-b1cf-42c2-ba00-485dec4dba02","ios":"levelo://app?vid=a5033313-b1cf-42c2-ba00-485dec4dba02"},"vehicle_type_id":"4","last_reported":1760800116,"current_range_meters":14400,"station_id":"ce4bha92rcd13ifvqeg0","pricing_plan_id":"cebpf4jnsgd1na2vs0mg"},{"bike_id":"7ff65c9d-1a96-4ee3-8915-e6dc12d6c6f4","system_id":"levelo_inurba_marseille","lat":43.28459,"lon":5.35876,"is_reserved":false,"is_disabled":false,"rental_uris":{"android":"levelo://app?vid=7ff65c9d-1a96-4ee3-8915-e6dc12d6c6f4","ios":"levelo://app?vid=7ff65c9d-1a96-4ee3-8915-e6dc12d6c6f4"},"vehicle_type_id":"4","last_reported":1760800116,"current_range_meters":14800,"station_id":"ce4bhah2rcd13ifvqei0","pricing_plan_id":"cebpf4jnsgd1na2vs0mg"},{"bike_id":"1382b748-840e-4ecc-afc5-0fb4eeaeb841","system_id":"levelo_inurba_marseille","lat":43.30601,"lon":5.37479,"is_reserved":false,"is_disabled":false,"rental_uris":{"android":"levelo://app?vid=1382b748-840e-4ecc-afc5-0fb4eeaeb841","ios":"levelo://app?vid=1382b748-840e-4ecc-afc5-0fb4eeaeb841"},"vehicle_type_id":"4","last_reported":1760800116,"current_range_meters":14800,"station_id":"","pricing_plan_id":"cebpf4jnsgd1na2vs0mg"},{"bike_id":"ac6d2c4d-74a8-443d-a9f9-0d9807feacda","system_id":"levelo_inurba_marseille","lat":43.33772,"lon":5.37469,"is_reserved":false,"is_disabled":false,"rental_uris":{"android":"levelo://app?vid=ac6d2c4d-74a8-443d-a9f9-0d9807feacda","ios":"levelo://app?vid=ac6d2c4d-74a8-443d-a9f9-0d9807feacda"},"vehicle_type_id":"4","last_reported":1760800116,"current_range_meters":14800,"station_id":"","pricing_plan_id":"cebpf4jnsgd1na2vs0mg"},{"bike_id":"f373d233-f9b1-447b-aa59-4c70fb443d06","system_id":"levelo_inurba_marseille","lat":43.2841,"lon":5.34983,"is_reserved":false,"is_disabled":false,"rental_uris":{"android":"levelo://app?vid=f373d233-f9b1-447b-aa59-4c70fb443d06","ios":"levelo://app?vid=f373d233-f9b1-447b-aa59-4c70fb443d06"},"vehicle_type_id":"4","last_reported":1760800116,"current_range_meters":14800,"station_id":"ce4bhbh2rcd13ifvqepg","pricing_plan_id":"cebpf4jnsgd1na2vs0mg"},{"bike_id":"2387b78c-5569-4c75-ba88-76b0ec2749e5","system_id":"levelo_inurba_marseille","lat":43.29017,"lon":5.37186,"is_reserved":false,"is_disabled":false,"rental_uris":{"android":"levelo://app?vid=2387b78c-5569-4c75-ba88-76b0ec2749e5","ios":"levelo://app?vid=2387b78c-5569-4c75-ba88-76b0ec2749e5"},"vehicle_type_id":"4","last_reported":1760800116,"current_range_meters":14800,"station_id":"","pricing_plan_id":"cebpf4jnsgd1na2vs0mg"},{"bike_id":"074be791-6c38-4f2f-8dd0-b227e073e27e","system_id":"levelo_inurba_marseille","lat":43.24172,"lon":5.36394,"is_reserved":false,"is_disabled":false,"rental_uris":{"android":"levelo://app?vid=074be791-6c38-4f2f-8dd0-b227e073e27e","ios":"levelo://app?vid=074be791-6c38-4f2f-8dd0-b227e073e27e"},"vehicle_type_id":"4","last_reported":1760800116,"current_range_meters":15200,"station_id":"cpo36qri1sfpv3e86is0","pricing_plan_id":"cebpf4jnsgd1na2vs0mg"},{"bike_id":"6426e4fa-7f79-410d-acfa-0a51b3b2658a","system_id":"levelo_inurba_marseille","lat":43.31237,"lon":5.40428,"is_reserved":false,"is_disabled":false,"rental_uris":{"android":"levelo://app?vid=6426e4fa-7f79-410d-acfa-0a51b3b2658a","ios":"levelo://app?vid=6426e4fa-7f79-410d-acfa-0a51b3b2658a"},"vehicle_type_id":"4","last_reported":1760800116,"current_range_meters":15200,"station_id":"","pricing_plan_id":"cebpf4jnsgd1na2vs0mg"},{"bike_id":"3f13991a-43fd-4b49-b31a-f84d43d4b745","system_id":"levelo_inurba_marseille","lat":43.289795,"lon":5.371539,"is_reserved":false,"is_disabled":false,"rental_uris":{"android":"levelo://app?vid=3f13991a-43fd-4b49-b31a-f84d43d4b745","ios":"levelo://app?vid=3f13991a-43fd-4b49-b31a-f84d43d4b745"},"vehicle_type_id":"4","last_reported":1760800116,"current_range_meters":15200,"station_id":"","pricing_plan_id":"cebpf4jnsgd1na2vs0mg"},{"bike_id":"365b1110-8604-4b2d-ad9b-3263b8a258f2","system_id":"levelo_inurba_marseille","lat":43.28655,"lon":5.3634,"is_reserved":false,"is_disabled":false,"rental_uris":{"android":"levelo://app?vid=365b1110-8604-4b2d-ad9b-3263b8a258f2","ios":"levelo://app?vid=365b1110-8604-4b2d-ad9b-3263b8a258f2"},"vehicle_type_id":"4","last_reported":1760800116,"current_range_meters":15200,"station_id":"ce4bhah2rcd13ifvqej0","pricing_plan_id":"cebpf4jnsgd1na2vs0mg"},{"bike_id":"bf2c3617-0e72-4f4a-8585-0c63bcbc4fce","system_id":"levelo_inurba_marseille","lat":43.28618,"lon":5.35102,"is_reserved":false,"is_disabled":true,"rental_uris":{"android":"levelo://app?vid=bf2c3617-0e72-4f4a-8585-0c63bcbc4fce","ios":"levelo://app?vid=bf2c3617-0e72-4f4a-8585-0c63bcbc4fce"},"vehicle_type_id":"4","last_reported":1760800116,"current_range_meters":15200,"station_id":"ce4bhch2rcd13ifvqeug","pricing_plan_id":"cebpf4jnsgd1na2vs0mg"},{"bike_id":"d712d0ff-3096-41ad-87d0-b640167ff060","system_id":"levelo_inurba_marseille","lat":43.31541,"lon":5.38512,"is_reserved":false,"is_disabled":false,"rental_uris":{"android":"levelo://app?vid=d712d0ff-3096-41ad-87d0-b640167ff060","ios":"levelo://app?vid=d712d0ff-3096-41ad-87d0-b640167ff060"},"vehicle_type_id":"4","last_reported":1760800116,"current_range_meters":15200,"station_id":"","pricing_plan_id":"cebpf4jnsgd1na2vs0mg"},{"bike_id":"4d639fc2-fd62-4b4f-8fc3-f0ee032daac3","system_id":"levelo_inurba_marseille","lat":43.24167,"lon":5.36405,"is_reserved":false,"is_disabled":false,"rental_uris":{"android":"levelo://app?vid=4d639fc2-fd62-4b4f-8fc3-f0ee032daac3","ios":"levelo://app?vid=4d639fc2-fd62-4b4f-8fc3-f0ee032daac3"},"vehicle_type_id":"4","last_reported":1760800116,"current_range_meters":15200,"station_id":"cpo36qri1sfpv3e86is0","pricing_plan_id":"cebpf4jnsgd1na2vs0mg"},{"bike_id":"3e9130f7-2dc2-48e9-a6a6-56327ea869ab","system_id":"levelo_inurba_marseille","lat":43.241668,"lon":5.363942,"is_reserved":false,"is_disabled":false,"rental_uris":{"android":"levelo://app?vid=3e9130f7-2dc2-48e9-a6a6-56327ea869ab","ios":"levelo://app?vid=3e9130f7-2dc2-48e9-a6a6-56327ea869ab"},"vehicle_type_id":"4","last_reported":1760800116,"current_range_meters":15200,"station_id":"cpo36qri1sfpv3e86is0","pricing_plan_id":"cebpf4jnsgd1na2vs0mg"},{"bike_id":"cf4c14bf-7635-4f96-a4b6-ee6481db3804","system_id":"levelo_inurba_marseille","lat":43.32293,"lon":5.38287,"is_reserved":false,"is_disabled":false,"rental_uris":{"android":"levelo://app?vid=cf4c14bf-7635-4f96-a4b6-ee6481db3804","ios":"levelo://app?vid=cf4c14bf-7635-4f96-a4b6-ee6481db3804"},"vehicle_type_id":"4","last_reported":1760800116,"current_range_meters":16000,"station_id":"ce4bhr12rcd13ifvqhqg","pricing_plan_id":"cebpf4jnsgd1na2vs0mg"},{"bike_id":"a7b3764b-b896-4840-bd7e-9880973af195","system_id":"levelo_inurba_marseille","lat":43.292287,"lon":5.360602,"is_reserved":false,"is_disabled":false,"rental_uris":{"android":"levelo://app?vid=a7b3764b-b896-4840-bd7e-9880973af195","ios":"levelo://app?vid=a7b3764b-b896-4840-bd7e-9880973af195"},"vehicle_type_id":"4","last_reported":1760800116,"current_range_meters":16000,"station_id":"","pricing_plan_id":"cebpf4jnsgd1na2vs0mg"},{"bike_id":"3cd29829-9ec2-401e-89b1-8d1debbc2a85","system_id":"levelo_inurba_marseille","lat":43.28415,"lon":5.34995,"is_reserved":false,"is_disabled":false,"rental_uris":{"android":"levelo://app?vid=3cd29829-9ec2-401e-89b1-8d1debbc2a85","ios":"levelo://app?vid=3cd29829-9ec2-401e-89b1-8d1debbc2a85"},"vehicle_type_id":"4","last_reported":1760800116,"current_range_meters":16000,"station_id":"ce4bhbh2rcd13ifvqepg","pricing_plan_id":"cebpf4jnsgd1na2vs0mg"},{"bike_id":"f4b21278-7a88-4f1e-8b50-4cb4a181722f","system_id":"levelo_inurba_marseille","lat":43.285316,"lon":5.441001,"is_reserved":false,"is_disabled":false,"rental_uris":{"android":"levelo://app?vid=f4b21278-7a88-4f1e-8b50-4cb4a181722f","ios":"levelo://app?vid=f4b21278-7a88-4f1e-8b50-4cb4a181722f"},"vehicle_type_id":"4","last_reported":1760800116,"current_range_meters":16000,"station_id":"st_d3j3df2ikq2c7380ej80","pricing_plan_id":"cebpf4jnsgd1na2vs0mg"},{"bike_id":"1a414dd2-aa53-4d92-b0f1-8af6340fe6be","system_id":"levelo_inurba_marseille","lat":43.292867,"lon":5.377046,"is_reserved":false,"is_disabled":false,"rental_uris":{"android":"levelo://app?vid=1a414dd2-aa53-4d92-b0f1-8af6340fe6be","ios":"levelo://app?vid=1a414dd2-aa53-4d92-b0f1-8af6340fe6be"},"vehicle_type_id":"4","last_reported":1760800116,"current_range_meters":16000,"station_id":"ce4bh412rcd13ifvqdr0","pricing_plan_id":"cebpf4jnsgd1na2vs0mg"},{"bike_id":"6a7d59ae-fad5-499f-b853-e4dc3608976c","system_id":"levelo_inurba_marseille","lat":43.30375,"lon":5.42492,"is_reserved":false,"is_disabled":false,"rental_uris":{"android":"levelo://app?vid=6a7d59ae-fad5-499f-b853-e4dc3608976c","ios":"levelo://app?vid=6a7d59ae-fad5-499f-b853-e4dc3608976c"},"vehicle_type_id":"4","last_reported":1760800116,"current_range_meters":16000,"station_id":"ce4bhoh2rcd13ifvqh6g","pricing_plan_id":"cebpf4jnsgd1na2vs0mg"},{"bike_id":"8d0dfff6-344d-44d4-a7c0-c8985a0e021b","system_id":"levelo_inurba_marseille","lat":43.29913,"lon":5.36818,"is_reserved":false,"is_disabled":false,"rental_uris":{"android":"levelo://app?vid=8d0dfff6-344d-44d4-a7c0-c8985a0e021b","ios":"levelo://app?vid=8d0dfff6-344d-44d4-a7c0-c8985a0e021b"},"vehicle_type_id":"4","last_reported":1760800116,"current_range_meters":16000,"station_id":"","pricing_plan_id":"cebpf4jnsgd1na2vs0mg"},{"bike_id":"c86efa65-0d7f-4ea0-91fd-02a7ce32d41a","system_id":"levelo_inurba_marseille","lat":43.2862,"lon":5.35117,"is_reserved":false,"is_disabled":false,"rental_uris":{"android":"levelo://app?vid=c86efa65-0d7f-4ea0-91fd-02a7ce32d41a","ios":"levelo://app?vid=c86efa65-0d7f-4ea0-91fd-02a7ce32d41a"},"vehicle_type_id":"4","last_reported":1760800116,"current_range_meters":16400,"station_id":"ce4bhch2rcd13ifvqeug","pricing_plan_id":"cebpf4jnsgd1na2vs0mg"},{"bike_id":"a038dc7d-8bcd-4ab2-9290-d79594ab4846","system_id":"levelo_inurba_marseille","lat":43.29846,"lon":5.36286,"is_reserved":false,"is_disabled":false,"rental_uris":{"android":"levelo://app?vid=a038dc7d-8bcd-4ab2-9290-d79594ab4846","ios":"levelo://app?vid=a038dc7d-8bcd-4ab2-9290-d79594ab4846"},"vehicle_type_id":"4","last_reported":1760800116,"current_range_meters":16400,"station_id":"ce4bgpp2rcd13ifvqc3g","pricing_plan_id":"cebpf4jnsgd1na2vs0mg"},{"bike_id":"c26ce23a-9ba2-425f-bffd-c0157d0baf88","system_id":"levelo_inurba_marseille","lat":43.21744,"lon":5.346036,"is_reserved":false,"is_disabled":false,"rental_uris":{"android":"levelo://app?vid=c26ce23a-9ba2-425f-bffd-c0157d0baf88","ios":"levelo://app?vid=c26ce23a-9ba2-425f-bffd-c0157d0baf88"},"vehicle_type_id":"4","last_reported":1760800116,"current_range_meters":16400,"station_id":"st_cvj6r9ubvosntc0bgbag","pricing_plan_id":"cebpf4jnsgd1na2vs0mg"},{"bike_id":"7d982d6b-ce5b-40bf-93fc-3b117afcafa3","system_id":"levelo_inurba_marseille","lat":43.28264,"lon":5.35069,"is_reserved":false,"is_disabled":false,"rental_uris":{"android":"levelo://app?vid=7d982d6b-ce5b-40bf-93fc-3b117afcafa3","ios":"levelo://app?vid=7d982d6b-ce5b-40bf-93fc-3b117afcafa3"},"vehicle_type_id":"4","last_reported":1760800116,"current_range_meters":16400,"station_id":"ce4bhbp2rcd13ifvqerg","pricing_plan_id":"cebpf4jnsgd1na2vs0mg"},{"bike_id":"6e25cdbd-18b6-4a38-a3d4-d2d5668a783c","system_id":"levelo_inurba_marseille","lat":43.28408,"lon":5.34997,"is_reserved":false,"is_disabled":false,"rental_uris":{"android":"levelo://app?vid=6e25cdbd-18b6-4a38-a3d4-d2d5668a783c","ios":"levelo://app?vid=6e25cdbd-18b6-4a38-a3d4-d2d5668a783c"},"vehicle_type_id":"4","last_reported":1760800116,"current_range_meters":16800,"station_id":"ce4bhbh2rcd13ifvqepg","pricing_plan_id":"cebpf4jnsgd1na2vs0mg"},{"bike_id":"08e156f4-f389-47f2-a554-82d58ee52248","system_id":"levelo_inurba_marseille","lat":43.23789,"lon":5.36645,"is_reserved":false,"is_disabled":false,"rental_uris":{"android":"levelo://app?vid=08e156f4-f389-47f2-a554-82d58ee52248","ios":"levelo://app?vid=08e156f4-f389-47f2-a554-82d58ee52248"},"vehicle_type_id":"4","last_reported":1760800116,"current_range_meters":16800,"station_id":"st_d3nk18o9ro0c73en2l3g","pricing_plan_id":"cebpf4jnsgd1na2vs0mg"},{"bike_id":"3ef74f8b-2c29-4ad2-a013-e8c4bdc8c3c0","system_id":"levelo_inurba_marseille","lat":43.29052,"lon":5.35939,"is_reserved":false,"is_disabled":false,"rental_uris":{"android":"levelo://app?vid=3ef74f8b-2c29-4ad2-a013-e8c4bdc8c3c0","ios":"levelo://app?vid=3ef74f8b-2c29-4ad2-a013-e8c4bdc8c3c0"},"vehicle_type_id":"4","last_reported":1760800116,"current_range_meters":16800,"station_id":"ce4bha92rcd13ifvqeg0","pricing_plan_id":"cebpf4jnsgd1na2vs0mg"},{"bike_id":"edcb744a-1021-4493-86cd-94aad7a8dbc8","system_id":"levelo_inurba_marseille","lat":43.30009,"lon":5.37424,"is_reserved":false,"is_disabled":false,"rental_uris":{"android":"levelo://app?vid=edcb744a-1021-4493-86cd-94aad7a8dbc8","ios":"levelo://app?vid=edcb744a-1021-4493-86cd-94aad7a8dbc8"},"vehicle_type_id":"4","last_reported":1760800116,"current_range_meters":16800,"station_id":"","pricing_plan_id":"cebpf4jnsgd1na2vs0mg"},{"bike_id":"125f795a-b00b-429d-8767-faadb17eb9e1","system_id":"levelo_inurba_marseille","lat":43.28005,"lon":5.40016,"is_reserved":false,"is_disabled":false,"rental_uris":{"android":"levelo://app?vid=125f795a-b00b-429d-8767-faadb17eb9e1","ios":"levelo://app?vid=125f795a-b00b-429d-8767-faadb17eb9e1"},"vehicle_type_id":"4","last_reported":1760800116,"current_range_meters":16800,"station_id":"ce4bho92rcd13ifvqh4g","pricing_plan_id":"cebpf4jnsgd1na2vs0mg"},{"bike_id":"a871b554-5c53-4ad7-9005-aa057a7bed08","system_id":"levelo_inurba_marseille","lat":43.28411,"lon":5.34999,"is_reserved":false,"is_disabled":false,"rental_uris":{"android":"levelo://app?vid=a871b554-5c53-4ad7-9005-aa057a7bed08","ios":"levelo://app?vid=a871b554-5c53-4ad7-9005-aa057a7bed08"},"vehicle_type_id":"4","last_reported":1760800116,"current_range_meters":16800,"station_id":"ce4bhbh2rcd13ifvqepg","pricing_plan_id":"cebpf4jnsgd1na2vs0mg"},{"bike_id":"6abe062a-30a3-4bd9-87d0-fe4d14339518","system_id":"levelo_inurba_marseille","lat":43.22569,"lon":5.41636,"is_reserved":false,"is_disabled":false,"rental_uris":{"android":"levelo://app?vid=6abe062a-30a3-4bd9-87d0-fe4d14339518","ios":"levelo://app?vid=6abe062a-30a3-4bd9-87d0-fe4d14339518"},"vehicle_type_id":"4","last_reported":1760800116,"current_range_meters":17200,"station_id":"st_d2o4gvlbi1j2169b742g","pricing_plan_id":"cebpf4jnsgd1na2vs0mg"},{"bike_id":"2b5173e7-2abd-4a30-bb0b-56176f9b8209","system_id":"levelo_inurba_marseille","lat":43.2621,"lon":5.37447,"is_reserved":false,"is_disabled":false,"rental_uris":{"android":"levelo://app?vid=2b5173e7-2abd-4a30-bb0b-56176f9b8209","ios":"levelo://app?vid=2b5173e7-2abd-4a30-bb0b-56176f9b8209"},"vehicle_type_id":"4","last_reported":1760800116,"current_range_meters":17200,"station_id":"ce4bhgp2rcd13ifvqfc0","pricing_plan_id":"cebpf4jnsgd1na2vs0mg"},{"bike_id":"74b0423e-f4a9-4f7b-8a21-3f6b424c04e4","system_id":"levelo_inurba_marseille","lat":43.30309,"lon":5.39212,"is_reserved":false,"is_disabled":false,"rental_uris":{"android":"levelo://app?vid=74b0423e-f4a9-4f7b-8a21-3f6b424c04e4","ios":"levelo://app?vid=74b0423e-f4a9-4f7b-8a21-3f6b424c04e4"},"vehicle_type_id":"4","last_reported":1760800116,"current_range_meters":17200,"station_id":"ce4bgkh2rcd13ifvqbk0","pricing_plan_id":"cebpf4jnsgd1na2vs0mg"},{"bike_id":"1cdc7697-c0f2-45e0-9123-08813a45d684","system_id":"levelo_inurba_marseille","lat":43.21743,"lon":5.34606,"is_reserved":false,"is_disabled":false,"rental_uris":{"android":"levelo://app?vid=1cdc7697-c0f2-45e0-9123-08813a45d684","ios":"levelo://app?vid=1cdc7697-c0f2-45e0-9123-08813a45d684"},"vehicle_type_id":"4","last_reported":1760800116,"current_range_meters":17200,"station_id":"st_cvj6r9ubvosntc0bgbag","pricing_plan_id":"cebpf4jnsgd1na2vs0mg"},{"bike_id":"8cd818e3-a9e2-4f48-92b2-26306f507696","system_id":"levelo_inurba_marseille","lat":43.31349,"lon":5.37913,"is_reserved":false,"is_disabled":false,"rental_uris":{"android":"levelo://app?vid=8cd818e3-a9e2-4f48-92b2-26306f507696","ios":"levelo://app?vid=8cd818e3-a9e2-4f48-92b2-26306f507696"},"vehicle_type_id":"4","last_reported":1760800116,"current_range_meters":17200,"station_id":"","pricing_plan_id":"cebpf4jnsgd1na2vs0mg"},{"bike_id":"9a6d92fa-ab3b-49bf-bfde-2eb49a0f762d","system_id":"levelo_inurba_marseille","lat":43.29521,"lon":5.39055,"is_reserved":false,"is_disabled":false,"rental_uris":{"android":"levelo://app?vid=9a6d92fa-ab3b-49bf-bfde-2eb49a0f762d","ios":"levelo://app?vid=9a6d92fa-ab3b-49bf-bfde-2eb49a0f762d"},"vehicle_type_id":"4","last_reported":1760800116,"current_range_meters":17200,"station_id":"ce4bh3p2rcd13ifvqdp0","pricing_plan_id":"cebpf4jnsgd1na2vs0mg"},{"bike_id":"b543257b-5582-454d-bd99-d0918be9c259","system_id":"levelo_inurba_marseille","lat":43.27352,"lon":5.36241,"is_reserved":false,"is_disabled":false,"rental_uris":{"android":"levelo://app?vid=b543257b-5582-454d-bd99-d0918be9c259","ios":"levelo://app?vid=b543257b-5582-454d-bd99-d0918be9c259"},"vehicle_type_id":"4","last_reported":1760800116,"current_range_meters":17200,"station_id":"ce4bhbh2rcd13ifvqeo0","pricing_plan_id":"cebpf4jnsgd1na2vs0mg"},{"bike_id":"d7ded36d-d299-42ab-8149-5c679c8d7b3f","system_id":"levelo_inurba_marseille","lat":43.34636,"lon":5.36673,"is_reserved":false,"is_disabled":false,"rental_uris":{"android":"levelo://app?vid=d7ded36d-d299-42ab-8149-5c679c8d7b3f","ios":"levelo://app?vid=d7ded36d-d299-42ab-8149-5c679c8d7b3f"},"vehicle_type_id":"4","last_reported":1760800116,"current_range_meters":17200,"station_id":"","pricing_plan_id":"cebpf4jnsgd1na2vs0mg"},{"bike_id":"d69a7d27-90b2-46c4-aad6-db63a86938db","system_id":"levelo_inurba_marseille","lat":43.287045,"lon":5.373748,"is_reserved":false,"is_disabled":false,"rental_uris":{"android":"levelo://app?vid=d69a7d27-90b2-46c4-aad6-db63a86938db","ios":"levelo://app?vid=d69a7d27-90b2-46c4-aad6-db63a86938db"},"vehicle_type_id":"4","last_reported":1760800116,"current_range_meters":17200,"station_id":"ce4bh3p2rcd13ifvqdq0","pricing_plan_id":"cebpf4jnsgd1na2vs0mg"},{"bike_id":"1492983f-7407-4aeb-a397-4da9eb6c6e7f","system_id":"levelo_inurba_marseille","lat":43.292637,"lon":5.384411,"is_reserved":false,"is_disabled":false,"rental_uris":{"android":"levelo://app?vid=1492983f-7407-4aeb-a397-4da9eb6c6e7f","ios":"levelo://app?vid=1492983f-7407-4aeb-a397-4da9eb6c6e7f"},"vehicle_type_id":"4","last_reported":1760800116,"current_range_meters":17200,"station_id":"ce4bh692rcd13ifvqea0","pricing_plan_id":"cebpf4jnsgd1na2vs0mg"},{"bike_id":"693715ee-cc60-40fa-b447-e1047d9f2e58","system_id":"levelo_inurba_marseille","lat":43.304243,"lon":5.397495,"is_reserved":false,"is_disabled":false,"rental_uris":{"android":"levelo://app?vid=693715ee-cc60-40fa-b447-e1047d9f2e58","ios":"levelo://app?vid=693715ee-cc60-40fa-b447-e1047d9f2e58"},"vehicle_type_id":"4","last_reported":1760800116,"current_range_meters":17200,"station_id":"ce4bh092rcd13ifvqd20","pricing_plan_id":"cebpf4jnsgd1na2vs0mg"},{"bike_id":"a3db2d35-9d4a-4e5a-be6d-98fa3d19f01f","system_id":"levelo_inurba_marseille","lat":43.24666,"lon":5.38168,"is_reserved":false,"is_disabled":false,"rental_uris":{"android":"levelo://app?vid=a3db2d35-9d4a-4e5a-be6d-98fa3d19f01f","ios":"levelo://app?vid=a3db2d35-9d4a-4e5a-be6d-98fa3d19f01f"},"vehicle_type_id":"4","last_reported":1760800116,"current_range_meters":17200,"station_id":"ce4bhih2rcd13ifvqfr0","pricing_plan_id":"cebpf4jnsgd1na2vs0mg"},{"bike_id":"c253d0e3-592b-426f-ab2a-1f48f6584939","system_id":"levelo_inurba_marseille","lat":43.290072,"lon":5.356131,"is_reserved":false,"is_disabled":true,"rental_uris":{"android":"levelo://app?vid=c253d0e3-592b-426f-ab2a-1f48f6584939","ios":"levelo://app?vid=c253d0e3-592b-426f-ab2a-1f48f6584939"},"vehicle_type_id":"4","last_reported":1760800116,"current_range_meters":17600,"station_id":"ce4bhb92rcd13ifvqen0","pricing_plan_id":"cebpf4jnsgd1na2vs0mg"},{"bike_id":"7ea0e935-957f-42b2-8502-31409d0119bc","system_id":"levelo_inurba_marseille","lat":43.29532,"lon":5.38538,"is_reserved":false,"is_disabled":false,"rental_uris":{"android":"levelo://app?vid=7ea0e935-957f-42b2-8502-31409d0119bc","ios":"levelo://app?vid=7ea0e935-957f-42b2-8502-31409d0119bc"},"vehicle_type_id":"4","last_reported":1760800116,"current_range_meters":17600,"station_id":"ce4bgih2rcd13ifvqba0","pricing_plan_id":"cebpf4jnsgd1na2vs0mg"},{"bike_id":"277ec9fd-99e1-4c27-a405-0079a2a6c871","system_id":"levelo_inurba_marseille","lat":43.29046,"lon":5.37554,"is_reserved":false,"is_disabled":false,"rental_uris":{"android":"levelo://app?vid=277ec9fd-99e1-4c27-a405-0079a2a6c871","ios":"levelo://app?vid=277ec9fd-99e1-4c27-a405-0079a2a6c871"},"vehicle_type_id":"4","last_reported":1760800116,"current_range_meters":17600,"station_id":"ce4bh692rcd13ifvqe90","pricing_plan_id":"cebpf4jnsgd1na2vs0mg"},{"bike_id":"86ce52f8-f590-4694-90e1-216ddc477b29","system_id":"levelo_inurba_marseille","lat":43.30968,"lon":5.3812,"is_reserved":false,"is_disabled":false,"rental_uris":{"android":"levelo://app?vid=86ce52f8-f590-4694-90e1-216ddc477b29","ios":"levelo://app?vid=86ce52f8-f590-4694-90e1-216ddc477b29"},"vehicle_type_id":"4","last_reported":1760800116,"current_range_meters":17600,"station_id":"","pricing_plan_id":"cebpf4jnsgd1na2vs0mg"},{"bike_id":"0f787efd-37ca-4060-a03d-15d3c3ce389f","system_id":"levelo_inurba_marseille","lat":43.30006,"lon":5.37348,"is_reserved":false,"is_disabled":false,"rental_uris":{"android":"levelo://app?vid=0f787efd-37ca-4060-a03d-15d3c3ce389f","ios":"levelo://app?vid=0f787efd-37ca-4060-a03d-15d3c3ce389f"},"vehicle_type_id":"4","last_reported":1760800116,"current_range_meters":17600,"station_id":"","pricing_plan_id":"cebpf4jnsgd1na2vs0mg"},{"bike_id":"7a8ac50b-c3a4-490a-8f96-9c005f89ed5d","system_id":"levelo_inurba_marseille","lat":43.26521,"lon":5.39049,"is_reserved":false,"is_disabled":false,"rental_uris":{"android":"levelo://app?vid=7a8ac50b-c3a4-490a-8f96-9c005f89ed5d","ios":"levelo://app?vid=7a8ac50b-c3a4-490a-8f96-9c005f89ed5d"},"vehicle_type_id":"4","last_reported":1760800116,"current_range_meters":18000,"station_id":"","pricing_plan_id":"cebpf4jnsgd1na2vs0mg"},{"bike_id":"7b4102bf-aba1-447f-93de-ffef7042242e","system_id":"levelo_inurba_marseille","lat":43.27773,"lon":5.37594,"is_reserved":false,"is_disabled":false,"rental_uris":{"android":"levelo://app?vid=7b4102bf-aba1-447f-93de-ffef7042242e","ios":"levelo://app?vid=7b4102bf-aba1-447f-93de-ffef7042242e"},"vehicle_type_id":"4","last_reported":1760800116,"current_range_meters":18000,"station_id":"","pricing_plan_id":"cebpf4jnsgd1na2vs0mg"},{"bike_id":"8f6c99a9-2111-4ea5-ba4d-4bb0a3b06aa1","system_id":"levelo_inurba_marseille","lat":43.298141,"lon":5.440664,"is_reserved":false,"is_disabled":false,"rental_uris":{"android":"levelo://app?vid=8f6c99a9-2111-4ea5-ba4d-4bb0a3b06aa1","ios":"levelo://app?vid=8f6c99a9-2111-4ea5-ba4d-4bb0a3b06aa1"},"vehicle_type_id":"4","last_reported":1760800116,"current_range_meters":18000,"station_id":"st_d3jp68qikq2c7381ktn0","pricing_plan_id":"cebpf4jnsgd1na2vs0mg"},{"bike_id":"c717bcb7-799b-4ce7-9dcd-b862d6b3f098","system_id":"levelo_inurba_marseille","lat":43.22935,"lon":5.35381,"is_reserved":false,"is_disabled":false,"rental_uris":{"android":"levelo://app?vid=c717bcb7-799b-4ce7-9dcd-b862d6b3f098","ios":"levelo://app?vid=c717bcb7-799b-4ce7-9dcd-b862d6b3f098"},"vehicle_type_id":"4","last_reported":1760800116,"current_range_meters":18000,"station_id":"cpo3532slgdg3j2ikp40","pricing_plan_id":"cebpf4jnsgd1na2vs0mg"},{"bike_id":"6b06aa68-6da8-4f5c-bf18-9f5045bd8fa8","system_id":"levelo_inurba_marseille","lat":43.241891,"lon":5.363869,"is_reserved":false,"is_disabled":false,"rental_uris":{"android":"levelo://app?vid=6b06aa68-6da8-4f5c-bf18-9f5045bd8fa8","ios":"levelo://app?vid=6b06aa68-6da8-4f5c-bf18-9f5045bd8fa8"},"vehicle_type_id":"4","last_reported":1760800116,"current_range_meters":18000,"station_id":"cpo36qri1sfpv3e86is0","pricing_plan_id":"cebpf4jnsgd1na2vs0mg"},{"bike_id":"f0235808-f82f-4aae-abfb-b5286d40b6ce","system_id":"levelo_inurba_marseille","lat":43.28402,"lon":5.34993,"is_reserved":false,"is_disabled":false,"rental_uris":{"android":"levelo://app?vid=f0235808-f82f-4aae-abfb-b5286d40b6ce","ios":"levelo://app?vid=f0235808-f82f-4aae-abfb-b5286d40b6ce"},"vehicle_type_id":"4","last_reported":1760800116,"current_range_meters":18000,"station_id":"ce4bhbh2rcd13ifvqepg","pricing_plan_id":"cebpf4jnsgd1na2vs0mg"},{"bike_id":"1a849fd2-2a57-414d-8610-12afa4ab8634","system_id":"levelo_inurba_marseille","lat":43.29054,"lon":5.35912,"is_reserved":false,"is_disabled":false,"rental_uris":{"android":"levelo://app?vid=1a849fd2-2a57-414d-8610-12afa4ab8634","ios":"levelo://app?vid=1a849fd2-2a57-414d-8610-12afa4ab8634"},"vehicle_type_id":"4","last_reported":1760800116,"current_range_meters":18000,"station_id":"ce4bha92rcd13ifvqeg0","pricing_plan_id":"cebpf4jnsgd1na2vs0mg"},{"bike_id":"7fd36eea-805d-4dce-89b5-46f277eaf158","system_id":"levelo_inurba_marseille","lat":43.305097,"lon":5.366695,"is_reserved":false,"is_disabled":false,"rental_uris":{"android":"levelo://app?vid=7fd36eea-805d-4dce-89b5-46f277eaf158","ios":"levelo://app?vid=7fd36eea-805d-4dce-89b5-46f277eaf158"},"vehicle_type_id":"4","last_reported":1760800116,"current_range_meters":18000,"station_id":"","pricing_plan_id":"cebpf4jnsgd1na2vs0mg"},{"bike_id":"3f9922fa-5fa2-4bb2-b6fe-411d28b8df2c","system_id":"levelo_inurba_marseille","lat":43.28466,"lon":5.38135,"is_reserved":false,"is_disabled":false,"rental_uris":{"android":"levelo://app?vid=3f9922fa-5fa2-4bb2-b6fe-411d28b8df2c","ios":"levelo://app?vid=3f9922fa-5fa2-4bb2-b6fe-411d28b8df2c"},"vehicle_type_id":"4","last_reported":1760800116,"current_range_meters":18000,"station_id":"","pricing_plan_id":"cebpf4jnsgd1na2vs0mg"},{"bike_id":"0a53904e-6100-4306-9c10-14b7a7cd0e43","system_id":"levelo_inurba_marseille","lat":43.29969,"lon":5.41314,"is_reserved":false,"is_disabled":false,"rental_uris":{"android":"levelo://app?vid=0a53904e-6100-4306-9c10-14b7a7cd0e43","ios":"levelo://app?vid=0a53904e-6100-4306-9c10-14b7a7cd0e43"},"vehicle_type_id":"4","last_reported":1760800116,"current_range_meters":18000,"station_id":"ce4bhp12rcd13ifvqh9g","pricing_plan_id":"cebpf4jnsgd1na2vs0mg"},{"bike_id":"cafacda9-2331-4784-b07f-dbd6ab41e97a","system_id":"levelo_inurba_marseille","lat":43.24159,"lon":5.36435,"is_reserved":false,"is_disabled":false,"rental_uris":{"android":"levelo://app?vid=cafacda9-2331-4784-b07f-dbd6ab41e97a","ios":"levelo://app?vid=cafacda9-2331-4784-b07f-dbd6ab41e97a"},"vehicle_type_id":"4","last_reported":1760800116,"current_range_meters":18000,"station_id":"cpo36qri1sfpv3e86is0","pricing_plan_id":"cebpf4jnsgd1na2vs0mg"},{"bike_id":"70dbff01-6a52-4574-aec2-825664a75532","system_id":"levelo_inurba_marseille","lat":43.292726,"lon":5.368456,"is_reserved":false,"is_disabled":false,"rental_uris":{"android":"levelo://app?vid=70dbff01-6a52-4574-aec2-825664a75532","ios":"levelo://app?vid=70dbff01-6a52-4574-aec2-825664a75532"},"vehicle_type_id":"4","last_reported":1760800116,"current_range_meters":18000,"station_id":"ce4bgh92rcd13ifvqb50","pricing_plan_id":"cebpf4jnsgd1na2vs0mg"},{"bike_id":"3e60b1a1-877a-4fd4-84b7-5a8234a59efa","system_id":"levelo_inurba_marseille","lat":43.23152,"lon":5.43719,"is_reserved":false,"is_disabled":false,"rental_uris":{"android":"levelo://app?vid=3e60b1a1-877a-4fd4-84b7-5a8234a59efa","ios":"levelo://app?vid=3e60b1a1-877a-4fd4-84b7-5a8234a59efa"},"vehicle_type_id":"4","last_reported":1760800116,"current_range_meters":18800,"station_id":"ce4bhmp2rcd13ifvqgog","pricing_plan_id":"cebpf4jnsgd1na2vs0mg"},{"bike_id":"0c6ee780-2994-4cb9-a9c7-1a0dec5c1d01","system_id":"levelo_inurba_marseille","lat":43.23776,"lon":5.36637,"is_reserved":false,"is_disabled":false,"rental_uris":{"android":"levelo://app?vid=0c6ee780-2994-4cb9-a9c7-1a0dec5c1d01","ios":"levelo://app?vid=0c6ee780-2994-4cb9-a9c7-1a0dec5c1d01"},"vehicle_type_id":"4","last_reported":1760800116,"current_range_meters":18800,"station_id":"st_d3nk18o9ro0c73en2l3g","pricing_plan_id":"cebpf4jnsgd1na2vs0mg"},{"bike_id":"df73485a-42e3-465d-a21b-00e4764548ae","system_id":"levelo_inurba_marseille","lat":43.237881,"lon":5.366304,"is_reserved":false,"is_disabled":false,"rental_uris":{"android":"levelo://app?vid=df73485a-42e3-465d-a21b-00e4764548ae","ios":"levelo://app?vid=df73485a-42e3-465d-a21b-00e4764548ae"},"vehicle_type_id":"4","last_reported":1760800116,"current_range_meters":18800,"station_id":"st_d3nk18o9ro0c73en2l3g","pricing_plan_id":"cebpf4jnsgd1na2vs0mg"},{"bike_id":"f409ef07-cffc-440f-89f9-566b56bf24d9","system_id":"levelo_inurba_marseille","lat":43.27377,"lon":5.36251,"is_reserved":false,"is_disabled":false,"rental_uris":{"android":"levelo://app?vid=f409ef07-cffc-440f-89f9-566b56bf24d9","ios":"levelo://app?vid=f409ef07-cffc-440f-89f9-566b56bf24d9"},"vehicle_type_id":"4","last_reported":1760800116,"current_range_meters":18800,"station_id":"","pricing_plan_id":"cebpf4jnsgd1na2vs0mg"},{"bike_id":"678dd78f-0f14-49ee-b767-dfdc5eb9ae1a","system_id":"levelo_inurba_marseille","lat":43.26219,"lon":5.37436,"is_reserved":false,"is_disabled":false,"rental_uris":{"android":"levelo://app?vid=678dd78f-0f14-49ee-b767-dfdc5eb9ae1a","ios":"levelo://app?vid=678dd78f-0f14-49ee-b767-dfdc5eb9ae1a"},"vehicle_type_id":"4","last_reported":1760800116,"current_range_meters":18800,"station_id":"ce4bhgp2rcd13ifvqfc0","pricing_plan_id":"cebpf4jnsgd1na2vs0mg"},{"bike_id":"cf74c37f-05c3-4cf7-91a7-71c358d4c647","system_id":"levelo_inurba_marseille","lat":43.30526,"lon":5.36717,"is_reserved":false,"is_disabled":false,"rental_uris":{"android":"levelo://app?vid=cf74c37f-05c3-4cf7-91a7-71c358d4c647","ios":"levelo://app?vid=cf74c37f-05c3-4cf7-91a7-71c358d4c647"},"vehicle_type_id":"4","last_reported":1760800116,"current_range_meters":18800,"station_id":"ce4bgrp2rcd13ifvqc9g","pricing_plan_id":"cebpf4jnsgd1na2vs0mg"},{"bike_id":"b6f6ba1e-5d04-4635-9340-0dad39863634","system_id":"levelo_inurba_marseille","lat":43.32352,"lon":5.36751,"is_reserved":false,"is_disabled":false,"rental_uris":{"android":"levelo://app?vid=b6f6ba1e-5d04-4635-9340-0dad39863634","ios":"levelo://app?vid=b6f6ba1e-5d04-4635-9340-0dad39863634"},"vehicle_type_id":"4","last_reported":1760800116,"current_range_meters":18800,"station_id":"ce4bhsh2rcd13ifvqi2g","pricing_plan_id":"cebpf4jnsgd1na2vs0mg"},{"bike_id":"ec9b3e09-59b2-46f5-b30e-4f6e4b4da5d0","system_id":"levelo_inurba_marseille","lat":43.23782,"lon":5.36639,"is_reserved":false,"is_disabled":false,"rental_uris":{"android":"levelo://app?vid=ec9b3e09-59b2-46f5-b30e-4f6e4b4da5d0","ios":"levelo://app?vid=ec9b3e09-59b2-46f5-b30e-4f6e4b4da5d0"},"vehicle_type_id":"4","last_reported":1760800116,"current_range_meters":18800,"station_id":"st_d3nk18o9ro0c73en2l3g","pricing_plan_id":"cebpf4jnsgd1na2vs0mg"},{"bike_id":"d0a37a34-2691-4c6a-a678-de661930bd5a","system_id":"levelo_inurba_marseille","lat":43.284661,"lon":5.358857,"is_reserved":false,"is_disabled":false,"rental_uris":{"android":"levelo://app?vid=d0a37a34-2691-4c6a-a678-de661930bd5a","ios":"levelo://app?vid=d0a37a34-2691-4c6a-a678-de661930bd5a"},"vehicle_type_id":"4","last_reported":1760800116,"current_range_meters":18800,"station_id":"ce4bhah2rcd13ifvqei0","pricing_plan_id":"cebpf4jnsgd1na2vs0mg"},{"bike_id":"d1668fd5-d05d-42a9-b5d1-4388db8ac6a3","system_id":"levelo_inurba_marseille","lat":43.31764,"lon":5.39029,"is_reserved":false,"is_disabled":false,"rental_uris":{"android":"levelo://app?vid=d1668fd5-d05d-42a9-b5d1-4388db8ac6a3","ios":"levelo://app?vid=d1668fd5-d05d-42a9-b5d1-4388db8ac6a3"},"vehicle_type_id":"4","last_reported":1760800116,"current_range_meters":18800,"station_id":"ce4bhqp2rcd13ifvqhng","pricing_plan_id":"cebpf4jnsgd1na2vs0mg"},{"bike_id":"00fd91e7-2167-4dcf-b95c-801bf7f737fd","system_id":"levelo_inurba_marseille","lat":43.26548,"lon":5.37292,"is_reserved":false,"is_disabled":false,"rental_uris":{"android":"levelo://app?vid=00fd91e7-2167-4dcf-b95c-801bf7f737fd","ios":"levelo://app?vid=00fd91e7-2167-4dcf-b95c-801bf7f737fd"},"vehicle_type_id":"4","last_reported":1760800116,"current_range_meters":18800,"station_id":"ce4bhg12rcd13ifvqf70","pricing_plan_id":"cebpf4jnsgd1na2vs0mg"},{"bike_id":"344c183b-0edb-4ec1-b782-be0c8c604cbd","system_id":"levelo_inurba_marseille","lat":43.30804,"lon":5.43526,"is_reserved":false,"is_disabled":false,"rental_uris":{"android":"levelo://app?vid=344c183b-0edb-4ec1-b782-be0c8c604cbd","ios":"levelo://app?vid=344c183b-0edb-4ec1-b782-be0c8c604cbd"},"vehicle_type_id":"4","last_reported":1760800116,"current_range_meters":19200,"station_id":"ce4bhph2rcd13ifvqheg","pricing_plan_id":"cebpf4jnsgd1na2vs0mg"},{"bike_id":"4afbb039-e3b6-4962-b26f-526c2e47dad7","system_id":"levelo_inurba_marseille","lat":43.29254,"lon":5.40904,"is_reserved":false,"is_disabled":false,"rental_uris":{"android":"levelo://app?vid=4afbb039-e3b6-4962-b26f-526c2e47dad7","ios":"levelo://app?vid=4afbb039-e3b6-4962-b26f-526c2e47dad7"},"vehicle_type_id":"4","last_reported":1760800116,"current_range_meters":19200,"station_id":"ce4bh192rcd13ifvqdc0","pricing_plan_id":"cebpf4jnsgd1na2vs0mg"},{"bike_id":"19a0f5d9-c883-4d4a-b9ce-273719a9971c","system_id":"levelo_inurba_marseille","lat":43.21182,"lon":5.35087,"is_reserved":false,"is_disabled":false,"rental_uris":{"android":"levelo://app?vid=19a0f5d9-c883-4d4a-b9ce-273719a9971c","ios":"levelo://app?vid=19a0f5d9-c883-4d4a-b9ce-273719a9971c"},"vehicle_type_id":"4","last_reported":1760800116,"current_range_meters":19200,"station_id":"st_cvj6sg6p6f1abm77japg","pricing_plan_id":"cebpf4jnsgd1na2vs0mg"},{"bike_id":"145d4a69-5407-417d-9e29-9c41c600faf6","system_id":"levelo_inurba_marseille","lat":43.262043,"lon":5.374458,"is_reserved":false,"is_disabled":false,"rental_uris":{"android":"levelo://app?vid=145d4a69-5407-417d-9e29-9c41c600faf6","ios":"levelo://app?vid=145d4a69-5407-417d-9e29-9c41c600faf6"},"vehicle_type_id":"4","last_reported":1760800116,"current_range_meters":19200,"station_id":"ce4bhgp2rcd13ifvqfc0","pricing_plan_id":"cebpf4jnsgd1na2vs0mg"},{"bike_id":"c22e92c8-3fe0-4c56-ab21-210e12f7f0b4","system_id":"levelo_inurba_marseille","lat":43.31945,"lon":5.415279,"is_reserved":false,"is_disabled":false,"rental_uris":{"android":"levelo://app?vid=c22e92c8-3fe0-4c56-ab21-210e12f7f0b4","ios":"levelo://app?vid=c22e92c8-3fe0-4c56-ab21-210e12f7f0b4"},