{"last_updated":1728623348,"ttl":60,"version":"2.2","data":{"bikes":[{"bike_id":"6036dc5a-3a4e-4f58-b50c-80d225d761a5","system_id":"levelo_inurba_marseille","lat":43.28434,"lon":5.39179,"is_reserved":false,"is_disabled":false,"rental_uris":{"android":"levelo://app?vid=6036dc5a-3a4e-4f58-b50c-80d225d761a5","ios":"levelo://app?vid=6036dc5a-3a4e-4f58-b50c-80d225d761a5"},"vehicle_type_id":"4","last_reported":1728623348,"current_range_meters":38800,"station_id":"ce4bhoh2rcd13ifvqh5g","pricing_plan_id":"cebpf4jnsgd1na2vs0mg"},{"bike_id":"cc771d41-3a30-4b81-a1ae-9d4890689217","system_id":"levelo_inurba_marseille","lat":43.31082,"lon":5.42437,"is_reserved":false,"is_disabled":false,"rental_uris":{"android":"levelo://app?vid=cc771d41-3a30-4b81-a1ae-9d4890689217","ios":"levelo://app?vid=cc771d41-3a30-4b81-a1ae-9d4890689217"},"vehicle_type_id":"4","last_reported":1728623348,"current_range_meters":31200,"station_id":"ce4bhp92rcd13ifvqhag","pricing_plan_id":"cebpf4jnsgd1na2vs0mg"},{"bike_id":"11af3283-ed60-42f7-b864-8d82a0626871","system_id":"levelo_inurba_marseille","lat":43.25862,"lon":5.39911,"is_reserved":false,"is_disabled":false,"rental_uris":{"android":"levelo://app?vid=11af3283-ed60-42f7-b864-8d82a0626871","ios":"levelo://app?vid=11af3283-ed60-42f7-b864-8d82a0626871"},"vehicle_type_id":"4","last_reported":1728623348,"current_range_meters":3600,"station_id":"ce4bhl92rcd13ifvqghg","pricing_plan_id":"cebpf4jnsgd1na2vs0mg"},{"bike_id":"5769569f-1028-41f4-8a10-5107fb2ee100","system_id":"levelo_inurba_marseille","lat":43.30616,"lon":5.37218,"is_reserved":false,"is_disabled":false,"rental_uris":{"android":"levelo://app?vid=5769569f-1028-41f4-8a10-5107fb2ee100","ios":"levelo://app?vid=5769569f-1028-41f4-8a10-5107fb2ee100"},"vehicle_type_id":"4","last_reported":1728623348,"current_range_meters":16000,"station_id":"ce4bgqh2rcd13ifvqc4g","pricing_plan_id":"cebpf4jnsgd1na2vs0mg"},{"bike_id":"830ca16d-232b-4327-a07c-9df083f0646c","system_id":"levelo_inurba_marseille","lat":43.3088,"lon":5.39638,"is_reserved":false,"is_disabled":false,"rental_uris":{"android":"levelo://app?vid=830ca16d-232b-4327-a07c-9df083f0646c","ios":"levelo://app?vid=830ca16d-232b-4327-a07c-9df083f0646c"},"vehicle_type_id":"4","last_reported":1728623348,"current_range_meters":8000,"station_id":"ce4bh012rcd13ifvqcv0","pricing_plan_id":"cebpf4jnsgd1na2vs0mg"},{"bike_id":"8522fe6a-a00a-4e24-bf81-90995ad3343e","system_id":"levelo_inurba_marseille","lat":43.28483,"lon":5.38537,"is_reserved":false,"is_disabled":false,"rental_uris":{"android":"levelo://app?vid=8522fe6a-a00a-4e24-bf81-90995ad3343e","ios":"levelo://app?vid=8522fe6a-a00a-4e24-bf81-90995ad3343e"},"vehicle_type_id":"4","last_reported":1728623348,"current_range_meters":38000,"station_id":"ce4bh8p2rcd13ifvqeb0","pricing_plan_id":"cebpf4jnsgd1na2vs0mg"},{"bike_id":"46e41d5a-f5a5-4cac-88d8-0888a53a6168","system_id":"levelo_inurba_marseille","lat":43.29327,"lon":5.38563,"is_reserved":false,"is_disabled":false,"rental_uris":{"android":"levelo://app?vid=46e41d5a-f5a5-4cac-88d8-0888a53a6168","ios":"levelo://app?vid=46e41d5a-f5a5-4cac-88d8-0888a53a6168"},"vehicle_type_id":"4","last_reported":1728623348,"current_range_meters":5600,"station_id":"ce4bhb12rcd13ifvqel0","pricing_plan_id":"cebpf4jnsgd1na2vs0mg"},{"bike_id":"971b85e0-c27b-48bc-b1fc-809d55a50ae0","system_id":"levelo_inurba_marseille","lat":43.31068,"lon":5.38345,"is_reserved":false,"is_disabled":false,"rental_uris":{"android":"levelo://app?vid=971b85e0-c27b-48bc-b1fc-809d55a50ae0","ios":"levelo://app?vid=971b85e0-c27b-48bc-b1fc-809d55a50ae0"},"vehicle_type_id":"4","last_reported":1728623348,"current_range_meters":23200,"station_id":"ce4bgv92rcd13ifvqcr0","pricing_plan_id":"cebpf4jnsgd1na2vs0mg"},{"bike_id":"3342229a-448c-4e67-8c8b-1ef839d1dd73","system_id":"levelo_inurba_marseille","lat":43.26564,"lon":5.37285,"is_reserved":false,"is_disabled":false,"rental_uris":{"android":"levelo://app?vid=3342229a-448c-4e67-8c8b-1ef839d1dd73","ios":"levelo://app?vid=3342229a-448c-4e67-8c8b-1ef839d1dd73"},"vehicle_type_id":"4","last_reported":1728623348,"current_range_meters":38400,"station_id":"ce4bhg12rcd13ifvqf70","pricing_plan_id":"cebpf4jnsgd1na2vs0mg"},{"bike_id":"9a10ea96-9c7a-4bff-8cd4-c1595e3d8c46","system_id":"levelo_inurba_marseille","lat":43.32656,"lon":5.40985,"is_reserved":false,"is_disabled":false,"rental_uris":{"android":"levelo://app?vid=9a10ea96-9c7a-4bff-8cd4-c1595e3d8c46","ios":"levelo://app?vid=9a10ea96-9c7a-4bff-8cd4-c1595e3d8c46"},"vehicle_type_id":"4","last_reported":1728623348,"current_range_meters":38400,"station_id":"ce4bhpp2rcd13ifvqhgg","pricing_plan_id":"cebpf4jnsgd1na2vs0mg"},{"bike_id":"4f6467e3-e12b-457b-8e7e-ed039b5554f6","system_id":"levelo_inurba_marseille","lat":43.31269,"lon":5.40172,"is_reserved":false,"is_disabled":false,"rental_uris":{"android":"levelo://app?vid=4f6467e3-e12b-457b-8e7e-ed039b5554f6","ios":"levelo://app?vid=4f6467e3-e12b-457b-8e7e-ed039b5554f6"},"vehicle_type_id":"4","last_reported":1728623348,"current_range_meters":38400,"station_id":"ce4bh092rcd13ifvqd30","pricing_plan_id":"cebpf4jnsgd1na2vs0mg"},{"bike_id":"2eac229f-d1a7-47be-806e-a8fec99a74f6","system_id":"levelo_inurba_marseille","lat":43.29292,"lon":5.37449,"is_reserved":false,"is_disabled":false,"rental_uris":{"android":"levelo://app?vid=2eac229f-d1a7-47be-806e-a8fec99a74f6","ios":"levelo://app?vid=2eac229f-d1a7-47be-806e-a8fec99a74f6"},"vehicle_type_id":"4","last_reported":1728623348,"current_range_meters":38000,"station_id":"ce4bgi12rcd13ifvqb70","pricing_plan_id":"cebpf4jnsgd1na2vs0mg"},{"bike_id":"d3ec245f-0a3f-416b-a911-c82b4c789946","system_id":"levelo_inurba_marseille","lat":43.25584,"lon":5.38234,"is_reserved":false,"is_disabled":false,"rental_uris":{"android":"levelo://app?vid=d3ec245f-0a3f-416b-a911-c82b4c789946","ios":"levelo://app?vid=d3ec245f-0a3f-416b-a911-c82b4c789946"},"vehicle_type_id":"4","last_reported":1728623348,"current_range_meters":28000,"station_id":"ce4bhih2rcd13ifvqfs0","pricing_plan_id":"cebpf4jnsgd1na2vs0mg"},{"bike_id":"32f9a3ad-41c8-4638-8ef0-a54e1eb0566a","system_id":"levelo_inurba_marseille","lat":43.31358,"lon":5.38494,"is_reserved":false,"is_disabled":false,"rental_uris":{"android":"levelo://app?vid=32f9a3ad-41c8-4638-8ef0-a54e1eb0566a","ios":"levelo://app?vid=32f9a3ad-41c8-4638-8ef0-a54e1eb0566a"},"vehicle_type_id":"4","last_reported":1728623348,"current_range_meters":14400,"station_id":"ce4bgt92rcd13ifvqcf0","pricing_plan_id":"cebpf4jnsgd1na2vs0mg"},{"bike_id":"c244c6f9-bade-42d4-83fb-bcbe5ab70ddd","system_id":"levelo_inurba_marseille","lat":43.24394,"lon":5.37059,"is_reserved":false,"is_disabled":false,"rental_uris":{"android":"levelo://app?vid=c244c6f9-bade-42d4-83fb-bcbe5ab70ddd","ios":"levelo://app?vid=c244c6f9-bade-42d4-83fb-bcbe5ab70ddd"},"vehicle_type_id":"4","last_reported":1728623348,"current_range_meters":30400,"station_id":"ce4bhhh2rcd13ifvqfk0","pricing_plan_id":"cebpf4jnsgd1na2vs0mg"},{"bike_id":"f367d60b-7e4d-4a4a-aa3e-861928d6e631","system_id":"levelo_inurba_marseille","lat":43.251103,"lon":5.40322,"is_reserved":false,"is_disabled":false,"rental_uris":{"android":"levelo://app?vid=f367d60b-7e4d-4a4a-aa3e-861928d6e631","ios":"levelo://app?vid=f367d60b-7e4d-4a4a-aa3e-861928d6e631"},"vehicle_type_id":"4","last_reported":1728623348,"current_range_meters":27200,"station_id":"ce4bhlh2rcd13ifvqgig","pricing_plan_id":"cebpf4jnsgd1na2vs0mg"},{"bike_id":"1ad7f92d-f07f-4dbf-bec4-341a88188d03","system_id":"levelo_inurba_marseille","lat":43.31324,"lon":5.397,"is_reserved":false,"is_disabled":false,"rental_uris":{"android":"levelo://app?vid=1ad7f92d-f07f-4dbf-bec4-341a88188d03","ios":"levelo://app?vid=1ad7f92d-f07f-4dbf-bec4-341a88188d03"},"vehicle_type_id":"4","last_reported":1728623348,"current_range_meters":32400,"station_id":"ce4bgvp2rcd13ifvqcu0","pricing_plan_id":"cebpf4jnsgd1na2vs0mg"},{"bike_id":"c4369d46-d6f1-4b30-831f-5f523ecf54b1","system_id":"levelo_inurba_marseille","lat":43.29626,"lon":5.40602,"is_reserved":false,"is_disabled":false,"rental_uris":{"android":"levelo://app?vid=c4369d46-d6f1-4b30-831f-5f523ecf54b1","ios":"levelo://app?vid=c4369d46-d6f1-4b30-831f-5f523ecf54b1"},"vehicle_type_id":"4","last_reported":1728623348,"current_range_meters":19600,"station_id":"ce4bh0h2rcd13ifvqd60","pricing_plan_id":"cebpf4jnsgd1na2vs0mg"},{"bike_id":"78545a56-8c6d-4801-87b8-fc882a3cb7a0","system_id":"levelo_inurba_marseille","lat":43.25007,"lon":5.38193,"is_reserved":false,"is_disabled":false,"rental_uris":{"android":"levelo://app?vid=78545a56-8c6d-4801-87b8-fc882a3cb7a0","ios":"levelo://app?vid=78545a56-8c6d-4801-87b8-fc882a3cb7a0"},"vehicle_type_id":"4","last_reported":1728623348,"current_range_meters":26800,"station_id":"","pricing_plan_id":"cebpf4jnsgd1na2vs0mg"},{"bike_id":"1a0bbac7-aaa1-496d-a700-74e2a74cdd48","system_id":"levelo_inurba_marseille","lat":43.23964,"lon":5.36634,"is_reserved":false,"is_disabled":false,"rental_uris":{"android":"levelo://app?vid=1a0bbac7-aaa1-496d-a700-74e2a74cdd48","ios":"levelo://app?vid=1a0bbac7-aaa1-496d-a700-74e2a74cdd48"},"vehicle_type_id":"4","last_reported":1728623348,"current_range_meters":20400,"station_id":"ce4bhi12rcd13ifvqfp0","pricing_plan_id":"cebpf4jnsgd1na2vs0mg"},{"bike_id":"a86665a3-d2d0-462b-bb7b-7d0665998c73","system_id":"levelo_inurba_marseille","lat":43.30329,"lon":5.40435,"is_reserved":false,"is_disabled":false,"rental_uris":{"android":"levelo://app?vid=a86665a3-d2d0-462b-bb7b-7d0665998c73","ios":"levelo://app?vid=a86665a3-d2d0-462b-bb7b-7d0665998c73"},"vehicle_type_id":"4","last_reported":1728623348,"current_range_meters":20400,"station_id":"ce4bh012rcd13ifvqd10","pricing_plan_id":"cebpf4jnsgd1na2vs0mg"},{"bike_id":"20bd7a3b-28cc-485d-90a7-30373aba5faa","system_id":"levelo_inurba_marseille","lat":43.30147,"lon":5.38076,"is_reserved":false,"is_disabled":false,"rental_uris":{"android":"levelo://app?vid=20bd7a3b-28cc-485d-90a7-30373aba5faa","ios":"levelo://app?vid=20bd7a3b-28cc-485d-90a7-30373aba5faa"},"vehicle_type_id":"4","last_reported":1728623348,"current_range_meters":38800,"station_id":"ce4bgjp2rcd13ifvqbh0","pricing_plan_id":"cebpf4jnsgd1na2vs0mg"},{"bike_id":"5ce2a66a-b949-4239-ae17-6ee1644fc5f2","system_id":"levelo_inurba_marseille","lat":43.25492,"lon":5.37648,"is_reserved":false,"is_disabled":false,"rental_uris":{"android":"levelo://app?vid=5ce2a66a-b949-4239-ae17-6ee1644fc5f2","ios":"levelo://app?vid=5ce2a66a-b949-4239-ae17-6ee1644fc5f2"},"vehicle_type_id":"4","last_reported":1728623348,"current_range_meters":16400,"station_id":"ce4bhh12rcd13ifvqff0","pricing_plan_id":"cebpf4jnsgd1na2vs0mg"},{"bike_id":"6cb2fd54-0aca-4f7d-aadb-bc057dc4fb59","system_id":"levelo_inurba_marseille","lat":43.23067,"lon":5.35491,"is_reserved":false,"is_disabled":false,"rental_uris":{"android":"levelo://app?vid=6cb2fd54-0aca-4f7d-aadb-bc057dc4fb59","ios":"levelo://app?vid=6cb2fd54-0aca-4f7d-aadb-bc057dc4fb59"},"vehicle_type_id":"4","last_reported":1728623348,"current_range_meters":29600,"station_id":"cpo3342slgdg3j2ifvpg","pricing_plan_id":"cebpf4jnsgd1na2vs0mg"},{"bike_id":"8771b206-fe0d-4dbe-a13c-5705281d78fe","system_id":"levelo_inurba_marseille","lat":43.28261,"lon":5.35067,"is_reserved":false,"is_disabled":false,"rental_uris":{"android":"levelo://app?vid=8771b206-fe0d-4dbe-a13c-5705281d78fe","ios":"levelo://app?vid=8771b206-fe0d-4dbe-a13c-5705281d78fe"},"vehicle_type_id":"4","last_reported":1728623348,"current_range_meters":38800,"station_id":"ce4bhbp2rcd13ifvqerg","pricing_plan_id":"cebpf4jnsgd1na2vs0mg"},{"bike_id":"a1e47b22-c809-422f-b6a9-118011e5e265","system_id":"levelo_inurba_marseille","lat":43.27945,"lon":5.41054,"is_reserved":false,"is_disabled":false,"rental_uris":{"android":"levelo://app?vid=a1e47b22-c809-422f-b6a9-118011e5e265","ios":"levelo://app?vid=a1e47b22-c809-422f-b6a9-118011e5e265"},"vehicle_type_id":"4","last_reported":1728623348,"current_range_meters":38000,"station_id":"ce4bhnp2rcd13ifvqh0g","pricing_plan_id":"cebpf4jnsgd1na2vs0mg"},{"bike_id":"976dc33d-4f90-4788-ac00-33c358d3c2e8","system_id":"levelo_inurba_marseille","lat":43.30473,"lon":5.37917,"is_reserved":false,"is_disabled":false,"rental_uris":{"android":"levelo://app?vid=976dc33d-4f90-4788-ac00-33c358d3c2e8","ios":"levelo://app?vid=976dc33d-4f90-4788-ac00-33c358d3c2e8"},"vehicle_type_id":"4","last_reported":1728623348,"current_range_meters":33600,"station_id":"ce4bgup2rcd13ifvqcn0","pricing_plan_id":"cebpf4jnsgd1na2vs0mg"},{"bike_id":"7ae79265-a4f3-408c-9c9a-ba4aa51d6423","system_id":"levelo_inurba_marseille","lat":43.24666,"lon":5.38152,"is_reserved":false,"is_disabled":false,"rental_uris":{"android":"levelo://app?vid=7ae79265-a4f3-408c-9c9a-ba4aa51d6423","ios":"levelo://app?vid=7ae79265-a4f3-408c-9c9a-ba4aa51d6423"},"vehicle_type_id":"4","last_reported":1728623348,"current_range_meters":36400,"station_id":"ce4bhih2rcd13ifvqfr0","pricing_plan_id":"cebpf4jnsgd1na2vs0mg"},{"bike_id":"f2ae0181-9913-4a4f-a11e-8496af8a31b5","system_id":"levelo_inurba_marseille","lat":43.28441,"lon":5.37518,"is_reserved":false,"is_disabled":false,"rental_uris":{"android":"levelo://app?vid=f2ae0181-9913-4a4f-a11e-8496af8a31b5","ios":"levelo://app?vid=f2ae0181-9913-4a4f-a11e-8496af8a31b5"},"vehicle_type_id":"4","last_reported":1728623348,"current_range_meters":18000,"station_id":"ce4bh412rcd13ifvqds0","pricing_plan_id":"cebpf4jnsgd1na2vs0mg"},{"bike_id":"64eed1d5-ad43-4843-90ca-92dd71d6f243","system_id":"levelo_inurba_marseille","lat":43.28463,"lon":5.35881,"is_reserved":false,"is_disabled":false,"rental_uris":{"android":"levelo://app?vid=64eed1d5-ad43-4843-90ca-92dd71d6f243","ios":"levelo://app?vid=64eed1d5-ad43-4843-90ca-92dd71d6f243"},"vehicle_type_id":"4","last_reported":1728623348,"current_range_meters":38000,"station_id":"ce4bhah2rcd13ifvqei0","pricing_plan_id":"cebpf4jnsgd1na2vs0mg"},{"bike_id":"7f5ac9d4-ec5b-49e8-bd91-1a9cf6d738b6","system_id":"levelo_inurba_marseille","lat":43.28156,"lon":5.42642,"is_reserved":false,"is_disabled":false,"rental_uris":{"android":"levelo://app?vid=7f5ac9d4-ec5b-49e8-bd91-1a9cf6d738b6","ios":"levelo://app?vid=7f5ac9d4-ec5b-49e8-bd91-1a9cf6d738b6"},"vehicle_type_id":"4","last_reported":1728623348,"current_range_meters":38400,"station_id":"ce4bhnh2rcd13ifvqgug","pricing_plan_id":"cebpf4jnsgd1na2vs0mg"},{"bike_id":"0d1a388f-a31d-472e-afc1-ba8d098fb8a6","system_id":"levelo_inurba_marseille","lat":43.28849,"lon":5.35855,"is_reserved":false,"is_disabled":false,"rental_uris":{"android":"levelo://app?vid=0d1a388f-a31d-472e-afc1-ba8d098fb8a6","ios":"levelo://app?vid=0d1a388f-a31d-472e-afc1-ba8d098fb8a6"},"vehicle_type_id":"4","last_reported":1728623348,"current_range_meters":38400,"station_id":"ce4bhb12rcd13ifvqem0","pricing_plan_id":"cebpf4jnsgd1na2vs0mg"},{"bike_id":"f4c23eb9-ba3d-49f5-8944-49323079f226","system_id":"levelo_inurba_marseille","lat":43.25502,"lon":5.37646,"is_reserved":false,"is_disabled":false,"rental_uris":{"android":"levelo://app?vid=f4c23eb9-ba3d-49f5-8944-49323079f226","ios":"levelo://app?vid=f4c23eb9-ba3d-49f5-8944-49323079f226"},"vehicle_type_id":"4","last_reported":1728623348,"current_range_meters":38400,"station_id":"ce4bhh12rcd13ifvqff0","pricing_plan_id":"cebpf4jnsgd1na2vs0mg"},{"bike_id":"0187423b-1007-4577-ba76-46b5a1b4833b","system_id":"levelo_inurba_marseille","lat":43.30462,"lon":5.379,"is_reserved":false,"is_disabled":false,"rental_uris":{"android":"levelo://app?vid=0187423b-1007-4577-ba76-46b5a1b4833b","ios":"levelo://app?vid=0187423b-1007-4577-ba76-46b5a1b4833b"},"vehicle_type_id":"4","last_reported":1728623348,"current_range_meters":25200,"station_id":"ce4bgup2rcd13ifvqcn0","pricing_plan_id":"cebpf4jnsgd1na2vs0mg"},{"bike_id":"6fccb379-adca-4617-bbeb-442137e4c023","system_id":"levelo_inurba_marseille","lat":43.28464,"lon":5.35883,"is_reserved":false,"is_disabled":false,"rental_uris":{"android":"levelo://app?vid=6fccb379-adca-4617-bbeb-442137e4c023","ios":"levelo://app?vid=6fccb379-adca-4617-bbeb-442137e4c023"},"vehicle_type_id":"4","last_reported":1728623348,"current_range_meters":18000,"station_id":"ce4bhah2rcd13ifvqei0","pricing_plan_id":"cebpf4jnsgd1na2vs0mg"},{"bike_id":"7d0ca2b9-222a-41c6-877b-cb24f395b5ad","system_id":"levelo_inurba_marseille","lat":43.32107,"lon":5.36782,"is_reserved":false,"is_disabled":false,"rental_uris":{"android":"levelo://app?vid=7d0ca2b9-222a-41c6-877b-cb24f395b5ad","ios":"levelo://app?vid=7d0ca2b9-222a-41c6-877b-cb24f395b5ad"},"vehicle_type_id":"4","last_reported":1728623348,"current_range_meters":36000,"station_id":"ce4bhrh2rcd13ifvqhug","pricing_plan_id":"cebpf4jnsgd1na2vs0mg"},{"bike_id":"f21ff7cf-a5e7-4036-9a78-a2aa83b6340b","system_id":"levelo_inurba_marseille","lat":43.23196,"lon":5.35547,"is_reserved":false,"is_disabled":false,"rental_uris":{"android":"levelo://app?vid=f21ff7cf-a5e7-4036-9a78-a2aa83b6340b","ios":"levelo://app?vid=f21ff7cf-a5e7-4036-9a78-a2aa83b6340b"},"vehicle_type_id":"4","last_reported":1728623348,"current_range_meters":37600,"station_id":"ce4bhu92rcd13ifvqi70","pricing_plan_id":"cebpf4jnsgd1na2vs0mg"},{"bike_id":"7efdf176-1aae-4e18-859f-cdcd2aafaa19","system_id":"levelo_inurba_marseille","lat":43.32341,"lon":5.40616,"is_reserved":false,"is_disabled":false,"rental_uris":{"android":"levelo://app?vid=7efdf176-1aae-4e18-859f-cdcd2aafaa19","ios":"levelo://app?vid=7efdf176-1aae-4e18-859f-cdcd2aafaa19"},"vehicle_type_id":"4","last_reported":1728623348,"current_range_meters":38800,"station_id":"ce4bhq92rcd13ifvqhjg","pricing_plan_id":"cebpf4jnsgd1na2vs0mg"},{"bike_id":"b3de404d-5abc-4903-b89a-dee8e2de833a","system_id":"levelo_inurba_marseille","lat":43.28036,"lon":5.36941,"is_reserved":false,"is_disabled":false,"rental_uris":{"android":"levelo://app?vid=b3de404d-5abc-4903-b89a-dee8e2de833a","ios":"levelo://app?vid=b3de404d-5abc-4903-b89a-dee8e2de833a"},"vehicle_type_id":"4","last_reported":1728623348,"current_range_meters":38800,"station_id":"ce4bha12rcd13ifvqef0","pricing_plan_id":"cebpf4jnsgd1na2vs0mg"},{"bike_id":"db0f29d4-48fb-4f25-9465-ea5338ef12e5","system_id":"levelo_inurba_marseille","lat":43.308834,"lon":5.396456,"is_reserved":false,"is_disabled":false,"rental_uris":{"android":"levelo://app?vid=db0f29d4-48fb-4f25-9465-ea5338ef12e5","ios":"levelo://app?vid=db0f29d4-48fb-4f25-9465-ea5338ef12e5"},"vehicle_type_id":"4","last_reported":1728623348,"current_range_meters":37600,"station_id":"ce4bh012rcd13ifvqcv0","pricing_plan_id":"cebpf4jnsgd1na2vs0mg"},{"bike_id":"05ca29b7-95af-46b2-bbd0-c6b7c5391e35","system_id":"levelo_inurba_marseille","lat":43.31227,"lon":5.36857,"is_reserved":false,"is_disabled":false,"rental_uris":{"android":"levelo://app?vid=05ca29b7-95af-46b2-bbd0-c6b7c5391e35","ios":"levelo://app?vid=05ca29b7-95af-46b2-bbd0-c6b7c5391e35"},"vehicle_type_id":"4","last_reported":1728623348,"current_range_meters":28000,"station_id":"ce4bgl92rcd13ifvqbq0","pricing_plan_id":"cebpf4jnsgd1na2vs0mg"},{"bike_id":"c33b259a-4816-4db2-b4e3-d6f2b7925bfb","system_id":"levelo_inurba_marseille","lat":43.27075,"lon":5.42279,"is_reserved":false,"is_disabled":false,"rental_uris":{"android":"levelo://app?vid=c33b259a-4816-4db2-b4e3-d6f2b7925bfb","ios":"levelo://app?vid=c33b259a-4816-4db2-b4e3-d6f2b7925bfb"},"vehicle_type_id":"4","last_reported":1728623348,"current_range_meters":29600,"station_id":"ce4bhk92rcd13ifvqgb0","pricing_plan_id":"cebpf4jnsgd1na2vs0mg"},{"bike_id":"6302552d-0538-4406-bf49-43803291e745","system_id":"levelo_inurba_marseille","lat":43.304206,"lon":5.397525,"is_reserved":false,"is_disabled":false,"rental_uris":{"android":"levelo://app?vid=6302552d-0538-4406-bf49-43803291e745","ios":"levelo://app?vid=6302552d-0538-4406-bf49-43803291e745"},"vehicle_type_id":"4","last_reported":1728623348,"current_range_meters":38000,"station_id":"ce4bh092rcd13ifvqd20","pricing_plan_id":"cebpf4jnsgd1na2vs0mg"},{"bike_id":"86f1a2d4-4c8e-42a8-8d84-44de2c62ad54","system_id":"levelo_inurba_marseille","lat":43.30889,"lon":5.37185,"is_reserved":false,"is_disabled":false,"rental_uris":{"android":"levelo://app?vid=86f1a2d4-4c8e-42a8-8d84-44de2c62ad54","ios":"levelo://app?vid=86f1a2d4-4c8e-42a8-8d84-44de2c62ad54"},"vehicle_type_id":"4","last_reported":1728623348,"current_range_meters":28800,"station_id":"ce4bguh2rcd13ifvqckg","pricing_plan_id":"cebpf4jnsgd1na2vs0mg"},{"bike_id":"a9e92934-6d25-4206-b747-dd1555ec108e","system_id":"levelo_inurba_marseille","lat":43.2867,"lon":5.36346,"is_reserved":false,"is_disabled":false,"rental_uris":{"android":"levelo://app?vid=a9e92934-6d25-4206-b747-dd1555ec108e","ios":"levelo://app?vid=a9e92934-6d25-4206-b747-dd1555ec108e"},"vehicle_type_id":"4","last_reported":1728623348,"current_range_meters":39200,"station_id":"ce4bhah2rcd13ifvqej0","pricing_plan_id":"cebpf4jnsgd1na2vs0mg"},{"bike_id":"db8b05a0-3cd8-457c-9b3e-a9525e27d8be","system_id":"levelo_inurba_marseille","lat":43.30479,"lon":5.37907,"is_reserved":false,"is_disabled":false,"rental_uris":{"android":"levelo://app?vid=db8b05a0-3cd8-457c-9b3e-a9525e27d8be","ios":"levelo://app?vid=db8b05a0-3cd8-457c-9b3e-a9525e27d8be"},"vehicle_type_id":"4","last_reported":1728623348,"current_range_meters":38400,"station_id":"ce4bgup2rcd13ifvqcn0","pricing_plan_id":"cebpf4jnsgd1na2vs0mg"},{"bike_id":"87069ffa-c4b3-458f-beca-4e7937e340fc","system_id":"levelo_inurba_marseille","lat":43.28436,"lon":5.39185,"is_reserved":false,"is_disabled":false,"rental_uris":{"android":"levelo://app?vid=87069ffa-c4b3-458f-beca-4e7937e340fc","ios":"levelo://app?vid=87069ffa-c4b3-458f-beca-4e7937e340fc"},"vehicle_type_id":"4","last_reported":1728623348,"current_range_meters":32400,"station_id":"ce4bhoh2rcd13ifvqh5g","pricing_plan_id":"cebpf4jnsgd1na2vs0mg"},{"bike_id":"0555b5e4-8802-4733-8989-ff00fb61ea3e","system_id":"levelo_inurba_marseille","lat":43.27369,"lon":5.36253,"is_reserved":false,"is_disabled":false,"rental_uris":{"android":"levelo://app?vid=0555b5e4-8802-4733-8989-ff00fb61ea3e","ios":"levelo://app?vid=0555b5e4-8802-4733-8989-ff00fb61ea3e"},"vehicle_type_id":"4","last_reported":1728623348,"current_range_meters":25200,"station_id":"ce4bhbh2rcd13ifvqeo0","pricing_plan_id":"cebpf4jnsgd1na2vs0mg"},{"bike_id":"57add596-5b6d-4189-8e90-4c3eff7a193a","system_id":"levelo_inurba_marseille","lat":43.31355,"lon":5.38497,"is_reserved":false,"is_disabled":false,"rental_uris":{"android":"levelo://app?vid=57add596-5b6d-4189-8e90-4c3eff7a193a","ios":"levelo://app?vid=57add596-5b6d-4189-8e90-4c3eff7a193a"},"vehicle_type_id":"4","last_reported":1728623348,"current_range_meters":6800,"station_id":"ce4bgt92rcd13ifvqcf0","pricing_plan_id":"cebpf4jnsgd1na2vs0mg"},{"bike_id":"36be1c97-4211-4e9d-81ea-7936074bb272","system_id":"levelo_inurba_marseille","lat":43.31116,"lon":5.37761,"is_reserved":false,"is_disabled":false,"rental_uris":{"android":"levelo://app?vid=36be1c97-4211-4e9d-81ea-7936074bb272","ios":"levelo://app?vid=36be1c97-4211-4e9d-81ea-7936074bb272"},"vehicle_type_id":"4","last_reported":1728623348,"current_range_meters":29600,"station_id":"ce4bgt92rcd13ifvqcg0","pricing_plan_id":"cebpf4jnsgd1na2vs0mg"},{"bike_id":"ebf161f7-6bad-4a9e-a669-6dcfec9a8bb4","system_id":"levelo_inurba_marseille","lat":43.28622,"lon":5.35101,"is_reserved":false,"is_disabled":false,"rental_uris":{"android":"levelo://app?vid=ebf161f7-6bad-4a9e-a669-6dcfec9a8bb4","ios":"levelo://app?vid=ebf161f7-6bad-4a9e-a669-6dcfec9a8bb4"},"vehicle_type_id":"4","last_reported":1728623348,"current_range_meters":38800,"station_id":"ce4bhch2rcd13ifvqeug","pricing_plan_id":"cebpf4jnsgd1na2vs0mg"},{"bike_id":"9db4d985-7949-4b7f-b898-6a0ca7ba3693","system_id":"levelo_inurba_marseille","lat":43.33759,"lon":5.37421,"is_reserved":false,"is_disabled":false,"rental_uris":{"android":"levelo://app?vid=9db4d985-7949-4b7f-b898-6a0ca7ba3693","ios":"levelo://app?vid=9db4d985-7949-4b7f-b898-6a0ca7ba3693"},"vehicle_type_id":"4","last_reported":1728623348,"current_range_meters":31200,"station_id":"ce4rr2p2rcd13i802rgg","pricing_plan_id":"cebpf4jnsgd1na2vs0mg"},{"bike_id":"325ba49d-0962-4176-98a0-49b50b02aaf6","system_id":"levelo_inurba_marseille","lat":43.3189,"lon":5.40737,"is_reserved":false,"is_disabled":false,"rental_uris":{"android":"levelo://app?vid=325ba49d-0962-4176-98a0-49b50b02aaf6","ios":"levelo://app?vid=325ba49d-0962-4176-98a0-49b50b02aaf6"},"vehicle_type_id":"4","last_reported":1728623348,"current_range_meters":38000,"station_id":"ce4bhq12rcd13ifvqhig","pricing_plan_id":"cebpf4jnsgd1na2vs0mg"},{"bike_id":"cf8b785d-f03b-4380-bcce-b57e4c772143","system_id":"levelo_inurba_marseille","lat":43.3047,"lon":5.3791,"is_reserved":false,"is_disabled":false,"rental_uris":{"android":"levelo://app?vid=cf8b785d-f03b-4380-bcce-b57e4c772143","ios":"levelo://app?vid=cf8b785d-f03b-4380-bcce-b57e4c772143"},"vehicle_type_id":"4","last_reported":1728623348,"current_range_meters":34800,"station_id":"ce4bgup2rcd13ifvqcn0","pricing_plan_id":"cebpf4jnsgd1na2vs0mg"},{"bike_id":"bd2aec49-c05b-410c-856c-a14327810257","system_id":"levelo_inurba_marseille","lat":43.30885,"lon":5.39639,"is_reserved":false,"is_disabled":false,"rental_uris":{"android":"levelo://app?vid=bd2aec49-c05b-410c-856c-a14327810257","ios":"levelo://app?vid=bd2aec49-c05b-410c-856c-a14327810257"},"vehicle_type_id":"4","last_reported":1728623348,"current_range_meters":38800,"station_id":"ce4bh012rcd13ifvqcv0","pricing_plan_id":"cebpf4jnsgd1na2vs0mg"},{"bike_id":"993d1cf8-e533-4dda-8405-3f2a846d5998","system_id":"levelo_inurba_marseille","lat":43.287028,"lon":5.373921,"is_reserved":false,"is_disabled":false,"rental_uris":{"android":"levelo://app?vid=993d1cf8-e533-4dda-8405-3f2a846d5998","ios":"levelo://app?vid=993d1cf8-e533-4dda-8405-3f2a846d5998"},"vehicle_type_id":"4","last_reported":1728623348,"current_range_meters":38400,"station_id":"ce4bh3p2rcd13ifvqdq0","pricing_plan_id":"cebpf4jnsgd1na2vs0mg"},{"bike_id":"d7f12b69-e913-4e3f-bcc6-c38933154fc9","system_id":"levelo_inurba_marseille","lat":43.28437,"lon":5.39178,"is_reserved":false,"is_disabled":false,"rental_uris":{"android":"levelo://app?vid=d7f12b69-e913-4e3f-bcc6-c38933154fc9","ios":"levelo://app?vid=d7f12b69-e913-4e3f-bcc6-c38933154fc9"},"vehicle_type_id":"4","last_reported":1728623348,"current_range_meters":38800,"station_id":"ce4bhoh2rcd13ifvqh5g","pricing_plan_id":"cebpf4jnsgd1na2vs0mg"},{"bike_id":"25b1fb8d-043b-40f4-aa3f-c415f5d84a10","system_id":"levelo_inurba_marseille","lat":43.313539,"lon":5.367149,"is_reserved":false,"is_disabled":false,"rental_uris":{"android":"levelo://app?vid=25b1fb8d-043b-40f4-aa3f-c415f5d84a10","ios":"levelo://app?vid=25b1fb8d-043b-40f4-aa3f-c415f5d84a10"},"vehicle_type_id":"4","last_reported":1728623348,"current_range_meters":39200,"station_id":"ce4bgr92rcd13ifvqc6g","pricing_plan_id":"cebpf4jnsgd1na2vs0mg"},{"bike_id":"4f9e2490-f71f-437e-b9eb-287889cbbc82","system_id":"levelo_inurba_marseille","lat":43.31484,"lon":5.37299,"is_reserved":false,"is_disabled":false,"rental_uris":{"android":"levelo://app?vid=4f9e2490-f71f-437e-b9eb-287889cbbc82","ios":"levelo://app?vid=4f9e2490-f71f-437e-b9eb-287889cbbc82"},"vehicle_type_id":"4","last_reported":1728623348,"current_range_meters":38000,"station_id":"ce4bgt12rcd13ifvqcd0","pricing_plan_id":"cebpf4jnsgd1na2vs0mg"},{"bike_id":"df9ee3d8-91c2-4ac9-a1ee-8b4b99e26fa3","system_id":"levelo_inurba_marseille","lat":43.30611,"lon":5.37222,"is_reserved":false,"is_disabled":false,"rental_uris":{"android":"levelo://app?vid=df9ee3d8-91c2-4ac9-a1ee-8b4b99e26fa3","ios":"levelo://app?vid=df9ee3d8-91c2-4ac9-a1ee-8b4b99e26fa3"},"vehicle_type_id":"4","last_reported":1728623348,"current_range_meters":36400,"station_id":"ce4bgqh2rcd13ifvqc4g","pricing_plan_id":"cebpf4jnsgd1na2vs0mg"},{"bike_id":"c2709d8c-182c-4c66-9678-32143d413767","system_id":"levelo_inurba_marseille","lat":43.22934,"lon":5.35381,"is_reserved":false,"is_disabled":false,"rental_uris":{"android":"levelo://app?vid=c2709d8c-182c-4c66-9678-32143d413767","ios":"levelo://app?vid=c2709d8c-182c-4c66-9678-32143d413767"},"vehicle_type_id":"4","last_reported":1728623348,"current_range_meters":32800,"station_id":"cpo3532slgdg3j2ikp40","pricing_plan_id":"cebpf4jnsgd1na2vs0mg"},{"bike_id":"9a7d337d-46a9-4a3e-ac0e-e31480127a4d","system_id":"levelo_inurba_marseille","lat":43.31539,"lon":5.38028,"is_reserved":false,"is_disabled":false,"rental_uris":{"android":"levelo://app?vid=9a7d337d-46a9-4a3e-ac0e-e31480127a4d","ios":"levelo://app?vid=9a7d337d-46a9-4a3e-ac0e-e31480127a4d"},"vehicle_type_id":"4","last_reported":1728623348,"current_range_meters":36800,"station_id":"ce4bhsp2rcd13ifvqi50","pricing_plan_id":"cebpf4jnsgd1na2vs0mg"},{"bike_id":"2d4abd7f-c14b-4585-934c-21c11d459db8","system_id":"levelo_inurba_marseille","lat":43.33728,"lon":5.39182,"is_reserved":false,"is_disabled":false,"rental_uris":{"android":"levelo://app?vid=2d4abd7f-c14b-4585-934c-21c11d459db8","ios":"levelo://app?vid=2d4abd7f-c14b-4585-934c-21c11d459db8"},"vehicle_type_id":"4","last_reported":1728623348,"current_range_meters":37600,"station_id":"ce4bhr92rcd13ifvqhsg","pricing_plan_id":"cebpf4jnsgd1na2vs0mg"},{"bike_id":"06d1f44d-bb6c-4374-8db9-6c0fc6ef35d8","system_id":"levelo_inurba_marseille","lat":43.316938,"lon":5.404589,"is_reserved":false,"is_disabled":false,"rental_uris":{"android":"levelo://app?vid=06d1f44d-bb6c-4374-8db9-6c0fc6ef35d8","ios":"levelo://app?vid=06d1f44d-bb6c-4374-8db9-6c0fc6ef35d8"},"vehicle_type_id":"4","last_reported":1728623348,"current_range_meters":36400,"station_id":"ce4bh012rcd13ifvqd00","pricing_plan_id":"cebpf4jnsgd1na2vs0mg"},{"bike_id":"6ff769cf-ecc4-4125-a3ff-0958a47aaed0","system_id":"levelo_inurba_marseille","lat":43.287,"lon":5.37378,"is_reserved":false,"is_disabled":false,"rental_uris":{"android":"levelo://app?vid=6ff769cf-ecc4-4125-a3ff-0958a47aaed0","ios":"levelo://app?vid=6ff769cf-ecc4-4125-a3ff-0958a47aaed0"},"vehicle_type_id":"4","last_reported":1728623348,"current_range_meters":38800,"station_id":"ce4bh3p2rcd13ifvqdq0","pricing_plan_id":"cebpf4jnsgd1na2vs0mg"},{"bike_id":"a825bcf0-ceff-4a6b-a6e6-84e51226452a","system_id":"levelo_inurba_marseille","lat":43.30148,"lon":5.380772,"is_reserved":false,"is_disabled":false,"rental_uris":{"android":"levelo://app?vid=a825bcf0-ceff-4a6b-a6e6-84e51226452a","ios":"levelo://app?vid=a825bcf0-ceff-4a6b-a6e6-84e51226452a"},"vehicle_type_id":"4","last_reported":1728623348,"current_range_meters":34000,"station_id":"ce4bgjp2rcd13ifvqbh0","pricing_plan_id":"cebpf4jnsgd1na2vs0mg"},{"bike_id":"d8c83016-a1e6-4367-9331-ef51b83ac16b","system_id":"levelo_inurba_marseille","lat":43.32656,"lon":5.40991,"is_reserved":false,"is_disabled":false,"rental_uris":{"android":"levelo://app?vid=d8c83016-a1e6-4367-9331-ef51b83ac16b","ios":"levelo://app?vid=d8c83016-a1e6-4367-9331-ef51b83ac16b"},"vehicle_type_id":"4","last_reported":1728623348,"current_range_meters":38400,"station_id":"ce4bhpp2rcd13ifvqhgg","pricing_plan_id":"cebpf4jnsgd1na2vs0mg"},{"bike_id":"b4e8bd77-a3ff-4b3b-85c3-f17839ebfc15","system_id":"levelo_inurba_marseille","lat":43.31759,"lon":5.39016,"is_reserved":false,"is_disabled":false,"rental_uris":{"android":"levelo://app?vid=b4e8bd77-a3ff-4b3b-85c3-f17839ebfc15","ios":"levelo://app?vid=b4e8bd77-a3ff-4b3b-85c3-f17839ebfc15"},"vehicle_type_id":"4","last_reported":1728623348,"current_range_meters":38000,"station_id":"ce4bhqp2rcd13ifvqhng","pricing_plan_id":"cebpf4jnsgd1na2vs0mg"},{"bike_id":"14b07fed-aacd-4f67-bc2e-4b35e6570c46","system_id":"levelo_inurba_marseille","lat":43.29209,"lon":5.40005,"is_reserved":false,"is_disabled":false,"rental_uris":{"android":"levelo://app?vid=14b07fed-aacd-4f67-bc2e-4b35e6570c46","ios":"levelo://app?vid=14b07fed-aacd-4f67-bc2e-4b35e6570c46"},"vehicle_type_id":"4","last_reported":1728623348,"current_range_meters":9600,"station_id":"","pricing_plan_id":"cebpf4jnsgd1na2vs0mg"},{"bike_id":"480aee4b-d516-4b03-874e-995df5f32160","system_id":"levelo_inurba_marseille","lat":43.28349,"lon":5.381,"is_reserved":false,"is_disabled":false,"rental_uris":{"android":"levelo://app?vid=480aee4b-d516-4b03-874e-995df5f32160","ios":"levelo://app?vid=480aee4b-d516-4b03-874e-995df5f32160"},"vehicle_type_id":"4","last_reported":1728623348,"current_range_meters":38800,"station_id":"ce4bh412rcd13ifvqdr0","pricing_plan_id":"cebpf4jnsgd1na2vs0mg"},{"bike_id":"919c9514-57dd-4c69-b117-1e44e2297271","system_id":"levelo_inurba_marseille","lat":43.26566,"lon":5.38997,"is_reserved":false,"is_disabled":false,"rental_uris":{"android":"levelo://app?vid=919c9514-57dd-4c69-b117-1e44e2297271","ios":"levelo://app?vid=919c9514-57dd-4c69-b117-1e44e2297271"},"vehicle_type_id":"4","last_reported":1728623348,"current_range_meters":10000,"station_id":"ce4bhe12rcd13ifvqf30","pricing_plan_id":"cebpf4jnsgd1na2vs0mg"},{"bike_id":"2b3648bb-e792-419a-96c0-e5aba7247d9b","system_id":"levelo_inurba_marseille","lat":43.24646,"lon":5.38896,"is_reserved":false,"is_disabled":false,"rental_uris":{"android":"levelo://app?vid=2b3648bb-e792-419a-96c0-e5aba7247d9b","ios":"levelo://app?vid=2b3648bb-e792-419a-96c0-e5aba7247d9b"},"vehicle_type_id":"4","last_reported":1728623348,"current_range_meters":13600,"station_id":"ce4bhg12rcd13ifvqf60","pricing_plan_id":"cebpf4jnsgd1na2vs0mg"},{"bike_id":"87ae3f18-f840-4e58-9750-f094922121be","system_id":"levelo_inurba_marseille","lat":43.31364,"lon":5.38492,"is_reserved":false,"is_disabled":false,"rental_uris":{"android":"levelo://app?vid=87ae3f18-f840-4e58-9750-f094922121be","ios":"levelo://app?vid=87ae3f18-f840-4e58-9750-f094922121be"},"vehicle_type_id":"4","last_reported":1728623348,"current_range_meters":29600,"station_id":"ce4bgt92rcd13ifvqcf0","pricing_plan_id":"cebpf4jnsgd1na2vs0mg"},{"bike_id":"6efdf8b1-8180-427e-a1ed-2733f8200c63","system_id":"levelo_inurba_marseille","lat":43.24667,"lon":5.38164,"is_reserved":false,"is_disabled":false,"rental_uris":{"android":"levelo://app?vid=6efdf8b1-8180-427e-a1ed-2733f8200c63","ios":"levelo://app?vid=6efdf8b1-8180-427e-a1ed-2733f8200c63"},"vehicle_type_id":"4","last_reported":1728623348,"current_range_meters":19200,"station_id":"ce4bhih2rcd13ifvqfr0","pricing_plan_id":"cebpf4jnsgd1na2vs0mg"},{"bike_id":"f92a9fb8-9f73-4cf9-bc9b-2bdf5b520248","system_id":"levelo_inurba_marseille","lat":43.3254,"lon":5.4144,"is_reserved":false,"is_disabled":false,"rental_uris":{"android":"levelo://app?vid=f92a9fb8-9f73-4cf9-bc9b-2bdf5b520248","ios":"levelo://app?vid=f92a9fb8-9f73-4cf9-bc9b-2bdf5b520248"},"vehicle_type_id":"4","last_reported":1728623348,"current_range_meters":38000,"station_id":"ce4bhq12rcd13ifvqhhg","pricing_plan_id":"cebpf4jnsgd1na2vs0mg"},{"bike_id":"4b7be203-7111-4ecd-9808-00597656e983","system_id":"levelo_inurba_marseille","lat":43.33025,"lon":5.39045,"is_reserved":false,"is_disabled":false,"rental_uris":{"android":"levelo://app?vid=4b7be203-7111-4ecd-9808-00597656e983","ios":"levelo://app?vid=4b7be203-7111-4ecd-9808-00597656e983"},"vehicle_type_id":"4","last_reported":1728623348,"current_range_meters":36000,"station_id":"ce4bhr92rcd13ifvqhrg","pricing_plan_id":"cebpf4jnsgd1na2vs0mg"},{"bike_id":"584605d3-be30-4090-92d5-abf6d6a75e1b","system_id":"levelo_inurba_marseille","lat":43.283621,"lon":5.386353,"is_reserved":false,"is_disabled":false,"rental_uris":{"android":"levelo://app?vid=584605d3-be30-4090-92d5-abf6d6a75e1b","ios":"levelo://app?vid=584605d3-be30-4090-92d5-abf6d6a75e1b"},"vehicle_type_id":"4","last_reported":1728623348,"current_range_meters":34000,"station_id":"ce4bh492rcd13ifvqdvg","pricing_plan_id":"cebpf4jnsgd1na2vs0mg"},{"bike_id":"dd478c48-85cb-4797-a3e4-2990796d079e","system_id":"levelo_inurba_marseille","lat":43.296213,"lon":5.405937,"is_reserved":false,"is_disabled":false,"rental_uris":{"android":"levelo://app?vid=dd478c48-85cb-4797-a3e4-2990796d079e","ios":"levelo://app?vid=dd478c48-85cb-4797-a3e4-2990796d079e"},"vehicle_type_id":"4","last_reported":1728623348,"current_range_meters":19200,"station_id":"ce4bh0h2rcd13ifvqd60","pricing_plan_id":"cebpf4jnsgd1na2vs0mg"},{"bike_id":"4bb91961-9220-499a-8e25-b2ecef6e3160","system_id":"levelo_inurba_marseille","lat":43.28077,"lon":5.39658,"is_reserved":false,"is_disabled":false,"rental_uris":{"android":"levelo://app?vid=4bb91961-9220-499a-8e25-b2ecef6e3160","ios":"levelo://app?vid=4bb91961-9220-499a-8e25-b2ecef6e3160"},"vehicle_type_id":"4","last_reported":1728623348,"current_range_meters":37600,"station_id":"ce4bho12rcd13ifvqh2g","pricing_plan_id":"cebpf4jnsgd1na2vs0mg"},{"bike_id":"c1200512-69fa-4354-8ea8-f86c5ab3832b","system_id":"levelo_inurba_marseille","lat":43.24166,"lon":5.36405,"is_reserved":false,"is_disabled":false,"rental_uris":{"android":"levelo://app?vid=c1200512-69fa-4354-8ea8-f86c5ab3832b","ios":"levelo://app?vid=c1200512-69fa-4354-8ea8-f86c5ab3832b"},"vehicle_type_id":"4","last_reported":1728623348,"current_range_meters":25600,"station_id":"cpo36qri1sfpv3e86is0","pricing_plan_id":"cebpf4jnsgd1na2vs0mg"},{"bike_id":"b338f7c0-2f29-4084-8e6f-7256fe2115d2","system_id":"levelo_inurba_marseille","lat":43.31523,"lon":5.38944,"is_reserved":false,"is_disabled":false,"rental_uris":{"android":"levelo://app?vid=b338f7c0-2f29-4084-8e6f-7256fe2115d2","ios":"levelo://app?vid=b338f7c0-2f29-4084-8e6f-7256fe2115d2"},"vehicle_type_id":"4","last_reported":1728623348,"current_range_meters":38800,"station_id":"ce4bgvp2rcd13ifvqcu0","pricing_plan_id":"cebpf4jnsgd1na2vs0mg"},{"bike_id":"50aa4af7-94b4-48c9-959d-eeec3eaec001","system_id":"levelo_inurba_marseille","lat":43.23193,"lon":5.35543,"is_reserved":false,"is_disabled":false,"rental_uris":{"android":"levelo://app?vid=50aa4af7-94b4-48c9-959d-eeec3eaec001","ios":"levelo://app?vid=50aa4af7-94b4-48c9-959d-eeec3eaec001"},"vehicle_type_id":"4","last_reported":1728623348,"current_range_meters":38000,"station_id":"ce4bhu92rcd13ifvqi70","pricing_plan_id":"cebpf4jnsgd1na2vs0mg"},{"bike_id":"dade3d2f-3f22-4b1e-92c9-4504fc72033e","system_id":"levelo_inurba_marseille","lat":43.26956,"lon":5.38618,"is_reserved":false,"is_disabled":false,"rental_uris":{"android":"levelo://app?vid=dade3d2f-3f22-4b1e-92c9-4504fc72033e","ios":"levelo://app?vid=dade3d2f-3f22-4b1e-92c9-4504fc72033e"},"vehicle_type_id":"4","last_reported":1728623348,"current_range_meters":28000,"station_id":"ce4bhh92rcd13ifvqfh0","pricing_plan_id":"cebpf4jnsgd1na2vs0mg"},{"bike_id":"38811800-990c-4b4f-93b0-519c6d818a43","system_id":"levelo_inurba_marseille","lat":43.336014,"lon":5.410274,"is_reserved":false,"is_disabled":false,"rental_uris":{"android":"levelo://app?vid=38811800-990c-4b4f-93b0-519c6d818a43","ios":"levelo://app?vid=38811800-990c-4b4f-93b0-519c6d818a43"},"vehicle_type_id":"4","last_reported":1728623348,"current_range_meters":38000,"station_id":"ce4bhqh2rcd13ifvqhmg","pricing_plan_id":"cebpf4jnsgd1na2vs0mg"},{"bike_id":"4b2b99db-3ae9-40c8-bc1f-d3654b0ac7c9","system_id":"levelo_inurba_marseille","lat":43.29044,"lon":5.35904,"is_reserved":false,"is_disabled":false,"rental_uris":{"android":"levelo://app?vid=4b2b99db-3ae9-40c8-bc1f-d3654b0ac7c9","ios":"levelo://app?vid=4b2b99db-3ae9-40c8-bc1f-d3654b0ac7c9"},"vehicle_type_id":"4","last_reported":1728623348,"current_range_meters":35200,"station_id":"ce4bha92rcd13ifvqeg0","pricing_plan_id":"cebpf4jnsgd1na2vs0mg"},{"bike_id":"8f58235a-d4da-4cab-bb8e-7e93577e7259","system_id":"levelo_inurba_marseille","lat":43.23184,"lon":5.39995,"is_reserved":false,"is_disabled":false,"rental_uris":{"android":"levelo://app?vid=8f58235a-d4da-4cab-bb8e-7e93577e7259","ios":"levelo://app?vid=8f58235a-d4da-4cab-bb8e-7e93577e7259"},"vehicle_type_id":"4","last_reported":1728623348,"current_range_meters":37600,"station_id":"ce4bhn12rcd13ifvqgqg","pricing_plan_id":"cebpf4jnsgd1na2vs0mg"},{"bike_id":"84c30ed3-60f2-43c6-a6ef-72b2abd8f6b1","system_id":"levelo_inurba_marseille","lat":43.26685,"lon":5.38277,"is_reserved":false,"is_disabled":false,"rental_uris":{"android":"levelo://app?vid=84c30ed3-60f2-43c6-a6ef-72b2abd8f6b1","ios":"levelo://app?vid=84c30ed3-60f2-43c6-a6ef-72b2abd8f6b1"},"vehicle_type_id":"4","last_reported":1728623348,"current_range_meters":35200,"station_id":"ce4bhg92rcd13ifvqf90","pricing_plan_id":"cebpf4jnsgd1na2vs0mg"},{"bike_id":"3d819519-2feb-41f9-9ba5-7980c2cc54aa","system_id":"levelo_inurba_marseille","lat":43.30543,"lon":5.3654,"is_reserved":false,"is_disabled":false,"rental_uris":{"android":"levelo://app?vid=3d819519-2feb-41f9-9ba5-7980c2cc54aa","ios":"levelo://app?vid=3d819519-2feb-41f9-9ba5-7980c2cc54aa"},"vehicle_type_id":"4","last_reported":1728623348,"current_range_meters":38800,"station_id":"ce4bgs12rcd13ifvqcag","pricing_plan_id":"cebpf4jnsgd1na2vs0mg"},{"bike_id":"f5b618b9-95bd-4142-8fc7-f2716d4901be","system_id":"levelo_inurba_marseille","lat":43.299,"lon":5.43663,"is_reserved":false,"is_disabled":false,"rental_uris":{"android":"levelo://app?vid=f5b618b9-95bd-4142-8fc7-f2716d4901be","ios":"levelo://app?vid=f5b618b9-95bd-4142-8fc7-f2716d4901be"},"vehicle_type_id":"4","last_reported":1728623348,"current_range_meters":38800,"station_id":"ce4bhpp2rcd13ifvqhfg","pricing_plan_id":"cebpf4jnsgd1na2vs0mg"},{"bike_id":"b41b90b7-ac07-4747-9aee-0559da273445","system_id":"levelo_inurba_marseille","lat":43.27987,"lon":5.4166,"is_reserved":false,"is_disabled":false,"rental_uris":{"android":"levelo://app?vid=b41b90b7-ac07-4747-9aee-0559da273445","ios":"levelo://app?vid=b41b90b7-ac07-4747-9aee-0559da273445"},"vehicle_type_id":"4","last_reported":1728623348,"current_range_meters":25200,"station_id":"ce4bho12rcd13ifvqh1g","pricing_plan_id":"cebpf4jnsgd1na2vs0mg"},{"bike_id":"255093a8-c98a-4773-851f-60ca2d6fabdf","system_id":"levelo_inurba_marseille","lat":43.33566,"lon":5.36758,"is_reserved":false,"is_disabled":false,"rental_uris":{"android":"levelo://app?vid=255093a8-c98a-4773-851f-60ca2d6fabdf","ios":"levelo://app?vid=255093a8-c98a-4773-851f-60ca2d6fabdf"},"vehicle_type_id":"4","last_reported":1728623348,"current_range_meters":34800,"station_id":"","pricing_plan_id":"cebpf4jnsgd1na2vs0mg"},{"bike_id":"04cdfc0e-0712-459a-a56c-8097add52c1d","system_id":"levelo_inurba_marseille","lat":43.28082,"lon":5.39648,"is_reserved":false,"is_disabled":false,"rental_uris":{"android":"levelo://app?vid=04cdfc0e-0712-459a-a56c-8097add52c1d","ios":"levelo://app?vid=04cdfc0e-0712-459a-a56c-8097add52c1d"},"vehicle_type_id":"4","last_reported":1728623348,"current_range_meters":38800,"station_id":"ce4bho12rcd13ifvqh2g","pricing_plan_id":"cebpf4jnsgd1na2vs0mg"},{"bike_id":"83d2d85b-5aa3-42ba-9e0b-f1a9c5db540d","system_id":"levelo_inurba_marseille","lat":43.287328,"lon":5.36082,"is_reserved":false,"is_disabled":false,"rental_uris":{"android":"levelo://app?vid=83d2d85b-5aa3-42ba-9e0b-f1a9c5db540d","ios":"levelo://app?vid=83d2d85b-5aa3-42ba-9e0b-f1a9c5db540d"},"vehicle_type_id":"4","last_reported":1728623348,"current_range_meters":38800,"station_id":"cki0cbj6b192h4jlfktg","pricing_plan_id":"cebpf4jnsgd1na2vs0mg"},{"bike_id":"38b84e64-3b13-4634-b092-cd004562da49","system_id":"levelo_inurba_marseille","lat":43.28363,"lon":5.38632,"is_reserved":false,"is_disabled":false,"rental_uris":{"android":"levelo://app?vid=38b84e64-3b13-4634-b092-cd004562da49","ios":"levelo://app?vid=38b84e64-3b13-4634-b092-cd004562da49"},"vehicle_type_id":"4","last_reported":1728623348,"current_range_meters":36400,"station_id":"ce4bh492rcd13ifvqdvg","pricing_plan_id":"cebpf4jnsgd1na2vs0mg"},{"bike_id":"07f7c5af-386e-4a95-8588-9df5a407bf84","system_id":"levelo_inurba_marseille","lat":43.24187,"lon":5.39735,"is_reserved":false,"is_disabled":false,"rental_uris":{"android":"levelo://app?vid=07f7c5af-386e-4a95-8588-9df5a407bf84","ios":"levelo://app?vid=07f7c5af-386e-4a95-8588-9df5a407bf84"},"vehicle_type_id":"4","last_reported":1728623348,"current_range_meters":2800,"station_id":"ce4bhn12rcd13ifvqgpg","pricing_plan_id":"cebpf4jnsgd1na2vs0mg"},{"bike_id":"b9a13ed1-9277-4ca4-8e23-1459b56bb417","system_id":"levelo_inurba_marseille","lat":43.29282,"lon":5.37448,"is_reserved":false,"is_disabled":false,"rental_uris":{"android":"levelo://app?vid=b9a13ed1-9277-4ca4-8e23-1459b56bb417","ios":"levelo://app?vid=b9a13ed1-9277-4ca4-8e23-1459b56bb417"},"vehicle_type_id":"4","last_reported":1728623348,"current_range_meters":38800,"station_id":"ce4bgi12rcd13ifvqb70","pricing_plan_id":"cebpf4jnsgd1na2vs0mg"},{"bike_id":"97cf73ea-7360-4151-8a90-62bb77c261ab","system_id":"levelo_inurba_marseille","lat":43.3149,"lon":5.37301,"is_reserved":false,"is_disabled":false,"rental_uris":{"android":"levelo://app?vid=97cf73ea-7360-4151-8a90-62bb77c261ab","ios":"levelo://app?vid=97cf73ea-7360-4151-8a90-62bb77c261ab"},"vehicle_type_id":"4","last_reported":1728623348,"current_range_meters":38000,"station_id":"ce4bgt12rcd13ifvqcd0","pricing_plan_id":"cebpf4jnsgd1na2vs0mg"},{"bike_id":"e845f1f4-2aaf-485b-b3cd-a8fe8e22f8f6","system_id":"levelo_inurba_marseille","lat":43.31361,"lon":5.38488,"is_reserved":false,"is_disabled":false,"rental_uris":{"android":"levelo://app?vid=e845f1f4-2aaf-485b-b3cd-a8fe8e22f8f6","ios":"levelo://app?vid=e845f1f4-2aaf-485b-b3cd-a8fe8e22f8f6"},"vehicle_type_id":"4","last_reported":1728623348,"current_range_meters":29600,"station_id":"ce4bgt92rcd13ifvqcf0","pricing_plan_id":"cebpf4jnsgd1na2vs0mg"},{"bike_id":"ff68b789-7173-415f-860f-fb58c1b9d01d","system_id":"levelo_inurba_marseille","lat":43.22929,"lon":5.3538,"is_reserved":false,"is_disabled":false,"rental_uris":{"android":"levelo://app?vid=ff68b789-7173-415f-860f-fb58c1b9d01d","ios":"levelo://app?vid=ff68b789-7173-415f-860f-fb58c1b9d01d"},"vehicle_type_id":"4","last_reported":1728623348,"current_range_meters":32800,"station_id":"cpo3532slgdg3j2ikp40","pricing_plan_id":"cebpf4jnsgd1na2vs0mg"},{"bike_id":"285e08f4-e441-45ca-a4aa-0ceac3a304a6","system_id":"levelo_inurba_marseille","lat":43.27904,"lon":5.38007,"is_reserved":false,"is_disabled":false,"rental_uris":{"android":"levelo://app?vid=285e08f4-e441-45ca-a4aa-0ceac3a304a6","ios":"levelo://app?vid=285e08f4-e441-45ca-a4aa-0ceac3a304a6"},"vehicle_type_id":"4","last_reported":1728623348,"current_range_meters":38800,"station_id":"ce4bhf92rcd13ifvqf50","pricing_plan_id":"cebpf4jnsgd1na2vs0mg"},{"bike_id":"d2cad74d-3e4d-4048-8035-4a480bcabacb","system_id":"levelo_inurba_marseille","lat":43.3015,"lon":5.3809,"is_reserved":false,"is_disabled":false,"rental_uris":{"android":"levelo://app?vid=d2cad74d-3e4d-4048-8035-4a480bcabacb","ios":"levelo://app?vid=d2cad74d-3e4d-4048-8035-4a480bcabacb"},"vehicle_type_id":"4","last_reported":1728623348,"current_range_meters":30800,"station_id":"ce4bgjp2rcd13ifvqbh0","pricing_plan_id":"cebpf4jnsgd1na2vs0mg"},{"bike_id":"535f898a-3477-4583-978a-dc1a76e70ff9","system_id":"levelo_inurba_marseille","lat":43.27817,"lon":5.40718,"is_reserved":false,"is_disabled":false,"rental_uris":{"android":"levelo://app?vid=535f898a-3477-4583-978a-dc1a76e70ff9","ios":"levelo://app?vid=535f898a-3477-4583-978a-dc1a76e70ff9"},"vehicle_type_id":"4","last_reported":1728623348,"current_range_meters":38800,"station_id":"ce4bhnh2rcd13ifvqgtg","pricing_plan_id":"cebpf4jnsgd1na2vs0mg"},{"bike_id":"6bdd4e00-8834-4802-b257-516c74179753","system_id":"levelo_inurba_marseille","lat":43.30465,"lon":5.37906,"is_reserved":false,"is_disabled":false,"rental_uris":{"android":"levelo://app?vid=6bdd4e00-8834-4802-b257-516c74179753","ios":"levelo://app?vid=6bdd4e00-8834-4802-b257-516c74179753"},"vehicle_type_id":"4","last_reported":1728623348,"current_range_meters":36400,"station_id":"ce4bgup2rcd13ifvqcn0","pricing_plan_id":"cebpf4jnsgd1na2vs0mg"},{"bike_id":"6cb5b02c-2401-484a-8b7d-b4d2106d6b08","system_id":"levelo_inurba_marseille","lat":43.23191,"lon":5.35554,"is_reserved":false,"is_disabled":false,"rental_uris":{"android":"levelo://app?vid=6cb5b02c-2401-484a-8b7d-b4d2106d6b08","ios":"levelo://app?vid=6cb5b02c-2401-484a-8b7d-b4d2106d6b08"},"vehicle_type_id":"4","last_reported":1728623348,"current_range_meters":36800,"station_id":"ce4bhu92rcd13ifvqi70","pricing_plan_id":"cebpf4jnsgd1na2vs0mg"},{"bike_id":"f255bdbb-a497-4549-91a5-4dbe27c9af42","system_id":"levelo_inurba_marseille","lat":43.24667,"lon":5.38155,"is_reserved":false,"is_disabled":false,"rental_uris":{"android":"levelo://app?vid=f255bdbb-a497-4549-91a5-4dbe27c9af42","ios":"levelo://app?vid=f255bdbb-a497-4549-91a5-4dbe27c9af42"},"vehicle_type_id":"4","last_reported":1728623348,"current_range_meters":28400,"station_id":"ce4bhih2rcd13ifvqfr0","pricing_plan_id":"cebpf4jnsgd1na2vs0mg"},{"bike_id":"ec0b4a60-abc4-400a-9df1-ce6586f92f75","system_id":"levelo_inurba_marseille","lat":43.31177,"lon":5.3871,"is_reserved":false,"is_disabled":false,"rental_uris":{"android":"levelo://app?vid=ec0b4a60-abc4-400a-9df1-ce6586f92f75","ios":"levelo://app?vid=ec0b4a60-abc4-400a-9df1-ce6586f92f75"},"vehicle_type_id":"4","last_reported":1728623348,"current_range_meters":35600,"station_id":"ce4bgv12rcd13ifvqcp0","pricing_plan_id":"cebpf4jnsgd1na2vs0mg"},{"bike_id":"44f15e4f-bcec-4cd2-8c1c-3ebf9fc6ffff","system_id":"levelo_inurba_marseille","lat":43.30157,"lon":5.38088,"is_reserved":false,"is_disabled":false,"rental_uris":{"android":"levelo://app?vid=44f15e4f-bcec-4cd2-8c1c-3ebf9fc6ffff","ios":"levelo://app?vid=44f15e4f-bcec-4cd2-8c1c-3ebf9fc6ffff"},"vehicle_type_id":"4","last_reported":1728623348,"current_range_meters":36400,"station_id":"ce4bgjp2rcd13ifvqbh0","pricing_plan_id":"cebpf4jnsgd1na2vs0mg"},{"bike_id":"91260ca4-e27f-45c6-a790-b736af6f451e","system_id":"levelo_inurba_marseille","lat":43.30466,"lon":5.37901,"is_reserved":false,"is_disabled":false,"rental_uris":{"android":"levelo://app?vid=91260ca4-e27f-45c6-a790-b736af6f451e","ios":"levelo://app?vid=91260ca4-e27f-45c6-a790-b736af6f451e"},"vehicle_type_id":"4","last_reported":1728623348,"current_range_meters":22000,"station_id":"ce4bgup2rcd13ifvqcn0","pricing_plan_id":"cebpf4jnsgd1na2vs0mg"},{"bike_id":"aad136a8-d860-46f5-9a88-326756167519","system_id":"levelo_inurba_marseille","lat":43.319946,"lon":5.381537,"is_reserved":false,"is_disabled":false,"rental_uris":{"android":"levelo://app?vid=aad136a8-d860-46f5-9a88-326756167519","ios":"levelo://app?vid=aad136a8-d860-46f5-9a88-326756167519"},"vehicle_type_id":"4","last_reported":1728623348,"current_range_meters":33200,"station_id":"ce4bhr12rcd13ifvqhpg","pricing_plan_id":"cebpf4jnsgd1na2vs0mg"},{"bike_id":"dfb65c45-a78a-49eb-9234-365cf5eb2f53","system_id":"levelo_inurba_marseille","lat":43.294438,"lon":5.397538,"is_reserved":false,"is_disabled":false,"rental_uris":{"android":"levelo://app?vid=dfb65c45-a78a-49eb-9234-365cf5eb2f53","ios":"levelo://app?vid=dfb65c45-a78a-49eb-9234-365cf5eb2f53"},"vehicle_type_id":"4","last_reported":1728623348,"current_range_meters":38800,"station_id":"ce4bh3h2rcd13ifvqdo0","pricing_plan_id":"cebpf4jnsgd1na2vs0mg"},{"bike_id":"70e8d9e5-8396-4d7d-be39-1fc17a440db7","system_id":"levelo_inurba_marseille","lat":43.33609,"lon":5.41026,"is_reserved":false,"is_disabled":false,"rental_uris":{"android":"levelo://app?vid=70e8d9e5-8396-4d7d-be39-1fc17a440db7","ios":"levelo://app?vid=70e8d9e5-8396-4d7d-be39-1fc17a440db7"},"vehicle_type_id":"4","last_reported":1728623348,"current_range_meters":39200,"station_id":"ce4bhqh2rcd13ifvqhmg","pricing_plan_id":"cebpf4jnsgd1na2vs0mg"},{"bike_id":"b43e010f-69ea-40f6-9796-119442586a51","system_id":"levelo_inurba_marseille","lat":43.31336,"lon":5.39692,"is_reserved":false,"is_disabled":false,"rental_uris":{"android":"levelo://app?vid=b43e010f-69ea-40f6-9796-119442586a51","ios":"levelo://app?vid=b43e010f-69ea-40f6-9796-119442586a51"},"vehicle_type_id":"4","last_reported":1728623348,"current_range_meters":6800,"station_id":"ce4bgvp2rcd13ifvqcu0","pricing_plan_id":"cebpf4jnsgd1na2vs0mg"},{"bike_id":"1027a48d-39de-4194-8126-8dfdf879107f","system_id":"levelo_inurba_marseille","lat":43.29188,"lon":5.3931,"is_reserved":false,"is_disabled":false,"rental_uris":{"android":"levelo://app?vid=1027a48d-39de-4194-8126-8dfdf879107f","ios":"levelo://app?vid=1027a48d-39de-4194-8126-8dfdf879107f"},"vehicle_type_id":"4","last_reported":1728623348,"current_range_meters":16400,"station_id":"ce4bh192rcd13ifvqdd0","pricing_plan_id":"cebpf4jnsgd1na2vs0mg"},{"bike_id":"1d5de6a2-1898-46de-a744-7c205c4121e3","system_id":"levelo_inurba_marseille","lat":43.25004,"lon":5.38923,"is_reserved":false,"is_disabled":false,"rental_uris":{"android":"levelo://app?vid=1d5de6a2-1898-46de-a744-7c205c4121e3","ios":"levelo://app?vid=1d5de6a2-1898-46de-a744-7c205c4121e3"},"vehicle_type_id":"4","last_reported":1728623348,"current_range_meters":38400,"station_id":"ce4bhgp2rcd13ifvqfd0","pricing_plan_id":"cebpf4jnsgd1na2vs0mg"},{"bike_id":"9bab9d3e-37a4-49a5-a75a-86966f750570","system_id":"levelo_inurba_marseille","lat":43.32106,"lon":5.36781,"is_reserved":false,"is_disabled":false,"rental_uris":{"android":"levelo://app?vid=9bab9d3e-37a4-49a5-a75a-86966f750570","ios":"levelo://app?vid=9bab9d3e-37a4-49a5-a75a-86966f750570"},"vehicle_type_id":"4","last_reported":1728623348,"current_range_meters":6400,"station_id":"ce4bhrh2rcd13ifvqhug","pricing_plan_id":"cebpf4jnsgd1na2vs0mg"},{"bike_id":"d8718b16-6a66-44ed-8bae-d6030455fa45","system_id":"levelo_inurba_marseille","lat":43.27184,"lon":5.40985,"is_reserved":false,"is_disabled":false,"rental_uris":{"android":"levelo://app?vid=d8718b16-6a66-44ed-8bae-d6030455fa45","ios":"levelo://app?vid=d8718b16-6a66-44ed-8bae-d6030455fa45"},"vehicle_type_id":"4","last_reported":1728623348,"current_range_meters":30800,"station_id":"ce4bhl12rcd13ifvqgf0","pricing_plan_id":"cebpf4jnsgd1na2vs0mg"},{"bike_id":"527669b4-32c2-4ab8-981c-28627828fabe","system_id":"levelo_inurba_marseille","lat":43.28666,"lon":5.36346,"is_reserved":false,"is_disabled":false,"rental_uris":{"android":"levelo://app?vid=527669b4-32c2-4ab8-981c-28627828fabe","ios":"levelo://app?vid=527669b4-32c2-4ab8-981c-28627828fabe"},"vehicle_type_id":"4","last_reported":1728623348,"current_range_meters":38800,"station_id":"ce4bhah2rcd13ifvqej0","pricing_plan_id":"cebpf4jnsgd1na2vs0mg"},{"bike_id":"51b39b0c-bb7b-440f-9a2b-83211e365378","system_id":"levelo_inurba_marseille","lat":43.31485,"lon":5.37299,"is_reserved":false,"is_disabled":false,"rental_uris":{"android":"levelo://app?vid=51b39b0c-bb7b-440f-9a2b-83211e365378","ios":"levelo://app?vid=51b39b0c-bb7b-440f-9a2b-83211e365378"},"vehicle_type_id":"4","last_reported":1728623348,"current_range_meters":30000,"station_id":"ce4bgt12rcd13ifvqcd0","pricing_plan_id":"cebpf4jnsgd1na2vs0mg"},{"bike_id":"75e78cb5-859d-4aaf-98d9-6930a0179b0d","system_id":"levelo_inurba_marseille","lat":43.29041,"lon":5.39948,"is_reserved":false,"is_disabled":false,"rental_uris":{"android":"levelo://app?vid=75e78cb5-859d-4aaf-98d9-6930a0179b0d","ios":"levelo://app?vid=75e78cb5-859d-4aaf-98d9-6930a0179b0d"},"vehicle_type_id":"4","last_reported":1728623348,"current_range_meters":36000,"station_id":"ce4bh392rcd13ifvqdm0","pricing_plan_id":"cebpf4jnsgd1na2vs0mg"},{"bike_id":"80461f6b-43d8-4afb-bd9a-5cefa8382447","system_id":"levelo_inurba_marseille","lat":43.30473,"lon":5.37916,"is_reserved":false,"is_disabled":false,"rental_uris":{"android":"levelo://app?vid=80461f6b-43d8-4afb-bd9a-5cefa8382447","ios":"levelo://app?vid=80461f6b-43d8-4afb-bd9a-5cefa8382447"},"vehicle_type_id":"4","last_reported":1728623348,"current_range_meters":28000,"station_id":"ce4bgup2rcd13ifvqcn0","pricing_plan_id":"cebpf4jnsgd1na2vs0mg"},{"bike_id":"9a3ef8f3-8740-4e39-9c24-cf98b0108ac8","system_id":"levelo_inurba_marseille","lat":43.2804,"lon":5.36936,"is_reserved":false,"is_disabled":false,"rental_uris":{"android":"levelo://app?vid=9a3ef8f3-8740-4e39-9c24-cf98b0108ac8","ios":"levelo://app?vid=9a3ef8f3-8740-4e39-9c24-cf98b0108ac8"},"vehicle_type_id":"4","last_reported":1728623348,"current_range_meters":12000,"station_id":"ce4bha12rcd13ifvqef0","pricing_plan_id":"cebpf4jnsgd1na2vs0mg"},{"bike_id":"9f224ecd-f528-4499-a04c-2c14df455d5a","system_id":"levelo_inurba_marseille","lat":43.304765,"lon":5.37914,"is_reserved":false,"is_disabled":false,"rental_uris":{"android":"levelo://app?vid=9f224ecd-f528-4499-a04c-2c14df455d5a","ios":"levelo://app?vid=9f224ecd-f528-4499-a04c-2c14df455d5a"},"vehicle_type_id":"4","last_reported":1728623348,"current_range_meters":12000,"station_id":"ce4bgup2rcd13ifvqcn0","pricing_plan_id":"cebpf4jnsgd1na2vs0mg"},{"bike_id":"b09dbff8-a830-491c-a572-644fce18b85a","system_id":"levelo_inurba_marseille","lat":43.24664,"lon":5.38157,"is_reserved":false,"is_disabled":false,"rental_uris":{"android":"levelo://app?vid=b09dbff8-a830-491c-a572-644fce18b85a","ios":"levelo://app?vid=b09dbff8-a830-491c-a572-644fce18b85a"},"vehicle_type_id":"4","last_reported":1728623348,"current_range_meters":30000,"station_id":"ce4bhih2rcd13ifvqfr0","pricing_plan_id":"cebpf4jnsgd1na2vs0mg"},{"bike_id":"b403c7ea-19b1-464d-a198-125a8524abb8","system_id":"levelo_inurba_marseille","lat":43.28456,"lon":5.35879,"is_reserved":false,"is_disabled":false,"rental_uris":{"android":"levelo://app?vid=b403c7ea-19b1-464d-a198-125a8524abb8","ios":"levelo://app?vid=b403c7ea-19b1-464d-a198-125a8524abb8"},"vehicle_type_id":"4","last_reported":1728623348,"current_range_meters":38800,"station_id":"ce4bhah2rcd13ifvqei0","pricing_plan_id":"cebpf4jnsgd1na2vs0mg"},{"bike_id":"9f7e2fbf-bdee-4a59-b66c-f4b85e9700f4","system_id":"levelo_inurba_marseille","lat":43.24179,"lon":5.39727,"is_reserved":false,"is_disabled":false,"rental_uris":{"android":"levelo://app?vid=9f7e2fbf-bdee-4a59-b66c-f4b85e9700f4","ios":"levelo://app?vid=9f7e2fbf-bdee-4a59-b66c-f4b85e9700f4"},"vehicle_type_id":"4","last_reported":1728623348,"current_range_meters":38000,"station_id":"ce4bhn12rcd13ifvqgpg","pricing_plan_id":"cebpf4jnsgd1na2vs0mg"},{"bike_id":"1bf39129-7013-4caa-8d33-ef279b792ee7","system_id":"levelo_inurba_marseille","lat":43.255773,"lon":5.382408,"is_reserved":false,"is_disabled":false,"rental_uris":{"android":"levelo://app?vid=1bf39129-7013-4caa-8d33-ef279b792ee7","ios":"levelo://app?vid=1bf39129-7013-4caa-8d33-ef279b792ee7"},"vehicle_type_id":"4","last_reported":1728623348,"current_range_meters":8400,"station_id":"ce4bhih2rcd13ifvqfs0","pricing_plan_id":"cebpf4jnsgd1na2vs0mg"},{"bike_id":"4b089144-6850-4166-bc3f-7a5b51f15694","system_id":"levelo_inurba_marseille","lat":43.30326,"lon":5.40435,"is_reserved":false,"is_disabled":false,"rental_uris":{"android":"levelo://app?vid=4b089144-6850-4166-bc3f-7a5b51f15694","ios":"levelo://app?vid=4b089144-6850-4166-bc3f-7a5b51f15694"},"vehicle_type_id":"4","last_reported":1728623348,"current_range_meters":36800,"station_id":"ce4bh012rcd13ifvqd10","pricing_plan_id":"cebpf4jnsgd1na2vs0mg"},{"bike_id":"688f6893-4e25-4b49-8a50-98b67c83c1ce","system_id":"levelo_inurba_marseille","lat":43.306457,"lon":5.400805,"is_reserved":false,"is_disabled":false,"rental_uris":{"android":"levelo://app?vid=688f6893-4e25-4b49-8a50-98b67c83c1ce","ios":"levelo://app?vid=688f6893-4e25-4b49-8a50-98b67c83c1ce"},"vehicle_type_id":"4","last_reported":1728623348,"current_range_meters":24400,"station_id":"ce4bh112rcd13ifvqda0","pricing_plan_id":"cebpf4jnsgd1na2vs0mg"},{"bike_id":"b589848d-eca5-4528-9071-1a4061596d28","system_id":"levelo_inurba_marseille","lat":43.313315,"lon":5.396995,"is_reserved":false,"is_disabled":false,"rental_uris":{"android":"levelo://app?vid=b589848d-eca5-4528-9071-1a4061596d28","ios":"levelo://app?vid=b589848d-eca5-4528-9071-1a4061596d28"},"vehicle_type_id":"4","last_reported":1728623348,"current_range_meters":38400,"station_id":"ce4bgvp2rcd13ifvqcu0","pricing_plan_id":"cebpf4jnsgd1na2vs0mg"},{"bike_id":"4bae06e8-deae-424a-93d9-e99c9cc62419","system_id":"levelo_inurba_marseille","lat":43.28085,"lon":5.39649,"is_reserved":false,"is_disabled":false,"rental_uris":{"android":"levelo://app?vid=4bae06e8-deae-424a-93d9-e99c9cc62419","ios":"levelo://app?vid=4bae06e8-deae-424a-93d9-e99c9cc62419"},"vehicle_type_id":"4","last_reported":1728623348,"current_range_meters":23200,"station_id":"ce4bho12rcd13ifvqh2g","pricing_plan_id":"cebpf4jnsgd1na2vs0mg"},{"bike_id":"dbda08ae-b70a-43d7-90bb-2a7bf937bb53","system_id":"levelo_inurba_marseille","lat":43.29635,"lon":5.40597,"is_reserved":false,"is_disabled":false,"rental_uris":{"android":"levelo://app?vid=dbda08ae-b70a-43d7-90bb-2a7bf937bb53","ios":"levelo://app?vid=dbda08ae-b70a-43d7-90bb-2a7bf937bb53"},"vehicle_type_id":"4","last_reported":1728623348,"current_range_meters":17600,"station_id":"ce4bh0h2rcd13ifvqd60","pricing_plan_id":"cebpf4jnsgd1na2vs0mg"},{"bike_id":"813a95b0-fe76-4a18-96f4-05e751c619cd","system_id":"levelo_inurba_marseille","lat":43.27997,"lon":5.41658,"is_reserved":false,"is_disabled":false,"rental_uris":{"android":"levelo://app?vid=813a95b0-fe76-4a18-96f4-05e751c619cd","ios":"levelo://app?vid=813a95b0-fe76-4a18-96f4-05e751c619cd"},"vehicle_type_id":"4","last_reported":1728623348,"current_range_meters":36800,"station_id":"ce4bho12rcd13ifvqh1g","pricing_plan_id":"cebpf4jnsgd1na2vs0mg"},{"bike_id":"6c8183dd-cf19-4d95-90a7-79a8efb9a1c0","system_id":"levelo_inurba_marseille","lat":43.31123,"lon":5.37773,"is_reserved":false,"is_disabled":false,"rental_uris":{"android":"levelo://app?vid=6c8183dd-cf19-4d95-90a7-79a8efb9a1c0","ios":"levelo://app?vid=6c8183dd-cf19-4d95-90a7-79a8efb9a1c0"},"vehicle_type_id":"4","last_reported":1728623348,"current_range_meters":32800,"station_id":"ce4bgt92rcd13ifvqcg0","pricing_plan_id":"cebpf4jnsgd1na2vs0mg"},{"bike_id":"5b45c3bd-1aa3-4b8f-b7e4-70ffd5b269e9","system_id":"levelo_inurba_marseille","lat":43.31537,"lon":5.3802,"is_reserved":false,"is_disabled":false,"rental_uris":{"android":"levelo://app?vid=5b45c3bd-1aa3-4b8f-b7e4-70ffd5b269e9","ios":"levelo://app?vid=5b45c3bd-1aa3-4b8f-b7e4-70ffd5b269e9"},"vehicle_type_id":"4","last_reported":1728623348,"current_range_meters":39200,"station_id":"ce4bhsp2rcd13ifvqi50","pricing_plan_id":"cebpf4jnsgd1na2vs0mg"},{"bike_id":"4baff218-546b-43d5-9d91-e4d95413a7b1","system_id":"levelo_inurba_marseille","lat":43.25493,"lon":5.37649,"is_reserved":false,"is_disabled":false,"rental_uris":{"android":"levelo://app?vid=4baff218-546b-43d5-9d91-e4d95413a7b1","ios":"levelo://app?vid=4baff218-546b-43d5-9d91-e4d95413a7b1"},"vehicle_type_id":"4","last_reported":1728623348,"current_range_meters":38800,"station_id":"ce4bhh12rcd13ifvqff0","pricing_plan_id":"cebpf4jnsgd1na2vs0mg"},{"bike_id":"cc2f9d69-500e-488e-b663-00c92ef177f5","system_id":"levelo_inurba_marseille","lat":43.30417,"lon":5.4128,"is_reserved":false,"is_disabled":false,"rental_uris":{"android":"levelo://app?vid=cc2f9d69-500e-488e-b663-00c92ef177f5","ios":"levelo://app?vid=cc2f9d69-500e-488e-b663-00c92ef177f5"},"vehicle_type_id":"4","last_reported":1728623348,"current_range_meters":36800,"station_id":"ce4bhop2rcd13ifvqh8g","pricing_plan_id":"cebpf4jnsgd1na2vs0mg"},{"bike_id":"1430f6f2-73dd-42ca-8307-5f209eb4a512","system_id":"levelo_inurba_marseille","lat":43.29455,"lon":5.37627,"is_reserved":false,"is_disabled":false,"rental_uris":{"android":"levelo://app?vid=1430f6f2-73dd-42ca-8307-5f209eb4a512","ios":"levelo://app?vid=1430f6f2-73dd-42ca-8307-5f209eb4a512"},"vehicle_type_id":"4","last_reported":1728623348,"current_range_meters":8400,"station_id":"","pricing_plan_id":"cebpf4jnsgd1na2vs0mg"},{"bike_id":"d11abab0-825b-4c35-9216-4e95dc7d2562","system_id":"levelo_inurba_marseille","lat":43.313679,"lon":5.385001,"is_reserved":false,"is_disabled":false,"rental_uris":{"android":"levelo://app?vid=d11abab0-825b-4c35-9216-4e95dc7d2562","ios":"levelo://app?vid=d11abab0-825b-4c35-9216-4e95dc7d2562"},"vehicle_type_id":"4","last_reported":1728623348,"current_range_meters":8400,"station_id":"ce4bgt92rcd13ifvqcf0","pricing_plan_id":"cebpf4jnsgd1na2vs0mg"},{"bike_id":"1aedeaea-7831-419d-b347-2cf652591a45","system_id":"levelo_inurba_marseille","lat":43.28446,"lon":5.39187,"is_reserved":false,"is_disabled":false,"rental_uris":{"android":"levelo://app?vid=1aedeaea-7831-419d-b347-2cf652591a45","ios":"levelo://app?vid=1aedeaea-7831-419d-b347-2cf652591a45"},"vehicle_type_id":"4","last_reported":1728623348,"current_range_meters":38400,"station_id":"ce4bhoh2rcd13ifvqh5g","pricing_plan_id":"cebpf4jnsgd1na2vs0mg"},{"bike_id":"f4242d47-0a61-48b8-871d-ac8468e3bd41","system_id":"levelo_inurba_marseille","lat":43.28459,"lon":5.35886,"is_reserved":false,"is_disabled":false,"rental_uris":{"android":"levelo://app?vid=f4242d47-0a61-48b8-871d-ac8468e3bd41","ios":"levelo://app?vid=f4242d47-0a61-48b8-871d-ac8468e3bd41"},"vehicle_type_id":"4","last_reported":1728623348,"current_range_meters":37600,"station_id":"ce4bhah2rcd13ifvqei0","pricing_plan_id":"cebpf4jnsgd1na2vs0mg"},{"bike_id":"484a4c63-4ef1-4433-b27a-9a9ca5ad2f9a","system_id":"levelo_inurba_marseille","lat":43.22926,"lon":5.35381,"is_reserved":false,"is_disabled":false,"rental_uris":{"android":"levelo://app?vid=484a4c63-4ef1-4433-b27a-9a9ca5ad2f9a","ios":"levelo://app?vid=484a4c63-4ef1-4433-b27a-9a9ca5ad2f9a"},"vehicle_type_id":"4","last_reported":1728623348,"current_range_meters":18000,"station_id":"cpo3532slgdg3j2ikp40","pricing_plan_id":"cebpf4jnsgd1na2vs0mg"},{"bike_id":"1c1c2a36-a8d7-479d-b339-6ec9292c8ea3","system_id":"levelo_inurba_marseille","lat":43.31258,"lon":5.40176,"is_reserved":false,"is_disabled":false,"rental_uris":{"android":"levelo://app?vid=1c1c2a36-a8d7-479d-b339-6ec9292c8ea3","ios":"levelo://app?vid=1c1c2a36-a8d7-479d-b339-6ec9292c8ea3"},"vehicle_type_id":"4","last_reported":1728623348,"current_range_meters":38800,"station_id":"ce4bh092rcd13ifvqd30","pricing_plan_id":"cebpf4jnsgd1na2vs0mg"},{"bike_id":"938d4ef0-cdbe-4768-8e5e-a9defb34c824","system_id":"levelo_inurba_marseille","lat":43.30434,"lon":5.39749,"is_reserved":false,"is_disabled":false,"rental_uris":{"android":"levelo://app?vid=938d4ef0-cdbe-4768-8e5e-a9defb34c824","ios":"levelo://app?vid=938d4ef0-cdbe-4768-8e5e-a9defb34c824"},"vehicle_type_id":"4","last_reported":1728623348,"current_range_meters":8000,"station_id":"ce4bh092rcd13ifvqd20","pricing_plan_id":"cebpf4jnsgd1na2vs0mg"},{"bike_id":"1a74429e-c098-42a2-806d-2bdd634ea0d0","system_id":"levelo_inurba_marseille","lat":43.28346,"lon":5.38101,"is_reserved":false,"is_disabled":false,"rental_uris":{"android":"levelo://app?vid=1a74429e-c098-42a2-806d-2bdd634ea0d0","ios":"levelo://app?vid=1a74429e-c098-42a2-806d-2bdd634ea0d0"},"vehicle_type_id":"4","last_reported":1728623348,"current_range_meters":30000,"station_id":"ce4bh412rcd13ifvqdr0","pricing_plan_id":"cebpf4jnsgd1na2vs0mg"},{"bike_id":"edd58c07-95cf-4adb-8e2d-c1fc37b21419","system_id":"levelo_inurba_marseille","lat":43.30465,"lon":5.37909,"is_reserved":false,"is_disabled":false,"rental_uris":{"android":"levelo://app?vid=edd58c07-95cf-4adb-8e2d-c1fc37b21419","ios":"levelo://app?vid=edd58c07-95cf-4adb-8e2d-c1fc37b21419"},"vehicle_type_id":"4","last_reported":1728623348,"current_range_meters":39200,"station_id":"ce4bgup2rcd13ifvqcn0","pricing_plan_id":"cebpf4jnsgd1na2vs0mg"},{"bike_id":"2bacbdd4-2404-4717-b62d-31a55a103108","system_id":"levelo_inurba_marseille","lat":43.27949,"lon":5.41038,"is_reserved":false,"is_disabled":false,"rental_uris":{"android":"levelo://app?vid=2bacbdd4-2404-4717-b62d-31a55a103108","ios":"levelo://app?vid=2bacbdd4-2404-4717-b62d-31a55a103108"},"vehicle_type_id":"4","last_reported":1728623348,"current_range_meters":33600,"station_id":"ce4bhnp2rcd13ifvqh0g","pricing_plan_id":"cebpf4jnsgd1na2vs0mg"},{"bike_id":"cd66634a-a755-4837-bafe-bd5706ebd9ae","system_id":"levelo_inurba_marseille","lat":43.31724,"lon":5.42402,"is_reserved":false,"is_disabled":false,"rental_uris":{"android":"levelo://app?vid=cd66634a-a755-4837-bafe-bd5706ebd9ae","ios":"levelo://app?vid=cd66634a-a755-4837-bafe-bd5706ebd9ae"},"vehicle_type_id":"4","last_reported":1728623348,"current_range_meters":10800,"station_id":"ce4bhp92rcd13ifvqhbg","pricing_plan_id":"cebpf4jnsgd1na2vs0mg"},{"bike_id":"b1b5ad6b-82d7-4e2e-bc02-5050b6f0b80b","system_id":"levelo_inurba_marseille","lat":43.345182,"lon":5.38536,"is_reserved":false,"is_disabled":false,"rental_uris":{"android":"levelo://app?vid=b1b5ad6b-82d7-4e2e-bc02-5050b6f0b80b","ios":"levelo://app?vid=b1b5ad6b-82d7-4e2e-bc02-5050b6f0b80b"},"vehicle_type_id":"4","last_reported":1728623348,"current_range_meters":22800,"station_id":"","pricing_plan_id":"cebpf4jnsgd1na2vs0mg"},{"bike_id":"830a55b5-b356-49d6-b4bd-23022c4ba6b3","system_id":"levelo_inurba_marseille","lat":43.28473,"lon":5.35874,"is_reserved":false,"is_disabled":false,"rental_uris":{"android":"levelo://app?vid=830a55b5-b356-49d6-b4bd-23022c4ba6b3","ios":"levelo://app?vid=830a55b5-b356-49d6-b4bd-23022c4ba6b3"},"vehicle_type_id":"4","last_reported":1728623348,"current_range_meters":38800,"station_id":"ce4bhah2rcd13ifvqei0","pricing_plan_id":"cebpf4jnsgd1na2vs0mg"},{"bike_id":"fbee2a8e-163d-4917-870d-0f44b08e68e0","system_id":"levelo_inurba_marseille","lat":43.31711,"lon":5.43709,"is_reserved":false,"is_disabled":false,"rental_uris":{"android":"levelo://app?vid=fbee2a8e-163d-4917-870d-0f44b08e68e0","ios":"levelo://app?vid=fbee2a8e-163d-4917-870d-0f44b08e68e0"},"vehicle_type_id":"4","last_reported":1728623348,"current_range_meters":6400,"station_id":"ce4bhp92rcd13ifvqhcg","pricing_plan_id":"cebpf4jnsgd1na2vs0mg"},{"bike_id":"a096e2a8-13ba-49dd-95c6-a5a8569d1151","system_id":"levelo_inurba_marseille","lat":43.26561,"lon":5.39002,"is_reserved":false,"is_disabled":false,"rental_uris":{"android":"levelo://app?vid=a096e2a8-13ba-49dd-95c6-a5a8569d1151","ios":"levelo://app?vid=a096e2a8-13ba-49dd-95c6-a5a8569d1151"},"vehicle_type_id":"4","last_reported":1728623348,"current_range_meters":24800,"station_id":"ce4bhe12rcd13ifvqf30","pricing_plan_id":"cebpf4jnsgd1na2vs0mg"},{"bike_id":"f65cd028-dda9-4402-aa58-20d5d22adfef","system_id":"levelo_inurba_marseille","lat":43.25718,"lon":5.41116,"is_reserved":false,"is_disabled":false,"rental_uris":{"android":"levelo://app?vid=f65cd028-dda9-4402-aa58-20d5d22adfef","ios":"levelo://app?vid=f65cd028-dda9-4402-aa58-20d5d22adfef"},"vehicle_type_id":"4","last_reported":1728623348,"current_range_meters":10000,"station_id":"ce4bhkp2rcd13ifvqgd0","pricing_plan_id":"cebpf4jnsgd1na2vs0mg"},{"bike_id":"7608acb2-d3ab-4ba2-b867-6b4a59822a20","system_id":"levelo_inurba_marseille","lat":43.2923,"lon":5.36071,"is_reserved":false,"is_disabled":false,"rental_uris":{"android":"levelo://app?vid=7608acb2-d3ab-4ba2-b867-6b4a59822a20","ios":"levelo://app?vid=7608acb2-d3ab-4ba2-b867-6b4a59822a20"},"vehicle_type_id":"4","last_reported":1728623348,"current_range_meters":34800,"station_id":"ce4bhbh2rcd13ifvqeqg","pricing_plan_id":"cebpf4jnsgd1na2vs0mg"},{"bike_id":"1a77e98a-356c-44c1-a180-5d2a812667a3","system_id":"levelo_inurba_marseille","lat":43.29847,"lon":5.38087,"is_reserved":false,"is_disabled":false,"rental_uris":{"android":"levelo://app?vid=1a77e98a-356c-44c1-a180-5d2a812667a3","ios":"levelo://app?vid=1a77e98a-356c-44c1-a180-5d2a812667a3"},"vehicle_type_id":"4","last_reported":1728623348,"current_range_meters":32800,"station_id":"","pricing_plan_id":"cebpf4jnsgd1na2vs0mg"},{"bike_id":"d7319dc0-f3c4-4352-842c-68a8834cf876","system_id":"levelo_inurba_marseille","lat":43.28937,"lon":5.3663,"is_reserved":false,"is_disabled":false,"rental_uris":{"android":"levelo://app?vid=d7319dc0-f3c4-4352-842c-68a8834cf876","ios":"levelo://app?vid=d7319dc0-f3c4-4352-842c-68a8834cf876"},"vehicle_type_id":"4","last_reported":1728623348,"current_range_meters":34000,"station_id":"ce4bhap2rcd13ifvqek0","pricing_plan_id":"cebpf4jnsgd1na2vs0mg"},{"bike_id":"3372ba1c-93af-4ac9-8ffa-34868b7baae2","system_id":"levelo_inurba_marseille","lat":43.31758,"lon":5.3902,"is_reserved":false,"is_disabled":false,"rental_uris":{"android":"levelo://app?vid=3372ba1c-93af-4ac9-8ffa-34868b7baae2","ios":"levelo://app?vid=3372ba1c-93af-4ac9-8ffa-34868b7baae2"},"vehicle_type_id":"4","last_reported":1728623348,"current_range_meters":12800,"station_id":"ce4bhqp2rcd13ifvqhng","pricing_plan_id":"cebpf4jnsgd1na2vs0mg"},{"bike_id":"ea79b829-1cf6-46a7-8302-4db9118220a2","system_id":"levelo_inurba_marseille","lat":43.30464,"lon":5.37901,"is_reserved":false,"is_disabled":false,"rental_uris":{"android":"levelo://app?vid=ea79b829-1cf6-46a7-8302-4db9118220a2","ios":"levelo://app?vid=ea79b829-1cf6-46a7-8302-4db9118220a2"},"vehicle_type_id":"4","last_reported":1728623348,"current_range_meters":31200,"station_id":"ce4bgup2rcd13ifvqcn0","pricing_plan_id":"cebpf4jnsgd1na2vs0mg"},{"bike_id":"c6e4be16-a3e8-4162-8d05-00b50129be60","system_id":"levelo_inurba_marseille","lat":43.29257,"lon":5.40902,"is_reserved":false,"is_disabled":false,"rental_uris":{"android":"levelo://app?vid=c6e4be16-a3e8-4162-8d05-00b50129be60","ios":"levelo://app?vid=c6e4be16-a3e8-4162-8d05-00b50129be60"},"vehicle_type_id":"4","last_reported":1728623348,"current_range_meters":32400,"station_id":"ce4bh192rcd13ifvqdc0","pricing_plan_id":"cebpf4jnsgd1na2vs0mg"},{"bike_id":"5a5649e8-a9bc-4d0f-be41-ed6fc56a9baf","system_id":"levelo_inurba_marseille","lat":43.22925,"lon":5.35374,"is_reserved":false,"is_disabled":false,"rental_uris":{"android":"levelo://app?vid=5a5649e8-a9bc-4d0f-be41-ed6fc56a9baf","ios":"levelo://app?vid=5a5649e8-a9bc-4d0f-be41-ed6fc56a9baf"},"vehicle_type_id":"4","last_reported":1728623348,"current_range_meters":38000,"station_id":"cpo3532slgdg3j2ikp40","pricing_plan_id":"cebpf4jnsgd1na2vs0mg"},{"bike_id":"53a77182-b6c8-45e1-91b6-d053dcf854af","system_id":"levelo_inurba_marseille","lat":43.27181,"lon":5.409884,"is_reserved":false,"is_disabled":false,"rental_uris":{"android":"levelo://app?vid=53a77182-b6c8-45e1-91b6-d053dcf854af","ios":"levelo://app?vid=53a77182-b6c8-45e1-91b6-d053dcf854af"},"vehicle_type_id":"4","last_reported":1728623348,"current_range_meters":34000,"station_id":"ce4bhl12rcd13ifvqgf0","pricing_plan_id":"cebpf4jnsgd1na2vs0mg"},{"bike_id":"104dce3b-2862-44f7-bb64-f1cb1800c635","system_id":"levelo_inurba_marseille","lat":43.33602,"lon":5.41019,"is_reserved":false,"is_disabled":false,"rental_uris":{"android":"levelo://app?vid=104dce3b-2862-44f7-bb64-f1cb1800c635","ios":"levelo://app?vid=104dce3b-2862-44f7-bb64-f1cb1800c635"},"vehicle_type_id":"4","last_reported":1728623348,"current_range_meters":39200,"station_id":"ce4bhqh2rcd13ifvqhmg","pricing_plan_id":"cebpf4jnsgd1na2vs0mg"},{"bike_id":"68c7956f-83fd-4f98-a323-93b877a62036","system_id":"levelo_inurba_marseille","lat":43.29688,"lon":5.37292,"is_reserved":false,"is_disabled":false,"rental_uris":{"android":"levelo://app?vid=68c7956f-83fd-4f98-a323-93b877a62036","ios":"levelo://app?vid=68c7956f-83fd-4f98-a323-93b877a62036"},"vehicle_type_id":"4","last_reported":1728623348,"current_range_meters":37600,"station_id":"ce4bgk12rcd13ifvqbj0","pricing_plan_id":"cebpf4jnsgd1na2vs0mg"},{"bike_id":"52ba39b7-b52f-491a-ba65-25e180de383f","system_id":"levelo_inurba_marseille","lat":43.27816,"lon":5.40719,"is_reserved":false,"is_disabled":false,"rental_uris":{"android":"levelo://app?vid=52ba39b7-b52f-491a-ba65-25e180de383f","ios":"levelo://app?vid=52ba39b7-b52f-491a-ba65-25e180de383f"},"vehicle_type_id":"4","last_reported":1728623348,"current_range_meters":36400,"station_id":"ce4bhnh2rcd13ifvqgtg","pricing_plan_id":"cebpf4jnsgd1na2vs0mg"},{"bike_id":"1934428b-beb7-432a-84fb-15a05123ba36","system_id":"levelo_inurba_marseille","lat":43.27559,"lon":5.38431,"is_reserved":false,"is_disabled":false,"rental_uris":{"android":"levelo://app?vid=1934428b-beb7-432a-84fb-15a05123ba36","ios":"levelo://app?vid=1934428b-beb7-432a-84fb-15a05123ba36"},"vehicle_type_id":"4","last_reported":1728623348,"current_range_meters":36400,"station_id":"ce4bhh92rcd13ifvqfi0","pricing_plan_id":"cebpf4jnsgd1na2vs0mg"},{"bike_id":"a5324fa6-e09d-4631-b8d0-c153c1f4c657","system_id":"levelo_inurba_marseille","lat":43.26558,"lon":5.37291,"is_reserved":false,"is_disabled":false,"rental_uris":{"android":"levelo://app?vid=a5324fa6-e09d-4631-b8d0-c153c1f4c657","ios":"levelo://app?vid=a5324fa6-e09d-4631-b8d0-c153c1f4c657"},"vehicle_type_id":"4","last_reported":1728623348,"current_range_meters":38800,"station_id":"ce4bhg12rcd13ifvqf70","pricing_plan_id":"cebpf4jnsgd1na2vs0mg"},{"bike_id":"df97f6ce-50ef-4e46-9e5e-930330d7e696","system_id":"levelo_inurba_marseille","lat":43.2593,"lon":5.40907,"is_reserved":false,"is_disabled":false,"rental_uris":{"android":"levelo://app?vid=df97f6ce-50ef-4e46-9e5e-930330d7e696","ios":"levelo://app?vid=df97f6ce-50ef-4e46-9e5e-930330d7e696"},"vehicle_type_id":"4","last_reported":1728623348,"current_range_meters":17200,"station_id":"ce4bhm92rcd13ifvqglg","pricing_plan_id":"cebpf4jnsgd1na2vs0mg"},{"bike_id":"5bbb0da7-9b8c-4beb-9662-09d71d1da93f","system_id":"levelo_inurba_marseille","lat":43.32366,"lon":5.38885,"is_reserved":false,"is_disabled":false,"rental_uris":{"android":"levelo://app?vid=5bbb0da7-9b8c-4beb-9662-09d71d1da93f","ios":"levelo://app?vid=5bbb0da7-9b8c-4beb-9662-09d71d1da93f"},"vehicle_type_id":"4","last_reported":1728623348,"current_range_meters":34800,"station_id":"ce4bhqp2rcd13ifvqhog","pricing_plan_id":"cebpf4jnsgd1na2vs0mg"},{"bike_id":"f02f7de8-46fc-456a-a316-ca30edbfa7e9","system_id":"levelo_inurba_marseille","lat":43.25577,"lon":5.38239,"is_reserved":false,"is_disabled":false,"rental_uris":{"android":"levelo://app?vid=f02f7de8-46fc-456a-a316-ca30edbfa7e9","ios":"levelo://app?vid=f02f7de8-46fc-456a-a316-ca30edbfa7e9"},"vehicle_type_id":"4","last_reported":1728623348,"current_range_meters":38800,"station_id":"ce4bhih2rcd13ifvqfs0","pricing_plan_id":"cebpf4jnsgd1na2vs0mg"},{"bike_id":"398993b1-56d1-4bd2-96f0-6078dceddf08","system_id":"levelo_inurba_marseille","lat":43.315329,"lon":5.380261,"is_reserved":false,"is_disabled":false,"rental_uris":{"android":"levelo://app?vid=398993b1-56d1-4bd2-96f0-6078dceddf08","ios":"levelo://app?vid=398993b1-56d1-4bd2-96f0-6078dceddf08"},"vehicle_type_id":"4","last_reported":1728623348,"current_range_meters":38800,"station_id":"ce4bhsp2rcd13ifvqi50","pricing_plan_id":"cebpf4jnsgd1na2vs0mg"},{"bike_id":"b0181738-8ef1-413b-a470-eae3f24eeaec","system_id":"levelo_inurba_marseille","lat":43.28706,"lon":5.39977,"is_reserved":false,"is_disabled":false,"rental_uris":{"android":"levelo://app?vid=b0181738-8ef1-413b-a470-eae3f24eeaec","ios":"levelo://app?vid=b0181738-8ef1-413b-a470-eae3f24eeaec"},"vehicle_type_id":"4","last_reported":1728623348,"current_range_meters":38800,"station_id":"ce4bho92rcd13ifvqh3g","pricing_plan_id":"cebpf4jnsgd1na2vs0mg"},{"bike_id":"8fb2b431-bcb9-46ba-80fb-e26e84592fc5","system_id":"levelo_inurba_marseille","lat":43.23188,"lon":5.35556,"is_reserved":false,"is_disabled":false,"rental_uris":{"android":"levelo://app?vid=8fb2b431-bcb9-46ba-80fb-e26e84592fc5","ios":"levelo://app?vid=8fb2b431-bcb9-46ba-80fb-e26e84592fc5"},"vehicle_type_id":"4","last_reported":1728623348,"current_range_meters":37600,"station_id":"ce4bhu92rcd13ifvqi70","pricing_plan_id":"cebpf4jnsgd1na2vs0mg"},{"bike_id":"3eb53be9-b3c7-4330-a83a-a5ce059efb7f","system_id":"levelo_inurba_marseille","lat":43.24387,"lon":5.3706,"is_reserved":false,"is_disabled":false,"rental_uris":{"android":"levelo://app?vid=3eb53be9-b3c7-4330-a83a-a5ce059efb7f","ios":"levelo://app?vid=3eb53be9-b3c7-4330-a83a-a5ce059efb7f"},"vehicle_type_id":"4","last_reported":1728623348,"current_range_meters":37600,"station_id":"ce4bhhh2rcd13ifvqfk0","pricing_plan_id":"cebpf4jnsgd1na2vs0mg"},{"bike_id":"d076a3aa-8e43-42ef-9e17-f93bc5a7bc04","system_id":"levelo_inurba_marseille","lat":43.28412,"lon":5.37511,"is_reserved":false,"is_disabled":false,"rental_uris":{"android":"levelo://app?vid=d076a3aa-8e43-42ef-9e17-f93bc5a7bc04","ios":"levelo://app?vid=d076a3aa-8e43-42ef-9e17-f93bc5a7bc04"},"vehicle_type_id":"4","last_reported":1728623348,"current_range_meters":20000,"station_id":"ce4bh412rcd13ifvqds0","pricing_plan_id":"cebpf4jnsgd1na2vs0mg"},{"bike_id":"be14a05c-f27f-43d8-bf1e-47584df51b1d","system_id":"levelo_inurba_marseille","lat":43.29628,"lon":5.40598,"is_reserved":false,"is_disabled":false,"rental_uris":{"android":"levelo://app?vid=be14a05c-f27f-43d8-bf1e-47584df51b1d","ios":"levelo://app?vid=be14a05c-f27f-43d8-bf1e-47584df51b1d"},"vehicle_type_id":"4","last_reported":1728623348,"current_range_meters":25600,"station_id":"ce4bh0h2rcd13ifvqd60","pricing_plan_id":"cebpf4jnsgd1na2vs0mg"},{"bike_id":"5cd8efdd-df7e-4ad5-a19f-dcb92828f82d","system_id":"levelo_inurba_marseille","lat":43.30134,"lon":5.39852,"is_reserved":false,"is_disabled":false,"rental_uris":{"android":"levelo://app?vid=5cd8efdd-df7e-4ad5-a19f-dcb92828f82d","ios":"levelo://app?vid=5cd8efdd-df7e-4ad5-a19f-dcb92828f82d"},"vehicle_type_id":"4","last_reported":1728623348,"current_range_meters":37600,"station_id":"ce4bh0h2rcd13ifvqd40","pricing_plan_id":"cebpf4jnsgd1na2vs0mg"},{"bike_id":"79474901-22e5-4baa-b70c-b0468ab55ada","system_id":"levelo_inurba_marseille","lat":43.31704,"lon":5.37749,"is_reserved":false,"is_disabled":false,"rental_uris":{"android":"levelo://app?vid=79474901-22e5-4baa-b70c-b0468ab55ada","ios":"levelo://app?vid=79474901-22e5-4baa-b70c-b0468ab55ada"},"vehicle_type_id":"4","last_reported":1728623348,"current_range_meters":37600,"station_id":"ce4bgth2rcd13ifvqch0","pricing_plan_id":"cebpf4jnsgd1na2vs0mg"},{"bike_id":"e7118a07-833e-475c-aa14-11a81d1ba779","system_id":"levelo_inurba_marseille","lat":43.30784,"lon":5.3764,"is_reserved":false,"is_disabled":false,"rental_uris":{"android":"levelo://app?vid=e7118a07-833e-475c-aa14-11a81d1ba779","ios":"levelo://app?vid=e7118a07-833e-475c-aa14-11a81d1ba779"},"vehicle_type_id":"4","last_reported":1728623348,"current_range_meters":12400,"station_id":"ce4bgv92rcd13ifvqcq0","pricing_plan_id":"cebpf4jnsgd1na2vs0mg"},{"bike_id":"47e58452-78e8-4b80-bd1b-533509c8cfcd","system_id":"levelo_inurba_marseille","lat":43.25936,"lon":5.40913,"is_reserved":false,"is_disabled":false,"rental_uris":{"android":"levelo://app?vid=47e58452-78e8-4b80-bd1b-533509c8cfcd","ios":"levelo://app?vid=47e58452-78e8-4b80-bd1b-533509c8cfcd"},"vehicle_type_id":"4","last_reported":1728623348,"current_range_meters":8400,"station_id":"ce4bhm92rcd13ifvqglg","pricing_plan_id":"cebpf4jnsgd1na2vs0mg"},{"bike_id":"22b6e5c6-a395-4295-9ac6-ea05ca1fa25b","system_id":"levelo_inurba_marseille","lat":43.28693,"lon":5.38697,"is_reserved":false,"is_disabled":false,"rental_uris":{"android":"levelo://app?vid=22b6e5c6-a395-4295-9ac6-ea05ca1fa25b","ios":"levelo://app?vid=22b6e5c6-a395-4295-9ac6-ea05ca1fa25b"},"vehicle_type_id":"4","last_reported":1728623348,"current_range_meters":38800,"station_id":"ce4bh492rcd13ifvqdug","pricing_plan_id":"cebpf4jnsgd1na2vs0mg"},{"bike_id":"8c0a009f-3322-4feb-ad97-8cd2efc8b053","system_id":"levelo_inurba_marseille","lat":43.27436,"lon":5.39407,"is_reserved":false,"is_disabled":false,"rental_uris":{"android":"levelo://app?vid=8c0a009f-3322-4feb-ad97-8cd2efc8b053","ios":"levelo://app?vid=8c0a009f-3322-4feb-ad97-8cd2efc8b053"},"vehicle_type_id":"4","last_reported":1728623348,"current_range_meters":37600,"station_id":"ce4bhdp2rcd13ifvqf20","pricing_plan_id":"cebpf4jnsgd1na2vs0mg"},{"bike_id":"2e57e480-a324-489b-8946-f7d9d9edcf00","system_id":"levelo_inurba_marseille","lat":43.336075,"lon":5.41024,"is_reserved":false,"is_disabled":false,"rental_uris":{"android":"levelo://app?vid=2e57e480-a324-489b-8946-f7d9d9edcf00","ios":"levelo://app?vid=2e57e480-a324-489b-8946-f7d9d9edcf00"},"vehicle_type_id":"4","last_reported":1728623348,"current_range_meters":38800,"station_id":"ce4bhqh2rcd13ifvqhmg","pricing_plan_id":"cebpf4jnsgd1na2vs0mg"},{"bike_id":"d7904d32-0362-484b-a63a-cf15dc9c6117","system_id":"levelo_inurba_marseille","lat":43.28208,"lon":5.37896,"is_reserved":false,"is_disabled":false,"rental_uris":{"android":"levelo://app?vid=d7904d32-0362-484b-a63a-cf15dc9c6117","ios":"levelo://app?vid=d7904d32-0362-484b-a63a-cf15dc9c6117"},"vehicle_type_id":"4","last_reported":1728623348,"current_range_meters":3600,"station_id":"","pricing_plan_id":"cebpf4jnsgd1na2vs0mg"},{"bike_id":"bda3fe94-6c86-4ae7-a299-1014f0b7764b","system_id":"levelo_inurba_marseille","lat":43.28041,"lon":5.3695,"is_reserved":false,"is_disabled":false,"rental_uris":{"android":"levelo://app?vid=bda3fe94-6c86-4ae7-a299-1014f0b7764b","ios":"levelo://app?vid=bda3fe94-6c86-4ae7-a299-1014f0b7764b"},"vehicle_type_id":"4","last_reported":1728623348,"current_range_meters":38800,"station_id":"ce4bha12rcd13ifvqef0","pricing_plan_id":"cebpf4jnsgd1na2vs0mg"},{"bike_id":"4e6a08ae-9e79-48c6-89f4-c318fef764a9","system_id":"levelo_inurba_marseille","lat":43.32,"lon":5.38151,"is_reserved":false,"is_disabled":false,"rental_uris":{"android":"levelo://app?vid=4e6a08ae-9e79-48c6-89f4-c318fef764a9","ios":"levelo://app?vid=4e6a08ae-9e79-48c6-89f4-c318fef764a9"},"vehicle_type_id":"4","last_reported":1728623348,"current_range_meters":37600,"station_id":"ce4bhr12rcd13ifvqhpg","pricing_plan_id":"cebpf4jnsgd1na2vs0mg"},{"bike_id":"bb693aec-e596-4cbe-9107-6a4434cbe1c6","system_id":"levelo_inurba_marseille","lat":43.28573,"lon":5.39486,"is_reserved":false,"is_disabled":false,"rental_uris":{"android":"levelo://app?vid=bb693aec-e596-4cbe-9107-6a4434cbe1c6","ios":"levelo://app?vid=bb693aec-e596-4cbe-9107-6a4434cbe1c6"},"vehicle_type_id":"4","last_reported":1728623348,"current_range_meters":38800,"station_id":"ce4bh292rcd13ifvqdg0","pricing_plan_id":"cebpf4jnsgd1na2vs0mg"},{"bike_id":"5ec24874-40d5-40f7-ba88-9ba229ae54d7","system_id":"levelo_inurba_marseille","lat":43.24654,"lon":5.38895,"is_reserved":false,"is_disabled":false,"rental_uris":{"android":"levelo://app?vid=5ec24874-40d5-40f7-ba88-9ba229ae54d7","ios":"levelo://app?vid=5ec24874-40d5-40f7-ba88-9ba229ae54d7"},"vehicle_type_id":"4","last_reported":1728623348,"current_range_meters":21600,"station_id":"ce4bhg12rcd13ifvqf60","pricing_plan_id":"cebpf4jnsgd1na2vs0mg"},{"bike_id":"ead90337-bd04-4723-84d7-3c938f85e2b4","system_id":"levelo_inurba_marseille","lat":43.2886,"lon":5.39326,"is_reserved":false,"is_disabled":false,"rental_uris":{"android":"levelo://app?vid=ead90337-bd04-4723-84d7-3c938f85e2b4","ios":"levelo://app?vid=ead90337-bd04-4723-84d7-3c938f85e2b4"},"vehicle_type_id":"4","last_reported":1728623348,"current_range_meters":38800,"station_id":"ce4bh2p2rcd13ifvqdi0","pricing_plan_id":"cebpf4jnsgd1na2vs0mg"},{"bike_id":"0771153f-572f-4a45-9ef2-28d46ed68b4d","system_id":"levelo_inurba_marseille","lat":43.30154,"lon":5.38074,"is_reserved":false,"is_disabled":false,"rental_uris":{"android":"levelo://app?vid=0771153f-572f-4a45-9ef2-28d46ed68b4d","ios":"levelo://app?vid=0771153f-572f-4a45-9ef2-28d46ed68b4d"},"vehicle_type_id":"4","last_reported":1728623348,"current_range_meters":7200,"station_id":"ce4bgjp2rcd13ifvqbh0","pricing_plan_id":"cebpf4jnsgd1na2vs0mg"},{"bike_id":"ca64bf90-0b3e-42e7-bda6-de4c91fcc4e7","system_id":"levelo_inurba_marseille","lat":43.28671,"lon":5.36353,"is_reserved":false,"is_disabled":false,"rental_uris":{"android":"levelo://app?vid=ca64bf90-0b3e-42e7-bda6-de4c91fcc4e7","ios":"levelo://app?vid=ca64bf90-0b3e-42e7-bda6-de4c91fcc4e7"},"vehicle_type_id":"4","last_reported":1728623348,"current_range_meters":38800,"station_id":"ce4bhah2rcd13ifvqej0","pricing_plan_id":"cebpf4jnsgd1na2vs0mg"},{"bike_id":"412929a4-dd66-4038-99ab-5ee5129f8e9e","system_id":"levelo_inurba_marseille","lat":43.28263,"lon":5.35069,"is_reserved":false,"is_disabled":false,"rental_uris":{"android":"levelo://app?vid=412929a4-dd66-4038-99ab-5ee5129f8e9e","ios":"levelo://app?vid=412929a4-dd66-4038-99ab-5ee5129f8e9e"},"vehicle_type_id":"4","last_reported":1728623348,"current_range_meters":24400,"station_id":"ce4bhbp2rcd13ifvqerg","pricing_plan_id":"cebpf4jnsgd1na2vs0mg"},{"bike_id":"a8f0bfa5-7bc9-40e4-a9a2-5a1a8ec5daab","system_id":"levelo_inurba_marseille","lat":43.27977,"lon":5.38741,"is_reserved":false,"is_disabled":false,"rental_uris":{"android":"levelo://app?vid=a8f0bfa5-7bc9-40e4-a9a2-5a1a8ec5daab","ios":"levelo://app?vid=a8f0bfa5-7bc9-40e4-a9a2-5a1a8ec5daab"},"vehicle_type_id":"4","last_reported":1728623348,"current_range_meters":38800,"station_id":"ce4bhg12rcd13ifvqf80","pricing_plan_id":"cebpf4jnsgd1na2vs0mg"},{"bike_id":"b39e488c-2d80-4a04-8857-c37880bcf1aa","system_id":"levelo_inurba_marseille","lat":43.28575,"lon":5.39518,"is_reserved":false,"is_disabled":false,"rental_uris":{"android":"levelo://app?vid=b39e488c-2d80-4a04-8857-c37880bcf1aa","ios":"levelo://app?vid=b39e488c-2d80-4a04-8857-c37880bcf1aa"},"vehicle_type_id":"4","last_reported":1728623348,"current_range_meters":13600,"station_id":"ce4bh292rcd13ifvqdg0","pricing_plan_id":"cebpf4jnsgd1na2vs0mg"},{"bike_id":"2022e398-5192-4e95-8da3-7d3bb870d11f","system_id":"levelo_inurba_marseille","lat":43.31997,"lon":5.38151,"is_reserved":false,"is_disabled":false,"rental_uris":{"android":"levelo://app?vid=2022e398-5192-4e95-8da3-7d3bb870d11f","ios":"levelo://app?vid=2022e398-5192-4e95-8da3-7d3bb870d11f"},"vehicle_type_id":"4","last_reported":1728623348,"current_range_meters":25200,"station_id":"ce4bhr12rcd13ifvqhpg","pricing_plan_id":"cebpf4jnsgd1na2vs0mg"},{"bike_id":"9f830b46-6305-4180-8424-2d6cdbb5a824","system_id":"levelo_inurba_marseille","lat":43.30422,"lon":5.41276,"is_reserved":false,"is_disabled":false,"rental_uris":{"android":"levelo://app?vid=9f830b46-6305-4180-8424-2d6cdbb5a824","ios":"levelo://app?vid=9f830b46-6305-4180-8424-2d6cdbb5a824"},"vehicle_type_id":"4","last_reported":1728623348,"current_range_meters":39200,"station_id":"ce4bhop2rcd13ifvqh8g","pricing_plan_id":"cebpf4jnsgd1na2vs0mg"},{"bike_id":"45951ec6-b208-4746-97cf-266357b7eecc","system_id":"levelo_inurba_marseille","lat":43.27671,"lon":5.38906,"is_reserved":false,"is_disabled":false,"rental_uris":{"android":"levelo://app?vid=45951ec6-b208-4746-97cf-266357b7eecc","ios":"levelo://app?vid=45951ec6-b208-4746-97cf-266357b7eecc"},"vehicle_type_id":"4","last_reported":1728623348,"current_range_meters":38800,"station_id":"ce4bhi12rcd13ifvqfo0","pricing_plan_id":"cebpf4jnsgd1na2vs0mg"},{"bike_id":"a15f987e-75ac-4037-a5ac-a8044015261e","system_id":"levelo_inurba_marseille","lat":43.30472,"lon":5.37907,"is_reserved":false,"is_disabled":false,"rental_uris":{"android":"levelo://app?vid=a15f987e-75ac-4037-a5ac-a8044015261e","ios":"levelo://app?vid=a15f987e-75ac-4037-a5ac-a8044015261e"},"vehicle_type_id":"4","last_reported":1728623348,"current_range_meters":24800,"station_id":"ce4bgup2rcd13ifvqcn0","pricing_plan_id":"cebpf4jnsgd1na2vs0mg"},{"bike_id":"4c544da2-9a34-4868-b837-6a9c52b04ce2","system_id":"levelo_inurba_marseille","lat":43.304613,"lon":5.379103,"is_reserved":false,"is_disabled":false,"rental_uris":{"android":"levelo://app?vid=4c544da2-9a34-4868-b837-6a9c52b04ce2","ios":"levelo://app?vid=4c544da2-9a34-4868-b837-6a9c52b04ce2"},"vehicle_type_id":"4","last_reported":1728623348,"current_range_meters":28400,"station_id":"ce4bgh92rcd13ifvqb50","pricing_plan_id":"cebpf4jnsgd1na2vs0mg"},{"bike_id":"e67cbedd-a992-4441-b376-acc425e0d4c2","system_id":"levelo_inurba_marseille","lat":43.25867,"lon":5.39906,"is_reserved":false,"is_disabled":false,"rental_uris":{"android":"levelo://app?vid=e67cbedd-a992-4441-b376-acc425e0d4c2","ios":"levelo://app?vid=e67cbedd-a992-4441-b376-acc425e0d4c2"},"vehicle_type_id":"4","last_reported":1728623348,"current_range_meters":19600,"station_id":"ce4bhl92rcd13ifvqghg","pricing_plan_id":"cebpf4jnsgd1na2vs0mg"},{"bike_id":"27482599-6ac1-4451-896d-9d27077a44e3","system_id":"levelo_inurba_marseille","lat":43.26028,"lon":5.3755,"is_reserved":false,"is_disabled":false,"rental_uris":{"android":"levelo://app?vid=27482599-6ac1-4451-896d-9d27077a44e3","ios":"levelo://app?vid=27482599-6ac1-4451-896d-9d27077a44e3"},"vehicle_type_id":"4","last_reported":1728623348,"current_range_meters":30000,"station_id":"ce4bhgh2rcd13ifvqfa0","pricing_plan_id":"cebpf4jnsgd1na2vs0mg"},{"bike_id":"aa75c41c-1391-4d5a-b0ad-fb29c317877d","system_id":"levelo_inurba_marseille","lat":43.23071,"lon":5.35495,"is_reserved":false,"is_disabled":false,"rental_uris":{"android":"levelo://app?vid=aa75c41c-1391-4d5a-b0ad-fb29c317877d","ios":"levelo://app?vid=aa75c41c-1391-4d5a-b0ad-fb29c317877d"},"vehicle_type_id":"4","last_reported":1728623348,"current_range_meters":8000,"station_id":"cpo3342slgdg3j2ifvpg","pricing_plan_id":"cebpf4jnsgd1na2vs0mg"},{"bike_id":"773b10cd-4140-4e1a-af4b-72bc0c858471","system_id":"levelo_inurba_marseille","lat":43.31355,"lon":5.36713,"is_reserved":false,"is_disabled":false,"rental_uris":{"android":"levelo://app?vid=773b10cd-4140-4e1a-af4b-72bc0c858471","ios":"levelo://app?vid=773b10cd-4140-4e1a-af4b-72bc0c858471"},"vehicle_type_id":"4","last_reported":1728623348,"current_range_meters":37600,"station_id":"ce4bgr92rcd13ifvqc6g","pricing_plan_id":"cebpf4jnsgd1na2vs0mg"},{"bike_id":"90117fd3-1adf-4731-8016-311f1de8357d","system_id":"levelo_inurba_marseille","lat":43.27682,"lon":5.38876,"is_reserved":false,"is_disabled":false,"rental_uris":{"android":"levelo://app?vid=90117fd3-1adf-4731-8016-311f1de8357d","ios":"levelo://app?vid=90117fd3-1adf-4731-8016-311f1de8357d"},"vehicle_type_id":"4","last_reported":1728623348,"current_range_meters":38400,"station_id":"ce4bhi12rcd13ifvqfo0","pricing_plan_id":"cebpf4jnsgd1na2vs0mg"},{"bike_id":"a6144df5-4781-4c25-be51-b8e6ae72ebc8","system_id":"levelo_inurba_marseille","lat":43.30468,"lon":5.37905,"is_reserved":false,"is_disabled":false,"rental_uris":{"android":"levelo://app?vid=a6144df5-4781-4c25-be51-b8e6ae72ebc8","ios":"levelo://app?vid=a6144df5-4781-4c25-be51-b8e6ae72ebc8"},"vehicle_type_id":"4","last_reported":1728623348,"current_range_meters":15200,"station_id":"ce4bgup2rcd13ifvqcn0","pricing_plan_id":"cebpf4jnsgd1na2vs0mg"},{"bike_id":"8db117d4-2b61-4d71-8f89-5a2e951e71cb","system_id":"levelo_inurba_marseille","lat":43.26807,"lon":5.40266,"is_reserved":false,"is_disabled":false,"rental_uris":{"android":"levelo://app?vid=8db117d4-2b61-4d71-8f89-5a2e951e71cb","ios":"levelo://app?vid=8db117d4-2b61-4d71-8f89-5a2e951e71cb"},"vehicle_type_id":"4","last_reported":1728623348,"current_range_meters":4000,"station_id":"ce501612rcd8frsf0b60","pricing_plan_id":"cebpf4jnsgd1na2vs0mg"},{"bike_id":"75f1fd93-3fd8-468d-8eee-6eb32bebf085","system_id":"levelo_inurba_marseille","lat":43.28445,"lon":5.39189,"is_reserved":false,"is_disabled":false,"rental_uris":{"android":"levelo://app?vid=75f1fd93-3fd8-468d-8eee-6eb32bebf085","ios":"levelo://app?vid=75f1fd93-3fd8-468d-8eee-6eb32bebf085"},"vehicle_type_id":"4","last_reported":1728623348,"current_range_meters":36400,"station_id":"ce4bhoh2rcd13ifvqh5g","pricing_plan_id":"cebpf4jnsgd1na2vs0mg"},{"bike_id":"4121bd79-c8af-44a3-8797-db6f961103cf","system_id":"levelo_inurba_marseille","lat":43.29561,"lon":5.39648,"is_reserved":false,"is_disabled":false,"rental_uris":{"android":"levelo://app?vid=4121bd79-c8af-44a3-8797-db6f961103cf","ios":"levelo://app?vid=4121bd79-c8af-44a3-8797-db6f961103cf"},"vehicle_type_id":"4","last_reported":1728623348,"current_range_meters":33600,"station_id":"","pricing_plan_id":"cebpf4jnsgd1na2vs0mg"},{"bike_id":"f724ee69-c9ae-4fb6-bfa9-7e350f159353","system_id":"levelo_inurba_marseille","lat":43.31186,"lon":5.38707,"is_reserved":false,"is_disabled":false,"rental_uris":{"android":"levelo://app?vid=f724ee69-c9ae-4fb6-bfa9-7e350f159353","ios":"levelo://app?vid=f724ee69-c9ae-4fb6-bfa9-7e350f159353"},"vehicle_type_id":"4","last_reported":1728623348,"current_range_meters":36000,"station_id":"ce4bgv12rcd13ifvqcp0","pricing_plan_id":"cebpf4jnsgd1na2vs0mg"},{"bike_id":"d9849edc-abaa-432a-a1f1-9573c2211b86","system_id":"levelo_inurba_marseille","lat":43.28846,"lon":5.35853,"is_reserved":false,"is_disabled":false,"rental_uris":{"android":"levelo://app?vid=d9849edc-abaa-432a-a1f1-9573c2211b86","ios":"levelo://app?vid=d9849edc-abaa-432a-a1f1-9573c2211b86"},"vehicle_type_id":"4","last_reported":1728623348,"current_range_meters":30000,"station_id":"ce4bhb12rcd13ifvqem0","pricing_plan_id":"cebpf4jnsgd1na2vs0mg"},{"bike_id":"d4e7c199-5b07-4cc4-b4e1-e0fc91d98728","system_id":"levelo_inurba_marseille","lat":43.25578,"lon":5.38238,"is_reserved":false,"is_disabled":false,"rental_uris":{"android":"levelo://app?vid=d4e7c199-5b07-4cc4-b4e1-e0fc91d98728","ios":"levelo://app?vid=d4e7c199-5b07-4cc4-b4e1-e0fc91d98728"},"vehicle_type_id":"4","last_reported":1728623348,"current_range_meters":38400,"station_id":"ce4bhih2rcd13ifvqfs0","pricing_plan_id":"cebpf4jnsgd1na2vs0mg"},{"bike_id":"b1009450-6152-462c-a724-90df51eeb6db","system_id":"levelo_inurba_marseille","lat":43.32382,"lon":5.38917,"is_reserved":false,"is_disabled":false,"rental_uris":{"android":"levelo://app?vid=b1009450-6152-462c-a724-90df51eeb6db","ios":"levelo://app?vid=b1009450-6152-462c-a724-90df51eeb6db"},"vehicle_type_id":"4","last_reported":1728623348,"current_range_meters":7200,"station_id":"ce4bhqp2rcd13ifvqhog","pricing_plan_id":"cebpf4jnsgd1na2vs0mg"},{"bike_id":"2e20d9de-f8bc-4878-a304-f91123c94a74","system_id":"levelo_inurba_marseille","lat":43.29269,"lon":5.40127,"is_reserved":false,"is_disabled":false,"rental_uris":{"android":"levelo://app?vid=2e20d9de-f8bc-4878-a304-f91123c94a74","ios":"levelo://app?vid=2e20d9de-f8bc-4878-a304-f91123c94a74"},"vehicle_type_id":"4","last_reported":1728623348,"current_range_meters":38000,"station_id":"ce4bh312rcd13ifvqdk0","pricing_plan_id":"cebpf4jnsgd1na2vs0mg"},{"bike_id":"3f01c5fb-5e79-4bff-b6b6-40416377607d","system_id":"levelo_inurba_marseille","lat":43.31498,"lon":5.37311,"is_reserved":false,"is_disabled":false,"rental_uris":{"android":"levelo://app?vid=3f01c5fb-5e79-4bff-b6b6-40416377607d","ios":"levelo://app?vid=3f01c5fb-5e79-4bff-b6b6-40416377607d"},"vehicle_type_id":"4","last_reported":1728623348,"current_range_meters":35600,"station_id":"ce4bgt12rcd13ifvqcd0","pricing_plan_id":"cebpf4jnsgd1na2vs0mg"},{"bike_id":"d49254ea-353c-454e-8e6a-d7c994c807f1","system_id":"levelo_inurba_marseille","lat":43.308945,"lon":5.39661,"is_reserved":false,"is_disabled":false,"rental_uris":{"android":"levelo://app?vid=d49254ea-353c-454e-8e6a-d7c994c807f1","ios":"levelo://app?vid=d49254ea-353c-454e-8e6a-d7c994c807f1"},"vehicle_type_id":"4","last_reported":1728623348,"current_range_meters":19200,"station_id":"ce4bh012rcd13ifvqcv0","pricing_plan_id":"cebpf4jnsgd1na2vs0mg"},{"bike_id":"c4b93dc9-7c4f-495a-b230-86ef5f878385","system_id":"levelo_inurba_marseille","lat":43.31271,"lon":5.40181,"is_reserved":false,"is_disabled":false,"rental_uris":{"android":"levelo://app?vid=c4b93dc9-7c4f-495a-b230-86ef5f878385","ios":"levelo://app?vid=c4b93dc9-7c4f-495a-b230-86ef5f878385"},"vehicle_type_id":"4","last_reported":1728623348,"current_range_meters":28400,"station_id":"ce4bh092rcd13ifvqd30","pricing_plan_id":"cebpf4jnsgd1na2vs0mg"},{"bike_id":"552e6d41-358a-4502-944b-7d3a2dc8250a","system_id":"levelo_inurba_marseille","lat":43.29959,"lon":5.41319,"is_reserved":false,"is_disabled":false,"rental_uris":{"android":"levelo://app?vid=552e6d41-358a-4502-944b-7d3a2dc8250a","ios":"levelo://app?vid=552e6d41-358a-4502-944b-7d3a2dc8250a"},"vehicle_type_id":"4","last_reported":1728623348,"current_range_meters":39200,"station_id":"ce4bhp12rcd13ifvqh9g","pricing_plan_id":"cebpf4jnsgd1na2vs0mg"},{"bike_id":"16ccf459-9655-4854-99c8-44fccb1e721b","system_id":"levelo_inurba_marseille","lat":43.29802,"lon":5.40414,"is_reserved":false,"is_disabled":false,"rental_uris":{"android":"levelo://app?vid=16ccf459-9655-4854-99c8-44fccb1e721b","ios":"levelo://app?vid=16ccf459-9655-4854-99c8-44fccb1e721b"},"vehicle_type_id":"4","last_reported":1728623348,"current_range_meters":8000,"station_id":"ce4bh112rcd13ifvqd90","pricing_plan_id":"cebpf4jnsgd1na2vs0mg"},{"bike_id":"a8fdaa6f-d5fc-4697-a31e-5f4a442ecf97","system_id":"levelo_inurba_marseille","lat":43.29029,"lon":5.37542,"is_reserved":false,"is_disabled":false,"rental_uris":{"android":"levelo://app?vid=a8fdaa6f-d5fc-4697-a31e-5f4a442ecf97","ios":"levelo://app?vid=a8fdaa6f-d5fc-4697-a31e-5f4a442ecf97"},"vehicle_type_id":"4","last_reported":1728623348,"current_range_meters":38400,"station_id":"ce4bh692rcd13ifvqe90","pricing_plan_id":"cebpf4jnsgd1na2vs0mg"},{"bike_id":"3a118c4b-fd62-476e-8485-ac2c33d4f61c","system_id":"levelo_inurba_marseille","lat":43.27496,"lon":5.42454,"is_reserved":false,"is_disabled":false,"rental_uris":{"android":"levelo://app?vid=3a118c4b-fd62-476e-8485-ac2c33d4f61c","ios":"levelo://app?vid=3a118c4b-fd62-476e-8485-ac2c33d4f61c"},"vehicle_type_id":"4","last_reported":1728623348,"current_range_meters":38800,"station_id":"ce4bhn92rcd13ifvqgrg","pricing_plan_id":"cebpf4jnsgd1na2vs0mg"},{"bike_id":"3c4b6950-ffb5-4a8f-b25e-7fec20953e13","system_id":"levelo_inurba_marseille","lat":43.27209,"lon":5.39178,"is_reserved":false,"is_disabled":false,"rental_uris":{"android":"levelo://app?vid=3c4b6950-ffb5-4a8f-b25e-7fec20953e13","ios":"levelo://app?vid=3c4b6950-ffb5-4a8f-b25e-7fec20953e13"},"vehicle_type_id":"4","last_reported":1728623348,"current_range_meters":35600,"station_id":"ce4bhhp2rcd13ifvqfm0","pricing_plan_id":"cebpf4jnsgd1na2vs0mg"},