{"last_updated":1750860642,"ttl":60,"version":"2.2","data":{"bikes":[{"bike_id":"3da29fb8-fc97-44c6-b9ac-31dd456b2fd4","system_id":"levelo_inurba_marseille","lat":43.33771,"lon":5.37424,"is_reserved":false,"is_disabled":true,"rental_uris":{"android":"levelo://app?vid=3da29fb8-fc97-44c6-b9ac-31dd456b2fd4","ios":"levelo://app?vid=3da29fb8-fc97-44c6-b9ac-31dd456b2fd4"},"vehicle_type_id":"4","last_reported":1750860643,"current_range_meters":0,"station_id":"","pricing_plan_id":"cebpf4jnsgd1na2vs0mg"},{"bike_id":"01861ad8-a8d7-4be6-816e-651927c87584","system_id":"levelo_inurba_marseille","lat":43.33751,"lon":5.37456,"is_reserved":false,"is_disabled":true,"rental_uris":{"android":"levelo://app?vid=01861ad8-a8d7-4be6-816e-651927c87584","ios":"levelo://app?vid=01861ad8-a8d7-4be6-816e-651927c87584"},"vehicle_type_id":"4","last_reported":1750860643,"current_range_meters":0,"station_id":"","pricing_plan_id":"cebpf4jnsgd1na2vs0mg"},{"bike_id":"8c6de0c1-9eaf-4c18-8155-d956789067ae","system_id":"levelo_inurba_marseille","lat":43.27963,"lon":5.44257,"is_reserved":false,"is_disabled":true,"rental_uris":{"android":"levelo://app?vid=8c6de0c1-9eaf-4c18-8155-d956789067ae","ios":"levelo://app?vid=8c6de0c1-9eaf-4c18-8155-d956789067ae"},"vehicle_type_id":"4","last_reported":1750860643,"current_range_meters":0,"station_id":"","pricing_plan_id":"cebpf4jnsgd1na2vs0mg"},{"bike_id":"01a7b5de-cbb0-45f6-b552-105157f7a511","system_id":"levelo_inurba_marseille","lat":43.23863,"lon":5.43073,"is_reserved":false,"is_disabled":true,"rental_uris":{"android":"levelo://app?vid=01a7b5de-cbb0-45f6-b552-105157f7a511","ios":"levelo://app?vid=01a7b5de-cbb0-45f6-b552-105157f7a511"},"vehicle_type_id":"4","last_reported":1750860643,"current_range_meters":0,"station_id":"","pricing_plan_id":"cebpf4jnsgd1na2vs0mg"},{"bike_id":"f0a1d594-9817-42ab-a8d6-aea4947e8858","system_id":"levelo_inurba_marseille","lat":43.288329,"lon":5.434368,"is_reserved":false,"is_disabled":true,"rental_uris":{"android":"levelo://app?vid=f0a1d594-9817-42ab-a8d6-aea4947e8858","ios":"levelo://app?vid=f0a1d594-9817-42ab-a8d6-aea4947e8858"},"vehicle_type_id":"4","last_reported":1750860643,"current_range_meters":0,"station_id":"","pricing_plan_id":"cebpf4jnsgd1na2vs0mg"},{"bike_id":"62a493c7-4534-4419-ad43-0582de34a72a","system_id":"levelo_inurba_marseille","lat":43.21366,"lon":5.355183,"is_reserved":false,"is_disabled":true,"rental_uris":{"android":"levelo://app?vid=62a493c7-4534-4419-ad43-0582de34a72a","ios":"levelo://app?vid=62a493c7-4534-4419-ad43-0582de34a72a"},"vehicle_type_id":"4","last_reported":1750860643,"current_range_meters":0,"station_id":"","pricing_plan_id":"cebpf4jnsgd1na2vs0mg"},{"bike_id":"85c58f10-925d-4344-b389-09267487a6fc","system_id":"levelo_inurba_marseille","lat":43.21106,"lon":5.41899,"is_reserved":false,"is_disabled":true,"rental_uris":{"android":"levelo://app?vid=85c58f10-925d-4344-b389-09267487a6fc","ios":"levelo://app?vid=85c58f10-925d-4344-b389-09267487a6fc"},"vehicle_type_id":"4","last_reported":1750860643,"current_range_meters":0,"station_id":"","pricing_plan_id":"cebpf4jnsgd1na2vs0mg"},{"bike_id":"a9e5e555-fdaf-49c0-b286-f0f2659b17d0","system_id":"levelo_inurba_marseille","lat":43.28302,"lon":5.43242,"is_reserved":false,"is_disabled":true,"rental_uris":{"android":"levelo://app?vid=a9e5e555-fdaf-49c0-b286-f0f2659b17d0","ios":"levelo://app?vid=a9e5e555-fdaf-49c0-b286-f0f2659b17d0"},"vehicle_type_id":"4","last_reported":1750860643,"current_range_meters":0,"station_id":"","pricing_plan_id":"cebpf4jnsgd1na2vs0mg"},{"bike_id":"139d47bd-ff87-42d8-a4c6-89da4be6f80c","system_id":"levelo_inurba_marseille","lat":43.27947,"lon":5.4423,"is_reserved":false,"is_disabled":true,"rental_uris":{"android":"levelo://app?vid=139d47bd-ff87-42d8-a4c6-89da4be6f80c","ios":"levelo://app?vid=139d47bd-ff87-42d8-a4c6-89da4be6f80c"},"vehicle_type_id":"4","last_reported":1750860643,"current_range_meters":0,"station_id":"","pricing_plan_id":"cebpf4jnsgd1na2vs0mg"},{"bike_id":"a147e67d-e0b1-425e-bbda-ae9524df353e","system_id":"levelo_inurba_marseille","lat":43.337485,"lon":5.374613,"is_reserved":false,"is_disabled":true,"rental_uris":{"android":"levelo://app?vid=a147e67d-e0b1-425e-bbda-ae9524df353e","ios":"levelo://app?vid=a147e67d-e0b1-425e-bbda-ae9524df353e"},"vehicle_type_id":"4","last_reported":1750860643,"current_range_meters":0,"station_id":"","pricing_plan_id":"cebpf4jnsgd1na2vs0mg"},{"bike_id":"4d064f95-6dcb-4234-9e98-7c70fbb74351","system_id":"levelo_inurba_marseille","lat":43.337444,"lon":5.374475,"is_reserved":false,"is_disabled":true,"rental_uris":{"android":"levelo://app?vid=4d064f95-6dcb-4234-9e98-7c70fbb74351","ios":"levelo://app?vid=4d064f95-6dcb-4234-9e98-7c70fbb74351"},"vehicle_type_id":"4","last_reported":1750860643,"current_range_meters":0,"station_id":"","pricing_plan_id":"cebpf4jnsgd1na2vs0mg"},{"bike_id":"c546c1c9-ce35-4a64-be1a-4ead5dee7acc","system_id":"levelo_inurba_marseille","lat":43.27607,"lon":5.36117,"is_reserved":false,"is_disabled":true,"rental_uris":{"android":"levelo://app?vid=c546c1c9-ce35-4a64-be1a-4ead5dee7acc","ios":"levelo://app?vid=c546c1c9-ce35-4a64-be1a-4ead5dee7acc"},"vehicle_type_id":"4","last_reported":1750860643,"current_range_meters":0,"station_id":"","pricing_plan_id":"cebpf4jnsgd1na2vs0mg"},{"bike_id":"d6609b4f-333b-43c1-9ebe-8726f5e76e88","system_id":"levelo_inurba_marseille","lat":43.337444,"lon":5.374475,"is_reserved":false,"is_disabled":true,"rental_uris":{"android":"levelo://app?vid=d6609b4f-333b-43c1-9ebe-8726f5e76e88","ios":"levelo://app?vid=d6609b4f-333b-43c1-9ebe-8726f5e76e88"},"vehicle_type_id":"4","last_reported":1750860643,"current_range_meters":0,"station_id":"","pricing_plan_id":"cebpf4jnsgd1na2vs0mg"},{"bike_id":"17d0afaa-6951-4dde-a43d-60017e75021c","system_id":"levelo_inurba_marseille","lat":43.29479,"lon":5.37709,"is_reserved":false,"is_disabled":true,"rental_uris":{"android":"levelo://app?vid=17d0afaa-6951-4dde-a43d-60017e75021c","ios":"levelo://app?vid=17d0afaa-6951-4dde-a43d-60017e75021c"},"vehicle_type_id":"4","last_reported":1750860643,"current_range_meters":0,"station_id":"","pricing_plan_id":"cebpf4jnsgd1na2vs0mg"},{"bike_id":"9cb193d0-906b-4ac2-85c5-eea810b1d20f","system_id":"levelo_inurba_marseille","lat":43.29374,"lon":5.42961,"is_reserved":false,"is_disabled":true,"rental_uris":{"android":"levelo://app?vid=9cb193d0-906b-4ac2-85c5-eea810b1d20f","ios":"levelo://app?vid=9cb193d0-906b-4ac2-85c5-eea810b1d20f"},"vehicle_type_id":"4","last_reported":1750860643,"current_range_meters":0,"station_id":"","pricing_plan_id":"cebpf4jnsgd1na2vs0mg"},{"bike_id":"bd17737b-22d2-4e4f-88e8-4eb661d864c4","system_id":"levelo_inurba_marseille","lat":43.29167,"lon":5.46088,"is_reserved":false,"is_disabled":true,"rental_uris":{"android":"levelo://app?vid=bd17737b-22d2-4e4f-88e8-4eb661d864c4","ios":"levelo://app?vid=bd17737b-22d2-4e4f-88e8-4eb661d864c4"},"vehicle_type_id":"4","last_reported":1750860643,"current_range_meters":0,"station_id":"","pricing_plan_id":"cebpf4jnsgd1na2vs0mg"},{"bike_id":"9d3724b1-0dc8-4689-9d6a-55005a9503cb","system_id":"levelo_inurba_marseille","lat":43.28612,"lon":5.42822,"is_reserved":false,"is_disabled":true,"rental_uris":{"android":"levelo://app?vid=9d3724b1-0dc8-4689-9d6a-55005a9503cb","ios":"levelo://app?vid=9d3724b1-0dc8-4689-9d6a-55005a9503cb"},"vehicle_type_id":"4","last_reported":1750860643,"current_range_meters":0,"station_id":"","pricing_plan_id":"cebpf4jnsgd1na2vs0mg"},{"bike_id":"17f2bf91-421e-46bd-a761-71a4f27295fd","system_id":"levelo_inurba_marseille","lat":43.238439,"lon":5.430672,"is_reserved":false,"is_disabled":true,"rental_uris":{"android":"levelo://app?vid=17f2bf91-421e-46bd-a761-71a4f27295fd","ios":"levelo://app?vid=17f2bf91-421e-46bd-a761-71a4f27295fd"},"vehicle_type_id":"4","last_reported":1750860643,"current_range_meters":0,"station_id":"","pricing_plan_id":"cebpf4jnsgd1na2vs0mg"},{"bike_id":"3d07ef76-af52-42e0-81f1-5f4963c9ee29","system_id":"levelo_inurba_marseille","lat":43.29453,"lon":5.43841,"is_reserved":false,"is_disabled":true,"rental_uris":{"android":"levelo://app?vid=3d07ef76-af52-42e0-81f1-5f4963c9ee29","ios":"levelo://app?vid=3d07ef76-af52-42e0-81f1-5f4963c9ee29"},"vehicle_type_id":"4","last_reported":1750860643,"current_range_meters":0,"station_id":"","pricing_plan_id":"cebpf4jnsgd1na2vs0mg"},{"bike_id":"1c48505d-5191-458b-9e46-92cceb336a46","system_id":"levelo_inurba_marseille","lat":43.29303,"lon":5.37459,"is_reserved":false,"is_disabled":true,"rental_uris":{"android":"levelo://app?vid=1c48505d-5191-458b-9e46-92cceb336a46","ios":"levelo://app?vid=1c48505d-5191-458b-9e46-92cceb336a46"},"vehicle_type_id":"4","last_reported":1750860643,"current_range_meters":0,"station_id":"ce4bgi12rcd13ifvqb70","pricing_plan_id":"cebpf4jnsgd1na2vs0mg"},{"bike_id":"30a7e465-7b3c-4f05-a1f2-56bbcfadf280","system_id":"levelo_inurba_marseille","lat":43.29708,"lon":5.36609,"is_reserved":false,"is_disabled":true,"rental_uris":{"android":"levelo://app?vid=30a7e465-7b3c-4f05-a1f2-56bbcfadf280","ios":"levelo://app?vid=30a7e465-7b3c-4f05-a1f2-56bbcfadf280"},"vehicle_type_id":"4","last_reported":1750860643,"current_range_meters":0,"station_id":"ce4bgn12rcd13ifvqbt0","pricing_plan_id":"cebpf4jnsgd1na2vs0mg"},{"bike_id":"9843f5cb-a064-418a-a952-58d0464a4326","system_id":"levelo_inurba_marseille","lat":43.305781,"lon":5.367226,"is_reserved":false,"is_disabled":true,"rental_uris":{"android":"levelo://app?vid=9843f5cb-a064-418a-a952-58d0464a4326","ios":"levelo://app?vid=9843f5cb-a064-418a-a952-58d0464a4326"},"vehicle_type_id":"4","last_reported":1750860643,"current_range_meters":0,"station_id":"ce4bgrp2rcd13ifvqc9g","pricing_plan_id":"cebpf4jnsgd1na2vs0mg"},{"bike_id":"e54e127a-9eec-4412-8cbf-322b349a7817","system_id":"levelo_inurba_marseille","lat":43.30789,"lon":5.38169,"is_reserved":false,"is_disabled":true,"rental_uris":{"android":"levelo://app?vid=e54e127a-9eec-4412-8cbf-322b349a7817","ios":"levelo://app?vid=e54e127a-9eec-4412-8cbf-322b349a7817"},"vehicle_type_id":"4","last_reported":1750860643,"current_range_meters":0,"station_id":"ce4bgt12rcd13ifvqce0","pricing_plan_id":"cebpf4jnsgd1na2vs0mg"},{"bike_id":"4da93f93-ea02-45c3-b06a-631612fb69d6","system_id":"levelo_inurba_marseille","lat":43.31689,"lon":5.40475,"is_reserved":false,"is_disabled":true,"rental_uris":{"android":"levelo://app?vid=4da93f93-ea02-45c3-b06a-631612fb69d6","ios":"levelo://app?vid=4da93f93-ea02-45c3-b06a-631612fb69d6"},"vehicle_type_id":"4","last_reported":1750860643,"current_range_meters":0,"station_id":"ce4bh012rcd13ifvqd00","pricing_plan_id":"cebpf4jnsgd1na2vs0mg"},{"bike_id":"15b50452-1286-4545-bd77-9954d07e9168","system_id":"levelo_inurba_marseille","lat":43.28354,"lon":5.38103,"is_reserved":false,"is_disabled":true,"rental_uris":{"android":"levelo://app?vid=15b50452-1286-4545-bd77-9954d07e9168","ios":"levelo://app?vid=15b50452-1286-4545-bd77-9954d07e9168"},"vehicle_type_id":"4","last_reported":1750860643,"current_range_meters":0,"station_id":"ce4bh412rcd13ifvqdr0","pricing_plan_id":"cebpf4jnsgd1na2vs0mg"},{"bike_id":"88263c0d-6c0d-4ca6-9994-7cd8a3849a6b","system_id":"levelo_inurba_marseille","lat":43.25499,"lon":5.37668,"is_reserved":false,"is_disabled":true,"rental_uris":{"android":"levelo://app?vid=88263c0d-6c0d-4ca6-9994-7cd8a3849a6b","ios":"levelo://app?vid=88263c0d-6c0d-4ca6-9994-7cd8a3849a6b"},"vehicle_type_id":"4","last_reported":1750860643,"current_range_meters":0,"station_id":"ce4bhh12rcd13ifvqff0","pricing_plan_id":"cebpf4jnsgd1na2vs0mg"},{"bike_id":"9fdad66d-0ceb-4735-affc-b3e76810d289","system_id":"levelo_inurba_marseille","lat":43.26232,"lon":5.40457,"is_reserved":false,"is_disabled":true,"rental_uris":{"android":"levelo://app?vid=9fdad66d-0ceb-4735-affc-b3e76810d289","ios":"levelo://app?vid=9fdad66d-0ceb-4735-affc-b3e76810d289"},"vehicle_type_id":"4","last_reported":1750860643,"current_range_meters":0,"station_id":"ce4bhmh2rcd13ifvqgmg","pricing_plan_id":"cebpf4jnsgd1na2vs0mg"},{"bike_id":"68207df3-0aa2-4865-b4c1-278d54e7093b","system_id":"levelo_inurba_marseille","lat":43.23154,"lon":5.43711,"is_reserved":false,"is_disabled":true,"rental_uris":{"android":"levelo://app?vid=68207df3-0aa2-4865-b4c1-278d54e7093b","ios":"levelo://app?vid=68207df3-0aa2-4865-b4c1-278d54e7093b"},"vehicle_type_id":"4","last_reported":1750860643,"current_range_meters":0,"station_id":"ce4bhmp2rcd13ifvqgog","pricing_plan_id":"cebpf4jnsgd1na2vs0mg"},{"bike_id":"d109f51c-b27c-40dd-a619-bc822a2b5f4f","system_id":"levelo_inurba_marseille","lat":43.23178,"lon":5.39989,"is_reserved":false,"is_disabled":true,"rental_uris":{"android":"levelo://app?vid=d109f51c-b27c-40dd-a619-bc822a2b5f4f","ios":"levelo://app?vid=d109f51c-b27c-40dd-a619-bc822a2b5f4f"},"vehicle_type_id":"4","last_reported":1750860643,"current_range_meters":0,"station_id":"ce4bhn12rcd13ifvqgqg","pricing_plan_id":"cebpf4jnsgd1na2vs0mg"},{"bike_id":"e9d68b36-3ab7-4da2-9001-f52a897a9058","system_id":"levelo_inurba_marseille","lat":43.28706,"lon":5.39994,"is_reserved":false,"is_disabled":true,"rental_uris":{"android":"levelo://app?vid=e9d68b36-3ab7-4da2-9001-f52a897a9058","ios":"levelo://app?vid=e9d68b36-3ab7-4da2-9001-f52a897a9058"},"vehicle_type_id":"4","last_reported":1750860643,"current_range_meters":0,"station_id":"ce4bho92rcd13ifvqh3g","pricing_plan_id":"cebpf4jnsgd1na2vs0mg"},{"bike_id":"3a9164cf-075b-4518-81ed-9c77da33cad6","system_id":"levelo_inurba_marseille","lat":43.303724,"lon":5.424701,"is_reserved":false,"is_disabled":true,"rental_uris":{"android":"levelo://app?vid=3a9164cf-075b-4518-81ed-9c77da33cad6","ios":"levelo://app?vid=3a9164cf-075b-4518-81ed-9c77da33cad6"},"vehicle_type_id":"4","last_reported":1750860643,"current_range_meters":0,"station_id":"ce4bhoh2rcd13ifvqh6g","pricing_plan_id":"cebpf4jnsgd1na2vs0mg"},{"bike_id":"09665a0b-a0e2-4ae6-9403-87e53ec9dada","system_id":"levelo_inurba_marseille","lat":43.24166,"lon":5.36393,"is_reserved":false,"is_disabled":true,"rental_uris":{"android":"levelo://app?vid=09665a0b-a0e2-4ae6-9403-87e53ec9dada","ios":"levelo://app?vid=09665a0b-a0e2-4ae6-9403-87e53ec9dada"},"vehicle_type_id":"4","last_reported":1750860643,"current_range_meters":0,"station_id":"cpo36qri1sfpv3e86is0","pricing_plan_id":"cebpf4jnsgd1na2vs0mg"},{"bike_id":"d0ddc193-87b3-4462-8871-bde52b710de1","system_id":"levelo_inurba_marseille","lat":43.31124,"lon":5.37762,"is_reserved":false,"is_disabled":true,"rental_uris":{"android":"levelo://app?vid=d0ddc193-87b3-4462-8871-bde52b710de1","ios":"levelo://app?vid=d0ddc193-87b3-4462-8871-bde52b710de1"},"vehicle_type_id":"4","last_reported":1750860643,"current_range_meters":400,"station_id":"ce4bgt92rcd13ifvqcg0","pricing_plan_id":"cebpf4jnsgd1na2vs0mg"},{"bike_id":"bd68cffc-2663-4f0c-88d0-040b0ea2fd86","system_id":"levelo_inurba_marseille","lat":43.310602,"lon":5.383632,"is_reserved":false,"is_disabled":true,"rental_uris":{"android":"levelo://app?vid=bd68cffc-2663-4f0c-88d0-040b0ea2fd86","ios":"levelo://app?vid=bd68cffc-2663-4f0c-88d0-040b0ea2fd86"},"vehicle_type_id":"4","last_reported":1750860643,"current_range_meters":400,"station_id":"ce4bgv92rcd13ifvqcr0","pricing_plan_id":"cebpf4jnsgd1na2vs0mg"},{"bike_id":"9b816c50-7973-4f45-abaf-e30cade204d0","system_id":"levelo_inurba_marseille","lat":43.2835,"lon":5.38103,"is_reserved":false,"is_disabled":true,"rental_uris":{"android":"levelo://app?vid=9b816c50-7973-4f45-abaf-e30cade204d0","ios":"levelo://app?vid=9b816c50-7973-4f45-abaf-e30cade204d0"},"vehicle_type_id":"4","last_reported":1750860643,"current_range_meters":400,"station_id":"ce4bh412rcd13ifvqdr0","pricing_plan_id":"cebpf4jnsgd1na2vs0mg"},{"bike_id":"5c4c21e3-0f2f-4bc6-8d31-f41d7813bc60","system_id":"levelo_inurba_marseille","lat":43.25708,"lon":5.37543,"is_reserved":false,"is_disabled":true,"rental_uris":{"android":"levelo://app?vid=5c4c21e3-0f2f-4bc6-8d31-f41d7813bc60","ios":"levelo://app?vid=5c4c21e3-0f2f-4bc6-8d31-f41d7813bc60"},"vehicle_type_id":"4","last_reported":1750860643,"current_range_meters":800,"station_id":"","pricing_plan_id":"cebpf4jnsgd1na2vs0mg"},{"bike_id":"b17b6606-336a-4606-9b65-af139c49de26","system_id":"levelo_inurba_marseille","lat":43.25675,"lon":5.42726,"is_reserved":false,"is_disabled":true,"rental_uris":{"android":"levelo://app?vid=b17b6606-336a-4606-9b65-af139c49de26","ios":"levelo://app?vid=b17b6606-336a-4606-9b65-af139c49de26"},"vehicle_type_id":"4","last_reported":1750860643,"current_range_meters":800,"station_id":"","pricing_plan_id":"cebpf4jnsgd1na2vs0mg"},{"bike_id":"fa457137-39e4-4b47-b467-bd07219f7ca6","system_id":"levelo_inurba_marseille","lat":43.3088,"lon":5.37192,"is_reserved":false,"is_disabled":true,"rental_uris":{"android":"levelo://app?vid=fa457137-39e4-4b47-b467-bd07219f7ca6","ios":"levelo://app?vid=fa457137-39e4-4b47-b467-bd07219f7ca6"},"vehicle_type_id":"4","last_reported":1750860643,"current_range_meters":800,"station_id":"ce4bguh2rcd13ifvqckg","pricing_plan_id":"cebpf4jnsgd1na2vs0mg"},{"bike_id":"209bc6e1-463f-457b-9533-98951610dc61","system_id":"levelo_inurba_marseille","lat":43.30348,"lon":5.41842,"is_reserved":false,"is_disabled":true,"rental_uris":{"android":"levelo://app?vid=209bc6e1-463f-457b-9533-98951610dc61","ios":"levelo://app?vid=209bc6e1-463f-457b-9533-98951610dc61"},"vehicle_type_id":"4","last_reported":1750860643,"current_range_meters":800,"station_id":"ce4bhop2rcd13ifvqh7g","pricing_plan_id":"cebpf4jnsgd1na2vs0mg"},{"bike_id":"f8fbe888-60c9-4e58-9ae8-c9908f0bdadd","system_id":"levelo_inurba_marseille","lat":43.305456,"lon":5.365395,"is_reserved":false,"is_disabled":true,"rental_uris":{"android":"levelo://app?vid=f8fbe888-60c9-4e58-9ae8-c9908f0bdadd","ios":"levelo://app?vid=f8fbe888-60c9-4e58-9ae8-c9908f0bdadd"},"vehicle_type_id":"4","last_reported":1750860643,"current_range_meters":1200,"station_id":"ce4bgs12rcd13ifvqcag","pricing_plan_id":"cebpf4jnsgd1na2vs0mg"},{"bike_id":"ac41d08f-d62a-4fc9-a803-a7097d2996e5","system_id":"levelo_inurba_marseille","lat":43.29033,"lon":5.39972,"is_reserved":false,"is_disabled":true,"rental_uris":{"android":"levelo://app?vid=ac41d08f-d62a-4fc9-a803-a7097d2996e5","ios":"levelo://app?vid=ac41d08f-d62a-4fc9-a803-a7097d2996e5"},"vehicle_type_id":"4","last_reported":1750860643,"current_range_meters":1200,"station_id":"ce4bh392rcd13ifvqdm0","pricing_plan_id":"cebpf4jnsgd1na2vs0mg"},{"bike_id":"b3de54a4-84ea-4fe3-a43c-729ca9e5007e","system_id":"levelo_inurba_marseille","lat":43.26592,"lon":5.39016,"is_reserved":false,"is_disabled":true,"rental_uris":{"android":"levelo://app?vid=b3de54a4-84ea-4fe3-a43c-729ca9e5007e","ios":"levelo://app?vid=b3de54a4-84ea-4fe3-a43c-729ca9e5007e"},"vehicle_type_id":"4","last_reported":1750860643,"current_range_meters":1200,"station_id":"ce4bhe12rcd13ifvqf30","pricing_plan_id":"cebpf4jnsgd1na2vs0mg"},{"bike_id":"33ce76ab-ce2a-4c89-b7a9-cf6b0b70da0f","system_id":"levelo_inurba_marseille","lat":43.31073,"lon":5.38357,"is_reserved":false,"is_disabled":true,"rental_uris":{"android":"levelo://app?vid=33ce76ab-ce2a-4c89-b7a9-cf6b0b70da0f","ios":"levelo://app?vid=33ce76ab-ce2a-4c89-b7a9-cf6b0b70da0f"},"vehicle_type_id":"4","last_reported":1750860643,"current_range_meters":1600,"station_id":"ce4bgv92rcd13ifvqcr0","pricing_plan_id":"cebpf4jnsgd1na2vs0mg"},{"bike_id":"eb8f064b-26b8-496a-9a15-64c42cf25303","system_id":"levelo_inurba_marseille","lat":43.28266,"lon":5.35065,"is_reserved":false,"is_disabled":true,"rental_uris":{"android":"levelo://app?vid=eb8f064b-26b8-496a-9a15-64c42cf25303","ios":"levelo://app?vid=eb8f064b-26b8-496a-9a15-64c42cf25303"},"vehicle_type_id":"4","last_reported":1750860643,"current_range_meters":1600,"station_id":"ce4bhbp2rcd13ifvqerg","pricing_plan_id":"cebpf4jnsgd1na2vs0mg"},{"bike_id":"23c16caa-69f4-4c40-923c-416f41dedde7","system_id":"levelo_inurba_marseille","lat":43.23155,"lon":5.43703,"is_reserved":false,"is_disabled":true,"rental_uris":{"android":"levelo://app?vid=23c16caa-69f4-4c40-923c-416f41dedde7","ios":"levelo://app?vid=23c16caa-69f4-4c40-923c-416f41dedde7"},"vehicle_type_id":"4","last_reported":1750860643,"current_range_meters":1600,"station_id":"ce4bhmp2rcd13ifvqgog","pricing_plan_id":"cebpf4jnsgd1na2vs0mg"},{"bike_id":"d7f15e92-4656-482e-9cf7-2fd326704c14","system_id":"levelo_inurba_marseille","lat":43.32367,"lon":5.36727,"is_reserved":false,"is_disabled":true,"rental_uris":{"android":"levelo://app?vid=d7f15e92-4656-482e-9cf7-2fd326704c14","ios":"levelo://app?vid=d7f15e92-4656-482e-9cf7-2fd326704c14"},"vehicle_type_id":"4","last_reported":1750860643,"current_range_meters":1600,"station_id":"ce4bhsh2rcd13ifvqi2g","pricing_plan_id":"cebpf4jnsgd1na2vs0mg"},{"bike_id":"45f54f61-99b2-4a5e-a6aa-41e252486eeb","system_id":"levelo_inurba_marseille","lat":43.22797,"lon":5.34942,"is_reserved":false,"is_disabled":true,"rental_uris":{"android":"levelo://app?vid=45f54f61-99b2-4a5e-a6aa-41e252486eeb","ios":"levelo://app?vid=45f54f61-99b2-4a5e-a6aa-41e252486eeb"},"vehicle_type_id":"4","last_reported":1750860643,"current_range_meters":2000,"station_id":"","pricing_plan_id":"cebpf4jnsgd1na2vs0mg"},{"bike_id":"6c704c14-f7d0-48bb-8f3a-f4c830cbc6a5","system_id":"levelo_inurba_marseille","lat":43.29298,"lon":5.3745,"is_reserved":false,"is_disabled":true,"rental_uris":{"android":"levelo://app?vid=6c704c14-f7d0-48bb-8f3a-f4c830cbc6a5","ios":"levelo://app?vid=6c704c14-f7d0-48bb-8f3a-f4c830cbc6a5"},"vehicle_type_id":"4","last_reported":1750860643,"current_range_meters":2000,"station_id":"ce4bgi12rcd13ifvqb70","pricing_plan_id":"cebpf4jnsgd1na2vs0mg"},{"bike_id":"291d4f65-1249-4a3f-aa7a-d5e927b98a21","system_id":"levelo_inurba_marseille","lat":43.30141,"lon":5.38783,"is_reserved":false,"is_disabled":false,"rental_uris":{"android":"levelo://app?vid=291d4f65-1249-4a3f-aa7a-d5e927b98a21","ios":"levelo://app?vid=291d4f65-1249-4a3f-aa7a-d5e927b98a21"},"vehicle_type_id":"4","last_reported":1750860643,"current_range_meters":2800,"station_id":"ce4bghh2rcd13ifvqb60","pricing_plan_id":"cebpf4jnsgd1na2vs0mg"},{"bike_id":"ca01f6e4-d637-4860-95ac-72604ffad483","system_id":"levelo_inurba_marseille","lat":43.28691,"lon":5.37391,"is_reserved":false,"is_disabled":false,"rental_uris":{"android":"levelo://app?vid=ca01f6e4-d637-4860-95ac-72604ffad483","ios":"levelo://app?vid=ca01f6e4-d637-4860-95ac-72604ffad483"},"vehicle_type_id":"4","last_reported":1750860643,"current_range_meters":2800,"station_id":"ce4bh3p2rcd13ifvqdq0","pricing_plan_id":"cebpf4jnsgd1na2vs0mg"},{"bike_id":"a49ed055-ad0a-4403-a039-772b9a837fbf","system_id":"levelo_inurba_marseille","lat":43.34132,"lon":5.40917,"is_reserved":false,"is_disabled":false,"rental_uris":{"android":"levelo://app?vid=a49ed055-ad0a-4403-a039-772b9a837fbf","ios":"levelo://app?vid=a49ed055-ad0a-4403-a039-772b9a837fbf"},"vehicle_type_id":"4","last_reported":1750860643,"current_range_meters":2800,"station_id":"ce4bhqh2rcd13ifvqhlg","pricing_plan_id":"cebpf4jnsgd1na2vs0mg"},{"bike_id":"29f3c526-2e74-427f-97b9-210ee2d5d2f1","system_id":"levelo_inurba_marseille","lat":43.28266,"lon":5.3506,"is_reserved":false,"is_disabled":false,"rental_uris":{"android":"levelo://app?vid=29f3c526-2e74-427f-97b9-210ee2d5d2f1","ios":"levelo://app?vid=29f3c526-2e74-427f-97b9-210ee2d5d2f1"},"vehicle_type_id":"4","last_reported":1750860643,"current_range_meters":3200,"station_id":"ce4bhbp2rcd13ifvqerg","pricing_plan_id":"cebpf4jnsgd1na2vs0mg"},{"bike_id":"265dcf10-ede4-4608-bcbe-0112de674673","system_id":"levelo_inurba_marseille","lat":43.286086,"lon":5.351125,"is_reserved":false,"is_disabled":false,"rental_uris":{"android":"levelo://app?vid=265dcf10-ede4-4608-bcbe-0112de674673","ios":"levelo://app?vid=265dcf10-ede4-4608-bcbe-0112de674673"},"vehicle_type_id":"4","last_reported":1750860643,"current_range_meters":3200,"station_id":"ce4bhch2rcd13ifvqeug","pricing_plan_id":"cebpf4jnsgd1na2vs0mg"},{"bike_id":"d1a958ad-4eb8-4c45-bcdc-d7c0e8ced2ee","system_id":"levelo_inurba_marseille","lat":43.31367,"lon":5.36695,"is_reserved":false,"is_disabled":false,"rental_uris":{"android":"levelo://app?vid=d1a958ad-4eb8-4c45-bcdc-d7c0e8ced2ee","ios":"levelo://app?vid=d1a958ad-4eb8-4c45-bcdc-d7c0e8ced2ee"},"vehicle_type_id":"4","last_reported":1750860643,"current_range_meters":3600,"station_id":"ce4bgr92rcd13ifvqc6g","pricing_plan_id":"cebpf4jnsgd1na2vs0mg"},{"bike_id":"ba686698-3d04-4312-8098-863d0e584297","system_id":"levelo_inurba_marseille","lat":43.32363,"lon":5.38878,"is_reserved":false,"is_disabled":false,"rental_uris":{"android":"levelo://app?vid=ba686698-3d04-4312-8098-863d0e584297","ios":"levelo://app?vid=ba686698-3d04-4312-8098-863d0e584297"},"vehicle_type_id":"4","last_reported":1750860643,"current_range_meters":3600,"station_id":"ce4bhqp2rcd13ifvqhog","pricing_plan_id":"cebpf4jnsgd1na2vs0mg"},{"bike_id":"465d2323-f97d-48b0-a820-bc5fa54ae0fa","system_id":"levelo_inurba_marseille","lat":43.28368,"lon":5.45994,"is_reserved":false,"is_disabled":false,"rental_uris":{"android":"levelo://app?vid=465d2323-f97d-48b0-a820-bc5fa54ae0fa","ios":"levelo://app?vid=465d2323-f97d-48b0-a820-bc5fa54ae0fa"},"vehicle_type_id":"4","last_reported":1750860643,"current_range_meters":4000,"station_id":"","pricing_plan_id":"cebpf4jnsgd1na2vs0mg"},{"bike_id":"106a18bf-1e18-48b1-a019-66650297ceaf","system_id":"levelo_inurba_marseille","lat":43.30534,"lon":5.3729,"is_reserved":false,"is_disabled":false,"rental_uris":{"android":"levelo://app?vid=106a18bf-1e18-48b1-a019-66650297ceaf","ios":"levelo://app?vid=106a18bf-1e18-48b1-a019-66650297ceaf"},"vehicle_type_id":"4","last_reported":1750860643,"current_range_meters":4000,"station_id":"","pricing_plan_id":"cebpf4jnsgd1na2vs0mg"},{"bike_id":"5ca176bb-c57f-454f-afe3-837d0116b9cd","system_id":"levelo_inurba_marseille","lat":43.29584,"lon":5.36745,"is_reserved":false,"is_disabled":false,"rental_uris":{"android":"levelo://app?vid=5ca176bb-c57f-454f-afe3-837d0116b9cd","ios":"levelo://app?vid=5ca176bb-c57f-454f-afe3-837d0116b9cd"},"vehicle_type_id":"4","last_reported":1750860643,"current_range_meters":4000,"station_id":"ce4bgph2rcd13ifvqc2g","pricing_plan_id":"cebpf4jnsgd1na2vs0mg"},{"bike_id":"3f8c599e-285b-435c-80bd-2434d9f16c51","system_id":"levelo_inurba_marseille","lat":43.27497,"lon":5.42528,"is_reserved":false,"is_disabled":false,"rental_uris":{"android":"levelo://app?vid=3f8c599e-285b-435c-80bd-2434d9f16c51","ios":"levelo://app?vid=3f8c599e-285b-435c-80bd-2434d9f16c51"},"vehicle_type_id":"4","last_reported":1750860643,"current_range_meters":4400,"station_id":"","pricing_plan_id":"cebpf4jnsgd1na2vs0mg"},{"bike_id":"e127ef7e-24d3-4248-81fa-66c5e7c3e582","system_id":"levelo_inurba_marseille","lat":43.29613,"lon":5.37964,"is_reserved":false,"is_disabled":false,"rental_uris":{"android":"levelo://app?vid=e127ef7e-24d3-4248-81fa-66c5e7c3e582","ios":"levelo://app?vid=e127ef7e-24d3-4248-81fa-66c5e7c3e582"},"vehicle_type_id":"4","last_reported":1750860643,"current_range_meters":4400,"station_id":"","pricing_plan_id":"cebpf4jnsgd1na2vs0mg"},{"bike_id":"71eda167-4b27-4b44-9af8-13b6481948b5","system_id":"levelo_inurba_marseille","lat":43.297844,"lon":5.371037,"is_reserved":false,"is_disabled":false,"rental_uris":{"android":"levelo://app?vid=71eda167-4b27-4b44-9af8-13b6481948b5","ios":"levelo://app?vid=71eda167-4b27-4b44-9af8-13b6481948b5"},"vehicle_type_id":"4","last_reported":1750860643,"current_range_meters":4400,"station_id":"ce4bgop2rcd13ifvqc1g","pricing_plan_id":"cebpf4jnsgd1na2vs0mg"},{"bike_id":"72d6ab72-35c6-4833-810f-0705fcd36eb5","system_id":"levelo_inurba_marseille","lat":43.29954,"lon":5.37169,"is_reserved":false,"is_disabled":false,"rental_uris":{"android":"levelo://app?vid=72d6ab72-35c6-4833-810f-0705fcd36eb5","ios":"levelo://app?vid=72d6ab72-35c6-4833-810f-0705fcd36eb5"},"vehicle_type_id":"4","last_reported":1750860643,"current_range_meters":4400,"station_id":"ce4bgr92rcd13ifvqc7g","pricing_plan_id":"cebpf4jnsgd1na2vs0mg"},{"bike_id":"1ab5e687-9a79-4305-b561-3d5c878eaf4a","system_id":"levelo_inurba_marseille","lat":43.28272,"lon":5.35076,"is_reserved":false,"is_disabled":false,"rental_uris":{"android":"levelo://app?vid=1ab5e687-9a79-4305-b561-3d5c878eaf4a","ios":"levelo://app?vid=1ab5e687-9a79-4305-b561-3d5c878eaf4a"},"vehicle_type_id":"4","last_reported":1750860643,"current_range_meters":4400,"station_id":"ce4bhbp2rcd13ifvqerg","pricing_plan_id":"cebpf4jnsgd1na2vs0mg"},{"bike_id":"b06f1087-6e1f-4a9a-94c3-f38d3fa37766","system_id":"levelo_inurba_marseille","lat":43.265517,"lon":5.372813,"is_reserved":false,"is_disabled":false,"rental_uris":{"android":"levelo://app?vid=b06f1087-6e1f-4a9a-94c3-f38d3fa37766","ios":"levelo://app?vid=b06f1087-6e1f-4a9a-94c3-f38d3fa37766"},"vehicle_type_id":"4","last_reported":1750860643,"current_range_meters":4400,"station_id":"ce4bhg12rcd13ifvqf70","pricing_plan_id":"cebpf4jnsgd1na2vs0mg"},{"bike_id":"3a60672f-7518-43e9-a0e6-eba16f9e514e","system_id":"levelo_inurba_marseille","lat":43.25822,"lon":5.39436,"is_reserved":false,"is_disabled":false,"rental_uris":{"android":"levelo://app?vid=3a60672f-7518-43e9-a0e6-eba16f9e514e","ios":"levelo://app?vid=3a60672f-7518-43e9-a0e6-eba16f9e514e"},"vehicle_type_id":"4","last_reported":1750860643,"current_range_meters":4400,"station_id":"ce4bhip2rcd13ifvqft0","pricing_plan_id":"cebpf4jnsgd1na2vs0mg"},{"bike_id":"481fd76d-1e64-4cdb-aa0a-83fceb6f6d5e","system_id":"levelo_inurba_marseille","lat":43.301328,"lon":5.387879,"is_reserved":false,"is_disabled":false,"rental_uris":{"android":"levelo://app?vid=481fd76d-1e64-4cdb-aa0a-83fceb6f6d5e","ios":"levelo://app?vid=481fd76d-1e64-4cdb-aa0a-83fceb6f6d5e"},"vehicle_type_id":"4","last_reported":1750860643,"current_range_meters":4800,"station_id":"ce4bghh2rcd13ifvqb60","pricing_plan_id":"cebpf4jnsgd1na2vs0mg"},{"bike_id":"eff246d1-8b5f-4c03-8ba6-f62b81f6e291","system_id":"levelo_inurba_marseille","lat":43.2794,"lon":5.41049,"is_reserved":false,"is_disabled":false,"rental_uris":{"android":"levelo://app?vid=eff246d1-8b5f-4c03-8ba6-f62b81f6e291","ios":"levelo://app?vid=eff246d1-8b5f-4c03-8ba6-f62b81f6e291"},"vehicle_type_id":"4","last_reported":1750860643,"current_range_meters":4800,"station_id":"ce4bhnp2rcd13ifvqh0g","pricing_plan_id":"cebpf4jnsgd1na2vs0mg"},{"bike_id":"f333bcb3-17e0-43f1-847f-eb3d745e3e41","system_id":"levelo_inurba_marseille","lat":43.29361,"lon":5.42818,"is_reserved":false,"is_disabled":false,"rental_uris":{"android":"levelo://app?vid=f333bcb3-17e0-43f1-847f-eb3d745e3e41","ios":"levelo://app?vid=f333bcb3-17e0-43f1-847f-eb3d745e3e41"},"vehicle_type_id":"4","last_reported":1750860643,"current_range_meters":5600,"station_id":"","pricing_plan_id":"cebpf4jnsgd1na2vs0mg"},{"bike_id":"d647d82e-58fb-4efa-913b-7b5c87759cda","system_id":"levelo_inurba_marseille","lat":43.269796,"lon":5.399049,"is_reserved":false,"is_disabled":false,"rental_uris":{"android":"levelo://app?vid=d647d82e-58fb-4efa-913b-7b5c87759cda","ios":"levelo://app?vid=d647d82e-58fb-4efa-913b-7b5c87759cda"},"vehicle_type_id":"4","last_reported":1750860643,"current_range_meters":5600,"station_id":"","pricing_plan_id":"cebpf4jnsgd1na2vs0mg"},{"bike_id":"69ca2454-be16-44a2-8e25-3e7f22f019a7","system_id":"levelo_inurba_marseille","lat":43.29031,"lon":5.3865,"is_reserved":false,"is_disabled":false,"rental_uris":{"android":"levelo://app?vid=69ca2454-be16-44a2-8e25-3e7f22f019a7","ios":"levelo://app?vid=69ca2454-be16-44a2-8e25-3e7f22f019a7"},"vehicle_type_id":"4","last_reported":1750860643,"current_range_meters":5600,"station_id":"ce4bh4p2rcd13ifvqe0g","pricing_plan_id":"cebpf4jnsgd1na2vs0mg"},{"bike_id":"b7531005-c470-41ae-8a68-ee1ddb0f9ff7","system_id":"levelo_inurba_marseille","lat":43.23149,"lon":5.43717,"is_reserved":false,"is_disabled":false,"rental_uris":{"android":"levelo://app?vid=b7531005-c470-41ae-8a68-ee1ddb0f9ff7","ios":"levelo://app?vid=b7531005-c470-41ae-8a68-ee1ddb0f9ff7"},"vehicle_type_id":"4","last_reported":1750860643,"current_range_meters":5600,"station_id":"ce4bhmp2rcd13ifvqgog","pricing_plan_id":"cebpf4jnsgd1na2vs0mg"},{"bike_id":"d1db36a2-b28b-4812-bb90-d750fa203707","system_id":"levelo_inurba_marseille","lat":43.31328,"lon":5.39691,"is_reserved":false,"is_disabled":false,"rental_uris":{"android":"levelo://app?vid=d1db36a2-b28b-4812-bb90-d750fa203707","ios":"levelo://app?vid=d1db36a2-b28b-4812-bb90-d750fa203707"},"vehicle_type_id":"4","last_reported":1750860643,"current_range_meters":6000,"station_id":"ce4bgvp2rcd13ifvqcu0","pricing_plan_id":"cebpf4jnsgd1na2vs0mg"},{"bike_id":"bc6a35e4-c8ea-43e2-acef-00952011aada","system_id":"levelo_inurba_marseille","lat":43.28414,"lon":5.34987,"is_reserved":false,"is_disabled":false,"rental_uris":{"android":"levelo://app?vid=bc6a35e4-c8ea-43e2-acef-00952011aada","ios":"levelo://app?vid=bc6a35e4-c8ea-43e2-acef-00952011aada"},"vehicle_type_id":"4","last_reported":1750860643,"current_range_meters":6000,"station_id":"ce4bhbh2rcd13ifvqepg","pricing_plan_id":"cebpf4jnsgd1na2vs0mg"},{"bike_id":"a58c6937-ec67-4fd6-9a3a-bbefd5ab16b6","system_id":"levelo_inurba_marseille","lat":43.25941,"lon":5.40873,"is_reserved":false,"is_disabled":false,"rental_uris":{"android":"levelo://app?vid=a58c6937-ec67-4fd6-9a3a-bbefd5ab16b6","ios":"levelo://app?vid=a58c6937-ec67-4fd6-9a3a-bbefd5ab16b6"},"vehicle_type_id":"4","last_reported":1750860643,"current_range_meters":6000,"station_id":"ce4bhm92rcd13ifvqglg","pricing_plan_id":"cebpf4jnsgd1na2vs0mg"},{"bike_id":"805c1695-b689-4754-affb-537154c026bb","system_id":"levelo_inurba_marseille","lat":43.28798,"lon":5.36649,"is_reserved":false,"is_disabled":false,"rental_uris":{"android":"levelo://app?vid=805c1695-b689-4754-affb-537154c026bb","ios":"levelo://app?vid=805c1695-b689-4754-affb-537154c026bb"},"vehicle_type_id":"4","last_reported":1750860643,"current_range_meters":6400,"station_id":"","pricing_plan_id":"cebpf4jnsgd1na2vs0mg"},{"bike_id":"156180f5-90cc-42ff-bbc5-56e5f3104370","system_id":"levelo_inurba_marseille","lat":43.23871,"lon":5.43024,"is_reserved":false,"is_disabled":false,"rental_uris":{"android":"levelo://app?vid=156180f5-90cc-42ff-bbc5-56e5f3104370","ios":"levelo://app?vid=156180f5-90cc-42ff-bbc5-56e5f3104370"},"vehicle_type_id":"4","last_reported":1750860643,"current_range_meters":6400,"station_id":"","pricing_plan_id":"cebpf4jnsgd1na2vs0mg"},{"bike_id":"71595a4b-52fb-4afb-b5e0-3c993facf944","system_id":"levelo_inurba_marseille","lat":43.30891,"lon":5.39658,"is_reserved":false,"is_disabled":false,"rental_uris":{"android":"levelo://app?vid=71595a4b-52fb-4afb-b5e0-3c993facf944","ios":"levelo://app?vid=71595a4b-52fb-4afb-b5e0-3c993facf944"},"vehicle_type_id":"4","last_reported":1750860643,"current_range_meters":6400,"station_id":"ce4bh012rcd13ifvqcv0","pricing_plan_id":"cebpf4jnsgd1na2vs0mg"},{"bike_id":"9dab57cf-3854-4dd5-91ef-4afd6e786e16","system_id":"levelo_inurba_marseille","lat":43.29872,"lon":5.39736,"is_reserved":false,"is_disabled":false,"rental_uris":{"android":"levelo://app?vid=9dab57cf-3854-4dd5-91ef-4afd6e786e16","ios":"levelo://app?vid=9dab57cf-3854-4dd5-91ef-4afd6e786e16"},"vehicle_type_id":"4","last_reported":1750860643,"current_range_meters":6400,"station_id":"ce4bh0h2rcd13ifvqd50","pricing_plan_id":"cebpf4jnsgd1na2vs0mg"},{"bike_id":"40d686de-6ae9-41e7-adde-f2b7ce521f54","system_id":"levelo_inurba_marseille","lat":43.29093,"lon":5.38129,"is_reserved":false,"is_disabled":false,"rental_uris":{"android":"levelo://app?vid=40d686de-6ae9-41e7-adde-f2b7ce521f54","ios":"levelo://app?vid=40d686de-6ae9-41e7-adde-f2b7ce521f54"},"vehicle_type_id":"4","last_reported":1750860643,"current_range_meters":6400,"station_id":"ce4bh512rcd13ifvqe2g","pricing_plan_id":"cebpf4jnsgd1na2vs0mg"},{"bike_id":"cb0747ef-7f75-47d0-b191-3dcb64b8ca43","system_id":"levelo_inurba_marseille","lat":43.28616,"lon":5.35108,"is_reserved":false,"is_disabled":false,"rental_uris":{"android":"levelo://app?vid=cb0747ef-7f75-47d0-b191-3dcb64b8ca43","ios":"levelo://app?vid=cb0747ef-7f75-47d0-b191-3dcb64b8ca43"},"vehicle_type_id":"4","last_reported":1750860643,"current_range_meters":6400,"station_id":"ce4bhch2rcd13ifvqeug","pricing_plan_id":"cebpf4jnsgd1na2vs0mg"},{"bike_id":"7b0a3a2f-8767-49e5-8cbd-cef557ee7288","system_id":"levelo_inurba_marseille","lat":43.255032,"lon":5.376486,"is_reserved":false,"is_disabled":false,"rental_uris":{"android":"levelo://app?vid=7b0a3a2f-8767-49e5-8cbd-cef557ee7288","ios":"levelo://app?vid=7b0a3a2f-8767-49e5-8cbd-cef557ee7288"},"vehicle_type_id":"4","last_reported":1750860643,"current_range_meters":6400,"station_id":"ce4bhh12rcd13ifvqff0","pricing_plan_id":"cebpf4jnsgd1na2vs0mg"},{"bike_id":"599194be-835e-4d17-b810-6530c8af0ffb","system_id":"levelo_inurba_marseille","lat":43.27494,"lon":5.42452,"is_reserved":false,"is_disabled":false,"rental_uris":{"android":"levelo://app?vid=599194be-835e-4d17-b810-6530c8af0ffb","ios":"levelo://app?vid=599194be-835e-4d17-b810-6530c8af0ffb"},"vehicle_type_id":"4","last_reported":1750860643,"current_range_meters":6400,"station_id":"ce4bhn92rcd13ifvqgrg","pricing_plan_id":"cebpf4jnsgd1na2vs0mg"},{"bike_id":"a6151c8d-bdeb-4345-ac8d-237c262c0516","system_id":"levelo_inurba_marseille","lat":43.25108,"lon":5.40323,"is_reserved":false,"is_disabled":false,"rental_uris":{"android":"levelo://app?vid=a6151c8d-bdeb-4345-ac8d-237c262c0516","ios":"levelo://app?vid=a6151c8d-bdeb-4345-ac8d-237c262c0516"},"vehicle_type_id":"4","last_reported":1750860643,"current_range_meters":6800,"station_id":"ce4bhlh2rcd13ifvqgig","pricing_plan_id":"cebpf4jnsgd1na2vs0mg"},{"bike_id":"035d10c8-8ba1-4c98-aa7b-d199a053888d","system_id":"levelo_inurba_marseille","lat":43.28267,"lon":5.35063,"is_reserved":false,"is_disabled":false,"rental_uris":{"android":"levelo://app?vid=035d10c8-8ba1-4c98-aa7b-d199a053888d","ios":"levelo://app?vid=035d10c8-8ba1-4c98-aa7b-d199a053888d"},"vehicle_type_id":"4","last_reported":1750860643,"current_range_meters":7200,"station_id":"ce4bhbp2rcd13ifvqerg","pricing_plan_id":"cebpf4jnsgd1na2vs0mg"},{"bike_id":"9aa931a7-c18b-470a-b64e-c7d3b9d80dda","system_id":"levelo_inurba_marseille","lat":43.25939,"lon":5.40899,"is_reserved":false,"is_disabled":false,"rental_uris":{"android":"levelo://app?vid=9aa931a7-c18b-470a-b64e-c7d3b9d80dda","ios":"levelo://app?vid=9aa931a7-c18b-470a-b64e-c7d3b9d80dda"},"vehicle_type_id":"4","last_reported":1750860643,"current_range_meters":7200,"station_id":"ce4bhm92rcd13ifvqglg","pricing_plan_id":"cebpf4jnsgd1na2vs0mg"},{"bike_id":"37e0ff9d-a8de-4088-a164-75282686d41d","system_id":"levelo_inurba_marseille","lat":43.33754,"lon":5.37457,"is_reserved":false,"is_disabled":false,"rental_uris":{"android":"levelo://app?vid=37e0ff9d-a8de-4088-a164-75282686d41d","ios":"levelo://app?vid=37e0ff9d-a8de-4088-a164-75282686d41d"},"vehicle_type_id":"4","last_reported":1750860643,"current_range_meters":8000,"station_id":"","pricing_plan_id":"cebpf4jnsgd1na2vs0mg"},{"bike_id":"88a643e8-f10f-4936-bbb0-9a084c2eccfd","system_id":"levelo_inurba_marseille","lat":43.26539,"lon":5.39333,"is_reserved":false,"is_disabled":false,"rental_uris":{"android":"levelo://app?vid=88a643e8-f10f-4936-bbb0-9a084c2eccfd","ios":"levelo://app?vid=88a643e8-f10f-4936-bbb0-9a084c2eccfd"},"vehicle_type_id":"4","last_reported":1750860643,"current_range_meters":8000,"station_id":"","pricing_plan_id":"cebpf4jnsgd1na2vs0mg"},{"bike_id":"ac3cfc9d-5e95-46d8-a6c4-17fab3c1973a","system_id":"levelo_inurba_marseille","lat":43.29311,"lon":5.38235,"is_reserved":false,"is_disabled":false,"rental_uris":{"android":"levelo://app?vid=ac3cfc9d-5e95-46d8-a6c4-17fab3c1973a","ios":"levelo://app?vid=ac3cfc9d-5e95-46d8-a6c4-17fab3c1973a"},"vehicle_type_id":"4","last_reported":1750860643,"current_range_meters":8000,"station_id":"","pricing_plan_id":"cebpf4jnsgd1na2vs0mg"},{"bike_id":"d4484bc1-ca93-418a-ac60-28c6ee117f87","system_id":"levelo_inurba_marseille","lat":43.25889,"lon":5.38492,"is_reserved":false,"is_disabled":false,"rental_uris":{"android":"levelo://app?vid=d4484bc1-ca93-418a-ac60-28c6ee117f87","ios":"levelo://app?vid=d4484bc1-ca93-418a-ac60-28c6ee117f87"},"vehicle_type_id":"4","last_reported":1750860643,"current_range_meters":8000,"station_id":"","pricing_plan_id":"cebpf4jnsgd1na2vs0mg"},{"bike_id":"326e05ea-b688-486b-a552-15aea78e6cdf","system_id":"levelo_inurba_marseille","lat":43.30157,"lon":5.38074,"is_reserved":false,"is_disabled":false,"rental_uris":{"android":"levelo://app?vid=326e05ea-b688-486b-a552-15aea78e6cdf","ios":"levelo://app?vid=326e05ea-b688-486b-a552-15aea78e6cdf"},"vehicle_type_id":"4","last_reported":1750860643,"current_range_meters":8000,"station_id":"ce4bgjp2rcd13ifvqbh0","pricing_plan_id":"cebpf4jnsgd1na2vs0mg"},{"bike_id":"5dba8d24-8265-4648-a6bf-e799bba6acad","system_id":"levelo_inurba_marseille","lat":43.26552,"lon":5.37295,"is_reserved":false,"is_disabled":false,"rental_uris":{"android":"levelo://app?vid=5dba8d24-8265-4648-a6bf-e799bba6acad","ios":"levelo://app?vid=5dba8d24-8265-4648-a6bf-e799bba6acad"},"vehicle_type_id":"4","last_reported":1750860643,"current_range_meters":8000,"station_id":"ce4bhg12rcd13ifvqf70","pricing_plan_id":"cebpf4jnsgd1na2vs0mg"},{"bike_id":"c1f148a4-941c-4e0a-ab8f-1e9fc53ff781","system_id":"levelo_inurba_marseille","lat":43.308,"lon":5.38147,"is_reserved":false,"is_disabled":false,"rental_uris":{"android":"levelo://app?vid=c1f148a4-941c-4e0a-ab8f-1e9fc53ff781","ios":"levelo://app?vid=c1f148a4-941c-4e0a-ab8f-1e9fc53ff781"},"vehicle_type_id":"4","last_reported":1750860643,"current_range_meters":8400,"station_id":"ce4bgt12rcd13ifvqce0","pricing_plan_id":"cebpf4jnsgd1na2vs0mg"},{"bike_id":"6f18c5c7-2597-40d5-a370-95fbe332c34b","system_id":"levelo_inurba_marseille","lat":43.29102,"lon":5.38126,"is_reserved":false,"is_disabled":false,"rental_uris":{"android":"levelo://app?vid=6f18c5c7-2597-40d5-a370-95fbe332c34b","ios":"levelo://app?vid=6f18c5c7-2597-40d5-a370-95fbe332c34b"},"vehicle_type_id":"4","last_reported":1750860643,"current_range_meters":8400,"station_id":"ce4bh512rcd13ifvqe2g","pricing_plan_id":"cebpf4jnsgd1na2vs0mg"},{"bike_id":"7c0261de-cd6d-4ede-8af8-07146bccbb28","system_id":"levelo_inurba_marseille","lat":43.28264,"lon":5.35064,"is_reserved":false,"is_disabled":false,"rental_uris":{"android":"levelo://app?vid=7c0261de-cd6d-4ede-8af8-07146bccbb28","ios":"levelo://app?vid=7c0261de-cd6d-4ede-8af8-07146bccbb28"},"vehicle_type_id":"4","last_reported":1750860643,"current_range_meters":8400,"station_id":"ce4bhbp2rcd13ifvqerg","pricing_plan_id":"cebpf4jnsgd1na2vs0mg"},{"bike_id":"7c3f6852-4f29-42a9-a8c1-e2b82bb43fcf","system_id":"levelo_inurba_marseille","lat":43.29251,"lon":5.42659,"is_reserved":false,"is_disabled":false,"rental_uris":{"android":"levelo://app?vid=7c3f6852-4f29-42a9-a8c1-e2b82bb43fcf","ios":"levelo://app?vid=7c3f6852-4f29-42a9-a8c1-e2b82bb43fcf"},"vehicle_type_id":"4","last_reported":1750860643,"current_range_meters":8800,"station_id":"","pricing_plan_id":"cebpf4jnsgd1na2vs0mg"},{"bike_id":"1c097f45-53fc-42df-b09e-5f31b7d8f196","system_id":"levelo_inurba_marseille","lat":43.27618,"lon":5.3611,"is_reserved":false,"is_disabled":false,"rental_uris":{"android":"levelo://app?vid=1c097f45-53fc-42df-b09e-5f31b7d8f196","ios":"levelo://app?vid=1c097f45-53fc-42df-b09e-5f31b7d8f196"},"vehicle_type_id":"4","last_reported":1750860643,"current_range_meters":8800,"station_id":"ce4bgj92rcd13ifvqbe0","pricing_plan_id":"cebpf4jnsgd1na2vs0mg"},{"bike_id":"6f93b5cc-edb0-4986-a64c-58a91a858fd8","system_id":"levelo_inurba_marseille","lat":43.305621,"lon":5.365469,"is_reserved":false,"is_disabled":false,"rental_uris":{"android":"levelo://app?vid=6f93b5cc-edb0-4986-a64c-58a91a858fd8","ios":"levelo://app?vid=6f93b5cc-edb0-4986-a64c-58a91a858fd8"},"vehicle_type_id":"4","last_reported":1750860643,"current_range_meters":8800,"station_id":"ce4bgs12rcd13ifvqcag","pricing_plan_id":"cebpf4jnsgd1na2vs0mg"},{"bike_id":"0718f2cf-981e-4c7f-9ec4-438df5dd27fb","system_id":"levelo_inurba_marseille","lat":43.26059,"lon":5.39403,"is_reserved":false,"is_disabled":false,"rental_uris":{"android":"levelo://app?vid=0718f2cf-981e-4c7f-9ec4-438df5dd27fb","ios":"levelo://app?vid=0718f2cf-981e-4c7f-9ec4-438df5dd27fb"},"vehicle_type_id":"4","last_reported":1750860643,"current_range_meters":8800,"station_id":"ce4bhh92rcd13ifvqfj0","pricing_plan_id":"cebpf4jnsgd1na2vs0mg"},{"bike_id":"50ead7e5-8038-4782-87c7-aa1c790b33de","system_id":"levelo_inurba_marseille","lat":43.27278,"lon":5.40029,"is_reserved":false,"is_disabled":false,"rental_uris":{"android":"levelo://app?vid=50ead7e5-8038-4782-87c7-aa1c790b33de","ios":"levelo://app?vid=50ead7e5-8038-4782-87c7-aa1c790b33de"},"vehicle_type_id":"4","last_reported":1750860643,"current_range_meters":9200,"station_id":"","pricing_plan_id":"cebpf4jnsgd1na2vs0mg"},{"bike_id":"11ebf4fb-e752-44af-81e3-7d28e8eee9cc","system_id":"levelo_inurba_marseille","lat":43.28122,"lon":5.43196,"is_reserved":false,"is_disabled":false,"rental_uris":{"android":"levelo://app?vid=11ebf4fb-e752-44af-81e3-7d28e8eee9cc","ios":"levelo://app?vid=11ebf4fb-e752-44af-81e3-7d28e8eee9cc"},"vehicle_type_id":"4","last_reported":1750860643,"current_range_meters":9200,"station_id":"","pricing_plan_id":"cebpf4jnsgd1na2vs0mg"},{"bike_id":"7bf4bb3f-aaaa-4207-aded-9865c2c65dfc","system_id":"levelo_inurba_marseille","lat":43.29023,"lon":5.38639,"is_reserved":false,"is_disabled":false,"rental_uris":{"android":"levelo://app?vid=7bf4bb3f-aaaa-4207-aded-9865c2c65dfc","ios":"levelo://app?vid=7bf4bb3f-aaaa-4207-aded-9865c2c65dfc"},"vehicle_type_id":"4","last_reported":1750860643,"current_range_meters":9200,"station_id":"ce4bh4p2rcd13ifvqe0g","pricing_plan_id":"cebpf4jnsgd1na2vs0mg"},{"bike_id":"d8dea46a-53e3-4c98-bcf9-ee6ce59733f3","system_id":"levelo_inurba_marseille","lat":43.29004,"lon":5.35617,"is_reserved":false,"is_disabled":false,"rental_uris":{"android":"levelo://app?vid=d8dea46a-53e3-4c98-bcf9-ee6ce59733f3","ios":"levelo://app?vid=d8dea46a-53e3-4c98-bcf9-ee6ce59733f3"},"vehicle_type_id":"4","last_reported":1750860643,"current_range_meters":9200,"station_id":"ce4bhb92rcd13ifvqen0","pricing_plan_id":"cebpf4jnsgd1na2vs0mg"},{"bike_id":"a707b617-95f4-4350-9879-20124f2b7f45","system_id":"levelo_inurba_marseille","lat":43.282697,"lon":5.350502,"is_reserved":false,"is_disabled":false,"rental_uris":{"android":"levelo://app?vid=a707b617-95f4-4350-9879-20124f2b7f45","ios":"levelo://app?vid=a707b617-95f4-4350-9879-20124f2b7f45"},"vehicle_type_id":"4","last_reported":1750860643,"current_range_meters":9200,"station_id":"ce4bhbp2rcd13ifvqerg","pricing_plan_id":"cebpf4jnsgd1na2vs0mg"},{"bike_id":"8ebf6781-5bd2-42d4-b37b-14efcd55c6b3","system_id":"levelo_inurba_marseille","lat":43.26057,"lon":5.39393,"is_reserved":false,"is_disabled":false,"rental_uris":{"android":"levelo://app?vid=8ebf6781-5bd2-42d4-b37b-14efcd55c6b3","ios":"levelo://app?vid=8ebf6781-5bd2-42d4-b37b-14efcd55c6b3"},"vehicle_type_id":"4","last_reported":1750860643,"current_range_meters":9200,"station_id":"ce4bhh92rcd13ifvqfj0","pricing_plan_id":"cebpf4jnsgd1na2vs0mg"},{"bike_id":"7f9edf80-9a04-4957-859f-434ec27a2773","system_id":"levelo_inurba_marseille","lat":43.31225,"lon":5.41612,"is_reserved":false,"is_disabled":false,"rental_uris":{"android":"levelo://app?vid=7f9edf80-9a04-4957-859f-434ec27a2773","ios":"levelo://app?vid=7f9edf80-9a04-4957-859f-434ec27a2773"},"vehicle_type_id":"4","last_reported":1750860643,"current_range_meters":9600,"station_id":"","pricing_plan_id":"cebpf4jnsgd1na2vs0mg"},{"bike_id":"b2b2c10c-bbe1-4d83-86ef-09ba864e6a16","system_id":"levelo_inurba_marseille","lat":43.29626,"lon":5.377105,"is_reserved":false,"is_disabled":false,"rental_uris":{"android":"levelo://app?vid=b2b2c10c-bbe1-4d83-86ef-09ba864e6a16","ios":"levelo://app?vid=b2b2c10c-bbe1-4d83-86ef-09ba864e6a16"},"vehicle_type_id":"4","last_reported":1750860643,"current_range_meters":9600,"station_id":"","pricing_plan_id":"cebpf4jnsgd1na2vs0mg"},{"bike_id":"1ac5646b-0cd4-47cc-b97b-2fb2e1eb1ca7","system_id":"levelo_inurba_marseille","lat":43.30151,"lon":5.3809,"is_reserved":false,"is_disabled":false,"rental_uris":{"android":"levelo://app?vid=1ac5646b-0cd4-47cc-b97b-2fb2e1eb1ca7","ios":"levelo://app?vid=1ac5646b-0cd4-47cc-b97b-2fb2e1eb1ca7"},"vehicle_type_id":"4","last_reported":1750860643,"current_range_meters":9600,"station_id":"ce4bgjp2rcd13ifvqbh0","pricing_plan_id":"cebpf4jnsgd1na2vs0mg"},{"bike_id":"04149b45-b6c0-4a24-afd2-40c1cf45e0aa","system_id":"levelo_inurba_marseille","lat":43.27424,"lon":5.39419,"is_reserved":false,"is_disabled":false,"rental_uris":{"android":"levelo://app?vid=04149b45-b6c0-4a24-afd2-40c1cf45e0aa","ios":"levelo://app?vid=04149b45-b6c0-4a24-afd2-40c1cf45e0aa"},"vehicle_type_id":"4","last_reported":1750860643,"current_range_meters":9600,"station_id":"ce4bhdp2rcd13ifvqf20","pricing_plan_id":"cebpf4jnsgd1na2vs0mg"},{"bike_id":"6d7e3675-44ef-4429-a405-08fd22e131ee","system_id":"levelo_inurba_marseille","lat":43.2408,"lon":5.3776,"is_reserved":false,"is_disabled":false,"rental_uris":{"android":"levelo://app?vid=6d7e3675-44ef-4429-a405-08fd22e131ee","ios":"levelo://app?vid=6d7e3675-44ef-4429-a405-08fd22e131ee"},"vehicle_type_id":"4","last_reported":1750860643,"current_range_meters":9600,"station_id":"ce4bhnp2rcd13ifvqgvg","pricing_plan_id":"cebpf4jnsgd1na2vs0mg"},{"bike_id":"51b217be-9488-41c1-b083-6d728251b280","system_id":"levelo_inurba_marseille","lat":43.2433,"lon":5.36894,"is_reserved":false,"is_disabled":false,"rental_uris":{"android":"levelo://app?vid=51b217be-9488-41c1-b083-6d728251b280","ios":"levelo://app?vid=51b217be-9488-41c1-b083-6d728251b280"},"vehicle_type_id":"4","last_reported":1750860643,"current_range_meters":10000,"station_id":"","pricing_plan_id":"cebpf4jnsgd1na2vs0mg"},{"bike_id":"56cff0dc-0dd9-4145-a377-7a74854cdaed","system_id":"levelo_inurba_marseille","lat":43.30154,"lon":5.3809,"is_reserved":false,"is_disabled":false,"rental_uris":{"android":"levelo://app?vid=56cff0dc-0dd9-4145-a377-7a74854cdaed","ios":"levelo://app?vid=56cff0dc-0dd9-4145-a377-7a74854cdaed"},"vehicle_type_id":"4","last_reported":1750860643,"current_range_meters":10000,"station_id":"ce4bgjp2rcd13ifvqbh0","pricing_plan_id":"cebpf4jnsgd1na2vs0mg"},{"bike_id":"5737ad3a-d732-4058-a75a-99584f31c7ba","system_id":"levelo_inurba_marseille","lat":43.29096,"lon":5.38129,"is_reserved":false,"is_disabled":false,"rental_uris":{"android":"levelo://app?vid=5737ad3a-d732-4058-a75a-99584f31c7ba","ios":"levelo://app?vid=5737ad3a-d732-4058-a75a-99584f31c7ba"},"vehicle_type_id":"4","last_reported":1750860643,"current_range_meters":10000,"station_id":"ce4bh512rcd13ifvqe2g","pricing_plan_id":"cebpf4jnsgd1na2vs0mg"},{"bike_id":"00317fdd-1ecb-4bed-827e-4c611cfa5f8b","system_id":"levelo_inurba_marseille","lat":43.27065,"lon":5.42284,"is_reserved":false,"is_disabled":false,"rental_uris":{"android":"levelo://app?vid=00317fdd-1ecb-4bed-827e-4c611cfa5f8b","ios":"levelo://app?vid=00317fdd-1ecb-4bed-827e-4c611cfa5f8b"},"vehicle_type_id":"4","last_reported":1750860643,"current_range_meters":10000,"station_id":"ce4bhk92rcd13ifvqgb0","pricing_plan_id":"cebpf4jnsgd1na2vs0mg"},{"bike_id":"65925455-8eb8-4593-8fe6-dfe06dfbd569","system_id":"levelo_inurba_marseille","lat":43.27193,"lon":5.40968,"is_reserved":false,"is_disabled":false,"rental_uris":{"android":"levelo://app?vid=65925455-8eb8-4593-8fe6-dfe06dfbd569","ios":"levelo://app?vid=65925455-8eb8-4593-8fe6-dfe06dfbd569"},"vehicle_type_id":"4","last_reported":1750860643,"current_range_meters":10000,"station_id":"ce4bhl12rcd13ifvqgf0","pricing_plan_id":"cebpf4jnsgd1na2vs0mg"},{"bike_id":"2fccba4a-c2c0-436b-8fa9-98e7dd932df6","system_id":"levelo_inurba_marseille","lat":43.23143,"lon":5.43734,"is_reserved":false,"is_disabled":false,"rental_uris":{"android":"levelo://app?vid=2fccba4a-c2c0-436b-8fa9-98e7dd932df6","ios":"levelo://app?vid=2fccba4a-c2c0-436b-8fa9-98e7dd932df6"},"vehicle_type_id":"4","last_reported":1750860643,"current_range_meters":10000,"station_id":"ce4bhmp2rcd13ifvqgog","pricing_plan_id":"cebpf4jnsgd1na2vs0mg"},{"bike_id":"7074257c-0211-47a7-aa4e-83abc5d26111","system_id":"levelo_inurba_marseille","lat":43.281549,"lon":5.42648,"is_reserved":false,"is_disabled":false,"rental_uris":{"android":"levelo://app?vid=7074257c-0211-47a7-aa4e-83abc5d26111","ios":"levelo://app?vid=7074257c-0211-47a7-aa4e-83abc5d26111"},"vehicle_type_id":"4","last_reported":1750860643,"current_range_meters":10000,"station_id":"ce4bhnh2rcd13ifvqgug","pricing_plan_id":"cebpf4jnsgd1na2vs0mg"},{"bike_id":"244048fd-1a37-432f-9293-b5f8f36638be","system_id":"levelo_inurba_marseille","lat":43.23193,"lon":5.35546,"is_reserved":false,"is_disabled":false,"rental_uris":{"android":"levelo://app?vid=244048fd-1a37-432f-9293-b5f8f36638be","ios":"levelo://app?vid=244048fd-1a37-432f-9293-b5f8f36638be"},"vehicle_type_id":"4","last_reported":1750860643,"current_range_meters":10000,"station_id":"ce4bhu92rcd13ifvqi70","pricing_plan_id":"cebpf4jnsgd1na2vs0mg"},{"bike_id":"35b14479-4a4d-4383-83de-c7fea66894b3","system_id":"levelo_inurba_marseille","lat":43.29905,"lon":5.43666,"is_reserved":false,"is_disabled":false,"rental_uris":{"android":"levelo://app?vid=35b14479-4a4d-4383-83de-c7fea66894b3","ios":"levelo://app?vid=35b14479-4a4d-4383-83de-c7fea66894b3"},"vehicle_type_id":"4","last_reported":1750860643,"current_range_meters":10800,"station_id":"ce4bhpp2rcd13ifvqhfg","pricing_plan_id":"cebpf4jnsgd1na2vs0mg"},{"bike_id":"d8cfc22e-40b9-4c26-90c7-0b1088a6424c","system_id":"levelo_inurba_marseille","lat":43.32465,"lon":5.3656,"is_reserved":false,"is_disabled":false,"rental_uris":{"android":"levelo://app?vid=d8cfc22e-40b9-4c26-90c7-0b1088a6424c","ios":"levelo://app?vid=d8cfc22e-40b9-4c26-90c7-0b1088a6424c"},"vehicle_type_id":"4","last_reported":1750860643,"current_range_meters":10800,"station_id":"ce4bhs12rcd13ifvqhvg","pricing_plan_id":"cebpf4jnsgd1na2vs0mg"},{"bike_id":"32cf20b4-64eb-4411-b10a-4d5cb0204059","system_id":"levelo_inurba_marseille","lat":43.24168,"lon":5.36396,"is_reserved":false,"is_disabled":false,"rental_uris":{"android":"levelo://app?vid=32cf20b4-64eb-4411-b10a-4d5cb0204059","ios":"levelo://app?vid=32cf20b4-64eb-4411-b10a-4d5cb0204059"},"vehicle_type_id":"4","last_reported":1750860643,"current_range_meters":10800,"station_id":"cpo36qri1sfpv3e86is0","pricing_plan_id":"cebpf4jnsgd1na2vs0mg"},{"bike_id":"af112b62-19de-41d4-b8d7-e14d0172315d","system_id":"levelo_inurba_marseille","lat":43.32715,"lon":5.39239,"is_reserved":false,"is_disabled":false,"rental_uris":{"android":"levelo://app?vid=af112b62-19de-41d4-b8d7-e14d0172315d","ios":"levelo://app?vid=af112b62-19de-41d4-b8d7-e14d0172315d"},"vehicle_type_id":"4","last_reported":1750860643,"current_range_meters":11200,"station_id":"","pricing_plan_id":"cebpf4jnsgd1na2vs0mg"},{"bike_id":"a13fde44-932e-4ed8-b093-7d6845ec37a3","system_id":"levelo_inurba_marseille","lat":43.290667,"lon":5.371563,"is_reserved":false,"is_disabled":false,"rental_uris":{"android":"levelo://app?vid=a13fde44-932e-4ed8-b093-7d6845ec37a3","ios":"levelo://app?vid=a13fde44-932e-4ed8-b093-7d6845ec37a3"},"vehicle_type_id":"4","last_reported":1750860643,"current_range_meters":11200,"station_id":"ce4bh5p2rcd13ifvqe4g","pricing_plan_id":"cebpf4jnsgd1na2vs0mg"},{"bike_id":"2957519d-614a-481d-a44f-7b25294af0e0","system_id":"levelo_inurba_marseille","lat":43.29039,"lon":5.37568,"is_reserved":false,"is_disabled":false,"rental_uris":{"android":"levelo://app?vid=2957519d-614a-481d-a44f-7b25294af0e0","ios":"levelo://app?vid=2957519d-614a-481d-a44f-7b25294af0e0"},"vehicle_type_id":"4","last_reported":1750860643,"current_range_meters":11200,"station_id":"ce4bh692rcd13ifvqe90","pricing_plan_id":"cebpf4jnsgd1na2vs0mg"},{"bike_id":"efe71f1e-320a-48c2-9488-7eda5a6fa2b5","system_id":"levelo_inurba_marseille","lat":43.28269,"lon":5.35062,"is_reserved":false,"is_disabled":false,"rental_uris":{"android":"levelo://app?vid=efe71f1e-320a-48c2-9488-7eda5a6fa2b5","ios":"levelo://app?vid=efe71f1e-320a-48c2-9488-7eda5a6fa2b5"},"vehicle_type_id":"4","last_reported":1750860643,"current_range_meters":11200,"station_id":"ce4bhbp2rcd13ifvqerg","pricing_plan_id":"cebpf4jnsgd1na2vs0mg"},{"bike_id":"105fb4b2-7208-4f17-99ab-357986201e74","system_id":"levelo_inurba_marseille","lat":43.31214,"lon":5.36795,"is_reserved":false,"is_disabled":false,"rental_uris":{"android":"levelo://app?vid=105fb4b2-7208-4f17-99ab-357986201e74","ios":"levelo://app?vid=105fb4b2-7208-4f17-99ab-357986201e74"},"vehicle_type_id":"4","last_reported":1750860643,"current_range_meters":11600,"station_id":"","pricing_plan_id":"cebpf4jnsgd1na2vs0mg"},{"bike_id":"9a518954-4025-421b-9462-580c985818f2","system_id":"levelo_inurba_marseille","lat":43.31476,"lon":5.38831,"is_reserved":false,"is_disabled":false,"rental_uris":{"android":"levelo://app?vid=9a518954-4025-421b-9462-580c985818f2","ios":"levelo://app?vid=9a518954-4025-421b-9462-580c985818f2"},"vehicle_type_id":"4","last_reported":1750860643,"current_range_meters":11600,"station_id":"","pricing_plan_id":"cebpf4jnsgd1na2vs0mg"},{"bike_id":"208daaa6-6fb8-4ea4-aeed-ce716e71a9bb","system_id":"levelo_inurba_marseille","lat":43.3135,"lon":5.36713,"is_reserved":false,"is_disabled":false,"rental_uris":{"android":"levelo://app?vid=208daaa6-6fb8-4ea4-aeed-ce716e71a9bb","ios":"levelo://app?vid=208daaa6-6fb8-4ea4-aeed-ce716e71a9bb"},"vehicle_type_id":"4","last_reported":1750860643,"current_range_meters":11600,"station_id":"ce4bgr92rcd13ifvqc6g","pricing_plan_id":"cebpf4jnsgd1na2vs0mg"},{"bike_id":"cde79504-d4c9-4a12-b4f3-db5e5b761464","system_id":"levelo_inurba_marseille","lat":43.30509,"lon":5.36725,"is_reserved":false,"is_disabled":false,"rental_uris":{"android":"levelo://app?vid=cde79504-d4c9-4a12-b4f3-db5e5b761464","ios":"levelo://app?vid=cde79504-d4c9-4a12-b4f3-db5e5b761464"},"vehicle_type_id":"4","last_reported":1750860643,"current_range_meters":11600,"station_id":"ce4bgrp2rcd13ifvqc9g","pricing_plan_id":"cebpf4jnsgd1na2vs0mg"},{"bike_id":"15a34ff1-20c1-444d-b296-ebc5814a9aac","system_id":"levelo_inurba_marseille","lat":43.29274,"lon":5.40114,"is_reserved":false,"is_disabled":false,"rental_uris":{"android":"levelo://app?vid=15a34ff1-20c1-444d-b296-ebc5814a9aac","ios":"levelo://app?vid=15a34ff1-20c1-444d-b296-ebc5814a9aac"},"vehicle_type_id":"4","last_reported":1750860643,"current_range_meters":11600,"station_id":"ce4bh312rcd13ifvqdk0","pricing_plan_id":"cebpf4jnsgd1na2vs0mg"},{"bike_id":"23a576b0-f308-4af9-a856-c356c821e9fe","system_id":"levelo_inurba_marseille","lat":43.25193,"lon":5.40688,"is_reserved":false,"is_disabled":false,"rental_uris":{"android":"levelo://app?vid=23a576b0-f308-4af9-a856-c356c821e9fe","ios":"levelo://app?vid=23a576b0-f308-4af9-a856-c356c821e9fe"},"vehicle_type_id":"4","last_reported":1750860643,"current_range_meters":12000,"station_id":"","pricing_plan_id":"cebpf4jnsgd1na2vs0mg"},{"bike_id":"6d69dbff-9463-4430-bdd6-9bf5ff7fec3f","system_id":"levelo_inurba_marseille","lat":43.31709,"lon":5.37754,"is_reserved":false,"is_disabled":false,"rental_uris":{"android":"levelo://app?vid=6d69dbff-9463-4430-bdd6-9bf5ff7fec3f","ios":"levelo://app?vid=6d69dbff-9463-4430-bdd6-9bf5ff7fec3f"},"vehicle_type_id":"4","last_reported":1750860643,"current_range_meters":12000,"station_id":"ce4bgth2rcd13ifvqch0","pricing_plan_id":"cebpf4jnsgd1na2vs0mg"},{"bike_id":"3075a676-8aea-4d60-b6a8-27acf19b99b2","system_id":"levelo_inurba_marseille","lat":43.27214,"lon":5.39167,"is_reserved":false,"is_disabled":false,"rental_uris":{"android":"levelo://app?vid=3075a676-8aea-4d60-b6a8-27acf19b99b2","ios":"levelo://app?vid=3075a676-8aea-4d60-b6a8-27acf19b99b2"},"vehicle_type_id":"4","last_reported":1750860643,"current_range_meters":12000,"station_id":"ce4bhhp2rcd13ifvqfm0","pricing_plan_id":"cebpf4jnsgd1na2vs0mg"},{"bike_id":"632e31c3-d333-4848-a6d6-bdb795d59b04","system_id":"levelo_inurba_marseille","lat":43.2573,"lon":5.41105,"is_reserved":false,"is_disabled":false,"rental_uris":{"android":"levelo://app?vid=632e31c3-d333-4848-a6d6-bdb795d59b04","ios":"levelo://app?vid=632e31c3-d333-4848-a6d6-bdb795d59b04"},"vehicle_type_id":"4","last_reported":1750860643,"current_range_meters":12000,"station_id":"ce4bhkp2rcd13ifvqgd0","pricing_plan_id":"cebpf4jnsgd1na2vs0mg"},{"bike_id":"85aebb63-1277-49af-91e5-22f2d655e266","system_id":"levelo_inurba_marseille","lat":43.298994,"lon":5.436739,"is_reserved":false,"is_disabled":false,"rental_uris":{"android":"levelo://app?vid=85aebb63-1277-49af-91e5-22f2d655e266","ios":"levelo://app?vid=85aebb63-1277-49af-91e5-22f2d655e266"},"vehicle_type_id":"4","last_reported":1750860643,"current_range_meters":12000,"station_id":"ce4bhpp2rcd13ifvqhfg","pricing_plan_id":"cebpf4jnsgd1na2vs0mg"},{"bike_id":"4b14ba5f-fbf3-4e18-a1de-460ac4a6d81f","system_id":"levelo_inurba_marseille","lat":43.28432,"lon":5.34988,"is_reserved":false,"is_disabled":false,"rental_uris":{"android":"levelo://app?vid=4b14ba5f-fbf3-4e18-a1de-460ac4a6d81f","ios":"levelo://app?vid=4b14ba5f-fbf3-4e18-a1de-460ac4a6d81f"},"vehicle_type_id":"4","last_reported":1750860643,"current_range_meters":12400,"station_id":"ce4bhbh2rcd13ifvqepg","pricing_plan_id":"cebpf4jnsgd1na2vs0mg"},{"bike_id":"3987f272-0a0c-49fc-805b-14b6c6e90418","system_id":"levelo_inurba_marseille","lat":43.28259,"lon":5.35078,"is_reserved":false,"is_disabled":false,"rental_uris":{"android":"levelo://app?vid=3987f272-0a0c-49fc-805b-14b6c6e90418","ios":"levelo://app?vid=3987f272-0a0c-49fc-805b-14b6c6e90418"},"vehicle_type_id":"4","last_reported":1750860643,"current_range_meters":12400,"station_id":"ce4bhbp2rcd13ifvqerg","pricing_plan_id":"cebpf4jnsgd1na2vs0mg"},{"bike_id":"e288ef17-b5b1-4d2c-b190-319dd27debf6","system_id":"levelo_inurba_marseille","lat":43.24548,"lon":5.39521,"is_reserved":false,"is_disabled":false,"rental_uris":{"android":"levelo://app?vid=e288ef17-b5b1-4d2c-b190-319dd27debf6","ios":"levelo://app?vid=e288ef17-b5b1-4d2c-b190-319dd27debf6"},"vehicle_type_id":"4","last_reported":1750860643,"current_range_meters":12400,"station_id":"ce4bhlp2rcd13ifvqgjg","pricing_plan_id":"cebpf4jnsgd1na2vs0mg"},{"bike_id":"07dead3e-fced-4a36-b1c0-dda7dd873caf","system_id":"levelo_inurba_marseille","lat":43.23189,"lon":5.35574,"is_reserved":false,"is_disabled":false,"rental_uris":{"android":"levelo://app?vid=07dead3e-fced-4a36-b1c0-dda7dd873caf","ios":"levelo://app?vid=07dead3e-fced-4a36-b1c0-dda7dd873caf"},"vehicle_type_id":"4","last_reported":1750860643,"current_range_meters":12400,"station_id":"ce4bhu92rcd13ifvqi70","pricing_plan_id":"cebpf4jnsgd1na2vs0mg"},{"bike_id":"b6b861fa-fd27-43ad-89fb-4be1a264be92","system_id":"levelo_inurba_marseille","lat":43.24937,"lon":5.39017,"is_reserved":false,"is_disabled":false,"rental_uris":{"android":"levelo://app?vid=b6b861fa-fd27-43ad-89fb-4be1a264be92","ios":"levelo://app?vid=b6b861fa-fd27-43ad-89fb-4be1a264be92"},"vehicle_type_id":"4","last_reported":1750860643,"current_range_meters":12800,"station_id":"","pricing_plan_id":"cebpf4jnsgd1na2vs0mg"},{"bike_id":"5eee8925-0941-460b-a942-18fcb70bac7c","system_id":"levelo_inurba_marseille","lat":43.27249,"lon":5.40046,"is_reserved":false,"is_disabled":false,"rental_uris":{"android":"levelo://app?vid=5eee8925-0941-460b-a942-18fcb70bac7c","ios":"levelo://app?vid=5eee8925-0941-460b-a942-18fcb70bac7c"},"vehicle_type_id":"4","last_reported":1750860643,"current_range_meters":12800,"station_id":"","pricing_plan_id":"cebpf4jnsgd1na2vs0mg"},{"bike_id":"65292dd6-04e9-43fc-8875-698ec8ff714b","system_id":"levelo_inurba_marseille","lat":43.27377,"lon":5.36258,"is_reserved":false,"is_disabled":false,"rental_uris":{"android":"levelo://app?vid=65292dd6-04e9-43fc-8875-698ec8ff714b","ios":"levelo://app?vid=65292dd6-04e9-43fc-8875-698ec8ff714b"},"vehicle_type_id":"4","last_reported":1750860643,"current_range_meters":12800,"station_id":"ce4bhbh2rcd13ifvqeo0","pricing_plan_id":"cebpf4jnsgd1na2vs0mg"},{"bike_id":"65a6d8d3-1332-4443-a30c-a501bdb817b6","system_id":"levelo_inurba_marseille","lat":43.24194,"lon":5.39716,"is_reserved":false,"is_disabled":false,"rental_uris":{"android":"levelo://app?vid=65a6d8d3-1332-4443-a30c-a501bdb817b6","ios":"levelo://app?vid=65a6d8d3-1332-4443-a30c-a501bdb817b6"},"vehicle_type_id":"4","last_reported":1750860643,"current_range_meters":12800,"station_id":"ce4bhn12rcd13ifvqgpg","pricing_plan_id":"cebpf4jnsgd1na2vs0mg"},{"bike_id":"cdc23474-b6bb-4695-a7f1-7f20aa1f2faf","system_id":"levelo_inurba_marseille","lat":43.22935,"lon":5.35416,"is_reserved":false,"is_disabled":false,"rental_uris":{"android":"levelo://app?vid=cdc23474-b6bb-4695-a7f1-7f20aa1f2faf","ios":"levelo://app?vid=cdc23474-b6bb-4695-a7f1-7f20aa1f2faf"},"vehicle_type_id":"4","last_reported":1750860643,"current_range_meters":12800,"station_id":"cpo3532slgdg3j2ikp40","pricing_plan_id":"cebpf4jnsgd1na2vs0mg"},{"bike_id":"441e2f39-7054-4744-894b-72ac8474531d","system_id":"levelo_inurba_marseille","lat":43.2119,"lon":5.35073,"is_reserved":false,"is_disabled":false,"rental_uris":{"android":"levelo://app?vid=441e2f39-7054-4744-894b-72ac8474531d","ios":"levelo://app?vid=441e2f39-7054-4744-894b-72ac8474531d"},"vehicle_type_id":"4","last_reported":1750860643,"current_range_meters":12800,"station_id":"st_cvj6sg6p6f1abm77japg","pricing_plan_id":"cebpf4jnsgd1na2vs0mg"},{"bike_id":"bb992666-e378-41dd-a997-d63d1daca419","system_id":"levelo_inurba_marseille","lat":43.28171,"lon":5.44199,"is_reserved":false,"is_disabled":false,"rental_uris":{"android":"levelo://app?vid=bb992666-e378-41dd-a997-d63d1daca419","ios":"levelo://app?vid=bb992666-e378-41dd-a997-d63d1daca419"},"vehicle_type_id":"4","last_reported":1750860643,"current_range_meters":13600,"station_id":"","pricing_plan_id":"cebpf4jnsgd1na2vs0mg"},{"bike_id":"73003e5e-1157-4cf0-aafe-d13c75118280","system_id":"levelo_inurba_marseille","lat":43.33375,"lon":5.3964,"is_reserved":false,"is_disabled":false,"rental_uris":{"android":"levelo://app?vid=73003e5e-1157-4cf0-aafe-d13c75118280","ios":"levelo://app?vid=73003e5e-1157-4cf0-aafe-d13c75118280"},"vehicle_type_id":"4","last_reported":1750860643,"current_range_meters":13600,"station_id":"","pricing_plan_id":"cebpf4jnsgd1na2vs0mg"},{"bike_id":"15eba81a-307b-48d1-90ff-fb29f4aa0b22","system_id":"levelo_inurba_marseille","lat":43.29375,"lon":5.37833,"is_reserved":false,"is_disabled":false,"rental_uris":{"android":"levelo://app?vid=15eba81a-307b-48d1-90ff-fb29f4aa0b22","ios":"levelo://app?vid=15eba81a-307b-48d1-90ff-fb29f4aa0b22"},"vehicle_type_id":"4","last_reported":1750860643,"current_range_meters":13600,"station_id":"ce4bgjh2rcd13ifvqbf0","pricing_plan_id":"cebpf4jnsgd1na2vs0mg"},{"bike_id":"29f8bad4-2956-4935-ab5a-9c0464396c15","system_id":"levelo_inurba_marseille","lat":43.29033,"lon":5.37562,"is_reserved":false,"is_disabled":false,"rental_uris":{"android":"levelo://app?vid=29f8bad4-2956-4935-ab5a-9c0464396c15","ios":"levelo://app?vid=29f8bad4-2956-4935-ab5a-9c0464396c15"},"vehicle_type_id":"4","last_reported":1750860643,"current_range_meters":13600,"station_id":"ce4bh692rcd13ifvqe90","pricing_plan_id":"cebpf4jnsgd1na2vs0mg"},{"bike_id":"ab27ffc9-2825-45ee-ace3-336b0c867e5a","system_id":"levelo_inurba_marseille","lat":43.27374,"lon":5.36255,"is_reserved":false,"is_disabled":false,"rental_uris":{"android":"levelo://app?vid=ab27ffc9-2825-45ee-ace3-336b0c867e5a","ios":"levelo://app?vid=ab27ffc9-2825-45ee-ace3-336b0c867e5a"},"vehicle_type_id":"4","last_reported":1750860643,"current_range_meters":13600,"station_id":"ce4bhbh2rcd13ifvqeo0","pricing_plan_id":"cebpf4jnsgd1na2vs0mg"},{"bike_id":"7faac207-f171-439f-93c4-5d2116a375c4","system_id":"levelo_inurba_marseille","lat":43.28625,"lon":5.35112,"is_reserved":false,"is_disabled":false,"rental_uris":{"android":"levelo://app?vid=7faac207-f171-439f-93c4-5d2116a375c4","ios":"levelo://app?vid=7faac207-f171-439f-93c4-5d2116a375c4"},"vehicle_type_id":"4","last_reported":1750860643,"current_range_meters":13600,"station_id":"ce4bhch2rcd13ifvqeug","pricing_plan_id":"cebpf4jnsgd1na2vs0mg"},{"bike_id":"61960dca-3583-43b2-b1f8-1133f0a48d89","system_id":"levelo_inurba_marseille","lat":43.24532,"lon":5.39515,"is_reserved":false,"is_disabled":false,"rental_uris":{"android":"levelo://app?vid=61960dca-3583-43b2-b1f8-1133f0a48d89","ios":"levelo://app?vid=61960dca-3583-43b2-b1f8-1133f0a48d89"},"vehicle_type_id":"4","last_reported":1750860643,"current_range_meters":13600,"station_id":"ce4bhlp2rcd13ifvqgjg","pricing_plan_id":"cebpf4jnsgd1na2vs0mg"},{"bike_id":"eadc4879-54be-4fe2-856c-25fd5c834415","system_id":"levelo_inurba_marseille","lat":43.23195,"lon":5.35557,"is_reserved":false,"is_disabled":false,"rental_uris":{"android":"levelo://app?vid=eadc4879-54be-4fe2-856c-25fd5c834415","ios":"levelo://app?vid=eadc4879-54be-4fe2-856c-25fd5c834415"},"vehicle_type_id":"4","last_reported":1750860643,"current_range_meters":13600,"station_id":"ce4bhu92rcd13ifvqi70","pricing_plan_id":"cebpf4jnsgd1na2vs0mg"},{"bike_id":"26a14eba-87a9-47b8-9607-30bd0042d428","system_id":"levelo_inurba_marseille","lat":43.3146,"lon":5.39436,"is_reserved":false,"is_disabled":false,"rental_uris":{"android":"levelo://app?vid=26a14eba-87a9-47b8-9607-30bd0042d428","ios":"levelo://app?vid=26a14eba-87a9-47b8-9607-30bd0042d428"},"vehicle_type_id":"4","last_reported":1750860643,"current_range_meters":14000,"station_id":"","pricing_plan_id":"cebpf4jnsgd1na2vs0mg"},{"bike_id":"e158cdf0-9a46-4e9e-ae20-0df77458e5cb","system_id":"levelo_inurba_marseille","lat":43.27372,"lon":5.36254,"is_reserved":false,"is_disabled":false,"rental_uris":{"android":"levelo://app?vid=e158cdf0-9a46-4e9e-ae20-0df77458e5cb","ios":"levelo://app?vid=e158cdf0-9a46-4e9e-ae20-0df77458e5cb"},"vehicle_type_id":"4","last_reported":1750860643,"current_range_meters":14000,"station_id":"ce4bhbh2rcd13ifvqeo0","pricing_plan_id":"cebpf4jnsgd1na2vs0mg"},{"bike_id":"dadd55ec-1282-44bb-84f2-28ec8d9ebe35","system_id":"levelo_inurba_marseille","lat":43.28409,"lon":5.35004,"is_reserved":false,"is_disabled":false,"rental_uris":{"android":"levelo://app?vid=dadd55ec-1282-44bb-84f2-28ec8d9ebe35","ios":"levelo://app?vid=dadd55ec-1282-44bb-84f2-28ec8d9ebe35"},"vehicle_type_id":"4","last_reported":1750860643,"current_range_meters":14000,"station_id":"ce4bhbh2rcd13ifvqepg","pricing_plan_id":"cebpf4jnsgd1na2vs0mg"},{"bike_id":"d9841afe-1b18-4b9a-9643-30d81caed7d2","system_id":"levelo_inurba_marseille","lat":43.26563,"lon":5.37289,"is_reserved":false,"is_disabled":false,"rental_uris":{"android":"levelo://app?vid=d9841afe-1b18-4b9a-9643-30d81caed7d2","ios":"levelo://app?vid=d9841afe-1b18-4b9a-9643-30d81caed7d2"},"vehicle_type_id":"4","last_reported":1750860643,"current_range_meters":14000,"station_id":"ce4bhg12rcd13ifvqf70","pricing_plan_id":"cebpf4jnsgd1na2vs0mg"},{"bike_id":"32f934e8-49be-4361-974f-1c19dcd0d578","system_id":"levelo_inurba_marseille","lat":43.3035,"lon":5.41884,"is_reserved":false,"is_disabled":false,"rental_uris":{"android":"levelo://app?vid=32f934e8-49be-4361-974f-1c19dcd0d578","ios":"levelo://app?vid=32f934e8-49be-4361-974f-1c19dcd0d578"},"vehicle_type_id":"4","last_reported":1750860643,"current_range_meters":14000,"station_id":"ce4bhop2rcd13ifvqh7g","pricing_plan_id":"cebpf4jnsgd1na2vs0mg"},{"bike_id":"e2f5b300-4a63-4778-aada-c29a8a0ea1e8","system_id":"levelo_inurba_marseille","lat":43.32826,"lon":5.3918,"is_reserved":false,"is_disabled":false,"rental_uris":{"android":"levelo://app?vid=e2f5b300-4a63-4778-aada-c29a8a0ea1e8","ios":"levelo://app?vid=e2f5b300-4a63-4778-aada-c29a8a0ea1e8"},"vehicle_type_id":"4","last_reported":1750860643,"current_range_meters":14400,"station_id":"","pricing_plan_id":"cebpf4jnsgd1na2vs0mg"},{"bike_id":"31bee8d8-2faf-4822-8c0b-2e19a58fc748","system_id":"levelo_inurba_marseille","lat":43.29268,"lon":5.3764,"is_reserved":false,"is_disabled":false,"rental_uris":{"android":"levelo://app?vid=31bee8d8-2faf-4822-8c0b-2e19a58fc748","ios":"levelo://app?vid=31bee8d8-2faf-4822-8c0b-2e19a58fc748"},"vehicle_type_id":"4","last_reported":1750860643,"current_range_meters":14400,"station_id":"ce4bgi12rcd13ifvqb80","pricing_plan_id":"cebpf4jnsgd1na2vs0mg"},{"bike_id":"999358c1-ca11-4e82-a992-73b8d2972254","system_id":"levelo_inurba_marseille","lat":43.301465,"lon":5.374224,"is_reserved":false,"is_disabled":false,"rental_uris":{"android":"levelo://app?vid=999358c1-ca11-4e82-a992-73b8d2972254","ios":"levelo://app?vid=999358c1-ca11-4e82-a992-73b8d2972254"},"vehicle_type_id":"4","last_reported":1750860643,"current_range_meters":14800,"station_id":"ce4bgi92rcd13ifvqb90","pricing_plan_id":"cebpf4jnsgd1na2vs0mg"},{"bike_id":"aa732736-4e26-463a-8b0f-41a9b54eebd8","system_id":"levelo_inurba_marseille","lat":43.28623,"lon":5.35092,"is_reserved":false,"is_disabled":false,"rental_uris":{"android":"levelo://app?vid=aa732736-4e26-463a-8b0f-41a9b54eebd8","ios":"levelo://app?vid=aa732736-4e26-463a-8b0f-41a9b54eebd8"},"vehicle_type_id":"4","last_reported":1750860643,"current_range_meters":14800,"station_id":"ce4bhch2rcd13ifvqeug","pricing_plan_id":"cebpf4jnsgd1na2vs0mg"},{"bike_id":"5357491a-8466-4278-921d-5c0e38748773","system_id":"levelo_inurba_marseille","lat":43.279897,"lon":5.41649,"is_reserved":false,"is_disabled":false,"rental_uris":{"android":"levelo://app?vid=5357491a-8466-4278-921d-5c0e38748773","ios":"levelo://app?vid=5357491a-8466-4278-921d-5c0e38748773"},"vehicle_type_id":"4","last_reported":1750860643,"current_range_meters":14800,"station_id":"ce4bho12rcd13ifvqh1g","pricing_plan_id":"cebpf4jnsgd1na2vs0mg"},{"bike_id":"89422bbb-d931-4824-830a-ea79afc86dc1","system_id":"levelo_inurba_marseille","lat":43.23193,"lon":5.35551,"is_reserved":false,"is_disabled":false,"rental_uris":{"android":"levelo://app?vid=89422bbb-d931-4824-830a-ea79afc86dc1","ios":"levelo://app?vid=89422bbb-d931-4824-830a-ea79afc86dc1"},"vehicle_type_id":"4","last_reported":1750860643,"current_range_meters":14800,"station_id":"ce4bhu92rcd13ifvqi70","pricing_plan_id":"cebpf4jnsgd1na2vs0mg"},{"bike_id":"acc4f2ec-e86f-4f9e-abf2-7775eb1ca6f6","system_id":"levelo_inurba_marseille","lat":43.26987,"lon":5.40262,"is_reserved":false,"is_disabled":false,"rental_uris":{"android":"levelo://app?vid=acc4f2ec-e86f-4f9e-abf2-7775eb1ca6f6","ios":"levelo://app?vid=acc4f2ec-e86f-4f9e-abf2-7775eb1ca6f6"},"vehicle_type_id":"4","last_reported":1750860643,"current_range_meters":14800,"station_id":"cjm6bp8fraef2m0cb0m0","pricing_plan_id":"cebpf4jnsgd1na2vs0mg"},{"bike_id":"35d356ba-1790-42d1-b2b0-b56f6244af74","system_id":"levelo_inurba_marseille","lat":43.25708,"lon":5.37545,"is_reserved":false,"is_disabled":false,"rental_uris":{"android":"levelo://app?vid=35d356ba-1790-42d1-b2b0-b56f6244af74","ios":"levelo://app?vid=35d356ba-1790-42d1-b2b0-b56f6244af74"},"vehicle_type_id":"4","last_reported":1750860643,"current_range_meters":15200,"station_id":"","pricing_plan_id":"cebpf4jnsgd1na2vs0mg"},{"bike_id":"b8d8e527-1515-422a-a6f5-c946931fa1f6","system_id":"levelo_inurba_marseille","lat":43.30262,"lon":5.37709,"is_reserved":false,"is_disabled":false,"rental_uris":{"android":"levelo://app?vid=b8d8e527-1515-422a-a6f5-c946931fa1f6","ios":"levelo://app?vid=b8d8e527-1515-422a-a6f5-c946931fa1f6"},"vehicle_type_id":"4","last_reported":1750860643,"current_range_meters":15200,"station_id":"ce4bguh2rcd13ifvqcj0","pricing_plan_id":"cebpf4jnsgd1na2vs0mg"},{"bike_id":"5b0059f2-5a2a-41ce-b903-1f956adfdd24","system_id":"levelo_inurba_marseille","lat":43.29784,"lon":5.43557,"is_reserved":false,"is_disabled":false,"rental_uris":{"android":"levelo://app?vid=5b0059f2-5a2a-41ce-b903-1f956adfdd24","ios":"levelo://app?vid=5b0059f2-5a2a-41ce-b903-1f956adfdd24"},"vehicle_type_id":"4","last_reported":1750860643,"current_range_meters":16000,"station_id":"","pricing_plan_id":"cebpf4jnsgd1na2vs0mg"},{"bike_id":"0871c3e6-e8f1-4c1c-8436-754e80582f8b","system_id":"levelo_inurba_marseille","lat":43.28972,"lon":5.35728,"is_reserved":false,"is_disabled":false,"rental_uris":{"android":"levelo://app?vid=0871c3e6-e8f1-4c1c-8436-754e80582f8b","ios":"levelo://app?vid=0871c3e6-e8f1-4c1c-8436-754e80582f8b"},"vehicle_type_id":"4","last_reported":1750860643,"current_range_meters":16000,"station_id":"","pricing_plan_id":"cebpf4jnsgd1na2vs0mg"},{"bike_id":"83d64502-1fc6-4760-a2e0-8853a567ee49","system_id":"levelo_inurba_marseille","lat":43.33162,"lon":5.41035,"is_reserved":false,"is_disabled":false,"rental_uris":{"android":"levelo://app?vid=83d64502-1fc6-4760-a2e0-8853a567ee49","ios":"levelo://app?vid=83d64502-1fc6-4760-a2e0-8853a567ee49"},"vehicle_type_id":"4","last_reported":1750860643,"current_range_meters":16000,"station_id":"","pricing_plan_id":"cebpf4jnsgd1na2vs0mg"},{"bike_id":"0e00247e-91b8-4763-b7ec-404951dc6689","system_id":"levelo_inurba_marseille","lat":43.2917,"lon":5.3715,"is_reserved":false,"is_disabled":false,"rental_uris":{"android":"levelo://app?vid=0e00247e-91b8-4763-b7ec-404951dc6689","ios":"levelo://app?vid=0e00247e-91b8-4763-b7ec-404951dc6689"},"vehicle_type_id":"4","last_reported":1750860643,"current_range_meters":16000,"station_id":"ce4bha92rcd13ifvqeh0","pricing_plan_id":"cebpf4jnsgd1na2vs0mg"},{"bike_id":"5e402a36-38d9-4c34-9287-5b5bdb7f11ec","system_id":"levelo_inurba_marseille","lat":43.28265,"lon":5.35063,"is_reserved":false,"is_disabled":false,"rental_uris":{"android":"levelo://app?vid=5e402a36-38d9-4c34-9287-5b5bdb7f11ec","ios":"levelo://app?vid=5e402a36-38d9-4c34-9287-5b5bdb7f11ec"},"vehicle_type_id":"4","last_reported":1750860643,"current_range_meters":16000,"station_id":"ce4bhbp2rcd13ifvqerg","pricing_plan_id":"cebpf4jnsgd1na2vs0mg"},{"bike_id":"0d78e0a1-60f5-4275-a85b-68455ab26961","system_id":"levelo_inurba_marseille","lat":43.32339,"lon":5.40621,"is_reserved":false,"is_disabled":false,"rental_uris":{"android":"levelo://app?vid=0d78e0a1-60f5-4275-a85b-68455ab26961","ios":"levelo://app?vid=0d78e0a1-60f5-4275-a85b-68455ab26961"},"vehicle_type_id":"4","last_reported":1750860643,"current_range_meters":16000,"station_id":"ce4bhq92rcd13ifvqhjg","pricing_plan_id":"cebpf4jnsgd1na2vs0mg"},{"bike_id":"e91b9d14-44e7-4e68-b303-69330249b465","system_id":"levelo_inurba_marseille","lat":43.32358,"lon":5.38888,"is_reserved":false,"is_disabled":false,"rental_uris":{"android":"levelo://app?vid=e91b9d14-44e7-4e68-b303-69330249b465","ios":"levelo://app?vid=e91b9d14-44e7-4e68-b303-69330249b465"},"vehicle_type_id":"4","last_reported":1750860643,"current_range_meters":16000,"station_id":"ce4bhqp2rcd13ifvqhog","pricing_plan_id":"cebpf4jnsgd1na2vs0mg"},{"bike_id":"d1a0901c-67df-47a9-b548-1eec4a8a1003","system_id":"levelo_inurba_marseille","lat":43.32497,"lon":5.3657,"is_reserved":false,"is_disabled":false,"rental_uris":{"android":"levelo://app?vid=d1a0901c-67df-47a9-b548-1eec4a8a1003","ios":"levelo://app?vid=d1a0901c-67df-47a9-b548-1eec4a8a1003"},"vehicle_type_id":"4","last_reported":1750860643,"current_range_meters":16000,"station_id":"ce4bhs12rcd13ifvqhvg","pricing_plan_id":"cebpf4jnsgd1na2vs0mg"},{"bike_id":"b719baf6-2b31-4035-84ab-3e9feb1a5ad7","system_id":"levelo_inurba_marseille","lat":43.21749,"lon":5.34603,"is_reserved":false,"is_disabled":false,"rental_uris":{"android":"levelo://app?vid=b719baf6-2b31-4035-84ab-3e9feb1a5ad7","ios":"levelo://app?vid=b719baf6-2b31-4035-84ab-3e9feb1a5ad7"},"vehicle_type_id":"4","last_reported":1750860643,"current_range_meters":16000,"station_id":"st_cvj6r9ubvosntc0bgbag","pricing_plan_id":"cebpf4jnsgd1na2vs0mg"},{"bike_id":"484955cf-038d-42d0-8d1e-ecf2c4e7ae11","system_id":"levelo_inurba_marseille","lat":43.30356,"lon":5.41884,"is_reserved":false,"is_disabled":false,"rental_uris":{"android":"levelo://app?vid=484955cf-038d-42d0-8d1e-ecf2c4e7ae11","ios":"levelo://app?vid=484955cf-038d-42d0-8d1e-ecf2c4e7ae11"},"vehicle_type_id":"4","last_reported":1750860643,"current_range_meters":16400,"station_id":"ce4bhop2rcd13ifvqh7g","pricing_plan_id":"cebpf4jnsgd1na2vs0mg"},{"bike_id":"43d368ea-aad7-48e4-b56a-916b19d8fa40","system_id":"levelo_inurba_marseille","lat":43.32365,"lon":5.36761,"is_reserved":false,"is_disabled":false,"rental_uris":{"android":"levelo://app?vid=43d368ea-aad7-48e4-b56a-916b19d8fa40","ios":"levelo://app?vid=43d368ea-aad7-48e4-b56a-916b19d8fa40"},"vehicle_type_id":"4","last_reported":1750860643,"current_range_meters":16400,"station_id":"ce4bhsh2rcd13ifvqi2g","pricing_plan_id":"cebpf4jnsgd1na2vs0mg"},{"bike_id":"81f770e2-c8d2-4cc0-9803-7c95f7ad9e60","system_id":"levelo_inurba_marseille","lat":43.30492,"lon":5.37349,"is_reserved":false,"is_disabled":false,"rental_uris":{"android":"levelo://app?vid=81f770e2-c8d2-4cc0-9803-7c95f7ad9e60","ios":"levelo://app?vid=81f770e2-c8d2-4cc0-9803-7c95f7ad9e60"},"vehicle_type_id":"4","last_reported":1750860643,"current_range_meters":16800,"station_id":"","pricing_plan_id":"cebpf4jnsgd1na2vs0mg"},{"bike_id":"a0ea5433-8a80-4b59-b0d1-ee6ff0623684","system_id":"levelo_inurba_marseille","lat":43.21753,"lon":5.346,"is_reserved":false,"is_disabled":false,"rental_uris":{"android":"levelo://app?vid=a0ea5433-8a80-4b59-b0d1-ee6ff0623684","ios":"levelo://app?vid=a0ea5433-8a80-4b59-b0d1-ee6ff0623684"},"vehicle_type_id":"4","last_reported":1750860643,"current_range_meters":16800,"station_id":"","pricing_plan_id":"cebpf4jnsgd1na2vs0mg"},{"bike_id":"e4463e21-c0d0-4a48-80f8-2e34e960b2b1","system_id":"levelo_inurba_marseille","lat":43.25039,"lon":5.41649,"is_reserved":false,"is_disabled":false,"rental_uris":{"android":"levelo://app?vid=e4463e21-c0d0-4a48-80f8-2e34e960b2b1","ios":"levelo://app?vid=e4463e21-c0d0-4a48-80f8-2e34e960b2b1"},"vehicle_type_id":"4","last_reported":1750860643,"current_range_meters":16800,"station_id":"","pricing_plan_id":"cebpf4jnsgd1na2vs0mg"},{"bike_id":"71e03408-20db-4376-8644-088cf325cdec","system_id":"levelo_inurba_marseille","lat":43.29983,"lon":5.38496,"is_reserved":false,"is_disabled":false,"rental_uris":{"android":"levelo://app?vid=71e03408-20db-4376-8644-088cf325cdec","ios":"levelo://app?vid=71e03408-20db-4376-8644-088cf325cdec"},"vehicle_type_id":"4","last_reported":1750860643,"current_range_meters":16800,"station_id":"ce4bgj92rcd13ifvqbd0","pricing_plan_id":"cebpf4jnsgd1na2vs0mg"},{"bike_id":"2bddc4bf-90d7-4b1a-b70a-2c6da5100619","system_id":"levelo_inurba_marseille","lat":43.29254,"lon":5.40914,"is_reserved":false,"is_disabled":false,"rental_uris":{"android":"levelo://app?vid=2bddc4bf-90d7-4b1a-b70a-2c6da5100619","ios":"levelo://app?vid=2bddc4bf-90d7-4b1a-b70a-2c6da5100619"},"vehicle_type_id":"4","last_reported":1750860643,"current_range_meters":16800,"station_id":"ce4bh192rcd13ifvqdc0","pricing_plan_id":"cebpf4jnsgd1na2vs0mg"},{"bike_id":"4f6b7799-6501-49ab-a621-96e7bf711aee","system_id":"levelo_inurba_marseille","lat":43.25935,"lon":5.40901,"is_reserved":false,"is_disabled":false,"rental_uris":{"android":"levelo://app?vid=4f6b7799-6501-49ab-a621-96e7bf711aee","ios":"levelo://app?vid=4f6b7799-6501-49ab-a621-96e7bf711aee"},"vehicle_type_id":"4","last_reported":1750860643,"current_range_meters":16800,"station_id":"ce4bhm92rcd13ifvqglg","pricing_plan_id":"cebpf4jnsgd1na2vs0mg"},{"bike_id":"8c6955cb-837a-4af6-b5cc-72b9d979ff66","system_id":"levelo_inurba_marseille","lat":43.28694,"lon":5.39986,"is_reserved":false,"is_disabled":false,"rental_uris":{"android":"levelo://app?vid=8c6955cb-837a-4af6-b5cc-72b9d979ff66","ios":"levelo://app?vid=8c6955cb-837a-4af6-b5cc-72b9d979ff66"},"vehicle_type_id":"4","last_reported":1750860643,"current_range_meters":16800,"station_id":"ce4bho92rcd13ifvqh3g","pricing_plan_id":"cebpf4jnsgd1na2vs0mg"},{"bike_id":"675899e2-807f-4bae-82ad-69f3065c6218","system_id":"levelo_inurba_marseille","lat":43.21753,"lon":5.34604,"is_reserved":false,"is_disabled":false,"rental_uris":{"android":"levelo://app?vid=675899e2-807f-4bae-82ad-69f3065c6218","ios":"levelo://app?vid=675899e2-807f-4bae-82ad-69f3065c6218"},"vehicle_type_id":"4","last_reported":1750860643,"current_range_meters":17200,"station_id":"","pricing_plan_id":"cebpf4jnsgd1na2vs0mg"},{"bike_id":"1c99bae3-04ab-4912-8d8a-17f647789180","system_id":"levelo_inurba_marseille","lat":43.29932,"lon":5.36547,"is_reserved":false,"is_disabled":false,"rental_uris":{"android":"levelo://app?vid=1c99bae3-04ab-4912-8d8a-17f647789180","ios":"levelo://app?vid=1c99bae3-04ab-4912-8d8a-17f647789180"},"vehicle_type_id":"4","last_reported":1750860643,"current_range_meters":17200,"station_id":"ce4bgm92rcd13ifvqbr0","pricing_plan_id":"cebpf4jnsgd1na2vs0mg"},{"bike_id":"eb959947-4f35-40cf-9ff9-055aa4019e4f","system_id":"levelo_inurba_marseille","lat":43.29718,"lon":5.36592,"is_reserved":false,"is_disabled":false,"rental_uris":{"android":"levelo://app?vid=eb959947-4f35-40cf-9ff9-055aa4019e4f","ios":"levelo://app?vid=eb959947-4f35-40cf-9ff9-055aa4019e4f"},"vehicle_type_id":"4","last_reported":1750860643,"current_range_meters":17200,"station_id":"ce4bgn12rcd13ifvqbt0","pricing_plan_id":"cebpf4jnsgd1na2vs0mg"},{"bike_id":"5b99423b-a680-4ced-b7f0-ceb9fc75c186","system_id":"levelo_inurba_marseille","lat":43.27367,"lon":5.36254,"is_reserved":false,"is_disabled":false,"rental_uris":{"android":"levelo://app?vid=5b99423b-a680-4ced-b7f0-ceb9fc75c186","ios":"levelo://app?vid=5b99423b-a680-4ced-b7f0-ceb9fc75c186"},"vehicle_type_id":"4","last_reported":1750860643,"current_range_meters":17200,"station_id":"ce4bhbh2rcd13ifvqeo0","pricing_plan_id":"cebpf4jnsgd1na2vs0mg"},{"bike_id":"d20bf403-51de-4acc-9e5e-ea1de4e00fff","system_id":"levelo_inurba_marseille","lat":43.28411,"lon":5.34995,"is_reserved":false,"is_disabled":false,"rental_uris":{"android":"levelo://app?vid=d20bf403-51de-4acc-9e5e-ea1de4e00fff","ios":"levelo://app?vid=d20bf403-51de-4acc-9e5e-ea1de4e00fff"},"vehicle_type_id":"4","last_reported":1750860643,"current_range_meters":17200,"station_id":"ce4bhbh2rcd13ifvqepg","pricing_plan_id":"cebpf4jnsgd1na2vs0mg"},{"bike_id":"10fa9658-08a0-4035-9ad7-50ce43a99037","system_id":"levelo_inurba_marseille","lat":43.28267,"lon":5.35058,"is_reserved":false,"is_disabled":false,"rental_uris":{"android":"levelo://app?vid=10fa9658-08a0-4035-9ad7-50ce43a99037","ios":"levelo://app?vid=10fa9658-08a0-4035-9ad7-50ce43a99037"},"vehicle_type_id":"4","last_reported":1750860643,"current_range_meters":17200,"station_id":"ce4bhbp2rcd13ifvqerg","pricing_plan_id":"cebpf4jnsgd1na2vs0mg"},{"bike_id":"ffd2fe4c-e2ee-4179-9524-0501e26bc45f","system_id":"levelo_inurba_marseille","lat":43.27497,"lon":5.42458,"is_reserved":false,"is_disabled":false,"rental_uris":{"android":"levelo://app?vid=ffd2fe4c-e2ee-4179-9524-0501e26bc45f","ios":"levelo://app?vid=ffd2fe4c-e2ee-4179-9524-0501e26bc45f"},"vehicle_type_id":"4","last_reported":1750860643,"current_range_meters":17200,"station_id":"ce4bhn92rcd13ifvqgrg","pricing_plan_id":"cebpf4jnsgd1na2vs0mg"},{"bike_id":"70a87e8b-7ad1-4bdf-b181-5e2fc38709cd","system_id":"levelo_inurba_marseille","lat":43.29896,"lon":5.4367,"is_reserved":false,"is_disabled":false,"rental_uris":{"android":"levelo://app?vid=70a87e8b-7ad1-4bdf-b181-5e2fc38709cd","ios":"levelo://app?vid=70a87e8b-7ad1-4bdf-b181-5e2fc38709cd"},"vehicle_type_id":"4","last_reported":1750860643,"current_range_meters":17200,"station_id":"ce4bhpp2rcd13ifvqhfg","pricing_plan_id":"cebpf4jnsgd1na2vs0mg"},{"bike_id":"e9fd402f-01f0-47d3-a7d6-902cfb36be07","system_id":"levelo_inurba_marseille","lat":43.22933,"lon":5.35388,"is_reserved":false,"is_disabled":false,"rental_uris":{"android":"levelo://app?vid=e9fd402f-01f0-47d3-a7d6-902cfb36be07","ios":"levelo://app?vid=e9fd402f-01f0-47d3-a7d6-902cfb36be07"},"vehicle_type_id":"4","last_reported":1750860643,"current_range_meters":17200,"station_id":"cpo3532slgdg3j2ikp40","pricing_plan_id":"cebpf4jnsgd1na2vs0mg"},{"bike_id":"15b2721a-3664-49e1-9877-261c08daeef5","system_id":"levelo_inurba_marseille","lat":43.21186,"lon":5.35068,"is_reserved":false,"is_disabled":false,"rental_uris":{"android":"levelo://app?vid=15b2721a-3664-49e1-9877-261c08daeef5","ios":"levelo://app?vid=15b2721a-3664-49e1-9877-261c08daeef5"},"vehicle_type_id":"4","last_reported":1750860643,"current_range_meters":17200,"station_id":"st_cvj6sg6p6f1abm77japg","pricing_plan_id":"cebpf4jnsgd1na2vs0mg"},{"bike_id":"af4cff9b-9b01-47a9-9e53-823f3233dfcc","system_id":"levelo_inurba_marseille","lat":43.21188,"lon":5.35072,"is_reserved":false,"is_disabled":false,"rental_uris":{"android":"levelo://app?vid=af4cff9b-9b01-47a9-9e53-823f3233dfcc","ios":"levelo://app?vid=af4cff9b-9b01-47a9-9e53-823f3233dfcc"},"vehicle_type_id":"4","last_reported":1750860643,"current_range_meters":17200,"station_id":"st_cvj6sg6p6f1abm77japg","pricing_plan_id":"cebpf4jnsgd1na2vs0mg"},{"bike_id":"4dbfbb1d-f6ae-4c61-8108-5f97c6af8592","system_id":"levelo_inurba_marseille","lat":43.26222,"lon":5.37434,"is_reserved":false,"is_disabled":false,"rental_uris":{"android":"levelo://app?vid=4dbfbb1d-f6ae-4c61-8108-5f97c6af8592","ios":"levelo://app?vid=4dbfbb1d-f6ae-4c61-8108-5f97c6af8592"},"vehicle_type_id":"4","last_reported":1750860643,"current_range_meters":17600,"station_id":"","pricing_plan_id":"cebpf4jnsgd1na2vs0mg"},{"bike_id":"de0f7c2b-5974-4035-a240-8ed367c0e3f3","system_id":"levelo_inurba_marseille","lat":43.31968,"lon":5.37632,"is_reserved":false,"is_disabled":false,"rental_uris":{"android":"levelo://app?vid=de0f7c2b-5974-4035-a240-8ed367c0e3f3","ios":"levelo://app?vid=de0f7c2b-5974-4035-a240-8ed367c0e3f3"},"vehicle_type_id":"4","last_reported":1750860643,"current_range_meters":17600,"station_id":"","pricing_plan_id":"cebpf4jnsgd1na2vs0mg"},{"bike_id":"ddfbf16e-0e7c-48c2-91ce-f4494a0283dc","system_id":"levelo_inurba_marseille","lat":43.30607,"lon":5.37226,"is_reserved":false,"is_disabled":false,"rental_uris":{"android":"levelo://app?vid=ddfbf16e-0e7c-48c2-91ce-f4494a0283dc","ios":"levelo://app?vid=ddfbf16e-0e7c-48c2-91ce-f4494a0283dc"},"vehicle_type_id":"4","last_reported":1750860643,"current_range_meters":17600,"station_id":"ce4bgqh2rcd13ifvqc4g","pricing_plan_id":"cebpf4jnsgd1na2vs0mg"},{"bike_id":"3912d5a9-6809-4395-9a1d-1412d18a998e","system_id":"levelo_inurba_marseille","lat":43.23964,"lon":5.36627,"is_reserved":false,"is_disabled":false,"rental_uris":{"android":"levelo://app?vid=3912d5a9-6809-4395-9a1d-1412d18a998e","ios":"levelo://app?vid=3912d5a9-6809-4395-9a1d-1412d18a998e"},"vehicle_type_id":"4","last_reported":1750860643,"current_range_meters":17600,"station_id":"ce4bhi12rcd13ifvqfp0","pricing_plan_id":"cebpf4jnsgd1na2vs0mg"},{"bike_id":"eb47095a-2b2e-478b-aeac-0b73e2938fa7","system_id":"levelo_inurba_marseille","lat":43.22511,"lon":5.34787,"is_reserved":false,"is_disabled":false,"rental_uris":{"android":"levelo://app?vid=eb47095a-2b2e-478b-aeac-0b73e2938fa7","ios":"levelo://app?vid=eb47095a-2b2e-478b-aeac-0b73e2938fa7"},"vehicle_type_id":"4","last_reported":1750860643,"current_range_meters":18000,"station_id":"","pricing_plan_id":"cebpf4jnsgd1na2vs0mg"},{"bike_id":"8c397212-9c53-4a5d-bd80-db1b2c9b131a","system_id":"levelo_inurba_marseille","lat":43.30899,"lon":5.36848,"is_reserved":false,"is_disabled":false,"rental_uris":{"android":"levelo://app?vid=8c397212-9c53-4a5d-bd80-db1b2c9b131a","ios":"levelo://app?vid=8c397212-9c53-4a5d-bd80-db1b2c9b131a"},"vehicle_type_id":"4","last_reported":1750860643,"current_range_meters":18000,"station_id":"ce4bgn92rcd13ifvqbvg","pricing_plan_id":"cebpf4jnsgd1na2vs0mg"},{"bike_id":"8e59d427-2771-466d-b239-cfab265e6423","system_id":"levelo_inurba_marseille","lat":43.30546,"lon":5.3656,"is_reserved":false,"is_disabled":false,"rental_uris":{"android":"levelo://app?vid=8e59d427-2771-466d-b239-cfab265e6423","ios":"levelo://app?vid=8e59d427-2771-466d-b239-cfab265e6423"},"vehicle_type_id":"4","last_reported":1750860643,"current_range_meters":18000,"station_id":"ce4bgs12rcd13ifvqcag","pricing_plan_id":"cebpf4jnsgd1na2vs0mg"},{"bike_id":"c86d264e-e6a9-4696-a44b-00fbd257fe8c","system_id":"levelo_inurba_marseille","lat":43.284254,"lon":5.349967,"is_reserved":false,"is_disabled":false,"rental_uris":{"android":"levelo://app?vid=c86d264e-e6a9-4696-a44b-00fbd257fe8c","ios":"levelo://app?vid=c86d264e-e6a9-4696-a44b-00fbd257fe8c"},"vehicle_type_id":"4","last_reported":1750860643,"current_range_meters":18000,"station_id":"ce4bhbh2rcd13ifvqepg","pricing_plan_id":"cebpf4jnsgd1na2vs0mg"},{"bike_id":"9eef2323-f181-4fc2-b748-09d868340ecc","system_id":"levelo_inurba_marseille","lat":43.286371,"lon":5.351274,"is_reserved":false,"is_disabled":false,"rental_uris":{"android":"levelo://app?vid=9eef2323-f181-4fc2-b748-09d868340ecc","ios":"levelo://app?vid=9eef2323-f181-4fc2-b748-09d868340ecc"},"vehicle_type_id":"4","last_reported":1750860643,"current_range_meters":18000,"station_id":"ce4bhch2rcd13ifvqeug","pricing_plan_id":"cebpf4jnsgd1na2vs0mg"},{"bike_id":"4b8da722-ee9e-48a4-a5e5-3a8a10364708","system_id":"levelo_inurba_marseille","lat":43.31233,"lon":5.37824,"is_reserved":false,"is_disabled":false,"rental_uris":{"android":"levelo://app?vid=4b8da722-ee9e-48a4-a5e5-3a8a10364708","ios":"levelo://app?vid=4b8da722-ee9e-48a4-a5e5-3a8a10364708"},"vehicle_type_id":"4","last_reported":1750860643,"current_range_meters":18800,"station_id":"","pricing_plan_id":"cebpf4jnsgd1na2vs0mg"},{"bike_id":"c3d951ea-3701-4d76-8e41-09648beae56a","system_id":"levelo_inurba_marseille","lat":43.248606,"lon":5.373589,"is_reserved":false,"is_disabled":false,"rental_uris":{"android":"levelo://app?vid=c3d951ea-3701-4d76-8e41-09648beae56a","ios":"levelo://app?vid=c3d951ea-3701-4d76-8e41-09648beae56a"},"vehicle_type_id":"4","last_reported":1750860643,"current_range_meters":18800,"station_id":"","pricing_plan_id":"cebpf4jnsgd1na2vs0mg"},{"bike_id":"9b043929-f4c2-41bb-993c-274d2578d57f","system_id":"levelo_inurba_marseille","lat":43.298,"lon":5.38109,"is_reserved":false,"is_disabled":false,"rental_uris":{"android":"levelo://app?vid=9b043929-f4c2-41bb-993c-274d2578d57f","ios":"levelo://app?vid=9b043929-f4c2-41bb-993c-274d2578d57f"},"vehicle_type_id":"4","last_reported":1750860643,"current_range_meters":18800,"station_id":"ce4bgip2rcd13ifvqbb0","pricing_plan_id":"cebpf4jnsgd1na2vs0mg"},{"bike_id":"b8288d92-6416-4a15-9930-f139cc066897","system_id":"levelo_inurba_marseille","lat":43.3019,"lon":5.3661,"is_reserved":false,"is_disabled":false,"rental_uris":{"android":"levelo://app?vid=b8288d92-6416-4a15-9930-f139cc066897","ios":"levelo://app?vid=b8288d92-6416-4a15-9930-f139cc066897"},"vehicle_type_id":"4","last_reported":1750860643,"current_range_meters":18800,"station_id":"ce4bgrh2rcd13ifvqc8g","pricing_plan_id":"cebpf4jnsgd1na2vs0mg"},{"bike_id":"c91d7d8c-4b63-4c76-b8ff-da511654b1ed","system_id":"levelo_inurba_marseille","lat":43.31075,"lon":5.38354,"is_reserved":false,"is_disabled":false,"rental_uris":{"android":"levelo://app?vid=c91d7d8c-4b63-4c76-b8ff-da511654b1ed","ios":"levelo://app?vid=c91d7d8c-4b63-4c76-b8ff-da511654b1ed"},"vehicle_type_id":"4","last_reported":1750860643,"current_range_meters":18800,"station_id":"ce4bgv92rcd13ifvqcr0","pricing_plan_id":"cebpf4jnsgd1na2vs0mg"},{"bike_id":"9b50daec-f560-4c88-867a-d9bb9ede1223","system_id":"levelo_inurba_marseille","lat":43.3249,"lon":5.36547,"is_reserved":false,"is_disabled":false,"rental_uris":{"android":"levelo://app?vid=9b50daec-f560-4c88-867a-d9bb9ede1223","ios":"levelo://app?vid=9b50daec-f560-4c88-867a-d9bb9ede1223"},"vehicle_type_id":"4","last_reported":1750860643,"current_range_meters":18800,"station_id":"ce4bhs12rcd13ifvqhvg","pricing_plan_id":"cebpf4jnsgd1na2vs0mg"},{"bike_id":"b935579a-e9d3-4ccf-a111-a22b8dbf997d","system_id":"levelo_inurba_marseille","lat":43.2119,"lon":5.35081,"is_reserved":false,"is_disabled":false,"rental_uris":{"android":"levelo://app?vid=b935579a-e9d3-4ccf-a111-a22b8dbf997d","ios":"levelo://app?vid=b935579a-e9d3-4ccf-a111-a22b8dbf997d"},"vehicle_type_id":"4","last_reported":1750860643,"current_range_meters":18800,"station_id":"st_cvj6sg6p6f1abm77japg","pricing_plan_id":"cebpf4jnsgd1na2vs0mg"},{"bike_id":"a69ed6b0-7f8b-461d-a92b-97063cf3913f","system_id":"levelo_inurba_marseille","lat":43.30445,"lon":5.37879,"is_reserved":false,"is_disabled":false,"rental_uris":{"android":"levelo://app?vid=a69ed6b0-7f8b-461d-a92b-97063cf3913f","ios":"levelo://app?vid=a69ed6b0-7f8b-461d-a92b-97063cf3913f"},"vehicle_type_id":"4","last_reported":1750860643,"current_range_meters":19200,"station_id":"ce4bgup2rcd13ifvqcn0","pricing_plan_id":"cebpf4jnsgd1na2vs0mg"},{"bike_id":"80b1b14d-401e-4ca0-bbb4-5efc8c5c1fb5","system_id":"levelo_inurba_marseille","lat":43.30923,"lon":5.396335,"is_reserved":false,"is_disabled":false,"rental_uris":{"android":"levelo://app?vid=80b1b14d-401e-4ca0-bbb4-5efc8c5c1fb5","ios":"levelo://app?vid=80b1b14d-401e-4ca0-bbb4-5efc8c5c1fb5"},"vehicle_type_id":"4","last_reported":1750860643,"current_range_meters":19200,"station_id":"ce4bh012rcd13ifvqcv0","pricing_plan_id":"cebpf4jnsgd1na2vs0mg"},{"bike_id":"abddc928-9a27-4d6a-9a77-ea07777b9f8f","system_id":"levelo_inurba_marseille","lat":43.30209,"lon":5.39467,"is_reserved":false,"is_disabled":false,"rental_uris":{"android":"levelo://app?vid=abddc928-9a27-4d6a-9a77-ea07777b9f8f","ios":"levelo://app?vid=abddc928-9a27-4d6a-9a77-ea07777b9f8f"},"vehicle_type_id":"4","last_reported":1750860643,"current_range_meters":19200,"station_id":"ce4bh0p2rcd13ifvqd70","pricing_plan_id":"cebpf4jnsgd1na2vs0mg"},{"bike_id":"4e12a238-f661-45dc-91d7-15e43a61459d","system_id":"levelo_inurba_marseille","lat":43.29009,"lon":5.35612,"is_reserved":false,"is_disabled":false,"rental_uris":{"android":"levelo://app?vid=4e12a238-f661-45dc-91d7-15e43a61459d","ios":"levelo://app?vid=4e12a238-f661-45dc-91d7-15e43a61459d"},"vehicle_type_id":"4","last_reported":1750860643,"current_range_meters":19200,"station_id":"ce4bhb92rcd13ifvqen0","pricing_plan_id":"cebpf4jnsgd1na2vs0mg"},{"bike_id":"414d9bfa-97ec-4194-a3a3-27c9e14d3638","system_id":"levelo_inurba_marseille","lat":43.28263,"lon":5.3508,"is_reserved":false,"is_disabled":false,"rental_uris":{"android":"levelo://app?vid=414d9bfa-97ec-4194-a3a3-27c9e14d3638","ios":"levelo://app?vid=414d9bfa-97ec-4194-a3a3-27c9e14d3638"},"vehicle_type_id":"4","last_reported":1750860643,"current_range_meters":19200,"station_id":"ce4bhbp2rcd13ifvqerg","pricing_plan_id":"cebpf4jnsgd1na2vs0mg"},{"bike_id":"225e68e6-3707-4024-af3f-715b016a690b","system_id":"levelo_inurba_marseille","lat":43.26208,"lon":5.37462,"is_reserved":false,"is_disabled":false,"rental_uris":{"android":"levelo://app?vid=225e68e6-3707-4024-af3f-715b016a690b","ios":"levelo://app?vid=225e68e6-3707-4024-af3f-715b016a690b"},"vehicle_type_id":"4","last_reported":1750860643,"current_range_meters":19200,"station_id":"ce4bhgp2rcd13ifvqfc0","pricing_plan_id":"cebpf4jnsgd1na2vs0mg"},{"bike_id":"961295bf-4ab6-4860-85b0-d84c5acb907b","system_id":"levelo_inurba_marseille","lat":43.23963,"lon":5.36635,"is_reserved":false,"is_disabled":false,"rental_uris":{"android":"levelo://app?vid=961295bf-4ab6-4860-85b0-d84c5acb907b","ios":"levelo://app?vid=961295bf-4ab6-4860-85b0-d84c5acb907b"},"vehicle_type_id":"4","last_reported":1750860643,"current_range_meters":19200,"station_id":"ce4bhi12rcd13ifvqfp0","pricing_plan_id":"cebpf4jnsgd1na2vs0mg"},{"bike_id":"daeccd20-5f21-46bd-831c-fd96b3d710f9","system_id":"levelo_inurba_marseille","lat":43.26491,"lon":5.39552,"is_reserved":false,"is_disabled":false,"rental_uris":{"android":"levelo://app?vid=daeccd20-5f21-46bd-831c-fd96b3d710f9","ios":"levelo://app?vid=daeccd20-5f21-46bd-831c-fd96b3d710f9"},"vehicle_type_id":"4","last_reported":1750860643,"current_range_meters":19200,"station_id":"ce4bhi12rcd13ifvqfq0","pricing_plan_id":"cebpf4jnsgd1na2vs0mg"},{"bike_id":"dcd83c0c-d273-4a2b-9987-f2b35887ca25","system_id":"levelo_inurba_marseille","lat":43.27073,"lon":5.42282,"is_reserved":false,"is_disabled":false,"rental_uris":{"android":"levelo://app?vid=dcd83c0c-d273-4a2b-9987-f2b35887ca25","ios":"levelo://app?vid=dcd83c0c-d273-4a2b-9987-f2b35887ca25"},"vehicle_type_id":"4","last_reported":1750860643,"current_range_meters":19200,"station_id":"ce4bhk92rcd13ifvqgb0","pricing_plan_id":"cebpf4jnsgd1na2vs0mg"},{"bike_id":"5fad8d67-a56a-43af-aec9-fc59d1101bd8","system_id":"levelo_inurba_marseille","lat":43.25923,"lon":5.4087,"is_reserved":false,"is_disabled":false,"rental_uris":{"android":"levelo://app?vid=5fad8d67-a56a-43af-aec9-fc59d1101bd8","ios":"levelo://app?vid=5fad8d67-a56a-43af-aec9-fc59d1101bd8"},"vehicle_type_id":"4","last_reported":1750860643,"current_range_meters":19200,"station_id":"ce4bhm92rcd13ifvqglg","pricing_plan_id":"cebpf4jnsgd1na2vs0mg"},{"bike_id":"14ac0963-a9cf-4670-a599-1f0e324e6ed8","system_id":"levelo_inurba_marseille","lat":43.231544,"lon":5.43723,"is_reserved":false,"is_disabled":false,"rental_uris":{"android":"levelo://app?vid=14ac0963-a9cf-4670-a599-1f0e324e6ed8","ios":"levelo://app?vid=14ac0963-a9cf-4670-a599-1f0e324e6ed8"},