{"last_updated":1774892987,"ttl":60,"version":"2.2","data":{"bikes":[{"bike_id":"e4956c66-fba0-45d5-a7d2-90ca01f34637","system_id":"levelo_inurba_marseille","lat":43.21739,"lon":5.34579,"is_reserved":false,"is_disabled":false,"rental_uris":{"android":"levelo://app?vid=e4956c66-fba0-45d5-a7d2-90ca01f34637","ios":"levelo://app?vid=e4956c66-fba0-45d5-a7d2-90ca01f34637"},"vehicle_type_id":"4","last_reported":1774892988,"current_range_meters":2800,"station_id":"st_cvj6r9ubvosntc0bgbag","pricing_plan_id":"cebpf4jnsgd1na2vs0mg"},{"bike_id":"9a1e331d-1d6d-423e-90aa-210c6d33f5be","system_id":"levelo_inurba_marseille","lat":43.33269,"lon":5.37919,"is_reserved":false,"is_disabled":false,"rental_uris":{"android":"levelo://app?vid=9a1e331d-1d6d-423e-90aa-210c6d33f5be","ios":"levelo://app?vid=9a1e331d-1d6d-423e-90aa-210c6d33f5be"},"vehicle_type_id":"4","last_reported":1774892988,"current_range_meters":2800,"station_id":"","pricing_plan_id":"cebpf4jnsgd1na2vs0mg"},{"bike_id":"6498802b-5958-456d-9356-29281b52f7e7","system_id":"levelo_inurba_marseille","lat":43.28625,"lon":5.35114,"is_reserved":false,"is_disabled":false,"rental_uris":{"android":"levelo://app?vid=6498802b-5958-456d-9356-29281b52f7e7","ios":"levelo://app?vid=6498802b-5958-456d-9356-29281b52f7e7"},"vehicle_type_id":"4","last_reported":1774892988,"current_range_meters":2800,"station_id":"ce4bhch2rcd13ifvqeug","pricing_plan_id":"cebpf4jnsgd1na2vs0mg"},{"bike_id":"e49a7db9-8c8d-4468-beb2-155e84b5c983","system_id":"levelo_inurba_marseille","lat":43.28955,"lon":5.36616,"is_reserved":false,"is_disabled":true,"rental_uris":{"android":"levelo://app?vid=e49a7db9-8c8d-4468-beb2-155e84b5c983","ios":"levelo://app?vid=e49a7db9-8c8d-4468-beb2-155e84b5c983"},"vehicle_type_id":"4","last_reported":1774892988,"current_range_meters":2800,"station_id":"ce4bhap2rcd13ifvqek0","pricing_plan_id":"cebpf4jnsgd1na2vs0mg"},{"bike_id":"4518d333-ae46-4f3f-82be-3d499b7bb7d5","system_id":"levelo_inurba_marseille","lat":43.2337,"lon":5.41231,"is_reserved":false,"is_disabled":true,"rental_uris":{"android":"levelo://app?vid=4518d333-ae46-4f3f-82be-3d499b7bb7d5","ios":"levelo://app?vid=4518d333-ae46-4f3f-82be-3d499b7bb7d5"},"vehicle_type_id":"4","last_reported":1774892988,"current_range_meters":2800,"station_id":"","pricing_plan_id":"cebpf4jnsgd1na2vs0mg"},{"bike_id":"1b53ca04-2915-4392-bfd7-41e754b1dc49","system_id":"levelo_inurba_marseille","lat":43.28693,"lon":5.37393,"is_reserved":false,"is_disabled":false,"rental_uris":{"android":"levelo://app?vid=1b53ca04-2915-4392-bfd7-41e754b1dc49","ios":"levelo://app?vid=1b53ca04-2915-4392-bfd7-41e754b1dc49"},"vehicle_type_id":"4","last_reported":1774892988,"current_range_meters":2800,"station_id":"ce4bh3p2rcd13ifvqdq0","pricing_plan_id":"cebpf4jnsgd1na2vs0mg"},{"bike_id":"6e7b1c4b-d2ff-41ea-9c95-d4f2e534680c","system_id":"levelo_inurba_marseille","lat":43.32214,"lon":5.43844,"is_reserved":false,"is_disabled":false,"rental_uris":{"android":"levelo://app?vid=6e7b1c4b-d2ff-41ea-9c95-d4f2e534680c","ios":"levelo://app?vid=6e7b1c4b-d2ff-41ea-9c95-d4f2e534680c"},"vehicle_type_id":"4","last_reported":1774892988,"current_range_meters":2800,"station_id":"","pricing_plan_id":"cebpf4jnsgd1na2vs0mg"},{"bike_id":"3adf0498-1d77-4774-a1c3-59ef21015549","system_id":"levelo_inurba_marseille","lat":43.24806,"lon":5.37458,"is_reserved":false,"is_disabled":false,"rental_uris":{"android":"levelo://app?vid=3adf0498-1d77-4774-a1c3-59ef21015549","ios":"levelo://app?vid=3adf0498-1d77-4774-a1c3-59ef21015549"},"vehicle_type_id":"4","last_reported":1774892988,"current_range_meters":2800,"station_id":"ce4bhgh2rcd13ifvqfb0","pricing_plan_id":"cebpf4jnsgd1na2vs0mg"},{"bike_id":"95e4e967-f2ba-49fc-bf6a-e6ee8bcb1a5c","system_id":"levelo_inurba_marseille","lat":43.28936,"lon":5.36634,"is_reserved":false,"is_disabled":false,"rental_uris":{"android":"levelo://app?vid=95e4e967-f2ba-49fc-bf6a-e6ee8bcb1a5c","ios":"levelo://app?vid=95e4e967-f2ba-49fc-bf6a-e6ee8bcb1a5c"},"vehicle_type_id":"4","last_reported":1774892988,"current_range_meters":2800,"station_id":"ce4bhap2rcd13ifvqek0","pricing_plan_id":"cebpf4jnsgd1na2vs0mg"},{"bike_id":"28af8d2b-5bac-433a-894a-9e17123ae234","system_id":"levelo_inurba_marseille","lat":43.28536,"lon":5.44108,"is_reserved":false,"is_disabled":false,"rental_uris":{"android":"levelo://app?vid=28af8d2b-5bac-433a-894a-9e17123ae234","ios":"levelo://app?vid=28af8d2b-5bac-433a-894a-9e17123ae234"},"vehicle_type_id":"4","last_reported":1774892988,"current_range_meters":2800,"station_id":"st_d3j3df2ikq2c7380ej80","pricing_plan_id":"cebpf4jnsgd1na2vs0mg"},{"bike_id":"e9f54eb6-1a0a-4987-9b2e-727e107a56fc","system_id":"levelo_inurba_marseille","lat":43.28933,"lon":5.36637,"is_reserved":false,"is_disabled":false,"rental_uris":{"android":"levelo://app?vid=e9f54eb6-1a0a-4987-9b2e-727e107a56fc","ios":"levelo://app?vid=e9f54eb6-1a0a-4987-9b2e-727e107a56fc"},"vehicle_type_id":"4","last_reported":1774892988,"current_range_meters":2800,"station_id":"ce4bhap2rcd13ifvqek0","pricing_plan_id":"cebpf4jnsgd1na2vs0mg"},{"bike_id":"ece0c1f9-2c1a-481d-be0d-38a4ac94d998","system_id":"levelo_inurba_marseille","lat":43.28263,"lon":5.35064,"is_reserved":false,"is_disabled":false,"rental_uris":{"android":"levelo://app?vid=ece0c1f9-2c1a-481d-be0d-38a4ac94d998","ios":"levelo://app?vid=ece0c1f9-2c1a-481d-be0d-38a4ac94d998"},"vehicle_type_id":"4","last_reported":1774892988,"current_range_meters":2800,"station_id":"ce4bhbp2rcd13ifvqerg","pricing_plan_id":"cebpf4jnsgd1na2vs0mg"},{"bike_id":"13558064-472e-4992-915d-3c8d44b2eb34","system_id":"levelo_inurba_marseille","lat":43.28715,"lon":5.39982,"is_reserved":false,"is_disabled":false,"rental_uris":{"android":"levelo://app?vid=13558064-472e-4992-915d-3c8d44b2eb34","ios":"levelo://app?vid=13558064-472e-4992-915d-3c8d44b2eb34"},"vehicle_type_id":"4","last_reported":1774892988,"current_range_meters":2800,"station_id":"ce4bho92rcd13ifvqh3g","pricing_plan_id":"cebpf4jnsgd1na2vs0mg"},{"bike_id":"803f4719-04a4-494d-919f-f0c60480260b","system_id":"levelo_inurba_marseille","lat":43.24808,"lon":5.37499,"is_reserved":false,"is_disabled":false,"rental_uris":{"android":"levelo://app?vid=803f4719-04a4-494d-919f-f0c60480260b","ios":"levelo://app?vid=803f4719-04a4-494d-919f-f0c60480260b"},"vehicle_type_id":"4","last_reported":1774892988,"current_range_meters":3200,"station_id":"ce4bhgh2rcd13ifvqfb0","pricing_plan_id":"cebpf4jnsgd1na2vs0mg"},{"bike_id":"9eabfd96-7e72-49d9-bead-507fbe4a7a0f","system_id":"levelo_inurba_marseille","lat":43.32627,"lon":5.40882,"is_reserved":false,"is_disabled":false,"rental_uris":{"android":"levelo://app?vid=9eabfd96-7e72-49d9-bead-507fbe4a7a0f","ios":"levelo://app?vid=9eabfd96-7e72-49d9-bead-507fbe4a7a0f"},"vehicle_type_id":"4","last_reported":1774892988,"current_range_meters":3200,"station_id":"","pricing_plan_id":"cebpf4jnsgd1na2vs0mg"},{"bike_id":"e514b04b-9f50-4119-bfb2-7f19c4fc4c24","system_id":"levelo_inurba_marseille","lat":43.26983,"lon":5.40343,"is_reserved":false,"is_disabled":false,"rental_uris":{"android":"levelo://app?vid=e514b04b-9f50-4119-bfb2-7f19c4fc4c24","ios":"levelo://app?vid=e514b04b-9f50-4119-bfb2-7f19c4fc4c24"},"vehicle_type_id":"4","last_reported":1774892988,"current_range_meters":3200,"station_id":"","pricing_plan_id":"cebpf4jnsgd1na2vs0mg"},{"bike_id":"ec2a0fd1-c4be-45f4-8d4c-58cda0154e3a","system_id":"levelo_inurba_marseille","lat":43.28409,"lon":5.37531,"is_reserved":false,"is_disabled":false,"rental_uris":{"android":"levelo://app?vid=ec2a0fd1-c4be-45f4-8d4c-58cda0154e3a","ios":"levelo://app?vid=ec2a0fd1-c4be-45f4-8d4c-58cda0154e3a"},"vehicle_type_id":"4","last_reported":1774892988,"current_range_meters":3200,"station_id":"ce4bh412rcd13ifvqds0","pricing_plan_id":"cebpf4jnsgd1na2vs0mg"},{"bike_id":"b8ec0b9a-6353-4141-ad88-1aae2c10ae31","system_id":"levelo_inurba_marseille","lat":43.29077,"lon":5.43088,"is_reserved":false,"is_disabled":false,"rental_uris":{"android":"levelo://app?vid=b8ec0b9a-6353-4141-ad88-1aae2c10ae31","ios":"levelo://app?vid=b8ec0b9a-6353-4141-ad88-1aae2c10ae31"},"vehicle_type_id":"4","last_reported":1774892988,"current_range_meters":3200,"station_id":"","pricing_plan_id":"cebpf4jnsgd1na2vs0mg"},{"bike_id":"0beeb1a7-3c04-43a2-a7f8-69beb8048854","system_id":"levelo_inurba_marseille","lat":43.24671,"lon":5.38173,"is_reserved":false,"is_disabled":false,"rental_uris":{"android":"levelo://app?vid=0beeb1a7-3c04-43a2-a7f8-69beb8048854","ios":"levelo://app?vid=0beeb1a7-3c04-43a2-a7f8-69beb8048854"},"vehicle_type_id":"4","last_reported":1774892988,"current_range_meters":3200,"station_id":"ce4bhih2rcd13ifvqfr0","pricing_plan_id":"cebpf4jnsgd1na2vs0mg"},{"bike_id":"cec15cb3-3966-4e73-a822-fa689526d36c","system_id":"levelo_inurba_marseille","lat":43.29559,"lon":5.39414,"is_reserved":false,"is_disabled":false,"rental_uris":{"android":"levelo://app?vid=cec15cb3-3966-4e73-a822-fa689526d36c","ios":"levelo://app?vid=cec15cb3-3966-4e73-a822-fa689526d36c"},"vehicle_type_id":"4","last_reported":1774892988,"current_range_meters":3200,"station_id":"ce4bh292rcd13ifvqdf0","pricing_plan_id":"cebpf4jnsgd1na2vs0mg"},{"bike_id":"7e17ae9d-d355-4081-9804-55a8528c181b","system_id":"levelo_inurba_marseille","lat":43.28174,"lon":5.39019,"is_reserved":false,"is_disabled":false,"rental_uris":{"android":"levelo://app?vid=7e17ae9d-d355-4081-9804-55a8528c181b","ios":"levelo://app?vid=7e17ae9d-d355-4081-9804-55a8528c181b"},"vehicle_type_id":"4","last_reported":1774892988,"current_range_meters":3200,"station_id":"","pricing_plan_id":"cebpf4jnsgd1na2vs0mg"},{"bike_id":"c23c7375-6171-4b00-966e-5bf624056039","system_id":"levelo_inurba_marseille","lat":43.2903,"lon":5.38652,"is_reserved":false,"is_disabled":false,"rental_uris":{"android":"levelo://app?vid=c23c7375-6171-4b00-966e-5bf624056039","ios":"levelo://app?vid=c23c7375-6171-4b00-966e-5bf624056039"},"vehicle_type_id":"4","last_reported":1774892988,"current_range_meters":3200,"station_id":"ce4bh4p2rcd13ifvqe0g","pricing_plan_id":"cebpf4jnsgd1na2vs0mg"},{"bike_id":"6eae06fd-f236-4663-91cd-eb65d32e660a","system_id":"levelo_inurba_marseille","lat":43.30199,"lon":5.39455,"is_reserved":false,"is_disabled":false,"rental_uris":{"android":"levelo://app?vid=6eae06fd-f236-4663-91cd-eb65d32e660a","ios":"levelo://app?vid=6eae06fd-f236-4663-91cd-eb65d32e660a"},"vehicle_type_id":"4","last_reported":1774892988,"current_range_meters":3200,"station_id":"ce4bh0p2rcd13ifvqd70","pricing_plan_id":"cebpf4jnsgd1na2vs0mg"},{"bike_id":"9c7c2a96-2ac3-4d03-a99b-a41d4bc6788c","system_id":"levelo_inurba_marseille","lat":43.2822,"lon":5.39053,"is_reserved":false,"is_disabled":false,"rental_uris":{"android":"levelo://app?vid=9c7c2a96-2ac3-4d03-a99b-a41d4bc6788c","ios":"levelo://app?vid=9c7c2a96-2ac3-4d03-a99b-a41d4bc6788c"},"vehicle_type_id":"4","last_reported":1774892988,"current_range_meters":3200,"station_id":"ce4bhn92rcd13ifvqgsg","pricing_plan_id":"cebpf4jnsgd1na2vs0mg"},{"bike_id":"6eaa1064-9157-4432-aa4d-359c98a8379e","system_id":"levelo_inurba_marseille","lat":43.28704,"lon":5.39991,"is_reserved":false,"is_disabled":false,"rental_uris":{"android":"levelo://app?vid=6eaa1064-9157-4432-aa4d-359c98a8379e","ios":"levelo://app?vid=6eaa1064-9157-4432-aa4d-359c98a8379e"},"vehicle_type_id":"4","last_reported":1774892988,"current_range_meters":3200,"station_id":"ce4bho92rcd13ifvqh3g","pricing_plan_id":"cebpf4jnsgd1na2vs0mg"},{"bike_id":"2e2f6f92-a6a4-45c0-97c3-957e3d8f2b5d","system_id":"levelo_inurba_marseille","lat":43.29352,"lon":5.38332,"is_reserved":false,"is_disabled":false,"rental_uris":{"android":"levelo://app?vid=2e2f6f92-a6a4-45c0-97c3-957e3d8f2b5d","ios":"levelo://app?vid=2e2f6f92-a6a4-45c0-97c3-957e3d8f2b5d"},"vehicle_type_id":"4","last_reported":1774892988,"current_range_meters":3600,"station_id":"","pricing_plan_id":"cebpf4jnsgd1na2vs0mg"},{"bike_id":"f4cdd88a-b770-47c8-93f1-95c372cfe784","system_id":"levelo_inurba_marseille","lat":43.29966,"lon":5.38442,"is_reserved":false,"is_disabled":false,"rental_uris":{"android":"levelo://app?vid=f4cdd88a-b770-47c8-93f1-95c372cfe784","ios":"levelo://app?vid=f4cdd88a-b770-47c8-93f1-95c372cfe784"},"vehicle_type_id":"4","last_reported":1774892988,"current_range_meters":3600,"station_id":"ce4bgj92rcd13ifvqbd0","pricing_plan_id":"cebpf4jnsgd1na2vs0mg"},{"bike_id":"ce7a3b24-907c-4d1b-affa-a23d750b357b","system_id":"levelo_inurba_marseille","lat":43.28475,"lon":5.48394,"is_reserved":false,"is_disabled":false,"rental_uris":{"android":"levelo://app?vid=ce7a3b24-907c-4d1b-affa-a23d750b357b","ios":"levelo://app?vid=ce7a3b24-907c-4d1b-affa-a23d750b357b"},"vehicle_type_id":"4","last_reported":1774892988,"current_range_meters":3600,"station_id":"","pricing_plan_id":"cebpf4jnsgd1na2vs0mg"},{"bike_id":"953cbfee-1f6f-4c2b-856f-2a2ddaf5e9b4","system_id":"levelo_inurba_marseille","lat":43.25073,"lon":5.39523,"is_reserved":false,"is_disabled":false,"rental_uris":{"android":"levelo://app?vid=953cbfee-1f6f-4c2b-856f-2a2ddaf5e9b4","ios":"levelo://app?vid=953cbfee-1f6f-4c2b-856f-2a2ddaf5e9b4"},"vehicle_type_id":"4","last_reported":1774892988,"current_range_meters":3600,"station_id":"ce4bhm12rcd13ifvqgkg","pricing_plan_id":"cebpf4jnsgd1na2vs0mg"},{"bike_id":"5f95b65e-d716-4b38-8190-e6dc057b7ee7","system_id":"levelo_inurba_marseille","lat":43.24675,"lon":5.38158,"is_reserved":false,"is_disabled":false,"rental_uris":{"android":"levelo://app?vid=5f95b65e-d716-4b38-8190-e6dc057b7ee7","ios":"levelo://app?vid=5f95b65e-d716-4b38-8190-e6dc057b7ee7"},"vehicle_type_id":"4","last_reported":1774892988,"current_range_meters":3600,"station_id":"ce4bhih2rcd13ifvqfr0","pricing_plan_id":"cebpf4jnsgd1na2vs0mg"},{"bike_id":"738782ca-c8c2-418b-b307-98fefa500e66","system_id":"levelo_inurba_marseille","lat":43.30879,"lon":5.39646,"is_reserved":false,"is_disabled":false,"rental_uris":{"android":"levelo://app?vid=738782ca-c8c2-418b-b307-98fefa500e66","ios":"levelo://app?vid=738782ca-c8c2-418b-b307-98fefa500e66"},"vehicle_type_id":"4","last_reported":1774892988,"current_range_meters":3600,"station_id":"ce4bh012rcd13ifvqcv0","pricing_plan_id":"cebpf4jnsgd1na2vs0mg"},{"bike_id":"40ee64bc-4abe-4005-a27b-6325f0bbd32e","system_id":"levelo_inurba_marseille","lat":43.28392,"lon":5.37519,"is_reserved":false,"is_disabled":false,"rental_uris":{"android":"levelo://app?vid=40ee64bc-4abe-4005-a27b-6325f0bbd32e","ios":"levelo://app?vid=40ee64bc-4abe-4005-a27b-6325f0bbd32e"},"vehicle_type_id":"4","last_reported":1774892988,"current_range_meters":3600,"station_id":"ce4bh412rcd13ifvqds0","pricing_plan_id":"cebpf4jnsgd1na2vs0mg"},{"bike_id":"5bd5aac7-955e-4ea7-9f94-14bf672db1f6","system_id":"levelo_inurba_marseille","lat":43.26677,"lon":5.38268,"is_reserved":false,"is_disabled":false,"rental_uris":{"android":"levelo://app?vid=5bd5aac7-955e-4ea7-9f94-14bf672db1f6","ios":"levelo://app?vid=5bd5aac7-955e-4ea7-9f94-14bf672db1f6"},"vehicle_type_id":"4","last_reported":1774892988,"current_range_meters":3600,"station_id":"ce4bhg92rcd13ifvqf90","pricing_plan_id":"cebpf4jnsgd1na2vs0mg"},{"bike_id":"d0688594-5180-441a-bbed-d94c30e2886b","system_id":"levelo_inurba_marseille","lat":43.27878,"lon":5.38002,"is_reserved":false,"is_disabled":false,"rental_uris":{"android":"levelo://app?vid=d0688594-5180-441a-bbed-d94c30e2886b","ios":"levelo://app?vid=d0688594-5180-441a-bbed-d94c30e2886b"},"vehicle_type_id":"4","last_reported":1774892988,"current_range_meters":3600,"station_id":"ce4bhf92rcd13ifvqf50","pricing_plan_id":"cebpf4jnsgd1na2vs0mg"},{"bike_id":"f49642d7-0c88-4377-92f6-f3b93aee0876","system_id":"levelo_inurba_marseille","lat":43.29599,"lon":5.38099,"is_reserved":false,"is_disabled":true,"rental_uris":{"android":"levelo://app?vid=f49642d7-0c88-4377-92f6-f3b93aee0876","ios":"levelo://app?vid=f49642d7-0c88-4377-92f6-f3b93aee0876"},"vehicle_type_id":"4","last_reported":1774892988,"current_range_meters":3600,"station_id":"ce4bgl12rcd13ifvqbo0","pricing_plan_id":"cebpf4jnsgd1na2vs0mg"},{"bike_id":"883c794f-d68e-4d52-948a-e0e4d264c091","system_id":"levelo_inurba_marseille","lat":43.25579,"lon":5.3825,"is_reserved":false,"is_disabled":false,"rental_uris":{"android":"levelo://app?vid=883c794f-d68e-4d52-948a-e0e4d264c091","ios":"levelo://app?vid=883c794f-d68e-4d52-948a-e0e4d264c091"},"vehicle_type_id":"4","last_reported":1774892988,"current_range_meters":4000,"station_id":"ce4bhih2rcd13ifvqfs0","pricing_plan_id":"cebpf4jnsgd1na2vs0mg"},{"bike_id":"dbc917c4-91bc-4425-9406-e24d33c16284","system_id":"levelo_inurba_marseille","lat":43.33534,"lon":5.37395,"is_reserved":false,"is_disabled":false,"rental_uris":{"android":"levelo://app?vid=dbc917c4-91bc-4425-9406-e24d33c16284","ios":"levelo://app?vid=dbc917c4-91bc-4425-9406-e24d33c16284"},"vehicle_type_id":"4","last_reported":1774892988,"current_range_meters":4000,"station_id":"","pricing_plan_id":"cebpf4jnsgd1na2vs0mg"},{"bike_id":"96b45d31-bef5-4eeb-8979-9268c25a6fe7","system_id":"levelo_inurba_marseille","lat":43.3118,"lon":5.3686,"is_reserved":false,"is_disabled":false,"rental_uris":{"android":"levelo://app?vid=96b45d31-bef5-4eeb-8979-9268c25a6fe7","ios":"levelo://app?vid=96b45d31-bef5-4eeb-8979-9268c25a6fe7"},"vehicle_type_id":"4","last_reported":1774892988,"current_range_meters":4000,"station_id":"ce4bgl92rcd13ifvqbq0","pricing_plan_id":"cebpf4jnsgd1na2vs0mg"},{"bike_id":"64ac9f96-b56e-4d2a-b677-8d920133e407","system_id":"levelo_inurba_marseille","lat":43.24809,"lon":5.37451,"is_reserved":false,"is_disabled":false,"rental_uris":{"android":"levelo://app?vid=64ac9f96-b56e-4d2a-b677-8d920133e407","ios":"levelo://app?vid=64ac9f96-b56e-4d2a-b677-8d920133e407"},"vehicle_type_id":"4","last_reported":1774892988,"current_range_meters":4000,"station_id":"ce4bhgh2rcd13ifvqfb0","pricing_plan_id":"cebpf4jnsgd1na2vs0mg"},{"bike_id":"e4ac35e4-8859-436b-9a81-4c436fcedcff","system_id":"levelo_inurba_marseille","lat":43.28543,"lon":5.44101,"is_reserved":false,"is_disabled":false,"rental_uris":{"android":"levelo://app?vid=e4ac35e4-8859-436b-9a81-4c436fcedcff","ios":"levelo://app?vid=e4ac35e4-8859-436b-9a81-4c436fcedcff"},"vehicle_type_id":"4","last_reported":1774892988,"current_range_meters":4000,"station_id":"st_d3j3df2ikq2c7380ej80","pricing_plan_id":"cebpf4jnsgd1na2vs0mg"},{"bike_id":"f97e2d28-b847-4632-b47e-8178b762aad5","system_id":"levelo_inurba_marseille","lat":43.28233,"lon":5.35054,"is_reserved":false,"is_disabled":false,"rental_uris":{"android":"levelo://app?vid=f97e2d28-b847-4632-b47e-8178b762aad5","ios":"levelo://app?vid=f97e2d28-b847-4632-b47e-8178b762aad5"},"vehicle_type_id":"4","last_reported":1774892988,"current_range_meters":4000,"station_id":"ce4bhbp2rcd13ifvqerg","pricing_plan_id":"cebpf4jnsgd1na2vs0mg"},{"bike_id":"442595bb-72cc-4b35-b1eb-093a490d263b","system_id":"levelo_inurba_marseille","lat":43.30143,"lon":5.37431,"is_reserved":false,"is_disabled":false,"rental_uris":{"android":"levelo://app?vid=442595bb-72cc-4b35-b1eb-093a490d263b","ios":"levelo://app?vid=442595bb-72cc-4b35-b1eb-093a490d263b"},"vehicle_type_id":"4","last_reported":1774892988,"current_range_meters":4000,"station_id":"ce4bgs92rcd13ifvqcc0","pricing_plan_id":"cebpf4jnsgd1na2vs0mg"},{"bike_id":"dc79fefa-d554-4ea7-b0f6-dfb50b76419c","system_id":"levelo_inurba_marseille","lat":43.25822,"lon":5.39405,"is_reserved":false,"is_disabled":false,"rental_uris":{"android":"levelo://app?vid=dc79fefa-d554-4ea7-b0f6-dfb50b76419c","ios":"levelo://app?vid=dc79fefa-d554-4ea7-b0f6-dfb50b76419c"},"vehicle_type_id":"4","last_reported":1774892988,"current_range_meters":4000,"station_id":"ce4bhip2rcd13ifvqft0","pricing_plan_id":"cebpf4jnsgd1na2vs0mg"},{"bike_id":"aa84dbaa-24c3-4a16-b3d6-a89ac947e223","system_id":"levelo_inurba_marseille","lat":43.29969,"lon":5.38476,"is_reserved":false,"is_disabled":false,"rental_uris":{"android":"levelo://app?vid=aa84dbaa-24c3-4a16-b3d6-a89ac947e223","ios":"levelo://app?vid=aa84dbaa-24c3-4a16-b3d6-a89ac947e223"},"vehicle_type_id":"4","last_reported":1774892988,"current_range_meters":4000,"station_id":"ce4bgj92rcd13ifvqbd0","pricing_plan_id":"cebpf4jnsgd1na2vs0mg"},{"bike_id":"83934499-17cb-427b-97a1-aaf49058c2de","system_id":"levelo_inurba_marseille","lat":43.25585,"lon":5.38259,"is_reserved":false,"is_disabled":false,"rental_uris":{"android":"levelo://app?vid=83934499-17cb-427b-97a1-aaf49058c2de","ios":"levelo://app?vid=83934499-17cb-427b-97a1-aaf49058c2de"},"vehicle_type_id":"4","last_reported":1774892988,"current_range_meters":4000,"station_id":"ce4bhih2rcd13ifvqfs0","pricing_plan_id":"cebpf4jnsgd1na2vs0mg"},{"bike_id":"403e7e79-633c-4972-a710-f5ca7d74ea71","system_id":"levelo_inurba_marseille","lat":43.3037,"lon":5.397,"is_reserved":false,"is_disabled":false,"rental_uris":{"android":"levelo://app?vid=403e7e79-633c-4972-a710-f5ca7d74ea71","ios":"levelo://app?vid=403e7e79-633c-4972-a710-f5ca7d74ea71"},"vehicle_type_id":"4","last_reported":1774892988,"current_range_meters":4000,"station_id":"","pricing_plan_id":"cebpf4jnsgd1na2vs0mg"},{"bike_id":"cee9b460-3960-4431-84b1-f885e5c227d3","system_id":"levelo_inurba_marseille","lat":43.26569,"lon":5.3905,"is_reserved":false,"is_disabled":false,"rental_uris":{"android":"levelo://app?vid=cee9b460-3960-4431-84b1-f885e5c227d3","ios":"levelo://app?vid=cee9b460-3960-4431-84b1-f885e5c227d3"},"vehicle_type_id":"4","last_reported":1774892988,"current_range_meters":4400,"station_id":"ce4bhe12rcd13ifvqf30","pricing_plan_id":"cebpf4jnsgd1na2vs0mg"},{"bike_id":"7ff5e948-0e94-496d-8b12-67c7c2774e67","system_id":"levelo_inurba_marseille","lat":43.28527,"lon":5.44103,"is_reserved":false,"is_disabled":false,"rental_uris":{"android":"levelo://app?vid=7ff5e948-0e94-496d-8b12-67c7c2774e67","ios":"levelo://app?vid=7ff5e948-0e94-496d-8b12-67c7c2774e67"},"vehicle_type_id":"4","last_reported":1774892988,"current_range_meters":4400,"station_id":"st_d3j3df2ikq2c7380ej80","pricing_plan_id":"cebpf4jnsgd1na2vs0mg"},{"bike_id":"88900821-ac79-4ee5-8fc9-e889474b5abd","system_id":"levelo_inurba_marseille","lat":43.28627,"lon":5.3507,"is_reserved":false,"is_disabled":false,"rental_uris":{"android":"levelo://app?vid=88900821-ac79-4ee5-8fc9-e889474b5abd","ios":"levelo://app?vid=88900821-ac79-4ee5-8fc9-e889474b5abd"},"vehicle_type_id":"4","last_reported":1774892988,"current_range_meters":4400,"station_id":"ce4bhch2rcd13ifvqeug","pricing_plan_id":"cebpf4jnsgd1na2vs0mg"},{"bike_id":"e027651c-1b58-49be-8465-35e7c80537f6","system_id":"levelo_inurba_marseille","lat":43.28612,"lon":5.35097,"is_reserved":false,"is_disabled":false,"rental_uris":{"android":"levelo://app?vid=e027651c-1b58-49be-8465-35e7c80537f6","ios":"levelo://app?vid=e027651c-1b58-49be-8465-35e7c80537f6"},"vehicle_type_id":"4","last_reported":1774892988,"current_range_meters":4400,"station_id":"ce4bhch2rcd13ifvqeug","pricing_plan_id":"cebpf4jnsgd1na2vs0mg"},{"bike_id":"61b664e9-fb91-4396-a84f-0e10dffac2be","system_id":"levelo_inurba_marseille","lat":43.28601,"lon":5.37064,"is_reserved":false,"is_disabled":false,"rental_uris":{"android":"levelo://app?vid=61b664e9-fb91-4396-a84f-0e10dffac2be","ios":"levelo://app?vid=61b664e9-fb91-4396-a84f-0e10dffac2be"},"vehicle_type_id":"4","last_reported":1774892988,"current_range_meters":4400,"station_id":"ce4bht12rcd13ifvqi60","pricing_plan_id":"cebpf4jnsgd1na2vs0mg"},{"bike_id":"53219b81-020e-47db-92a7-29607e95b60d","system_id":"levelo_inurba_marseille","lat":43.29025,"lon":5.39978,"is_reserved":false,"is_disabled":false,"rental_uris":{"android":"levelo://app?vid=53219b81-020e-47db-92a7-29607e95b60d","ios":"levelo://app?vid=53219b81-020e-47db-92a7-29607e95b60d"},"vehicle_type_id":"4","last_reported":1774892988,"current_range_meters":4400,"station_id":"ce4bh392rcd13ifvqdm0","pricing_plan_id":"cebpf4jnsgd1na2vs0mg"},{"bike_id":"91eafa08-026f-40c5-b5de-6910a52e733d","system_id":"levelo_inurba_marseille","lat":43.24484,"lon":5.42527,"is_reserved":false,"is_disabled":false,"rental_uris":{"android":"levelo://app?vid=91eafa08-026f-40c5-b5de-6910a52e733d","ios":"levelo://app?vid=91eafa08-026f-40c5-b5de-6910a52e733d"},"vehicle_type_id":"4","last_reported":1774892988,"current_range_meters":4400,"station_id":"st_d4a3vfp97mjs738cd8kg","pricing_plan_id":"cebpf4jnsgd1na2vs0mg"},{"bike_id":"5bbb2a73-11b5-4f9d-a5b1-5b51513103cb","system_id":"levelo_inurba_marseille","lat":43.28628,"lon":5.35124,"is_reserved":false,"is_disabled":false,"rental_uris":{"android":"levelo://app?vid=5bbb2a73-11b5-4f9d-a5b1-5b51513103cb","ios":"levelo://app?vid=5bbb2a73-11b5-4f9d-a5b1-5b51513103cb"},"vehicle_type_id":"4","last_reported":1774892988,"current_range_meters":4400,"station_id":"ce4bhch2rcd13ifvqeug","pricing_plan_id":"cebpf4jnsgd1na2vs0mg"},{"bike_id":"8b60ce12-f718-48aa-aad7-32ff4f66e55f","system_id":"levelo_inurba_marseille","lat":43.30567,"lon":5.36519,"is_reserved":false,"is_disabled":false,"rental_uris":{"android":"levelo://app?vid=8b60ce12-f718-48aa-aad7-32ff4f66e55f","ios":"levelo://app?vid=8b60ce12-f718-48aa-aad7-32ff4f66e55f"},"vehicle_type_id":"4","last_reported":1774892988,"current_range_meters":4400,"station_id":"ce4bgs12rcd13ifvqcag","pricing_plan_id":"cebpf4jnsgd1na2vs0mg"},{"bike_id":"8cd5c40c-eebc-47e0-8add-ccdf0c7a85e9","system_id":"levelo_inurba_marseille","lat":43.28588,"lon":5.39486,"is_reserved":false,"is_disabled":false,"rental_uris":{"android":"levelo://app?vid=8cd5c40c-eebc-47e0-8add-ccdf0c7a85e9","ios":"levelo://app?vid=8cd5c40c-eebc-47e0-8add-ccdf0c7a85e9"},"vehicle_type_id":"4","last_reported":1774892988,"current_range_meters":4400,"station_id":"ce4bh292rcd13ifvqdg0","pricing_plan_id":"cebpf4jnsgd1na2vs0mg"},{"bike_id":"f07989e2-d1ea-4d02-9189-fb338470512f","system_id":"levelo_inurba_marseille","lat":43.30879,"lon":5.39673,"is_reserved":false,"is_disabled":false,"rental_uris":{"android":"levelo://app?vid=f07989e2-d1ea-4d02-9189-fb338470512f","ios":"levelo://app?vid=f07989e2-d1ea-4d02-9189-fb338470512f"},"vehicle_type_id":"4","last_reported":1774892988,"current_range_meters":4400,"station_id":"ce4bh012rcd13ifvqcv0","pricing_plan_id":"cebpf4jnsgd1na2vs0mg"},{"bike_id":"4fbdc21c-21a2-41a4-899f-c82dd8e09789","system_id":"levelo_inurba_marseille","lat":43.31111,"lon":5.37778,"is_reserved":false,"is_disabled":false,"rental_uris":{"android":"levelo://app?vid=4fbdc21c-21a2-41a4-899f-c82dd8e09789","ios":"levelo://app?vid=4fbdc21c-21a2-41a4-899f-c82dd8e09789"},"vehicle_type_id":"4","last_reported":1774892988,"current_range_meters":4400,"station_id":"ce4bgt92rcd13ifvqcg0","pricing_plan_id":"cebpf4jnsgd1na2vs0mg"},{"bike_id":"d851c101-94df-443d-b106-aff9c2337507","system_id":"levelo_inurba_marseille","lat":43.28275,"lon":5.39134,"is_reserved":false,"is_disabled":false,"rental_uris":{"android":"levelo://app?vid=d851c101-94df-443d-b106-aff9c2337507","ios":"levelo://app?vid=d851c101-94df-443d-b106-aff9c2337507"},"vehicle_type_id":"4","last_reported":1774892988,"current_range_meters":4800,"station_id":"","pricing_plan_id":"cebpf4jnsgd1na2vs0mg"},{"bike_id":"2e473b1d-39dc-4686-a52e-6eb05e99392b","system_id":"levelo_inurba_marseille","lat":43.28423,"lon":5.34984,"is_reserved":false,"is_disabled":false,"rental_uris":{"android":"levelo://app?vid=2e473b1d-39dc-4686-a52e-6eb05e99392b","ios":"levelo://app?vid=2e473b1d-39dc-4686-a52e-6eb05e99392b"},"vehicle_type_id":"4","last_reported":1774892988,"current_range_meters":4800,"station_id":"ce4bhbh2rcd13ifvqepg","pricing_plan_id":"cebpf4jnsgd1na2vs0mg"},{"bike_id":"010bf32e-cc19-4e06-8c2c-56182f905b80","system_id":"levelo_inurba_marseille","lat":43.26213,"lon":5.37457,"is_reserved":false,"is_disabled":false,"rental_uris":{"android":"levelo://app?vid=010bf32e-cc19-4e06-8c2c-56182f905b80","ios":"levelo://app?vid=010bf32e-cc19-4e06-8c2c-56182f905b80"},"vehicle_type_id":"4","last_reported":1774892988,"current_range_meters":4800,"station_id":"ce4bhgp2rcd13ifvqfc0","pricing_plan_id":"cebpf4jnsgd1na2vs0mg"},{"bike_id":"976b0837-858d-49b8-8bb1-6a4b9d308b37","system_id":"levelo_inurba_marseille","lat":43.31044,"lon":5.39369,"is_reserved":false,"is_disabled":false,"rental_uris":{"android":"levelo://app?vid=976b0837-858d-49b8-8bb1-6a4b9d308b37","ios":"levelo://app?vid=976b0837-858d-49b8-8bb1-6a4b9d308b37"},"vehicle_type_id":"4","last_reported":1774892988,"current_range_meters":4800,"station_id":"","pricing_plan_id":"cebpf4jnsgd1na2vs0mg"},{"bike_id":"722178ea-9ec4-4a61-a4f3-4a88327f65c6","system_id":"levelo_inurba_marseille","lat":43.3233,"lon":5.36769,"is_reserved":false,"is_disabled":false,"rental_uris":{"android":"levelo://app?vid=722178ea-9ec4-4a61-a4f3-4a88327f65c6","ios":"levelo://app?vid=722178ea-9ec4-4a61-a4f3-4a88327f65c6"},"vehicle_type_id":"4","last_reported":1774892988,"current_range_meters":4800,"station_id":"ce4bhsh2rcd13ifvqi2g","pricing_plan_id":"cebpf4jnsgd1na2vs0mg"},{"bike_id":"8f1cd2b3-a124-4a63-9dc2-199679dec333","system_id":"levelo_inurba_marseille","lat":43.29783,"lon":5.38085,"is_reserved":false,"is_disabled":false,"rental_uris":{"android":"levelo://app?vid=8f1cd2b3-a124-4a63-9dc2-199679dec333","ios":"levelo://app?vid=8f1cd2b3-a124-4a63-9dc2-199679dec333"},"vehicle_type_id":"4","last_reported":1774892988,"current_range_meters":4800,"station_id":"","pricing_plan_id":"cebpf4jnsgd1na2vs0mg"},{"bike_id":"f16b920d-4760-44fd-92f5-b6cf293c8515","system_id":"levelo_inurba_marseille","lat":43.23186,"lon":5.35542,"is_reserved":false,"is_disabled":false,"rental_uris":{"android":"levelo://app?vid=f16b920d-4760-44fd-92f5-b6cf293c8515","ios":"levelo://app?vid=f16b920d-4760-44fd-92f5-b6cf293c8515"},"vehicle_type_id":"4","last_reported":1774892988,"current_range_meters":4800,"station_id":"ce4bhu92rcd13ifvqi70","pricing_plan_id":"cebpf4jnsgd1na2vs0mg"},{"bike_id":"ec87d9a7-61ba-4d2b-8661-0d9849cd20a1","system_id":"levelo_inurba_marseille","lat":43.24456,"lon":5.42553,"is_reserved":false,"is_disabled":false,"rental_uris":{"android":"levelo://app?vid=ec87d9a7-61ba-4d2b-8661-0d9849cd20a1","ios":"levelo://app?vid=ec87d9a7-61ba-4d2b-8661-0d9849cd20a1"},"vehicle_type_id":"4","last_reported":1774892988,"current_range_meters":4800,"station_id":"st_d4a3vfp97mjs738cd8kg","pricing_plan_id":"cebpf4jnsgd1na2vs0mg"},{"bike_id":"8489331d-8f95-4b36-a026-08bb56c1991f","system_id":"levelo_inurba_marseille","lat":43.23778,"lon":5.36608,"is_reserved":false,"is_disabled":false,"rental_uris":{"android":"levelo://app?vid=8489331d-8f95-4b36-a026-08bb56c1991f","ios":"levelo://app?vid=8489331d-8f95-4b36-a026-08bb56c1991f"},"vehicle_type_id":"4","last_reported":1774892988,"current_range_meters":4800,"station_id":"st_d3nk18o9ro0c73en2l3g","pricing_plan_id":"cebpf4jnsgd1na2vs0mg"},{"bike_id":"609a3f51-95d7-4bff-9fb9-07e7f142b6aa","system_id":"levelo_inurba_marseille","lat":43.29729,"lon":5.37031,"is_reserved":false,"is_disabled":false,"rental_uris":{"android":"levelo://app?vid=609a3f51-95d7-4bff-9fb9-07e7f142b6aa","ios":"levelo://app?vid=609a3f51-95d7-4bff-9fb9-07e7f142b6aa"},"vehicle_type_id":"4","last_reported":1774892988,"current_range_meters":4800,"station_id":"","pricing_plan_id":"cebpf4jnsgd1na2vs0mg"},{"bike_id":"d5256174-8653-45bf-8111-6cd91d832c4b","system_id":"levelo_inurba_marseille","lat":43.26562,"lon":5.39016,"is_reserved":false,"is_disabled":false,"rental_uris":{"android":"levelo://app?vid=d5256174-8653-45bf-8111-6cd91d832c4b","ios":"levelo://app?vid=d5256174-8653-45bf-8111-6cd91d832c4b"},"vehicle_type_id":"4","last_reported":1774892988,"current_range_meters":4800,"station_id":"ce4bhe12rcd13ifvqf30","pricing_plan_id":"cebpf4jnsgd1na2vs0mg"},{"bike_id":"6bf2f77d-8f33-4b61-a21d-730e410e658a","system_id":"levelo_inurba_marseille","lat":43.23182,"lon":5.35573,"is_reserved":false,"is_disabled":false,"rental_uris":{"android":"levelo://app?vid=6bf2f77d-8f33-4b61-a21d-730e410e658a","ios":"levelo://app?vid=6bf2f77d-8f33-4b61-a21d-730e410e658a"},"vehicle_type_id":"4","last_reported":1774892988,"current_range_meters":4800,"station_id":"ce4bhu92rcd13ifvqi70","pricing_plan_id":"cebpf4jnsgd1na2vs0mg"},{"bike_id":"1f7507c0-1d57-4435-a922-7c4f891a00c7","system_id":"levelo_inurba_marseille","lat":43.28792,"lon":5.35994,"is_reserved":false,"is_disabled":false,"rental_uris":{"android":"levelo://app?vid=1f7507c0-1d57-4435-a922-7c4f891a00c7","ios":"levelo://app?vid=1f7507c0-1d57-4435-a922-7c4f891a00c7"},"vehicle_type_id":"4","last_reported":1774892988,"current_range_meters":4800,"station_id":"","pricing_plan_id":"cebpf4jnsgd1na2vs0mg"},{"bike_id":"9e91609e-7fe2-4a3b-88fa-3fff71ba2f1d","system_id":"levelo_inurba_marseille","lat":43.26374,"lon":5.41082,"is_reserved":false,"is_disabled":false,"rental_uris":{"android":"levelo://app?vid=9e91609e-7fe2-4a3b-88fa-3fff71ba2f1d","ios":"levelo://app?vid=9e91609e-7fe2-4a3b-88fa-3fff71ba2f1d"},"vehicle_type_id":"4","last_reported":1774892988,"current_range_meters":4800,"station_id":"st_d4e5ca6na9uc73bfl5fg","pricing_plan_id":"cebpf4jnsgd1na2vs0mg"},{"bike_id":"66cb3c93-99a9-4795-9421-a5b75068859e","system_id":"levelo_inurba_marseille","lat":43.23898,"lon":5.37463,"is_reserved":false,"is_disabled":false,"rental_uris":{"android":"levelo://app?vid=66cb3c93-99a9-4795-9421-a5b75068859e","ios":"levelo://app?vid=66cb3c93-99a9-4795-9421-a5b75068859e"},"vehicle_type_id":"4","last_reported":1774892988,"current_range_meters":4800,"station_id":"st_d6sm7csbq4hs73f8fpjg","pricing_plan_id":"cebpf4jnsgd1na2vs0mg"},{"bike_id":"af5a7a48-c090-4231-9c1d-d3c469ae99de","system_id":"levelo_inurba_marseille","lat":43.31279,"lon":5.36885,"is_reserved":false,"is_disabled":false,"rental_uris":{"android":"levelo://app?vid=af5a7a48-c090-4231-9c1d-d3c469ae99de","ios":"levelo://app?vid=af5a7a48-c090-4231-9c1d-d3c469ae99de"},"vehicle_type_id":"4","last_reported":1774892988,"current_range_meters":5600,"station_id":"","pricing_plan_id":"cebpf4jnsgd1na2vs0mg"},{"bike_id":"3054983a-1a1c-4947-aa35-bcfaa4fa8110","system_id":"levelo_inurba_marseille","lat":43.25348,"lon":5.42193,"is_reserved":false,"is_disabled":false,"rental_uris":{"android":"levelo://app?vid=3054983a-1a1c-4947-aa35-bcfaa4fa8110","ios":"levelo://app?vid=3054983a-1a1c-4947-aa35-bcfaa4fa8110"},"vehicle_type_id":"4","last_reported":1774892988,"current_range_meters":5600,"station_id":"st_d2m65c5bi1j21697t3ng","pricing_plan_id":"cebpf4jnsgd1na2vs0mg"},{"bike_id":"ca22943a-5084-4d52-8de5-951e8b6fe4f6","system_id":"levelo_inurba_marseille","lat":43.28254,"lon":5.3499,"is_reserved":false,"is_disabled":false,"rental_uris":{"android":"levelo://app?vid=ca22943a-5084-4d52-8de5-951e8b6fe4f6","ios":"levelo://app?vid=ca22943a-5084-4d52-8de5-951e8b6fe4f6"},"vehicle_type_id":"4","last_reported":1774892988,"current_range_meters":5600,"station_id":"","pricing_plan_id":"cebpf4jnsgd1na2vs0mg"},{"bike_id":"120d2fdf-12b3-4cc8-a702-4d55e159dea6","system_id":"levelo_inurba_marseille","lat":43.288502,"lon":5.39321,"is_reserved":false,"is_disabled":false,"rental_uris":{"android":"levelo://app?vid=120d2fdf-12b3-4cc8-a702-4d55e159dea6","ios":"levelo://app?vid=120d2fdf-12b3-4cc8-a702-4d55e159dea6"},"vehicle_type_id":"4","last_reported":1774892988,"current_range_meters":5600,"station_id":"","pricing_plan_id":"cebpf4jnsgd1na2vs0mg"},{"bike_id":"53f142a0-3955-4808-b4c6-e1524bc3e079","system_id":"levelo_inurba_marseille","lat":43.21182,"lon":5.35109,"is_reserved":false,"is_disabled":false,"rental_uris":{"android":"levelo://app?vid=53f142a0-3955-4808-b4c6-e1524bc3e079","ios":"levelo://app?vid=53f142a0-3955-4808-b4c6-e1524bc3e079"},"vehicle_type_id":"4","last_reported":1774892988,"current_range_meters":5600,"station_id":"st_cvj6sg6p6f1abm77japg","pricing_plan_id":"cebpf4jnsgd1na2vs0mg"},{"bike_id":"085c38b5-98f5-41a6-a385-8b6d28bfb2c1","system_id":"levelo_inurba_marseille","lat":43.22536,"lon":5.34825,"is_reserved":false,"is_disabled":false,"rental_uris":{"android":"levelo://app?vid=085c38b5-98f5-41a6-a385-8b6d28bfb2c1","ios":"levelo://app?vid=085c38b5-98f5-41a6-a385-8b6d28bfb2c1"},"vehicle_type_id":"4","last_reported":1774892988,"current_range_meters":5600,"station_id":"st_cvj5dfep6f1abm77gieg","pricing_plan_id":"cebpf4jnsgd1na2vs0mg"},{"bike_id":"7855d8de-1df7-4933-a58c-15f7be4c4bb8","system_id":"levelo_inurba_marseille","lat":43.29023,"lon":5.38648,"is_reserved":false,"is_disabled":false,"rental_uris":{"android":"levelo://app?vid=7855d8de-1df7-4933-a58c-15f7be4c4bb8","ios":"levelo://app?vid=7855d8de-1df7-4933-a58c-15f7be4c4bb8"},"vehicle_type_id":"4","last_reported":1774892988,"current_range_meters":5600,"station_id":"ce4bh4p2rcd13ifvqe0g","pricing_plan_id":"cebpf4jnsgd1na2vs0mg"},{"bike_id":"17eb1840-d3d3-4a5c-88f6-e28f78d47b98","system_id":"levelo_inurba_marseille","lat":43.23891,"lon":5.37468,"is_reserved":false,"is_disabled":false,"rental_uris":{"android":"levelo://app?vid=17eb1840-d3d3-4a5c-88f6-e28f78d47b98","ios":"levelo://app?vid=17eb1840-d3d3-4a5c-88f6-e28f78d47b98"},"vehicle_type_id":"4","last_reported":1774892988,"current_range_meters":5600,"station_id":"st_d6sm7csbq4hs73f8fpjg","pricing_plan_id":"cebpf4jnsgd1na2vs0mg"},{"bike_id":"d18d1d64-79cb-43c0-9d05-6965633e19b3","system_id":"levelo_inurba_marseille","lat":43.25101,"lon":5.40327,"is_reserved":false,"is_disabled":false,"rental_uris":{"android":"levelo://app?vid=d18d1d64-79cb-43c0-9d05-6965633e19b3","ios":"levelo://app?vid=d18d1d64-79cb-43c0-9d05-6965633e19b3"},"vehicle_type_id":"4","last_reported":1774892988,"current_range_meters":5600,"station_id":"ce4bhlh2rcd13ifvqgig","pricing_plan_id":"cebpf4jnsgd1na2vs0mg"},{"bike_id":"e6673a37-9063-41ed-986f-992a2cd2f70e","system_id":"levelo_inurba_marseille","lat":43.287018,"lon":5.373865,"is_reserved":false,"is_disabled":false,"rental_uris":{"android":"levelo://app?vid=e6673a37-9063-41ed-986f-992a2cd2f70e","ios":"levelo://app?vid=e6673a37-9063-41ed-986f-992a2cd2f70e"},"vehicle_type_id":"4","last_reported":1774892988,"current_range_meters":5600,"station_id":"ce4bh3p2rcd13ifvqdq0","pricing_plan_id":"cebpf4jnsgd1na2vs0mg"},{"bike_id":"bdba0113-b085-4477-ae3d-8c0ba0dfc437","system_id":"levelo_inurba_marseille","lat":43.29215,"lon":5.36055,"is_reserved":false,"is_disabled":false,"rental_uris":{"android":"levelo://app?vid=bdba0113-b085-4477-ae3d-8c0ba0dfc437","ios":"levelo://app?vid=bdba0113-b085-4477-ae3d-8c0ba0dfc437"},"vehicle_type_id":"4","last_reported":1774892988,"current_range_meters":5600,"station_id":"ce4bhbh2rcd13ifvqeqg","pricing_plan_id":"cebpf4jnsgd1na2vs0mg"},{"bike_id":"96386c80-3369-4abb-b3c0-88123ad0f476","system_id":"levelo_inurba_marseille","lat":43.29571,"lon":5.39982,"is_reserved":false,"is_disabled":false,"rental_uris":{"android":"levelo://app?vid=96386c80-3369-4abb-b3c0-88123ad0f476","ios":"levelo://app?vid=96386c80-3369-4abb-b3c0-88123ad0f476"},"vehicle_type_id":"4","last_reported":1774892988,"current_range_meters":5600,"station_id":"ce4bh312rcd13ifvqdj0","pricing_plan_id":"cebpf4jnsgd1na2vs0mg"},{"bike_id":"70d1dfba-9338-4b62-aa2c-a1ae06998d5f","system_id":"levelo_inurba_marseille","lat":43.29249,"lon":5.38442,"is_reserved":false,"is_disabled":false,"rental_uris":{"android":"levelo://app?vid=70d1dfba-9338-4b62-aa2c-a1ae06998d5f","ios":"levelo://app?vid=70d1dfba-9338-4b62-aa2c-a1ae06998d5f"},"vehicle_type_id":"4","last_reported":1774892988,"current_range_meters":5600,"station_id":"ce4bh692rcd13ifvqea0","pricing_plan_id":"cebpf4jnsgd1na2vs0mg"},{"bike_id":"fc32dc7e-6e7a-49b4-bf5c-5e107dd0a161","system_id":"levelo_inurba_marseille","lat":43.25403,"lon":5.41908,"is_reserved":false,"is_disabled":false,"rental_uris":{"android":"levelo://app?vid=fc32dc7e-6e7a-49b4-bf5c-5e107dd0a161","ios":"levelo://app?vid=fc32dc7e-6e7a-49b4-bf5c-5e107dd0a161"},"vehicle_type_id":"4","last_reported":1774892988,"current_range_meters":5600,"station_id":"","pricing_plan_id":"cebpf4jnsgd1na2vs0mg"},{"bike_id":"d702f9f6-8c8f-4dee-8b59-b578a0195d00","system_id":"levelo_inurba_marseille","lat":43.31184,"lon":5.3675,"is_reserved":false,"is_disabled":false,"rental_uris":{"android":"levelo://app?vid=d702f9f6-8c8f-4dee-8b59-b578a0195d00","ios":"levelo://app?vid=d702f9f6-8c8f-4dee-8b59-b578a0195d00"},"vehicle_type_id":"4","last_reported":1774892988,"current_range_meters":5600,"station_id":"","pricing_plan_id":"cebpf4jnsgd1na2vs0mg"},{"bike_id":"e35b24d5-c149-4340-9c14-7bd9a49f88da","system_id":"levelo_inurba_marseille","lat":43.26562,"lon":5.39015,"is_reserved":false,"is_disabled":false,"rental_uris":{"android":"levelo://app?vid=e35b24d5-c149-4340-9c14-7bd9a49f88da","ios":"levelo://app?vid=e35b24d5-c149-4340-9c14-7bd9a49f88da"},"vehicle_type_id":"4","last_reported":1774892988,"current_range_meters":6000,"station_id":"ce4bhe12rcd13ifvqf30","pricing_plan_id":"cebpf4jnsgd1na2vs0mg"},{"bike_id":"b90caad3-7060-4253-981e-42cd0d5fd64b","system_id":"levelo_inurba_marseille","lat":43.28454,"lon":5.48394,"is_reserved":false,"is_disabled":false,"rental_uris":{"android":"levelo://app?vid=b90caad3-7060-4253-981e-42cd0d5fd64b","ios":"levelo://app?vid=b90caad3-7060-4253-981e-42cd0d5fd64b"},"vehicle_type_id":"4","last_reported":1774892988,"current_range_meters":6000,"station_id":"st_d3svhcjqgbts73a3dn0g","pricing_plan_id":"cebpf4jnsgd1na2vs0mg"},{"bike_id":"93858380-8afb-453d-8daf-0bf96d8ee1f3","system_id":"levelo_inurba_marseille","lat":43.238,"lon":5.36628,"is_reserved":false,"is_disabled":false,"rental_uris":{"android":"levelo://app?vid=93858380-8afb-453d-8daf-0bf96d8ee1f3","ios":"levelo://app?vid=93858380-8afb-453d-8daf-0bf96d8ee1f3"},"vehicle_type_id":"4","last_reported":1774892988,"current_range_meters":6000,"station_id":"st_d3nk18o9ro0c73en2l3g","pricing_plan_id":"cebpf4jnsgd1na2vs0mg"},{"bike_id":"3e56278a-47c3-4d27-b2a7-b0223efdc25d","system_id":"levelo_inurba_marseille","lat":43.28412,"lon":5.34992,"is_reserved":false,"is_disabled":false,"rental_uris":{"android":"levelo://app?vid=3e56278a-47c3-4d27-b2a7-b0223efdc25d","ios":"levelo://app?vid=3e56278a-47c3-4d27-b2a7-b0223efdc25d"},"vehicle_type_id":"4","last_reported":1774892988,"current_range_meters":6000,"station_id":"ce4bhbh2rcd13ifvqepg","pricing_plan_id":"cebpf4jnsgd1na2vs0mg"},{"bike_id":"fe448dd6-41e6-4316-8322-1ef9307a87c2","system_id":"levelo_inurba_marseille","lat":43.23875,"lon":5.37462,"is_reserved":false,"is_disabled":true,"rental_uris":{"android":"levelo://app?vid=fe448dd6-41e6-4316-8322-1ef9307a87c2","ios":"levelo://app?vid=fe448dd6-41e6-4316-8322-1ef9307a87c2"},"vehicle_type_id":"4","last_reported":1774892988,"current_range_meters":6000,"station_id":"st_d6sm7csbq4hs73f8fpjg","pricing_plan_id":"cebpf4jnsgd1na2vs0mg"},{"bike_id":"29049f9a-cda2-426d-9e6c-1d886e0b8215","system_id":"levelo_inurba_marseille","lat":43.29174,"lon":5.42755,"is_reserved":false,"is_disabled":false,"rental_uris":{"android":"levelo://app?vid=29049f9a-cda2-426d-9e6c-1d886e0b8215","ios":"levelo://app?vid=29049f9a-cda2-426d-9e6c-1d886e0b8215"},"vehicle_type_id":"4","last_reported":1774892988,"current_range_meters":6000,"station_id":"","pricing_plan_id":"cebpf4jnsgd1na2vs0mg"},{"bike_id":"ee421361-3bc2-4e97-8323-af462ea219d5","system_id":"levelo_inurba_marseille","lat":43.30131,"lon":5.3987,"is_reserved":false,"is_disabled":false,"rental_uris":{"android":"levelo://app?vid=ee421361-3bc2-4e97-8323-af462ea219d5","ios":"levelo://app?vid=ee421361-3bc2-4e97-8323-af462ea219d5"},"vehicle_type_id":"4","last_reported":1774892988,"current_range_meters":6000,"station_id":"ce4bh0h2rcd13ifvqd40","pricing_plan_id":"cebpf4jnsgd1na2vs0mg"},{"bike_id":"86db0319-41a7-4493-adee-c184becfe762","system_id":"levelo_inurba_marseille","lat":43.28892,"lon":5.45694,"is_reserved":false,"is_disabled":false,"rental_uris":{"android":"levelo://app?vid=86db0319-41a7-4493-adee-c184becfe762","ios":"levelo://app?vid=86db0319-41a7-4493-adee-c184becfe762"},"vehicle_type_id":"4","last_reported":1774892988,"current_range_meters":6000,"station_id":"","pricing_plan_id":"cebpf4jnsgd1na2vs0mg"},{"bike_id":"81168108-2732-46c8-8472-7503e4d23d21","system_id":"levelo_inurba_marseille","lat":43.29265,"lon":5.38444,"is_reserved":false,"is_disabled":false,"rental_uris":{"android":"levelo://app?vid=81168108-2732-46c8-8472-7503e4d23d21","ios":"levelo://app?vid=81168108-2732-46c8-8472-7503e4d23d21"},"vehicle_type_id":"4","last_reported":1774892988,"current_range_meters":6400,"station_id":"ce4bh692rcd13ifvqea0","pricing_plan_id":"cebpf4jnsgd1na2vs0mg"},{"bike_id":"9b5279f8-e3b1-4621-a405-c262a6f7c1b6","system_id":"levelo_inurba_marseille","lat":43.25085,"lon":5.39522,"is_reserved":false,"is_disabled":false,"rental_uris":{"android":"levelo://app?vid=9b5279f8-e3b1-4621-a405-c262a6f7c1b6","ios":"levelo://app?vid=9b5279f8-e3b1-4621-a405-c262a6f7c1b6"},"vehicle_type_id":"4","last_reported":1774892988,"current_range_meters":6400,"station_id":"ce4bhm12rcd13ifvqgkg","pricing_plan_id":"cebpf4jnsgd1na2vs0mg"},{"bike_id":"c65f7cfd-8a23-4398-8054-cc4c9bfe0b68","system_id":"levelo_inurba_marseille","lat":43.25141,"lon":5.40354,"is_reserved":false,"is_disabled":false,"rental_uris":{"android":"levelo://app?vid=c65f7cfd-8a23-4398-8054-cc4c9bfe0b68","ios":"levelo://app?vid=c65f7cfd-8a23-4398-8054-cc4c9bfe0b68"},"vehicle_type_id":"4","last_reported":1774892988,"current_range_meters":6400,"station_id":"","pricing_plan_id":"cebpf4jnsgd1na2vs0mg"},{"bike_id":"7ea68384-f694-4a28-85a7-1a4829b38dc5","system_id":"levelo_inurba_marseille","lat":43.2854,"lon":5.44109,"is_reserved":false,"is_disabled":false,"rental_uris":{"android":"levelo://app?vid=7ea68384-f694-4a28-85a7-1a4829b38dc5","ios":"levelo://app?vid=7ea68384-f694-4a28-85a7-1a4829b38dc5"},"vehicle_type_id":"4","last_reported":1774892988,"current_range_meters":6400,"station_id":"st_d3j3df2ikq2c7380ej80","pricing_plan_id":"cebpf4jnsgd1na2vs0mg"},{"bike_id":"75a5b4c9-5b1c-4da1-8c3c-e5fe38902336","system_id":"levelo_inurba_marseille","lat":43.29285,"lon":5.38461,"is_reserved":false,"is_disabled":false,"rental_uris":{"android":"levelo://app?vid=75a5b4c9-5b1c-4da1-8c3c-e5fe38902336","ios":"levelo://app?vid=75a5b4c9-5b1c-4da1-8c3c-e5fe38902336"},"vehicle_type_id":"4","last_reported":1774892988,"current_range_meters":6400,"station_id":"ce4bh692rcd13ifvqea0","pricing_plan_id":"cebpf4jnsgd1na2vs0mg"},{"bike_id":"65905f0a-e45a-438a-8a00-0a7e14a19afc","system_id":"levelo_inurba_marseille","lat":43.32361,"lon":5.38863,"is_reserved":false,"is_disabled":false,"rental_uris":{"android":"levelo://app?vid=65905f0a-e45a-438a-8a00-0a7e14a19afc","ios":"levelo://app?vid=65905f0a-e45a-438a-8a00-0a7e14a19afc"},"vehicle_type_id":"4","last_reported":1774892988,"current_range_meters":6400,"station_id":"ce4bhqp2rcd13ifvqhog","pricing_plan_id":"cebpf4jnsgd1na2vs0mg"},{"bike_id":"57239cfd-9cf0-4ecb-b61f-b52beab6afab","system_id":"levelo_inurba_marseille","lat":43.21755,"lon":5.34616,"is_reserved":false,"is_disabled":false,"rental_uris":{"android":"levelo://app?vid=57239cfd-9cf0-4ecb-b61f-b52beab6afab","ios":"levelo://app?vid=57239cfd-9cf0-4ecb-b61f-b52beab6afab"},"vehicle_type_id":"4","last_reported":1774892988,"current_range_meters":6400,"station_id":"st_cvj6r9ubvosntc0bgbag","pricing_plan_id":"cebpf4jnsgd1na2vs0mg"},{"bike_id":"c5ce1d16-3170-4915-94ae-1ea447098f1c","system_id":"levelo_inurba_marseille","lat":43.23187,"lon":5.3998,"is_reserved":false,"is_disabled":false,"rental_uris":{"android":"levelo://app?vid=c5ce1d16-3170-4915-94ae-1ea447098f1c","ios":"levelo://app?vid=c5ce1d16-3170-4915-94ae-1ea447098f1c"},"vehicle_type_id":"4","last_reported":1774892988,"current_range_meters":6400,"station_id":"ce4bhn12rcd13ifvqgqg","pricing_plan_id":"cebpf4jnsgd1na2vs0mg"},{"bike_id":"d58478d5-7685-4128-be2b-edb6179240e2","system_id":"levelo_inurba_marseille","lat":43.28448,"lon":5.3917,"is_reserved":false,"is_disabled":false,"rental_uris":{"android":"levelo://app?vid=d58478d5-7685-4128-be2b-edb6179240e2","ios":"levelo://app?vid=d58478d5-7685-4128-be2b-edb6179240e2"},"vehicle_type_id":"4","last_reported":1774892988,"current_range_meters":6400,"station_id":"ce4bhoh2rcd13ifvqh5g","pricing_plan_id":"cebpf4jnsgd1na2vs0mg"},{"bike_id":"a40f01fe-f6c8-43a9-8210-1aea77a361ae","system_id":"levelo_inurba_marseille","lat":43.29784,"lon":5.40401,"is_reserved":false,"is_disabled":false,"rental_uris":{"android":"levelo://app?vid=a40f01fe-f6c8-43a9-8210-1aea77a361ae","ios":"levelo://app?vid=a40f01fe-f6c8-43a9-8210-1aea77a361ae"},"vehicle_type_id":"4","last_reported":1774892988,"current_range_meters":6400,"station_id":"ce4bh112rcd13ifvqd90","pricing_plan_id":"cebpf4jnsgd1na2vs0mg"},{"bike_id":"13aeb770-c147-4549-93a2-9123e7835f9c","system_id":"levelo_inurba_marseille","lat":43.28076,"lon":5.3966,"is_reserved":false,"is_disabled":false,"rental_uris":{"android":"levelo://app?vid=13aeb770-c147-4549-93a2-9123e7835f9c","ios":"levelo://app?vid=13aeb770-c147-4549-93a2-9123e7835f9c"},"vehicle_type_id":"4","last_reported":1774892988,"current_range_meters":6400,"station_id":"ce4bho12rcd13ifvqh2g","pricing_plan_id":"cebpf4jnsgd1na2vs0mg"},{"bike_id":"aba4a31a-18d2-4cad-bb8c-30bd606f5c4c","system_id":"levelo_inurba_marseille","lat":43.24162,"lon":5.36436,"is_reserved":false,"is_disabled":false,"rental_uris":{"android":"levelo://app?vid=aba4a31a-18d2-4cad-bb8c-30bd606f5c4c","ios":"levelo://app?vid=aba4a31a-18d2-4cad-bb8c-30bd606f5c4c"},"vehicle_type_id":"4","last_reported":1774892988,"current_range_meters":6400,"station_id":"cpo36qri1sfpv3e86is0","pricing_plan_id":"cebpf4jnsgd1na2vs0mg"},{"bike_id":"602b4b7b-8dc9-4891-9a25-26fd34b63857","system_id":"levelo_inurba_marseille","lat":43.24398,"lon":5.37038,"is_reserved":false,"is_disabled":false,"rental_uris":{"android":"levelo://app?vid=602b4b7b-8dc9-4891-9a25-26fd34b63857","ios":"levelo://app?vid=602b4b7b-8dc9-4891-9a25-26fd34b63857"},"vehicle_type_id":"4","last_reported":1774892988,"current_range_meters":6400,"station_id":"ce4bhhh2rcd13ifvqfk0","pricing_plan_id":"cebpf4jnsgd1na2vs0mg"},{"bike_id":"ac172dce-2d76-4a79-a55e-e3ac1467d3ec","system_id":"levelo_inurba_marseille","lat":43.25326,"lon":5.42158,"is_reserved":false,"is_disabled":false,"rental_uris":{"android":"levelo://app?vid=ac172dce-2d76-4a79-a55e-e3ac1467d3ec","ios":"levelo://app?vid=ac172dce-2d76-4a79-a55e-e3ac1467d3ec"},"vehicle_type_id":"4","last_reported":1774892988,"current_range_meters":6400,"station_id":"st_d2m65c5bi1j21697t3ng","pricing_plan_id":"cebpf4jnsgd1na2vs0mg"},{"bike_id":"b6cc933c-6bc2-4eef-9a7c-4e6a85131db4","system_id":"levelo_inurba_marseille","lat":43.2416,"lon":5.36401,"is_reserved":false,"is_disabled":false,"rental_uris":{"android":"levelo://app?vid=b6cc933c-6bc2-4eef-9a7c-4e6a85131db4","ios":"levelo://app?vid=b6cc933c-6bc2-4eef-9a7c-4e6a85131db4"},"vehicle_type_id":"4","last_reported":1774892988,"current_range_meters":6800,"station_id":"cpo36qri1sfpv3e86is0","pricing_plan_id":"cebpf4jnsgd1na2vs0mg"},{"bike_id":"29bac578-e21f-4593-826d-ad124e13c837","system_id":"levelo_inurba_marseille","lat":43.26201,"lon":5.40386,"is_reserved":false,"is_disabled":false,"rental_uris":{"android":"levelo://app?vid=29bac578-e21f-4593-826d-ad124e13c837","ios":"levelo://app?vid=29bac578-e21f-4593-826d-ad124e13c837"},"vehicle_type_id":"4","last_reported":1774892988,"current_range_meters":6800,"station_id":"ce4bhmh2rcd13ifvqgmg","pricing_plan_id":"cebpf4jnsgd1na2vs0mg"},{"bike_id":"65558452-bef9-4410-8a23-e365cf043f80","system_id":"levelo_inurba_marseille","lat":43.29863,"lon":5.3973,"is_reserved":false,"is_disabled":false,"rental_uris":{"android":"levelo://app?vid=65558452-bef9-4410-8a23-e365cf043f80","ios":"levelo://app?vid=65558452-bef9-4410-8a23-e365cf043f80"},"vehicle_type_id":"4","last_reported":1774892988,"current_range_meters":6800,"station_id":"ce4bh0h2rcd13ifvqd50","pricing_plan_id":"cebpf4jnsgd1na2vs0mg"},{"bike_id":"60152d12-5aba-4982-b505-1a29b3810e9c","system_id":"levelo_inurba_marseille","lat":43.29005,"lon":5.35614,"is_reserved":false,"is_disabled":false,"rental_uris":{"android":"levelo://app?vid=60152d12-5aba-4982-b505-1a29b3810e9c","ios":"levelo://app?vid=60152d12-5aba-4982-b505-1a29b3810e9c"},"vehicle_type_id":"4","last_reported":1774892988,"current_range_meters":6800,"station_id":"ce4bhb92rcd13ifvqen0","pricing_plan_id":"cebpf4jnsgd1na2vs0mg"},{"bike_id":"0ff0e0b3-6da5-4b04-a7b1-1f2a88e41774","system_id":"levelo_inurba_marseille","lat":43.24163,"lon":5.36388,"is_reserved":false,"is_disabled":false,"rental_uris":{"android":"levelo://app?vid=0ff0e0b3-6da5-4b04-a7b1-1f2a88e41774","ios":"levelo://app?vid=0ff0e0b3-6da5-4b04-a7b1-1f2a88e41774"},"vehicle_type_id":"4","last_reported":1774892988,"current_range_meters":6800,"station_id":"cpo36qri1sfpv3e86is0","pricing_plan_id":"cebpf4jnsgd1na2vs0mg"},{"bike_id":"131a88d5-b5b2-4532-b511-14fa6f230522","system_id":"levelo_inurba_marseille","lat":43.33726,"lon":5.39184,"is_reserved":false,"is_disabled":false,"rental_uris":{"android":"levelo://app?vid=131a88d5-b5b2-4532-b511-14fa6f230522","ios":"levelo://app?vid=131a88d5-b5b2-4532-b511-14fa6f230522"},"vehicle_type_id":"4","last_reported":1774892988,"current_range_meters":6800,"station_id":"ce4bhr92rcd13ifvqhsg","pricing_plan_id":"cebpf4jnsgd1na2vs0mg"},{"bike_id":"0d37362c-bb26-4434-bae9-46e62ccc0bed","system_id":"levelo_inurba_marseille","lat":43.29249,"lon":5.40892,"is_reserved":false,"is_disabled":false,"rental_uris":{"android":"levelo://app?vid=0d37362c-bb26-4434-bae9-46e62ccc0bed","ios":"levelo://app?vid=0d37362c-bb26-4434-bae9-46e62ccc0bed"},"vehicle_type_id":"4","last_reported":1774892988,"current_range_meters":6800,"station_id":"ce4bh192rcd13ifvqdc0","pricing_plan_id":"cebpf4jnsgd1na2vs0mg"},{"bike_id":"1227dc61-c55b-43f3-83a0-014c73aacab8","system_id":"levelo_inurba_marseille","lat":43.23966,"lon":5.36639,"is_reserved":false,"is_disabled":false,"rental_uris":{"android":"levelo://app?vid=1227dc61-c55b-43f3-83a0-014c73aacab8","ios":"levelo://app?vid=1227dc61-c55b-43f3-83a0-014c73aacab8"},"vehicle_type_id":"4","last_reported":1774892988,"current_range_meters":6800,"station_id":"ce4bhi12rcd13ifvqfp0","pricing_plan_id":"cebpf4jnsgd1na2vs0mg"},{"bike_id":"53ab5b1d-cae9-45a1-acf9-cea4f7b6ff95","system_id":"levelo_inurba_marseille","lat":43.23058,"lon":5.35559,"is_reserved":false,"is_disabled":false,"rental_uris":{"android":"levelo://app?vid=53ab5b1d-cae9-45a1-acf9-cea4f7b6ff95","ios":"levelo://app?vid=53ab5b1d-cae9-45a1-acf9-cea4f7b6ff95"},"vehicle_type_id":"4","last_reported":1774892988,"current_range_meters":6800,"station_id":"","pricing_plan_id":"cebpf4jnsgd1na2vs0mg"},{"bike_id":"9ab06981-c59f-4073-bb80-0a5fa944b883","system_id":"levelo_inurba_marseille","lat":43.254794,"lon":5.395755,"is_reserved":false,"is_disabled":false,"rental_uris":{"android":"levelo://app?vid=9ab06981-c59f-4073-bb80-0a5fa944b883","ios":"levelo://app?vid=9ab06981-c59f-4073-bb80-0a5fa944b883"},"vehicle_type_id":"4","last_reported":1774892988,"current_range_meters":6800,"station_id":"st_d2m65c5bi1j21697t3ng","pricing_plan_id":"cebpf4jnsgd1na2vs0mg"},{"bike_id":"f7d02767-52da-4db2-b403-e11366b9f9bf","system_id":"levelo_inurba_marseille","lat":43.28638,"lon":5.35094,"is_reserved":false,"is_disabled":false,"rental_uris":{"android":"levelo://app?vid=f7d02767-52da-4db2-b403-e11366b9f9bf","ios":"levelo://app?vid=f7d02767-52da-4db2-b403-e11366b9f9bf"},"vehicle_type_id":"4","last_reported":1774892988,"current_range_meters":6800,"station_id":"ce4bhch2rcd13ifvqeug","pricing_plan_id":"cebpf4jnsgd1na2vs0mg"},{"bike_id":"f1597475-5002-4fa1-bc19-d7cb2ab846a9","system_id":"levelo_inurba_marseille","lat":43.30155,"lon":5.381,"is_reserved":false,"is_disabled":false,"rental_uris":{"android":"levelo://app?vid=f1597475-5002-4fa1-bc19-d7cb2ab846a9","ios":"levelo://app?vid=f1597475-5002-4fa1-bc19-d7cb2ab846a9"},"vehicle_type_id":"4","last_reported":1774892988,"current_range_meters":6800,"station_id":"ce4bgjp2rcd13ifvqbh0","pricing_plan_id":"cebpf4jnsgd1na2vs0mg"},{"bike_id":"5c48f7da-31c3-42e6-9637-518cc59f95e6","system_id":"levelo_inurba_marseille","lat":43.24645,"lon":5.389,"is_reserved":false,"is_disabled":false,"rental_uris":{"android":"levelo://app?vid=5c48f7da-31c3-42e6-9637-518cc59f95e6","ios":"levelo://app?vid=5c48f7da-31c3-42e6-9637-518cc59f95e6"},"vehicle_type_id":"4","last_reported":1774892988,"current_range_meters":6800,"station_id":"ce4bhg12rcd13ifvqf60","pricing_plan_id":"cebpf4jnsgd1na2vs0mg"},{"bike_id":"c0d049d2-9884-47fd-b25d-2edd239d3046","system_id":"levelo_inurba_marseille","lat":43.28533,"lon":5.44108,"is_reserved":false,"is_disabled":false,"rental_uris":{"android":"levelo://app?vid=c0d049d2-9884-47fd-b25d-2edd239d3046","ios":"levelo://app?vid=c0d049d2-9884-47fd-b25d-2edd239d3046"},"vehicle_type_id":"4","last_reported":1774892988,"current_range_meters":6800,"station_id":"st_d3j3df2ikq2c7380ej80","pricing_plan_id":"cebpf4jnsgd1na2vs0mg"},{"bike_id":"de3208ad-e0aa-43cf-b3d0-9b02dc8b1328","system_id":"levelo_inurba_marseille","lat":43.2416,"lon":5.36376,"is_reserved":false,"is_disabled":false,"rental_uris":{"android":"levelo://app?vid=de3208ad-e0aa-43cf-b3d0-9b02dc8b1328","ios":"levelo://app?vid=de3208ad-e0aa-43cf-b3d0-9b02dc8b1328"},"vehicle_type_id":"4","last_reported":1774892988,"current_range_meters":6800,"station_id":"cpo36qri1sfpv3e86is0","pricing_plan_id":"cebpf4jnsgd1na2vs0mg"},{"bike_id":"9c7e94f9-d221-4f46-a9ee-859d87da9d16","system_id":"levelo_inurba_marseille","lat":43.27916,"lon":5.39588,"is_reserved":false,"is_disabled":false,"rental_uris":{"android":"levelo://app?vid=9c7e94f9-d221-4f46-a9ee-859d87da9d16","ios":"levelo://app?vid=9c7e94f9-d221-4f46-a9ee-859d87da9d16"},"vehicle_type_id":"4","last_reported":1774892988,"current_range_meters":6800,"station_id":"ce4bhf92rcd13ifvqf40","pricing_plan_id":"cebpf4jnsgd1na2vs0mg"},{"bike_id":"c0eec902-074b-4a18-af47-ff048b653a5e","system_id":"levelo_inurba_marseille","lat":43.28469,"lon":5.4841,"is_reserved":false,"is_disabled":false,"rental_uris":{"android":"levelo://app?vid=c0eec902-074b-4a18-af47-ff048b653a5e","ios":"levelo://app?vid=c0eec902-074b-4a18-af47-ff048b653a5e"},"vehicle_type_id":"4","last_reported":1774892988,"current_range_meters":7200,"station_id":"","pricing_plan_id":"cebpf4jnsgd1na2vs0mg"},{"bike_id":"132e7de0-1c60-4e16-8ba9-01efee9304af","system_id":"levelo_inurba_marseille","lat":43.32347,"lon":5.36747,"is_reserved":false,"is_disabled":false,"rental_uris":{"android":"levelo://app?vid=132e7de0-1c60-4e16-8ba9-01efee9304af","ios":"levelo://app?vid=132e7de0-1c60-4e16-8ba9-01efee9304af"},"vehicle_type_id":"4","last_reported":1774892988,"current_range_meters":7200,"station_id":"ce4bhsh2rcd13ifvqi2g","pricing_plan_id":"cebpf4jnsgd1na2vs0mg"},{"bike_id":"8429f855-c4a0-4803-9ce7-0d1fb93dbfe8","system_id":"levelo_inurba_marseille","lat":43.28353,"lon":5.48748,"is_reserved":false,"is_disabled":false,"rental_uris":{"android":"levelo://app?vid=8429f855-c4a0-4803-9ce7-0d1fb93dbfe8","ios":"levelo://app?vid=8429f855-c4a0-4803-9ce7-0d1fb93dbfe8"},"vehicle_type_id":"4","last_reported":1774892988,"current_range_meters":7200,"station_id":"","pricing_plan_id":"cebpf4jnsgd1na2vs0mg"},{"bike_id":"c6f0bfb9-609a-4cc4-9c64-edb005bc49da","system_id":"levelo_inurba_marseille","lat":43.28398,"lon":5.34974,"is_reserved":false,"is_disabled":false,"rental_uris":{"android":"levelo://app?vid=c6f0bfb9-609a-4cc4-9c64-edb005bc49da","ios":"levelo://app?vid=c6f0bfb9-609a-4cc4-9c64-edb005bc49da"},"vehicle_type_id":"4","last_reported":1774892988,"current_range_meters":7200,"station_id":"ce4bhbh2rcd13ifvqepg","pricing_plan_id":"cebpf4jnsgd1na2vs0mg"},{"bike_id":"046881a8-ab16-4490-bda4-767f874d1bc8","system_id":"levelo_inurba_marseille","lat":43.287178,"lon":5.360977,"is_reserved":false,"is_disabled":false,"rental_uris":{"android":"levelo://app?vid=046881a8-ab16-4490-bda4-767f874d1bc8","ios":"levelo://app?vid=046881a8-ab16-4490-bda4-767f874d1bc8"},"vehicle_type_id":"4","last_reported":1774892988,"current_range_meters":7200,"station_id":"","pricing_plan_id":"cebpf4jnsgd1na2vs0mg"},{"bike_id":"ce0d09ee-b6ae-4168-96a6-a542e3d8d78f","system_id":"levelo_inurba_marseille","lat":43.29527,"lon":5.38561,"is_reserved":false,"is_disabled":false,"rental_uris":{"android":"levelo://app?vid=ce0d09ee-b6ae-4168-96a6-a542e3d8d78f","ios":"levelo://app?vid=ce0d09ee-b6ae-4168-96a6-a542e3d8d78f"},"vehicle_type_id":"4","last_reported":1774892988,"current_range_meters":7200,"station_id":"ce4bgih2rcd13ifvqba0","pricing_plan_id":"cebpf4jnsgd1na2vs0mg"},{"bike_id":"c7686f7e-b5e1-4c8a-b91c-cf38c3111ad1","system_id":"levelo_inurba_marseille","lat":43.28717,"lon":5.37346,"is_reserved":false,"is_disabled":false,"rental_uris":{"android":"levelo://app?vid=c7686f7e-b5e1-4c8a-b91c-cf38c3111ad1","ios":"levelo://app?vid=c7686f7e-b5e1-4c8a-b91c-cf38c3111ad1"},"vehicle_type_id":"4","last_reported":1774892988,"current_range_meters":7200,"station_id":"ce4bh3p2rcd13ifvqdq0","pricing_plan_id":"cebpf4jnsgd1na2vs0mg"},{"bike_id":"d653ed05-f213-45fd-84c6-b781deb83672","system_id":"levelo_inurba_marseille","lat":43.22557,"lon":5.41633,"is_reserved":false,"is_disabled":false,"rental_uris":{"android":"levelo://app?vid=d653ed05-f213-45fd-84c6-b781deb83672","ios":"levelo://app?vid=d653ed05-f213-45fd-84c6-b781deb83672"},"vehicle_type_id":"4","last_reported":1774892988,"current_range_meters":7200,"station_id":"st_d2o4gvlbi1j2169b742g","pricing_plan_id":"cebpf4jnsgd1na2vs0mg"},{"bike_id":"989bebe7-8615-4cd7-aeef-fec5c5f64679","system_id":"levelo_inurba_marseille","lat":43.24381,"lon":5.37047,"is_reserved":false,"is_disabled":false,"rental_uris":{"android":"levelo://app?vid=989bebe7-8615-4cd7-aeef-fec5c5f64679","ios":"levelo://app?vid=989bebe7-8615-4cd7-aeef-fec5c5f64679"},"vehicle_type_id":"4","last_reported":1774892988,"current_range_meters":7200,"station_id":"ce4bhhh2rcd13ifvqfk0","pricing_plan_id":"cebpf4jnsgd1na2vs0mg"},{"bike_id":"fa2139d7-56b5-4664-870b-94753042ac1d","system_id":"levelo_inurba_marseille","lat":43.21217,"lon":5.35056,"is_reserved":false,"is_disabled":false,"rental_uris":{"android":"levelo://app?vid=fa2139d7-56b5-4664-870b-94753042ac1d","ios":"levelo://app?vid=fa2139d7-56b5-4664-870b-94753042ac1d"},"vehicle_type_id":"4","last_reported":1774892988,"current_range_meters":7200,"station_id":"st_cvj6sg6p6f1abm77japg","pricing_plan_id":"cebpf4jnsgd1na2vs0mg"},{"bike_id":"c67c5d5c-6a86-4840-bc88-5726340ce24f","system_id":"levelo_inurba_marseille","lat":43.239,"lon":5.37465,"is_reserved":false,"is_disabled":false,"rental_uris":{"android":"levelo://app?vid=c67c5d5c-6a86-4840-bc88-5726340ce24f","ios":"levelo://app?vid=c67c5d5c-6a86-4840-bc88-5726340ce24f"},"vehicle_type_id":"4","last_reported":1774892988,"current_range_meters":7200,"station_id":"st_d6sm7csbq4hs73f8fpjg","pricing_plan_id":"cebpf4jnsgd1na2vs0mg"},{"bike_id":"0f20fa83-5694-4393-a47b-7caf9e918801","system_id":"levelo_inurba_marseille","lat":43.29165,"lon":5.42624,"is_reserved":false,"is_disabled":false,"rental_uris":{"android":"levelo://app?vid=0f20fa83-5694-4393-a47b-7caf9e918801","ios":"levelo://app?vid=0f20fa83-5694-4393-a47b-7caf9e918801"},"vehicle_type_id":"4","last_reported":1774892988,"current_range_meters":7200,"station_id":"","pricing_plan_id":"cebpf4jnsgd1na2vs0mg"},{"bike_id":"f2937047-f2ea-472a-8880-f4aacc00d05c","system_id":"levelo_inurba_marseille","lat":43.30841,"lon":5.39198,"is_reserved":false,"is_disabled":false,"rental_uris":{"android":"levelo://app?vid=f2937047-f2ea-472a-8880-f4aacc00d05c","ios":"levelo://app?vid=f2937047-f2ea-472a-8880-f4aacc00d05c"},"vehicle_type_id":"4","last_reported":1774892988,"current_range_meters":7200,"station_id":"","pricing_plan_id":"cebpf4jnsgd1na2vs0mg"},{"bike_id":"97ce69f1-7181-466d-9bc2-d076363b5f27","system_id":"levelo_inurba_marseille","lat":43.24154,"lon":5.364,"is_reserved":false,"is_disabled":false,"rental_uris":{"android":"levelo://app?vid=97ce69f1-7181-466d-9bc2-d076363b5f27","ios":"levelo://app?vid=97ce69f1-7181-466d-9bc2-d076363b5f27"},"vehicle_type_id":"4","last_reported":1774892988,"current_range_meters":7200,"station_id":"cpo36qri1sfpv3e86is0","pricing_plan_id":"cebpf4jnsgd1na2vs0mg"},{"bike_id":"97c39884-24ca-43ee-b263-5b5f3c69e1a7","system_id":"levelo_inurba_marseille","lat":43.29892,"lon":5.36518,"is_reserved":false,"is_disabled":false,"rental_uris":{"android":"levelo://app?vid=97c39884-24ca-43ee-b263-5b5f3c69e1a7","ios":"levelo://app?vid=97c39884-24ca-43ee-b263-5b5f3c69e1a7"},"vehicle_type_id":"4","last_reported":1774892988,"current_range_meters":7200,"station_id":"ce4bgm92rcd13ifvqbr0","pricing_plan_id":"cebpf4jnsgd1na2vs0mg"},{"bike_id":"90c5083d-61d7-4212-893f-2dfc58168774","system_id":"levelo_inurba_marseille","lat":43.24162,"lon":5.36408,"is_reserved":false,"is_disabled":false,"rental_uris":{"android":"levelo://app?vid=90c5083d-61d7-4212-893f-2dfc58168774","ios":"levelo://app?vid=90c5083d-61d7-4212-893f-2dfc58168774"},"vehicle_type_id":"4","last_reported":1774892988,"current_range_meters":7200,"station_id":"cpo36qri1sfpv3e86is0","pricing_plan_id":"cebpf4jnsgd1na2vs0mg"},{"bike_id":"3ac0129c-9c97-4af6-b6ad-c66c14a5c227","system_id":"levelo_inurba_marseille","lat":43.28463,"lon":5.48382,"is_reserved":false,"is_disabled":false,"rental_uris":{"android":"levelo://app?vid=3ac0129c-9c97-4af6-b6ad-c66c14a5c227","ios":"levelo://app?vid=3ac0129c-9c97-4af6-b6ad-c66c14a5c227"},"vehicle_type_id":"4","last_reported":1774892988,"current_range_meters":7200,"station_id":"","pricing_plan_id":"cebpf4jnsgd1na2vs0mg"},{"bike_id":"4c0ad3b2-eaa3-4ff7-aeac-f17179188f8e","system_id":"levelo_inurba_marseille","lat":43.3256,"lon":5.41058,"is_reserved":false,"is_disabled":false,"rental_uris":{"android":"levelo://app?vid=4c0ad3b2-eaa3-4ff7-aeac-f17179188f8e","ios":"levelo://app?vid=4c0ad3b2-eaa3-4ff7-aeac-f17179188f8e"},"vehicle_type_id":"4","last_reported":1774892988,"current_range_meters":7200,"station_id":"","pricing_plan_id":"cebpf4jnsgd1na2vs0mg"},{"bike_id":"05413762-ea27-415e-88aa-00c76977f7a7","system_id":"levelo_inurba_marseille","lat":43.29875,"lon":5.3974,"is_reserved":false,"is_disabled":false,"rental_uris":{"android":"levelo://app?vid=05413762-ea27-415e-88aa-00c76977f7a7","ios":"levelo://app?vid=05413762-ea27-415e-88aa-00c76977f7a7"},"vehicle_type_id":"4","last_reported":1774892988,"current_range_meters":7200,"station_id":"ce4bh0h2rcd13ifvqd50","pricing_plan_id":"cebpf4jnsgd1na2vs0mg"},{"bike_id":"935b323a-7f06-41a8-a3ad-b2c2698067c3","system_id":"levelo_inurba_marseille","lat":43.26222,"lon":5.40454,"is_reserved":false,"is_disabled":false,"rental_uris":{"android":"levelo://app?vid=935b323a-7f06-41a8-a3ad-b2c2698067c3","ios":"levelo://app?vid=935b323a-7f06-41a8-a3ad-b2c2698067c3"},"vehicle_type_id":"4","last_reported":1774892988,"current_range_meters":7200,"station_id":"ce4bhmh2rcd13ifvqgmg","pricing_plan_id":"cebpf4jnsgd1na2vs0mg"},{"bike_id":"1f8b06bb-3f91-46ec-ae05-36fb92f0336b","system_id":"levelo_inurba_marseille","lat":43.26397,"lon":5.39894,"is_reserved":false,"is_disabled":false,"rental_uris":{"android":"levelo://app?vid=1f8b06bb-3f91-46ec-ae05-36fb92f0336b","ios":"levelo://app?vid=1f8b06bb-3f91-46ec-ae05-36fb92f0336b"},"vehicle_type_id":"4","last_reported":1774892988,"current_range_meters":7200,"station_id":"","pricing_plan_id":"cebpf4jnsgd1na2vs0mg"},{"bike_id":"71983624-569c-45d9-9fb5-891a7993a82a","system_id":"levelo_inurba_marseille","lat":43.28423,"lon":5.34997,"is_reserved":false,"is_disabled":false,"rental_uris":{"android":"levelo://app?vid=71983624-569c-45d9-9fb5-891a7993a82a","ios":"levelo://app?vid=71983624-569c-45d9-9fb5-891a7993a82a"},"vehicle_type_id":"4","last_reported":1774892988,"current_range_meters":7200,"station_id":"ce4bhbh2rcd13ifvqepg","pricing_plan_id":"cebpf4jnsgd1na2vs0mg"},{"bike_id":"321b3eaa-1069-4b90-8621-c923db7c2f03","system_id":"levelo_inurba_marseille","lat":43.28442,"lon":5.3918,"is_reserved":false,"is_disabled":false,"rental_uris":{"android":"levelo://app?vid=321b3eaa-1069-4b90-8621-c923db7c2f03","ios":"levelo://app?vid=321b3eaa-1069-4b90-8621-c923db7c2f03"},"vehicle_type_id":"4","last_reported":1774892988,"current_range_meters":8000,"station_id":"ce4bhoh2rcd13ifvqh5g","pricing_plan_id":"cebpf4jnsgd1na2vs0mg"},{"bike_id":"88446142-b541-4a60-b426-e53ff4a6e7aa","system_id":"levelo_inurba_marseille","lat":43.26056,"lon":5.394,"is_reserved":false,"is_disabled":false,"rental_uris":{"android":"levelo://app?vid=88446142-b541-4a60-b426-e53ff4a6e7aa","ios":"levelo://app?vid=88446142-b541-4a60-b426-e53ff4a6e7aa"},"vehicle_type_id":"4","last_reported":1774892988,"current_range_meters":8000,"station_id":"ce4bhh92rcd13ifvqfj0","pricing_plan_id":"cebpf4jnsgd1na2vs0mg"},{"bike_id":"1f50d665-ad56-4564-8bce-5cff2a4e2b4f","system_id":"levelo_inurba_marseille","lat":43.24168,"lon":5.39749,"is_reserved":false,"is_disabled":false,"rental_uris":{"android":"levelo://app?vid=1f50d665-ad56-4564-8bce-5cff2a4e2b4f","ios":"levelo://app?vid=1f50d665-ad56-4564-8bce-5cff2a4e2b4f"},"vehicle_type_id":"4","last_reported":1774892988,"current_range_meters":8000,"station_id":"ce4bhn12rcd13ifvqgpg","pricing_plan_id":"cebpf4jnsgd1na2vs0mg"},{"bike_id":"79b83cac-f53e-4728-8f51-39d9470d2b57","system_id":"levelo_inurba_marseille","lat":43.29789,"lon":5.39353,"is_reserved":false,"is_disabled":false,"rental_uris":{"android":"levelo://app?vid=79b83cac-f53e-4728-8f51-39d9470d2b57","ios":"levelo://app?vid=79b83cac-f53e-4728-8f51-39d9470d2b57"},"vehicle_type_id":"4","last_reported":1774892988,"current_range_meters":8000,"station_id":"chh1huq6cuj3fo74tm60","pricing_plan_id":"cebpf4jnsgd1na2vs0mg"},{"bike_id":"bbea286a-6e48-49d8-bcfc-d69bfefa013e","system_id":"levelo_inurba_marseille","lat":43.28622,"lon":5.35094,"is_reserved":false,"is_disabled":false,"rental_uris":{"android":"levelo://app?vid=bbea286a-6e48-49d8-bcfc-d69bfefa013e","ios":"levelo://app?vid=bbea286a-6e48-49d8-bcfc-d69bfefa013e"},"vehicle_type_id":"4","last_reported":1774892988,"current_range_meters":8000,"station_id":"ce4bhch2rcd13ifvqeug","pricing_plan_id":"cebpf4jnsgd1na2vs0mg"},{"bike_id":"b2fedf6b-2cd3-4ea3-9573-b48aa9b36329","system_id":"levelo_inurba_marseille","lat":43.28625,"lon":5.35095,"is_reserved":false,"is_disabled":false,"rental_uris":{"android":"levelo://app?vid=b2fedf6b-2cd3-4ea3-9573-b48aa9b36329","ios":"levelo://app?vid=b2fedf6b-2cd3-4ea3-9573-b48aa9b36329"},"vehicle_type_id":"4","last_reported":1774892988,"current_range_meters":8000,"station_id":"ce4bhch2rcd13ifvqeug","pricing_plan_id":"cebpf4jnsgd1na2vs0mg"},{"bike_id":"3a6cd128-2bd9-4487-82c3-2d64dde17ac7","system_id":"levelo_inurba_marseille","lat":43.31194,"lon":5.3906,"is_reserved":false,"is_disabled":false,"rental_uris":{"android":"levelo://app?vid=3a6cd128-2bd9-4487-82c3-2d64dde17ac7","ios":"levelo://app?vid=3a6cd128-2bd9-4487-82c3-2d64dde17ac7"},"vehicle_type_id":"4","last_reported":1774892988,"current_range_meters":8000,"station_id":"","pricing_plan_id":"cebpf4jnsgd1na2vs0mg"},{"bike_id":"9805c95b-690f-4ff4-a83b-12c9a47aff25","system_id":"levelo_inurba_marseille","lat":43.31317,"lon":5.40182,"is_reserved":false,"is_disabled":false,"rental_uris":{"android":"levelo://app?vid=9805c95b-690f-4ff4-a83b-12c9a47aff25","ios":"levelo://app?vid=9805c95b-690f-4ff4-a83b-12c9a47aff25"},"vehicle_type_id":"4","last_reported":1774892988,"current_range_meters":8000,"station_id":"","pricing_plan_id":"cebpf4jnsgd1na2vs0mg"},{"bike_id":"94ebd6be-fb80-4ec3-8693-d1f514f30182","system_id":"levelo_inurba_marseille","lat":43.30528,"lon":5.3673,"is_reserved":false,"is_disabled":false,"rental_uris":{"android":"levelo://app?vid=94ebd6be-fb80-4ec3-8693-d1f514f30182","ios":"levelo://app?vid=94ebd6be-fb80-4ec3-8693-d1f514f30182"},"vehicle_type_id":"4","last_reported":1774892988,"current_range_meters":8000,"station_id":"ce4bgrp2rcd13ifvqc9g","pricing_plan_id":"cebpf4jnsgd1na2vs0mg"},{"bike_id":"15acd291-793b-48f8-8353-72eff2f6467d","system_id":"levelo_inurba_marseille","lat":43.26957,"lon":5.40253,"is_reserved":false,"is_disabled":false,"rental_uris":{"android":"levelo://app?vid=15acd291-793b-48f8-8353-72eff2f6467d","ios":"levelo://app?vid=15acd291-793b-48f8-8353-72eff2f6467d"},"vehicle_type_id":"4","last_reported":1774892988,"current_range_meters":8000,"station_id":"cjm6bp8fraef2m0cb0m0","pricing_plan_id":"cebpf4jnsgd1na2vs0mg"},{"bike_id":"106f0fd9-f174-4827-994c-587ea2f816de","system_id":"levelo_inurba_marseille","lat":43.25574,"lon":5.38245,"is_reserved":false,"is_disabled":false,"rental_uris":{"android":"levelo://app?vid=106f0fd9-f174-4827-994c-587ea2f816de","ios":"levelo://app?vid=106f0fd9-f174-4827-994c-587ea2f816de"},"vehicle_type_id":"4","last_reported":1774892988,"current_range_meters":8000,"station_id":"ce4bhih2rcd13ifvqfs0","pricing_plan_id":"cebpf4jnsgd1na2vs0mg"},{"bike_id":"bd22810e-4e9c-45ac-8057-6360dc8fe6a3","system_id":"levelo_inurba_marseille","lat":43.24161,"lon":5.3641,"is_reserved":false,"is_disabled":false,"rental_uris":{"android":"levelo://app?vid=bd22810e-4e9c-45ac-8057-6360dc8fe6a3","ios":"levelo://app?vid=bd22810e-4e9c-45ac-8057-6360dc8fe6a3"},"vehicle_type_id":"4","last_reported":1774892988,"current_range_meters":8000,"station_id":"cpo36qri1sfpv3e86is0","pricing_plan_id":"cebpf4jnsgd1na2vs0mg"},{"bike_id":"8d26c30b-3847-405c-8066-75bf15658130","system_id":"levelo_inurba_marseille","lat":43.29849,"lon":5.36497,"is_reserved":false,"is_disabled":false,"rental_uris":{"android":"levelo://app?vid=8d26c30b-3847-405c-8066-75bf15658130","ios":"levelo://app?vid=8d26c30b-3847-405c-8066-75bf15658130"},"vehicle_type_id":"4","last_reported":1774892988,"current_range_meters":8000,"station_id":"","pricing_plan_id":"cebpf4jnsgd1na2vs0mg"},{"bike_id":"e2491530-7c3b-41df-80e0-1a5c4af36aa4","system_id":"levelo_inurba_marseille","lat":43.23772,"lon":5.3663,"is_reserved":false,"is_disabled":false,"rental_uris":{"android":"levelo://app?vid=e2491530-7c3b-41df-80e0-1a5c4af36aa4","ios":"levelo://app?vid=e2491530-7c3b-41df-80e0-1a5c4af36aa4"},"vehicle_type_id":"4","last_reported":1774892988,"current_range_meters":8000,"station_id":"st_d3nk18o9ro0c73en2l3g","pricing_plan_id":"cebpf4jnsgd1na2vs0mg"},{"bike_id":"31159e14-126d-42be-a61a-30578eca27cc","system_id":"levelo_inurba_marseille","lat":43.284652,"lon":5.390554,"is_reserved":false,"is_disabled":false,"rental_uris":{"android":"levelo://app?vid=31159e14-126d-42be-a61a-30578eca27cc","ios":"levelo://app?vid=31159e14-126d-42be-a61a-30578eca27cc"},"vehicle_type_id":"4","last_reported":1774892988,"current_range_meters":8000,"station_id":"ce4bhoh2rcd13ifvqh5g","pricing_plan_id":"cebpf4jnsgd1na2vs0mg"},{"bike_id":"cda9d6b2-2c9a-454f-b5ec-8839bf31e0d5","system_id":"levelo_inurba_marseille","lat":43.30878,"lon":5.37202,"is_reserved":false,"is_disabled":false,"rental_uris":{"android":"levelo://app?vid=cda9d6b2-2c9a-454f-b5ec-8839bf31e0d5","ios":"levelo://app?vid=cda9d6b2-2c9a-454f-b5ec-8839bf31e0d5"},"vehicle_type_id":"4","last_reported":1774892988,"current_range_meters":8000,"station_id":"ce4bguh2rcd13ifvqckg","pricing_plan_id":"cebpf4jnsgd1na2vs0mg"},{"bike_id":"528b9db2-bfca-4b28-afc7-6a56ab7306ce","system_id":"levelo_inurba_marseille","lat":43.29523,"lon":5.39045,"is_reserved":false,"is_disabled":false,"rental_uris":{"android":"levelo://app?vid=528b9db2-bfca-4b28-afc7-6a56ab7306ce","ios":"levelo://app?vid=528b9db2-bfca-4b28-afc7-6a56ab7306ce"},"vehicle_type_id":"4","last_reported":1774892988,"current_range_meters":8000,"station_id":"ce4bh3p2rcd13ifvqdp0","pricing_plan_id":"cebpf4jnsgd1na2vs0mg"},{"bike_id":"6f4b7a7d-d060-49ef-ad49-93bd2b0dfb0a","system_id":"levelo_inurba_marseille","lat":43.29196,"lon":5.39334,"is_reserved":false,"is_disabled":false,"rental_uris":{"android":"levelo://app?vid=6f4b7a7d-d060-49ef-ad49-93bd2b0dfb0a","ios":"levelo://app?vid=6f4b7a7d-d060-49ef-ad49-93bd2b0dfb0a"},"vehicle_type_id":"4","last_reported":1774892988,"current_range_meters":8000,"station_id":"ce4bh192rcd13ifvqdd0","pricing_plan_id":"cebpf4jnsgd1na2vs0mg"},{"bike_id":"cace6a75-41af-4909-a80a-68d60c5c1a04","system_id":"levelo_inurba_marseille","lat":43.28408,"lon":5.34953,"is_reserved":false,"is_disabled":false,"rental_uris":{"android":"levelo://app?vid=cace6a75-41af-4909-a80a-68d60c5c1a04","ios":"levelo://app?vid=cace6a75-41af-4909-a80a-68d60c5c1a04"},"vehicle_type_id":"4","last_reported":1774892988,"current_range_meters":8000,"station_id":"ce4bhbh2rcd13ifvqepg","pricing_plan_id":"cebpf4jnsgd1na2vs0mg"},{"bike_id":"fbb8d1ee-af97-443e-a94c-eaf376f4d550","system_id":"levelo_inurba_marseille","lat":43.29952,"lon":5.36684,"is_reserved":false,"is_disabled":false,"rental_uris":{"android":"levelo://app?vid=fbb8d1ee-af97-443e-a94c-eaf376f4d550","ios":"levelo://app?vid=fbb8d1ee-af97-443e-a94c-eaf376f4d550"},"vehicle_type_id":"4","last_reported":1774892988,"current_range_meters":8000,"station_id":"","pricing_plan_id":"cebpf4jnsgd1na2vs0mg"},{"bike_id":"9a2b7083-46d3-48cb-ae43-d46d45a8d810","system_id":"levelo_inurba_marseille","lat":43.28554,"lon":5.39502,"is_reserved":false,"is_disabled":false,"rental_uris":{"android":"levelo://app?vid=9a2b7083-46d3-48cb-ae43-d46d45a8d810","ios":"levelo://app?vid=9a2b7083-46d3-48cb-ae43-d46d45a8d810"},"vehicle_type_id":"4","last_reported":1774892988,"current_range_meters":8000,"station_id":"ce4bh292rcd13ifvqdg0","pricing_plan_id":"cebpf4jnsgd1na2vs0mg"},{"bike_id":"69510228-72c9-4619-a554-92f411113d2d","system_id":"levelo_inurba_marseille","lat":43.26564,"lon":5.3902,"is_reserved":false,"is_disabled":false,"rental_uris":{"android":"levelo://app?vid=69510228-72c9-4619-a554-92f411113d2d","ios":"levelo://app?vid=69510228-72c9-4619-a554-92f411113d2d"},"vehicle_type_id":"4","last_reported":1774892988,"current_range_meters":8000,"station_id":"ce4bhe12rcd13ifvqf30","pricing_plan_id":"cebpf4jnsgd1na2vs0mg"},{"bike_id":"e7370f00-6303-497a-9066-a9c60a96920b","system_id":"levelo_inurba_marseille","lat":43.29052,"lon":5.38635,"is_reserved":false,"is_disabled":false,"rental_uris":{"android":"levelo://app?vid=e7370f00-6303-497a-9066-a9c60a96920b","ios":"levelo://app?vid=e7370f00-6303-497a-9066-a9c60a96920b"},"vehicle_type_id":"4","last_reported":1774892988,"current_range_meters":8000,"station_id":"ce4bh4p2rcd13ifvqe0g","pricing_plan_id":"cebpf4jnsgd1na2vs0mg"},{"bike_id":"cb88b7c0-158f-47d6-b62a-c3ee88f004a1","system_id":"levelo_inurba_marseille","lat":43.24478,"lon":5.42627,"is_reserved":false,"is_disabled":false,"rental_uris":{"android":"levelo://app?vid=cb88b7c0-158f-47d6-b62a-c3ee88f004a1","ios":"levelo://app?vid=cb88b7c0-158f-47d6-b62a-c3ee88f004a1"},"vehicle_type_id":"4","last_reported":1774892988,"current_range_meters":8000,"station_id":"","pricing_plan_id":"cebpf4jnsgd1na2vs0mg"},{"bike_id":"85167df3-a8b0-42b8-aaef-059b9ae1c990","system_id":"levelo_inurba_marseille","lat":43.24942,"lon":5.40494,"is_reserved":false,"is_disabled":false,"rental_uris":{"android":"levelo://app?vid=85167df3-a8b0-42b8-aaef-059b9ae1c990","ios":"levelo://app?vid=85167df3-a8b0-42b8-aaef-059b9ae1c990"},"vehicle_type_id":"4","last_reported":1774892988,"current_range_meters":8000,"station_id":"st_d2ngiaodas8pm72gd1h0","pricing_plan_id":"cebpf4jnsgd1na2vs0mg"},{"bike_id":"60d8d7f9-420f-4307-ae07-113fa1e09a16","system_id":"levelo_inurba_marseille","lat":43.25063,"lon":5.39717,"is_reserved":false,"is_disabled":false,"rental_uris":{"android":"levelo://app?vid=60d8d7f9-420f-4307-ae07-113fa1e09a16","ios":"levelo://app?vid=60d8d7f9-420f-4307-ae07-113fa1e09a16"},"vehicle_type_id":"4","last_reported":1774892988,"current_range_meters":8000,"station_id":"","pricing_plan_id":"cebpf4jnsgd1na2vs0mg"},{"bike_id":"ec7f1113-7689-4025-9f13-3d4deb94a203","system_id":"levelo_inurba_marseille","lat":43.31047,"lon":5.38597,"is_reserved":false,"is_disabled":false,"rental_uris":{"android":"levelo://app?vid=ec7f1113-7689-4025-9f13-3d4deb94a203","ios":"levelo://app?vid=ec7f1113-7689-4025-9f13-3d4deb94a203"},"vehicle_type_id":"4","last_reported":1774892988,"current_range_meters":8000,"station_id":"","pricing_plan_id":"cebpf4jnsgd1na2vs0mg"},{"bike_id":"f54bfc49-c52e-433a-9661-97eeb8e5a586","system_id":"levelo_inurba_marseille","lat":43.238,"lon":5.36648,"is_reserved":false,"is_disabled":false,"rental_uris":{"android":"levelo://app?vid=f54bfc49-c52e-433a-9661-97eeb8e5a586","ios":"levelo://app?vid=f54bfc49-c52e-433a-9661-97eeb8e5a586"},"vehicle_type_id":"4","last_reported":1774892988,"current_range_meters":8000,"station_id":"st_d3nk18o9ro0c73en2l3g","pricing_plan_id":"cebpf4jnsgd1na2vs0mg"},{"bike_id":"8b4108a6-c7e2-4043-b547-cb1e59a8963a","system_id":"levelo_inurba_marseille","lat":43.24339,"lon":5.40853,"is_reserved":false,"is_disabled":false,"rental_uris":{"android":"levelo://app?vid=8b4108a6-c7e2-4043-b547-cb1e59a8963a","ios":"levelo://app?vid=8b4108a6-c7e2-4043-b547-cb1e59a8963a"},"vehicle_type_id":"4","last_reported":1774892988,"current_range_meters":8000,"station_id":"","pricing_plan_id":"cebpf4jnsgd1na2vs0mg"},{"bike_id":"7dd2c95f-4c85-4ea0-bcb2-7fed56170b5d","system_id":"levelo_inurba_marseille","lat":43.25832,"lon":5.39461,"is_reserved":false,"is_disabled":false,"rental_uris":{"android":"levelo://app?vid=7dd2c95f-4c85-4ea0-bcb2-7fed56170b5d","ios":"levelo://app?vid=7dd2c95f-4c85-4ea0-bcb2-7fed56170b5d"},"vehicle_type_id":"4","last_reported":1774892988,"current_range_meters":8000,"station_id":"ce4bhip2rcd13ifvqft0","pricing_plan_id":"cebpf4jnsgd1na2vs0mg"},{"bike_id":"03ec0070-1d93-4ac5-87d3-21d47edad7cd","system_id":"levelo_inurba_marseille","lat":43.2384,"lon":5.36652,"is_reserved":false,"is_disabled":false,"rental_uris":{"android":"levelo://app?vid=03ec0070-1d93-4ac5-87d3-21d47edad7cd","ios":"levelo://app?vid=03ec0070-1d93-4ac5-87d3-21d47edad7cd"},"vehicle_type_id":"4","last_reported":1774892988,"current_range_meters":8400,"station_id":"","pricing_plan_id":"cebpf4jnsgd1na2vs0mg"},{"bike_id":"7b8a360b-9a4f-4e21-a724-c9ba6d306f02","system_id":"levelo_inurba_marseille","lat":43.28619,"lon":5.3511,"is_reserved":false,"is_disabled":false,"rental_uris":{"android":"levelo://app?vid=7b8a360b-9a4f-4e21-a724-c9ba6d306f02","ios":"levelo://app?vid=7b8a360b-9a4f-4e21-a724-c9ba6d306f02"},"vehicle_type_id":"4","last_reported":1774892988,"current_range_meters":8400,"station_id":"ce4bhch2rcd13ifvqeug","pricing_plan_id":"cebpf4jnsgd1na2vs0mg"},{"bike_id":"7cefc45d-38f5-45cf-a99c-dfb4be1018fe","system_id":"levelo_inurba_marseille","lat":43.24493,"lon":5.42525,"is_reserved":false,"is_disabled":false,"rental_uris":{"android":"levelo://app?vid=7cefc45d-38f5-45cf-a99c-dfb4be1018fe","ios":"levelo://app?vid=7cefc45d-38f5-45cf-a99c-dfb4be1018fe"},"vehicle_type_id":"4","last_reported":1774892988,"current_range_meters":8400,"station_id":"st_d4a3vfp97mjs738cd8kg","pricing_plan_id":"cebpf4jnsgd1na2vs0mg"},{"bike_id":"9aaf8231-70bd-4c0f-9334-e020b4227cf4","system_id":"levelo_inurba_marseille","lat":43.24661,"lon":5.38935,"is_reserved":false,"is_disabled":false,"rental_uris":{"android":"levelo://app?vid=9aaf8231-70bd-4c0f-9334-e020b4227cf4","ios":"levelo://app?vid=9aaf8231-70bd-4c0f-9334-e020b4227cf4"},"vehicle_type_id":"4","last_reported":1774892988,"current_range_meters":8400,"station_id":"ce4bhg12rcd13ifvqf60","pricing_plan_id":"cebpf4jnsgd1na2vs0mg"},{"bike_id":"ebc5a8f2-adee-43cf-a918-532422fc9668","system_id":"levelo_inurba_marseille","lat":43.28708,"lon":5.37382,"is_reserved":false,"is_disabled":false,"rental_uris":{"android":"levelo://app?vid=ebc5a8f2-adee-43cf-a918-532422fc9668","ios":"levelo://app?vid=ebc5a8f2-adee-43cf-a918-532422fc9668"},"vehicle_type_id":"4","last_reported":1774892988,"current_range_meters":8400,"station_id":"ce4bh3p2rcd13ifvqdq0","pricing_plan_id":"cebpf4jnsgd1na2vs0mg"},{"bike_id":"602a1f3c-8896-45c5-bb9a-81f659a2fe66","system_id":"levelo_inurba_marseille","lat":43.28995,"lon":5.35616,"is_reserved":false,"is_disabled":false,"rental_uris":{"android":"levelo://app?vid=602a1f3c-8896-45c5-bb9a-81f659a2fe66","ios":"levelo://app?vid=602a1f3c-8896-45c5-bb9a-81f659a2fe66"},"vehicle_type_id":"4","last_reported":1774892988,"current_range_meters":8400,"station_id":"ce4bhb92rcd13ifvqen0","pricing_plan_id":"cebpf4jnsgd1na2vs0mg"},{"bike_id":"fe2c2d4e-ad0a-4ad1-b727-7e9a7d4ef824","system_id":"levelo_inurba_marseille","lat":43.2847,"lon":5.48391,"is_reserved":false,"is_disabled":false,"rental_uris":{"android":"levelo://app?vid=fe2c2d4e-ad0a-4ad1-b727-7e9a7d4ef824","ios":"levelo://app?vid=fe2c2d4e-ad0a-4ad1-b727-7e9a7d4ef824"},"vehicle_type_id":"4","last_reported":1774892988,"current_range_meters":8400,"station_id":"","pricing_plan_id":"cebpf4jnsgd1na2vs0mg"},{"bike_id":"25ae6a55-5d09-4313-9508-83cc6c6339b8","system_id":"levelo_inurba_marseille","lat":43.28484,"lon":5.48418,"is_reserved":false,"is_disabled":false,"rental_uris":{"android":"levelo://app?vid=25ae6a55-5d09-4313-9508-83cc6c6339b8","ios":"levelo://app?vid=25ae6a55-5d09-4313-9508-83cc6c6339b8"},"vehicle_type_id":"4","last_reported":1774892988,"current_range_meters":8400,"station_id":"","pricing_plan_id":"cebpf4jnsgd1na2vs0mg"},{"bike_id":"5ae1cde3-c020-448f-8cff-83f80611c531","system_id":"levelo_inurba_marseille","lat":43.24492,"lon":5.42557,"is_reserved":false,"is_disabled":false,"rental_uris":{"android":"levelo://app?vid=5ae1cde3-c020-448f-8cff-83f80611c531","ios":"levelo://app?vid=5ae1cde3-c020-448f-8cff-83f80611c531"},"vehicle_type_id":"4","last_reported":1774892988,"current_range_meters":8400,"station_id":"st_d4a3vfp97mjs738cd8kg","pricing_plan_id":"cebpf4jnsgd1na2vs0mg"},{"bike_id":"6cb80350-a12f-414d-8a45-edb4d9decdf0","system_id":"levelo_inurba_marseille","lat":43.28529,"lon":5.44119,"is_reserved":false,"is_disabled":false,"rental_uris":{"android":"levelo://app?vid=6cb80350-a12f-414d-8a45-edb4d9decdf0","ios":"levelo://app?vid=6cb80350-a12f-414d-8a45-edb4d9decdf0"},"vehicle_type_id":"4","last_reported":1774892988,"current_range_meters":8400,"station_id":"st_d3j3df2ikq2c7380ej80","pricing_plan_id":"cebpf4jnsgd1na2vs0mg"},{"bike_id":"81785d6e-f388-4907-93e0-5f7f844015ac","system_id":"levelo_inurba_marseille","lat":43.29296,"lon":5.37466,"is_reserved":false,"is_disabled":false,"rental_uris":{"android":"levelo://app?vid=81785d6e-f388-4907-93e0-5f7f844015ac","ios":"levelo://app?vid=81785d6e-f388-4907-93e0-5f7f844015ac"},"vehicle_type_id":"4","last_reported":1774892988,"current_range_meters":8400,"station_id":"ce4bgi12rcd13ifvqb70","pricing_plan_id":"cebpf4jnsgd1na2vs0mg"},{"bike_id":"15a149b4-fb14-4160-a5bc-59c7d6093a30","system_id":"levelo_inurba_marseille","lat":43.25576,"lon":5.38248,"is_reserved":false,"is_disabled":false,"rental_uris":{"android":"levelo://app?vid=15a149b4-fb14-4160-a5bc-59c7d6093a30","ios":"levelo://app?vid=15a149b4-fb14-4160-a5bc-59c7d6093a30"},"vehicle_type_id":"4","last_reported":1774892988,"current_range_meters":8400,"station_id":"ce4bhih2rcd13ifvqfs0","pricing_plan_id":"cebpf4jnsgd1na2vs0mg"},{"bike_id":"e0980a7d-5c5e-45ea-b041-54b136cd5f91","system_id":"levelo_inurba_marseille","lat":43.29773,"lon":5.39356,"is_reserved":false,"is_disabled":false,"rental_uris":{"android":"levelo://app?vid=e0980a7d-5c5e-45ea-b041-54b136cd5f91","ios":"levelo://app?vid=e0980a7d-5c5e-45ea-b041-54b136cd5f91"},"vehicle_type_id":"4","last_reported":1774892988,"current_range_meters":8400,"station_id":"chh1huq6cuj3fo74tm60","pricing_plan_id":"cebpf4jnsgd1na2vs0mg"},{"bike_id":"227cc43c-6fb3-476a-abb2-74c924061fb2","system_id":"levelo_inurba_marseille","lat":43.22559,"lon":5.41638,"is_reserved":false,"is_disabled":false,"rental_uris":{"android":"levelo://app?vid=227cc43c-6fb3-476a-abb2-74c924061fb2","ios":"levelo://app?vid=227cc43c-6fb3-476a-abb2-74c924061fb2"},"vehicle_type_id":"4","last_reported":1774892988,"current_range_meters":8400,"station_id":"st_d2o4gvlbi1j2169b742g","pricing_plan_id":"cebpf4jnsgd1na2vs0mg"},{"bike_id":"f246ad73-5e58-4c30-9f9d-fecab0c7b5d0","system_id":"levelo_inurba_marseille","lat":43.30197,"lon":5.3945,"is_reserved":false,"is_disabled":false,"rental_uris":{"android":"levelo://app?vid=f246ad73-5e58-4c30-9f9d-fecab0c7b5d0","ios":"levelo://app?vid=f246ad73-5e58-4c30-9f9d-fecab0c7b5d0"},"vehicle_type_id":"4","last_reported":1774892988,"current_range_meters":8400,"station_id":"ce4bh0p2rcd13ifvqd70","pricing_plan_id":"cebpf4jnsgd1na2vs0mg"},{"bike_id":"cde37b3d-5bf8-45ad-ae5c-441c1680e201","system_id":"levelo_inurba_marseille","lat":43.2791,"lon":5.39145,"is_reserved":false,"is_disabled":false,"rental_uris":{"android":"levelo://app?vid=cde37b3d-5bf8-45ad-ae5c-441c1680e201","ios":"levelo://app?vid=cde37b3d-5bf8-45ad-ae5c-441c1680e201"},"vehicle_type_id":"4","last_reported":1774892988,"current_range_meters":8800,"station_id":"","pricing_plan_id":"cebpf4jnsgd1na2vs0mg"},{"bike_id":"10063e3f-8609-45d7-a82d-682af1ae1436","system_id":"levelo_inurba_marseille","lat":43.29099,"lon":5.42894,"is_reserved":false,"is_disabled":false,"rental_uris":{"android":"levelo://app?vid=10063e3f-8609-45d7-a82d-682af1ae1436","ios":"levelo://app?vid=10063e3f-8609-45d7-a82d-682af1ae1436"},"vehicle_type_id":"4","last_reported":1774892988,"current_range_meters":8800,"station_id":"","pricing_plan_id":"cebpf4jnsgd1na2vs0mg"},{"bike_id":"eac6a123-5f69-4eb4-aa4b-cdeaecf10b56","system_id":"levelo_inurba_marseille","lat":43.30547,"lon":5.36531,"is_reserved":false,"is_disabled":false,"rental_uris":{"android":"levelo://app?vid=eac6a123-5f69-4eb4-aa4b-cdeaecf10b56","ios":"levelo://app?vid=eac6a123-5f69-4eb4-aa4b-cdeaecf10b56"},"vehicle_type_id":"4","last_reported":1774892988,"current_range_meters":8800,"station_id":"ce4bgs12rcd13ifvqcag","pricing_plan_id":"cebpf4jnsgd1na2vs0mg"},{"bike_id":"f2ac8faa-b8e8-4025-bb6d-4e45873c4422","system_id":"levelo_inurba_marseille","lat":43.23195,"lon":5.43722,"is_reserved":false,"is_disabled":false,"rental_uris":{"android":"levelo://app?vid=f2ac8faa-b8e8-4025-bb6d-4e45873c4422","ios":"levelo://app?vid=f2ac8faa-b8e8-4025-bb6d-4e45873c4422"},"vehicle_type_id":"4","last_reported":1774892988,"current_range_meters":8800,"station_id":"ce4bhmp2rcd13ifvqgog","pricing_plan_id":"cebpf4jnsgd1na2vs0mg"},{"bike_id":"90dc1c46-b9f0-4132-9ac3-e470d6059f3b","system_id":"levelo_inurba_marseille","lat":43.30536,"lon":5.38438,"is_reserved":false,"is_disabled":false,"rental_uris":{"android":"levelo://app?vid=90dc1c46-b9f0-4132-9ac3-e470d6059f3b","ios":"levelo://app?vid=90dc1c46-b9f0-4132-9ac3-e470d6059f3b"},"vehicle_type_id":"4","last_reported":1774892988,"current_range_meters":8800,"station_id":"ce4bgg92rcd13ifvqb30","pricing_plan_id":"cebpf4jnsgd1na2vs0mg"},{"bike_id":"d47d5a3e-6ca4-44a3-9fcf-8087a21a1146","system_id":"levelo_inurba_marseille","lat":43.26211,"lon":5.37439,"is_reserved":false,"is_disabled":false,"rental_uris":{"android":"levelo://app?vid=d47d5a3e-6ca4-44a3-9fcf-8087a21a1146","ios":"levelo://app?vid=d47d5a3e-6ca4-44a3-9fcf-8087a21a1146"},"vehicle_type_id":"4","last_reported":1774892988,"current_range_meters":8800,"station_id":"ce4bhgp2rcd13ifvqfc0","pricing_plan_id":"cebpf4jnsgd1na2vs0mg"},{"bike_id":"aff3ff3f-6b67-4330-8619-cb367673fc13","system_id":"levelo_inurba_marseille","lat":43.24405,"lon":5.37096,"is_reserved":false,"is_disabled":false,"rental_uris":{"android":"levelo://app?vid=aff3ff3f-6b67-4330-8619-cb367673fc13","ios":"levelo://app?vid=aff3ff3f-6b67-4330-8619-cb367673fc13"},"vehicle_type_id":"4","last_reported":1774892988,"current_range_meters":8800,"station_id":"ce4bhhh2rcd13ifvqfk0","pricing_plan_id":"cebpf4jnsgd1na2vs0mg"},{"bike_id":"7169a8b5-42ef-4bf6-95c2-c1cc4c9caa2a","system_id":"levelo_inurba_marseille","lat":43.28718,"lon":5.37437,"is_reserved":false,"is_disabled":false,"rental_uris":{"android":"levelo://app?vid=7169a8b5-42ef-4bf6-95c2-c1cc4c9caa2a","ios":"levelo://app?vid=7169a8b5-42ef-4bf6-95c2-c1cc4c9caa2a"},"vehicle_type_id":"4","last_reported":1774892988,"current_range_meters":8800,"station_id":"","pricing_plan_id":"cebpf4jnsgd1na2vs0mg"},{"bike_id":"9c1440ce-c955-43db-9800-7794805da744","system_id":"levelo_inurba_marseille","lat":43.23978,"lon":5.36632,"is_reserved":false,"is_disabled":false,"rental_uris":{"android":"levelo://app?vid=9c1440ce-c955-43db-9800-7794805da744","ios":"levelo://app?vid=9c1440ce-c955-43db-9800-7794805da744"},"vehicle_type_id":"4","last_reported":1774892988,"current_range_meters":8800,"station_id":"ce4bhi12rcd13ifvqfp0","pricing_plan_id":"cebpf4jnsgd1na2vs0mg"},{"bike_id":"54716fd3-0aa7-4009-9205-b2558773fd65","system_id":"levelo_inurba_marseille","lat":43.30349,"lon":5.36905,"is_reserved":false,"is_disabled":false,"rental_uris":{"android":"levelo://app?vid=54716fd3-0aa7-4009-9205-b2558773fd65","ios":"levelo://app?vid=54716fd3-0aa7-4009-9205-b2558773fd65"},"vehicle_type_id":"4","last_reported":1774892988,"current_range_meters":8800,"station_id":"ce4bgqh2rcd13ifvqc5g","pricing_plan_id":"cebpf4jnsgd1na2vs0mg"},{"bike_id":"255f9a80-7267-4488-b562-b12f03f5ce1d","system_id":"levelo_inurba_marseille","lat":43.29626,"lon":5.37782,"is_reserved":false,"is_disabled":true,"rental_uris":{"android":"levelo://app?vid=255f9a80-7267-4488-b562-b12f03f5ce1d","ios":"levelo://app?vid=255f9a80-7267-4488-b562-b12f03f5ce1d"},"vehicle_type_id":"4","last_reported":1774892988,"current_range_meters":8800,"station_id":"","pricing_plan_id":"cebpf4jnsgd1na2vs0mg"},{"bike_id":"27a1b1fb-84f9-4e50-a2f4-3bdf93b48162","system_id":"levelo_inurba_marseille","lat":43.30115,"lon":5.38738,"is_reserved":false,"is_disabled":false,"rental_uris":{"android":"levelo://app?vid=27a1b1fb-84f9-4e50-a2f4-3bdf93b48162","ios":"levelo://app?vid=27a1b1fb-84f9-4e50-a2f4-3bdf93b48162"},"vehicle_type_id":"4","last_reported":1774892988,"current_range_meters":8800,"station_id":"ce4bghh2rcd13ifvqb60","pricing_plan_id":"cebpf4jnsgd1na2vs0mg"},{"bike_id":"b0c8c977-873a-46e3-94d1-41bb76d19a60","system_id":"levelo_inurba_marseille","lat":43.29803,"lon":5.38088,"is_reserved":false,"is_disabled":false,"rental_uris":{"android":"levelo://app?vid=b0c8c977-873a-46e3-94d1-41bb76d19a60","ios":"levelo://app?vid=b0c8c977-873a-46e3-94d1-41bb76d19a60"},"vehicle_type_id":"4","last_reported":1774892988,"current_range_meters":8800,"station_id":"ce4bgip2rcd13ifvqbb0","pricing_plan_id":"cebpf4jnsgd1na2vs0mg"},{"bike_id":"101e9e77-a85a-4c47-99b6-00f353169db4","system_id":"levelo_inurba_marseille","lat":43.31699,"lon":5.37755,"is_reserved":false,"is_disabled":false,"rental_uris":{"android":"levelo://app?vid=101e9e77-a85a-4c47-99b6-00f353169db4","ios":"levelo://app?vid=101e9e77-a85a-4c47-99b6-00f353169db4"},"vehicle_type_id":"4","last_reported":1774892988,"current_range_meters":8800,"station_id":"ce4bgth2rcd13ifvqch0","pricing_plan_id":"cebpf4jnsgd1na2vs0mg"},{"bike_id":"b69b7ee0-eb68-4e40-9110-6ed5a17a58dc","system_id":"levelo_inurba_marseille","lat":43.28397,"lon":5.34928,"is_reserved":false,"is_disabled":false,"rental_uris":{"android":"levelo://app?vid=b69b7ee0-eb68-4e40-9110-6ed5a17a58dc","ios":"levelo://app?vid=b69b7ee0-eb68-4e40-9110-6ed5a17a58dc"},"vehicle_type_id":"4","last_reported":1774892988,"current_range_meters":8800,"station_id":"ce4bhbh2rcd13ifvqepg","pricing_plan_id":"cebpf4jnsgd1na2vs0mg"},{"bike_id":"7807e959-548b-4573-9349-6f8ad219a4a5","system_id":"levelo_inurba_marseille","lat":43.24163,"lon":5.36402,"is_reserved":false,"is_disabled":false,"rental_uris":{"android":"levelo://app?vid=7807e959-548b-4573-9349-6f8ad219a4a5","ios":"levelo://app?vid=7807e959-548b-4573-9349-6f8ad219a4a5"},"vehicle_type_id":"4","last_reported":1774892988,"current_range_meters":8800,"station_id":"cpo36qri1sfpv3e86is0","pricing_plan_id":"cebpf4jnsgd1na2vs0mg"},{"bike_id":"de283356-bca7-4ff7-a4fe-98d0bd1883f8","system_id":"levelo_inurba_marseille","lat":43.30406,"lon":5.41281,"is_reserved":false,"is_disabled":false,"rental_uris":{"android":"levelo://app?vid=de283356-bca7-4ff7-a4fe-98d0bd1883f8","ios":"levelo://app?vid=de283356-bca7-4ff7-a4fe-98d0bd1883f8"},"vehicle_type_id":"4","last_reported":1774892988,"current_range_meters":8800,"station_id":"ce4bhop2rcd13ifvqh8g","pricing_plan_id":"cebpf4jnsgd1na2vs0mg"},{"bike_id":"cf039980-8909-4a03-aa52-b426c9efd4e8","system_id":"levelo_inurba_marseille","lat":43.21747,"lon":5.34611,"is_reserved":false,"is_disabled":false,"rental_uris":{"android":"levelo://app?vid=cf039980-8909-4a03-aa52-b426c9efd4e8","ios":"levelo://app?vid=cf039980-8909-4a03-aa52-b426c9efd4e8"},"vehicle_type_id":"4","last_reported":1774892988,"current_range_meters":8800,"station_id":"st_cvj6r9ubvosntc0bgbag","pricing_plan_id":"cebpf4jnsgd1na2vs0mg"},{"bike_id":"8a1f00fe-baa7-466d-896d-1d3a6b1e9478","system_id":"levelo_inurba_marseille","lat":43.31044,"lon":5.39373,"is_reserved":false,"is_disabled":false,"rental_uris":{"android":"levelo://app?vid=8a1f00fe-baa7-466d-896d-1d3a6b1e9478","ios":"levelo://app?vid=8a1f00fe-baa7-466d-896d-1d3a6b1e9478"},"vehicle_type_id":"4","last_reported":1774892988,"current_range_meters":8800,"station_id":"","pricing_plan_id":"cebpf4jnsgd1na2vs0mg"},{"bike_id":"a5b0a470-48eb-462f-b31f-f84556d208b5","system_id":"levelo_inurba_marseille","lat":43.25033,"lon":5.37534,"is_reserved":false,"is_disabled":false,"rental_uris":{"android":"levelo://app?vid=a5b0a470-48eb-462f-b31f-f84556d208b5","ios":"levelo://app?vid=a5b0a470-48eb-462f-b31f-f84556d208b5"},"vehicle_type_id":"4","last_reported":1774892988,"current_range_meters":8800,"station_id":"","pricing_plan_id":"cebpf4jnsgd1na2vs0mg"},{"bike_id":"ead3007a-584a-406f-9553-549135a653dd","system_id":"levelo_inurba_marseille","lat":43.26049,"lon":5.39379,"is_reserved":false,"is_disabled":false,"rental_uris":{"android":"levelo://app?vid=ead3007a-584a-406f-9553-549135a653dd","ios":"levelo://app?vid=ead3007a-584a-406f-9553-549135a653dd"},"vehicle_type_id":"4","last_reported":1774892988,"current_range_meters":8800,"station_id":"ce4bhh92rcd13ifvqfj0","pricing_plan_id":"cebpf4jnsgd1na2vs0mg"},{"bike_id":"8289ea9c-9f3c-47cc-ae82-8027b0a738ac","system_id":"levelo_inurba_marseille","lat":43.31927,"lon":5.36734,"is_reserved":false,"is_disabled":false,"rental_uris":{"android":"levelo://app?vid=8289ea9c-9f3c-47cc-ae82-8027b0a738ac","ios":"levelo://app?vid=8289ea9c-9f3c-47cc-ae82-8027b0a738ac"},"vehicle_type_id":"4","last_reported":1774892988,"current_range_meters":8800,"station_id":"","pricing_plan_id":"cebpf4jnsgd1na2vs0mg"},{"bike_id":"e61a3b02-8828-47a8-8796-a0480c283119","system_id":"levelo_inurba_marseille","lat":43.22948,"lon":5.35418,"is_reserved":false,"is_disabled":false,"rental_uris":{"android":"levelo://app?vid=e61a3b02-8828-47a8-8796-a0480c283119","ios":"levelo://app?vid=e61a3b02-8828-47a8-8796-a0480c283119"},"vehicle_type_id":"4","last_reported":1774892988,"current_range_meters":8800,"station_id":"cpo3532slgdg3j2ikp40","pricing_plan_id":"cebpf4jnsgd1na2vs0mg"},{"bike_id":"c0f606fe-baa5-492a-85a1-9ee65c00252f","system_id":"levelo_inurba_marseille","lat":43.23205,"lon":5.35593,"is_reserved":false,"is_disabled":false,"rental_uris":{"android":"levelo://app?vid=c0f606fe-baa5-492a-85a1-9ee65c00252f","ios":"levelo://app?vid=c0f606fe-baa5-492a-85a1-9ee65c00252f"},"vehicle_type_id":"4","last_reported":1774892988,"current_range_meters":8800,"station_id":"ce4bhu92rcd13ifvqi70","pricing_plan_id":"cebpf4jnsgd1na2vs0mg"},{"bike_id":"145da0be-3016-4be6-8263-0e24c3e5d1fa","system_id":"levelo_inurba_marseille","lat":43.23957,"lon":5.36634,"is_reserved":false,"is_disabled":false,"rental_uris":{"android":"levelo://app?vid=145da0be-3016-4be6-8263-0e24c3e5d1fa","ios":"levelo://app?vid=145da0be-3016-4be6-8263-0e24c3e5d1fa"},"vehicle_type_id":"4","last_reported":1774892988,"current_range_meters":8800,"station_id":"ce4bhi12rcd13ifvqfp0","pricing_plan_id":"cebpf4jnsgd1na2vs0mg"},{"bike_id":"287ab833-25ca-42ea-8baa-ec02f1c9b2ea","system_id":"levelo_inurba_marseille","lat":43.29939,"lon":5.36548,"is_reserved":false,"is_disabled":false,"rental_uris":{"android":"levelo://app?vid=287ab833-25ca-42ea-8baa-ec02f1c9b2ea","ios":"levelo://app?vid=287ab833-25ca-42ea-8baa-ec02f1c9b2ea"},"vehicle_type_id":"4","last_reported":1774892988,"current_range_meters":8800,"station_id":"ce4bgm92rcd13ifvqbr0","pricing_plan_id":"cebpf4jnsgd1na2vs0mg"},{"bike_id":"bb9c9ce8-7ad8-4c58-9c75-429d43a3d175","system_id":"levelo_inurba_marseille","lat":43.24032,"lon":5.36234,"is_reserved":false,"is_disabled":false,"rental_uris":{"android":"levelo://app?vid=bb9c9ce8-7ad8-4c58-9c75-429d43a3d175","ios":"levelo://app?vid=bb9c9ce8-7ad8-4c58-9c75-429d43a3d175"},"vehicle_type_id":"4","last_reported":1774892988,"current_range_meters":8800,"station_id":"","pricing_plan_id":"cebpf4jnsgd1na2vs0mg"},{"bike_id":"8224fee4-1d52-4b11-b16a-70c5a6603dd7","system_id":"levelo_inurba_marseille","lat":43.28477,"lon":5.48411,"is_reserved":false,"is_disabled":false,"rental_uris":{"android":"levelo://app?vid=8224fee4-1d52-4b11-b16a-70c5a6603dd7","ios":"levelo://app?vid=8224fee4-1d52-4b11-b16a-70c5a6603dd7"},"vehicle_type_id":"4","last_reported":1774892988,"current_range_meters":8800,"station_id":"","pricing_plan_id":"cebpf4jnsgd1na2vs0mg"},