{"last_updated":1737749391,"ttl":60,"version":"2.2","data":{"bikes":[{"bike_id":"71025e83-daff-40eb-8f70-b8e1fc9300fb","system_id":"levelo_inurba_marseille","lat":43.22927,"lon":5.3538,"is_reserved":false,"is_disabled":false,"rental_uris":{"android":"levelo://app?vid=71025e83-daff-40eb-8f70-b8e1fc9300fb","ios":"levelo://app?vid=71025e83-daff-40eb-8f70-b8e1fc9300fb"},"vehicle_type_id":"4","last_reported":1737749391,"current_range_meters":38800,"station_id":"cpo3532slgdg3j2ikp40","pricing_plan_id":"cebpf4jnsgd1na2vs0mg"},{"bike_id":"7bfef4e6-0cab-4775-bc5f-9c0ca03bd18f","system_id":"levelo_inurba_marseille","lat":43.29007,"lon":5.38114,"is_reserved":false,"is_disabled":false,"rental_uris":{"android":"levelo://app?vid=7bfef4e6-0cab-4775-bc5f-9c0ca03bd18f","ios":"levelo://app?vid=7bfef4e6-0cab-4775-bc5f-9c0ca03bd18f"},"vehicle_type_id":"4","last_reported":1737749391,"current_range_meters":37600,"station_id":"ce4bh4p2rcd13ifvqe1g","pricing_plan_id":"cebpf4jnsgd1na2vs0mg"},{"bike_id":"83300955-a5d2-4afa-81d7-e3e697fa28cf","system_id":"levelo_inurba_marseille","lat":43.29578,"lon":5.37505,"is_reserved":false,"is_disabled":false,"rental_uris":{"android":"levelo://app?vid=83300955-a5d2-4afa-81d7-e3e697fa28cf","ios":"levelo://app?vid=83300955-a5d2-4afa-81d7-e3e697fa28cf"},"vehicle_type_id":"4","last_reported":1737749391,"current_range_meters":38000,"station_id":"ce4bgh92rcd13ifvqb50","pricing_plan_id":"cebpf4jnsgd1na2vs0mg"},{"bike_id":"22fdda07-29f7-4097-aa7c-457566d3caba","system_id":"levelo_inurba_marseille","lat":43.25099,"lon":5.39495,"is_reserved":false,"is_disabled":false,"rental_uris":{"android":"levelo://app?vid=22fdda07-29f7-4097-aa7c-457566d3caba","ios":"levelo://app?vid=22fdda07-29f7-4097-aa7c-457566d3caba"},"vehicle_type_id":"4","last_reported":1737749391,"current_range_meters":32800,"station_id":"ce4bhm12rcd13ifvqgkg","pricing_plan_id":"cebpf4jnsgd1na2vs0mg"},{"bike_id":"b8616eb9-d9e4-460f-807e-1357c1bfc7f2","system_id":"levelo_inurba_marseille","lat":43.24387,"lon":5.37054,"is_reserved":false,"is_disabled":false,"rental_uris":{"android":"levelo://app?vid=b8616eb9-d9e4-460f-807e-1357c1bfc7f2","ios":"levelo://app?vid=b8616eb9-d9e4-460f-807e-1357c1bfc7f2"},"vehicle_type_id":"4","last_reported":1737749391,"current_range_meters":38800,"station_id":"ce4bhhh2rcd13ifvqfk0","pricing_plan_id":"cebpf4jnsgd1na2vs0mg"},{"bike_id":"bb53fb48-2a1c-41d1-92ea-b7bc6a4bbbb2","system_id":"levelo_inurba_marseille","lat":43.29965,"lon":5.38502,"is_reserved":false,"is_disabled":false,"rental_uris":{"android":"levelo://app?vid=bb53fb48-2a1c-41d1-92ea-b7bc6a4bbbb2","ios":"levelo://app?vid=bb53fb48-2a1c-41d1-92ea-b7bc6a4bbbb2"},"vehicle_type_id":"4","last_reported":1737749391,"current_range_meters":27600,"station_id":"ce4bgj92rcd13ifvqbd0","pricing_plan_id":"cebpf4jnsgd1na2vs0mg"},{"bike_id":"58d9e3df-28a3-4560-b2cd-4d33fefbd544","system_id":"levelo_inurba_marseille","lat":43.28358,"lon":5.38102,"is_reserved":false,"is_disabled":false,"rental_uris":{"android":"levelo://app?vid=58d9e3df-28a3-4560-b2cd-4d33fefbd544","ios":"levelo://app?vid=58d9e3df-28a3-4560-b2cd-4d33fefbd544"},"vehicle_type_id":"4","last_reported":1737749391,"current_range_meters":25200,"station_id":"ce4bh412rcd13ifvqdr0","pricing_plan_id":"cebpf4jnsgd1na2vs0mg"},{"bike_id":"0793f05d-0029-4d54-a0fe-9c0436426db5","system_id":"levelo_inurba_marseille","lat":43.23186,"lon":5.35567,"is_reserved":false,"is_disabled":false,"rental_uris":{"android":"levelo://app?vid=0793f05d-0029-4d54-a0fe-9c0436426db5","ios":"levelo://app?vid=0793f05d-0029-4d54-a0fe-9c0436426db5"},"vehicle_type_id":"4","last_reported":1737749391,"current_range_meters":35200,"station_id":"ce4bhu92rcd13ifvqi70","pricing_plan_id":"cebpf4jnsgd1na2vs0mg"},{"bike_id":"2e69219e-a32a-45dd-bfbe-a39a3389fa1c","system_id":"levelo_inurba_marseille","lat":43.25084,"lon":5.39512,"is_reserved":false,"is_disabled":false,"rental_uris":{"android":"levelo://app?vid=2e69219e-a32a-45dd-bfbe-a39a3389fa1c","ios":"levelo://app?vid=2e69219e-a32a-45dd-bfbe-a39a3389fa1c"},"vehicle_type_id":"4","last_reported":1737749391,"current_range_meters":8000,"station_id":"ce4bhm12rcd13ifvqgkg","pricing_plan_id":"cebpf4jnsgd1na2vs0mg"},{"bike_id":"4914872c-162c-4b5d-a9af-cff65f389580","system_id":"levelo_inurba_marseille","lat":43.29603,"lon":5.38095,"is_reserved":false,"is_disabled":true,"rental_uris":{"android":"levelo://app?vid=4914872c-162c-4b5d-a9af-cff65f389580","ios":"levelo://app?vid=4914872c-162c-4b5d-a9af-cff65f389580"},"vehicle_type_id":"4","last_reported":1737749391,"current_range_meters":3600,"station_id":"ce4bgl12rcd13ifvqbo0","pricing_plan_id":"cebpf4jnsgd1na2vs0mg"},{"bike_id":"78f1bcbe-297f-4d89-be9d-ff7c664d65b5","system_id":"levelo_inurba_marseille","lat":43.27194,"lon":5.40974,"is_reserved":false,"is_disabled":false,"rental_uris":{"android":"levelo://app?vid=78f1bcbe-297f-4d89-be9d-ff7c664d65b5","ios":"levelo://app?vid=78f1bcbe-297f-4d89-be9d-ff7c664d65b5"},"vehicle_type_id":"4","last_reported":1737749391,"current_range_meters":11600,"station_id":"ce4bhl12rcd13ifvqgf0","pricing_plan_id":"cebpf4jnsgd1na2vs0mg"},{"bike_id":"8404d416-0cdd-42b3-b1d9-4024b2770bb7","system_id":"levelo_inurba_marseille","lat":43.26217,"lon":5.37419,"is_reserved":false,"is_disabled":false,"rental_uris":{"android":"levelo://app?vid=8404d416-0cdd-42b3-b1d9-4024b2770bb7","ios":"levelo://app?vid=8404d416-0cdd-42b3-b1d9-4024b2770bb7"},"vehicle_type_id":"4","last_reported":1737749391,"current_range_meters":38800,"station_id":"ce4bhgp2rcd13ifvqfc0","pricing_plan_id":"cebpf4jnsgd1na2vs0mg"},{"bike_id":"18e32184-9e4b-4472-8587-79b897aed73f","system_id":"levelo_inurba_marseille","lat":43.29095,"lon":5.38117,"is_reserved":false,"is_disabled":false,"rental_uris":{"android":"levelo://app?vid=18e32184-9e4b-4472-8587-79b897aed73f","ios":"levelo://app?vid=18e32184-9e4b-4472-8587-79b897aed73f"},"vehicle_type_id":"4","last_reported":1737749391,"current_range_meters":25600,"station_id":"ce4bh512rcd13ifvqe2g","pricing_plan_id":"cebpf4jnsgd1na2vs0mg"},{"bike_id":"eadecfe8-1294-4c6c-a688-c77357028c6c","system_id":"levelo_inurba_marseille","lat":43.28416,"lon":5.37514,"is_reserved":false,"is_disabled":false,"rental_uris":{"android":"levelo://app?vid=eadecfe8-1294-4c6c-a688-c77357028c6c","ios":"levelo://app?vid=eadecfe8-1294-4c6c-a688-c77357028c6c"},"vehicle_type_id":"4","last_reported":1737749391,"current_range_meters":36400,"station_id":"ce4bh412rcd13ifvqds0","pricing_plan_id":"cebpf4jnsgd1na2vs0mg"},{"bike_id":"6e0e02f5-b0ae-450f-ad77-51511a2e44cf","system_id":"levelo_inurba_marseille","lat":43.30914,"lon":5.40163,"is_reserved":false,"is_disabled":true,"rental_uris":{"android":"levelo://app?vid=6e0e02f5-b0ae-450f-ad77-51511a2e44cf","ios":"levelo://app?vid=6e0e02f5-b0ae-450f-ad77-51511a2e44cf"},"vehicle_type_id":"4","last_reported":1737749391,"current_range_meters":24000,"station_id":"ce4bgvp2rcd13ifvqct0","pricing_plan_id":"cebpf4jnsgd1na2vs0mg"},{"bike_id":"5771c8fc-285d-426b-bcce-d89019c09c8d","system_id":"levelo_inurba_marseille","lat":43.2942,"lon":5.38614,"is_reserved":false,"is_disabled":false,"rental_uris":{"android":"levelo://app?vid=5771c8fc-285d-426b-bcce-d89019c09c8d","ios":"levelo://app?vid=5771c8fc-285d-426b-bcce-d89019c09c8d"},"vehicle_type_id":"4","last_reported":1737749391,"current_range_meters":28400,"station_id":"ce4bh2h2rcd13ifvqdh0","pricing_plan_id":"cebpf4jnsgd1na2vs0mg"},{"bike_id":"8227bacd-f17c-49e3-930a-14ebf762a81a","system_id":"levelo_inurba_marseille","lat":43.29166,"lon":5.37133,"is_reserved":false,"is_disabled":false,"rental_uris":{"android":"levelo://app?vid=8227bacd-f17c-49e3-930a-14ebf762a81a","ios":"levelo://app?vid=8227bacd-f17c-49e3-930a-14ebf762a81a"},"vehicle_type_id":"4","last_reported":1737749391,"current_range_meters":35600,"station_id":"ce4bha92rcd13ifvqeh0","pricing_plan_id":"cebpf4jnsgd1na2vs0mg"},{"bike_id":"59484627-97e0-4b2b-b7b6-2023bd4dd456","system_id":"levelo_inurba_marseille","lat":43.29431,"lon":5.3862,"is_reserved":false,"is_disabled":false,"rental_uris":{"android":"levelo://app?vid=59484627-97e0-4b2b-b7b6-2023bd4dd456","ios":"levelo://app?vid=59484627-97e0-4b2b-b7b6-2023bd4dd456"},"vehicle_type_id":"4","last_reported":1737749391,"current_range_meters":38800,"station_id":"ce4bh2h2rcd13ifvqdh0","pricing_plan_id":"cebpf4jnsgd1na2vs0mg"},{"bike_id":"279c3e24-7308-4f96-8e48-f69d51d4e98b","system_id":"levelo_inurba_marseille","lat":43.29258,"lon":5.38427,"is_reserved":false,"is_disabled":false,"rental_uris":{"android":"levelo://app?vid=279c3e24-7308-4f96-8e48-f69d51d4e98b","ios":"levelo://app?vid=279c3e24-7308-4f96-8e48-f69d51d4e98b"},"vehicle_type_id":"4","last_reported":1737749391,"current_range_meters":38400,"station_id":"ce4bh692rcd13ifvqea0","pricing_plan_id":"cebpf4jnsgd1na2vs0mg"},{"bike_id":"6df7f438-e9a2-4488-b4c5-ad9c2cc83bb9","system_id":"levelo_inurba_marseille","lat":43.2603,"lon":5.37544,"is_reserved":false,"is_disabled":false,"rental_uris":{"android":"levelo://app?vid=6df7f438-e9a2-4488-b4c5-ad9c2cc83bb9","ios":"levelo://app?vid=6df7f438-e9a2-4488-b4c5-ad9c2cc83bb9"},"vehicle_type_id":"4","last_reported":1737749391,"current_range_meters":38800,"station_id":"ce4bhgh2rcd13ifvqfa0","pricing_plan_id":"cebpf4jnsgd1na2vs0mg"},{"bike_id":"278fa707-88f8-42b0-a06f-9a61234b8e76","system_id":"levelo_inurba_marseille","lat":43.29371,"lon":5.37832,"is_reserved":false,"is_disabled":true,"rental_uris":{"android":"levelo://app?vid=278fa707-88f8-42b0-a06f-9a61234b8e76","ios":"levelo://app?vid=278fa707-88f8-42b0-a06f-9a61234b8e76"},"vehicle_type_id":"4","last_reported":1737749391,"current_range_meters":1600,"station_id":"ce4bgjh2rcd13ifvqbf0","pricing_plan_id":"cebpf4jnsgd1na2vs0mg"},{"bike_id":"362ac9e1-b510-4c85-a6f9-2668656a2ec4","system_id":"levelo_inurba_marseille","lat":43.30152,"lon":5.38788,"is_reserved":false,"is_disabled":false,"rental_uris":{"android":"levelo://app?vid=362ac9e1-b510-4c85-a6f9-2668656a2ec4","ios":"levelo://app?vid=362ac9e1-b510-4c85-a6f9-2668656a2ec4"},"vehicle_type_id":"4","last_reported":1737749391,"current_range_meters":36400,"station_id":"ce4bhoh2rcd13ifvqh6g","pricing_plan_id":"cebpf4jnsgd1na2vs0mg"},{"bike_id":"6788eef3-3e1b-4695-8b94-af63aa47b009","system_id":"levelo_inurba_marseille","lat":43.30632,"lon":5.40086,"is_reserved":false,"is_disabled":false,"rental_uris":{"android":"levelo://app?vid=6788eef3-3e1b-4695-8b94-af63aa47b009","ios":"levelo://app?vid=6788eef3-3e1b-4695-8b94-af63aa47b009"},"vehicle_type_id":"4","last_reported":1737749391,"current_range_meters":16800,"station_id":"ce4bh112rcd13ifvqda0","pricing_plan_id":"cebpf4jnsgd1na2vs0mg"},{"bike_id":"a0d0c51c-c6b2-4319-a9ec-fc53968ce78a","system_id":"levelo_inurba_marseille","lat":43.29298,"lon":5.37458,"is_reserved":false,"is_disabled":false,"rental_uris":{"android":"levelo://app?vid=a0d0c51c-c6b2-4319-a9ec-fc53968ce78a","ios":"levelo://app?vid=a0d0c51c-c6b2-4319-a9ec-fc53968ce78a"},"vehicle_type_id":"4","last_reported":1737749391,"current_range_meters":30400,"station_id":"ce4bgi12rcd13ifvqb70","pricing_plan_id":"cebpf4jnsgd1na2vs0mg"},{"bike_id":"92c5c293-a29e-4dc5-9b3d-720e29155faf","system_id":"levelo_inurba_marseille","lat":43.32548,"lon":5.41452,"is_reserved":false,"is_disabled":false,"rental_uris":{"android":"levelo://app?vid=92c5c293-a29e-4dc5-9b3d-720e29155faf","ios":"levelo://app?vid=92c5c293-a29e-4dc5-9b3d-720e29155faf"},"vehicle_type_id":"4","last_reported":1737749391,"current_range_meters":38400,"station_id":"ce4bhq12rcd13ifvqhhg","pricing_plan_id":"cebpf4jnsgd1na2vs0mg"},{"bike_id":"408c7ae9-5733-463b-a6f8-60bc2913387a","system_id":"levelo_inurba_marseille","lat":43.29028,"lon":5.38632,"is_reserved":false,"is_disabled":false,"rental_uris":{"android":"levelo://app?vid=408c7ae9-5733-463b-a6f8-60bc2913387a","ios":"levelo://app?vid=408c7ae9-5733-463b-a6f8-60bc2913387a"},"vehicle_type_id":"4","last_reported":1737749391,"current_range_meters":16000,"station_id":"ce4bh4p2rcd13ifvqe0g","pricing_plan_id":"cebpf4jnsgd1na2vs0mg"},{"bike_id":"7ff41bb0-58bb-4e7a-856f-2a2aba66f15e","system_id":"levelo_inurba_marseille","lat":43.31715,"lon":5.4371,"is_reserved":false,"is_disabled":false,"rental_uris":{"android":"levelo://app?vid=7ff41bb0-58bb-4e7a-856f-2a2aba66f15e","ios":"levelo://app?vid=7ff41bb0-58bb-4e7a-856f-2a2aba66f15e"},"vehicle_type_id":"4","last_reported":1737749391,"current_range_meters":39200,"station_id":"ce4bhp92rcd13ifvqhcg","pricing_plan_id":"cebpf4jnsgd1na2vs0mg"},{"bike_id":"799818e8-263b-4acc-a4c0-b732b7fa92e7","system_id":"levelo_inurba_marseille","lat":43.32286,"lon":5.38261,"is_reserved":false,"is_disabled":false,"rental_uris":{"android":"levelo://app?vid=799818e8-263b-4acc-a4c0-b732b7fa92e7","ios":"levelo://app?vid=799818e8-263b-4acc-a4c0-b732b7fa92e7"},"vehicle_type_id":"4","last_reported":1737749391,"current_range_meters":39200,"station_id":"ce4bhr12rcd13ifvqhqg","pricing_plan_id":"cebpf4jnsgd1na2vs0mg"},{"bike_id":"718c5575-1431-471a-94cd-b3d581f50180","system_id":"levelo_inurba_marseille","lat":43.29423,"lon":5.38615,"is_reserved":false,"is_disabled":false,"rental_uris":{"android":"levelo://app?vid=718c5575-1431-471a-94cd-b3d581f50180","ios":"levelo://app?vid=718c5575-1431-471a-94cd-b3d581f50180"},"vehicle_type_id":"4","last_reported":1737749391,"current_range_meters":24800,"station_id":"ce4bh2h2rcd13ifvqdh0","pricing_plan_id":"cebpf4jnsgd1na2vs0mg"},{"bike_id":"5cbbbd51-ab4c-47f1-b336-717e196fe6a2","system_id":"levelo_inurba_marseille","lat":43.29265,"lon":5.40908,"is_reserved":false,"is_disabled":false,"rental_uris":{"android":"levelo://app?vid=5cbbbd51-ab4c-47f1-b336-717e196fe6a2","ios":"levelo://app?vid=5cbbbd51-ab4c-47f1-b336-717e196fe6a2"},"vehicle_type_id":"4","last_reported":1737749391,"current_range_meters":38400,"station_id":"ce4bh192rcd13ifvqdc0","pricing_plan_id":"cebpf4jnsgd1na2vs0mg"},{"bike_id":"279ff178-689e-45a0-a76a-a6380ff903e0","system_id":"levelo_inurba_marseille","lat":43.29191,"lon":5.39313,"is_reserved":false,"is_disabled":false,"rental_uris":{"android":"levelo://app?vid=279ff178-689e-45a0-a76a-a6380ff903e0","ios":"levelo://app?vid=279ff178-689e-45a0-a76a-a6380ff903e0"},"vehicle_type_id":"4","last_reported":1737749391,"current_range_meters":22800,"station_id":"ce4bh192rcd13ifvqdd0","pricing_plan_id":"cebpf4jnsgd1na2vs0mg"},{"bike_id":"f34d1f0d-1d63-4a60-b8c5-3acd4e09b798","system_id":"levelo_inurba_marseille","lat":43.27619,"lon":5.36113,"is_reserved":false,"is_disabled":false,"rental_uris":{"android":"levelo://app?vid=f34d1f0d-1d63-4a60-b8c5-3acd4e09b798","ios":"levelo://app?vid=f34d1f0d-1d63-4a60-b8c5-3acd4e09b798"},"vehicle_type_id":"4","last_reported":1737749391,"current_range_meters":12000,"station_id":"ce4bgj92rcd13ifvqbe0","pricing_plan_id":"cebpf4jnsgd1na2vs0mg"},{"bike_id":"99a5ec3c-10f9-46cc-8e7f-894493b0592d","system_id":"levelo_inurba_marseille","lat":43.28616,"lon":5.35096,"is_reserved":false,"is_disabled":false,"rental_uris":{"android":"levelo://app?vid=99a5ec3c-10f9-46cc-8e7f-894493b0592d","ios":"levelo://app?vid=99a5ec3c-10f9-46cc-8e7f-894493b0592d"},"vehicle_type_id":"4","last_reported":1737749391,"current_range_meters":38400,"station_id":"ce4bhch2rcd13ifvqeug","pricing_plan_id":"cebpf4jnsgd1na2vs0mg"},{"bike_id":"e6b213b4-805d-4e7f-8a4e-139a0766bb8a","system_id":"levelo_inurba_marseille","lat":43.29268,"lon":5.38438,"is_reserved":false,"is_disabled":false,"rental_uris":{"android":"levelo://app?vid=e6b213b4-805d-4e7f-8a4e-139a0766bb8a","ios":"levelo://app?vid=e6b213b4-805d-4e7f-8a4e-139a0766bb8a"},"vehicle_type_id":"4","last_reported":1737749391,"current_range_meters":35600,"station_id":"ce4bh692rcd13ifvqea0","pricing_plan_id":"cebpf4jnsgd1na2vs0mg"},{"bike_id":"a15e812f-e4f5-42df-b539-71d70b94b42a","system_id":"levelo_inurba_marseille","lat":43.29539,"lon":5.39402,"is_reserved":false,"is_disabled":false,"rental_uris":{"android":"levelo://app?vid=a15e812f-e4f5-42df-b539-71d70b94b42a","ios":"levelo://app?vid=a15e812f-e4f5-42df-b539-71d70b94b42a"},"vehicle_type_id":"4","last_reported":1737749391,"current_range_meters":8000,"station_id":"ce4bh292rcd13ifvqdf0","pricing_plan_id":"cebpf4jnsgd1na2vs0mg"},{"bike_id":"afa1791a-153b-461d-be69-7b28da55753e","system_id":"levelo_inurba_marseille","lat":43.29286,"lon":5.3843,"is_reserved":false,"is_disabled":false,"rental_uris":{"android":"levelo://app?vid=afa1791a-153b-461d-be69-7b28da55753e","ios":"levelo://app?vid=afa1791a-153b-461d-be69-7b28da55753e"},"vehicle_type_id":"4","last_reported":1737749391,"current_range_meters":34000,"station_id":"ce4bh692rcd13ifvqea0","pricing_plan_id":"cebpf4jnsgd1na2vs0mg"},{"bike_id":"325970c9-b838-4b45-9a08-e9e543aeb61b","system_id":"levelo_inurba_marseille","lat":43.32113,"lon":5.36766,"is_reserved":false,"is_disabled":false,"rental_uris":{"android":"levelo://app?vid=325970c9-b838-4b45-9a08-e9e543aeb61b","ios":"levelo://app?vid=325970c9-b838-4b45-9a08-e9e543aeb61b"},"vehicle_type_id":"4","last_reported":1737749391,"current_range_meters":27200,"station_id":"ce4bhrh2rcd13ifvqhug","pricing_plan_id":"cebpf4jnsgd1na2vs0mg"},{"bike_id":"d96d8090-196f-45c7-b89b-0aa9b7f30fc5","system_id":"levelo_inurba_marseille","lat":43.27916,"lon":5.39576,"is_reserved":false,"is_disabled":false,"rental_uris":{"android":"levelo://app?vid=d96d8090-196f-45c7-b89b-0aa9b7f30fc5","ios":"levelo://app?vid=d96d8090-196f-45c7-b89b-0aa9b7f30fc5"},"vehicle_type_id":"4","last_reported":1737749391,"current_range_meters":37600,"station_id":"ce4bhf92rcd13ifvqf40","pricing_plan_id":"cebpf4jnsgd1na2vs0mg"},{"bike_id":"26272cfd-3678-439f-89d5-8bce65c24a79","system_id":"levelo_inurba_marseille","lat":43.26813,"lon":5.4026,"is_reserved":false,"is_disabled":false,"rental_uris":{"android":"levelo://app?vid=26272cfd-3678-439f-89d5-8bce65c24a79","ios":"levelo://app?vid=26272cfd-3678-439f-89d5-8bce65c24a79"},"vehicle_type_id":"4","last_reported":1737749391,"current_range_meters":38800,"station_id":"ce501612rcd8frsf0b60","pricing_plan_id":"cebpf4jnsgd1na2vs0mg"},{"bike_id":"767ff992-8d59-4bfd-9992-d22c3517f31f","system_id":"levelo_inurba_marseille","lat":43.29262,"lon":5.38439,"is_reserved":false,"is_disabled":false,"rental_uris":{"android":"levelo://app?vid=767ff992-8d59-4bfd-9992-d22c3517f31f","ios":"levelo://app?vid=767ff992-8d59-4bfd-9992-d22c3517f31f"},"vehicle_type_id":"4","last_reported":1737749391,"current_range_meters":8000,"station_id":"ce4bh692rcd13ifvqea0","pricing_plan_id":"cebpf4jnsgd1na2vs0mg"},{"bike_id":"c491b9d7-9629-4215-bdb7-4fec9c846c78","system_id":"levelo_inurba_marseille","lat":43.31768,"lon":5.39004,"is_reserved":false,"is_disabled":false,"rental_uris":{"android":"levelo://app?vid=c491b9d7-9629-4215-bdb7-4fec9c846c78","ios":"levelo://app?vid=c491b9d7-9629-4215-bdb7-4fec9c846c78"},"vehicle_type_id":"4","last_reported":1737749391,"current_range_meters":35600,"station_id":"ce4bhqp2rcd13ifvqhng","pricing_plan_id":"cebpf4jnsgd1na2vs0mg"},{"bike_id":"3608a3cf-49c3-46d4-b709-f8e9629a9213","system_id":"levelo_inurba_marseille","lat":43.24655,"lon":5.38885,"is_reserved":false,"is_disabled":false,"rental_uris":{"android":"levelo://app?vid=3608a3cf-49c3-46d4-b709-f8e9629a9213","ios":"levelo://app?vid=3608a3cf-49c3-46d4-b709-f8e9629a9213"},"vehicle_type_id":"4","last_reported":1737749391,"current_range_meters":7200,"station_id":"ce4bhg12rcd13ifvqf60","pricing_plan_id":"cebpf4jnsgd1na2vs0mg"},{"bike_id":"5b4c2a23-fbc4-4564-aa7f-f0573e593d6c","system_id":"levelo_inurba_marseille","lat":43.28424,"lon":5.34977,"is_reserved":false,"is_disabled":false,"rental_uris":{"android":"levelo://app?vid=5b4c2a23-fbc4-4564-aa7f-f0573e593d6c","ios":"levelo://app?vid=5b4c2a23-fbc4-4564-aa7f-f0573e593d6c"},"vehicle_type_id":"4","last_reported":1737749391,"current_range_meters":32000,"station_id":"ce4bhbh2rcd13ifvqepg","pricing_plan_id":"cebpf4jnsgd1na2vs0mg"},{"bike_id":"e91204e9-d4fe-4e30-81a6-71464f86006e","system_id":"levelo_inurba_marseille","lat":43.29888,"lon":5.38128,"is_reserved":false,"is_disabled":true,"rental_uris":{"android":"levelo://app?vid=e91204e9-d4fe-4e30-81a6-71464f86006e","ios":"levelo://app?vid=e91204e9-d4fe-4e30-81a6-71464f86006e"},"vehicle_type_id":"4","last_reported":1737749391,"current_range_meters":38000,"station_id":"ce4bgj12rcd13ifvqbc0","pricing_plan_id":"cebpf4jnsgd1na2vs0mg"},{"bike_id":"483bf811-6a94-4fe7-9f0d-cb4db9722c49","system_id":"levelo_inurba_marseille","lat":43.29168,"lon":5.37163,"is_reserved":false,"is_disabled":false,"rental_uris":{"android":"levelo://app?vid=483bf811-6a94-4fe7-9f0d-cb4db9722c49","ios":"levelo://app?vid=483bf811-6a94-4fe7-9f0d-cb4db9722c49"},"vehicle_type_id":"4","last_reported":1737749391,"current_range_meters":38800,"station_id":"ce4bha92rcd13ifvqeh0","pricing_plan_id":"cebpf4jnsgd1na2vs0mg"},{"bike_id":"4c2396d9-9a82-4cef-afda-d7e523c85e88","system_id":"levelo_inurba_marseille","lat":43.29791,"lon":5.39341,"is_reserved":false,"is_disabled":false,"rental_uris":{"android":"levelo://app?vid=4c2396d9-9a82-4cef-afda-d7e523c85e88","ios":"levelo://app?vid=4c2396d9-9a82-4cef-afda-d7e523c85e88"},"vehicle_type_id":"4","last_reported":1737749391,"current_range_meters":38000,"station_id":"chh1huq6cuj3fo74tm60","pricing_plan_id":"cebpf4jnsgd1na2vs0mg"},{"bike_id":"1ceb8c63-17a1-4dc2-90e1-9ee2c3d9f714","system_id":"levelo_inurba_marseille","lat":43.26924,"lon":5.40297,"is_reserved":false,"is_disabled":false,"rental_uris":{"android":"levelo://app?vid=1ceb8c63-17a1-4dc2-90e1-9ee2c3d9f714","ios":"levelo://app?vid=1ceb8c63-17a1-4dc2-90e1-9ee2c3d9f714"},"vehicle_type_id":"4","last_reported":1737749391,"current_range_meters":38800,"station_id":"cjm6bp8fraef2m0cb0m0","pricing_plan_id":"cebpf4jnsgd1na2vs0mg"},{"bike_id":"18d70cb6-22f2-4bb5-8b28-57d26df91344","system_id":"levelo_inurba_marseille","lat":43.27425,"lon":5.39418,"is_reserved":false,"is_disabled":false,"rental_uris":{"android":"levelo://app?vid=18d70cb6-22f2-4bb5-8b28-57d26df91344","ios":"levelo://app?vid=18d70cb6-22f2-4bb5-8b28-57d26df91344"},"vehicle_type_id":"4","last_reported":1737749391,"current_range_meters":33600,"station_id":"ce4bhdp2rcd13ifvqf20","pricing_plan_id":"cebpf4jnsgd1na2vs0mg"},{"bike_id":"e934106f-df69-4f7a-abb1-bbdf8c1ccda4","system_id":"levelo_inurba_marseille","lat":43.29537,"lon":5.38542,"is_reserved":false,"is_disabled":false,"rental_uris":{"android":"levelo://app?vid=e934106f-df69-4f7a-abb1-bbdf8c1ccda4","ios":"levelo://app?vid=e934106f-df69-4f7a-abb1-bbdf8c1ccda4"},"vehicle_type_id":"4","last_reported":1737749391,"current_range_meters":9600,"station_id":"ce4bgih2rcd13ifvqba0","pricing_plan_id":"cebpf4jnsgd1na2vs0mg"},{"bike_id":"6d1c7757-cbfa-452f-8195-daacd34f212b","system_id":"levelo_inurba_marseille","lat":43.23065,"lon":5.35497,"is_reserved":false,"is_disabled":false,"rental_uris":{"android":"levelo://app?vid=6d1c7757-cbfa-452f-8195-daacd34f212b","ios":"levelo://app?vid=6d1c7757-cbfa-452f-8195-daacd34f212b"},"vehicle_type_id":"4","last_reported":1737749391,"current_range_meters":38800,"station_id":"cpo3342slgdg3j2ifvpg","pricing_plan_id":"cebpf4jnsgd1na2vs0mg"},{"bike_id":"db1620fc-2e5a-411f-b7de-f4bb2f0c5bc9","system_id":"levelo_inurba_marseille","lat":43.29963,"lon":5.38488,"is_reserved":false,"is_disabled":false,"rental_uris":{"android":"levelo://app?vid=db1620fc-2e5a-411f-b7de-f4bb2f0c5bc9","ios":"levelo://app?vid=db1620fc-2e5a-411f-b7de-f4bb2f0c5bc9"},"vehicle_type_id":"4","last_reported":1737749391,"current_range_meters":10800,"station_id":"ce4bgj92rcd13ifvqbd0","pricing_plan_id":"cebpf4jnsgd1na2vs0mg"},{"bike_id":"34aa6db6-d08c-4f6b-ad5e-1bad446eaa72","system_id":"levelo_inurba_marseille","lat":43.23192,"lon":5.39989,"is_reserved":false,"is_disabled":false,"rental_uris":{"android":"levelo://app?vid=34aa6db6-d08c-4f6b-ad5e-1bad446eaa72","ios":"levelo://app?vid=34aa6db6-d08c-4f6b-ad5e-1bad446eaa72"},"vehicle_type_id":"4","last_reported":1737749391,"current_range_meters":38800,"station_id":"ce4bhn12rcd13ifvqgqg","pricing_plan_id":"cebpf4jnsgd1na2vs0mg"},{"bike_id":"d5ba77af-2bc0-4aa9-ba00-c9756b227aa0","system_id":"levelo_inurba_marseille","lat":43.28468,"lon":5.35881,"is_reserved":false,"is_disabled":false,"rental_uris":{"android":"levelo://app?vid=d5ba77af-2bc0-4aa9-ba00-c9756b227aa0","ios":"levelo://app?vid=d5ba77af-2bc0-4aa9-ba00-c9756b227aa0"},"vehicle_type_id":"4","last_reported":1737749391,"current_range_meters":29600,"station_id":"ce4bhah2rcd13ifvqei0","pricing_plan_id":"cebpf4jnsgd1na2vs0mg"},{"bike_id":"768becd2-bfb2-4e10-8397-042f18299e43","system_id":"levelo_inurba_marseille","lat":43.29413,"lon":5.38607,"is_reserved":false,"is_disabled":false,"rental_uris":{"android":"levelo://app?vid=768becd2-bfb2-4e10-8397-042f18299e43","ios":"levelo://app?vid=768becd2-bfb2-4e10-8397-042f18299e43"},"vehicle_type_id":"4","last_reported":1737749391,"current_range_meters":8800,"station_id":"ce4bh2h2rcd13ifvqdh0","pricing_plan_id":"cebpf4jnsgd1na2vs0mg"},{"bike_id":"a2dbdc7e-8ab2-4f75-8035-18bef5b78a3b","system_id":"levelo_inurba_marseille","lat":43.2587,"lon":5.3989,"is_reserved":false,"is_disabled":false,"rental_uris":{"android":"levelo://app?vid=a2dbdc7e-8ab2-4f75-8035-18bef5b78a3b","ios":"levelo://app?vid=a2dbdc7e-8ab2-4f75-8035-18bef5b78a3b"},"vehicle_type_id":"4","last_reported":1737749391,"current_range_meters":38800,"station_id":"ce4bhl92rcd13ifvqghg","pricing_plan_id":"cebpf4jnsgd1na2vs0mg"},{"bike_id":"f253fc82-7ca1-4c38-a41a-566478bb536e","system_id":"levelo_inurba_marseille","lat":43.28033,"lon":5.36951,"is_reserved":false,"is_disabled":false,"rental_uris":{"android":"levelo://app?vid=f253fc82-7ca1-4c38-a41a-566478bb536e","ios":"levelo://app?vid=f253fc82-7ca1-4c38-a41a-566478bb536e"},"vehicle_type_id":"4","last_reported":1737749391,"current_range_meters":38800,"station_id":"ce4bha12rcd13ifvqef0","pricing_plan_id":"cebpf4jnsgd1na2vs0mg"},{"bike_id":"c287a3ed-5ab1-4fe0-a917-cf5ecb40f512","system_id":"levelo_inurba_marseille","lat":43.29276,"lon":5.38426,"is_reserved":false,"is_disabled":true,"rental_uris":{"android":"levelo://app?vid=c287a3ed-5ab1-4fe0-a917-cf5ecb40f512","ios":"levelo://app?vid=c287a3ed-5ab1-4fe0-a917-cf5ecb40f512"},"vehicle_type_id":"4","last_reported":1737749391,"current_range_meters":20400,"station_id":"ce4bh692rcd13ifvqea0","pricing_plan_id":"cebpf4jnsgd1na2vs0mg"},{"bike_id":"9838cc78-2b53-49d3-ae13-82df62c4fd64","system_id":"levelo_inurba_marseille","lat":43.2843,"lon":5.40935,"is_reserved":false,"is_disabled":true,"rental_uris":{"android":"levelo://app?vid=9838cc78-2b53-49d3-ae13-82df62c4fd64","ios":"levelo://app?vid=9838cc78-2b53-49d3-ae13-82df62c4fd64"},"vehicle_type_id":"4","last_reported":1737749391,"current_range_meters":0,"station_id":"","pricing_plan_id":"cebpf4jnsgd1na2vs0mg"},{"bike_id":"54350f8f-9722-46a6-b192-1b95b7cc4156","system_id":"levelo_inurba_marseille","lat":43.30069,"lon":5.40125,"is_reserved":false,"is_disabled":false,"rental_uris":{"android":"levelo://app?vid=54350f8f-9722-46a6-b192-1b95b7cc4156","ios":"levelo://app?vid=54350f8f-9722-46a6-b192-1b95b7cc4156"},"vehicle_type_id":"4","last_reported":1737749391,"current_range_meters":32400,"station_id":"ce4bh492rcd13ifvqdug","pricing_plan_id":"cebpf4jnsgd1na2vs0mg"},{"bike_id":"d6db8360-7a7b-4a5e-8c3e-ee74b2a817ee","system_id":"levelo_inurba_marseille","lat":43.31684,"lon":5.3774,"is_reserved":false,"is_disabled":false,"rental_uris":{"android":"levelo://app?vid=d6db8360-7a7b-4a5e-8c3e-ee74b2a817ee","ios":"levelo://app?vid=d6db8360-7a7b-4a5e-8c3e-ee74b2a817ee"},"vehicle_type_id":"4","last_reported":1737749391,"current_range_meters":18800,"station_id":"ce4bgth2rcd13ifvqch0","pricing_plan_id":"cebpf4jnsgd1na2vs0mg"},{"bike_id":"635f1c7c-d18d-44bf-8617-988ec1056b3c","system_id":"levelo_inurba_marseille","lat":43.30537,"lon":5.36551,"is_reserved":false,"is_disabled":false,"rental_uris":{"android":"levelo://app?vid=635f1c7c-d18d-44bf-8617-988ec1056b3c","ios":"levelo://app?vid=635f1c7c-d18d-44bf-8617-988ec1056b3c"},"vehicle_type_id":"4","last_reported":1737749391,"current_range_meters":3600,"station_id":"ce4bgs12rcd13ifvqcag","pricing_plan_id":"cebpf4jnsgd1na2vs0mg"},{"bike_id":"bf096a89-ee72-4f37-85bd-7b3cf9f0cb41","system_id":"levelo_inurba_marseille","lat":43.319351,"lon":5.378986,"is_reserved":false,"is_disabled":false,"rental_uris":{"android":"levelo://app?vid=bf096a89-ee72-4f37-85bd-7b3cf9f0cb41","ios":"levelo://app?vid=bf096a89-ee72-4f37-85bd-7b3cf9f0cb41"},"vehicle_type_id":"4","last_reported":1737749391,"current_range_meters":34000,"station_id":"","pricing_plan_id":"cebpf4jnsgd1na2vs0mg"},{"bike_id":"772abf9e-1f57-4ab2-95f9-bc070d170237","system_id":"levelo_inurba_marseille","lat":43.29269,"lon":5.38432,"is_reserved":false,"is_disabled":false,"rental_uris":{"android":"levelo://app?vid=772abf9e-1f57-4ab2-95f9-bc070d170237","ios":"levelo://app?vid=772abf9e-1f57-4ab2-95f9-bc070d170237"},"vehicle_type_id":"4","last_reported":1737749391,"current_range_meters":20800,"station_id":"ce4bh692rcd13ifvqea0","pricing_plan_id":"cebpf4jnsgd1na2vs0mg"},{"bike_id":"b1a31b37-3c6a-43de-ac18-6b6b299e2d44","system_id":"levelo_inurba_marseille","lat":43.25519,"lon":5.37626,"is_reserved":false,"is_disabled":false,"rental_uris":{"android":"levelo://app?vid=b1a31b37-3c6a-43de-ac18-6b6b299e2d44","ios":"levelo://app?vid=b1a31b37-3c6a-43de-ac18-6b6b299e2d44"},"vehicle_type_id":"4","last_reported":1737749391,"current_range_meters":19600,"station_id":"ce4bhh12rcd13ifvqff0","pricing_plan_id":"cebpf4jnsgd1na2vs0mg"},{"bike_id":"a92fa0eb-942e-4e5f-b30c-cb5ee305b076","system_id":"levelo_inurba_marseille","lat":43.29275,"lon":5.38434,"is_reserved":false,"is_disabled":false,"rental_uris":{"android":"levelo://app?vid=a92fa0eb-942e-4e5f-b30c-cb5ee305b076","ios":"levelo://app?vid=a92fa0eb-942e-4e5f-b30c-cb5ee305b076"},"vehicle_type_id":"4","last_reported":1737749391,"current_range_meters":32800,"station_id":"ce4bh692rcd13ifvqea0","pricing_plan_id":"cebpf4jnsgd1na2vs0mg"},{"bike_id":"28147011-c67e-40a5-ada1-04f84de86554","system_id":"levelo_inurba_marseille","lat":43.31356,"lon":5.38489,"is_reserved":false,"is_disabled":true,"rental_uris":{"android":"levelo://app?vid=28147011-c67e-40a5-ada1-04f84de86554","ios":"levelo://app?vid=28147011-c67e-40a5-ada1-04f84de86554"},"vehicle_type_id":"4","last_reported":1737749391,"current_range_meters":800,"station_id":"ce4bgt92rcd13ifvqcf0","pricing_plan_id":"cebpf4jnsgd1na2vs0mg"},{"bike_id":"1caf7243-b0f0-4484-919a-c8dcf048623a","system_id":"levelo_inurba_marseille","lat":43.23194,"lon":5.39976,"is_reserved":false,"is_disabled":false,"rental_uris":{"android":"levelo://app?vid=1caf7243-b0f0-4484-919a-c8dcf048623a","ios":"levelo://app?vid=1caf7243-b0f0-4484-919a-c8dcf048623a"},"vehicle_type_id":"4","last_reported":1737749391,"current_range_meters":12800,"station_id":"ce4bhn12rcd13ifvqgqg","pricing_plan_id":"cebpf4jnsgd1na2vs0mg"},{"bike_id":"8fd07e85-a454-4c1f-a811-21f58b09ae7d","system_id":"levelo_inurba_marseille","lat":43.28348,"lon":5.38091,"is_reserved":false,"is_disabled":true,"rental_uris":{"android":"levelo://app?vid=8fd07e85-a454-4c1f-a811-21f58b09ae7d","ios":"levelo://app?vid=8fd07e85-a454-4c1f-a811-21f58b09ae7d"},"vehicle_type_id":"4","last_reported":1737749391,"current_range_meters":800,"station_id":"ce4bh412rcd13ifvqdr0","pricing_plan_id":"cebpf4jnsgd1na2vs0mg"},{"bike_id":"d97b035b-cd76-4be6-9920-ca5e793c898b","system_id":"levelo_inurba_marseille","lat":43.25877,"lon":5.39896,"is_reserved":false,"is_disabled":false,"rental_uris":{"android":"levelo://app?vid=d97b035b-cd76-4be6-9920-ca5e793c898b","ios":"levelo://app?vid=d97b035b-cd76-4be6-9920-ca5e793c898b"},"vehicle_type_id":"4","last_reported":1737749391,"current_range_meters":22800,"station_id":"ce4bhl92rcd13ifvqghg","pricing_plan_id":"cebpf4jnsgd1na2vs0mg"},{"bike_id":"e6fed224-e420-4150-9f76-4b1a14407d3e","system_id":"levelo_inurba_marseille","lat":43.24166,"lon":5.36402,"is_reserved":false,"is_disabled":false,"rental_uris":{"android":"levelo://app?vid=e6fed224-e420-4150-9f76-4b1a14407d3e","ios":"levelo://app?vid=e6fed224-e420-4150-9f76-4b1a14407d3e"},"vehicle_type_id":"4","last_reported":1737749391,"current_range_meters":38800,"station_id":"cpo36qri1sfpv3e86is0","pricing_plan_id":"cebpf4jnsgd1na2vs0mg"},{"bike_id":"c276da85-c857-4b0d-8792-c2826228a14c","system_id":"levelo_inurba_marseille","lat":43.23963,"lon":5.36631,"is_reserved":false,"is_disabled":false,"rental_uris":{"android":"levelo://app?vid=c276da85-c857-4b0d-8792-c2826228a14c","ios":"levelo://app?vid=c276da85-c857-4b0d-8792-c2826228a14c"},"vehicle_type_id":"4","last_reported":1737749391,"current_range_meters":28400,"station_id":"ce4bhi12rcd13ifvqfp0","pricing_plan_id":"cebpf4jnsgd1na2vs0mg"},{"bike_id":"2068ce80-1659-42b4-945e-19e0e5710b37","system_id":"levelo_inurba_marseille","lat":43.29697,"lon":5.36602,"is_reserved":false,"is_disabled":true,"rental_uris":{"android":"levelo://app?vid=2068ce80-1659-42b4-945e-19e0e5710b37","ios":"levelo://app?vid=2068ce80-1659-42b4-945e-19e0e5710b37"},"vehicle_type_id":"4","last_reported":1737749391,"current_range_meters":36800,"station_id":"ce4bgn12rcd13ifvqbt0","pricing_plan_id":"cebpf4jnsgd1na2vs0mg"},{"bike_id":"867d41e1-ec2e-4484-a31e-d471983f0ab7","system_id":"levelo_inurba_marseille","lat":43.3336,"lon":5.40089,"is_reserved":false,"is_disabled":false,"rental_uris":{"android":"levelo://app?vid=867d41e1-ec2e-4484-a31e-d471983f0ab7","ios":"levelo://app?vid=867d41e1-ec2e-4484-a31e-d471983f0ab7"},"vehicle_type_id":"4","last_reported":1737749391,"current_range_meters":17200,"station_id":"","pricing_plan_id":"cebpf4jnsgd1na2vs0mg"},{"bike_id":"2e604c67-a717-4e3f-8c0a-875b3f56243b","system_id":"levelo_inurba_marseille","lat":43.29421,"lon":5.38623,"is_reserved":false,"is_disabled":false,"rental_uris":{"android":"levelo://app?vid=2e604c67-a717-4e3f-8c0a-875b3f56243b","ios":"levelo://app?vid=2e604c67-a717-4e3f-8c0a-875b3f56243b"},"vehicle_type_id":"4","last_reported":1737749391,"current_range_meters":23200,"station_id":"ce4bh2h2rcd13ifvqdh0","pricing_plan_id":"cebpf4jnsgd1na2vs0mg"},{"bike_id":"c5752d50-aec7-4f12-a901-76543afc1160","system_id":"levelo_inurba_marseille","lat":43.30428,"lon":5.38883,"is_reserved":false,"is_disabled":true,"rental_uris":{"android":"levelo://app?vid=c5752d50-aec7-4f12-a901-76543afc1160","ios":"levelo://app?vid=c5752d50-aec7-4f12-a901-76543afc1160"},"vehicle_type_id":"4","last_reported":1737749391,"current_range_meters":0,"station_id":"ce4bgk12rcd13ifvqbi0","pricing_plan_id":"cebpf4jnsgd1na2vs0mg"},{"bike_id":"25550bba-d80a-41d4-a2b9-d23dea26a22e","system_id":"levelo_inurba_marseille","lat":43.33022,"lon":5.39034,"is_reserved":false,"is_disabled":false,"rental_uris":{"android":"levelo://app?vid=25550bba-d80a-41d4-a2b9-d23dea26a22e","ios":"levelo://app?vid=25550bba-d80a-41d4-a2b9-d23dea26a22e"},"vehicle_type_id":"4","last_reported":1737749391,"current_range_meters":38800,"station_id":"ce4bhr92rcd13ifvqhrg","pricing_plan_id":"cebpf4jnsgd1na2vs0mg"},{"bike_id":"5f051731-48c9-4289-a0fa-e19a22e6eee4","system_id":"levelo_inurba_marseille","lat":43.29272,"lon":5.38431,"is_reserved":false,"is_disabled":false,"rental_uris":{"android":"levelo://app?vid=5f051731-48c9-4289-a0fa-e19a22e6eee4","ios":"levelo://app?vid=5f051731-48c9-4289-a0fa-e19a22e6eee4"},"vehicle_type_id":"4","last_reported":1737749391,"current_range_meters":39200,"station_id":"ce4bh692rcd13ifvqea0","pricing_plan_id":"cebpf4jnsgd1na2vs0mg"},{"bike_id":"358abbba-bcda-4dcf-ac9a-0dd24d997ac8","system_id":"levelo_inurba_marseille","lat":43.29456,"lon":5.39745,"is_reserved":false,"is_disabled":false,"rental_uris":{"android":"levelo://app?vid=358abbba-bcda-4dcf-ac9a-0dd24d997ac8","ios":"levelo://app?vid=358abbba-bcda-4dcf-ac9a-0dd24d997ac8"},"vehicle_type_id":"4","last_reported":1737749391,"current_range_meters":38800,"station_id":"ce4bh3h2rcd13ifvqdo0","pricing_plan_id":"cebpf4jnsgd1na2vs0mg"},{"bike_id":"676324bc-b6c7-4df5-9632-143694e2a23e","system_id":"levelo_inurba_marseille","lat":43.32289,"lon":5.38268,"is_reserved":false,"is_disabled":false,"rental_uris":{"android":"levelo://app?vid=676324bc-b6c7-4df5-9632-143694e2a23e","ios":"levelo://app?vid=676324bc-b6c7-4df5-9632-143694e2a23e"},"vehicle_type_id":"4","last_reported":1737749391,"current_range_meters":18000,"station_id":"ce4bhr12rcd13ifvqhqg","pricing_plan_id":"cebpf4jnsgd1na2vs0mg"},{"bike_id":"93f4f4e4-86dd-44c9-bedb-dcbdace9162d","system_id":"levelo_inurba_marseille","lat":43.23191,"lon":5.39976,"is_reserved":false,"is_disabled":false,"rental_uris":{"android":"levelo://app?vid=93f4f4e4-86dd-44c9-bedb-dcbdace9162d","ios":"levelo://app?vid=93f4f4e4-86dd-44c9-bedb-dcbdace9162d"},"vehicle_type_id":"4","last_reported":1737749391,"current_range_meters":38800,"station_id":"ce4bhn12rcd13ifvqgqg","pricing_plan_id":"cebpf4jnsgd1na2vs0mg"},{"bike_id":"347dd29e-9a9e-4a37-8ddd-6e2050aaff03","system_id":"levelo_inurba_marseille","lat":43.33734,"lon":5.39194,"is_reserved":false,"is_disabled":false,"rental_uris":{"android":"levelo://app?vid=347dd29e-9a9e-4a37-8ddd-6e2050aaff03","ios":"levelo://app?vid=347dd29e-9a9e-4a37-8ddd-6e2050aaff03"},"vehicle_type_id":"4","last_reported":1737749391,"current_range_meters":37600,"station_id":"ce4bhr92rcd13ifvqhsg","pricing_plan_id":"cebpf4jnsgd1na2vs0mg"},{"bike_id":"badee5fd-b7b4-423c-a117-af12b0d774ca","system_id":"levelo_inurba_marseille","lat":43.317265,"lon":5.42399,"is_reserved":false,"is_disabled":false,"rental_uris":{"android":"levelo://app?vid=badee5fd-b7b4-423c-a117-af12b0d774ca","ios":"levelo://app?vid=badee5fd-b7b4-423c-a117-af12b0d774ca"},"vehicle_type_id":"4","last_reported":1737749391,"current_range_meters":38000,"station_id":"ce4bhp92rcd13ifvqhbg","pricing_plan_id":"cebpf4jnsgd1na2vs0mg"},{"bike_id":"689b4df9-0021-47af-92a3-26488e05e7a0","system_id":"levelo_inurba_marseille","lat":43.29207,"lon":5.35789,"is_reserved":false,"is_disabled":false,"rental_uris":{"android":"levelo://app?vid=689b4df9-0021-47af-92a3-26488e05e7a0","ios":"levelo://app?vid=689b4df9-0021-47af-92a3-26488e05e7a0"},"vehicle_type_id":"4","last_reported":1737749391,"current_range_meters":16400,"station_id":"ce4bhb12rcd13ifvqel0","pricing_plan_id":"cebpf4jnsgd1na2vs0mg"},{"bike_id":"f8ea2046-cba1-432a-b3c5-e15c802e7278","system_id":"levelo_inurba_marseille","lat":43.23965,"lon":5.36631,"is_reserved":false,"is_disabled":false,"rental_uris":{"android":"levelo://app?vid=f8ea2046-cba1-432a-b3c5-e15c802e7278","ios":"levelo://app?vid=f8ea2046-cba1-432a-b3c5-e15c802e7278"},"vehicle_type_id":"4","last_reported":1737749391,"current_range_meters":33200,"station_id":"ce4bhi12rcd13ifvqfp0","pricing_plan_id":"cebpf4jnsgd1na2vs0mg"},{"bike_id":"48b84421-07ac-4061-ae17-40856caff0df","system_id":"levelo_inurba_marseille","lat":43.29552,"lon":5.37496,"is_reserved":false,"is_disabled":false,"rental_uris":{"android":"levelo://app?vid=48b84421-07ac-4061-ae17-40856caff0df","ios":"levelo://app?vid=48b84421-07ac-4061-ae17-40856caff0df"},"vehicle_type_id":"4","last_reported":1737749391,"current_range_meters":28800,"station_id":"ce4bgkp2rcd13ifvqbmg","pricing_plan_id":"cebpf4jnsgd1na2vs0mg"},{"bike_id":"90b8a1b1-ad54-458d-9362-f5197bbdf048","system_id":"levelo_inurba_marseille","lat":43.229274,"lon":5.353937,"is_reserved":false,"is_disabled":false,"rental_uris":{"android":"levelo://app?vid=90b8a1b1-ad54-458d-9362-f5197bbdf048","ios":"levelo://app?vid=90b8a1b1-ad54-458d-9362-f5197bbdf048"},"vehicle_type_id":"4","last_reported":1737749391,"current_range_meters":38400,"station_id":"cpo3532slgdg3j2ikp40","pricing_plan_id":"cebpf4jnsgd1na2vs0mg"},{"bike_id":"ef189b76-84c3-433c-bb9f-956fd10b0261","system_id":"levelo_inurba_marseille","lat":43.29639,"lon":5.40645,"is_reserved":false,"is_disabled":false,"rental_uris":{"android":"levelo://app?vid=ef189b76-84c3-433c-bb9f-956fd10b0261","ios":"levelo://app?vid=ef189b76-84c3-433c-bb9f-956fd10b0261"},"vehicle_type_id":"4","last_reported":1737749391,"current_range_meters":27200,"station_id":"ce4bh0h2rcd13ifvqd60","pricing_plan_id":"cebpf4jnsgd1na2vs0mg"},{"bike_id":"31bef50f-e464-4b71-8639-fa847ee5d165","system_id":"levelo_inurba_marseille","lat":43.27826,"lon":5.4069,"is_reserved":false,"is_disabled":false,"rental_uris":{"android":"levelo://app?vid=31bef50f-e464-4b71-8639-fa847ee5d165","ios":"levelo://app?vid=31bef50f-e464-4b71-8639-fa847ee5d165"},"vehicle_type_id":"4","last_reported":1737749391,"current_range_meters":18000,"station_id":"ce4bhnh2rcd13ifvqgtg","pricing_plan_id":"cebpf4jnsgd1na2vs0mg"},{"bike_id":"17e306a9-20ff-47dc-8c6c-1b0f1e0bda0e","system_id":"levelo_inurba_marseille","lat":43.2926,"lon":5.38438,"is_reserved":false,"is_disabled":false,"rental_uris":{"android":"levelo://app?vid=17e306a9-20ff-47dc-8c6c-1b0f1e0bda0e","ios":"levelo://app?vid=17e306a9-20ff-47dc-8c6c-1b0f1e0bda0e"},"vehicle_type_id":"4","last_reported":1737749391,"current_range_meters":39200,"station_id":"ce4bh692rcd13ifvqea0","pricing_plan_id":"cebpf4jnsgd1na2vs0mg"},{"bike_id":"5a4b82f5-f934-4425-a846-9f95c1e37fce","system_id":"levelo_inurba_marseille","lat":43.25085,"lon":5.39521,"is_reserved":false,"is_disabled":false,"rental_uris":{"android":"levelo://app?vid=5a4b82f5-f934-4425-a846-9f95c1e37fce","ios":"levelo://app?vid=5a4b82f5-f934-4425-a846-9f95c1e37fce"},"vehicle_type_id":"4","last_reported":1737749391,"current_range_meters":9600,"station_id":"ce4bhm12rcd13ifvqgkg","pricing_plan_id":"cebpf4jnsgd1na2vs0mg"},{"bike_id":"2ceac153-5e1a-4a7b-83f7-8b0f8a052b3c","system_id":"levelo_inurba_marseille","lat":43.29966,"lon":5.38497,"is_reserved":false,"is_disabled":false,"rental_uris":{"android":"levelo://app?vid=2ceac153-5e1a-4a7b-83f7-8b0f8a052b3c","ios":"levelo://app?vid=2ceac153-5e1a-4a7b-83f7-8b0f8a052b3c"},"vehicle_type_id":"4","last_reported":1737749391,"current_range_meters":27600,"station_id":"ce4bgj92rcd13ifvqbd0","pricing_plan_id":"cebpf4jnsgd1na2vs0mg"},{"bike_id":"3343dcc1-caa8-41f9-a07d-d3357b72cd8f","system_id":"levelo_inurba_marseille","lat":43.29656,"lon":5.37855,"is_reserved":false,"is_disabled":false,"rental_uris":{"android":"levelo://app?vid=3343dcc1-caa8-41f9-a07d-d3357b72cd8f","ios":"levelo://app?vid=3343dcc1-caa8-41f9-a07d-d3357b72cd8f"},"vehicle_type_id":"4","last_reported":1737749391,"current_range_meters":35200,"station_id":"ce4bgi92rcd13ifvqb90","pricing_plan_id":"cebpf4jnsgd1na2vs0mg"},{"bike_id":"2379a823-fdeb-40da-be6e-d8af4799bc36","system_id":"levelo_inurba_marseille","lat":43.30323,"lon":5.40441,"is_reserved":false,"is_disabled":false,"rental_uris":{"android":"levelo://app?vid=2379a823-fdeb-40da-be6e-d8af4799bc36","ios":"levelo://app?vid=2379a823-fdeb-40da-be6e-d8af4799bc36"},"vehicle_type_id":"4","last_reported":1737749391,"current_range_meters":38000,"station_id":"ce4bh012rcd13ifvqd10","pricing_plan_id":"cebpf4jnsgd1na2vs0mg"},{"bike_id":"cd2a4c81-944c-45cd-ad92-4381608c75f0","system_id":"levelo_inurba_marseille","lat":43.23193,"lon":5.35554,"is_reserved":false,"is_disabled":false,"rental_uris":{"android":"levelo://app?vid=cd2a4c81-944c-45cd-ad92-4381608c75f0","ios":"levelo://app?vid=cd2a4c81-944c-45cd-ad92-4381608c75f0"},"vehicle_type_id":"4","last_reported":1737749391,"current_range_meters":9600,"station_id":"ce4bhu92rcd13ifvqi70","pricing_plan_id":"cebpf4jnsgd1na2vs0mg"},{"bike_id":"e0773cdd-7648-4795-a8f8-be550eff1626","system_id":"levelo_inurba_marseille","lat":43.30306,"lon":5.39211,"is_reserved":false,"is_disabled":false,"rental_uris":{"android":"levelo://app?vid=e0773cdd-7648-4795-a8f8-be550eff1626","ios":"levelo://app?vid=e0773cdd-7648-4795-a8f8-be550eff1626"},"vehicle_type_id":"4","last_reported":1737749391,"current_range_meters":38800,"station_id":"ce4bgkh2rcd13ifvqbk0","pricing_plan_id":"cebpf4jnsgd1na2vs0mg"},{"bike_id":"511d1395-9b6a-4365-982c-ba6fd9ed2253","system_id":"levelo_inurba_marseille","lat":43.29143,"lon":5.381627,"is_reserved":false,"is_disabled":false,"rental_uris":{"android":"levelo://app?vid=511d1395-9b6a-4365-982c-ba6fd9ed2253","ios":"levelo://app?vid=511d1395-9b6a-4365-982c-ba6fd9ed2253"},"vehicle_type_id":"4","last_reported":1737749391,"current_range_meters":25200,"station_id":"","pricing_plan_id":"cebpf4jnsgd1na2vs0mg"},{"bike_id":"8d0bf438-6f14-42dc-8a42-ea54115c1c21","system_id":"levelo_inurba_marseille","lat":43.29543,"lon":5.3854,"is_reserved":false,"is_disabled":false,"rental_uris":{"android":"levelo://app?vid=8d0bf438-6f14-42dc-8a42-ea54115c1c21","ios":"levelo://app?vid=8d0bf438-6f14-42dc-8a42-ea54115c1c21"},"vehicle_type_id":"4","last_reported":1737749391,"current_range_meters":38800,"station_id":"ce4bgih2rcd13ifvqba0","pricing_plan_id":"cebpf4jnsgd1na2vs0mg"},{"bike_id":"93434538-df06-4ff5-ad75-b30c9966e4ec","system_id":"levelo_inurba_marseille","lat":43.29968,"lon":5.38491,"is_reserved":false,"is_disabled":false,"rental_uris":{"android":"levelo://app?vid=93434538-df06-4ff5-ad75-b30c9966e4ec","ios":"levelo://app?vid=93434538-df06-4ff5-ad75-b30c9966e4ec"},"vehicle_type_id":"4","last_reported":1737749391,"current_range_meters":29600,"station_id":"ce4bgj92rcd13ifvqbd0","pricing_plan_id":"cebpf4jnsgd1na2vs0mg"},{"bike_id":"8609669b-68c7-4651-8463-8b069e6b3840","system_id":"levelo_inurba_marseille","lat":43.32007,"lon":5.3815,"is_reserved":false,"is_disabled":false,"rental_uris":{"android":"levelo://app?vid=8609669b-68c7-4651-8463-8b069e6b3840","ios":"levelo://app?vid=8609669b-68c7-4651-8463-8b069e6b3840"},"vehicle_type_id":"4","last_reported":1737749391,"current_range_meters":38000,"station_id":"ce4bhr12rcd13ifvqhpg","pricing_plan_id":"cebpf4jnsgd1na2vs0mg"},{"bike_id":"787678f9-4fc1-4202-9edc-26f722986fd5","system_id":"levelo_inurba_marseille","lat":43.26198,"lon":5.37447,"is_reserved":false,"is_disabled":false,"rental_uris":{"android":"levelo://app?vid=787678f9-4fc1-4202-9edc-26f722986fd5","ios":"levelo://app?vid=787678f9-4fc1-4202-9edc-26f722986fd5"},"vehicle_type_id":"4","last_reported":1737749391,"current_range_meters":38800,"station_id":"ce4bhgp2rcd13ifvqfc0","pricing_plan_id":"cebpf4jnsgd1na2vs0mg"},{"bike_id":"e04d6439-d3f0-49e1-ae5b-7959ba70aeaa","system_id":"levelo_inurba_marseille","lat":43.28034,"lon":5.36937,"is_reserved":false,"is_disabled":false,"rental_uris":{"android":"levelo://app?vid=e04d6439-d3f0-49e1-ae5b-7959ba70aeaa","ios":"levelo://app?vid=e04d6439-d3f0-49e1-ae5b-7959ba70aeaa"},"vehicle_type_id":"4","last_reported":1737749391,"current_range_meters":22000,"station_id":"ce4bha12rcd13ifvqef0","pricing_plan_id":"cebpf4jnsgd1na2vs0mg"},{"bike_id":"cef0fc8f-580c-434e-934c-d5b782b934ce","system_id":"levelo_inurba_marseille","lat":43.295397,"lon":5.385393,"is_reserved":false,"is_disabled":false,"rental_uris":{"android":"levelo://app?vid=cef0fc8f-580c-434e-934c-d5b782b934ce","ios":"levelo://app?vid=cef0fc8f-580c-434e-934c-d5b782b934ce"},"vehicle_type_id":"4","last_reported":1737749391,"current_range_meters":10000,"station_id":"ce4bgih2rcd13ifvqba0","pricing_plan_id":"cebpf4jnsgd1na2vs0mg"},{"bike_id":"378c7fb4-da64-46b0-bde3-39fe76dcd791","system_id":"levelo_inurba_marseille","lat":43.3091,"lon":5.36843,"is_reserved":false,"is_disabled":false,"rental_uris":{"android":"levelo://app?vid=378c7fb4-da64-46b0-bde3-39fe76dcd791","ios":"levelo://app?vid=378c7fb4-da64-46b0-bde3-39fe76dcd791"},"vehicle_type_id":"4","last_reported":1737749391,"current_range_meters":38000,"station_id":"ce4bgn92rcd13ifvqbvg","pricing_plan_id":"cebpf4jnsgd1na2vs0mg"},{"bike_id":"e00195d8-6cc4-4f8e-aab6-589cb9da0b0f","system_id":"levelo_inurba_marseille","lat":43.29172,"lon":5.37153,"is_reserved":false,"is_disabled":false,"rental_uris":{"android":"levelo://app?vid=e00195d8-6cc4-4f8e-aab6-589cb9da0b0f","ios":"levelo://app?vid=e00195d8-6cc4-4f8e-aab6-589cb9da0b0f"},"vehicle_type_id":"4","last_reported":1737749391,"current_range_meters":38800,"station_id":"ce4bha92rcd13ifvqeh0","pricing_plan_id":"cebpf4jnsgd1na2vs0mg"},{"bike_id":"5bdca74a-6612-42f9-9758-1d8be1cdc5ec","system_id":"levelo_inurba_marseille","lat":43.29438,"lon":5.3865,"is_reserved":false,"is_disabled":false,"rental_uris":{"android":"levelo://app?vid=5bdca74a-6612-42f9-9758-1d8be1cdc5ec","ios":"levelo://app?vid=5bdca74a-6612-42f9-9758-1d8be1cdc5ec"},"vehicle_type_id":"4","last_reported":1737749391,"current_range_meters":31200,"station_id":"ce4bh2h2rcd13ifvqdh0","pricing_plan_id":"cebpf4jnsgd1na2vs0mg"},{"bike_id":"e88c7789-5cc6-4131-a7fc-96bce56a7f6d","system_id":"levelo_inurba_marseille","lat":43.29313,"lon":5.37456,"is_reserved":false,"is_disabled":false,"rental_uris":{"android":"levelo://app?vid=e88c7789-5cc6-4131-a7fc-96bce56a7f6d","ios":"levelo://app?vid=e88c7789-5cc6-4131-a7fc-96bce56a7f6d"},"vehicle_type_id":"4","last_reported":1737749391,"current_range_meters":27200,"station_id":"ce4bgi12rcd13ifvqb70","pricing_plan_id":"cebpf4jnsgd1na2vs0mg"},{"bike_id":"c09107c0-8eff-4397-b16d-299aabecf68c","system_id":"levelo_inurba_marseille","lat":43.29542,"lon":5.38536,"is_reserved":false,"is_disabled":false,"rental_uris":{"android":"levelo://app?vid=c09107c0-8eff-4397-b16d-299aabecf68c","ios":"levelo://app?vid=c09107c0-8eff-4397-b16d-299aabecf68c"},"vehicle_type_id":"4","last_reported":1737749391,"current_range_meters":38400,"station_id":"ce4bgih2rcd13ifvqba0","pricing_plan_id":"cebpf4jnsgd1na2vs0mg"},{"bike_id":"9fa07e24-ca3f-4af3-9650-202e7c5077d3","system_id":"levelo_inurba_marseille","lat":43.26212,"lon":5.37444,"is_reserved":false,"is_disabled":false,"rental_uris":{"android":"levelo://app?vid=9fa07e24-ca3f-4af3-9650-202e7c5077d3","ios":"levelo://app?vid=9fa07e24-ca3f-4af3-9650-202e7c5077d3"},"vehicle_type_id":"4","last_reported":1737749391,"current_range_meters":8000,"station_id":"ce4bhgp2rcd13ifvqfc0","pricing_plan_id":"cebpf4jnsgd1na2vs0mg"},{"bike_id":"c425264b-f06d-4006-8cf2-8dc867d9adfd","system_id":"levelo_inurba_marseille","lat":43.31598,"lon":5.38764,"is_reserved":false,"is_disabled":false,"rental_uris":{"android":"levelo://app?vid=c425264b-f06d-4006-8cf2-8dc867d9adfd","ios":"levelo://app?vid=c425264b-f06d-4006-8cf2-8dc867d9adfd"},"vehicle_type_id":"4","last_reported":1737749391,"current_range_meters":10000,"station_id":"","pricing_plan_id":"cebpf4jnsgd1na2vs0mg"},{"bike_id":"5940d4b5-099a-4da5-b3b1-0ce6579745e1","system_id":"levelo_inurba_marseille","lat":43.24649,"lon":5.38895,"is_reserved":false,"is_disabled":false,"rental_uris":{"android":"levelo://app?vid=5940d4b5-099a-4da5-b3b1-0ce6579745e1","ios":"levelo://app?vid=5940d4b5-099a-4da5-b3b1-0ce6579745e1"},"vehicle_type_id":"4","last_reported":1737749391,"current_range_meters":14400,"station_id":"ce4bhg12rcd13ifvqf60","pricing_plan_id":"cebpf4jnsgd1na2vs0mg"},{"bike_id":"bce09769-02dc-489a-bcd7-84421f3b354f","system_id":"levelo_inurba_marseille","lat":43.32348,"lon":5.38905,"is_reserved":false,"is_disabled":false,"rental_uris":{"android":"levelo://app?vid=bce09769-02dc-489a-bcd7-84421f3b354f","ios":"levelo://app?vid=bce09769-02dc-489a-bcd7-84421f3b354f"},"vehicle_type_id":"4","last_reported":1737749391,"current_range_meters":21600,"station_id":"ce4bhqp2rcd13ifvqhog","pricing_plan_id":"cebpf4jnsgd1na2vs0mg"},{"bike_id":"8079e6ae-b67d-409c-be01-65ea03655a49","system_id":"levelo_inurba_marseille","lat":43.29418,"lon":5.38626,"is_reserved":false,"is_disabled":false,"rental_uris":{"android":"levelo://app?vid=8079e6ae-b67d-409c-be01-65ea03655a49","ios":"levelo://app?vid=8079e6ae-b67d-409c-be01-65ea03655a49"},"vehicle_type_id":"4","last_reported":1737749391,"current_range_meters":9600,"station_id":"ce4bh2h2rcd13ifvqdh0","pricing_plan_id":"cebpf4jnsgd1na2vs0mg"},{"bike_id":"85c4b304-0a15-4fc1-b75d-cfc16b5afe60","system_id":"levelo_inurba_marseille","lat":43.22934,"lon":5.35383,"is_reserved":false,"is_disabled":false,"rental_uris":{"android":"levelo://app?vid=85c4b304-0a15-4fc1-b75d-cfc16b5afe60","ios":"levelo://app?vid=85c4b304-0a15-4fc1-b75d-cfc16b5afe60"},"vehicle_type_id":"4","last_reported":1737749391,"current_range_meters":38800,"station_id":"cpo3532slgdg3j2ikp40","pricing_plan_id":"cebpf4jnsgd1na2vs0mg"},{"bike_id":"d06e4858-1735-4dcf-9f21-bf859f4d029b","system_id":"levelo_inurba_marseille","lat":43.28154,"lon":5.42631,"is_reserved":false,"is_disabled":false,"rental_uris":{"android":"levelo://app?vid=d06e4858-1735-4dcf-9f21-bf859f4d029b","ios":"levelo://app?vid=d06e4858-1735-4dcf-9f21-bf859f4d029b"},"vehicle_type_id":"4","last_reported":1737749391,"current_range_meters":38800,"station_id":"ce4bhnh2rcd13ifvqgug","pricing_plan_id":"cebpf4jnsgd1na2vs0mg"},{"bike_id":"4d0f5f2a-f13f-4c4a-b8b5-8662c81757a7","system_id":"levelo_inurba_marseille","lat":43.29528,"lon":5.39033,"is_reserved":false,"is_disabled":false,"rental_uris":{"android":"levelo://app?vid=4d0f5f2a-f13f-4c4a-b8b5-8662c81757a7","ios":"levelo://app?vid=4d0f5f2a-f13f-4c4a-b8b5-8662c81757a7"},"vehicle_type_id":"4","last_reported":1737749391,"current_range_meters":39200,"station_id":"ce4bh3p2rcd13ifvqdp0","pricing_plan_id":"cebpf4jnsgd1na2vs0mg"},{"bike_id":"7f95d492-e5fe-47a9-9496-ce67e4d5c2e7","system_id":"levelo_inurba_marseille","lat":43.31756,"lon":5.39019,"is_reserved":false,"is_disabled":false,"rental_uris":{"android":"levelo://app?vid=7f95d492-e5fe-47a9-9496-ce67e4d5c2e7","ios":"levelo://app?vid=7f95d492-e5fe-47a9-9496-ce67e4d5c2e7"},"vehicle_type_id":"4","last_reported":1737749391,"current_range_meters":38800,"station_id":"ce4bhqp2rcd13ifvqhng","pricing_plan_id":"cebpf4jnsgd1na2vs0mg"},{"bike_id":"61df6208-7c8d-4faf-b087-b4cb2a715156","system_id":"levelo_inurba_marseille","lat":43.3199,"lon":5.38137,"is_reserved":false,"is_disabled":false,"rental_uris":{"android":"levelo://app?vid=61df6208-7c8d-4faf-b087-b4cb2a715156","ios":"levelo://app?vid=61df6208-7c8d-4faf-b087-b4cb2a715156"},"vehicle_type_id":"4","last_reported":1737749391,"current_range_meters":4800,"station_id":"ce4bhr12rcd13ifvqhpg","pricing_plan_id":"cebpf4jnsgd1na2vs0mg"},{"bike_id":"876caf81-20df-4ac2-8d02-2f62a9133e00","system_id":"levelo_inurba_marseille","lat":43.2927,"lon":5.38437,"is_reserved":false,"is_disabled":false,"rental_uris":{"android":"levelo://app?vid=876caf81-20df-4ac2-8d02-2f62a9133e00","ios":"levelo://app?vid=876caf81-20df-4ac2-8d02-2f62a9133e00"},"vehicle_type_id":"4","last_reported":1737749391,"current_range_meters":26800,"station_id":"ce4bh692rcd13ifvqea0","pricing_plan_id":"cebpf4jnsgd1na2vs0mg"},{"bike_id":"7393c96c-5624-4700-8400-dc3bbd6a79eb","system_id":"levelo_inurba_marseille","lat":43.27837,"lon":5.39213,"is_reserved":false,"is_disabled":false,"rental_uris":{"android":"levelo://app?vid=7393c96c-5624-4700-8400-dc3bbd6a79eb","ios":"levelo://app?vid=7393c96c-5624-4700-8400-dc3bbd6a79eb"},"vehicle_type_id":"4","last_reported":1737749391,"current_range_meters":18800,"station_id":"ce4bhjp2rcd13ifvqga0","pricing_plan_id":"cebpf4jnsgd1na2vs0mg"},{"bike_id":"354a0ed3-542c-4648-b29a-783f2de4680e","system_id":"levelo_inurba_marseille","lat":43.27663,"lon":5.38906,"is_reserved":false,"is_disabled":true,"rental_uris":{"android":"levelo://app?vid=354a0ed3-542c-4648-b29a-783f2de4680e","ios":"levelo://app?vid=354a0ed3-542c-4648-b29a-783f2de4680e"},"vehicle_type_id":"4","last_reported":1737749391,"current_range_meters":36000,"station_id":"ce4bhi12rcd13ifvqfo0","pricing_plan_id":"cebpf4jnsgd1na2vs0mg"},{"bike_id":"2a5bcd00-b034-49cb-a2cf-bc894e4bfe17","system_id":"levelo_inurba_marseille","lat":43.29262,"lon":5.38434,"is_reserved":false,"is_disabled":false,"rental_uris":{"android":"levelo://app?vid=2a5bcd00-b034-49cb-a2cf-bc894e4bfe17","ios":"levelo://app?vid=2a5bcd00-b034-49cb-a2cf-bc894e4bfe17"},"vehicle_type_id":"4","last_reported":1737749391,"current_range_meters":38000,"station_id":"ce4bh692rcd13ifvqea0","pricing_plan_id":"cebpf4jnsgd1na2vs0mg"},{"bike_id":"13ffeea6-4e88-4273-a218-3c5d61ae6af5","system_id":"levelo_inurba_marseille","lat":43.3208,"lon":5.36791,"is_reserved":false,"is_disabled":false,"rental_uris":{"android":"levelo://app?vid=13ffeea6-4e88-4273-a218-3c5d61ae6af5","ios":"levelo://app?vid=13ffeea6-4e88-4273-a218-3c5d61ae6af5"},"vehicle_type_id":"4","last_reported":1737749391,"current_range_meters":36400,"station_id":"ce4bhrh2rcd13ifvqhug","pricing_plan_id":"cebpf4jnsgd1na2vs0mg"},{"bike_id":"183d99f3-c5aa-4abb-b8da-46143af25668","system_id":"levelo_inurba_marseille","lat":43.292693,"lon":5.368379,"is_reserved":false,"is_disabled":false,"rental_uris":{"android":"levelo://app?vid=183d99f3-c5aa-4abb-b8da-46143af25668","ios":"levelo://app?vid=183d99f3-c5aa-4abb-b8da-46143af25668"},"vehicle_type_id":"4","last_reported":1737749391,"current_range_meters":30800,"station_id":"ce4bhbp2rcd13ifvqesg","pricing_plan_id":"cebpf4jnsgd1na2vs0mg"},{"bike_id":"0db3c5d9-6d81-4a1e-8258-3475631b52a3","system_id":"levelo_inurba_marseille","lat":43.29304,"lon":5.37179,"is_reserved":false,"is_disabled":false,"rental_uris":{"android":"levelo://app?vid=0db3c5d9-6d81-4a1e-8258-3475631b52a3","ios":"levelo://app?vid=0db3c5d9-6d81-4a1e-8258-3475631b52a3"},"vehicle_type_id":"4","last_reported":1737749391,"current_range_meters":8000,"station_id":"ce4bgh92rcd13ifvqb40","pricing_plan_id":"cebpf4jnsgd1na2vs0mg"},{"bike_id":"200a4bf1-05ee-4a72-ad3d-ba9dee551928","system_id":"levelo_inurba_marseille","lat":43.29275,"lon":5.36834,"is_reserved":false,"is_disabled":false,"rental_uris":{"android":"levelo://app?vid=200a4bf1-05ee-4a72-ad3d-ba9dee551928","ios":"levelo://app?vid=200a4bf1-05ee-4a72-ad3d-ba9dee551928"},"vehicle_type_id":"4","last_reported":1737749391,"current_range_meters":36800,"station_id":"ce4bhbp2rcd13ifvqesg","pricing_plan_id":"cebpf4jnsgd1na2vs0mg"},{"bike_id":"980c02c2-9503-4369-8686-9bce9678a308","system_id":"levelo_inurba_marseille","lat":43.29538,"lon":5.38539,"is_reserved":false,"is_disabled":false,"rental_uris":{"android":"levelo://app?vid=980c02c2-9503-4369-8686-9bce9678a308","ios":"levelo://app?vid=980c02c2-9503-4369-8686-9bce9678a308"},"vehicle_type_id":"4","last_reported":1737749391,"current_range_meters":18000,"station_id":"ce4bgih2rcd13ifvqba0","pricing_plan_id":"cebpf4jnsgd1na2vs0mg"},{"bike_id":"de1301d7-ac52-4f2a-a1c2-112545ee3280","system_id":"levelo_inurba_marseille","lat":43.30929,"lon":5.40138,"is_reserved":false,"is_disabled":false,"rental_uris":{"android":"levelo://app?vid=de1301d7-ac52-4f2a-a1c2-112545ee3280","ios":"levelo://app?vid=de1301d7-ac52-4f2a-a1c2-112545ee3280"},"vehicle_type_id":"4","last_reported":1737749391,"current_range_meters":39200,"station_id":"ce4bgvp2rcd13ifvqct0","pricing_plan_id":"cebpf4jnsgd1na2vs0mg"},{"bike_id":"88c64f3a-a6f9-40d1-bd5d-db3d4661ed45","system_id":"levelo_inurba_marseille","lat":43.31536,"lon":5.38041,"is_reserved":false,"is_disabled":false,"rental_uris":{"android":"levelo://app?vid=88c64f3a-a6f9-40d1-bd5d-db3d4661ed45","ios":"levelo://app?vid=88c64f3a-a6f9-40d1-bd5d-db3d4661ed45"},"vehicle_type_id":"4","last_reported":1737749391,"current_range_meters":30400,"station_id":"ce4bhsp2rcd13ifvqi50","pricing_plan_id":"cebpf4jnsgd1na2vs0mg"},{"bike_id":"4fd1f48b-7580-413b-85a7-3148710223f5","system_id":"levelo_inurba_marseille","lat":43.29444,"lon":5.39727,"is_reserved":false,"is_disabled":false,"rental_uris":{"android":"levelo://app?vid=4fd1f48b-7580-413b-85a7-3148710223f5","ios":"levelo://app?vid=4fd1f48b-7580-413b-85a7-3148710223f5"},"vehicle_type_id":"4","last_reported":1737749391,"current_range_meters":27200,"station_id":"ce4bh3h2rcd13ifvqdo0","pricing_plan_id":"cebpf4jnsgd1na2vs0mg"},{"bike_id":"5d0ced69-255e-410b-9398-708d471fa8b7","system_id":"levelo_inurba_marseille","lat":43.30301,"lon":5.39202,"is_reserved":false,"is_disabled":true,"rental_uris":{"android":"levelo://app?vid=5d0ced69-255e-410b-9398-708d471fa8b7","ios":"levelo://app?vid=5d0ced69-255e-410b-9398-708d471fa8b7"},"vehicle_type_id":"4","last_reported":1737749391,"current_range_meters":34800,"station_id":"ce4bgkh2rcd13ifvqbk0","pricing_plan_id":"cebpf4jnsgd1na2vs0mg"},{"bike_id":"35614ed7-a0df-4792-bca2-a1978fcd9fab","system_id":"levelo_inurba_marseille","lat":43.30797,"lon":5.4351,"is_reserved":false,"is_disabled":false,"rental_uris":{"android":"levelo://app?vid=35614ed7-a0df-4792-bca2-a1978fcd9fab","ios":"levelo://app?vid=35614ed7-a0df-4792-bca2-a1978fcd9fab"},"vehicle_type_id":"4","last_reported":1737749391,"current_range_meters":37600,"station_id":"ce4bhph2rcd13ifvqheg","pricing_plan_id":"cebpf4jnsgd1na2vs0mg"},{"bike_id":"a031fbc0-19f0-4f26-be9e-238874f5ec0b","system_id":"levelo_inurba_marseille","lat":43.30798,"lon":5.39612,"is_reserved":false,"is_disabled":false,"rental_uris":{"android":"levelo://app?vid=a031fbc0-19f0-4f26-be9e-238874f5ec0b","ios":"levelo://app?vid=a031fbc0-19f0-4f26-be9e-238874f5ec0b"},"vehicle_type_id":"4","last_reported":1737749391,"current_range_meters":34800,"station_id":"ce4bh012rcd13ifvqcv0","pricing_plan_id":"cebpf4jnsgd1na2vs0mg"},{"bike_id":"7817b1c6-3ba5-4c30-91a6-d7c7566d7a64","system_id":"levelo_inurba_marseille","lat":43.30636,"lon":5.40082,"is_reserved":false,"is_disabled":false,"rental_uris":{"android":"levelo://app?vid=7817b1c6-3ba5-4c30-91a6-d7c7566d7a64","ios":"levelo://app?vid=7817b1c6-3ba5-4c30-91a6-d7c7566d7a64"},"vehicle_type_id":"4","last_reported":1737749391,"current_range_meters":26000,"station_id":"ce4bh112rcd13ifvqda0","pricing_plan_id":"cebpf4jnsgd1na2vs0mg"},{"bike_id":"a50604f6-2152-439b-b245-6f04f4d8cf8d","system_id":"levelo_inurba_marseille","lat":43.30431,"lon":5.38884,"is_reserved":false,"is_disabled":false,"rental_uris":{"android":"levelo://app?vid=a50604f6-2152-439b-b245-6f04f4d8cf8d","ios":"levelo://app?vid=a50604f6-2152-439b-b245-6f04f4d8cf8d"},"vehicle_type_id":"4","last_reported":1737749391,"current_range_meters":29600,"station_id":"ce4bgk12rcd13ifvqbi0","pricing_plan_id":"cebpf4jnsgd1na2vs0mg"},{"bike_id":"f4fea1b6-ba26-4100-be96-c519e5f6a824","system_id":"levelo_inurba_marseille","lat":43.2902,"lon":5.38633,"is_reserved":false,"is_disabled":false,"rental_uris":{"android":"levelo://app?vid=f4fea1b6-ba26-4100-be96-c519e5f6a824","ios":"levelo://app?vid=f4fea1b6-ba26-4100-be96-c519e5f6a824"},"vehicle_type_id":"4","last_reported":1737749391,"current_range_meters":16400,"station_id":"ce4bh4p2rcd13ifvqe0g","pricing_plan_id":"cebpf4jnsgd1na2vs0mg"},{"bike_id":"d2cb21d3-cc32-48d3-b773-800826051dd6","system_id":"levelo_inurba_marseille","lat":43.33013,"lon":5.39052,"is_reserved":false,"is_disabled":false,"rental_uris":{"android":"levelo://app?vid=d2cb21d3-cc32-48d3-b773-800826051dd6","ios":"levelo://app?vid=d2cb21d3-cc32-48d3-b773-800826051dd6"},"vehicle_type_id":"4","last_reported":1737749391,"current_range_meters":38800,"station_id":"ce4bhr92rcd13ifvqhrg","pricing_plan_id":"cebpf4jnsgd1na2vs0mg"},{"bike_id":"614069de-aa6c-4682-bdb4-b697111c134b","system_id":"levelo_inurba_marseille","lat":43.322885,"lon":5.382694,"is_reserved":false,"is_disabled":false,"rental_uris":{"android":"levelo://app?vid=614069de-aa6c-4682-bdb4-b697111c134b","ios":"levelo://app?vid=614069de-aa6c-4682-bdb4-b697111c134b"},"vehicle_type_id":"4","last_reported":1737749391,"current_range_meters":16800,"station_id":"ce4bhr12rcd13ifvqhqg","pricing_plan_id":"cebpf4jnsgd1na2vs0mg"},{"bike_id":"aa3c6022-321f-45fd-bf5f-ef01c859c4a9","system_id":"levelo_inurba_marseille","lat":43.29368,"lon":5.37842,"is_reserved":false,"is_disabled":false,"rental_uris":{"android":"levelo://app?vid=aa3c6022-321f-45fd-bf5f-ef01c859c4a9","ios":"levelo://app?vid=aa3c6022-321f-45fd-bf5f-ef01c859c4a9"},"vehicle_type_id":"4","last_reported":1737749391,"current_range_meters":30800,"station_id":"ce4bgjh2rcd13ifvqbf0","pricing_plan_id":"cebpf4jnsgd1na2vs0mg"},{"bike_id":"1751fce2-cf09-42c4-909f-331d932110c8","system_id":"levelo_inurba_marseille","lat":43.30887,"lon":5.39634,"is_reserved":false,"is_disabled":true,"rental_uris":{"android":"levelo://app?vid=1751fce2-cf09-42c4-909f-331d932110c8","ios":"levelo://app?vid=1751fce2-cf09-42c4-909f-331d932110c8"},"vehicle_type_id":"4","last_reported":1737749391,"current_range_meters":22800,"station_id":"ce4bh012rcd13ifvqcv0","pricing_plan_id":"cebpf4jnsgd1na2vs0mg"},{"bike_id":"bd985015-f87a-41f4-a867-d400948c1f14","system_id":"levelo_inurba_marseille","lat":43.28678,"lon":5.38657,"is_reserved":false,"is_disabled":false,"rental_uris":{"android":"levelo://app?vid=bd985015-f87a-41f4-a867-d400948c1f14","ios":"levelo://app?vid=bd985015-f87a-41f4-a867-d400948c1f14"},"vehicle_type_id":"4","last_reported":1737749391,"current_range_meters":14800,"station_id":"ce4bh492rcd13ifvqdug","pricing_plan_id":"cebpf4jnsgd1na2vs0mg"},{"bike_id":"9338641b-a8d4-42f9-8e4d-1cdd8c9b5fa2","system_id":"levelo_inurba_marseille","lat":43.29395,"lon":5.38604,"is_reserved":false,"is_disabled":false,"rental_uris":{"android":"levelo://app?vid=9338641b-a8d4-42f9-8e4d-1cdd8c9b5fa2","ios":"levelo://app?vid=9338641b-a8d4-42f9-8e4d-1cdd8c9b5fa2"},"vehicle_type_id":"4","last_reported":1737749391,"current_range_meters":19200,"station_id":"ce4bh2h2rcd13ifvqdh0","pricing_plan_id":"cebpf4jnsgd1na2vs0mg"},{"bike_id":"fc840760-c6d7-47de-9420-cc3f4b7608bc","system_id":"levelo_inurba_marseille","lat":43.32361,"lon":5.36754,"is_reserved":false,"is_disabled":false,"rental_uris":{"android":"levelo://app?vid=fc840760-c6d7-47de-9420-cc3f4b7608bc","ios":"levelo://app?vid=fc840760-c6d7-47de-9420-cc3f4b7608bc"},"vehicle_type_id":"4","last_reported":1737749391,"current_range_meters":19200,"station_id":"ce4bhsh2rcd13ifvqi2g","pricing_plan_id":"cebpf4jnsgd1na2vs0mg"},{"bike_id":"f4f3e7ac-0023-4912-b256-31f60c64f2c8","system_id":"levelo_inurba_marseille","lat":43.312792,"lon":5.401554,"is_reserved":false,"is_disabled":false,"rental_uris":{"android":"levelo://app?vid=f4f3e7ac-0023-4912-b256-31f60c64f2c8","ios":"levelo://app?vid=f4f3e7ac-0023-4912-b256-31f60c64f2c8"},"vehicle_type_id":"4","last_reported":1737749391,"current_range_meters":38800,"station_id":"ce4bh092rcd13ifvqd30","pricing_plan_id":"cebpf4jnsgd1na2vs0mg"},{"bike_id":"0abc3dc5-6d86-41e6-9d99-f1e4711c7034","system_id":"levelo_inurba_marseille","lat":43.30635,"lon":5.40085,"is_reserved":false,"is_disabled":false,"rental_uris":{"android":"levelo://app?vid=0abc3dc5-6d86-41e6-9d99-f1e4711c7034","ios":"levelo://app?vid=0abc3dc5-6d86-41e6-9d99-f1e4711c7034"},"vehicle_type_id":"4","last_reported":1737749391,"current_range_meters":20000,"station_id":"ce4bh112rcd13ifvqda0","pricing_plan_id":"cebpf4jnsgd1na2vs0mg"},{"bike_id":"254f02cb-745e-4af2-a5b7-80a58abf6b52","system_id":"levelo_inurba_marseille","lat":43.30423,"lon":5.3975,"is_reserved":false,"is_disabled":false,"rental_uris":{"android":"levelo://app?vid=254f02cb-745e-4af2-a5b7-80a58abf6b52","ios":"levelo://app?vid=254f02cb-745e-4af2-a5b7-80a58abf6b52"},"vehicle_type_id":"4","last_reported":1737749391,"current_range_meters":19600,"station_id":"ce4bh092rcd13ifvqd20","pricing_plan_id":"cebpf4jnsgd1na2vs0mg"},{"bike_id":"e7c6bf3d-e34b-4f9f-a800-8d4462a29621","system_id":"levelo_inurba_marseille","lat":43.299,"lon":5.43664,"is_reserved":false,"is_disabled":false,"rental_uris":{"android":"levelo://app?vid=e7c6bf3d-e34b-4f9f-a800-8d4462a29621","ios":"levelo://app?vid=e7c6bf3d-e34b-4f9f-a800-8d4462a29621"},"vehicle_type_id":"4","last_reported":1737749391,"current_range_meters":32400,"station_id":"ce4bhpp2rcd13ifvqhfg","pricing_plan_id":"cebpf4jnsgd1na2vs0mg"},{"bike_id":"9863b7f9-4316-4322-9f6c-3cc66b0448e2","system_id":"levelo_inurba_marseille","lat":43.279439,"lon":5.389008,"is_reserved":false,"is_disabled":true,"rental_uris":{"android":"levelo://app?vid=9863b7f9-4316-4322-9f6c-3cc66b0448e2","ios":"levelo://app?vid=9863b7f9-4316-4322-9f6c-3cc66b0448e2"},"vehicle_type_id":"4","last_reported":1737749391,"current_range_meters":18800,"station_id":"","pricing_plan_id":"cebpf4jnsgd1na2vs0mg"},{"bike_id":"d0e17bfa-f411-4a31-ab65-ef368f03b99f","system_id":"levelo_inurba_marseille","lat":43.26497,"lon":5.39536,"is_reserved":false,"is_disabled":false,"rental_uris":{"android":"levelo://app?vid=d0e17bfa-f411-4a31-ab65-ef368f03b99f","ios":"levelo://app?vid=d0e17bfa-f411-4a31-ab65-ef368f03b99f"},"vehicle_type_id":"4","last_reported":1737749391,"current_range_meters":20400,"station_id":"ce4bhi12rcd13ifvqfq0","pricing_plan_id":"cebpf4jnsgd1na2vs0mg"},{"bike_id":"56969389-8be0-4666-878d-200e3583716f","system_id":"levelo_inurba_marseille","lat":43.29572,"lon":5.39983,"is_reserved":false,"is_disabled":false,"rental_uris":{"android":"levelo://app?vid=56969389-8be0-4666-878d-200e3583716f","ios":"levelo://app?vid=56969389-8be0-4666-878d-200e3583716f"},"vehicle_type_id":"4","last_reported":1737749391,"current_range_meters":7200,"station_id":"ce4bh312rcd13ifvqdj0","pricing_plan_id":"cebpf4jnsgd1na2vs0mg"},{"bike_id":"40276c2b-c10e-42ab-857d-43e7ecb22cd6","system_id":"levelo_inurba_marseille","lat":43.27186,"lon":5.40992,"is_reserved":false,"is_disabled":false,"rental_uris":{"android":"levelo://app?vid=40276c2b-c10e-42ab-857d-43e7ecb22cd6","ios":"levelo://app?vid=40276c2b-c10e-42ab-857d-43e7ecb22cd6"},"vehicle_type_id":"4","last_reported":1737749391,"current_range_meters":36400,"station_id":"ce4bhl12rcd13ifvqgf0","pricing_plan_id":"cebpf4jnsgd1na2vs0mg"},{"bike_id":"86659941-ffd9-411f-852e-4fe613c6ddd2","system_id":"levelo_inurba_marseille","lat":43.29267,"lon":5.38445,"is_reserved":false,"is_disabled":false,"rental_uris":{"android":"levelo://app?vid=86659941-ffd9-411f-852e-4fe613c6ddd2","ios":"levelo://app?vid=86659941-ffd9-411f-852e-4fe613c6ddd2"},"vehicle_type_id":"4","last_reported":1737749391,"current_range_meters":33600,"station_id":"ce4bh692rcd13ifvqea0","pricing_plan_id":"cebpf4jnsgd1na2vs0mg"},{"bike_id":"0661138c-ae09-4831-a5ca-b52ad2ea4fd6","system_id":"levelo_inurba_marseille","lat":43.30933,"lon":5.37255,"is_reserved":false,"is_disabled":false,"rental_uris":{"android":"levelo://app?vid=0661138c-ae09-4831-a5ca-b52ad2ea4fd6","ios":"levelo://app?vid=0661138c-ae09-4831-a5ca-b52ad2ea4fd6"},"vehicle_type_id":"4","last_reported":1737749391,"current_range_meters":8800,"station_id":"","pricing_plan_id":"cebpf4jnsgd1na2vs0mg"},{"bike_id":"47fb93bc-9361-47b9-b715-3f410aa37369","system_id":"levelo_inurba_marseille","lat":43.293,"lon":5.37171,"is_reserved":false,"is_disabled":false,"rental_uris":{"android":"levelo://app?vid=47fb93bc-9361-47b9-b715-3f410aa37369","ios":"levelo://app?vid=47fb93bc-9361-47b9-b715-3f410aa37369"},"vehicle_type_id":"4","last_reported":1737749391,"current_range_meters":8800,"station_id":"ce4bgh92rcd13ifvqb40","pricing_plan_id":"cebpf4jnsgd1na2vs0mg"},{"bike_id":"e98ec1dd-adaf-4e0e-af68-ec43b71cc3c5","system_id":"levelo_inurba_marseille","lat":43.29262,"lon":5.38438,"is_reserved":false,"is_disabled":false,"rental_uris":{"android":"levelo://app?vid=e98ec1dd-adaf-4e0e-af68-ec43b71cc3c5","ios":"levelo://app?vid=e98ec1dd-adaf-4e0e-af68-ec43b71cc3c5"},"vehicle_type_id":"4","last_reported":1737749391,"current_range_meters":17600,"station_id":"ce4bh692rcd13ifvqea0","pricing_plan_id":"cebpf4jnsgd1na2vs0mg"},{"bike_id":"a4f05d23-5453-47d8-bccb-077c729b02d8","system_id":"levelo_inurba_marseille","lat":43.2892,"lon":5.384131,"is_reserved":false,"is_disabled":false,"rental_uris":{"android":"levelo://app?vid=a4f05d23-5453-47d8-bccb-077c729b02d8","ios":"levelo://app?vid=a4f05d23-5453-47d8-bccb-077c729b02d8"},"vehicle_type_id":"4","last_reported":1737749391,"current_range_meters":38800,"station_id":"ce4bh612rcd13ifvqe6g","pricing_plan_id":"cebpf4jnsgd1na2vs0mg"},{"bike_id":"0c74d10e-a58c-4bb5-9e45-2477fdee641b","system_id":"levelo_inurba_marseille","lat":43.32353,"lon":5.40622,"is_reserved":false,"is_disabled":false,"rental_uris":{"android":"levelo://app?vid=0c74d10e-a58c-4bb5-9e45-2477fdee641b","ios":"levelo://app?vid=0c74d10e-a58c-4bb5-9e45-2477fdee641b"},"vehicle_type_id":"4","last_reported":1737749391,"current_range_meters":21600,"station_id":"ce4bhq92rcd13ifvqhjg","pricing_plan_id":"cebpf4jnsgd1na2vs0mg"},{"bike_id":"4856d81c-63d5-4018-bf83-1c4f94601ec2","system_id":"levelo_inurba_marseille","lat":43.26213,"lon":5.37447,"is_reserved":false,"is_disabled":false,"rental_uris":{"android":"levelo://app?vid=4856d81c-63d5-4018-bf83-1c4f94601ec2","ios":"levelo://app?vid=4856d81c-63d5-4018-bf83-1c4f94601ec2"},"vehicle_type_id":"4","last_reported":1737749391,"current_range_meters":26800,"station_id":"ce4bhgp2rcd13ifvqfc0","pricing_plan_id":"cebpf4jnsgd1na2vs0mg"},{"bike_id":"930cde84-d41b-46b0-a2d7-0c422d06c2fb","system_id":"levelo_inurba_marseille","lat":43.292095,"lon":5.37916,"is_reserved":false,"is_disabled":false,"rental_uris":{"android":"levelo://app?vid=930cde84-d41b-46b0-a2d7-0c422d06c2fb","ios":"levelo://app?vid=930cde84-d41b-46b0-a2d7-0c422d06c2fb"},"vehicle_type_id":"4","last_reported":1737749391,"current_range_meters":28800,"station_id":"ce4bgjh2rcd13ifvqbf0","pricing_plan_id":"cebpf4jnsgd1na2vs0mg"},{"bike_id":"63b8162a-35b2-4e10-b91a-30e5c42129fe","system_id":"levelo_inurba_marseille","lat":43.29266,"lon":5.38442,"is_reserved":false,"is_disabled":false,"rental_uris":{"android":"levelo://app?vid=63b8162a-35b2-4e10-b91a-30e5c42129fe","ios":"levelo://app?vid=63b8162a-35b2-4e10-b91a-30e5c42129fe"},"vehicle_type_id":"4","last_reported":1737749391,"current_range_meters":14800,"station_id":"ce4bh692rcd13ifvqea0","pricing_plan_id":"cebpf4jnsgd1na2vs0mg"},{"bike_id":"c40014d2-0c73-4081-88cf-7519588bb182","system_id":"levelo_inurba_marseille","lat":43.29106,"lon":5.38141,"is_reserved":false,"is_disabled":false,"rental_uris":{"android":"levelo://app?vid=c40014d2-0c73-4081-88cf-7519588bb182","ios":"levelo://app?vid=c40014d2-0c73-4081-88cf-7519588bb182"},"vehicle_type_id":"4","last_reported":1737749391,"current_range_meters":38000,"station_id":"ce4bh512rcd13ifvqe2g","pricing_plan_id":"cebpf4jnsgd1na2vs0mg"},{"bike_id":"6f0e28ce-024f-4cd7-923a-80deb29961a7","system_id":"levelo_inurba_marseille","lat":43.33028,"lon":5.39036,"is_reserved":false,"is_disabled":false,"rental_uris":{"android":"levelo://app?vid=6f0e28ce-024f-4cd7-923a-80deb29961a7","ios":"levelo://app?vid=6f0e28ce-024f-4cd7-923a-80deb29961a7"},"vehicle_type_id":"4","last_reported":1737749391,"current_range_meters":39200,"station_id":"ce4bhr92rcd13ifvqhrg","pricing_plan_id":"cebpf4jnsgd1na2vs0mg"},{"bike_id":"fb4be88f-e5c7-4f79-bd52-cbe06450b2eb","system_id":"levelo_inurba_marseille","lat":43.28153,"lon":5.42637,"is_reserved":false,"is_disabled":false,"rental_uris":{"android":"levelo://app?vid=fb4be88f-e5c7-4f79-bd52-cbe06450b2eb","ios":"levelo://app?vid=fb4be88f-e5c7-4f79-bd52-cbe06450b2eb"},"vehicle_type_id":"4","last_reported":1737749391,"current_range_meters":36000,"station_id":"ce4bhnh2rcd13ifvqgug","pricing_plan_id":"cebpf4jnsgd1na2vs0mg"},{"bike_id":"a820e2e4-b4ac-43ef-903f-58cc170195ad","system_id":"levelo_inurba_marseille","lat":43.29416,"lon":5.38625,"is_reserved":false,"is_disabled":false,"rental_uris":{"android":"levelo://app?vid=a820e2e4-b4ac-43ef-903f-58cc170195ad","ios":"levelo://app?vid=a820e2e4-b4ac-43ef-903f-58cc170195ad"},"vehicle_type_id":"4","last_reported":1737749391,"current_range_meters":31200,"station_id":"ce4bh2h2rcd13ifvqdh0","pricing_plan_id":"cebpf4jnsgd1na2vs0mg"},{"bike_id":"7c78a755-c7f5-4f07-a96b-621451d47948","system_id":"levelo_inurba_marseille","lat":43.29919,"lon":5.43667,"is_reserved":false,"is_disabled":false,"rental_uris":{"android":"levelo://app?vid=7c78a755-c7f5-4f07-a96b-621451d47948","ios":"levelo://app?vid=7c78a755-c7f5-4f07-a96b-621451d47948"},"vehicle_type_id":"4","last_reported":1737749391,"current_range_meters":38400,"station_id":"ce4bhpp2rcd13ifvqhfg","pricing_plan_id":"cebpf4jnsgd1na2vs0mg"},{"bike_id":"a062ecb7-c16c-4371-9288-a3a3561ee8b2","system_id":"levelo_inurba_marseille","lat":43.28702,"lon":5.37391,"is_reserved":false,"is_disabled":true,"rental_uris":{"android":"levelo://app?vid=a062ecb7-c16c-4371-9288-a3a3561ee8b2","ios":"levelo://app?vid=a062ecb7-c16c-4371-9288-a3a3561ee8b2"},"vehicle_type_id":"4","last_reported":1737749391,"current_range_meters":1200,"station_id":"ce4bh3p2rcd13ifvqdq0","pricing_plan_id":"cebpf4jnsgd1na2vs0mg"},{"bike_id":"7dcae2bc-6e77-45f4-810c-6e3427910691","system_id":"levelo_inurba_marseille","lat":43.29269,"lon":5.3844,"is_reserved":false,"is_disabled":false,"rental_uris":{"android":"levelo://app?vid=7dcae2bc-6e77-45f4-810c-6e3427910691","ios":"levelo://app?vid=7dcae2bc-6e77-45f4-810c-6e3427910691"},"vehicle_type_id":"4","last_reported":1737749391,"current_range_meters":38800,"station_id":"ce4bh692rcd13ifvqea0","pricing_plan_id":"cebpf4jnsgd1na2vs0mg"},{"bike_id":"deb56519-5bd3-433f-8520-373bde6a2970","system_id":"levelo_inurba_marseille","lat":43.29543,"lon":5.38548,"is_reserved":false,"is_disabled":false,"rental_uris":{"android":"levelo://app?vid=deb56519-5bd3-433f-8520-373bde6a2970","ios":"levelo://app?vid=deb56519-5bd3-433f-8520-373bde6a2970"},"vehicle_type_id":"4","last_reported":1737749391,"current_range_meters":34000,"station_id":"ce4bgih2rcd13ifvqba0","pricing_plan_id":"cebpf4jnsgd1na2vs0mg"},{"bike_id":"e21ae435-d26a-4cb5-adce-dbb968db551d","system_id":"levelo_inurba_marseille","lat":43.29423,"lon":5.38604,"is_reserved":false,"is_disabled":false,"rental_uris":{"android":"levelo://app?vid=e21ae435-d26a-4cb5-adce-dbb968db551d","ios":"levelo://app?vid=e21ae435-d26a-4cb5-adce-dbb968db551d"},"vehicle_type_id":"4","last_reported":1737749391,"current_range_meters":25600,"station_id":"ce4bh2h2rcd13ifvqdh0","pricing_plan_id":"cebpf4jnsgd1na2vs0mg"},{"bike_id":"e6c14213-fa2b-405e-a49a-704e5147d088","system_id":"levelo_inurba_marseille","lat":43.29105,"lon":5.38134,"is_reserved":false,"is_disabled":false,"rental_uris":{"android":"levelo://app?vid=e6c14213-fa2b-405e-a49a-704e5147d088","ios":"levelo://app?vid=e6c14213-fa2b-405e-a49a-704e5147d088"},"vehicle_type_id":"4","last_reported":1737749391,"current_range_meters":39200,"station_id":"ce4bh512rcd13ifvqe2g","pricing_plan_id":"cebpf4jnsgd1na2vs0mg"},{"bike_id":"b11414a5-86e5-4af6-af22-fa55543d352b","system_id":"levelo_inurba_marseille","lat":43.24804,"lon":5.37447,"is_reserved":false,"is_disabled":false,"rental_uris":{"android":"levelo://app?vid=b11414a5-86e5-4af6-af22-fa55543d352b","ios":"levelo://app?vid=b11414a5-86e5-4af6-af22-fa55543d352b"},"vehicle_type_id":"4","last_reported":1737749391,"current_range_meters":27200,"station_id":"ce4bhgh2rcd13ifvqfb0","pricing_plan_id":"cebpf4jnsgd1na2vs0mg"},{"bike_id":"6f7e9cc4-edea-452a-8c9b-2b09300d3543","system_id":"levelo_inurba_marseille","lat":43.29412,"lon":5.3863,"is_reserved":false,"is_disabled":false,"rental_uris":{"android":"levelo://app?vid=6f7e9cc4-edea-452a-8c9b-2b09300d3543","ios":"levelo://app?vid=6f7e9cc4-edea-452a-8c9b-2b09300d3543"},"vehicle_type_id":"4","last_reported":1737749391,"current_range_meters":37600,"station_id":"ce4bh2h2rcd13ifvqdh0","pricing_plan_id":"cebpf4jnsgd1na2vs0mg"},{"bike_id":"b47a221b-846b-40c0-9124-8ee919d782f8","system_id":"levelo_inurba_marseille","lat":43.295184,"lon":5.390378,"is_reserved":false,"is_disabled":false,"rental_uris":{"android":"levelo://app?vid=b47a221b-846b-40c0-9124-8ee919d782f8","ios":"levelo://app?vid=b47a221b-846b-40c0-9124-8ee919d782f8"},"vehicle_type_id":"4","last_reported":1737749391,"current_range_meters":36400,"station_id":"ce4bh3p2rcd13ifvqdp0","pricing_plan_id":"cebpf4jnsgd1na2vs0mg"},{"bike_id":"ee046f58-ab58-4c02-90c8-725b6c76749c","system_id":"levelo_inurba_marseille","lat":43.29688,"lon":5.37288,"is_reserved":false,"is_disabled":false,"rental_uris":{"android":"levelo://app?vid=ee046f58-ab58-4c02-90c8-725b6c76749c","ios":"levelo://app?vid=ee046f58-ab58-4c02-90c8-725b6c76749c"},"vehicle_type_id":"4","last_reported":1737749391,"current_range_meters":26000,"station_id":"ce4bgk12rcd13ifvqbj0","pricing_plan_id":"cebpf4jnsgd1na2vs0mg"},{"bike_id":"27e9eb13-1e5a-4bd0-8331-3345530224d2","system_id":"levelo_inurba_marseille","lat":43.28697,"lon":5.38674,"is_reserved":false,"is_disabled":false,"rental_uris":{"android":"levelo://app?vid=27e9eb13-1e5a-4bd0-8331-3345530224d2","ios":"levelo://app?vid=27e9eb13-1e5a-4bd0-8331-3345530224d2"},"vehicle_type_id":"4","last_reported":1737749391,"current_range_meters":38800,"station_id":"ce4bh492rcd13ifvqdug","pricing_plan_id":"cebpf4jnsgd1na2vs0mg"},{"bike_id":"1f2bd8a0-3ae2-4aa9-823c-a0a7750c5221","system_id":"levelo_inurba_marseille","lat":43.24548,"lon":5.39519,"is_reserved":false,"is_disabled":false,"rental_uris":{"android":"levelo://app?vid=1f2bd8a0-3ae2-4aa9-823c-a0a7750c5221","ios":"levelo://app?vid=1f2bd8a0-3ae2-4aa9-823c-a0a7750c5221"},"vehicle_type_id":"4","last_reported":1737749391,"current_range_meters":39200,"station_id":"ce4bhlp2rcd13ifvqgjg","pricing_plan_id":"cebpf4jnsgd1na2vs0mg"},{"bike_id":"2bec3da4-20a1-4aad-b0fd-5c3a2b716696","system_id":"levelo_inurba_marseille","lat":43.27969,"lon":5.38709,"is_reserved":false,"is_disabled":false,"rental_uris":{"android":"levelo://app?vid=2bec3da4-20a1-4aad-b0fd-5c3a2b716696","ios":"levelo://app?vid=2bec3da4-20a1-4aad-b0fd-5c3a2b716696"},"vehicle_type_id":"4","last_reported":1737749391,"current_range_meters":38000,"station_id":"ce4bhg12rcd13ifvqf80","pricing_plan_id":"cebpf4jnsgd1na2vs0mg"},{"bike_id":"3fd9580d-bac5-4b95-874e-e0ea8386ebe1","system_id":"levelo_inurba_marseille","lat":43.32336,"lon":5.38878,"is_reserved":false,"is_disabled":false,"rental_uris":{"android":"levelo://app?vid=3fd9580d-bac5-4b95-874e-e0ea8386ebe1","ios":"levelo://app?vid=3fd9580d-bac5-4b95-874e-e0ea8386ebe1"},"vehicle_type_id":"4","last_reported":1737749391,"current_range_meters":32800,"station_id":"ce4bhqp2rcd13ifvqhog","pricing_plan_id":"cebpf4jnsgd1na2vs0mg"},{"bike_id":"637ed82a-cfc6-4776-a5e7-2ce38621ff7f","system_id":"levelo_inurba_marseille","lat":43.27319,"lon":5.39078,"is_reserved":false,"is_disabled":false,"rental_uris":{"android":"levelo://app?vid=637ed82a-cfc6-4776-a5e7-2ce38621ff7f","ios":"levelo://app?vid=637ed82a-cfc6-4776-a5e7-2ce38621ff7f"},"vehicle_type_id":"4","last_reported":1737749391,"current_range_meters":24800,"station_id":"ce4bhgp2rcd13ifvqfe0","pricing_plan_id":"cebpf4jnsgd1na2vs0mg"},{"bike_id":"fde1d30b-108a-4c10-af22-5d650d321606","system_id":"levelo_inurba_marseille","lat":43.29422,"lon":5.38621,"is_reserved":false,"is_disabled":false,"rental_uris":{"android":"levelo://app?vid=fde1d30b-108a-4c10-af22-5d650d321606","ios":"levelo://app?vid=fde1d30b-108a-4c10-af22-5d650d321606"},"vehicle_type_id":"4","last_reported":1737749391,"current_range_meters":27600,"station_id":"ce4bh2h2rcd13ifvqdh0","pricing_plan_id":"cebpf4jnsgd1na2vs0mg"},{"bike_id":"9e35e062-68ce-415d-b4b2-b4ea9deeb06e","system_id":"levelo_inurba_marseille","lat":43.32283,"lon":5.38277,"is_reserved":false,"is_disabled":false,"rental_uris":{"android":"levelo://app?vid=9e35e062-68ce-415d-b4b2-b4ea9deeb06e","ios":"levelo://app?vid=9e35e062-68ce-415d-b4b2-b4ea9deeb06e"},"vehicle_type_id":"4","last_reported":1737749391,"current_range_meters":28000,"station_id":"ce4bhr12rcd13ifvqhqg","pricing_plan_id":"cebpf4jnsgd1na2vs0mg"},{"bike_id":"97938907-d01f-4606-9a1e-69268ff3e9ee","system_id":"levelo_inurba_marseille","lat":43.293025,"lon":5.374612,"is_reserved":false,"is_disabled":false,"rental_uris":{"android":"levelo://app?vid=97938907-d01f-4606-9a1e-69268ff3e9ee","ios":"levelo://app?vid=97938907-d01f-4606-9a1e-69268ff3e9ee"},"vehicle_type_id":"4","last_reported":1737749391,"current_range_meters":28800,"station_id":"ce4bgi12rcd13ifvqb70","pricing_plan_id":"cebpf4jnsgd1na2vs0mg"},{"bike_id":"fe3679b4-09f6-4e41-9aae-9d00892cb93e","system_id":"levelo_inurba_marseille","lat":43.232,"lon":5.35542,"is_reserved":false,"is_disabled":false,"rental_uris":{"android":"levelo://app?vid=fe3679b4-09f6-4e41-9aae-9d00892cb93e","ios":"levelo://app?vid=fe3679b4-09f6-4e41-9aae-9d00892cb93e"},"vehicle_type_id":"4","last_reported":1737749391,"current_range_meters":16400,"station_id":"ce4bhu92rcd13ifvqi70","pricing_plan_id":"cebpf4jnsgd1na2vs0mg"},{"bike_id":"d95e095d-257b-4ad9-bb5e-42db68166e5b","system_id":"levelo_inurba_marseille","lat":43.29438,"lon":5.38617,"is_reserved":false,"is_disabled":false,"rental_uris":{"android":"levelo://app?vid=d95e095d-257b-4ad9-bb5e-42db68166e5b","ios":"levelo://app?vid=d95e095d-257b-4ad9-bb5e-42db68166e5b"},"vehicle_type_id":"4","last_reported":1737749391,"current_range_meters":34000,"station_id":"ce4bh2h2rcd13ifvqdh0","pricing_plan_id":"cebpf4jnsgd1na2vs0mg"},{"bike_id":"bb59c75c-b10e-4c5c-b6ea-6be79d6de009","system_id":"levelo_inurba_marseille","lat":43.2927,"lon":5.38442,"is_reserved":false,"is_disabled":false,"rental_uris":{"android":"levelo://app?vid=bb59c75c-b10e-4c5c-b6ea-6be79d6de009","ios":"levelo://app?vid=bb59c75c-b10e-4c5c-b6ea-6be79d6de009"},"vehicle_type_id":"4","last_reported":1737749391,"current_range_meters":38400,"station_id":"ce4bh692rcd13ifvqea0","pricing_plan_id":"cebpf4jnsgd1na2vs0mg"},{"bike_id":"4cde7ab0-8cde-44a8-845a-af2674211f66","system_id":"levelo_inurba_marseille","lat":43.28475,"lon":5.38405,"is_reserved":false,"is_disabled":false,"rental_uris":{"android":"levelo://app?vid=4cde7ab0-8cde-44a8-845a-af2674211f66","ios":"levelo://app?vid=4cde7ab0-8cde-44a8-845a-af2674211f66"},"vehicle_type_id":"4","last_reported":1737749391,"current_range_meters":24800,"station_id":"ce4bh512rcd13ifvqe3g","pricing_plan_id":"cebpf4jnsgd1na2vs0mg"},{"bike_id":"1fa3ed75-21f9-4b4a-a2ad-a96d5bf08b88","system_id":"levelo_inurba_marseille","lat":43.29435,"lon":5.38608,"is_reserved":false,"is_disabled":true,"rental_uris":{"android":"levelo://app?vid=1fa3ed75-21f9-4b4a-a2ad-a96d5bf08b88","ios":"levelo://app?vid=1fa3ed75-21f9-4b4a-a2ad-a96d5bf08b88"},"vehicle_type_id":"4","last_reported":1737749391,"current_range_meters":0,"station_id":"ce4bh2h2rcd13ifvqdh0","pricing_plan_id":"cebpf4jnsgd1na2vs0mg"},{"bike_id":"f1306753-0741-4054-bb1e-176ba35f7013","system_id":"levelo_inurba_marseille","lat":43.24812,"lon":5.37471,"is_reserved":false,"is_disabled":false,"rental_uris":{"android":"levelo://app?vid=f1306753-0741-4054-bb1e-176ba35f7013","ios":"levelo://app?vid=f1306753-0741-4054-bb1e-176ba35f7013"},"vehicle_type_id":"4","last_reported":1737749391,"current_range_meters":9600,"station_id":"ce4bhgh2rcd13ifvqfb0","pricing_plan_id":"cebpf4jnsgd1na2vs0mg"},{"bike_id":"ebd62006-9f8e-4cff-90aa-b0d7252cc261","system_id":"levelo_inurba_marseille","lat":43.31712,"lon":5.37736,"is_reserved":false,"is_disabled":false,"rental_uris":{"android":"levelo://app?vid=ebd62006-9f8e-4cff-90aa-b0d7252cc261","ios":"levelo://app?vid=ebd62006-9f8e-4cff-90aa-b0d7252cc261"},"vehicle_type_id":"4","last_reported":1737749391,"current_range_meters":38800,"station_id":"ce4bgth2rcd13ifvqch0","pricing_plan_id":"cebpf4jnsgd1na2vs0mg"},{"bike_id":"52992c76-e8f1-43a9-8a4e-0d88bd811a27","system_id":"levelo_inurba_marseille","lat":43.29622,"lon":5.37167,"is_reserved":false,"is_disabled":false,"rental_uris":{"android":"levelo://app?vid=52992c76-e8f1-43a9-8a4e-0d88bd811a27","ios":"levelo://app?vid=52992c76-e8f1-43a9-8a4e-0d88bd811a27"},"vehicle_type_id":"4","last_reported":1737749391,"current_range_meters":27600,"station_id":"ce4bgnh2rcd13ifvqc0g","pricing_plan_id":"cebpf4jnsgd1na2vs0mg"},{"bike_id":"16cba4e1-cb10-44ef-b1a1-eca95385335f","system_id":"levelo_inurba_marseille","lat":43.28415,"lon":5.34988,"is_reserved":false,"is_disabled":true,"rental_uris":{"android":"levelo://app?vid=16cba4e1-cb10-44ef-b1a1-eca95385335f","ios":"levelo://app?vid=16cba4e1-cb10-44ef-b1a1-eca95385335f"},"vehicle_type_id":"4","last_reported":1737749391,"current_range_meters":20400,"station_id":"ce4bhbh2rcd13ifvqepg","pricing_plan_id":"cebpf4jnsgd1na2vs0mg"},{"bike_id":"9ee3d3c0-2553-4861-bc97-42b6c5069bb3","system_id":"levelo_inurba_marseille","lat":43.2849,"lon":5.42279,"is_reserved":false,"is_disabled":false,"rental_uris":{"android":"levelo://app?vid=9ee3d3c0-2553-4861-bc97-42b6c5069bb3","ios":"levelo://app?vid=9ee3d3c0-2553-4861-bc97-42b6c5069bb3"},"vehicle_type_id":"4","last_reported":1737749391,"current_range_meters":26000,"station_id":"","pricing_plan_id":"cebpf4jnsgd1na2vs0mg"},{"bike_id":"f28ba890-238b-4b5f-bd7e-486eac4f3d1b","system_id":"levelo_inurba_marseille","lat":43.29268,"lon":5.38437,"is_reserved":false,"is_disabled":false,"rental_uris":{"android":"levelo://app?vid=f28ba890-238b-4b5f-bd7e-486eac4f3d1b","ios":"levelo://app?vid=f28ba890-238b-4b5f-bd7e-486eac4f3d1b"},"vehicle_type_id":"4","last_reported":1737749391,"current_range_meters":9200,"station_id":"ce4bh692rcd13ifvqea0","pricing_plan_id":"cebpf4jnsgd1na2vs0mg"},{"bike_id":"1627e98a-ace6-44d9-9f71-287f420a447c","system_id":"levelo_inurba_marseille","lat":43.29284,"lon":5.37433,"is_reserved":false,"is_disabled":false,"rental_uris":{"android":"levelo://app?vid=1627e98a-ace6-44d9-9f71-287f420a447c","ios":"levelo://app?vid=1627e98a-ace6-44d9-9f71-287f420a447c"},"vehicle_type_id":"4","last_reported":1737749391,"current_range_meters":28400,"station_id":"ce4bgi12rcd13ifvqb70","pricing_plan_id":"cebpf4jnsgd1na2vs0mg"},{"bike_id":"300ca8ab-ccdc-48a2-97a2-89d2d556e8dc","system_id":"levelo_inurba_marseille","lat":43.2942,"lon":5.38623,"is_reserved":false,"is_disabled":false,"rental_uris":{"android":"levelo://app?vid=300ca8ab-ccdc-48a2-97a2-89d2d556e8dc","ios":"levelo://app?vid=300ca8ab-ccdc-48a2-97a2-89d2d556e8dc"},"vehicle_type_id":"4","last_reported":1737749391,"current_range_meters":34000,"station_id":"ce4bh2h2rcd13ifvqdh0","pricing_plan_id":"cebpf4jnsgd1na2vs0mg"},{"bike_id":"6fa0d9c9-44ab-4b64-bb91-291c08691d77","system_id":"levelo_inurba_marseille","lat":43.33028,"lon":5.39041,"is_reserved":false,"is_disabled":false,"rental_uris":{"android":"levelo://app?vid=6fa0d9c9-44ab-4b64-bb91-291c08691d77","ios":"levelo://app?vid=6fa0d9c9-44ab-4b64-bb91-291c08691d77"},"vehicle_type_id":"4","last_reported":1737749391,"current_range_meters":38800,"station_id":"ce4bhr92rcd13ifvqhrg","pricing_plan_id":"cebpf4jnsgd1na2vs0mg"},{"bike_id":"cfdcc5c9-ec26-4c34-a85a-37bad3b3a8f0","system_id":"levelo_inurba_marseille","lat":43.29964,"lon":5.38498,"is_reserved":false,"is_disabled":false,"rental_uris":{"android":"levelo://app?vid=cfdcc5c9-ec26-4c34-a85a-37bad3b3a8f0","ios":"levelo://app?vid=cfdcc5c9-ec26-4c34-a85a-37bad3b3a8f0"},"vehicle_type_id":"4","last_reported":1737749391,"current_range_meters":34800,"station_id":"ce4bgj92rcd13ifvqbd0","pricing_plan_id":"cebpf4jnsgd1na2vs0mg"},{"bike_id":"209a1569-01ac-4fff-97a7-34a29e8a68c2","system_id":"levelo_inurba_marseille","lat":43.32289,"lon":5.38225,"is_reserved":false,"is_disabled":false,"rental_uris":{"android":"levelo://app?vid=209a1569-01ac-4fff-97a7-34a29e8a68c2","ios":"levelo://app?vid=209a1569-01ac-4fff-97a7-34a29e8a68c2"},"vehicle_type_id":"4","last_reported":1737749391,"current_range_meters":39200,"station_id":"ce4bhr12rcd13ifvqhqg","pricing_plan_id":"cebpf4jnsgd1na2vs0mg"},{"bike_id":"c7cc5289-5e74-4eeb-a4be-1042ece43e7c","system_id":"levelo_inurba_marseille","lat":43.31704,"lon":5.37779,"is_reserved":false,"is_disabled":false,"rental_uris":{"android":"levelo://app?vid=c7cc5289-5e74-4eeb-a4be-1042ece43e7c","ios":"levelo://app?vid=c7cc5289-5e74-4eeb-a4be-1042ece43e7c"},"vehicle_type_id":"4","last_reported":1737749391,"current_range_meters":32000,"station_id":"ce4bgth2rcd13ifvqch0","pricing_plan_id":"cebpf4jnsgd1na2vs0mg"},{"bike_id":"8d592ad6-5d36-45af-bbcf-3e910c9ec438","system_id":"levelo_inurba_marseille","lat":43.28702,"lon":5.37386,"is_reserved":false,"is_disabled":false,"rental_uris":{"android":"levelo://app?vid=8d592ad6-5d36-45af-bbcf-3e910c9ec438","ios":"levelo://app?vid=8d592ad6-5d36-45af-bbcf-3e910c9ec438"},"vehicle_type_id":"4","last_reported":1737749391,"current_range_meters":24800,"station_id":"ce4bh3p2rcd13ifvqdq0","pricing_plan_id":"cebpf4jnsgd1na2vs0mg"},{"bike_id":"45b366a6-6abc-4401-bb9e-1aee69db2cae","system_id":"levelo_inurba_marseille","lat":43.28093,"lon":5.39646,"is_reserved":false,"is_disabled":false,"rental_uris":{"android":"levelo://app?vid=45b366a6-6abc-4401-bb9e-1aee69db2cae","ios":"levelo://app?vid=45b366a6-6abc-4401-bb9e-1aee69db2cae"},"vehicle_type_id":"4","last_reported":1737749391,"current_range_meters":30800,"station_id":"ce4bho12rcd13ifvqh2g","pricing_plan_id":"cebpf4jnsgd1na2vs0mg"},{"bike_id":"aa54f200-3fc9-43f9-ae65-d4ac497f7007","system_id":"levelo_inurba_marseille","lat":43.24548,"lon":5.3952,"is_reserved":false,"is_disabled":false,"rental_uris":{"android":"levelo://app?vid=aa54f200-3fc9-43f9-ae65-d4ac497f7007","ios":"levelo://app?vid=aa54f200-3fc9-43f9-ae65-d4ac497f7007"},"vehicle_type_id":"4","last_reported":1737749391,"current_range_meters":22400,"station_id":"ce4bhlp2rcd13ifvqgjg","pricing_plan_id":"cebpf4jnsgd1na2vs0mg"},{"bike_id":"d4e29a13-e1df-4c74-aa83-2de9cfc4971a","system_id":"levelo_inurba_marseille","lat":43.29868,"lon":5.38897,"is_reserved":false,"is_disabled":false,"rental_uris":{"android":"levelo://app?vid=d4e29a13-e1df-4c74-aa83-2de9cfc4971a","ios":"levelo://app?vid=d4e29a13-e1df-4c74-aa83-2de9cfc4971a"},"vehicle_type_id":"4","last_reported":1737749391,"current_range_meters":12000,"station_id":"ce4bh392rcd13ifvqdl0","pricing_plan_id":"cebpf4jnsgd1na2vs0mg"},{"bike_id":"30d57833-60f6-48cb-8c6a-7320b693c570","system_id":"levelo_inurba_marseille","lat":43.28468,"lon":5.3589,"is_reserved":false,"is_disabled":false,"rental_uris":{"android":"levelo://app?vid=30d57833-60f6-48cb-8c6a-7320b693c570","ios":"levelo://app?vid=30d57833-60f6-48cb-8c6a-7320b693c570"},"vehicle_type_id":"4","last_reported":1737749391,"current_range_meters":35600,"station_id":"ce4bhah2rcd13ifvqei0","pricing_plan_id":"cebpf4jnsgd1na2vs0mg"},{"bike_id":"6d57b10b-816d-48e8-b34b-f93bfa59355f","system_id":"levelo_inurba_marseille","lat":43.33024,"lon":5.39048,"is_reserved":false,"is_disabled":false,"rental_uris":{"android":"levelo://app?vid=6d57b10b-816d-48e8-b34b-f93bfa59355f","ios":"levelo://app?vid=6d57b10b-816d-48e8-b34b-f93bfa59355f"},"vehicle_type_id":"4","last_reported":1737749391,"current_range_meters":28800,"station_id":"ce4bhr92rcd13ifvqhrg","pricing_plan_id":"cebpf4jnsgd1na2vs0mg"},{"bike_id":"f4a67fd7-7ba0-462e-b321-724410a83bc3","system_id":"levelo_inurba_marseille","lat":43.28625,"lon":5.35045,"is_reserved":false,"is_disabled":true,"rental_uris":{"android":"levelo://app?vid=f4a67fd7-7ba0-462e-b321-724410a83bc3","ios":"levelo://app?vid=f4a67fd7-7ba0-462e-b321-724410a83bc3"},"vehicle_type_id":"4","last_reported":1737749391,"current_range_meters":20400,"station_id":"ce4bhch2rcd13ifvqeug","pricing_plan_id":"cebpf4jnsgd1na2vs0mg"},{"bike_id":"841a1767-078e-4378-8ef2-78843610d635","system_id":"levelo_inurba_marseille","lat":43.23191,"lon":5.3555,"is_reserved":false,"is_disabled":false,"rental_uris":{"android":"levelo://app?vid=841a1767-078e-4378-8ef2-78843610d635","ios":"levelo://app?vid=841a1767-078e-4378-8ef2-78843610d635"},"vehicle_type_id":"4","last_reported":1737749391,"current_range_meters":10000,"station_id":"ce4bhu92rcd13ifvqi70","pricing_plan_id":"cebpf4jnsgd1na2vs0mg"},{"bike_id":"d531adb9-2312-4b34-a321-08be0fda69cf","system_id":"levelo_inurba_marseille","lat":43.29564,"lon":5.40035,"is_reserved":false,"is_disabled":true,"rental_uris":{"android":"levelo://app?vid=d531adb9-2312-4b34-a321-08be0fda69cf","ios":"levelo://app?vid=d531adb9-2312-4b34-a321-08be0fda69cf"},"vehicle_type_id":"4","last_reported":1737749391,"current_range_meters":0,"station_id":"","pricing_plan_id":"cebpf4jnsgd1na2vs0mg"},{"bike_id":"9834e6e6-3f7d-42a4-b7db-1b6a1cc90ef9","system_id":"levelo_inurba_marseille","lat":43.3081,"lon":5.43536,"is_reserved":false,"is_disabled":false,"rental_uris":{"android":"levelo://app?vid=9834e6e6-3f7d-42a4-b7db-1b6a1cc90ef9","ios":"levelo://app?vid=9834e6e6-3f7d-42a4-b7db-1b6a1cc90ef9"},"vehicle_type_id":"4","last_reported":1737749391,"current_range_meters":37600,"station_id":"ce4bhph2rcd13ifvqheg","pricing_plan_id":"cebpf4jnsgd1na2vs0mg"},{"bike_id":"71ff8398-5124-48b7-9208-3660fbca47ca","system_id":"levelo_inurba_marseille","lat":43.29277,"lon":5.38431,"is_reserved":false,"is_disabled":false,"rental_uris":{"android":"levelo://app?vid=71ff8398-5124-48b7-9208-3660fbca47ca","ios":"levelo://app?vid=71ff8398-5124-48b7-9208-3660fbca47ca"},"vehicle_type_id":"4","last_reported":1737749391,"current_range_meters":36800,"station_id":"ce4bh692rcd13ifvqea0","pricing_plan_id":"cebpf4jnsgd1na2vs0mg"},{"bike_id":"5fb18942-60c7-4c76-b45a-09d569596110","system_id":"levelo_inurba_marseille","lat":43.30917,"lon":5.36845,"is_reserved":false,"is_disabled":false,"rental_uris":{"android":"levelo://app?vid=5fb18942-60c7-4c76-b45a-09d569596110","ios":"levelo://app?vid=5fb18942-60c7-4c76-b45a-09d569596110"},"vehicle_type_id":"4","last_reported":1737749391,"current_range_meters":39200,"station_id":"ce4bgn92rcd13ifvqbvg","pricing_plan_id":"cebpf4jnsgd1na2vs0mg"},{"bike_id":"a12ae140-7d40-4453-aee3-1f900eeb57d0","system_id":"levelo_inurba_marseille","lat":43.31718,"lon":5.42393,"is_reserved":false,"is_disabled":false,"rental_uris":{"android":"levelo://app?vid=a12ae140-7d40-4453-aee3-1f900eeb57d0","ios":"levelo://app?vid=a12ae140-7d40-4453-aee3-1f900eeb57d0"},"vehicle_type_id":"4","last_reported":1737749391,"current_range_meters":38800,"station_id":"ce4bhp92rcd13ifvqhbg","pricing_plan_id":"cebpf4jnsgd1na2vs0mg"},{"bike_id":"afd53ee7-c48e-4c7a-9b64-51b0a9bab2be","system_id":"levelo_inurba_marseille","lat":43.29892,"lon":5.36398,"is_reserved":false,"is_disabled":false,"rental_uris":{"android":"levelo://app?vid=afd53ee7-c48e-4c7a-9b64-51b0a9bab2be","ios":"levelo://app?vid=afd53ee7-c48e-4c7a-9b64-51b0a9bab2be"},"vehicle_type_id":"4","last_reported":1737749391,"current_range_meters":28000,"station_id":"","pricing_plan_id":"cebpf4jnsgd1na2vs0mg"},{"bike_id":"b8251ef1-9b0a-4e01-aabe-bb9e2fbf5545","system_id":"levelo_inurba_marseille","lat":43.29686,"lon":5.37281,"is_reserved":false,"is_disabled":false,"rental_uris":{"android":"levelo://app?vid=b8251ef1-9b0a-4e01-aabe-bb9e2fbf5545","ios":"levelo://app?vid=b8251ef1-9b0a-4e01-aabe-bb9e2fbf5545"},"vehicle_type_id":"4","last_reported":1737749391,"current_range_meters":26000,"station_id":"ce4bgk12rcd13ifvqbj0","pricing_plan_id":"cebpf4jnsgd1na2vs0mg"},{"bike_id":"2f95791e-70e9-4313-9f23-8419f6f7a3ee","system_id":"levelo_inurba_marseille","lat":43.30612,"lon":5.39356,"is_reserved":false,"is_disabled":false,"rental_uris":{"android":"levelo://app?vid=2f95791e-70e9-4313-9f23-8419f6f7a3ee","ios":"levelo://app?vid=2f95791e-70e9-4313-9f23-8419f6f7a3ee"},"vehicle_type_id":"4","last_reported":1737749391,"current_range_meters":20800,"station_id":"ce4bh0p2rcd13ifvqd80","pricing_plan_id":"cebpf4jnsgd1na2vs0mg"},{"bike_id":"0683b8fa-bf66-4a85-b23f-305b1ef8e2c5","system_id":"levelo_inurba_marseille","lat":43.29886,"lon":5.43662,"is_reserved":false,"is_disabled":true,"rental_uris":{"android":"levelo://app?vid=0683b8fa-bf66-4a85-b23f-305b1ef8e2c5","ios":"levelo://app?vid=0683b8fa-bf66-4a85-b23f-305b1ef8e2c5"},"vehicle_type_id":"4","last_reported":1737749391,"current_range_meters":0,"station_id":"ce4bhpp2rcd13ifvqhfg","pricing_plan_id":"cebpf4jnsgd1na2vs0mg"},{"bike_id":"adce305b-52ab-48ed-b869-88a382f8d738","system_id":"levelo_inurba_marseille","lat":43.24074,"lon":5.37759,"is_reserved":false,"is_disabled":false,"rental_uris":{"android":"levelo://app?vid=adce305b-52ab-48ed-b869-88a382f8d738","ios":"levelo://app?vid=adce305b-52ab-48ed-b869-88a382f8d738"},"vehicle_type_id":"4","last_reported":1737749391,"current_range_meters":32000,"station_id":"ce4bhnp2rcd13ifvqgvg","pricing_plan_id":"cebpf4jnsgd1na2vs0mg"},{"bike_id":"2aa23534-386f-4382-b436-0dfe0e834ca6","system_id":"levelo_inurba_marseille","lat":43.28133,"lon":5.42637,"is_reserved":false,"is_disabled":false,"rental_uris":{"android":"levelo://app?vid=2aa23534-386f-4382-b436-0dfe0e834ca6","ios":"levelo://app?vid=2aa23534-386f-4382-b436-0dfe0e834ca6"},"vehicle_type_id":"4","last_reported":1737749391,"current_range_meters":38800,"station_id":"ce4bhnh2rcd13ifvqgug","pricing_plan_id":"cebpf4jnsgd1na2vs0mg"},{"bike_id":"6ed35c01-0d33-41cd-b624-0252edd72fae","system_id":"levelo_inurba_marseille","lat":43.29712,"lon":5.36596,"is_reserved":false,"is_disabled":false,"rental_uris":{"android":"levelo://app?vid=6ed35c01-0d33-41cd-b624-0252edd72fae","ios":"levelo://app?vid=6ed35c01-0d33-41cd-b624-0252edd72fae"},"vehicle_type_id":"4","last_reported":1737749391,"current_range_meters":21600,"station_id":"ce4bgn12rcd13ifvqbt0","pricing_plan_id":"cebpf4jnsgd1na2vs0mg"},{"bike_id":"6888fca4-0175-402f-96ed-636193527b20","system_id":"levelo_inurba_marseille","lat":43.29429,"lon":5.38641,"is_reserved":false,"is_disabled":false,"rental_uris":{"android":"levelo://app?vid=6888fca4-0175-402f-96ed-636193527b20","ios":"levelo://app?vid=6888fca4-0175-402f-96ed-636193527b20"},"vehicle_type_id":"4","last_reported":1737749391,"current_range_meters":29600,"station_id":"ce4bh2h2rcd13ifvqdh0","pricing_plan_id":"cebpf4jnsgd1na2vs0mg"},