{"last_updated":1678219707,"ttl":30,"version":"2.2","data":{"bikes":[{"bike_id":"33c75530-675d-4fbe-a584-2e636895e9c0","system_id":"levelo_inurba_marseille","lat":43.312239,"lon":5.368562,"is_reserved":false,"is_disabled":false,"rental_uris":{"android":"levelo://app?vid=33c75530-675d-4fbe-a584-2e636895e9c0","ios":"levelo://app?vid=33c75530-675d-4fbe-a584-2e636895e9c0"},"vehicle_type_id":"4","last_reported":1678219707,"current_range_meters":0,"station_id":"ce4bgl92rcd13ifvqbq0","pricing_plan_id":"free"},{"bike_id":"db3fa6ea-f0e6-4be5-b3d9-1fb38e9db5a5","system_id":"levelo_inurba_marseille","lat":43.314811,"lon":5.373103,"is_reserved":false,"is_disabled":false,"rental_uris":{"android":"levelo://app?vid=db3fa6ea-f0e6-4be5-b3d9-1fb38e9db5a5","ios":"levelo://app?vid=db3fa6ea-f0e6-4be5-b3d9-1fb38e9db5a5"},"vehicle_type_id":"4","last_reported":1678219707,"current_range_meters":22400,"station_id":"ce4bgt12rcd13ifvqcd0","pricing_plan_id":"free"},{"bike_id":"7f1d5a76-be38-4f9f-a929-40f9f5242c22","system_id":"levelo_inurba_marseille","lat":43.308614,"lon":5.372098,"is_reserved":false,"is_disabled":false,"rental_uris":{"android":"levelo://app?vid=7f1d5a76-be38-4f9f-a929-40f9f5242c22","ios":"levelo://app?vid=7f1d5a76-be38-4f9f-a929-40f9f5242c22"},"vehicle_type_id":"4","last_reported":1678219707,"current_range_meters":10000,"station_id":"ce4bguh2rcd13ifvqckg","pricing_plan_id":"free"},{"bike_id":"957b08ca-55a8-46bb-b292-d5975c6b5e68","system_id":"levelo_inurba_marseille","lat":43.308614,"lon":5.372098,"is_reserved":false,"is_disabled":false,"rental_uris":{"android":"levelo://app?vid=957b08ca-55a8-46bb-b292-d5975c6b5e68","ios":"levelo://app?vid=957b08ca-55a8-46bb-b292-d5975c6b5e68"},"vehicle_type_id":"4","last_reported":1678219707,"current_range_meters":0,"station_id":"ce4bguh2rcd13ifvqckg","pricing_plan_id":"free"},{"bike_id":"2e7a965b-2886-41e1-89b0-e1e03ad13923","system_id":"levelo_inurba_marseille","lat":43.308614,"lon":5.372098,"is_reserved":false,"is_disabled":false,"rental_uris":{"android":"levelo://app?vid=2e7a965b-2886-41e1-89b0-e1e03ad13923","ios":"levelo://app?vid=2e7a965b-2886-41e1-89b0-e1e03ad13923"},"vehicle_type_id":"4","last_reported":1678219707,"current_range_meters":0,"station_id":"ce4bguh2rcd13ifvqckg","pricing_plan_id":"free"},{"bike_id":"366885e7-9957-445b-ac2b-a3f192571966","system_id":"levelo_inurba_marseille","lat":43.305989,"lon":5.37225,"is_reserved":false,"is_disabled":false,"rental_uris":{"android":"levelo://app?vid=366885e7-9957-445b-ac2b-a3f192571966","ios":"levelo://app?vid=366885e7-9957-445b-ac2b-a3f192571966"},"vehicle_type_id":"4","last_reported":1678219707,"current_range_meters":8000,"station_id":"ce4bgqh2rcd13ifvqc4g","pricing_plan_id":"free"},{"bike_id":"ed6e5b86-0def-456c-86a1-e67d7e755a23","system_id":"levelo_inurba_marseille","lat":43.305989,"lon":5.37225,"is_reserved":false,"is_disabled":false,"rental_uris":{"android":"levelo://app?vid=ed6e5b86-0def-456c-86a1-e67d7e755a23","ios":"levelo://app?vid=ed6e5b86-0def-456c-86a1-e67d7e755a23"},"vehicle_type_id":"4","last_reported":1678219707,"current_range_meters":12800,"station_id":"ce4bgqh2rcd13ifvqc4g","pricing_plan_id":"free"},{"bike_id":"25e1479d-7b14-4248-ab09-3e114980952b","system_id":"levelo_inurba_marseille","lat":43.317075,"lon":5.377367,"is_reserved":false,"is_disabled":false,"rental_uris":{"android":"levelo://app?vid=25e1479d-7b14-4248-ab09-3e114980952b","ios":"levelo://app?vid=25e1479d-7b14-4248-ab09-3e114980952b"},"vehicle_type_id":"4","last_reported":1678219707,"current_range_meters":28000,"station_id":"ce4bgth2rcd13ifvqch0","pricing_plan_id":"free"},{"bike_id":"60a25a6f-4c15-4e38-bd2a-7f03cfc5f5a1","system_id":"levelo_inurba_marseille","lat":43.308015,"lon":5.381577,"is_reserved":false,"is_disabled":false,"rental_uris":{"android":"levelo://app?vid=60a25a6f-4c15-4e38-bd2a-7f03cfc5f5a1","ios":"levelo://app?vid=60a25a6f-4c15-4e38-bd2a-7f03cfc5f5a1"},"vehicle_type_id":"4","last_reported":1678219707,"current_range_meters":0,"station_id":"ce4bgt12rcd13ifvqce0","pricing_plan_id":"free"},{"bike_id":"28de0fdf-06ee-429a-853a-19cd96428346","system_id":"levelo_inurba_marseille","lat":43.313571,"lon":5.384829,"is_reserved":false,"is_disabled":false,"rental_uris":{"android":"levelo://app?vid=28de0fdf-06ee-429a-853a-19cd96428346","ios":"levelo://app?vid=28de0fdf-06ee-429a-853a-19cd96428346"},"vehicle_type_id":"4","last_reported":1678219707,"current_range_meters":2800,"station_id":"ce4bgt92rcd13ifvqcf0","pricing_plan_id":"free"},{"bike_id":"1d139032-931a-4a00-8637-1dc606abaf72","system_id":"levelo_inurba_marseille","lat":43.313571,"lon":5.384829,"is_reserved":false,"is_disabled":false,"rental_uris":{"android":"levelo://app?vid=1d139032-931a-4a00-8637-1dc606abaf72","ios":"levelo://app?vid=1d139032-931a-4a00-8637-1dc606abaf72"},"vehicle_type_id":"4","last_reported":1678219707,"current_range_meters":13600,"station_id":"ce4bgt92rcd13ifvqcf0","pricing_plan_id":"free"},{"bike_id":"cc302250-3623-4a8a-af96-e2ac358862b9","system_id":"levelo_inurba_marseille","lat":43.313593,"lon":5.384937,"is_reserved":false,"is_disabled":false,"rental_uris":{"android":"levelo://app?vid=cc302250-3623-4a8a-af96-e2ac358862b9","ios":"levelo://app?vid=cc302250-3623-4a8a-af96-e2ac358862b9"},"vehicle_type_id":"4","last_reported":1678219707,"current_range_meters":8800,"station_id":"","pricing_plan_id":"free"},{"bike_id":"a49d4473-2d5e-4c39-9c2c-8e07db8bd277","system_id":"levelo_inurba_marseille","lat":43.313571,"lon":5.384829,"is_reserved":false,"is_disabled":false,"rental_uris":{"android":"levelo://app?vid=a49d4473-2d5e-4c39-9c2c-8e07db8bd277","ios":"levelo://app?vid=a49d4473-2d5e-4c39-9c2c-8e07db8bd277"},"vehicle_type_id":"4","last_reported":1678219707,"current_range_meters":16800,"station_id":"ce4bgt92rcd13ifvqcf0","pricing_plan_id":"free"},{"bike_id":"fd522012-f49d-414f-a851-51de114573cb","system_id":"levelo_inurba_marseille","lat":43.298433,"lon":5.362774,"is_reserved":false,"is_disabled":false,"rental_uris":{"android":"levelo://app?vid=fd522012-f49d-414f-a851-51de114573cb","ios":"levelo://app?vid=fd522012-f49d-414f-a851-51de114573cb"},"vehicle_type_id":"4","last_reported":1678219707,"current_range_meters":2000,"station_id":"ce4bgpp2rcd13ifvqc3g","pricing_plan_id":"free"},{"bike_id":"e583c9cf-fce8-4fbf-81d3-76fd139d7eb0","system_id":"levelo_inurba_marseille","lat":43.298433,"lon":5.362774,"is_reserved":false,"is_disabled":false,"rental_uris":{"android":"levelo://app?vid=e583c9cf-fce8-4fbf-81d3-76fd139d7eb0","ios":"levelo://app?vid=e583c9cf-fce8-4fbf-81d3-76fd139d7eb0"},"vehicle_type_id":"4","last_reported":1678219707,"current_range_meters":13200,"station_id":"ce4bgpp2rcd13ifvqc3g","pricing_plan_id":"free"},{"bike_id":"e5a54131-4e65-4c4d-96a9-13ac0bbe783c","system_id":"levelo_inurba_marseille","lat":43.305364,"lon":5.384119,"is_reserved":false,"is_disabled":false,"rental_uris":{"android":"levelo://app?vid=e5a54131-4e65-4c4d-96a9-13ac0bbe783c","ios":"levelo://app?vid=e5a54131-4e65-4c4d-96a9-13ac0bbe783c"},"vehicle_type_id":"4","last_reported":1678219707,"current_range_meters":20800,"station_id":"ce4bgg92rcd13ifvqb30","pricing_plan_id":"free"},{"bike_id":"5ba640e6-c267-468c-86c0-f866895fc2ea","system_id":"levelo_inurba_marseille","lat":43.311722,"lon":5.387247,"is_reserved":false,"is_disabled":false,"rental_uris":{"android":"levelo://app?vid=5ba640e6-c267-468c-86c0-f866895fc2ea","ios":"levelo://app?vid=5ba640e6-c267-468c-86c0-f866895fc2ea"},"vehicle_type_id":"4","last_reported":1678219707,"current_range_meters":4400,"station_id":"ce4bgv12rcd13ifvqcp0","pricing_plan_id":"free"},{"bike_id":"880dee65-5b22-4b9e-b5f1-4b0ba3226ced","system_id":"levelo_inurba_marseille","lat":43.328371,"lon":5.366912,"is_reserved":false,"is_disabled":false,"rental_uris":{"android":"levelo://app?vid=880dee65-5b22-4b9e-b5f1-4b0ba3226ced","ios":"levelo://app?vid=880dee65-5b22-4b9e-b5f1-4b0ba3226ced"},"vehicle_type_id":"4","last_reported":1678219707,"current_range_meters":16400,"station_id":"ce4bhs92rcd13ifvqi0g","pricing_plan_id":"free"},{"bike_id":"e554fe19-0dd7-4786-a1ea-5e84d79718e6","system_id":"levelo_inurba_marseille","lat":43.328371,"lon":5.366912,"is_reserved":false,"is_disabled":false,"rental_uris":{"android":"levelo://app?vid=e554fe19-0dd7-4786-a1ea-5e84d79718e6","ios":"levelo://app?vid=e554fe19-0dd7-4786-a1ea-5e84d79718e6"},"vehicle_type_id":"4","last_reported":1678219707,"current_range_meters":16000,"station_id":"ce4bhs92rcd13ifvqi0g","pricing_plan_id":"free"},{"bike_id":"36d4f49c-720f-4fa0-b108-908cdf3c0741","system_id":"levelo_inurba_marseille","lat":43.32826,"lon":5.36684,"is_reserved":false,"is_disabled":false,"rental_uris":{"android":"levelo://app?vid=36d4f49c-720f-4fa0-b108-908cdf3c0741","ios":"levelo://app?vid=36d4f49c-720f-4fa0-b108-908cdf3c0741"},"vehicle_type_id":"4","last_reported":1678219707,"current_range_meters":5200,"station_id":"ce4bhs92rcd13ifvqi0g","pricing_plan_id":"free"},{"bike_id":"5ef59c72-905c-4c73-9834-87a3086b515a","system_id":"levelo_inurba_marseille","lat":43.328371,"lon":5.366912,"is_reserved":false,"is_disabled":false,"rental_uris":{"android":"levelo://app?vid=5ef59c72-905c-4c73-9834-87a3086b515a","ios":"levelo://app?vid=5ef59c72-905c-4c73-9834-87a3086b515a"},"vehicle_type_id":"4","last_reported":1678219707,"current_range_meters":6400,"station_id":"ce4bhs92rcd13ifvqi0g","pricing_plan_id":"free"},{"bike_id":"86c4f221-bf16-4da5-b1e3-79ba1ac14f6f","system_id":"levelo_inurba_marseille","lat":43.32832,"lon":5.36696,"is_reserved":false,"is_disabled":false,"rental_uris":{"android":"levelo://app?vid=86c4f221-bf16-4da5-b1e3-79ba1ac14f6f","ios":"levelo://app?vid=86c4f221-bf16-4da5-b1e3-79ba1ac14f6f"},"vehicle_type_id":"4","last_reported":1678219707,"current_range_meters":0,"station_id":"ce4bhs92rcd13ifvqi0g","pricing_plan_id":"free"},{"bike_id":"cc44b73e-1fde-4e04-9674-6f985d934bf1","system_id":"levelo_inurba_marseille","lat":43.328371,"lon":5.366912,"is_reserved":false,"is_disabled":false,"rental_uris":{"android":"levelo://app?vid=cc44b73e-1fde-4e04-9674-6f985d934bf1","ios":"levelo://app?vid=cc44b73e-1fde-4e04-9674-6f985d934bf1"},"vehicle_type_id":"4","last_reported":1678219707,"current_range_meters":6400,"station_id":"ce4bhs92rcd13ifvqi0g","pricing_plan_id":"free"},{"bike_id":"67bc581c-fc60-442c-9f37-5332e8b705e7","system_id":"levelo_inurba_marseille","lat":43.296249,"lon":5.371634,"is_reserved":false,"is_disabled":false,"rental_uris":{"android":"levelo://app?vid=67bc581c-fc60-442c-9f37-5332e8b705e7","ios":"levelo://app?vid=67bc581c-fc60-442c-9f37-5332e8b705e7"},"vehicle_type_id":"4","last_reported":1678219707,"current_range_meters":0,"station_id":"","pricing_plan_id":"free"},{"bike_id":"41adfeae-16cf-484a-b2c7-ea5ef1a1f1ad","system_id":"levelo_inurba_marseille","lat":43.29573,"lon":5.367355,"is_reserved":false,"is_disabled":false,"rental_uris":{"android":"levelo://app?vid=41adfeae-16cf-484a-b2c7-ea5ef1a1f1ad","ios":"levelo://app?vid=41adfeae-16cf-484a-b2c7-ea5ef1a1f1ad"},"vehicle_type_id":"4","last_reported":1678219707,"current_range_meters":28400,"station_id":"ce4bgph2rcd13ifvqc2g","pricing_plan_id":"free"},{"bike_id":"b2d7437f-e6c7-485e-b2d1-d8aac9da6d38","system_id":"levelo_inurba_marseille","lat":43.29573,"lon":5.367355,"is_reserved":false,"is_disabled":false,"rental_uris":{"android":"levelo://app?vid=b2d7437f-e6c7-485e-b2d1-d8aac9da6d38","ios":"levelo://app?vid=b2d7437f-e6c7-485e-b2d1-d8aac9da6d38"},"vehicle_type_id":"4","last_reported":1678219707,"current_range_meters":27200,"station_id":"ce4bgph2rcd13ifvqc2g","pricing_plan_id":"free"},{"bike_id":"ddf26907-2a89-40d6-95d5-cef89e9f3f21","system_id":"levelo_inurba_marseille","lat":43.317104,"lon":5.436818,"is_reserved":false,"is_disabled":false,"rental_uris":{"android":"levelo://app?vid=ddf26907-2a89-40d6-95d5-cef89e9f3f21","ios":"levelo://app?vid=ddf26907-2a89-40d6-95d5-cef89e9f3f21"},"vehicle_type_id":"4","last_reported":1678219707,"current_range_meters":31200,"station_id":"ce4bhp92rcd13ifvqhcg","pricing_plan_id":"free"},{"bike_id":"57ca2af2-789e-4368-8a46-db5a0ca087c1","system_id":"levelo_inurba_marseille","lat":43.299028,"lon":5.381509,"is_reserved":false,"is_disabled":false,"rental_uris":{"android":"levelo://app?vid=57ca2af2-789e-4368-8a46-db5a0ca087c1","ios":"levelo://app?vid=57ca2af2-789e-4368-8a46-db5a0ca087c1"},"vehicle_type_id":"4","last_reported":1678219707,"current_range_meters":6000,"station_id":"ce4bgj12rcd13ifvqbc0","pricing_plan_id":"free"},{"bike_id":"427bc106-f4fc-41ee-b5a5-309d6e3df8f7","system_id":"levelo_inurba_marseille","lat":43.299028,"lon":5.381509,"is_reserved":false,"is_disabled":false,"rental_uris":{"android":"levelo://app?vid=427bc106-f4fc-41ee-b5a5-309d6e3df8f7","ios":"levelo://app?vid=427bc106-f4fc-41ee-b5a5-309d6e3df8f7"},"vehicle_type_id":"4","last_reported":1678219707,"current_range_meters":7200,"station_id":"ce4bgj12rcd13ifvqbc0","pricing_plan_id":"free"},{"bike_id":"52ef4202-ea6c-43d5-b206-f0aad6b1a3f5","system_id":"levelo_inurba_marseille","lat":43.299028,"lon":5.381509,"is_reserved":false,"is_disabled":false,"rental_uris":{"android":"levelo://app?vid=52ef4202-ea6c-43d5-b206-f0aad6b1a3f5","ios":"levelo://app?vid=52ef4202-ea6c-43d5-b206-f0aad6b1a3f5"},"vehicle_type_id":"4","last_reported":1678219707,"current_range_meters":400,"station_id":"ce4bgj12rcd13ifvqbc0","pricing_plan_id":"free"},{"bike_id":"cfb86173-90fa-499f-9c6e-46bddab501c5","system_id":"levelo_inurba_marseille","lat":43.299028,"lon":5.381509,"is_reserved":false,"is_disabled":false,"rental_uris":{"android":"levelo://app?vid=cfb86173-90fa-499f-9c6e-46bddab501c5","ios":"levelo://app?vid=cfb86173-90fa-499f-9c6e-46bddab501c5"},"vehicle_type_id":"4","last_reported":1678219707,"current_range_meters":400,"station_id":"ce4bgj12rcd13ifvqbc0","pricing_plan_id":"free"},{"bike_id":"9b31c92f-210b-4904-a34b-7c9b7eb9b0e2","system_id":"levelo_inurba_marseille","lat":43.299028,"lon":5.381509,"is_reserved":false,"is_disabled":false,"rental_uris":{"android":"levelo://app?vid=9b31c92f-210b-4904-a34b-7c9b7eb9b0e2","ios":"levelo://app?vid=9b31c92f-210b-4904-a34b-7c9b7eb9b0e2"},"vehicle_type_id":"4","last_reported":1678219707,"current_range_meters":28000,"station_id":"ce4bgj12rcd13ifvqbc0","pricing_plan_id":"free"},{"bike_id":"c5b13361-2b97-4dc3-86c2-b203682b7c31","system_id":"levelo_inurba_marseille","lat":43.299028,"lon":5.381509,"is_reserved":false,"is_disabled":false,"rental_uris":{"android":"levelo://app?vid=c5b13361-2b97-4dc3-86c2-b203682b7c31","ios":"levelo://app?vid=c5b13361-2b97-4dc3-86c2-b203682b7c31"},"vehicle_type_id":"4","last_reported":1678219707,"current_range_meters":9600,"station_id":"ce4bgj12rcd13ifvqbc0","pricing_plan_id":"free"},{"bike_id":"e9b151b0-d8cf-4338-85bd-2711ea87b4c9","system_id":"levelo_inurba_marseille","lat":43.299028,"lon":5.381509,"is_reserved":false,"is_disabled":false,"rental_uris":{"android":"levelo://app?vid=e9b151b0-d8cf-4338-85bd-2711ea87b4c9","ios":"levelo://app?vid=e9b151b0-d8cf-4338-85bd-2711ea87b4c9"},"vehicle_type_id":"4","last_reported":1678219707,"current_range_meters":20000,"station_id":"ce4bgj12rcd13ifvqbc0","pricing_plan_id":"free"},{"bike_id":"0c5738dd-400d-4e6d-a98c-72fb3d32fcd3","system_id":"levelo_inurba_marseille","lat":43.317557,"lon":5.390173,"is_reserved":false,"is_disabled":false,"rental_uris":{"android":"levelo://app?vid=0c5738dd-400d-4e6d-a98c-72fb3d32fcd3","ios":"levelo://app?vid=0c5738dd-400d-4e6d-a98c-72fb3d32fcd3"},"vehicle_type_id":"4","last_reported":1678219707,"current_range_meters":18800,"station_id":"ce4bhqp2rcd13ifvqhng","pricing_plan_id":"free"},{"bike_id":"a2ce11ea-55ce-415e-8f92-3b4ef0972f23","system_id":"levelo_inurba_marseille","lat":43.31755,"lon":5.39015,"is_reserved":false,"is_disabled":false,"rental_uris":{"android":"levelo://app?vid=a2ce11ea-55ce-415e-8f92-3b4ef0972f23","ios":"levelo://app?vid=a2ce11ea-55ce-415e-8f92-3b4ef0972f23"},"vehicle_type_id":"4","last_reported":1678219707,"current_range_meters":6400,"station_id":"","pricing_plan_id":"free"},{"bike_id":"086bc20d-eeb6-48e8-b296-998a644deee6","system_id":"levelo_inurba_marseille","lat":43.317557,"lon":5.390173,"is_reserved":false,"is_disabled":false,"rental_uris":{"android":"levelo://app?vid=086bc20d-eeb6-48e8-b296-998a644deee6","ios":"levelo://app?vid=086bc20d-eeb6-48e8-b296-998a644deee6"},"vehicle_type_id":"4","last_reported":1678219707,"current_range_meters":27200,"station_id":"ce4bhqp2rcd13ifvqhng","pricing_plan_id":"free"},{"bike_id":"36deac6a-e562-4687-ae0c-4ad7a83049e8","system_id":"levelo_inurba_marseille","lat":43.317557,"lon":5.390173,"is_reserved":false,"is_disabled":false,"rental_uris":{"android":"levelo://app?vid=36deac6a-e562-4687-ae0c-4ad7a83049e8","ios":"levelo://app?vid=36deac6a-e562-4687-ae0c-4ad7a83049e8"},"vehicle_type_id":"4","last_reported":1678219707,"current_range_meters":1200,"station_id":"ce4bhqp2rcd13ifvqhng","pricing_plan_id":"free"},{"bike_id":"abbbe82d-7311-4760-a37b-3827a54cf3d7","system_id":"levelo_inurba_marseille","lat":43.295748,"lon":5.37522,"is_reserved":false,"is_disabled":false,"rental_uris":{"android":"levelo://app?vid=abbbe82d-7311-4760-a37b-3827a54cf3d7","ios":"levelo://app?vid=abbbe82d-7311-4760-a37b-3827a54cf3d7"},"vehicle_type_id":"4","last_reported":1678219707,"current_range_meters":31600,"station_id":"ce4bgh92rcd13ifvqb50","pricing_plan_id":"free"},{"bike_id":"0e9216df-2a3a-4829-a61b-b9483a28a395","system_id":"levelo_inurba_marseille","lat":43.30422,"lon":5.38881,"is_reserved":false,"is_disabled":false,"rental_uris":{"android":"levelo://app?vid=0e9216df-2a3a-4829-a61b-b9483a28a395","ios":"levelo://app?vid=0e9216df-2a3a-4829-a61b-b9483a28a395"},"vehicle_type_id":"4","last_reported":1678219707,"current_range_meters":18800,"station_id":"","pricing_plan_id":"free"},{"bike_id":"05049261-e4a4-414b-8711-cb4281ca11c7","system_id":"levelo_inurba_marseille","lat":43.295748,"lon":5.37522,"is_reserved":false,"is_disabled":false,"rental_uris":{"android":"levelo://app?vid=05049261-e4a4-414b-8711-cb4281ca11c7","ios":"levelo://app?vid=05049261-e4a4-414b-8711-cb4281ca11c7"},"vehicle_type_id":"4","last_reported":1678219707,"current_range_meters":29200,"station_id":"ce4bgh92rcd13ifvqb50","pricing_plan_id":"free"},{"bike_id":"35f9c046-5117-4c6f-b6d9-64aba7e10255","system_id":"levelo_inurba_marseille","lat":43.295748,"lon":5.37522,"is_reserved":false,"is_disabled":false,"rental_uris":{"android":"levelo://app?vid=35f9c046-5117-4c6f-b6d9-64aba7e10255","ios":"levelo://app?vid=35f9c046-5117-4c6f-b6d9-64aba7e10255"},"vehicle_type_id":"4","last_reported":1678219707,"current_range_meters":25600,"station_id":"ce4bgh92rcd13ifvqb50","pricing_plan_id":"free"},{"bike_id":"516d97cc-6dd9-41ca-9041-e275aab04332","system_id":"levelo_inurba_marseille","lat":43.295279,"lon":5.375048,"is_reserved":false,"is_disabled":false,"rental_uris":{"android":"levelo://app?vid=516d97cc-6dd9-41ca-9041-e275aab04332","ios":"levelo://app?vid=516d97cc-6dd9-41ca-9041-e275aab04332"},"vehicle_type_id":"4","last_reported":1678219707,"current_range_meters":28400,"station_id":"ce4bgkp2rcd13ifvqbmg","pricing_plan_id":"free"},{"bike_id":"66b7d011-9499-42eb-b9a1-da339cfc529f","system_id":"levelo_inurba_marseille","lat":43.290779,"lon":5.371482,"is_reserved":false,"is_disabled":false,"rental_uris":{"android":"levelo://app?vid=66b7d011-9499-42eb-b9a1-da339cfc529f","ios":"levelo://app?vid=66b7d011-9499-42eb-b9a1-da339cfc529f"},"vehicle_type_id":"4","last_reported":1678219707,"current_range_meters":12000,"station_id":"ce4bh5p2rcd13ifvqe4g","pricing_plan_id":"free"},{"bike_id":"524d3ba6-dff7-41d0-aee6-f7e53346f08c","system_id":"levelo_inurba_marseille","lat":43.295279,"lon":5.375048,"is_reserved":false,"is_disabled":false,"rental_uris":{"android":"levelo://app?vid=524d3ba6-dff7-41d0-aee6-f7e53346f08c","ios":"levelo://app?vid=524d3ba6-dff7-41d0-aee6-f7e53346f08c"},"vehicle_type_id":"4","last_reported":1678219707,"current_range_meters":16400,"station_id":"ce4bgkp2rcd13ifvqbmg","pricing_plan_id":"free"},{"bike_id":"a6767100-50ec-48db-b611-779169b9f6a8","system_id":"levelo_inurba_marseille","lat":43.299688,"lon":5.384955,"is_reserved":false,"is_disabled":false,"rental_uris":{"android":"levelo://app?vid=a6767100-50ec-48db-b611-779169b9f6a8","ios":"levelo://app?vid=a6767100-50ec-48db-b611-779169b9f6a8"},"vehicle_type_id":"4","last_reported":1678219707,"current_range_meters":6800,"station_id":"","pricing_plan_id":"free"},{"bike_id":"4877fb94-466b-4b82-8abf-052fb1b945ca","system_id":"levelo_inurba_marseille","lat":43.32364,"lon":5.38877,"is_reserved":false,"is_disabled":false,"rental_uris":{"android":"levelo://app?vid=4877fb94-466b-4b82-8abf-052fb1b945ca","ios":"levelo://app?vid=4877fb94-466b-4b82-8abf-052fb1b945ca"},"vehicle_type_id":"4","last_reported":1678219707,"current_range_meters":31600,"station_id":"ce4bhqp2rcd13ifvqhog","pricing_plan_id":"free"},{"bike_id":"6a5c0800-d4a8-411d-8e31-7844a07b7436","system_id":"levelo_inurba_marseille","lat":43.32367,"lon":5.388836,"is_reserved":false,"is_disabled":false,"rental_uris":{"android":"levelo://app?vid=6a5c0800-d4a8-411d-8e31-7844a07b7436","ios":"levelo://app?vid=6a5c0800-d4a8-411d-8e31-7844a07b7436"},"vehicle_type_id":"4","last_reported":1678219707,"current_range_meters":10800,"station_id":"ce4bhqp2rcd13ifvqhog","pricing_plan_id":"free"},{"bike_id":"c19519f0-1de8-4ada-8b55-f694afbd3089","system_id":"levelo_inurba_marseille","lat":43.323651,"lon":5.388816,"is_reserved":false,"is_disabled":false,"rental_uris":{"android":"levelo://app?vid=c19519f0-1de8-4ada-8b55-f694afbd3089","ios":"levelo://app?vid=c19519f0-1de8-4ada-8b55-f694afbd3089"},"vehicle_type_id":"4","last_reported":1678219707,"current_range_meters":18400,"station_id":"ce4bhqp2rcd13ifvqhog","pricing_plan_id":"free"},{"bike_id":"cb81a7a8-1852-49bb-9364-8eda5bf9cd79","system_id":"levelo_inurba_marseille","lat":43.32367,"lon":5.388836,"is_reserved":false,"is_disabled":false,"rental_uris":{"android":"levelo://app?vid=cb81a7a8-1852-49bb-9364-8eda5bf9cd79","ios":"levelo://app?vid=cb81a7a8-1852-49bb-9364-8eda5bf9cd79"},"vehicle_type_id":"4","last_reported":1678219707,"current_range_meters":26000,"station_id":"ce4bhqp2rcd13ifvqhog","pricing_plan_id":"free"},{"bike_id":"875c2b0b-1c1c-4dd5-b6df-1c330bb2e1bf","system_id":"levelo_inurba_marseille","lat":43.32363,"lon":5.38884,"is_reserved":false,"is_disabled":false,"rental_uris":{"android":"levelo://app?vid=875c2b0b-1c1c-4dd5-b6df-1c330bb2e1bf","ios":"levelo://app?vid=875c2b0b-1c1c-4dd5-b6df-1c330bb2e1bf"},"vehicle_type_id":"4","last_reported":1678219707,"current_range_meters":13200,"station_id":"","pricing_plan_id":"free"},{"bike_id":"90d3f984-dc76-4c26-89dc-08ababd0b9f5","system_id":"levelo_inurba_marseille","lat":43.32367,"lon":5.388836,"is_reserved":false,"is_disabled":false,"rental_uris":{"android":"levelo://app?vid=90d3f984-dc76-4c26-89dc-08ababd0b9f5","ios":"levelo://app?vid=90d3f984-dc76-4c26-89dc-08ababd0b9f5"},"vehicle_type_id":"4","last_reported":1678219707,"current_range_meters":9200,"station_id":"ce4bhqp2rcd13ifvqhog","pricing_plan_id":"free"},{"bike_id":"9f8a3e07-b19c-4d8d-8cf6-b5561388c8c2","system_id":"levelo_inurba_marseille","lat":43.32366,"lon":5.388846,"is_reserved":false,"is_disabled":false,"rental_uris":{"android":"levelo://app?vid=9f8a3e07-b19c-4d8d-8cf6-b5561388c8c2","ios":"levelo://app?vid=9f8a3e07-b19c-4d8d-8cf6-b5561388c8c2"},"vehicle_type_id":"4","last_reported":1678219707,"current_range_meters":28800,"station_id":"","pricing_plan_id":"free"},{"bike_id":"4f4ad25a-813d-41af-900e-1838747168ba","system_id":"levelo_inurba_marseille","lat":43.32367,"lon":5.388836,"is_reserved":false,"is_disabled":false,"rental_uris":{"android":"levelo://app?vid=4f4ad25a-813d-41af-900e-1838747168ba","ios":"levelo://app?vid=4f4ad25a-813d-41af-900e-1838747168ba"},"vehicle_type_id":"4","last_reported":1678219707,"current_range_meters":1600,"station_id":"ce4bhqp2rcd13ifvqhog","pricing_plan_id":"free"},{"bike_id":"23de0590-3e36-4134-b60d-082bcfa62f9d","system_id":"levelo_inurba_marseille","lat":43.32367,"lon":5.388836,"is_reserved":false,"is_disabled":false,"rental_uris":{"android":"levelo://app?vid=23de0590-3e36-4134-b60d-082bcfa62f9d","ios":"levelo://app?vid=23de0590-3e36-4134-b60d-082bcfa62f9d"},"vehicle_type_id":"4","last_reported":1678219707,"current_range_meters":10400,"station_id":"ce4bhqp2rcd13ifvqhog","pricing_plan_id":"free"},{"bike_id":"e8b62d11-c899-4e39-b427-4268fce27d3c","system_id":"levelo_inurba_marseille","lat":43.32367,"lon":5.388836,"is_reserved":false,"is_disabled":false,"rental_uris":{"android":"levelo://app?vid=e8b62d11-c899-4e39-b427-4268fce27d3c","ios":"levelo://app?vid=e8b62d11-c899-4e39-b427-4268fce27d3c"},"vehicle_type_id":"4","last_reported":1678219707,"current_range_meters":31600,"station_id":"ce4bhqp2rcd13ifvqhog","pricing_plan_id":"free"},{"bike_id":"f3392d04-c4fc-4beb-9885-e0ad21f71397","system_id":"levelo_inurba_marseille","lat":43.29332,"lon":5.37461,"is_reserved":false,"is_disabled":false,"rental_uris":{"android":"levelo://app?vid=f3392d04-c4fc-4beb-9885-e0ad21f71397","ios":"levelo://app?vid=f3392d04-c4fc-4beb-9885-e0ad21f71397"},"vehicle_type_id":"4","last_reported":1678219707,"current_range_meters":0,"station_id":"","pricing_plan_id":"free"},{"bike_id":"9fa63737-0732-43c7-a5f8-397de469b86d","system_id":"levelo_inurba_marseille","lat":43.305994,"lon":5.393687,"is_reserved":false,"is_disabled":false,"rental_uris":{"android":"levelo://app?vid=9fa63737-0732-43c7-a5f8-397de469b86d","ios":"levelo://app?vid=9fa63737-0732-43c7-a5f8-397de469b86d"},"vehicle_type_id":"4","last_reported":1678219707,"current_range_meters":22000,"station_id":"ce4bh0p2rcd13ifvqd80","pricing_plan_id":"free"},{"bike_id":"86ae958a-25b0-43dd-bf99-a3ef8e051ab8","system_id":"levelo_inurba_marseille","lat":43.305884,"lon":5.393618,"is_reserved":false,"is_disabled":false,"rental_uris":{"android":"levelo://app?vid=86ae958a-25b0-43dd-bf99-a3ef8e051ab8","ios":"levelo://app?vid=86ae958a-25b0-43dd-bf99-a3ef8e051ab8"},"vehicle_type_id":"4","last_reported":1678219707,"current_range_meters":22000,"station_id":"ce4bh0p2rcd13ifvqd80","pricing_plan_id":"free"},{"bike_id":"5cfc4a56-3ce3-4c6d-9e18-2bebdb5a1444","system_id":"levelo_inurba_marseille","lat":43.300852,"lon":5.390859,"is_reserved":false,"is_disabled":false,"rental_uris":{"android":"levelo://app?vid=5cfc4a56-3ce3-4c6d-9e18-2bebdb5a1444","ios":"levelo://app?vid=5cfc4a56-3ce3-4c6d-9e18-2bebdb5a1444"},"vehicle_type_id":"4","last_reported":1678219707,"current_range_meters":24800,"station_id":"ce4bh192rcd13ifvqdb0","pricing_plan_id":"free"},{"bike_id":"d1195bfe-5b63-4b57-96db-b5f1e2f3d5e8","system_id":"levelo_inurba_marseille","lat":43.30097,"lon":5.39076,"is_reserved":false,"is_disabled":false,"rental_uris":{"android":"levelo://app?vid=d1195bfe-5b63-4b57-96db-b5f1e2f3d5e8","ios":"levelo://app?vid=d1195bfe-5b63-4b57-96db-b5f1e2f3d5e8"},"vehicle_type_id":"4","last_reported":1678219707,"current_range_meters":18400,"station_id":"ce4bh192rcd13ifvqdb0","pricing_plan_id":"free"},{"bike_id":"6605f0ce-71e9-4a60-9ec6-ff0e275e816d","system_id":"levelo_inurba_marseille","lat":43.30097,"lon":5.390823,"is_reserved":false,"is_disabled":false,"rental_uris":{"android":"levelo://app?vid=6605f0ce-71e9-4a60-9ec6-ff0e275e816d","ios":"levelo://app?vid=6605f0ce-71e9-4a60-9ec6-ff0e275e816d"},"vehicle_type_id":"4","last_reported":1678219707,"current_range_meters":13200,"station_id":"ce4bh192rcd13ifvqdb0","pricing_plan_id":"free"},{"bike_id":"4fd30a51-4103-4ba0-9139-9d05e89df074","system_id":"levelo_inurba_marseille","lat":43.30093,"lon":5.39084,"is_reserved":false,"is_disabled":false,"rental_uris":{"android":"levelo://app?vid=4fd30a51-4103-4ba0-9139-9d05e89df074","ios":"levelo://app?vid=4fd30a51-4103-4ba0-9139-9d05e89df074"},"vehicle_type_id":"4","last_reported":1678219707,"current_range_meters":4000,"station_id":"ce4bh192rcd13ifvqdb0","pricing_plan_id":"free"},{"bike_id":"7d164c6e-49a3-49de-80a8-b469c642c84a","system_id":"levelo_inurba_marseille","lat":43.30088,"lon":5.39086,"is_reserved":false,"is_disabled":false,"rental_uris":{"android":"levelo://app?vid=7d164c6e-49a3-49de-80a8-b469c642c84a","ios":"levelo://app?vid=7d164c6e-49a3-49de-80a8-b469c642c84a"},"vehicle_type_id":"4","last_reported":1678219707,"current_range_meters":14000,"station_id":"ce4bh192rcd13ifvqdb0","pricing_plan_id":"free"},{"bike_id":"6af14259-4aeb-445d-8db0-27fa3d694c6a","system_id":"levelo_inurba_marseille","lat":43.298764,"lon":5.388973,"is_reserved":false,"is_disabled":false,"rental_uris":{"android":"levelo://app?vid=6af14259-4aeb-445d-8db0-27fa3d694c6a","ios":"levelo://app?vid=6af14259-4aeb-445d-8db0-27fa3d694c6a"},"vehicle_type_id":"4","last_reported":1678219707,"current_range_meters":27200,"station_id":"ce4bh392rcd13ifvqdl0","pricing_plan_id":"free"},{"bike_id":"29fdf510-9ac4-4875-8b72-62bc3bc8f3f1","system_id":"levelo_inurba_marseille","lat":43.298764,"lon":5.388973,"is_reserved":false,"is_disabled":false,"rental_uris":{"android":"levelo://app?vid=29fdf510-9ac4-4875-8b72-62bc3bc8f3f1","ios":"levelo://app?vid=29fdf510-9ac4-4875-8b72-62bc3bc8f3f1"},"vehicle_type_id":"4","last_reported":1678219707,"current_range_meters":5200,"station_id":"ce4bh392rcd13ifvqdl0","pricing_plan_id":"free"},{"bike_id":"0f13337d-4136-45f0-abfb-c7f61f589651","system_id":"levelo_inurba_marseille","lat":43.298764,"lon":5.388973,"is_reserved":false,"is_disabled":false,"rental_uris":{"android":"levelo://app?vid=0f13337d-4136-45f0-abfb-c7f61f589651","ios":"levelo://app?vid=0f13337d-4136-45f0-abfb-c7f61f589651"},"vehicle_type_id":"4","last_reported":1678219707,"current_range_meters":7600,"station_id":"ce4bh392rcd13ifvqdl0","pricing_plan_id":"free"},{"bike_id":"39e49390-a457-48e2-bc0c-766b457b2209","system_id":"levelo_inurba_marseille","lat":43.31328,"lon":5.39693,"is_reserved":false,"is_disabled":false,"rental_uris":{"android":"levelo://app?vid=39e49390-a457-48e2-bc0c-766b457b2209","ios":"levelo://app?vid=39e49390-a457-48e2-bc0c-766b457b2209"},"vehicle_type_id":"4","last_reported":1678219707,"current_range_meters":27600,"station_id":"","pricing_plan_id":"free"},{"bike_id":"f5289260-8660-4b41-8029-24a34f2f28f5","system_id":"levelo_inurba_marseille","lat":43.313291,"lon":5.396838,"is_reserved":false,"is_disabled":false,"rental_uris":{"android":"levelo://app?vid=f5289260-8660-4b41-8029-24a34f2f28f5","ios":"levelo://app?vid=f5289260-8660-4b41-8029-24a34f2f28f5"},"vehicle_type_id":"4","last_reported":1678219707,"current_range_meters":25200,"station_id":"ce4bgvp2rcd13ifvqcu0","pricing_plan_id":"free"},{"bike_id":"d9256199-cd9b-4aca-a2af-1301b91c216a","system_id":"levelo_inurba_marseille","lat":43.313291,"lon":5.396838,"is_reserved":false,"is_disabled":false,"rental_uris":{"android":"levelo://app?vid=d9256199-cd9b-4aca-a2af-1301b91c216a","ios":"levelo://app?vid=d9256199-cd9b-4aca-a2af-1301b91c216a"},"vehicle_type_id":"4","last_reported":1678219707,"current_range_meters":29200,"station_id":"ce4bgvp2rcd13ifvqcu0","pricing_plan_id":"free"},{"bike_id":"967935c5-5620-4dd7-93e8-c76663202f0a","system_id":"levelo_inurba_marseille","lat":43.313291,"lon":5.396838,"is_reserved":false,"is_disabled":false,"rental_uris":{"android":"levelo://app?vid=967935c5-5620-4dd7-93e8-c76663202f0a","ios":"levelo://app?vid=967935c5-5620-4dd7-93e8-c76663202f0a"},"vehicle_type_id":"4","last_reported":1678219707,"current_range_meters":30800,"station_id":"ce4bgvp2rcd13ifvqcu0","pricing_plan_id":"free"},{"bike_id":"824abb22-c18d-4bb2-90a7-88d1b74a3892","system_id":"levelo_inurba_marseille","lat":43.313291,"lon":5.396838,"is_reserved":false,"is_disabled":false,"rental_uris":{"android":"levelo://app?vid=824abb22-c18d-4bb2-90a7-88d1b74a3892","ios":"levelo://app?vid=824abb22-c18d-4bb2-90a7-88d1b74a3892"},"vehicle_type_id":"4","last_reported":1678219707,"current_range_meters":27600,"station_id":"ce4bgvp2rcd13ifvqcu0","pricing_plan_id":"free"},{"bike_id":"34303234-a701-4077-9d01-f6245f8a4a9e","system_id":"levelo_inurba_marseille","lat":43.313291,"lon":5.396838,"is_reserved":false,"is_disabled":false,"rental_uris":{"android":"levelo://app?vid=34303234-a701-4077-9d01-f6245f8a4a9e","ios":"levelo://app?vid=34303234-a701-4077-9d01-f6245f8a4a9e"},"vehicle_type_id":"4","last_reported":1678219707,"current_range_meters":31600,"station_id":"ce4bgvp2rcd13ifvqcu0","pricing_plan_id":"free"},{"bike_id":"94841641-ef14-423a-8550-577250c9fc0e","system_id":"levelo_inurba_marseille","lat":43.313291,"lon":5.396838,"is_reserved":false,"is_disabled":false,"rental_uris":{"android":"levelo://app?vid=94841641-ef14-423a-8550-577250c9fc0e","ios":"levelo://app?vid=94841641-ef14-423a-8550-577250c9fc0e"},"vehicle_type_id":"4","last_reported":1678219707,"current_range_meters":30000,"station_id":"ce4bgvp2rcd13ifvqcu0","pricing_plan_id":"free"},{"bike_id":"1d3bbd22-21aa-4db4-a2e6-324c14e5dba7","system_id":"levelo_inurba_marseille","lat":43.290779,"lon":5.371482,"is_reserved":false,"is_disabled":false,"rental_uris":{"android":"levelo://app?vid=1d3bbd22-21aa-4db4-a2e6-324c14e5dba7","ios":"levelo://app?vid=1d3bbd22-21aa-4db4-a2e6-324c14e5dba7"},"vehicle_type_id":"4","last_reported":1678219707,"current_range_meters":12800,"station_id":"ce4bh5p2rcd13ifvqe4g","pricing_plan_id":"free"},{"bike_id":"6e6a825f-d9a6-476a-8739-0bf2a05a42b5","system_id":"levelo_inurba_marseille","lat":43.302008,"lon":5.394694,"is_reserved":false,"is_disabled":false,"rental_uris":{"android":"levelo://app?vid=6e6a825f-d9a6-476a-8739-0bf2a05a42b5","ios":"levelo://app?vid=6e6a825f-d9a6-476a-8739-0bf2a05a42b5"},"vehicle_type_id":"4","last_reported":1678219707,"current_range_meters":2000,"station_id":"ce4bh0p2rcd13ifvqd70","pricing_plan_id":"free"},{"bike_id":"1b69ad29-8255-47cb-b623-bd865cf58be1","system_id":"levelo_inurba_marseille","lat":43.302008,"lon":5.394694,"is_reserved":false,"is_disabled":false,"rental_uris":{"android":"levelo://app?vid=1b69ad29-8255-47cb-b623-bd865cf58be1","ios":"levelo://app?vid=1b69ad29-8255-47cb-b623-bd865cf58be1"},"vehicle_type_id":"4","last_reported":1678219707,"current_range_meters":0,"station_id":"ce4bh0p2rcd13ifvqd70","pricing_plan_id":"free"},{"bike_id":"9a45f7ba-bce7-4100-ba49-5590972a9d34","system_id":"levelo_inurba_marseille","lat":43.302008,"lon":5.394694,"is_reserved":false,"is_disabled":false,"rental_uris":{"android":"levelo://app?vid=9a45f7ba-bce7-4100-ba49-5590972a9d34","ios":"levelo://app?vid=9a45f7ba-bce7-4100-ba49-5590972a9d34"},"vehicle_type_id":"4","last_reported":1678219707,"current_range_meters":25200,"station_id":"ce4bh0p2rcd13ifvqd70","pricing_plan_id":"free"},{"bike_id":"db2b0f45-580e-4451-863d-535bf12d2fd5","system_id":"levelo_inurba_marseille","lat":43.290624,"lon":5.359245,"is_reserved":false,"is_disabled":false,"rental_uris":{"android":"levelo://app?vid=db2b0f45-580e-4451-863d-535bf12d2fd5","ios":"levelo://app?vid=db2b0f45-580e-4451-863d-535bf12d2fd5"},"vehicle_type_id":"4","last_reported":1678219707,"current_range_meters":6000,"station_id":"ce4bha92rcd13ifvqeg0","pricing_plan_id":"free"},{"bike_id":"3e9cdc92-0068-4977-b8b5-55f80c95b22b","system_id":"levelo_inurba_marseille","lat":43.290319,"lon":5.375732,"is_reserved":false,"is_disabled":false,"rental_uris":{"android":"levelo://app?vid=3e9cdc92-0068-4977-b8b5-55f80c95b22b","ios":"levelo://app?vid=3e9cdc92-0068-4977-b8b5-55f80c95b22b"},"vehicle_type_id":"4","last_reported":1678219707,"current_range_meters":1600,"station_id":"ce4bh692rcd13ifvqe90","pricing_plan_id":"free"},{"bike_id":"86cb099b-243e-4489-af39-9b01cf952355","system_id":"levelo_inurba_marseille","lat":43.289184,"lon":5.366408,"is_reserved":false,"is_disabled":false,"rental_uris":{"android":"levelo://app?vid=86cb099b-243e-4489-af39-9b01cf952355","ios":"levelo://app?vid=86cb099b-243e-4489-af39-9b01cf952355"},"vehicle_type_id":"4","last_reported":1678219707,"current_range_meters":0,"station_id":"ce4bhap2rcd13ifvqek0","pricing_plan_id":"free"},{"bike_id":"5f11e5f6-ca83-419b-98f6-744f738b2557","system_id":"levelo_inurba_marseille","lat":43.289184,"lon":5.366408,"is_reserved":false,"is_disabled":false,"rental_uris":{"android":"levelo://app?vid=5f11e5f6-ca83-419b-98f6-744f738b2557","ios":"levelo://app?vid=5f11e5f6-ca83-419b-98f6-744f738b2557"},"vehicle_type_id":"4","last_reported":1678219707,"current_range_meters":28800,"station_id":"ce4bhap2rcd13ifvqek0","pricing_plan_id":"free"},{"bike_id":"5aeef49c-0dee-48bb-be9e-cc302346c83f","system_id":"levelo_inurba_marseille","lat":43.288853,"lon":5.3652,"is_reserved":false,"is_disabled":false,"rental_uris":{"android":"levelo://app?vid=5aeef49c-0dee-48bb-be9e-cc302346c83f","ios":"levelo://app?vid=5aeef49c-0dee-48bb-be9e-cc302346c83f"},"vehicle_type_id":"4","last_reported":1678219707,"current_range_meters":0,"station_id":"","pricing_plan_id":"free"},{"bike_id":"6db89af2-7af6-453c-8d31-56fde84c8a88","system_id":"levelo_inurba_marseille","lat":43.3304,"lon":5.38919,"is_reserved":false,"is_disabled":false,"rental_uris":{"android":"levelo://app?vid=6db89af2-7af6-453c-8d31-56fde84c8a88","ios":"levelo://app?vid=6db89af2-7af6-453c-8d31-56fde84c8a88"},"vehicle_type_id":"4","last_reported":1678219707,"current_range_meters":24800,"station_id":"ce4bhr92rcd13ifvqhrg","pricing_plan_id":"free"},{"bike_id":"b26ffba4-c2b7-4c32-8449-2472aae121a2","system_id":"levelo_inurba_marseille","lat":43.330442,"lon":5.389148,"is_reserved":false,"is_disabled":false,"rental_uris":{"android":"levelo://app?vid=b26ffba4-c2b7-4c32-8449-2472aae121a2","ios":"levelo://app?vid=b26ffba4-c2b7-4c32-8449-2472aae121a2"},"vehicle_type_id":"4","last_reported":1678219707,"current_range_meters":0,"station_id":"ce4bhr92rcd13ifvqhrg","pricing_plan_id":"free"},{"bike_id":"029da041-4e88-413f-8efc-7e655416b370","system_id":"levelo_inurba_marseille","lat":43.33042,"lon":5.3892,"is_reserved":false,"is_disabled":false,"rental_uris":{"android":"levelo://app?vid=029da041-4e88-413f-8efc-7e655416b370","ios":"levelo://app?vid=029da041-4e88-413f-8efc-7e655416b370"},"vehicle_type_id":"4","last_reported":1678219707,"current_range_meters":6400,"station_id":"","pricing_plan_id":"free"},{"bike_id":"9cc3b4da-56fb-48ca-acee-85e72c702ff2","system_id":"levelo_inurba_marseille","lat":43.29007,"lon":5.35616,"is_reserved":false,"is_disabled":false,"rental_uris":{"android":"levelo://app?vid=9cc3b4da-56fb-48ca-acee-85e72c702ff2","ios":"levelo://app?vid=9cc3b4da-56fb-48ca-acee-85e72c702ff2"},"vehicle_type_id":"4","last_reported":1678219707,"current_range_meters":2800,"station_id":"","pricing_plan_id":"free"},{"bike_id":"d5d1de10-783b-403c-af10-694d1375797b","system_id":"levelo_inurba_marseille","lat":43.33046,"lon":5.38918,"is_reserved":false,"is_disabled":false,"rental_uris":{"android":"levelo://app?vid=d5d1de10-783b-403c-af10-694d1375797b","ios":"levelo://app?vid=d5d1de10-783b-403c-af10-694d1375797b"},"vehicle_type_id":"4","last_reported":1678219707,"current_range_meters":0,"station_id":"ce4bhr92rcd13ifvqhrg","pricing_plan_id":"free"},{"bike_id":"4d1f8d51-c561-482e-b008-521cc34bda56","system_id":"levelo_inurba_marseille","lat":43.33043,"lon":5.38923,"is_reserved":false,"is_disabled":false,"rental_uris":{"android":"levelo://app?vid=4d1f8d51-c561-482e-b008-521cc34bda56","ios":"levelo://app?vid=4d1f8d51-c561-482e-b008-521cc34bda56"},"vehicle_type_id":"4","last_reported":1678219707,"current_range_meters":21600,"station_id":"","pricing_plan_id":"free"},{"bike_id":"6fee2a7e-c39f-482a-808c-46743744b8f6","system_id":"levelo_inurba_marseille","lat":43.291075,"lon":5.381408,"is_reserved":false,"is_disabled":false,"rental_uris":{"android":"levelo://app?vid=6fee2a7e-c39f-482a-808c-46743744b8f6","ios":"levelo://app?vid=6fee2a7e-c39f-482a-808c-46743744b8f6"},"vehicle_type_id":"4","last_reported":1678219707,"current_range_meters":0,"station_id":"","pricing_plan_id":"free"},{"bike_id":"29cfb62b-f694-4ca5-951f-60cdb232dc72","system_id":"levelo_inurba_marseille","lat":43.29099,"lon":5.381346,"is_reserved":false,"is_disabled":false,"rental_uris":{"android":"levelo://app?vid=29cfb62b-f694-4ca5-951f-60cdb232dc72","ios":"levelo://app?vid=29cfb62b-f694-4ca5-951f-60cdb232dc72"},"vehicle_type_id":"4","last_reported":1678219707,"current_range_meters":0,"station_id":"ce4bh512rcd13ifvqe2g","pricing_plan_id":"free"},{"bike_id":"94d626dc-ed7c-4583-ac5a-5b7a188dd00a","system_id":"levelo_inurba_marseille","lat":43.29097,"lon":5.381377,"is_reserved":false,"is_disabled":false,"rental_uris":{"android":"levelo://app?vid=94d626dc-ed7c-4583-ac5a-5b7a188dd00a","ios":"levelo://app?vid=94d626dc-ed7c-4583-ac5a-5b7a188dd00a"},"vehicle_type_id":"4","last_reported":1678219707,"current_range_meters":0,"station_id":"","pricing_plan_id":"free"},{"bike_id":"9d5cea34-894c-4e82-9663-9c4831696269","system_id":"levelo_inurba_marseille","lat":43.289741,"lon":5.378306,"is_reserved":false,"is_disabled":false,"rental_uris":{"android":"levelo://app?vid=9d5cea34-894c-4e82-9663-9c4831696269","ios":"levelo://app?vid=9d5cea34-894c-4e82-9663-9c4831696269"},"vehicle_type_id":"4","last_reported":1678219707,"current_range_meters":19200,"station_id":"ce4bh9p2rcd13ifvqed0","pricing_plan_id":"free"},{"bike_id":"c78f602e-ad07-42f0-87ff-65b273364ce9","system_id":"levelo_inurba_marseille","lat":43.28856,"lon":5.358371,"is_reserved":false,"is_disabled":false,"rental_uris":{"android":"levelo://app?vid=c78f602e-ad07-42f0-87ff-65b273364ce9","ios":"levelo://app?vid=c78f602e-ad07-42f0-87ff-65b273364ce9"},"vehicle_type_id":"4","last_reported":1678219707,"current_range_meters":7200,"station_id":"ce4bhb12rcd13ifvqem0","pricing_plan_id":"free"},{"bike_id":"ec3e6d95-72cd-451f-9af0-77080050a20c","system_id":"levelo_inurba_marseille","lat":43.28856,"lon":5.358371,"is_reserved":false,"is_disabled":false,"rental_uris":{"android":"levelo://app?vid=ec3e6d95-72cd-451f-9af0-77080050a20c","ios":"levelo://app?vid=ec3e6d95-72cd-451f-9af0-77080050a20c"},"vehicle_type_id":"4","last_reported":1678219707,"current_range_meters":31600,"station_id":"ce4bhb12rcd13ifvqem0","pricing_plan_id":"free"},{"bike_id":"47da02e2-750d-4609-bbe7-3b3a1de14ba7","system_id":"levelo_inurba_marseille","lat":43.306412,"lon":5.401035,"is_reserved":false,"is_disabled":false,"rental_uris":{"android":"levelo://app?vid=47da02e2-750d-4609-bbe7-3b3a1de14ba7","ios":"levelo://app?vid=47da02e2-750d-4609-bbe7-3b3a1de14ba7"},"vehicle_type_id":"4","last_reported":1678219707,"current_range_meters":30400,"station_id":"ce4bh112rcd13ifvqda0","pricing_plan_id":"free"},{"bike_id":"cf960bda-8f77-437e-ab10-5a5712200468","system_id":"levelo_inurba_marseille","lat":43.306412,"lon":5.401035,"is_reserved":false,"is_disabled":false,"rental_uris":{"android":"levelo://app?vid=cf960bda-8f77-437e-ab10-5a5712200468","ios":"levelo://app?vid=cf960bda-8f77-437e-ab10-5a5712200468"},"vehicle_type_id":"4","last_reported":1678219707,"current_range_meters":0,"station_id":"ce4bh112rcd13ifvqda0","pricing_plan_id":"free"},{"bike_id":"aed36677-0165-4ba3-b9ee-d6c25539b74b","system_id":"levelo_inurba_marseille","lat":43.30642,"lon":5.401031,"is_reserved":false,"is_disabled":false,"rental_uris":{"android":"levelo://app?vid=aed36677-0165-4ba3-b9ee-d6c25539b74b","ios":"levelo://app?vid=aed36677-0165-4ba3-b9ee-d6c25539b74b"},"vehicle_type_id":"4","last_reported":1678219707,"current_range_meters":10400,"station_id":"ce4bh112rcd13ifvqda0","pricing_plan_id":"free"},{"bike_id":"9025cc1a-ce11-40ea-8951-9e6016a25beb","system_id":"levelo_inurba_marseille","lat":43.30649,"lon":5.40096,"is_reserved":false,"is_disabled":false,"rental_uris":{"android":"levelo://app?vid=9025cc1a-ce11-40ea-8951-9e6016a25beb","ios":"levelo://app?vid=9025cc1a-ce11-40ea-8951-9e6016a25beb"},"vehicle_type_id":"4","last_reported":1678219707,"current_range_meters":30000,"station_id":"","pricing_plan_id":"free"},{"bike_id":"d318d5c6-ba26-4f21-87d3-a37906ba1074","system_id":"levelo_inurba_marseille","lat":43.301117,"lon":5.398795,"is_reserved":false,"is_disabled":false,"rental_uris":{"android":"levelo://app?vid=d318d5c6-ba26-4f21-87d3-a37906ba1074","ios":"levelo://app?vid=d318d5c6-ba26-4f21-87d3-a37906ba1074"},"vehicle_type_id":"4","last_reported":1678219707,"current_range_meters":5600,"station_id":"ce4bh0h2rcd13ifvqd40","pricing_plan_id":"free"},{"bike_id":"5e07e066-3425-457a-a708-2badf5d712fd","system_id":"levelo_inurba_marseille","lat":43.298681,"lon":5.397225,"is_reserved":false,"is_disabled":false,"rental_uris":{"android":"levelo://app?vid=5e07e066-3425-457a-a708-2badf5d712fd","ios":"levelo://app?vid=5e07e066-3425-457a-a708-2badf5d712fd"},"vehicle_type_id":"4","last_reported":1678219707,"current_range_meters":7200,"station_id":"ce4bh0h2rcd13ifvqd50","pricing_plan_id":"free"},{"bike_id":"d19a463c-2069-45c8-8215-70d09746a01e","system_id":"levelo_inurba_marseille","lat":43.286593,"lon":5.363346,"is_reserved":false,"is_disabled":false,"rental_uris":{"android":"levelo://app?vid=d19a463c-2069-45c8-8215-70d09746a01e","ios":"levelo://app?vid=d19a463c-2069-45c8-8215-70d09746a01e"},"vehicle_type_id":"4","last_reported":1678219707,"current_range_meters":0,"station_id":"ce4bhah2rcd13ifvqej0","pricing_plan_id":"free"},{"bike_id":"5f1ecfd8-f8b8-4a13-a801-5f0d8e93376f","system_id":"levelo_inurba_marseille","lat":43.29528,"lon":5.39405,"is_reserved":false,"is_disabled":false,"rental_uris":{"android":"levelo://app?vid=5f1ecfd8-f8b8-4a13-a801-5f0d8e93376f","ios":"levelo://app?vid=5f1ecfd8-f8b8-4a13-a801-5f0d8e93376f"},"vehicle_type_id":"4","last_reported":1678219707,"current_range_meters":20800,"station_id":"ce4bh212rcd13ifvqde0","pricing_plan_id":"free"},{"bike_id":"8b5dc18f-da00-4f33-8d68-890f362d62ab","system_id":"levelo_inurba_marseille","lat":43.302759,"lon":5.400793,"is_reserved":false,"is_disabled":false,"rental_uris":{"android":"levelo://app?vid=8b5dc18f-da00-4f33-8d68-890f362d62ab","ios":"levelo://app?vid=8b5dc18f-da00-4f33-8d68-890f362d62ab"},"vehicle_type_id":"4","last_reported":1678219707,"current_range_meters":11200,"station_id":"ce4bgvh2rcd13ifvqcs0","pricing_plan_id":"free"},{"bike_id":"b97515ca-f6f3-45ce-91bc-deecbca4f8bc","system_id":"levelo_inurba_marseille","lat":43.29518,"lon":5.39405,"is_reserved":false,"is_disabled":false,"rental_uris":{"android":"levelo://app?vid=b97515ca-f6f3-45ce-91bc-deecbca4f8bc","ios":"levelo://app?vid=b97515ca-f6f3-45ce-91bc-deecbca4f8bc"},"vehicle_type_id":"4","last_reported":1678219707,"current_range_meters":7600,"station_id":"ce4bh212rcd13ifvqde0","pricing_plan_id":"free"},{"bike_id":"ed42dc55-832d-4364-8ced-e7e00b3c7b9d","system_id":"levelo_inurba_marseille","lat":43.29516,"lon":5.394077,"is_reserved":false,"is_disabled":false,"rental_uris":{"android":"levelo://app?vid=ed42dc55-832d-4364-8ced-e7e00b3c7b9d","ios":"levelo://app?vid=ed42dc55-832d-4364-8ced-e7e00b3c7b9d"},"vehicle_type_id":"4","last_reported":1678219707,"current_range_meters":30000,"station_id":"ce4bh212rcd13ifvqde0","pricing_plan_id":"free"},{"bike_id":"b39f2e4f-3e40-4e26-8fea-4efd88cf8428","system_id":"levelo_inurba_marseille","lat":43.29505,"lon":5.39401,"is_reserved":false,"is_disabled":false,"rental_uris":{"android":"levelo://app?vid=b39f2e4f-3e40-4e26-8fea-4efd88cf8428","ios":"levelo://app?vid=b39f2e4f-3e40-4e26-8fea-4efd88cf8428"},"vehicle_type_id":"4","last_reported":1678219707,"current_range_meters":19200,"station_id":"ce4bh212rcd13ifvqde0","pricing_plan_id":"free"},{"bike_id":"0bc6a219-ca9a-4adc-9501-9efb84dd5c18","system_id":"levelo_inurba_marseille","lat":43.286039,"lon":5.370679,"is_reserved":false,"is_disabled":false,"rental_uris":{"android":"levelo://app?vid=0bc6a219-ca9a-4adc-9501-9efb84dd5c18","ios":"levelo://app?vid=0bc6a219-ca9a-4adc-9501-9efb84dd5c18"},"vehicle_type_id":"4","last_reported":1678219707,"current_range_meters":1200,"station_id":"ce4bht12rcd13ifvqi60","pricing_plan_id":"free"},{"bike_id":"559f1592-0812-4202-8407-4953ab072a93","system_id":"levelo_inurba_marseille","lat":43.286039,"lon":5.370679,"is_reserved":false,"is_disabled":false,"rental_uris":{"android":"levelo://app?vid=559f1592-0812-4202-8407-4953ab072a93","ios":"levelo://app?vid=559f1592-0812-4202-8407-4953ab072a93"},"vehicle_type_id":"4","last_reported":1678219707,"current_range_meters":16000,"station_id":"ce4bht12rcd13ifvqi60","pricing_plan_id":"free"},{"bike_id":"54387617-0ce7-44f1-a88f-e243371f53b9","system_id":"levelo_inurba_marseille","lat":43.286039,"lon":5.370679,"is_reserved":false,"is_disabled":false,"rental_uris":{"android":"levelo://app?vid=54387617-0ce7-44f1-a88f-e243371f53b9","ios":"levelo://app?vid=54387617-0ce7-44f1-a88f-e243371f53b9"},"vehicle_type_id":"4","last_reported":1678219707,"current_range_meters":12800,"station_id":"ce4bht12rcd13ifvqi60","pricing_plan_id":"free"},{"bike_id":"9516a636-1577-45d9-97f9-5151cd4f222d","system_id":"levelo_inurba_marseille","lat":43.316517,"lon":5.404375,"is_reserved":false,"is_disabled":false,"rental_uris":{"android":"levelo://app?vid=9516a636-1577-45d9-97f9-5151cd4f222d","ios":"levelo://app?vid=9516a636-1577-45d9-97f9-5151cd4f222d"},"vehicle_type_id":"4","last_reported":1678219707,"current_range_meters":400,"station_id":"ce4bh012rcd13ifvqd00","pricing_plan_id":"free"},{"bike_id":"055352d2-d2f7-4daa-80b7-12ade4346929","system_id":"levelo_inurba_marseille","lat":43.316517,"lon":5.404375,"is_reserved":false,"is_disabled":false,"rental_uris":{"android":"levelo://app?vid=055352d2-d2f7-4daa-80b7-12ade4346929","ios":"levelo://app?vid=055352d2-d2f7-4daa-80b7-12ade4346929"},"vehicle_type_id":"4","last_reported":1678219707,"current_range_meters":31600,"station_id":"ce4bh012rcd13ifvqd00","pricing_plan_id":"free"},{"bike_id":"6420d3b7-4e27-40f0-8b4b-1b65351966d4","system_id":"levelo_inurba_marseille","lat":43.316517,"lon":5.404375,"is_reserved":false,"is_disabled":false,"rental_uris":{"android":"levelo://app?vid=6420d3b7-4e27-40f0-8b4b-1b65351966d4","ios":"levelo://app?vid=6420d3b7-4e27-40f0-8b4b-1b65351966d4"},"vehicle_type_id":"4","last_reported":1678219707,"current_range_meters":30400,"station_id":"ce4bh012rcd13ifvqd00","pricing_plan_id":"free"},{"bike_id":"f8107d2c-c2d5-448b-96a6-ef2e1b05346e","system_id":"levelo_inurba_marseille","lat":43.316517,"lon":5.404375,"is_reserved":false,"is_disabled":false,"rental_uris":{"android":"levelo://app?vid=f8107d2c-c2d5-448b-96a6-ef2e1b05346e","ios":"levelo://app?vid=f8107d2c-c2d5-448b-96a6-ef2e1b05346e"},"vehicle_type_id":"4","last_reported":1678219707,"current_range_meters":26400,"station_id":"ce4bh012rcd13ifvqd00","pricing_plan_id":"free"},{"bike_id":"d226fd50-17a4-47db-b57f-bee4192bdda5","system_id":"levelo_inurba_marseille","lat":43.31643,"lon":5.40436,"is_reserved":false,"is_disabled":false,"rental_uris":{"android":"levelo://app?vid=d226fd50-17a4-47db-b57f-bee4192bdda5","ios":"levelo://app?vid=d226fd50-17a4-47db-b57f-bee4192bdda5"},"vehicle_type_id":"4","last_reported":1678219707,"current_range_meters":800,"station_id":"ce4bh012rcd13ifvqd00","pricing_plan_id":"free"},{"bike_id":"3ec128d0-98ab-45bd-9a26-a9d2a905d892","system_id":"levelo_inurba_marseille","lat":43.316517,"lon":5.404375,"is_reserved":false,"is_disabled":false,"rental_uris":{"android":"levelo://app?vid=3ec128d0-98ab-45bd-9a26-a9d2a905d892","ios":"levelo://app?vid=3ec128d0-98ab-45bd-9a26-a9d2a905d892"},"vehicle_type_id":"4","last_reported":1678219707,"current_range_meters":31600,"station_id":"ce4bh012rcd13ifvqd00","pricing_plan_id":"free"},{"bike_id":"1a2ff13d-43a7-475e-b82f-aeae964cb89e","system_id":"levelo_inurba_marseille","lat":43.316517,"lon":5.404375,"is_reserved":false,"is_disabled":false,"rental_uris":{"android":"levelo://app?vid=1a2ff13d-43a7-475e-b82f-aeae964cb89e","ios":"levelo://app?vid=1a2ff13d-43a7-475e-b82f-aeae964cb89e"},"vehicle_type_id":"4","last_reported":1678219707,"current_range_meters":23200,"station_id":"ce4bh012rcd13ifvqd00","pricing_plan_id":"free"},{"bike_id":"bf307c10-ba7e-43ff-a163-bec2fa0acd57","system_id":"levelo_inurba_marseille","lat":43.316517,"lon":5.404375,"is_reserved":false,"is_disabled":false,"rental_uris":{"android":"levelo://app?vid=bf307c10-ba7e-43ff-a163-bec2fa0acd57","ios":"levelo://app?vid=bf307c10-ba7e-43ff-a163-bec2fa0acd57"},"vehicle_type_id":"4","last_reported":1678219707,"current_range_meters":26400,"station_id":"ce4bh012rcd13ifvqd00","pricing_plan_id":"free"},{"bike_id":"ec48ee8b-d84c-4502-95f2-b3c1a18fc0ba","system_id":"levelo_inurba_marseille","lat":43.316517,"lon":5.404375,"is_reserved":false,"is_disabled":false,"rental_uris":{"android":"levelo://app?vid=ec48ee8b-d84c-4502-95f2-b3c1a18fc0ba","ios":"levelo://app?vid=ec48ee8b-d84c-4502-95f2-b3c1a18fc0ba"},"vehicle_type_id":"4","last_reported":1678219707,"current_range_meters":23600,"station_id":"ce4bh012rcd13ifvqd00","pricing_plan_id":"free"},{"bike_id":"6588e522-9372-4917-83ad-dca7a4419c99","system_id":"levelo_inurba_marseille","lat":43.316517,"lon":5.404375,"is_reserved":false,"is_disabled":false,"rental_uris":{"android":"levelo://app?vid=6588e522-9372-4917-83ad-dca7a4419c99","ios":"levelo://app?vid=6588e522-9372-4917-83ad-dca7a4419c99"},"vehicle_type_id":"4","last_reported":1678219707,"current_range_meters":31200,"station_id":"ce4bh012rcd13ifvqd00","pricing_plan_id":"free"},{"bike_id":"8d20e5ef-ecd1-4f01-bda5-af7a5a45c520","system_id":"levelo_inurba_marseille","lat":43.316517,"lon":5.404375,"is_reserved":false,"is_disabled":false,"rental_uris":{"android":"levelo://app?vid=8d20e5ef-ecd1-4f01-bda5-af7a5a45c520","ios":"levelo://app?vid=8d20e5ef-ecd1-4f01-bda5-af7a5a45c520"},"vehicle_type_id":"4","last_reported":1678219707,"current_range_meters":31600,"station_id":"ce4bh012rcd13ifvqd00","pricing_plan_id":"free"},{"bike_id":"fdefb30a-307d-46de-9cdd-1d692d75b837","system_id":"levelo_inurba_marseille","lat":43.31648,"lon":5.40438,"is_reserved":false,"is_disabled":false,"rental_uris":{"android":"levelo://app?vid=fdefb30a-307d-46de-9cdd-1d692d75b837","ios":"levelo://app?vid=fdefb30a-307d-46de-9cdd-1d692d75b837"},"vehicle_type_id":"4","last_reported":1678219707,"current_range_meters":29200,"station_id":"","pricing_plan_id":"free"},{"bike_id":"f70bf337-dd37-48a7-bb9d-212122d5d3da","system_id":"levelo_inurba_marseille","lat":43.31648,"lon":5.40439,"is_reserved":false,"is_disabled":false,"rental_uris":{"android":"levelo://app?vid=f70bf337-dd37-48a7-bb9d-212122d5d3da","ios":"levelo://app?vid=f70bf337-dd37-48a7-bb9d-212122d5d3da"},"vehicle_type_id":"4","last_reported":1678219707,"current_range_meters":30800,"station_id":"","pricing_plan_id":"free"},{"bike_id":"744eb3ba-3d59-437b-9881-d8bfe7db3aea","system_id":"levelo_inurba_marseille","lat":43.3165,"lon":5.40439,"is_reserved":false,"is_disabled":false,"rental_uris":{"android":"levelo://app?vid=744eb3ba-3d59-437b-9881-d8bfe7db3aea","ios":"levelo://app?vid=744eb3ba-3d59-437b-9881-d8bfe7db3aea"},"vehicle_type_id":"4","last_reported":1678219707,"current_range_meters":15200,"station_id":"","pricing_plan_id":"free"},{"bike_id":"153ae908-81ba-46b7-9a1e-1dce1d7527fd","system_id":"levelo_inurba_marseille","lat":43.316517,"lon":5.404375,"is_reserved":false,"is_disabled":false,"rental_uris":{"android":"levelo://app?vid=153ae908-81ba-46b7-9a1e-1dce1d7527fd","ios":"levelo://app?vid=153ae908-81ba-46b7-9a1e-1dce1d7527fd"},"vehicle_type_id":"4","last_reported":1678219707,"current_range_meters":28800,"station_id":"ce4bh012rcd13ifvqd00","pricing_plan_id":"free"},{"bike_id":"367ba2da-b74f-4e22-8c4c-96bf774fd88b","system_id":"levelo_inurba_marseille","lat":43.31645,"lon":5.40441,"is_reserved":false,"is_disabled":false,"rental_uris":{"android":"levelo://app?vid=367ba2da-b74f-4e22-8c4c-96bf774fd88b","ios":"levelo://app?vid=367ba2da-b74f-4e22-8c4c-96bf774fd88b"},"vehicle_type_id":"4","last_reported":1678219707,"current_range_meters":24400,"station_id":"","pricing_plan_id":"free"},{"bike_id":"cb96273f-f1db-43fe-92a9-9aef5dae05c3","system_id":"levelo_inurba_marseille","lat":43.316517,"lon":5.404375,"is_reserved":false,"is_disabled":false,"rental_uris":{"android":"levelo://app?vid=cb96273f-f1db-43fe-92a9-9aef5dae05c3","ios":"levelo://app?vid=cb96273f-f1db-43fe-92a9-9aef5dae05c3"},"vehicle_type_id":"4","last_reported":1678219707,"current_range_meters":26800,"station_id":"ce4bh012rcd13ifvqd00","pricing_plan_id":"free"},{"bike_id":"edd94406-6bde-4ea6-b0c3-06ac27032c55","system_id":"levelo_inurba_marseille","lat":43.31646,"lon":5.40445,"is_reserved":false,"is_disabled":false,"rental_uris":{"android":"levelo://app?vid=edd94406-6bde-4ea6-b0c3-06ac27032c55","ios":"levelo://app?vid=edd94406-6bde-4ea6-b0c3-06ac27032c55"},"vehicle_type_id":"4","last_reported":1678219707,"current_range_meters":28400,"station_id":"","pricing_plan_id":"free"},{"bike_id":"2b3dbf90-41f2-4167-b1d6-e97f1ccff26e","system_id":"levelo_inurba_marseille","lat":43.316445,"lon":5.404474,"is_reserved":false,"is_disabled":false,"rental_uris":{"android":"levelo://app?vid=2b3dbf90-41f2-4167-b1d6-e97f1ccff26e","ios":"levelo://app?vid=2b3dbf90-41f2-4167-b1d6-e97f1ccff26e"},"vehicle_type_id":"4","last_reported":1678219707,"current_range_meters":31600,"station_id":"ce4bh012rcd13ifvqd00","pricing_plan_id":"free"},{"bike_id":"8e119521-6acf-47f5-b582-74be75cf42f7","system_id":"levelo_inurba_marseille","lat":43.33401,"lon":5.39211,"is_reserved":false,"is_disabled":false,"rental_uris":{"android":"levelo://app?vid=8e119521-6acf-47f5-b582-74be75cf42f7","ios":"levelo://app?vid=8e119521-6acf-47f5-b582-74be75cf42f7"},"vehicle_type_id":"4","last_reported":1678219707,"current_range_meters":8800,"station_id":"","pricing_plan_id":"free"},{"bike_id":"23e2f9d2-d862-4b95-b0ec-50e6488cd6ef","system_id":"levelo_inurba_marseille","lat":43.28599,"lon":5.35336,"is_reserved":false,"is_disabled":false,"rental_uris":{"android":"levelo://app?vid=23e2f9d2-d862-4b95-b0ec-50e6488cd6ef","ios":"levelo://app?vid=23e2f9d2-d862-4b95-b0ec-50e6488cd6ef"},"vehicle_type_id":"4","last_reported":1678219707,"current_range_meters":7600,"station_id":"","pricing_plan_id":"free"},{"bike_id":"503c50e1-7546-47fc-9b14-2b4c8f932717","system_id":"levelo_inurba_marseille","lat":43.284534,"lon":5.358662,"is_reserved":false,"is_disabled":false,"rental_uris":{"android":"levelo://app?vid=503c50e1-7546-47fc-9b14-2b4c8f932717","ios":"levelo://app?vid=503c50e1-7546-47fc-9b14-2b4c8f932717"},"vehicle_type_id":"4","last_reported":1678219707,"current_range_meters":7200,"station_id":"ce4bhah2rcd13ifvqei0","pricing_plan_id":"free"},{"bike_id":"b403ac6f-1ebd-438f-b2be-7861431dc180","system_id":"levelo_inurba_marseille","lat":43.28462,"lon":5.35895,"is_reserved":false,"is_disabled":false,"rental_uris":{"android":"levelo://app?vid=b403ac6f-1ebd-438f-b2be-7861431dc180","ios":"levelo://app?vid=b403ac6f-1ebd-438f-b2be-7861431dc180"},"vehicle_type_id":"4","last_reported":1678219707,"current_range_meters":2800,"station_id":"","pricing_plan_id":"free"},{"bike_id":"ef46c3ce-d9f2-4558-bbfe-61721a57b1e9","system_id":"levelo_inurba_marseille","lat":43.284592,"lon":5.358942,"is_reserved":false,"is_disabled":false,"rental_uris":{"android":"levelo://app?vid=ef46c3ce-d9f2-4558-bbfe-61721a57b1e9","ios":"levelo://app?vid=ef46c3ce-d9f2-4558-bbfe-61721a57b1e9"},"vehicle_type_id":"4","last_reported":1678219707,"current_range_meters":0,"station_id":"ce4bhah2rcd13ifvqei0","pricing_plan_id":"free"},{"bike_id":"2b62f604-1c2e-493d-b1dc-aa15490ccf65","system_id":"levelo_inurba_marseille","lat":43.284534,"lon":5.358662,"is_reserved":false,"is_disabled":false,"rental_uris":{"android":"levelo://app?vid=2b62f604-1c2e-493d-b1dc-aa15490ccf65","ios":"levelo://app?vid=2b62f604-1c2e-493d-b1dc-aa15490ccf65"},"vehicle_type_id":"4","last_reported":1678219707,"current_range_meters":15600,"station_id":"ce4bhah2rcd13ifvqei0","pricing_plan_id":"free"},{"bike_id":"0cb6b5f8-7503-41e1-9239-1ba7b739c832","system_id":"levelo_inurba_marseille","lat":43.284534,"lon":5.358662,"is_reserved":false,"is_disabled":false,"rental_uris":{"android":"levelo://app?vid=0cb6b5f8-7503-41e1-9239-1ba7b739c832","ios":"levelo://app?vid=0cb6b5f8-7503-41e1-9239-1ba7b739c832"},"vehicle_type_id":"4","last_reported":1678219707,"current_range_meters":5600,"station_id":"ce4bhah2rcd13ifvqei0","pricing_plan_id":"free"},{"bike_id":"f402cd7f-17cf-4d4e-9a44-ca6c21fc0566","system_id":"levelo_inurba_marseille","lat":43.28669,"lon":5.38664,"is_reserved":false,"is_disabled":false,"rental_uris":{"android":"levelo://app?vid=f402cd7f-17cf-4d4e-9a44-ca6c21fc0566","ios":"levelo://app?vid=f402cd7f-17cf-4d4e-9a44-ca6c21fc0566"},"vehicle_type_id":"4","last_reported":1678219707,"current_range_meters":14400,"station_id":"ce4bh492rcd13ifvqdug","pricing_plan_id":"free"},{"bike_id":"eaf0bb86-a753-433d-a8c5-0c1bb7781771","system_id":"levelo_inurba_marseille","lat":43.28956,"lon":5.39302,"is_reserved":false,"is_disabled":false,"rental_uris":{"android":"levelo://app?vid=eaf0bb86-a753-433d-a8c5-0c1bb7781771","ios":"levelo://app?vid=eaf0bb86-a753-433d-a8c5-0c1bb7781771"},"vehicle_type_id":"4","last_reported":1678219707,"current_range_meters":8000,"station_id":"","pricing_plan_id":"free"},{"bike_id":"1a0985e7-8012-4188-a1ab-5d2a657e6e8f","system_id":"levelo_inurba_marseille","lat":43.33723,"lon":5.39173,"is_reserved":false,"is_disabled":false,"rental_uris":{"android":"levelo://app?vid=1a0985e7-8012-4188-a1ab-5d2a657e6e8f","ios":"levelo://app?vid=1a0985e7-8012-4188-a1ab-5d2a657e6e8f"},"vehicle_type_id":"4","last_reported":1678219707,"current_range_meters":21600,"station_id":"ce4bhr92rcd13ifvqhsg","pricing_plan_id":"free"},{"bike_id":"52ec1317-6258-4cd8-802a-01ff73acd84d","system_id":"levelo_inurba_marseille","lat":43.337168,"lon":5.391825,"is_reserved":false,"is_disabled":false,"rental_uris":{"android":"levelo://app?vid=52ec1317-6258-4cd8-802a-01ff73acd84d","ios":"levelo://app?vid=52ec1317-6258-4cd8-802a-01ff73acd84d"},"vehicle_type_id":"4","last_reported":1678219707,"current_range_meters":800,"station_id":"ce4bhr92rcd13ifvqhsg","pricing_plan_id":"free"},{"bike_id":"ab0feb94-5fb8-4a18-8a28-af999dec1d0f","system_id":"levelo_inurba_marseille","lat":43.33725,"lon":5.39184,"is_reserved":false,"is_disabled":false,"rental_uris":{"android":"levelo://app?vid=ab0feb94-5fb8-4a18-8a28-af999dec1d0f","ios":"levelo://app?vid=ab0feb94-5fb8-4a18-8a28-af999dec1d0f"},"vehicle_type_id":"4","last_reported":1678219707,"current_range_meters":28000,"station_id":"","pricing_plan_id":"free"},{"bike_id":"0984a3a5-e7ec-436d-89c2-1f41475d970a","system_id":"levelo_inurba_marseille","lat":43.32334,"lon":5.40621,"is_reserved":false,"is_disabled":false,"rental_uris":{"android":"levelo://app?vid=0984a3a5-e7ec-436d-89c2-1f41475d970a","ios":"levelo://app?vid=0984a3a5-e7ec-436d-89c2-1f41475d970a"},"vehicle_type_id":"4","last_reported":1678219707,"current_range_meters":21600,"station_id":"ce4bhq92rcd13ifvqhjg","pricing_plan_id":"free"},{"bike_id":"b633daa5-dd71-4ea0-9043-b6f0b29c3ff6","system_id":"levelo_inurba_marseille","lat":43.3234,"lon":5.4062,"is_reserved":false,"is_disabled":false,"rental_uris":{"android":"levelo://app?vid=b633daa5-dd71-4ea0-9043-b6f0b29c3ff6","ios":"levelo://app?vid=b633daa5-dd71-4ea0-9043-b6f0b29c3ff6"},"vehicle_type_id":"4","last_reported":1678219707,"current_range_meters":10800,"station_id":"ce4bhq92rcd13ifvqhjg","pricing_plan_id":"free"},{"bike_id":"de4a8079-ad6c-46ae-8e7f-a059f09ed22a","system_id":"levelo_inurba_marseille","lat":43.337168,"lon":5.391825,"is_reserved":false,"is_disabled":false,"rental_uris":{"android":"levelo://app?vid=de4a8079-ad6c-46ae-8e7f-a059f09ed22a","ios":"levelo://app?vid=de4a8079-ad6c-46ae-8e7f-a059f09ed22a"},"vehicle_type_id":"4","last_reported":1678219707,"current_range_meters":24800,"station_id":"ce4bhr92rcd13ifvqhsg","pricing_plan_id":"free"},{"bike_id":"049dad72-6330-444a-8c59-496aca383226","system_id":"levelo_inurba_marseille","lat":43.33728,"lon":5.39184,"is_reserved":false,"is_disabled":false,"rental_uris":{"android":"levelo://app?vid=049dad72-6330-444a-8c59-496aca383226","ios":"levelo://app?vid=049dad72-6330-444a-8c59-496aca383226"},"vehicle_type_id":"4","last_reported":1678219707,"current_range_meters":30000,"station_id":"","pricing_plan_id":"free"},{"bike_id":"c4dbf44f-b2f6-4712-bc48-ad2c8fae7753","system_id":"levelo_inurba_marseille","lat":43.337175,"lon":5.39204,"is_reserved":false,"is_disabled":false,"rental_uris":{"android":"levelo://app?vid=c4dbf44f-b2f6-4712-bc48-ad2c8fae7753","ios":"levelo://app?vid=c4dbf44f-b2f6-4712-bc48-ad2c8fae7753"},"vehicle_type_id":"4","last_reported":1678219707,"current_range_meters":20800,"station_id":"ce4bhr92rcd13ifvqhsg","pricing_plan_id":"free"},{"bike_id":"be723eb2-fe68-47b9-8031-53deb5571e51","system_id":"levelo_inurba_marseille","lat":43.337268,"lon":5.391873,"is_reserved":false,"is_disabled":false,"rental_uris":{"android":"levelo://app?vid=be723eb2-fe68-47b9-8031-53deb5571e51","ios":"levelo://app?vid=be723eb2-fe68-47b9-8031-53deb5571e51"},"vehicle_type_id":"4","last_reported":1678219707,"current_range_meters":400,"station_id":"","pricing_plan_id":"free"},{"bike_id":"51f672f4-e90f-45e2-b1a4-2196828216f3","system_id":"levelo_inurba_marseille","lat":43.32335,"lon":5.40625,"is_reserved":false,"is_disabled":false,"rental_uris":{"android":"levelo://app?vid=51f672f4-e90f-45e2-b1a4-2196828216f3","ios":"levelo://app?vid=51f672f4-e90f-45e2-b1a4-2196828216f3"},"vehicle_type_id":"4","last_reported":1678219707,"current_range_meters":16000,"station_id":"","pricing_plan_id":"free"},{"bike_id":"356dacce-9210-49f9-a9ca-08fabcadc7f9","system_id":"levelo_inurba_marseille","lat":43.32338,"lon":5.40624,"is_reserved":false,"is_disabled":false,"rental_uris":{"android":"levelo://app?vid=356dacce-9210-49f9-a9ca-08fabcadc7f9","ios":"levelo://app?vid=356dacce-9210-49f9-a9ca-08fabcadc7f9"},"vehicle_type_id":"4","last_reported":1678219707,"current_range_meters":13600,"station_id":"ce4bhq92rcd13ifvqhjg","pricing_plan_id":"free"},{"bike_id":"59f59454-8a57-4227-9f94-d58974282b49","system_id":"levelo_inurba_marseille","lat":43.32337,"lon":5.40625,"is_reserved":false,"is_disabled":false,"rental_uris":{"android":"levelo://app?vid=59f59454-8a57-4227-9f94-d58974282b49","ios":"levelo://app?vid=59f59454-8a57-4227-9f94-d58974282b49"},"vehicle_type_id":"4","last_reported":1678219707,"current_range_meters":19200,"station_id":"","pricing_plan_id":"free"},{"bike_id":"d4c7f542-c031-417a-8366-7658ace0fd1c","system_id":"levelo_inurba_marseille","lat":43.337295,"lon":5.39186,"is_reserved":false,"is_disabled":false,"rental_uris":{"android":"levelo://app?vid=d4c7f542-c031-417a-8366-7658ace0fd1c","ios":"levelo://app?vid=d4c7f542-c031-417a-8366-7658ace0fd1c"},"vehicle_type_id":"4","last_reported":1678219707,"current_range_meters":2400,"station_id":"","pricing_plan_id":"free"},{"bike_id":"c8241319-0afc-4e27-8528-1c6a7ecdbe85","system_id":"levelo_inurba_marseille","lat":43.32344,"lon":5.40626,"is_reserved":false,"is_disabled":false,"rental_uris":{"android":"levelo://app?vid=c8241319-0afc-4e27-8528-1c6a7ecdbe85","ios":"levelo://app?vid=c8241319-0afc-4e27-8528-1c6a7ecdbe85"},"vehicle_type_id":"4","last_reported":1678219707,"current_range_meters":10400,"station_id":"ce4bhq92rcd13ifvqhjg","pricing_plan_id":"free"},{"bike_id":"d4cce94a-67a9-4c21-aa2c-1f2932c95350","system_id":"levelo_inurba_marseille","lat":43.29263,"lon":5.39867,"is_reserved":false,"is_disabled":false,"rental_uris":{"android":"levelo://app?vid=d4cce94a-67a9-4c21-aa2c-1f2932c95350","ios":"levelo://app?vid=d4cce94a-67a9-4c21-aa2c-1f2932c95350"},"vehicle_type_id":"4","last_reported":1678219707,"current_range_meters":12000,"station_id":"","pricing_plan_id":"free"},{"bike_id":"b51686d5-640f-4216-aa79-f064d542da93","system_id":"levelo_inurba_marseille","lat":43.284219,"lon":5.3497,"is_reserved":false,"is_disabled":false,"rental_uris":{"android":"levelo://app?vid=b51686d5-640f-4216-aa79-f064d542da93","ios":"levelo://app?vid=b51686d5-640f-4216-aa79-f064d542da93"},"vehicle_type_id":"4","last_reported":1678219707,"current_range_meters":27600,"station_id":"ce4bhbh2rcd13ifvqepg","pricing_plan_id":"free"},{"bike_id":"943f599b-6759-463b-8f76-980634d8ddac","system_id":"levelo_inurba_marseille","lat":43.29032,"lon":5.39682,"is_reserved":false,"is_disabled":false,"rental_uris":{"android":"levelo://app?vid=943f599b-6759-463b-8f76-980634d8ddac","ios":"levelo://app?vid=943f599b-6759-463b-8f76-980634d8ddac"},"vehicle_type_id":"4","last_reported":1678219707,"current_range_meters":6800,"station_id":"","pricing_plan_id":"free"},{"bike_id":"cf6dd2e0-cd15-4836-a266-bd7577c69253","system_id":"levelo_inurba_marseille","lat":43.282083,"lon":5.377062,"is_reserved":false,"is_disabled":false,"rental_uris":{"android":"levelo://app?vid=cf6dd2e0-cd15-4836-a266-bd7577c69253","ios":"levelo://app?vid=cf6dd2e0-cd15-4836-a266-bd7577c69253"},"vehicle_type_id":"4","last_reported":1678219707,"current_range_meters":0,"station_id":"","pricing_plan_id":"free"},{"bike_id":"f53bdfe9-c5dd-418b-b559-cf6ec1e562e4","system_id":"levelo_inurba_marseille","lat":43.292724,"lon":5.401131,"is_reserved":false,"is_disabled":false,"rental_uris":{"android":"levelo://app?vid=f53bdfe9-c5dd-418b-b559-cf6ec1e562e4","ios":"levelo://app?vid=f53bdfe9-c5dd-418b-b559-cf6ec1e562e4"},"vehicle_type_id":"4","last_reported":1678219707,"current_range_meters":2800,"station_id":"ce4bh312rcd13ifvqdk0","pricing_plan_id":"free"},{"bike_id":"685cc1e3-7c4a-49dc-9ecb-1d140e31b9ab","system_id":"levelo_inurba_marseille","lat":43.292724,"lon":5.401131,"is_reserved":false,"is_disabled":false,"rental_uris":{"android":"levelo://app?vid=685cc1e3-7c4a-49dc-9ecb-1d140e31b9ab","ios":"levelo://app?vid=685cc1e3-7c4a-49dc-9ecb-1d140e31b9ab"},"vehicle_type_id":"4","last_reported":1678219707,"current_range_meters":1600,"station_id":"ce4bh312rcd13ifvqdk0","pricing_plan_id":"free"},{"bike_id":"c167f8bf-6686-41e3-b228-5157ae0c58a6","system_id":"levelo_inurba_marseille","lat":43.292724,"lon":5.401131,"is_reserved":false,"is_disabled":false,"rental_uris":{"android":"levelo://app?vid=c167f8bf-6686-41e3-b228-5157ae0c58a6","ios":"levelo://app?vid=c167f8bf-6686-41e3-b228-5157ae0c58a6"},"vehicle_type_id":"4","last_reported":1678219707,"current_range_meters":17600,"station_id":"ce4bh312rcd13ifvqdk0","pricing_plan_id":"free"},{"bike_id":"f7964516-f592-4274-9588-81bb261a8012","system_id":"levelo_inurba_marseille","lat":43.292724,"lon":5.401131,"is_reserved":false,"is_disabled":false,"rental_uris":{"android":"levelo://app?vid=f7964516-f592-4274-9588-81bb261a8012","ios":"levelo://app?vid=f7964516-f592-4274-9588-81bb261a8012"},"vehicle_type_id":"4","last_reported":1678219707,"current_range_meters":8400,"station_id":"ce4bh312rcd13ifvqdk0","pricing_plan_id":"free"},{"bike_id":"0cd3408a-2097-4638-9643-6c8f81fdad5f","system_id":"levelo_inurba_marseille","lat":43.28977,"lon":5.39759,"is_reserved":false,"is_disabled":false,"rental_uris":{"android":"levelo://app?vid=0cd3408a-2097-4638-9643-6c8f81fdad5f","ios":"levelo://app?vid=0cd3408a-2097-4638-9643-6c8f81fdad5f"},"vehicle_type_id":"4","last_reported":1678219707,"current_range_meters":7600,"station_id":"","pricing_plan_id":"free"},{"bike_id":"36eead4e-e568-4412-bec1-08269340c942","system_id":"levelo_inurba_marseille","lat":43.282744,"lon":5.350533,"is_reserved":false,"is_disabled":false,"rental_uris":{"android":"levelo://app?vid=36eead4e-e568-4412-bec1-08269340c942","ios":"levelo://app?vid=36eead4e-e568-4412-bec1-08269340c942"},"vehicle_type_id":"4","last_reported":1678219707,"current_range_meters":5600,"station_id":"ce4bhbp2rcd13ifvqerg","pricing_plan_id":"free"},{"bike_id":"e65604fd-16fe-41fd-a81e-46cfd00ad7b3","system_id":"levelo_inurba_marseille","lat":43.282744,"lon":5.350533,"is_reserved":false,"is_disabled":false,"rental_uris":{"android":"levelo://app?vid=e65604fd-16fe-41fd-a81e-46cfd00ad7b3","ios":"levelo://app?vid=e65604fd-16fe-41fd-a81e-46cfd00ad7b3"},"vehicle_type_id":"4","last_reported":1678219707,"current_range_meters":0,"station_id":"ce4bhbp2rcd13ifvqerg","pricing_plan_id":"free"},{"bike_id":"dff6405c-b259-4e99-802e-dcb775cbbf0b","system_id":"levelo_inurba_marseille","lat":43.2836,"lon":5.38641,"is_reserved":false,"is_disabled":false,"rental_uris":{"android":"levelo://app?vid=dff6405c-b259-4e99-802e-dcb775cbbf0b","ios":"levelo://app?vid=dff6405c-b259-4e99-802e-dcb775cbbf0b"},"vehicle_type_id":"4","last_reported":1678219707,"current_range_meters":0,"station_id":"ce4bh492rcd13ifvqdvg","pricing_plan_id":"free"},{"bike_id":"ca187cd8-85d4-4dc1-8ab1-a80345a3a443","system_id":"levelo_inurba_marseille","lat":43.280362,"lon":5.369438,"is_reserved":false,"is_disabled":false,"rental_uris":{"android":"levelo://app?vid=ca187cd8-85d4-4dc1-8ab1-a80345a3a443","ios":"levelo://app?vid=ca187cd8-85d4-4dc1-8ab1-a80345a3a443"},"vehicle_type_id":"4","last_reported":1678219707,"current_range_meters":13600,"station_id":"ce4bha12rcd13ifvqef0","pricing_plan_id":"free"},{"bike_id":"c60a06d3-248a-4480-b735-24fd33af48be","system_id":"levelo_inurba_marseille","lat":43.28039,"lon":5.369297,"is_reserved":false,"is_disabled":false,"rental_uris":{"android":"levelo://app?vid=c60a06d3-248a-4480-b735-24fd33af48be","ios":"levelo://app?vid=c60a06d3-248a-4480-b735-24fd33af48be"},"vehicle_type_id":"4","last_reported":1678219707,"current_range_meters":14000,"station_id":"ce4bha12rcd13ifvqef0","pricing_plan_id":"free"},{"bike_id":"df9b2bc7-f01a-4493-9480-414de5bf9324","system_id":"levelo_inurba_marseille","lat":43.28039,"lon":5.369297,"is_reserved":false,"is_disabled":false,"rental_uris":{"android":"levelo://app?vid=df9b2bc7-f01a-4493-9480-414de5bf9324","ios":"levelo://app?vid=df9b2bc7-f01a-4493-9480-414de5bf9324"},"vehicle_type_id":"4","last_reported":1678219707,"current_range_meters":11200,"station_id":"ce4bha12rcd13ifvqef0","pricing_plan_id":"free"},{"bike_id":"e4b3ac76-a113-4bdf-9ef3-037ec032ad31","system_id":"levelo_inurba_marseille","lat":43.280329,"lon":5.369388,"is_reserved":false,"is_disabled":false,"rental_uris":{"android":"levelo://app?vid=e4b3ac76-a113-4bdf-9ef3-037ec032ad31","ios":"levelo://app?vid=e4b3ac76-a113-4bdf-9ef3-037ec032ad31"},"vehicle_type_id":"4","last_reported":1678219707,"current_range_meters":9200,"station_id":"","pricing_plan_id":"free"},{"bike_id":"d6f4e36e-fd5b-4650-830d-1cb925f2f784","system_id":"levelo_inurba_marseille","lat":43.28039,"lon":5.369297,"is_reserved":false,"is_disabled":false,"rental_uris":{"android":"levelo://app?vid=d6f4e36e-fd5b-4650-830d-1cb925f2f784","ios":"levelo://app?vid=d6f4e36e-fd5b-4650-830d-1cb925f2f784"},"vehicle_type_id":"4","last_reported":1678219707,"current_range_meters":3200,"station_id":"ce4bha12rcd13ifvqef0","pricing_plan_id":"free"},{"bike_id":"d64d2e88-0ff5-4497-bf27-de5bad5c52d1","system_id":"levelo_inurba_marseille","lat":43.280324,"lon":5.369506,"is_reserved":false,"is_disabled":false,"rental_uris":{"android":"levelo://app?vid=d64d2e88-0ff5-4497-bf27-de5bad5c52d1","ios":"levelo://app?vid=d64d2e88-0ff5-4497-bf27-de5bad5c52d1"},"vehicle_type_id":"4","last_reported":1678219707,"current_range_meters":14400,"station_id":"","pricing_plan_id":"free"},{"bike_id":"ab493cd2-f341-4304-932c-dadd436736de","system_id":"levelo_inurba_marseille","lat":43.280313,"lon":5.369484,"is_reserved":false,"is_disabled":false,"rental_uris":{"android":"levelo://app?vid=ab493cd2-f341-4304-932c-dadd436736de","ios":"levelo://app?vid=ab493cd2-f341-4304-932c-dadd436736de"},"vehicle_type_id":"4","last_reported":1678219707,"current_range_meters":0,"station_id":"","pricing_plan_id":"free"},{"bike_id":"80fb64f1-046e-49fd-8cdf-97ee48b86291","system_id":"levelo_inurba_marseille","lat":43.290412,"lon":5.399633,"is_reserved":false,"is_disabled":false,"rental_uris":{"android":"levelo://app?vid=80fb64f1-046e-49fd-8cdf-97ee48b86291","ios":"levelo://app?vid=80fb64f1-046e-49fd-8cdf-97ee48b86291"},"vehicle_type_id":"4","last_reported":1678219707,"current_range_meters":4400,"station_id":"ce4bh392rcd13ifvqdm0","pricing_plan_id":"free"},{"bike_id":"efd8907e-445e-45c8-b84b-fcc85ab02cbf","system_id":"levelo_inurba_marseille","lat":43.29041,"lon":5.399634,"is_reserved":false,"is_disabled":false,"rental_uris":{"android":"levelo://app?vid=efd8907e-445e-45c8-b84b-fcc85ab02cbf","ios":"levelo://app?vid=efd8907e-445e-45c8-b84b-fcc85ab02cbf"},"vehicle_type_id":"4","last_reported":1678219707,"current_range_meters":21200,"station_id":"ce4bh392rcd13ifvqdm0","pricing_plan_id":"free"},{"bike_id":"75bb244c-a991-4ea6-8745-8d706ff06c16","system_id":"levelo_inurba_marseille","lat":43.29035,"lon":5.39965,"is_reserved":false,"is_disabled":false,"rental_uris":{"android":"levelo://app?vid=75bb244c-a991-4ea6-8745-8d706ff06c16","ios":"levelo://app?vid=75bb244c-a991-4ea6-8745-8d706ff06c16"},"vehicle_type_id":"4","last_reported":1678219707,"current_range_meters":800,"station_id":"ce4bh392rcd13ifvqdm0","pricing_plan_id":"free"},{"bike_id":"725b9e45-513f-4e48-af80-7c429c556645","system_id":"levelo_inurba_marseille","lat":43.296263,"lon":5.40601,"is_reserved":false,"is_disabled":false,"rental_uris":{"android":"levelo://app?vid=725b9e45-513f-4e48-af80-7c429c556645","ios":"levelo://app?vid=725b9e45-513f-4e48-af80-7c429c556645"},"vehicle_type_id":"4","last_reported":1678219707,"current_range_meters":1600,"station_id":"ce4bh0h2rcd13ifvqd60","pricing_plan_id":"free"},{"bike_id":"5fcfb230-d91b-4a23-a61d-c068fc9d7bcb","system_id":"levelo_inurba_marseille","lat":43.281044,"lon":5.378308,"is_reserved":false,"is_disabled":false,"rental_uris":{"android":"levelo://app?vid=5fcfb230-d91b-4a23-a61d-c068fc9d7bcb","ios":"levelo://app?vid=5fcfb230-d91b-4a23-a61d-c068fc9d7bcb"},"vehicle_type_id":"4","last_reported":1678219707,"current_range_meters":18400,"station_id":"ce4bha12rcd13ifvqee0","pricing_plan_id":"free"},{"bike_id":"315f8307-5058-4ae2-ad28-b37162946063","system_id":"levelo_inurba_marseille","lat":43.304188,"lon":5.412904,"is_reserved":false,"is_disabled":false,"rental_uris":{"android":"levelo://app?vid=315f8307-5058-4ae2-ad28-b37162946063","ios":"levelo://app?vid=315f8307-5058-4ae2-ad28-b37162946063"},"vehicle_type_id":"4","last_reported":1678219707,"current_range_meters":16800,"station_id":"ce4bhop2rcd13ifvqh8g","pricing_plan_id":"free"},{"bike_id":"be3e685f-bd77-45bc-a00e-38be4904a326","system_id":"levelo_inurba_marseille","lat":43.304188,"lon":5.412904,"is_reserved":false,"is_disabled":false,"rental_uris":{"android":"levelo://app?vid=be3e685f-bd77-45bc-a00e-38be4904a326","ios":"levelo://app?vid=be3e685f-bd77-45bc-a00e-38be4904a326"},"vehicle_type_id":"4","last_reported":1678219707,"current_range_meters":25200,"station_id":"ce4bhop2rcd13ifvqh8g","pricing_plan_id":"free"},{"bike_id":"e0645603-5f0f-46da-8c3d-a38d6c40cef3","system_id":"levelo_inurba_marseille","lat":43.304188,"lon":5.412904,"is_reserved":false,"is_disabled":false,"rental_uris":{"android":"levelo://app?vid=e0645603-5f0f-46da-8c3d-a38d6c40cef3","ios":"levelo://app?vid=e0645603-5f0f-46da-8c3d-a38d6c40cef3"},"vehicle_type_id":"4","last_reported":1678219707,"current_range_meters":16800,"station_id":"ce4bhop2rcd13ifvqh8g","pricing_plan_id":"free"},{"bike_id":"e48b3c3c-e39b-48a0-8e76-41d429dfb78c","system_id":"levelo_inurba_marseille","lat":43.304188,"lon":5.412904,"is_reserved":false,"is_disabled":false,"rental_uris":{"android":"levelo://app?vid=e48b3c3c-e39b-48a0-8e76-41d429dfb78c","ios":"levelo://app?vid=e48b3c3c-e39b-48a0-8e76-41d429dfb78c"},"vehicle_type_id":"4","last_reported":1678219707,"current_range_meters":0,"station_id":"ce4bhop2rcd13ifvqh8g","pricing_plan_id":"free"},{"bike_id":"c08bea6b-3ab1-4155-a401-0b15fd4ef634","system_id":"levelo_inurba_marseille","lat":43.287154,"lon":5.399979,"is_reserved":false,"is_disabled":false,"rental_uris":{"android":"levelo://app?vid=c08bea6b-3ab1-4155-a401-0b15fd4ef634","ios":"levelo://app?vid=c08bea6b-3ab1-4155-a401-0b15fd4ef634"},"vehicle_type_id":"4","last_reported":1678219707,"current_range_meters":4800,"station_id":"ce4bho92rcd13ifvqh3g","pricing_plan_id":"free"},{"bike_id":"1ed40565-4492-420a-8cdf-533763ed2e67","system_id":"levelo_inurba_marseille","lat":43.287154,"lon":5.399979,"is_reserved":false,"is_disabled":false,"rental_uris":{"android":"levelo://app?vid=1ed40565-4492-420a-8cdf-533763ed2e67","ios":"levelo://app?vid=1ed40565-4492-420a-8cdf-533763ed2e67"},"vehicle_type_id":"4","last_reported":1678219707,"current_range_meters":25200,"station_id":"ce4bho92rcd13ifvqh3g","pricing_plan_id":"free"},{"bike_id":"dbe27d0a-cb2e-44b0-b5b5-51491735a293","system_id":"levelo_inurba_marseille","lat":43.320045,"lon":5.415048,"is_reserved":false,"is_disabled":false,"rental_uris":{"android":"levelo://app?vid=dbe27d0a-cb2e-44b0-b5b5-51491735a293","ios":"levelo://app?vid=dbe27d0a-cb2e-44b0-b5b5-51491735a293"},"vehicle_type_id":"4","last_reported":1678219707,"current_range_meters":14000,"station_id":"ce4bhq92rcd13ifvqhkg","pricing_plan_id":"free"},{"bike_id":"38dd2bd7-fc25-4cf2-84a1-a963d73db5f3","system_id":"levelo_inurba_marseille","lat":43.320045,"lon":5.415048,"is_reserved":false,"is_disabled":false,"rental_uris":{"android":"levelo://app?vid=38dd2bd7-fc25-4cf2-84a1-a963d73db5f3","ios":"levelo://app?vid=38dd2bd7-fc25-4cf2-84a1-a963d73db5f3"},"vehicle_type_id":"4","last_reported":1678219707,"current_range_meters":24400,"station_id":"ce4bhq92rcd13ifvqhkg","pricing_plan_id":"free"},{"bike_id":"d77a3a84-3910-48a4-b44f-bfa2e6f2bb1f","system_id":"levelo_inurba_marseille","lat":43.299579,"lon":5.413255,"is_reserved":false,"is_disabled":false,"rental_uris":{"android":"levelo://app?vid=d77a3a84-3910-48a4-b44f-bfa2e6f2bb1f","ios":"levelo://app?vid=d77a3a84-3910-48a4-b44f-bfa2e6f2bb1f"},"vehicle_type_id":"4","last_reported":1678219707,"current_range_meters":19200,"station_id":"ce4bhp12rcd13ifvqh9g","pricing_plan_id":"free"},{"bike_id":"f8dd7bfa-eda0-4252-8ba1-e7fe84691cc2","system_id":"levelo_inurba_marseille","lat":43.299579,"lon":5.413255,"is_reserved":false,"is_disabled":false,"rental_uris":{"android":"levelo://app?vid=f8dd7bfa-eda0-4252-8ba1-e7fe84691cc2","ios":"levelo://app?vid=f8dd7bfa-eda0-4252-8ba1-e7fe84691cc2"},"vehicle_type_id":"4","last_reported":1678219707,"current_range_meters":26800,"station_id":"ce4bhp12rcd13ifvqh9g","pricing_plan_id":"free"},{"bike_id":"6aae3f00-bb59-4a78-962e-0ccd2fcac641","system_id":"levelo_inurba_marseille","lat":43.320045,"lon":5.415048,"is_reserved":false,"is_disabled":false,"rental_uris":{"android":"levelo://app?vid=6aae3f00-bb59-4a78-962e-0ccd2fcac641","ios":"levelo://app?vid=6aae3f00-bb59-4a78-962e-0ccd2fcac641"},"vehicle_type_id":"4","last_reported":1678219707,"current_range_meters":18800,"station_id":"ce4bhq92rcd13ifvqhkg","pricing_plan_id":"free"},{"bike_id":"775a6db6-e19c-4739-8f8b-45feaf2c4963","system_id":"levelo_inurba_marseille","lat":43.3205,"lon":5.41555,"is_reserved":false,"is_disabled":false,"rental_uris":{"android":"levelo://app?vid=775a6db6-e19c-4739-8f8b-45feaf2c4963","ios":"levelo://app?vid=775a6db6-e19c-4739-8f8b-45feaf2c4963"},"vehicle_type_id":"4","last_reported":1678219707,"current_range_meters":1200,"station_id":"","pricing_plan_id":"free"},{"bike_id":"3b7cb5f2-b298-4e16-8620-b05435f94fd8","system_id":"levelo_inurba_marseille","lat":43.32053,"lon":5.41563,"is_reserved":false,"is_disabled":false,"rental_uris":{"android":"levelo://app?vid=3b7cb5f2-b298-4e16-8620-b05435f94fd8","ios":"levelo://app?vid=3b7cb5f2-b298-4e16-8620-b05435f94fd8"},"vehicle_type_id":"4","last_reported":1678219707,"current_range_meters":6400,"station_id":"","pricing_plan_id":"free"},{"bike_id":"44320651-e91d-4423-8ef3-f8794d25c980","system_id":"levelo_inurba_marseille","lat":43.29266,"lon":5.40854,"is_reserved":false,"is_disabled":false,"rental_uris":{"android":"levelo://app?vid=44320651-e91d-4423-8ef3-f8794d25c980","ios":"levelo://app?vid=44320651-e91d-4423-8ef3-f8794d25c980"},"vehicle_type_id":"4","last_reported":1678219707,"current_range_meters":8000,"station_id":"ce4bh2p2rcd13ifvqdi0","pricing_plan_id":"free"},{"bike_id":"2e3ca9a4-3670-455d-b96b-18278bd4f56b","system_id":"levelo_inurba_marseille","lat":43.27618,"lon":5.361009,"is_reserved":false,"is_disabled":false,"rental_uris":{"android":"levelo://app?vid=2e3ca9a4-3670-455d-b96b-18278bd4f56b","ios":"levelo://app?vid=2e3ca9a4-3670-455d-b96b-18278bd4f56b"},"vehicle_type_id":"4","last_reported":1678219707,"current_range_meters":16400,"station_id":"ce4bgj92rcd13ifvqbe0","pricing_plan_id":"free"},{"bike_id":"a6bf0c71-b670-4a15-ad24-068baa7b89da","system_id":"levelo_inurba_marseille","lat":43.325233,"lon":5.414318,"is_reserved":false,"is_disabled":false,"rental_uris":{"android":"levelo://app?vid=a6bf0c71-b670-4a15-ad24-068baa7b89da","ios":"levelo://app?vid=a6bf0c71-b670-4a15-ad24-068baa7b89da"},"vehicle_type_id":"4","last_reported":1678219707,"current_range_meters":7600,"station_id":"ce4bhq12rcd13ifvqhhg","pricing_plan_id":"free"},{"bike_id":"60c94c2c-ed8a-4f69-b34d-530c27e96725","system_id":"levelo_inurba_marseille","lat":43.325243,"lon":5.414326,"is_reserved":false,"is_disabled":false,"rental_uris":{"android":"levelo://app?vid=60c94c2c-ed8a-4f69-b34d-530c27e96725","ios":"levelo://app?vid=60c94c2c-ed8a-4f69-b34d-530c27e96725"},"vehicle_type_id":"4","last_reported":1678219707,"current_range_meters":28000,"station_id":"ce4bhq12rcd13ifvqhhg","pricing_plan_id":"free"},{"bike_id":"090e2b45-a915-470d-a12a-c03f58057613","system_id":"levelo_inurba_marseille","lat":43.27617,"lon":5.361193,"is_reserved":false,"is_disabled":false,"rental_uris":{"android":"levelo://app?vid=090e2b45-a915-470d-a12a-c03f58057613","ios":"levelo://app?vid=090e2b45-a915-470d-a12a-c03f58057613"},"vehicle_type_id":"4","last_reported":1678219707,"current_range_meters":16400,"station_id":"","pricing_plan_id":"free"},{"bike_id":"9e9936e3-de1f-4663-adc7-495160ff8ebd","system_id":"levelo_inurba_marseille","lat":43.27618,"lon":5.361009,"is_reserved":false,"is_disabled":false,"rental_uris":{"android":"levelo://app?vid=9e9936e3-de1f-4663-adc7-495160ff8ebd","ios":"levelo://app?vid=9e9936e3-de1f-4663-adc7-495160ff8ebd"},"vehicle_type_id":"4","last_reported":1678219707,"current_range_meters":8000,"station_id":"ce4bgj92rcd13ifvqbe0","pricing_plan_id":"free"},{"bike_id":"c0309ac4-02df-4b10-b544-553a460fbc78","system_id":"levelo_inurba_marseille","lat":43.235292,"lon":5.409904,"is_reserved":false,"is_disabled":false,"rental_uris":{"android":"levelo://app?vid=c0309ac4-02df-4b10-b544-553a460fbc78","ios":"levelo://app?vid=c0309ac4-02df-4b10-b544-553a460fbc78"},"vehicle_type_id":"4","last_reported":1678219707,"current_range_meters":5600,"station_id":"","pricing_plan_id":"free"},{"bike_id":"340d66e8-bda1-48b8-b9e2-90cd8e482b59","system_id":"levelo_inurba_marseille","lat":43.276133,"lon":5.361072,"is_reserved":false,"is_disabled":false,"rental_uris":{"android":"levelo://app?vid=340d66e8-bda1-48b8-b9e2-90cd8e482b59","ios":"levelo://app?vid=340d66e8-bda1-48b8-b9e2-90cd8e482b59"},"vehicle_type_id":"4","last_reported":1678219707,"current_range_meters":9600,"station_id":"ce4bgj92rcd13ifvqbe0","pricing_plan_id":"free"},{"bike_id":"eafdf2ab-3da3-40d9-9b1d-bd50e9c377b8","system_id":"levelo_inurba_marseille","lat":43.280784,"lon":5.396622,"is_reserved":false,"is_disabled":false,"rental_uris":{"android":"levelo://app?vid=eafdf2ab-3da3-40d9-9b1d-bd50e9c377b8","ios":"levelo://app?vid=eafdf2ab-3da3-40d9-9b1d-bd50e9c377b8"},"vehicle_type_id":"4","last_reported":1678219707,"current_range_meters":7600,"station_id":"ce4bho12rcd13ifvqh2g","pricing_plan_id":"free"},{"bike_id":"8b053a5a-e01d-4f80-b49b-213cbcbefca4","system_id":"levelo_inurba_marseille","lat":43.280784,"lon":5.396622,"is_reserved":false,"is_disabled":false,"rental_uris":{"android":"levelo://app?vid=8b053a5a-e01d-4f80-b49b-213cbcbefca4","ios":"levelo://app?vid=8b053a5a-e01d-4f80-b49b-213cbcbefca4"},"vehicle_type_id":"4","last_reported":1678219707,"current_range_meters":7600,"station_id":"ce4bho12rcd13ifvqh2g","pricing_plan_id":"free"},{"bike_id":"ae94e0b1-c74f-4227-af9f-6a3209b764c2","system_id":"levelo_inurba_marseille","lat":43.273827,"lon":5.362613,"is_reserved":false,"is_disabled":false,"rental_uris":{"android":"levelo://app?vid=ae94e0b1-c74f-4227-af9f-6a3209b764c2","ios":"levelo://app?vid=ae94e0b1-c74f-4227-af9f-6a3209b764c2"},"vehicle_type_id":"4","last_reported":1678219707,"current_range_meters":0,"station_id":"ce4bhbh2rcd13ifvqeo0","pricing_plan_id":"free"},{"bike_id":"31a15b17-a18a-4c11-9514-617fc48edbb4","system_id":"levelo_inurba_marseille","lat":43.27381,"lon":5.36256,"is_reserved":false,"is_disabled":false,"rental_uris":{"android":"levelo://app?vid=31a15b17-a18a-4c11-9514-617fc48edbb4","ios":"levelo://app?vid=31a15b17-a18a-4c11-9514-617fc48edbb4"},"vehicle_type_id":"4","last_reported":1678219707,"current_range_meters":2000,"station_id":"ce4bhbh2rcd13ifvqeo0","pricing_plan_id":"free"},{"bike_id":"88eedc7b-dd58-4b8f-abc9-020d11215194","system_id":"levelo_inurba_marseille","lat":43.273807,"lon":5.362537,"is_reserved":false,"is_disabled":false,"rental_uris":{"android":"levelo://app?vid=88eedc7b-dd58-4b8f-abc9-020d11215194","ios":"levelo://app?vid=88eedc7b-dd58-4b8f-abc9-020d11215194"},"vehicle_type_id":"4","last_reported":1678219707,"current_range_meters":12400,"station_id":"ce4bhbh2rcd13ifvqeo0","pricing_plan_id":"free"},{"bike_id":"d4b79244-b631-47cc-89da-2f4dd3e2f847","system_id":"levelo_inurba_marseille","lat":43.2738,"lon":5.36258,"is_reserved":false,"is_disabled":false,"rental_uris":{"android":"levelo://app?vid=d4b79244-b631-47cc-89da-2f4dd3e2f847","ios":"levelo://app?vid=d4b79244-b631-47cc-89da-2f4dd3e2f847"},"vehicle_type_id":"4","last_reported":1678219707,"current_range_meters":20400,"station_id":"ce4bhbh2rcd13ifvqeo0","pricing_plan_id":"free"},{"bike_id":"f859c8de-e6f9-4539-85be-5860b3c138ad","system_id":"levelo_inurba_marseille","lat":43.273613,"lon":5.362705,"is_reserved":false,"is_disabled":false,"rental_uris":{"android":"levelo://app?vid=f859c8de-e6f9-4539-85be-5860b3c138ad","ios":"levelo://app?vid=f859c8de-e6f9-4539-85be-5860b3c138ad"},"vehicle_type_id":"4","last_reported":1678219707,"current_range_meters":0,"station_id":"ce4bhbh2rcd13ifvqeo0","pricing_plan_id":"free"},{"bike_id":"7c7b727f-4ee4-4cb4-a988-de186dfebbc3","system_id":"levelo_inurba_marseille","lat":43.273613,"lon":5.362705,"is_reserved":false,"is_disabled":false,"rental_uris":{"android":"levelo://app?vid=7c7b727f-4ee4-4cb4-a988-de186dfebbc3","ios":"levelo://app?vid=7c7b727f-4ee4-4cb4-a988-de186dfebbc3"},"vehicle_type_id":"4","last_reported":1678219707,"current_range_meters":24800,"station_id":"ce4bhbh2rcd13ifvqeo0","pricing_plan_id":"free"},{"bike_id":"0e59bcd9-117b-4aab-90fb-a20e8e8ee56f","system_id":"levelo_inurba_marseille","lat":43.33612,"lon":5.410321,"is_reserved":false,"is_disabled":false,"rental_uris":{"android":"levelo://app?vid=0e59bcd9-117b-4aab-90fb-a20e8e8ee56f","ios":"levelo://app?vid=0e59bcd9-117b-4aab-90fb-a20e8e8ee56f"},"vehicle_type_id":"4","last_reported":1678219707,"current_range_meters":0,"station_id":"ce4bhqh2rcd13ifvqhmg","pricing_plan_id":"free"},{"bike_id":"15c6b828-467d-4940-bcd0-27f5ea1aae00","system_id":"levelo_inurba_marseille","lat":43.33612,"lon":5.410321,"is_reserved":false,"is_disabled":false,"rental_uris":{"android":"levelo://app?vid=15c6b828-467d-4940-bcd0-27f5ea1aae00","ios":"levelo://app?vid=15c6b828-467d-4940-bcd0-27f5ea1aae00"},"vehicle_type_id":"4","last_reported":1678219707,"current_range_meters":1200,"station_id":"ce4bhqh2rcd13ifvqhmg","pricing_plan_id":"free"},{"bike_id":"939e3cb2-ae6c-412c-88f5-5e2e35771892","system_id":"levelo_inurba_marseille","lat":43.33608,"lon":5.41035,"is_reserved":false,"is_disabled":false,"rental_uris":{"android":"levelo://app?vid=939e3cb2-ae6c-412c-88f5-5e2e35771892","ios":"levelo://app?vid=939e3cb2-ae6c-412c-88f5-5e2e35771892"},"vehicle_type_id":"4","last_reported":1678219707,"current_range_meters":0,"station_id":"ce4bhqh2rcd13ifvqhmg","pricing_plan_id":"free"},{"bike_id":"4cba71a6-8c0c-49e8-ada6-4e1721bebb00","system_id":"levelo_inurba_marseille","lat":43.317121,"lon":5.423936,"is_reserved":false,"is_disabled":false,"rental_uris":{"android":"levelo://app?vid=4cba71a6-8c0c-49e8-ada6-4e1721bebb00","ios":"levelo://app?vid=4cba71a6-8c0c-49e8-ada6-4e1721bebb00"},"vehicle_type_id":"4","last_reported":1678219707,"current_range_meters":26800,"station_id":"ce4bhp92rcd13ifvqhbg","pricing_plan_id":"free"},{"bike_id":"8410146e-bbca-4603-b549-3495e7115207","system_id":"levelo_inurba_marseille","lat":43.317121,"lon":5.423936,"is_reserved":false,"is_disabled":false,"rental_uris":{"android":"levelo://app?vid=8410146e-bbca-4603-b549-3495e7115207","ios":"levelo://app?vid=8410146e-bbca-4603-b549-3495e7115207"},"vehicle_type_id":"4","last_reported":1678219707,"current_range_meters":28800,"station_id":"ce4bhp92rcd13ifvqhbg","pricing_plan_id":"free"},{"bike_id":"590c7288-d3d7-451b-b069-bbe9914df065","system_id":"levelo_inurba_marseille","lat":43.317121,"lon":5.423936,"is_reserved":false,"is_disabled":false,"rental_uris":{"android":"levelo://app?vid=590c7288-d3d7-451b-b069-bbe9914df065","ios":"levelo://app?vid=590c7288-d3d7-451b-b069-bbe9914df065"},"vehicle_type_id":"4","last_reported":1678219707,"current_range_meters":30400,"station_id":"ce4bhp92rcd13ifvqhbg","pricing_plan_id":"free"},{"bike_id":"ba25d3fc-5a08-48e3-b4e0-999837d33296","system_id":"levelo_inurba_marseille","lat":43.317121,"lon":5.423936,"is_reserved":false,"is_disabled":false,"rental_uris":{"android":"levelo://app?vid=ba25d3fc-5a08-48e3-b4e0-999837d33296","ios":"levelo://app?vid=ba25d3fc-5a08-48e3-b4e0-999837d33296"},"vehicle_type_id":"4","last_reported":1678219707,"current_range_meters":21600,"station_id":"ce4bhp92rcd13ifvqhbg","pricing_plan_id":"free"},{"bike_id":"91eaa121-f6fc-429c-927e-5f02f4f485a9","system_id":"levelo_inurba_marseille","lat":43.317121,"lon":5.423936,"is_reserved":false,"is_disabled":false,"rental_uris":{"android":"levelo://app?vid=91eaa121-f6fc-429c-927e-5f02f4f485a9","ios":"levelo://app?vid=91eaa121-f6fc-429c-927e-5f02f4f485a9"},"vehicle_type_id":"4","last_reported":1678219707,"current_range_meters":24400,"station_id":"ce4bhp92rcd13ifvqhbg","pricing_plan_id":"free"},{"bike_id":"d66d215f-4be2-463f-813a-4c41d0a10b20","system_id":"levelo_inurba_marseille","lat":43.317121,"lon":5.423936,"is_reserved":false,"is_disabled":false,"rental_uris":{"android":"levelo://app?vid=d66d215f-4be2-463f-813a-4c41d0a10b20","ios":"levelo://app?vid=d66d215f-4be2-463f-813a-4c41d0a10b20"},"vehicle_type_id":"4","last_reported":1678219707,"current_range_meters":31600,"station_id":"ce4bhp92rcd13ifvqhbg","pricing_plan_id":"free"},{"bike_id":"e9c5949a-ede5-44c0-9df0-6ffe877b98fb","system_id":"levelo_inurba_marseille","lat":43.31089,"lon":5.42433,"is_reserved":false,"is_disabled":false,"rental_uris":{"android":"levelo://app?vid=e9c5949a-ede5-44c0-9df0-6ffe877b98fb","ios":"levelo://app?vid=e9c5949a-ede5-44c0-9df0-6ffe877b98fb"},"vehicle_type_id":"4","last_reported":1678219707,"current_range_meters":25600,"station_id":"","pricing_plan_id":"free"},{"bike_id":"5ee86eda-26a0-4a8e-9513-50de01b73b56","system_id":"levelo_inurba_marseille","lat":43.2778,"lon":5.39899,"is_reserved":false,"is_disabled":false,"rental_uris":{"android":"levelo://app?vid=5ee86eda-26a0-4a8e-9513-50de01b73b56","ios":"levelo://app?vid=5ee86eda-26a0-4a8e-9513-50de01b73b56"},"vehicle_type_id":"4","last_reported":1678219707,"current_range_meters":27200,"station_id":"","pricing_plan_id":"free"},{"bike_id":"b472dba8-c38b-40f9-bd40-3df719dcb39a","system_id":"levelo_inurba_marseille","lat":43.273232,"lon":5.390998,"is_reserved":false,"is_disabled":false,"rental_uris":{"android":"levelo://app?vid=b472dba8-c38b-40f9-bd40-3df719dcb39a","ios":"levelo://app?vid=b472dba8-c38b-40f9-bd40-3df719dcb39a"},"vehicle_type_id":"4","last_reported":1678219707,"current_range_meters":0,"station_id":"","pricing_plan_id":"free"},{"bike_id":"17de7e31-f63b-498b-82a2-2b6fac6c3518","system_id":"levelo_inurba_marseille","lat":43.304096,"lon":5.425385,"is_reserved":false,"is_disabled":false,"rental_uris":{"android":"levelo://app?vid=17de7e31-f63b-498b-82a2-2b6fac6c3518","ios":"levelo://app?vid=17de7e31-f63b-498b-82a2-2b6fac6c3518"},"vehicle_type_id":"4","last_reported":1678219707,"current_range_meters":31200,"station_id":"ce4bhoh2rcd13ifvqh6g","pricing_plan_id":"free"},{"bike_id":"c0c39524-c3ab-45ff-a5ef-75b8700fc7ee","system_id":"levelo_inurba_marseille","lat":43.304096,"lon":5.425385,"is_reserved":false,"is_disabled":false,"rental_uris":{"android":"levelo://app?vid=c0c39524-c3ab-45ff-a5ef-75b8700fc7ee","ios":"levelo://app?vid=c0c39524-c3ab-45ff-a5ef-75b8700fc7ee"},"vehicle_type_id":"4","last_reported":1678219707,"current_range_meters":28400,"station_id":"ce4bhoh2rcd13ifvqh6g","pricing_plan_id":"free"},{"bike_id":"fcfc7777-4645-4b2a-adc6-6b7639ec2580","system_id":"levelo_inurba_marseille","lat":43.304096,"lon":5.425385,"is_reserved":false,"is_disabled":false,"rental_uris":{"android":"levelo://app?vid=fcfc7777-4645-4b2a-adc6-6b7639ec2580","ios":"levelo://app?vid=fcfc7777-4645-4b2a-adc6-6b7639ec2580"},"vehicle_type_id":"4","last_reported":1678219707,"current_range_meters":31600,"station_id":"ce4bhoh2rcd13ifvqh6g","pricing_plan_id":"free"},{"bike_id":"e9313df7-9921-4e53-a0ee-658c217637f6","system_id":"levelo_inurba_marseille","lat":43.304096,"lon":5.425385,"is_reserved":false,"is_disabled":false,"rental_uris":{"android":"levelo://app?vid=e9313df7-9921-4e53-a0ee-658c217637f6","ios":"levelo://app?vid=e9313df7-9921-4e53-a0ee-658c217637f6"},"vehicle_type_id":"4","last_reported":1678219707,"current_range_meters":11600,"station_id":"ce4bhoh2rcd13ifvqh6g","pricing_plan_id":"free"},{"bike_id":"deb467c2-ffdb-486b-84ad-69d00a23860f","system_id":"levelo_inurba_marseille","lat":43.304212,"lon":5.425682,"is_reserved":false,"is_disabled":false,"rental_uris":{"android":"levelo://app?vid=deb467c2-ffdb-486b-84ad-69d00a23860f","ios":"levelo://app?vid=deb467c2-ffdb-486b-84ad-69d00a23860f"},"vehicle_type_id":"4","last_reported":1678219707,"current_range_meters":21200,"station_id":"","pricing_plan_id":"free"},{"bike_id":"72b87734-6f9e-4cd9-90cc-9fdda57284ad","system_id":"levelo_inurba_marseille","lat":43.295523,"lon":5.422926,"is_reserved":false,"is_disabled":false,"rental_uris":{"android":"levelo://app?vid=72b87734-6f9e-4cd9-90cc-9fdda57284ad","ios":"levelo://app?vid=72b87734-6f9e-4cd9-90cc-9fdda57284ad"},"vehicle_type_id":"4","last_reported":1678219707,"current_range_meters":28800,"station_id":"ce4bhph2rcd13ifvqhdg","pricing_plan_id":"free"},{"bike_id":"0a262ae3-3fb6-4d25-aaed-527722a7db1d","system_id":"levelo_inurba_marseille","lat":43.295523,"lon":5.422926,"is_reserved":false,"is_disabled":false,"rental_uris":{"android":"levelo://app?vid=0a262ae3-3fb6-4d25-aaed-527722a7db1d","ios":"levelo://app?vid=0a262ae3-3fb6-4d25-aaed-527722a7db1d"},"vehicle_type_id":"4","last_reported":1678219707,"current_range_meters":0,"station_id":"ce4bhph2rcd13ifvqhdg","pricing_plan_id":"free"},{"bike_id":"481275fc-8ab7-46db-acc1-96f54929c4f3","system_id":"levelo_inurba_marseille","lat":43.295523,"lon":5.422926,"is_reserved":false,"is_disabled":false,"rental_uris":{"android":"levelo://app?vid=481275fc-8ab7-46db-acc1-96f54929c4f3","ios":"levelo://app?vid=481275fc-8ab7-46db-acc1-96f54929c4f3"},"vehicle_type_id":"4","last_reported":1678219707,"current_range_meters":20800,"station_id":"ce4bhph2rcd13ifvqhdg","pricing_plan_id":"free"},{"bike_id":"14cbee55-2e29-42bf-911a-f4fa030ef986","system_id":"levelo_inurba_marseille","lat":43.295523,"lon":5.422926,"is_reserved":false,"is_disabled":false,"rental_uris":{"android":"levelo://app?vid=14cbee55-2e29-42bf-911a-f4fa030ef986","ios":"levelo://app?vid=14cbee55-2e29-42bf-911a-f4fa030ef986"},"vehicle_type_id":"4","last_reported":1678219707,"current_range_meters":30000,"station_id":"ce4bhph2rcd13ifvqhdg","pricing_plan_id":"free"},{"bike_id":"2028f269-6a1f-409c-9564-48854f0e1b36","system_id":"levelo_inurba_marseille","lat":43.295605,"lon":5.422937,"is_reserved":false,"is_disabled":false,"rental_uris":{"android":"levelo://app?vid=2028f269-6a1f-409c-9564-48854f0e1b36","ios":"levelo://app?vid=2028f269-6a1f-409c-9564-48854f0e1b36"},"vehicle_type_id":"4","last_reported":1678219707,"current_range_meters":0,"station_id":"ce4bhph2rcd13ifvqhdg","pricing_plan_id":"free"},{"bike_id":"6e88b9a8-522b-4237-a008-b6e2346b3271","system_id":"levelo_inurba_marseille","lat":43.29554,"lon":5.42298,"is_reserved":false,"is_disabled":false,"rental_uris":{"android":"levelo://app?vid=6e88b9a8-522b-4237-a008-b6e2346b3271","ios":"levelo://app?vid=6e88b9a8-522b-4237-a008-b6e2346b3271"},"vehicle_type_id":"4","last_reported":1678219707,"current_range_meters":11600,"station_id":"ce4bhph2rcd13ifvqhdg","pricing_plan_id":"free"},