{"last_updated":1702825578,"ttl":30,"version":"2.2","data":{"bikes":[{"bike_id":"d3330f20-82ed-4cc0-9155-34f1e0acad0e","system_id":"levelo_inurba_marseille","lat":43.3054,"lon":5.36714,"is_reserved":false,"is_disabled":false,"rental_uris":{"android":"levelo://app?vid=d3330f20-82ed-4cc0-9155-34f1e0acad0e","ios":"levelo://app?vid=d3330f20-82ed-4cc0-9155-34f1e0acad0e"},"vehicle_type_id":"4","last_reported":1702825578,"current_range_meters":12400,"station_id":"ce4bgrp2rcd13ifvqc9g","pricing_plan_id":"free"},{"bike_id":"386d8463-467c-455d-8f0c-a0ed86ec55b2","system_id":"levelo_inurba_marseille","lat":43.30534,"lon":5.3671,"is_reserved":false,"is_disabled":false,"rental_uris":{"android":"levelo://app?vid=386d8463-467c-455d-8f0c-a0ed86ec55b2","ios":"levelo://app?vid=386d8463-467c-455d-8f0c-a0ed86ec55b2"},"vehicle_type_id":"4","last_reported":1702825578,"current_range_meters":11200,"station_id":"ce4bgrp2rcd13ifvqc9g","pricing_plan_id":"free"},{"bike_id":"955e4ab2-16e5-44e8-a986-a2f50ff96c06","system_id":"levelo_inurba_marseille","lat":43.305382,"lon":5.365389,"is_reserved":false,"is_disabled":false,"rental_uris":{"android":"levelo://app?vid=955e4ab2-16e5-44e8-a986-a2f50ff96c06","ios":"levelo://app?vid=955e4ab2-16e5-44e8-a986-a2f50ff96c06"},"vehicle_type_id":"4","last_reported":1702825578,"current_range_meters":11200,"station_id":"","pricing_plan_id":"free"},{"bike_id":"5120b34e-3dab-4cf3-bb72-f2cabb886eeb","system_id":"levelo_inurba_marseille","lat":43.31699,"lon":5.37651,"is_reserved":false,"is_disabled":false,"rental_uris":{"android":"levelo://app?vid=5120b34e-3dab-4cf3-bb72-f2cabb886eeb","ios":"levelo://app?vid=5120b34e-3dab-4cf3-bb72-f2cabb886eeb"},"vehicle_type_id":"4","last_reported":1702825578,"current_range_meters":13600,"station_id":"","pricing_plan_id":"free"},{"bike_id":"a0ade954-f054-4b8b-8637-67a143ade369","system_id":"levelo_inurba_marseille","lat":43.317075,"lon":5.377367,"is_reserved":false,"is_disabled":false,"rental_uris":{"android":"levelo://app?vid=a0ade954-f054-4b8b-8637-67a143ade369","ios":"levelo://app?vid=a0ade954-f054-4b8b-8637-67a143ade369"},"vehicle_type_id":"4","last_reported":1702825578,"current_range_meters":1200,"station_id":"ce4bgth2rcd13ifvqch0","pricing_plan_id":"free"},{"bike_id":"88f7ea2a-62f7-4a88-9e9d-900940b4d7e5","system_id":"levelo_inurba_marseille","lat":43.324771,"lon":5.36557,"is_reserved":false,"is_disabled":false,"rental_uris":{"android":"levelo://app?vid=88f7ea2a-62f7-4a88-9e9d-900940b4d7e5","ios":"levelo://app?vid=88f7ea2a-62f7-4a88-9e9d-900940b4d7e5"},"vehicle_type_id":"4","last_reported":1702825578,"current_range_meters":28400,"station_id":"ce4bhs12rcd13ifvqhvg","pricing_plan_id":"free"},{"bike_id":"923c3a30-b953-46f9-9569-3cf6358116cb","system_id":"levelo_inurba_marseille","lat":43.302784,"lon":5.377158,"is_reserved":false,"is_disabled":false,"rental_uris":{"android":"levelo://app?vid=923c3a30-b953-46f9-9569-3cf6358116cb","ios":"levelo://app?vid=923c3a30-b953-46f9-9569-3cf6358116cb"},"vehicle_type_id":"4","last_reported":1702825578,"current_range_meters":18000,"station_id":"ce4bguh2rcd13ifvqcj0","pricing_plan_id":"free"},{"bike_id":"e50d1ad1-b475-4169-a4a9-d75fbc83cd6f","system_id":"levelo_inurba_marseille","lat":43.30143,"lon":5.37413,"is_reserved":false,"is_disabled":false,"rental_uris":{"android":"levelo://app?vid=e50d1ad1-b475-4169-a4a9-d75fbc83cd6f","ios":"levelo://app?vid=e50d1ad1-b475-4169-a4a9-d75fbc83cd6f"},"vehicle_type_id":"4","last_reported":1702825578,"current_range_meters":25200,"station_id":"ce4bgs92rcd13ifvqcc0","pricing_plan_id":"free"},{"bike_id":"afb8cea1-e69f-4083-a258-425318c0346e","system_id":"levelo_inurba_marseille","lat":43.313571,"lon":5.384829,"is_reserved":false,"is_disabled":false,"rental_uris":{"android":"levelo://app?vid=afb8cea1-e69f-4083-a258-425318c0346e","ios":"levelo://app?vid=afb8cea1-e69f-4083-a258-425318c0346e"},"vehicle_type_id":"4","last_reported":1702825578,"current_range_meters":24400,"station_id":"ce4bgt92rcd13ifvqcf0","pricing_plan_id":"free"},{"bike_id":"5109aefa-8e98-4029-8e98-54cedc0205db","system_id":"levelo_inurba_marseille","lat":43.313571,"lon":5.384829,"is_reserved":false,"is_disabled":false,"rental_uris":{"android":"levelo://app?vid=5109aefa-8e98-4029-8e98-54cedc0205db","ios":"levelo://app?vid=5109aefa-8e98-4029-8e98-54cedc0205db"},"vehicle_type_id":"4","last_reported":1702825578,"current_range_meters":13600,"station_id":"ce4bgt92rcd13ifvqcf0","pricing_plan_id":"free"},{"bike_id":"f6b39348-9601-48ed-8fde-9a57ad4b1f75","system_id":"levelo_inurba_marseille","lat":43.29854,"lon":5.3629,"is_reserved":false,"is_disabled":false,"rental_uris":{"android":"levelo://app?vid=f6b39348-9601-48ed-8fde-9a57ad4b1f75","ios":"levelo://app?vid=f6b39348-9601-48ed-8fde-9a57ad4b1f75"},"vehicle_type_id":"4","last_reported":1702825578,"current_range_meters":28000,"station_id":"ce4bgpp2rcd13ifvqc3g","pricing_plan_id":"free"},{"bike_id":"7dd1a441-9d9c-4076-8b50-6783eaa4f983","system_id":"levelo_inurba_marseille","lat":43.298433,"lon":5.362774,"is_reserved":false,"is_disabled":false,"rental_uris":{"android":"levelo://app?vid=7dd1a441-9d9c-4076-8b50-6783eaa4f983","ios":"levelo://app?vid=7dd1a441-9d9c-4076-8b50-6783eaa4f983"},"vehicle_type_id":"4","last_reported":1702825578,"current_range_meters":18800,"station_id":"ce4bgpp2rcd13ifvqc3g","pricing_plan_id":"free"},{"bike_id":"c4e77394-aef9-4077-b745-e99148625344","system_id":"levelo_inurba_marseille","lat":43.32733,"lon":5.36707,"is_reserved":false,"is_disabled":false,"rental_uris":{"android":"levelo://app?vid=c4e77394-aef9-4077-b745-e99148625344","ios":"levelo://app?vid=c4e77394-aef9-4077-b745-e99148625344"},"vehicle_type_id":"4","last_reported":1702825578,"current_range_meters":18400,"station_id":"","pricing_plan_id":"free"},{"bike_id":"819cb438-2e9c-4e0b-902b-5e19ef554d5c","system_id":"levelo_inurba_marseille","lat":43.305531,"lon":5.384374,"is_reserved":false,"is_disabled":false,"rental_uris":{"android":"levelo://app?vid=819cb438-2e9c-4e0b-902b-5e19ef554d5c","ios":"levelo://app?vid=819cb438-2e9c-4e0b-902b-5e19ef554d5c"},"vehicle_type_id":"4","last_reported":1702825578,"current_range_meters":11600,"station_id":"ce4bgg92rcd13ifvqb30","pricing_plan_id":"free"},{"bike_id":"2eee8a2d-eacd-4dbf-9084-58bc090d33ac","system_id":"levelo_inurba_marseille","lat":43.311722,"lon":5.387247,"is_reserved":false,"is_disabled":false,"rental_uris":{"android":"levelo://app?vid=2eee8a2d-eacd-4dbf-9084-58bc090d33ac","ios":"levelo://app?vid=2eee8a2d-eacd-4dbf-9084-58bc090d33ac"},"vehicle_type_id":"4","last_reported":1702825578,"current_range_meters":24400,"station_id":"ce4bgv12rcd13ifvqcp0","pricing_plan_id":"free"},{"bike_id":"e7b9d6b6-dc5a-4988-8cfa-b767c8337f93","system_id":"levelo_inurba_marseille","lat":43.311722,"lon":5.387247,"is_reserved":false,"is_disabled":false,"rental_uris":{"android":"levelo://app?vid=e7b9d6b6-dc5a-4988-8cfa-b767c8337f93","ios":"levelo://app?vid=e7b9d6b6-dc5a-4988-8cfa-b767c8337f93"},"vehicle_type_id":"4","last_reported":1702825578,"current_range_meters":21200,"station_id":"ce4bgv12rcd13ifvqcp0","pricing_plan_id":"free"},{"bike_id":"c282b060-5af9-4efe-8588-1ebb295c5c5d","system_id":"levelo_inurba_marseille","lat":43.311722,"lon":5.387247,"is_reserved":false,"is_disabled":false,"rental_uris":{"android":"levelo://app?vid=c282b060-5af9-4efe-8588-1ebb295c5c5d","ios":"levelo://app?vid=c282b060-5af9-4efe-8588-1ebb295c5c5d"},"vehicle_type_id":"4","last_reported":1702825578,"current_range_meters":20400,"station_id":"ce4bgv12rcd13ifvqcp0","pricing_plan_id":"free"},{"bike_id":"0fa2510d-5604-484f-99ce-1af1222e440e","system_id":"levelo_inurba_marseille","lat":43.297794,"lon":5.370888,"is_reserved":false,"is_disabled":false,"rental_uris":{"android":"levelo://app?vid=0fa2510d-5604-484f-99ce-1af1222e440e","ios":"levelo://app?vid=0fa2510d-5604-484f-99ce-1af1222e440e"},"vehicle_type_id":"4","last_reported":1702825578,"current_range_meters":24800,"station_id":"ce4bgop2rcd13ifvqc1g","pricing_plan_id":"free"},{"bike_id":"1b518023-0a7f-4581-a62f-63e78b4e6c52","system_id":"levelo_inurba_marseille","lat":43.322872,"lon":5.382756,"is_reserved":false,"is_disabled":false,"rental_uris":{"android":"levelo://app?vid=1b518023-0a7f-4581-a62f-63e78b4e6c52","ios":"levelo://app?vid=1b518023-0a7f-4581-a62f-63e78b4e6c52"},"vehicle_type_id":"4","last_reported":1702825578,"current_range_meters":6000,"station_id":"ce4bhr12rcd13ifvqhqg","pricing_plan_id":"free"},{"bike_id":"9c07344d-1757-4727-a85c-d2a6ddc4fd1a","system_id":"levelo_inurba_marseille","lat":43.297794,"lon":5.370888,"is_reserved":false,"is_disabled":false,"rental_uris":{"android":"levelo://app?vid=9c07344d-1757-4727-a85c-d2a6ddc4fd1a","ios":"levelo://app?vid=9c07344d-1757-4727-a85c-d2a6ddc4fd1a"},"vehicle_type_id":"4","last_reported":1702825578,"current_range_meters":8400,"station_id":"ce4bgop2rcd13ifvqc1g","pricing_plan_id":"free"},{"bike_id":"d552ebbe-3535-4233-b783-27841fdde344","system_id":"levelo_inurba_marseille","lat":43.32828,"lon":5.36681,"is_reserved":false,"is_disabled":false,"rental_uris":{"android":"levelo://app?vid=d552ebbe-3535-4233-b783-27841fdde344","ios":"levelo://app?vid=d552ebbe-3535-4233-b783-27841fdde344"},"vehicle_type_id":"4","last_reported":1702825578,"current_range_meters":30800,"station_id":"ce4bhs92rcd13ifvqi0g","pricing_plan_id":"free"},{"bike_id":"ddfeb8c3-8d50-4f42-9ba4-1350e9e6e82a","system_id":"levelo_inurba_marseille","lat":43.297163,"lon":5.365866,"is_reserved":false,"is_disabled":false,"rental_uris":{"android":"levelo://app?vid=ddfeb8c3-8d50-4f42-9ba4-1350e9e6e82a","ios":"levelo://app?vid=ddfeb8c3-8d50-4f42-9ba4-1350e9e6e82a"},"vehicle_type_id":"4","last_reported":1702825578,"current_range_meters":8400,"station_id":"ce4bgn12rcd13ifvqbt0","pricing_plan_id":"free"},{"bike_id":"b3d24641-9c3e-4976-a172-454145b9eeda","system_id":"levelo_inurba_marseille","lat":43.296935,"lon":5.376544,"is_reserved":false,"is_disabled":false,"rental_uris":{"android":"levelo://app?vid=b3d24641-9c3e-4976-a172-454145b9eeda","ios":"levelo://app?vid=b3d24641-9c3e-4976-a172-454145b9eeda"},"vehicle_type_id":"4","last_reported":1702825578,"current_range_meters":4000,"station_id":"ce4bgkh2rcd13ifvqbl0","pricing_plan_id":"free"},{"bike_id":"360a4314-3695-4145-964d-47d5df65b28d","system_id":"levelo_inurba_marseille","lat":43.317557,"lon":5.390173,"is_reserved":false,"is_disabled":false,"rental_uris":{"android":"levelo://app?vid=360a4314-3695-4145-964d-47d5df65b28d","ios":"levelo://app?vid=360a4314-3695-4145-964d-47d5df65b28d"},"vehicle_type_id":"4","last_reported":1702825578,"current_range_meters":26800,"station_id":"ce4bhqp2rcd13ifvqhng","pricing_plan_id":"free"},{"bike_id":"fbd6ea71-825d-482d-9992-e720a56f3b32","system_id":"levelo_inurba_marseille","lat":43.317557,"lon":5.390173,"is_reserved":false,"is_disabled":false,"rental_uris":{"android":"levelo://app?vid=fbd6ea71-825d-482d-9992-e720a56f3b32","ios":"levelo://app?vid=fbd6ea71-825d-482d-9992-e720a56f3b32"},"vehicle_type_id":"4","last_reported":1702825578,"current_range_meters":29600,"station_id":"ce4bhqp2rcd13ifvqhng","pricing_plan_id":"free"},{"bike_id":"3caf0c52-25f6-44ea-bc77-c55e7fe57759","system_id":"levelo_inurba_marseille","lat":43.31756,"lon":5.39014,"is_reserved":false,"is_disabled":false,"rental_uris":{"android":"levelo://app?vid=3caf0c52-25f6-44ea-bc77-c55e7fe57759","ios":"levelo://app?vid=3caf0c52-25f6-44ea-bc77-c55e7fe57759"},"vehicle_type_id":"4","last_reported":1702825578,"current_range_meters":17200,"station_id":"ce4bhqp2rcd13ifvqhng","pricing_plan_id":"free"},{"bike_id":"63367178-583d-4cc0-a850-37a031081cac","system_id":"levelo_inurba_marseille","lat":43.295748,"lon":5.37522,"is_reserved":false,"is_disabled":false,"rental_uris":{"android":"levelo://app?vid=63367178-583d-4cc0-a850-37a031081cac","ios":"levelo://app?vid=63367178-583d-4cc0-a850-37a031081cac"},"vehicle_type_id":"4","last_reported":1702825578,"current_range_meters":0,"station_id":"ce4bgh92rcd13ifvqb50","pricing_plan_id":"free"},{"bike_id":"f2161f99-e879-4ad9-a633-b893f0b07c2f","system_id":"levelo_inurba_marseille","lat":43.299717,"lon":5.384845,"is_reserved":false,"is_disabled":false,"rental_uris":{"android":"levelo://app?vid=f2161f99-e879-4ad9-a633-b893f0b07c2f","ios":"levelo://app?vid=f2161f99-e879-4ad9-a633-b893f0b07c2f"},"vehicle_type_id":"4","last_reported":1702825578,"current_range_meters":10000,"station_id":"ce4bgj92rcd13ifvqbd0","pricing_plan_id":"free"},{"bike_id":"69b1baff-4f6d-4941-8354-e546d16f5934","system_id":"levelo_inurba_marseille","lat":43.29531,"lon":5.37501,"is_reserved":false,"is_disabled":false,"rental_uris":{"android":"levelo://app?vid=69b1baff-4f6d-4941-8354-e546d16f5934","ios":"levelo://app?vid=69b1baff-4f6d-4941-8354-e546d16f5934"},"vehicle_type_id":"4","last_reported":1702825578,"current_range_meters":0,"station_id":"ce4bgkp2rcd13ifvqbmg","pricing_plan_id":"free"},{"bike_id":"da2bf830-8371-4987-8296-d78e324a9b5b","system_id":"levelo_inurba_marseille","lat":43.296538,"lon":5.379575,"is_reserved":false,"is_disabled":false,"rental_uris":{"android":"levelo://app?vid=da2bf830-8371-4987-8296-d78e324a9b5b","ios":"levelo://app?vid=da2bf830-8371-4987-8296-d78e324a9b5b"},"vehicle_type_id":"4","last_reported":1702825578,"current_range_meters":0,"station_id":"","pricing_plan_id":"free"},{"bike_id":"a2f9ddfb-dd38-4173-aa7d-2b3c7ddaf743","system_id":"levelo_inurba_marseille","lat":43.29601,"lon":5.381084,"is_reserved":false,"is_disabled":false,"rental_uris":{"android":"levelo://app?vid=a2f9ddfb-dd38-4173-aa7d-2b3c7ddaf743","ios":"levelo://app?vid=a2f9ddfb-dd38-4173-aa7d-2b3c7ddaf743"},"vehicle_type_id":"4","last_reported":1702825578,"current_range_meters":18000,"station_id":"ce4bgl12rcd13ifvqbo0","pricing_plan_id":"free"},{"bike_id":"fa480f60-41a2-4b48-b17a-1444a5a02175","system_id":"levelo_inurba_marseille","lat":43.29602,"lon":5.381084,"is_reserved":false,"is_disabled":false,"rental_uris":{"android":"levelo://app?vid=fa480f60-41a2-4b48-b17a-1444a5a02175","ios":"levelo://app?vid=fa480f60-41a2-4b48-b17a-1444a5a02175"},"vehicle_type_id":"4","last_reported":1702825578,"current_range_meters":0,"station_id":"ce4bgl12rcd13ifvqbo0","pricing_plan_id":"free"},{"bike_id":"0877a954-e7fb-4b65-b86b-c2e0419f9d4e","system_id":"levelo_inurba_marseille","lat":43.29233,"lon":5.36608,"is_reserved":false,"is_disabled":false,"rental_uris":{"android":"levelo://app?vid=0877a954-e7fb-4b65-b86b-c2e0419f9d4e","ios":"levelo://app?vid=0877a954-e7fb-4b65-b86b-c2e0419f9d4e"},"vehicle_type_id":"4","last_reported":1702825578,"current_range_meters":0,"station_id":"","pricing_plan_id":"free"},{"bike_id":"a2593fc1-471c-42fb-a661-cff007b8349b","system_id":"levelo_inurba_marseille","lat":43.29349,"lon":5.37842,"is_reserved":false,"is_disabled":false,"rental_uris":{"android":"levelo://app?vid=a2593fc1-471c-42fb-a661-cff007b8349b","ios":"levelo://app?vid=a2593fc1-471c-42fb-a661-cff007b8349b"},"vehicle_type_id":"4","last_reported":1702825578,"current_range_meters":0,"station_id":"ce4bgjh2rcd13ifvqbf0","pricing_plan_id":"free"},{"bike_id":"5d32d96b-eb8a-4982-a242-7a5ab57e965d","system_id":"levelo_inurba_marseille","lat":43.29059,"lon":5.37162,"is_reserved":false,"is_disabled":false,"rental_uris":{"android":"levelo://app?vid=5d32d96b-eb8a-4982-a242-7a5ab57e965d","ios":"levelo://app?vid=5d32d96b-eb8a-4982-a242-7a5ab57e965d"},"vehicle_type_id":"4","last_reported":1702825578,"current_range_meters":400,"station_id":"ce4bh5p2rcd13ifvqe4g","pricing_plan_id":"free"},{"bike_id":"562dbe8a-e4bc-4e47-9424-d02817eb8a5c","system_id":"levelo_inurba_marseille","lat":43.290327,"lon":5.375711,"is_reserved":false,"is_disabled":false,"rental_uris":{"android":"levelo://app?vid=562dbe8a-e4bc-4e47-9424-d02817eb8a5c","ios":"levelo://app?vid=562dbe8a-e4bc-4e47-9424-d02817eb8a5c"},"vehicle_type_id":"4","last_reported":1702825578,"current_range_meters":24400,"station_id":"ce4bh692rcd13ifvqe90","pricing_plan_id":"free"},{"bike_id":"7606f597-bea3-4de8-ac2d-b07e22b59f25","system_id":"levelo_inurba_marseille","lat":43.290104,"lon":5.356111,"is_reserved":false,"is_disabled":false,"rental_uris":{"android":"levelo://app?vid=7606f597-bea3-4de8-ac2d-b07e22b59f25","ios":"levelo://app?vid=7606f597-bea3-4de8-ac2d-b07e22b59f25"},"vehicle_type_id":"4","last_reported":1702825578,"current_range_meters":24800,"station_id":"ce4bhb92rcd13ifvqen0","pricing_plan_id":"free"},{"bike_id":"45f5a754-8796-47ca-a01e-ef55bfdbfc66","system_id":"levelo_inurba_marseille","lat":43.290103,"lon":5.356114,"is_reserved":false,"is_disabled":false,"rental_uris":{"android":"levelo://app?vid=45f5a754-8796-47ca-a01e-ef55bfdbfc66","ios":"levelo://app?vid=45f5a754-8796-47ca-a01e-ef55bfdbfc66"},"vehicle_type_id":"4","last_reported":1702825578,"current_range_meters":14800,"station_id":"ce4bhb92rcd13ifvqen0","pricing_plan_id":"free"},{"bike_id":"5fa34a05-5c55-4873-a568-038c0fe9a5d6","system_id":"levelo_inurba_marseille","lat":43.330442,"lon":5.389148,"is_reserved":false,"is_disabled":false,"rental_uris":{"android":"levelo://app?vid=5fa34a05-5c55-4873-a568-038c0fe9a5d6","ios":"levelo://app?vid=5fa34a05-5c55-4873-a568-038c0fe9a5d6"},"vehicle_type_id":"4","last_reported":1702825578,"current_range_meters":14400,"station_id":"ce4bhr92rcd13ifvqhrg","pricing_plan_id":"free"},{"bike_id":"5e34ed2c-bf38-40ae-a8cb-00f085f8e568","system_id":"levelo_inurba_marseille","lat":43.29171,"lon":5.38309,"is_reserved":false,"is_disabled":false,"rental_uris":{"android":"levelo://app?vid=5e34ed2c-bf38-40ae-a8cb-00f085f8e568","ios":"levelo://app?vid=5e34ed2c-bf38-40ae-a8cb-00f085f8e568"},"vehicle_type_id":"4","last_reported":1702825578,"current_range_meters":0,"station_id":"","pricing_plan_id":"free"},{"bike_id":"ad0f6538-ba65-40b7-bd35-329a98101cc1","system_id":"levelo_inurba_marseille","lat":43.29014,"lon":5.35521,"is_reserved":false,"is_disabled":false,"rental_uris":{"android":"levelo://app?vid=ad0f6538-ba65-40b7-bd35-329a98101cc1","ios":"levelo://app?vid=ad0f6538-ba65-40b7-bd35-329a98101cc1"},"vehicle_type_id":"4","last_reported":1702825578,"current_range_meters":6400,"station_id":"","pricing_plan_id":"free"},{"bike_id":"4581dfa4-ffb9-45e9-a7fc-7c98451bf3a4","system_id":"levelo_inurba_marseille","lat":43.2901,"lon":5.381269,"is_reserved":false,"is_disabled":false,"rental_uris":{"android":"levelo://app?vid=4581dfa4-ffb9-45e9-a7fc-7c98451bf3a4","ios":"levelo://app?vid=4581dfa4-ffb9-45e9-a7fc-7c98451bf3a4"},"vehicle_type_id":"4","last_reported":1702825578,"current_range_meters":14400,"station_id":"ce4bh4p2rcd13ifvqe1g","pricing_plan_id":"free"},{"bike_id":"f0cd831c-cfb9-44c7-9487-103b6df223ca","system_id":"levelo_inurba_marseille","lat":43.337445,"lon":5.374592,"is_reserved":false,"is_disabled":false,"rental_uris":{"android":"levelo://app?vid=f0cd831c-cfb9-44c7-9487-103b6df223ca","ios":"levelo://app?vid=f0cd831c-cfb9-44c7-9487-103b6df223ca"},"vehicle_type_id":"4","last_reported":1702825578,"current_range_meters":25200,"station_id":"","pricing_plan_id":"free"},{"bike_id":"ef80ceab-dc9f-4b6c-8f52-707d5177f481","system_id":"levelo_inurba_marseille","lat":43.33752,"lon":5.37466,"is_reserved":false,"is_disabled":false,"rental_uris":{"android":"levelo://app?vid=ef80ceab-dc9f-4b6c-8f52-707d5177f481","ios":"levelo://app?vid=ef80ceab-dc9f-4b6c-8f52-707d5177f481"},"vehicle_type_id":"4","last_reported":1702825578,"current_range_meters":24400,"station_id":"","pricing_plan_id":"free"},{"bike_id":"76280f9e-740f-4011-91af-42128033600c","system_id":"levelo_inurba_marseille","lat":43.309371,"lon":5.401449,"is_reserved":false,"is_disabled":false,"rental_uris":{"android":"levelo://app?vid=76280f9e-740f-4011-91af-42128033600c","ios":"levelo://app?vid=76280f9e-740f-4011-91af-42128033600c"},"vehicle_type_id":"4","last_reported":1702825578,"current_range_meters":0,"station_id":"ce4bgvp2rcd13ifvqct0","pricing_plan_id":"free"},{"bike_id":"59b57198-a06f-45fa-a566-e40d5cdee018","system_id":"levelo_inurba_marseille","lat":43.33769,"lon":5.374357,"is_reserved":false,"is_disabled":false,"rental_uris":{"android":"levelo://app?vid=59b57198-a06f-45fa-a566-e40d5cdee018","ios":"levelo://app?vid=59b57198-a06f-45fa-a566-e40d5cdee018"},"vehicle_type_id":"4","last_reported":1702825578,"current_range_meters":29600,"station_id":"","pricing_plan_id":"free"},{"bike_id":"74029e47-c92e-4a09-93e2-966e816bf173","system_id":"levelo_inurba_marseille","lat":43.33762,"lon":5.374833,"is_reserved":false,"is_disabled":false,"rental_uris":{"android":"levelo://app?vid=74029e47-c92e-4a09-93e2-966e816bf173","ios":"levelo://app?vid=74029e47-c92e-4a09-93e2-966e816bf173"},"vehicle_type_id":"4","last_reported":1702825578,"current_range_meters":28400,"station_id":"","pricing_plan_id":"free"},{"bike_id":"f6eac803-2936-4a40-9e71-858d8702670e","system_id":"levelo_inurba_marseille","lat":43.33772,"lon":5.374393,"is_reserved":false,"is_disabled":false,"rental_uris":{"android":"levelo://app?vid=f6eac803-2936-4a40-9e71-858d8702670e","ios":"levelo://app?vid=f6eac803-2936-4a40-9e71-858d8702670e"},"vehicle_type_id":"4","last_reported":1702825578,"current_range_meters":24800,"station_id":"","pricing_plan_id":"free"},{"bike_id":"94ea67fa-47c4-4138-a9c4-3290c4dde384","system_id":"levelo_inurba_marseille","lat":43.30955,"lon":5.402032,"is_reserved":false,"is_disabled":false,"rental_uris":{"android":"levelo://app?vid=94ea67fa-47c4-4138-a9c4-3290c4dde384","ios":"levelo://app?vid=94ea67fa-47c4-4138-a9c4-3290c4dde384"},"vehicle_type_id":"4","last_reported":1702825578,"current_range_meters":18000,"station_id":"ce4bgvp2rcd13ifvqct0","pricing_plan_id":"free"},{"bike_id":"c2045420-022e-4e47-a9ca-b416c1a9d12b","system_id":"levelo_inurba_marseille","lat":43.28727,"lon":5.36078,"is_reserved":false,"is_disabled":false,"rental_uris":{"android":"levelo://app?vid=c2045420-022e-4e47-a9ca-b416c1a9d12b","ios":"levelo://app?vid=c2045420-022e-4e47-a9ca-b416c1a9d12b"},"vehicle_type_id":"4","last_reported":1702825578,"current_range_meters":20000,"station_id":"cki0cbj6b192h4jlfktg","pricing_plan_id":"free"},{"bike_id":"d5c6a06e-77fb-4d50-b40d-783e37cf7395","system_id":"levelo_inurba_marseille","lat":43.290345,"lon":5.38646,"is_reserved":false,"is_disabled":false,"rental_uris":{"android":"levelo://app?vid=d5c6a06e-77fb-4d50-b40d-783e37cf7395","ios":"levelo://app?vid=d5c6a06e-77fb-4d50-b40d-783e37cf7395"},"vehicle_type_id":"4","last_reported":1702825578,"current_range_meters":0,"station_id":"ce4bh4p2rcd13ifvqe0g","pricing_plan_id":"free"},{"bike_id":"8b5b0b06-7b3f-4d5c-b666-f31840972eea","system_id":"levelo_inurba_marseille","lat":43.302759,"lon":5.400793,"is_reserved":false,"is_disabled":false,"rental_uris":{"android":"levelo://app?vid=8b5b0b06-7b3f-4d5c-b666-f31840972eea","ios":"levelo://app?vid=8b5b0b06-7b3f-4d5c-b666-f31840972eea"},"vehicle_type_id":"4","last_reported":1702825578,"current_range_meters":3600,"station_id":"ce4bgvh2rcd13ifvqcs0","pricing_plan_id":"free"},{"bike_id":"0b253c6d-b4c3-41cd-8138-549b93e10779","system_id":"levelo_inurba_marseille","lat":43.287185,"lon":5.379373,"is_reserved":false,"is_disabled":false,"rental_uris":{"android":"levelo://app?vid=0b253c6d-b4c3-41cd-8138-549b93e10779","ios":"levelo://app?vid=0b253c6d-b4c3-41cd-8138-549b93e10779"},"vehicle_type_id":"4","last_reported":1702825578,"current_range_meters":24800,"station_id":"ce4bh9p2rcd13ifvqec0","pricing_plan_id":"free"},{"bike_id":"2a553197-7fdc-452f-a9e1-4c9e00d5a090","system_id":"levelo_inurba_marseille","lat":43.286039,"lon":5.370679,"is_reserved":false,"is_disabled":false,"rental_uris":{"android":"levelo://app?vid=2a553197-7fdc-452f-a9e1-4c9e00d5a090","ios":"levelo://app?vid=2a553197-7fdc-452f-a9e1-4c9e00d5a090"},"vehicle_type_id":"4","last_reported":1702825578,"current_range_meters":21200,"station_id":"ce4bht12rcd13ifvqi60","pricing_plan_id":"free"},{"bike_id":"a9fd0bc0-b5db-4711-9288-ca1c94f3f959","system_id":"levelo_inurba_marseille","lat":43.28616,"lon":5.35098,"is_reserved":false,"is_disabled":false,"rental_uris":{"android":"levelo://app?vid=a9fd0bc0-b5db-4711-9288-ca1c94f3f959","ios":"levelo://app?vid=a9fd0bc0-b5db-4711-9288-ca1c94f3f959"},"vehicle_type_id":"4","last_reported":1702825578,"current_range_meters":30000,"station_id":"ce4bhch2rcd13ifvqeug","pricing_plan_id":"free"},{"bike_id":"7a21e3d9-c744-4b44-b83f-458b6938cb2e","system_id":"levelo_inurba_marseille","lat":43.295713,"lon":5.399639,"is_reserved":false,"is_disabled":false,"rental_uris":{"android":"levelo://app?vid=7a21e3d9-c744-4b44-b83f-458b6938cb2e","ios":"levelo://app?vid=7a21e3d9-c744-4b44-b83f-458b6938cb2e"},"vehicle_type_id":"4","last_reported":1702825578,"current_range_meters":10800,"station_id":"ce4bh312rcd13ifvqdj0","pricing_plan_id":"free"},{"bike_id":"2dfa5049-0e1b-4839-b5c3-156910a65dbd","system_id":"levelo_inurba_marseille","lat":43.33156,"lon":5.39819,"is_reserved":false,"is_disabled":false,"rental_uris":{"android":"levelo://app?vid=2dfa5049-0e1b-4839-b5c3-156910a65dbd","ios":"levelo://app?vid=2dfa5049-0e1b-4839-b5c3-156910a65dbd"},"vehicle_type_id":"4","last_reported":1702825578,"current_range_meters":6000,"station_id":"","pricing_plan_id":"free"},{"bike_id":"8ad520ee-2c96-4fb2-a765-42a39314c9d9","system_id":"levelo_inurba_marseille","lat":43.286595,"lon":5.386795,"is_reserved":false,"is_disabled":false,"rental_uris":{"android":"levelo://app?vid=8ad520ee-2c96-4fb2-a765-42a39314c9d9","ios":"levelo://app?vid=8ad520ee-2c96-4fb2-a765-42a39314c9d9"},"vehicle_type_id":"4","last_reported":1702825578,"current_range_meters":0,"station_id":"ce4bh492rcd13ifvqdug","pricing_plan_id":"free"},{"bike_id":"a7e2187b-efbe-4c54-bbf2-0d9d9de30506","system_id":"levelo_inurba_marseille","lat":43.33338,"lon":5.396513,"is_reserved":false,"is_disabled":false,"rental_uris":{"android":"levelo://app?vid=a7e2187b-efbe-4c54-bbf2-0d9d9de30506","ios":"levelo://app?vid=a7e2187b-efbe-4c54-bbf2-0d9d9de30506"},"vehicle_type_id":"4","last_reported":1702825578,"current_range_meters":16000,"station_id":"","pricing_plan_id":"free"},{"bike_id":"f987e058-ea9b-4827-a0cf-e9075c7a7205","system_id":"levelo_inurba_marseille","lat":43.319179,"lon":5.407725,"is_reserved":false,"is_disabled":false,"rental_uris":{"android":"levelo://app?vid=f987e058-ea9b-4827-a0cf-e9075c7a7205","ios":"levelo://app?vid=f987e058-ea9b-4827-a0cf-e9075c7a7205"},"vehicle_type_id":"4","last_reported":1702825578,"current_range_meters":27600,"station_id":"ce4bhq12rcd13ifvqhig","pricing_plan_id":"free"},{"bike_id":"732b9988-8abd-459e-891d-577ff7c9b504","system_id":"levelo_inurba_marseille","lat":43.319179,"lon":5.407725,"is_reserved":false,"is_disabled":false,"rental_uris":{"android":"levelo://app?vid=732b9988-8abd-459e-891d-577ff7c9b504","ios":"levelo://app?vid=732b9988-8abd-459e-891d-577ff7c9b504"},"vehicle_type_id":"4","last_reported":1702825578,"current_range_meters":25600,"station_id":"ce4bhq12rcd13ifvqhig","pricing_plan_id":"free"},{"bike_id":"7023054e-ca2e-425e-8798-e65023e40a40","system_id":"levelo_inurba_marseille","lat":43.283498,"lon":5.380948,"is_reserved":false,"is_disabled":false,"rental_uris":{"android":"levelo://app?vid=7023054e-ca2e-425e-8798-e65023e40a40","ios":"levelo://app?vid=7023054e-ca2e-425e-8798-e65023e40a40"},"vehicle_type_id":"4","last_reported":1702825578,"current_range_meters":11200,"station_id":"ce4bh412rcd13ifvqdr0","pricing_plan_id":"free"},{"bike_id":"be00d1e5-1c1c-4df2-ba9f-2b7429e66c80","system_id":"levelo_inurba_marseille","lat":43.284219,"lon":5.3497,"is_reserved":false,"is_disabled":false,"rental_uris":{"android":"levelo://app?vid=be00d1e5-1c1c-4df2-ba9f-2b7429e66c80","ios":"levelo://app?vid=be00d1e5-1c1c-4df2-ba9f-2b7429e66c80"},"vehicle_type_id":"4","last_reported":1702825578,"current_range_meters":18000,"station_id":"ce4bhbh2rcd13ifvqepg","pricing_plan_id":"free"},{"bike_id":"029a9413-50f9-474e-b535-fbc1660e2c89","system_id":"levelo_inurba_marseille","lat":43.282777,"lon":5.350687,"is_reserved":false,"is_disabled":false,"rental_uris":{"android":"levelo://app?vid=029a9413-50f9-474e-b535-fbc1660e2c89","ios":"levelo://app?vid=029a9413-50f9-474e-b535-fbc1660e2c89"},"vehicle_type_id":"4","last_reported":1702825578,"current_range_meters":23200,"station_id":"ce4bhbp2rcd13ifvqerg","pricing_plan_id":"free"},{"bike_id":"abaf015c-6175-4286-bd3e-b245d3f1139e","system_id":"levelo_inurba_marseille","lat":43.283502,"lon":5.386471,"is_reserved":false,"is_disabled":false,"rental_uris":{"android":"levelo://app?vid=abaf015c-6175-4286-bd3e-b245d3f1139e","ios":"levelo://app?vid=abaf015c-6175-4286-bd3e-b245d3f1139e"},"vehicle_type_id":"4","last_reported":1702825578,"current_range_meters":3600,"station_id":"ce4bh492rcd13ifvqdvg","pricing_plan_id":"free"},{"bike_id":"a9da1894-bde0-443e-b6c2-9e7271816ccd","system_id":"levelo_inurba_marseille","lat":43.283502,"lon":5.386471,"is_reserved":false,"is_disabled":false,"rental_uris":{"android":"levelo://app?vid=a9da1894-bde0-443e-b6c2-9e7271816ccd","ios":"levelo://app?vid=a9da1894-bde0-443e-b6c2-9e7271816ccd"},"vehicle_type_id":"4","last_reported":1702825578,"current_range_meters":3600,"station_id":"ce4bh492rcd13ifvqdvg","pricing_plan_id":"free"},{"bike_id":"b1bba2b6-372d-49dd-b13b-1b4d710db23d","system_id":"levelo_inurba_marseille","lat":43.32405,"lon":5.4097,"is_reserved":false,"is_disabled":false,"rental_uris":{"android":"levelo://app?vid=b1bba2b6-372d-49dd-b13b-1b4d710db23d","ios":"levelo://app?vid=b1bba2b6-372d-49dd-b13b-1b4d710db23d"},"vehicle_type_id":"4","last_reported":1702825578,"current_range_meters":31200,"station_id":"","pricing_plan_id":"free"},{"bike_id":"62257f14-3c9d-4eca-84fe-2193dd518c01","system_id":"levelo_inurba_marseille","lat":43.32652,"lon":5.41002,"is_reserved":false,"is_disabled":false,"rental_uris":{"android":"levelo://app?vid=62257f14-3c9d-4eca-84fe-2193dd518c01","ios":"levelo://app?vid=62257f14-3c9d-4eca-84fe-2193dd518c01"},"vehicle_type_id":"4","last_reported":1702825578,"current_range_meters":30000,"station_id":"ce4bhpp2rcd13ifvqhgg","pricing_plan_id":"free"},{"bike_id":"0c79861d-c1d3-43ab-ac2d-67670088d764","system_id":"levelo_inurba_marseille","lat":43.279087,"lon":5.380114,"is_reserved":false,"is_disabled":false,"rental_uris":{"android":"levelo://app?vid=0c79861d-c1d3-43ab-ac2d-67670088d764","ios":"levelo://app?vid=0c79861d-c1d3-43ab-ac2d-67670088d764"},"vehicle_type_id":"4","last_reported":1702825578,"current_range_meters":19200,"station_id":"ce4bhf92rcd13ifvqf50","pricing_plan_id":"free"},{"bike_id":"3a57e97e-0661-4678-8660-64daa6b84577","system_id":"levelo_inurba_marseille","lat":43.299579,"lon":5.413255,"is_reserved":false,"is_disabled":false,"rental_uris":{"android":"levelo://app?vid=3a57e97e-0661-4678-8660-64daa6b84577","ios":"levelo://app?vid=3a57e97e-0661-4678-8660-64daa6b84577"},"vehicle_type_id":"4","last_reported":1702825578,"current_range_meters":25200,"station_id":"ce4bhp12rcd13ifvqh9g","pricing_plan_id":"free"},{"bike_id":"34759de5-d12d-40e7-bd07-04b505bf3921","system_id":"levelo_inurba_marseille","lat":43.279742,"lon":5.38744,"is_reserved":false,"is_disabled":false,"rental_uris":{"android":"levelo://app?vid=34759de5-d12d-40e7-bd07-04b505bf3921","ios":"levelo://app?vid=34759de5-d12d-40e7-bd07-04b505bf3921"},"vehicle_type_id":"4","last_reported":1702825578,"current_range_meters":24000,"station_id":"ce4bhg12rcd13ifvqf80","pricing_plan_id":"free"},{"bike_id":"2b255f4d-3722-41b5-a542-adea68dc8371","system_id":"levelo_inurba_marseille","lat":43.279742,"lon":5.38744,"is_reserved":false,"is_disabled":false,"rental_uris":{"android":"levelo://app?vid=2b255f4d-3722-41b5-a542-adea68dc8371","ios":"levelo://app?vid=2b255f4d-3722-41b5-a542-adea68dc8371"},"vehicle_type_id":"4","last_reported":1702825578,"current_range_meters":30400,"station_id":"ce4bhg12rcd13ifvqf80","pricing_plan_id":"free"},{"bike_id":"cb7ec236-9560-4eb0-9e05-900c40e68947","system_id":"levelo_inurba_marseille","lat":43.292569,"lon":5.409107,"is_reserved":false,"is_disabled":false,"rental_uris":{"android":"levelo://app?vid=cb7ec236-9560-4eb0-9e05-900c40e68947","ios":"levelo://app?vid=cb7ec236-9560-4eb0-9e05-900c40e68947"},"vehicle_type_id":"4","last_reported":1702825578,"current_range_meters":15200,"station_id":"ce4bh192rcd13ifvqdc0","pricing_plan_id":"free"},{"bike_id":"d6664282-f6b2-4adf-bd2d-f963415d2600","system_id":"levelo_inurba_marseille","lat":43.292571,"lon":5.409107,"is_reserved":false,"is_disabled":false,"rental_uris":{"android":"levelo://app?vid=d6664282-f6b2-4adf-bd2d-f963415d2600","ios":"levelo://app?vid=d6664282-f6b2-4adf-bd2d-f963415d2600"},"vehicle_type_id":"4","last_reported":1702825578,"current_range_meters":4800,"station_id":"ce4bh192rcd13ifvqdc0","pricing_plan_id":"free"},{"bike_id":"434f842b-f282-4dd6-b874-29e357570e08","system_id":"levelo_inurba_marseille","lat":43.325243,"lon":5.414326,"is_reserved":false,"is_disabled":false,"rental_uris":{"android":"levelo://app?vid=434f842b-f282-4dd6-b874-29e357570e08","ios":"levelo://app?vid=434f842b-f282-4dd6-b874-29e357570e08"},"vehicle_type_id":"4","last_reported":1702825578,"current_range_meters":30400,"station_id":"ce4bhq12rcd13ifvqhhg","pricing_plan_id":"free"},{"bike_id":"986c3a40-3336-4d40-8d8a-5c62db7da0fc","system_id":"levelo_inurba_marseille","lat":43.276179,"lon":5.361009,"is_reserved":false,"is_disabled":false,"rental_uris":{"android":"levelo://app?vid=986c3a40-3336-4d40-8d8a-5c62db7da0fc","ios":"levelo://app?vid=986c3a40-3336-4d40-8d8a-5c62db7da0fc"},"vehicle_type_id":"4","last_reported":1702825578,"current_range_meters":28400,"station_id":"ce4bgj92rcd13ifvqbe0","pricing_plan_id":"free"},{"bike_id":"c12cce05-6ca4-44fa-8a27-13b97e654071","system_id":"levelo_inurba_marseille","lat":43.276179,"lon":5.361009,"is_reserved":false,"is_disabled":false,"rental_uris":{"android":"levelo://app?vid=c12cce05-6ca4-44fa-8a27-13b97e654071","ios":"levelo://app?vid=c12cce05-6ca4-44fa-8a27-13b97e654071"},"vehicle_type_id":"4","last_reported":1702825578,"current_range_meters":2400,"station_id":"ce4bgj92rcd13ifvqbe0","pricing_plan_id":"free"},{"bike_id":"8111680d-b7fa-40d0-a257-20f631f2bf9a","system_id":"levelo_inurba_marseille","lat":43.278401,"lon":5.392152,"is_reserved":false,"is_disabled":false,"rental_uris":{"android":"levelo://app?vid=8111680d-b7fa-40d0-a257-20f631f2bf9a","ios":"levelo://app?vid=8111680d-b7fa-40d0-a257-20f631f2bf9a"},"vehicle_type_id":"4","last_reported":1702825578,"current_range_meters":27600,"station_id":"ce4bhjp2rcd13ifvqga0","pricing_plan_id":"free"},{"bike_id":"4d82301d-c057-4648-8590-e432d4239c2f","system_id":"levelo_inurba_marseille","lat":43.27385,"lon":5.36257,"is_reserved":false,"is_disabled":false,"rental_uris":{"android":"levelo://app?vid=4d82301d-c057-4648-8590-e432d4239c2f","ios":"levelo://app?vid=4d82301d-c057-4648-8590-e432d4239c2f"},"vehicle_type_id":"4","last_reported":1702825578,"current_range_meters":24400,"station_id":"ce4bhbh2rcd13ifvqeo0","pricing_plan_id":"free"},{"bike_id":"b1dfbff9-8309-45e9-b5d6-dcf6bd9fa73b","system_id":"levelo_inurba_marseille","lat":43.273613,"lon":5.362705,"is_reserved":false,"is_disabled":false,"rental_uris":{"android":"levelo://app?vid=b1dfbff9-8309-45e9-b5d6-dcf6bd9fa73b","ios":"levelo://app?vid=b1dfbff9-8309-45e9-b5d6-dcf6bd9fa73b"},"vehicle_type_id":"4","last_reported":1702825578,"current_range_meters":22000,"station_id":"ce4bhbh2rcd13ifvqeo0","pricing_plan_id":"free"},{"bike_id":"21e8c0e6-8aa3-4b07-9913-2913c67d785b","system_id":"levelo_inurba_marseille","lat":43.273613,"lon":5.362705,"is_reserved":false,"is_disabled":false,"rental_uris":{"android":"levelo://app?vid=21e8c0e6-8aa3-4b07-9913-2913c67d785b","ios":"levelo://app?vid=21e8c0e6-8aa3-4b07-9913-2913c67d785b"},"vehicle_type_id":"4","last_reported":1702825578,"current_range_meters":23200,"station_id":"ce4bhbh2rcd13ifvqeo0","pricing_plan_id":"free"},{"bike_id":"c924f36e-a5ce-4141-8db7-5c93bf8b5ead","system_id":"levelo_inurba_marseille","lat":43.336134,"lon":5.410341,"is_reserved":false,"is_disabled":false,"rental_uris":{"android":"levelo://app?vid=c924f36e-a5ce-4141-8db7-5c93bf8b5ead","ios":"levelo://app?vid=c924f36e-a5ce-4141-8db7-5c93bf8b5ead"},"vehicle_type_id":"4","last_reported":1702825578,"current_range_meters":30800,"station_id":"ce4bhqh2rcd13ifvqhmg","pricing_plan_id":"free"},{"bike_id":"178b254e-5b0d-4319-bfcd-65d3e8cf8036","system_id":"levelo_inurba_marseille","lat":43.273613,"lon":5.362705,"is_reserved":false,"is_disabled":false,"rental_uris":{"android":"levelo://app?vid=178b254e-5b0d-4319-bfcd-65d3e8cf8036","ios":"levelo://app?vid=178b254e-5b0d-4319-bfcd-65d3e8cf8036"},"vehicle_type_id":"4","last_reported":1702825578,"current_range_meters":26000,"station_id":"ce4bhbh2rcd13ifvqeo0","pricing_plan_id":"free"},{"bike_id":"ea3d35f6-b07e-4308-ae51-5376e9d8e7cc","system_id":"levelo_inurba_marseille","lat":43.27348,"lon":5.36457,"is_reserved":false,"is_disabled":false,"rental_uris":{"android":"levelo://app?vid=ea3d35f6-b07e-4308-ae51-5376e9d8e7cc","ios":"levelo://app?vid=ea3d35f6-b07e-4308-ae51-5376e9d8e7cc"},"vehicle_type_id":"4","last_reported":1702825578,"current_range_meters":11600,"station_id":"","pricing_plan_id":"free"},{"bike_id":"438c8346-0af0-4f77-87c0-7808076a5627","system_id":"levelo_inurba_marseille","lat":43.279975,"lon":5.40009,"is_reserved":false,"is_disabled":false,"rental_uris":{"android":"levelo://app?vid=438c8346-0af0-4f77-87c0-7808076a5627","ios":"levelo://app?vid=438c8346-0af0-4f77-87c0-7808076a5627"},"vehicle_type_id":"4","last_reported":1702825578,"current_range_meters":22800,"station_id":"ce4bho92rcd13ifvqh4g","pricing_plan_id":"free"},{"bike_id":"251de0dc-299e-4a18-abf1-eec4ea9c23e2","system_id":"levelo_inurba_marseille","lat":43.310785,"lon":5.424305,"is_reserved":false,"is_disabled":false,"rental_uris":{"android":"levelo://app?vid=251de0dc-299e-4a18-abf1-eec4ea9c23e2","ios":"levelo://app?vid=251de0dc-299e-4a18-abf1-eec4ea9c23e2"},"vehicle_type_id":"4","last_reported":1702825578,"current_range_meters":31200,"station_id":"ce4bhp92rcd13ifvqhag","pricing_plan_id":"free"},{"bike_id":"f97f3ae3-0746-4a73-8a97-072f8aa9cb10","system_id":"levelo_inurba_marseille","lat":43.310785,"lon":5.424305,"is_reserved":false,"is_disabled":false,"rental_uris":{"android":"levelo://app?vid=f97f3ae3-0746-4a73-8a97-072f8aa9cb10","ios":"levelo://app?vid=f97f3ae3-0746-4a73-8a97-072f8aa9cb10"},"vehicle_type_id":"4","last_reported":1702825578,"current_range_meters":31200,"station_id":"ce4bhp92rcd13ifvqhag","pricing_plan_id":"free"},{"bike_id":"3ca2c2d2-99b0-4aa6-a05d-e30f02e6a7fb","system_id":"levelo_inurba_marseille","lat":43.276092,"lon":5.395289,"is_reserved":false,"is_disabled":false,"rental_uris":{"android":"levelo://app?vid=3ca2c2d2-99b0-4aa6-a05d-e30f02e6a7fb","ios":"levelo://app?vid=3ca2c2d2-99b0-4aa6-a05d-e30f02e6a7fb"},"vehicle_type_id":"4","last_reported":1702825578,"current_range_meters":18400,"station_id":"","pricing_plan_id":"free"},{"bike_id":"881fd1b3-f3bf-47a7-be80-cf1b5b94c0b8","system_id":"levelo_inurba_marseille","lat":43.273125,"lon":5.390731,"is_reserved":false,"is_disabled":false,"rental_uris":{"android":"levelo://app?vid=881fd1b3-f3bf-47a7-be80-cf1b5b94c0b8","ios":"levelo://app?vid=881fd1b3-f3bf-47a7-be80-cf1b5b94c0b8"},"vehicle_type_id":"4","last_reported":1702825578,"current_range_meters":19600,"station_id":"ce4bhgp2rcd13ifvqfe0","pricing_plan_id":"free"},{"bike_id":"219fa93e-0ec4-416c-96bb-ee06abb7da1a","system_id":"levelo_inurba_marseille","lat":43.273129,"lon":5.390725,"is_reserved":false,"is_disabled":false,"rental_uris":{"android":"levelo://app?vid=219fa93e-0ec4-416c-96bb-ee06abb7da1a","ios":"levelo://app?vid=219fa93e-0ec4-416c-96bb-ee06abb7da1a"},"vehicle_type_id":"4","last_reported":1702825578,"current_range_meters":7200,"station_id":"ce4bhgp2rcd13ifvqfe0","pricing_plan_id":"free"},{"bike_id":"5e2ca4b2-e9bf-40db-9b08-fb4c54cd7a74","system_id":"levelo_inurba_marseille","lat":43.273129,"lon":5.390725,"is_reserved":false,"is_disabled":false,"rental_uris":{"android":"levelo://app?vid=5e2ca4b2-e9bf-40db-9b08-fb4c54cd7a74","ios":"levelo://app?vid=5e2ca4b2-e9bf-40db-9b08-fb4c54cd7a74"},"vehicle_type_id":"4","last_reported":1702825578,"current_range_meters":5600,"station_id":"ce4bhgp2rcd13ifvqfe0","pricing_plan_id":"free"},{"bike_id":"5449803f-9634-4bc3-8e84-30019a0759e4","system_id":"levelo_inurba_marseille","lat":43.272124,"lon":5.391768,"is_reserved":false,"is_disabled":false,"rental_uris":{"android":"levelo://app?vid=5449803f-9634-4bc3-8e84-30019a0759e4","ios":"levelo://app?vid=5449803f-9634-4bc3-8e84-30019a0759e4"},"vehicle_type_id":"4","last_reported":1702825578,"current_range_meters":21600,"station_id":"ce4bhhp2rcd13ifvqfm0","pricing_plan_id":"free"},{"bike_id":"5598bbbb-8d9d-4d6c-93db-b94a00f2afd4","system_id":"levelo_inurba_marseille","lat":43.272116,"lon":5.391763,"is_reserved":false,"is_disabled":false,"rental_uris":{"android":"levelo://app?vid=5598bbbb-8d9d-4d6c-93db-b94a00f2afd4","ios":"levelo://app?vid=5598bbbb-8d9d-4d6c-93db-b94a00f2afd4"},"vehicle_type_id":"4","last_reported":1702825578,"current_range_meters":19600,"station_id":"ce4bhhp2rcd13ifvqfm0","pricing_plan_id":"free"},{"bike_id":"c30e7dbe-f90e-4e16-9471-e3af4ccb7fb3","system_id":"levelo_inurba_marseille","lat":43.272124,"lon":5.391768,"is_reserved":false,"is_disabled":false,"rental_uris":{"android":"levelo://app?vid=c30e7dbe-f90e-4e16-9471-e3af4ccb7fb3","ios":"levelo://app?vid=c30e7dbe-f90e-4e16-9471-e3af4ccb7fb3"},"vehicle_type_id":"4","last_reported":1702825578,"current_range_meters":3600,"station_id":"ce4bhhp2rcd13ifvqfm0","pricing_plan_id":"free"},{"bike_id":"ad8b2bdb-bdf3-4eae-a690-121892a8fc01","system_id":"levelo_inurba_marseille","lat":43.272116,"lon":5.391763,"is_reserved":false,"is_disabled":false,"rental_uris":{"android":"levelo://app?vid=ad8b2bdb-bdf3-4eae-a690-121892a8fc01","ios":"levelo://app?vid=ad8b2bdb-bdf3-4eae-a690-121892a8fc01"},"vehicle_type_id":"4","last_reported":1702825578,"current_range_meters":31200,"station_id":"ce4bhhp2rcd13ifvqfm0","pricing_plan_id":"free"},{"bike_id":"317f1517-49b4-42c6-8682-be2a5cefd51a","system_id":"levelo_inurba_marseille","lat":43.272124,"lon":5.391768,"is_reserved":false,"is_disabled":false,"rental_uris":{"android":"levelo://app?vid=317f1517-49b4-42c6-8682-be2a5cefd51a","ios":"levelo://app?vid=317f1517-49b4-42c6-8682-be2a5cefd51a"},"vehicle_type_id":"4","last_reported":1702825578,"current_range_meters":28000,"station_id":"ce4bhhp2rcd13ifvqfm0","pricing_plan_id":"free"},{"bike_id":"7c5e5a9a-9f39-4a14-9573-d5b8ab599dd5","system_id":"levelo_inurba_marseille","lat":43.27188,"lon":5.39224,"is_reserved":false,"is_disabled":false,"rental_uris":{"android":"levelo://app?vid=7c5e5a9a-9f39-4a14-9573-d5b8ab599dd5","ios":"levelo://app?vid=7c5e5a9a-9f39-4a14-9573-d5b8ab599dd5"},"vehicle_type_id":"4","last_reported":1702825578,"current_range_meters":17600,"station_id":"ce4bhhp2rcd13ifvqfm0","pricing_plan_id":"free"},{"bike_id":"bc8eff83-46ca-4668-b744-521583449d2b","system_id":"levelo_inurba_marseille","lat":43.269467,"lon":5.386439,"is_reserved":false,"is_disabled":false,"rental_uris":{"android":"levelo://app?vid=bc8eff83-46ca-4668-b744-521583449d2b","ios":"levelo://app?vid=bc8eff83-46ca-4668-b744-521583449d2b"},"vehicle_type_id":"4","last_reported":1702825578,"current_range_meters":31600,"station_id":"ce4bhh92rcd13ifvqfh0","pricing_plan_id":"free"},{"bike_id":"c0d4131f-8d8d-4750-bf09-aa224f883954","system_id":"levelo_inurba_marseille","lat":43.27948,"lon":5.41045,"is_reserved":false,"is_disabled":false,"rental_uris":{"android":"levelo://app?vid=c0d4131f-8d8d-4750-bf09-aa224f883954","ios":"levelo://app?vid=c0d4131f-8d8d-4750-bf09-aa224f883954"},"vehicle_type_id":"4","last_reported":1702825578,"current_range_meters":0,"station_id":"ce4bhnp2rcd13ifvqh0g","pricing_plan_id":"free"},{"bike_id":"db774753-4382-453e-a138-c32d538f9839","system_id":"levelo_inurba_marseille","lat":43.358673,"lon":5.356739,"is_reserved":false,"is_disabled":false,"rental_uris":{"android":"levelo://app?vid=db774753-4382-453e-a138-c32d538f9839","ios":"levelo://app?vid=db774753-4382-453e-a138-c32d538f9839"},"vehicle_type_id":"4","last_reported":1702825578,"current_range_meters":11200,"station_id":"","pricing_plan_id":"free"},{"bike_id":"3ec397f0-b8da-4e84-be43-f4abb20ebecf","system_id":"levelo_inurba_marseille","lat":43.276627,"lon":5.411798,"is_reserved":false,"is_disabled":false,"rental_uris":{"android":"levelo://app?vid=3ec397f0-b8da-4e84-be43-f4abb20ebecf","ios":"levelo://app?vid=3ec397f0-b8da-4e84-be43-f4abb20ebecf"},"vehicle_type_id":"4","last_reported":1702825578,"current_range_meters":27200,"station_id":"","pricing_plan_id":"free"},{"bike_id":"79aa8b6d-2cb1-44f8-8fa0-e2efc9c27bbb","system_id":"levelo_inurba_marseille","lat":43.265714,"lon":5.372891,"is_reserved":false,"is_disabled":false,"rental_uris":{"android":"levelo://app?vid=79aa8b6d-2cb1-44f8-8fa0-e2efc9c27bbb","ios":"levelo://app?vid=79aa8b6d-2cb1-44f8-8fa0-e2efc9c27bbb"},"vehicle_type_id":"4","last_reported":1702825578,"current_range_meters":19200,"station_id":"ce4bhg12rcd13ifvqf70","pricing_plan_id":"free"},{"bike_id":"2b8d4d39-0b95-4a15-8ce0-9836020f1901","system_id":"levelo_inurba_marseille","lat":43.26789,"lon":5.39418,"is_reserved":false,"is_disabled":false,"rental_uris":{"android":"levelo://app?vid=2b8d4d39-0b95-4a15-8ce0-9836020f1901","ios":"levelo://app?vid=2b8d4d39-0b95-4a15-8ce0-9836020f1901"},"vehicle_type_id":"4","last_reported":1702825578,"current_range_meters":26000,"station_id":"ce4bhh12rcd13ifvqfg0","pricing_plan_id":"free"},{"bike_id":"ab87b622-b2a6-4f78-b911-849f0dda141a","system_id":"levelo_inurba_marseille","lat":43.26786,"lon":5.39412,"is_reserved":false,"is_disabled":false,"rental_uris":{"android":"levelo://app?vid=ab87b622-b2a6-4f78-b911-849f0dda141a","ios":"levelo://app?vid=ab87b622-b2a6-4f78-b911-849f0dda141a"},"vehicle_type_id":"4","last_reported":1702825578,"current_range_meters":2400,"station_id":"ce4bhh12rcd13ifvqfg0","pricing_plan_id":"free"},{"bike_id":"aaf4e48a-9b77-42fe-a999-8a25db259be0","system_id":"levelo_inurba_marseille","lat":43.26785,"lon":5.39421,"is_reserved":false,"is_disabled":false,"rental_uris":{"android":"levelo://app?vid=aaf4e48a-9b77-42fe-a999-8a25db259be0","ios":"levelo://app?vid=aaf4e48a-9b77-42fe-a999-8a25db259be0"},"vehicle_type_id":"4","last_reported":1702825578,"current_range_meters":25600,"station_id":"ce4bhh12rcd13ifvqfg0","pricing_plan_id":"free"},{"bike_id":"52b75330-794b-4ffe-89fe-9184ff499c6e","system_id":"levelo_inurba_marseille","lat":43.26784,"lon":5.39418,"is_reserved":false,"is_disabled":false,"rental_uris":{"android":"levelo://app?vid=52b75330-794b-4ffe-89fe-9184ff499c6e","ios":"levelo://app?vid=52b75330-794b-4ffe-89fe-9184ff499c6e"},"vehicle_type_id":"4","last_reported":1702825578,"current_range_meters":30800,"station_id":"ce4bhh12rcd13ifvqfg0","pricing_plan_id":"free"},{"bike_id":"04243655-5fac-451f-a46a-afe846fd4d1c","system_id":"levelo_inurba_marseille","lat":43.26782,"lon":5.39415,"is_reserved":false,"is_disabled":false,"rental_uris":{"android":"levelo://app?vid=04243655-5fac-451f-a46a-afe846fd4d1c","ios":"levelo://app?vid=04243655-5fac-451f-a46a-afe846fd4d1c"},"vehicle_type_id":"4","last_reported":1702825578,"current_range_meters":28800,"station_id":"ce4bhh12rcd13ifvqfg0","pricing_plan_id":"free"},{"bike_id":"11f243d6-0e08-4b97-892a-32035fcf6a37","system_id":"levelo_inurba_marseille","lat":43.26779,"lon":5.39414,"is_reserved":false,"is_disabled":false,"rental_uris":{"android":"levelo://app?vid=11f243d6-0e08-4b97-892a-32035fcf6a37","ios":"levelo://app?vid=11f243d6-0e08-4b97-892a-32035fcf6a37"},"vehicle_type_id":"4","last_reported":1702825578,"current_range_meters":0,"station_id":"ce4bhh12rcd13ifvqfg0","pricing_plan_id":"free"},{"bike_id":"9f9370cb-c476-4c79-8834-5a6ebbd8bf43","system_id":"levelo_inurba_marseille","lat":43.267966,"lon":5.393976,"is_reserved":false,"is_disabled":false,"rental_uris":{"android":"levelo://app?vid=9f9370cb-c476-4c79-8834-5a6ebbd8bf43","ios":"levelo://app?vid=9f9370cb-c476-4c79-8834-5a6ebbd8bf43"},"vehicle_type_id":"4","last_reported":1702825578,"current_range_meters":21600,"station_id":"ce4bhh12rcd13ifvqfg0","pricing_plan_id":"free"},{"bike_id":"8402439a-b7c8-4f07-b3fe-348aa67fc1e4","system_id":"levelo_inurba_marseille","lat":43.267966,"lon":5.393976,"is_reserved":false,"is_disabled":false,"rental_uris":{"android":"levelo://app?vid=8402439a-b7c8-4f07-b3fe-348aa67fc1e4","ios":"levelo://app?vid=8402439a-b7c8-4f07-b3fe-348aa67fc1e4"},"vehicle_type_id":"4","last_reported":1702825578,"current_range_meters":20400,"station_id":"ce4bhh12rcd13ifvqfg0","pricing_plan_id":"free"},{"bike_id":"93902faa-2e5e-40a5-af73-6f196ae47cf8","system_id":"levelo_inurba_marseille","lat":43.26944,"lon":5.4025,"is_reserved":false,"is_disabled":false,"rental_uris":{"android":"levelo://app?vid=93902faa-2e5e-40a5-af73-6f196ae47cf8","ios":"levelo://app?vid=93902faa-2e5e-40a5-af73-6f196ae47cf8"},"vehicle_type_id":"4","last_reported":1702825578,"current_range_meters":23600,"station_id":"cjm6bp8fraef2m0cb0m0","pricing_plan_id":"free"},{"bike_id":"203029aa-b894-498b-a282-dab96fdff6c3","system_id":"levelo_inurba_marseille","lat":43.26942,"lon":5.40247,"is_reserved":false,"is_disabled":false,"rental_uris":{"android":"levelo://app?vid=203029aa-b894-498b-a282-dab96fdff6c3","ios":"levelo://app?vid=203029aa-b894-498b-a282-dab96fdff6c3"},"vehicle_type_id":"4","last_reported":1702825578,"current_range_meters":20400,"station_id":"cjm6bp8fraef2m0cb0m0","pricing_plan_id":"free"},{"bike_id":"ca5e6e4e-54d6-4792-a912-a1bd591d741a","system_id":"levelo_inurba_marseille","lat":43.292749,"lon":5.368402,"is_reserved":false,"is_disabled":false,"rental_uris":{"android":"levelo://app?vid=ca5e6e4e-54d6-4792-a912-a1bd591d741a","ios":"levelo://app?vid=ca5e6e4e-54d6-4792-a912-a1bd591d741a"},"vehicle_type_id":"4","last_reported":1702825578,"current_range_meters":19600,"station_id":"ce4bhbp2rcd13ifvqesg","pricing_plan_id":"free"},{"bike_id":"8eacc825-5cce-4ee1-a3f5-66b3496c181c","system_id":"levelo_inurba_marseille","lat":43.26943,"lon":5.4026,"is_reserved":false,"is_disabled":false,"rental_uris":{"android":"levelo://app?vid=8eacc825-5cce-4ee1-a3f5-66b3496c181c","ios":"levelo://app?vid=8eacc825-5cce-4ee1-a3f5-66b3496c181c"},"vehicle_type_id":"4","last_reported":1702825578,"current_range_meters":27200,"station_id":"cjm6bp8fraef2m0cb0m0","pricing_plan_id":"free"},{"bike_id":"8a89967b-a5ba-4c98-9fe4-fc037e82266e","system_id":"levelo_inurba_marseille","lat":43.2694,"lon":5.40268,"is_reserved":false,"is_disabled":false,"rental_uris":{"android":"levelo://app?vid=8a89967b-a5ba-4c98-9fe4-fc037e82266e","ios":"levelo://app?vid=8a89967b-a5ba-4c98-9fe4-fc037e82266e"},"vehicle_type_id":"4","last_reported":1702825578,"current_range_meters":21600,"station_id":"cjm6bp8fraef2m0cb0m0","pricing_plan_id":"free"},{"bike_id":"2ddaa260-3dde-415e-85e9-e03f5b2dd164","system_id":"levelo_inurba_marseille","lat":43.26936,"lon":5.40261,"is_reserved":false,"is_disabled":false,"rental_uris":{"android":"levelo://app?vid=2ddaa260-3dde-415e-85e9-e03f5b2dd164","ios":"levelo://app?vid=2ddaa260-3dde-415e-85e9-e03f5b2dd164"},"vehicle_type_id":"4","last_reported":1702825578,"current_range_meters":800,"station_id":"cjm6bp8fraef2m0cb0m0","pricing_plan_id":"free"},{"bike_id":"f5ccaa48-2fbb-473b-b46a-425adddb5dcc","system_id":"levelo_inurba_marseille","lat":43.265569,"lon":5.390047,"is_reserved":false,"is_disabled":false,"rental_uris":{"android":"levelo://app?vid=f5ccaa48-2fbb-473b-b46a-425adddb5dcc","ios":"levelo://app?vid=f5ccaa48-2fbb-473b-b46a-425adddb5dcc"},"vehicle_type_id":"4","last_reported":1702825578,"current_range_meters":28400,"station_id":"ce4bhe12rcd13ifvqf30","pricing_plan_id":"free"},{"bike_id":"b87634c5-67a8-4796-a2ee-118d43ce2c8b","system_id":"levelo_inurba_marseille","lat":43.26202,"lon":5.379299,"is_reserved":false,"is_disabled":false,"rental_uris":{"android":"levelo://app?vid=b87634c5-67a8-4796-a2ee-118d43ce2c8b","ios":"levelo://app?vid=b87634c5-67a8-4796-a2ee-118d43ce2c8b"},"vehicle_type_id":"4","last_reported":1702825578,"current_range_meters":20000,"station_id":"ce4bhjp2rcd13ifvqg90","pricing_plan_id":"free"},{"bike_id":"38f9b33e-7b6c-4c27-be0e-fc968ebfecaf","system_id":"levelo_inurba_marseille","lat":43.267959,"lon":5.402687,"is_reserved":false,"is_disabled":false,"rental_uris":{"android":"levelo://app?vid=38f9b33e-7b6c-4c27-be0e-fc968ebfecaf","ios":"levelo://app?vid=38f9b33e-7b6c-4c27-be0e-fc968ebfecaf"},"vehicle_type_id":"4","last_reported":1702825578,"current_range_meters":13200,"station_id":"ce501612rcd8frsf0b60","pricing_plan_id":"free"},{"bike_id":"5cc87c5f-03c3-4c7f-bcd8-e11e665d9b9a","system_id":"levelo_inurba_marseille","lat":43.267959,"lon":5.402687,"is_reserved":false,"is_disabled":false,"rental_uris":{"android":"levelo://app?vid=5cc87c5f-03c3-4c7f-bcd8-e11e665d9b9a","ios":"levelo://app?vid=5cc87c5f-03c3-4c7f-bcd8-e11e665d9b9a"},"vehicle_type_id":"4","last_reported":1702825578,"current_range_meters":22800,"station_id":"ce501612rcd8frsf0b60","pricing_plan_id":"free"},{"bike_id":"6c0377bb-a76e-4969-939b-7403664e0b8c","system_id":"levelo_inurba_marseille","lat":43.267959,"lon":5.402687,"is_reserved":false,"is_disabled":false,"rental_uris":{"android":"levelo://app?vid=6c0377bb-a76e-4969-939b-7403664e0b8c","ios":"levelo://app?vid=6c0377bb-a76e-4969-939b-7403664e0b8c"},"vehicle_type_id":"4","last_reported":1702825578,"current_range_meters":30400,"station_id":"ce501612rcd8frsf0b60","pricing_plan_id":"free"},{"bike_id":"7743d713-d033-44f0-9919-d35e21ec4494","system_id":"levelo_inurba_marseille","lat":43.26501,"lon":5.39549,"is_reserved":false,"is_disabled":false,"rental_uris":{"android":"levelo://app?vid=7743d713-d033-44f0-9919-d35e21ec4494","ios":"levelo://app?vid=7743d713-d033-44f0-9919-d35e21ec4494"},"vehicle_type_id":"4","last_reported":1702825578,"current_range_meters":17200,"station_id":"","pricing_plan_id":"free"},{"bike_id":"0ec5e271-7cd0-420b-b23c-1b753d83e615","system_id":"levelo_inurba_marseille","lat":43.26499,"lon":5.39551,"is_reserved":false,"is_disabled":false,"rental_uris":{"android":"levelo://app?vid=0ec5e271-7cd0-420b-b23c-1b753d83e615","ios":"levelo://app?vid=0ec5e271-7cd0-420b-b23c-1b753d83e615"},"vehicle_type_id":"4","last_reported":1702825578,"current_range_meters":0,"station_id":"","pricing_plan_id":"free"},{"bike_id":"4c30ab0b-cc54-4ba6-ae72-a8fb812c2d2c","system_id":"levelo_inurba_marseille","lat":43.26498,"lon":5.3955,"is_reserved":false,"is_disabled":false,"rental_uris":{"android":"levelo://app?vid=4c30ab0b-cc54-4ba6-ae72-a8fb812c2d2c","ios":"levelo://app?vid=4c30ab0b-cc54-4ba6-ae72-a8fb812c2d2c"},"vehicle_type_id":"4","last_reported":1702825578,"current_range_meters":23600,"station_id":"","pricing_plan_id":"free"},{"bike_id":"b26e7e51-8709-4576-a4f2-6eeb093338f5","system_id":"levelo_inurba_marseille","lat":43.26496,"lon":5.39547,"is_reserved":false,"is_disabled":false,"rental_uris":{"android":"levelo://app?vid=b26e7e51-8709-4576-a4f2-6eeb093338f5","ios":"levelo://app?vid=b26e7e51-8709-4576-a4f2-6eeb093338f5"},"vehicle_type_id":"4","last_reported":1702825578,"current_range_meters":1600,"station_id":"","pricing_plan_id":"free"},{"bike_id":"45f537d4-c8e4-45cb-92c1-e06089b5a82d","system_id":"levelo_inurba_marseille","lat":43.298768,"lon":5.43643,"is_reserved":false,"is_disabled":false,"rental_uris":{"android":"levelo://app?vid=45f537d4-c8e4-45cb-92c1-e06089b5a82d","ios":"levelo://app?vid=45f537d4-c8e4-45cb-92c1-e06089b5a82d"},"vehicle_type_id":"4","last_reported":1702825578,"current_range_meters":2400,"station_id":"ce4bhpp2rcd13ifvqhfg","pricing_plan_id":"free"},{"bike_id":"c7752e71-635d-4d21-a8ec-626db7324f1f","system_id":"levelo_inurba_marseille","lat":43.260219,"lon":5.37546,"is_reserved":false,"is_disabled":false,"rental_uris":{"android":"levelo://app?vid=c7752e71-635d-4d21-a8ec-626db7324f1f","ios":"levelo://app?vid=c7752e71-635d-4d21-a8ec-626db7324f1f"},"vehicle_type_id":"4","last_reported":1702825578,"current_range_meters":30000,"station_id":"ce4bhgh2rcd13ifvqfa0","pricing_plan_id":"free"},{"bike_id":"789899a7-63a0-46b3-843c-64ff0b8e294b","system_id":"levelo_inurba_marseille","lat":43.28152,"lon":5.42639,"is_reserved":false,"is_disabled":false,"rental_uris":{"android":"levelo://app?vid=789899a7-63a0-46b3-843c-64ff0b8e294b","ios":"levelo://app?vid=789899a7-63a0-46b3-843c-64ff0b8e294b"},"vehicle_type_id":"4","last_reported":1702825578,"current_range_meters":2400,"station_id":"ce4bhnh2rcd13ifvqgug","pricing_plan_id":"free"},{"bike_id":"223d1cab-5d38-46ee-919f-5d351de1e8a1","system_id":"levelo_inurba_marseille","lat":43.2607,"lon":5.393983,"is_reserved":false,"is_disabled":false,"rental_uris":{"android":"levelo://app?vid=223d1cab-5d38-46ee-919f-5d351de1e8a1","ios":"levelo://app?vid=223d1cab-5d38-46ee-919f-5d351de1e8a1"},"vehicle_type_id":"4","last_reported":1702825578,"current_range_meters":11600,"station_id":"ce4bhh92rcd13ifvqfj0","pricing_plan_id":"free"},{"bike_id":"eb75def5-f7e9-4e16-997b-26a11912ac95","system_id":"levelo_inurba_marseille","lat":43.2607,"lon":5.393983,"is_reserved":false,"is_disabled":false,"rental_uris":{"android":"levelo://app?vid=eb75def5-f7e9-4e16-997b-26a11912ac95","ios":"levelo://app?vid=eb75def5-f7e9-4e16-997b-26a11912ac95"},"vehicle_type_id":"4","last_reported":1702825578,"current_range_meters":16400,"station_id":"ce4bhh92rcd13ifvqfj0","pricing_plan_id":"free"},{"bike_id":"dc5b3333-f2bc-4446-a6c5-a0f9c03b9c29","system_id":"levelo_inurba_marseille","lat":43.2607,"lon":5.393983,"is_reserved":false,"is_disabled":false,"rental_uris":{"android":"levelo://app?vid=dc5b3333-f2bc-4446-a6c5-a0f9c03b9c29","ios":"levelo://app?vid=dc5b3333-f2bc-4446-a6c5-a0f9c03b9c29"},"vehicle_type_id":"4","last_reported":1702825578,"current_range_meters":12400,"station_id":"ce4bhh92rcd13ifvqfj0","pricing_plan_id":"free"},{"bike_id":"66d47908-7a00-44bc-9acb-de9efae9b91f","system_id":"levelo_inurba_marseille","lat":43.275028,"lon":5.424534,"is_reserved":false,"is_disabled":false,"rental_uris":{"android":"levelo://app?vid=66d47908-7a00-44bc-9acb-de9efae9b91f","ios":"levelo://app?vid=66d47908-7a00-44bc-9acb-de9efae9b91f"},"vehicle_type_id":"4","last_reported":1702825578,"current_range_meters":19200,"station_id":"ce4bhn92rcd13ifvqgrg","pricing_plan_id":"free"},{"bike_id":"b6836b5c-bf87-43d1-afcb-477e491235ab","system_id":"levelo_inurba_marseille","lat":43.260887,"lon":5.39766,"is_reserved":false,"is_disabled":false,"rental_uris":{"android":"levelo://app?vid=b6836b5c-bf87-43d1-afcb-477e491235ab","ios":"levelo://app?vid=b6836b5c-bf87-43d1-afcb-477e491235ab"},"vehicle_type_id":"4","last_reported":1702825578,"current_range_meters":400,"station_id":"","pricing_plan_id":"free"},{"bike_id":"9a221386-4eef-461d-8e18-f3fc3f633bbb","system_id":"levelo_inurba_marseille","lat":43.25751,"lon":5.38976,"is_reserved":false,"is_disabled":false,"rental_uris":{"android":"levelo://app?vid=9a221386-4eef-461d-8e18-f3fc3f633bbb","ios":"levelo://app?vid=9a221386-4eef-461d-8e18-f3fc3f633bbb"},"vehicle_type_id":"4","last_reported":1702825578,"current_range_meters":21600,"station_id":"","pricing_plan_id":"free"},{"bike_id":"c389d107-e6f2-478d-bd6a-ba0085ee0286","system_id":"levelo_inurba_marseille","lat":43.25827,"lon":5.3943,"is_reserved":false,"is_disabled":false,"rental_uris":{"android":"levelo://app?vid=c389d107-e6f2-478d-bd6a-ba0085ee0286","ios":"levelo://app?vid=c389d107-e6f2-478d-bd6a-ba0085ee0286"},"vehicle_type_id":"4","last_reported":1702825578,"current_range_meters":24000,"station_id":"ce4bhip2rcd13ifvqft0","pricing_plan_id":"free"},{"bike_id":"aae0aa1c-fe31-4b1a-a382-444c7c82fcef","system_id":"levelo_inurba_marseille","lat":43.2558,"lon":5.382317,"is_reserved":false,"is_disabled":false,"rental_uris":{"android":"levelo://app?vid=aae0aa1c-fe31-4b1a-a382-444c7c82fcef","ios":"levelo://app?vid=aae0aa1c-fe31-4b1a-a382-444c7c82fcef"},"vehicle_type_id":"4","last_reported":1702825578,"current_range_meters":24400,"station_id":"ce4bhih2rcd13ifvqfs0","pricing_plan_id":"free"},{"bike_id":"c1d02142-e5d8-4734-b5fe-85b60abc984c","system_id":"levelo_inurba_marseille","lat":43.254947,"lon":5.376454,"is_reserved":false,"is_disabled":false,"rental_uris":{"android":"levelo://app?vid=c1d02142-e5d8-4734-b5fe-85b60abc984c","ios":"levelo://app?vid=c1d02142-e5d8-4734-b5fe-85b60abc984c"},"vehicle_type_id":"4","last_reported":1702825578,"current_range_meters":13600,"station_id":"ce4bhh12rcd13ifvqff0","pricing_plan_id":"free"},{"bike_id":"a7567dc3-6c56-4ace-87e8-7c3649d36414","system_id":"levelo_inurba_marseille","lat":43.258658,"lon":5.398935,"is_reserved":false,"is_disabled":false,"rental_uris":{"android":"levelo://app?vid=a7567dc3-6c56-4ace-87e8-7c3649d36414","ios":"levelo://app?vid=a7567dc3-6c56-4ace-87e8-7c3649d36414"},"vehicle_type_id":"4","last_reported":1702825578,"current_range_meters":20800,"station_id":"ce4bhl92rcd13ifvqghg","pricing_plan_id":"free"},{"bike_id":"d389bd6d-3631-4b9d-9341-3f0350b3835b","system_id":"levelo_inurba_marseille","lat":43.258658,"lon":5.398935,"is_reserved":false,"is_disabled":false,"rental_uris":{"android":"levelo://app?vid=d389bd6d-3631-4b9d-9341-3f0350b3835b","ios":"levelo://app?vid=d389bd6d-3631-4b9d-9341-3f0350b3835b"},"vehicle_type_id":"4","last_reported":1702825578,"current_range_meters":25600,"station_id":"ce4bhl92rcd13ifvqghg","pricing_plan_id":"free"},{"bike_id":"14023bb9-07a4-44bf-be80-bd290a12a91f","system_id":"levelo_inurba_marseille","lat":43.258658,"lon":5.398935,"is_reserved":false,"is_disabled":false,"rental_uris":{"android":"levelo://app?vid=14023bb9-07a4-44bf-be80-bd290a12a91f","ios":"levelo://app?vid=14023bb9-07a4-44bf-be80-bd290a12a91f"},"vehicle_type_id":"4","last_reported":1702825578,"current_range_meters":17200,"station_id":"ce4bhl92rcd13ifvqghg","pricing_plan_id":"free"},{"bike_id":"1d3e9357-8120-4a00-91c9-a57c55168d6c","system_id":"levelo_inurba_marseille","lat":43.25938,"lon":5.40906,"is_reserved":false,"is_disabled":false,"rental_uris":{"android":"levelo://app?vid=1d3e9357-8120-4a00-91c9-a57c55168d6c","ios":"levelo://app?vid=1d3e9357-8120-4a00-91c9-a57c55168d6c"},"vehicle_type_id":"4","last_reported":1702825578,"current_range_meters":24000,"station_id":"ce4bhm92rcd13ifvqglg","pricing_plan_id":"free"},{"bike_id":"01a0ec0d-3cb5-4d6b-9194-dbeb6d97ce73","system_id":"levelo_inurba_marseille","lat":43.25938,"lon":5.40908,"is_reserved":false,"is_disabled":false,"rental_uris":{"android":"levelo://app?vid=01a0ec0d-3cb5-4d6b-9194-dbeb6d97ce73","ios":"levelo://app?vid=01a0ec0d-3cb5-4d6b-9194-dbeb6d97ce73"},"vehicle_type_id":"4","last_reported":1702825578,"current_range_meters":27600,"station_id":"ce4bhm92rcd13ifvqglg","pricing_plan_id":"free"},{"bike_id":"486de631-4303-438d-8a28-45c67f8e2772","system_id":"levelo_inurba_marseille","lat":43.2593,"lon":5.40907,"is_reserved":false,"is_disabled":false,"rental_uris":{"android":"levelo://app?vid=486de631-4303-438d-8a28-45c67f8e2772","ios":"levelo://app?vid=486de631-4303-438d-8a28-45c67f8e2772"},"vehicle_type_id":"4","last_reported":1702825578,"current_range_meters":18000,"station_id":"ce4bhm92rcd13ifvqglg","pricing_plan_id":"free"},{"bike_id":"e341de01-5fcc-4f5d-9a6e-add29695d1df","system_id":"levelo_inurba_marseille","lat":43.25932,"lon":5.40917,"is_reserved":false,"is_disabled":false,"rental_uris":{"android":"levelo://app?vid=e341de01-5fcc-4f5d-9a6e-add29695d1df","ios":"levelo://app?vid=e341de01-5fcc-4f5d-9a6e-add29695d1df"},"vehicle_type_id":"4","last_reported":1702825578,"current_range_meters":17200,"station_id":"ce4bhm92rcd13ifvqglg","pricing_plan_id":"free"},{"bike_id":"790f0c85-435e-464f-af9f-df0afa087a9d","system_id":"levelo_inurba_marseille","lat":43.259278,"lon":5.409126,"is_reserved":false,"is_disabled":false,"rental_uris":{"android":"levelo://app?vid=790f0c85-435e-464f-af9f-df0afa087a9d","ios":"levelo://app?vid=790f0c85-435e-464f-af9f-df0afa087a9d"},"vehicle_type_id":"4","last_reported":1702825578,"current_range_meters":31600,"station_id":"ce4bhm92rcd13ifvqglg","pricing_plan_id":"free"},{"bike_id":"c42c8265-a87f-4db6-b8a4-696660579129","system_id":"levelo_inurba_marseille","lat":43.257079,"lon":5.411051,"is_reserved":false,"is_disabled":false,"rental_uris":{"android":"levelo://app?vid=c42c8265-a87f-4db6-b8a4-696660579129","ios":"levelo://app?vid=c42c8265-a87f-4db6-b8a4-696660579129"},"vehicle_type_id":"4","last_reported":1702825578,"current_range_meters":30000,"station_id":"ce4bhkp2rcd13ifvqgd0","pricing_plan_id":"free"},{"bike_id":"b975f840-e9e7-4103-847b-0b0ed2380f1b","system_id":"levelo_inurba_marseille","lat":43.257079,"lon":5.411051,"is_reserved":false,"is_disabled":false,"rental_uris":{"android":"levelo://app?vid=b975f840-e9e7-4103-847b-0b0ed2380f1b","ios":"levelo://app?vid=b975f840-e9e7-4103-847b-0b0ed2380f1b"},"vehicle_type_id":"4","last_reported":1702825578,"current_range_meters":31600,"station_id":"ce4bhkp2rcd13ifvqgd0","pricing_plan_id":"free"},{"bike_id":"6e79d2c6-b19a-4099-aa7d-71731c20e93a","system_id":"levelo_inurba_marseille","lat":43.257079,"lon":5.411051,"is_reserved":false,"is_disabled":false,"rental_uris":{"android":"levelo://app?vid=6e79d2c6-b19a-4099-aa7d-71731c20e93a","ios":"levelo://app?vid=6e79d2c6-b19a-4099-aa7d-71731c20e93a"},"vehicle_type_id":"4","last_reported":1702825578,"current_range_meters":400,"station_id":"ce4bhkp2rcd13ifvqgd0","pricing_plan_id":"free"},{"bike_id":"60e22107-0bea-4221-94dd-4ddbe339e891","system_id":"levelo_inurba_marseille","lat":43.257079,"lon":5.411051,"is_reserved":false,"is_disabled":false,"rental_uris":{"android":"levelo://app?vid=60e22107-0bea-4221-94dd-4ddbe339e891","ios":"levelo://app?vid=60e22107-0bea-4221-94dd-4ddbe339e891"},"vehicle_type_id":"4","last_reported":1702825578,"current_range_meters":0,"station_id":"ce4bhkp2rcd13ifvqgd0","pricing_plan_id":"free"},{"bike_id":"b1736332-8a6c-48d9-a9b1-d57ef382d442","system_id":"levelo_inurba_marseille","lat":43.2479,"lon":5.374457,"is_reserved":false,"is_disabled":false,"rental_uris":{"android":"levelo://app?vid=b1736332-8a6c-48d9-a9b1-d57ef382d442","ios":"levelo://app?vid=b1736332-8a6c-48d9-a9b1-d57ef382d442"},"vehicle_type_id":"4","last_reported":1702825578,"current_range_meters":3600,"station_id":"ce4bhgh2rcd13ifvqfb0","pricing_plan_id":"free"},{"bike_id":"273ddf0f-631f-4320-ba5a-92ef8d67be70","system_id":"levelo_inurba_marseille","lat":43.2479,"lon":5.374457,"is_reserved":false,"is_disabled":false,"rental_uris":{"android":"levelo://app?vid=273ddf0f-631f-4320-ba5a-92ef8d67be70","ios":"levelo://app?vid=273ddf0f-631f-4320-ba5a-92ef8d67be70"},"vehicle_type_id":"4","last_reported":1702825578,"current_range_meters":10400,"station_id":"ce4bhgh2rcd13ifvqfb0","pricing_plan_id":"free"},{"bike_id":"67bf25a3-558e-402d-8eef-032eb387c72e","system_id":"levelo_inurba_marseille","lat":43.2479,"lon":5.374457,"is_reserved":false,"is_disabled":false,"rental_uris":{"android":"levelo://app?vid=67bf25a3-558e-402d-8eef-032eb387c72e","ios":"levelo://app?vid=67bf25a3-558e-402d-8eef-032eb387c72e"},"vehicle_type_id":"4","last_reported":1702825578,"current_range_meters":27200,"station_id":"ce4bhgh2rcd13ifvqfb0","pricing_plan_id":"free"},{"bike_id":"ba15107d-aef7-4ef2-bb77-dc40cc4e770a","system_id":"levelo_inurba_marseille","lat":43.2479,"lon":5.374457,"is_reserved":false,"is_disabled":false,"rental_uris":{"android":"levelo://app?vid=ba15107d-aef7-4ef2-bb77-dc40cc4e770a","ios":"levelo://app?vid=ba15107d-aef7-4ef2-bb77-dc40cc4e770a"},"vehicle_type_id":"4","last_reported":1702825578,"current_range_meters":2000,"station_id":"ce4bhgh2rcd13ifvqfb0","pricing_plan_id":"free"},{"bike_id":"17ec82a7-a075-4c53-84c1-a60158f8545d","system_id":"levelo_inurba_marseille","lat":43.250966,"lon":5.395186,"is_reserved":false,"is_disabled":false,"rental_uris":{"android":"levelo://app?vid=17ec82a7-a075-4c53-84c1-a60158f8545d","ios":"levelo://app?vid=17ec82a7-a075-4c53-84c1-a60158f8545d"},"vehicle_type_id":"4","last_reported":1702825578,"current_range_meters":30400,"station_id":"ce4bhm12rcd13ifvqgkg","pricing_plan_id":"free"},{"bike_id":"cda151f2-9ad2-46c9-9115-b73ba9a06619","system_id":"levelo_inurba_marseille","lat":43.25218,"lon":5.40642,"is_reserved":false,"is_disabled":false,"rental_uris":{"android":"levelo://app?vid=cda151f2-9ad2-46c9-9115-b73ba9a06619","ios":"levelo://app?vid=cda151f2-9ad2-46c9-9115-b73ba9a06619"},"vehicle_type_id":"4","last_reported":1702825578,"current_range_meters":0,"station_id":"","pricing_plan_id":"free"},{"bike_id":"e3bbb9c0-ae69-4c2e-be78-ac97091ab017","system_id":"levelo_inurba_marseille","lat":43.25104,"lon":5.40322,"is_reserved":false,"is_disabled":false,"rental_uris":{"android":"levelo://app?vid=e3bbb9c0-ae69-4c2e-be78-ac97091ab017","ios":"levelo://app?vid=e3bbb9c0-ae69-4c2e-be78-ac97091ab017"},"vehicle_type_id":"4","last_reported":1702825578,"current_range_meters":18800,"station_id":"ce4bhlh2rcd13ifvqgig","pricing_plan_id":"free"},{"bike_id":"5171abc0-176b-4095-b8f7-136aa02ef30c","system_id":"levelo_inurba_marseille","lat":43.245581,"lon":5.395069,"is_reserved":false,"is_disabled":false,"rental_uris":{"android":"levelo://app?vid=5171abc0-176b-4095-b8f7-136aa02ef30c","ios":"levelo://app?vid=5171abc0-176b-4095-b8f7-136aa02ef30c"},"vehicle_type_id":"4","last_reported":1702825578,"current_range_meters":25200,"station_id":"ce4bhlp2rcd13ifvqgjg","pricing_plan_id":"free"},{"bike_id":"2d1bda45-01a0-4cc8-9b66-ed2d284860d1","system_id":"levelo_inurba_marseille","lat":43.245581,"lon":5.395069,"is_reserved":false,"is_disabled":false,"rental_uris":{"android":"levelo://app?vid=2d1bda45-01a0-4cc8-9b66-ed2d284860d1","ios":"levelo://app?vid=2d1bda45-01a0-4cc8-9b66-ed2d284860d1"},"vehicle_type_id":"4","last_reported":1702825578,"current_range_meters":28800,"station_id":"ce4bhlp2rcd13ifvqgjg","pricing_plan_id":"free"},{"bike_id":"99dddd79-2a07-4af0-a550-fe20dbb7cfbb","system_id":"levelo_inurba_marseille","lat":43.239588,"lon":5.366238,"is_reserved":false,"is_disabled":false,"rental_uris":{"android":"levelo://app?vid=99dddd79-2a07-4af0-a550-fe20dbb7cfbb","ios":"levelo://app?vid=99dddd79-2a07-4af0-a550-fe20dbb7cfbb"},"vehicle_type_id":"4","last_reported":1702825578,"current_range_meters":31600,"station_id":"ce4bhi12rcd13ifvqfp0","pricing_plan_id":"free"},{"bike_id":"23d837c6-d638-457e-90aa-163ac6a13346","system_id":"levelo_inurba_marseille","lat":43.239588,"lon":5.366238,"is_reserved":false,"is_disabled":false,"rental_uris":{"android":"levelo://app?vid=23d837c6-d638-457e-90aa-163ac6a13346","ios":"levelo://app?vid=23d837c6-d638-457e-90aa-163ac6a13346"},"vehicle_type_id":"4","last_reported":1702825578,"current_range_meters":22400,"station_id":"ce4bhi12rcd13ifvqfp0","pricing_plan_id":"free"},{"bike_id":"c6d9dfd2-a539-439d-8118-546d7460c24f","system_id":"levelo_inurba_marseille","lat":43.23962,"lon":5.36639,"is_reserved":false,"is_disabled":false,"rental_uris":{"android":"levelo://app?vid=c6d9dfd2-a539-439d-8118-546d7460c24f","ios":"levelo://app?vid=c6d9dfd2-a539-439d-8118-546d7460c24f"},"vehicle_type_id":"4","last_reported":1702825578,"current_range_meters":16000,"station_id":"ce4bhi12rcd13ifvqfp0","pricing_plan_id":"free"},{"bike_id":"4f826f04-7f81-47bd-a9a8-a8b5839ca942","system_id":"levelo_inurba_marseille","lat":43.23961,"lon":5.36624,"is_reserved":false,"is_disabled":false,"rental_uris":{"android":"levelo://app?vid=4f826f04-7f81-47bd-a9a8-a8b5839ca942","ios":"levelo://app?vid=4f826f04-7f81-47bd-a9a8-a8b5839ca942"},"vehicle_type_id":"4","last_reported":1702825578,"current_range_meters":19600,"station_id":"ce4bhi12rcd13ifvqfp0","pricing_plan_id":"free"},{"bike_id":"c9074b87-4262-4412-9d82-f62d3786e247","system_id":"levelo_inurba_marseille","lat":43.23959,"lon":5.36647,"is_reserved":false,"is_disabled":false,"rental_uris":{"android":"levelo://app?vid=c9074b87-4262-4412-9d82-f62d3786e247","ios":"levelo://app?vid=c9074b87-4262-4412-9d82-f62d3786e247"},"vehicle_type_id":"4","last_reported":1702825578,"current_range_meters":31200,"station_id":"ce4bhi12rcd13ifvqfp0","pricing_plan_id":"free"},{"bike_id":"391d21ee-50f4-4ad5-9205-d2446648b03a","system_id":"levelo_inurba_marseille","lat":43.239585,"lon":5.366302,"is_reserved":false,"is_disabled":false,"rental_uris":{"android":"levelo://app?vid=391d21ee-50f4-4ad5-9205-d2446648b03a","ios":"levelo://app?vid=391d21ee-50f4-4ad5-9205-d2446648b03a"},"vehicle_type_id":"4","last_reported":1702825578,"current_range_meters":28800,"station_id":"ce4bhi12rcd13ifvqfp0","pricing_plan_id":"free"},{"bike_id":"630cf2f9-baf1-4860-be47-7a66ce2ac839","system_id":"levelo_inurba_marseille","lat":43.23955,"lon":5.36627,"is_reserved":false,"is_disabled":false,"rental_uris":{"android":"levelo://app?vid=630cf2f9-baf1-4860-be47-7a66ce2ac839","ios":"levelo://app?vid=630cf2f9-baf1-4860-be47-7a66ce2ac839"},"vehicle_type_id":"4","last_reported":1702825578,"current_range_meters":24400,"station_id":"ce4bhi12rcd13ifvqfp0","pricing_plan_id":"free"},{"bike_id":"917b982b-bc2f-455d-bd8e-2de342268647","system_id":"levelo_inurba_marseille","lat":43.232064,"lon":5.355449,"is_reserved":false,"is_disabled":false,"rental_uris":{"android":"levelo://app?vid=917b982b-bc2f-455d-bd8e-2de342268647","ios":"levelo://app?vid=917b982b-bc2f-455d-bd8e-2de342268647"},"vehicle_type_id":"4","last_reported":1702825578,"current_range_meters":16000,"station_id":"ce4bhu92rcd13ifvqi70","pricing_plan_id":"free"},{"bike_id":"e84f6252-dfd2-4688-b914-9eca8c7cdb93","system_id":"levelo_inurba_marseille","lat":43.23202,"lon":5.3555,"is_reserved":false,"is_disabled":false,"rental_uris":{"android":"levelo://app?vid=e84f6252-dfd2-4688-b914-9eca8c7cdb93","ios":"levelo://app?vid=e84f6252-dfd2-4688-b914-9eca8c7cdb93"},"vehicle_type_id":"4","last_reported":1702825578,"current_range_meters":20800,"station_id":"ce4bhu92rcd13ifvqi70","pricing_plan_id":"free"},{"bike_id":"460de107-05f0-40a7-b98c-773b2cacefdd","system_id":"levelo_inurba_marseille","lat":43.23201,"lon":5.35546,"is_reserved":false,"is_disabled":false,"rental_uris":{"android":"levelo://app?vid=460de107-05f0-40a7-b98c-773b2cacefdd","ios":"levelo://app?vid=460de107-05f0-40a7-b98c-773b2cacefdd"},"vehicle_type_id":"4","last_reported":1702825578,"current_range_meters":8400,"station_id":"ce4bhu92rcd13ifvqi70","pricing_plan_id":"free"},{"bike_id":"ab6ffb77-5df8-44c8-9cb9-fdc75255a7e1","system_id":"levelo_inurba_marseille","lat":43.231985,"lon":5.355518,"is_reserved":false,"is_disabled":false,"rental_uris":{"android":"levelo://app?vid=ab6ffb77-5df8-44c8-9cb9-fdc75255a7e1","ios":"levelo://app?vid=ab6ffb77-5df8-44c8-9cb9-fdc75255a7e1"},"vehicle_type_id":"4","last_reported":1702825578,"current_range_meters":17600,"station_id":"","pricing_plan_id":"free"},{"bike_id":"0914bc04-89c8-46f4-bf04-78aea5230869","system_id":"levelo_inurba_marseille","lat":43.231919,"lon":5.355532,"is_reserved":false,"is_disabled":false,"rental_uris":{"android":"levelo://app?vid=0914bc04-89c8-46f4-bf04-78aea5230869","ios":"levelo://app?vid=0914bc04-89c8-46f4-bf04-78aea5230869"},"vehicle_type_id":"4","last_reported":1702825578,"current_range_meters":25600,"station_id":"ce4bhu92rcd13ifvqi70","pricing_plan_id":"free"},{"bike_id":"c58c2105-152a-4be3-96b7-ef7d8114d5d4","system_id":"levelo_inurba_marseille","lat":43.231919,"lon":5.355532,"is_reserved":false,"is_disabled":false,"rental_uris":{"android":"levelo://app?vid=c58c2105-152a-4be3-96b7-ef7d8114d5d4","ios":"levelo://app?vid=c58c2105-152a-4be3-96b7-ef7d8114d5d4"},"vehicle_type_id":"4","last_reported":1702825578,"current_range_meters":13200,"station_id":"ce4bhu92rcd13ifvqi70","pricing_plan_id":"free"},{"bike_id":"df871f34-5aeb-44e9-a663-4c4bbbb6a214","system_id":"levelo_inurba_marseille","lat":43.23197,"lon":5.35555,"is_reserved":false,"is_disabled":false,"rental_uris":{"android":"levelo://app?vid=df871f34-5aeb-44e9-a663-4c4bbbb6a214","ios":"levelo://app?vid=df871f34-5aeb-44e9-a663-4c4bbbb6a214"},"vehicle_type_id":"4","last_reported":1702825578,"current_range_meters":4000,"station_id":"ce4bhu92rcd13ifvqi70","pricing_plan_id":"free"},{"bike_id":"eefd4939-72f2-4712-b6f5-d31918fd2f5b","system_id":"levelo_inurba_marseille","lat":43.231919,"lon":5.355532,"is_reserved":false,"is_disabled":false,"rental_uris":{"android":"levelo://app?vid=eefd4939-72f2-4712-b6f5-d31918fd2f5b","ios":"levelo://app?vid=eefd4939-72f2-4712-b6f5-d31918fd2f5b"},"vehicle_type_id":"4","last_reported":1702825578,"current_range_meters":2400,"station_id":"ce4bhu92rcd13ifvqi70","pricing_plan_id":"free"},{"bike_id":"8fa8dcad-9213-4682-9e78-bced4d248910","system_id":"levelo_inurba_marseille","lat":43.23197,"lon":5.35552,"is_reserved":false,"is_disabled":false,"rental_uris":{"android":"levelo://app?vid=8fa8dcad-9213-4682-9e78-bced4d248910","ios":"levelo://app?vid=8fa8dcad-9213-4682-9e78-bced4d248910"},"vehicle_type_id":"4","last_reported":1702825578,"current_range_meters":12000,"station_id":"ce4bhu92rcd13ifvqi70","pricing_plan_id":"free"},{"bike_id":"f5cfb89a-ce48-405c-82ee-5a941b48c540","system_id":"levelo_inurba_marseille","lat":43.231919,"lon":5.355532,"is_reserved":false,"is_disabled":false,"rental_uris":{"android":"levelo://app?vid=f5cfb89a-ce48-405c-82ee-5a941b48c540","ios":"levelo://app?vid=f5cfb89a-ce48-405c-82ee-5a941b48c540"},"vehicle_type_id":"4","last_reported":1702825578,"current_range_meters":18800,"station_id":"ce4bhu92rcd13ifvqi70","pricing_plan_id":"free"},{"bike_id":"ba0933b1-d7ab-49e9-a8be-d9339226b8e3","system_id":"levelo_inurba_marseille","lat":43.231919,"lon":5.355532,"is_reserved":false,"is_disabled":false,"rental_uris":{"android":"levelo://app?vid=ba0933b1-d7ab-49e9-a8be-d9339226b8e3","ios":"levelo://app?vid=ba0933b1-d7ab-49e9-a8be-d9339226b8e3"},"vehicle_type_id":"4","last_reported":1702825578,"current_range_meters":24400,"station_id":"ce4bhu92rcd13ifvqi70","pricing_plan_id":"free"},{"bike_id":"6407938b-389d-4533-9ecb-2228594d1ac0","system_id":"levelo_inurba_marseille","lat":43.231919,"lon":5.355532,"is_reserved":false,"is_disabled":false,"rental_uris":{"android":"levelo://app?vid=6407938b-389d-4533-9ecb-2228594d1ac0","ios":"levelo://app?vid=6407938b-389d-4533-9ecb-2228594d1ac0"},"vehicle_type_id":"4","last_reported":1702825578,"current_range_meters":16000,"station_id":"ce4bhu92rcd13ifvqi70","pricing_plan_id":"free"},{"bike_id":"be641546-dcea-4309-ad5a-32c7507f146a","system_id":"levelo_inurba_marseille","lat":43.231919,"lon":5.355532,"is_reserved":false,"is_disabled":false,"rental_uris":{"android":"levelo://app?vid=be641546-dcea-4309-ad5a-32c7507f146a","ios":"levelo://app?vid=be641546-dcea-4309-ad5a-32c7507f146a"},"vehicle_type_id":"4","last_reported":1702825578,"current_range_meters":23200,"station_id":"ce4bhu92rcd13ifvqi70","pricing_plan_id":"free"},{"bike_id":"deb8549c-895f-4c6d-b68c-130ea343f1e6","system_id":"levelo_inurba_marseille","lat":43.23194,"lon":5.35555,"is_reserved":false,"is_disabled":false,"rental_uris":{"android":"levelo://app?vid=deb8549c-895f-4c6d-b68c-130ea343f1e6","ios":"levelo://app?vid=deb8549c-895f-4c6d-b68c-130ea343f1e6"},"vehicle_type_id":"4","last_reported":1702825578,"current_range_meters":20000,"station_id":"ce4bhu92rcd13ifvqi70","pricing_plan_id":"free"},{"bike_id":"88183f8f-6cfd-40de-8cc1-7a06f9af572e","system_id":"levelo_inurba_marseille","lat":43.231919,"lon":5.355532,"is_reserved":false,"is_disabled":false,"rental_uris":{"android":"levelo://app?vid=88183f8f-6cfd-40de-8cc1-7a06f9af572e","ios":"levelo://app?vid=88183f8f-6cfd-40de-8cc1-7a06f9af572e"},"vehicle_type_id":"4","last_reported":1702825578,"current_range_meters":31200,"station_id":"ce4bhu92rcd13ifvqi70","pricing_plan_id":"free"},{"bike_id":"3dd05bbe-7d4d-4d5f-b9a9-4266846c777b","system_id":"levelo_inurba_marseille","lat":43.231919,"lon":5.355532,"is_reserved":false,"is_disabled":false,"rental_uris":{"android":"levelo://app?vid=3dd05bbe-7d4d-4d5f-b9a9-4266846c777b","ios":"levelo://app?vid=3dd05bbe-7d4d-4d5f-b9a9-4266846c777b"},"vehicle_type_id":"4","last_reported":1702825578,"current_range_meters":30800,"station_id":"ce4bhu92rcd13ifvqi70","pricing_plan_id":"free"},{"bike_id":"9abeec97-e84e-490c-b252-4ec253961478","system_id":"levelo_inurba_marseille","lat":43.23193,"lon":5.35563,"is_reserved":false,"is_disabled":false,"rental_uris":{"android":"levelo://app?vid=9abeec97-e84e-490c-b252-4ec253961478","ios":"levelo://app?vid=9abeec97-e84e-490c-b252-4ec253961478"},"vehicle_type_id":"4","last_reported":1702825578,"current_range_meters":31200,"station_id":"ce4bhu92rcd13ifvqi70","pricing_plan_id":"free"},{"bike_id":"79ddd983-a8fc-494d-84c2-53aea6d96edf","system_id":"levelo_inurba_marseille","lat":43.231919,"lon":5.355532,"is_reserved":false,"is_disabled":false,"rental_uris":{"android":"levelo://app?vid=79ddd983-a8fc-494d-84c2-53aea6d96edf","ios":"levelo://app?vid=79ddd983-a8fc-494d-84c2-53aea6d96edf"},"vehicle_type_id":"4","last_reported":1702825578,"current_range_meters":30400,"station_id":"ce4bhu92rcd13ifvqi70","pricing_plan_id":"free"},{"bike_id":"e4f94050-aae1-4821-b78a-030e7070af2a","system_id":"levelo_inurba_marseille","lat":43.231919,"lon":5.355532,"is_reserved":false,"is_disabled":false,"rental_uris":{"android":"levelo://app?vid=e4f94050-aae1-4821-b78a-030e7070af2a","ios":"levelo://app?vid=e4f94050-aae1-4821-b78a-030e7070af2a"},"vehicle_type_id":"4","last_reported":1702825578,"current_range_meters":16000,"station_id":"ce4bhu92rcd13ifvqi70","pricing_plan_id":"free"},{"bike_id":"00322b22-de45-4809-9160-dde787a1e848","system_id":"levelo_inurba_marseille","lat":43.23192,"lon":5.35558,"is_reserved":false,"is_disabled":false,"rental_uris":{"android":"levelo://app?vid=00322b22-de45-4809-9160-dde787a1e848","ios":"levelo://app?vid=00322b22-de45-4809-9160-dde787a1e848"},"vehicle_type_id":"4","last_reported":1702825578,"current_range_meters":15600,"station_id":"ce4bhu92rcd13ifvqi70","pricing_plan_id":"free"},{"bike_id":"8bde1f20-3114-431c-b2df-22d6e7b7655a","system_id":"levelo_inurba_marseille","lat":43.231919,"lon":5.355532,"is_reserved":false,"is_disabled":false,"rental_uris":{"android":"levelo://app?vid=8bde1f20-3114-431c-b2df-22d6e7b7655a","ios":"levelo://app?vid=8bde1f20-3114-431c-b2df-22d6e7b7655a"},"vehicle_type_id":"4","last_reported":1702825578,"current_range_meters":30800,"station_id":"ce4bhu92rcd13ifvqi70","pricing_plan_id":"free"},{"bike_id":"56dee7e6-1189-4420-98f7-78158f1ad0b3","system_id":"levelo_inurba_marseille","lat":43.23191,"lon":5.35544,"is_reserved":false,"is_disabled":false,"rental_uris":{"android":"levelo://app?vid=56dee7e6-1189-4420-98f7-78158f1ad0b3","ios":"levelo://app?vid=56dee7e6-1189-4420-98f7-78158f1ad0b3"},"vehicle_type_id":"4","last_reported":1702825578,"current_range_meters":26800,"station_id":"ce4bhu92rcd13ifvqi70","pricing_plan_id":"free"},{"bike_id":"3ee0ea00-8e05-48c0-a38d-caf8a81146cd","system_id":"levelo_inurba_marseille","lat":43.231794,"lon":5.400052,"is_reserved":false,"is_disabled":false,"rental_uris":{"android":"levelo://app?vid=3ee0ea00-8e05-48c0-a38d-caf8a81146cd","ios":"levelo://app?vid=3ee0ea00-8e05-48c0-a38d-caf8a81146cd"},"vehicle_type_id":"4","last_reported":1702825578,"current_range_meters":31200,"station_id":"ce4bhn12rcd13ifvqgqg","pricing_plan_id":"free"},{"bike_id":"82b0b121-d2e6-4f04-8530-97cda8a0fbcd","system_id":"levelo_inurba_marseille","lat":43.231794,"lon":5.400052,"is_reserved":false,"is_disabled":false,"rental_uris":{"android":"levelo://app?vid=82b0b121-d2e6-4f04-8530-97cda8a0fbcd","ios":"levelo://app?vid=82b0b121-d2e6-4f04-8530-97cda8a0fbcd"},"vehicle_type_id":"4","last_reported":1702825578,"current_range_meters":31600,"station_id":"ce4bhn12rcd13ifvqgqg","pricing_plan_id":"free"},{"bike_id":"d5206a6c-92a9-4a75-8859-313a2b40fcd2","system_id":"levelo_inurba_marseille","lat":43.231793,"lon":5.400044,"is_reserved":false,"is_disabled":false,"rental_uris":{"android":"levelo://app?vid=d5206a6c-92a9-4a75-8859-313a2b40fcd2","ios":"levelo://app?vid=d5206a6c-92a9-4a75-8859-313a2b40fcd2"},"vehicle_type_id":"4","last_reported":1702825578,"current_range_meters":31600,"station_id":"ce4bhn12rcd13ifvqgqg","pricing_plan_id":"free"},{"bike_id":"56e5134b-2d66-4511-b569-3c4bfa4ce73d","system_id":"levelo_inurba_marseille","lat":43.23182,"lon":5.39991,"is_reserved":false,"is_disabled":false,"rental_uris":{"android":"levelo://app?vid=56e5134b-2d66-4511-b569-3c4bfa4ce73d","ios":"levelo://app?vid=56e5134b-2d66-4511-b569-3c4bfa4ce73d"},"vehicle_type_id":"4","last_reported":1702825578,"current_range_meters":0,"station_id":"ce4bhn12rcd13ifvqgqg","pricing_plan_id":"free"},{"bike_id":"f24eb76b-d777-4231-a0c9-e86572250025","system_id":"levelo_inurba_marseille","lat":43.231793,"lon":5.400044,"is_reserved":false,"is_disabled":false,"rental_uris":{"android":"levelo://app?vid=f24eb76b-d777-4231-a0c9-e86572250025","ios":"levelo://app?vid=f24eb76b-d777-4231-a0c9-e86572250025"},"vehicle_type_id":"4","last_reported":1702825578,"current_range_meters":16800,"station_id":"ce4bhn12rcd13ifvqgqg","pricing_plan_id":"free"},{"bike_id":"6e314437-e406-44bb-9c7a-b82c090183e0","system_id":"levelo_inurba_marseille","lat":43.231794,"lon":5.400052,"is_reserved":false,"is_disabled":false,"rental_uris":{"android":"levelo://app?vid=6e314437-e406-44bb-9c7a-b82c090183e0","ios":"levelo://app?vid=6e314437-e406-44bb-9c7a-b82c090183e0"},"vehicle_type_id":"4","last_reported":1702825578,"current_range_meters":24800,"station_id":"ce4bhn12rcd13ifvqgqg","pricing_plan_id":"free"},{"bike_id":"9044bfad-07b1-4ccd-9c34-b9732a7a8703","system_id":"levelo_inurba_marseille","lat":43.23153,"lon":5.43714,"is_reserved":false,"is_disabled":false,"rental_uris":{"android":"levelo://app?vid=9044bfad-07b1-4ccd-9c34-b9732a7a8703","ios":"levelo://app?vid=9044bfad-07b1-4ccd-9c34-b9732a7a8703"},"vehicle_type_id":"4","last_reported":1702825578,"current_range_meters":18000,"station_id":"ce4bhmp2rcd13ifvqgog","pricing_plan_id":"free"},{"bike_id":"e3a31995-6e8a-468c-82cd-596628dd184b","system_id":"levelo_inurba_marseille","lat":43.231562,"lon":5.436933,"is_reserved":false,"is_disabled":false,"rental_uris":{"android":"levelo://app?vid=e3a31995-6e8a-468c-82cd-596628dd184b","ios":"levelo://app?vid=e3a31995-6e8a-468c-82cd-596628dd184b"},"vehicle_type_id":"4","last_reported":1702825578,"current_range_meters":31600,"station_id":"ce4bhmp2rcd13ifvqgog","pricing_plan_id":"free"},{"bike_id":"63d51489-d07e-4a52-9787-b0b40a869b15","system_id":"levelo_inurba_marseille","lat":43.231562,"lon":5.436933,"is_reserved":false,"is_disabled":false,"rental_uris":{"android":"levelo://app?vid=63d51489-d07e-4a52-9787-b0b40a869b15","ios":"levelo://app?vid=63d51489-d07e-4a52-9787-b0b40a869b15"},"vehicle_type_id":"4","last_reported":1702825578,"current_range_meters":30400,"station_id":"ce4bhmp2rcd13ifvqgog","pricing_plan_id":"free"},{"bike_id":"ae01b6dd-f9f9-45ea-b8b7-1a4e439493de","system_id":"levelo_inurba_marseille","lat":43.231562,"lon":5.436933,"is_reserved":false,"is_disabled":false,"rental_uris":{"android":"levelo://app?vid=ae01b6dd-f9f9-45ea-b8b7-1a4e439493de","ios":"levelo://app?vid=ae01b6dd-f9f9-45ea-b8b7-1a4e439493de"},"vehicle_type_id":"4","last_reported":1702825578,"current_range_meters":20800,"station_id":"ce4bhmp2rcd13ifvqgog","pricing_plan_id":"free"}]}}