{"last_updated":1777409861,"ttl":60,"version":"2.2","data":{"bikes":[{"bike_id":"c57dc9b1-75f6-423d-9141-b122f623832c","system_id":"levelo_inurba_marseille","lat":43.30894,"lon":5.39644,"is_reserved":false,"is_disabled":false,"rental_uris":{"android":"levelo://app?vid=c57dc9b1-75f6-423d-9141-b122f623832c","ios":"levelo://app?vid=c57dc9b1-75f6-423d-9141-b122f623832c"},"vehicle_type_id":"4","last_reported":1777409862,"current_range_meters":2800,"station_id":"ce4bh012rcd13ifvqcv0","pricing_plan_id":"cebpf4jnsgd1na2vs0mg"},{"bike_id":"77f1be50-d55c-4753-b02a-0b5e7117e7c7","system_id":"levelo_inurba_marseille","lat":43.31305,"lon":5.38194,"is_reserved":false,"is_disabled":false,"rental_uris":{"android":"levelo://app?vid=77f1be50-d55c-4753-b02a-0b5e7117e7c7","ios":"levelo://app?vid=77f1be50-d55c-4753-b02a-0b5e7117e7c7"},"vehicle_type_id":"4","last_reported":1777409862,"current_range_meters":2800,"station_id":"","pricing_plan_id":"cebpf4jnsgd1na2vs0mg"},{"bike_id":"3da13d37-7110-4bce-9752-199cba177ced","system_id":"levelo_inurba_marseille","lat":43.29249,"lon":5.36101,"is_reserved":false,"is_disabled":true,"rental_uris":{"android":"levelo://app?vid=3da13d37-7110-4bce-9752-199cba177ced","ios":"levelo://app?vid=3da13d37-7110-4bce-9752-199cba177ced"},"vehicle_type_id":"4","last_reported":1777409862,"current_range_meters":2800,"station_id":"ce4bhbh2rcd13ifvqeqg","pricing_plan_id":"cebpf4jnsgd1na2vs0mg"},{"bike_id":"da45e3de-d5ad-4586-b082-12d75f525406","system_id":"levelo_inurba_marseille","lat":43.32657,"lon":5.40991,"is_reserved":false,"is_disabled":false,"rental_uris":{"android":"levelo://app?vid=da45e3de-d5ad-4586-b082-12d75f525406","ios":"levelo://app?vid=da45e3de-d5ad-4586-b082-12d75f525406"},"vehicle_type_id":"4","last_reported":1777409862,"current_range_meters":2800,"station_id":"ce4bhpp2rcd13ifvqhgg","pricing_plan_id":"cebpf4jnsgd1na2vs0mg"},{"bike_id":"5ea680b6-7eed-4499-b02d-7e311fe6b10a","system_id":"levelo_inurba_marseille","lat":43.28356,"lon":5.38649,"is_reserved":false,"is_disabled":false,"rental_uris":{"android":"levelo://app?vid=5ea680b6-7eed-4499-b02d-7e311fe6b10a","ios":"levelo://app?vid=5ea680b6-7eed-4499-b02d-7e311fe6b10a"},"vehicle_type_id":"4","last_reported":1777409862,"current_range_meters":2800,"station_id":"ce4bh492rcd13ifvqdvg","pricing_plan_id":"cebpf4jnsgd1na2vs0mg"},{"bike_id":"e307cac8-8276-4e80-89b8-32d0827be870","system_id":"levelo_inurba_marseille","lat":43.25081,"lon":5.42479,"is_reserved":false,"is_disabled":false,"rental_uris":{"android":"levelo://app?vid=e307cac8-8276-4e80-89b8-32d0827be870","ios":"levelo://app?vid=e307cac8-8276-4e80-89b8-32d0827be870"},"vehicle_type_id":"4","last_reported":1777409862,"current_range_meters":2800,"station_id":"","pricing_plan_id":"cebpf4jnsgd1na2vs0mg"},{"bike_id":"18cd8e51-dd4a-4686-a624-b5605e8c1286","system_id":"levelo_inurba_marseille","lat":43.29613,"lon":5.36747,"is_reserved":false,"is_disabled":true,"rental_uris":{"android":"levelo://app?vid=18cd8e51-dd4a-4686-a624-b5605e8c1286","ios":"levelo://app?vid=18cd8e51-dd4a-4686-a624-b5605e8c1286"},"vehicle_type_id":"4","last_reported":1777409862,"current_range_meters":3200,"station_id":"ce4bgph2rcd13ifvqc2g","pricing_plan_id":"cebpf4jnsgd1na2vs0mg"},{"bike_id":"f7883914-8a35-41a7-8add-6f343728cd33","system_id":"levelo_inurba_marseille","lat":43.24475,"lon":5.42535,"is_reserved":false,"is_disabled":false,"rental_uris":{"android":"levelo://app?vid=f7883914-8a35-41a7-8add-6f343728cd33","ios":"levelo://app?vid=f7883914-8a35-41a7-8add-6f343728cd33"},"vehicle_type_id":"4","last_reported":1777409862,"current_range_meters":3200,"station_id":"st_d4a3vfp97mjs738cd8kg","pricing_plan_id":"cebpf4jnsgd1na2vs0mg"},{"bike_id":"9ae4ed35-1b60-4862-ac09-32fe18a4c0b9","system_id":"levelo_inurba_marseille","lat":43.27206,"lon":5.39182,"is_reserved":false,"is_disabled":false,"rental_uris":{"android":"levelo://app?vid=9ae4ed35-1b60-4862-ac09-32fe18a4c0b9","ios":"levelo://app?vid=9ae4ed35-1b60-4862-ac09-32fe18a4c0b9"},"vehicle_type_id":"4","last_reported":1777409862,"current_range_meters":3200,"station_id":"ce4bhhp2rcd13ifvqfm0","pricing_plan_id":"cebpf4jnsgd1na2vs0mg"},{"bike_id":"e2ddbd69-54a9-4195-b691-b17861f53caf","system_id":"levelo_inurba_marseille","lat":43.24819,"lon":5.37457,"is_reserved":false,"is_disabled":false,"rental_uris":{"android":"levelo://app?vid=e2ddbd69-54a9-4195-b691-b17861f53caf","ios":"levelo://app?vid=e2ddbd69-54a9-4195-b691-b17861f53caf"},"vehicle_type_id":"4","last_reported":1777409862,"current_range_meters":3200,"station_id":"ce4bhgh2rcd13ifvqfb0","pricing_plan_id":"cebpf4jnsgd1na2vs0mg"},{"bike_id":"8ac0bd5f-2f2a-4833-ada5-2e9beded5ddb","system_id":"levelo_inurba_marseille","lat":43.31502,"lon":5.39127,"is_reserved":false,"is_disabled":false,"rental_uris":{"android":"levelo://app?vid=8ac0bd5f-2f2a-4833-ada5-2e9beded5ddb","ios":"levelo://app?vid=8ac0bd5f-2f2a-4833-ada5-2e9beded5ddb"},"vehicle_type_id":"4","last_reported":1777409862,"current_range_meters":3200,"station_id":"","pricing_plan_id":"cebpf4jnsgd1na2vs0mg"},{"bike_id":"16d472fe-eb19-4acc-8aa8-94088ad37de6","system_id":"levelo_inurba_marseille","lat":43.3519,"lon":5.36384,"is_reserved":false,"is_disabled":false,"rental_uris":{"android":"levelo://app?vid=16d472fe-eb19-4acc-8aa8-94088ad37de6","ios":"levelo://app?vid=16d472fe-eb19-4acc-8aa8-94088ad37de6"},"vehicle_type_id":"4","last_reported":1777409862,"current_range_meters":3200,"station_id":"","pricing_plan_id":"cebpf4jnsgd1na2vs0mg"},{"bike_id":"3ab70a5f-aebb-46c8-816c-44946693cbbe","system_id":"levelo_inurba_marseille","lat":43.27991,"lon":5.41668,"is_reserved":false,"is_disabled":false,"rental_uris":{"android":"levelo://app?vid=3ab70a5f-aebb-46c8-816c-44946693cbbe","ios":"levelo://app?vid=3ab70a5f-aebb-46c8-816c-44946693cbbe"},"vehicle_type_id":"4","last_reported":1777409862,"current_range_meters":3200,"station_id":"ce4bho12rcd13ifvqh1g","pricing_plan_id":"cebpf4jnsgd1na2vs0mg"},{"bike_id":"b0fc715f-4a35-4272-9e2a-b10f7b105dc9","system_id":"levelo_inurba_marseille","lat":43.29355,"lon":5.44527,"is_reserved":false,"is_disabled":false,"rental_uris":{"android":"levelo://app?vid=b0fc715f-4a35-4272-9e2a-b10f7b105dc9","ios":"levelo://app?vid=b0fc715f-4a35-4272-9e2a-b10f7b105dc9"},"vehicle_type_id":"4","last_reported":1777409862,"current_range_meters":3200,"station_id":"","pricing_plan_id":"cebpf4jnsgd1na2vs0mg"},{"bike_id":"87cc790b-60cd-436a-82f4-3796eb0e0cc9","system_id":"levelo_inurba_marseille","lat":43.29157,"lon":5.43577,"is_reserved":false,"is_disabled":false,"rental_uris":{"android":"levelo://app?vid=87cc790b-60cd-436a-82f4-3796eb0e0cc9","ios":"levelo://app?vid=87cc790b-60cd-436a-82f4-3796eb0e0cc9"},"vehicle_type_id":"4","last_reported":1777409862,"current_range_meters":3200,"station_id":"","pricing_plan_id":"cebpf4jnsgd1na2vs0mg"},{"bike_id":"4762e09b-59b8-41ab-9c32-7fa1853bb9b6","system_id":"levelo_inurba_marseille","lat":43.25461,"lon":5.41615,"is_reserved":false,"is_disabled":false,"rental_uris":{"android":"levelo://app?vid=4762e09b-59b8-41ab-9c32-7fa1853bb9b6","ios":"levelo://app?vid=4762e09b-59b8-41ab-9c32-7fa1853bb9b6"},"vehicle_type_id":"4","last_reported":1777409862,"current_range_meters":3200,"station_id":"","pricing_plan_id":"cebpf4jnsgd1na2vs0mg"},{"bike_id":"a7860fc9-f86a-49b2-9133-80ebae293c68","system_id":"levelo_inurba_marseille","lat":43.251051,"lon":5.403159,"is_reserved":false,"is_disabled":false,"rental_uris":{"android":"levelo://app?vid=a7860fc9-f86a-49b2-9133-80ebae293c68","ios":"levelo://app?vid=a7860fc9-f86a-49b2-9133-80ebae293c68"},"vehicle_type_id":"4","last_reported":1777409862,"current_range_meters":3200,"station_id":"ce4bhlh2rcd13ifvqgig","pricing_plan_id":"cebpf4jnsgd1na2vs0mg"},{"bike_id":"f447fec5-f118-42c2-be2c-8ef32b6d20a2","system_id":"levelo_inurba_marseille","lat":43.25963,"lon":5.41685,"is_reserved":false,"is_disabled":false,"rental_uris":{"android":"levelo://app?vid=f447fec5-f118-42c2-be2c-8ef32b6d20a2","ios":"levelo://app?vid=f447fec5-f118-42c2-be2c-8ef32b6d20a2"},"vehicle_type_id":"4","last_reported":1777409862,"current_range_meters":3600,"station_id":"","pricing_plan_id":"cebpf4jnsgd1na2vs0mg"},{"bike_id":"c36ccb79-3fa9-4437-b9ce-62330112ebf7","system_id":"levelo_inurba_marseille","lat":43.24816,"lon":5.37449,"is_reserved":false,"is_disabled":false,"rental_uris":{"android":"levelo://app?vid=c36ccb79-3fa9-4437-b9ce-62330112ebf7","ios":"levelo://app?vid=c36ccb79-3fa9-4437-b9ce-62330112ebf7"},"vehicle_type_id":"4","last_reported":1777409862,"current_range_meters":3600,"station_id":"ce4bhgh2rcd13ifvqfb0","pricing_plan_id":"cebpf4jnsgd1na2vs0mg"},{"bike_id":"14869599-ab60-4e86-8f2c-d0b35d29b95e","system_id":"levelo_inurba_marseille","lat":43.25627,"lon":5.41875,"is_reserved":false,"is_disabled":false,"rental_uris":{"android":"levelo://app?vid=14869599-ab60-4e86-8f2c-d0b35d29b95e","ios":"levelo://app?vid=14869599-ab60-4e86-8f2c-d0b35d29b95e"},"vehicle_type_id":"4","last_reported":1777409862,"current_range_meters":3600,"station_id":"","pricing_plan_id":"cebpf4jnsgd1na2vs0mg"},{"bike_id":"139ab125-3cce-4dc8-9b09-1fa656552044","system_id":"levelo_inurba_marseille","lat":43.25118,"lon":5.40341,"is_reserved":false,"is_disabled":false,"rental_uris":{"android":"levelo://app?vid=139ab125-3cce-4dc8-9b09-1fa656552044","ios":"levelo://app?vid=139ab125-3cce-4dc8-9b09-1fa656552044"},"vehicle_type_id":"4","last_reported":1777409862,"current_range_meters":3600,"station_id":"ce4bhlh2rcd13ifvqgig","pricing_plan_id":"cebpf4jnsgd1na2vs0mg"},{"bike_id":"ac22394e-74ad-49d7-8ce2-7a9e4a1edbca","system_id":"levelo_inurba_marseille","lat":43.30126,"lon":5.43127,"is_reserved":false,"is_disabled":false,"rental_uris":{"android":"levelo://app?vid=ac22394e-74ad-49d7-8ce2-7a9e4a1edbca","ios":"levelo://app?vid=ac22394e-74ad-49d7-8ce2-7a9e4a1edbca"},"vehicle_type_id":"4","last_reported":1777409862,"current_range_meters":3600,"station_id":"st_d3js3co5814s73ftftug","pricing_plan_id":"cebpf4jnsgd1na2vs0mg"},{"bike_id":"e841f6e2-53f5-4600-b066-dc4df41a0967","system_id":"levelo_inurba_marseille","lat":43.30087,"lon":5.39079,"is_reserved":false,"is_disabled":false,"rental_uris":{"android":"levelo://app?vid=e841f6e2-53f5-4600-b066-dc4df41a0967","ios":"levelo://app?vid=e841f6e2-53f5-4600-b066-dc4df41a0967"},"vehicle_type_id":"4","last_reported":1777409862,"current_range_meters":3600,"station_id":"ce4bh192rcd13ifvqdb0","pricing_plan_id":"cebpf4jnsgd1na2vs0mg"},{"bike_id":"0ba5c473-448e-4959-962b-1ceda7557f74","system_id":"levelo_inurba_marseille","lat":43.29762,"lon":5.42777,"is_reserved":false,"is_disabled":true,"rental_uris":{"android":"levelo://app?vid=0ba5c473-448e-4959-962b-1ceda7557f74","ios":"levelo://app?vid=0ba5c473-448e-4959-962b-1ceda7557f74"},"vehicle_type_id":"4","last_reported":1777409862,"current_range_meters":3600,"station_id":"st_d3md5207bmas73dh9klg","pricing_plan_id":"cebpf4jnsgd1na2vs0mg"},{"bike_id":"c658f009-bae2-4ba4-a0cc-484db7ff8698","system_id":"levelo_inurba_marseille","lat":43.28229,"lon":5.40588,"is_reserved":false,"is_disabled":false,"rental_uris":{"android":"levelo://app?vid=c658f009-bae2-4ba4-a0cc-484db7ff8698","ios":"levelo://app?vid=c658f009-bae2-4ba4-a0cc-484db7ff8698"},"vehicle_type_id":"4","last_reported":1777409862,"current_range_meters":3600,"station_id":"","pricing_plan_id":"cebpf4jnsgd1na2vs0mg"},{"bike_id":"74929e98-c2e0-43cc-b447-0901251d01cb","system_id":"levelo_inurba_marseille","lat":43.2549,"lon":5.37677,"is_reserved":false,"is_disabled":true,"rental_uris":{"android":"levelo://app?vid=74929e98-c2e0-43cc-b447-0901251d01cb","ios":"levelo://app?vid=74929e98-c2e0-43cc-b447-0901251d01cb"},"vehicle_type_id":"4","last_reported":1777409862,"current_range_meters":4000,"station_id":"ce4bhh12rcd13ifvqff0","pricing_plan_id":"cebpf4jnsgd1na2vs0mg"},{"bike_id":"ced9ef8f-cc56-494d-a5d6-cc473fa1940f","system_id":"levelo_inurba_marseille","lat":43.23187,"lon":5.39992,"is_reserved":false,"is_disabled":false,"rental_uris":{"android":"levelo://app?vid=ced9ef8f-cc56-494d-a5d6-cc473fa1940f","ios":"levelo://app?vid=ced9ef8f-cc56-494d-a5d6-cc473fa1940f"},"vehicle_type_id":"4","last_reported":1777409862,"current_range_meters":4000,"station_id":"ce4bhn12rcd13ifvqgqg","pricing_plan_id":"cebpf4jnsgd1na2vs0mg"},{"bike_id":"e5cd69c7-9379-4379-93b8-62cf25a54177","system_id":"levelo_inurba_marseille","lat":43.337497,"lon":5.374492,"is_reserved":false,"is_disabled":false,"rental_uris":{"android":"levelo://app?vid=e5cd69c7-9379-4379-93b8-62cf25a54177","ios":"levelo://app?vid=e5cd69c7-9379-4379-93b8-62cf25a54177"},"vehicle_type_id":"4","last_reported":1777409862,"current_range_meters":4000,"station_id":"","pricing_plan_id":"cebpf4jnsgd1na2vs0mg"},{"bike_id":"cc68fed6-437b-4f02-934a-f8fb98275413","system_id":"levelo_inurba_marseille","lat":43.24805,"lon":5.37453,"is_reserved":false,"is_disabled":false,"rental_uris":{"android":"levelo://app?vid=cc68fed6-437b-4f02-934a-f8fb98275413","ios":"levelo://app?vid=cc68fed6-437b-4f02-934a-f8fb98275413"},"vehicle_type_id":"4","last_reported":1777409862,"current_range_meters":4000,"station_id":"ce4bhgh2rcd13ifvqfb0","pricing_plan_id":"cebpf4jnsgd1na2vs0mg"},{"bike_id":"93aec1e8-3638-4b33-9655-abb546bbd353","system_id":"levelo_inurba_marseille","lat":43.297791,"lon":5.37133,"is_reserved":false,"is_disabled":false,"rental_uris":{"android":"levelo://app?vid=93aec1e8-3638-4b33-9655-abb546bbd353","ios":"levelo://app?vid=93aec1e8-3638-4b33-9655-abb546bbd353"},"vehicle_type_id":"4","last_reported":1777409862,"current_range_meters":4000,"station_id":"ce4bgop2rcd13ifvqc1g","pricing_plan_id":"cebpf4jnsgd1na2vs0mg"},{"bike_id":"486051b5-4249-45e2-b558-de9ed53ba784","system_id":"levelo_inurba_marseille","lat":43.313227,"lon":5.396839,"is_reserved":false,"is_disabled":false,"rental_uris":{"android":"levelo://app?vid=486051b5-4249-45e2-b558-de9ed53ba784","ios":"levelo://app?vid=486051b5-4249-45e2-b558-de9ed53ba784"},"vehicle_type_id":"4","last_reported":1777409862,"current_range_meters":4000,"station_id":"ce4bgvp2rcd13ifvqcu0","pricing_plan_id":"cebpf4jnsgd1na2vs0mg"},{"bike_id":"ae987c10-ec52-4089-8ab4-892c787c36e9","system_id":"levelo_inurba_marseille","lat":43.26224,"lon":5.38759,"is_reserved":false,"is_disabled":true,"rental_uris":{"android":"levelo://app?vid=ae987c10-ec52-4089-8ab4-892c787c36e9","ios":"levelo://app?vid=ae987c10-ec52-4089-8ab4-892c787c36e9"},"vehicle_type_id":"4","last_reported":1777409862,"current_range_meters":4400,"station_id":"","pricing_plan_id":"cebpf4jnsgd1na2vs0mg"},{"bike_id":"0252a450-36d4-43f2-90bc-a0c7d8a5d9fd","system_id":"levelo_inurba_marseille","lat":43.260651,"lon":5.393898,"is_reserved":false,"is_disabled":false,"rental_uris":{"android":"levelo://app?vid=0252a450-36d4-43f2-90bc-a0c7d8a5d9fd","ios":"levelo://app?vid=0252a450-36d4-43f2-90bc-a0c7d8a5d9fd"},"vehicle_type_id":"4","last_reported":1777409862,"current_range_meters":4400,"station_id":"ce4bhh92rcd13ifvqfj0","pricing_plan_id":"cebpf4jnsgd1na2vs0mg"},{"bike_id":"bb14d922-2204-4233-9a92-1ff7406803cf","system_id":"levelo_inurba_marseille","lat":43.28454,"lon":5.35899,"is_reserved":false,"is_disabled":false,"rental_uris":{"android":"levelo://app?vid=bb14d922-2204-4233-9a92-1ff7406803cf","ios":"levelo://app?vid=bb14d922-2204-4233-9a92-1ff7406803cf"},"vehicle_type_id":"4","last_reported":1777409862,"current_range_meters":4400,"station_id":"ce4bhah2rcd13ifvqei0","pricing_plan_id":"cebpf4jnsgd1na2vs0mg"},{"bike_id":"92df0730-a111-4eb7-9ac5-5b2e60ace000","system_id":"levelo_inurba_marseille","lat":43.28652,"lon":5.38518,"is_reserved":false,"is_disabled":false,"rental_uris":{"android":"levelo://app?vid=92df0730-a111-4eb7-9ac5-5b2e60ace000","ios":"levelo://app?vid=92df0730-a111-4eb7-9ac5-5b2e60ace000"},"vehicle_type_id":"4","last_reported":1777409862,"current_range_meters":4800,"station_id":"","pricing_plan_id":"cebpf4jnsgd1na2vs0mg"},{"bike_id":"f28956fb-b430-439e-95c9-b3413e830f4d","system_id":"levelo_inurba_marseille","lat":43.24664,"lon":5.38157,"is_reserved":false,"is_disabled":false,"rental_uris":{"android":"levelo://app?vid=f28956fb-b430-439e-95c9-b3413e830f4d","ios":"levelo://app?vid=f28956fb-b430-439e-95c9-b3413e830f4d"},"vehicle_type_id":"4","last_reported":1777409862,"current_range_meters":4800,"station_id":"ce4bhih2rcd13ifvqfr0","pricing_plan_id":"cebpf4jnsgd1na2vs0mg"},{"bike_id":"2b2662f1-d28b-44f2-b2c8-61c6569e4c3d","system_id":"levelo_inurba_marseille","lat":43.29263,"lon":5.40128,"is_reserved":false,"is_disabled":true,"rental_uris":{"android":"levelo://app?vid=2b2662f1-d28b-44f2-b2c8-61c6569e4c3d","ios":"levelo://app?vid=2b2662f1-d28b-44f2-b2c8-61c6569e4c3d"},"vehicle_type_id":"4","last_reported":1777409862,"current_range_meters":4800,"station_id":"ce4bh312rcd13ifvqdk0","pricing_plan_id":"cebpf4jnsgd1na2vs0mg"},{"bike_id":"04e12462-8d7e-420c-a899-3da03ebacc10","system_id":"levelo_inurba_marseille","lat":43.28932,"lon":5.36637,"is_reserved":false,"is_disabled":false,"rental_uris":{"android":"levelo://app?vid=04e12462-8d7e-420c-a899-3da03ebacc10","ios":"levelo://app?vid=04e12462-8d7e-420c-a899-3da03ebacc10"},"vehicle_type_id":"4","last_reported":1777409862,"current_range_meters":4800,"station_id":"ce4bhap2rcd13ifvqek0","pricing_plan_id":"cebpf4jnsgd1na2vs0mg"},{"bike_id":"ecf5c562-aff0-40dc-91d6-56afbbe44824","system_id":"levelo_inurba_marseille","lat":43.30128,"lon":5.38785,"is_reserved":false,"is_disabled":false,"rental_uris":{"android":"levelo://app?vid=ecf5c562-aff0-40dc-91d6-56afbbe44824","ios":"levelo://app?vid=ecf5c562-aff0-40dc-91d6-56afbbe44824"},"vehicle_type_id":"4","last_reported":1777409862,"current_range_meters":4800,"station_id":"ce4bghh2rcd13ifvqb60","pricing_plan_id":"cebpf4jnsgd1na2vs0mg"},{"bike_id":"afde96ac-1493-4085-af72-e5da568a87fd","system_id":"levelo_inurba_marseille","lat":43.2848,"lon":5.48389,"is_reserved":false,"is_disabled":false,"rental_uris":{"android":"levelo://app?vid=afde96ac-1493-4085-af72-e5da568a87fd","ios":"levelo://app?vid=afde96ac-1493-4085-af72-e5da568a87fd"},"vehicle_type_id":"4","last_reported":1777409862,"current_range_meters":4800,"station_id":"st_d3svhcjqgbts73a3dn0g","pricing_plan_id":"cebpf4jnsgd1na2vs0mg"},{"bike_id":"86d9692b-daa9-42f6-9e9c-f38b263cd452","system_id":"levelo_inurba_marseille","lat":43.29313,"lon":5.3717,"is_reserved":false,"is_disabled":false,"rental_uris":{"android":"levelo://app?vid=86d9692b-daa9-42f6-9e9c-f38b263cd452","ios":"levelo://app?vid=86d9692b-daa9-42f6-9e9c-f38b263cd452"},"vehicle_type_id":"4","last_reported":1777409862,"current_range_meters":4800,"station_id":"ce4bgh92rcd13ifvqb40","pricing_plan_id":"cebpf4jnsgd1na2vs0mg"},{"bike_id":"dc4f256b-dad1-4b0e-b0aa-70815278bacb","system_id":"levelo_inurba_marseille","lat":43.28967,"lon":5.39318,"is_reserved":false,"is_disabled":false,"rental_uris":{"android":"levelo://app?vid=dc4f256b-dad1-4b0e-b0aa-70815278bacb","ios":"levelo://app?vid=dc4f256b-dad1-4b0e-b0aa-70815278bacb"},"vehicle_type_id":"4","last_reported":1777409862,"current_range_meters":4800,"station_id":"","pricing_plan_id":"cebpf4jnsgd1na2vs0mg"},{"bike_id":"b7b9a583-86eb-40d9-b9c4-c333feceb670","system_id":"levelo_inurba_marseille","lat":43.3014,"lon":5.38777,"is_reserved":false,"is_disabled":true,"rental_uris":{"android":"levelo://app?vid=b7b9a583-86eb-40d9-b9c4-c333feceb670","ios":"levelo://app?vid=b7b9a583-86eb-40d9-b9c4-c333feceb670"},"vehicle_type_id":"4","last_reported":1777409862,"current_range_meters":4800,"station_id":"ce4bghh2rcd13ifvqb60","pricing_plan_id":"cebpf4jnsgd1na2vs0mg"},{"bike_id":"5367fafd-42a5-4c52-bd35-5d85953af91c","system_id":"levelo_inurba_marseille","lat":43.3145,"lon":5.37379,"is_reserved":false,"is_disabled":true,"rental_uris":{"android":"levelo://app?vid=5367fafd-42a5-4c52-bd35-5d85953af91c","ios":"levelo://app?vid=5367fafd-42a5-4c52-bd35-5d85953af91c"},"vehicle_type_id":"4","last_reported":1777409862,"current_range_meters":5600,"station_id":"","pricing_plan_id":"cebpf4jnsgd1na2vs0mg"},{"bike_id":"d0e6b490-1162-4c28-8ab5-316da47f3c44","system_id":"levelo_inurba_marseille","lat":43.29019,"lon":5.39982,"is_reserved":false,"is_disabled":false,"rental_uris":{"android":"levelo://app?vid=d0e6b490-1162-4c28-8ab5-316da47f3c44","ios":"levelo://app?vid=d0e6b490-1162-4c28-8ab5-316da47f3c44"},"vehicle_type_id":"4","last_reported":1777409862,"current_range_meters":5600,"station_id":"ce4bh392rcd13ifvqdm0","pricing_plan_id":"cebpf4jnsgd1na2vs0mg"},{"bike_id":"94b1d427-102e-4c64-aa76-0c93e226150f","system_id":"levelo_inurba_marseille","lat":43.28474,"lon":5.48401,"is_reserved":false,"is_disabled":false,"rental_uris":{"android":"levelo://app?vid=94b1d427-102e-4c64-aa76-0c93e226150f","ios":"levelo://app?vid=94b1d427-102e-4c64-aa76-0c93e226150f"},"vehicle_type_id":"4","last_reported":1777409862,"current_range_meters":5600,"station_id":"st_d3svhcjqgbts73a3dn0g","pricing_plan_id":"cebpf4jnsgd1na2vs0mg"},{"bike_id":"ec248166-4493-4f0c-97f2-9f8af3538b8d","system_id":"levelo_inurba_marseille","lat":43.29713,"lon":5.36579,"is_reserved":false,"is_disabled":false,"rental_uris":{"android":"levelo://app?vid=ec248166-4493-4f0c-97f2-9f8af3538b8d","ios":"levelo://app?vid=ec248166-4493-4f0c-97f2-9f8af3538b8d"},"vehicle_type_id":"4","last_reported":1777409862,"current_range_meters":5600,"station_id":"ce4bgn12rcd13ifvqbt0","pricing_plan_id":"cebpf4jnsgd1na2vs0mg"},{"bike_id":"7fe95aa7-d496-427a-8c95-ca07d89d28d7","system_id":"levelo_inurba_marseille","lat":43.24957,"lon":5.40497,"is_reserved":false,"is_disabled":false,"rental_uris":{"android":"levelo://app?vid=7fe95aa7-d496-427a-8c95-ca07d89d28d7","ios":"levelo://app?vid=7fe95aa7-d496-427a-8c95-ca07d89d28d7"},"vehicle_type_id":"4","last_reported":1777409862,"current_range_meters":5600,"station_id":"st_d2ngiaodas8pm72gd1h0","pricing_plan_id":"cebpf4jnsgd1na2vs0mg"},{"bike_id":"2096ee48-f326-404a-abdb-d88acfa8683f","system_id":"levelo_inurba_marseille","lat":43.251,"lon":5.40341,"is_reserved":false,"is_disabled":false,"rental_uris":{"android":"levelo://app?vid=2096ee48-f326-404a-abdb-d88acfa8683f","ios":"levelo://app?vid=2096ee48-f326-404a-abdb-d88acfa8683f"},"vehicle_type_id":"4","last_reported":1777409862,"current_range_meters":5600,"station_id":"ce4bhlh2rcd13ifvqgig","pricing_plan_id":"cebpf4jnsgd1na2vs0mg"},{"bike_id":"61381c34-ecbf-4530-a99e-914a6e7ef9de","system_id":"levelo_inurba_marseille","lat":43.30919,"lon":5.40145,"is_reserved":false,"is_disabled":false,"rental_uris":{"android":"levelo://app?vid=61381c34-ecbf-4530-a99e-914a6e7ef9de","ios":"levelo://app?vid=61381c34-ecbf-4530-a99e-914a6e7ef9de"},"vehicle_type_id":"4","last_reported":1777409862,"current_range_meters":5600,"station_id":"ce4bgvp2rcd13ifvqct0","pricing_plan_id":"cebpf4jnsgd1na2vs0mg"},{"bike_id":"eccd231e-b997-4f9e-a2b0-d25f746ead04","system_id":"levelo_inurba_marseille","lat":43.24999,"lon":5.38931,"is_reserved":false,"is_disabled":false,"rental_uris":{"android":"levelo://app?vid=eccd231e-b997-4f9e-a2b0-d25f746ead04","ios":"levelo://app?vid=eccd231e-b997-4f9e-a2b0-d25f746ead04"},"vehicle_type_id":"4","last_reported":1777409862,"current_range_meters":5600,"station_id":"ce4bhgp2rcd13ifvqfd0","pricing_plan_id":"cebpf4jnsgd1na2vs0mg"},{"bike_id":"987eda33-b3ad-4fac-a63c-0e3ff496e921","system_id":"levelo_inurba_marseille","lat":43.32365,"lon":5.36759,"is_reserved":false,"is_disabled":false,"rental_uris":{"android":"levelo://app?vid=987eda33-b3ad-4fac-a63c-0e3ff496e921","ios":"levelo://app?vid=987eda33-b3ad-4fac-a63c-0e3ff496e921"},"vehicle_type_id":"4","last_reported":1777409862,"current_range_meters":5600,"station_id":"ce4bhsh2rcd13ifvqi2g","pricing_plan_id":"cebpf4jnsgd1na2vs0mg"},{"bike_id":"dc43e202-478a-41a8-a645-53ffaec9b791","system_id":"levelo_inurba_marseille","lat":43.29255,"lon":5.40905,"is_reserved":false,"is_disabled":false,"rental_uris":{"android":"levelo://app?vid=dc43e202-478a-41a8-a645-53ffaec9b791","ios":"levelo://app?vid=dc43e202-478a-41a8-a645-53ffaec9b791"},"vehicle_type_id":"4","last_reported":1777409862,"current_range_meters":5600,"station_id":"ce4bh192rcd13ifvqdc0","pricing_plan_id":"cebpf4jnsgd1na2vs0mg"},{"bike_id":"92b0e79d-5118-4cdc-a154-ad1d52d847b8","system_id":"levelo_inurba_marseille","lat":43.29608,"lon":5.36065,"is_reserved":false,"is_disabled":false,"rental_uris":{"android":"levelo://app?vid=92b0e79d-5118-4cdc-a154-ad1d52d847b8","ios":"levelo://app?vid=92b0e79d-5118-4cdc-a154-ad1d52d847b8"},"vehicle_type_id":"4","last_reported":1777409862,"current_range_meters":5600,"station_id":"","pricing_plan_id":"cebpf4jnsgd1na2vs0mg"},{"bike_id":"50c4339f-5975-4c82-bc5e-236ccac21304","system_id":"levelo_inurba_marseille","lat":43.313559,"lon":5.384915,"is_reserved":false,"is_disabled":false,"rental_uris":{"android":"levelo://app?vid=50c4339f-5975-4c82-bc5e-236ccac21304","ios":"levelo://app?vid=50c4339f-5975-4c82-bc5e-236ccac21304"},"vehicle_type_id":"4","last_reported":1777409862,"current_range_meters":5600,"station_id":"ce4bgt92rcd13ifvqcf0","pricing_plan_id":"cebpf4jnsgd1na2vs0mg"},{"bike_id":"eec401be-82ad-4f63-b0db-33abd6b577d0","system_id":"levelo_inurba_marseille","lat":43.30127,"lon":5.43116,"is_reserved":false,"is_disabled":false,"rental_uris":{"android":"levelo://app?vid=eec401be-82ad-4f63-b0db-33abd6b577d0","ios":"levelo://app?vid=eec401be-82ad-4f63-b0db-33abd6b577d0"},"vehicle_type_id":"4","last_reported":1777409862,"current_range_meters":5600,"station_id":"st_d3js3co5814s73ftftug","pricing_plan_id":"cebpf4jnsgd1na2vs0mg"},{"bike_id":"92650be7-9ded-417f-a9fe-0bb64884a021","system_id":"levelo_inurba_marseille","lat":43.29197,"lon":5.39315,"is_reserved":false,"is_disabled":false,"rental_uris":{"android":"levelo://app?vid=92650be7-9ded-417f-a9fe-0bb64884a021","ios":"levelo://app?vid=92650be7-9ded-417f-a9fe-0bb64884a021"},"vehicle_type_id":"4","last_reported":1777409862,"current_range_meters":5600,"station_id":"ce4bh192rcd13ifvqdd0","pricing_plan_id":"cebpf4jnsgd1na2vs0mg"},{"bike_id":"27cd71a7-0940-4415-a67f-21597fbf1cd9","system_id":"levelo_inurba_marseille","lat":43.34534,"lon":5.37787,"is_reserved":false,"is_disabled":true,"rental_uris":{"android":"levelo://app?vid=27cd71a7-0940-4415-a67f-21597fbf1cd9","ios":"levelo://app?vid=27cd71a7-0940-4415-a67f-21597fbf1cd9"},"vehicle_type_id":"4","last_reported":1777409862,"current_range_meters":6000,"station_id":"","pricing_plan_id":"cebpf4jnsgd1na2vs0mg"},{"bike_id":"b769bc29-9474-4188-8b9a-002e3a8a461d","system_id":"levelo_inurba_marseille","lat":43.2953,"lon":5.38539,"is_reserved":false,"is_disabled":false,"rental_uris":{"android":"levelo://app?vid=b769bc29-9474-4188-8b9a-002e3a8a461d","ios":"levelo://app?vid=b769bc29-9474-4188-8b9a-002e3a8a461d"},"vehicle_type_id":"4","last_reported":1777409862,"current_range_meters":6000,"station_id":"ce4bgih2rcd13ifvqba0","pricing_plan_id":"cebpf4jnsgd1na2vs0mg"},{"bike_id":"bdf457fa-3aa5-4438-906e-72d136f86bcb","system_id":"levelo_inurba_marseille","lat":43.31051,"lon":5.37168,"is_reserved":false,"is_disabled":false,"rental_uris":{"android":"levelo://app?vid=bdf457fa-3aa5-4438-906e-72d136f86bcb","ios":"levelo://app?vid=bdf457fa-3aa5-4438-906e-72d136f86bcb"},"vehicle_type_id":"4","last_reported":1777409862,"current_range_meters":6000,"station_id":"st_d4kl2rp97mjs73e7tdfg","pricing_plan_id":"cebpf4jnsgd1na2vs0mg"},{"bike_id":"d2276d1c-4dd8-4805-b674-72347073e05f","system_id":"levelo_inurba_marseille","lat":43.28827,"lon":5.425,"is_reserved":false,"is_disabled":false,"rental_uris":{"android":"levelo://app?vid=d2276d1c-4dd8-4805-b674-72347073e05f","ios":"levelo://app?vid=d2276d1c-4dd8-4805-b674-72347073e05f"},"vehicle_type_id":"4","last_reported":1777409862,"current_range_meters":6000,"station_id":"st_d3b462108ojc7389ooeg","pricing_plan_id":"cebpf4jnsgd1na2vs0mg"},{"bike_id":"2122bcc0-2ad5-42d2-bbe3-29d4151dc388","system_id":"levelo_inurba_marseille","lat":43.30316,"lon":5.40433,"is_reserved":false,"is_disabled":false,"rental_uris":{"android":"levelo://app?vid=2122bcc0-2ad5-42d2-bbe3-29d4151dc388","ios":"levelo://app?vid=2122bcc0-2ad5-42d2-bbe3-29d4151dc388"},"vehicle_type_id":"4","last_reported":1777409862,"current_range_meters":6000,"station_id":"ce4bh012rcd13ifvqd10","pricing_plan_id":"cebpf4jnsgd1na2vs0mg"},{"bike_id":"5885975e-14af-4fb1-9c49-b46a8bad9a07","system_id":"levelo_inurba_marseille","lat":43.28575,"lon":5.39495,"is_reserved":false,"is_disabled":false,"rental_uris":{"android":"levelo://app?vid=5885975e-14af-4fb1-9c49-b46a8bad9a07","ios":"levelo://app?vid=5885975e-14af-4fb1-9c49-b46a8bad9a07"},"vehicle_type_id":"4","last_reported":1777409862,"current_range_meters":6000,"station_id":"ce4bh292rcd13ifvqdg0","pricing_plan_id":"cebpf4jnsgd1na2vs0mg"},{"bike_id":"2d9fe1d9-76b9-4f3b-ba14-7e0eabcd8eb1","system_id":"levelo_inurba_marseille","lat":43.3229,"lon":5.36771,"is_reserved":false,"is_disabled":false,"rental_uris":{"android":"levelo://app?vid=2d9fe1d9-76b9-4f3b-ba14-7e0eabcd8eb1","ios":"levelo://app?vid=2d9fe1d9-76b9-4f3b-ba14-7e0eabcd8eb1"},"vehicle_type_id":"4","last_reported":1777409862,"current_range_meters":6000,"station_id":"","pricing_plan_id":"cebpf4jnsgd1na2vs0mg"},{"bike_id":"33910e7c-efbd-45e2-adb8-47a6f5b3834b","system_id":"levelo_inurba_marseille","lat":43.26202,"lon":5.40415,"is_reserved":false,"is_disabled":false,"rental_uris":{"android":"levelo://app?vid=33910e7c-efbd-45e2-adb8-47a6f5b3834b","ios":"levelo://app?vid=33910e7c-efbd-45e2-adb8-47a6f5b3834b"},"vehicle_type_id":"4","last_reported":1777409862,"current_range_meters":6000,"station_id":"ce4bhmh2rcd13ifvqgmg","pricing_plan_id":"cebpf4jnsgd1na2vs0mg"},{"bike_id":"31cd8ed9-e8f2-45cd-be7c-f8860664bfd2","system_id":"levelo_inurba_marseille","lat":43.30596,"lon":5.37213,"is_reserved":false,"is_disabled":false,"rental_uris":{"android":"levelo://app?vid=31cd8ed9-e8f2-45cd-be7c-f8860664bfd2","ios":"levelo://app?vid=31cd8ed9-e8f2-45cd-be7c-f8860664bfd2"},"vehicle_type_id":"4","last_reported":1777409862,"current_range_meters":6400,"station_id":"ce4bgqh2rcd13ifvqc4g","pricing_plan_id":"cebpf4jnsgd1na2vs0mg"},{"bike_id":"f33eabf6-f119-4069-8314-c37f3c8df3c6","system_id":"levelo_inurba_marseille","lat":43.30429,"lon":5.41281,"is_reserved":false,"is_disabled":false,"rental_uris":{"android":"levelo://app?vid=f33eabf6-f119-4069-8314-c37f3c8df3c6","ios":"levelo://app?vid=f33eabf6-f119-4069-8314-c37f3c8df3c6"},"vehicle_type_id":"4","last_reported":1777409862,"current_range_meters":6400,"station_id":"ce4bhop2rcd13ifvqh8g","pricing_plan_id":"cebpf4jnsgd1na2vs0mg"},{"bike_id":"bcd67e65-43b0-4b23-bb5c-0bdd7484ac57","system_id":"levelo_inurba_marseille","lat":43.33173,"lon":5.37785,"is_reserved":false,"is_disabled":false,"rental_uris":{"android":"levelo://app?vid=bcd67e65-43b0-4b23-bb5c-0bdd7484ac57","ios":"levelo://app?vid=bcd67e65-43b0-4b23-bb5c-0bdd7484ac57"},"vehicle_type_id":"4","last_reported":1777409862,"current_range_meters":6400,"station_id":"","pricing_plan_id":"cebpf4jnsgd1na2vs0mg"},{"bike_id":"591f6c8b-3d34-4d3b-b1b2-c443b79414b9","system_id":"levelo_inurba_marseille","lat":43.28943,"lon":5.36628,"is_reserved":false,"is_disabled":false,"rental_uris":{"android":"levelo://app?vid=591f6c8b-3d34-4d3b-b1b2-c443b79414b9","ios":"levelo://app?vid=591f6c8b-3d34-4d3b-b1b2-c443b79414b9"},"vehicle_type_id":"4","last_reported":1777409862,"current_range_meters":6400,"station_id":"ce4bhap2rcd13ifvqek0","pricing_plan_id":"cebpf4jnsgd1na2vs0mg"},{"bike_id":"40d58886-f9c3-4163-8c06-ee6310545b15","system_id":"levelo_inurba_marseille","lat":43.29512,"lon":5.39036,"is_reserved":false,"is_disabled":false,"rental_uris":{"android":"levelo://app?vid=40d58886-f9c3-4163-8c06-ee6310545b15","ios":"levelo://app?vid=40d58886-f9c3-4163-8c06-ee6310545b15"},"vehicle_type_id":"4","last_reported":1777409862,"current_range_meters":6400,"station_id":"ce4bh3p2rcd13ifvqdp0","pricing_plan_id":"cebpf4jnsgd1na2vs0mg"},{"bike_id":"483d7726-c1a7-45cb-91b4-0864cc4af5d2","system_id":"levelo_inurba_marseille","lat":43.26811,"lon":5.39636,"is_reserved":false,"is_disabled":false,"rental_uris":{"android":"levelo://app?vid=483d7726-c1a7-45cb-91b4-0864cc4af5d2","ios":"levelo://app?vid=483d7726-c1a7-45cb-91b4-0864cc4af5d2"},"vehicle_type_id":"4","last_reported":1777409862,"current_range_meters":6400,"station_id":"","pricing_plan_id":"cebpf4jnsgd1na2vs0mg"},{"bike_id":"72c4ccb8-9c06-4f24-9811-df6eccbecf29","system_id":"levelo_inurba_marseille","lat":43.24995,"lon":5.40513,"is_reserved":false,"is_disabled":false,"rental_uris":{"android":"levelo://app?vid=72c4ccb8-9c06-4f24-9811-df6eccbecf29","ios":"levelo://app?vid=72c4ccb8-9c06-4f24-9811-df6eccbecf29"},"vehicle_type_id":"4","last_reported":1777409862,"current_range_meters":6400,"station_id":"st_d2ngiaodas8pm72gd1h0","pricing_plan_id":"cebpf4jnsgd1na2vs0mg"},{"bike_id":"dcc6bf60-0195-46dc-b40f-b852b7073e9e","system_id":"levelo_inurba_marseille","lat":43.30794,"lon":5.38167,"is_reserved":false,"is_disabled":false,"rental_uris":{"android":"levelo://app?vid=dcc6bf60-0195-46dc-b40f-b852b7073e9e","ios":"levelo://app?vid=dcc6bf60-0195-46dc-b40f-b852b7073e9e"},"vehicle_type_id":"4","last_reported":1777409862,"current_range_meters":6400,"station_id":"ce4bgt12rcd13ifvqce0","pricing_plan_id":"cebpf4jnsgd1na2vs0mg"},{"bike_id":"6c9e3478-c8a0-478e-a75b-8210e99a855c","system_id":"levelo_inurba_marseille","lat":43.28563,"lon":5.39499,"is_reserved":false,"is_disabled":false,"rental_uris":{"android":"levelo://app?vid=6c9e3478-c8a0-478e-a75b-8210e99a855c","ios":"levelo://app?vid=6c9e3478-c8a0-478e-a75b-8210e99a855c"},"vehicle_type_id":"4","last_reported":1777409862,"current_range_meters":6400,"station_id":"ce4bh292rcd13ifvqdg0","pricing_plan_id":"cebpf4jnsgd1na2vs0mg"},{"bike_id":"76907408-a8ff-4688-9cbf-66e48bb415e8","system_id":"levelo_inurba_marseille","lat":43.28736,"lon":5.4668,"is_reserved":false,"is_disabled":false,"rental_uris":{"android":"levelo://app?vid=76907408-a8ff-4688-9cbf-66e48bb415e8","ios":"levelo://app?vid=76907408-a8ff-4688-9cbf-66e48bb415e8"},"vehicle_type_id":"4","last_reported":1777409862,"current_range_meters":6400,"station_id":"st_d6tc3vkotcvc738tfjhg","pricing_plan_id":"cebpf4jnsgd1na2vs0mg"},{"bike_id":"f13c1412-9987-4b53-aa5c-79a6ecb2ba2d","system_id":"levelo_inurba_marseille","lat":43.32361,"lon":5.36728,"is_reserved":false,"is_disabled":false,"rental_uris":{"android":"levelo://app?vid=f13c1412-9987-4b53-aa5c-79a6ecb2ba2d","ios":"levelo://app?vid=f13c1412-9987-4b53-aa5c-79a6ecb2ba2d"},"vehicle_type_id":"4","last_reported":1777409862,"current_range_meters":6400,"station_id":"ce4bhsh2rcd13ifvqi2g","pricing_plan_id":"cebpf4jnsgd1na2vs0mg"},{"bike_id":"3385b0dd-2ce1-4b2f-a7c9-1e6611a7ad29","system_id":"levelo_inurba_marseille","lat":43.29327,"lon":5.37214,"is_reserved":false,"is_disabled":false,"rental_uris":{"android":"levelo://app?vid=3385b0dd-2ce1-4b2f-a7c9-1e6611a7ad29","ios":"levelo://app?vid=3385b0dd-2ce1-4b2f-a7c9-1e6611a7ad29"},"vehicle_type_id":"4","last_reported":1777409862,"current_range_meters":6400,"station_id":"ce4bgh92rcd13ifvqb40","pricing_plan_id":"cebpf4jnsgd1na2vs0mg"},{"bike_id":"6d51d5c1-cb8c-4445-8648-508008832bb4","system_id":"levelo_inurba_marseille","lat":43.29447,"lon":5.38232,"is_reserved":false,"is_disabled":false,"rental_uris":{"android":"levelo://app?vid=6d51d5c1-cb8c-4445-8648-508008832bb4","ios":"levelo://app?vid=6d51d5c1-cb8c-4445-8648-508008832bb4"},"vehicle_type_id":"4","last_reported":1777409862,"current_range_meters":6400,"station_id":"","pricing_plan_id":"cebpf4jnsgd1na2vs0mg"},{"bike_id":"9f543810-4dfb-4951-9c10-acd2d2940820","system_id":"levelo_inurba_marseille","lat":43.28586,"lon":5.39504,"is_reserved":false,"is_disabled":true,"rental_uris":{"android":"levelo://app?vid=9f543810-4dfb-4951-9c10-acd2d2940820","ios":"levelo://app?vid=9f543810-4dfb-4951-9c10-acd2d2940820"},"vehicle_type_id":"4","last_reported":1777409862,"current_range_meters":6400,"station_id":"ce4bh292rcd13ifvqdg0","pricing_plan_id":"cebpf4jnsgd1na2vs0mg"},{"bike_id":"8b4e6bd3-1e82-4277-a45a-3a8abaa4e3ab","system_id":"levelo_inurba_marseille","lat":43.28479,"lon":5.48386,"is_reserved":false,"is_disabled":false,"rental_uris":{"android":"levelo://app?vid=8b4e6bd3-1e82-4277-a45a-3a8abaa4e3ab","ios":"levelo://app?vid=8b4e6bd3-1e82-4277-a45a-3a8abaa4e3ab"},"vehicle_type_id":"4","last_reported":1777409862,"current_range_meters":6400,"station_id":"","pricing_plan_id":"cebpf4jnsgd1na2vs0mg"},{"bike_id":"a73bfeef-4213-427d-af18-4a5d4cb8ea49","system_id":"levelo_inurba_marseille","lat":43.29547,"lon":5.38523,"is_reserved":false,"is_disabled":false,"rental_uris":{"android":"levelo://app?vid=a73bfeef-4213-427d-af18-4a5d4cb8ea49","ios":"levelo://app?vid=a73bfeef-4213-427d-af18-4a5d4cb8ea49"},"vehicle_type_id":"4","last_reported":1777409862,"current_range_meters":6400,"station_id":"ce4bgih2rcd13ifvqba0","pricing_plan_id":"cebpf4jnsgd1na2vs0mg"},{"bike_id":"107d0334-f629-4d14-ac3c-f789ed344f0c","system_id":"levelo_inurba_marseille","lat":43.31877,"lon":5.40729,"is_reserved":false,"is_disabled":false,"rental_uris":{"android":"levelo://app?vid=107d0334-f629-4d14-ac3c-f789ed344f0c","ios":"levelo://app?vid=107d0334-f629-4d14-ac3c-f789ed344f0c"},"vehicle_type_id":"4","last_reported":1777409862,"current_range_meters":6800,"station_id":"ce4bhq12rcd13ifvqhig","pricing_plan_id":"cebpf4jnsgd1na2vs0mg"},{"bike_id":"c1fdc55c-a85b-4b94-b56b-911a03a5712c","system_id":"levelo_inurba_marseille","lat":43.27426,"lon":5.39374,"is_reserved":false,"is_disabled":true,"rental_uris":{"android":"levelo://app?vid=c1fdc55c-a85b-4b94-b56b-911a03a5712c","ios":"levelo://app?vid=c1fdc55c-a85b-4b94-b56b-911a03a5712c"},"vehicle_type_id":"4","last_reported":1777409862,"current_range_meters":6800,"station_id":"ce4bhdp2rcd13ifvqf20","pricing_plan_id":"cebpf4jnsgd1na2vs0mg"},{"bike_id":"6c105401-d057-4b6f-a53e-ebd13a27c00d","system_id":"levelo_inurba_marseille","lat":43.29795,"lon":5.39354,"is_reserved":false,"is_disabled":false,"rental_uris":{"android":"levelo://app?vid=6c105401-d057-4b6f-a53e-ebd13a27c00d","ios":"levelo://app?vid=6c105401-d057-4b6f-a53e-ebd13a27c00d"},"vehicle_type_id":"4","last_reported":1777409862,"current_range_meters":6800,"station_id":"chh1huq6cuj3fo74tm60","pricing_plan_id":"cebpf4jnsgd1na2vs0mg"},{"bike_id":"4541a58b-5803-4873-8531-8182c7674429","system_id":"levelo_inurba_marseille","lat":43.2848,"lon":5.484,"is_reserved":false,"is_disabled":false,"rental_uris":{"android":"levelo://app?vid=4541a58b-5803-4873-8531-8182c7674429","ios":"levelo://app?vid=4541a58b-5803-4873-8531-8182c7674429"},"vehicle_type_id":"4","last_reported":1777409862,"current_range_meters":6800,"station_id":"st_d3svhcjqgbts73a3dn0g","pricing_plan_id":"cebpf4jnsgd1na2vs0mg"},{"bike_id":"ae6f465a-cf9a-449a-9d1f-82d3f6c524f2","system_id":"levelo_inurba_marseille","lat":43.24181,"lon":5.39724,"is_reserved":false,"is_disabled":false,"rental_uris":{"android":"levelo://app?vid=ae6f465a-cf9a-449a-9d1f-82d3f6c524f2","ios":"levelo://app?vid=ae6f465a-cf9a-449a-9d1f-82d3f6c524f2"},"vehicle_type_id":"4","last_reported":1777409862,"current_range_meters":6800,"station_id":"ce4bhn12rcd13ifvqgpg","pricing_plan_id":"cebpf4jnsgd1na2vs0mg"},{"bike_id":"e1d26622-7491-4fdf-a6f0-77cbc7cac2ef","system_id":"levelo_inurba_marseille","lat":43.24168,"lon":5.36403,"is_reserved":false,"is_disabled":true,"rental_uris":{"android":"levelo://app?vid=e1d26622-7491-4fdf-a6f0-77cbc7cac2ef","ios":"levelo://app?vid=e1d26622-7491-4fdf-a6f0-77cbc7cac2ef"},"vehicle_type_id":"4","last_reported":1777409862,"current_range_meters":6800,"station_id":"cpo36qri1sfpv3e86is0","pricing_plan_id":"cebpf4jnsgd1na2vs0mg"},{"bike_id":"96fb4076-24fd-4954-8e89-0fd78f3c00e6","system_id":"levelo_inurba_marseille","lat":43.30929,"lon":5.36861,"is_reserved":false,"is_disabled":false,"rental_uris":{"android":"levelo://app?vid=96fb4076-24fd-4954-8e89-0fd78f3c00e6","ios":"levelo://app?vid=96fb4076-24fd-4954-8e89-0fd78f3c00e6"},"vehicle_type_id":"4","last_reported":1777409862,"current_range_meters":6800,"station_id":"ce4bgn92rcd13ifvqbvg","pricing_plan_id":"cebpf4jnsgd1na2vs0mg"},{"bike_id":"1bf6bc57-f8be-4912-882e-8fb7d21ff70a","system_id":"levelo_inurba_marseille","lat":43.28935,"lon":5.38392,"is_reserved":false,"is_disabled":true,"rental_uris":{"android":"levelo://app?vid=1bf6bc57-f8be-4912-882e-8fb7d21ff70a","ios":"levelo://app?vid=1bf6bc57-f8be-4912-882e-8fb7d21ff70a"},"vehicle_type_id":"4","last_reported":1777409862,"current_range_meters":6800,"station_id":"ce4bh612rcd13ifvqe6g","pricing_plan_id":"cebpf4jnsgd1na2vs0mg"},{"bike_id":"963ad63d-bb00-4266-b1cc-ea4a169ad0ab","system_id":"levelo_inurba_marseille","lat":43.23205,"lon":5.39971,"is_reserved":false,"is_disabled":false,"rental_uris":{"android":"levelo://app?vid=963ad63d-bb00-4266-b1cc-ea4a169ad0ab","ios":"levelo://app?vid=963ad63d-bb00-4266-b1cc-ea4a169ad0ab"},"vehicle_type_id":"4","last_reported":1777409862,"current_range_meters":6800,"station_id":"ce4bhn12rcd13ifvqgqg","pricing_plan_id":"cebpf4jnsgd1na2vs0mg"},{"bike_id":"11effbb2-3489-4e85-aec9-0e018fcdcc03","system_id":"levelo_inurba_marseille","lat":43.23187,"lon":5.35552,"is_reserved":false,"is_disabled":false,"rental_uris":{"android":"levelo://app?vid=11effbb2-3489-4e85-aec9-0e018fcdcc03","ios":"levelo://app?vid=11effbb2-3489-4e85-aec9-0e018fcdcc03"},"vehicle_type_id":"4","last_reported":1777409862,"current_range_meters":6800,"station_id":"ce4bhu92rcd13ifvqi70","pricing_plan_id":"cebpf4jnsgd1na2vs0mg"},{"bike_id":"ffbffd47-0143-4030-b45c-3f1330f54185","system_id":"levelo_inurba_marseille","lat":43.2799,"lon":5.41662,"is_reserved":false,"is_disabled":false,"rental_uris":{"android":"levelo://app?vid=ffbffd47-0143-4030-b45c-3f1330f54185","ios":"levelo://app?vid=ffbffd47-0143-4030-b45c-3f1330f54185"},"vehicle_type_id":"4","last_reported":1777409862,"current_range_meters":6800,"station_id":"ce4bho12rcd13ifvqh1g","pricing_plan_id":"cebpf4jnsgd1na2vs0mg"},{"bike_id":"4bb1465b-4606-43ac-93d7-c06153f58726","system_id":"levelo_inurba_marseille","lat":43.2846,"lon":5.35903,"is_reserved":false,"is_disabled":false,"rental_uris":{"android":"levelo://app?vid=4bb1465b-4606-43ac-93d7-c06153f58726","ios":"levelo://app?vid=4bb1465b-4606-43ac-93d7-c06153f58726"},"vehicle_type_id":"4","last_reported":1777409862,"current_range_meters":6800,"station_id":"ce4bhah2rcd13ifvqei0","pricing_plan_id":"cebpf4jnsgd1na2vs0mg"},{"bike_id":"f95871d4-60e9-45b7-92ae-ea38e312f818","system_id":"levelo_inurba_marseille","lat":43.29538,"lon":5.38553,"is_reserved":false,"is_disabled":false,"rental_uris":{"android":"levelo://app?vid=f95871d4-60e9-45b7-92ae-ea38e312f818","ios":"levelo://app?vid=f95871d4-60e9-45b7-92ae-ea38e312f818"},"vehicle_type_id":"4","last_reported":1777409862,"current_range_meters":6800,"station_id":"ce4bgih2rcd13ifvqba0","pricing_plan_id":"cebpf4jnsgd1na2vs0mg"},{"bike_id":"ac32b96b-e295-4061-b050-9b4b96c4afb6","system_id":"levelo_inurba_marseille","lat":43.29267,"lon":5.38441,"is_reserved":false,"is_disabled":false,"rental_uris":{"android":"levelo://app?vid=ac32b96b-e295-4061-b050-9b4b96c4afb6","ios":"levelo://app?vid=ac32b96b-e295-4061-b050-9b4b96c4afb6"},"vehicle_type_id":"4","last_reported":1777409862,"current_range_meters":6800,"station_id":"ce4bh692rcd13ifvqea0","pricing_plan_id":"cebpf4jnsgd1na2vs0mg"},{"bike_id":"057b63d0-a98f-4cee-a884-9b5569ace36b","system_id":"levelo_inurba_marseille","lat":43.28069,"lon":5.39662,"is_reserved":false,"is_disabled":false,"rental_uris":{"android":"levelo://app?vid=057b63d0-a98f-4cee-a884-9b5569ace36b","ios":"levelo://app?vid=057b63d0-a98f-4cee-a884-9b5569ace36b"},"vehicle_type_id":"4","last_reported":1777409862,"current_range_meters":6800,"station_id":"ce4bho12rcd13ifvqh2g","pricing_plan_id":"cebpf4jnsgd1na2vs0mg"},{"bike_id":"1e50c851-896e-44dc-a13c-da834270707c","system_id":"levelo_inurba_marseille","lat":43.2765,"lon":5.38966,"is_reserved":false,"is_disabled":true,"rental_uris":{"android":"levelo://app?vid=1e50c851-896e-44dc-a13c-da834270707c","ios":"levelo://app?vid=1e50c851-896e-44dc-a13c-da834270707c"},"vehicle_type_id":"4","last_reported":1777409862,"current_range_meters":6800,"station_id":"ce4bhi12rcd13ifvqfo0","pricing_plan_id":"cebpf4jnsgd1na2vs0mg"},{"bike_id":"65e71f25-1791-4448-98e3-dcdf2357b321","system_id":"levelo_inurba_marseille","lat":43.31364,"lon":5.38506,"is_reserved":false,"is_disabled":false,"rental_uris":{"android":"levelo://app?vid=65e71f25-1791-4448-98e3-dcdf2357b321","ios":"levelo://app?vid=65e71f25-1791-4448-98e3-dcdf2357b321"},"vehicle_type_id":"4","last_reported":1777409862,"current_range_meters":6800,"station_id":"ce4bgt92rcd13ifvqcf0","pricing_plan_id":"cebpf4jnsgd1na2vs0mg"},{"bike_id":"b1b02246-22ea-48ef-bf03-02ba7ea06573","system_id":"levelo_inurba_marseille","lat":43.25815,"lon":5.39425,"is_reserved":false,"is_disabled":false,"rental_uris":{"android":"levelo://app?vid=b1b02246-22ea-48ef-bf03-02ba7ea06573","ios":"levelo://app?vid=b1b02246-22ea-48ef-bf03-02ba7ea06573"},"vehicle_type_id":"4","last_reported":1777409862,"current_range_meters":6800,"station_id":"ce4bhip2rcd13ifvqft0","pricing_plan_id":"cebpf4jnsgd1na2vs0mg"},{"bike_id":"d1982d5d-2b50-4f23-adfc-8fd8d9a0a2f7","system_id":"levelo_inurba_marseille","lat":43.30932,"lon":5.40147,"is_reserved":false,"is_disabled":false,"rental_uris":{"android":"levelo://app?vid=d1982d5d-2b50-4f23-adfc-8fd8d9a0a2f7","ios":"levelo://app?vid=d1982d5d-2b50-4f23-adfc-8fd8d9a0a2f7"},"vehicle_type_id":"4","last_reported":1777409862,"current_range_meters":6800,"station_id":"ce4bgvp2rcd13ifvqct0","pricing_plan_id":"cebpf4jnsgd1na2vs0mg"},{"bike_id":"68fc52cb-b012-444b-918a-3bc82a11f014","system_id":"levelo_inurba_marseille","lat":43.29314,"lon":5.37153,"is_reserved":false,"is_disabled":false,"rental_uris":{"android":"levelo://app?vid=68fc52cb-b012-444b-918a-3bc82a11f014","ios":"levelo://app?vid=68fc52cb-b012-444b-918a-3bc82a11f014"},"vehicle_type_id":"4","last_reported":1777409862,"current_range_meters":6800,"station_id":"ce4bgh92rcd13ifvqb40","pricing_plan_id":"cebpf4jnsgd1na2vs0mg"},{"bike_id":"0af2bdc7-ba7f-4124-a2da-7600aed05e11","system_id":"levelo_inurba_marseille","lat":43.30792,"lon":5.37634,"is_reserved":false,"is_disabled":false,"rental_uris":{"android":"levelo://app?vid=0af2bdc7-ba7f-4124-a2da-7600aed05e11","ios":"levelo://app?vid=0af2bdc7-ba7f-4124-a2da-7600aed05e11"},"vehicle_type_id":"4","last_reported":1777409862,"current_range_meters":7200,"station_id":"ce4bgv92rcd13ifvqcq0","pricing_plan_id":"cebpf4jnsgd1na2vs0mg"},{"bike_id":"e116e98a-e7c1-4e2d-9ae3-1a759c33b548","system_id":"levelo_inurba_marseille","lat":43.337444,"lon":5.374475,"is_reserved":false,"is_disabled":false,"rental_uris":{"android":"levelo://app?vid=e116e98a-e7c1-4e2d-9ae3-1a759c33b548","ios":"levelo://app?vid=e116e98a-e7c1-4e2d-9ae3-1a759c33b548"},"vehicle_type_id":"4","last_reported":1777409862,"current_range_meters":7200,"station_id":"ce4bgop2rcd13ifvqc1g","pricing_plan_id":"cebpf4jnsgd1na2vs0mg"},{"bike_id":"fceb4850-6c24-4b20-9118-090928fd1a6b","system_id":"levelo_inurba_marseille","lat":43.30139,"lon":5.3987,"is_reserved":false,"is_disabled":false,"rental_uris":{"android":"levelo://app?vid=fceb4850-6c24-4b20-9118-090928fd1a6b","ios":"levelo://app?vid=fceb4850-6c24-4b20-9118-090928fd1a6b"},"vehicle_type_id":"4","last_reported":1777409862,"current_range_meters":7200,"station_id":"ce4bh0h2rcd13ifvqd40","pricing_plan_id":"cebpf4jnsgd1na2vs0mg"},{"bike_id":"dabc5e28-b9df-4b1a-affa-f2e365a8b45b","system_id":"levelo_inurba_marseille","lat":43.321,"lon":5.36761,"is_reserved":false,"is_disabled":false,"rental_uris":{"android":"levelo://app?vid=dabc5e28-b9df-4b1a-affa-f2e365a8b45b","ios":"levelo://app?vid=dabc5e28-b9df-4b1a-affa-f2e365a8b45b"},"vehicle_type_id":"4","last_reported":1777409862,"current_range_meters":7200,"station_id":"ce4bhrh2rcd13ifvqhug","pricing_plan_id":"cebpf4jnsgd1na2vs0mg"},{"bike_id":"53df7902-23db-4cb4-b605-1f2ba291bc56","system_id":"levelo_inurba_marseille","lat":43.29266,"lon":5.40901,"is_reserved":false,"is_disabled":false,"rental_uris":{"android":"levelo://app?vid=53df7902-23db-4cb4-b605-1f2ba291bc56","ios":"levelo://app?vid=53df7902-23db-4cb4-b605-1f2ba291bc56"},"vehicle_type_id":"4","last_reported":1777409862,"current_range_meters":7200,"station_id":"ce4bh192rcd13ifvqdc0","pricing_plan_id":"cebpf4jnsgd1na2vs0mg"},{"bike_id":"d3bd480c-f6ce-4231-a1d5-20e54cb8851a","system_id":"levelo_inurba_marseille","lat":43.29613,"lon":5.37148,"is_reserved":false,"is_disabled":true,"rental_uris":{"android":"levelo://app?vid=d3bd480c-f6ce-4231-a1d5-20e54cb8851a","ios":"levelo://app?vid=d3bd480c-f6ce-4231-a1d5-20e54cb8851a"},"vehicle_type_id":"4","last_reported":1777409862,"current_range_meters":7200,"station_id":"ce4bgnh2rcd13ifvqc0g","pricing_plan_id":"cebpf4jnsgd1na2vs0mg"},{"bike_id":"19156f03-ab0b-41c7-9a42-bb1ae8fd0140","system_id":"levelo_inurba_marseille","lat":43.31326,"lon":5.39683,"is_reserved":false,"is_disabled":false,"rental_uris":{"android":"levelo://app?vid=19156f03-ab0b-41c7-9a42-bb1ae8fd0140","ios":"levelo://app?vid=19156f03-ab0b-41c7-9a42-bb1ae8fd0140"},"vehicle_type_id":"4","last_reported":1777409862,"current_range_meters":7200,"station_id":"ce4bgvp2rcd13ifvqcu0","pricing_plan_id":"cebpf4jnsgd1na2vs0mg"},{"bike_id":"27cbbdc8-76be-4943-abdc-2247bea40f15","system_id":"levelo_inurba_marseille","lat":43.28379,"lon":5.35011,"is_reserved":false,"is_disabled":false,"rental_uris":{"android":"levelo://app?vid=27cbbdc8-76be-4943-abdc-2247bea40f15","ios":"levelo://app?vid=27cbbdc8-76be-4943-abdc-2247bea40f15"},"vehicle_type_id":"4","last_reported":1777409862,"current_range_meters":7200,"station_id":"","pricing_plan_id":"cebpf4jnsgd1na2vs0mg"},{"bike_id":"e2605e88-9f7b-49cc-8a63-119a038d9512","system_id":"levelo_inurba_marseille","lat":43.2561,"lon":5.38584,"is_reserved":false,"is_disabled":false,"rental_uris":{"android":"levelo://app?vid=e2605e88-9f7b-49cc-8a63-119a038d9512","ios":"levelo://app?vid=e2605e88-9f7b-49cc-8a63-119a038d9512"},"vehicle_type_id":"4","last_reported":1777409862,"current_range_meters":7200,"station_id":"","pricing_plan_id":"cebpf4jnsgd1na2vs0mg"},{"bike_id":"b4b00c12-5cb8-4ac6-a93b-068684e57e20","system_id":"levelo_inurba_marseille","lat":43.2979,"lon":5.39331,"is_reserved":false,"is_disabled":false,"rental_uris":{"android":"levelo://app?vid=b4b00c12-5cb8-4ac6-a93b-068684e57e20","ios":"levelo://app?vid=b4b00c12-5cb8-4ac6-a93b-068684e57e20"},"vehicle_type_id":"4","last_reported":1777409862,"current_range_meters":7200,"station_id":"chh1huq6cuj3fo74tm60","pricing_plan_id":"cebpf4jnsgd1na2vs0mg"},{"bike_id":"8ddf78e6-7053-4f51-a052-cbf410efa6bf","system_id":"levelo_inurba_marseille","lat":43.31289,"lon":5.36808,"is_reserved":false,"is_disabled":false,"rental_uris":{"android":"levelo://app?vid=8ddf78e6-7053-4f51-a052-cbf410efa6bf","ios":"levelo://app?vid=8ddf78e6-7053-4f51-a052-cbf410efa6bf"},"vehicle_type_id":"4","last_reported":1777409862,"current_range_meters":7200,"station_id":"","pricing_plan_id":"cebpf4jnsgd1na2vs0mg"},{"bike_id":"a2b05a2c-c09b-4781-8dc2-188e794d958e","system_id":"levelo_inurba_marseille","lat":43.26558,"lon":5.40328,"is_reserved":false,"is_disabled":false,"rental_uris":{"android":"levelo://app?vid=a2b05a2c-c09b-4781-8dc2-188e794d958e","ios":"levelo://app?vid=a2b05a2c-c09b-4781-8dc2-188e794d958e"},"vehicle_type_id":"4","last_reported":1777409862,"current_range_meters":7200,"station_id":"ce4bhmp2rcd13ifvqgng","pricing_plan_id":"cebpf4jnsgd1na2vs0mg"},{"bike_id":"ccc64b12-fba8-4953-9e4c-789c15629674","system_id":"levelo_inurba_marseille","lat":43.23205,"lon":5.35085,"is_reserved":false,"is_disabled":false,"rental_uris":{"android":"levelo://app?vid=ccc64b12-fba8-4953-9e4c-789c15629674","ios":"levelo://app?vid=ccc64b12-fba8-4953-9e4c-789c15629674"},"vehicle_type_id":"4","last_reported":1777409862,"current_range_meters":7200,"station_id":"","pricing_plan_id":"cebpf4jnsgd1na2vs0mg"},{"bike_id":"550b61bf-024e-4f9e-9492-2a8f7afeae1e","system_id":"levelo_inurba_marseille","lat":43.30855,"lon":5.40483,"is_reserved":false,"is_disabled":false,"rental_uris":{"android":"levelo://app?vid=550b61bf-024e-4f9e-9492-2a8f7afeae1e","ios":"levelo://app?vid=550b61bf-024e-4f9e-9492-2a8f7afeae1e"},"vehicle_type_id":"4","last_reported":1777409862,"current_range_meters":7200,"station_id":"","pricing_plan_id":"cebpf4jnsgd1na2vs0mg"},{"bike_id":"3437955b-1d01-472d-a152-fed8f08dcf0a","system_id":"levelo_inurba_marseille","lat":43.28414,"lon":5.37515,"is_reserved":false,"is_disabled":false,"rental_uris":{"android":"levelo://app?vid=3437955b-1d01-472d-a152-fed8f08dcf0a","ios":"levelo://app?vid=3437955b-1d01-472d-a152-fed8f08dcf0a"},"vehicle_type_id":"4","last_reported":1777409862,"current_range_meters":7200,"station_id":"ce4bh412rcd13ifvqds0","pricing_plan_id":"cebpf4jnsgd1na2vs0mg"},{"bike_id":"7f1ace1d-03bb-4553-ba91-63c0c4ae787c","system_id":"levelo_inurba_marseille","lat":43.28862,"lon":5.35845,"is_reserved":false,"is_disabled":false,"rental_uris":{"android":"levelo://app?vid=7f1ace1d-03bb-4553-ba91-63c0c4ae787c","ios":"levelo://app?vid=7f1ace1d-03bb-4553-ba91-63c0c4ae787c"},"vehicle_type_id":"4","last_reported":1777409862,"current_range_meters":7200,"station_id":"ce4bhb12rcd13ifvqem0","pricing_plan_id":"cebpf4jnsgd1na2vs0mg"},{"bike_id":"89ebf6d5-cdc0-4d93-af12-2eb24c67f00c","system_id":"levelo_inurba_marseille","lat":43.29311,"lon":5.37166,"is_reserved":false,"is_disabled":false,"rental_uris":{"android":"levelo://app?vid=89ebf6d5-cdc0-4d93-af12-2eb24c67f00c","ios":"levelo://app?vid=89ebf6d5-cdc0-4d93-af12-2eb24c67f00c"},"vehicle_type_id":"4","last_reported":1777409862,"current_range_meters":7200,"station_id":"ce4bgh92rcd13ifvqb40","pricing_plan_id":"cebpf4jnsgd1na2vs0mg"},{"bike_id":"dcccaf40-3159-4149-92e2-805cd9f81ade","system_id":"levelo_inurba_marseille","lat":43.29289,"lon":5.37489,"is_reserved":false,"is_disabled":false,"rental_uris":{"android":"levelo://app?vid=dcccaf40-3159-4149-92e2-805cd9f81ade","ios":"levelo://app?vid=dcccaf40-3159-4149-92e2-805cd9f81ade"},"vehicle_type_id":"4","last_reported":1777409862,"current_range_meters":7200,"station_id":"ce4bgi12rcd13ifvqb70","pricing_plan_id":"cebpf4jnsgd1na2vs0mg"},{"bike_id":"870cf028-d317-4365-88b3-cfc8b2733cc6","system_id":"levelo_inurba_marseille","lat":43.28688,"lon":5.4671,"is_reserved":false,"is_disabled":false,"rental_uris":{"android":"levelo://app?vid=870cf028-d317-4365-88b3-cfc8b2733cc6","ios":"levelo://app?vid=870cf028-d317-4365-88b3-cfc8b2733cc6"},"vehicle_type_id":"4","last_reported":1777409862,"current_range_meters":8000,"station_id":"st_d6tc3vkotcvc738tfjhg","pricing_plan_id":"cebpf4jnsgd1na2vs0mg"},{"bike_id":"f876cb19-0749-40f4-8bd3-e18d1d5c19e4","system_id":"levelo_inurba_marseille","lat":43.31279,"lon":5.40178,"is_reserved":false,"is_disabled":false,"rental_uris":{"android":"levelo://app?vid=f876cb19-0749-40f4-8bd3-e18d1d5c19e4","ios":"levelo://app?vid=f876cb19-0749-40f4-8bd3-e18d1d5c19e4"},"vehicle_type_id":"4","last_reported":1777409862,"current_range_meters":8000,"station_id":"ce4bh092rcd13ifvqd30","pricing_plan_id":"cebpf4jnsgd1na2vs0mg"},{"bike_id":"1673f501-eaa7-4558-954b-d52abde6661f","system_id":"levelo_inurba_marseille","lat":43.28443,"lon":5.35896,"is_reserved":false,"is_disabled":false,"rental_uris":{"android":"levelo://app?vid=1673f501-eaa7-4558-954b-d52abde6661f","ios":"levelo://app?vid=1673f501-eaa7-4558-954b-d52abde6661f"},"vehicle_type_id":"4","last_reported":1777409862,"current_range_meters":8000,"station_id":"ce4bhah2rcd13ifvqei0","pricing_plan_id":"cebpf4jnsgd1na2vs0mg"},{"bike_id":"23b9edcd-305b-48b3-b42b-c5b2d1a2cdca","system_id":"levelo_inurba_marseille","lat":43.27053,"lon":5.38654,"is_reserved":false,"is_disabled":false,"rental_uris":{"android":"levelo://app?vid=23b9edcd-305b-48b3-b42b-c5b2d1a2cdca","ios":"levelo://app?vid=23b9edcd-305b-48b3-b42b-c5b2d1a2cdca"},"vehicle_type_id":"4","last_reported":1777409862,"current_range_meters":8000,"station_id":"","pricing_plan_id":"cebpf4jnsgd1na2vs0mg"},{"bike_id":"fe46bf29-5444-450b-8138-3e7925b5ab62","system_id":"levelo_inurba_marseille","lat":43.29042,"lon":5.38675,"is_reserved":false,"is_disabled":false,"rental_uris":{"android":"levelo://app?vid=fe46bf29-5444-450b-8138-3e7925b5ab62","ios":"levelo://app?vid=fe46bf29-5444-450b-8138-3e7925b5ab62"},"vehicle_type_id":"4","last_reported":1777409862,"current_range_meters":8000,"station_id":"ce4bh4p2rcd13ifvqe0g","pricing_plan_id":"cebpf4jnsgd1na2vs0mg"},{"bike_id":"64caf656-9c5b-4754-be7e-5471268d2436","system_id":"levelo_inurba_marseille","lat":43.29026,"lon":5.38664,"is_reserved":false,"is_disabled":true,"rental_uris":{"android":"levelo://app?vid=64caf656-9c5b-4754-be7e-5471268d2436","ios":"levelo://app?vid=64caf656-9c5b-4754-be7e-5471268d2436"},"vehicle_type_id":"4","last_reported":1777409862,"current_range_meters":8000,"station_id":"ce4bh4p2rcd13ifvqe0g","pricing_plan_id":"cebpf4jnsgd1na2vs0mg"},{"bike_id":"f3253984-8723-496b-b1f9-f2af0dda8d75","system_id":"levelo_inurba_marseille","lat":43.30892,"lon":5.39638,"is_reserved":false,"is_disabled":false,"rental_uris":{"android":"levelo://app?vid=f3253984-8723-496b-b1f9-f2af0dda8d75","ios":"levelo://app?vid=f3253984-8723-496b-b1f9-f2af0dda8d75"},"vehicle_type_id":"4","last_reported":1777409862,"current_range_meters":8000,"station_id":"ce4bh012rcd13ifvqcv0","pricing_plan_id":"cebpf4jnsgd1na2vs0mg"},{"bike_id":"5cf5cac4-304b-4407-a8e5-357d3ab6bc0b","system_id":"levelo_inurba_marseille","lat":43.23896,"lon":5.37464,"is_reserved":false,"is_disabled":true,"rental_uris":{"android":"levelo://app?vid=5cf5cac4-304b-4407-a8e5-357d3ab6bc0b","ios":"levelo://app?vid=5cf5cac4-304b-4407-a8e5-357d3ab6bc0b"},"vehicle_type_id":"4","last_reported":1777409862,"current_range_meters":8000,"station_id":"st_d6sm7csbq4hs73f8fpjg","pricing_plan_id":"cebpf4jnsgd1na2vs0mg"},{"bike_id":"30472d49-146d-434c-a5ae-d2b7af681c06","system_id":"levelo_inurba_marseille","lat":43.29522,"lon":5.39034,"is_reserved":false,"is_disabled":false,"rental_uris":{"android":"levelo://app?vid=30472d49-146d-434c-a5ae-d2b7af681c06","ios":"levelo://app?vid=30472d49-146d-434c-a5ae-d2b7af681c06"},"vehicle_type_id":"4","last_reported":1777409862,"current_range_meters":8000,"station_id":"ce4bh3p2rcd13ifvqdp0","pricing_plan_id":"cebpf4jnsgd1na2vs0mg"},{"bike_id":"4c0039a7-2139-4223-a762-18f58e281d05","system_id":"levelo_inurba_marseille","lat":43.30185,"lon":5.38064,"is_reserved":false,"is_disabled":false,"rental_uris":{"android":"levelo://app?vid=4c0039a7-2139-4223-a762-18f58e281d05","ios":"levelo://app?vid=4c0039a7-2139-4223-a762-18f58e281d05"},"vehicle_type_id":"4","last_reported":1777409862,"current_range_meters":8000,"station_id":"","pricing_plan_id":"cebpf4jnsgd1na2vs0mg"},{"bike_id":"ef3a68ef-5b94-411a-921f-f7cda00ffdfc","system_id":"levelo_inurba_marseille","lat":43.29467,"lon":5.39024,"is_reserved":false,"is_disabled":false,"rental_uris":{"android":"levelo://app?vid=ef3a68ef-5b94-411a-921f-f7cda00ffdfc","ios":"levelo://app?vid=ef3a68ef-5b94-411a-921f-f7cda00ffdfc"},"vehicle_type_id":"4","last_reported":1777409862,"current_range_meters":8000,"station_id":"","pricing_plan_id":"cebpf4jnsgd1na2vs0mg"},{"bike_id":"a737d892-66f6-4cdf-9919-272e1c73c5b2","system_id":"levelo_inurba_marseille","lat":43.3089,"lon":5.39631,"is_reserved":false,"is_disabled":false,"rental_uris":{"android":"levelo://app?vid=a737d892-66f6-4cdf-9919-272e1c73c5b2","ios":"levelo://app?vid=a737d892-66f6-4cdf-9919-272e1c73c5b2"},"vehicle_type_id":"4","last_reported":1777409862,"current_range_meters":8000,"station_id":"ce4bh012rcd13ifvqcv0","pricing_plan_id":"cebpf4jnsgd1na2vs0mg"},{"bike_id":"525129d8-a7e9-4d3a-94c3-9737193fe89b","system_id":"levelo_inurba_marseille","lat":43.32639,"lon":5.41015,"is_reserved":false,"is_disabled":false,"rental_uris":{"android":"levelo://app?vid=525129d8-a7e9-4d3a-94c3-9737193fe89b","ios":"levelo://app?vid=525129d8-a7e9-4d3a-94c3-9737193fe89b"},"vehicle_type_id":"4","last_reported":1777409862,"current_range_meters":8000,"station_id":"ce4bhpp2rcd13ifvqhgg","pricing_plan_id":"cebpf4jnsgd1na2vs0mg"},{"bike_id":"fadbd9a5-2a49-4734-8db0-528994d97e40","system_id":"levelo_inurba_marseille","lat":43.29272,"lon":5.38362,"is_reserved":false,"is_disabled":false,"rental_uris":{"android":"levelo://app?vid=fadbd9a5-2a49-4734-8db0-528994d97e40","ios":"levelo://app?vid=fadbd9a5-2a49-4734-8db0-528994d97e40"},"vehicle_type_id":"4","last_reported":1777409862,"current_range_meters":8000,"station_id":"","pricing_plan_id":"cebpf4jnsgd1na2vs0mg"},{"bike_id":"57f90bd9-fa9d-42c1-93a4-bc60e7acd42f","system_id":"levelo_inurba_marseille","lat":43.26606,"lon":5.37263,"is_reserved":false,"is_disabled":false,"rental_uris":{"android":"levelo://app?vid=57f90bd9-fa9d-42c1-93a4-bc60e7acd42f","ios":"levelo://app?vid=57f90bd9-fa9d-42c1-93a4-bc60e7acd42f"},"vehicle_type_id":"4","last_reported":1777409862,"current_range_meters":8000,"station_id":"ce4bhg12rcd13ifvqf70","pricing_plan_id":"cebpf4jnsgd1na2vs0mg"},{"bike_id":"01c578b5-d3ac-4295-8963-0b85678912d1","system_id":"levelo_inurba_marseille","lat":43.28396,"lon":5.37505,"is_reserved":false,"is_disabled":false,"rental_uris":{"android":"levelo://app?vid=01c578b5-d3ac-4295-8963-0b85678912d1","ios":"levelo://app?vid=01c578b5-d3ac-4295-8963-0b85678912d1"},"vehicle_type_id":"4","last_reported":1777409862,"current_range_meters":8000,"station_id":"ce4bh412rcd13ifvqds0","pricing_plan_id":"cebpf4jnsgd1na2vs0mg"},{"bike_id":"3cabb206-107f-465e-b3d6-d79024127c12","system_id":"levelo_inurba_marseille","lat":43.28465,"lon":5.35883,"is_reserved":false,"is_disabled":false,"rental_uris":{"android":"levelo://app?vid=3cabb206-107f-465e-b3d6-d79024127c12","ios":"levelo://app?vid=3cabb206-107f-465e-b3d6-d79024127c12"},"vehicle_type_id":"4","last_reported":1777409862,"current_range_meters":8000,"station_id":"ce4bhah2rcd13ifvqei0","pricing_plan_id":"cebpf4jnsgd1na2vs0mg"},{"bike_id":"219042d3-b5fa-4c99-a0e1-fb42849209f2","system_id":"levelo_inurba_marseille","lat":43.30147,"lon":5.38082,"is_reserved":false,"is_disabled":false,"rental_uris":{"android":"levelo://app?vid=219042d3-b5fa-4c99-a0e1-fb42849209f2","ios":"levelo://app?vid=219042d3-b5fa-4c99-a0e1-fb42849209f2"},"vehicle_type_id":"4","last_reported":1777409862,"current_range_meters":8000,"station_id":"ce4bgjp2rcd13ifvqbh0","pricing_plan_id":"cebpf4jnsgd1na2vs0mg"},{"bike_id":"0aa77637-d7e3-499b-846d-09967e25c470","system_id":"levelo_inurba_marseille","lat":43.2619,"lon":5.37974,"is_reserved":false,"is_disabled":false,"rental_uris":{"android":"levelo://app?vid=0aa77637-d7e3-499b-846d-09967e25c470","ios":"levelo://app?vid=0aa77637-d7e3-499b-846d-09967e25c470"},"vehicle_type_id":"4","last_reported":1777409862,"current_range_meters":8000,"station_id":"ce4bhjp2rcd13ifvqg90","pricing_plan_id":"cebpf4jnsgd1na2vs0mg"},{"bike_id":"475b56ab-fd61-45ae-be40-05696313ed1d","system_id":"levelo_inurba_marseille","lat":43.29415,"lon":5.40179,"is_reserved":false,"is_disabled":true,"rental_uris":{"android":"levelo://app?vid=475b56ab-fd61-45ae-be40-05696313ed1d","ios":"levelo://app?vid=475b56ab-fd61-45ae-be40-05696313ed1d"},"vehicle_type_id":"4","last_reported":1777409862,"current_range_meters":8000,"station_id":"","pricing_plan_id":"cebpf4jnsgd1na2vs0mg"},{"bike_id":"fd9a7039-4e51-4a41-8d94-a62cfc47c861","system_id":"levelo_inurba_marseille","lat":43.26492,"lon":5.39533,"is_reserved":false,"is_disabled":false,"rental_uris":{"android":"levelo://app?vid=fd9a7039-4e51-4a41-8d94-a62cfc47c861","ios":"levelo://app?vid=fd9a7039-4e51-4a41-8d94-a62cfc47c861"},"vehicle_type_id":"4","last_reported":1777409862,"current_range_meters":8000,"station_id":"ce4bhi12rcd13ifvqfq0","pricing_plan_id":"cebpf4jnsgd1na2vs0mg"},{"bike_id":"acc97b55-bc9b-44e7-9479-5a8d6b5e2386","system_id":"levelo_inurba_marseille","lat":43.29677,"lon":5.37309,"is_reserved":false,"is_disabled":false,"rental_uris":{"android":"levelo://app?vid=acc97b55-bc9b-44e7-9479-5a8d6b5e2386","ios":"levelo://app?vid=acc97b55-bc9b-44e7-9479-5a8d6b5e2386"},"vehicle_type_id":"4","last_reported":1777409862,"current_range_meters":8000,"station_id":"ce4bgk12rcd13ifvqbj0","pricing_plan_id":"cebpf4jnsgd1na2vs0mg"},{"bike_id":"80f9649a-3152-46e1-8f86-1f00243233d9","system_id":"levelo_inurba_marseille","lat":43.30906,"lon":5.40166,"is_reserved":false,"is_disabled":false,"rental_uris":{"android":"levelo://app?vid=80f9649a-3152-46e1-8f86-1f00243233d9","ios":"levelo://app?vid=80f9649a-3152-46e1-8f86-1f00243233d9"},"vehicle_type_id":"4","last_reported":1777409862,"current_range_meters":8400,"station_id":"ce4bgvp2rcd13ifvqct0","pricing_plan_id":"cebpf4jnsgd1na2vs0mg"},{"bike_id":"b9c0ca4a-61af-4a0b-994f-7b554a71a91c","system_id":"levelo_inurba_marseille","lat":43.32348,"lon":5.36719,"is_reserved":false,"is_disabled":false,"rental_uris":{"android":"levelo://app?vid=b9c0ca4a-61af-4a0b-994f-7b554a71a91c","ios":"levelo://app?vid=b9c0ca4a-61af-4a0b-994f-7b554a71a91c"},"vehicle_type_id":"4","last_reported":1777409862,"current_range_meters":8400,"station_id":"ce4bhsh2rcd13ifvqi2g","pricing_plan_id":"cebpf4jnsgd1na2vs0mg"},{"bike_id":"7eb6c203-274a-4f7c-9fc0-da1ea0436149","system_id":"levelo_inurba_marseille","lat":43.25002,"lon":5.38925,"is_reserved":false,"is_disabled":false,"rental_uris":{"android":"levelo://app?vid=7eb6c203-274a-4f7c-9fc0-da1ea0436149","ios":"levelo://app?vid=7eb6c203-274a-4f7c-9fc0-da1ea0436149"},"vehicle_type_id":"4","last_reported":1777409862,"current_range_meters":8400,"station_id":"ce4bhgp2rcd13ifvqfd0","pricing_plan_id":"cebpf4jnsgd1na2vs0mg"},{"bike_id":"d4d191c1-1e42-44ce-acaa-f4fdd3a7ce8e","system_id":"levelo_inurba_marseille","lat":43.28507,"lon":5.38529,"is_reserved":false,"is_disabled":false,"rental_uris":{"android":"levelo://app?vid=d4d191c1-1e42-44ce-acaa-f4fdd3a7ce8e","ios":"levelo://app?vid=d4d191c1-1e42-44ce-acaa-f4fdd3a7ce8e"},"vehicle_type_id":"4","last_reported":1777409862,"current_range_meters":8400,"station_id":"ce4bh8p2rcd13ifvqeb0","pricing_plan_id":"cebpf4jnsgd1na2vs0mg"},{"bike_id":"6737b6c6-75ae-4970-baf2-1a244729e21f","system_id":"levelo_inurba_marseille","lat":43.29909,"lon":5.39752,"is_reserved":false,"is_disabled":false,"rental_uris":{"android":"levelo://app?vid=6737b6c6-75ae-4970-baf2-1a244729e21f","ios":"levelo://app?vid=6737b6c6-75ae-4970-baf2-1a244729e21f"},"vehicle_type_id":"4","last_reported":1777409862,"current_range_meters":8400,"station_id":"","pricing_plan_id":"cebpf4jnsgd1na2vs0mg"},{"bike_id":"a8bdb7a5-dc75-490e-ae03-5d793618d9ad","system_id":"levelo_inurba_marseille","lat":43.25819,"lon":5.39431,"is_reserved":false,"is_disabled":false,"rental_uris":{"android":"levelo://app?vid=a8bdb7a5-dc75-490e-ae03-5d793618d9ad","ios":"levelo://app?vid=a8bdb7a5-dc75-490e-ae03-5d793618d9ad"},"vehicle_type_id":"4","last_reported":1777409862,"current_range_meters":8400,"station_id":"ce4bhip2rcd13ifvqft0","pricing_plan_id":"cebpf4jnsgd1na2vs0mg"},{"bike_id":"e255e009-8723-4c49-a399-36d62fb85847","system_id":"levelo_inurba_marseille","lat":43.289705,"lon":5.378328,"is_reserved":false,"is_disabled":false,"rental_uris":{"android":"levelo://app?vid=e255e009-8723-4c49-a399-36d62fb85847","ios":"levelo://app?vid=e255e009-8723-4c49-a399-36d62fb85847"},"vehicle_type_id":"4","last_reported":1777409862,"current_range_meters":8400,"station_id":"ce4bh9p2rcd13ifvqed0","pricing_plan_id":"cebpf4jnsgd1na2vs0mg"},{"bike_id":"2a9f517f-dc7e-442a-8a6e-b3ad6200cb4e","system_id":"levelo_inurba_marseille","lat":43.33563,"lon":5.37456,"is_reserved":false,"is_disabled":false,"rental_uris":{"android":"levelo://app?vid=2a9f517f-dc7e-442a-8a6e-b3ad6200cb4e","ios":"levelo://app?vid=2a9f517f-dc7e-442a-8a6e-b3ad6200cb4e"},"vehicle_type_id":"4","last_reported":1777409862,"current_range_meters":8400,"station_id":"st_d46tts09ee8s73dlu43g","pricing_plan_id":"cebpf4jnsgd1na2vs0mg"},{"bike_id":"ef809088-19f7-4902-a559-51469dadba8c","system_id":"levelo_inurba_marseille","lat":43.27113,"lon":5.39156,"is_reserved":false,"is_disabled":false,"rental_uris":{"android":"levelo://app?vid=ef809088-19f7-4902-a559-51469dadba8c","ios":"levelo://app?vid=ef809088-19f7-4902-a559-51469dadba8c"},"vehicle_type_id":"4","last_reported":1777409862,"current_range_meters":8400,"station_id":"","pricing_plan_id":"cebpf4jnsgd1na2vs0mg"},{"bike_id":"f11e3633-986d-40f4-8b5f-6b5e41220dfc","system_id":"levelo_inurba_marseille","lat":43.31957,"lon":5.36842,"is_reserved":false,"is_disabled":false,"rental_uris":{"android":"levelo://app?vid=f11e3633-986d-40f4-8b5f-6b5e41220dfc","ios":"levelo://app?vid=f11e3633-986d-40f4-8b5f-6b5e41220dfc"},"vehicle_type_id":"4","last_reported":1777409862,"current_range_meters":8400,"station_id":"","pricing_plan_id":"cebpf4jnsgd1na2vs0mg"},{"bike_id":"97101e97-9dc1-46b9-aa51-c662f292853d","system_id":"levelo_inurba_marseille","lat":43.28143,"lon":5.42647,"is_reserved":false,"is_disabled":false,"rental_uris":{"android":"levelo://app?vid=97101e97-9dc1-46b9-aa51-c662f292853d","ios":"levelo://app?vid=97101e97-9dc1-46b9-aa51-c662f292853d"},"vehicle_type_id":"4","last_reported":1777409862,"current_range_meters":8400,"station_id":"ce4bhnh2rcd13ifvqgug","pricing_plan_id":"cebpf4jnsgd1na2vs0mg"},{"bike_id":"0256971e-927a-4136-bafd-665aafac7fc7","system_id":"levelo_inurba_marseille","lat":43.2176,"lon":5.3461,"is_reserved":false,"is_disabled":true,"rental_uris":{"android":"levelo://app?vid=0256971e-927a-4136-bafd-665aafac7fc7","ios":"levelo://app?vid=0256971e-927a-4136-bafd-665aafac7fc7"},"vehicle_type_id":"4","last_reported":1777409862,"current_range_meters":8400,"station_id":"st_cvj6r9ubvosntc0bgbag","pricing_plan_id":"cebpf4jnsgd1na2vs0mg"},{"bike_id":"5a082d0b-9dcd-4b27-b749-e7a082c3a4b6","system_id":"levelo_inurba_marseille","lat":43.25151,"lon":5.40462,"is_reserved":false,"is_disabled":false,"rental_uris":{"android":"levelo://app?vid=5a082d0b-9dcd-4b27-b749-e7a082c3a4b6","ios":"levelo://app?vid=5a082d0b-9dcd-4b27-b749-e7a082c3a4b6"},"vehicle_type_id":"4","last_reported":1777409862,"current_range_meters":8400,"station_id":"","pricing_plan_id":"cebpf4jnsgd1na2vs0mg"},{"bike_id":"a5bb48f2-2c30-4b2a-8a32-3e7be8a00fd4","system_id":"levelo_inurba_marseille","lat":43.29165,"lon":5.37158,"is_reserved":false,"is_disabled":false,"rental_uris":{"android":"levelo://app?vid=a5bb48f2-2c30-4b2a-8a32-3e7be8a00fd4","ios":"levelo://app?vid=a5bb48f2-2c30-4b2a-8a32-3e7be8a00fd4"},"vehicle_type_id":"4","last_reported":1777409862,"current_range_meters":8400,"station_id":"ce4bha92rcd13ifvqeh0","pricing_plan_id":"cebpf4jnsgd1na2vs0mg"},{"bike_id":"f85937b2-0ec4-4bc0-9c45-454acbb4424f","system_id":"levelo_inurba_marseille","lat":43.24943,"lon":5.40491,"is_reserved":false,"is_disabled":false,"rental_uris":{"android":"levelo://app?vid=f85937b2-0ec4-4bc0-9c45-454acbb4424f","ios":"levelo://app?vid=f85937b2-0ec4-4bc0-9c45-454acbb4424f"},"vehicle_type_id":"4","last_reported":1777409862,"current_range_meters":8400,"station_id":"st_d2ngiaodas8pm72gd1h0","pricing_plan_id":"cebpf4jnsgd1na2vs0mg"},{"bike_id":"c8a3b16e-b21d-4258-93bd-6f9f9cb1cb55","system_id":"levelo_inurba_marseille","lat":43.30945,"lon":5.40139,"is_reserved":false,"is_disabled":false,"rental_uris":{"android":"levelo://app?vid=c8a3b16e-b21d-4258-93bd-6f9f9cb1cb55","ios":"levelo://app?vid=c8a3b16e-b21d-4258-93bd-6f9f9cb1cb55"},"vehicle_type_id":"4","last_reported":1777409862,"current_range_meters":8400,"station_id":"ce4bgvp2rcd13ifvqct0","pricing_plan_id":"cebpf4jnsgd1na2vs0mg"},{"bike_id":"a097e494-0d3f-4dd7-be79-ea70422940dc","system_id":"levelo_inurba_marseille","lat":43.30892,"lon":5.39647,"is_reserved":false,"is_disabled":false,"rental_uris":{"android":"levelo://app?vid=a097e494-0d3f-4dd7-be79-ea70422940dc","ios":"levelo://app?vid=a097e494-0d3f-4dd7-be79-ea70422940dc"},"vehicle_type_id":"4","last_reported":1777409862,"current_range_meters":8400,"station_id":"ce4bh012rcd13ifvqcv0","pricing_plan_id":"cebpf4jnsgd1na2vs0mg"},{"bike_id":"37970c61-7528-4352-a724-5c9197d918a1","system_id":"levelo_inurba_marseille","lat":43.2466,"lon":5.38163,"is_reserved":false,"is_disabled":false,"rental_uris":{"android":"levelo://app?vid=37970c61-7528-4352-a724-5c9197d918a1","ios":"levelo://app?vid=37970c61-7528-4352-a724-5c9197d918a1"},"vehicle_type_id":"4","last_reported":1777409862,"current_range_meters":8400,"station_id":"ce4bhih2rcd13ifvqfr0","pricing_plan_id":"cebpf4jnsgd1na2vs0mg"},{"bike_id":"7dc7d0af-33dc-4076-9edd-c93c547d62d0","system_id":"levelo_inurba_marseille","lat":43.30137,"lon":5.3986,"is_reserved":false,"is_disabled":false,"rental_uris":{"android":"levelo://app?vid=7dc7d0af-33dc-4076-9edd-c93c547d62d0","ios":"levelo://app?vid=7dc7d0af-33dc-4076-9edd-c93c547d62d0"},"vehicle_type_id":"4","last_reported":1777409862,"current_range_meters":8400,"station_id":"ce4bh0h2rcd13ifvqd40","pricing_plan_id":"cebpf4jnsgd1na2vs0mg"},{"bike_id":"4dbe00ec-feb8-4193-848e-b5324775416c","system_id":"levelo_inurba_marseille","lat":43.28404,"lon":5.34981,"is_reserved":false,"is_disabled":false,"rental_uris":{"android":"levelo://app?vid=4dbe00ec-feb8-4193-848e-b5324775416c","ios":"levelo://app?vid=4dbe00ec-feb8-4193-848e-b5324775416c"},"vehicle_type_id":"4","last_reported":1777409862,"current_range_meters":8800,"station_id":"ce4bhbh2rcd13ifvqepg","pricing_plan_id":"cebpf4jnsgd1na2vs0mg"},{"bike_id":"5f2b664d-3299-4b97-a16c-944e74430601","system_id":"levelo_inurba_marseille","lat":43.29295,"lon":5.36395,"is_reserved":false,"is_disabled":false,"rental_uris":{"android":"levelo://app?vid=5f2b664d-3299-4b97-a16c-944e74430601","ios":"levelo://app?vid=5f2b664d-3299-4b97-a16c-944e74430601"},"vehicle_type_id":"4","last_reported":1777409862,"current_range_meters":8800,"station_id":"","pricing_plan_id":"cebpf4jnsgd1na2vs0mg"},{"bike_id":"de1b4f6f-6b9d-4fc7-894f-85b3adf5ba9d","system_id":"levelo_inurba_marseille","lat":43.27566,"lon":5.3842,"is_reserved":false,"is_disabled":true,"rental_uris":{"android":"levelo://app?vid=de1b4f6f-6b9d-4fc7-894f-85b3adf5ba9d","ios":"levelo://app?vid=de1b4f6f-6b9d-4fc7-894f-85b3adf5ba9d"},"vehicle_type_id":"4","last_reported":1777409862,"current_range_meters":8800,"station_id":"ce4bhh92rcd13ifvqfi0","pricing_plan_id":"cebpf4jnsgd1na2vs0mg"},{"bike_id":"4f81a05a-97e9-44ec-a51e-366c3977229f","system_id":"levelo_inurba_marseille","lat":43.31333,"lon":5.39709,"is_reserved":false,"is_disabled":false,"rental_uris":{"android":"levelo://app?vid=4f81a05a-97e9-44ec-a51e-366c3977229f","ios":"levelo://app?vid=4f81a05a-97e9-44ec-a51e-366c3977229f"},"vehicle_type_id":"4","last_reported":1777409862,"current_range_meters":8800,"station_id":"ce4bgvp2rcd13ifvqcu0","pricing_plan_id":"cebpf4jnsgd1na2vs0mg"},{"bike_id":"c4360509-c690-49c4-8c8f-02bf5217fee1","system_id":"levelo_inurba_marseille","lat":43.29537,"lon":5.39046,"is_reserved":false,"is_disabled":false,"rental_uris":{"android":"levelo://app?vid=c4360509-c690-49c4-8c8f-02bf5217fee1","ios":"levelo://app?vid=c4360509-c690-49c4-8c8f-02bf5217fee1"},"vehicle_type_id":"4","last_reported":1777409862,"current_range_meters":8800,"station_id":"ce4bh3p2rcd13ifvqdp0","pricing_plan_id":"cebpf4jnsgd1na2vs0mg"},{"bike_id":"bd86dbbe-0e4a-4cd8-a354-fc7d3c78e55a","system_id":"levelo_inurba_marseille","lat":43.30293,"lon":5.39215,"is_reserved":false,"is_disabled":false,"rental_uris":{"android":"levelo://app?vid=bd86dbbe-0e4a-4cd8-a354-fc7d3c78e55a","ios":"levelo://app?vid=bd86dbbe-0e4a-4cd8-a354-fc7d3c78e55a"},"vehicle_type_id":"4","last_reported":1777409862,"current_range_meters":8800,"station_id":"ce4bgkh2rcd13ifvqbk0","pricing_plan_id":"cebpf4jnsgd1na2vs0mg"},{"bike_id":"31a4a3fb-bfc0-42d4-ab1c-5c02b71555b4","system_id":"levelo_inurba_marseille","lat":43.2866,"lon":5.40607,"is_reserved":false,"is_disabled":false,"rental_uris":{"android":"levelo://app?vid=31a4a3fb-bfc0-42d4-ab1c-5c02b71555b4","ios":"levelo://app?vid=31a4a3fb-bfc0-42d4-ab1c-5c02b71555b4"},"vehicle_type_id":"4","last_reported":1777409862,"current_range_meters":8800,"station_id":"","pricing_plan_id":"cebpf4jnsgd1na2vs0mg"},{"bike_id":"c5d87c94-f8c8-47f4-ae84-ea0b6e6ae165","system_id":"levelo_inurba_marseille","lat":43.26271,"lon":5.3888,"is_reserved":false,"is_disabled":false,"rental_uris":{"android":"levelo://app?vid=c5d87c94-f8c8-47f4-ae84-ea0b6e6ae165","ios":"levelo://app?vid=c5d87c94-f8c8-47f4-ae84-ea0b6e6ae165"},"vehicle_type_id":"4","last_reported":1777409862,"current_range_meters":8800,"station_id":"","pricing_plan_id":"cebpf4jnsgd1na2vs0mg"},{"bike_id":"ee5bca21-2a39-4c24-aced-c94d2451e251","system_id":"levelo_inurba_marseille","lat":43.27983,"lon":5.41652,"is_reserved":false,"is_disabled":false,"rental_uris":{"android":"levelo://app?vid=ee5bca21-2a39-4c24-aced-c94d2451e251","ios":"levelo://app?vid=ee5bca21-2a39-4c24-aced-c94d2451e251"},"vehicle_type_id":"4","last_reported":1777409862,"current_range_meters":8800,"station_id":"ce4bho12rcd13ifvqh1g","pricing_plan_id":"cebpf4jnsgd1na2vs0mg"},{"bike_id":"c46d8a22-772b-40f4-a01d-512476bc1bbf","system_id":"levelo_inurba_marseille","lat":43.24969,"lon":5.40472,"is_reserved":false,"is_disabled":false,"rental_uris":{"android":"levelo://app?vid=c46d8a22-772b-40f4-a01d-512476bc1bbf","ios":"levelo://app?vid=c46d8a22-772b-40f4-a01d-512476bc1bbf"},"vehicle_type_id":"4","last_reported":1777409862,"current_range_meters":8800,"station_id":"st_d2ngiaodas8pm72gd1h0","pricing_plan_id":"cebpf4jnsgd1na2vs0mg"},{"bike_id":"2918ec89-555e-45a0-8785-863a2c165390","system_id":"levelo_inurba_marseille","lat":43.31262,"lon":5.36848,"is_reserved":false,"is_disabled":false,"rental_uris":{"android":"levelo://app?vid=2918ec89-555e-45a0-8785-863a2c165390","ios":"levelo://app?vid=2918ec89-555e-45a0-8785-863a2c165390"},"vehicle_type_id":"4","last_reported":1777409862,"current_range_meters":8800,"station_id":"ce4bgl92rcd13ifvqbq0","pricing_plan_id":"cebpf4jnsgd1na2vs0mg"},{"bike_id":"e03a9553-f014-4591-84d1-bb481db182e5","system_id":"levelo_inurba_marseille","lat":43.28693,"lon":5.46677,"is_reserved":false,"is_disabled":false,"rental_uris":{"android":"levelo://app?vid=e03a9553-f014-4591-84d1-bb481db182e5","ios":"levelo://app?vid=e03a9553-f014-4591-84d1-bb481db182e5"},"vehicle_type_id":"4","last_reported":1777409862,"current_range_meters":8800,"station_id":"st_d6tc3vkotcvc738tfjhg","pricing_plan_id":"cebpf4jnsgd1na2vs0mg"},{"bike_id":"98f81a61-9d0d-44dd-80f3-08d01329422d","system_id":"levelo_inurba_marseille","lat":43.28374,"lon":5.38649,"is_reserved":false,"is_disabled":false,"rental_uris":{"android":"levelo://app?vid=98f81a61-9d0d-44dd-80f3-08d01329422d","ios":"levelo://app?vid=98f81a61-9d0d-44dd-80f3-08d01329422d"},"vehicle_type_id":"4","last_reported":1777409862,"current_range_meters":8800,"station_id":"ce4bh492rcd13ifvqdvg","pricing_plan_id":"cebpf4jnsgd1na2vs0mg"},{"bike_id":"2c0808ca-959e-46d2-bd7d-5fa523a2fa9a","system_id":"levelo_inurba_marseille","lat":43.30604,"lon":5.43663,"is_reserved":false,"is_disabled":false,"rental_uris":{"android":"levelo://app?vid=2c0808ca-959e-46d2-bd7d-5fa523a2fa9a","ios":"levelo://app?vid=2c0808ca-959e-46d2-bd7d-5fa523a2fa9a"},"vehicle_type_id":"4","last_reported":1777409862,"current_range_meters":8800,"station_id":"","pricing_plan_id":"cebpf4jnsgd1na2vs0mg"},{"bike_id":"4a1f0f69-0ea6-43e7-8169-567a976232c6","system_id":"levelo_inurba_marseille","lat":43.29058,"lon":5.37156,"is_reserved":false,"is_disabled":false,"rental_uris":{"android":"levelo://app?vid=4a1f0f69-0ea6-43e7-8169-567a976232c6","ios":"levelo://app?vid=4a1f0f69-0ea6-43e7-8169-567a976232c6"},"vehicle_type_id":"4","last_reported":1777409862,"current_range_meters":8800,"station_id":"ce4bh5p2rcd13ifvqe4g","pricing_plan_id":"cebpf4jnsgd1na2vs0mg"},{"bike_id":"e1bfb3b6-25b1-478e-a2d9-d38c60c7866f","system_id":"levelo_inurba_marseille","lat":43.3025,"lon":5.40034,"is_reserved":false,"is_disabled":false,"rental_uris":{"android":"levelo://app?vid=e1bfb3b6-25b1-478e-a2d9-d38c60c7866f","ios":"levelo://app?vid=e1bfb3b6-25b1-478e-a2d9-d38c60c7866f"},"vehicle_type_id":"4","last_reported":1777409862,"current_range_meters":8800,"station_id":"ce4bgvh2rcd13ifvqcs0","pricing_plan_id":"cebpf4jnsgd1na2vs0mg"},{"bike_id":"d2598843-e05e-47d7-8331-32836a619318","system_id":"levelo_inurba_marseille","lat":43.298,"lon":5.39352,"is_reserved":false,"is_disabled":false,"rental_uris":{"android":"levelo://app?vid=d2598843-e05e-47d7-8331-32836a619318","ios":"levelo://app?vid=d2598843-e05e-47d7-8331-32836a619318"},"vehicle_type_id":"4","last_reported":1777409862,"current_range_meters":8800,"station_id":"chh1huq6cuj3fo74tm60","pricing_plan_id":"cebpf4jnsgd1na2vs0mg"},{"bike_id":"14015fc9-b839-4138-b4d5-9a2f5afbe521","system_id":"levelo_inurba_marseille","lat":43.29205,"lon":5.42647,"is_reserved":false,"is_disabled":false,"rental_uris":{"android":"levelo://app?vid=14015fc9-b839-4138-b4d5-9a2f5afbe521","ios":"levelo://app?vid=14015fc9-b839-4138-b4d5-9a2f5afbe521"},"vehicle_type_id":"4","last_reported":1777409862,"current_range_meters":8800,"station_id":"","pricing_plan_id":"cebpf4jnsgd1na2vs0mg"},{"bike_id":"c1edb402-7c06-4cd6-8cc7-15e21ad51dc8","system_id":"levelo_inurba_marseille","lat":43.24175,"lon":5.39721,"is_reserved":false,"is_disabled":false,"rental_uris":{"android":"levelo://app?vid=c1edb402-7c06-4cd6-8cc7-15e21ad51dc8","ios":"levelo://app?vid=c1edb402-7c06-4cd6-8cc7-15e21ad51dc8"},"vehicle_type_id":"4","last_reported":1777409862,"current_range_meters":8800,"station_id":"ce4bhn12rcd13ifvqgpg","pricing_plan_id":"cebpf4jnsgd1na2vs0mg"},{"bike_id":"22f07e39-16f3-42f3-9b1a-06a4c964ff00","system_id":"levelo_inurba_marseille","lat":43.3088,"lon":5.39637,"is_reserved":false,"is_disabled":false,"rental_uris":{"android":"levelo://app?vid=22f07e39-16f3-42f3-9b1a-06a4c964ff00","ios":"levelo://app?vid=22f07e39-16f3-42f3-9b1a-06a4c964ff00"},"vehicle_type_id":"4","last_reported":1777409862,"current_range_meters":8800,"station_id":"ce4bh012rcd13ifvqcv0","pricing_plan_id":"cebpf4jnsgd1na2vs0mg"},{"bike_id":"fb48eb95-a721-45e3-a917-4c0e5102e02d","system_id":"levelo_inurba_marseille","lat":43.23192,"lon":5.35595,"is_reserved":false,"is_disabled":false,"rental_uris":{"android":"levelo://app?vid=fb48eb95-a721-45e3-a917-4c0e5102e02d","ios":"levelo://app?vid=fb48eb95-a721-45e3-a917-4c0e5102e02d"},"vehicle_type_id":"4","last_reported":1777409862,"current_range_meters":8800,"station_id":"ce4bhu92rcd13ifvqi70","pricing_plan_id":"cebpf4jnsgd1na2vs0mg"},{"bike_id":"17817403-a709-41c2-b5b4-2a09fff3c0ad","system_id":"levelo_inurba_marseille","lat":43.30417,"lon":5.41279,"is_reserved":false,"is_disabled":false,"rental_uris":{"android":"levelo://app?vid=17817403-a709-41c2-b5b4-2a09fff3c0ad","ios":"levelo://app?vid=17817403-a709-41c2-b5b4-2a09fff3c0ad"},"vehicle_type_id":"4","last_reported":1777409862,"current_range_meters":8800,"station_id":"ce4bhop2rcd13ifvqh8g","pricing_plan_id":"cebpf4jnsgd1na2vs0mg"},{"bike_id":"19dd03a6-b1a1-47cc-b99c-5d809d7a7a39","system_id":"levelo_inurba_marseille","lat":43.28376,"lon":5.38624,"is_reserved":false,"is_disabled":false,"rental_uris":{"android":"levelo://app?vid=19dd03a6-b1a1-47cc-b99c-5d809d7a7a39","ios":"levelo://app?vid=19dd03a6-b1a1-47cc-b99c-5d809d7a7a39"},"vehicle_type_id":"4","last_reported":1777409862,"current_range_meters":8800,"station_id":"ce4bh492rcd13ifvqdvg","pricing_plan_id":"cebpf4jnsgd1na2vs0mg"},{"bike_id":"3ee1da3b-b04b-4252-9993-22539ac74a0c","system_id":"levelo_inurba_marseille","lat":43.3019,"lon":5.36614,"is_reserved":false,"is_disabled":false,"rental_uris":{"android":"levelo://app?vid=3ee1da3b-b04b-4252-9993-22539ac74a0c","ios":"levelo://app?vid=3ee1da3b-b04b-4252-9993-22539ac74a0c"},"vehicle_type_id":"4","last_reported":1777409862,"current_range_meters":9200,"station_id":"ce4bgrh2rcd13ifvqc8g","pricing_plan_id":"cebpf4jnsgd1na2vs0mg"},{"bike_id":"c42e313b-1419-4b00-9034-dc22550a1f34","system_id":"levelo_inurba_marseille","lat":43.29306,"lon":5.37176,"is_reserved":false,"is_disabled":false,"rental_uris":{"android":"levelo://app?vid=c42e313b-1419-4b00-9034-dc22550a1f34","ios":"levelo://app?vid=c42e313b-1419-4b00-9034-dc22550a1f34"},"vehicle_type_id":"4","last_reported":1777409862,"current_range_meters":9200,"station_id":"ce4bgh92rcd13ifvqb40","pricing_plan_id":"cebpf4jnsgd1na2vs0mg"},{"bike_id":"1bb8344f-1db0-45ef-ad3e-3af45d1f5a9f","system_id":"levelo_inurba_marseille","lat":43.25742,"lon":5.38685,"is_reserved":false,"is_disabled":false,"rental_uris":{"android":"levelo://app?vid=1bb8344f-1db0-45ef-ad3e-3af45d1f5a9f","ios":"levelo://app?vid=1bb8344f-1db0-45ef-ad3e-3af45d1f5a9f"},"vehicle_type_id":"4","last_reported":1777409862,"current_range_meters":9200,"station_id":"","pricing_plan_id":"cebpf4jnsgd1na2vs0mg"},{"bike_id":"25e5c98e-f034-4d06-a50f-b516ae2f0680","system_id":"levelo_inurba_marseille","lat":43.30536,"lon":5.36678,"is_reserved":false,"is_disabled":false,"rental_uris":{"android":"levelo://app?vid=25e5c98e-f034-4d06-a50f-b516ae2f0680","ios":"levelo://app?vid=25e5c98e-f034-4d06-a50f-b516ae2f0680"},"vehicle_type_id":"4","last_reported":1777409862,"current_range_meters":9200,"station_id":"ce4bgrp2rcd13ifvqc9g","pricing_plan_id":"cebpf4jnsgd1na2vs0mg"},{"bike_id":"3d629aa3-896b-404c-8ce1-01df00b063ac","system_id":"levelo_inurba_marseille","lat":43.29654,"lon":5.40643,"is_reserved":false,"is_disabled":true,"rental_uris":{"android":"levelo://app?vid=3d629aa3-896b-404c-8ce1-01df00b063ac","ios":"levelo://app?vid=3d629aa3-896b-404c-8ce1-01df00b063ac"},"vehicle_type_id":"4","last_reported":1777409862,"current_range_meters":9200,"station_id":"ce4bh0h2rcd13ifvqd60","pricing_plan_id":"cebpf4jnsgd1na2vs0mg"},{"bike_id":"55bac593-352e-4642-8639-19fe2b8d6c00","system_id":"levelo_inurba_marseille","lat":43.27667,"lon":5.35841,"is_reserved":false,"is_disabled":false,"rental_uris":{"android":"levelo://app?vid=55bac593-352e-4642-8639-19fe2b8d6c00","ios":"levelo://app?vid=55bac593-352e-4642-8639-19fe2b8d6c00"},"vehicle_type_id":"4","last_reported":1777409862,"current_range_meters":9200,"station_id":"","pricing_plan_id":"cebpf4jnsgd1na2vs0mg"},{"bike_id":"ef2f410f-463c-4127-8f21-3ae500dd4eda","system_id":"levelo_inurba_marseille","lat":43.2841,"lon":5.3751,"is_reserved":false,"is_disabled":true,"rental_uris":{"android":"levelo://app?vid=ef2f410f-463c-4127-8f21-3ae500dd4eda","ios":"levelo://app?vid=ef2f410f-463c-4127-8f21-3ae500dd4eda"},"vehicle_type_id":"4","last_reported":1777409862,"current_range_meters":9200,"station_id":"ce4bh412rcd13ifvqds0","pricing_plan_id":"cebpf4jnsgd1na2vs0mg"},{"bike_id":"ae021663-2e05-40c8-b86d-c1c36d30e619","system_id":"levelo_inurba_marseille","lat":43.28936,"lon":5.36621,"is_reserved":false,"is_disabled":false,"rental_uris":{"android":"levelo://app?vid=ae021663-2e05-40c8-b86d-c1c36d30e619","ios":"levelo://app?vid=ae021663-2e05-40c8-b86d-c1c36d30e619"},"vehicle_type_id":"4","last_reported":1777409862,"current_range_meters":9200,"station_id":"ce4bhap2rcd13ifvqek0","pricing_plan_id":"cebpf4jnsgd1na2vs0mg"},{"bike_id":"bd94bc60-9f42-49d8-b356-f62ba9512bc6","system_id":"levelo_inurba_marseille","lat":43.26468,"lon":5.39968,"is_reserved":false,"is_disabled":false,"rental_uris":{"android":"levelo://app?vid=bd94bc60-9f42-49d8-b356-f62ba9512bc6","ios":"levelo://app?vid=bd94bc60-9f42-49d8-b356-f62ba9512bc6"},"vehicle_type_id":"4","last_reported":1777409862,"current_range_meters":9200,"station_id":"","pricing_plan_id":"cebpf4jnsgd1na2vs0mg"},{"bike_id":"13a19b64-2305-48b9-97ca-f768ee4bbad0","system_id":"levelo_inurba_marseille","lat":43.2798,"lon":5.41653,"is_reserved":false,"is_disabled":false,"rental_uris":{"android":"levelo://app?vid=13a19b64-2305-48b9-97ca-f768ee4bbad0","ios":"levelo://app?vid=13a19b64-2305-48b9-97ca-f768ee4bbad0"},"vehicle_type_id":"4","last_reported":1777409862,"current_range_meters":9200,"station_id":"ce4bho12rcd13ifvqh1g","pricing_plan_id":"cebpf4jnsgd1na2vs0mg"},{"bike_id":"e86fde7f-f309-4c5c-9613-864f1a66fd8e","system_id":"levelo_inurba_marseille","lat":43.28893,"lon":5.425,"is_reserved":false,"is_disabled":false,"rental_uris":{"android":"levelo://app?vid=e86fde7f-f309-4c5c-9613-864f1a66fd8e","ios":"levelo://app?vid=e86fde7f-f309-4c5c-9613-864f1a66fd8e"},"vehicle_type_id":"4","last_reported":1777409862,"current_range_meters":9200,"station_id":"st_d3b462108ojc7389ooeg","pricing_plan_id":"cebpf4jnsgd1na2vs0mg"},{"bike_id":"ea36c9e8-58b8-4f79-a3ce-b396281d3b24","system_id":"levelo_inurba_marseille","lat":43.305074,"lon":5.380769,"is_reserved":false,"is_disabled":false,"rental_uris":{"android":"levelo://app?vid=ea36c9e8-58b8-4f79-a3ce-b396281d3b24","ios":"levelo://app?vid=ea36c9e8-58b8-4f79-a3ce-b396281d3b24"},"vehicle_type_id":"4","last_reported":1777409862,"current_range_meters":9200,"station_id":"","pricing_plan_id":"cebpf4jnsgd1na2vs0mg"},{"bike_id":"b5592bc3-7c5d-4ba9-b1ae-b173928aef8c","system_id":"levelo_inurba_marseille","lat":43.28478,"lon":5.48397,"is_reserved":false,"is_disabled":false,"rental_uris":{"android":"levelo://app?vid=b5592bc3-7c5d-4ba9-b1ae-b173928aef8c","ios":"levelo://app?vid=b5592bc3-7c5d-4ba9-b1ae-b173928aef8c"},"vehicle_type_id":"4","last_reported":1777409862,"current_range_meters":9600,"station_id":"","pricing_plan_id":"cebpf4jnsgd1na2vs0mg"},{"bike_id":"ce5dc1f5-63eb-4e58-9a11-607a1a76f928","system_id":"levelo_inurba_marseille","lat":43.28457,"lon":5.35909,"is_reserved":false,"is_disabled":false,"rental_uris":{"android":"levelo://app?vid=ce5dc1f5-63eb-4e58-9a11-607a1a76f928","ios":"levelo://app?vid=ce5dc1f5-63eb-4e58-9a11-607a1a76f928"},"vehicle_type_id":"4","last_reported":1777409862,"current_range_meters":9600,"station_id":"ce4bhah2rcd13ifvqei0","pricing_plan_id":"cebpf4jnsgd1na2vs0mg"},{"bike_id":"5e197578-e13f-44b4-9a21-b9f34c9f44ad","system_id":"levelo_inurba_marseille","lat":43.31154,"lon":5.38705,"is_reserved":false,"is_disabled":false,"rental_uris":{"android":"levelo://app?vid=5e197578-e13f-44b4-9a21-b9f34c9f44ad","ios":"levelo://app?vid=5e197578-e13f-44b4-9a21-b9f34c9f44ad"},"vehicle_type_id":"4","last_reported":1777409862,"current_range_meters":9600,"station_id":"ce4bgv12rcd13ifvqcp0","pricing_plan_id":"cebpf4jnsgd1na2vs0mg"},{"bike_id":"6d3133c8-2b92-4e42-a2a5-c4c502c2c97a","system_id":"levelo_inurba_marseille","lat":43.31374,"lon":5.38496,"is_reserved":false,"is_disabled":false,"rental_uris":{"android":"levelo://app?vid=6d3133c8-2b92-4e42-a2a5-c4c502c2c97a","ios":"levelo://app?vid=6d3133c8-2b92-4e42-a2a5-c4c502c2c97a"},"vehicle_type_id":"4","last_reported":1777409862,"current_range_meters":9600,"station_id":"ce4bgt92rcd13ifvqcf0","pricing_plan_id":"cebpf4jnsgd1na2vs0mg"},{"bike_id":"5d330f93-e3ac-4b2c-b309-ba2a98bd8dd7","system_id":"levelo_inurba_marseille","lat":43.29532,"lon":5.38548,"is_reserved":false,"is_disabled":false,"rental_uris":{"android":"levelo://app?vid=5d330f93-e3ac-4b2c-b309-ba2a98bd8dd7","ios":"levelo://app?vid=5d330f93-e3ac-4b2c-b309-ba2a98bd8dd7"},"vehicle_type_id":"4","last_reported":1777409862,"current_range_meters":9600,"station_id":"ce4bgih2rcd13ifvqba0","pricing_plan_id":"cebpf4jnsgd1na2vs0mg"},{"bike_id":"565a8ac0-2b20-423c-a683-e409c051d1eb","system_id":"levelo_inurba_marseille","lat":43.31229,"lon":5.36867,"is_reserved":false,"is_disabled":false,"rental_uris":{"android":"levelo://app?vid=565a8ac0-2b20-423c-a683-e409c051d1eb","ios":"levelo://app?vid=565a8ac0-2b20-423c-a683-e409c051d1eb"},"vehicle_type_id":"4","last_reported":1777409862,"current_range_meters":9600,"station_id":"ce4bgl92rcd13ifvqbq0","pricing_plan_id":"cebpf4jnsgd1na2vs0mg"},{"bike_id":"8c2ebc41-7bef-4c6d-91ac-124371586248","system_id":"levelo_inurba_marseille","lat":43.25584,"lon":5.38234,"is_reserved":false,"is_disabled":false,"rental_uris":{"android":"levelo://app?vid=8c2ebc41-7bef-4c6d-91ac-124371586248","ios":"levelo://app?vid=8c2ebc41-7bef-4c6d-91ac-124371586248"},"vehicle_type_id":"4","last_reported":1777409862,"current_range_meters":9600,"station_id":"ce4bhih2rcd13ifvqfs0","pricing_plan_id":"cebpf4jnsgd1na2vs0mg"},{"bike_id":"ad016942-5b0b-44b8-ac1c-1b7068118d02","system_id":"levelo_inurba_marseille","lat":43.23198,"lon":5.35566,"is_reserved":false,"is_disabled":false,"rental_uris":{"android":"levelo://app?vid=ad016942-5b0b-44b8-ac1c-1b7068118d02","ios":"levelo://app?vid=ad016942-5b0b-44b8-ac1c-1b7068118d02"},"vehicle_type_id":"4","last_reported":1777409862,"current_range_meters":9600,"station_id":"ce4bhu92rcd13ifvqi70","pricing_plan_id":"cebpf4jnsgd1na2vs0mg"},{"bike_id":"acc57406-75de-43a2-a6ec-d941193f0be0","system_id":"levelo_inurba_marseille","lat":43.32369,"lon":5.36762,"is_reserved":false,"is_disabled":false,"rental_uris":{"android":"levelo://app?vid=acc57406-75de-43a2-a6ec-d941193f0be0","ios":"levelo://app?vid=acc57406-75de-43a2-a6ec-d941193f0be0"},"vehicle_type_id":"4","last_reported":1777409862,"current_range_meters":9600,"station_id":"ce4bhsh2rcd13ifvqi2g","pricing_plan_id":"cebpf4jnsgd1na2vs0mg"},{"bike_id":"5f107878-7c17-41a5-9872-6ef4a2ca2028","system_id":"levelo_inurba_marseille","lat":43.30252,"lon":5.40054,"is_reserved":false,"is_disabled":false,"rental_uris":{"android":"levelo://app?vid=5f107878-7c17-41a5-9872-6ef4a2ca2028","ios":"levelo://app?vid=5f107878-7c17-41a5-9872-6ef4a2ca2028"},"vehicle_type_id":"4","last_reported":1777409862,"current_range_meters":9600,"station_id":"ce4bgvh2rcd13ifvqcs0","pricing_plan_id":"cebpf4jnsgd1na2vs0mg"},{"bike_id":"1db36569-05af-4df6-af5c-4b35c5cda7c9","system_id":"levelo_inurba_marseille","lat":43.2931,"lon":5.3724,"is_reserved":false,"is_disabled":false,"rental_uris":{"android":"levelo://app?vid=1db36569-05af-4df6-af5c-4b35c5cda7c9","ios":"levelo://app?vid=1db36569-05af-4df6-af5c-4b35c5cda7c9"},"vehicle_type_id":"4","last_reported":1777409862,"current_range_meters":9600,"station_id":"ce4bgh92rcd13ifvqb40","pricing_plan_id":"cebpf4jnsgd1na2vs0mg"},{"bike_id":"87e25f35-2d83-40b5-9491-e5fcf313d252","system_id":"levelo_inurba_marseille","lat":43.2338,"lon":5.41237,"is_reserved":false,"is_disabled":false,"rental_uris":{"android":"levelo://app?vid=87e25f35-2d83-40b5-9491-e5fcf313d252","ios":"levelo://app?vid=87e25f35-2d83-40b5-9491-e5fcf313d252"},"vehicle_type_id":"4","last_reported":1777409862,"current_range_meters":9600,"station_id":"st_d75pvndhf9lc73cqq3eg","pricing_plan_id":"cebpf4jnsgd1na2vs0mg"},{"bike_id":"a6f69edd-7f92-46ec-b19d-2c3242dfd28a","system_id":"levelo_inurba_marseille","lat":43.30393,"lon":5.41881,"is_reserved":false,"is_disabled":true,"rental_uris":{"android":"levelo://app?vid=a6f69edd-7f92-46ec-b19d-2c3242dfd28a","ios":"levelo://app?vid=a6f69edd-7f92-46ec-b19d-2c3242dfd28a"},"vehicle_type_id":"4","last_reported":1777409862,"current_range_meters":9600,"station_id":"ce4bhop2rcd13ifvqh7g","pricing_plan_id":"cebpf4jnsgd1na2vs0mg"},{"bike_id":"f65f2c2d-1bd3-4b4b-91c7-51cfc015b37f","system_id":"levelo_inurba_marseille","lat":43.30193,"lon":5.36608,"is_reserved":false,"is_disabled":false,"rental_uris":{"android":"levelo://app?vid=f65f2c2d-1bd3-4b4b-91c7-51cfc015b37f","ios":"levelo://app?vid=f65f2c2d-1bd3-4b4b-91c7-51cfc015b37f"},"vehicle_type_id":"4","last_reported":1777409862,"current_range_meters":9600,"station_id":"ce4bgrh2rcd13ifvqc8g","pricing_plan_id":"cebpf4jnsgd1na2vs0mg"},{"bike_id":"e5f9afbb-eeaa-4f62-871a-cf997b5d0fb4","system_id":"levelo_inurba_marseille","lat":43.29798,"lon":5.39339,"is_reserved":false,"is_disabled":false,"rental_uris":{"android":"levelo://app?vid=e5f9afbb-eeaa-4f62-871a-cf997b5d0fb4","ios":"levelo://app?vid=e5f9afbb-eeaa-4f62-871a-cf997b5d0fb4"},"vehicle_type_id":"4","last_reported":1777409862,"current_range_meters":9600,"station_id":"chh1huq6cuj3fo74tm60","pricing_plan_id":"cebpf4jnsgd1na2vs0mg"},{"bike_id":"196939d7-8120-4fa4-8a8f-be34c3561853","system_id":"levelo_inurba_marseille","lat":43.31894,"lon":5.36813,"is_reserved":false,"is_disabled":false,"rental_uris":{"android":"levelo://app?vid=196939d7-8120-4fa4-8a8f-be34c3561853","ios":"levelo://app?vid=196939d7-8120-4fa4-8a8f-be34c3561853"},"vehicle_type_id":"4","last_reported":1777409862,"current_range_meters":9600,"station_id":"st_d6o2h0d0559c73evc1b0","pricing_plan_id":"cebpf4jnsgd1na2vs0mg"},{"bike_id":"56be734f-b967-4311-896c-533bda99afe8","system_id":"levelo_inurba_marseille","lat":43.28464,"lon":5.35877,"is_reserved":false,"is_disabled":false,"rental_uris":{"android":"levelo://app?vid=56be734f-b967-4311-896c-533bda99afe8","ios":"levelo://app?vid=56be734f-b967-4311-896c-533bda99afe8"},"vehicle_type_id":"4","last_reported":1777409862,"current_range_meters":9600,"station_id":"ce4bhah2rcd13ifvqei0","pricing_plan_id":"cebpf4jnsgd1na2vs0mg"},{"bike_id":"71ddee34-2f58-4a9f-bd6b-d9c14aeed848","system_id":"levelo_inurba_marseille","lat":43.28725,"lon":5.36087,"is_reserved":false,"is_disabled":false,"rental_uris":{"android":"levelo://app?vid=71ddee34-2f58-4a9f-bd6b-d9c14aeed848","ios":"levelo://app?vid=71ddee34-2f58-4a9f-bd6b-d9c14aeed848"},"vehicle_type_id":"4","last_reported":1777409862,"current_range_meters":9600,"station_id":"cki0cbj6b192h4jlfktg","pricing_plan_id":"cebpf4jnsgd1na2vs0mg"},{"bike_id":"016de08a-9dcd-4a81-9e84-942683adb94f","system_id":"levelo_inurba_marseille","lat":43.25818,"lon":5.39439,"is_reserved":false,"is_disabled":false,"rental_uris":{"android":"levelo://app?vid=016de08a-9dcd-4a81-9e84-942683adb94f","ios":"levelo://app?vid=016de08a-9dcd-4a81-9e84-942683adb94f"},"vehicle_type_id":"4","last_reported":1777409862,"current_range_meters":9600,"station_id":"ce4bhip2rcd13ifvqft0","pricing_plan_id":"cebpf4jnsgd1na2vs0mg"},{"bike_id":"5826704d-6185-4f02-be08-714b7a62d291","system_id":"levelo_inurba_marseille","lat":43.25333,"lon":5.42178,"is_reserved":false,"is_disabled":false,"rental_uris":{"android":"levelo://app?vid=5826704d-6185-4f02-be08-714b7a62d291","ios":"levelo://app?vid=5826704d-6185-4f02-be08-714b7a62d291"},"vehicle_type_id":"4","last_reported":1777409862,"current_range_meters":10000,"station_id":"st_d2m65c5bi1j21697t3ng","pricing_plan_id":"cebpf4jnsgd1na2vs0mg"},{"bike_id":"2e247e22-ee6a-4131-9735-56bb9cb34ec1","system_id":"levelo_inurba_marseille","lat":43.29551,"lon":5.38543,"is_reserved":false,"is_disabled":false,"rental_uris":{"android":"levelo://app?vid=2e247e22-ee6a-4131-9735-56bb9cb34ec1","ios":"levelo://app?vid=2e247e22-ee6a-4131-9735-56bb9cb34ec1"},"vehicle_type_id":"4","last_reported":1777409862,"current_range_meters":10000,"station_id":"ce4bgih2rcd13ifvqba0","pricing_plan_id":"cebpf4jnsgd1na2vs0mg"},{"bike_id":"c5698037-869d-4adf-ac58-74fe99e8a369","system_id":"levelo_inurba_marseille","lat":43.28954,"lon":5.38369,"is_reserved":false,"is_disabled":false,"rental_uris":{"android":"levelo://app?vid=c5698037-869d-4adf-ac58-74fe99e8a369","ios":"levelo://app?vid=c5698037-869d-4adf-ac58-74fe99e8a369"},"vehicle_type_id":"4","last_reported":1777409862,"current_range_meters":10000,"station_id":"ce4bh612rcd13ifvqe6g","pricing_plan_id":"cebpf4jnsgd1na2vs0mg"},{"bike_id":"384d8c36-7b52-45be-af88-a3ca984d99ee","system_id":"levelo_inurba_marseille","lat":43.25076,"lon":5.39521,"is_reserved":false,"is_disabled":false,"rental_uris":{"android":"levelo://app?vid=384d8c36-7b52-45be-af88-a3ca984d99ee","ios":"levelo://app?vid=384d8c36-7b52-45be-af88-a3ca984d99ee"},"vehicle_type_id":"4","last_reported":1777409862,"current_range_meters":10000,"station_id":"ce4bhm12rcd13ifvqgkg","pricing_plan_id":"cebpf4jnsgd1na2vs0mg"},{"bike_id":"d848b779-bbcc-4d7a-805e-64de03dc9291","system_id":"levelo_inurba_marseille","lat":43.31066,"lon":5.37171,"is_reserved":false,"is_disabled":false,"rental_uris":{"android":"levelo://app?vid=d848b779-bbcc-4d7a-805e-64de03dc9291","ios":"levelo://app?vid=d848b779-bbcc-4d7a-805e-64de03dc9291"},"vehicle_type_id":"4","last_reported":1777409862,"current_range_meters":10000,"station_id":"st_d4kl2rp97mjs73e7tdfg","pricing_plan_id":"cebpf4jnsgd1na2vs0mg"},{"bike_id":"148b7b12-4a96-4e51-a8ef-5b0a545de8d0","system_id":"levelo_inurba_marseille","lat":43.2589,"lon":5.4052,"is_reserved":false,"is_disabled":false,"rental_uris":{"android":"levelo://app?vid=148b7b12-4a96-4e51-a8ef-5b0a545de8d0","ios":"levelo://app?vid=148b7b12-4a96-4e51-a8ef-5b0a545de8d0"},"vehicle_type_id":"4","last_reported":1777409862,"current_range_meters":10000,"station_id":"","pricing_plan_id":"cebpf4jnsgd1na2vs0mg"},{"bike_id":"b0cd3801-d5d8-4737-b521-479255b64fe1","system_id":"levelo_inurba_marseille","lat":43.29252,"lon":5.40907,"is_reserved":false,"is_disabled":false,"rental_uris":{"android":"levelo://app?vid=b0cd3801-d5d8-4737-b521-479255b64fe1","ios":"levelo://app?vid=b0cd3801-d5d8-4737-b521-479255b64fe1"},"vehicle_type_id":"4","last_reported":1777409862,"current_range_meters":10000,"station_id":"ce4bh192rcd13ifvqdc0","pricing_plan_id":"cebpf4jnsgd1na2vs0mg"},