{"last_updated":1771604722,"ttl":60,"version":"2.2","data":{"bikes":[{"bike_id":"19f2b882-fcb8-4074-bddb-caa221408ea4","system_id":"levelo_inurba_marseille","lat":43.33747,"lon":5.37463,"is_reserved":false,"is_disabled":true,"rental_uris":{"android":"levelo://app?vid=19f2b882-fcb8-4074-bddb-caa221408ea4","ios":"levelo://app?vid=19f2b882-fcb8-4074-bddb-caa221408ea4"},"vehicle_type_id":"1","last_reported":1771604723,"current_range_meters":0,"station_id":"","pricing_plan_id":"cebpf4jnsgd1na2vs0mg"},{"bike_id":"2142d95f-3e17-4591-bb0d-a6f9449711b0","system_id":"levelo_inurba_marseille","lat":43.337444,"lon":5.374475,"is_reserved":false,"is_disabled":false,"rental_uris":{"android":"levelo://app?vid=2142d95f-3e17-4591-bb0d-a6f9449711b0","ios":"levelo://app?vid=2142d95f-3e17-4591-bb0d-a6f9449711b0"},"vehicle_type_id":"4","last_reported":1771604723,"current_range_meters":0,"station_id":"","pricing_plan_id":"cebpf4jnsgd1na2vs0mg"},{"bike_id":"f747f0c1-dca6-40f8-b5c0-5203904698a2","system_id":"levelo_inurba_marseille","lat":43.337606,"lon":5.374568,"is_reserved":false,"is_disabled":true,"rental_uris":{"android":"levelo://app?vid=f747f0c1-dca6-40f8-b5c0-5203904698a2","ios":"levelo://app?vid=f747f0c1-dca6-40f8-b5c0-5203904698a2"},"vehicle_type_id":"4","last_reported":1771604723,"current_range_meters":0,"station_id":"","pricing_plan_id":"cebpf4jnsgd1na2vs0mg"},{"bike_id":"7d6a1def-36ff-4051-a456-a6b74388bb20","system_id":"levelo_inurba_marseille","lat":43.289828,"lon":5.387531,"is_reserved":false,"is_disabled":true,"rental_uris":{"android":"levelo://app?vid=7d6a1def-36ff-4051-a456-a6b74388bb20","ios":"levelo://app?vid=7d6a1def-36ff-4051-a456-a6b74388bb20"},"vehicle_type_id":"4","last_reported":1771604723,"current_range_meters":0,"station_id":"","pricing_plan_id":"cebpf4jnsgd1na2vs0mg"},{"bike_id":"98821cf6-d41f-43ee-af9a-020e5a054bf3","system_id":"levelo_inurba_marseille","lat":43.233905,"lon":5.412455,"is_reserved":false,"is_disabled":true,"rental_uris":{"android":"levelo://app?vid=98821cf6-d41f-43ee-af9a-020e5a054bf3","ios":"levelo://app?vid=98821cf6-d41f-43ee-af9a-020e5a054bf3"},"vehicle_type_id":"4","last_reported":1771604723,"current_range_meters":0,"station_id":"","pricing_plan_id":"cebpf4jnsgd1na2vs0mg"},{"bike_id":"99f0769d-e5f0-436f-8a31-0a2788ffbba1","system_id":"levelo_inurba_marseille","lat":43.337545,"lon":5.374466,"is_reserved":false,"is_disabled":true,"rental_uris":{"android":"levelo://app?vid=99f0769d-e5f0-436f-8a31-0a2788ffbba1","ios":"levelo://app?vid=99f0769d-e5f0-436f-8a31-0a2788ffbba1"},"vehicle_type_id":"4","last_reported":1771604723,"current_range_meters":0,"station_id":"","pricing_plan_id":"cebpf4jnsgd1na2vs0mg"},{"bike_id":"95ac3875-f146-4303-af46-f73fc1aee76b","system_id":"levelo_inurba_marseille","lat":43.28468,"lon":5.48391,"is_reserved":false,"is_disabled":true,"rental_uris":{"android":"levelo://app?vid=95ac3875-f146-4303-af46-f73fc1aee76b","ios":"levelo://app?vid=95ac3875-f146-4303-af46-f73fc1aee76b"},"vehicle_type_id":"4","last_reported":1771604723,"current_range_meters":0,"station_id":"","pricing_plan_id":"cebpf4jnsgd1na2vs0mg"},{"bike_id":"1fe59f96-a097-4760-9178-f338463db473","system_id":"levelo_inurba_marseille","lat":43.28997,"lon":5.42775,"is_reserved":false,"is_disabled":true,"rental_uris":{"android":"levelo://app?vid=1fe59f96-a097-4760-9178-f338463db473","ios":"levelo://app?vid=1fe59f96-a097-4760-9178-f338463db473"},"vehicle_type_id":"4","last_reported":1771604723,"current_range_meters":0,"station_id":"","pricing_plan_id":"cebpf4jnsgd1na2vs0mg"},{"bike_id":"273fe18b-7e24-405a-8852-47168b51082b","system_id":"levelo_inurba_marseille","lat":43.337444,"lon":5.374475,"is_reserved":false,"is_disabled":true,"rental_uris":{"android":"levelo://app?vid=273fe18b-7e24-405a-8852-47168b51082b","ios":"levelo://app?vid=273fe18b-7e24-405a-8852-47168b51082b"},"vehicle_type_id":"4","last_reported":1771604723,"current_range_meters":0,"station_id":"","pricing_plan_id":"cebpf4jnsgd1na2vs0mg"},{"bike_id":"3afd6123-4594-4811-9408-7f12221da976","system_id":"levelo_inurba_marseille","lat":43.28035,"lon":5.40843,"is_reserved":false,"is_disabled":true,"rental_uris":{"android":"levelo://app?vid=3afd6123-4594-4811-9408-7f12221da976","ios":"levelo://app?vid=3afd6123-4594-4811-9408-7f12221da976"},"vehicle_type_id":"4","last_reported":1771604723,"current_range_meters":0,"station_id":"","pricing_plan_id":"cebpf4jnsgd1na2vs0mg"},{"bike_id":"a7d1e1d0-68d8-4b69-a4b9-a512069871f3","system_id":"levelo_inurba_marseille","lat":43.33736,"lon":5.37465,"is_reserved":false,"is_disabled":true,"rental_uris":{"android":"levelo://app?vid=a7d1e1d0-68d8-4b69-a4b9-a512069871f3","ios":"levelo://app?vid=a7d1e1d0-68d8-4b69-a4b9-a512069871f3"},"vehicle_type_id":"4","last_reported":1771604723,"current_range_meters":0,"station_id":"","pricing_plan_id":"cebpf4jnsgd1na2vs0mg"},{"bike_id":"b7da8a7f-c86c-4acc-b04c-21906e873691","system_id":"levelo_inurba_marseille","lat":43.27505,"lon":5.415864,"is_reserved":false,"is_disabled":true,"rental_uris":{"android":"levelo://app?vid=b7da8a7f-c86c-4acc-b04c-21906e873691","ios":"levelo://app?vid=b7da8a7f-c86c-4acc-b04c-21906e873691"},"vehicle_type_id":"4","last_reported":1771604723,"current_range_meters":0,"station_id":"","pricing_plan_id":"cebpf4jnsgd1na2vs0mg"},{"bike_id":"656419b4-2f53-4d8e-9d36-f4441270c721","system_id":"levelo_inurba_marseille","lat":43.337444,"lon":5.374475,"is_reserved":false,"is_disabled":true,"rental_uris":{"android":"levelo://app?vid=656419b4-2f53-4d8e-9d36-f4441270c721","ios":"levelo://app?vid=656419b4-2f53-4d8e-9d36-f4441270c721"},"vehicle_type_id":"4","last_reported":1771604723,"current_range_meters":0,"station_id":"","pricing_plan_id":"cebpf4jnsgd1na2vs0mg"},{"bike_id":"e0b6d09f-7046-44e7-8a62-e187c0c8f23a","system_id":"levelo_inurba_marseille","lat":43.26042,"lon":5.3979,"is_reserved":false,"is_disabled":true,"rental_uris":{"android":"levelo://app?vid=e0b6d09f-7046-44e7-8a62-e187c0c8f23a","ios":"levelo://app?vid=e0b6d09f-7046-44e7-8a62-e187c0c8f23a"},"vehicle_type_id":"4","last_reported":1771604723,"current_range_meters":0,"station_id":"","pricing_plan_id":"cebpf4jnsgd1na2vs0mg"},{"bike_id":"ecd0aa9d-b5df-44f5-a762-c917fddc6a1d","system_id":"levelo_inurba_marseille","lat":43.233858,"lon":5.412348,"is_reserved":false,"is_disabled":true,"rental_uris":{"android":"levelo://app?vid=ecd0aa9d-b5df-44f5-a762-c917fddc6a1d","ios":"levelo://app?vid=ecd0aa9d-b5df-44f5-a762-c917fddc6a1d"},"vehicle_type_id":"4","last_reported":1771604723,"current_range_meters":0,"station_id":"","pricing_plan_id":"cebpf4jnsgd1na2vs0mg"},{"bike_id":"b1d75935-b55d-4835-a539-aaec27ad2176","system_id":"levelo_inurba_marseille","lat":43.27507,"lon":5.41576,"is_reserved":false,"is_disabled":true,"rental_uris":{"android":"levelo://app?vid=b1d75935-b55d-4835-a539-aaec27ad2176","ios":"levelo://app?vid=b1d75935-b55d-4835-a539-aaec27ad2176"},"vehicle_type_id":"4","last_reported":1771604723,"current_range_meters":0,"station_id":"","pricing_plan_id":"cebpf4jnsgd1na2vs0mg"},{"bike_id":"d38734bb-01d8-46c2-8282-bbfac2013f62","system_id":"levelo_inurba_marseille","lat":43.29485,"lon":5.3738,"is_reserved":false,"is_disabled":true,"rental_uris":{"android":"levelo://app?vid=d38734bb-01d8-46c2-8282-bbfac2013f62","ios":"levelo://app?vid=d38734bb-01d8-46c2-8282-bbfac2013f62"},"vehicle_type_id":"4","last_reported":1771604723,"current_range_meters":0,"station_id":"","pricing_plan_id":"cebpf4jnsgd1na2vs0mg"},{"bike_id":"c1f0268d-7563-4ef3-90b9-fc965e0812d2","system_id":"levelo_inurba_marseille","lat":43.33759,"lon":5.37472,"is_reserved":false,"is_disabled":true,"rental_uris":{"android":"levelo://app?vid=c1f0268d-7563-4ef3-90b9-fc965e0812d2","ios":"levelo://app?vid=c1f0268d-7563-4ef3-90b9-fc965e0812d2"},"vehicle_type_id":"4","last_reported":1771604723,"current_range_meters":0,"station_id":"","pricing_plan_id":"cebpf4jnsgd1na2vs0mg"},{"bike_id":"6e4fa575-da33-4b92-a934-4f745f5c03dc","system_id":"levelo_inurba_marseille","lat":43.47654,"lon":5.48969,"is_reserved":false,"is_disabled":true,"rental_uris":{"android":"levelo://app?vid=6e4fa575-da33-4b92-a934-4f745f5c03dc","ios":"levelo://app?vid=6e4fa575-da33-4b92-a934-4f745f5c03dc"},"vehicle_type_id":"4","last_reported":1771604723,"current_range_meters":0,"station_id":"","pricing_plan_id":"cebpf4jnsgd1na2vs0mg"},{"bike_id":"ef4f628f-d440-4ecb-89bf-092950f8a22b","system_id":"levelo_inurba_marseille","lat":43.28479,"lon":5.48387,"is_reserved":false,"is_disabled":true,"rental_uris":{"android":"levelo://app?vid=ef4f628f-d440-4ecb-89bf-092950f8a22b","ios":"levelo://app?vid=ef4f628f-d440-4ecb-89bf-092950f8a22b"},"vehicle_type_id":"4","last_reported":1771604723,"current_range_meters":0,"station_id":"","pricing_plan_id":"cebpf4jnsgd1na2vs0mg"},{"bike_id":"862b5962-7315-4f46-81b8-ce04b23db0b9","system_id":"levelo_inurba_marseille","lat":43.30653,"lon":5.3892,"is_reserved":false,"is_disabled":true,"rental_uris":{"android":"levelo://app?vid=862b5962-7315-4f46-81b8-ce04b23db0b9","ios":"levelo://app?vid=862b5962-7315-4f46-81b8-ce04b23db0b9"},"vehicle_type_id":"4","last_reported":1771604723,"current_range_meters":0,"station_id":"","pricing_plan_id":"cebpf4jnsgd1na2vs0mg"},{"bike_id":"4d535aab-320f-4cfe-a7a1-96efa3a91664","system_id":"levelo_inurba_marseille","lat":43.31442,"lon":5.37334,"is_reserved":false,"is_disabled":true,"rental_uris":{"android":"levelo://app?vid=4d535aab-320f-4cfe-a7a1-96efa3a91664","ios":"levelo://app?vid=4d535aab-320f-4cfe-a7a1-96efa3a91664"},"vehicle_type_id":"4","last_reported":1771604723,"current_range_meters":0,"station_id":"ce4bgt12rcd13ifvqcd0","pricing_plan_id":"cebpf4jnsgd1na2vs0mg"},{"bike_id":"55434072-802a-4542-abe4-e117029a6f43","system_id":"levelo_inurba_marseille","lat":43.29874,"lon":5.39728,"is_reserved":false,"is_disabled":true,"rental_uris":{"android":"levelo://app?vid=55434072-802a-4542-abe4-e117029a6f43","ios":"levelo://app?vid=55434072-802a-4542-abe4-e117029a6f43"},"vehicle_type_id":"4","last_reported":1771604723,"current_range_meters":0,"station_id":"ce4bh0h2rcd13ifvqd50","pricing_plan_id":"cebpf4jnsgd1na2vs0mg"},{"bike_id":"b666ea26-1185-4675-b74b-3c145b308538","system_id":"levelo_inurba_marseille","lat":43.29101,"lon":5.38143,"is_reserved":false,"is_disabled":true,"rental_uris":{"android":"levelo://app?vid=b666ea26-1185-4675-b74b-3c145b308538","ios":"levelo://app?vid=b666ea26-1185-4675-b74b-3c145b308538"},"vehicle_type_id":"4","last_reported":1771604723,"current_range_meters":0,"station_id":"ce4bh512rcd13ifvqe2g","pricing_plan_id":"cebpf4jnsgd1na2vs0mg"},{"bike_id":"2ab758ee-8824-4071-8337-04dab0ab80a0","system_id":"levelo_inurba_marseille","lat":43.27376,"lon":5.36248,"is_reserved":false,"is_disabled":true,"rental_uris":{"android":"levelo://app?vid=2ab758ee-8824-4071-8337-04dab0ab80a0","ios":"levelo://app?vid=2ab758ee-8824-4071-8337-04dab0ab80a0"},"vehicle_type_id":"4","last_reported":1771604723,"current_range_meters":0,"station_id":"ce4bhbh2rcd13ifvqeo0","pricing_plan_id":"cebpf4jnsgd1na2vs0mg"},{"bike_id":"cd250b3e-6341-4c7b-a566-38ff8cd9bc25","system_id":"levelo_inurba_marseille","lat":43.26544,"lon":5.3729,"is_reserved":false,"is_disabled":true,"rental_uris":{"android":"levelo://app?vid=cd250b3e-6341-4c7b-a566-38ff8cd9bc25","ios":"levelo://app?vid=cd250b3e-6341-4c7b-a566-38ff8cd9bc25"},"vehicle_type_id":"4","last_reported":1771604723,"current_range_meters":0,"station_id":"ce4bhg12rcd13ifvqf70","pricing_plan_id":"cebpf4jnsgd1na2vs0mg"},{"bike_id":"b6eca356-4840-4213-a373-361825472690","system_id":"levelo_inurba_marseille","lat":43.25088,"lon":5.39521,"is_reserved":false,"is_disabled":true,"rental_uris":{"android":"levelo://app?vid=b6eca356-4840-4213-a373-361825472690","ios":"levelo://app?vid=b6eca356-4840-4213-a373-361825472690"},"vehicle_type_id":"4","last_reported":1771604723,"current_range_meters":0,"station_id":"ce4bhm12rcd13ifvqgkg","pricing_plan_id":"cebpf4jnsgd1na2vs0mg"},{"bike_id":"39ee9943-d1f5-4017-a938-0ab5e664aac0","system_id":"levelo_inurba_marseille","lat":43.21765,"lon":5.34603,"is_reserved":false,"is_disabled":true,"rental_uris":{"android":"levelo://app?vid=39ee9943-d1f5-4017-a938-0ab5e664aac0","ios":"levelo://app?vid=39ee9943-d1f5-4017-a938-0ab5e664aac0"},"vehicle_type_id":"4","last_reported":1771604723,"current_range_meters":0,"station_id":"st_cvj6r9ubvosntc0bgbag","pricing_plan_id":"cebpf4jnsgd1na2vs0mg"},{"bike_id":"4b514535-7997-480f-996b-8e2d33323a5a","system_id":"levelo_inurba_marseille","lat":43.21184,"lon":5.35097,"is_reserved":false,"is_disabled":true,"rental_uris":{"android":"levelo://app?vid=4b514535-7997-480f-996b-8e2d33323a5a","ios":"levelo://app?vid=4b514535-7997-480f-996b-8e2d33323a5a"},"vehicle_type_id":"4","last_reported":1771604723,"current_range_meters":0,"station_id":"st_cvj6sg6p6f1abm77japg","pricing_plan_id":"cebpf4jnsgd1na2vs0mg"},{"bike_id":"f86179fb-09ae-4503-a03e-0c7a2aa8dd5f","system_id":"levelo_inurba_marseille","lat":43.33553,"lon":5.37451,"is_reserved":false,"is_disabled":true,"rental_uris":{"android":"levelo://app?vid=f86179fb-09ae-4503-a03e-0c7a2aa8dd5f","ios":"levelo://app?vid=f86179fb-09ae-4503-a03e-0c7a2aa8dd5f"},"vehicle_type_id":"4","last_reported":1771604723,"current_range_meters":0,"station_id":"st_d46tts09ee8s73dlu43g","pricing_plan_id":"cebpf4jnsgd1na2vs0mg"},{"bike_id":"36062970-edd3-4628-8456-5d78960f6831","system_id":"levelo_inurba_marseille","lat":43.30481,"lon":5.40253,"is_reserved":false,"is_disabled":true,"rental_uris":{"android":"levelo://app?vid=36062970-edd3-4628-8456-5d78960f6831","ios":"levelo://app?vid=36062970-edd3-4628-8456-5d78960f6831"},"vehicle_type_id":"4","last_reported":1771604723,"current_range_meters":400,"station_id":"","pricing_plan_id":"cebpf4jnsgd1na2vs0mg"},{"bike_id":"ec3e152e-10a9-4aab-a36a-1aebaf9964f1","system_id":"levelo_inurba_marseille","lat":43.30294,"lon":5.39217,"is_reserved":false,"is_disabled":true,"rental_uris":{"android":"levelo://app?vid=ec3e152e-10a9-4aab-a36a-1aebaf9964f1","ios":"levelo://app?vid=ec3e152e-10a9-4aab-a36a-1aebaf9964f1"},"vehicle_type_id":"4","last_reported":1771604723,"current_range_meters":400,"station_id":"ce4bgkh2rcd13ifvqbk0","pricing_plan_id":"cebpf4jnsgd1na2vs0mg"},{"bike_id":"cac86236-e3f8-410a-b6f0-e60826f7e584","system_id":"levelo_inurba_marseille","lat":43.31125,"lon":5.37736,"is_reserved":false,"is_disabled":true,"rental_uris":{"android":"levelo://app?vid=cac86236-e3f8-410a-b6f0-e60826f7e584","ios":"levelo://app?vid=cac86236-e3f8-410a-b6f0-e60826f7e584"},"vehicle_type_id":"4","last_reported":1771604723,"current_range_meters":400,"station_id":"ce4bgt92rcd13ifvqcg0","pricing_plan_id":"cebpf4jnsgd1na2vs0mg"},{"bike_id":"35207a99-d3ed-4493-8139-9b24fe963599","system_id":"levelo_inurba_marseille","lat":43.30864,"lon":5.39656,"is_reserved":false,"is_disabled":true,"rental_uris":{"android":"levelo://app?vid=35207a99-d3ed-4493-8139-9b24fe963599","ios":"levelo://app?vid=35207a99-d3ed-4493-8139-9b24fe963599"},"vehicle_type_id":"4","last_reported":1771604723,"current_range_meters":400,"station_id":"ce4bh012rcd13ifvqcv0","pricing_plan_id":"cebpf4jnsgd1na2vs0mg"},{"bike_id":"c4234e1b-8613-4e80-9b3d-9c286863b5fd","system_id":"levelo_inurba_marseille","lat":43.21202,"lon":5.35055,"is_reserved":false,"is_disabled":true,"rental_uris":{"android":"levelo://app?vid=c4234e1b-8613-4e80-9b3d-9c286863b5fd","ios":"levelo://app?vid=c4234e1b-8613-4e80-9b3d-9c286863b5fd"},"vehicle_type_id":"4","last_reported":1771604723,"current_range_meters":800,"station_id":"","pricing_plan_id":"cebpf4jnsgd1na2vs0mg"},{"bike_id":"2f3c182f-10cb-44a3-b50c-d26f2c2d4ef8","system_id":"levelo_inurba_marseille","lat":43.28669,"lon":5.36352,"is_reserved":false,"is_disabled":true,"rental_uris":{"android":"levelo://app?vid=2f3c182f-10cb-44a3-b50c-d26f2c2d4ef8","ios":"levelo://app?vid=2f3c182f-10cb-44a3-b50c-d26f2c2d4ef8"},"vehicle_type_id":"4","last_reported":1771604723,"current_range_meters":800,"station_id":"ce4bhah2rcd13ifvqej0","pricing_plan_id":"cebpf4jnsgd1na2vs0mg"},{"bike_id":"be871370-dd52-40f6-b2fe-e26ae21fe674","system_id":"levelo_inurba_marseille","lat":43.24389,"lon":5.37054,"is_reserved":false,"is_disabled":true,"rental_uris":{"android":"levelo://app?vid=be871370-dd52-40f6-b2fe-e26ae21fe674","ios":"levelo://app?vid=be871370-dd52-40f6-b2fe-e26ae21fe674"},"vehicle_type_id":"4","last_reported":1771604723,"current_range_meters":800,"station_id":"ce4bhhh2rcd13ifvqfk0","pricing_plan_id":"cebpf4jnsgd1na2vs0mg"},{"bike_id":"6b80ca5a-cc0f-4537-9a95-4ec3482ac455","system_id":"levelo_inurba_marseille","lat":43.279416,"lon":5.410489,"is_reserved":false,"is_disabled":true,"rental_uris":{"android":"levelo://app?vid=6b80ca5a-cc0f-4537-9a95-4ec3482ac455","ios":"levelo://app?vid=6b80ca5a-cc0f-4537-9a95-4ec3482ac455"},"vehicle_type_id":"4","last_reported":1771604723,"current_range_meters":800,"station_id":"ce4bhnp2rcd13ifvqh0g","pricing_plan_id":"cebpf4jnsgd1na2vs0mg"},{"bike_id":"2889eb23-7ec7-4da8-859b-2fe18d86368c","system_id":"levelo_inurba_marseille","lat":43.28438,"lon":5.39206,"is_reserved":false,"is_disabled":true,"rental_uris":{"android":"levelo://app?vid=2889eb23-7ec7-4da8-859b-2fe18d86368c","ios":"levelo://app?vid=2889eb23-7ec7-4da8-859b-2fe18d86368c"},"vehicle_type_id":"4","last_reported":1771604723,"current_range_meters":800,"station_id":"ce4bhoh2rcd13ifvqh5g","pricing_plan_id":"cebpf4jnsgd1na2vs0mg"},{"bike_id":"e942d6f9-9263-460a-b526-a439531588f6","system_id":"levelo_inurba_marseille","lat":43.29196,"lon":5.35798,"is_reserved":false,"is_disabled":true,"rental_uris":{"android":"levelo://app?vid=e942d6f9-9263-460a-b526-a439531588f6","ios":"levelo://app?vid=e942d6f9-9263-460a-b526-a439531588f6"},"vehicle_type_id":"4","last_reported":1771604723,"current_range_meters":1200,"station_id":"ce4bhb12rcd13ifvqel0","pricing_plan_id":"cebpf4jnsgd1na2vs0mg"},{"bike_id":"34e08daf-2d25-4203-9078-21c4a34eec39","system_id":"levelo_inurba_marseille","lat":43.24164,"lon":5.36392,"is_reserved":false,"is_disabled":true,"rental_uris":{"android":"levelo://app?vid=34e08daf-2d25-4203-9078-21c4a34eec39","ios":"levelo://app?vid=34e08daf-2d25-4203-9078-21c4a34eec39"},"vehicle_type_id":"4","last_reported":1771604723,"current_range_meters":1200,"station_id":"cpo36qri1sfpv3e86is0","pricing_plan_id":"cebpf4jnsgd1na2vs0mg"},{"bike_id":"4248f132-2afc-4e67-b4c6-fbc50f2c1ed3","system_id":"levelo_inurba_marseille","lat":43.2854,"lon":5.44088,"is_reserved":false,"is_disabled":true,"rental_uris":{"android":"levelo://app?vid=4248f132-2afc-4e67-b4c6-fbc50f2c1ed3","ios":"levelo://app?vid=4248f132-2afc-4e67-b4c6-fbc50f2c1ed3"},"vehicle_type_id":"4","last_reported":1771604723,"current_range_meters":1600,"station_id":"","pricing_plan_id":"cebpf4jnsgd1na2vs0mg"},{"bike_id":"85b5125c-7ba9-422c-aeac-943fa4627fd8","system_id":"levelo_inurba_marseille","lat":43.31244,"lon":5.36828,"is_reserved":false,"is_disabled":true,"rental_uris":{"android":"levelo://app?vid=85b5125c-7ba9-422c-aeac-943fa4627fd8","ios":"levelo://app?vid=85b5125c-7ba9-422c-aeac-943fa4627fd8"},"vehicle_type_id":"4","last_reported":1771604723,"current_range_meters":1600,"station_id":"ce4bgl92rcd13ifvqbq0","pricing_plan_id":"cebpf4jnsgd1na2vs0mg"},{"bike_id":"37868ddf-021d-4138-8bd5-492b6cb51439","system_id":"levelo_inurba_marseille","lat":43.29036,"lon":5.39954,"is_reserved":false,"is_disabled":true,"rental_uris":{"android":"levelo://app?vid=37868ddf-021d-4138-8bd5-492b6cb51439","ios":"levelo://app?vid=37868ddf-021d-4138-8bd5-492b6cb51439"},"vehicle_type_id":"4","last_reported":1771604723,"current_range_meters":1600,"station_id":"ce4bh392rcd13ifvqdm0","pricing_plan_id":"cebpf4jnsgd1na2vs0mg"},{"bike_id":"5e15cdcb-59ef-4aa3-af48-5f92094577c3","system_id":"levelo_inurba_marseille","lat":43.28336,"lon":5.38613,"is_reserved":false,"is_disabled":true,"rental_uris":{"android":"levelo://app?vid=5e15cdcb-59ef-4aa3-af48-5f92094577c3","ios":"levelo://app?vid=5e15cdcb-59ef-4aa3-af48-5f92094577c3"},"vehicle_type_id":"4","last_reported":1771604723,"current_range_meters":1600,"station_id":"ce4bh492rcd13ifvqdvg","pricing_plan_id":"cebpf4jnsgd1na2vs0mg"},{"bike_id":"e9c83b03-5665-4401-a2d4-787ab4f16594","system_id":"levelo_inurba_marseille","lat":43.29022,"lon":5.38649,"is_reserved":false,"is_disabled":true,"rental_uris":{"android":"levelo://app?vid=e9c83b03-5665-4401-a2d4-787ab4f16594","ios":"levelo://app?vid=e9c83b03-5665-4401-a2d4-787ab4f16594"},"vehicle_type_id":"4","last_reported":1771604723,"current_range_meters":1600,"station_id":"ce4bh4p2rcd13ifvqe0g","pricing_plan_id":"cebpf4jnsgd1na2vs0mg"},{"bike_id":"90451560-b8db-4bac-b513-077cce091506","system_id":"levelo_inurba_marseille","lat":43.28292,"lon":5.35064,"is_reserved":false,"is_disabled":true,"rental_uris":{"android":"levelo://app?vid=90451560-b8db-4bac-b513-077cce091506","ios":"levelo://app?vid=90451560-b8db-4bac-b513-077cce091506"},"vehicle_type_id":"4","last_reported":1771604723,"current_range_meters":1600,"station_id":"ce4bhbp2rcd13ifvqerg","pricing_plan_id":"cebpf4jnsgd1na2vs0mg"},{"bike_id":"b0967bf6-20d2-436d-88b7-4986ad9dbd5b","system_id":"levelo_inurba_marseille","lat":43.23153,"lon":5.43702,"is_reserved":false,"is_disabled":true,"rental_uris":{"android":"levelo://app?vid=b0967bf6-20d2-436d-88b7-4986ad9dbd5b","ios":"levelo://app?vid=b0967bf6-20d2-436d-88b7-4986ad9dbd5b"},"vehicle_type_id":"4","last_reported":1771604723,"current_range_meters":1600,"station_id":"ce4bhmp2rcd13ifvqgog","pricing_plan_id":"cebpf4jnsgd1na2vs0mg"},{"bike_id":"d9012ee8-136f-4673-8243-f480d0dcbe5e","system_id":"levelo_inurba_marseille","lat":43.32499,"lon":5.38301,"is_reserved":false,"is_disabled":true,"rental_uris":{"android":"levelo://app?vid=d9012ee8-136f-4673-8243-f480d0dcbe5e","ios":"levelo://app?vid=d9012ee8-136f-4673-8243-f480d0dcbe5e"},"vehicle_type_id":"4","last_reported":1771604723,"current_range_meters":1600,"station_id":"st_d4asgbiv49dc73anf9m0","pricing_plan_id":"cebpf4jnsgd1na2vs0mg"},{"bike_id":"46624c58-ee73-40d3-8e6a-5a25a5212d23","system_id":"levelo_inurba_marseille","lat":43.32493,"lon":5.38281,"is_reserved":false,"is_disabled":true,"rental_uris":{"android":"levelo://app?vid=46624c58-ee73-40d3-8e6a-5a25a5212d23","ios":"levelo://app?vid=46624c58-ee73-40d3-8e6a-5a25a5212d23"},"vehicle_type_id":"4","last_reported":1771604723,"current_range_meters":1600,"station_id":"st_d4asgbiv49dc73anf9m0","pricing_plan_id":"cebpf4jnsgd1na2vs0mg"},{"bike_id":"b0ef08d5-27b9-48d0-a52e-332333e7dd37","system_id":"levelo_inurba_marseille","lat":43.29931,"lon":5.38637,"is_reserved":false,"is_disabled":true,"rental_uris":{"android":"levelo://app?vid=b0ef08d5-27b9-48d0-a52e-332333e7dd37","ios":"levelo://app?vid=b0ef08d5-27b9-48d0-a52e-332333e7dd37"},"vehicle_type_id":"4","last_reported":1771604723,"current_range_meters":2000,"station_id":"","pricing_plan_id":"cebpf4jnsgd1na2vs0mg"},{"bike_id":"ea4daa93-dfc9-4d7c-9eb6-557eaf798734","system_id":"levelo_inurba_marseille","lat":43.26948,"lon":5.38621,"is_reserved":false,"is_disabled":true,"rental_uris":{"android":"levelo://app?vid=ea4daa93-dfc9-4d7c-9eb6-557eaf798734","ios":"levelo://app?vid=ea4daa93-dfc9-4d7c-9eb6-557eaf798734"},"vehicle_type_id":"4","last_reported":1771604723,"current_range_meters":2000,"station_id":"ce4bhh92rcd13ifvqfh0","pricing_plan_id":"cebpf4jnsgd1na2vs0mg"},{"bike_id":"ba7a7fa8-08f4-403f-9311-e19163a1e9a7","system_id":"levelo_inurba_marseille","lat":43.25939,"lon":5.40877,"is_reserved":false,"is_disabled":true,"rental_uris":{"android":"levelo://app?vid=ba7a7fa8-08f4-403f-9311-e19163a1e9a7","ios":"levelo://app?vid=ba7a7fa8-08f4-403f-9311-e19163a1e9a7"},"vehicle_type_id":"4","last_reported":1771604723,"current_range_meters":2000,"station_id":"ce4bhm92rcd13ifvqglg","pricing_plan_id":"cebpf4jnsgd1na2vs0mg"},{"bike_id":"c9d14a56-7fa1-4833-a5f5-3a89960b8061","system_id":"levelo_inurba_marseille","lat":43.31251,"lon":5.36928,"is_reserved":false,"is_disabled":false,"rental_uris":{"android":"levelo://app?vid=c9d14a56-7fa1-4833-a5f5-3a89960b8061","ios":"levelo://app?vid=c9d14a56-7fa1-4833-a5f5-3a89960b8061"},"vehicle_type_id":"4","last_reported":1771604723,"current_range_meters":2800,"station_id":"ce4bgl92rcd13ifvqbq0","pricing_plan_id":"cebpf4jnsgd1na2vs0mg"},{"bike_id":"35ebbabd-56e2-485d-b6c9-42094a57a53f","system_id":"levelo_inurba_marseille","lat":43.29251,"lon":5.38451,"is_reserved":false,"is_disabled":false,"rental_uris":{"android":"levelo://app?vid=35ebbabd-56e2-485d-b6c9-42094a57a53f","ios":"levelo://app?vid=35ebbabd-56e2-485d-b6c9-42094a57a53f"},"vehicle_type_id":"4","last_reported":1771604723,"current_range_meters":2800,"station_id":"ce4bh692rcd13ifvqea0","pricing_plan_id":"cebpf4jnsgd1na2vs0mg"},{"bike_id":"060e8481-52fb-45f9-8f51-0ea36c635e01","system_id":"levelo_inurba_marseille","lat":43.24741,"lon":5.37443,"is_reserved":false,"is_disabled":false,"rental_uris":{"android":"levelo://app?vid=060e8481-52fb-45f9-8f51-0ea36c635e01","ios":"levelo://app?vid=060e8481-52fb-45f9-8f51-0ea36c635e01"},"vehicle_type_id":"4","last_reported":1771604723,"current_range_meters":2800,"station_id":"ce4bhgh2rcd13ifvqfb0","pricing_plan_id":"cebpf4jnsgd1na2vs0mg"},{"bike_id":"4d976bf5-f813-4b36-99cd-ae82b3487f1d","system_id":"levelo_inurba_marseille","lat":43.279871,"lon":5.416519,"is_reserved":false,"is_disabled":false,"rental_uris":{"android":"levelo://app?vid=4d976bf5-f813-4b36-99cd-ae82b3487f1d","ios":"levelo://app?vid=4d976bf5-f813-4b36-99cd-ae82b3487f1d"},"vehicle_type_id":"4","last_reported":1771604723,"current_range_meters":2800,"station_id":"ce4bho12rcd13ifvqh1g","pricing_plan_id":"cebpf4jnsgd1na2vs0mg"},{"bike_id":"676d106e-5b3f-43ad-a0be-6af90b5200d2","system_id":"levelo_inurba_marseille","lat":43.21753,"lon":5.34592,"is_reserved":false,"is_disabled":false,"rental_uris":{"android":"levelo://app?vid=676d106e-5b3f-43ad-a0be-6af90b5200d2","ios":"levelo://app?vid=676d106e-5b3f-43ad-a0be-6af90b5200d2"},"vehicle_type_id":"4","last_reported":1771604723,"current_range_meters":2800,"station_id":"st_cvj6r9ubvosntc0bgbag","pricing_plan_id":"cebpf4jnsgd1na2vs0mg"},{"bike_id":"e8d230b9-0ba2-40c8-bc64-4a07b6f6ced2","system_id":"levelo_inurba_marseille","lat":43.22576,"lon":5.41614,"is_reserved":false,"is_disabled":false,"rental_uris":{"android":"levelo://app?vid=e8d230b9-0ba2-40c8-bc64-4a07b6f6ced2","ios":"levelo://app?vid=e8d230b9-0ba2-40c8-bc64-4a07b6f6ced2"},"vehicle_type_id":"4","last_reported":1771604723,"current_range_meters":2800,"station_id":"st_d2o4gvlbi1j2169b742g","pricing_plan_id":"cebpf4jnsgd1na2vs0mg"},{"bike_id":"455fa4a6-d050-44b1-9063-ae6cc2f40e9a","system_id":"levelo_inurba_marseille","lat":43.309,"lon":5.3834,"is_reserved":false,"is_disabled":false,"rental_uris":{"android":"levelo://app?vid=455fa4a6-d050-44b1-9063-ae6cc2f40e9a","ios":"levelo://app?vid=455fa4a6-d050-44b1-9063-ae6cc2f40e9a"},"vehicle_type_id":"4","last_reported":1771604723,"current_range_meters":3200,"station_id":"","pricing_plan_id":"cebpf4jnsgd1na2vs0mg"},{"bike_id":"e1928724-2914-4fa8-bd3c-493020bdf18d","system_id":"levelo_inurba_marseille","lat":43.2784,"lon":5.39208,"is_reserved":false,"is_disabled":false,"rental_uris":{"android":"levelo://app?vid=e1928724-2914-4fa8-bd3c-493020bdf18d","ios":"levelo://app?vid=e1928724-2914-4fa8-bd3c-493020bdf18d"},"vehicle_type_id":"4","last_reported":1771604723,"current_range_meters":3200,"station_id":"ce4bhjp2rcd13ifvqga0","pricing_plan_id":"cebpf4jnsgd1na2vs0mg"},{"bike_id":"0447786c-436b-4b96-8c4d-7bdb4df3e37c","system_id":"levelo_inurba_marseille","lat":43.33402,"lon":5.42912,"is_reserved":false,"is_disabled":false,"rental_uris":{"android":"levelo://app?vid=0447786c-436b-4b96-8c4d-7bdb4df3e37c","ios":"levelo://app?vid=0447786c-436b-4b96-8c4d-7bdb4df3e37c"},"vehicle_type_id":"4","last_reported":1771604723,"current_range_meters":3600,"station_id":"","pricing_plan_id":"cebpf4jnsgd1na2vs0mg"},{"bike_id":"0cde7006-8633-4d96-a734-8d7cc906d923","system_id":"levelo_inurba_marseille","lat":43.27948,"lon":5.38715,"is_reserved":false,"is_disabled":false,"rental_uris":{"android":"levelo://app?vid=0cde7006-8633-4d96-a734-8d7cc906d923","ios":"levelo://app?vid=0cde7006-8633-4d96-a734-8d7cc906d923"},"vehicle_type_id":"4","last_reported":1771604723,"current_range_meters":3600,"station_id":"ce4bhg12rcd13ifvqf80","pricing_plan_id":"cebpf4jnsgd1na2vs0mg"},{"bike_id":"e5e5f825-a7ea-4f3d-9aee-ce47d220a617","system_id":"levelo_inurba_marseille","lat":43.27824,"lon":5.40712,"is_reserved":false,"is_disabled":false,"rental_uris":{"android":"levelo://app?vid=e5e5f825-a7ea-4f3d-9aee-ce47d220a617","ios":"levelo://app?vid=e5e5f825-a7ea-4f3d-9aee-ce47d220a617"},"vehicle_type_id":"4","last_reported":1771604723,"current_range_meters":3600,"station_id":"ce4bhnh2rcd13ifvqgtg","pricing_plan_id":"cebpf4jnsgd1na2vs0mg"},{"bike_id":"14c94829-fc0c-462f-9ece-5a14274644d5","system_id":"levelo_inurba_marseille","lat":43.2407,"lon":5.37744,"is_reserved":false,"is_disabled":false,"rental_uris":{"android":"levelo://app?vid=14c94829-fc0c-462f-9ece-5a14274644d5","ios":"levelo://app?vid=14c94829-fc0c-462f-9ece-5a14274644d5"},"vehicle_type_id":"4","last_reported":1771604723,"current_range_meters":3600,"station_id":"ce4bhnp2rcd13ifvqgvg","pricing_plan_id":"cebpf4jnsgd1na2vs0mg"},{"bike_id":"b6dbfcac-e585-4a71-b17d-0a35c66bfee2","system_id":"levelo_inurba_marseille","lat":43.3113,"lon":5.3829,"is_reserved":false,"is_disabled":false,"rental_uris":{"android":"levelo://app?vid=b6dbfcac-e585-4a71-b17d-0a35c66bfee2","ios":"levelo://app?vid=b6dbfcac-e585-4a71-b17d-0a35c66bfee2"},"vehicle_type_id":"4","last_reported":1771604723,"current_range_meters":4000,"station_id":"","pricing_plan_id":"cebpf4jnsgd1na2vs0mg"},{"bike_id":"97ebdd61-2859-435b-960c-342c4751e995","system_id":"levelo_inurba_marseille","lat":43.28111,"lon":5.42646,"is_reserved":false,"is_disabled":false,"rental_uris":{"android":"levelo://app?vid=97ebdd61-2859-435b-960c-342c4751e995","ios":"levelo://app?vid=97ebdd61-2859-435b-960c-342c4751e995"},"vehicle_type_id":"4","last_reported":1771604723,"current_range_meters":4000,"station_id":"","pricing_plan_id":"cebpf4jnsgd1na2vs0mg"},{"bike_id":"ad7dd624-d563-47c4-9e28-fb6b6b32ddc2","system_id":"levelo_inurba_marseille","lat":43.30981,"lon":5.38352,"is_reserved":false,"is_disabled":false,"rental_uris":{"android":"levelo://app?vid=ad7dd624-d563-47c4-9e28-fb6b6b32ddc2","ios":"levelo://app?vid=ad7dd624-d563-47c4-9e28-fb6b6b32ddc2"},"vehicle_type_id":"4","last_reported":1771604723,"current_range_meters":4000,"station_id":"","pricing_plan_id":"cebpf4jnsgd1na2vs0mg"},{"bike_id":"34cd3ea8-cdea-402b-a24b-73296815987b","system_id":"levelo_inurba_marseille","lat":43.31269,"lon":5.40167,"is_reserved":false,"is_disabled":false,"rental_uris":{"android":"levelo://app?vid=34cd3ea8-cdea-402b-a24b-73296815987b","ios":"levelo://app?vid=34cd3ea8-cdea-402b-a24b-73296815987b"},"vehicle_type_id":"4","last_reported":1771604723,"current_range_meters":4000,"station_id":"ce4bh092rcd13ifvqd30","pricing_plan_id":"cebpf4jnsgd1na2vs0mg"},{"bike_id":"f5aa4bcf-2294-4323-8ae0-0718a4eb23d3","system_id":"levelo_inurba_marseille","lat":43.28485,"lon":5.38417,"is_reserved":false,"is_disabled":false,"rental_uris":{"android":"levelo://app?vid=f5aa4bcf-2294-4323-8ae0-0718a4eb23d3","ios":"levelo://app?vid=f5aa4bcf-2294-4323-8ae0-0718a4eb23d3"},"vehicle_type_id":"4","last_reported":1771604723,"current_range_meters":4000,"station_id":"ce4bh512rcd13ifvqe3g","pricing_plan_id":"cebpf4jnsgd1na2vs0mg"},{"bike_id":"9b187d1d-adb2-4562-9d95-901a61b86929","system_id":"levelo_inurba_marseille","lat":43.30314,"lon":5.36895,"is_reserved":false,"is_disabled":false,"rental_uris":{"android":"levelo://app?vid=9b187d1d-adb2-4562-9d95-901a61b86929","ios":"levelo://app?vid=9b187d1d-adb2-4562-9d95-901a61b86929"},"vehicle_type_id":"4","last_reported":1771604723,"current_range_meters":4400,"station_id":"ce4bgqh2rcd13ifvqc5g","pricing_plan_id":"cebpf4jnsgd1na2vs0mg"},{"bike_id":"6ff21c66-ec21-45cc-8293-983a6e1ad17a","system_id":"levelo_inurba_marseille","lat":43.29259,"lon":5.40893,"is_reserved":false,"is_disabled":false,"rental_uris":{"android":"levelo://app?vid=6ff21c66-ec21-45cc-8293-983a6e1ad17a","ios":"levelo://app?vid=6ff21c66-ec21-45cc-8293-983a6e1ad17a"},"vehicle_type_id":"4","last_reported":1771604723,"current_range_meters":4400,"station_id":"ce4bh192rcd13ifvqdc0","pricing_plan_id":"cebpf4jnsgd1na2vs0mg"},{"bike_id":"121bd317-93c7-4874-8917-921cd13ab6f9","system_id":"levelo_inurba_marseille","lat":43.29018,"lon":5.38633,"is_reserved":false,"is_disabled":false,"rental_uris":{"android":"levelo://app?vid=121bd317-93c7-4874-8917-921cd13ab6f9","ios":"levelo://app?vid=121bd317-93c7-4874-8917-921cd13ab6f9"},"vehicle_type_id":"4","last_reported":1771604723,"current_range_meters":4400,"station_id":"ce4bh4p2rcd13ifvqe0g","pricing_plan_id":"cebpf4jnsgd1na2vs0mg"},{"bike_id":"d509c7bf-cf46-4933-a0d8-d94624c3ff2c","system_id":"levelo_inurba_marseille","lat":43.24174,"lon":5.36398,"is_reserved":false,"is_disabled":false,"rental_uris":{"android":"levelo://app?vid=d509c7bf-cf46-4933-a0d8-d94624c3ff2c","ios":"levelo://app?vid=d509c7bf-cf46-4933-a0d8-d94624c3ff2c"},"vehicle_type_id":"4","last_reported":1771604723,"current_range_meters":4400,"station_id":"cpo36qri1sfpv3e86is0","pricing_plan_id":"cebpf4jnsgd1na2vs0mg"},{"bike_id":"672c7706-49bc-4447-88cf-d08d5391ca6a","system_id":"levelo_inurba_marseille","lat":43.241654,"lon":5.363888,"is_reserved":false,"is_disabled":false,"rental_uris":{"android":"levelo://app?vid=672c7706-49bc-4447-88cf-d08d5391ca6a","ios":"levelo://app?vid=672c7706-49bc-4447-88cf-d08d5391ca6a"},"vehicle_type_id":"4","last_reported":1771604723,"current_range_meters":4400,"station_id":"cpo36qri1sfpv3e86is0","pricing_plan_id":"cebpf4jnsgd1na2vs0mg"},{"bike_id":"152652bb-dec4-45e2-a1f1-566b9e0d9aef","system_id":"levelo_inurba_marseille","lat":43.301528,"lon":5.380772,"is_reserved":false,"is_disabled":false,"rental_uris":{"android":"levelo://app?vid=152652bb-dec4-45e2-a1f1-566b9e0d9aef","ios":"levelo://app?vid=152652bb-dec4-45e2-a1f1-566b9e0d9aef"},"vehicle_type_id":"4","last_reported":1771604723,"current_range_meters":4800,"station_id":"ce4bgjp2rcd13ifvqbh0","pricing_plan_id":"cebpf4jnsgd1na2vs0mg"},{"bike_id":"977dd49c-ce5d-4c3f-a541-71ec9aeaaa20","system_id":"levelo_inurba_marseille","lat":43.3088,"lon":5.39655,"is_reserved":false,"is_disabled":false,"rental_uris":{"android":"levelo://app?vid=977dd49c-ce5d-4c3f-a541-71ec9aeaaa20","ios":"levelo://app?vid=977dd49c-ce5d-4c3f-a541-71ec9aeaaa20"},"vehicle_type_id":"4","last_reported":1771604723,"current_range_meters":4800,"station_id":"ce4bh012rcd13ifvqcv0","pricing_plan_id":"cebpf4jnsgd1na2vs0mg"},{"bike_id":"d01f3988-e417-4d62-98e1-46b75895a492","system_id":"levelo_inurba_marseille","lat":43.29272,"lon":5.36852,"is_reserved":false,"is_disabled":false,"rental_uris":{"android":"levelo://app?vid=d01f3988-e417-4d62-98e1-46b75895a492","ios":"levelo://app?vid=d01f3988-e417-4d62-98e1-46b75895a492"},"vehicle_type_id":"4","last_reported":1771604723,"current_range_meters":4800,"station_id":"ce4bhbp2rcd13ifvqesg","pricing_plan_id":"cebpf4jnsgd1na2vs0mg"},{"bike_id":"87bd8eb2-97fb-485d-94c8-b79b20fb7fcd","system_id":"levelo_inurba_marseille","lat":43.27183,"lon":5.40987,"is_reserved":false,"is_disabled":false,"rental_uris":{"android":"levelo://app?vid=87bd8eb2-97fb-485d-94c8-b79b20fb7fcd","ios":"levelo://app?vid=87bd8eb2-97fb-485d-94c8-b79b20fb7fcd"},"vehicle_type_id":"4","last_reported":1771604723,"current_range_meters":4800,"station_id":"ce4bhl12rcd13ifvqgf0","pricing_plan_id":"cebpf4jnsgd1na2vs0mg"},{"bike_id":"4552841b-8369-4a88-9f8d-2d2c39998b97","system_id":"levelo_inurba_marseille","lat":43.29772,"lon":5.42755,"is_reserved":false,"is_disabled":false,"rental_uris":{"android":"levelo://app?vid=4552841b-8369-4a88-9f8d-2d2c39998b97","ios":"levelo://app?vid=4552841b-8369-4a88-9f8d-2d2c39998b97"},"vehicle_type_id":"4","last_reported":1771604723,"current_range_meters":4800,"station_id":"st_d3md5207bmas73dh9klg","pricing_plan_id":"cebpf4jnsgd1na2vs0mg"},{"bike_id":"5b8d4e50-4949-4d98-b418-6d76e4b2fc19","system_id":"levelo_inurba_marseille","lat":43.310498,"lon":5.371634,"is_reserved":false,"is_disabled":false,"rental_uris":{"android":"levelo://app?vid=5b8d4e50-4949-4d98-b418-6d76e4b2fc19","ios":"levelo://app?vid=5b8d4e50-4949-4d98-b418-6d76e4b2fc19"},"vehicle_type_id":"4","last_reported":1771604723,"current_range_meters":4800,"station_id":"st_d4kl2rp97mjs73e7tdfg","pricing_plan_id":"cebpf4jnsgd1na2vs0mg"},{"bike_id":"9e97318e-0ac3-423e-ba96-62b0c2f5117a","system_id":"levelo_inurba_marseille","lat":43.31048,"lon":5.37183,"is_reserved":false,"is_disabled":false,"rental_uris":{"android":"levelo://app?vid=9e97318e-0ac3-423e-ba96-62b0c2f5117a","ios":"levelo://app?vid=9e97318e-0ac3-423e-ba96-62b0c2f5117a"},"vehicle_type_id":"4","last_reported":1771604723,"current_range_meters":4800,"station_id":"st_d4kl2rp97mjs73e7tdfg","pricing_plan_id":"cebpf4jnsgd1na2vs0mg"},{"bike_id":"588ffc37-6a36-4bc8-8280-a4a5165dc87b","system_id":"levelo_inurba_marseille","lat":43.28935,"lon":5.36653,"is_reserved":false,"is_disabled":false,"rental_uris":{"android":"levelo://app?vid=588ffc37-6a36-4bc8-8280-a4a5165dc87b","ios":"levelo://app?vid=588ffc37-6a36-4bc8-8280-a4a5165dc87b"},"vehicle_type_id":"4","last_reported":1771604723,"current_range_meters":5600,"station_id":"ce4bhap2rcd13ifvqek0","pricing_plan_id":"cebpf4jnsgd1na2vs0mg"},{"bike_id":"623815c4-cd1b-4275-a7f0-aeef417d3e16","system_id":"levelo_inurba_marseille","lat":43.28839,"lon":5.35851,"is_reserved":false,"is_disabled":false,"rental_uris":{"android":"levelo://app?vid=623815c4-cd1b-4275-a7f0-aeef417d3e16","ios":"levelo://app?vid=623815c4-cd1b-4275-a7f0-aeef417d3e16"},"vehicle_type_id":"4","last_reported":1771604723,"current_range_meters":5600,"station_id":"ce4bhb12rcd13ifvqem0","pricing_plan_id":"cebpf4jnsgd1na2vs0mg"},{"bike_id":"e1fce5e0-d0a5-414f-a36f-0f5126f6075b","system_id":"levelo_inurba_marseille","lat":43.23154,"lon":5.43702,"is_reserved":false,"is_disabled":false,"rental_uris":{"android":"levelo://app?vid=e1fce5e0-d0a5-414f-a36f-0f5126f6075b","ios":"levelo://app?vid=e1fce5e0-d0a5-414f-a36f-0f5126f6075b"},"vehicle_type_id":"4","last_reported":1771604723,"current_range_meters":5600,"station_id":"ce4bhmp2rcd13ifvqgog","pricing_plan_id":"cebpf4jnsgd1na2vs0mg"},{"bike_id":"2c26d519-d23e-4f42-bac9-4b166b5507b0","system_id":"levelo_inurba_marseille","lat":43.23186,"lon":5.35553,"is_reserved":false,"is_disabled":false,"rental_uris":{"android":"levelo://app?vid=2c26d519-d23e-4f42-bac9-4b166b5507b0","ios":"levelo://app?vid=2c26d519-d23e-4f42-bac9-4b166b5507b0"},"vehicle_type_id":"4","last_reported":1771604723,"current_range_meters":5600,"station_id":"ce4bhu92rcd13ifvqi70","pricing_plan_id":"cebpf4jnsgd1na2vs0mg"},{"bike_id":"5e9165db-dd30-4a2e-9ac8-c0a6e390cbb9","system_id":"levelo_inurba_marseille","lat":43.24168,"lon":5.36399,"is_reserved":false,"is_disabled":false,"rental_uris":{"android":"levelo://app?vid=5e9165db-dd30-4a2e-9ac8-c0a6e390cbb9","ios":"levelo://app?vid=5e9165db-dd30-4a2e-9ac8-c0a6e390cbb9"},"vehicle_type_id":"4","last_reported":1771604723,"current_range_meters":5600,"station_id":"cpo36qri1sfpv3e86is0","pricing_plan_id":"cebpf4jnsgd1na2vs0mg"},{"bike_id":"644ad86f-cc6c-46bc-a6ce-4d9546e8bdb0","system_id":"levelo_inurba_marseille","lat":43.33166,"lon":5.37672,"is_reserved":false,"is_disabled":false,"rental_uris":{"android":"levelo://app?vid=644ad86f-cc6c-46bc-a6ce-4d9546e8bdb0","ios":"levelo://app?vid=644ad86f-cc6c-46bc-a6ce-4d9546e8bdb0"},"vehicle_type_id":"4","last_reported":1771604723,"current_range_meters":5600,"station_id":"st_d46cu089ee8s73dldbu0","pricing_plan_id":"cebpf4jnsgd1na2vs0mg"},{"bike_id":"008d72cf-1b93-49c4-8cfc-c47d91e3b989","system_id":"levelo_inurba_marseille","lat":43.29267,"lon":5.36852,"is_reserved":false,"is_disabled":false,"rental_uris":{"android":"levelo://app?vid=008d72cf-1b93-49c4-8cfc-c47d91e3b989","ios":"levelo://app?vid=008d72cf-1b93-49c4-8cfc-c47d91e3b989"},"vehicle_type_id":"4","last_reported":1771604723,"current_range_meters":6000,"station_id":"ce4bhbp2rcd13ifvqesg","pricing_plan_id":"cebpf4jnsgd1na2vs0mg"},{"bike_id":"c2d833c5-c1c0-4742-b086-def5fe2a197c","system_id":"levelo_inurba_marseille","lat":43.28645,"lon":5.35111,"is_reserved":false,"is_disabled":false,"rental_uris":{"android":"levelo://app?vid=c2d833c5-c1c0-4742-b086-def5fe2a197c","ios":"levelo://app?vid=c2d833c5-c1c0-4742-b086-def5fe2a197c"},"vehicle_type_id":"4","last_reported":1771604723,"current_range_meters":6000,"station_id":"ce4bhch2rcd13ifvqeug","pricing_plan_id":"cebpf4jnsgd1na2vs0mg"},{"bike_id":"8a58b2f1-d776-4040-8ec1-b2ccfb4d349b","system_id":"levelo_inurba_marseille","lat":43.24647,"lon":5.38871,"is_reserved":false,"is_disabled":false,"rental_uris":{"android":"levelo://app?vid=8a58b2f1-d776-4040-8ec1-b2ccfb4d349b","ios":"levelo://app?vid=8a58b2f1-d776-4040-8ec1-b2ccfb4d349b"},"vehicle_type_id":"4","last_reported":1771604723,"current_range_meters":6000,"station_id":"ce4bhg12rcd13ifvqf60","pricing_plan_id":"cebpf4jnsgd1na2vs0mg"},{"bike_id":"d4b9e136-c42a-43e2-a068-19a134ce4f49","system_id":"levelo_inurba_marseille","lat":43.25583,"lon":5.38226,"is_reserved":false,"is_disabled":false,"rental_uris":{"android":"levelo://app?vid=d4b9e136-c42a-43e2-a068-19a134ce4f49","ios":"levelo://app?vid=d4b9e136-c42a-43e2-a068-19a134ce4f49"},"vehicle_type_id":"4","last_reported":1771604723,"current_range_meters":6000,"station_id":"ce4bhih2rcd13ifvqfs0","pricing_plan_id":"cebpf4jnsgd1na2vs0mg"},{"bike_id":"4f0b9c49-60e9-4e99-9f52-bfc6a47ee56c","system_id":"levelo_inurba_marseille","lat":43.25915,"lon":5.40905,"is_reserved":false,"is_disabled":false,"rental_uris":{"android":"levelo://app?vid=4f0b9c49-60e9-4e99-9f52-bfc6a47ee56c","ios":"levelo://app?vid=4f0b9c49-60e9-4e99-9f52-bfc6a47ee56c"},"vehicle_type_id":"4","last_reported":1771604723,"current_range_meters":6000,"station_id":"ce4bhm92rcd13ifvqglg","pricing_plan_id":"cebpf4jnsgd1na2vs0mg"},{"bike_id":"d549c942-aa08-4dd1-b45b-ead4018eb3e1","system_id":"levelo_inurba_marseille","lat":43.32371,"lon":5.36734,"is_reserved":false,"is_disabled":false,"rental_uris":{"android":"levelo://app?vid=d549c942-aa08-4dd1-b45b-ead4018eb3e1","ios":"levelo://app?vid=d549c942-aa08-4dd1-b45b-ead4018eb3e1"},"vehicle_type_id":"4","last_reported":1771604723,"current_range_meters":6000,"station_id":"ce4bhsh2rcd13ifvqi2g","pricing_plan_id":"cebpf4jnsgd1na2vs0mg"},{"bike_id":"42b6100a-41f2-4d60-944d-8dd96a15e3d1","system_id":"levelo_inurba_marseille","lat":43.31414,"lon":5.37358,"is_reserved":false,"is_disabled":false,"rental_uris":{"android":"levelo://app?vid=42b6100a-41f2-4d60-944d-8dd96a15e3d1","ios":"levelo://app?vid=42b6100a-41f2-4d60-944d-8dd96a15e3d1"},"vehicle_type_id":"4","last_reported":1771604723,"current_range_meters":6400,"station_id":"","pricing_plan_id":"cebpf4jnsgd1na2vs0mg"},{"bike_id":"e5c37de4-5b20-40fe-851e-2d0c03d75c93","system_id":"levelo_inurba_marseille","lat":43.33125,"lon":5.39271,"is_reserved":false,"is_disabled":false,"rental_uris":{"android":"levelo://app?vid=e5c37de4-5b20-40fe-851e-2d0c03d75c93","ios":"levelo://app?vid=e5c37de4-5b20-40fe-851e-2d0c03d75c93"},"vehicle_type_id":"4","last_reported":1771604723,"current_range_meters":6400,"station_id":"","pricing_plan_id":"cebpf4jnsgd1na2vs0mg"},{"bike_id":"e211e610-a6e6-442a-b741-2f6730c555f9","system_id":"levelo_inurba_marseille","lat":43.28483,"lon":5.48384,"is_reserved":false,"is_disabled":false,"rental_uris":{"android":"levelo://app?vid=e211e610-a6e6-442a-b741-2f6730c555f9","ios":"levelo://app?vid=e211e610-a6e6-442a-b741-2f6730c555f9"},"vehicle_type_id":"4","last_reported":1771604723,"current_range_meters":6400,"station_id":"","pricing_plan_id":"cebpf4jnsgd1na2vs0mg"},{"bike_id":"5003bf68-25e0-4ff7-a24b-f83e80fe6de5","system_id":"levelo_inurba_marseille","lat":43.30312,"lon":5.36898,"is_reserved":false,"is_disabled":false,"rental_uris":{"android":"levelo://app?vid=5003bf68-25e0-4ff7-a24b-f83e80fe6de5","ios":"levelo://app?vid=5003bf68-25e0-4ff7-a24b-f83e80fe6de5"},"vehicle_type_id":"4","last_reported":1771604723,"current_range_meters":6400,"station_id":"ce4bgqh2rcd13ifvqc5g","pricing_plan_id":"cebpf4jnsgd1na2vs0mg"},{"bike_id":"a6cacb68-8ae7-4464-8844-9e604724d9e6","system_id":"levelo_inurba_marseille","lat":43.31194,"lon":5.38694,"is_reserved":false,"is_disabled":false,"rental_uris":{"android":"levelo://app?vid=a6cacb68-8ae7-4464-8844-9e604724d9e6","ios":"levelo://app?vid=a6cacb68-8ae7-4464-8844-9e604724d9e6"},"vehicle_type_id":"4","last_reported":1771604723,"current_range_meters":6400,"station_id":"ce4bgv12rcd13ifvqcp0","pricing_plan_id":"cebpf4jnsgd1na2vs0mg"},{"bike_id":"fe296eac-9e8b-4fca-9842-b896ba8d3480","system_id":"levelo_inurba_marseille","lat":43.281606,"lon":5.426326,"is_reserved":false,"is_disabled":false,"rental_uris":{"android":"levelo://app?vid=fe296eac-9e8b-4fca-9842-b896ba8d3480","ios":"levelo://app?vid=fe296eac-9e8b-4fca-9842-b896ba8d3480"},"vehicle_type_id":"4","last_reported":1771604723,"current_range_meters":6400,"station_id":"ce4bhnh2rcd13ifvqgug","pricing_plan_id":"cebpf4jnsgd1na2vs0mg"},{"bike_id":"5be245de-b657-4061-a6c3-71a262401053","system_id":"levelo_inurba_marseille","lat":43.23203,"lon":5.35559,"is_reserved":false,"is_disabled":false,"rental_uris":{"android":"levelo://app?vid=5be245de-b657-4061-a6c3-71a262401053","ios":"levelo://app?vid=5be245de-b657-4061-a6c3-71a262401053"},"vehicle_type_id":"4","last_reported":1771604723,"current_range_meters":6400,"station_id":"ce4bhu92rcd13ifvqi70","pricing_plan_id":"cebpf4jnsgd1na2vs0mg"},{"bike_id":"5b5c9cdb-814b-49c5-b34a-eca6eb4b4857","system_id":"levelo_inurba_marseille","lat":43.22567,"lon":5.41626,"is_reserved":false,"is_disabled":false,"rental_uris":{"android":"levelo://app?vid=5b5c9cdb-814b-49c5-b34a-eca6eb4b4857","ios":"levelo://app?vid=5b5c9cdb-814b-49c5-b34a-eca6eb4b4857"},"vehicle_type_id":"4","last_reported":1771604723,"current_range_meters":6400,"station_id":"st_d2o4gvlbi1j2169b742g","pricing_plan_id":"cebpf4jnsgd1na2vs0mg"},{"bike_id":"894a36bc-802e-4b77-a8ce-1494196b2a54","system_id":"levelo_inurba_marseille","lat":43.33553,"lon":5.37415,"is_reserved":false,"is_disabled":false,"rental_uris":{"android":"levelo://app?vid=894a36bc-802e-4b77-a8ce-1494196b2a54","ios":"levelo://app?vid=894a36bc-802e-4b77-a8ce-1494196b2a54"},"vehicle_type_id":"4","last_reported":1771604723,"current_range_meters":6400,"station_id":"st_d46tts09ee8s73dlu43g","pricing_plan_id":"cebpf4jnsgd1na2vs0mg"},{"bike_id":"7231eff7-43d7-42d5-afbd-ac64717e3cba","system_id":"levelo_inurba_marseille","lat":43.28401,"lon":5.35251,"is_reserved":false,"is_disabled":false,"rental_uris":{"android":"levelo://app?vid=7231eff7-43d7-42d5-afbd-ac64717e3cba","ios":"levelo://app?vid=7231eff7-43d7-42d5-afbd-ac64717e3cba"},"vehicle_type_id":"4","last_reported":1771604723,"current_range_meters":6800,"station_id":"","pricing_plan_id":"cebpf4jnsgd1na2vs0mg"},{"bike_id":"afe6e01d-39dc-4294-a098-f24c74f8594a","system_id":"levelo_inurba_marseille","lat":43.28534,"lon":5.44096,"is_reserved":false,"is_disabled":false,"rental_uris":{"android":"levelo://app?vid=afe6e01d-39dc-4294-a098-f24c74f8594a","ios":"levelo://app?vid=afe6e01d-39dc-4294-a098-f24c74f8594a"},"vehicle_type_id":"4","last_reported":1771604723,"current_range_meters":6800,"station_id":"","pricing_plan_id":"cebpf4jnsgd1na2vs0mg"},{"bike_id":"a84ff57a-7501-41fb-baef-c210025b580c","system_id":"levelo_inurba_marseille","lat":43.29619,"lon":5.37931,"is_reserved":false,"is_disabled":false,"rental_uris":{"android":"levelo://app?vid=a84ff57a-7501-41fb-baef-c210025b580c","ios":"levelo://app?vid=a84ff57a-7501-41fb-baef-c210025b580c"},"vehicle_type_id":"4","last_reported":1771604723,"current_range_meters":6800,"station_id":"","pricing_plan_id":"cebpf4jnsgd1na2vs0mg"},{"bike_id":"71dde9a6-6b9e-4db3-a3e5-00219e37809e","system_id":"levelo_inurba_marseille","lat":43.31163,"lon":5.38723,"is_reserved":false,"is_disabled":false,"rental_uris":{"android":"levelo://app?vid=71dde9a6-6b9e-4db3-a3e5-00219e37809e","ios":"levelo://app?vid=71dde9a6-6b9e-4db3-a3e5-00219e37809e"},"vehicle_type_id":"4","last_reported":1771604723,"current_range_meters":6800,"station_id":"ce4bgv12rcd13ifvqcp0","pricing_plan_id":"cebpf4jnsgd1na2vs0mg"},{"bike_id":"77a054bb-4daa-4322-ae3e-80b3c7ee3e41","system_id":"levelo_inurba_marseille","lat":43.28933,"lon":5.36632,"is_reserved":false,"is_disabled":false,"rental_uris":{"android":"levelo://app?vid=77a054bb-4daa-4322-ae3e-80b3c7ee3e41","ios":"levelo://app?vid=77a054bb-4daa-4322-ae3e-80b3c7ee3e41"},"vehicle_type_id":"4","last_reported":1771604723,"current_range_meters":6800,"station_id":"ce4bhap2rcd13ifvqek0","pricing_plan_id":"cebpf4jnsgd1na2vs0mg"},{"bike_id":"89b3e01c-4867-4ddb-b4c3-f53bd946fe77","system_id":"levelo_inurba_marseille","lat":43.29233,"lon":5.36044,"is_reserved":false,"is_disabled":false,"rental_uris":{"android":"levelo://app?vid=89b3e01c-4867-4ddb-b4c3-f53bd946fe77","ios":"levelo://app?vid=89b3e01c-4867-4ddb-b4c3-f53bd946fe77"},"vehicle_type_id":"4","last_reported":1771604723,"current_range_meters":6800,"station_id":"ce4bhbh2rcd13ifvqeqg","pricing_plan_id":"cebpf4jnsgd1na2vs0mg"},{"bike_id":"4c300919-0f97-4c02-93a1-3ba7e95b616d","system_id":"levelo_inurba_marseille","lat":43.28624,"lon":5.351,"is_reserved":false,"is_disabled":false,"rental_uris":{"android":"levelo://app?vid=4c300919-0f97-4c02-93a1-3ba7e95b616d","ios":"levelo://app?vid=4c300919-0f97-4c02-93a1-3ba7e95b616d"},"vehicle_type_id":"4","last_reported":1771604723,"current_range_meters":6800,"station_id":"ce4bhch2rcd13ifvqeug","pricing_plan_id":"cebpf4jnsgd1na2vs0mg"},{"bike_id":"de4af7d8-8191-463d-9d09-8962b45f6bf5","system_id":"levelo_inurba_marseille","lat":43.26548,"lon":5.37285,"is_reserved":false,"is_disabled":false,"rental_uris":{"android":"levelo://app?vid=de4af7d8-8191-463d-9d09-8962b45f6bf5","ios":"levelo://app?vid=de4af7d8-8191-463d-9d09-8962b45f6bf5"},"vehicle_type_id":"4","last_reported":1771604723,"current_range_meters":6800,"station_id":"ce4bhg12rcd13ifvqf70","pricing_plan_id":"cebpf4jnsgd1na2vs0mg"},{"bike_id":"7b88603d-665f-44e1-9ad5-f9042eda2601","system_id":"levelo_inurba_marseille","lat":43.25007,"lon":5.38916,"is_reserved":false,"is_disabled":false,"rental_uris":{"android":"levelo://app?vid=7b88603d-665f-44e1-9ad5-f9042eda2601","ios":"levelo://app?vid=7b88603d-665f-44e1-9ad5-f9042eda2601"},"vehicle_type_id":"4","last_reported":1771604723,"current_range_meters":6800,"station_id":"ce4bhgp2rcd13ifvqfd0","pricing_plan_id":"cebpf4jnsgd1na2vs0mg"},{"bike_id":"123ecbb1-f846-4161-95ee-dcc019225084","system_id":"levelo_inurba_marseille","lat":43.27702,"lon":5.38899,"is_reserved":false,"is_disabled":false,"rental_uris":{"android":"levelo://app?vid=123ecbb1-f846-4161-95ee-dcc019225084","ios":"levelo://app?vid=123ecbb1-f846-4161-95ee-dcc019225084"},"vehicle_type_id":"4","last_reported":1771604723,"current_range_meters":6800,"station_id":"ce4bhi12rcd13ifvqfo0","pricing_plan_id":"cebpf4jnsgd1na2vs0mg"},{"bike_id":"025d38b9-b453-4fcd-a47e-b31523467a43","system_id":"levelo_inurba_marseille","lat":43.27175,"lon":5.40996,"is_reserved":false,"is_disabled":false,"rental_uris":{"android":"levelo://app?vid=025d38b9-b453-4fcd-a47e-b31523467a43","ios":"levelo://app?vid=025d38b9-b453-4fcd-a47e-b31523467a43"},"vehicle_type_id":"4","last_reported":1771604723,"current_range_meters":6800,"station_id":"ce4bhl12rcd13ifvqgf0","pricing_plan_id":"cebpf4jnsgd1na2vs0mg"},{"bike_id":"d183fe5d-51d8-459c-8768-f7b486ed06a8","system_id":"levelo_inurba_marseille","lat":43.2695,"lon":5.4025,"is_reserved":false,"is_disabled":false,"rental_uris":{"android":"levelo://app?vid=d183fe5d-51d8-459c-8768-f7b486ed06a8","ios":"levelo://app?vid=d183fe5d-51d8-459c-8768-f7b486ed06a8"},"vehicle_type_id":"4","last_reported":1771604723,"current_range_meters":6800,"station_id":"cjm6bp8fraef2m0cb0m0","pricing_plan_id":"cebpf4jnsgd1na2vs0mg"},{"bike_id":"6ceb848c-acbf-423b-9233-cb8385e6b73c","system_id":"levelo_inurba_marseille","lat":43.26923,"lon":5.40248,"is_reserved":false,"is_disabled":false,"rental_uris":{"android":"levelo://app?vid=6ceb848c-acbf-423b-9233-cb8385e6b73c","ios":"levelo://app?vid=6ceb848c-acbf-423b-9233-cb8385e6b73c"},"vehicle_type_id":"4","last_reported":1771604723,"current_range_meters":6800,"station_id":"cjm6bp8fraef2m0cb0m0","pricing_plan_id":"cebpf4jnsgd1na2vs0mg"},{"bike_id":"ab6d0910-d155-4daf-be06-89374c09f016","system_id":"levelo_inurba_marseille","lat":43.22935,"lon":5.35367,"is_reserved":false,"is_disabled":false,"rental_uris":{"android":"levelo://app?vid=ab6d0910-d155-4daf-be06-89374c09f016","ios":"levelo://app?vid=ab6d0910-d155-4daf-be06-89374c09f016"},"vehicle_type_id":"4","last_reported":1771604723,"current_range_meters":6800,"station_id":"cpo3532slgdg3j2ikp40","pricing_plan_id":"cebpf4jnsgd1na2vs0mg"},{"bike_id":"130617b3-a28e-434b-adda-08afb084cc20","system_id":"levelo_inurba_marseille","lat":43.30142,"lon":5.39773,"is_reserved":false,"is_disabled":false,"rental_uris":{"android":"levelo://app?vid=130617b3-a28e-434b-adda-08afb084cc20","ios":"levelo://app?vid=130617b3-a28e-434b-adda-08afb084cc20"},"vehicle_type_id":"4","last_reported":1771604723,"current_range_meters":7200,"station_id":"","pricing_plan_id":"cebpf4jnsgd1na2vs0mg"},{"bike_id":"5a387b4f-c491-4f89-bca7-755be0d713ae","system_id":"levelo_inurba_marseille","lat":43.301203,"lon":5.381633,"is_reserved":false,"is_disabled":false,"rental_uris":{"android":"levelo://app?vid=5a387b4f-c491-4f89-bca7-755be0d713ae","ios":"levelo://app?vid=5a387b4f-c491-4f89-bca7-755be0d713ae"},"vehicle_type_id":"4","last_reported":1771604723,"current_range_meters":7200,"station_id":"","pricing_plan_id":"cebpf4jnsgd1na2vs0mg"},{"bike_id":"31db5b50-1d43-4aac-8433-7575edb1f43a","system_id":"levelo_inurba_marseille","lat":43.30537,"lon":5.3654,"is_reserved":false,"is_disabled":false,"rental_uris":{"android":"levelo://app?vid=31db5b50-1d43-4aac-8433-7575edb1f43a","ios":"levelo://app?vid=31db5b50-1d43-4aac-8433-7575edb1f43a"},"vehicle_type_id":"4","last_reported":1771604723,"current_range_meters":7200,"station_id":"ce4bgs12rcd13ifvqcag","pricing_plan_id":"cebpf4jnsgd1na2vs0mg"},{"bike_id":"dec8d0e6-96f0-42b1-bfe2-7eb3d9827530","system_id":"levelo_inurba_marseille","lat":43.30786,"lon":5.37634,"is_reserved":false,"is_disabled":false,"rental_uris":{"android":"levelo://app?vid=dec8d0e6-96f0-42b1-bfe2-7eb3d9827530","ios":"levelo://app?vid=dec8d0e6-96f0-42b1-bfe2-7eb3d9827530"},"vehicle_type_id":"4","last_reported":1771604723,"current_range_meters":7200,"station_id":"ce4bgv92rcd13ifvqcq0","pricing_plan_id":"cebpf4jnsgd1na2vs0mg"},{"bike_id":"0c560846-1875-42b7-b3c5-200cf52eb410","system_id":"levelo_inurba_marseille","lat":43.283518,"lon":5.381082,"is_reserved":false,"is_disabled":false,"rental_uris":{"android":"levelo://app?vid=0c560846-1875-42b7-b3c5-200cf52eb410","ios":"levelo://app?vid=0c560846-1875-42b7-b3c5-200cf52eb410"},"vehicle_type_id":"4","last_reported":1771604723,"current_range_meters":7200,"station_id":"ce4bh412rcd13ifvqdr0","pricing_plan_id":"cebpf4jnsgd1na2vs0mg"},{"bike_id":"60ee8a32-a9e9-4885-9b98-c9a7947c02b6","system_id":"levelo_inurba_marseille","lat":43.28505,"lon":5.38417,"is_reserved":false,"is_disabled":false,"rental_uris":{"android":"levelo://app?vid=60ee8a32-a9e9-4885-9b98-c9a7947c02b6","ios":"levelo://app?vid=60ee8a32-a9e9-4885-9b98-c9a7947c02b6"},"vehicle_type_id":"4","last_reported":1771604723,"current_range_meters":7200,"station_id":"ce4bh512rcd13ifvqe3g","pricing_plan_id":"cebpf4jnsgd1na2vs0mg"},{"bike_id":"f534cd7b-4cd5-4f97-9271-d483251b3e2d","system_id":"levelo_inurba_marseille","lat":43.29179,"lon":5.35817,"is_reserved":false,"is_disabled":false,"rental_uris":{"android":"levelo://app?vid=f534cd7b-4cd5-4f97-9271-d483251b3e2d","ios":"levelo://app?vid=f534cd7b-4cd5-4f97-9271-d483251b3e2d"},"vehicle_type_id":"4","last_reported":1771604723,"current_range_meters":7200,"station_id":"ce4bhb12rcd13ifvqel0","pricing_plan_id":"cebpf4jnsgd1na2vs0mg"},{"bike_id":"289e325f-2265-4517-b03c-16fe6a0d5f82","system_id":"levelo_inurba_marseille","lat":43.28627,"lon":5.35131,"is_reserved":false,"is_disabled":false,"rental_uris":{"android":"levelo://app?vid=289e325f-2265-4517-b03c-16fe6a0d5f82","ios":"levelo://app?vid=289e325f-2265-4517-b03c-16fe6a0d5f82"},"vehicle_type_id":"4","last_reported":1771604723,"current_range_meters":7200,"station_id":"ce4bhch2rcd13ifvqeug","pricing_plan_id":"cebpf4jnsgd1na2vs0mg"},{"bike_id":"b6ef8365-35a8-4398-9ac2-e2c4b80a44aa","system_id":"levelo_inurba_marseille","lat":43.26792,"lon":5.39385,"is_reserved":false,"is_disabled":false,"rental_uris":{"android":"levelo://app?vid=b6ef8365-35a8-4398-9ac2-e2c4b80a44aa","ios":"levelo://app?vid=b6ef8365-35a8-4398-9ac2-e2c4b80a44aa"},"vehicle_type_id":"4","last_reported":1771604723,"current_range_meters":7200,"station_id":"ce4bhh12rcd13ifvqfg0","pricing_plan_id":"cebpf4jnsgd1na2vs0mg"},{"bike_id":"9461eb21-0a25-476e-bc5b-d8c3a070d0e9","system_id":"levelo_inurba_marseille","lat":43.24663,"lon":5.38163,"is_reserved":false,"is_disabled":false,"rental_uris":{"android":"levelo://app?vid=9461eb21-0a25-476e-bc5b-d8c3a070d0e9","ios":"levelo://app?vid=9461eb21-0a25-476e-bc5b-d8c3a070d0e9"},"vehicle_type_id":"4","last_reported":1771604723,"current_range_meters":7200,"station_id":"ce4bhih2rcd13ifvqfr0","pricing_plan_id":"cebpf4jnsgd1na2vs0mg"},{"bike_id":"385208fa-15c3-4f72-9031-feea093780e3","system_id":"levelo_inurba_marseille","lat":43.22564,"lon":5.41619,"is_reserved":false,"is_disabled":false,"rental_uris":{"android":"levelo://app?vid=385208fa-15c3-4f72-9031-feea093780e3","ios":"levelo://app?vid=385208fa-15c3-4f72-9031-feea093780e3"},"vehicle_type_id":"4","last_reported":1771604723,"current_range_meters":7200,"station_id":"st_d2o4gvlbi1j2169b742g","pricing_plan_id":"cebpf4jnsgd1na2vs0mg"},{"bike_id":"f456e338-8554-41c4-b4e1-b5803ff9dbcb","system_id":"levelo_inurba_marseille","lat":43.22571,"lon":5.41624,"is_reserved":false,"is_disabled":false,"rental_uris":{"android":"levelo://app?vid=f456e338-8554-41c4-b4e1-b5803ff9dbcb","ios":"levelo://app?vid=f456e338-8554-41c4-b4e1-b5803ff9dbcb"},"vehicle_type_id":"4","last_reported":1771604723,"current_range_meters":7200,"station_id":"st_d2o4gvlbi1j2169b742g","pricing_plan_id":"cebpf4jnsgd1na2vs0mg"},{"bike_id":"b955f7a2-4e22-4ae2-8204-e7d2c40fc05c","system_id":"levelo_inurba_marseille","lat":43.28869,"lon":5.42518,"is_reserved":false,"is_disabled":false,"rental_uris":{"android":"levelo://app?vid=b955f7a2-4e22-4ae2-8204-e7d2c40fc05c","ios":"levelo://app?vid=b955f7a2-4e22-4ae2-8204-e7d2c40fc05c"},"vehicle_type_id":"4","last_reported":1771604723,"current_range_meters":7200,"station_id":"st_d3b462108ojc7389ooeg","pricing_plan_id":"cebpf4jnsgd1na2vs0mg"},{"bike_id":"9d9420f7-0a3d-4212-91db-16773bca0822","system_id":"levelo_inurba_marseille","lat":43.33163,"lon":5.37682,"is_reserved":false,"is_disabled":false,"rental_uris":{"android":"levelo://app?vid=9d9420f7-0a3d-4212-91db-16773bca0822","ios":"levelo://app?vid=9d9420f7-0a3d-4212-91db-16773bca0822"},"vehicle_type_id":"4","last_reported":1771604723,"current_range_meters":7200,"station_id":"st_d46cu089ee8s73dldbu0","pricing_plan_id":"cebpf4jnsgd1na2vs0mg"},{"bike_id":"201ca36c-c632-433f-8e63-028103426023","system_id":"levelo_inurba_marseille","lat":43.28485,"lon":5.48393,"is_reserved":false,"is_disabled":false,"rental_uris":{"android":"levelo://app?vid=201ca36c-c632-433f-8e63-028103426023","ios":"levelo://app?vid=201ca36c-c632-433f-8e63-028103426023"},"vehicle_type_id":"4","last_reported":1771604723,"current_range_meters":8000,"station_id":"","pricing_plan_id":"cebpf4jnsgd1na2vs0mg"},{"bike_id":"50279af7-43df-4380-8e89-477e0d908db0","system_id":"levelo_inurba_marseille","lat":43.30936,"lon":5.36838,"is_reserved":false,"is_disabled":false,"rental_uris":{"android":"levelo://app?vid=50279af7-43df-4380-8e89-477e0d908db0","ios":"levelo://app?vid=50279af7-43df-4380-8e89-477e0d908db0"},"vehicle_type_id":"4","last_reported":1771604723,"current_range_meters":8000,"station_id":"ce4bgn92rcd13ifvqbvg","pricing_plan_id":"cebpf4jnsgd1na2vs0mg"},{"bike_id":"36672b4e-3065-4393-8748-de390636cc6e","system_id":"levelo_inurba_marseille","lat":43.30279,"lon":5.3769,"is_reserved":false,"is_disabled":false,"rental_uris":{"android":"levelo://app?vid=36672b4e-3065-4393-8748-de390636cc6e","ios":"levelo://app?vid=36672b4e-3065-4393-8748-de390636cc6e"},"vehicle_type_id":"4","last_reported":1771604723,"current_range_meters":8000,"station_id":"ce4bguh2rcd13ifvqcj0","pricing_plan_id":"cebpf4jnsgd1na2vs0mg"},{"bike_id":"e28b549e-37d2-4469-b298-bae1cd744a08","system_id":"levelo_inurba_marseille","lat":43.29531,"lon":5.3902,"is_reserved":false,"is_disabled":false,"rental_uris":{"android":"levelo://app?vid=e28b549e-37d2-4469-b298-bae1cd744a08","ios":"levelo://app?vid=e28b549e-37d2-4469-b298-bae1cd744a08"},"vehicle_type_id":"4","last_reported":1771604723,"current_range_meters":8000,"station_id":"ce4bh3p2rcd13ifvqdp0","pricing_plan_id":"cebpf4jnsgd1na2vs0mg"},{"bike_id":"24a498fa-832f-4c46-a68d-f0e2fca10031","system_id":"levelo_inurba_marseille","lat":43.28032,"lon":5.3694,"is_reserved":false,"is_disabled":false,"rental_uris":{"android":"levelo://app?vid=24a498fa-832f-4c46-a68d-f0e2fca10031","ios":"levelo://app?vid=24a498fa-832f-4c46-a68d-f0e2fca10031"},"vehicle_type_id":"4","last_reported":1771604723,"current_range_meters":8000,"station_id":"ce4bha12rcd13ifvqef0","pricing_plan_id":"cebpf4jnsgd1na2vs0mg"},{"bike_id":"407a44a3-f678-45f3-bec8-fea2e6419d83","system_id":"levelo_inurba_marseille","lat":43.28662,"lon":5.36354,"is_reserved":false,"is_disabled":false,"rental_uris":{"android":"levelo://app?vid=407a44a3-f678-45f3-bec8-fea2e6419d83","ios":"levelo://app?vid=407a44a3-f678-45f3-bec8-fea2e6419d83"},"vehicle_type_id":"4","last_reported":1771604723,"current_range_meters":8000,"station_id":"ce4bhah2rcd13ifvqej0","pricing_plan_id":"cebpf4jnsgd1na2vs0mg"},{"bike_id":"2504e84f-f9af-4ed2-b74a-1a3778ba1813","system_id":"levelo_inurba_marseille","lat":43.28419,"lon":5.34987,"is_reserved":false,"is_disabled":false,"rental_uris":{"android":"levelo://app?vid=2504e84f-f9af-4ed2-b74a-1a3778ba1813","ios":"levelo://app?vid=2504e84f-f9af-4ed2-b74a-1a3778ba1813"},"vehicle_type_id":"4","last_reported":1771604723,"current_range_meters":8000,"station_id":"ce4bhbh2rcd13ifvqepg","pricing_plan_id":"cebpf4jnsgd1na2vs0mg"},{"bike_id":"e67613e8-9a6f-44ac-af77-631d651f446a","system_id":"levelo_inurba_marseille","lat":43.26595,"lon":5.37257,"is_reserved":false,"is_disabled":false,"rental_uris":{"android":"levelo://app?vid=e67613e8-9a6f-44ac-af77-631d651f446a","ios":"levelo://app?vid=e67613e8-9a6f-44ac-af77-631d651f446a"},"vehicle_type_id":"4","last_reported":1771604723,"current_range_meters":8000,"station_id":"ce4bhg12rcd13ifvqf70","pricing_plan_id":"cebpf4jnsgd1na2vs0mg"},{"bike_id":"7e1b344b-da31-4b66-a808-394f8876f139","system_id":"levelo_inurba_marseille","lat":43.29776,"lon":5.39328,"is_reserved":false,"is_disabled":false,"rental_uris":{"android":"levelo://app?vid=7e1b344b-da31-4b66-a808-394f8876f139","ios":"levelo://app?vid=7e1b344b-da31-4b66-a808-394f8876f139"},"vehicle_type_id":"4","last_reported":1771604723,"current_range_meters":8000,"station_id":"chh1huq6cuj3fo74tm60","pricing_plan_id":"cebpf4jnsgd1na2vs0mg"},{"bike_id":"bc358ffc-2a58-4e89-94a8-df1b2a9d63e2","system_id":"levelo_inurba_marseille","lat":43.31078,"lon":5.38631,"is_reserved":false,"is_disabled":false,"rental_uris":{"android":"levelo://app?vid=bc358ffc-2a58-4e89-94a8-df1b2a9d63e2","ios":"levelo://app?vid=bc358ffc-2a58-4e89-94a8-df1b2a9d63e2"},"vehicle_type_id":"4","last_reported":1771604723,"current_range_meters":8400,"station_id":"","pricing_plan_id":"cebpf4jnsgd1na2vs0mg"},{"bike_id":"50f480f0-2aef-47b7-8e48-5e2a237262e0","system_id":"levelo_inurba_marseille","lat":43.31247,"lon":5.36843,"is_reserved":false,"is_disabled":false,"rental_uris":{"android":"levelo://app?vid=50f480f0-2aef-47b7-8e48-5e2a237262e0","ios":"levelo://app?vid=50f480f0-2aef-47b7-8e48-5e2a237262e0"},"vehicle_type_id":"4","last_reported":1771604723,"current_range_meters":8400,"station_id":"ce4bgl92rcd13ifvqbq0","pricing_plan_id":"cebpf4jnsgd1na2vs0mg"},{"bike_id":"ae2687e0-f478-41db-813a-96a7907cd2d5","system_id":"levelo_inurba_marseille","lat":43.29189,"lon":5.35796,"is_reserved":false,"is_disabled":false,"rental_uris":{"android":"levelo://app?vid=ae2687e0-f478-41db-813a-96a7907cd2d5","ios":"levelo://app?vid=ae2687e0-f478-41db-813a-96a7907cd2d5"},"vehicle_type_id":"4","last_reported":1771604723,"current_range_meters":8400,"station_id":"ce4bhb12rcd13ifvqel0","pricing_plan_id":"cebpf4jnsgd1na2vs0mg"},{"bike_id":"82fe797f-400c-4882-8ff9-b7b137c56178","system_id":"levelo_inurba_marseille","lat":43.26572,"lon":5.39021,"is_reserved":false,"is_disabled":false,"rental_uris":{"android":"levelo://app?vid=82fe797f-400c-4882-8ff9-b7b137c56178","ios":"levelo://app?vid=82fe797f-400c-4882-8ff9-b7b137c56178"},"vehicle_type_id":"4","last_reported":1771604723,"current_range_meters":8400,"station_id":"ce4bhe12rcd13ifvqf30","pricing_plan_id":"cebpf4jnsgd1na2vs0mg"},{"bike_id":"b76e224a-4ef6-4924-a9b3-def4b237cbc9","system_id":"levelo_inurba_marseille","lat":43.26555,"lon":5.3904,"is_reserved":false,"is_disabled":false,"rental_uris":{"android":"levelo://app?vid=b76e224a-4ef6-4924-a9b3-def4b237cbc9","ios":"levelo://app?vid=b76e224a-4ef6-4924-a9b3-def4b237cbc9"},"vehicle_type_id":"4","last_reported":1771604723,"current_range_meters":8400,"station_id":"ce4bhe12rcd13ifvqf30","pricing_plan_id":"cebpf4jnsgd1na2vs0mg"},{"bike_id":"972a8525-ef04-4391-9822-15bb5528cbd6","system_id":"levelo_inurba_marseille","lat":43.26923,"lon":5.40265,"is_reserved":false,"is_disabled":false,"rental_uris":{"android":"levelo://app?vid=972a8525-ef04-4391-9822-15bb5528cbd6","ios":"levelo://app?vid=972a8525-ef04-4391-9822-15bb5528cbd6"},"vehicle_type_id":"4","last_reported":1771604723,"current_range_meters":8400,"station_id":"cjm6bp8fraef2m0cb0m0","pricing_plan_id":"cebpf4jnsgd1na2vs0mg"},{"bike_id":"6f038e12-818b-4e09-9ed3-8cf78ee6c229","system_id":"levelo_inurba_marseille","lat":43.307364,"lon":5.424412,"is_reserved":false,"is_disabled":false,"rental_uris":{"android":"levelo://app?vid=6f038e12-818b-4e09-9ed3-8cf78ee6c229","ios":"levelo://app?vid=6f038e12-818b-4e09-9ed3-8cf78ee6c229"},"vehicle_type_id":"4","last_reported":1771604723,"current_range_meters":8400,"station_id":"st_cvj6ca6bvosntc0bfgr0","pricing_plan_id":"cebpf4jnsgd1na2vs0mg"},{"bike_id":"f59e2a46-f797-456b-af77-5dd81b8a32f9","system_id":"levelo_inurba_marseille","lat":43.24642,"lon":5.43144,"is_reserved":false,"is_disabled":false,"rental_uris":{"android":"levelo://app?vid=f59e2a46-f797-456b-af77-5dd81b8a32f9","ios":"levelo://app?vid=f59e2a46-f797-456b-af77-5dd81b8a32f9"},"vehicle_type_id":"4","last_reported":1771604723,"current_range_meters":8400,"station_id":"st_d2m6c4gdas8pm72e190g","pricing_plan_id":"cebpf4jnsgd1na2vs0mg"},{"bike_id":"36248042-4b44-477c-9ec0-28b229641e67","system_id":"levelo_inurba_marseille","lat":43.28531,"lon":5.44098,"is_reserved":false,"is_disabled":false,"rental_uris":{"android":"levelo://app?vid=36248042-4b44-477c-9ec0-28b229641e67","ios":"levelo://app?vid=36248042-4b44-477c-9ec0-28b229641e67"},"vehicle_type_id":"4","last_reported":1771604723,"current_range_meters":8800,"station_id":"","pricing_plan_id":"cebpf4jnsgd1na2vs0mg"},{"bike_id":"d42ccbf7-9da4-492d-b042-7da91be09c7a","system_id":"levelo_inurba_marseille","lat":43.30361,"lon":5.40102,"is_reserved":false,"is_disabled":false,"rental_uris":{"android":"levelo://app?vid=d42ccbf7-9da4-492d-b042-7da91be09c7a","ios":"levelo://app?vid=d42ccbf7-9da4-492d-b042-7da91be09c7a"},"vehicle_type_id":"4","last_reported":1771604723,"current_range_meters":8800,"station_id":"","pricing_plan_id":"cebpf4jnsgd1na2vs0mg"},{"bike_id":"3c92bd24-cb90-4997-9f17-ac65c0921e75","system_id":"levelo_inurba_marseille","lat":43.301356,"lon":5.402733,"is_reserved":false,"is_disabled":false,"rental_uris":{"android":"levelo://app?vid=3c92bd24-cb90-4997-9f17-ac65c0921e75","ios":"levelo://app?vid=3c92bd24-cb90-4997-9f17-ac65c0921e75"},"vehicle_type_id":"4","last_reported":1771604723,"current_range_meters":8800,"station_id":"","pricing_plan_id":"cebpf4jnsgd1na2vs0mg"},{"bike_id":"6bbb171e-718d-48ce-b9ba-ec604d886780","system_id":"levelo_inurba_marseille","lat":43.29646,"lon":5.38026,"is_reserved":false,"is_disabled":false,"rental_uris":{"android":"levelo://app?vid=6bbb171e-718d-48ce-b9ba-ec604d886780","ios":"levelo://app?vid=6bbb171e-718d-48ce-b9ba-ec604d886780"},"vehicle_type_id":"4","last_reported":1771604723,"current_range_meters":8800,"station_id":"","pricing_plan_id":"cebpf4jnsgd1na2vs0mg"},{"bike_id":"1a86b9b0-02ac-4312-bbf2-cd1c49603a8c","system_id":"levelo_inurba_marseille","lat":43.27918,"lon":5.39581,"is_reserved":false,"is_disabled":false,"rental_uris":{"android":"levelo://app?vid=1a86b9b0-02ac-4312-bbf2-cd1c49603a8c","ios":"levelo://app?vid=1a86b9b0-02ac-4312-bbf2-cd1c49603a8c"},"vehicle_type_id":"4","last_reported":1771604723,"current_range_meters":8800,"station_id":"ce4bhf92rcd13ifvqf40","pricing_plan_id":"cebpf4jnsgd1na2vs0mg"},{"bike_id":"a26daabe-e6e2-4383-8462-39b67b1557e4","system_id":"levelo_inurba_marseille","lat":43.27583,"lon":5.3844,"is_reserved":false,"is_disabled":false,"rental_uris":{"android":"levelo://app?vid=a26daabe-e6e2-4383-8462-39b67b1557e4","ios":"levelo://app?vid=a26daabe-e6e2-4383-8462-39b67b1557e4"},"vehicle_type_id":"4","last_reported":1771604723,"current_range_meters":8800,"station_id":"ce4bhh92rcd13ifvqfi0","pricing_plan_id":"cebpf4jnsgd1na2vs0mg"},{"bike_id":"2214bc2a-caae-4ede-aa38-a4d928d70581","system_id":"levelo_inurba_marseille","lat":43.2438,"lon":5.37063,"is_reserved":false,"is_disabled":false,"rental_uris":{"android":"levelo://app?vid=2214bc2a-caae-4ede-aa38-a4d928d70581","ios":"levelo://app?vid=2214bc2a-caae-4ede-aa38-a4d928d70581"},"vehicle_type_id":"4","last_reported":1771604723,"current_range_meters":8800,"station_id":"ce4bhhh2rcd13ifvqfk0","pricing_plan_id":"cebpf4jnsgd1na2vs0mg"},{"bike_id":"374a601b-07e0-41f3-a796-c230db56c47a","system_id":"levelo_inurba_marseille","lat":43.25597,"lon":5.38196,"is_reserved":false,"is_disabled":false,"rental_uris":{"android":"levelo://app?vid=374a601b-07e0-41f3-a796-c230db56c47a","ios":"levelo://app?vid=374a601b-07e0-41f3-a796-c230db56c47a"},"vehicle_type_id":"4","last_reported":1771604723,"current_range_meters":8800,"station_id":"ce4bhih2rcd13ifvqfs0","pricing_plan_id":"cebpf4jnsgd1na2vs0mg"},{"bike_id":"cdb95f3d-822d-4f4c-9c26-e414a8cd725f","system_id":"levelo_inurba_marseille","lat":43.25861,"lon":5.39899,"is_reserved":false,"is_disabled":false,"rental_uris":{"android":"levelo://app?vid=cdb95f3d-822d-4f4c-9c26-e414a8cd725f","ios":"levelo://app?vid=cdb95f3d-822d-4f4c-9c26-e414a8cd725f"},"vehicle_type_id":"4","last_reported":1771604723,"current_range_meters":8800,"station_id":"ce4bhl92rcd13ifvqghg","pricing_plan_id":"cebpf4jnsgd1na2vs0mg"},{"bike_id":"ce149241-acec-4899-9f85-519529746665","system_id":"levelo_inurba_marseille","lat":43.25929,"lon":5.4091,"is_reserved":false,"is_disabled":false,"rental_uris":{"android":"levelo://app?vid=ce149241-acec-4899-9f85-519529746665","ios":"levelo://app?vid=ce149241-acec-4899-9f85-519529746665"},"vehicle_type_id":"4","last_reported":1771604723,"current_range_meters":8800,"station_id":"ce4bhm92rcd13ifvqglg","pricing_plan_id":"cebpf4jnsgd1na2vs0mg"},{"bike_id":"cd244568-5883-4592-8de6-3b112fb5a925","system_id":"levelo_inurba_marseille","lat":43.231527,"lon":5.437153,"is_reserved":false,"is_disabled":false,"rental_uris":{"android":"levelo://app?vid=cd244568-5883-4592-8de6-3b112fb5a925","ios":"levelo://app?vid=cd244568-5883-4592-8de6-3b112fb5a925"},"vehicle_type_id":"4","last_reported":1771604723,"current_range_meters":8800,"station_id":"ce4bhmp2rcd13ifvqgog","pricing_plan_id":"cebpf4jnsgd1na2vs0mg"},{"bike_id":"8ff5fc21-5596-42cb-ad4b-9a56728eb83f","system_id":"levelo_inurba_marseille","lat":43.23157,"lon":5.43694,"is_reserved":false,"is_disabled":false,"rental_uris":{"android":"levelo://app?vid=8ff5fc21-5596-42cb-ad4b-9a56728eb83f","ios":"levelo://app?vid=8ff5fc21-5596-42cb-ad4b-9a56728eb83f"},"vehicle_type_id":"4","last_reported":1771604723,"current_range_meters":8800,"station_id":"ce4bhmp2rcd13ifvqgog","pricing_plan_id":"cebpf4jnsgd1na2vs0mg"},{"bike_id":"b3d443dd-79a5-41d7-95c4-ef18d424ce73","system_id":"levelo_inurba_marseille","lat":43.24958,"lon":5.40488,"is_reserved":false,"is_disabled":false,"rental_uris":{"android":"levelo://app?vid=b3d443dd-79a5-41d7-95c4-ef18d424ce73","ios":"levelo://app?vid=b3d443dd-79a5-41d7-95c4-ef18d424ce73"},"vehicle_type_id":"4","last_reported":1771604723,"current_range_meters":8800,"station_id":"st_d2ngiaodas8pm72gd1h0","pricing_plan_id":"cebpf4jnsgd1na2vs0mg"},{"bike_id":"f46b58fb-5df2-452a-a335-670c506f0eff","system_id":"levelo_inurba_marseille","lat":43.249529,"lon":5.404871,"is_reserved":false,"is_disabled":false,"rental_uris":{"android":"levelo://app?vid=f46b58fb-5df2-452a-a335-670c506f0eff","ios":"levelo://app?vid=f46b58fb-5df2-452a-a335-670c506f0eff"},"vehicle_type_id":"4","last_reported":1771604723,"current_range_meters":8800,"station_id":"st_d2ngiaodas8pm72gd1h0","pricing_plan_id":"cebpf4jnsgd1na2vs0mg"},{"bike_id":"f1024dcf-e851-4fe7-a3d5-59fad67d89a6","system_id":"levelo_inurba_marseille","lat":43.22563,"lon":5.41618,"is_reserved":false,"is_disabled":false,"rental_uris":{"android":"levelo://app?vid=f1024dcf-e851-4fe7-a3d5-59fad67d89a6","ios":"levelo://app?vid=f1024dcf-e851-4fe7-a3d5-59fad67d89a6"},"vehicle_type_id":"4","last_reported":1771604723,"current_range_meters":8800,"station_id":"st_d2o4gvlbi1j2169b742g","pricing_plan_id":"cebpf4jnsgd1na2vs0mg"},{"bike_id":"5184cc5f-d9bd-430e-aec0-198ba57b9a5e","system_id":"levelo_inurba_marseille","lat":43.33762,"lon":5.37493,"is_reserved":false,"is_disabled":false,"rental_uris":{"android":"levelo://app?vid=5184cc5f-d9bd-430e-aec0-198ba57b9a5e","ios":"levelo://app?vid=5184cc5f-d9bd-430e-aec0-198ba57b9a5e"},"vehicle_type_id":"4","last_reported":1771604723,"current_range_meters":9200,"station_id":"","pricing_plan_id":"cebpf4jnsgd1na2vs0mg"},{"bike_id":"a7ce63ec-5aae-4144-8925-8d1454d00c3c","system_id":"levelo_inurba_marseille","lat":43.32924,"lon":5.39067,"is_reserved":false,"is_disabled":false,"rental_uris":{"android":"levelo://app?vid=a7ce63ec-5aae-4144-8925-8d1454d00c3c","ios":"levelo://app?vid=a7ce63ec-5aae-4144-8925-8d1454d00c3c"},"vehicle_type_id":"4","last_reported":1771604723,"current_range_meters":9200,"station_id":"","pricing_plan_id":"cebpf4jnsgd1na2vs0mg"},{"bike_id":"2f116d3a-885e-4890-bf6b-abc9d00685ce","system_id":"levelo_inurba_marseille","lat":43.28478,"lon":5.48392,"is_reserved":false,"is_disabled":false,"rental_uris":{"android":"levelo://app?vid=2f116d3a-885e-4890-bf6b-abc9d00685ce","ios":"levelo://app?vid=2f116d3a-885e-4890-bf6b-abc9d00685ce"},"vehicle_type_id":"4","last_reported":1771604723,"current_range_meters":9200,"station_id":"","pricing_plan_id":"cebpf4jnsgd1na2vs0mg"},{"bike_id":"fa760f11-22bd-4718-b87c-b5fee606ebfe","system_id":"levelo_inurba_marseille","lat":43.284761,"lon":5.484056,"is_reserved":false,"is_disabled":false,"rental_uris":{"android":"levelo://app?vid=fa760f11-22bd-4718-b87c-b5fee606ebfe","ios":"levelo://app?vid=fa760f11-22bd-4718-b87c-b5fee606ebfe"},"vehicle_type_id":"4","last_reported":1771604723,"current_range_meters":9200,"station_id":"","pricing_plan_id":"cebpf4jnsgd1na2vs0mg"},{"bike_id":"e42bf14e-b5b7-4c62-afef-8dc3ed4359f5","system_id":"levelo_inurba_marseille","lat":43.28548,"lon":5.44074,"is_reserved":false,"is_disabled":false,"rental_uris":{"android":"levelo://app?vid=e42bf14e-b5b7-4c62-afef-8dc3ed4359f5","ios":"levelo://app?vid=e42bf14e-b5b7-4c62-afef-8dc3ed4359f5"},"vehicle_type_id":"4","last_reported":1771604723,"current_range_meters":9200,"station_id":"","pricing_plan_id":"cebpf4jnsgd1na2vs0mg"},{"bike_id":"4994847d-71ef-4e6e-ba87-aed4429bc588","system_id":"levelo_inurba_marseille","lat":43.30147,"lon":5.38076,"is_reserved":false,"is_disabled":false,"rental_uris":{"android":"levelo://app?vid=4994847d-71ef-4e6e-ba87-aed4429bc588","ios":"levelo://app?vid=4994847d-71ef-4e6e-ba87-aed4429bc588"},"vehicle_type_id":"4","last_reported":1771604723,"current_range_meters":9200,"station_id":"ce4bgjp2rcd13ifvqbh0","pricing_plan_id":"cebpf4jnsgd1na2vs0mg"},{"bike_id":"e38ec793-5ce4-4bab-a79e-22bde0468e46","system_id":"levelo_inurba_marseille","lat":43.29267,"lon":5.40889,"is_reserved":false,"is_disabled":false,"rental_uris":{"android":"levelo://app?vid=e38ec793-5ce4-4bab-a79e-22bde0468e46","ios":"levelo://app?vid=e38ec793-5ce4-4bab-a79e-22bde0468e46"},"vehicle_type_id":"4","last_reported":1771604723,"current_range_meters":9200,"station_id":"ce4bh192rcd13ifvqdc0","pricing_plan_id":"cebpf4jnsgd1na2vs0mg"},{"bike_id":"af2a9589-c51a-41a3-80ac-3cc7eae498f5","system_id":"levelo_inurba_marseille","lat":43.26031,"lon":5.37546,"is_reserved":false,"is_disabled":false,"rental_uris":{"android":"levelo://app?vid=af2a9589-c51a-41a3-80ac-3cc7eae498f5","ios":"levelo://app?vid=af2a9589-c51a-41a3-80ac-3cc7eae498f5"},"vehicle_type_id":"4","last_reported":1771604723,"current_range_meters":9200,"station_id":"ce4bhgh2rcd13ifvqfa0","pricing_plan_id":"cebpf4jnsgd1na2vs0mg"},{"bike_id":"5ff94b30-b5c5-46c8-aa8f-3f17071a5abd","system_id":"levelo_inurba_marseille","lat":43.26968,"lon":5.38623,"is_reserved":false,"is_disabled":false,"rental_uris":{"android":"levelo://app?vid=5ff94b30-b5c5-46c8-aa8f-3f17071a5abd","ios":"levelo://app?vid=5ff94b30-b5c5-46c8-aa8f-3f17071a5abd"},"vehicle_type_id":"4","last_reported":1771604723,"current_range_meters":9200,"station_id":"ce4bhh92rcd13ifvqfh0","pricing_plan_id":"cebpf4jnsgd1na2vs0mg"},{"bike_id":"66bafe08-6f8c-4d93-be10-3b36b2d22bc3","system_id":"levelo_inurba_marseille","lat":43.23141,"lon":5.43721,"is_reserved":false,"is_disabled":false,"rental_uris":{"android":"levelo://app?vid=66bafe08-6f8c-4d93-be10-3b36b2d22bc3","ios":"levelo://app?vid=66bafe08-6f8c-4d93-be10-3b36b2d22bc3"},"vehicle_type_id":"4","last_reported":1771604723,"current_range_meters":9200,"station_id":"ce4bhmp2rcd13ifvqgog","pricing_plan_id":"cebpf4jnsgd1na2vs0mg"},{"bike_id":"16c2a26d-b82c-48dd-ad56-aaec7c7abf79","system_id":"levelo_inurba_marseille","lat":43.24175,"lon":5.36385,"is_reserved":false,"is_disabled":false,"rental_uris":{"android":"levelo://app?vid=16c2a26d-b82c-48dd-ad56-aaec7c7abf79","ios":"levelo://app?vid=16c2a26d-b82c-48dd-ad56-aaec7c7abf79"},"vehicle_type_id":"4","last_reported":1771604723,"current_range_meters":9200,"station_id":"cpo36qri1sfpv3e86is0","pricing_plan_id":"cebpf4jnsgd1na2vs0mg"},{"bike_id":"97802019-4b69-446f-943b-088b937207db","system_id":"levelo_inurba_marseille","lat":43.2533,"lon":5.4217,"is_reserved":false,"is_disabled":false,"rental_uris":{"android":"levelo://app?vid=97802019-4b69-446f-943b-088b937207db","ios":"levelo://app?vid=97802019-4b69-446f-943b-088b937207db"},"vehicle_type_id":"4","last_reported":1771604723,"current_range_meters":9200,"station_id":"st_d2m65c5bi1j21697t3ng","pricing_plan_id":"cebpf4jnsgd1na2vs0mg"},{"bike_id":"8b9225ed-d915-4c12-962e-ee775ebc79dc","system_id":"levelo_inurba_marseille","lat":43.298124,"lon":5.440624,"is_reserved":false,"is_disabled":false,"rental_uris":{"android":"levelo://app?vid=8b9225ed-d915-4c12-962e-ee775ebc79dc","ios":"levelo://app?vid=8b9225ed-d915-4c12-962e-ee775ebc79dc"},"vehicle_type_id":"4","last_reported":1771604723,"current_range_meters":9200,"station_id":"st_d3jp68qikq2c7381ktn0","pricing_plan_id":"cebpf4jnsgd1na2vs0mg"},{"bike_id":"71c045f4-893d-4399-890f-58bcb06a1107","system_id":"levelo_inurba_marseille","lat":43.33548,"lon":5.374638,"is_reserved":false,"is_disabled":false,"rental_uris":{"android":"levelo://app?vid=71c045f4-893d-4399-890f-58bcb06a1107","ios":"levelo://app?vid=71c045f4-893d-4399-890f-58bcb06a1107"},"vehicle_type_id":"4","last_reported":1771604723,"current_range_meters":9200,"station_id":"st_d46tts09ee8s73dlu43g","pricing_plan_id":"cebpf4jnsgd1na2vs0mg"},{"bike_id":"dac8a087-3b29-4f0b-9148-eb1ca29eec40","system_id":"levelo_inurba_marseille","lat":43.33538,"lon":5.3746,"is_reserved":false,"is_disabled":false,"rental_uris":{"android":"levelo://app?vid=dac8a087-3b29-4f0b-9148-eb1ca29eec40","ios":"levelo://app?vid=dac8a087-3b29-4f0b-9148-eb1ca29eec40"},"vehicle_type_id":"4","last_reported":1771604723,"current_range_meters":9200,"station_id":"st_d46tts09ee8s73dlu43g","pricing_plan_id":"cebpf4jnsgd1na2vs0mg"},{"bike_id":"bcbc056f-57f3-4440-9175-3ff9fbbec23e","system_id":"levelo_inurba_marseille","lat":43.29594,"lon":5.37025,"is_reserved":false,"is_disabled":false,"rental_uris":{"android":"levelo://app?vid=bcbc056f-57f3-4440-9175-3ff9fbbec23e","ios":"levelo://app?vid=bcbc056f-57f3-4440-9175-3ff9fbbec23e"},"vehicle_type_id":"4","last_reported":1771604723,"current_range_meters":9600,"station_id":"","pricing_plan_id":"cebpf4jnsgd1na2vs0mg"},{"bike_id":"208d8cf2-b4bc-480a-a4b9-1b101d3be8fd","system_id":"levelo_inurba_marseille","lat":43.29848,"lon":5.36262,"is_reserved":false,"is_disabled":false,"rental_uris":{"android":"levelo://app?vid=208d8cf2-b4bc-480a-a4b9-1b101d3be8fd","ios":"levelo://app?vid=208d8cf2-b4bc-480a-a4b9-1b101d3be8fd"},"vehicle_type_id":"4","last_reported":1771604723,"current_range_meters":9600,"station_id":"ce4bgpp2rcd13ifvqc3g","pricing_plan_id":"cebpf4jnsgd1na2vs0mg"},{"bike_id":"27586e15-78a0-41b9-981d-e5de2751a5b3","system_id":"levelo_inurba_marseille","lat":43.30306,"lon":5.36886,"is_reserved":false,"is_disabled":false,"rental_uris":{"android":"levelo://app?vid=27586e15-78a0-41b9-981d-e5de2751a5b3","ios":"levelo://app?vid=27586e15-78a0-41b9-981d-e5de2751a5b3"},"vehicle_type_id":"4","last_reported":1771604723,"current_range_meters":9600,"station_id":"ce4bgqh2rcd13ifvqc5g","pricing_plan_id":"cebpf4jnsgd1na2vs0mg"},{"bike_id":"ad142e0e-b0b1-44a8-b0b5-33a0dbde9437","system_id":"levelo_inurba_marseille","lat":43.28934,"lon":5.36634,"is_reserved":false,"is_disabled":false,"rental_uris":{"android":"levelo://app?vid=ad142e0e-b0b1-44a8-b0b5-33a0dbde9437","ios":"levelo://app?vid=ad142e0e-b0b1-44a8-b0b5-33a0dbde9437"},"vehicle_type_id":"4","last_reported":1771604723,"current_range_meters":9600,"station_id":"ce4bhap2rcd13ifvqek0","pricing_plan_id":"cebpf4jnsgd1na2vs0mg"},{"bike_id":"6c22a5c5-c11d-4534-bf40-0bd7a3e06161","system_id":"levelo_inurba_marseille","lat":43.274183,"lon":5.39414,"is_reserved":false,"is_disabled":false,"rental_uris":{"android":"levelo://app?vid=6c22a5c5-c11d-4534-bf40-0bd7a3e06161","ios":"levelo://app?vid=6c22a5c5-c11d-4534-bf40-0bd7a3e06161"},"vehicle_type_id":"4","last_reported":1771604723,"current_range_meters":9600,"station_id":"ce4bhdp2rcd13ifvqf20","pricing_plan_id":"cebpf4jnsgd1na2vs0mg"},{"bike_id":"048b751b-8c81-4b1e-b2a0-9831aac64970","system_id":"levelo_inurba_marseille","lat":43.2797,"lon":5.3874,"is_reserved":false,"is_disabled":false,"rental_uris":{"android":"levelo://app?vid=048b751b-8c81-4b1e-b2a0-9831aac64970","ios":"levelo://app?vid=048b751b-8c81-4b1e-b2a0-9831aac64970"},"vehicle_type_id":"4","last_reported":1771604723,"current_range_meters":9600,"station_id":"ce4bhg12rcd13ifvqf80","pricing_plan_id":"cebpf4jnsgd1na2vs0mg"},{"bike_id":"89d7e36a-1fbb-42d8-913b-76e64b3e9cbe","system_id":"levelo_inurba_marseille","lat":43.27964,"lon":5.38692,"is_reserved":false,"is_disabled":false,"rental_uris":{"android":"levelo://app?vid=89d7e36a-1fbb-42d8-913b-76e64b3e9cbe","ios":"levelo://app?vid=89d7e36a-1fbb-42d8-913b-76e64b3e9cbe"},"vehicle_type_id":"4","last_reported":1771604723,"current_range_meters":9600,"station_id":"ce4bhg12rcd13ifvqf80","pricing_plan_id":"cebpf4jnsgd1na2vs0mg"},{"bike_id":"8c349e73-63b8-418f-9378-f332bc758fbb","system_id":"levelo_inurba_marseille","lat":43.27499,"lon":5.42415,"is_reserved":false,"is_disabled":false,"rental_uris":{"android":"levelo://app?vid=8c349e73-63b8-418f-9378-f332bc758fbb","ios":"levelo://app?vid=8c349e73-63b8-418f-9378-f332bc758fbb"},"vehicle_type_id":"4","last_reported":1771604723,"current_range_meters":9600,"station_id":"ce4bhn92rcd13ifvqgrg","pricing_plan_id":"cebpf4jnsgd1na2vs0mg"},{"bike_id":"06bd1725-9c2d-403a-8cb2-7c6b0879c88c","system_id":"levelo_inurba_marseille","lat":43.28001,"lon":5.41671,"is_reserved":false,"is_disabled":false,"rental_uris":{"android":"levelo://app?vid=06bd1725-9c2d-403a-8cb2-7c6b0879c88c","ios":"levelo://app?vid=06bd1725-9c2d-403a-8cb2-7c6b0879c88c"},"vehicle_type_id":"4","last_reported":1771604723,"current_range_meters":9600,"station_id":"ce4bho12rcd13ifvqh1g","pricing_plan_id":"cebpf4jnsgd1na2vs0mg"},{"bike_id":"0b53d906-c118-47b5-93e5-aa8359ef893f","system_id":"levelo_inurba_marseille","lat":43.21746,"lon":5.34591,"is_reserved":false,"is_disabled":false,"rental_uris":{"android":"levelo://app?vid=0b53d906-c118-47b5-93e5-aa8359ef893f","ios":"levelo://app?vid=0b53d906-c118-47b5-93e5-aa8359ef893f"},"vehicle_type_id":"4","last_reported":1771604723,"current_range_meters":9600,"station_id":"st_cvj6r9ubvosntc0bgbag","pricing_plan_id":"cebpf4jnsgd1na2vs0mg"},{"bike_id":"0a702201-443a-453f-8876-fdc3dc8d69c7","system_id":"levelo_inurba_marseille","lat":43.24957,"lon":5.40484,"is_reserved":false,"is_disabled":false,"rental_uris":{"android":"levelo://app?vid=0a702201-443a-453f-8876-fdc3dc8d69c7","ios":"levelo://app?vid=0a702201-443a-453f-8876-fdc3dc8d69c7"},"vehicle_type_id":"4","last_reported":1771604723,"current_range_meters":9600,"station_id":"st_d2ngiaodas8pm72gd1h0","pricing_plan_id":"cebpf4jnsgd1na2vs0mg"},{"bike_id":"8fcedad5-2fbb-4984-a308-c35380138bad","system_id":"levelo_inurba_marseille","lat":43.22572,"lon":5.41622,"is_reserved":false,"is_disabled":false,"rental_uris":{"android":"levelo://app?vid=8fcedad5-2fbb-4984-a308-c35380138bad","ios":"levelo://app?vid=8fcedad5-2fbb-4984-a308-c35380138bad"},"vehicle_type_id":"4","last_reported":1771604723,"current_range_meters":9600,"station_id":"st_d2o4gvlbi1j2169b742g","pricing_plan_id":"cebpf4jnsgd1na2vs0mg"},{"bike_id":"8db958fe-7924-432c-9cbe-de9f640ce5fb","system_id":"levelo_inurba_marseille","lat":43.28481,"lon":5.4839,"is_reserved":false,"is_disabled":false,"rental_uris":{"android":"levelo://app?vid=8db958fe-7924-432c-9cbe-de9f640ce5fb","ios":"levelo://app?vid=8db958fe-7924-432c-9cbe-de9f640ce5fb"},"vehicle_type_id":"4","last_reported":1771604723,"current_range_meters":9600,"station_id":"st_d3svhcjqgbts73a3dn0g","pricing_plan_id":"cebpf4jnsgd1na2vs0mg"},{"bike_id":"7a40cf1e-0463-4255-b820-c17c3ea721bf","system_id":"levelo_inurba_marseille","lat":43.27388,"lon":5.42198,"is_reserved":false,"is_disabled":false,"rental_uris":{"android":"levelo://app?vid=7a40cf1e-0463-4255-b820-c17c3ea721bf","ios":"levelo://app?vid=7a40cf1e-0463-4255-b820-c17c3ea721bf"},"vehicle_type_id":"4","last_reported":1771604723,"current_range_meters":10000,"station_id":"","pricing_plan_id":"cebpf4jnsgd1na2vs0mg"},{"bike_id":"ad36db00-4c15-424b-983c-9495206b7e6f","system_id":"levelo_inurba_marseille","lat":43.29251,"lon":5.39366,"is_reserved":false,"is_disabled":false,"rental_uris":{"android":"levelo://app?vid=ad36db00-4c15-424b-983c-9495206b7e6f","ios":"levelo://app?vid=ad36db00-4c15-424b-983c-9495206b7e6f"},"vehicle_type_id":"4","last_reported":1771604723,"current_range_meters":10000,"station_id":"","pricing_plan_id":"cebpf4jnsgd1na2vs0mg"},{"bike_id":"e84fe917-c8a2-4db3-bcbc-561ee21a16d7","system_id":"levelo_inurba_marseille","lat":43.29388,"lon":5.37836,"is_reserved":false,"is_disabled":false,"rental_uris":{"android":"levelo://app?vid=e84fe917-c8a2-4db3-bcbc-561ee21a16d7","ios":"levelo://app?vid=e84fe917-c8a2-4db3-bcbc-561ee21a16d7"},"vehicle_type_id":"4","last_reported":1771604723,"current_range_meters":10000,"station_id":"ce4bgjh2rcd13ifvqbf0","pricing_plan_id":"cebpf4jnsgd1na2vs0mg"},{"bike_id":"23e912cc-f117-4833-9d73-afbedc00dcc6","system_id":"levelo_inurba_marseille","lat":43.30944,"lon":5.4014,"is_reserved":false,"is_disabled":false,"rental_uris":{"android":"levelo://app?vid=23e912cc-f117-4833-9d73-afbedc00dcc6","ios":"levelo://app?vid=23e912cc-f117-4833-9d73-afbedc00dcc6"},"vehicle_type_id":"4","last_reported":1771604723,"current_range_meters":10000,"station_id":"ce4bgvp2rcd13ifvqct0","pricing_plan_id":"cebpf4jnsgd1na2vs0mg"},{"bike_id":"d6aadbd5-c007-4573-b1f4-6435cdb3ab39","system_id":"levelo_inurba_marseille","lat":43.28949,"lon":5.38429,"is_reserved":false,"is_disabled":false,"rental_uris":{"android":"levelo://app?vid=d6aadbd5-c007-4573-b1f4-6435cdb3ab39","ios":"levelo://app?vid=d6aadbd5-c007-4573-b1f4-6435cdb3ab39"},"vehicle_type_id":"4","last_reported":1771604723,"current_range_meters":10000,"station_id":"ce4bh612rcd13ifvqe6g","pricing_plan_id":"cebpf4jnsgd1na2vs0mg"},{"bike_id":"42bc5da4-2676-4f2a-8208-2159f4852f54","system_id":"levelo_inurba_marseille","lat":43.23954,"lon":5.36632,"is_reserved":false,"is_disabled":false,"rental_uris":{"android":"levelo://app?vid=42bc5da4-2676-4f2a-8208-2159f4852f54","ios":"levelo://app?vid=42bc5da4-2676-4f2a-8208-2159f4852f54"},"vehicle_type_id":"4","last_reported":1771604723,"current_range_meters":10000,"station_id":"ce4bhi12rcd13ifvqfp0","pricing_plan_id":"cebpf4jnsgd1na2vs0mg"},{"bike_id":"92e19e34-c1eb-4306-a05f-fcc972a00494","system_id":"levelo_inurba_marseille","lat":43.23153,"lon":5.4371,"is_reserved":false,"is_disabled":false,"rental_uris":{"android":"levelo://app?vid=92e19e34-c1eb-4306-a05f-fcc972a00494","ios":"levelo://app?vid=92e19e34-c1eb-4306-a05f-fcc972a00494"},"vehicle_type_id":"4","last_reported":1771604723,"current_range_meters":10000,"station_id":"ce4bhmp2rcd13ifvqgog","pricing_plan_id":"cebpf4jnsgd1na2vs0mg"},{"bike_id":"6c08465b-330d-445e-bfc2-9ff25e4a6345","system_id":"levelo_inurba_marseille","lat":43.25337,"lon":5.42167,"is_reserved":false,"is_disabled":false,"rental_uris":{"android":"levelo://app?vid=6c08465b-330d-445e-bfc2-9ff25e4a6345","ios":"levelo://app?vid=6c08465b-330d-445e-bfc2-9ff25e4a6345"},"vehicle_type_id":"4","last_reported":1771604723,"current_range_meters":10000,"station_id":"st_d2m65c5bi1j21697t3ng","pricing_plan_id":"cebpf4jnsgd1na2vs0mg"},{"bike_id":"b0246ed8-597c-4c00-b595-886f924c27dd","system_id":"levelo_inurba_marseille","lat":43.31032,"lon":5.37159,"is_reserved":false,"is_disabled":false,"rental_uris":{"android":"levelo://app?vid=b0246ed8-597c-4c00-b595-886f924c27dd","ios":"levelo://app?vid=b0246ed8-597c-4c00-b595-886f924c27dd"},"vehicle_type_id":"4","last_reported":1771604723,"current_range_meters":10000,"station_id":"st_d4kl2rp97mjs73e7tdfg","pricing_plan_id":"cebpf4jnsgd1na2vs0mg"},{"bike_id":"f2a79ac1-2a02-4ae6-8e33-fea5fd7e3aec","system_id":"levelo_inurba_marseille","lat":43.29692,"lon":5.37286,"is_reserved":false,"is_disabled":false,"rental_uris":{"android":"levelo://app?vid=f2a79ac1-2a02-4ae6-8e33-fea5fd7e3aec","ios":"levelo://app?vid=f2a79ac1-2a02-4ae6-8e33-fea5fd7e3aec"},"vehicle_type_id":"4","last_reported":1771604723,"current_range_meters":10800,"station_id":"ce4bgk12rcd13ifvqbj0","pricing_plan_id":"cebpf4jnsgd1na2vs0mg"},{"bike_id":"5a7733b6-8179-4224-b7a7-9fc9d2bf3260","system_id":"levelo_inurba_marseille","lat":43.30177,"lon":5.36612,"is_reserved":false,"is_disabled":false,"rental_uris":{"android":"levelo://app?vid=5a7733b6-8179-4224-b7a7-9fc9d2bf3260","ios":"levelo://app?vid=5a7733b6-8179-4224-b7a7-9fc9d2bf3260"},"vehicle_type_id":"4","last_reported":1771604723,"current_range_meters":10800,"station_id":"ce4bgrh2rcd13ifvqc8g","pricing_plan_id":"cebpf4jnsgd1na2vs0mg"},{"bike_id":"5a278826-0cc2-4fbf-9551-2ef2c6b94aa8","system_id":"levelo_inurba_marseille","lat":43.30276,"lon":5.37703,"is_reserved":false,"is_disabled":false,"rental_uris":{"android":"levelo://app?vid=5a278826-0cc2-4fbf-9551-2ef2c6b94aa8","ios":"levelo://app?vid=5a278826-0cc2-4fbf-9551-2ef2c6b94aa8"},"vehicle_type_id":"4","last_reported":1771604723,"current_range_meters":10800,"station_id":"ce4bguh2rcd13ifvqcj0","pricing_plan_id":"cebpf4jnsgd1na2vs0mg"},{"bike_id":"039db850-63b5-4fb9-a5dd-685d2dbb9256","system_id":"levelo_inurba_marseille","lat":43.290258,"lon":5.386465,"is_reserved":false,"is_disabled":false,"rental_uris":{"android":"levelo://app?vid=039db850-63b5-4fb9-a5dd-685d2dbb9256","ios":"levelo://app?vid=039db850-63b5-4fb9-a5dd-685d2dbb9256"},"vehicle_type_id":"4","last_reported":1771604723,"current_range_meters":10800,"station_id":"ce4bh4p2rcd13ifvqe0g","pricing_plan_id":"cebpf4jnsgd1na2vs0mg"},{"bike_id":"d4414e9d-423e-4076-b171-e3fbae46f69f","system_id":"levelo_inurba_marseille","lat":43.28712,"lon":5.37937,"is_reserved":false,"is_disabled":false,"rental_uris":{"android":"levelo://app?vid=d4414e9d-423e-4076-b171-e3fbae46f69f","ios":"levelo://app?vid=d4414e9d-423e-4076-b171-e3fbae46f69f"},"vehicle_type_id":"4","last_reported":1771604723,"current_range_meters":10800,"station_id":"ce4bh9p2rcd13ifvqec0","pricing_plan_id":"cebpf4jnsgd1na2vs0mg"},{"bike_id":"b75b7034-ff92-45d7-b44c-9132b6b0db67","system_id":"levelo_inurba_marseille","lat":43.2499,"lon":5.38929,"is_reserved":false,"is_disabled":false,"rental_uris":{"android":"levelo://app?vid=b75b7034-ff92-45d7-b44c-9132b6b0db67","ios":"levelo://app?vid=b75b7034-ff92-45d7-b44c-9132b6b0db67"},"vehicle_type_id":"4","last_reported":1771604723,"current_range_meters":10800,"station_id":"ce4bhgp2rcd13ifvqfd0","pricing_plan_id":"cebpf4jnsgd1na2vs0mg"},{"bike_id":"179d68f1-d160-402b-8ee6-0f05dbdd4a0c","system_id":"levelo_inurba_marseille","lat":43.24396,"lon":5.37055,"is_reserved":false,"is_disabled":false,"rental_uris":{"android":"levelo://app?vid=179d68f1-d160-402b-8ee6-0f05dbdd4a0c","ios":"levelo://app?vid=179d68f1-d160-402b-8ee6-0f05dbdd4a0c"},"vehicle_type_id":"4","last_reported":1771604723,"current_range_meters":10800,"station_id":"ce4bhhh2rcd13ifvqfk0","pricing_plan_id":"cebpf4jnsgd1na2vs0mg"},{"bike_id":"6dbc4b99-9738-499f-abb6-cc92a23cb350","system_id":"levelo_inurba_marseille","lat":43.24653,"lon":5.38146,"is_reserved":false,"is_disabled":false,"rental_uris":{"android":"levelo://app?vid=6dbc4b99-9738-499f-abb6-cc92a23cb350","ios":"levelo://app?vid=6dbc4b99-9738-499f-abb6-cc92a23cb350"},"vehicle_type_id":"4","last_reported":1771604723,"current_range_meters":10800,"station_id":"ce4bhih2rcd13ifvqfr0","pricing_plan_id":"cebpf4jnsgd1na2vs0mg"},{"bike_id":"b9dbede9-1947-4630-acea-bed012ab446c","system_id":"levelo_inurba_marseille","lat":43.25933,"lon":5.40896,"is_reserved":false,"is_disabled":false,"rental_uris":{"android":"levelo://app?vid=b9dbede9-1947-4630-acea-bed012ab446c","ios":"levelo://app?vid=b9dbede9-1947-4630-acea-bed012ab446c"},"vehicle_type_id":"4","last_reported":1771604723,"current_range_meters":10800,"station_id":"ce4bhm92rcd13ifvqglg","pricing_plan_id":"cebpf4jnsgd1na2vs0mg"},{"bike_id":"23e3a651-a245-408f-a516-b1214b5864c2","system_id":"levelo_inurba_marseille","lat":43.23144,"lon":5.43688,"is_reserved":false,"is_disabled":false,"rental_uris":{"android":"levelo://app?vid=23e3a651-a245-408f-a516-b1214b5864c2","ios":"levelo://app?vid=23e3a651-a245-408f-a516-b1214b5864c2"},"vehicle_type_id":"4","last_reported":1771604723,"current_range_meters":10800,"station_id":"ce4bhmp2rcd13ifvqgog","pricing_plan_id":"cebpf4jnsgd1na2vs0mg"},{"bike_id":"e6e2e3cc-6da7-4dcd-ad3f-e206f50a18eb","system_id":"levelo_inurba_marseille","lat":43.29895,"lon":5.43659,"is_reserved":false,"is_disabled":false,"rental_uris":{"android":"levelo://app?vid=e6e2e3cc-6da7-4dcd-ad3f-e206f50a18eb","ios":"levelo://app?vid=e6e2e3cc-6da7-4dcd-ad3f-e206f50a18eb"},"vehicle_type_id":"4","last_reported":1771604723,"current_range_meters":10800,"station_id":"ce4bhpp2rcd13ifvqhfg","pricing_plan_id":"cebpf4jnsgd1na2vs0mg"},{"bike_id":"f1c91668-3823-42a5-9489-f610563e7dd5","system_id":"levelo_inurba_marseille","lat":43.21746,"lon":5.34611,"is_reserved":false,"is_disabled":false,"rental_uris":{"android":"levelo://app?vid=f1c91668-3823-42a5-9489-f610563e7dd5","ios":"levelo://app?vid=f1c91668-3823-42a5-9489-f610563e7dd5"},"vehicle_type_id":"4","last_reported":1771604723,"current_range_meters":10800,"station_id":"st_cvj6r9ubvosntc0bgbag","pricing_plan_id":"cebpf4jnsgd1na2vs0mg"},{"bike_id":"38d0364b-582b-46ca-aff6-bb5c18650005","system_id":"levelo_inurba_marseille","lat":43.32293,"lon":5.36776,"is_reserved":false,"is_disabled":false,"rental_uris":{"android":"levelo://app?vid=38d0364b-582b-46ca-aff6-bb5c18650005","ios":"levelo://app?vid=38d0364b-582b-46ca-aff6-bb5c18650005"},"vehicle_type_id":"4","last_reported":1771604723,"current_range_meters":11200,"station_id":"","pricing_plan_id":"cebpf4jnsgd1na2vs0mg"},{"bike_id":"6b7e18f9-b382-4b2b-ae25-890cd87d8047","system_id":"levelo_inurba_marseille","lat":43.28349,"lon":5.3811,"is_reserved":false,"is_disabled":false,"rental_uris":{"android":"levelo://app?vid=6b7e18f9-b382-4b2b-ae25-890cd87d8047","ios":"levelo://app?vid=6b7e18f9-b382-4b2b-ae25-890cd87d8047"},"vehicle_type_id":"4","last_reported":1771604723,"current_range_meters":11200,"station_id":"ce4bh412rcd13ifvqdr0","pricing_plan_id":"cebpf4jnsgd1na2vs0mg"},{"bike_id":"0b2cc687-0911-4ffd-9e05-1a8020609a09","system_id":"levelo_inurba_marseille","lat":43.28477,"lon":5.38395,"is_reserved":false,"is_disabled":false,"rental_uris":{"android":"levelo://app?vid=0b2cc687-0911-4ffd-9e05-1a8020609a09","ios":"levelo://app?vid=0b2cc687-0911-4ffd-9e05-1a8020609a09"},"vehicle_type_id":"4","last_reported":1771604723,"current_range_meters":11200,"station_id":"ce4bh512rcd13ifvqe3g","pricing_plan_id":"cebpf4jnsgd1na2vs0mg"},{"bike_id":"2cfb662b-f31a-47dc-91e9-917c3d525cf0","system_id":"levelo_inurba_marseille","lat":43.279666,"lon":5.387412,"is_reserved":false,"is_disabled":false,"rental_uris":{"android":"levelo://app?vid=2cfb662b-f31a-47dc-91e9-917c3d525cf0","ios":"levelo://app?vid=2cfb662b-f31a-47dc-91e9-917c3d525cf0"},"vehicle_type_id":"4","last_reported":1771604723,"current_range_meters":11200,"station_id":"ce4bhg12rcd13ifvqf80","pricing_plan_id":"cebpf4jnsgd1na2vs0mg"},{"bike_id":"34f6be83-7aac-4b38-80e9-429c08cf2a9b","system_id":"levelo_inurba_marseille","lat":43.26212,"lon":5.37907,"is_reserved":false,"is_disabled":false,"rental_uris":{"android":"levelo://app?vid=34f6be83-7aac-4b38-80e9-429c08cf2a9b","ios":"levelo://app?vid=34f6be83-7aac-4b38-80e9-429c08cf2a9b"},"vehicle_type_id":"4","last_reported":1771604723,"current_range_meters":11200,"station_id":"ce4bhjp2rcd13ifvqg90","pricing_plan_id":"cebpf4jnsgd1na2vs0mg"},{"bike_id":"2125155a-2129-49fc-8fd3-a527809132b9","system_id":"levelo_inurba_marseille","lat":43.245449,"lon":5.395271,"is_reserved":false,"is_disabled":false,"rental_uris":{"android":"levelo://app?vid=2125155a-2129-49fc-8fd3-a527809132b9","ios":"levelo://app?vid=2125155a-2129-49fc-8fd3-a527809132b9"},"vehicle_type_id":"4","last_reported":1771604723,"current_range_meters":11200,"station_id":"ce4bhlp2rcd13ifvqgjg","pricing_plan_id":"cebpf4jnsgd1na2vs0mg"},{"bike_id":"72f68a5a-daf0-4728-af9b-23a0840da2ef","system_id":"levelo_inurba_marseille","lat":43.2593,"lon":5.40904,"is_reserved":false,"is_disabled":false,"rental_uris":{"android":"levelo://app?vid=72f68a5a-daf0-4728-af9b-23a0840da2ef","ios":"levelo://app?vid=72f68a5a-daf0-4728-af9b-23a0840da2ef"},"vehicle_type_id":"4","last_reported":1771604723,"current_range_meters":11200,"station_id":"ce4bhm92rcd13ifvqglg","pricing_plan_id":"cebpf4jnsgd1na2vs0mg"},{"bike_id":"0b3ed6cc-e7dc-4896-a35c-668f3df9e6ca","system_id":"levelo_inurba_marseille","lat":43.341399,"lon":5.409026,"is_reserved":false,"is_disabled":false,"rental_uris":{"android":"levelo://app?vid=0b3ed6cc-e7dc-4896-a35c-668f3df9e6ca","ios":"levelo://app?vid=0b3ed6cc-e7dc-4896-a35c-668f3df9e6ca"},"vehicle_type_id":"4","last_reported":1771604723,"current_range_meters":11200,"station_id":"ce4bhqh2rcd13ifvqhlg","pricing_plan_id":"cebpf4jnsgd1na2vs0mg"},{"bike_id":"b3fc3925-3e28-4636-808a-e438a604a75d","system_id":"levelo_inurba_marseille","lat":43.32322,"lon":5.36751,"is_reserved":false,"is_disabled":false,"rental_uris":{"android":"levelo://app?vid=b3fc3925-3e28-4636-808a-e438a604a75d","ios":"levelo://app?vid=b3fc3925-3e28-4636-808a-e438a604a75d"},"vehicle_type_id":"4","last_reported":1771604723,"current_range_meters":11200,"station_id":"ce4bhsh2rcd13ifvqi2g","pricing_plan_id":"cebpf4jnsgd1na2vs0mg"},