{"last_updated":1761581618,"ttl":60,"version":"2.2","data":{"bikes":[{"bike_id":"9d022594-d67c-45f6-88cd-fbf2cd4aa770","system_id":"levelo_inurba_marseille","lat":43.26794,"lon":5.39424,"is_reserved":false,"is_disabled":false,"rental_uris":{"android":"levelo://app?vid=9d022594-d67c-45f6-88cd-fbf2cd4aa770","ios":"levelo://app?vid=9d022594-d67c-45f6-88cd-fbf2cd4aa770"},"vehicle_type_id":"4","last_reported":1761581618,"current_range_meters":2800,"station_id":"ce4bhh12rcd13ifvqfg0","pricing_plan_id":"cebpf4jnsgd1na2vs0mg"},{"bike_id":"1028252f-a8b8-4f2e-b984-fd8725e093fe","system_id":"levelo_inurba_marseille","lat":43.29012,"lon":5.38117,"is_reserved":false,"is_disabled":false,"rental_uris":{"android":"levelo://app?vid=1028252f-a8b8-4f2e-b984-fd8725e093fe","ios":"levelo://app?vid=1028252f-a8b8-4f2e-b984-fd8725e093fe"},"vehicle_type_id":"4","last_reported":1761581618,"current_range_meters":3200,"station_id":"ce4bh4p2rcd13ifvqe1g","pricing_plan_id":"cebpf4jnsgd1na2vs0mg"},{"bike_id":"8be6a47c-9542-4fed-8109-f6d91a0f2b3f","system_id":"levelo_inurba_marseille","lat":43.29174,"lon":5.37161,"is_reserved":false,"is_disabled":false,"rental_uris":{"android":"levelo://app?vid=8be6a47c-9542-4fed-8109-f6d91a0f2b3f","ios":"levelo://app?vid=8be6a47c-9542-4fed-8109-f6d91a0f2b3f"},"vehicle_type_id":"4","last_reported":1761581618,"current_range_meters":3200,"station_id":"ce4bha92rcd13ifvqeh0","pricing_plan_id":"cebpf4jnsgd1na2vs0mg"},{"bike_id":"2111883f-5231-4227-877c-58f36474efed","system_id":"levelo_inurba_marseille","lat":43.29064,"lon":5.35926,"is_reserved":false,"is_disabled":false,"rental_uris":{"android":"levelo://app?vid=2111883f-5231-4227-877c-58f36474efed","ios":"levelo://app?vid=2111883f-5231-4227-877c-58f36474efed"},"vehicle_type_id":"4","last_reported":1761581618,"current_range_meters":3600,"station_id":"ce4bha92rcd13ifvqeg0","pricing_plan_id":"cebpf4jnsgd1na2vs0mg"},{"bike_id":"d21cbf83-be84-41c2-90c3-99187e1ec402","system_id":"levelo_inurba_marseille","lat":43.28919,"lon":5.38389,"is_reserved":false,"is_disabled":false,"rental_uris":{"android":"levelo://app?vid=d21cbf83-be84-41c2-90c3-99187e1ec402","ios":"levelo://app?vid=d21cbf83-be84-41c2-90c3-99187e1ec402"},"vehicle_type_id":"4","last_reported":1761581618,"current_range_meters":3600,"station_id":"ce4bh612rcd13ifvqe6g","pricing_plan_id":"cebpf4jnsgd1na2vs0mg"},{"bike_id":"928a1095-8443-409a-bdf4-938c1ff652ca","system_id":"levelo_inurba_marseille","lat":43.30597,"lon":5.39353,"is_reserved":false,"is_disabled":false,"rental_uris":{"android":"levelo://app?vid=928a1095-8443-409a-bdf4-938c1ff652ca","ios":"levelo://app?vid=928a1095-8443-409a-bdf4-938c1ff652ca"},"vehicle_type_id":"4","last_reported":1761581618,"current_range_meters":4000,"station_id":"ce4bh0p2rcd13ifvqd80","pricing_plan_id":"cebpf4jnsgd1na2vs0mg"},{"bike_id":"61759e5c-55bb-498d-a205-5b1c72e68ba3","system_id":"levelo_inurba_marseille","lat":43.27173,"lon":5.40993,"is_reserved":false,"is_disabled":false,"rental_uris":{"android":"levelo://app?vid=61759e5c-55bb-498d-a205-5b1c72e68ba3","ios":"levelo://app?vid=61759e5c-55bb-498d-a205-5b1c72e68ba3"},"vehicle_type_id":"4","last_reported":1761581618,"current_range_meters":4000,"station_id":"ce4bhl12rcd13ifvqgf0","pricing_plan_id":"cebpf4jnsgd1na2vs0mg"},{"bike_id":"69880247-38f2-48e7-ab49-326f3d5eca30","system_id":"levelo_inurba_marseille","lat":43.211879,"lon":5.350755,"is_reserved":false,"is_disabled":false,"rental_uris":{"android":"levelo://app?vid=69880247-38f2-48e7-ab49-326f3d5eca30","ios":"levelo://app?vid=69880247-38f2-48e7-ab49-326f3d5eca30"},"vehicle_type_id":"4","last_reported":1761581618,"current_range_meters":4000,"station_id":"st_cvj6sg6p6f1abm77japg","pricing_plan_id":"cebpf4jnsgd1na2vs0mg"},{"bike_id":"130c9c62-f769-444f-8845-0b3bff842035","system_id":"levelo_inurba_marseille","lat":43.301473,"lon":5.380844,"is_reserved":false,"is_disabled":false,"rental_uris":{"android":"levelo://app?vid=130c9c62-f769-444f-8845-0b3bff842035","ios":"levelo://app?vid=130c9c62-f769-444f-8845-0b3bff842035"},"vehicle_type_id":"4","last_reported":1761581618,"current_range_meters":4000,"station_id":"ce4bgjp2rcd13ifvqbh0","pricing_plan_id":"cebpf4jnsgd1na2vs0mg"},{"bike_id":"e4d24b97-7b17-4da6-8674-bf2c1f581ba9","system_id":"levelo_inurba_marseille","lat":43.21192,"lon":5.35085,"is_reserved":false,"is_disabled":false,"rental_uris":{"android":"levelo://app?vid=e4d24b97-7b17-4da6-8674-bf2c1f581ba9","ios":"levelo://app?vid=e4d24b97-7b17-4da6-8674-bf2c1f581ba9"},"vehicle_type_id":"4","last_reported":1761581618,"current_range_meters":4800,"station_id":"st_cvj6sg6p6f1abm77japg","pricing_plan_id":"cebpf4jnsgd1na2vs0mg"},{"bike_id":"e4c8e996-800d-4321-b164-d5d655956a0f","system_id":"levelo_inurba_marseille","lat":43.23151,"lon":5.43723,"is_reserved":false,"is_disabled":false,"rental_uris":{"android":"levelo://app?vid=e4c8e996-800d-4321-b164-d5d655956a0f","ios":"levelo://app?vid=e4c8e996-800d-4321-b164-d5d655956a0f"},"vehicle_type_id":"4","last_reported":1761581618,"current_range_meters":4800,"station_id":"ce4bhmp2rcd13ifvqgog","pricing_plan_id":"cebpf4jnsgd1na2vs0mg"},{"bike_id":"c3a8f601-19e9-474a-ab97-f0c73843bc40","system_id":"levelo_inurba_marseille","lat":43.29572,"lon":5.37523,"is_reserved":false,"is_disabled":false,"rental_uris":{"android":"levelo://app?vid=c3a8f601-19e9-474a-ab97-f0c73843bc40","ios":"levelo://app?vid=c3a8f601-19e9-474a-ab97-f0c73843bc40"},"vehicle_type_id":"4","last_reported":1761581618,"current_range_meters":4800,"station_id":"ce4bgh92rcd13ifvqb50","pricing_plan_id":"cebpf4jnsgd1na2vs0mg"},{"bike_id":"8b731966-fea9-408d-ad51-61579cf4f05b","system_id":"levelo_inurba_marseille","lat":43.30873,"lon":5.36866,"is_reserved":false,"is_disabled":false,"rental_uris":{"android":"levelo://app?vid=8b731966-fea9-408d-ad51-61579cf4f05b","ios":"levelo://app?vid=8b731966-fea9-408d-ad51-61579cf4f05b"},"vehicle_type_id":"4","last_reported":1761581618,"current_range_meters":5600,"station_id":"ce4bgn92rcd13ifvqbvg","pricing_plan_id":"cebpf4jnsgd1na2vs0mg"},{"bike_id":"6ee611b3-bf13-495e-a0dc-dfd1a8718271","system_id":"levelo_inurba_marseille","lat":43.29828,"lon":5.44083,"is_reserved":false,"is_disabled":false,"rental_uris":{"android":"levelo://app?vid=6ee611b3-bf13-495e-a0dc-dfd1a8718271","ios":"levelo://app?vid=6ee611b3-bf13-495e-a0dc-dfd1a8718271"},"vehicle_type_id":"4","last_reported":1761581618,"current_range_meters":6000,"station_id":"st_d3jp68qikq2c7381ktn0","pricing_plan_id":"cebpf4jnsgd1na2vs0mg"},{"bike_id":"293fc35e-0ac1-4fe5-b0f1-f5f9ed3f2cbc","system_id":"levelo_inurba_marseille","lat":43.225257,"lon":5.348161,"is_reserved":false,"is_disabled":false,"rental_uris":{"android":"levelo://app?vid=293fc35e-0ac1-4fe5-b0f1-f5f9ed3f2cbc","ios":"levelo://app?vid=293fc35e-0ac1-4fe5-b0f1-f5f9ed3f2cbc"},"vehicle_type_id":"4","last_reported":1761581618,"current_range_meters":6000,"station_id":"st_cvj5dfep6f1abm77gieg","pricing_plan_id":"cebpf4jnsgd1na2vs0mg"},{"bike_id":"f17836ae-9922-40e8-bd36-818347f61bb4","system_id":"levelo_inurba_marseille","lat":43.22533,"lon":5.34836,"is_reserved":false,"is_disabled":false,"rental_uris":{"android":"levelo://app?vid=f17836ae-9922-40e8-bd36-818347f61bb4","ios":"levelo://app?vid=f17836ae-9922-40e8-bd36-818347f61bb4"},"vehicle_type_id":"4","last_reported":1761581618,"current_range_meters":6000,"station_id":"","pricing_plan_id":"cebpf4jnsgd1na2vs0mg"},{"bike_id":"778bd611-a161-49b4-b553-88b317c1df1a","system_id":"levelo_inurba_marseille","lat":43.284764,"lon":5.384094,"is_reserved":false,"is_disabled":false,"rental_uris":{"android":"levelo://app?vid=778bd611-a161-49b4-b553-88b317c1df1a","ios":"levelo://app?vid=778bd611-a161-49b4-b553-88b317c1df1a"},"vehicle_type_id":"4","last_reported":1761581618,"current_range_meters":6400,"station_id":"ce4bh512rcd13ifvqe3g","pricing_plan_id":"cebpf4jnsgd1na2vs0mg"},{"bike_id":"e1aa20f8-799a-4567-bfd0-31e71eee617f","system_id":"levelo_inurba_marseille","lat":43.31437,"lon":5.38885,"is_reserved":false,"is_disabled":false,"rental_uris":{"android":"levelo://app?vid=e1aa20f8-799a-4567-bfd0-31e71eee617f","ios":"levelo://app?vid=e1aa20f8-799a-4567-bfd0-31e71eee617f"},"vehicle_type_id":"4","last_reported":1761581618,"current_range_meters":6400,"station_id":"","pricing_plan_id":"cebpf4jnsgd1na2vs0mg"},{"bike_id":"03bc448d-8e55-4313-a308-beedf0c0a1ce","system_id":"levelo_inurba_marseille","lat":43.24935,"lon":5.40478,"is_reserved":false,"is_disabled":false,"rental_uris":{"android":"levelo://app?vid=03bc448d-8e55-4313-a308-beedf0c0a1ce","ios":"levelo://app?vid=03bc448d-8e55-4313-a308-beedf0c0a1ce"},"vehicle_type_id":"4","last_reported":1761581618,"current_range_meters":6400,"station_id":"st_d2ngiaodas8pm72gd1h0","pricing_plan_id":"cebpf4jnsgd1na2vs0mg"},{"bike_id":"5ab92d27-3992-40ff-b989-e9b1b3a3df3f","system_id":"levelo_inurba_marseille","lat":43.29261,"lon":5.40899,"is_reserved":false,"is_disabled":false,"rental_uris":{"android":"levelo://app?vid=5ab92d27-3992-40ff-b989-e9b1b3a3df3f","ios":"levelo://app?vid=5ab92d27-3992-40ff-b989-e9b1b3a3df3f"},"vehicle_type_id":"4","last_reported":1761581618,"current_range_meters":6400,"station_id":"ce4bh192rcd13ifvqdc0","pricing_plan_id":"cebpf4jnsgd1na2vs0mg"},{"bike_id":"da53f9dd-9e9f-4dc5-bd59-02b8bbcec68f","system_id":"levelo_inurba_marseille","lat":43.26557,"lon":5.37286,"is_reserved":false,"is_disabled":false,"rental_uris":{"android":"levelo://app?vid=da53f9dd-9e9f-4dc5-bd59-02b8bbcec68f","ios":"levelo://app?vid=da53f9dd-9e9f-4dc5-bd59-02b8bbcec68f"},"vehicle_type_id":"4","last_reported":1761581618,"current_range_meters":6400,"station_id":"ce4bhg12rcd13ifvqf70","pricing_plan_id":"cebpf4jnsgd1na2vs0mg"},{"bike_id":"d82bb0fc-5414-4be3-9f5e-d0136694a531","system_id":"levelo_inurba_marseille","lat":43.27371,"lon":5.36262,"is_reserved":false,"is_disabled":false,"rental_uris":{"android":"levelo://app?vid=d82bb0fc-5414-4be3-9f5e-d0136694a531","ios":"levelo://app?vid=d82bb0fc-5414-4be3-9f5e-d0136694a531"},"vehicle_type_id":"4","last_reported":1761581618,"current_range_meters":6400,"station_id":"ce4bhbh2rcd13ifvqeo0","pricing_plan_id":"cebpf4jnsgd1na2vs0mg"},{"bike_id":"4ade9d83-f2d5-4d19-a54e-74fbd9ec2b53","system_id":"levelo_inurba_marseille","lat":43.3236,"lon":5.38887,"is_reserved":false,"is_disabled":false,"rental_uris":{"android":"levelo://app?vid=4ade9d83-f2d5-4d19-a54e-74fbd9ec2b53","ios":"levelo://app?vid=4ade9d83-f2d5-4d19-a54e-74fbd9ec2b53"},"vehicle_type_id":"4","last_reported":1761581618,"current_range_meters":6400,"station_id":"ce4bhqp2rcd13ifvqhog","pricing_plan_id":"cebpf4jnsgd1na2vs0mg"},{"bike_id":"376f37db-9367-433a-9ac4-7f57991dd845","system_id":"levelo_inurba_marseille","lat":43.32097,"lon":5.36807,"is_reserved":false,"is_disabled":false,"rental_uris":{"android":"levelo://app?vid=376f37db-9367-433a-9ac4-7f57991dd845","ios":"levelo://app?vid=376f37db-9367-433a-9ac4-7f57991dd845"},"vehicle_type_id":"4","last_reported":1761581618,"current_range_meters":6800,"station_id":"ce4bhrh2rcd13ifvqhug","pricing_plan_id":"cebpf4jnsgd1na2vs0mg"},{"bike_id":"e71b6206-a6d5-4005-9482-16dc6b7bd81c","system_id":"levelo_inurba_marseille","lat":43.298729,"lon":5.397511,"is_reserved":false,"is_disabled":false,"rental_uris":{"android":"levelo://app?vid=e71b6206-a6d5-4005-9482-16dc6b7bd81c","ios":"levelo://app?vid=e71b6206-a6d5-4005-9482-16dc6b7bd81c"},"vehicle_type_id":"4","last_reported":1761581618,"current_range_meters":6800,"station_id":"ce4bh0h2rcd13ifvqd50","pricing_plan_id":"cebpf4jnsgd1na2vs0mg"},{"bike_id":"750144f8-ccc7-463b-9813-73498a2ecf69","system_id":"levelo_inurba_marseille","lat":43.309019,"lon":5.368493,"is_reserved":false,"is_disabled":false,"rental_uris":{"android":"levelo://app?vid=750144f8-ccc7-463b-9813-73498a2ecf69","ios":"levelo://app?vid=750144f8-ccc7-463b-9813-73498a2ecf69"},"vehicle_type_id":"4","last_reported":1761581618,"current_range_meters":6800,"station_id":"ce4bgn92rcd13ifvqbvg","pricing_plan_id":"cebpf4jnsgd1na2vs0mg"},{"bike_id":"9784d213-f278-4b09-b7d8-d929f8cdc859","system_id":"levelo_inurba_marseille","lat":43.30146,"lon":5.37426,"is_reserved":false,"is_disabled":false,"rental_uris":{"android":"levelo://app?vid=9784d213-f278-4b09-b7d8-d929f8cdc859","ios":"levelo://app?vid=9784d213-f278-4b09-b7d8-d929f8cdc859"},"vehicle_type_id":"4","last_reported":1761581618,"current_range_meters":6800,"station_id":"ce4bgs92rcd13ifvqcc0","pricing_plan_id":"cebpf4jnsgd1na2vs0mg"},{"bike_id":"862c7ef3-4cdf-4803-a29b-a600461c4f79","system_id":"levelo_inurba_marseille","lat":43.292278,"lon":5.360464,"is_reserved":false,"is_disabled":false,"rental_uris":{"android":"levelo://app?vid=862c7ef3-4cdf-4803-a29b-a600461c4f79","ios":"levelo://app?vid=862c7ef3-4cdf-4803-a29b-a600461c4f79"},"vehicle_type_id":"4","last_reported":1761581618,"current_range_meters":7200,"station_id":"ce4bhbh2rcd13ifvqeqg","pricing_plan_id":"cebpf4jnsgd1na2vs0mg"},{"bike_id":"00e55cfd-7a10-4120-aee3-456bc9f2df7b","system_id":"levelo_inurba_marseille","lat":43.284605,"lon":5.358848,"is_reserved":false,"is_disabled":false,"rental_uris":{"android":"levelo://app?vid=00e55cfd-7a10-4120-aee3-456bc9f2df7b","ios":"levelo://app?vid=00e55cfd-7a10-4120-aee3-456bc9f2df7b"},"vehicle_type_id":"4","last_reported":1761581618,"current_range_meters":8000,"station_id":"ce4bhah2rcd13ifvqei0","pricing_plan_id":"cebpf4jnsgd1na2vs0mg"},{"bike_id":"6913f0b0-fd62-45ba-8ae4-f107e4e547ca","system_id":"levelo_inurba_marseille","lat":43.29054,"lon":5.35927,"is_reserved":false,"is_disabled":false,"rental_uris":{"android":"levelo://app?vid=6913f0b0-fd62-45ba-8ae4-f107e4e547ca","ios":"levelo://app?vid=6913f0b0-fd62-45ba-8ae4-f107e4e547ca"},"vehicle_type_id":"4","last_reported":1761581618,"current_range_meters":8000,"station_id":"ce4bha92rcd13ifvqeg0","pricing_plan_id":"cebpf4jnsgd1na2vs0mg"},{"bike_id":"c0b81f28-bbba-4247-a74b-c55a34b31846","system_id":"levelo_inurba_marseille","lat":43.33258,"lon":5.41086,"is_reserved":false,"is_disabled":false,"rental_uris":{"android":"levelo://app?vid=c0b81f28-bbba-4247-a74b-c55a34b31846","ios":"levelo://app?vid=c0b81f28-bbba-4247-a74b-c55a34b31846"},"vehicle_type_id":"4","last_reported":1761581618,"current_range_meters":8400,"station_id":"","pricing_plan_id":"cebpf4jnsgd1na2vs0mg"},{"bike_id":"41d45b45-3a52-4b5a-b2b3-1e62d5490ada","system_id":"levelo_inurba_marseille","lat":43.285328,"lon":5.440946,"is_reserved":false,"is_disabled":false,"rental_uris":{"android":"levelo://app?vid=41d45b45-3a52-4b5a-b2b3-1e62d5490ada","ios":"levelo://app?vid=41d45b45-3a52-4b5a-b2b3-1e62d5490ada"},"vehicle_type_id":"4","last_reported":1761581618,"current_range_meters":8400,"station_id":"st_d3j3df2ikq2c7380ej80","pricing_plan_id":"cebpf4jnsgd1na2vs0mg"},{"bike_id":"adc33835-a424-4bcc-a566-dab4b837c2e1","system_id":"levelo_inurba_marseille","lat":43.31074,"lon":5.38365,"is_reserved":false,"is_disabled":false,"rental_uris":{"android":"levelo://app?vid=adc33835-a424-4bcc-a566-dab4b837c2e1","ios":"levelo://app?vid=adc33835-a424-4bcc-a566-dab4b837c2e1"},"vehicle_type_id":"4","last_reported":1761581618,"current_range_meters":8400,"station_id":"ce4bgv92rcd13ifvqcr0","pricing_plan_id":"cebpf4jnsgd1na2vs0mg"},{"bike_id":"8da55fc5-d39a-4cdd-9640-35d21b65670e","system_id":"levelo_inurba_marseille","lat":43.32049,"lon":5.41537,"is_reserved":false,"is_disabled":false,"rental_uris":{"android":"levelo://app?vid=8da55fc5-d39a-4cdd-9640-35d21b65670e","ios":"levelo://app?vid=8da55fc5-d39a-4cdd-9640-35d21b65670e"},"vehicle_type_id":"4","last_reported":1761581618,"current_range_meters":8400,"station_id":"ce4bhq92rcd13ifvqhkg","pricing_plan_id":"cebpf4jnsgd1na2vs0mg"},{"bike_id":"8e49c088-979f-4ff9-81b1-d21901a3a257","system_id":"levelo_inurba_marseille","lat":43.28159,"lon":5.34994,"is_reserved":false,"is_disabled":false,"rental_uris":{"android":"levelo://app?vid=8e49c088-979f-4ff9-81b1-d21901a3a257","ios":"levelo://app?vid=8e49c088-979f-4ff9-81b1-d21901a3a257"},"vehicle_type_id":"4","last_reported":1761581618,"current_range_meters":8400,"station_id":"","pricing_plan_id":"cebpf4jnsgd1na2vs0mg"},{"bike_id":"64b75b4a-3497-4861-8cc2-90dd62cd9f5e","system_id":"levelo_inurba_marseille","lat":43.293008,"lon":5.434471,"is_reserved":false,"is_disabled":false,"rental_uris":{"android":"levelo://app?vid=64b75b4a-3497-4861-8cc2-90dd62cd9f5e","ios":"levelo://app?vid=64b75b4a-3497-4861-8cc2-90dd62cd9f5e"},"vehicle_type_id":"4","last_reported":1761581618,"current_range_meters":8800,"station_id":"","pricing_plan_id":"cebpf4jnsgd1na2vs0mg"},{"bike_id":"746cc555-4e68-4f11-9cba-97fcb225ee04","system_id":"levelo_inurba_marseille","lat":43.29264,"lon":5.38456,"is_reserved":false,"is_disabled":false,"rental_uris":{"android":"levelo://app?vid=746cc555-4e68-4f11-9cba-97fcb225ee04","ios":"levelo://app?vid=746cc555-4e68-4f11-9cba-97fcb225ee04"},"vehicle_type_id":"4","last_reported":1761581618,"current_range_meters":8800,"station_id":"ce4bh692rcd13ifvqea0","pricing_plan_id":"cebpf4jnsgd1na2vs0mg"},{"bike_id":"e4ccce50-4824-4895-aa8c-033835526f23","system_id":"levelo_inurba_marseille","lat":43.318817,"lon":5.399792,"is_reserved":false,"is_disabled":false,"rental_uris":{"android":"levelo://app?vid=e4ccce50-4824-4895-aa8c-033835526f23","ios":"levelo://app?vid=e4ccce50-4824-4895-aa8c-033835526f23"},"vehicle_type_id":"4","last_reported":1761581618,"current_range_meters":8800,"station_id":"","pricing_plan_id":"cebpf4jnsgd1na2vs0mg"},{"bike_id":"b4161da3-6410-487c-842a-c71723a5ee6e","system_id":"levelo_inurba_marseille","lat":43.23491,"lon":5.35984,"is_reserved":false,"is_disabled":false,"rental_uris":{"android":"levelo://app?vid=b4161da3-6410-487c-842a-c71723a5ee6e","ios":"levelo://app?vid=b4161da3-6410-487c-842a-c71723a5ee6e"},"vehicle_type_id":"4","last_reported":1761581618,"current_range_meters":8800,"station_id":"","pricing_plan_id":"cebpf4jnsgd1na2vs0mg"},{"bike_id":"de5cece4-6186-4ccb-b70e-a25e8bd3fc86","system_id":"levelo_inurba_marseille","lat":43.337444,"lon":5.374475,"is_reserved":false,"is_disabled":false,"rental_uris":{"android":"levelo://app?vid=de5cece4-6186-4ccb-b70e-a25e8bd3fc86","ios":"levelo://app?vid=de5cece4-6186-4ccb-b70e-a25e8bd3fc86"},"vehicle_type_id":"4","last_reported":1761581618,"current_range_meters":8800,"station_id":"","pricing_plan_id":"cebpf4jnsgd1na2vs0mg"},{"bike_id":"8847af5d-c1ad-4d8d-a5c1-273c3b41c105","system_id":"levelo_inurba_marseille","lat":43.322454,"lon":5.419612,"is_reserved":false,"is_disabled":false,"rental_uris":{"android":"levelo://app?vid=8847af5d-c1ad-4d8d-a5c1-273c3b41c105","ios":"levelo://app?vid=8847af5d-c1ad-4d8d-a5c1-273c3b41c105"},"vehicle_type_id":"4","last_reported":1761581618,"current_range_meters":9200,"station_id":"","pricing_plan_id":"cebpf4jnsgd1na2vs0mg"},{"bike_id":"de0ca7a8-116a-46c8-8c50-6b445a473423","system_id":"levelo_inurba_marseille","lat":43.28872,"lon":5.42513,"is_reserved":false,"is_disabled":false,"rental_uris":{"android":"levelo://app?vid=de0ca7a8-116a-46c8-8c50-6b445a473423","ios":"levelo://app?vid=de0ca7a8-116a-46c8-8c50-6b445a473423"},"vehicle_type_id":"4","last_reported":1761581618,"current_range_meters":9200,"station_id":"st_d3b462108ojc7389ooeg","pricing_plan_id":"cebpf4jnsgd1na2vs0mg"},{"bike_id":"32114a5c-f921-470b-bc43-431e5df86559","system_id":"levelo_inurba_marseille","lat":43.231938,"lon":5.355514,"is_reserved":false,"is_disabled":false,"rental_uris":{"android":"levelo://app?vid=32114a5c-f921-470b-bc43-431e5df86559","ios":"levelo://app?vid=32114a5c-f921-470b-bc43-431e5df86559"},"vehicle_type_id":"4","last_reported":1761581618,"current_range_meters":9200,"station_id":"ce4bhu92rcd13ifvqi70","pricing_plan_id":"cebpf4jnsgd1na2vs0mg"},{"bike_id":"621280e4-02b3-4ec5-ac97-55cc31cb8dff","system_id":"levelo_inurba_marseille","lat":43.29259,"lon":5.38446,"is_reserved":false,"is_disabled":false,"rental_uris":{"android":"levelo://app?vid=621280e4-02b3-4ec5-ac97-55cc31cb8dff","ios":"levelo://app?vid=621280e4-02b3-4ec5-ac97-55cc31cb8dff"},"vehicle_type_id":"4","last_reported":1761581618,"current_range_meters":9200,"station_id":"ce4bh692rcd13ifvqea0","pricing_plan_id":"cebpf4jnsgd1na2vs0mg"},{"bike_id":"8dafde54-e7c8-4e92-8cfc-533fc7bd2b9e","system_id":"levelo_inurba_marseille","lat":43.290253,"lon":5.386466,"is_reserved":false,"is_disabled":false,"rental_uris":{"android":"levelo://app?vid=8dafde54-e7c8-4e92-8cfc-533fc7bd2b9e","ios":"levelo://app?vid=8dafde54-e7c8-4e92-8cfc-533fc7bd2b9e"},"vehicle_type_id":"4","last_reported":1761581618,"current_range_meters":9600,"station_id":"ce4bh4p2rcd13ifvqe0g","pricing_plan_id":"cebpf4jnsgd1na2vs0mg"},{"bike_id":"9672cf43-657a-4006-8842-c5c7acb5b085","system_id":"levelo_inurba_marseille","lat":43.29908,"lon":5.38142,"is_reserved":false,"is_disabled":false,"rental_uris":{"android":"levelo://app?vid=9672cf43-657a-4006-8842-c5c7acb5b085","ios":"levelo://app?vid=9672cf43-657a-4006-8842-c5c7acb5b085"},"vehicle_type_id":"4","last_reported":1761581618,"current_range_meters":9600,"station_id":"ce4bgj12rcd13ifvqbc0","pricing_plan_id":"cebpf4jnsgd1na2vs0mg"},{"bike_id":"d9bb607d-1ecc-49cc-9f82-e52383a3bc84","system_id":"levelo_inurba_marseille","lat":43.29303,"lon":5.41167,"is_reserved":false,"is_disabled":false,"rental_uris":{"android":"levelo://app?vid=d9bb607d-1ecc-49cc-9f82-e52383a3bc84","ios":"levelo://app?vid=d9bb607d-1ecc-49cc-9f82-e52383a3bc84"},"vehicle_type_id":"4","last_reported":1761581618,"current_range_meters":10000,"station_id":"","pricing_plan_id":"cebpf4jnsgd1na2vs0mg"},{"bike_id":"6a5a56a4-c681-4d8f-958e-a0da43b6122d","system_id":"levelo_inurba_marseille","lat":43.229286,"lon":5.353777,"is_reserved":false,"is_disabled":false,"rental_uris":{"android":"levelo://app?vid=6a5a56a4-c681-4d8f-958e-a0da43b6122d","ios":"levelo://app?vid=6a5a56a4-c681-4d8f-958e-a0da43b6122d"},"vehicle_type_id":"4","last_reported":1761581618,"current_range_meters":10000,"station_id":"cpo3532slgdg3j2ikp40","pricing_plan_id":"cebpf4jnsgd1na2vs0mg"},{"bike_id":"36354ce1-fc04-421f-8b48-b505ff58a298","system_id":"levelo_inurba_marseille","lat":43.300773,"lon":5.400962,"is_reserved":false,"is_disabled":false,"rental_uris":{"android":"levelo://app?vid=36354ce1-fc04-421f-8b48-b505ff58a298","ios":"levelo://app?vid=36354ce1-fc04-421f-8b48-b505ff58a298"},"vehicle_type_id":"4","last_reported":1761581618,"current_range_meters":10800,"station_id":"ce4bhop2rcd13ifvqh8g","pricing_plan_id":"cebpf4jnsgd1na2vs0mg"},{"bike_id":"7348219f-62a2-4f61-9dc3-4c6ae6e126f0","system_id":"levelo_inurba_marseille","lat":43.3373,"lon":5.37464,"is_reserved":false,"is_disabled":false,"rental_uris":{"android":"levelo://app?vid=7348219f-62a2-4f61-9dc3-4c6ae6e126f0","ios":"levelo://app?vid=7348219f-62a2-4f61-9dc3-4c6ae6e126f0"},"vehicle_type_id":"4","last_reported":1761581618,"current_range_meters":10800,"station_id":"","pricing_plan_id":"cebpf4jnsgd1na2vs0mg"},{"bike_id":"65e69419-d438-4542-88bd-410ce097d568","system_id":"levelo_inurba_marseille","lat":43.26557,"lon":5.37284,"is_reserved":false,"is_disabled":false,"rental_uris":{"android":"levelo://app?vid=65e69419-d438-4542-88bd-410ce097d568","ios":"levelo://app?vid=65e69419-d438-4542-88bd-410ce097d568"},"vehicle_type_id":"4","last_reported":1761581618,"current_range_meters":10800,"station_id":"ce4bhg12rcd13ifvqf70","pricing_plan_id":"cebpf4jnsgd1na2vs0mg"},{"bike_id":"bca3b18c-0d56-4a2c-9a66-c7302ddd90dd","system_id":"levelo_inurba_marseille","lat":43.282215,"lon":5.390675,"is_reserved":false,"is_disabled":false,"rental_uris":{"android":"levelo://app?vid=bca3b18c-0d56-4a2c-9a66-c7302ddd90dd","ios":"levelo://app?vid=bca3b18c-0d56-4a2c-9a66-c7302ddd90dd"},"vehicle_type_id":"4","last_reported":1761581618,"current_range_meters":11200,"station_id":"ce4bhn92rcd13ifvqgsg","pricing_plan_id":"cebpf4jnsgd1na2vs0mg"},{"bike_id":"0409a64e-f320-4495-984b-f0594096fbcf","system_id":"levelo_inurba_marseille","lat":43.28619,"lon":5.35104,"is_reserved":false,"is_disabled":false,"rental_uris":{"android":"levelo://app?vid=0409a64e-f320-4495-984b-f0594096fbcf","ios":"levelo://app?vid=0409a64e-f320-4495-984b-f0594096fbcf"},"vehicle_type_id":"4","last_reported":1761581618,"current_range_meters":11200,"station_id":"ce4bhch2rcd13ifvqeug","pricing_plan_id":"cebpf4jnsgd1na2vs0mg"},{"bike_id":"fab9cdec-01f4-4909-b8a8-958759e32848","system_id":"levelo_inurba_marseille","lat":43.3133,"lon":5.39692,"is_reserved":false,"is_disabled":false,"rental_uris":{"android":"levelo://app?vid=fab9cdec-01f4-4909-b8a8-958759e32848","ios":"levelo://app?vid=fab9cdec-01f4-4909-b8a8-958759e32848"},"vehicle_type_id":"4","last_reported":1761581618,"current_range_meters":11200,"station_id":"ce4bgvp2rcd13ifvqcu0","pricing_plan_id":"cebpf4jnsgd1na2vs0mg"},{"bike_id":"e99985bf-9b97-4170-857e-c0845fed75ff","system_id":"levelo_inurba_marseille","lat":43.28748,"lon":5.3856,"is_reserved":false,"is_disabled":false,"rental_uris":{"android":"levelo://app?vid=e99985bf-9b97-4170-857e-c0845fed75ff","ios":"levelo://app?vid=e99985bf-9b97-4170-857e-c0845fed75ff"},"vehicle_type_id":"4","last_reported":1761581618,"current_range_meters":11200,"station_id":"","pricing_plan_id":"cebpf4jnsgd1na2vs0mg"},{"bike_id":"7ebed296-9c39-4448-8c31-14084ae11589","system_id":"levelo_inurba_marseille","lat":43.2965,"lon":5.38114,"is_reserved":false,"is_disabled":false,"rental_uris":{"android":"levelo://app?vid=7ebed296-9c39-4448-8c31-14084ae11589","ios":"levelo://app?vid=7ebed296-9c39-4448-8c31-14084ae11589"},"vehicle_type_id":"4","last_reported":1761581618,"current_range_meters":11200,"station_id":"","pricing_plan_id":"cebpf4jnsgd1na2vs0mg"},{"bike_id":"520a923d-8393-46c2-9fe4-754780c4305a","system_id":"levelo_inurba_marseille","lat":43.29492,"lon":5.43315,"is_reserved":false,"is_disabled":false,"rental_uris":{"android":"levelo://app?vid=520a923d-8393-46c2-9fe4-754780c4305a","ios":"levelo://app?vid=520a923d-8393-46c2-9fe4-754780c4305a"},"vehicle_type_id":"4","last_reported":1761581618,"current_range_meters":11200,"station_id":"st_d3j5ugp08ojc73fj9d10","pricing_plan_id":"cebpf4jnsgd1na2vs0mg"},{"bike_id":"3af31174-e1ee-4592-8a91-36899f80135b","system_id":"levelo_inurba_marseille","lat":43.229275,"lon":5.353888,"is_reserved":false,"is_disabled":false,"rental_uris":{"android":"levelo://app?vid=3af31174-e1ee-4592-8a91-36899f80135b","ios":"levelo://app?vid=3af31174-e1ee-4592-8a91-36899f80135b"},"vehicle_type_id":"4","last_reported":1761581618,"current_range_meters":11200,"station_id":"cpo3532slgdg3j2ikp40","pricing_plan_id":"cebpf4jnsgd1na2vs0mg"},{"bike_id":"abe90af9-0127-4043-959c-db772d686fd4","system_id":"levelo_inurba_marseille","lat":43.29278,"lon":5.36852,"is_reserved":false,"is_disabled":false,"rental_uris":{"android":"levelo://app?vid=abe90af9-0127-4043-959c-db772d686fd4","ios":"levelo://app?vid=abe90af9-0127-4043-959c-db772d686fd4"},"vehicle_type_id":"4","last_reported":1761581618,"current_range_meters":11200,"station_id":"ce4bhbp2rcd13ifvqesg","pricing_plan_id":"cebpf4jnsgd1na2vs0mg"},{"bike_id":"bdbd7eb7-4a5e-4a19-8503-727b25fa7343","system_id":"levelo_inurba_marseille","lat":43.29573,"lon":5.39966,"is_reserved":false,"is_disabled":false,"rental_uris":{"android":"levelo://app?vid=bdbd7eb7-4a5e-4a19-8503-727b25fa7343","ios":"levelo://app?vid=bdbd7eb7-4a5e-4a19-8503-727b25fa7343"},"vehicle_type_id":"4","last_reported":1761581618,"current_range_meters":11200,"station_id":"ce4bh312rcd13ifvqdj0","pricing_plan_id":"cebpf4jnsgd1na2vs0mg"},{"bike_id":"883bc9b4-cfb9-4127-8706-5d33bb052860","system_id":"levelo_inurba_marseille","lat":43.24801,"lon":5.37457,"is_reserved":false,"is_disabled":false,"rental_uris":{"android":"levelo://app?vid=883bc9b4-cfb9-4127-8706-5d33bb052860","ios":"levelo://app?vid=883bc9b4-cfb9-4127-8706-5d33bb052860"},"vehicle_type_id":"4","last_reported":1761581618,"current_range_meters":11600,"station_id":"ce4bhgh2rcd13ifvqfb0","pricing_plan_id":"cebpf4jnsgd1na2vs0mg"},{"bike_id":"9c3d0ad2-616b-4511-9f46-20500dd62ad6","system_id":"levelo_inurba_marseille","lat":43.30328,"lon":5.40431,"is_reserved":false,"is_disabled":false,"rental_uris":{"android":"levelo://app?vid=9c3d0ad2-616b-4511-9f46-20500dd62ad6","ios":"levelo://app?vid=9c3d0ad2-616b-4511-9f46-20500dd62ad6"},"vehicle_type_id":"4","last_reported":1761581618,"current_range_meters":11600,"station_id":"ce4bh012rcd13ifvqd10","pricing_plan_id":"cebpf4jnsgd1na2vs0mg"},{"bike_id":"f5adc0f6-8f78-420c-a3cc-2381696afa4a","system_id":"levelo_inurba_marseille","lat":43.28861,"lon":5.42522,"is_reserved":false,"is_disabled":false,"rental_uris":{"android":"levelo://app?vid=f5adc0f6-8f78-420c-a3cc-2381696afa4a","ios":"levelo://app?vid=f5adc0f6-8f78-420c-a3cc-2381696afa4a"},"vehicle_type_id":"4","last_reported":1761581618,"current_range_meters":11600,"station_id":"st_d3b462108ojc7389ooeg","pricing_plan_id":"cebpf4jnsgd1na2vs0mg"},{"bike_id":"af55acc1-7f80-48b9-bc19-3db9d5f7d273","system_id":"levelo_inurba_marseille","lat":43.280028,"lon":5.400223,"is_reserved":false,"is_disabled":false,"rental_uris":{"android":"levelo://app?vid=af55acc1-7f80-48b9-bc19-3db9d5f7d273","ios":"levelo://app?vid=af55acc1-7f80-48b9-bc19-3db9d5f7d273"},"vehicle_type_id":"4","last_reported":1761581618,"current_range_meters":11600,"station_id":"ce4bho92rcd13ifvqh4g","pricing_plan_id":"cebpf4jnsgd1na2vs0mg"},{"bike_id":"56751891-e4ac-405b-a8d0-6a8db30e5ff7","system_id":"levelo_inurba_marseille","lat":43.32116,"lon":5.36775,"is_reserved":false,"is_disabled":false,"rental_uris":{"android":"levelo://app?vid=56751891-e4ac-405b-a8d0-6a8db30e5ff7","ios":"levelo://app?vid=56751891-e4ac-405b-a8d0-6a8db30e5ff7"},"vehicle_type_id":"4","last_reported":1761581618,"current_range_meters":11600,"station_id":"ce4bhrh2rcd13ifvqhug","pricing_plan_id":"cebpf4jnsgd1na2vs0mg"},{"bike_id":"2879a6a7-088b-49a1-bb92-a3a0d4fd7a4c","system_id":"levelo_inurba_marseille","lat":43.24808,"lon":5.3746,"is_reserved":false,"is_disabled":false,"rental_uris":{"android":"levelo://app?vid=2879a6a7-088b-49a1-bb92-a3a0d4fd7a4c","ios":"levelo://app?vid=2879a6a7-088b-49a1-bb92-a3a0d4fd7a4c"},"vehicle_type_id":"4","last_reported":1761581618,"current_range_meters":12000,"station_id":"ce4bhgh2rcd13ifvqfb0","pricing_plan_id":"cebpf4jnsgd1na2vs0mg"},{"bike_id":"81beb167-d716-4ae0-94e9-b94a99d77056","system_id":"levelo_inurba_marseille","lat":43.30648,"lon":5.40103,"is_reserved":false,"is_disabled":false,"rental_uris":{"android":"levelo://app?vid=81beb167-d716-4ae0-94e9-b94a99d77056","ios":"levelo://app?vid=81beb167-d716-4ae0-94e9-b94a99d77056"},"vehicle_type_id":"4","last_reported":1761581618,"current_range_meters":12000,"station_id":"ce4bh112rcd13ifvqda0","pricing_plan_id":"cebpf4jnsgd1na2vs0mg"},{"bike_id":"0e52c732-5e74-49cd-8036-0751696fae8d","system_id":"levelo_inurba_marseille","lat":43.28855,"lon":5.42531,"is_reserved":false,"is_disabled":false,"rental_uris":{"android":"levelo://app?vid=0e52c732-5e74-49cd-8036-0751696fae8d","ios":"levelo://app?vid=0e52c732-5e74-49cd-8036-0751696fae8d"},"vehicle_type_id":"4","last_reported":1761581618,"current_range_meters":12000,"station_id":"st_d3b462108ojc7389ooeg","pricing_plan_id":"cebpf4jnsgd1na2vs0mg"},{"bike_id":"d9ef5462-f283-4c70-90db-fdb906b67df3","system_id":"levelo_inurba_marseille","lat":43.27998,"lon":5.41666,"is_reserved":false,"is_disabled":false,"rental_uris":{"android":"levelo://app?vid=d9ef5462-f283-4c70-90db-fdb906b67df3","ios":"levelo://app?vid=d9ef5462-f283-4c70-90db-fdb906b67df3"},"vehicle_type_id":"4","last_reported":1761581618,"current_range_meters":12000,"station_id":"ce4bho12rcd13ifvqh1g","pricing_plan_id":"cebpf4jnsgd1na2vs0mg"},{"bike_id":"216a6c40-8cb6-444d-914f-738670796266","system_id":"levelo_inurba_marseille","lat":43.26201,"lon":5.37915,"is_reserved":false,"is_disabled":false,"rental_uris":{"android":"levelo://app?vid=216a6c40-8cb6-444d-914f-738670796266","ios":"levelo://app?vid=216a6c40-8cb6-444d-914f-738670796266"},"vehicle_type_id":"4","last_reported":1761581618,"current_range_meters":12400,"station_id":"ce4bhjp2rcd13ifvqg90","pricing_plan_id":"cebpf4jnsgd1na2vs0mg"},{"bike_id":"71fe0d6a-f99e-45a0-9c75-e294b78524b2","system_id":"levelo_inurba_marseille","lat":43.21668,"lon":5.34628,"is_reserved":false,"is_disabled":false,"rental_uris":{"android":"levelo://app?vid=71fe0d6a-f99e-45a0-9c75-e294b78524b2","ios":"levelo://app?vid=71fe0d6a-f99e-45a0-9c75-e294b78524b2"},"vehicle_type_id":"4","last_reported":1761581618,"current_range_meters":12400,"station_id":"","pricing_plan_id":"cebpf4jnsgd1na2vs0mg"},{"bike_id":"491f34a3-b0eb-4e16-8119-ba4a0dbc18e2","system_id":"levelo_inurba_marseille","lat":43.305813,"lon":5.393529,"is_reserved":false,"is_disabled":false,"rental_uris":{"android":"levelo://app?vid=491f34a3-b0eb-4e16-8119-ba4a0dbc18e2","ios":"levelo://app?vid=491f34a3-b0eb-4e16-8119-ba4a0dbc18e2"},"vehicle_type_id":"4","last_reported":1761581618,"current_range_meters":12400,"station_id":"ce4bh012rcd13ifvqcv0","pricing_plan_id":"cebpf4jnsgd1na2vs0mg"},{"bike_id":"a5e97cf5-21a8-40b7-8e91-21aa332d6351","system_id":"levelo_inurba_marseille","lat":43.3012,"lon":5.4313,"is_reserved":false,"is_disabled":false,"rental_uris":{"android":"levelo://app?vid=a5e97cf5-21a8-40b7-8e91-21aa332d6351","ios":"levelo://app?vid=a5e97cf5-21a8-40b7-8e91-21aa332d6351"},"vehicle_type_id":"4","last_reported":1761581618,"current_range_meters":12400,"station_id":"st_d3js3co5814s73ftftug","pricing_plan_id":"cebpf4jnsgd1na2vs0mg"},{"bike_id":"d57c472b-ea27-4111-a3a9-7a1334ab807f","system_id":"levelo_inurba_marseille","lat":43.29041,"lon":5.35917,"is_reserved":false,"is_disabled":false,"rental_uris":{"android":"levelo://app?vid=d57c472b-ea27-4111-a3a9-7a1334ab807f","ios":"levelo://app?vid=d57c472b-ea27-4111-a3a9-7a1334ab807f"},"vehicle_type_id":"4","last_reported":1761581618,"current_range_meters":12400,"station_id":"ce4bha92rcd13ifvqeg0","pricing_plan_id":"cebpf4jnsgd1na2vs0mg"},{"bike_id":"f6f41915-49e3-4fb8-8c5c-96d42e084e15","system_id":"levelo_inurba_marseille","lat":43.32045,"lon":5.37108,"is_reserved":false,"is_disabled":false,"rental_uris":{"android":"levelo://app?vid=f6f41915-49e3-4fb8-8c5c-96d42e084e15","ios":"levelo://app?vid=f6f41915-49e3-4fb8-8c5c-96d42e084e15"},"vehicle_type_id":"4","last_reported":1761581618,"current_range_meters":12400,"station_id":"","pricing_plan_id":"cebpf4jnsgd1na2vs0mg"},{"bike_id":"b83891d3-7971-45ae-9af3-651a6e6209e2","system_id":"levelo_inurba_marseille","lat":43.23183,"lon":5.35556,"is_reserved":false,"is_disabled":true,"rental_uris":{"android":"levelo://app?vid=b83891d3-7971-45ae-9af3-651a6e6209e2","ios":"levelo://app?vid=b83891d3-7971-45ae-9af3-651a6e6209e2"},"vehicle_type_id":"4","last_reported":1761581618,"current_range_meters":12800,"station_id":"ce4bhu92rcd13ifvqi70","pricing_plan_id":"cebpf4jnsgd1na2vs0mg"},{"bike_id":"3649abed-02a7-4f2d-af4e-80269bab9949","system_id":"levelo_inurba_marseille","lat":43.29852,"lon":5.36288,"is_reserved":false,"is_disabled":false,"rental_uris":{"android":"levelo://app?vid=3649abed-02a7-4f2d-af4e-80269bab9949","ios":"levelo://app?vid=3649abed-02a7-4f2d-af4e-80269bab9949"},"vehicle_type_id":"4","last_reported":1761581618,"current_range_meters":12800,"station_id":"ce4bgpp2rcd13ifvqc3g","pricing_plan_id":"cebpf4jnsgd1na2vs0mg"},{"bike_id":"bbbf3dbb-fbe2-4b7e-bfad-c027ca4e1c25","system_id":"levelo_inurba_marseille","lat":43.2848,"lon":5.484,"is_reserved":false,"is_disabled":false,"rental_uris":{"android":"levelo://app?vid=bbbf3dbb-fbe2-4b7e-bfad-c027ca4e1c25","ios":"levelo://app?vid=bbbf3dbb-fbe2-4b7e-bfad-c027ca4e1c25"},"vehicle_type_id":"4","last_reported":1761581618,"current_range_meters":12800,"station_id":"st_d3svhcjqgbts73a3dn0g","pricing_plan_id":"cebpf4jnsgd1na2vs0mg"},{"bike_id":"dd45d3aa-87bd-4539-b9d0-9328c1d59036","system_id":"levelo_inurba_marseille","lat":43.29832,"lon":5.38026,"is_reserved":false,"is_disabled":false,"rental_uris":{"android":"levelo://app?vid=dd45d3aa-87bd-4539-b9d0-9328c1d59036","ios":"levelo://app?vid=dd45d3aa-87bd-4539-b9d0-9328c1d59036"},"vehicle_type_id":"4","last_reported":1761581618,"current_range_meters":12800,"station_id":"","pricing_plan_id":"cebpf4jnsgd1na2vs0mg"},{"bike_id":"a66c2ec3-4831-4861-8cb1-4530edee301a","system_id":"levelo_inurba_marseille","lat":43.29579,"lon":5.36745,"is_reserved":false,"is_disabled":false,"rental_uris":{"android":"levelo://app?vid=a66c2ec3-4831-4861-8cb1-4530edee301a","ios":"levelo://app?vid=a66c2ec3-4831-4861-8cb1-4530edee301a"},"vehicle_type_id":"4","last_reported":1761581618,"current_range_meters":12800,"station_id":"ce4bgph2rcd13ifvqc2g","pricing_plan_id":"cebpf4jnsgd1na2vs0mg"},{"bike_id":"550538aa-61d4-44ed-8c7b-a025f4ec8b9b","system_id":"levelo_inurba_marseille","lat":43.24999,"lon":5.389406,"is_reserved":false,"is_disabled":false,"rental_uris":{"android":"levelo://app?vid=550538aa-61d4-44ed-8c7b-a025f4ec8b9b","ios":"levelo://app?vid=550538aa-61d4-44ed-8c7b-a025f4ec8b9b"},"vehicle_type_id":"4","last_reported":1761581618,"current_range_meters":12800,"station_id":"ce4bhgp2rcd13ifvqfd0","pricing_plan_id":"cebpf4jnsgd1na2vs0mg"},{"bike_id":"f3673a60-efd2-465f-aa18-cb0baaf105f7","system_id":"levelo_inurba_marseille","lat":43.32365,"lon":5.388905,"is_reserved":false,"is_disabled":false,"rental_uris":{"android":"levelo://app?vid=f3673a60-efd2-465f-aa18-cb0baaf105f7","ios":"levelo://app?vid=f3673a60-efd2-465f-aa18-cb0baaf105f7"},"vehicle_type_id":"4","last_reported":1761581618,"current_range_meters":12800,"station_id":"ce4bhqp2rcd13ifvqhog","pricing_plan_id":"cebpf4jnsgd1na2vs0mg"},{"bike_id":"5582ff77-598f-4b27-800e-45b7406743a8","system_id":"levelo_inurba_marseille","lat":43.2933,"lon":5.4043,"is_reserved":false,"is_disabled":false,"rental_uris":{"android":"levelo://app?vid=5582ff77-598f-4b27-800e-45b7406743a8","ios":"levelo://app?vid=5582ff77-598f-4b27-800e-45b7406743a8"},"vehicle_type_id":"4","last_reported":1761581618,"current_range_meters":12800,"station_id":"","pricing_plan_id":"cebpf4jnsgd1na2vs0mg"},{"bike_id":"02dd205b-e97c-4104-9683-066d2523fd3f","system_id":"levelo_inurba_marseille","lat":43.2196,"lon":5.34548,"is_reserved":false,"is_disabled":false,"rental_uris":{"android":"levelo://app?vid=02dd205b-e97c-4104-9683-066d2523fd3f","ios":"levelo://app?vid=02dd205b-e97c-4104-9683-066d2523fd3f"},"vehicle_type_id":"4","last_reported":1761581618,"current_range_meters":12800,"station_id":"","pricing_plan_id":"cebpf4jnsgd1na2vs0mg"},{"bike_id":"d0c081ad-3486-48c9-8966-70405df77a5b","system_id":"levelo_inurba_marseille","lat":43.22934,"lon":5.353772,"is_reserved":false,"is_disabled":false,"rental_uris":{"android":"levelo://app?vid=d0c081ad-3486-48c9-8966-70405df77a5b","ios":"levelo://app?vid=d0c081ad-3486-48c9-8966-70405df77a5b"},"vehicle_type_id":"4","last_reported":1761581618,"current_range_meters":13600,"station_id":"cpo3532slgdg3j2ikp40","pricing_plan_id":"cebpf4jnsgd1na2vs0mg"},{"bike_id":"e92a5181-3093-4535-adde-2230374de0aa","system_id":"levelo_inurba_marseille","lat":43.31325,"lon":5.37702,"is_reserved":false,"is_disabled":false,"rental_uris":{"android":"levelo://app?vid=e92a5181-3093-4535-adde-2230374de0aa","ios":"levelo://app?vid=e92a5181-3093-4535-adde-2230374de0aa"},"vehicle_type_id":"4","last_reported":1761581618,"current_range_meters":13600,"station_id":"","pricing_plan_id":"cebpf4jnsgd1na2vs0mg"},{"bike_id":"7b0ba749-a440-4dce-a251-3b2ae7b096f7","system_id":"levelo_inurba_marseille","lat":43.2655,"lon":5.37286,"is_reserved":false,"is_disabled":false,"rental_uris":{"android":"levelo://app?vid=7b0ba749-a440-4dce-a251-3b2ae7b096f7","ios":"levelo://app?vid=7b0ba749-a440-4dce-a251-3b2ae7b096f7"},"vehicle_type_id":"4","last_reported":1761581618,"current_range_meters":13600,"station_id":"ce4bhg12rcd13ifvqf70","pricing_plan_id":"cebpf4jnsgd1na2vs0mg"},{"bike_id":"1b7829fd-c993-41fc-94f6-0cddf3da8a25","system_id":"levelo_inurba_marseille","lat":43.248112,"lon":5.374637,"is_reserved":false,"is_disabled":false,"rental_uris":{"android":"levelo://app?vid=1b7829fd-c993-41fc-94f6-0cddf3da8a25","ios":"levelo://app?vid=1b7829fd-c993-41fc-94f6-0cddf3da8a25"},"vehicle_type_id":"4","last_reported":1761581618,"current_range_meters":13600,"station_id":"ce4bhgh2rcd13ifvqfb0","pricing_plan_id":"cebpf4jnsgd1na2vs0mg"},{"bike_id":"763dedad-f3f7-4198-bc42-a8f8d4bc1d9e","system_id":"levelo_inurba_marseille","lat":43.22933,"lon":5.35378,"is_reserved":false,"is_disabled":false,"rental_uris":{"android":"levelo://app?vid=763dedad-f3f7-4198-bc42-a8f8d4bc1d9e","ios":"levelo://app?vid=763dedad-f3f7-4198-bc42-a8f8d4bc1d9e"},"vehicle_type_id":"4","last_reported":1761581618,"current_range_meters":13600,"station_id":"cpo3532slgdg3j2ikp40","pricing_plan_id":"cebpf4jnsgd1na2vs0mg"},{"bike_id":"6b27b53b-ade4-4e59-9555-b40b30fb2fb2","system_id":"levelo_inurba_marseille","lat":43.25341,"lon":5.42148,"is_reserved":false,"is_disabled":false,"rental_uris":{"android":"levelo://app?vid=6b27b53b-ade4-4e59-9555-b40b30fb2fb2","ios":"levelo://app?vid=6b27b53b-ade4-4e59-9555-b40b30fb2fb2"},"vehicle_type_id":"4","last_reported":1761581618,"current_range_meters":13600,"station_id":"st_d2m65c5bi1j21697t3ng","pricing_plan_id":"cebpf4jnsgd1na2vs0mg"},{"bike_id":"1413f756-89ea-4cda-8257-a8a7f80b9d88","system_id":"levelo_inurba_marseille","lat":43.21183,"lon":5.35082,"is_reserved":false,"is_disabled":false,"rental_uris":{"android":"levelo://app?vid=1413f756-89ea-4cda-8257-a8a7f80b9d88","ios":"levelo://app?vid=1413f756-89ea-4cda-8257-a8a7f80b9d88"},"vehicle_type_id":"4","last_reported":1761581618,"current_range_meters":14000,"station_id":"st_cvj6sg6p6f1abm77japg","pricing_plan_id":"cebpf4jnsgd1na2vs0mg"},{"bike_id":"2319520a-fc10-4ea5-a5ca-d3a4702f6c7b","system_id":"levelo_inurba_marseille","lat":43.29911,"lon":5.43653,"is_reserved":false,"is_disabled":true,"rental_uris":{"android":"levelo://app?vid=2319520a-fc10-4ea5-a5ca-d3a4702f6c7b","ios":"levelo://app?vid=2319520a-fc10-4ea5-a5ca-d3a4702f6c7b"},"vehicle_type_id":"4","last_reported":1761581618,"current_range_meters":14000,"station_id":"ce4bhpp2rcd13ifvqhfg","pricing_plan_id":"cebpf4jnsgd1na2vs0mg"},{"bike_id":"ec614269-63be-4224-891f-5add9b0d3a55","system_id":"levelo_inurba_marseille","lat":43.30247,"lon":5.40066,"is_reserved":false,"is_disabled":false,"rental_uris":{"android":"levelo://app?vid=ec614269-63be-4224-891f-5add9b0d3a55","ios":"levelo://app?vid=ec614269-63be-4224-891f-5add9b0d3a55"},"vehicle_type_id":"4","last_reported":1761581618,"current_range_meters":14000,"station_id":"ce4bgvh2rcd13ifvqcs0","pricing_plan_id":"cebpf4jnsgd1na2vs0mg"},{"bike_id":"fdc43030-5704-454e-ad42-cd94061c06a1","system_id":"levelo_inurba_marseille","lat":43.32112,"lon":5.3678,"is_reserved":false,"is_disabled":false,"rental_uris":{"android":"levelo://app?vid=fdc43030-5704-454e-ad42-cd94061c06a1","ios":"levelo://app?vid=fdc43030-5704-454e-ad42-cd94061c06a1"},"vehicle_type_id":"4","last_reported":1761581618,"current_range_meters":14000,"station_id":"ce4bhrh2rcd13ifvqhug","pricing_plan_id":"cebpf4jnsgd1na2vs0mg"},{"bike_id":"d7e10567-5cf9-46b6-b177-742874b8ca9f","system_id":"levelo_inurba_marseille","lat":43.2842,"lon":5.34978,"is_reserved":false,"is_disabled":false,"rental_uris":{"android":"levelo://app?vid=d7e10567-5cf9-46b6-b177-742874b8ca9f","ios":"levelo://app?vid=d7e10567-5cf9-46b6-b177-742874b8ca9f"},"vehicle_type_id":"4","last_reported":1761581618,"current_range_meters":14400,"station_id":"ce4bhbh2rcd13ifvqepg","pricing_plan_id":"cebpf4jnsgd1na2vs0mg"},{"bike_id":"1880ebb9-7edb-463e-976b-226e958b9ebe","system_id":"levelo_inurba_marseille","lat":43.31097,"lon":5.37487,"is_reserved":false,"is_disabled":false,"rental_uris":{"android":"levelo://app?vid=1880ebb9-7edb-463e-976b-226e958b9ebe","ios":"levelo://app?vid=1880ebb9-7edb-463e-976b-226e958b9ebe"},"vehicle_type_id":"4","last_reported":1761581618,"current_range_meters":14400,"station_id":"ce4bgt12rcd13ifvqce0","pricing_plan_id":"cebpf4jnsgd1na2vs0mg"},{"bike_id":"93ef566c-0909-48d1-8deb-d11c9c5aea5b","system_id":"levelo_inurba_marseille","lat":43.32366,"lon":5.3676,"is_reserved":false,"is_disabled":false,"rental_uris":{"android":"levelo://app?vid=93ef566c-0909-48d1-8deb-d11c9c5aea5b","ios":"levelo://app?vid=93ef566c-0909-48d1-8deb-d11c9c5aea5b"},"vehicle_type_id":"4","last_reported":1761581618,"current_range_meters":14400,"station_id":"ce4bhsh2rcd13ifvqi2g","pricing_plan_id":"cebpf4jnsgd1na2vs0mg"},{"bike_id":"72692e77-b537-477c-ba7d-fdff69794bfb","system_id":"levelo_inurba_marseille","lat":43.25329,"lon":5.42169,"is_reserved":false,"is_disabled":false,"rental_uris":{"android":"levelo://app?vid=72692e77-b537-477c-ba7d-fdff69794bfb","ios":"levelo://app?vid=72692e77-b537-477c-ba7d-fdff69794bfb"},"vehicle_type_id":"4","last_reported":1761581618,"current_range_meters":14400,"station_id":"st_d2m65c5bi1j21697t3ng","pricing_plan_id":"cebpf4jnsgd1na2vs0mg"},{"bike_id":"2b1439df-3719-4969-b4f4-03e89e796f35","system_id":"levelo_inurba_marseille","lat":43.2971,"lon":5.36611,"is_reserved":false,"is_disabled":false,"rental_uris":{"android":"levelo://app?vid=2b1439df-3719-4969-b4f4-03e89e796f35","ios":"levelo://app?vid=2b1439df-3719-4969-b4f4-03e89e796f35"},"vehicle_type_id":"4","last_reported":1761581618,"current_range_meters":14800,"station_id":"ce4bgn12rcd13ifvqbt0","pricing_plan_id":"cebpf4jnsgd1na2vs0mg"},{"bike_id":"897b48e6-fe09-4c2f-bdc8-402f796b7021","system_id":"levelo_inurba_marseille","lat":43.29578,"lon":5.39983,"is_reserved":false,"is_disabled":false,"rental_uris":{"android":"levelo://app?vid=897b48e6-fe09-4c2f-bdc8-402f796b7021","ios":"levelo://app?vid=897b48e6-fe09-4c2f-bdc8-402f796b7021"},"vehicle_type_id":"4","last_reported":1761581618,"current_range_meters":14800,"station_id":"ce4bh312rcd13ifvqdj0","pricing_plan_id":"cebpf4jnsgd1na2vs0mg"},{"bike_id":"0b4cc5f4-c6b9-4e81-8ba9-74cdecab57fb","system_id":"levelo_inurba_marseille","lat":43.2615,"lon":5.41762,"is_reserved":false,"is_disabled":false,"rental_uris":{"android":"levelo://app?vid=0b4cc5f4-c6b9-4e81-8ba9-74cdecab57fb","ios":"levelo://app?vid=0b4cc5f4-c6b9-4e81-8ba9-74cdecab57fb"},"vehicle_type_id":"4","last_reported":1761581618,"current_range_meters":14800,"station_id":"","pricing_plan_id":"cebpf4jnsgd1na2vs0mg"},{"bike_id":"a3100ff0-76ab-498b-bebf-b9c52f3d2538","system_id":"levelo_inurba_marseille","lat":43.28597,"lon":5.48357,"is_reserved":false,"is_disabled":false,"rental_uris":{"android":"levelo://app?vid=a3100ff0-76ab-498b-bebf-b9c52f3d2538","ios":"levelo://app?vid=a3100ff0-76ab-498b-bebf-b9c52f3d2538"},"vehicle_type_id":"4","last_reported":1761581618,"current_range_meters":14800,"station_id":"","pricing_plan_id":"cebpf4jnsgd1na2vs0mg"},{"bike_id":"83536f7a-d112-4e66-93f8-0eb25d87ed5c","system_id":"levelo_inurba_marseille","lat":43.30329,"lon":5.40434,"is_reserved":false,"is_disabled":false,"rental_uris":{"android":"levelo://app?vid=83536f7a-d112-4e66-93f8-0eb25d87ed5c","ios":"levelo://app?vid=83536f7a-d112-4e66-93f8-0eb25d87ed5c"},"vehicle_type_id":"4","last_reported":1761581618,"current_range_meters":14800,"station_id":"ce4bh012rcd13ifvqd10","pricing_plan_id":"cebpf4jnsgd1na2vs0mg"},{"bike_id":"1c667fd4-315c-483a-a49a-36bd2157cae8","system_id":"levelo_inurba_marseille","lat":43.30252,"lon":5.40082,"is_reserved":false,"is_disabled":false,"rental_uris":{"android":"levelo://app?vid=1c667fd4-315c-483a-a49a-36bd2157cae8","ios":"levelo://app?vid=1c667fd4-315c-483a-a49a-36bd2157cae8"},"vehicle_type_id":"4","last_reported":1761581618,"current_range_meters":14800,"station_id":"ce4bgvh2rcd13ifvqcs0","pricing_plan_id":"cebpf4jnsgd1na2vs0mg"},{"bike_id":"e00be3b0-6341-498c-8ea3-bf9a468b4421","system_id":"levelo_inurba_marseille","lat":43.29969,"lon":5.38493,"is_reserved":false,"is_disabled":false,"rental_uris":{"android":"levelo://app?vid=e00be3b0-6341-498c-8ea3-bf9a468b4421","ios":"levelo://app?vid=e00be3b0-6341-498c-8ea3-bf9a468b4421"},"vehicle_type_id":"4","last_reported":1761581618,"current_range_meters":14800,"station_id":"ce4bgj92rcd13ifvqbd0","pricing_plan_id":"cebpf4jnsgd1na2vs0mg"},{"bike_id":"f63fe117-f283-4c81-ac8d-688570b45467","system_id":"levelo_inurba_marseille","lat":43.287203,"lon":5.37369,"is_reserved":false,"is_disabled":false,"rental_uris":{"android":"levelo://app?vid=f63fe117-f283-4c81-ac8d-688570b45467","ios":"levelo://app?vid=f63fe117-f283-4c81-ac8d-688570b45467"},"vehicle_type_id":"4","last_reported":1761581618,"current_range_meters":15200,"station_id":"ce4bh5p2rcd13ifvqe4g","pricing_plan_id":"cebpf4jnsgd1na2vs0mg"},{"bike_id":"a507e789-f440-40a8-85cf-09841d81676c","system_id":"levelo_inurba_marseille","lat":43.22509,"lon":5.34894,"is_reserved":false,"is_disabled":false,"rental_uris":{"android":"levelo://app?vid=a507e789-f440-40a8-85cf-09841d81676c","ios":"levelo://app?vid=a507e789-f440-40a8-85cf-09841d81676c"},"vehicle_type_id":"4","last_reported":1761581618,"current_range_meters":15200,"station_id":"","pricing_plan_id":"cebpf4jnsgd1na2vs0mg"},{"bike_id":"eea3c3c3-734f-4fd3-8061-ed84cfe47b38","system_id":"levelo_inurba_marseille","lat":43.32572,"lon":5.39162,"is_reserved":false,"is_disabled":false,"rental_uris":{"android":"levelo://app?vid=eea3c3c3-734f-4fd3-8061-ed84cfe47b38","ios":"levelo://app?vid=eea3c3c3-734f-4fd3-8061-ed84cfe47b38"},"vehicle_type_id":"4","last_reported":1761581618,"current_range_meters":15200,"station_id":"","pricing_plan_id":"cebpf4jnsgd1na2vs0mg"},{"bike_id":"8c71c05b-dd29-470b-8b05-4159f459865a","system_id":"levelo_inurba_marseille","lat":43.27677,"lon":5.38917,"is_reserved":false,"is_disabled":false,"rental_uris":{"android":"levelo://app?vid=8c71c05b-dd29-470b-8b05-4159f459865a","ios":"levelo://app?vid=8c71c05b-dd29-470b-8b05-4159f459865a"},"vehicle_type_id":"4","last_reported":1761581618,"current_range_meters":15200,"station_id":"ce4bhi12rcd13ifvqfo0","pricing_plan_id":"cebpf4jnsgd1na2vs0mg"},{"bike_id":"99c35bc4-9b23-47bf-adb0-b876259c2867","system_id":"levelo_inurba_marseille","lat":43.29577,"lon":5.37895,"is_reserved":false,"is_disabled":false,"rental_uris":{"android":"levelo://app?vid=99c35bc4-9b23-47bf-adb0-b876259c2867","ios":"levelo://app?vid=99c35bc4-9b23-47bf-adb0-b876259c2867"},"vehicle_type_id":"4","last_reported":1761581618,"current_range_meters":15200,"station_id":"","pricing_plan_id":"cebpf4jnsgd1na2vs0mg"},{"bike_id":"0045d293-fc25-4f9a-9434-47036bd87e67","system_id":"levelo_inurba_marseille","lat":43.229277,"lon":5.353778,"is_reserved":false,"is_disabled":false,"rental_uris":{"android":"levelo://app?vid=0045d293-fc25-4f9a-9434-47036bd87e67","ios":"levelo://app?vid=0045d293-fc25-4f9a-9434-47036bd87e67"},"vehicle_type_id":"4","last_reported":1761581618,"current_range_meters":16000,"station_id":"cpo3532slgdg3j2ikp40","pricing_plan_id":"cebpf4jnsgd1na2vs0mg"},{"bike_id":"c59095c9-3f92-49bc-aff7-b03ca7962a9c","system_id":"levelo_inurba_marseille","lat":43.295194,"lon":5.390416,"is_reserved":false,"is_disabled":false,"rental_uris":{"android":"levelo://app?vid=c59095c9-3f92-49bc-aff7-b03ca7962a9c","ios":"levelo://app?vid=c59095c9-3f92-49bc-aff7-b03ca7962a9c"},"vehicle_type_id":"4","last_reported":1761581618,"current_range_meters":16000,"station_id":"ce4bh3p2rcd13ifvqdp0","pricing_plan_id":"cebpf4jnsgd1na2vs0mg"},{"bike_id":"324ea2ec-a320-4120-bb96-3aa1395a0b2f","system_id":"levelo_inurba_marseille","lat":43.28706,"lon":5.37943,"is_reserved":false,"is_disabled":false,"rental_uris":{"android":"levelo://app?vid=324ea2ec-a320-4120-bb96-3aa1395a0b2f","ios":"levelo://app?vid=324ea2ec-a320-4120-bb96-3aa1395a0b2f"},"vehicle_type_id":"4","last_reported":1761581618,"current_range_meters":16000,"station_id":"ce4bh9p2rcd13ifvqec0","pricing_plan_id":"cebpf4jnsgd1na2vs0mg"},{"bike_id":"ace0f855-4c90-49ef-95ae-f91dea23478f","system_id":"levelo_inurba_marseille","lat":43.26203,"lon":5.3745,"is_reserved":false,"is_disabled":false,"rental_uris":{"android":"levelo://app?vid=ace0f855-4c90-49ef-95ae-f91dea23478f","ios":"levelo://app?vid=ace0f855-4c90-49ef-95ae-f91dea23478f"},"vehicle_type_id":"4","last_reported":1761581618,"current_range_meters":16000,"station_id":"ce4bhgp2rcd13ifvqfc0","pricing_plan_id":"cebpf4jnsgd1na2vs0mg"},{"bike_id":"21dbf7f2-eb19-4663-b1c0-879822879492","system_id":"levelo_inurba_marseille","lat":43.337631,"lon":5.374577,"is_reserved":false,"is_disabled":false,"rental_uris":{"android":"levelo://app?vid=21dbf7f2-eb19-4663-b1c0-879822879492","ios":"levelo://app?vid=21dbf7f2-eb19-4663-b1c0-879822879492"},"vehicle_type_id":"4","last_reported":1761581618,"current_range_meters":16000,"station_id":"","pricing_plan_id":"cebpf4jnsgd1na2vs0mg"},{"bike_id":"c2cd8f4e-6ff1-41f4-a719-dbf167928b6f","system_id":"levelo_inurba_marseille","lat":43.298509,"lon":5.362882,"is_reserved":false,"is_disabled":false,"rental_uris":{"android":"levelo://app?vid=c2cd8f4e-6ff1-41f4-a719-dbf167928b6f","ios":"levelo://app?vid=c2cd8f4e-6ff1-41f4-a719-dbf167928b6f"},"vehicle_type_id":"4","last_reported":1761581618,"current_range_meters":16000,"station_id":"ce4bgpp2rcd13ifvqc3g","pricing_plan_id":"cebpf4jnsgd1na2vs0mg"},{"bike_id":"dc62bd87-47b1-41c4-b555-524d10287f5a","system_id":"levelo_inurba_marseille","lat":43.30882,"lon":5.37197,"is_reserved":false,"is_disabled":false,"rental_uris":{"android":"levelo://app?vid=dc62bd87-47b1-41c4-b555-524d10287f5a","ios":"levelo://app?vid=dc62bd87-47b1-41c4-b555-524d10287f5a"},"vehicle_type_id":"4","last_reported":1761581618,"current_range_meters":16400,"station_id":"ce4bguh2rcd13ifvqckg","pricing_plan_id":"cebpf4jnsgd1na2vs0mg"},{"bike_id":"9fbd96ee-563a-43f7-87fd-6fffaeedac55","system_id":"levelo_inurba_marseille","lat":43.25861,"lon":5.39911,"is_reserved":false,"is_disabled":true,"rental_uris":{"android":"levelo://app?vid=9fbd96ee-563a-43f7-87fd-6fffaeedac55","ios":"levelo://app?vid=9fbd96ee-563a-43f7-87fd-6fffaeedac55"},"vehicle_type_id":"4","last_reported":1761581618,"current_range_meters":16400,"station_id":"ce4bhl92rcd13ifvqghg","pricing_plan_id":"cebpf4jnsgd1na2vs0mg"},{"bike_id":"dac59d94-5f8c-49a8-aaff-998411484e05","system_id":"levelo_inurba_marseille","lat":43.29606,"lon":5.37714,"is_reserved":false,"is_disabled":false,"rental_uris":{"android":"levelo://app?vid=dac59d94-5f8c-49a8-aaff-998411484e05","ios":"levelo://app?vid=dac59d94-5f8c-49a8-aaff-998411484e05"},"vehicle_type_id":"4","last_reported":1761581618,"current_range_meters":16400,"station_id":"ce4bgi92rcd13ifvqb90","pricing_plan_id":"cebpf4jnsgd1na2vs0mg"},{"bike_id":"16a05fad-a689-4603-a185-740f34463e70","system_id":"levelo_inurba_marseille","lat":43.29577,"lon":5.37519,"is_reserved":false,"is_disabled":false,"rental_uris":{"android":"levelo://app?vid=16a05fad-a689-4603-a185-740f34463e70","ios":"levelo://app?vid=16a05fad-a689-4603-a185-740f34463e70"},"vehicle_type_id":"4","last_reported":1761581618,"current_range_meters":16400,"station_id":"ce4bgh92rcd13ifvqb50","pricing_plan_id":"cebpf4jnsgd1na2vs0mg"},{"bike_id":"b1ad8432-4d89-45ac-bb7c-60194adfd7f9","system_id":"levelo_inurba_marseille","lat":43.29492,"lon":5.43306,"is_reserved":false,"is_disabled":false,"rental_uris":{"android":"levelo://app?vid=b1ad8432-4d89-45ac-bb7c-60194adfd7f9","ios":"levelo://app?vid=b1ad8432-4d89-45ac-bb7c-60194adfd7f9"},"vehicle_type_id":"4","last_reported":1761581618,"current_range_meters":16400,"station_id":"st_d3j5ugp08ojc73fj9d10","pricing_plan_id":"cebpf4jnsgd1na2vs0mg"},{"bike_id":"b689a5bf-875d-4ab1-9212-a71e85899faa","system_id":"levelo_inurba_marseille","lat":43.29753,"lon":5.42788,"is_reserved":false,"is_disabled":false,"rental_uris":{"android":"levelo://app?vid=b689a5bf-875d-4ab1-9212-a71e85899faa","ios":"levelo://app?vid=b689a5bf-875d-4ab1-9212-a71e85899faa"},"vehicle_type_id":"4","last_reported":1761581618,"current_range_meters":16800,"station_id":"st_d3md5207bmas73dh9klg","pricing_plan_id":"cebpf4jnsgd1na2vs0mg"},{"bike_id":"7b1b6fda-acbf-4bcc-9c4e-eb02a7bb672a","system_id":"levelo_inurba_marseille","lat":43.24168,"lon":5.36393,"is_reserved":false,"is_disabled":false,"rental_uris":{"android":"levelo://app?vid=7b1b6fda-acbf-4bcc-9c4e-eb02a7bb672a","ios":"levelo://app?vid=7b1b6fda-acbf-4bcc-9c4e-eb02a7bb672a"},"vehicle_type_id":"4","last_reported":1761581618,"current_range_meters":16800,"station_id":"cpo36qri1sfpv3e86is0","pricing_plan_id":"cebpf4jnsgd1na2vs0mg"},{"bike_id":"2828efe4-95a2-492d-8fec-9c5f369e9f8e","system_id":"levelo_inurba_marseille","lat":43.28267,"lon":5.35064,"is_reserved":false,"is_disabled":false,"rental_uris":{"android":"levelo://app?vid=2828efe4-95a2-492d-8fec-9c5f369e9f8e","ios":"levelo://app?vid=2828efe4-95a2-492d-8fec-9c5f369e9f8e"},"vehicle_type_id":"4","last_reported":1761581618,"current_range_meters":16800,"station_id":"ce4bhbp2rcd13ifvqerg","pricing_plan_id":"cebpf4jnsgd1na2vs0mg"},{"bike_id":"d1d0aa62-4a5a-4c9e-a0e9-2e25f081c01a","system_id":"levelo_inurba_marseille","lat":43.26208,"lon":5.374376,"is_reserved":false,"is_disabled":false,"rental_uris":{"android":"levelo://app?vid=d1d0aa62-4a5a-4c9e-a0e9-2e25f081c01a","ios":"levelo://app?vid=d1d0aa62-4a5a-4c9e-a0e9-2e25f081c01a"},"vehicle_type_id":"4","last_reported":1761581618,"current_range_meters":16800,"station_id":"ce4bhgp2rcd13ifvqfc0","pricing_plan_id":"cebpf4jnsgd1na2vs0mg"},{"bike_id":"db120ad3-94b9-4a78-96a4-34311bf3ae50","system_id":"levelo_inurba_marseille","lat":43.30089,"lon":5.3908,"is_reserved":false,"is_disabled":false,"rental_uris":{"android":"levelo://app?vid=db120ad3-94b9-4a78-96a4-34311bf3ae50","ios":"levelo://app?vid=db120ad3-94b9-4a78-96a4-34311bf3ae50"},"vehicle_type_id":"4","last_reported":1761581618,"current_range_meters":16800,"station_id":"ce4bh192rcd13ifvqdb0","pricing_plan_id":"cebpf4jnsgd1na2vs0mg"},{"bike_id":"d5ca831f-8041-403e-ada8-7b4196c3d5be","system_id":"levelo_inurba_marseille","lat":43.293714,"lon":5.379385,"is_reserved":false,"is_disabled":false,"rental_uris":{"android":"levelo://app?vid=d5ca831f-8041-403e-ada8-7b4196c3d5be","ios":"levelo://app?vid=d5ca831f-8041-403e-ada8-7b4196c3d5be"},"vehicle_type_id":"4","last_reported":1761581618,"current_range_meters":16800,"station_id":"","pricing_plan_id":"cebpf4jnsgd1na2vs0mg"},{"bike_id":"d7b556e6-ac3d-4fe4-b136-c7cd05c756e3","system_id":"levelo_inurba_marseille","lat":43.2306,"lon":5.35505,"is_reserved":false,"is_disabled":false,"rental_uris":{"android":"levelo://app?vid=d7b556e6-ac3d-4fe4-b136-c7cd05c756e3","ios":"levelo://app?vid=d7b556e6-ac3d-4fe4-b136-c7cd05c756e3"},"vehicle_type_id":"4","last_reported":1761581618,"current_range_meters":17200,"station_id":"cpo3342slgdg3j2ifvpg","pricing_plan_id":"cebpf4jnsgd1na2vs0mg"},{"bike_id":"bb67c3b0-2743-4c3b-9eec-5571be98e567","system_id":"levelo_inurba_marseille","lat":43.26552,"lon":5.37286,"is_reserved":false,"is_disabled":false,"rental_uris":{"android":"levelo://app?vid=bb67c3b0-2743-4c3b-9eec-5571be98e567","ios":"levelo://app?vid=bb67c3b0-2743-4c3b-9eec-5571be98e567"},"vehicle_type_id":"4","last_reported":1761581618,"current_range_meters":17200,"station_id":"ce4bhg12rcd13ifvqf70","pricing_plan_id":"cebpf4jnsgd1na2vs0mg"},{"bike_id":"0709da96-3569-4b3f-9bc8-3bb4680af42a","system_id":"levelo_inurba_marseille","lat":43.31522,"lon":5.37324,"is_reserved":false,"is_disabled":false,"rental_uris":{"android":"levelo://app?vid=0709da96-3569-4b3f-9bc8-3bb4680af42a","ios":"levelo://app?vid=0709da96-3569-4b3f-9bc8-3bb4680af42a"},"vehicle_type_id":"4","last_reported":1761581618,"current_range_meters":17200,"station_id":"ce4bgt12rcd13ifvqcd0","pricing_plan_id":"cebpf4jnsgd1na2vs0mg"},{"bike_id":"d375b214-5136-4d0f-804a-58356493220e","system_id":"levelo_inurba_marseille","lat":43.27369,"lon":5.36264,"is_reserved":false,"is_disabled":false,"rental_uris":{"android":"levelo://app?vid=d375b214-5136-4d0f-804a-58356493220e","ios":"levelo://app?vid=d375b214-5136-4d0f-804a-58356493220e"},"vehicle_type_id":"4","last_reported":1761581618,"current_range_meters":17200,"station_id":"ce4bhbh2rcd13ifvqeo0","pricing_plan_id":"cebpf4jnsgd1na2vs0mg"},{"bike_id":"6ea19957-39de-4d5d-91d2-979657fc1993","system_id":"levelo_inurba_marseille","lat":43.262164,"lon":5.37444,"is_reserved":false,"is_disabled":false,"rental_uris":{"android":"levelo://app?vid=6ea19957-39de-4d5d-91d2-979657fc1993","ios":"levelo://app?vid=6ea19957-39de-4d5d-91d2-979657fc1993"},"vehicle_type_id":"4","last_reported":1761581618,"current_range_meters":17200,"station_id":"ce4bhgp2rcd13ifvqfc0","pricing_plan_id":"cebpf4jnsgd1na2vs0mg"},{"bike_id":"584373b2-7857-4514-ba1b-a8cbf8f807e7","system_id":"levelo_inurba_marseille","lat":43.29865,"lon":5.36283,"is_reserved":false,"is_disabled":false,"rental_uris":{"android":"levelo://app?vid=584373b2-7857-4514-ba1b-a8cbf8f807e7","ios":"levelo://app?vid=584373b2-7857-4514-ba1b-a8cbf8f807e7"},"vehicle_type_id":"4","last_reported":1761581618,"current_range_meters":17600,"station_id":"ce4bgpp2rcd13ifvqc3g","pricing_plan_id":"cebpf4jnsgd1na2vs0mg"},{"bike_id":"f46f6b6e-a6e9-43ee-a1cd-7ce8e567b50d","system_id":"levelo_inurba_marseille","lat":43.29262,"lon":5.38437,"is_reserved":false,"is_disabled":false,"rental_uris":{"android":"levelo://app?vid=f46f6b6e-a6e9-43ee-a1cd-7ce8e567b50d","ios":"levelo://app?vid=f46f6b6e-a6e9-43ee-a1cd-7ce8e567b50d"},"vehicle_type_id":"4","last_reported":1761581618,"current_range_meters":17600,"station_id":"ce4bh692rcd13ifvqea0","pricing_plan_id":"cebpf4jnsgd1na2vs0mg"},{"bike_id":"1ac6c94f-608f-4e25-8205-7130058e464e","system_id":"levelo_inurba_marseille","lat":43.30461,"lon":5.37906,"is_reserved":false,"is_disabled":false,"rental_uris":{"android":"levelo://app?vid=1ac6c94f-608f-4e25-8205-7130058e464e","ios":"levelo://app?vid=1ac6c94f-608f-4e25-8205-7130058e464e"},"vehicle_type_id":"4","last_reported":1761581618,"current_range_meters":17600,"station_id":"ce4bgup2rcd13ifvqcn0","pricing_plan_id":"cebpf4jnsgd1na2vs0mg"},{"bike_id":"2484d73d-0ed9-4aeb-b08e-8d8cbd56d7f7","system_id":"levelo_inurba_marseille","lat":43.312379,"lon":5.368484,"is_reserved":false,"is_disabled":false,"rental_uris":{"android":"levelo://app?vid=2484d73d-0ed9-4aeb-b08e-8d8cbd56d7f7","ios":"levelo://app?vid=2484d73d-0ed9-4aeb-b08e-8d8cbd56d7f7"},"vehicle_type_id":"4","last_reported":1761581618,"current_range_meters":17600,"station_id":"ce4bgr92rcd13ifvqc6g","pricing_plan_id":"cebpf4jnsgd1na2vs0mg"},{"bike_id":"72ff869f-50e0-4045-a920-3ad975f90c2e","system_id":"levelo_inurba_marseille","lat":43.323719,"lon":5.367638,"is_reserved":false,"is_disabled":false,"rental_uris":{"android":"levelo://app?vid=72ff869f-50e0-4045-a920-3ad975f90c2e","ios":"levelo://app?vid=72ff869f-50e0-4045-a920-3ad975f90c2e"},"vehicle_type_id":"4","last_reported":1761581618,"current_range_meters":17600,"station_id":"ce4bhsh2rcd13ifvqi2g","pricing_plan_id":"cebpf4jnsgd1na2vs0mg"},{"bike_id":"a630ed88-3f05-4926-bbab-8387ab6b6a28","system_id":"levelo_inurba_marseille","lat":43.23135,"lon":5.43723,"is_reserved":false,"is_disabled":true,"rental_uris":{"android":"levelo://app?vid=a630ed88-3f05-4926-bbab-8387ab6b6a28","ios":"levelo://app?vid=a630ed88-3f05-4926-bbab-8387ab6b6a28"},"vehicle_type_id":"4","last_reported":1761581618,"current_range_meters":17600,"station_id":"ce4bhmp2rcd13ifvqgog","pricing_plan_id":"cebpf4jnsgd1na2vs0mg"},{"bike_id":"edf5f0fb-0959-44c0-b6b3-9db9d272d2c0","system_id":"levelo_inurba_marseille","lat":43.24188,"lon":5.39753,"is_reserved":false,"is_disabled":false,"rental_uris":{"android":"levelo://app?vid=edf5f0fb-0959-44c0-b6b3-9db9d272d2c0","ios":"levelo://app?vid=edf5f0fb-0959-44c0-b6b3-9db9d272d2c0"},"vehicle_type_id":"4","last_reported":1761581618,"current_range_meters":18000,"station_id":"ce4bhn12rcd13ifvqgpg","pricing_plan_id":"cebpf4jnsgd1na2vs0mg"},{"bike_id":"74cd8338-a4b2-42fe-9981-9f2d2909db46","system_id":"levelo_inurba_marseille","lat":43.295224,"lon":5.390421,"is_reserved":false,"is_disabled":false,"rental_uris":{"android":"levelo://app?vid=74cd8338-a4b2-42fe-9981-9f2d2909db46","ios":"levelo://app?vid=74cd8338-a4b2-42fe-9981-9f2d2909db46"},"vehicle_type_id":"4","last_reported":1761581618,"current_range_meters":18000,"station_id":"ce4bh3p2rcd13ifvqdp0","pricing_plan_id":"cebpf4jnsgd1na2vs0mg"},{"bike_id":"bbe29601-456a-4f6c-a632-1fbdf6986e13","system_id":"levelo_inurba_marseille","lat":43.2931,"lon":5.37179,"is_reserved":false,"is_disabled":false,"rental_uris":{"android":"levelo://app?vid=bbe29601-456a-4f6c-a632-1fbdf6986e13","ios":"levelo://app?vid=bbe29601-456a-4f6c-a632-1fbdf6986e13"},"vehicle_type_id":"4","last_reported":1761581618,"current_range_meters":18000,"station_id":"ce4bgh92rcd13ifvqb40","pricing_plan_id":"cebpf4jnsgd1na2vs0mg"},{"bike_id":"e1ca1064-3ac1-495e-b8d2-df8047d11b2e","system_id":"levelo_inurba_marseille","lat":43.28483,"lon":5.48394,"is_reserved":false,"is_disabled":false,"rental_uris":{"android":"levelo://app?vid=e1ca1064-3ac1-495e-b8d2-df8047d11b2e","ios":"levelo://app?vid=e1ca1064-3ac1-495e-b8d2-df8047d11b2e"},"vehicle_type_id":"4","last_reported":1761581618,"current_range_meters":18000,"station_id":"st_d3svhcjqgbts73a3dn0g","pricing_plan_id":"cebpf4jnsgd1na2vs0mg"},{"bike_id":"20a474fe-7379-43ef-bb84-814e5d635b68","system_id":"levelo_inurba_marseille","lat":43.29816,"lon":5.38087,"is_reserved":false,"is_disabled":false,"rental_uris":{"android":"levelo://app?vid=20a474fe-7379-43ef-bb84-814e5d635b68","ios":"levelo://app?vid=20a474fe-7379-43ef-bb84-814e5d635b68"},"vehicle_type_id":"4","last_reported":1761581618,"current_range_meters":18000,"station_id":"ce4bgip2rcd13ifvqbb0","pricing_plan_id":"cebpf4jnsgd1na2vs0mg"},{"bike_id":"d44163ee-bf99-41e8-a621-933180398129","system_id":"levelo_inurba_marseille","lat":43.29253,"lon":5.40901,"is_reserved":false,"is_disabled":false,"rental_uris":{"android":"levelo://app?vid=d44163ee-bf99-41e8-a621-933180398129","ios":"levelo://app?vid=d44163ee-bf99-41e8-a621-933180398129"},"vehicle_type_id":"4","last_reported":1761581618,"current_range_meters":18800,"station_id":"ce4bh192rcd13ifvqdc0","pricing_plan_id":"cebpf4jnsgd1na2vs0mg"},{"bike_id":"93efad5d-3835-4080-840a-38a46bf145b1","system_id":"levelo_inurba_marseille","lat":43.23191,"lon":5.35545,"is_reserved":false,"is_disabled":false,"rental_uris":{"android":"levelo://app?vid=93efad5d-3835-4080-840a-38a46bf145b1","ios":"levelo://app?vid=93efad5d-3835-4080-840a-38a46bf145b1"},"vehicle_type_id":"4","last_reported":1761581618,"current_range_meters":18800,"station_id":"ce4bhu92rcd13ifvqi70","pricing_plan_id":"cebpf4jnsgd1na2vs0mg"},{"bike_id":"310e927d-d5b8-4a6f-82be-2d623690659d","system_id":"levelo_inurba_marseille","lat":43.31281,"lon":5.37792,"is_reserved":false,"is_disabled":false,"rental_uris":{"android":"levelo://app?vid=310e927d-d5b8-4a6f-82be-2d623690659d","ios":"levelo://app?vid=310e927d-d5b8-4a6f-82be-2d623690659d"},"vehicle_type_id":"4","last_reported":1761581618,"current_range_meters":18800,"station_id":"","pricing_plan_id":"cebpf4jnsgd1na2vs0mg"},{"bike_id":"18533887-edc0-462f-906b-30d7e59ddff0","system_id":"levelo_inurba_marseille","lat":43.30273,"lon":5.37712,"is_reserved":false,"is_disabled":false,"rental_uris":{"android":"levelo://app?vid=18533887-edc0-462f-906b-30d7e59ddff0","ios":"levelo://app?vid=18533887-edc0-462f-906b-30d7e59ddff0"},"vehicle_type_id":"4","last_reported":1761581618,"current_range_meters":18800,"station_id":"ce4bguh2rcd13ifvqcj0","pricing_plan_id":"cebpf4jnsgd1na2vs0mg"},{"bike_id":"8957da31-2549-4ab6-abc0-615293ac1acd","system_id":"levelo_inurba_marseille","lat":43.2655,"lon":5.39018,"is_reserved":false,"is_disabled":true,"rental_uris":{"android":"levelo://app?vid=8957da31-2549-4ab6-abc0-615293ac1acd","ios":"levelo://app?vid=8957da31-2549-4ab6-abc0-615293ac1acd"},"vehicle_type_id":"4","last_reported":1761581618,"current_range_meters":18800,"station_id":"ce4bhe12rcd13ifvqf30","pricing_plan_id":"cebpf4jnsgd1na2vs0mg"},{"bike_id":"fdec29fc-d0b4-4597-a8ea-caf48d2ffc29","system_id":"levelo_inurba_marseille","lat":43.27213,"lon":5.39168,"is_reserved":false,"is_disabled":false,"rental_uris":{"android":"levelo://app?vid=fdec29fc-d0b4-4597-a8ea-caf48d2ffc29","ios":"levelo://app?vid=fdec29fc-d0b4-4597-a8ea-caf48d2ffc29"},"vehicle_type_id":"4","last_reported":1761581618,"current_range_meters":18800,"station_id":"ce4bhhp2rcd13ifvqfm0","pricing_plan_id":"cebpf4jnsgd1na2vs0mg"},{"bike_id":"c55fb844-a11d-478a-94e7-8905e76c6031","system_id":"levelo_inurba_marseille","lat":43.292728,"lon":5.408984,"is_reserved":false,"is_disabled":false,"rental_uris":{"android":"levelo://app?vid=c55fb844-a11d-478a-94e7-8905e76c6031","ios":"levelo://app?vid=c55fb844-a11d-478a-94e7-8905e76c6031"},"vehicle_type_id":"4","last_reported":1761581618,"current_range_meters":18800,"station_id":"ce4bh192rcd13ifvqdc0","pricing_plan_id":"cebpf4jnsgd1na2vs0mg"},{"bike_id":"021e2773-71f7-4902-84c6-5e91af9a8aba","system_id":"levelo_inurba_marseille","lat":43.295573,"lon":5.394809,"is_reserved":false,"is_disabled":false,"rental_uris":{"android":"levelo://app?vid=021e2773-71f7-4902-84c6-5e91af9a8aba","ios":"levelo://app?vid=021e2773-71f7-4902-84c6-5e91af9a8aba"},"vehicle_type_id":"4","last_reported":1761581618,"current_range_meters":18800,"station_id":"ce4bho92rcd13ifvqh4g","pricing_plan_id":"cebpf4jnsgd1na2vs0mg"},{"bike_id":"3a1b1f62-7c9d-42c7-bbcd-ec5a654cedbd","system_id":"levelo_inurba_marseille","lat":43.292945,"lon":5.374645,"is_reserved":false,"is_disabled":false,"rental_uris":{"android":"levelo://app?vid=3a1b1f62-7c9d-42c7-bbcd-ec5a654cedbd","ios":"levelo://app?vid=3a1b1f62-7c9d-42c7-bbcd-ec5a654cedbd"},"vehicle_type_id":"4","last_reported":1761581618,"current_range_meters":18800,"station_id":"ce4bgpp2rcd13ifvqc3g","pricing_plan_id":"cebpf4jnsgd1na2vs0mg"},{"bike_id":"15b08642-de3a-4ca6-9c3b-a9aaf4bb6c13","system_id":"levelo_inurba_marseille","lat":43.29567,"lon":5.39981,"is_reserved":false,"is_disabled":false,"rental_uris":{"android":"levelo://app?vid=15b08642-de3a-4ca6-9c3b-a9aaf4bb6c13","ios":"levelo://app?vid=15b08642-de3a-4ca6-9c3b-a9aaf4bb6c13"},"vehicle_type_id":"4","last_reported":1761581618,"current_range_meters":18800,"station_id":"ce4bh312rcd13ifvqdj0","pricing_plan_id":"cebpf4jnsgd1na2vs0mg"},{"bike_id":"657b2410-a444-48fa-b451-b810dd559f8d","system_id":"levelo_inurba_marseille","lat":43.28004,"lon":5.40018,"is_reserved":false,"is_disabled":false,"rental_uris":{"android":"levelo://app?vid=657b2410-a444-48fa-b451-b810dd559f8d","ios":"levelo://app?vid=657b2410-a444-48fa-b451-b810dd559f8d"},"vehicle_type_id":"4","last_reported":1761581618,"current_range_meters":18800,"station_id":"ce4bho92rcd13ifvqh4g","pricing_plan_id":"cebpf4jnsgd1na2vs0mg"},{"bike_id":"df58d520-285a-44d2-b020-823606a8d129","system_id":"levelo_inurba_marseille","lat":43.31053,"lon":5.38361,"is_reserved":false,"is_disabled":false,"rental_uris":{"android":"levelo://app?vid=df58d520-285a-44d2-b020-823606a8d129","ios":"levelo://app?vid=df58d520-285a-44d2-b020-823606a8d129"},"vehicle_type_id":"4","last_reported":1761581618,"current_range_meters":18800,"station_id":"ce4bgv92rcd13ifvqcr0","pricing_plan_id":"cebpf4jnsgd1na2vs0mg"},{"bike_id":"d5a49dbd-284f-44d1-bf21-988be425a5e5","system_id":"levelo_inurba_marseille","lat":43.25574,"lon":5.38232,"is_reserved":false,"is_disabled":true,"rental_uris":{"android":"levelo://app?vid=d5a49dbd-284f-44d1-bf21-988be425a5e5","ios":"levelo://app?vid=d5a49dbd-284f-44d1-bf21-988be425a5e5"},"vehicle_type_id":"4","last_reported":1761581618,"current_range_meters":19200,"station_id":"ce4bhih2rcd13ifvqfs0","pricing_plan_id":"cebpf4jnsgd1na2vs0mg"},{"bike_id":"a1c104ee-5116-4896-86c7-e83e773e6738","system_id":"levelo_inurba_marseille","lat":43.26945,"lon":5.38641,"is_reserved":false,"is_disabled":false,"rental_uris":{"android":"levelo://app?vid=a1c104ee-5116-4896-86c7-e83e773e6738","ios":"levelo://app?vid=a1c104ee-5116-4896-86c7-e83e773e6738"},"vehicle_type_id":"4","last_reported":1761581618,"current_range_meters":19200,"station_id":"ce4bhh92rcd13ifvqfh0","pricing_plan_id":"cebpf4jnsgd1na2vs0mg"},{"bike_id":"316ded5d-28c9-4663-be5c-04dc90d5b34c","system_id":"levelo_inurba_marseille","lat":43.2842,"lon":5.38736,"is_reserved":false,"is_disabled":false,"rental_uris":{"android":"levelo://app?vid=316ded5d-28c9-4663-be5c-04dc90d5b34c","ios":"levelo://app?vid=316ded5d-28c9-4663-be5c-04dc90d5b34c"},"vehicle_type_id":"4","last_reported":1761581618,"current_range_meters":19200,"station_id":"","pricing_plan_id":"cebpf4jnsgd1na2vs0mg"},{"bike_id":"dccef0b1-edb3-49b5-866c-43e10e5763cc","system_id":"levelo_inurba_marseille","lat":43.288041,"lon":5.438419,"is_reserved":false,"is_disabled":false,"rental_uris":{"android":"levelo://app?vid=dccef0b1-edb3-49b5-866c-43e10e5763cc","ios":"levelo://app?vid=dccef0b1-edb3-49b5-866c-43e10e5763cc"},"vehicle_type_id":"4","last_reported":1761581618,"current_range_meters":19200,"station_id":"","pricing_plan_id":"cebpf4jnsgd1na2vs0mg"},{"bike_id":"4ce56872-a6e8-47b3-93de-ee9ccf2e0163","system_id":"levelo_inurba_marseille","lat":43.30331,"lon":5.40467,"is_reserved":false,"is_disabled":false,"rental_uris":{"android":"levelo://app?vid=4ce56872-a6e8-47b3-93de-ee9ccf2e0163","ios":"levelo://app?vid=4ce56872-a6e8-47b3-93de-ee9ccf2e0163"},"vehicle_type_id":"4","last_reported":1761581618,"current_range_meters":19200,"station_id":"ce4bh012rcd13ifvqd10","pricing_plan_id":"cebpf4jnsgd1na2vs0mg"},{"bike_id":"dced2bcc-e95f-44ce-b7d8-7bb47def612a","system_id":"levelo_inurba_marseille","lat":43.23061,"lon":5.35497,"is_reserved":false,"is_disabled":false,"rental_uris":{"android":"levelo://app?vid=dced2bcc-e95f-44ce-b7d8-7bb47def612a","ios":"levelo://app?vid=dced2bcc-e95f-44ce-b7d8-7bb47def612a"},"vehicle_type_id":"4","last_reported":1761581618,"current_range_meters":19200,"station_id":"cpo3342slgdg3j2ifvpg","pricing_plan_id":"cebpf4jnsgd1na2vs0mg"},{"bike_id":"985cf2a5-6560-4622-9131-59ec4174ede8","system_id":"levelo_inurba_marseille","lat":43.29567,"lon":5.36775,"is_reserved":false,"is_disabled":false,"rental_uris":{"android":"levelo://app?vid=985cf2a5-6560-4622-9131-59ec4174ede8","ios":"levelo://app?vid=985cf2a5-6560-4622-9131-59ec4174ede8"},"vehicle_type_id":"4","last_reported":1761581618,"current_range_meters":19200,"station_id":"ce4bgph2rcd13ifvqc2g","pricing_plan_id":"cebpf4jnsgd1na2vs0mg"},{"bike_id":"2be3bf9b-39f4-4c37-8c01-9e9bcabe1c53","system_id":"levelo_inurba_marseille","lat":43.33741,"lon":5.37444,"is_reserved":false,"is_disabled":false,"rental_uris":{"android":"levelo://app?vid=2be3bf9b-39f4-4c37-8c01-9e9bcabe1c53","ios":"levelo://app?vid=2be3bf9b-39f4-4c37-8c01-9e9bcabe1c53"},"vehicle_type_id":"4","last_reported":1761581618,"current_range_meters":19200,"station_id":"","pricing_plan_id":"cebpf4jnsgd1na2vs0mg"},{"bike_id":"455ef50d-b33b-4523-8ad5-a87befbae6f9","system_id":"levelo_inurba_marseille","lat":43.2992,"lon":5.36544,"is_reserved":false,"is_disabled":false,"rental_uris":{"android":"levelo://app?vid=455ef50d-b33b-4523-8ad5-a87befbae6f9","ios":"levelo://app?vid=455ef50d-b33b-4523-8ad5-a87befbae6f9"},"vehicle_type_id":"4","last_reported":1761581618,"current_range_meters":19200,"station_id":"ce4bgm92rcd13ifvqbr0","pricing_plan_id":"cebpf4jnsgd1na2vs0mg"},{"bike_id":"f568391f-b71f-4807-9099-53eb6b0dc22d","system_id":"levelo_inurba_marseille","lat":43.297734,"lon":5.381644,"is_reserved":false,"is_disabled":false,"rental_uris":{"android":"levelo://app?vid=f568391f-b71f-4807-9099-53eb6b0dc22d","ios":"levelo://app?vid=f568391f-b71f-4807-9099-53eb6b0dc22d"},"vehicle_type_id":"4","last_reported":1761581618,"current_range_meters":19200,"station_id":"","pricing_plan_id":"cebpf4jnsgd1na2vs0mg"},{"bike_id":"8293b69f-a30f-4544-a045-5db40163a5ed","system_id":"levelo_inurba_marseille","lat":43.28864,"lon":5.42528,"is_reserved":false,"is_disabled":false,"rental_uris":{"android":"levelo://app?vid=8293b69f-a30f-4544-a045-5db40163a5ed","ios":"levelo://app?vid=8293b69f-a30f-4544-a045-5db40163a5ed"},"vehicle_type_id":"4","last_reported":1761581618,"current_range_meters":19200,"station_id":"st_d3b462108ojc7389ooeg","pricing_plan_id":"cebpf4jnsgd1na2vs0mg"},{"bike_id":"ae8ebe94-fc0f-4409-8f77-39eb5c613a67","system_id":"levelo_inurba_marseille","lat":43.337444,"lon":5.374475,"is_reserved":false,"is_disabled":false,"rental_uris":{"android":"levelo://app?vid=ae8ebe94-fc0f-4409-8f77-39eb5c613a67","ios":"levelo://app?vid=ae8ebe94-fc0f-4409-8f77-39eb5c613a67"},"vehicle_type_id":"4","last_reported":1761581618,"current_range_meters":19600,"station_id":"","pricing_plan_id":"cebpf4jnsgd1na2vs0mg"},{"bike_id":"b258bcde-74bf-4580-87cf-529b735e8da7","system_id":"levelo_inurba_marseille","lat":43.29929,"lon":5.37499,"is_reserved":false,"is_disabled":false,"rental_uris":{"android":"levelo://app?vid=b258bcde-74bf-4580-87cf-529b735e8da7","ios":"levelo://app?vid=b258bcde-74bf-4580-87cf-529b735e8da7"},"vehicle_type_id":"4","last_reported":1761581618,"current_range_meters":19600,"station_id":"ce4bgjh2rcd13ifvqbg0","pricing_plan_id":"cebpf4jnsgd1na2vs0mg"},{"bike_id":"6e3a7e6e-71b5-40f8-a9af-3d340e6706cc","system_id":"levelo_inurba_marseille","lat":43.296782,"lon":5.378637,"is_reserved":false,"is_disabled":false,"rental_uris":{"android":"levelo://app?vid=6e3a7e6e-71b5-40f8-a9af-3d340e6706cc","ios":"levelo://app?vid=6e3a7e6e-71b5-40f8-a9af-3d340e6706cc"},"vehicle_type_id":"4","last_reported":1761581618,"current_range_meters":19600,"station_id":"","pricing_plan_id":"cebpf4jnsgd1na2vs0mg"},{"bike_id":"f68e98a1-0455-4994-b385-cdd5e6dd66ac","system_id":"levelo_inurba_marseille","lat":43.23148,"lon":5.43724,"is_reserved":false,"is_disabled":false,"rental_uris":{"android":"levelo://app?vid=f68e98a1-0455-4994-b385-cdd5e6dd66ac","ios":"levelo://app?vid=f68e98a1-0455-4994-b385-cdd5e6dd66ac"},"vehicle_type_id":"4","last_reported":1761581618,"current_range_meters":19600,"station_id":"ce4bhmp2rcd13ifvqgog","pricing_plan_id":"cebpf4jnsgd1na2vs0mg"},{"bike_id":"a9d6f84c-7daf-4c59-adfe-f1faabb86893","system_id":"levelo_inurba_marseille","lat":43.3235,"lon":5.367467,"is_reserved":false,"is_disabled":false,"rental_uris":{"android":"levelo://app?vid=a9d6f84c-7daf-4c59-adfe-f1faabb86893","ios":"levelo://app?vid=a9d6f84c-7daf-4c59-adfe-f1faabb86893"},"vehicle_type_id":"4","last_reported":1761581618,"current_range_meters":19600,"station_id":"ce4bhsh2rcd13ifvqi2g","pricing_plan_id":"cebpf4jnsgd1na2vs0mg"},{"bike_id":"39e9a0d3-e7c9-48ab-a83e-23aa473abb24","system_id":"levelo_inurba_marseille","lat":43.29908,"lon":5.39745,"is_reserved":false,"is_disabled":false,"rental_uris":{"android":"levelo://app?vid=39e9a0d3-e7c9-48ab-a83e-23aa473abb24","ios":"levelo://app?vid=39e9a0d3-e7c9-48ab-a83e-23aa473abb24"},"vehicle_type_id":"4","last_reported":1761581618,"current_range_meters":19600,"station_id":"ce4bh0h2rcd13ifvqd50","pricing_plan_id":"cebpf4jnsgd1na2vs0mg"},{"bike_id":"46292dbd-4a2f-46bb-964b-a4a3d10786f9","system_id":"levelo_inurba_marseille","lat":43.24805,"lon":5.37468,"is_reserved":false,"is_disabled":false,"rental_uris":{"android":"levelo://app?vid=46292dbd-4a2f-46bb-964b-a4a3d10786f9","ios":"levelo://app?vid=46292dbd-4a2f-46bb-964b-a4a3d10786f9"},"vehicle_type_id":"4","last_reported":1761581618,"current_range_meters":20000,"station_id":"ce4bhgh2rcd13ifvqfb0","pricing_plan_id":"cebpf4jnsgd1na2vs0mg"},{"bike_id":"00904f80-af70-4ac0-9622-da17a5375b07","system_id":"levelo_inurba_marseille","lat":43.29563,"lon":5.37487,"is_reserved":false,"is_disabled":false,"rental_uris":{"android":"levelo://app?vid=00904f80-af70-4ac0-9622-da17a5375b07","ios":"levelo://app?vid=00904f80-af70-4ac0-9622-da17a5375b07"},"vehicle_type_id":"4","last_reported":1761581618,"current_range_meters":20000,"station_id":"ce4bgh92rcd13ifvqb50","pricing_plan_id":"cebpf4jnsgd1na2vs0mg"},{"bike_id":"32d7653e-b033-4183-b4c0-f44169bb9067","system_id":"levelo_inurba_marseille","lat":43.32731,"lon":5.39215,"is_reserved":false,"is_disabled":false,"rental_uris":{"android":"levelo://app?vid=32d7653e-b033-4183-b4c0-f44169bb9067","ios":"levelo://app?vid=32d7653e-b033-4183-b4c0-f44169bb9067"},"vehicle_type_id":"4","last_reported":1761581618,"current_range_meters":20000,"station_id":"","pricing_plan_id":"cebpf4jnsgd1na2vs0mg"},{"bike_id":"6aa9a1ee-9778-4d45-859f-f81494315a8d","system_id":"levelo_inurba_marseille","lat":43.211926,"lon":5.350734,"is_reserved":false,"is_disabled":false,"rental_uris":{"android":"levelo://app?vid=6aa9a1ee-9778-4d45-859f-f81494315a8d","ios":"levelo://app?vid=6aa9a1ee-9778-4d45-859f-f81494315a8d"},"vehicle_type_id":"4","last_reported":1761581618,"current_range_meters":20000,"station_id":"","pricing_plan_id":"cebpf4jnsgd1na2vs0mg"},{"bike_id":"2e10c0df-2c6e-45cf-9371-fc6d954866f3","system_id":"levelo_inurba_marseille","lat":43.30557,"lon":5.36565,"is_reserved":false,"is_disabled":false,"rental_uris":{"android":"levelo://app?vid=2e10c0df-2c6e-45cf-9371-fc6d954866f3","ios":"levelo://app?vid=2e10c0df-2c6e-45cf-9371-fc6d954866f3"},"vehicle_type_id":"4","last_reported":1761581618,"current_range_meters":20000,"station_id":"ce4bgs12rcd13ifvqcag","pricing_plan_id":"cebpf4jnsgd1na2vs0mg"},{"bike_id":"3101b0db-43ca-45dc-b27b-8d591c267f6e","system_id":"levelo_inurba_marseille","lat":43.28414,"lon":5.37517,"is_reserved":false,"is_disabled":false,"rental_uris":{"android":"levelo://app?vid=3101b0db-43ca-45dc-b27b-8d591c267f6e","ios":"levelo://app?vid=3101b0db-43ca-45dc-b27b-8d591c267f6e"},"vehicle_type_id":"4","last_reported":1761581618,"current_range_meters":20400,"station_id":"ce4bh412rcd13ifvqds0","pricing_plan_id":"cebpf4jnsgd1na2vs0mg"},{"bike_id":"d810d700-4a7b-4b34-9d67-350169c920d4","system_id":"levelo_inurba_marseille","lat":43.26199,"lon":5.37915,"is_reserved":false,"is_disabled":false,"rental_uris":{"android":"levelo://app?vid=d810d700-4a7b-4b34-9d67-350169c920d4","ios":"levelo://app?vid=d810d700-4a7b-4b34-9d67-350169c920d4"},"vehicle_type_id":"4","last_reported":1761581618,"current_range_meters":20400,"station_id":"ce4bhjp2rcd13ifvqg90","pricing_plan_id":"cebpf4jnsgd1na2vs0mg"},{"bike_id":"7ccbbdbf-4e94-4c6a-9137-e2c96275ab3e","system_id":"levelo_inurba_marseille","lat":43.28938,"lon":5.36639,"is_reserved":false,"is_disabled":false,"rental_uris":{"android":"levelo://app?vid=7ccbbdbf-4e94-4c6a-9137-e2c96275ab3e","ios":"levelo://app?vid=7ccbbdbf-4e94-4c6a-9137-e2c96275ab3e"},"vehicle_type_id":"4","last_reported":1761581618,"current_range_meters":20400,"station_id":"ce4bhap2rcd13ifvqek0","pricing_plan_id":"cebpf4jnsgd1na2vs0mg"},{"bike_id":"6f60b159-83c5-40f3-a1b0-7b6a6268dfa5","system_id":"levelo_inurba_marseille","lat":43.29153,"lon":5.35647,"is_reserved":false,"is_disabled":false,"rental_uris":{"android":"levelo://app?vid=6f60b159-83c5-40f3-a1b0-7b6a6268dfa5","ios":"levelo://app?vid=6f60b159-83c5-40f3-a1b0-7b6a6268dfa5"},"vehicle_type_id":"4","last_reported":1761581618,"current_range_meters":20400,"station_id":"","pricing_plan_id":"cebpf4jnsgd1na2vs0mg"},{"bike_id":"9d447215-7097-463a-ab01-ffec67831b86","system_id":"levelo_inurba_marseille","lat":43.323627,"lon":5.367492,"is_reserved":false,"is_disabled":false,"rental_uris":{"android":"levelo://app?vid=9d447215-7097-463a-ab01-ffec67831b86","ios":"levelo://app?vid=9d447215-7097-463a-ab01-ffec67831b86"},"vehicle_type_id":"4","last_reported":1761581618,"current_range_meters":20400,"station_id":"ce4bhsh2rcd13ifvqi2g","pricing_plan_id":"cebpf4jnsgd1na2vs0mg"},{"bike_id":"140da190-be38-43b4-b861-69aaf0ca7540","system_id":"levelo_inurba_marseille","lat":43.27369,"lon":5.36259,"is_reserved":false,"is_disabled":false,"rental_uris":{"android":"levelo://app?vid=140da190-be38-43b4-b861-69aaf0ca7540","ios":"levelo://app?vid=140da190-be38-43b4-b861-69aaf0ca7540"},"vehicle_type_id":"4","last_reported":1761581618,"current_range_meters":20800,"station_id":"ce4bhbh2rcd13ifvqeo0","pricing_plan_id":"cebpf4jnsgd1na2vs0mg"},{"bike_id":"4a49da3a-d330-476f-8298-d4d2b596c62a","system_id":"levelo_inurba_marseille","lat":43.243903,"lon":5.370686,"is_reserved":false,"is_disabled":false,"rental_uris":{"android":"levelo://app?vid=4a49da3a-d330-476f-8298-d4d2b596c62a","ios":"levelo://app?vid=4a49da3a-d330-476f-8298-d4d2b596c62a"},"vehicle_type_id":"4","last_reported":1761581618,"current_range_meters":20800,"station_id":"ce4bhhh2rcd13ifvqfk0","pricing_plan_id":"cebpf4jnsgd1na2vs0mg"},{"bike_id":"aeef0b44-9ab3-4042-b8ea-3aec64ce43a8","system_id":"levelo_inurba_marseille","lat":43.29843,"lon":5.36276,"is_reserved":false,"is_disabled":false,"rental_uris":{"android":"levelo://app?vid=aeef0b44-9ab3-4042-b8ea-3aec64ce43a8","ios":"levelo://app?vid=aeef0b44-9ab3-4042-b8ea-3aec64ce43a8"},"vehicle_type_id":"4","last_reported":1761581618,"current_range_meters":20800,"station_id":"ce4bgpp2rcd13ifvqc3g","pricing_plan_id":"cebpf4jnsgd1na2vs0mg"},{"bike_id":"54aae848-7c5d-4a13-ab11-380a33bb6076","system_id":"levelo_inurba_marseille","lat":43.28616,"lon":5.35106,"is_reserved":false,"is_disabled":false,"rental_uris":{"android":"levelo://app?vid=54aae848-7c5d-4a13-ab11-380a33bb6076","ios":"levelo://app?vid=54aae848-7c5d-4a13-ab11-380a33bb6076"},"vehicle_type_id":"4","last_reported":1761581618,"current_range_meters":20800,"station_id":"ce4bhch2rcd13ifvqeug","pricing_plan_id":"cebpf4jnsgd1na2vs0mg"},{"bike_id":"ef00ce9d-fdb9-4d88-a844-43f88cb4fc27","system_id":"levelo_inurba_marseille","lat":43.27942,"lon":5.3871,"is_reserved":false,"is_disabled":false,"rental_uris":{"android":"levelo://app?vid=ef00ce9d-fdb9-4d88-a844-43f88cb4fc27","ios":"levelo://app?vid=ef00ce9d-fdb9-4d88-a844-43f88cb4fc27"},"vehicle_type_id":"4","last_reported":1761581618,"current_range_meters":20800,"station_id":"ce4bhg12rcd13ifvqf80","pricing_plan_id":"cebpf4jnsgd1na2vs0mg"},{"bike_id":"7b534f1f-1606-4632-853e-98fc87a368c0","system_id":"levelo_inurba_marseille","lat":43.30136,"lon":5.39859,"is_reserved":false,"is_disabled":false,"rental_uris":{"android":"levelo://app?vid=7b534f1f-1606-4632-853e-98fc87a368c0","ios":"levelo://app?vid=7b534f1f-1606-4632-853e-98fc87a368c0"},"vehicle_type_id":"4","last_reported":1761581618,"current_range_meters":20800,"station_id":"ce4bh0h2rcd13ifvqd40","pricing_plan_id":"cebpf4jnsgd1na2vs0mg"},{"bike_id":"21f69449-c7d2-456c-b5da-e360e03a540a","system_id":"levelo_inurba_marseille","lat":43.265627,"lon":5.390348,"is_reserved":false,"is_disabled":false,"rental_uris":{"android":"levelo://app?vid=21f69449-c7d2-456c-b5da-e360e03a540a","ios":"levelo://app?vid=21f69449-c7d2-456c-b5da-e360e03a540a"},"vehicle_type_id":"4","last_reported":1761581618,"current_range_meters":21600,"station_id":"ce4bhe12rcd13ifvqf30","pricing_plan_id":"cebpf4jnsgd1na2vs0mg"},{"bike_id":"30be3bd8-ecb4-4749-acf1-2b8d8d14222d","system_id":"levelo_inurba_marseille","lat":43.27916,"lon":5.39586,"is_reserved":false,"is_disabled":false,"rental_uris":{"android":"levelo://app?vid=30be3bd8-ecb4-4749-acf1-2b8d8d14222d","ios":"levelo://app?vid=30be3bd8-ecb4-4749-acf1-2b8d8d14222d"},"vehicle_type_id":"4","last_reported":1761581618,"current_range_meters":21600,"station_id":"ce4bhf92rcd13ifvqf40","pricing_plan_id":"cebpf4jnsgd1na2vs0mg"},{"bike_id":"51a7e268-9562-4b96-8e84-f568b0acc7b7","system_id":"levelo_inurba_marseille","lat":43.247969,"lon":5.37456,"is_reserved":false,"is_disabled":false,"rental_uris":{"android":"levelo://app?vid=51a7e268-9562-4b96-8e84-f568b0acc7b7","ios":"levelo://app?vid=51a7e268-9562-4b96-8e84-f568b0acc7b7"},"vehicle_type_id":"4","last_reported":1761581618,"current_range_meters":21600,"station_id":"","pricing_plan_id":"cebpf4jnsgd1na2vs0mg"},{"bike_id":"8e2dcd31-6a9c-4b7f-a366-5e2640173d3c","system_id":"levelo_inurba_marseille","lat":43.22932,"lon":5.35378,"is_reserved":false,"is_disabled":false,"rental_uris":{"android":"levelo://app?vid=8e2dcd31-6a9c-4b7f-a366-5e2640173d3c","ios":"levelo://app?vid=8e2dcd31-6a9c-4b7f-a366-5e2640173d3c"},"vehicle_type_id":"4","last_reported":1761581618,"current_range_meters":21600,"station_id":"cpo3532slgdg3j2ikp40","pricing_plan_id":"cebpf4jnsgd1na2vs0mg"},{"bike_id":"bf14fda9-f43d-4aed-b4c4-8af051ac3169","system_id":"levelo_inurba_marseille","lat":43.284088,"lon":5.34985,"is_reserved":false,"is_disabled":false,"rental_uris":{"android":"levelo://app?vid=bf14fda9-f43d-4aed-b4c4-8af051ac3169","ios":"levelo://app?vid=bf14fda9-f43d-4aed-b4c4-8af051ac3169"},"vehicle_type_id":"4","last_reported":1761581618,"current_range_meters":21600,"station_id":"ce4bhbh2rcd13ifvqepg","pricing_plan_id":"cebpf4jnsgd1na2vs0mg"},{"bike_id":"c5357aaa-f358-42dd-a7b4-114e2fddc718","system_id":"levelo_inurba_marseille","lat":43.24792,"lon":5.37469,"is_reserved":false,"is_disabled":false,"rental_uris":{"android":"levelo://app?vid=c5357aaa-f358-42dd-a7b4-114e2fddc718","ios":"levelo://app?vid=c5357aaa-f358-42dd-a7b4-114e2fddc718"},"vehicle_type_id":"4","last_reported":1761581618,"current_range_meters":21600,"station_id":"ce4bhgh2rcd13ifvqfb0","pricing_plan_id":"cebpf4jnsgd1na2vs0mg"},{"bike_id":"db28e9ca-f3ae-41d6-bd4c-eed3441bd596","system_id":"levelo_inurba_marseille","lat":43.32325,"lon":5.36747,"is_reserved":false,"is_disabled":false,"rental_uris":{"android":"levelo://app?vid=db28e9ca-f3ae-41d6-bd4c-eed3441bd596","ios":"levelo://app?vid=db28e9ca-f3ae-41d6-bd4c-eed3441bd596"},"vehicle_type_id":"4","last_reported":1761581618,"current_range_meters":21600,"station_id":"ce4bhsh2rcd13ifvqi2g","pricing_plan_id":"cebpf4jnsgd1na2vs0mg"},{"bike_id":"49ed0d39-51fe-4cd4-8527-50556baa8749","system_id":"levelo_inurba_marseille","lat":43.225318,"lon":5.348308,"is_reserved":false,"is_disabled":false,"rental_uris":{"android":"levelo://app?vid=49ed0d39-51fe-4cd4-8527-50556baa8749","ios":"levelo://app?vid=49ed0d39-51fe-4cd4-8527-50556baa8749"},"vehicle_type_id":"4","last_reported":1761581618,"current_range_meters":21600,"station_id":"","pricing_plan_id":"cebpf4jnsgd1na2vs0mg"},{"bike_id":"6daca031-efb5-4517-911c-f1bf58b277b7","system_id":"levelo_inurba_marseille","lat":43.21184,"lon":5.35097,"is_reserved":false,"is_disabled":false,"rental_uris":{"android":"levelo://app?vid=6daca031-efb5-4517-911c-f1bf58b277b7","ios":"levelo://app?vid=6daca031-efb5-4517-911c-f1bf58b277b7"},"vehicle_type_id":"4","last_reported":1761581618,"current_range_meters":22000,"station_id":"st_cvj6sg6p6f1abm77japg","pricing_plan_id":"cebpf4jnsgd1na2vs0mg"},{"bike_id":"4e1508bb-2c94-4e5f-b6f7-b56e2e9de7af","system_id":"levelo_inurba_marseille","lat":43.29262,"lon":5.3845,"is_reserved":false,"is_disabled":false,"rental_uris":{"android":"levelo://app?vid=4e1508bb-2c94-4e5f-b6f7-b56e2e9de7af","ios":"levelo://app?vid=4e1508bb-2c94-4e5f-b6f7-b56e2e9de7af"},"vehicle_type_id":"4","last_reported":1761581618,"current_range_meters":22000,"station_id":"ce4bh692rcd13ifvqea0","pricing_plan_id":"cebpf4jnsgd1na2vs0mg"},{"bike_id":"4689c156-531b-4afc-9bec-37cd234035a7","system_id":"levelo_inurba_marseille","lat":43.2417,"lon":5.39745,"is_reserved":false,"is_disabled":false,"rental_uris":{"android":"levelo://app?vid=4689c156-531b-4afc-9bec-37cd234035a7","ios":"levelo://app?vid=4689c156-531b-4afc-9bec-37cd234035a7"},"vehicle_type_id":"4","last_reported":1761581618,"current_range_meters":22000,"station_id":"ce4bhn12rcd13ifvqgpg","pricing_plan_id":"cebpf4jnsgd1na2vs0mg"},{"bike_id":"8743deb1-3e1b-4fe6-ab63-b75dc0a57f17","system_id":"levelo_inurba_marseille","lat":43.23072,"lon":5.35496,"is_reserved":false,"is_disabled":false,"rental_uris":{"android":"levelo://app?vid=8743deb1-3e1b-4fe6-ab63-b75dc0a57f17","ios":"levelo://app?vid=8743deb1-3e1b-4fe6-ab63-b75dc0a57f17"},"vehicle_type_id":"4","last_reported":1761581618,"current_range_meters":22000,"station_id":"cpo3342slgdg3j2ifvpg","pricing_plan_id":"cebpf4jnsgd1na2vs0mg"},{"bike_id":"11ef3bae-f74c-4d6c-9e1c-74445fbc74b3","system_id":"levelo_inurba_marseille","lat":43.25504,"lon":5.37652,"is_reserved":false,"is_disabled":false,"rental_uris":{"android":"levelo://app?vid=11ef3bae-f74c-4d6c-9e1c-74445fbc74b3","ios":"levelo://app?vid=11ef3bae-f74c-4d6c-9e1c-74445fbc74b3"},"vehicle_type_id":"4","last_reported":1761581618,"current_range_meters":22000,"station_id":"ce4bhh12rcd13ifvqff0","pricing_plan_id":"cebpf4jnsgd1na2vs0mg"},{"bike_id":"ca5e84da-65f5-4f5b-a0bb-5fe9543e962b","system_id":"levelo_inurba_marseille","lat":43.27477,"lon":5.40804,"is_reserved":false,"is_disabled":false,"rental_uris":{"android":"levelo://app?vid=ca5e84da-65f5-4f5b-a0bb-5fe9543e962b","ios":"levelo://app?vid=ca5e84da-65f5-4f5b-a0bb-5fe9543e962b"},"vehicle_type_id":"4","last_reported":1761581618,"current_range_meters":22000,"station_id":"","pricing_plan_id":"cebpf4jnsgd1na2vs0mg"},{"bike_id":"7af52265-4991-4dcf-8caf-a79da8a08434","system_id":"levelo_inurba_marseille","lat":43.29874,"lon":5.39738,"is_reserved":false,"is_disabled":false,"rental_uris":{"android":"levelo://app?vid=7af52265-4991-4dcf-8caf-a79da8a08434","ios":"levelo://app?vid=7af52265-4991-4dcf-8caf-a79da8a08434"},"vehicle_type_id":"4","last_reported":1761581618,"current_range_meters":22000,"station_id":"ce4bh0h2rcd13ifvqd50","pricing_plan_id":"cebpf4jnsgd1na2vs0mg"},{"bike_id":"72641e7e-bf27-4fef-905c-b22b1751bb7c","system_id":"levelo_inurba_marseille","lat":43.2952,"lon":5.39407,"is_reserved":false,"is_disabled":false,"rental_uris":{"android":"levelo://app?vid=72641e7e-bf27-4fef-905c-b22b1751bb7c","ios":"levelo://app?vid=72641e7e-bf27-4fef-905c-b22b1751bb7c"},"vehicle_type_id":"4","last_reported":1761581618,"current_range_meters":22400,"station_id":"ce4bh292rcd13ifvqdf0","pricing_plan_id":"cebpf4jnsgd1na2vs0mg"},{"bike_id":"b1e81361-2b17-4ef1-8a58-6def5753471b","system_id":"levelo_inurba_marseille","lat":43.337474,"lon":5.374712,"is_reserved":false,"is_disabled":false,"rental_uris":{"android":"levelo://app?vid=b1e81361-2b17-4ef1-8a58-6def5753471b","ios":"levelo://app?vid=b1e81361-2b17-4ef1-8a58-6def5753471b"},"vehicle_type_id":"4","last_reported":1761581618,"current_range_meters":22400,"station_id":"","pricing_plan_id":"cebpf4jnsgd1na2vs0mg"},{"bike_id":"3ae55b5e-2e2e-4c57-811d-a0779f10eeea","system_id":"levelo_inurba_marseille","lat":43.25507,"lon":5.37653,"is_reserved":false,"is_disabled":false,"rental_uris":{"android":"levelo://app?vid=3ae55b5e-2e2e-4c57-811d-a0779f10eeea","ios":"levelo://app?vid=3ae55b5e-2e2e-4c57-811d-a0779f10eeea"},"vehicle_type_id":"4","last_reported":1761581618,"current_range_meters":22400,"station_id":"ce4bhh12rcd13ifvqff0","pricing_plan_id":"cebpf4jnsgd1na2vs0mg"},{"bike_id":"262e3ae7-004d-452f-a4ed-5053ab0f3b4c","system_id":"levelo_inurba_marseille","lat":43.27918,"lon":5.39581,"is_reserved":false,"is_disabled":false,"rental_uris":{"android":"levelo://app?vid=262e3ae7-004d-452f-a4ed-5053ab0f3b4c","ios":"levelo://app?vid=262e3ae7-004d-452f-a4ed-5053ab0f3b4c"},"vehicle_type_id":"4","last_reported":1761581618,"current_range_meters":22400,"station_id":"ce4bhf92rcd13ifvqf40","pricing_plan_id":"cebpf4jnsgd1na2vs0mg"},{"bike_id":"767c8600-d9d5-4fa0-a40a-95131a234cfc","system_id":"levelo_inurba_marseille","lat":43.29844,"lon":5.36281,"is_reserved":false,"is_disabled":false,"rental_uris":{"android":"levelo://app?vid=767c8600-d9d5-4fa0-a40a-95131a234cfc","ios":"levelo://app?vid=767c8600-d9d5-4fa0-a40a-95131a234cfc"},"vehicle_type_id":"4","last_reported":1761581618,"current_range_meters":22400,"station_id":"ce4bgpp2rcd13ifvqc3g","pricing_plan_id":"cebpf4jnsgd1na2vs0mg"},{"bike_id":"7793719c-7bdf-43cc-b901-3511d6e8a61c","system_id":"levelo_inurba_marseille","lat":43.27209,"lon":5.39191,"is_reserved":false,"is_disabled":false,"rental_uris":{"android":"levelo://app?vid=7793719c-7bdf-43cc-b901-3511d6e8a61c","ios":"levelo://app?vid=7793719c-7bdf-43cc-b901-3511d6e8a61c"},"vehicle_type_id":"4","last_reported":1761581618,"current_range_meters":22400,"station_id":"ce4bhhp2rcd13ifvqfm0","pricing_plan_id":"cebpf4jnsgd1na2vs0mg"},{"bike_id":"05c1af41-1c5d-4e81-87af-d147e48f21d7","system_id":"levelo_inurba_marseille","lat":43.3033,"lon":5.40456,"is_reserved":false,"is_disabled":false,"rental_uris":{"android":"levelo://app?vid=05c1af41-1c5d-4e81-87af-d147e48f21d7","ios":"levelo://app?vid=05c1af41-1c5d-4e81-87af-d147e48f21d7"},"vehicle_type_id":"4","last_reported":1761581618,"current_range_meters":22400,"station_id":"ce4bh012rcd13ifvqd10","pricing_plan_id":"cebpf4jnsgd1na2vs0mg"},{"bike_id":"e4e58d43-96a9-4f87-9953-537591bb01bf","system_id":"levelo_inurba_marseille","lat":43.31265,"lon":5.3686,"is_reserved":false,"is_disabled":false,"rental_uris":{"android":"levelo://app?vid=e4e58d43-96a9-4f87-9953-537591bb01bf","ios":"levelo://app?vid=e4e58d43-96a9-4f87-9953-537591bb01bf"},"vehicle_type_id":"4","last_reported":1761581618,"current_range_meters":22800,"station_id":"ce4bgl92rcd13ifvqbq0","pricing_plan_id":"cebpf4jnsgd1na2vs0mg"},{"bike_id":"8ef15bda-c7c9-4b63-8a50-71487be21a88","system_id":"levelo_inurba_marseille","lat":43.29257,"lon":5.40909,"is_reserved":false,"is_disabled":false,"rental_uris":{"android":"levelo://app?vid=8ef15bda-c7c9-4b63-8a50-71487be21a88","ios":"levelo://app?vid=8ef15bda-c7c9-4b63-8a50-71487be21a88"},"vehicle_type_id":"4","last_reported":1761581618,"current_range_meters":22800,"station_id":"ce4bh192rcd13ifvqdc0","pricing_plan_id":"cebpf4jnsgd1na2vs0mg"},{"bike_id":"941eca81-61b6-4376-acbb-773a2fc9f625","system_id":"levelo_inurba_marseille","lat":43.321243,"lon":5.367778,"is_reserved":false,"is_disabled":false,"rental_uris":{"android":"levelo://app?vid=941eca81-61b6-4376-acbb-773a2fc9f625","ios":"levelo://app?vid=941eca81-61b6-4376-acbb-773a2fc9f625"},"vehicle_type_id":"4","last_reported":1761581618,"current_range_meters":22800,"station_id":"ce4bhrh2rcd13ifvqhug","pricing_plan_id":"cebpf4jnsgd1na2vs0mg"},{"bike_id":"20a7c7d3-68f8-4364-ac5f-46a050397980","system_id":"levelo_inurba_marseille","lat":43.2417,"lon":5.364,"is_reserved":false,"is_disabled":false,"rental_uris":{"android":"levelo://app?vid=20a7c7d3-68f8-4364-ac5f-46a050397980","ios":"levelo://app?vid=20a7c7d3-68f8-4364-ac5f-46a050397980"},"vehicle_type_id":"4","last_reported":1761581618,"current_range_meters":22800,"station_id":"cpo36qri1sfpv3e86is0","pricing_plan_id":"cebpf4jnsgd1na2vs0mg"},{"bike_id":"9573fc46-ca81-414d-8259-3ff552ec2e80","system_id":"levelo_inurba_marseille","lat":43.26027,"lon":5.37554,"is_reserved":false,"is_disabled":false,"rental_uris":{"android":"levelo://app?vid=9573fc46-ca81-414d-8259-3ff552ec2e80","ios":"levelo://app?vid=9573fc46-ca81-414d-8259-3ff552ec2e80"},"vehicle_type_id":"4","last_reported":1761581618,"current_range_meters":22800,"station_id":"ce4bhgh2rcd13ifvqfa0","pricing_plan_id":"cebpf4jnsgd1na2vs0mg"},{"bike_id":"a27a105c-fa7e-49a4-8cf1-75bf0d216d38","system_id":"levelo_inurba_marseille","lat":43.26566,"lon":5.39015,"is_reserved":false,"is_disabled":false,"rental_uris":{"android":"levelo://app?vid=a27a105c-fa7e-49a4-8cf1-75bf0d216d38","ios":"levelo://app?vid=a27a105c-fa7e-49a4-8cf1-75bf0d216d38"},"vehicle_type_id":"4","last_reported":1761581618,"current_range_meters":22800,"station_id":"ce4bhe12rcd13ifvqf30","pricing_plan_id":"cebpf4jnsgd1na2vs0mg"},{"bike_id":"37b2703d-c3fc-47fc-b961-79097d0ba32c","system_id":"levelo_inurba_marseille","lat":43.25091,"lon":5.39511,"is_reserved":false,"is_disabled":false,"rental_uris":{"android":"levelo://app?vid=37b2703d-c3fc-47fc-b961-79097d0ba32c","ios":"levelo://app?vid=37b2703d-c3fc-47fc-b961-79097d0ba32c"},"vehicle_type_id":"4","last_reported":1761581618,"current_range_meters":22800,"station_id":"ce4bhm12rcd13ifvqgkg","pricing_plan_id":"cebpf4jnsgd1na2vs0mg"},{"bike_id":"f6adb9c1-4a78-4322-baec-aa5f6f5d93b6","system_id":"levelo_inurba_marseille","lat":43.225338,"lon":5.348301,"is_reserved":false,"is_disabled":false,"rental_uris":{"android":"levelo://app?vid=f6adb9c1-4a78-4322-baec-aa5f6f5d93b6","ios":"levelo://app?vid=f6adb9c1-4a78-4322-baec-aa5f6f5d93b6"},"vehicle_type_id":"4","last_reported":1761581618,"current_range_meters":22800,"station_id":"","pricing_plan_id":"cebpf4jnsgd1na2vs0mg"},{"bike_id":"62482c73-a11b-483f-a9b4-3d8eb59e04f2","system_id":"levelo_inurba_marseille","lat":43.29709,"lon":5.36602,"is_reserved":false,"is_disabled":false,"rental_uris":{"android":"levelo://app?vid=62482c73-a11b-483f-a9b4-3d8eb59e04f2","ios":"levelo://app?vid=62482c73-a11b-483f-a9b4-3d8eb59e04f2"},"vehicle_type_id":"4","last_reported":1761581618,"current_range_meters":22800,"station_id":"ce4bgn12rcd13ifvqbt0","pricing_plan_id":"cebpf4jnsgd1na2vs0mg"},{"bike_id":"864b98ba-c60c-4bcd-8be9-ad0c68ef177f","system_id":"levelo_inurba_marseille","lat":43.29907,"lon":5.38154,"is_reserved":false,"is_disabled":false,"rental_uris":{"android":"levelo://app?vid=864b98ba-c60c-4bcd-8be9-ad0c68ef177f","ios":"levelo://app?vid=864b98ba-c60c-4bcd-8be9-ad0c68ef177f"},"vehicle_type_id":"4","last_reported":1761581618,"current_range_meters":22800,"station_id":"ce4bgj12rcd13ifvqbc0","pricing_plan_id":"cebpf4jnsgd1na2vs0mg"},