{"last_updated":1777277039,"ttl":60,"version":"2.2","data":{"bikes":[{"bike_id":"26d26955-b302-4311-88a8-057f7b19117a","system_id":"levelo_inurba_marseille","lat":43.29652,"lon":5.36063,"is_reserved":false,"is_disabled":false,"rental_uris":{"android":"levelo://app?vid=26d26955-b302-4311-88a8-057f7b19117a","ios":"levelo://app?vid=26d26955-b302-4311-88a8-057f7b19117a"},"vehicle_type_id":"4","last_reported":1777277040,"current_range_meters":2800,"station_id":"","pricing_plan_id":"cebpf4jnsgd1na2vs0mg"},{"bike_id":"da9a40ff-7316-4897-bf86-976efc56a0e6","system_id":"levelo_inurba_marseille","lat":43.28105,"lon":5.37844,"is_reserved":false,"is_disabled":false,"rental_uris":{"android":"levelo://app?vid=da9a40ff-7316-4897-bf86-976efc56a0e6","ios":"levelo://app?vid=da9a40ff-7316-4897-bf86-976efc56a0e6"},"vehicle_type_id":"4","last_reported":1777277040,"current_range_meters":2800,"station_id":"","pricing_plan_id":"cebpf4jnsgd1na2vs0mg"},{"bike_id":"8b3f9419-0053-4b1b-9049-b876f3381bd8","system_id":"levelo_inurba_marseille","lat":43.26954,"lon":5.38628,"is_reserved":false,"is_disabled":false,"rental_uris":{"android":"levelo://app?vid=8b3f9419-0053-4b1b-9049-b876f3381bd8","ios":"levelo://app?vid=8b3f9419-0053-4b1b-9049-b876f3381bd8"},"vehicle_type_id":"4","last_reported":1777277040,"current_range_meters":2800,"station_id":"ce4bhh92rcd13ifvqfh0","pricing_plan_id":"cebpf4jnsgd1na2vs0mg"},{"bike_id":"adfeb2f2-21a5-4adf-a92e-a60a7bb66934","system_id":"levelo_inurba_marseille","lat":43.28986,"lon":5.35608,"is_reserved":false,"is_disabled":true,"rental_uris":{"android":"levelo://app?vid=adfeb2f2-21a5-4adf-a92e-a60a7bb66934","ios":"levelo://app?vid=adfeb2f2-21a5-4adf-a92e-a60a7bb66934"},"vehicle_type_id":"4","last_reported":1777277040,"current_range_meters":2800,"station_id":"ce4bhb92rcd13ifvqen0","pricing_plan_id":"cebpf4jnsgd1na2vs0mg"},{"bike_id":"149148b8-a9d7-4a2f-af8f-79caef5c80f4","system_id":"levelo_inurba_marseille","lat":43.24546,"lon":5.39528,"is_reserved":false,"is_disabled":false,"rental_uris":{"android":"levelo://app?vid=149148b8-a9d7-4a2f-af8f-79caef5c80f4","ios":"levelo://app?vid=149148b8-a9d7-4a2f-af8f-79caef5c80f4"},"vehicle_type_id":"4","last_reported":1777277040,"current_range_meters":2800,"station_id":"ce4bhlp2rcd13ifvqgjg","pricing_plan_id":"cebpf4jnsgd1na2vs0mg"},{"bike_id":"acb1940e-5b87-42d2-9f69-99d688300dfb","system_id":"levelo_inurba_marseille","lat":43.29873,"lon":5.3972,"is_reserved":false,"is_disabled":false,"rental_uris":{"android":"levelo://app?vid=acb1940e-5b87-42d2-9f69-99d688300dfb","ios":"levelo://app?vid=acb1940e-5b87-42d2-9f69-99d688300dfb"},"vehicle_type_id":"4","last_reported":1777277040,"current_range_meters":2800,"station_id":"ce4bh0h2rcd13ifvqd50","pricing_plan_id":"cebpf4jnsgd1na2vs0mg"},{"bike_id":"e005198e-4e32-4e98-ade1-015e3f596d9d","system_id":"levelo_inurba_marseille","lat":43.29213,"lon":5.36058,"is_reserved":false,"is_disabled":true,"rental_uris":{"android":"levelo://app?vid=e005198e-4e32-4e98-ade1-015e3f596d9d","ios":"levelo://app?vid=e005198e-4e32-4e98-ade1-015e3f596d9d"},"vehicle_type_id":"4","last_reported":1777277040,"current_range_meters":2800,"station_id":"ce4bhbh2rcd13ifvqeqg","pricing_plan_id":"cebpf4jnsgd1na2vs0mg"},{"bike_id":"e88509da-9847-4df2-9013-aa2c8089e565","system_id":"levelo_inurba_marseille","lat":43.24651,"lon":5.38176,"is_reserved":false,"is_disabled":false,"rental_uris":{"android":"levelo://app?vid=e88509da-9847-4df2-9013-aa2c8089e565","ios":"levelo://app?vid=e88509da-9847-4df2-9013-aa2c8089e565"},"vehicle_type_id":"4","last_reported":1777277040,"current_range_meters":2800,"station_id":"ce4bhih2rcd13ifvqfr0","pricing_plan_id":"cebpf4jnsgd1na2vs0mg"},{"bike_id":"ce3befda-7671-4e12-8b47-b0299535f74f","system_id":"levelo_inurba_marseille","lat":43.25104,"lon":5.40324,"is_reserved":false,"is_disabled":true,"rental_uris":{"android":"levelo://app?vid=ce3befda-7671-4e12-8b47-b0299535f74f","ios":"levelo://app?vid=ce3befda-7671-4e12-8b47-b0299535f74f"},"vehicle_type_id":"4","last_reported":1777277040,"current_range_meters":2800,"station_id":"ce4bhlh2rcd13ifvqgig","pricing_plan_id":"cebpf4jnsgd1na2vs0mg"},{"bike_id":"609bdf4a-3601-4570-b4fa-c37eacc0db38","system_id":"levelo_inurba_marseille","lat":43.27195,"lon":5.41006,"is_reserved":false,"is_disabled":false,"rental_uris":{"android":"levelo://app?vid=609bdf4a-3601-4570-b4fa-c37eacc0db38","ios":"levelo://app?vid=609bdf4a-3601-4570-b4fa-c37eacc0db38"},"vehicle_type_id":"4","last_reported":1777277040,"current_range_meters":2800,"station_id":"ce4bhl12rcd13ifvqgf0","pricing_plan_id":"cebpf4jnsgd1na2vs0mg"},{"bike_id":"1bfdaaf0-836c-45bb-a71a-d66f0e4b1a2e","system_id":"levelo_inurba_marseille","lat":43.29029,"lon":5.3995,"is_reserved":false,"is_disabled":false,"rental_uris":{"android":"levelo://app?vid=1bfdaaf0-836c-45bb-a71a-d66f0e4b1a2e","ios":"levelo://app?vid=1bfdaaf0-836c-45bb-a71a-d66f0e4b1a2e"},"vehicle_type_id":"4","last_reported":1777277040,"current_range_meters":2800,"station_id":"ce4bh392rcd13ifvqdm0","pricing_plan_id":"cebpf4jnsgd1na2vs0mg"},{"bike_id":"5fdff1d7-b2d7-4e39-ad7f-00ed09411d1d","system_id":"levelo_inurba_marseille","lat":43.28482,"lon":5.48383,"is_reserved":false,"is_disabled":false,"rental_uris":{"android":"levelo://app?vid=5fdff1d7-b2d7-4e39-ad7f-00ed09411d1d","ios":"levelo://app?vid=5fdff1d7-b2d7-4e39-ad7f-00ed09411d1d"},"vehicle_type_id":"4","last_reported":1777277040,"current_range_meters":3200,"station_id":"st_d3svhcjqgbts73a3dn0g","pricing_plan_id":"cebpf4jnsgd1na2vs0mg"},{"bike_id":"47fc24d1-981f-439d-b4f2-6f47e0fc60f8","system_id":"levelo_inurba_marseille","lat":43.27508,"lon":5.42446,"is_reserved":false,"is_disabled":false,"rental_uris":{"android":"levelo://app?vid=47fc24d1-981f-439d-b4f2-6f47e0fc60f8","ios":"levelo://app?vid=47fc24d1-981f-439d-b4f2-6f47e0fc60f8"},"vehicle_type_id":"4","last_reported":1777277040,"current_range_meters":3200,"station_id":"ce4bhn92rcd13ifvqgrg","pricing_plan_id":"cebpf4jnsgd1na2vs0mg"},{"bike_id":"9a7c39d8-ef30-4694-b180-b6fe0a089530","system_id":"levelo_inurba_marseille","lat":43.30131,"lon":5.43119,"is_reserved":false,"is_disabled":false,"rental_uris":{"android":"levelo://app?vid=9a7c39d8-ef30-4694-b180-b6fe0a089530","ios":"levelo://app?vid=9a7c39d8-ef30-4694-b180-b6fe0a089530"},"vehicle_type_id":"4","last_reported":1777277040,"current_range_meters":3200,"station_id":"st_d3js3co5814s73ftftug","pricing_plan_id":"cebpf4jnsgd1na2vs0mg"},{"bike_id":"a0a413eb-5c9c-40b5-9993-e90271fb718b","system_id":"levelo_inurba_marseille","lat":43.32665,"lon":5.36603,"is_reserved":false,"is_disabled":false,"rental_uris":{"android":"levelo://app?vid=a0a413eb-5c9c-40b5-9993-e90271fb718b","ios":"levelo://app?vid=a0a413eb-5c9c-40b5-9993-e90271fb718b"},"vehicle_type_id":"4","last_reported":1777277040,"current_range_meters":3200,"station_id":"","pricing_plan_id":"cebpf4jnsgd1na2vs0mg"},{"bike_id":"8e41c180-eea9-4988-8ead-9087dde64a48","system_id":"levelo_inurba_marseille","lat":43.25825,"lon":5.39435,"is_reserved":false,"is_disabled":false,"rental_uris":{"android":"levelo://app?vid=8e41c180-eea9-4988-8ead-9087dde64a48","ios":"levelo://app?vid=8e41c180-eea9-4988-8ead-9087dde64a48"},"vehicle_type_id":"4","last_reported":1777277040,"current_range_meters":3200,"station_id":"ce4bhip2rcd13ifvqft0","pricing_plan_id":"cebpf4jnsgd1na2vs0mg"},{"bike_id":"be3dbaca-317c-43ef-8335-8f03df566046","system_id":"levelo_inurba_marseille","lat":43.28484,"lon":5.48417,"is_reserved":false,"is_disabled":true,"rental_uris":{"android":"levelo://app?vid=be3dbaca-317c-43ef-8335-8f03df566046","ios":"levelo://app?vid=be3dbaca-317c-43ef-8335-8f03df566046"},"vehicle_type_id":"4","last_reported":1777277040,"current_range_meters":3200,"station_id":"st_d3svhcjqgbts73a3dn0g","pricing_plan_id":"cebpf4jnsgd1na2vs0mg"},{"bike_id":"47bf83ec-b70f-47d4-bc90-feb7093200f7","system_id":"levelo_inurba_marseille","lat":43.21745,"lon":5.34606,"is_reserved":false,"is_disabled":false,"rental_uris":{"android":"levelo://app?vid=47bf83ec-b70f-47d4-bc90-feb7093200f7","ios":"levelo://app?vid=47bf83ec-b70f-47d4-bc90-feb7093200f7"},"vehicle_type_id":"4","last_reported":1777277040,"current_range_meters":3200,"station_id":"st_cvj6r9ubvosntc0bgbag","pricing_plan_id":"cebpf4jnsgd1na2vs0mg"},{"bike_id":"fda983b3-301e-40f3-bb07-e5c67ab620e4","system_id":"levelo_inurba_marseille","lat":43.2507,"lon":5.40457,"is_reserved":false,"is_disabled":false,"rental_uris":{"android":"levelo://app?vid=fda983b3-301e-40f3-bb07-e5c67ab620e4","ios":"levelo://app?vid=fda983b3-301e-40f3-bb07-e5c67ab620e4"},"vehicle_type_id":"4","last_reported":1777277040,"current_range_meters":3200,"station_id":"","pricing_plan_id":"cebpf4jnsgd1na2vs0mg"},{"bike_id":"24ec11ad-62b7-4981-beca-0dd2251ce36b","system_id":"levelo_inurba_marseille","lat":43.29018,"lon":5.39963,"is_reserved":false,"is_disabled":false,"rental_uris":{"android":"levelo://app?vid=24ec11ad-62b7-4981-beca-0dd2251ce36b","ios":"levelo://app?vid=24ec11ad-62b7-4981-beca-0dd2251ce36b"},"vehicle_type_id":"4","last_reported":1777277040,"current_range_meters":3200,"station_id":"ce4bh392rcd13ifvqdm0","pricing_plan_id":"cebpf4jnsgd1na2vs0mg"},{"bike_id":"757fdfcb-45d7-4c45-8e18-f9ab346e8260","system_id":"levelo_inurba_marseille","lat":43.25445,"lon":5.38118,"is_reserved":false,"is_disabled":false,"rental_uris":{"android":"levelo://app?vid=757fdfcb-45d7-4c45-8e18-f9ab346e8260","ios":"levelo://app?vid=757fdfcb-45d7-4c45-8e18-f9ab346e8260"},"vehicle_type_id":"4","last_reported":1777277040,"current_range_meters":3600,"station_id":"","pricing_plan_id":"cebpf4jnsgd1na2vs0mg"},{"bike_id":"4c757bb1-1271-42b1-95a1-9cd054b16e0a","system_id":"levelo_inurba_marseille","lat":43.28346,"lon":5.38105,"is_reserved":false,"is_disabled":false,"rental_uris":{"android":"levelo://app?vid=4c757bb1-1271-42b1-95a1-9cd054b16e0a","ios":"levelo://app?vid=4c757bb1-1271-42b1-95a1-9cd054b16e0a"},"vehicle_type_id":"4","last_reported":1777277040,"current_range_meters":3600,"station_id":"ce4bh412rcd13ifvqdr0","pricing_plan_id":"cebpf4jnsgd1na2vs0mg"},{"bike_id":"6b60b3c8-da35-492c-9411-418199a97ad7","system_id":"levelo_inurba_marseille","lat":43.28478,"lon":5.48389,"is_reserved":false,"is_disabled":false,"rental_uris":{"android":"levelo://app?vid=6b60b3c8-da35-492c-9411-418199a97ad7","ios":"levelo://app?vid=6b60b3c8-da35-492c-9411-418199a97ad7"},"vehicle_type_id":"4","last_reported":1777277040,"current_range_meters":3600,"station_id":"","pricing_plan_id":"cebpf4jnsgd1na2vs0mg"},{"bike_id":"304f9f4a-a81c-46e6-92f4-3a8c14972921","system_id":"levelo_inurba_marseille","lat":43.23893,"lon":5.37462,"is_reserved":false,"is_disabled":false,"rental_uris":{"android":"levelo://app?vid=304f9f4a-a81c-46e6-92f4-3a8c14972921","ios":"levelo://app?vid=304f9f4a-a81c-46e6-92f4-3a8c14972921"},"vehicle_type_id":"4","last_reported":1777277040,"current_range_meters":3600,"station_id":"st_d6sm7csbq4hs73f8fpjg","pricing_plan_id":"cebpf4jnsgd1na2vs0mg"},{"bike_id":"bcf63076-a1dc-4e68-b80f-d2f74e0a4ebe","system_id":"levelo_inurba_marseille","lat":43.24829,"lon":5.37444,"is_reserved":false,"is_disabled":false,"rental_uris":{"android":"levelo://app?vid=bcf63076-a1dc-4e68-b80f-d2f74e0a4ebe","ios":"levelo://app?vid=bcf63076-a1dc-4e68-b80f-d2f74e0a4ebe"},"vehicle_type_id":"4","last_reported":1777277040,"current_range_meters":3600,"station_id":"ce4bhgh2rcd13ifvqfb0","pricing_plan_id":"cebpf4jnsgd1na2vs0mg"},{"bike_id":"39c6c4d6-7555-4b53-ad56-337ccc229a3f","system_id":"levelo_inurba_marseille","lat":43.30743,"lon":5.42456,"is_reserved":false,"is_disabled":false,"rental_uris":{"android":"levelo://app?vid=39c6c4d6-7555-4b53-ad56-337ccc229a3f","ios":"levelo://app?vid=39c6c4d6-7555-4b53-ad56-337ccc229a3f"},"vehicle_type_id":"4","last_reported":1777277040,"current_range_meters":3600,"station_id":"st_cvj6ca6bvosntc0bfgr0","pricing_plan_id":"cebpf4jnsgd1na2vs0mg"},{"bike_id":"d054276e-6372-4793-ae37-6281dafb78f8","system_id":"levelo_inurba_marseille","lat":43.3376,"lon":5.37435,"is_reserved":false,"is_disabled":false,"rental_uris":{"android":"levelo://app?vid=d054276e-6372-4793-ae37-6281dafb78f8","ios":"levelo://app?vid=d054276e-6372-4793-ae37-6281dafb78f8"},"vehicle_type_id":"4","last_reported":1777277040,"current_range_meters":3600,"station_id":"","pricing_plan_id":"cebpf4jnsgd1na2vs0mg"},{"bike_id":"4260f12f-7785-4ae6-848f-7e5a2687171e","system_id":"levelo_inurba_marseille","lat":43.297,"lon":5.37692,"is_reserved":false,"is_disabled":true,"rental_uris":{"android":"levelo://app?vid=4260f12f-7785-4ae6-848f-7e5a2687171e","ios":"levelo://app?vid=4260f12f-7785-4ae6-848f-7e5a2687171e"},"vehicle_type_id":"4","last_reported":1777277040,"current_range_meters":3600,"station_id":"ce4bgkh2rcd13ifvqbl0","pricing_plan_id":"cebpf4jnsgd1na2vs0mg"},{"bike_id":"b8b81bae-6651-4d12-bc86-1135e0c7d31a","system_id":"levelo_inurba_marseille","lat":43.304931,"lon":5.390656,"is_reserved":false,"is_disabled":false,"rental_uris":{"android":"levelo://app?vid=b8b81bae-6651-4d12-bc86-1135e0c7d31a","ios":"levelo://app?vid=b8b81bae-6651-4d12-bc86-1135e0c7d31a"},"vehicle_type_id":"4","last_reported":1777277040,"current_range_meters":4000,"station_id":"ce4bgk12rcd13ifvqbi0","pricing_plan_id":"cebpf4jnsgd1na2vs0mg"},{"bike_id":"1fa7c290-baf4-43ed-aa99-7181dabef99e","system_id":"levelo_inurba_marseille","lat":43.33552,"lon":5.37461,"is_reserved":false,"is_disabled":false,"rental_uris":{"android":"levelo://app?vid=1fa7c290-baf4-43ed-aa99-7181dabef99e","ios":"levelo://app?vid=1fa7c290-baf4-43ed-aa99-7181dabef99e"},"vehicle_type_id":"4","last_reported":1777277040,"current_range_meters":4000,"station_id":"st_d46tts09ee8s73dlu43g","pricing_plan_id":"cebpf4jnsgd1na2vs0mg"},{"bike_id":"274b41c4-8b16-47b0-9c85-d9e012646b67","system_id":"levelo_inurba_marseille","lat":43.22928,"lon":5.35371,"is_reserved":false,"is_disabled":true,"rental_uris":{"android":"levelo://app?vid=274b41c4-8b16-47b0-9c85-d9e012646b67","ios":"levelo://app?vid=274b41c4-8b16-47b0-9c85-d9e012646b67"},"vehicle_type_id":"4","last_reported":1777277040,"current_range_meters":4000,"station_id":"cpo3532slgdg3j2ikp40","pricing_plan_id":"cebpf4jnsgd1na2vs0mg"},{"bike_id":"fb350924-3b39-4197-a891-8208914eef37","system_id":"levelo_inurba_marseille","lat":43.28101,"lon":5.37813,"is_reserved":false,"is_disabled":false,"rental_uris":{"android":"levelo://app?vid=fb350924-3b39-4197-a891-8208914eef37","ios":"levelo://app?vid=fb350924-3b39-4197-a891-8208914eef37"},"vehicle_type_id":"4","last_reported":1777277040,"current_range_meters":4000,"station_id":"ce4bha12rcd13ifvqee0","pricing_plan_id":"cebpf4jnsgd1na2vs0mg"},{"bike_id":"b7166d00-058e-4f8a-ac08-8d7664362d9a","system_id":"levelo_inurba_marseille","lat":43.26542,"lon":5.37285,"is_reserved":false,"is_disabled":false,"rental_uris":{"android":"levelo://app?vid=b7166d00-058e-4f8a-ac08-8d7664362d9a","ios":"levelo://app?vid=b7166d00-058e-4f8a-ac08-8d7664362d9a"},"vehicle_type_id":"4","last_reported":1777277040,"current_range_meters":4000,"station_id":"ce4bhg12rcd13ifvqf70","pricing_plan_id":"cebpf4jnsgd1na2vs0mg"},{"bike_id":"3bd670fb-6ae4-461e-9d0b-019497219f8e","system_id":"levelo_inurba_marseille","lat":43.24373,"lon":5.37027,"is_reserved":false,"is_disabled":false,"rental_uris":{"android":"levelo://app?vid=3bd670fb-6ae4-461e-9d0b-019497219f8e","ios":"levelo://app?vid=3bd670fb-6ae4-461e-9d0b-019497219f8e"},"vehicle_type_id":"4","last_reported":1777277040,"current_range_meters":4000,"station_id":"ce4bhhh2rcd13ifvqfk0","pricing_plan_id":"cebpf4jnsgd1na2vs0mg"},{"bike_id":"31ce8eff-1c0a-4202-bd1b-24b41234d06b","system_id":"levelo_inurba_marseille","lat":43.28555,"lon":5.39938,"is_reserved":false,"is_disabled":false,"rental_uris":{"android":"levelo://app?vid=31ce8eff-1c0a-4202-bd1b-24b41234d06b","ios":"levelo://app?vid=31ce8eff-1c0a-4202-bd1b-24b41234d06b"},"vehicle_type_id":"4","last_reported":1777277040,"current_range_meters":4000,"station_id":"","pricing_plan_id":"cebpf4jnsgd1na2vs0mg"},{"bike_id":"ae8f77c6-c07c-4027-879d-fc932849a655","system_id":"levelo_inurba_marseille","lat":43.2408,"lon":5.37752,"is_reserved":false,"is_disabled":false,"rental_uris":{"android":"levelo://app?vid=ae8f77c6-c07c-4027-879d-fc932849a655","ios":"levelo://app?vid=ae8f77c6-c07c-4027-879d-fc932849a655"},"vehicle_type_id":"4","last_reported":1777277040,"current_range_meters":4400,"station_id":"ce4bhnp2rcd13ifvqgvg","pricing_plan_id":"cebpf4jnsgd1na2vs0mg"},{"bike_id":"494fd0fc-3b39-4504-a26b-321afbf22977","system_id":"levelo_inurba_marseille","lat":43.23831,"lon":5.38543,"is_reserved":false,"is_disabled":false,"rental_uris":{"android":"levelo://app?vid=494fd0fc-3b39-4504-a26b-321afbf22977","ios":"levelo://app?vid=494fd0fc-3b39-4504-a26b-321afbf22977"},"vehicle_type_id":"4","last_reported":1777277040,"current_range_meters":4400,"station_id":"","pricing_plan_id":"cebpf4jnsgd1na2vs0mg"},{"bike_id":"724d0869-017c-4e7e-9911-705be0df09b1","system_id":"levelo_inurba_marseille","lat":43.31444,"lon":5.37384,"is_reserved":false,"is_disabled":false,"rental_uris":{"android":"levelo://app?vid=724d0869-017c-4e7e-9911-705be0df09b1","ios":"levelo://app?vid=724d0869-017c-4e7e-9911-705be0df09b1"},"vehicle_type_id":"4","last_reported":1777277040,"current_range_meters":4400,"station_id":"","pricing_plan_id":"cebpf4jnsgd1na2vs0mg"},{"bike_id":"a5d1c5f8-e551-41de-b7f3-a52119a1050b","system_id":"levelo_inurba_marseille","lat":43.27812,"lon":5.37445,"is_reserved":false,"is_disabled":false,"rental_uris":{"android":"levelo://app?vid=a5d1c5f8-e551-41de-b7f3-a52119a1050b","ios":"levelo://app?vid=a5d1c5f8-e551-41de-b7f3-a52119a1050b"},"vehicle_type_id":"4","last_reported":1777277040,"current_range_meters":4400,"station_id":"","pricing_plan_id":"cebpf4jnsgd1na2vs0mg"},{"bike_id":"a4a9905e-bb73-4113-a7fc-8bbee45b3232","system_id":"levelo_inurba_marseille","lat":43.25926,"lon":5.40903,"is_reserved":false,"is_disabled":false,"rental_uris":{"android":"levelo://app?vid=a4a9905e-bb73-4113-a7fc-8bbee45b3232","ios":"levelo://app?vid=a4a9905e-bb73-4113-a7fc-8bbee45b3232"},"vehicle_type_id":"4","last_reported":1777277040,"current_range_meters":4400,"station_id":"ce4bhm92rcd13ifvqglg","pricing_plan_id":"cebpf4jnsgd1na2vs0mg"},{"bike_id":"5d5806bb-88b4-4c23-90f2-153aae0fc241","system_id":"levelo_inurba_marseille","lat":43.30886,"lon":5.37192,"is_reserved":false,"is_disabled":false,"rental_uris":{"android":"levelo://app?vid=5d5806bb-88b4-4c23-90f2-153aae0fc241","ios":"levelo://app?vid=5d5806bb-88b4-4c23-90f2-153aae0fc241"},"vehicle_type_id":"4","last_reported":1777277040,"current_range_meters":4400,"station_id":"ce4bguh2rcd13ifvqckg","pricing_plan_id":"cebpf4jnsgd1na2vs0mg"},{"bike_id":"6ddc963f-850e-48bd-8c13-00bdb7271451","system_id":"levelo_inurba_marseille","lat":43.27433,"lon":5.39407,"is_reserved":false,"is_disabled":false,"rental_uris":{"android":"levelo://app?vid=6ddc963f-850e-48bd-8c13-00bdb7271451","ios":"levelo://app?vid=6ddc963f-850e-48bd-8c13-00bdb7271451"},"vehicle_type_id":"4","last_reported":1777277040,"current_range_meters":4800,"station_id":"ce4bhdp2rcd13ifvqf20","pricing_plan_id":"cebpf4jnsgd1na2vs0mg"},{"bike_id":"9a47d7bd-96eb-478e-a702-fd9fd4d995ef","system_id":"levelo_inurba_marseille","lat":43.23139,"lon":5.43716,"is_reserved":false,"is_disabled":false,"rental_uris":{"android":"levelo://app?vid=9a47d7bd-96eb-478e-a702-fd9fd4d995ef","ios":"levelo://app?vid=9a47d7bd-96eb-478e-a702-fd9fd4d995ef"},"vehicle_type_id":"4","last_reported":1777277040,"current_range_meters":4800,"station_id":"ce4bhmp2rcd13ifvqgog","pricing_plan_id":"cebpf4jnsgd1na2vs0mg"},{"bike_id":"f0911052-53b7-4b1f-be4b-e19b320b01d6","system_id":"levelo_inurba_marseille","lat":43.30153,"lon":5.38067,"is_reserved":false,"is_disabled":false,"rental_uris":{"android":"levelo://app?vid=f0911052-53b7-4b1f-be4b-e19b320b01d6","ios":"levelo://app?vid=f0911052-53b7-4b1f-be4b-e19b320b01d6"},"vehicle_type_id":"4","last_reported":1777277040,"current_range_meters":4800,"station_id":"ce4bgjp2rcd13ifvqbh0","pricing_plan_id":"cebpf4jnsgd1na2vs0mg"},{"bike_id":"df5e1676-a3bd-4f6a-b38e-0c03df37a770","system_id":"levelo_inurba_marseille","lat":43.2997,"lon":5.38493,"is_reserved":false,"is_disabled":false,"rental_uris":{"android":"levelo://app?vid=df5e1676-a3bd-4f6a-b38e-0c03df37a770","ios":"levelo://app?vid=df5e1676-a3bd-4f6a-b38e-0c03df37a770"},"vehicle_type_id":"4","last_reported":1777277040,"current_range_meters":4800,"station_id":"ce4bgj92rcd13ifvqbd0","pricing_plan_id":"cebpf4jnsgd1na2vs0mg"},{"bike_id":"f7716b3d-5dc6-4c1f-94ea-dd8b69d23a22","system_id":"levelo_inurba_marseille","lat":43.27506,"lon":5.435,"is_reserved":false,"is_disabled":false,"rental_uris":{"android":"levelo://app?vid=f7716b3d-5dc6-4c1f-94ea-dd8b69d23a22","ios":"levelo://app?vid=f7716b3d-5dc6-4c1f-94ea-dd8b69d23a22"},"vehicle_type_id":"4","last_reported":1777277040,"current_range_meters":4800,"station_id":"","pricing_plan_id":"cebpf4jnsgd1na2vs0mg"},{"bike_id":"d84dad1f-3355-427c-a81e-a3f872caa973","system_id":"levelo_inurba_marseille","lat":43.28704,"lon":5.46682,"is_reserved":false,"is_disabled":false,"rental_uris":{"android":"levelo://app?vid=d84dad1f-3355-427c-a81e-a3f872caa973","ios":"levelo://app?vid=d84dad1f-3355-427c-a81e-a3f872caa973"},"vehicle_type_id":"4","last_reported":1777277040,"current_range_meters":5600,"station_id":"st_d6tc3vkotcvc738tfjhg","pricing_plan_id":"cebpf4jnsgd1na2vs0mg"},{"bike_id":"ec2f0941-52e8-44bd-952f-ec48acea9900","system_id":"levelo_inurba_marseille","lat":43.27077,"lon":5.42257,"is_reserved":false,"is_disabled":false,"rental_uris":{"android":"levelo://app?vid=ec2f0941-52e8-44bd-952f-ec48acea9900","ios":"levelo://app?vid=ec2f0941-52e8-44bd-952f-ec48acea9900"},"vehicle_type_id":"4","last_reported":1777277040,"current_range_meters":5600,"station_id":"ce4bhk92rcd13ifvqgb0","pricing_plan_id":"cebpf4jnsgd1na2vs0mg"},{"bike_id":"405e25df-13ad-4f77-bb2e-2d994c62eba2","system_id":"levelo_inurba_marseille","lat":43.27494,"lon":5.42458,"is_reserved":false,"is_disabled":false,"rental_uris":{"android":"levelo://app?vid=405e25df-13ad-4f77-bb2e-2d994c62eba2","ios":"levelo://app?vid=405e25df-13ad-4f77-bb2e-2d994c62eba2"},"vehicle_type_id":"4","last_reported":1777277040,"current_range_meters":5600,"station_id":"ce4bhn92rcd13ifvqgrg","pricing_plan_id":"cebpf4jnsgd1na2vs0mg"},{"bike_id":"6cf182ab-af74-4567-a8c2-f4c30f6e6051","system_id":"levelo_inurba_marseille","lat":43.27372,"lon":5.36261,"is_reserved":false,"is_disabled":false,"rental_uris":{"android":"levelo://app?vid=6cf182ab-af74-4567-a8c2-f4c30f6e6051","ios":"levelo://app?vid=6cf182ab-af74-4567-a8c2-f4c30f6e6051"},"vehicle_type_id":"4","last_reported":1777277040,"current_range_meters":5600,"station_id":"ce4bhbh2rcd13ifvqeo0","pricing_plan_id":"cebpf4jnsgd1na2vs0mg"},{"bike_id":"35ef112e-98e9-4c5d-b945-e6e7b1469a12","system_id":"levelo_inurba_marseille","lat":43.28154,"lon":5.42628,"is_reserved":false,"is_disabled":false,"rental_uris":{"android":"levelo://app?vid=35ef112e-98e9-4c5d-b945-e6e7b1469a12","ios":"levelo://app?vid=35ef112e-98e9-4c5d-b945-e6e7b1469a12"},"vehicle_type_id":"4","last_reported":1777277040,"current_range_meters":5600,"station_id":"ce4bhnh2rcd13ifvqgug","pricing_plan_id":"cebpf4jnsgd1na2vs0mg"},{"bike_id":"590e691e-de69-4d2f-9820-c2f5a79c8c6c","system_id":"levelo_inurba_marseille","lat":43.24461,"lon":5.4254,"is_reserved":false,"is_disabled":false,"rental_uris":{"android":"levelo://app?vid=590e691e-de69-4d2f-9820-c2f5a79c8c6c","ios":"levelo://app?vid=590e691e-de69-4d2f-9820-c2f5a79c8c6c"},"vehicle_type_id":"4","last_reported":1777277040,"current_range_meters":5600,"station_id":"st_d4a3vfp97mjs738cd8kg","pricing_plan_id":"cebpf4jnsgd1na2vs0mg"},{"bike_id":"d2d3bd8e-fd14-4ec9-b340-d789c6f7f3e7","system_id":"levelo_inurba_marseille","lat":43.29066,"lon":5.37126,"is_reserved":false,"is_disabled":false,"rental_uris":{"android":"levelo://app?vid=d2d3bd8e-fd14-4ec9-b340-d789c6f7f3e7","ios":"levelo://app?vid=d2d3bd8e-fd14-4ec9-b340-d789c6f7f3e7"},"vehicle_type_id":"4","last_reported":1777277040,"current_range_meters":5600,"station_id":"ce4bh5p2rcd13ifvqe4g","pricing_plan_id":"cebpf4jnsgd1na2vs0mg"},{"bike_id":"7917a9d5-4ac9-40bd-8834-5d3047c76c9d","system_id":"levelo_inurba_marseille","lat":43.32497,"lon":5.40755,"is_reserved":false,"is_disabled":false,"rental_uris":{"android":"levelo://app?vid=7917a9d5-4ac9-40bd-8834-5d3047c76c9d","ios":"levelo://app?vid=7917a9d5-4ac9-40bd-8834-5d3047c76c9d"},"vehicle_type_id":"4","last_reported":1777277040,"current_range_meters":5600,"station_id":"","pricing_plan_id":"cebpf4jnsgd1na2vs0mg"},{"bike_id":"0d296048-24e0-40d1-9bd2-37bfc6a61eed","system_id":"levelo_inurba_marseille","lat":43.29172,"lon":5.3716,"is_reserved":false,"is_disabled":false,"rental_uris":{"android":"levelo://app?vid=0d296048-24e0-40d1-9bd2-37bfc6a61eed","ios":"levelo://app?vid=0d296048-24e0-40d1-9bd2-37bfc6a61eed"},"vehicle_type_id":"4","last_reported":1777277040,"current_range_meters":5600,"station_id":"ce4bha92rcd13ifvqeh0","pricing_plan_id":"cebpf4jnsgd1na2vs0mg"},{"bike_id":"50fcb081-4b05-4355-adf3-07f022c0399c","system_id":"levelo_inurba_marseille","lat":43.30993,"lon":5.37913,"is_reserved":false,"is_disabled":false,"rental_uris":{"android":"levelo://app?vid=50fcb081-4b05-4355-adf3-07f022c0399c","ios":"levelo://app?vid=50fcb081-4b05-4355-adf3-07f022c0399c"},"vehicle_type_id":"4","last_reported":1777277040,"current_range_meters":5600,"station_id":"","pricing_plan_id":"cebpf4jnsgd1na2vs0mg"},{"bike_id":"df75676a-7c3f-4d29-80c0-260795f2c62d","system_id":"levelo_inurba_marseille","lat":43.27958,"lon":5.40797,"is_reserved":false,"is_disabled":false,"rental_uris":{"android":"levelo://app?vid=df75676a-7c3f-4d29-80c0-260795f2c62d","ios":"levelo://app?vid=df75676a-7c3f-4d29-80c0-260795f2c62d"},"vehicle_type_id":"4","last_reported":1777277040,"current_range_meters":6000,"station_id":"","pricing_plan_id":"cebpf4jnsgd1na2vs0mg"},{"bike_id":"ba54c037-f92d-4268-aaf4-53c9f179da6a","system_id":"levelo_inurba_marseille","lat":43.33767,"lon":5.37473,"is_reserved":false,"is_disabled":false,"rental_uris":{"android":"levelo://app?vid=ba54c037-f92d-4268-aaf4-53c9f179da6a","ios":"levelo://app?vid=ba54c037-f92d-4268-aaf4-53c9f179da6a"},"vehicle_type_id":"4","last_reported":1777277040,"current_range_meters":6000,"station_id":"st_d46tts09ee8s73dlu43g","pricing_plan_id":"cebpf4jnsgd1na2vs0mg"},{"bike_id":"5676b1df-3102-49f0-94ea-6bd037dc90c9","system_id":"levelo_inurba_marseille","lat":43.31122,"lon":5.38051,"is_reserved":false,"is_disabled":false,"rental_uris":{"android":"levelo://app?vid=5676b1df-3102-49f0-94ea-6bd037dc90c9","ios":"levelo://app?vid=5676b1df-3102-49f0-94ea-6bd037dc90c9"},"vehicle_type_id":"4","last_reported":1777277040,"current_range_meters":6000,"station_id":"","pricing_plan_id":"cebpf4jnsgd1na2vs0mg"},{"bike_id":"b2d03522-4c6b-4c37-a7cf-8a619124823c","system_id":"levelo_inurba_marseille","lat":43.28729,"lon":5.37917,"is_reserved":false,"is_disabled":false,"rental_uris":{"android":"levelo://app?vid=b2d03522-4c6b-4c37-a7cf-8a619124823c","ios":"levelo://app?vid=b2d03522-4c6b-4c37-a7cf-8a619124823c"},"vehicle_type_id":"4","last_reported":1777277040,"current_range_meters":6000,"station_id":"ce4bh9p2rcd13ifvqec0","pricing_plan_id":"cebpf4jnsgd1na2vs0mg"},{"bike_id":"9f6b01fb-b757-485b-badf-67602a04eb28","system_id":"levelo_inurba_marseille","lat":43.26199,"lon":5.37904,"is_reserved":false,"is_disabled":false,"rental_uris":{"android":"levelo://app?vid=9f6b01fb-b757-485b-badf-67602a04eb28","ios":"levelo://app?vid=9f6b01fb-b757-485b-badf-67602a04eb28"},"vehicle_type_id":"4","last_reported":1777277040,"current_range_meters":6000,"station_id":"ce4bhjp2rcd13ifvqg90","pricing_plan_id":"cebpf4jnsgd1na2vs0mg"},{"bike_id":"8e2981d0-7056-481f-8585-5b3ecb4b783a","system_id":"levelo_inurba_marseille","lat":43.21748,"lon":5.34611,"is_reserved":false,"is_disabled":false,"rental_uris":{"android":"levelo://app?vid=8e2981d0-7056-481f-8585-5b3ecb4b783a","ios":"levelo://app?vid=8e2981d0-7056-481f-8585-5b3ecb4b783a"},"vehicle_type_id":"4","last_reported":1777277040,"current_range_meters":6000,"station_id":"st_cvj6r9ubvosntc0bgbag","pricing_plan_id":"cebpf4jnsgd1na2vs0mg"},{"bike_id":"1f13452b-ac27-48ca-bbd2-1255b0865067","system_id":"levelo_inurba_marseille","lat":43.2784,"lon":5.37916,"is_reserved":false,"is_disabled":false,"rental_uris":{"android":"levelo://app?vid=1f13452b-ac27-48ca-bbd2-1255b0865067","ios":"levelo://app?vid=1f13452b-ac27-48ca-bbd2-1255b0865067"},"vehicle_type_id":"4","last_reported":1777277040,"current_range_meters":6000,"station_id":"","pricing_plan_id":"cebpf4jnsgd1na2vs0mg"},{"bike_id":"88e8b6c7-f3a0-4c19-a03c-bae058b1f42a","system_id":"levelo_inurba_marseille","lat":43.26027,"lon":5.37556,"is_reserved":false,"is_disabled":false,"rental_uris":{"android":"levelo://app?vid=88e8b6c7-f3a0-4c19-a03c-bae058b1f42a","ios":"levelo://app?vid=88e8b6c7-f3a0-4c19-a03c-bae058b1f42a"},"vehicle_type_id":"4","last_reported":1777277040,"current_range_meters":6000,"station_id":"ce4bhgh2rcd13ifvqfa0","pricing_plan_id":"cebpf4jnsgd1na2vs0mg"},{"bike_id":"c6941364-0b3e-415d-827c-e48038694e60","system_id":"levelo_inurba_marseille","lat":43.30759,"lon":5.43533,"is_reserved":false,"is_disabled":false,"rental_uris":{"android":"levelo://app?vid=c6941364-0b3e-415d-827c-e48038694e60","ios":"levelo://app?vid=c6941364-0b3e-415d-827c-e48038694e60"},"vehicle_type_id":"4","last_reported":1777277040,"current_range_meters":6000,"station_id":"","pricing_plan_id":"cebpf4jnsgd1na2vs0mg"},{"bike_id":"ff6bcf45-709d-43d9-a8a2-97de444795ce","system_id":"levelo_inurba_marseille","lat":43.29633,"lon":5.3772,"is_reserved":false,"is_disabled":false,"rental_uris":{"android":"levelo://app?vid=ff6bcf45-709d-43d9-a8a2-97de444795ce","ios":"levelo://app?vid=ff6bcf45-709d-43d9-a8a2-97de444795ce"},"vehicle_type_id":"4","last_reported":1777277040,"current_range_meters":6000,"station_id":"ce4bgi92rcd13ifvqb90","pricing_plan_id":"cebpf4jnsgd1na2vs0mg"},{"bike_id":"0ac6fe75-176f-47ca-97df-dc3691075e50","system_id":"levelo_inurba_marseille","lat":43.2706,"lon":5.38302,"is_reserved":false,"is_disabled":false,"rental_uris":{"android":"levelo://app?vid=0ac6fe75-176f-47ca-97df-dc3691075e50","ios":"levelo://app?vid=0ac6fe75-176f-47ca-97df-dc3691075e50"},"vehicle_type_id":"4","last_reported":1777277040,"current_range_meters":6000,"station_id":"st_d3n2fo6cfp8s73cte1j0","pricing_plan_id":"cebpf4jnsgd1na2vs0mg"},{"bike_id":"867e4efb-03e8-466f-a027-d873140a375d","system_id":"levelo_inurba_marseille","lat":43.24813,"lon":5.37472,"is_reserved":false,"is_disabled":false,"rental_uris":{"android":"levelo://app?vid=867e4efb-03e8-466f-a027-d873140a375d","ios":"levelo://app?vid=867e4efb-03e8-466f-a027-d873140a375d"},"vehicle_type_id":"4","last_reported":1777277040,"current_range_meters":6000,"station_id":"ce4bhgh2rcd13ifvqfb0","pricing_plan_id":"cebpf4jnsgd1na2vs0mg"},{"bike_id":"1e85b119-41e1-4230-b10a-2da667c13d61","system_id":"levelo_inurba_marseille","lat":43.26207,"lon":5.37429,"is_reserved":false,"is_disabled":false,"rental_uris":{"android":"levelo://app?vid=1e85b119-41e1-4230-b10a-2da667c13d61","ios":"levelo://app?vid=1e85b119-41e1-4230-b10a-2da667c13d61"},"vehicle_type_id":"4","last_reported":1777277040,"current_range_meters":6000,"station_id":"ce4bhgp2rcd13ifvqfc0","pricing_plan_id":"cebpf4jnsgd1na2vs0mg"},{"bike_id":"b2cb60e5-09a5-4b69-83c7-b28a3036903c","system_id":"levelo_inurba_marseille","lat":43.27947,"lon":5.41055,"is_reserved":false,"is_disabled":false,"rental_uris":{"android":"levelo://app?vid=b2cb60e5-09a5-4b69-83c7-b28a3036903c","ios":"levelo://app?vid=b2cb60e5-09a5-4b69-83c7-b28a3036903c"},"vehicle_type_id":"4","last_reported":1777277040,"current_range_meters":6000,"station_id":"ce4bhnp2rcd13ifvqh0g","pricing_plan_id":"cebpf4jnsgd1na2vs0mg"},{"bike_id":"5367fafd-42a5-4c52-bd35-5d85953af91c","system_id":"levelo_inurba_marseille","lat":43.309,"lon":5.37122,"is_reserved":false,"is_disabled":true,"rental_uris":{"android":"levelo://app?vid=5367fafd-42a5-4c52-bd35-5d85953af91c","ios":"levelo://app?vid=5367fafd-42a5-4c52-bd35-5d85953af91c"},"vehicle_type_id":"4","last_reported":1777277040,"current_range_meters":6400,"station_id":"ce4bguh2rcd13ifvqckg","pricing_plan_id":"cebpf4jnsgd1na2vs0mg"},{"bike_id":"5c180de8-9c17-4b87-a3cf-6c2cc4bfc770","system_id":"levelo_inurba_marseille","lat":43.28411,"lon":5.37507,"is_reserved":false,"is_disabled":false,"rental_uris":{"android":"levelo://app?vid=5c180de8-9c17-4b87-a3cf-6c2cc4bfc770","ios":"levelo://app?vid=5c180de8-9c17-4b87-a3cf-6c2cc4bfc770"},"vehicle_type_id":"4","last_reported":1777277040,"current_range_meters":6400,"station_id":"ce4bh412rcd13ifvqds0","pricing_plan_id":"cebpf4jnsgd1na2vs0mg"},{"bike_id":"b21748b2-fb24-4ee6-8e6a-c7c61264faec","system_id":"levelo_inurba_marseille","lat":43.2741,"lon":5.42204,"is_reserved":false,"is_disabled":false,"rental_uris":{"android":"levelo://app?vid=b21748b2-fb24-4ee6-8e6a-c7c61264faec","ios":"levelo://app?vid=b21748b2-fb24-4ee6-8e6a-c7c61264faec"},"vehicle_type_id":"4","last_reported":1777277040,"current_range_meters":6400,"station_id":"","pricing_plan_id":"cebpf4jnsgd1na2vs0mg"},{"bike_id":"688502c1-a8fc-48c0-968b-c7dc384e8e47","system_id":"levelo_inurba_marseille","lat":43.27492,"lon":5.42447,"is_reserved":false,"is_disabled":false,"rental_uris":{"android":"levelo://app?vid=688502c1-a8fc-48c0-968b-c7dc384e8e47","ios":"levelo://app?vid=688502c1-a8fc-48c0-968b-c7dc384e8e47"},"vehicle_type_id":"4","last_reported":1777277040,"current_range_meters":6400,"station_id":"ce4bhn92rcd13ifvqgrg","pricing_plan_id":"cebpf4jnsgd1na2vs0mg"},{"bike_id":"bd6c692e-5612-44a3-94e3-d815a75607a1","system_id":"levelo_inurba_marseille","lat":43.3014,"lon":5.37397,"is_reserved":false,"is_disabled":false,"rental_uris":{"android":"levelo://app?vid=bd6c692e-5612-44a3-94e3-d815a75607a1","ios":"levelo://app?vid=bd6c692e-5612-44a3-94e3-d815a75607a1"},"vehicle_type_id":"4","last_reported":1777277040,"current_range_meters":6400,"station_id":"ce4bgs92rcd13ifvqcc0","pricing_plan_id":"cebpf4jnsgd1na2vs0mg"},{"bike_id":"4f39db0b-6723-4bfa-81de-60f2dace51a2","system_id":"levelo_inurba_marseille","lat":43.29574,"lon":5.3751,"is_reserved":false,"is_disabled":false,"rental_uris":{"android":"levelo://app?vid=4f39db0b-6723-4bfa-81de-60f2dace51a2","ios":"levelo://app?vid=4f39db0b-6723-4bfa-81de-60f2dace51a2"},"vehicle_type_id":"4","last_reported":1777277040,"current_range_meters":6400,"station_id":"ce4bgh92rcd13ifvqb50","pricing_plan_id":"cebpf4jnsgd1na2vs0mg"},{"bike_id":"fd583349-9e7d-4e5b-8155-1da1a7a44b99","system_id":"levelo_inurba_marseille","lat":43.2795,"lon":5.4104,"is_reserved":false,"is_disabled":false,"rental_uris":{"android":"levelo://app?vid=fd583349-9e7d-4e5b-8155-1da1a7a44b99","ios":"levelo://app?vid=fd583349-9e7d-4e5b-8155-1da1a7a44b99"},"vehicle_type_id":"4","last_reported":1777277040,"current_range_meters":6400,"station_id":"ce4bhnp2rcd13ifvqh0g","pricing_plan_id":"cebpf4jnsgd1na2vs0mg"},{"bike_id":"2e734499-6f00-499b-90dc-b3f3e3caf0ee","system_id":"levelo_inurba_marseille","lat":43.28917,"lon":5.38381,"is_reserved":false,"is_disabled":true,"rental_uris":{"android":"levelo://app?vid=2e734499-6f00-499b-90dc-b3f3e3caf0ee","ios":"levelo://app?vid=2e734499-6f00-499b-90dc-b3f3e3caf0ee"},"vehicle_type_id":"4","last_reported":1777277040,"current_range_meters":6400,"station_id":"ce4bh612rcd13ifvqe6g","pricing_plan_id":"cebpf4jnsgd1na2vs0mg"},{"bike_id":"020db429-7c6a-4786-a59b-3eb7a60f4963","system_id":"levelo_inurba_marseille","lat":43.23208,"lon":5.35537,"is_reserved":false,"is_disabled":false,"rental_uris":{"android":"levelo://app?vid=020db429-7c6a-4786-a59b-3eb7a60f4963","ios":"levelo://app?vid=020db429-7c6a-4786-a59b-3eb7a60f4963"},"vehicle_type_id":"4","last_reported":1777277040,"current_range_meters":6400,"station_id":"ce4bhu92rcd13ifvqi70","pricing_plan_id":"cebpf4jnsgd1na2vs0mg"},{"bike_id":"11560fe7-fea0-4469-a766-85729ac61a00","system_id":"levelo_inurba_marseille","lat":43.24668,"lon":5.43135,"is_reserved":false,"is_disabled":false,"rental_uris":{"android":"levelo://app?vid=11560fe7-fea0-4469-a766-85729ac61a00","ios":"levelo://app?vid=11560fe7-fea0-4469-a766-85729ac61a00"},"vehicle_type_id":"4","last_reported":1777277040,"current_range_meters":6400,"station_id":"st_d2m6c4gdas8pm72e190g","pricing_plan_id":"cebpf4jnsgd1na2vs0mg"},{"bike_id":"b9cd8f2e-12cc-4221-acb7-68a86568b704","system_id":"levelo_inurba_marseille","lat":43.3094,"lon":5.39063,"is_reserved":false,"is_disabled":false,"rental_uris":{"android":"levelo://app?vid=b9cd8f2e-12cc-4221-acb7-68a86568b704","ios":"levelo://app?vid=b9cd8f2e-12cc-4221-acb7-68a86568b704"},"vehicle_type_id":"4","last_reported":1777277040,"current_range_meters":6400,"station_id":"ce4bgup2rcd13ifvqco0","pricing_plan_id":"cebpf4jnsgd1na2vs0mg"},{"bike_id":"257b022b-58f3-4894-a9bd-52e9cd91af3a","system_id":"levelo_inurba_marseille","lat":43.290385,"lon":5.375605,"is_reserved":false,"is_disabled":false,"rental_uris":{"android":"levelo://app?vid=257b022b-58f3-4894-a9bd-52e9cd91af3a","ios":"levelo://app?vid=257b022b-58f3-4894-a9bd-52e9cd91af3a"},"vehicle_type_id":"4","last_reported":1777277040,"current_range_meters":6400,"station_id":"ce4bh692rcd13ifvqe90","pricing_plan_id":"cebpf4jnsgd1na2vs0mg"},{"bike_id":"27cd71a7-0940-4415-a67f-21597fbf1cd9","system_id":"levelo_inurba_marseille","lat":43.3447,"lon":5.37856,"is_reserved":false,"is_disabled":false,"rental_uris":{"android":"levelo://app?vid=27cd71a7-0940-4415-a67f-21597fbf1cd9","ios":"levelo://app?vid=27cd71a7-0940-4415-a67f-21597fbf1cd9"},"vehicle_type_id":"4","last_reported":1777277040,"current_range_meters":6800,"station_id":"","pricing_plan_id":"cebpf4jnsgd1na2vs0mg"},{"bike_id":"61ae2715-1267-4c21-b15f-6842462faa8b","system_id":"levelo_inurba_marseille","lat":43.2979,"lon":5.38099,"is_reserved":false,"is_disabled":false,"rental_uris":{"android":"levelo://app?vid=61ae2715-1267-4c21-b15f-6842462faa8b","ios":"levelo://app?vid=61ae2715-1267-4c21-b15f-6842462faa8b"},"vehicle_type_id":"4","last_reported":1777277040,"current_range_meters":6800,"station_id":"ce4bgip2rcd13ifvqbb0","pricing_plan_id":"cebpf4jnsgd1na2vs0mg"},{"bike_id":"ad06fbeb-2893-47bd-9310-693ccba410e9","system_id":"levelo_inurba_marseille","lat":43.28763,"lon":5.46823,"is_reserved":false,"is_disabled":false,"rental_uris":{"android":"levelo://app?vid=ad06fbeb-2893-47bd-9310-693ccba410e9","ios":"levelo://app?vid=ad06fbeb-2893-47bd-9310-693ccba410e9"},"vehicle_type_id":"4","last_reported":1777277040,"current_range_meters":6800,"station_id":"","pricing_plan_id":"cebpf4jnsgd1na2vs0mg"},{"bike_id":"b5a537b6-b61d-47e7-987f-89ff3330dfdc","system_id":"levelo_inurba_marseille","lat":43.274199,"lon":5.394136,"is_reserved":false,"is_disabled":false,"rental_uris":{"android":"levelo://app?vid=b5a537b6-b61d-47e7-987f-89ff3330dfdc","ios":"levelo://app?vid=b5a537b6-b61d-47e7-987f-89ff3330dfdc"},"vehicle_type_id":"4","last_reported":1777277040,"current_range_meters":6800,"station_id":"ce4bhdp2rcd13ifvqf20","pricing_plan_id":"cebpf4jnsgd1na2vs0mg"},{"bike_id":"cf4537a9-051c-4080-9a3f-93f632ce0082","system_id":"levelo_inurba_marseille","lat":43.337444,"lon":5.374475,"is_reserved":false,"is_disabled":false,"rental_uris":{"android":"levelo://app?vid=cf4537a9-051c-4080-9a3f-93f632ce0082","ios":"levelo://app?vid=cf4537a9-051c-4080-9a3f-93f632ce0082"},"vehicle_type_id":"4","last_reported":1777277040,"current_range_meters":6800,"station_id":"","pricing_plan_id":"cebpf4jnsgd1na2vs0mg"},{"bike_id":"b9ec8ac2-f12d-450c-92a3-3acf90c86aa3","system_id":"levelo_inurba_marseille","lat":43.2792,"lon":5.39572,"is_reserved":false,"is_disabled":false,"rental_uris":{"android":"levelo://app?vid=b9ec8ac2-f12d-450c-92a3-3acf90c86aa3","ios":"levelo://app?vid=b9ec8ac2-f12d-450c-92a3-3acf90c86aa3"},"vehicle_type_id":"4","last_reported":1777277040,"current_range_meters":6800,"station_id":"ce4bhf92rcd13ifvqf40","pricing_plan_id":"cebpf4jnsgd1na2vs0mg"},{"bike_id":"c11d1808-32dc-4683-bc6f-c818ed8e14de","system_id":"levelo_inurba_marseille","lat":43.27497,"lon":5.4247,"is_reserved":false,"is_disabled":true,"rental_uris":{"android":"levelo://app?vid=c11d1808-32dc-4683-bc6f-c818ed8e14de","ios":"levelo://app?vid=c11d1808-32dc-4683-bc6f-c818ed8e14de"},"vehicle_type_id":"4","last_reported":1777277040,"current_range_meters":6800,"station_id":"ce4bhn92rcd13ifvqgrg","pricing_plan_id":"cebpf4jnsgd1na2vs0mg"},{"bike_id":"a9335f62-4c73-44b2-8914-e3f52e6941ca","system_id":"levelo_inurba_marseille","lat":43.32098,"lon":5.36776,"is_reserved":false,"is_disabled":false,"rental_uris":{"android":"levelo://app?vid=a9335f62-4c73-44b2-8914-e3f52e6941ca","ios":"levelo://app?vid=a9335f62-4c73-44b2-8914-e3f52e6941ca"},"vehicle_type_id":"4","last_reported":1777277040,"current_range_meters":6800,"station_id":"ce4bhrh2rcd13ifvqhug","pricing_plan_id":"cebpf4jnsgd1na2vs0mg"},{"bike_id":"6017df33-ce24-45a8-8e18-56103d6c2dd7","system_id":"levelo_inurba_marseille","lat":43.26951,"lon":5.38631,"is_reserved":false,"is_disabled":false,"rental_uris":{"android":"levelo://app?vid=6017df33-ce24-45a8-8e18-56103d6c2dd7","ios":"levelo://app?vid=6017df33-ce24-45a8-8e18-56103d6c2dd7"},"vehicle_type_id":"4","last_reported":1777277040,"current_range_meters":6800,"station_id":"ce4bhh92rcd13ifvqfh0","pricing_plan_id":"cebpf4jnsgd1na2vs0mg"},{"bike_id":"93378c7e-8a33-4e07-ab2a-fc9cc927fe7a","system_id":"levelo_inurba_marseille","lat":43.28858,"lon":5.39313,"is_reserved":false,"is_disabled":false,"rental_uris":{"android":"levelo://app?vid=93378c7e-8a33-4e07-ab2a-fc9cc927fe7a","ios":"levelo://app?vid=93378c7e-8a33-4e07-ab2a-fc9cc927fe7a"},"vehicle_type_id":"4","last_reported":1777277040,"current_range_meters":6800,"station_id":"ce4bh2p2rcd13ifvqdi0","pricing_plan_id":"cebpf4jnsgd1na2vs0mg"},{"bike_id":"c42888c3-fc9f-4d91-a30f-2c13aa526f2a","system_id":"levelo_inurba_marseille","lat":43.31068,"lon":5.37164,"is_reserved":false,"is_disabled":false,"rental_uris":{"android":"levelo://app?vid=c42888c3-fc9f-4d91-a30f-2c13aa526f2a","ios":"levelo://app?vid=c42888c3-fc9f-4d91-a30f-2c13aa526f2a"},"vehicle_type_id":"4","last_reported":1777277040,"current_range_meters":6800,"station_id":"st_d4kl2rp97mjs73e7tdfg","pricing_plan_id":"cebpf4jnsgd1na2vs0mg"},{"bike_id":"07dd1776-73df-417c-87ab-2ed61da40beb","system_id":"levelo_inurba_marseille","lat":43.28353,"lon":5.38105,"is_reserved":false,"is_disabled":false,"rental_uris":{"android":"levelo://app?vid=07dd1776-73df-417c-87ab-2ed61da40beb","ios":"levelo://app?vid=07dd1776-73df-417c-87ab-2ed61da40beb"},"vehicle_type_id":"4","last_reported":1777277040,"current_range_meters":6800,"station_id":"ce4bh412rcd13ifvqdr0","pricing_plan_id":"cebpf4jnsgd1na2vs0mg"},{"bike_id":"ad7f39c7-54a1-4029-b6ae-2efb1422eac3","system_id":"levelo_inurba_marseille","lat":43.29292,"lon":5.3745,"is_reserved":false,"is_disabled":false,"rental_uris":{"android":"levelo://app?vid=ad7f39c7-54a1-4029-b6ae-2efb1422eac3","ios":"levelo://app?vid=ad7f39c7-54a1-4029-b6ae-2efb1422eac3"},"vehicle_type_id":"4","last_reported":1777277040,"current_range_meters":6800,"station_id":"ce4bgi12rcd13ifvqb70","pricing_plan_id":"cebpf4jnsgd1na2vs0mg"},{"bike_id":"706ecd89-bafe-46bb-8b99-a5d007005819","system_id":"levelo_inurba_marseille","lat":43.24761,"lon":5.37494,"is_reserved":false,"is_disabled":false,"rental_uris":{"android":"levelo://app?vid=706ecd89-bafe-46bb-8b99-a5d007005819","ios":"levelo://app?vid=706ecd89-bafe-46bb-8b99-a5d007005819"},"vehicle_type_id":"4","last_reported":1777277040,"current_range_meters":7200,"station_id":"ce4bhgh2rcd13ifvqfb0","pricing_plan_id":"cebpf4jnsgd1na2vs0mg"},{"bike_id":"91e4eed8-7aa0-4ca6-bc8b-33ffc5693469","system_id":"levelo_inurba_marseille","lat":43.31334,"lon":5.37908,"is_reserved":false,"is_disabled":false,"rental_uris":{"android":"levelo://app?vid=91e4eed8-7aa0-4ca6-bc8b-33ffc5693469","ios":"levelo://app?vid=91e4eed8-7aa0-4ca6-bc8b-33ffc5693469"},"vehicle_type_id":"4","last_reported":1777277040,"current_range_meters":7200,"station_id":"","pricing_plan_id":"cebpf4jnsgd1na2vs0mg"},{"bike_id":"dddac9b2-d585-4cc6-81fd-79953cd6bf7f","system_id":"levelo_inurba_marseille","lat":43.23147,"lon":5.43708,"is_reserved":false,"is_disabled":false,"rental_uris":{"android":"levelo://app?vid=dddac9b2-d585-4cc6-81fd-79953cd6bf7f","ios":"levelo://app?vid=dddac9b2-d585-4cc6-81fd-79953cd6bf7f"},"vehicle_type_id":"4","last_reported":1777277040,"current_range_meters":7200,"station_id":"ce4bhmp2rcd13ifvqgog","pricing_plan_id":"cebpf4jnsgd1na2vs0mg"},{"bike_id":"13cf91b7-dbef-473e-91e9-9aac5cc1ac36","system_id":"levelo_inurba_marseille","lat":43.29264,"lon":5.37611,"is_reserved":false,"is_disabled":false,"rental_uris":{"android":"levelo://app?vid=13cf91b7-dbef-473e-91e9-9aac5cc1ac36","ios":"levelo://app?vid=13cf91b7-dbef-473e-91e9-9aac5cc1ac36"},"vehicle_type_id":"4","last_reported":1777277040,"current_range_meters":7200,"station_id":"ce4bgi12rcd13ifvqb80","pricing_plan_id":"cebpf4jnsgd1na2vs0mg"},{"bike_id":"70ab68a7-f252-47fa-a529-01a3240781ee","system_id":"levelo_inurba_marseille","lat":43.23247,"lon":5.43588,"is_reserved":false,"is_disabled":false,"rental_uris":{"android":"levelo://app?vid=70ab68a7-f252-47fa-a529-01a3240781ee","ios":"levelo://app?vid=70ab68a7-f252-47fa-a529-01a3240781ee"},"vehicle_type_id":"4","last_reported":1777277040,"current_range_meters":7200,"station_id":"ce4bhmp2rcd13ifvqgog","pricing_plan_id":"cebpf4jnsgd1na2vs0mg"},{"bike_id":"e6e0181d-d51b-42d7-93b1-7e8f4d00629c","system_id":"levelo_inurba_marseille","lat":43.29825,"lon":5.42027,"is_reserved":false,"is_disabled":true,"rental_uris":{"android":"levelo://app?vid=e6e0181d-d51b-42d7-93b1-7e8f4d00629c","ios":"levelo://app?vid=e6e0181d-d51b-42d7-93b1-7e8f4d00629c"},"vehicle_type_id":"4","last_reported":1777277040,"current_range_meters":7200,"station_id":"","pricing_plan_id":"cebpf4jnsgd1na2vs0mg"},{"bike_id":"6b5b9e45-67f3-4a64-a294-ead66e30dbef","system_id":"levelo_inurba_marseille","lat":43.24681,"lon":5.3817,"is_reserved":false,"is_disabled":false,"rental_uris":{"android":"levelo://app?vid=6b5b9e45-67f3-4a64-a294-ead66e30dbef","ios":"levelo://app?vid=6b5b9e45-67f3-4a64-a294-ead66e30dbef"},"vehicle_type_id":"4","last_reported":1777277040,"current_range_meters":7200,"station_id":"ce4bhih2rcd13ifvqfr0","pricing_plan_id":"cebpf4jnsgd1na2vs0mg"},{"bike_id":"4409b652-11e2-40ab-b44a-91ab18a85625","system_id":"levelo_inurba_marseille","lat":43.2856,"lon":5.39497,"is_reserved":false,"is_disabled":false,"rental_uris":{"android":"levelo://app?vid=4409b652-11e2-40ab-b44a-91ab18a85625","ios":"levelo://app?vid=4409b652-11e2-40ab-b44a-91ab18a85625"},"vehicle_type_id":"4","last_reported":1777277040,"current_range_meters":7200,"station_id":"ce4bh292rcd13ifvqdg0","pricing_plan_id":"cebpf4jnsgd1na2vs0mg"},{"bike_id":"3b336641-ad1e-4815-a966-b57f7139f89a","system_id":"levelo_inurba_marseille","lat":43.30607,"lon":5.3722,"is_reserved":false,"is_disabled":false,"rental_uris":{"android":"levelo://app?vid=3b336641-ad1e-4815-a966-b57f7139f89a","ios":"levelo://app?vid=3b336641-ad1e-4815-a966-b57f7139f89a"},"vehicle_type_id":"4","last_reported":1777277040,"current_range_meters":7200,"station_id":"ce4bgqh2rcd13ifvqc4g","pricing_plan_id":"cebpf4jnsgd1na2vs0mg"},{"bike_id":"2725b0c0-a653-43ae-bc24-ce0141576499","system_id":"levelo_inurba_marseille","lat":43.30126,"lon":5.43107,"is_reserved":false,"is_disabled":false,"rental_uris":{"android":"levelo://app?vid=2725b0c0-a653-43ae-bc24-ce0141576499","ios":"levelo://app?vid=2725b0c0-a653-43ae-bc24-ce0141576499"},"vehicle_type_id":"4","last_reported":1777277040,"current_range_meters":7200,"station_id":"st_d3js3co5814s73ftftug","pricing_plan_id":"cebpf4jnsgd1na2vs0mg"},{"bike_id":"5f507e31-3dd6-447e-a9b5-15992546554f","system_id":"levelo_inurba_marseille","lat":43.28151,"lon":5.42656,"is_reserved":false,"is_disabled":false,"rental_uris":{"android":"levelo://app?vid=5f507e31-3dd6-447e-a9b5-15992546554f","ios":"levelo://app?vid=5f507e31-3dd6-447e-a9b5-15992546554f"},"vehicle_type_id":"4","last_reported":1777277040,"current_range_meters":7200,"station_id":"ce4bhnh2rcd13ifvqgug","pricing_plan_id":"cebpf4jnsgd1na2vs0mg"},{"bike_id":"62a20b6e-e98d-4cc9-b298-e865d7184b00","system_id":"levelo_inurba_marseille","lat":43.25494,"lon":5.376476,"is_reserved":false,"is_disabled":false,"rental_uris":{"android":"levelo://app?vid=62a20b6e-e98d-4cc9-b298-e865d7184b00","ios":"levelo://app?vid=62a20b6e-e98d-4cc9-b298-e865d7184b00"},"vehicle_type_id":"4","last_reported":1777277040,"current_range_meters":7200,"station_id":"ce4bhh12rcd13ifvqff0","pricing_plan_id":"cebpf4jnsgd1na2vs0mg"},{"bike_id":"04d27d63-c162-4f83-8f85-ae78937d9843","system_id":"levelo_inurba_marseille","lat":43.24183,"lon":5.39721,"is_reserved":false,"is_disabled":false,"rental_uris":{"android":"levelo://app?vid=04d27d63-c162-4f83-8f85-ae78937d9843","ios":"levelo://app?vid=04d27d63-c162-4f83-8f85-ae78937d9843"},"vehicle_type_id":"4","last_reported":1777277040,"current_range_meters":7200,"station_id":"ce4bhn12rcd13ifvqgpg","pricing_plan_id":"cebpf4jnsgd1na2vs0mg"},{"bike_id":"74b0aff8-bcbc-4720-b4ee-1008108db705","system_id":"levelo_inurba_marseille","lat":43.30147,"lon":5.38075,"is_reserved":false,"is_disabled":false,"rental_uris":{"android":"levelo://app?vid=74b0aff8-bcbc-4720-b4ee-1008108db705","ios":"levelo://app?vid=74b0aff8-bcbc-4720-b4ee-1008108db705"},"vehicle_type_id":"4","last_reported":1777277040,"current_range_meters":7200,"station_id":"ce4bgjp2rcd13ifvqbh0","pricing_plan_id":"cebpf4jnsgd1na2vs0mg"},{"bike_id":"8050b833-adef-43e8-8f24-94a8d1b4458b","system_id":"levelo_inurba_marseille","lat":43.27493,"lon":5.42441,"is_reserved":false,"is_disabled":false,"rental_uris":{"android":"levelo://app?vid=8050b833-adef-43e8-8f24-94a8d1b4458b","ios":"levelo://app?vid=8050b833-adef-43e8-8f24-94a8d1b4458b"},"vehicle_type_id":"4","last_reported":1777277040,"current_range_meters":7200,"station_id":"ce4bhn92rcd13ifvqgrg","pricing_plan_id":"cebpf4jnsgd1na2vs0mg"},{"bike_id":"76e100a0-77f6-48f6-b3d7-3eb9a98d4d51","system_id":"levelo_inurba_marseille","lat":43.29206,"lon":5.39323,"is_reserved":false,"is_disabled":false,"rental_uris":{"android":"levelo://app?vid=76e100a0-77f6-48f6-b3d7-3eb9a98d4d51","ios":"levelo://app?vid=76e100a0-77f6-48f6-b3d7-3eb9a98d4d51"},"vehicle_type_id":"4","last_reported":1777277040,"current_range_meters":7200,"station_id":"ce4bh192rcd13ifvqdd0","pricing_plan_id":"cebpf4jnsgd1na2vs0mg"},{"bike_id":"44f95360-db42-4c59-950c-35c0d9baa9cc","system_id":"levelo_inurba_marseille","lat":43.29627,"lon":5.37729,"is_reserved":false,"is_disabled":false,"rental_uris":{"android":"levelo://app?vid=44f95360-db42-4c59-950c-35c0d9baa9cc","ios":"levelo://app?vid=44f95360-db42-4c59-950c-35c0d9baa9cc"},"vehicle_type_id":"4","last_reported":1777277040,"current_range_meters":7200,"station_id":"ce4bgi92rcd13ifvqb90","pricing_plan_id":"cebpf4jnsgd1na2vs0mg"},{"bike_id":"cfa40bf7-7c5f-4567-b9c8-9841fba1763e","system_id":"levelo_inurba_marseille","lat":43.26579,"lon":5.4032,"is_reserved":false,"is_disabled":false,"rental_uris":{"android":"levelo://app?vid=cfa40bf7-7c5f-4567-b9c8-9841fba1763e","ios":"levelo://app?vid=cfa40bf7-7c5f-4567-b9c8-9841fba1763e"},"vehicle_type_id":"4","last_reported":1777277040,"current_range_meters":7200,"station_id":"ce4bhmp2rcd13ifvqgng","pricing_plan_id":"cebpf4jnsgd1na2vs0mg"},{"bike_id":"2ecb7814-e231-4e51-a3ee-b3315f0bc596","system_id":"levelo_inurba_marseille","lat":43.25586,"lon":5.38238,"is_reserved":false,"is_disabled":false,"rental_uris":{"android":"levelo://app?vid=2ecb7814-e231-4e51-a3ee-b3315f0bc596","ios":"levelo://app?vid=2ecb7814-e231-4e51-a3ee-b3315f0bc596"},"vehicle_type_id":"4","last_reported":1777277040,"current_range_meters":7200,"station_id":"ce4bhih2rcd13ifvqfs0","pricing_plan_id":"cebpf4jnsgd1na2vs0mg"},{"bike_id":"bafd7925-1d13-4669-ad52-57dd653246e6","system_id":"levelo_inurba_marseille","lat":43.28968,"lon":5.37835,"is_reserved":false,"is_disabled":false,"rental_uris":{"android":"levelo://app?vid=bafd7925-1d13-4669-ad52-57dd653246e6","ios":"levelo://app?vid=bafd7925-1d13-4669-ad52-57dd653246e6"},"vehicle_type_id":"4","last_reported":1777277040,"current_range_meters":8000,"station_id":"ce4bh9p2rcd13ifvqed0","pricing_plan_id":"cebpf4jnsgd1na2vs0mg"},{"bike_id":"c5e4557e-a579-4ba0-b540-76be6c2c51d2","system_id":"levelo_inurba_marseille","lat":43.26919,"lon":5.40228,"is_reserved":false,"is_disabled":false,"rental_uris":{"android":"levelo://app?vid=c5e4557e-a579-4ba0-b540-76be6c2c51d2","ios":"levelo://app?vid=c5e4557e-a579-4ba0-b540-76be6c2c51d2"},"vehicle_type_id":"4","last_reported":1777277040,"current_range_meters":8000,"station_id":"cjm6bp8fraef2m0cb0m0","pricing_plan_id":"cebpf4jnsgd1na2vs0mg"},{"bike_id":"5c6dbc22-6dc1-4a74-95d1-677c3ccf7a7b","system_id":"levelo_inurba_marseille","lat":43.29942,"lon":5.365536,"is_reserved":false,"is_disabled":true,"rental_uris":{"android":"levelo://app?vid=5c6dbc22-6dc1-4a74-95d1-677c3ccf7a7b","ios":"levelo://app?vid=5c6dbc22-6dc1-4a74-95d1-677c3ccf7a7b"},"vehicle_type_id":"4","last_reported":1777277040,"current_range_meters":8000,"station_id":"ce4bgm92rcd13ifvqbr0","pricing_plan_id":"cebpf4jnsgd1na2vs0mg"},{"bike_id":"e71479ac-2c75-4920-9d3c-08826be0b2df","system_id":"levelo_inurba_marseille","lat":43.28862,"lon":5.42514,"is_reserved":false,"is_disabled":false,"rental_uris":{"android":"levelo://app?vid=e71479ac-2c75-4920-9d3c-08826be0b2df","ios":"levelo://app?vid=e71479ac-2c75-4920-9d3c-08826be0b2df"},"vehicle_type_id":"4","last_reported":1777277040,"current_range_meters":8000,"station_id":"st_d3b462108ojc7389ooeg","pricing_plan_id":"cebpf4jnsgd1na2vs0mg"},{"bike_id":"11a5074f-be5e-43a9-8f56-2fea90effe08","system_id":"levelo_inurba_marseille","lat":43.24556,"lon":5.39586,"is_reserved":false,"is_disabled":false,"rental_uris":{"android":"levelo://app?vid=11a5074f-be5e-43a9-8f56-2fea90effe08","ios":"levelo://app?vid=11a5074f-be5e-43a9-8f56-2fea90effe08"},"vehicle_type_id":"4","last_reported":1777277040,"current_range_meters":8000,"station_id":"","pricing_plan_id":"cebpf4jnsgd1na2vs0mg"},{"bike_id":"c9cb66db-c301-45f9-aa4f-9bd5e6d2aa43","system_id":"levelo_inurba_marseille","lat":43.3027,"lon":5.37711,"is_reserved":false,"is_disabled":false,"rental_uris":{"android":"levelo://app?vid=c9cb66db-c301-45f9-aa4f-9bd5e6d2aa43","ios":"levelo://app?vid=c9cb66db-c301-45f9-aa4f-9bd5e6d2aa43"},"vehicle_type_id":"4","last_reported":1777277040,"current_range_meters":8000,"station_id":"ce4bguh2rcd13ifvqcj0","pricing_plan_id":"cebpf4jnsgd1na2vs0mg"},{"bike_id":"d1063a8e-a667-4f9b-9166-4b2ea1244e5f","system_id":"levelo_inurba_marseille","lat":43.24789,"lon":5.37463,"is_reserved":false,"is_disabled":false,"rental_uris":{"android":"levelo://app?vid=d1063a8e-a667-4f9b-9166-4b2ea1244e5f","ios":"levelo://app?vid=d1063a8e-a667-4f9b-9166-4b2ea1244e5f"},"vehicle_type_id":"4","last_reported":1777277040,"current_range_meters":8000,"station_id":"ce4bhgh2rcd13ifvqfb0","pricing_plan_id":"cebpf4jnsgd1na2vs0mg"},{"bike_id":"a17a356a-6340-4eae-b4d5-d59f3247dda3","system_id":"levelo_inurba_marseille","lat":43.25999,"lon":5.39205,"is_reserved":false,"is_disabled":false,"rental_uris":{"android":"levelo://app?vid=a17a356a-6340-4eae-b4d5-d59f3247dda3","ios":"levelo://app?vid=a17a356a-6340-4eae-b4d5-d59f3247dda3"},"vehicle_type_id":"4","last_reported":1777277040,"current_range_meters":8000,"station_id":"","pricing_plan_id":"cebpf4jnsgd1na2vs0mg"},{"bike_id":"d68cd392-a214-40e4-8e5f-e39fa567524a","system_id":"levelo_inurba_marseille","lat":43.30137,"lon":5.37423,"is_reserved":false,"is_disabled":true,"rental_uris":{"android":"levelo://app?vid=d68cd392-a214-40e4-8e5f-e39fa567524a","ios":"levelo://app?vid=d68cd392-a214-40e4-8e5f-e39fa567524a"},"vehicle_type_id":"4","last_reported":1777277040,"current_range_meters":8000,"station_id":"ce4bgs92rcd13ifvqcc0","pricing_plan_id":"cebpf4jnsgd1na2vs0mg"},{"bike_id":"bd2c7d31-fe9e-468d-9d54-feca4b12126c","system_id":"levelo_inurba_marseille","lat":43.30891,"lon":5.37179,"is_reserved":false,"is_disabled":false,"rental_uris":{"android":"levelo://app?vid=bd2c7d31-fe9e-468d-9d54-feca4b12126c","ios":"levelo://app?vid=bd2c7d31-fe9e-468d-9d54-feca4b12126c"},"vehicle_type_id":"4","last_reported":1777277040,"current_range_meters":8000,"station_id":"ce4bguh2rcd13ifvqckg","pricing_plan_id":"cebpf4jnsgd1na2vs0mg"},{"bike_id":"0d8c3362-be20-49ce-8a46-7df1fa0c42ea","system_id":"levelo_inurba_marseille","lat":43.24806,"lon":5.37457,"is_reserved":false,"is_disabled":false,"rental_uris":{"android":"levelo://app?vid=0d8c3362-be20-49ce-8a46-7df1fa0c42ea","ios":"levelo://app?vid=0d8c3362-be20-49ce-8a46-7df1fa0c42ea"},"vehicle_type_id":"4","last_reported":1777277040,"current_range_meters":8000,"station_id":"ce4bhgh2rcd13ifvqfb0","pricing_plan_id":"cebpf4jnsgd1na2vs0mg"},{"bike_id":"ad26b8dc-edee-444c-8fc3-cb83169b331a","system_id":"levelo_inurba_marseille","lat":43.28155,"lon":5.42641,"is_reserved":false,"is_disabled":false,"rental_uris":{"android":"levelo://app?vid=ad26b8dc-edee-444c-8fc3-cb83169b331a","ios":"levelo://app?vid=ad26b8dc-edee-444c-8fc3-cb83169b331a"},"vehicle_type_id":"4","last_reported":1777277040,"current_range_meters":8000,"station_id":"ce4bhnh2rcd13ifvqgug","pricing_plan_id":"cebpf4jnsgd1na2vs0mg"},{"bike_id":"b1bbaadd-0e01-4c94-ac11-97e3cbbb5d02","system_id":"levelo_inurba_marseille","lat":43.27053,"lon":5.42229,"is_reserved":false,"is_disabled":false,"rental_uris":{"android":"levelo://app?vid=b1bbaadd-0e01-4c94-ac11-97e3cbbb5d02","ios":"levelo://app?vid=b1bbaadd-0e01-4c94-ac11-97e3cbbb5d02"},"vehicle_type_id":"4","last_reported":1777277040,"current_range_meters":8000,"station_id":"ce4bhk92rcd13ifvqgb0","pricing_plan_id":"cebpf4jnsgd1na2vs0mg"},{"bike_id":"50f8bdff-b169-44f8-8920-840c94d5e30a","system_id":"levelo_inurba_marseille","lat":43.28481,"lon":5.4839,"is_reserved":false,"is_disabled":true,"rental_uris":{"android":"levelo://app?vid=50f8bdff-b169-44f8-8920-840c94d5e30a","ios":"levelo://app?vid=50f8bdff-b169-44f8-8920-840c94d5e30a"},"vehicle_type_id":"4","last_reported":1777277040,"current_range_meters":8000,"station_id":"","pricing_plan_id":"cebpf4jnsgd1na2vs0mg"},{"bike_id":"870e0d9e-4850-46bf-826b-bb575c104c95","system_id":"levelo_inurba_marseille","lat":43.24629,"lon":5.43135,"is_reserved":false,"is_disabled":false,"rental_uris":{"android":"levelo://app?vid=870e0d9e-4850-46bf-826b-bb575c104c95","ios":"levelo://app?vid=870e0d9e-4850-46bf-826b-bb575c104c95"},"vehicle_type_id":"4","last_reported":1777277040,"current_range_meters":8000,"station_id":"st_d2m6c4gdas8pm72e190g","pricing_plan_id":"cebpf4jnsgd1na2vs0mg"},{"bike_id":"3f770a65-a402-4f4f-a68c-02e61d34c793","system_id":"levelo_inurba_marseille","lat":43.3096,"lon":5.39043,"is_reserved":false,"is_disabled":false,"rental_uris":{"android":"levelo://app?vid=3f770a65-a402-4f4f-a68c-02e61d34c793","ios":"levelo://app?vid=3f770a65-a402-4f4f-a68c-02e61d34c793"},"vehicle_type_id":"4","last_reported":1777277040,"current_range_meters":8000,"station_id":"ce4bgup2rcd13ifvqco0","pricing_plan_id":"cebpf4jnsgd1na2vs0mg"},{"bike_id":"8733314a-81ac-4cfa-a879-d698094ab237","system_id":"levelo_inurba_marseille","lat":43.29524,"lon":5.37512,"is_reserved":false,"is_disabled":false,"rental_uris":{"android":"levelo://app?vid=8733314a-81ac-4cfa-a879-d698094ab237","ios":"levelo://app?vid=8733314a-81ac-4cfa-a879-d698094ab237"},"vehicle_type_id":"4","last_reported":1777277040,"current_range_meters":8000,"station_id":"ce4bgkp2rcd13ifvqbmg","pricing_plan_id":"cebpf4jnsgd1na2vs0mg"},{"bike_id":"71016f77-2094-4ed9-8956-75ef0073cf6a","system_id":"levelo_inurba_marseille","lat":43.24543,"lon":5.3952,"is_reserved":false,"is_disabled":false,"rental_uris":{"android":"levelo://app?vid=71016f77-2094-4ed9-8956-75ef0073cf6a","ios":"levelo://app?vid=71016f77-2094-4ed9-8956-75ef0073cf6a"},"vehicle_type_id":"4","last_reported":1777277040,"current_range_meters":8400,"station_id":"ce4bhlp2rcd13ifvqgjg","pricing_plan_id":"cebpf4jnsgd1na2vs0mg"},{"bike_id":"e5d0e68a-dee4-4664-b2e7-41693e048ab1","system_id":"levelo_inurba_marseille","lat":43.2895,"lon":5.39635,"is_reserved":false,"is_disabled":true,"rental_uris":{"android":"levelo://app?vid=e5d0e68a-dee4-4664-b2e7-41693e048ab1","ios":"levelo://app?vid=e5d0e68a-dee4-4664-b2e7-41693e048ab1"},"vehicle_type_id":"4","last_reported":1777277040,"current_range_meters":8400,"station_id":"ce4bh3h2rcd13ifvqdn0","pricing_plan_id":"cebpf4jnsgd1na2vs0mg"},{"bike_id":"181f2449-0d9a-4f74-aed9-d4a85cc5ef6a","system_id":"levelo_inurba_marseille","lat":43.3148,"lon":5.37287,"is_reserved":false,"is_disabled":false,"rental_uris":{"android":"levelo://app?vid=181f2449-0d9a-4f74-aed9-d4a85cc5ef6a","ios":"levelo://app?vid=181f2449-0d9a-4f74-aed9-d4a85cc5ef6a"},"vehicle_type_id":"4","last_reported":1777277040,"current_range_meters":8400,"station_id":"ce4bgt12rcd13ifvqcd0","pricing_plan_id":"cebpf4jnsgd1na2vs0mg"},{"bike_id":"95fcacf0-7086-4a79-916d-eb3549d744d3","system_id":"levelo_inurba_marseille","lat":43.337444,"lon":5.374475,"is_reserved":false,"is_disabled":false,"rental_uris":{"android":"levelo://app?vid=95fcacf0-7086-4a79-916d-eb3549d744d3","ios":"levelo://app?vid=95fcacf0-7086-4a79-916d-eb3549d744d3"},"vehicle_type_id":"4","last_reported":1777277040,"current_range_meters":8400,"station_id":"","pricing_plan_id":"cebpf4jnsgd1na2vs0mg"},{"bike_id":"6b9ceb44-f98b-4474-bf14-5e53602be7a5","system_id":"levelo_inurba_marseille","lat":43.33536,"lon":5.37468,"is_reserved":false,"is_disabled":false,"rental_uris":{"android":"levelo://app?vid=6b9ceb44-f98b-4474-bf14-5e53602be7a5","ios":"levelo://app?vid=6b9ceb44-f98b-4474-bf14-5e53602be7a5"},"vehicle_type_id":"4","last_reported":1777277040,"current_range_meters":8400,"station_id":"st_d46tts09ee8s73dlu43g","pricing_plan_id":"cebpf4jnsgd1na2vs0mg"},{"bike_id":"addff318-653f-45c2-bbb7-77b46b3919e4","system_id":"levelo_inurba_marseille","lat":43.21754,"lon":5.34623,"is_reserved":false,"is_disabled":false,"rental_uris":{"android":"levelo://app?vid=addff318-653f-45c2-bbb7-77b46b3919e4","ios":"levelo://app?vid=addff318-653f-45c2-bbb7-77b46b3919e4"},"vehicle_type_id":"4","last_reported":1777277040,"current_range_meters":8400,"station_id":"st_cvj6r9ubvosntc0bgbag","pricing_plan_id":"cebpf4jnsgd1na2vs0mg"},{"bike_id":"11effbb2-3489-4e85-aec9-0e018fcdcc03","system_id":"levelo_inurba_marseille","lat":43.23201,"lon":5.35542,"is_reserved":false,"is_disabled":false,"rental_uris":{"android":"levelo://app?vid=11effbb2-3489-4e85-aec9-0e018fcdcc03","ios":"levelo://app?vid=11effbb2-3489-4e85-aec9-0e018fcdcc03"},"vehicle_type_id":"4","last_reported":1777277040,"current_range_meters":8400,"station_id":"ce4bhu92rcd13ifvqi70","pricing_plan_id":"cebpf4jnsgd1na2vs0mg"},{"bike_id":"2e013045-b635-4629-a87d-995ec1628a85","system_id":"levelo_inurba_marseille","lat":43.32108,"lon":5.36779,"is_reserved":false,"is_disabled":false,"rental_uris":{"android":"levelo://app?vid=2e013045-b635-4629-a87d-995ec1628a85","ios":"levelo://app?vid=2e013045-b635-4629-a87d-995ec1628a85"},"vehicle_type_id":"4","last_reported":1777277040,"current_range_meters":8400,"station_id":"ce4bhrh2rcd13ifvqhug","pricing_plan_id":"cebpf4jnsgd1na2vs0mg"},{"bike_id":"53a3123f-fa9d-45d9-b284-09876e4c2ad8","system_id":"levelo_inurba_marseille","lat":43.24067,"lon":5.37758,"is_reserved":false,"is_disabled":false,"rental_uris":{"android":"levelo://app?vid=53a3123f-fa9d-45d9-b284-09876e4c2ad8","ios":"levelo://app?vid=53a3123f-fa9d-45d9-b284-09876e4c2ad8"},"vehicle_type_id":"4","last_reported":1777277040,"current_range_meters":8400,"station_id":"ce4bhnp2rcd13ifvqgvg","pricing_plan_id":"cebpf4jnsgd1na2vs0mg"},{"bike_id":"6b8549bf-30d2-490f-8f61-d9ca43e4d06c","system_id":"levelo_inurba_marseille","lat":43.27017,"lon":5.40224,"is_reserved":false,"is_disabled":false,"rental_uris":{"android":"levelo://app?vid=6b8549bf-30d2-490f-8f61-d9ca43e4d06c","ios":"levelo://app?vid=6b8549bf-30d2-490f-8f61-d9ca43e4d06c"},"vehicle_type_id":"4","last_reported":1777277040,"current_range_meters":8400,"station_id":"","pricing_plan_id":"cebpf4jnsgd1na2vs0mg"},{"bike_id":"e13a4a0e-5a40-4e49-93d3-5b888f84b216","system_id":"levelo_inurba_marseille","lat":43.32099,"lon":5.36757,"is_reserved":false,"is_disabled":false,"rental_uris":{"android":"levelo://app?vid=e13a4a0e-5a40-4e49-93d3-5b888f84b216","ios":"levelo://app?vid=e13a4a0e-5a40-4e49-93d3-5b888f84b216"},"vehicle_type_id":"4","last_reported":1777277040,"current_range_meters":8400,"station_id":"ce4bhrh2rcd13ifvqhug","pricing_plan_id":"cebpf4jnsgd1na2vs0mg"},{"bike_id":"969b0eaf-1182-4875-a1f1-5398a28d21b3","system_id":"levelo_inurba_marseille","lat":43.23153,"lon":5.43701,"is_reserved":false,"is_disabled":false,"rental_uris":{"android":"levelo://app?vid=969b0eaf-1182-4875-a1f1-5398a28d21b3","ios":"levelo://app?vid=969b0eaf-1182-4875-a1f1-5398a28d21b3"},"vehicle_type_id":"4","last_reported":1777277040,"current_range_meters":8400,"station_id":"ce4bhmp2rcd13ifvqgog","pricing_plan_id":"cebpf4jnsgd1na2vs0mg"},{"bike_id":"02ed513f-41cd-4842-be03-6704842dad44","system_id":"levelo_inurba_marseille","lat":43.33739,"lon":5.37442,"is_reserved":false,"is_disabled":false,"rental_uris":{"android":"levelo://app?vid=02ed513f-41cd-4842-be03-6704842dad44","ios":"levelo://app?vid=02ed513f-41cd-4842-be03-6704842dad44"},"vehicle_type_id":"4","last_reported":1777277040,"current_range_meters":8400,"station_id":"","pricing_plan_id":"cebpf4jnsgd1na2vs0mg"},{"bike_id":"45016ab2-cba4-493e-b53b-ed959d96f6eb","system_id":"levelo_inurba_marseille","lat":43.23166,"lon":5.43711,"is_reserved":false,"is_disabled":false,"rental_uris":{"android":"levelo://app?vid=45016ab2-cba4-493e-b53b-ed959d96f6eb","ios":"levelo://app?vid=45016ab2-cba4-493e-b53b-ed959d96f6eb"},"vehicle_type_id":"4","last_reported":1777277040,"current_range_meters":8400,"station_id":"ce4bhmp2rcd13ifvqgog","pricing_plan_id":"cebpf4jnsgd1na2vs0mg"},{"bike_id":"f7e99869-36fe-4d6b-a90a-86600de5ac88","system_id":"levelo_inurba_marseille","lat":43.29021,"lon":5.38121,"is_reserved":false,"is_disabled":false,"rental_uris":{"android":"levelo://app?vid=f7e99869-36fe-4d6b-a90a-86600de5ac88","ios":"levelo://app?vid=f7e99869-36fe-4d6b-a90a-86600de5ac88"},"vehicle_type_id":"4","last_reported":1777277040,"current_range_meters":8800,"station_id":"ce4bh4p2rcd13ifvqe1g","pricing_plan_id":"cebpf4jnsgd1na2vs0mg"},{"bike_id":"f78bf31c-df78-48c6-9a47-5c19da562946","system_id":"levelo_inurba_marseille","lat":43.30454,"lon":5.37907,"is_reserved":false,"is_disabled":false,"rental_uris":{"android":"levelo://app?vid=f78bf31c-df78-48c6-9a47-5c19da562946","ios":"levelo://app?vid=f78bf31c-df78-48c6-9a47-5c19da562946"},"vehicle_type_id":"4","last_reported":1777277040,"current_range_meters":8800,"station_id":"ce4bgup2rcd13ifvqcn0","pricing_plan_id":"cebpf4jnsgd1na2vs0mg"},{"bike_id":"d9cd59cf-4563-4f42-b250-6894e2bbe48d","system_id":"levelo_inurba_marseille","lat":43.24076,"lon":5.37743,"is_reserved":false,"is_disabled":false,"rental_uris":{"android":"levelo://app?vid=d9cd59cf-4563-4f42-b250-6894e2bbe48d","ios":"levelo://app?vid=d9cd59cf-4563-4f42-b250-6894e2bbe48d"},"vehicle_type_id":"4","last_reported":1777277040,"current_range_meters":8800,"station_id":"ce4bhnp2rcd13ifvqgvg","pricing_plan_id":"cebpf4jnsgd1na2vs0mg"},{"bike_id":"1401200e-5936-42c2-aba3-47659625462c","system_id":"levelo_inurba_marseille","lat":43.28483,"lon":5.38454,"is_reserved":false,"is_disabled":false,"rental_uris":{"android":"levelo://app?vid=1401200e-5936-42c2-aba3-47659625462c","ios":"levelo://app?vid=1401200e-5936-42c2-aba3-47659625462c"},"vehicle_type_id":"4","last_reported":1777277040,"current_range_meters":8800,"station_id":"ce4bh512rcd13ifvqe3g","pricing_plan_id":"cebpf4jnsgd1na2vs0mg"},{"bike_id":"ff8d3f37-8ad4-405e-ba70-67022972202f","system_id":"levelo_inurba_marseille","lat":43.30946,"lon":5.39049,"is_reserved":false,"is_disabled":false,"rental_uris":{"android":"levelo://app?vid=ff8d3f37-8ad4-405e-ba70-67022972202f","ios":"levelo://app?vid=ff8d3f37-8ad4-405e-ba70-67022972202f"},"vehicle_type_id":"4","last_reported":1777277040,"current_range_meters":8800,"station_id":"ce4bgup2rcd13ifvqco0","pricing_plan_id":"cebpf4jnsgd1na2vs0mg"},{"bike_id":"8f13b61e-8a25-4927-8213-0f8d3090195b","system_id":"levelo_inurba_marseille","lat":43.28475,"lon":5.48395,"is_reserved":false,"is_disabled":false,"rental_uris":{"android":"levelo://app?vid=8f13b61e-8a25-4927-8213-0f8d3090195b","ios":"levelo://app?vid=8f13b61e-8a25-4927-8213-0f8d3090195b"},"vehicle_type_id":"4","last_reported":1777277040,"current_range_meters":8800,"station_id":"","pricing_plan_id":"cebpf4jnsgd1na2vs0mg"},{"bike_id":"0e6922af-d1e2-4ad6-b8cc-e0fffb9a264e","system_id":"levelo_inurba_marseille","lat":43.29967,"lon":5.38493,"is_reserved":false,"is_disabled":false,"rental_uris":{"android":"levelo://app?vid=0e6922af-d1e2-4ad6-b8cc-e0fffb9a264e","ios":"levelo://app?vid=0e6922af-d1e2-4ad6-b8cc-e0fffb9a264e"},"vehicle_type_id":"4","last_reported":1777277040,"current_range_meters":8800,"station_id":"ce4bgj92rcd13ifvqbd0","pricing_plan_id":"cebpf4jnsgd1na2vs0mg"},{"bike_id":"4fba49e0-f42f-4971-ab48-4a6d5148f297","system_id":"levelo_inurba_marseille","lat":43.26402,"lon":5.42284,"is_reserved":false,"is_disabled":false,"rental_uris":{"android":"levelo://app?vid=4fba49e0-f42f-4971-ab48-4a6d5148f297","ios":"levelo://app?vid=4fba49e0-f42f-4971-ab48-4a6d5148f297"},"vehicle_type_id":"4","last_reported":1777277040,"current_range_meters":8800,"station_id":"","pricing_plan_id":"cebpf4jnsgd1na2vs0mg"},{"bike_id":"63bb2757-bf5a-4ce6-9da8-bdbfc397d7fb","system_id":"levelo_inurba_marseille","lat":43.29231,"lon":5.36037,"is_reserved":false,"is_disabled":false,"rental_uris":{"android":"levelo://app?vid=63bb2757-bf5a-4ce6-9da8-bdbfc397d7fb","ios":"levelo://app?vid=63bb2757-bf5a-4ce6-9da8-bdbfc397d7fb"},"vehicle_type_id":"4","last_reported":1777277040,"current_range_meters":8800,"station_id":"ce4bhbh2rcd13ifvqeqg","pricing_plan_id":"cebpf4jnsgd1na2vs0mg"},{"bike_id":"2e1487b5-ffbe-4174-a3cb-5f2ca03b60ce","system_id":"levelo_inurba_marseille","lat":43.28475,"lon":5.48387,"is_reserved":false,"is_disabled":false,"rental_uris":{"android":"levelo://app?vid=2e1487b5-ffbe-4174-a3cb-5f2ca03b60ce","ios":"levelo://app?vid=2e1487b5-ffbe-4174-a3cb-5f2ca03b60ce"},"vehicle_type_id":"4","last_reported":1777277040,"current_range_meters":8800,"station_id":"st_d3svhcjqgbts73a3dn0g","pricing_plan_id":"cebpf4jnsgd1na2vs0mg"},{"bike_id":"40888cca-ae49-48ed-9640-dd28075cda0b","system_id":"levelo_inurba_marseille","lat":43.24076,"lon":5.3776,"is_reserved":false,"is_disabled":false,"rental_uris":{"android":"levelo://app?vid=40888cca-ae49-48ed-9640-dd28075cda0b","ios":"levelo://app?vid=40888cca-ae49-48ed-9640-dd28075cda0b"},"vehicle_type_id":"4","last_reported":1777277040,"current_range_meters":8800,"station_id":"ce4bhnp2rcd13ifvqgvg","pricing_plan_id":"cebpf4jnsgd1na2vs0mg"},{"bike_id":"16f99702-af44-4075-b501-5504faa87798","system_id":"levelo_inurba_marseille","lat":43.29269,"lon":5.40912,"is_reserved":false,"is_disabled":false,"rental_uris":{"android":"levelo://app?vid=16f99702-af44-4075-b501-5504faa87798","ios":"levelo://app?vid=16f99702-af44-4075-b501-5504faa87798"},"vehicle_type_id":"4","last_reported":1777277040,"current_range_meters":8800,"station_id":"ce4bh192rcd13ifvqdc0","pricing_plan_id":"cebpf4jnsgd1na2vs0mg"},{"bike_id":"32d08e55-44b7-4d77-9bf9-77dafdc725ce","system_id":"levelo_inurba_marseille","lat":43.29308,"lon":5.37463,"is_reserved":false,"is_disabled":false,"rental_uris":{"android":"levelo://app?vid=32d08e55-44b7-4d77-9bf9-77dafdc725ce","ios":"levelo://app?vid=32d08e55-44b7-4d77-9bf9-77dafdc725ce"},"vehicle_type_id":"4","last_reported":1777277040,"current_range_meters":8800,"station_id":"ce4bgi12rcd13ifvqb70","pricing_plan_id":"cebpf4jnsgd1na2vs0mg"},{"bike_id":"486a6bd7-6877-47a7-872d-b6d92138ce35","system_id":"levelo_inurba_marseille","lat":43.28158,"lon":5.42616,"is_reserved":false,"is_disabled":false,"rental_uris":{"android":"levelo://app?vid=486a6bd7-6877-47a7-872d-b6d92138ce35","ios":"levelo://app?vid=486a6bd7-6877-47a7-872d-b6d92138ce35"},"vehicle_type_id":"4","last_reported":1777277040,"current_range_meters":8800,"station_id":"ce4bhnh2rcd13ifvqgug","pricing_plan_id":"cebpf4jnsgd1na2vs0mg"},{"bike_id":"23a43893-db5e-493c-81de-f8390aa0c6ae","system_id":"levelo_inurba_marseille","lat":43.29796,"lon":5.44062,"is_reserved":false,"is_disabled":false,"rental_uris":{"android":"levelo://app?vid=23a43893-db5e-493c-81de-f8390aa0c6ae","ios":"levelo://app?vid=23a43893-db5e-493c-81de-f8390aa0c6ae"},"vehicle_type_id":"4","last_reported":1777277040,"current_range_meters":8800,"station_id":"st_d3jp68qikq2c7381ktn0","pricing_plan_id":"cebpf4jnsgd1na2vs0mg"},{"bike_id":"03cb08f9-8d58-4e9a-84e9-a7957ae0d32d","system_id":"levelo_inurba_marseille","lat":43.23896,"lon":5.37449,"is_reserved":false,"is_disabled":false,"rental_uris":{"android":"levelo://app?vid=03cb08f9-8d58-4e9a-84e9-a7957ae0d32d","ios":"levelo://app?vid=03cb08f9-8d58-4e9a-84e9-a7957ae0d32d"},"vehicle_type_id":"4","last_reported":1777277040,"current_range_meters":8800,"station_id":"st_d6sm7csbq4hs73f8fpjg","pricing_plan_id":"cebpf4jnsgd1na2vs0mg"},{"bike_id":"1d51c702-75ba-494d-89c9-6b8c4379e860","system_id":"levelo_inurba_marseille","lat":43.31187,"lon":5.37799,"is_reserved":false,"is_disabled":false,"rental_uris":{"android":"levelo://app?vid=1d51c702-75ba-494d-89c9-6b8c4379e860","ios":"levelo://app?vid=1d51c702-75ba-494d-89c9-6b8c4379e860"},"vehicle_type_id":"4","last_reported":1777277040,"current_range_meters":8800,"station_id":"","pricing_plan_id":"cebpf4jnsgd1na2vs0mg"},{"bike_id":"12422c7d-a83b-4da0-bfa3-5d9108705c56","system_id":"levelo_inurba_marseille","lat":43.29983,"lon":5.3716,"is_reserved":false,"is_disabled":false,"rental_uris":{"android":"levelo://app?vid=12422c7d-a83b-4da0-bfa3-5d9108705c56","ios":"levelo://app?vid=12422c7d-a83b-4da0-bfa3-5d9108705c56"},"vehicle_type_id":"4","last_reported":1777277040,"current_range_meters":8800,"station_id":"ce4bgr92rcd13ifvqc7g","pricing_plan_id":"cebpf4jnsgd1na2vs0mg"},{"bike_id":"0f724a0c-a1c1-401d-be4e-2de44ce9d14c","system_id":"levelo_inurba_marseille","lat":43.24168,"lon":5.39743,"is_reserved":false,"is_disabled":false,"rental_uris":{"android":"levelo://app?vid=0f724a0c-a1c1-401d-be4e-2de44ce9d14c","ios":"levelo://app?vid=0f724a0c-a1c1-401d-be4e-2de44ce9d14c"},"vehicle_type_id":"4","last_reported":1777277040,"current_range_meters":8800,"station_id":"ce4bhn12rcd13ifvqgpg","pricing_plan_id":"cebpf4jnsgd1na2vs0mg"},{"bike_id":"39424c10-5183-43d9-9b4f-35b493478ea7","system_id":"levelo_inurba_marseille","lat":43.30151,"lon":5.38065,"is_reserved":false,"is_disabled":false,"rental_uris":{"android":"levelo://app?vid=39424c10-5183-43d9-9b4f-35b493478ea7","ios":"levelo://app?vid=39424c10-5183-43d9-9b4f-35b493478ea7"},"vehicle_type_id":"4","last_reported":1777277040,"current_range_meters":8800,"station_id":"ce4bgjp2rcd13ifvqbh0","pricing_plan_id":"cebpf4jnsgd1na2vs0mg"},{"bike_id":"6c0e44b5-b4c6-4989-a0ec-b3c6d257ac1d","system_id":"levelo_inurba_marseille","lat":43.33186,"lon":5.37828,"is_reserved":false,"is_disabled":false,"rental_uris":{"android":"levelo://app?vid=6c0e44b5-b4c6-4989-a0ec-b3c6d257ac1d","ios":"levelo://app?vid=6c0e44b5-b4c6-4989-a0ec-b3c6d257ac1d"},"vehicle_type_id":"4","last_reported":1777277040,"current_range_meters":9200,"station_id":"","pricing_plan_id":"cebpf4jnsgd1na2vs0mg"},{"bike_id":"f9d371b3-5eca-4684-83e4-83febb4192ee","system_id":"levelo_inurba_marseille","lat":43.25924,"lon":5.4091,"is_reserved":false,"is_disabled":false,"rental_uris":{"android":"levelo://app?vid=f9d371b3-5eca-4684-83e4-83febb4192ee","ios":"levelo://app?vid=f9d371b3-5eca-4684-83e4-83febb4192ee"},"vehicle_type_id":"4","last_reported":1777277040,"current_range_meters":9200,"station_id":"ce4bhm92rcd13ifvqglg","pricing_plan_id":"cebpf4jnsgd1na2vs0mg"},{"bike_id":"7d24a3ee-0eb9-47a1-8904-33af700bdc69","system_id":"levelo_inurba_marseille","lat":43.28482,"lon":5.48397,"is_reserved":false,"is_disabled":false,"rental_uris":{"android":"levelo://app?vid=7d24a3ee-0eb9-47a1-8904-33af700bdc69","ios":"levelo://app?vid=7d24a3ee-0eb9-47a1-8904-33af700bdc69"},"vehicle_type_id":"4","last_reported":1777277040,"current_range_meters":9200,"station_id":"st_d3svhcjqgbts73a3dn0g","pricing_plan_id":"cebpf4jnsgd1na2vs0mg"},{"bike_id":"4b1420b9-efb3-4700-b6d2-52c2cf9e73d2","system_id":"levelo_inurba_marseille","lat":43.28419,"lon":5.34973,"is_reserved":false,"is_disabled":false,"rental_uris":{"android":"levelo://app?vid=4b1420b9-efb3-4700-b6d2-52c2cf9e73d2","ios":"levelo://app?vid=4b1420b9-efb3-4700-b6d2-52c2cf9e73d2"},"vehicle_type_id":"4","last_reported":1777277040,"current_range_meters":9200,"station_id":"ce4bhbh2rcd13ifvqepg","pricing_plan_id":"cebpf4jnsgd1na2vs0mg"},{"bike_id":"035e0a58-fae1-4230-9ec8-a93ef0001e04","system_id":"levelo_inurba_marseille","lat":43.30793,"lon":5.38151,"is_reserved":false,"is_disabled":false,"rental_uris":{"android":"levelo://app?vid=035e0a58-fae1-4230-9ec8-a93ef0001e04","ios":"levelo://app?vid=035e0a58-fae1-4230-9ec8-a93ef0001e04"},"vehicle_type_id":"4","last_reported":1777277040,"current_range_meters":9200,"station_id":"ce4bgt12rcd13ifvqce0","pricing_plan_id":"cebpf4jnsgd1na2vs0mg"},{"bike_id":"d91a79ea-757d-4fb0-822d-efffb3df9a9a","system_id":"levelo_inurba_marseille","lat":43.24636,"lon":5.38895,"is_reserved":false,"is_disabled":false,"rental_uris":{"android":"levelo://app?vid=d91a79ea-757d-4fb0-822d-efffb3df9a9a","ios":"levelo://app?vid=d91a79ea-757d-4fb0-822d-efffb3df9a9a"},"vehicle_type_id":"4","last_reported":1777277040,"current_range_meters":9200,"station_id":"ce4bhg12rcd13ifvqf60","pricing_plan_id":"cebpf4jnsgd1na2vs0mg"},{"bike_id":"751bc786-9504-4c6e-af89-5b2ef3a43b0a","system_id":"levelo_inurba_marseille","lat":43.24466,"lon":5.42532,"is_reserved":false,"is_disabled":true,"rental_uris":{"android":"levelo://app?vid=751bc786-9504-4c6e-af89-5b2ef3a43b0a","ios":"levelo://app?vid=751bc786-9504-4c6e-af89-5b2ef3a43b0a"},"vehicle_type_id":"4","last_reported":1777277040,"current_range_meters":9200,"station_id":"st_d4a3vfp97mjs738cd8kg","pricing_plan_id":"cebpf4jnsgd1na2vs0mg"},{"bike_id":"d7756939-8181-4924-9b36-72162623a356","system_id":"levelo_inurba_marseille","lat":43.29839,"lon":5.36284,"is_reserved":false,"is_disabled":false,"rental_uris":{"android":"levelo://app?vid=d7756939-8181-4924-9b36-72162623a356","ios":"levelo://app?vid=d7756939-8181-4924-9b36-72162623a356"},"vehicle_type_id":"4","last_reported":1777277040,"current_range_meters":9200,"station_id":"ce4bgpp2rcd13ifvqc3g","pricing_plan_id":"cebpf4jnsgd1na2vs0mg"},{"bike_id":"4b49ab9b-eeca-4117-b1e9-4b53277a58b0","system_id":"levelo_inurba_marseille","lat":43.23197,"lon":5.35556,"is_reserved":false,"is_disabled":false,"rental_uris":{"android":"levelo://app?vid=4b49ab9b-eeca-4117-b1e9-4b53277a58b0","ios":"levelo://app?vid=4b49ab9b-eeca-4117-b1e9-4b53277a58b0"},"vehicle_type_id":"4","last_reported":1777277040,"current_range_meters":9200,"station_id":"ce4bhu92rcd13ifvqi70","pricing_plan_id":"cebpf4jnsgd1na2vs0mg"},{"bike_id":"3462feaa-c9a2-441c-b3a1-f70058c367e6","system_id":"levelo_inurba_marseille","lat":43.24386,"lon":5.37079,"is_reserved":false,"is_disabled":false,"rental_uris":{"android":"levelo://app?vid=3462feaa-c9a2-441c-b3a1-f70058c367e6","ios":"levelo://app?vid=3462feaa-c9a2-441c-b3a1-f70058c367e6"},"vehicle_type_id":"4","last_reported":1777277040,"current_range_meters":9600,"station_id":"ce4bhhh2rcd13ifvqfk0","pricing_plan_id":"cebpf4jnsgd1na2vs0mg"},{"bike_id":"b19c60d7-da5c-48c7-93ec-3c4828aa80b3","system_id":"levelo_inurba_marseille","lat":43.31115,"lon":5.37767,"is_reserved":false,"is_disabled":false,"rental_uris":{"android":"levelo://app?vid=b19c60d7-da5c-48c7-93ec-3c4828aa80b3","ios":"levelo://app?vid=b19c60d7-da5c-48c7-93ec-3c4828aa80b3"},"vehicle_type_id":"4","last_reported":1777277040,"current_range_meters":9600,"station_id":"ce4bgt92rcd13ifvqcg0","pricing_plan_id":"cebpf4jnsgd1na2vs0mg"},{"bike_id":"2bf5909e-db5d-4f9b-8a8e-19055fa02988","system_id":"levelo_inurba_marseille","lat":43.23873,"lon":5.37473,"is_reserved":false,"is_disabled":false,"rental_uris":{"android":"levelo://app?vid=2bf5909e-db5d-4f9b-8a8e-19055fa02988","ios":"levelo://app?vid=2bf5909e-db5d-4f9b-8a8e-19055fa02988"},"vehicle_type_id":"4","last_reported":1777277040,"current_range_meters":9600,"station_id":"st_d6sm7csbq4hs73f8fpjg","pricing_plan_id":"cebpf4jnsgd1na2vs0mg"},{"bike_id":"e593377f-0b04-468e-be39-461905e9f322","system_id":"levelo_inurba_marseille","lat":43.24656,"lon":5.3888,"is_reserved":false,"is_disabled":false,"rental_uris":{"android":"levelo://app?vid=e593377f-0b04-468e-be39-461905e9f322","ios":"levelo://app?vid=e593377f-0b04-468e-be39-461905e9f322"},"vehicle_type_id":"4","last_reported":1777277040,"current_range_meters":9600,"station_id":"ce4bhg12rcd13ifvqf60","pricing_plan_id":"cebpf4jnsgd1na2vs0mg"},{"bike_id":"28915863-8f44-4fc4-929b-fdddb33d354f","system_id":"levelo_inurba_marseille","lat":43.31124,"lon":5.37754,"is_reserved":false,"is_disabled":false,"rental_uris":{"android":"levelo://app?vid=28915863-8f44-4fc4-929b-fdddb33d354f","ios":"levelo://app?vid=28915863-8f44-4fc4-929b-fdddb33d354f"},"vehicle_type_id":"4","last_reported":1777277040,"current_range_meters":9600,"station_id":"ce4bgt92rcd13ifvqcg0","pricing_plan_id":"cebpf4jnsgd1na2vs0mg"},{"bike_id":"68f3d84e-6065-47b5-9b3e-d73294c8481f","system_id":"levelo_inurba_marseille","lat":43.23209,"lon":5.35553,"is_reserved":false,"is_disabled":false,"rental_uris":{"android":"levelo://app?vid=68f3d84e-6065-47b5-9b3e-d73294c8481f","ios":"levelo://app?vid=68f3d84e-6065-47b5-9b3e-d73294c8481f"},"vehicle_type_id":"4","last_reported":1777277040,"current_range_meters":9600,"station_id":"ce4bhu92rcd13ifvqi70","pricing_plan_id":"cebpf4jnsgd1na2vs0mg"},{"bike_id":"a329872e-24eb-4220-a578-7dfeaf162f20","system_id":"levelo_inurba_marseille","lat":43.25929,"lon":5.40893,"is_reserved":false,"is_disabled":false,"rental_uris":{"android":"levelo://app?vid=a329872e-24eb-4220-a578-7dfeaf162f20","ios":"levelo://app?vid=a329872e-24eb-4220-a578-7dfeaf162f20"},"vehicle_type_id":"4","last_reported":1777277040,"current_range_meters":9600,"station_id":"ce4bhm92rcd13ifvqglg","pricing_plan_id":"cebpf4jnsgd1na2vs0mg"},{"bike_id":"2c0723cd-1e58-41d0-adf2-86f18938714b","system_id":"levelo_inurba_marseille","lat":43.26193,"lon":5.37439,"is_reserved":false,"is_disabled":false,"rental_uris":{"android":"levelo://app?vid=2c0723cd-1e58-41d0-adf2-86f18938714b","ios":"levelo://app?vid=2c0723cd-1e58-41d0-adf2-86f18938714b"},"vehicle_type_id":"4","last_reported":1777277040,"current_range_meters":9600,"station_id":"ce4bhgp2rcd13ifvqfc0","pricing_plan_id":"cebpf4jnsgd1na2vs0mg"},{"bike_id":"b2b5d024-5b55-4bc5-8d6e-f1fecde5da15","system_id":"levelo_inurba_marseille","lat":43.26749,"lon":5.39698,"is_reserved":false,"is_disabled":false,"rental_uris":{"android":"levelo://app?vid=b2b5d024-5b55-4bc5-8d6e-f1fecde5da15","ios":"levelo://app?vid=b2b5d024-5b55-4bc5-8d6e-f1fecde5da15"},"vehicle_type_id":"4","last_reported":1777277040,"current_range_meters":9600,"station_id":"","pricing_plan_id":"cebpf4jnsgd1na2vs0mg"},{"bike_id":"bb30aeea-dbda-43ef-9596-8d11e2effa00","system_id":"levelo_inurba_marseille","lat":43.27677,"lon":5.38913,"is_reserved":false,"is_disabled":false,"rental_uris":{"android":"levelo://app?vid=bb30aeea-dbda-43ef-9596-8d11e2effa00","ios":"levelo://app?vid=bb30aeea-dbda-43ef-9596-8d11e2effa00"},"vehicle_type_id":"4","last_reported":1777277040,"current_range_meters":9600,"station_id":"ce4bhi12rcd13ifvqfo0","pricing_plan_id":"cebpf4jnsgd1na2vs0mg"},{"bike_id":"5e233815-6269-4b6d-93b5-4e0d82a39e53","system_id":"levelo_inurba_marseille","lat":43.29211,"lon":5.35827,"is_reserved":false,"is_disabled":true,"rental_uris":{"android":"levelo://app?vid=5e233815-6269-4b6d-93b5-4e0d82a39e53","ios":"levelo://app?vid=5e233815-6269-4b6d-93b5-4e0d82a39e53"},"vehicle_type_id":"4","last_reported":1777277040,"current_range_meters":10000,"station_id":"ce4bhb12rcd13ifvqel0","pricing_plan_id":"cebpf4jnsgd1na2vs0mg"},{"bike_id":"0d4dfb01-63c5-4be7-bdb0-5163c6b2578c","system_id":"levelo_inurba_marseille","lat":43.31903,"lon":5.36795,"is_reserved":false,"is_disabled":false,"rental_uris":{"android":"levelo://app?vid=0d4dfb01-63c5-4be7-bdb0-5163c6b2578c","ios":"levelo://app?vid=0d4dfb01-63c5-4be7-bdb0-5163c6b2578c"},"vehicle_type_id":"4","last_reported":1777277040,"current_range_meters":10000,"station_id":"st_d6o2h0d0559c73evc1b0","pricing_plan_id":"cebpf4jnsgd1na2vs0mg"},{"bike_id":"b5088cd7-5e45-457a-ae9f-32446d67355c","system_id":"levelo_inurba_marseille","lat":43.3248,"lon":5.36566,"is_reserved":false,"is_disabled":false,"rental_uris":{"android":"levelo://app?vid=b5088cd7-5e45-457a-ae9f-32446d67355c","ios":"levelo://app?vid=b5088cd7-5e45-457a-ae9f-32446d67355c"},"vehicle_type_id":"4","last_reported":1777277040,"current_range_meters":10000,"station_id":"ce4bhs12rcd13ifvqhvg","pricing_plan_id":"cebpf4jnsgd1na2vs0mg"},{"bike_id":"76907408-a8ff-4688-9cbf-66e48bb415e8","system_id":"levelo_inurba_marseille","lat":43.28722,"lon":5.46663,"is_reserved":false,"is_disabled":false,"rental_uris":{"android":"levelo://app?vid=76907408-a8ff-4688-9cbf-66e48bb415e8","ios":"levelo://app?vid=76907408-a8ff-4688-9cbf-66e48bb415e8"},"vehicle_type_id":"4","last_reported":1777277040,"current_range_meters":10000,"station_id":"st_d6tc3vkotcvc738tfjhg","pricing_plan_id":"cebpf4jnsgd1na2vs0mg"},{"bike_id":"987eda33-b3ad-4fac-a63c-0e3ff496e921","system_id":"levelo_inurba_marseille","lat":43.32354,"lon":5.36729,"is_reserved":false,"is_disabled":false,"rental_uris":{"android":"levelo://app?vid=987eda33-b3ad-4fac-a63c-0e3ff496e921","ios":"levelo://app?vid=987eda33-b3ad-4fac-a63c-0e3ff496e921"},"vehicle_type_id":"4","last_reported":1777277040,"current_range_meters":10000,"station_id":"ce4bhsh2rcd13ifvqi2g","pricing_plan_id":"cebpf4jnsgd1na2vs0mg"},{"bike_id":"26154a3b-5b47-4fd4-934e-766754449b31","system_id":"levelo_inurba_marseille","lat":43.29297,"lon":5.37151,"is_reserved":false,"is_disabled":false,"rental_uris":{"android":"levelo://app?vid=26154a3b-5b47-4fd4-934e-766754449b31","ios":"levelo://app?vid=26154a3b-5b47-4fd4-934e-766754449b31"},"vehicle_type_id":"4","last_reported":1777277040,"current_range_meters":10000,"station_id":"ce4bgh92rcd13ifvqb40","pricing_plan_id":"cebpf4jnsgd1na2vs0mg"},{"bike_id":"9daae5fc-029a-4575-8080-71abfd7ee94e","system_id":"levelo_inurba_marseille","lat":43.21199,"lon":5.3507,"is_reserved":false,"is_disabled":false,"rental_uris":{"android":"levelo://app?vid=9daae5fc-029a-4575-8080-71abfd7ee94e","ios":"levelo://app?vid=9daae5fc-029a-4575-8080-71abfd7ee94e"},"vehicle_type_id":"4","last_reported":1777277040,"current_range_meters":10000,"station_id":"st_cvj6sg6p6f1abm77japg","pricing_plan_id":"cebpf4jnsgd1na2vs0mg"},{"bike_id":"dc4f256b-dad1-4b0e-b0aa-70815278bacb","system_id":"levelo_inurba_marseille","lat":43.28967,"lon":5.39318,"is_reserved":false,"is_disabled":false,"rental_uris":{"android":"levelo://app?vid=dc4f256b-dad1-4b0e-b0aa-70815278bacb","ios":"levelo://app?vid=dc4f256b-dad1-4b0e-b0aa-70815278bacb"},"vehicle_type_id":"4","last_reported":1777277040,"current_range_meters":10000,"station_id":"","pricing_plan_id":"cebpf4jnsgd1na2vs0mg"},{"bike_id":"2a2d49b1-7909-4ff6-bf25-b634bb5b075d","system_id":"levelo_inurba_marseille","lat":43.33762,"lon":5.37428,"is_reserved":false,"is_disabled":false,"rental_uris":{"android":"levelo://app?vid=2a2d49b1-7909-4ff6-bf25-b634bb5b075d","ios":"levelo://app?vid=2a2d49b1-7909-4ff6-bf25-b634bb5b075d"},"vehicle_type_id":"4","last_reported":1777277040,"current_range_meters":10000,"station_id":"st_d46tts09ee8s73dlu43g","pricing_plan_id":"cebpf4jnsgd1na2vs0mg"},{"bike_id":"8b4e6bd3-1e82-4277-a45a-3a8abaa4e3ab","system_id":"levelo_inurba_marseille","lat":43.28472,"lon":5.48395,"is_reserved":false,"is_disabled":false,"rental_uris":{"android":"levelo://app?vid=8b4e6bd3-1e82-4277-a45a-3a8abaa4e3ab","ios":"levelo://app?vid=8b4e6bd3-1e82-4277-a45a-3a8abaa4e3ab"},"vehicle_type_id":"4","last_reported":1777277040,"current_range_meters":10000,"station_id":"","pricing_plan_id":"cebpf4jnsgd1na2vs0mg"},{"bike_id":"d22d4105-2f6c-4b18-949d-c0d1d665c21d","system_id":"levelo_inurba_marseille","lat":43.31743,"lon":5.42408,"is_reserved":false,"is_disabled":false,"rental_uris":{"android":"levelo://app?vid=d22d4105-2f6c-4b18-949d-c0d1d665c21d","ios":"levelo://app?vid=d22d4105-2f6c-4b18-949d-c0d1d665c21d"},"vehicle_type_id":"4","last_reported":1777277040,"current_range_meters":10000,"station_id":"ce4bhp92rcd13ifvqhbg","pricing_plan_id":"cebpf4jnsgd1na2vs0mg"},{"bike_id":"3696057e-746c-4ba4-b300-9c7a449e20ed","system_id":"levelo_inurba_marseille","lat":43.27553,"lon":5.39652,"is_reserved":false,"is_disabled":false,"rental_uris":{"android":"levelo://app?vid=3696057e-746c-4ba4-b300-9c7a449e20ed","ios":"levelo://app?vid=3696057e-746c-4ba4-b300-9c7a449e20ed"},"vehicle_type_id":"4","last_reported":1777277040,"current_range_meters":10000,"station_id":"","pricing_plan_id":"cebpf4jnsgd1na2vs0mg"},{"bike_id":"ffd5c4f5-564f-4571-abe7-44df0387d92e","system_id":"levelo_inurba_marseille","lat":43.28767,"lon":5.37856,"is_reserved":false,"is_disabled":false,"rental_uris":{"android":"levelo://app?vid=ffd5c4f5-564f-4571-abe7-44df0387d92e","ios":"levelo://app?vid=ffd5c4f5-564f-4571-abe7-44df0387d92e"},"vehicle_type_id":"4","last_reported":1777277040,"current_range_meters":10800,"station_id":"","pricing_plan_id":"cebpf4jnsgd1na2vs0mg"},{"bike_id":"ca970bed-dff0-40b1-aa6e-d0db5b10d8ee","system_id":"levelo_inurba_marseille","lat":43.2744,"lon":5.39382,"is_reserved":false,"is_disabled":true,"rental_uris":{"android":"levelo://app?vid=ca970bed-dff0-40b1-aa6e-d0db5b10d8ee","ios":"levelo://app?vid=ca970bed-dff0-40b1-aa6e-d0db5b10d8ee"},"vehicle_type_id":"4","last_reported":1777277040,"current_range_meters":10800,"station_id":"ce4bhdp2rcd13ifvqf20","pricing_plan_id":"cebpf4jnsgd1na2vs0mg"},{"bike_id":"5f9c3b69-bd1f-4193-8539-44f621c927b9","system_id":"levelo_inurba_marseille","lat":43.23149,"lon":5.43717,"is_reserved":false,"is_disabled":true,"rental_uris":{"android":"levelo://app?vid=5f9c3b69-bd1f-4193-8539-44f621c927b9","ios":"levelo://app?vid=5f9c3b69-bd1f-4193-8539-44f621c927b9"},"vehicle_type_id":"4","last_reported":1777277040,"current_range_meters":10800,"station_id":"ce4bhmp2rcd13ifvqgog","pricing_plan_id":"cebpf4jnsgd1na2vs0mg"},{"bike_id":"61d91b6f-51c5-4c97-9b15-0d227be874ce","system_id":"levelo_inurba_marseille","lat":43.29276,"lon":5.37433,"is_reserved":false,"is_disabled":false,"rental_uris":{"android":"levelo://app?vid=61d91b6f-51c5-4c97-9b15-0d227be874ce","ios":"levelo://app?vid=61d91b6f-51c5-4c97-9b15-0d227be874ce"},"vehicle_type_id":"4","last_reported":1777277040,"current_range_meters":10800,"station_id":"ce4bgi12rcd13ifvqb70","pricing_plan_id":"cebpf4jnsgd1na2vs0mg"},{"bike_id":"dabc5e28-b9df-4b1a-affa-f2e365a8b45b","system_id":"levelo_inurba_marseille","lat":43.32106,"lon":5.36774,"is_reserved":false,"is_disabled":false,"rental_uris":{"android":"levelo://app?vid=dabc5e28-b9df-4b1a-affa-f2e365a8b45b","ios":"levelo://app?vid=dabc5e28-b9df-4b1a-affa-f2e365a8b45b"},"vehicle_type_id":"4","last_reported":1777277040,"current_range_meters":10800,"station_id":"ce4bhrh2rcd13ifvqhug","pricing_plan_id":"cebpf4jnsgd1na2vs0mg"},{"bike_id":"e4e6da27-c239-4138-926b-81ba829bc0c0","system_id":"levelo_inurba_marseille","lat":43.28717,"lon":5.37926,"is_reserved":false,"is_disabled":false,"rental_uris":{"android":"levelo://app?vid=e4e6da27-c239-4138-926b-81ba829bc0c0","ios":"levelo://app?vid=e4e6da27-c239-4138-926b-81ba829bc0c0"},"vehicle_type_id":"4","last_reported":1777277040,"current_range_meters":10800,"station_id":"ce4bh9p2rcd13ifvqec0","pricing_plan_id":"cebpf4jnsgd1na2vs0mg"},{"bike_id":"89b292ff-19a4-45e1-8050-c13116ae5eed","system_id":"levelo_inurba_marseille","lat":43.28975,"lon":5.37837,"is_reserved":false,"is_disabled":false,"rental_uris":{"android":"levelo://app?vid=89b292ff-19a4-45e1-8050-c13116ae5eed","ios":"levelo://app?vid=89b292ff-19a4-45e1-8050-c13116ae5eed"},"vehicle_type_id":"4","last_reported":1777277040,"current_range_meters":10800,"station_id":"","pricing_plan_id":"cebpf4jnsgd1na2vs0mg"},{"bike_id":"5d500247-043f-499c-87bd-47f009225c7e","system_id":"levelo_inurba_marseille","lat":43.33745,"lon":5.37483,"is_reserved":false,"is_disabled":false,"rental_uris":{"android":"levelo://app?vid=5d500247-043f-499c-87bd-47f009225c7e","ios":"levelo://app?vid=5d500247-043f-499c-87bd-47f009225c7e"},"vehicle_type_id":"4","last_reported":1777277040,"current_range_meters":10800,"station_id":"","pricing_plan_id":"cebpf4jnsgd1na2vs0mg"},{"bike_id":"4470e9b0-5d96-4aee-9a22-d394cb29d060","system_id":"levelo_inurba_marseille","lat":43.31055,"lon":5.37149,"is_reserved":false,"is_disabled":false,"rental_uris":{"android":"levelo://app?vid=4470e9b0-5d96-4aee-9a22-d394cb29d060","ios":"levelo://app?vid=4470e9b0-5d96-4aee-9a22-d394cb29d060"},"vehicle_type_id":"4","last_reported":1777277040,"current_range_meters":10800,"station_id":"st_d4kl2rp97mjs73e7tdfg","pricing_plan_id":"cebpf4jnsgd1na2vs0mg"},{"bike_id":"81e52b6e-bff7-4875-a0d8-d533ea21c465","system_id":"levelo_inurba_marseille","lat":43.28121,"lon":5.42619,"is_reserved":false,"is_disabled":false,"rental_uris":{"android":"levelo://app?vid=81e52b6e-bff7-4875-a0d8-d533ea21c465","ios":"levelo://app?vid=81e52b6e-bff7-4875-a0d8-d533ea21c465"},"vehicle_type_id":"4","last_reported":1777277040,"current_range_meters":10800,"station_id":"ce4bhnh2rcd13ifvqgug","pricing_plan_id":"cebpf4jnsgd1na2vs0mg"},{"bike_id":"4ba61b34-f7bb-4ca0-9046-9b3e3c519121","system_id":"levelo_inurba_marseille","lat":43.24072,"lon":5.37743,"is_reserved":false,"is_disabled":false,"rental_uris":{"android":"levelo://app?vid=4ba61b34-f7bb-4ca0-9046-9b3e3c519121","ios":"levelo://app?vid=4ba61b34-f7bb-4ca0-9046-9b3e3c519121"},"vehicle_type_id":"4","last_reported":1777277040,"current_range_meters":10800,"station_id":"ce4bhnp2rcd13ifvqgvg","pricing_plan_id":"cebpf4jnsgd1na2vs0mg"},{"bike_id":"afde96ac-1493-4085-af72-e5da568a87fd","system_id":"levelo_inurba_marseille","lat":43.28482,"lon":5.48394,"is_reserved":false,"is_disabled":false,"rental_uris":{"android":"levelo://app?vid=afde96ac-1493-4085-af72-e5da568a87fd","ios":"levelo://app?vid=afde96ac-1493-4085-af72-e5da568a87fd"},"vehicle_type_id":"4","last_reported":1777277040,"current_range_meters":10800,"station_id":"st_d3svhcjqgbts73a3dn0g","pricing_plan_id":"cebpf4jnsgd1na2vs0mg"},{"bike_id":"fd159673-de1b-4300-924f-38e7032c2ca4","system_id":"levelo_inurba_marseille","lat":43.29851,"lon":5.36289,"is_reserved":false,"is_disabled":true,"rental_uris":{"android":"levelo://app?vid=fd159673-de1b-4300-924f-38e7032c2ca4","ios":"levelo://app?vid=fd159673-de1b-4300-924f-38e7032c2ca4"},"vehicle_type_id":"4","last_reported":1777277040,"current_range_meters":10800,"station_id":"","pricing_plan_id":"cebpf4jnsgd1na2vs0mg"},{"bike_id":"ccc64b12-fba8-4953-9e4c-789c15629674","system_id":"levelo_inurba_marseille","lat":43.23204,"lon":5.35082,"is_reserved":false,"is_disabled":false,"rental_uris":{"android":"levelo://app?vid=ccc64b12-fba8-4953-9e4c-789c15629674","ios":"levelo://app?vid=ccc64b12-fba8-4953-9e4c-789c15629674"},"vehicle_type_id":"4","last_reported":1777277040,"current_range_meters":10800,"station_id":"","pricing_plan_id":"cebpf4jnsgd1na2vs0mg"},{"bike_id":"68ecf2f6-4ac5-45b8-9640-383e9e07a83c","system_id":"levelo_inurba_marseille","lat":43.24558,"lon":5.41594,"is_reserved":false,"is_disabled":false,"rental_uris":{"android":"levelo://app?vid=68ecf2f6-4ac5-45b8-9640-383e9e07a83c","ios":"levelo://app?vid=68ecf2f6-4ac5-45b8-9640-383e9e07a83c"},"vehicle_type_id":"4","last_reported":1777277040,"current_range_meters":10800,"station_id":"","pricing_plan_id":"cebpf4jnsgd1na2vs0mg"},{"bike_id":"cd5414ab-a39b-4bd1-aba3-ef038aa49460","system_id":"levelo_inurba_marseille","lat":43.26934,"lon":5.38924,"is_reserved":false,"is_disabled":false,"rental_uris":{"android":"levelo://app?vid=cd5414ab-a39b-4bd1-aba3-ef038aa49460","ios":"levelo://app?vid=cd5414ab-a39b-4bd1-aba3-ef038aa49460"},"vehicle_type_id":"4","last_reported":1777277040,"current_range_meters":10800,"station_id":"ce4bhhh2rcd13ifvqfl0","pricing_plan_id":"cebpf4jnsgd1na2vs0mg"},{"bike_id":"f910f006-6469-4189-b18f-2d7d32e9f493","system_id":"levelo_inurba_marseille","lat":43.2316,"lon":5.43701,"is_reserved":false,"is_disabled":false,"rental_uris":{"android":"levelo://app?vid=f910f006-6469-4189-b18f-2d7d32e9f493","ios":"levelo://app?vid=f910f006-6469-4189-b18f-2d7d32e9f493"},"vehicle_type_id":"4","last_reported":1777277040,"current_range_meters":10800,"station_id":"ce4bhmp2rcd13ifvqgog","pricing_plan_id":"cebpf4jnsgd1na2vs0mg"},{"bike_id":"20111a87-41c4-4eaf-9fe8-f7469b02a4e4","system_id":"levelo_inurba_marseille","lat":43.30127,"lon":5.43138,"is_reserved":false,"is_disabled":false,"rental_uris":{"android":"levelo://app?vid=20111a87-41c4-4eaf-9fe8-f7469b02a4e4","ios":"levelo://app?vid=20111a87-41c4-4eaf-9fe8-f7469b02a4e4"},"vehicle_type_id":"4","last_reported":1777277040,"current_range_meters":10800,"station_id":"st_d3js3co5814s73ftftug","pricing_plan_id":"cebpf4jnsgd1na2vs0mg"},{"bike_id":"12de6dfc-2bfc-4d0c-91c7-def41dfb83f2","system_id":"levelo_inurba_marseille","lat":43.26044,"lon":5.38648,"is_reserved":false,"is_disabled":false,"rental_uris":{"android":"levelo://app?vid=12de6dfc-2bfc-4d0c-91c7-def41dfb83f2","ios":"levelo://app?vid=12de6dfc-2bfc-4d0c-91c7-def41dfb83f2"},"vehicle_type_id":"4","last_reported":1777277040,"current_range_meters":10800,"station_id":"","pricing_plan_id":"cebpf4jnsgd1na2vs0mg"},{"bike_id":"bc1130c2-afce-4c91-bf8b-e15ea93c9d23","system_id":"levelo_inurba_marseille","lat":43.30934,"lon":5.36839,"is_reserved":false,"is_disabled":false,"rental_uris":{"android":"levelo://app?vid=bc1130c2-afce-4c91-bf8b-e15ea93c9d23","ios":"levelo://app?vid=bc1130c2-afce-4c91-bf8b-e15ea93c9d23"},"vehicle_type_id":"4","last_reported":1777277040,"current_range_meters":10800,"station_id":"ce4bgn92rcd13ifvqbvg","pricing_plan_id":"cebpf4jnsgd1na2vs0mg"},{"bike_id":"2488a67d-575d-444e-a92c-918ff86519af","system_id":"levelo_inurba_marseille","lat":43.23193,"lon":5.35535,"is_reserved":false,"is_disabled":false,"rental_uris":{"android":"levelo://app?vid=2488a67d-575d-444e-a92c-918ff86519af","ios":"levelo://app?vid=2488a67d-575d-444e-a92c-918ff86519af"},"vehicle_type_id":"4","last_reported":1777277040,"current_range_meters":10800,"station_id":"ce4bhu92rcd13ifvqi70","pricing_plan_id":"cebpf4jnsgd1na2vs0mg"},{"bike_id":"bd8c90d7-60d3-4d36-ba77-9cf5ca28e807","system_id":"levelo_inurba_marseille","lat":43.2315,"lon":5.43715,"is_reserved":false,"is_disabled":false,"rental_uris":{"android":"levelo://app?vid=bd8c90d7-60d3-4d36-ba77-9cf5ca28e807","ios":"levelo://app?vid=bd8c90d7-60d3-4d36-ba77-9cf5ca28e807"},"vehicle_type_id":"4","last_reported":1777277040,"current_range_meters":10800,"station_id":"ce4bhmp2rcd13ifvqgog","pricing_plan_id":"cebpf4jnsgd1na2vs0mg"},{"bike_id":"537ec8bf-e7c8-48aa-b29e-37e9c00708aa","system_id":"levelo_inurba_marseille","lat":43.30128,"lon":5.38035,"is_reserved":false,"is_disabled":false,"rental_uris":{"android":"levelo://app?vid=537ec8bf-e7c8-48aa-b29e-37e9c00708aa","ios":"levelo://app?vid=537ec8bf-e7c8-48aa-b29e-37e9c00708aa"},"vehicle_type_id":"4","last_reported":1777277040,"current_range_meters":10800,"station_id":"ce4bgjp2rcd13ifvqbh0","pricing_plan_id":"cebpf4jnsgd1na2vs0mg"},{"bike_id":"5a9edafe-c607-4351-9ffc-35abe5d20b17","system_id":"levelo_inurba_marseille","lat":43.2623,"lon":5.40455,"is_reserved":false,"is_disabled":false,"rental_uris":{"android":"levelo://app?vid=5a9edafe-c607-4351-9ffc-35abe5d20b17","ios":"levelo://app?vid=5a9edafe-c607-4351-9ffc-35abe5d20b17"},"vehicle_type_id":"4","last_reported":1777277040,"current_range_meters":10800,"station_id":"ce4bhmh2rcd13ifvqgmg","pricing_plan_id":"cebpf4jnsgd1na2vs0mg"},{"bike_id":"4cbcd6e2-8ef2-4387-8836-4253a4f4e4a7","system_id":"levelo_inurba_marseille","lat":43.30367,"lon":5.37139,"is_reserved":false,"is_disabled":false,"rental_uris":{"android":"levelo://app?vid=4cbcd6e2-8ef2-4387-8836-4253a4f4e4a7","ios":"levelo://app?vid=4cbcd6e2-8ef2-4387-8836-4253a4f4e4a7"},