{"last_updated":1750270522,"ttl":60,"version":"2.2","data":{"bikes":[{"bike_id":"3da29fb8-fc97-44c6-b9ac-31dd456b2fd4","system_id":"levelo_inurba_marseille","lat":43.33771,"lon":5.37424,"is_reserved":false,"is_disabled":true,"rental_uris":{"android":"levelo://app?vid=3da29fb8-fc97-44c6-b9ac-31dd456b2fd4","ios":"levelo://app?vid=3da29fb8-fc97-44c6-b9ac-31dd456b2fd4"},"vehicle_type_id":"4","last_reported":1750270522,"current_range_meters":0,"station_id":"","pricing_plan_id":"cebpf4jnsgd1na2vs0mg"},{"bike_id":"01861ad8-a8d7-4be6-816e-651927c87584","system_id":"levelo_inurba_marseille","lat":43.33751,"lon":5.37456,"is_reserved":false,"is_disabled":true,"rental_uris":{"android":"levelo://app?vid=01861ad8-a8d7-4be6-816e-651927c87584","ios":"levelo://app?vid=01861ad8-a8d7-4be6-816e-651927c87584"},"vehicle_type_id":"4","last_reported":1750270522,"current_range_meters":0,"station_id":"","pricing_plan_id":"cebpf4jnsgd1na2vs0mg"},{"bike_id":"87f370b4-3c0c-4b9e-b5eb-4c8090e79bf8","system_id":"levelo_inurba_marseille","lat":43.241756,"lon":5.397312,"is_reserved":false,"is_disabled":false,"rental_uris":{"android":"levelo://app?vid=87f370b4-3c0c-4b9e-b5eb-4c8090e79bf8","ios":"levelo://app?vid=87f370b4-3c0c-4b9e-b5eb-4c8090e79bf8"},"vehicle_type_id":"4","last_reported":1750270522,"current_range_meters":0,"station_id":"","pricing_plan_id":"cebpf4jnsgd1na2vs0mg"},{"bike_id":"dbfce7a3-3423-4296-b193-a177dea644ac","system_id":"levelo_inurba_marseille","lat":43.27302,"lon":5.41603,"is_reserved":false,"is_disabled":true,"rental_uris":{"android":"levelo://app?vid=dbfce7a3-3423-4296-b193-a177dea644ac","ios":"levelo://app?vid=dbfce7a3-3423-4296-b193-a177dea644ac"},"vehicle_type_id":"4","last_reported":1750270522,"current_range_meters":0,"station_id":"","pricing_plan_id":"cebpf4jnsgd1na2vs0mg"},{"bike_id":"eff675e9-75ca-47c9-bd95-5090bc060d4f","system_id":"levelo_inurba_marseille","lat":43.34065,"lon":5.36091,"is_reserved":false,"is_disabled":true,"rental_uris":{"android":"levelo://app?vid=eff675e9-75ca-47c9-bd95-5090bc060d4f","ios":"levelo://app?vid=eff675e9-75ca-47c9-bd95-5090bc060d4f"},"vehicle_type_id":"4","last_reported":1750270522,"current_range_meters":0,"station_id":"","pricing_plan_id":"cebpf4jnsgd1na2vs0mg"},{"bike_id":"d2bd57c8-6b64-48db-ad24-5398eb3fd9d6","system_id":"levelo_inurba_marseille","lat":43.337444,"lon":5.374475,"is_reserved":false,"is_disabled":true,"rental_uris":{"android":"levelo://app?vid=d2bd57c8-6b64-48db-ad24-5398eb3fd9d6","ios":"levelo://app?vid=d2bd57c8-6b64-48db-ad24-5398eb3fd9d6"},"vehicle_type_id":"4","last_reported":1750270522,"current_range_meters":0,"station_id":"","pricing_plan_id":"cebpf4jnsgd1na2vs0mg"},{"bike_id":"62a493c7-4534-4419-ad43-0582de34a72a","system_id":"levelo_inurba_marseille","lat":43.21366,"lon":5.355183,"is_reserved":false,"is_disabled":true,"rental_uris":{"android":"levelo://app?vid=62a493c7-4534-4419-ad43-0582de34a72a","ios":"levelo://app?vid=62a493c7-4534-4419-ad43-0582de34a72a"},"vehicle_type_id":"4","last_reported":1750270522,"current_range_meters":0,"station_id":"","pricing_plan_id":"cebpf4jnsgd1na2vs0mg"},{"bike_id":"b9e37238-9abe-4b8b-b932-edaee33a7e59","system_id":"levelo_inurba_marseille","lat":43.27508,"lon":5.3901,"is_reserved":false,"is_disabled":true,"rental_uris":{"android":"levelo://app?vid=b9e37238-9abe-4b8b-b932-edaee33a7e59","ios":"levelo://app?vid=b9e37238-9abe-4b8b-b932-edaee33a7e59"},"vehicle_type_id":"4","last_reported":1750270522,"current_range_meters":0,"station_id":"","pricing_plan_id":"cebpf4jnsgd1na2vs0mg"},{"bike_id":"8ad9234e-001a-4549-8bba-9baf2ef98804","system_id":"levelo_inurba_marseille","lat":43.27419,"lon":5.39787,"is_reserved":false,"is_disabled":true,"rental_uris":{"android":"levelo://app?vid=8ad9234e-001a-4549-8bba-9baf2ef98804","ios":"levelo://app?vid=8ad9234e-001a-4549-8bba-9baf2ef98804"},"vehicle_type_id":"4","last_reported":1750270522,"current_range_meters":0,"station_id":"","pricing_plan_id":"cebpf4jnsgd1na2vs0mg"},{"bike_id":"ddf470bc-7dc9-4a99-a339-d9ae733e34d6","system_id":"levelo_inurba_marseille","lat":43.33407,"lon":5.40058,"is_reserved":false,"is_disabled":true,"rental_uris":{"android":"levelo://app?vid=ddf470bc-7dc9-4a99-a339-d9ae733e34d6","ios":"levelo://app?vid=ddf470bc-7dc9-4a99-a339-d9ae733e34d6"},"vehicle_type_id":"4","last_reported":1750270522,"current_range_meters":0,"station_id":"","pricing_plan_id":"cebpf4jnsgd1na2vs0mg"},{"bike_id":"d8c9fc8a-6ccd-4370-878b-9115f43b62e0","system_id":"levelo_inurba_marseille","lat":43.30008,"lon":5.38857,"is_reserved":false,"is_disabled":true,"rental_uris":{"android":"levelo://app?vid=d8c9fc8a-6ccd-4370-878b-9115f43b62e0","ios":"levelo://app?vid=d8c9fc8a-6ccd-4370-878b-9115f43b62e0"},"vehicle_type_id":"4","last_reported":1750270522,"current_range_meters":0,"station_id":"","pricing_plan_id":"cebpf4jnsgd1na2vs0mg"},{"bike_id":"93af304b-67b5-47b8-a3fd-e0775f7cde8c","system_id":"levelo_inurba_marseille","lat":43.215301,"lon":5.347406,"is_reserved":false,"is_disabled":true,"rental_uris":{"android":"levelo://app?vid=93af304b-67b5-47b8-a3fd-e0775f7cde8c","ios":"levelo://app?vid=93af304b-67b5-47b8-a3fd-e0775f7cde8c"},"vehicle_type_id":"4","last_reported":1750270522,"current_range_meters":0,"station_id":"","pricing_plan_id":"cebpf4jnsgd1na2vs0mg"},{"bike_id":"d6609b4f-333b-43c1-9ebe-8726f5e76e88","system_id":"levelo_inurba_marseille","lat":43.337444,"lon":5.374475,"is_reserved":false,"is_disabled":true,"rental_uris":{"android":"levelo://app?vid=d6609b4f-333b-43c1-9ebe-8726f5e76e88","ios":"levelo://app?vid=d6609b4f-333b-43c1-9ebe-8726f5e76e88"},"vehicle_type_id":"4","last_reported":1750270522,"current_range_meters":0,"station_id":"","pricing_plan_id":"cebpf4jnsgd1na2vs0mg"},{"bike_id":"57c83ce1-960e-466a-b6c5-d93bc130c53a","system_id":"levelo_inurba_marseille","lat":43.2491,"lon":5.38962,"is_reserved":false,"is_disabled":true,"rental_uris":{"android":"levelo://app?vid=57c83ce1-960e-466a-b6c5-d93bc130c53a","ios":"levelo://app?vid=57c83ce1-960e-466a-b6c5-d93bc130c53a"},"vehicle_type_id":"4","last_reported":1750270522,"current_range_meters":0,"station_id":"","pricing_plan_id":"cebpf4jnsgd1na2vs0mg"},{"bike_id":"41e07387-4a2e-4dd8-8f58-a7a708e5f066","system_id":"levelo_inurba_marseille","lat":43.26239,"lon":5.37232,"is_reserved":false,"is_disabled":true,"rental_uris":{"android":"levelo://app?vid=41e07387-4a2e-4dd8-8f58-a7a708e5f066","ios":"levelo://app?vid=41e07387-4a2e-4dd8-8f58-a7a708e5f066"},"vehicle_type_id":"4","last_reported":1750270522,"current_range_meters":0,"station_id":"","pricing_plan_id":"cebpf4jnsgd1na2vs0mg"},{"bike_id":"daec0a24-b128-49e2-9f95-68e380d5fc31","system_id":"levelo_inurba_marseille","lat":43.27609,"lon":5.36111,"is_reserved":false,"is_disabled":true,"rental_uris":{"android":"levelo://app?vid=daec0a24-b128-49e2-9f95-68e380d5fc31","ios":"levelo://app?vid=daec0a24-b128-49e2-9f95-68e380d5fc31"},"vehicle_type_id":"4","last_reported":1750270522,"current_range_meters":0,"station_id":"ce4bgj92rcd13ifvqbe0","pricing_plan_id":"cebpf4jnsgd1na2vs0mg"},{"bike_id":"c5cec0da-ff05-4c8f-a609-00eb9a535a5e","system_id":"levelo_inurba_marseille","lat":43.292589,"lon":5.365759,"is_reserved":false,"is_disabled":true,"rental_uris":{"android":"levelo://app?vid=c5cec0da-ff05-4c8f-a609-00eb9a535a5e","ios":"levelo://app?vid=c5cec0da-ff05-4c8f-a609-00eb9a535a5e"},"vehicle_type_id":"4","last_reported":1750270522,"current_range_meters":0,"station_id":"ce4bgkh2rcd13ifvqbl0","pricing_plan_id":"cebpf4jnsgd1na2vs0mg"},{"bike_id":"e085a151-614a-4c16-95f1-bbdb33315b9a","system_id":"levelo_inurba_marseille","lat":43.31119,"lon":5.37769,"is_reserved":false,"is_disabled":true,"rental_uris":{"android":"levelo://app?vid=e085a151-614a-4c16-95f1-bbdb33315b9a","ios":"levelo://app?vid=e085a151-614a-4c16-95f1-bbdb33315b9a"},"vehicle_type_id":"4","last_reported":1750270522,"current_range_meters":0,"station_id":"ce4bgt92rcd13ifvqcg0","pricing_plan_id":"cebpf4jnsgd1na2vs0mg"},{"bike_id":"3eb34f8b-7428-448b-ba55-af28534c6da6","system_id":"levelo_inurba_marseille","lat":43.31062,"lon":5.38354,"is_reserved":false,"is_disabled":true,"rental_uris":{"android":"levelo://app?vid=3eb34f8b-7428-448b-ba55-af28534c6da6","ios":"levelo://app?vid=3eb34f8b-7428-448b-ba55-af28534c6da6"},"vehicle_type_id":"4","last_reported":1750270522,"current_range_meters":0,"station_id":"ce4bgv92rcd13ifvqcr0","pricing_plan_id":"cebpf4jnsgd1na2vs0mg"},{"bike_id":"290c2111-8e4b-4459-be94-83b6ac081f7d","system_id":"levelo_inurba_marseille","lat":43.29631,"lon":5.40594,"is_reserved":false,"is_disabled":true,"rental_uris":{"android":"levelo://app?vid=290c2111-8e4b-4459-be94-83b6ac081f7d","ios":"levelo://app?vid=290c2111-8e4b-4459-be94-83b6ac081f7d"},"vehicle_type_id":"4","last_reported":1750270522,"current_range_meters":0,"station_id":"ce4bh0h2rcd13ifvqd60","pricing_plan_id":"cebpf4jnsgd1na2vs0mg"},{"bike_id":"035230ce-4449-49e2-a0f9-fca287057158","system_id":"levelo_inurba_marseille","lat":43.28433,"lon":5.37507,"is_reserved":false,"is_disabled":true,"rental_uris":{"android":"levelo://app?vid=035230ce-4449-49e2-a0f9-fca287057158","ios":"levelo://app?vid=035230ce-4449-49e2-a0f9-fca287057158"},"vehicle_type_id":"4","last_reported":1750270522,"current_range_meters":0,"station_id":"ce4bh412rcd13ifvqds0","pricing_plan_id":"cebpf4jnsgd1na2vs0mg"},{"bike_id":"553f3038-9e12-4d63-92e9-4deee332ae48","system_id":"levelo_inurba_marseille","lat":43.273741,"lon":5.362552,"is_reserved":false,"is_disabled":true,"rental_uris":{"android":"levelo://app?vid=553f3038-9e12-4d63-92e9-4deee332ae48","ios":"levelo://app?vid=553f3038-9e12-4d63-92e9-4deee332ae48"},"vehicle_type_id":"4","last_reported":1750270522,"current_range_meters":0,"station_id":"ce4bhb12rcd13ifvqel0","pricing_plan_id":"cebpf4jnsgd1na2vs0mg"},{"bike_id":"cf8ab63e-a56d-4760-911c-6158e6879407","system_id":"levelo_inurba_marseille","lat":43.2841,"lon":5.34987,"is_reserved":false,"is_disabled":true,"rental_uris":{"android":"levelo://app?vid=cf8ab63e-a56d-4760-911c-6158e6879407","ios":"levelo://app?vid=cf8ab63e-a56d-4760-911c-6158e6879407"},"vehicle_type_id":"4","last_reported":1750270522,"current_range_meters":0,"station_id":"ce4bhbh2rcd13ifvqepg","pricing_plan_id":"cebpf4jnsgd1na2vs0mg"},{"bike_id":"4f65caa3-2530-4e9e-8e24-82a5da3671fb","system_id":"levelo_inurba_marseille","lat":43.28265,"lon":5.35061,"is_reserved":false,"is_disabled":true,"rental_uris":{"android":"levelo://app?vid=4f65caa3-2530-4e9e-8e24-82a5da3671fb","ios":"levelo://app?vid=4f65caa3-2530-4e9e-8e24-82a5da3671fb"},"vehicle_type_id":"4","last_reported":1750270522,"current_range_meters":0,"station_id":"ce4bhbp2rcd13ifvqerg","pricing_plan_id":"cebpf4jnsgd1na2vs0mg"},{"bike_id":"a3205fa7-3b06-4530-bdae-4428da4ae62b","system_id":"levelo_inurba_marseille","lat":43.28621,"lon":5.35101,"is_reserved":false,"is_disabled":true,"rental_uris":{"android":"levelo://app?vid=a3205fa7-3b06-4530-bdae-4428da4ae62b","ios":"levelo://app?vid=a3205fa7-3b06-4530-bdae-4428da4ae62b"},"vehicle_type_id":"4","last_reported":1750270522,"current_range_meters":0,"station_id":"ce4bhch2rcd13ifvqeug","pricing_plan_id":"cebpf4jnsgd1na2vs0mg"},{"bike_id":"6aa6dc97-3986-4f6f-b98f-9df054f7b007","system_id":"levelo_inurba_marseille","lat":43.2465,"lon":5.38887,"is_reserved":false,"is_disabled":true,"rental_uris":{"android":"levelo://app?vid=6aa6dc97-3986-4f6f-b98f-9df054f7b007","ios":"levelo://app?vid=6aa6dc97-3986-4f6f-b98f-9df054f7b007"},"vehicle_type_id":"4","last_reported":1750270522,"current_range_meters":0,"station_id":"ce4bhg12rcd13ifvqf60","pricing_plan_id":"cebpf4jnsgd1na2vs0mg"},{"bike_id":"baba326e-bbc3-4f92-8f27-a56988c917a8","system_id":"levelo_inurba_marseille","lat":43.27981,"lon":5.38732,"is_reserved":false,"is_disabled":true,"rental_uris":{"android":"levelo://app?vid=baba326e-bbc3-4f92-8f27-a56988c917a8","ios":"levelo://app?vid=baba326e-bbc3-4f92-8f27-a56988c917a8"},"vehicle_type_id":"4","last_reported":1750270522,"current_range_meters":0,"station_id":"ce4bhg12rcd13ifvqf80","pricing_plan_id":"cebpf4jnsgd1na2vs0mg"},{"bike_id":"51072f17-7eab-4352-8cf3-55e248558be7","system_id":"levelo_inurba_marseille","lat":43.24545,"lon":5.39521,"is_reserved":false,"is_disabled":true,"rental_uris":{"android":"levelo://app?vid=51072f17-7eab-4352-8cf3-55e248558be7","ios":"levelo://app?vid=51072f17-7eab-4352-8cf3-55e248558be7"},"vehicle_type_id":"4","last_reported":1750270522,"current_range_meters":0,"station_id":"ce4bhlp2rcd13ifvqgjg","pricing_plan_id":"cebpf4jnsgd1na2vs0mg"},{"bike_id":"c53f5cdb-aaa9-4344-991b-b831c32e3a6b","system_id":"levelo_inurba_marseille","lat":43.31088,"lon":5.42423,"is_reserved":false,"is_disabled":true,"rental_uris":{"android":"levelo://app?vid=c53f5cdb-aaa9-4344-991b-b831c32e3a6b","ios":"levelo://app?vid=c53f5cdb-aaa9-4344-991b-b831c32e3a6b"},"vehicle_type_id":"4","last_reported":1750270522,"current_range_meters":0,"station_id":"ce4bhp92rcd13ifvqhag","pricing_plan_id":"cebpf4jnsgd1na2vs0mg"},{"bike_id":"d5a29cea-7ed8-4f49-8d6c-ab65fb9b9ffc","system_id":"levelo_inurba_marseille","lat":43.23214,"lon":5.35522,"is_reserved":false,"is_disabled":true,"rental_uris":{"android":"levelo://app?vid=d5a29cea-7ed8-4f49-8d6c-ab65fb9b9ffc","ios":"levelo://app?vid=d5a29cea-7ed8-4f49-8d6c-ab65fb9b9ffc"},"vehicle_type_id":"4","last_reported":1750270522,"current_range_meters":0,"station_id":"ce4bhu92rcd13ifvqi70","pricing_plan_id":"cebpf4jnsgd1na2vs0mg"},{"bike_id":"bc81a397-aae3-4e78-aa3e-c9b45e8bd116","system_id":"levelo_inurba_marseille","lat":43.33965,"lon":5.40623,"is_reserved":false,"is_disabled":true,"rental_uris":{"android":"levelo://app?vid=bc81a397-aae3-4e78-aa3e-c9b45e8bd116","ios":"levelo://app?vid=bc81a397-aae3-4e78-aa3e-c9b45e8bd116"},"vehicle_type_id":"4","last_reported":1750270522,"current_range_meters":400,"station_id":"","pricing_plan_id":"cebpf4jnsgd1na2vs0mg"},{"bike_id":"6e65133f-50e3-4ff7-ab61-8624a09ec0fb","system_id":"levelo_inurba_marseille","lat":43.29263,"lon":5.37617,"is_reserved":false,"is_disabled":true,"rental_uris":{"android":"levelo://app?vid=6e65133f-50e3-4ff7-ab61-8624a09ec0fb","ios":"levelo://app?vid=6e65133f-50e3-4ff7-ab61-8624a09ec0fb"},"vehicle_type_id":"4","last_reported":1750270522,"current_range_meters":400,"station_id":"ce4bgi12rcd13ifvqb80","pricing_plan_id":"cebpf4jnsgd1na2vs0mg"},{"bike_id":"10040c8e-4324-4ff0-b98f-de3d6ec3fcd5","system_id":"levelo_inurba_marseille","lat":43.297019,"lon":5.36586,"is_reserved":false,"is_disabled":false,"rental_uris":{"android":"levelo://app?vid=10040c8e-4324-4ff0-b98f-de3d6ec3fcd5","ios":"levelo://app?vid=10040c8e-4324-4ff0-b98f-de3d6ec3fcd5"},"vehicle_type_id":"4","last_reported":1750270522,"current_range_meters":400,"station_id":"ce4bgn12rcd13ifvqbt0","pricing_plan_id":"cebpf4jnsgd1na2vs0mg"},{"bike_id":"a9aeddc5-f98f-4564-9ae5-71d3bdc8598d","system_id":"levelo_inurba_marseille","lat":43.30128,"lon":5.39873,"is_reserved":false,"is_disabled":true,"rental_uris":{"android":"levelo://app?vid=a9aeddc5-f98f-4564-9ae5-71d3bdc8598d","ios":"levelo://app?vid=a9aeddc5-f98f-4564-9ae5-71d3bdc8598d"},"vehicle_type_id":"4","last_reported":1750270522,"current_range_meters":400,"station_id":"ce4bh0h2rcd13ifvqd40","pricing_plan_id":"cebpf4jnsgd1na2vs0mg"},{"bike_id":"72c86b60-de94-4f69-affe-49c457bf62ad","system_id":"levelo_inurba_marseille","lat":43.25495,"lon":5.37649,"is_reserved":false,"is_disabled":true,"rental_uris":{"android":"levelo://app?vid=72c86b60-de94-4f69-affe-49c457bf62ad","ios":"levelo://app?vid=72c86b60-de94-4f69-affe-49c457bf62ad"},"vehicle_type_id":"4","last_reported":1750270522,"current_range_meters":400,"station_id":"ce4bhh12rcd13ifvqff0","pricing_plan_id":"cebpf4jnsgd1na2vs0mg"},{"bike_id":"ece420bc-5cdb-4e7d-aeb1-2cf6355df578","system_id":"levelo_inurba_marseille","lat":43.27681,"lon":5.38908,"is_reserved":false,"is_disabled":true,"rental_uris":{"android":"levelo://app?vid=ece420bc-5cdb-4e7d-aeb1-2cf6355df578","ios":"levelo://app?vid=ece420bc-5cdb-4e7d-aeb1-2cf6355df578"},"vehicle_type_id":"4","last_reported":1750270522,"current_range_meters":400,"station_id":"ce4bhi12rcd13ifvqfo0","pricing_plan_id":"cebpf4jnsgd1na2vs0mg"},{"bike_id":"b6d27190-b949-4a3d-816f-d496cdfa6600","system_id":"levelo_inurba_marseille","lat":43.21191,"lon":5.35067,"is_reserved":false,"is_disabled":true,"rental_uris":{"android":"levelo://app?vid=b6d27190-b949-4a3d-816f-d496cdfa6600","ios":"levelo://app?vid=b6d27190-b949-4a3d-816f-d496cdfa6600"},"vehicle_type_id":"4","last_reported":1750270522,"current_range_meters":400,"station_id":"st_cvj6sg6p6f1abm77japg","pricing_plan_id":"cebpf4jnsgd1na2vs0mg"},{"bike_id":"956250a5-8962-4668-9ae4-1a163112db84","system_id":"levelo_inurba_marseille","lat":43.2925,"lon":5.40913,"is_reserved":false,"is_disabled":true,"rental_uris":{"android":"levelo://app?vid=956250a5-8962-4668-9ae4-1a163112db84","ios":"levelo://app?vid=956250a5-8962-4668-9ae4-1a163112db84"},"vehicle_type_id":"4","last_reported":1750270522,"current_range_meters":800,"station_id":"ce4bh192rcd13ifvqdc0","pricing_plan_id":"cebpf4jnsgd1na2vs0mg"},{"bike_id":"101bd9f8-7128-4c32-aae9-307809c9e8e5","system_id":"levelo_inurba_marseille","lat":43.29074,"lon":5.37162,"is_reserved":false,"is_disabled":true,"rental_uris":{"android":"levelo://app?vid=101bd9f8-7128-4c32-aae9-307809c9e8e5","ios":"levelo://app?vid=101bd9f8-7128-4c32-aae9-307809c9e8e5"},"vehicle_type_id":"4","last_reported":1750270522,"current_range_meters":800,"station_id":"ce4bh5p2rcd13ifvqe4g","pricing_plan_id":"cebpf4jnsgd1na2vs0mg"},{"bike_id":"46965e4d-c4ea-4bf5-b32e-15112575b03b","system_id":"levelo_inurba_marseille","lat":43.29229,"lon":5.36065,"is_reserved":false,"is_disabled":true,"rental_uris":{"android":"levelo://app?vid=46965e4d-c4ea-4bf5-b32e-15112575b03b","ios":"levelo://app?vid=46965e4d-c4ea-4bf5-b32e-15112575b03b"},"vehicle_type_id":"4","last_reported":1750270522,"current_range_meters":800,"station_id":"ce4bhbh2rcd13ifvqeqg","pricing_plan_id":"cebpf4jnsgd1na2vs0mg"},{"bike_id":"ede40f08-7e33-4b60-aac5-2ad570402ec8","system_id":"levelo_inurba_marseille","lat":43.337157,"lon":5.3918,"is_reserved":false,"is_disabled":true,"rental_uris":{"android":"levelo://app?vid=ede40f08-7e33-4b60-aac5-2ad570402ec8","ios":"levelo://app?vid=ede40f08-7e33-4b60-aac5-2ad570402ec8"},"vehicle_type_id":"4","last_reported":1750270522,"current_range_meters":800,"station_id":"ce4bhr92rcd13ifvqhsg","pricing_plan_id":"cebpf4jnsgd1na2vs0mg"},{"bike_id":"cced5d0e-0a4f-4991-a74c-cac51ac26f78","system_id":"levelo_inurba_marseille","lat":43.299785,"lon":5.371837,"is_reserved":false,"is_disabled":true,"rental_uris":{"android":"levelo://app?vid=cced5d0e-0a4f-4991-a74c-cac51ac26f78","ios":"levelo://app?vid=cced5d0e-0a4f-4991-a74c-cac51ac26f78"},"vehicle_type_id":"4","last_reported":1750270522,"current_range_meters":1200,"station_id":"ce4bgr92rcd13ifvqc7g","pricing_plan_id":"cebpf4jnsgd1na2vs0mg"},{"bike_id":"88e88316-3c30-4337-9401-406b7f350b0c","system_id":"levelo_inurba_marseille","lat":43.30111,"lon":5.390747,"is_reserved":false,"is_disabled":true,"rental_uris":{"android":"levelo://app?vid=88e88316-3c30-4337-9401-406b7f350b0c","ios":"levelo://app?vid=88e88316-3c30-4337-9401-406b7f350b0c"},"vehicle_type_id":"4","last_reported":1750270522,"current_range_meters":1200,"station_id":"ce4bh192rcd13ifvqdb0","pricing_plan_id":"cebpf4jnsgd1na2vs0mg"},{"bike_id":"8a01827e-4ab0-423c-bbd7-2e679b8a29c1","system_id":"levelo_inurba_marseille","lat":43.29295,"lon":5.40095,"is_reserved":false,"is_disabled":true,"rental_uris":{"android":"levelo://app?vid=8a01827e-4ab0-423c-bbd7-2e679b8a29c1","ios":"levelo://app?vid=8a01827e-4ab0-423c-bbd7-2e679b8a29c1"},"vehicle_type_id":"4","last_reported":1750270522,"current_range_meters":1200,"station_id":"ce4bh312rcd13ifvqdk0","pricing_plan_id":"cebpf4jnsgd1na2vs0mg"},{"bike_id":"193e7715-9dc9-40e1-8862-c090c69607ce","system_id":"levelo_inurba_marseille","lat":43.27374,"lon":5.36257,"is_reserved":false,"is_disabled":true,"rental_uris":{"android":"levelo://app?vid=193e7715-9dc9-40e1-8862-c090c69607ce","ios":"levelo://app?vid=193e7715-9dc9-40e1-8862-c090c69607ce"},"vehicle_type_id":"4","last_reported":1750270522,"current_range_meters":1200,"station_id":"ce4bhbh2rcd13ifvqeo0","pricing_plan_id":"cebpf4jnsgd1na2vs0mg"},{"bike_id":"bf9bbd64-94b1-4c17-91d5-eb6f5d721876","system_id":"levelo_inurba_marseille","lat":43.26612,"lon":5.37272,"is_reserved":false,"is_disabled":true,"rental_uris":{"android":"levelo://app?vid=bf9bbd64-94b1-4c17-91d5-eb6f5d721876","ios":"levelo://app?vid=bf9bbd64-94b1-4c17-91d5-eb6f5d721876"},"vehicle_type_id":"4","last_reported":1750270522,"current_range_meters":1200,"station_id":"ce4bhg12rcd13ifvqf70","pricing_plan_id":"cebpf4jnsgd1na2vs0mg"},{"bike_id":"3a324a9e-0819-452c-8dc7-c47c1b776bff","system_id":"levelo_inurba_marseille","lat":43.25492,"lon":5.37657,"is_reserved":false,"is_disabled":true,"rental_uris":{"android":"levelo://app?vid=3a324a9e-0819-452c-8dc7-c47c1b776bff","ios":"levelo://app?vid=3a324a9e-0819-452c-8dc7-c47c1b776bff"},"vehicle_type_id":"4","last_reported":1750270522,"current_range_meters":1200,"station_id":"ce4bhh12rcd13ifvqff0","pricing_plan_id":"cebpf4jnsgd1na2vs0mg"},{"bike_id":"86de5481-75e3-4ca3-99a2-597617dfeeb3","system_id":"levelo_inurba_marseille","lat":43.25107,"lon":5.40322,"is_reserved":false,"is_disabled":true,"rental_uris":{"android":"levelo://app?vid=86de5481-75e3-4ca3-99a2-597617dfeeb3","ios":"levelo://app?vid=86de5481-75e3-4ca3-99a2-597617dfeeb3"},"vehicle_type_id":"4","last_reported":1750270522,"current_range_meters":1200,"station_id":"ce4bhlh2rcd13ifvqgig","pricing_plan_id":"cebpf4jnsgd1na2vs0mg"},{"bike_id":"f6856bde-c087-417e-98d5-459a2a731cea","system_id":"levelo_inurba_marseille","lat":43.21751,"lon":5.34601,"is_reserved":false,"is_disabled":true,"rental_uris":{"android":"levelo://app?vid=f6856bde-c087-417e-98d5-459a2a731cea","ios":"levelo://app?vid=f6856bde-c087-417e-98d5-459a2a731cea"},"vehicle_type_id":"4","last_reported":1750270522,"current_range_meters":1200,"station_id":"st_cvj6r9ubvosntc0bgbag","pricing_plan_id":"cebpf4jnsgd1na2vs0mg"},{"bike_id":"47196f00-388f-4b3b-a4de-3dba126cd107","system_id":"levelo_inurba_marseille","lat":43.24384,"lon":5.41173,"is_reserved":false,"is_disabled":true,"rental_uris":{"android":"levelo://app?vid=47196f00-388f-4b3b-a4de-3dba126cd107","ios":"levelo://app?vid=47196f00-388f-4b3b-a4de-3dba126cd107"},"vehicle_type_id":"4","last_reported":1750270522,"current_range_meters":1600,"station_id":"","pricing_plan_id":"cebpf4jnsgd1na2vs0mg"},{"bike_id":"96250bb3-a714-48db-9ff4-99347cd9a4a2","system_id":"levelo_inurba_marseille","lat":43.3137,"lon":5.38505,"is_reserved":false,"is_disabled":true,"rental_uris":{"android":"levelo://app?vid=96250bb3-a714-48db-9ff4-99347cd9a4a2","ios":"levelo://app?vid=96250bb3-a714-48db-9ff4-99347cd9a4a2"},"vehicle_type_id":"4","last_reported":1750270522,"current_range_meters":1600,"station_id":"ce4bgt92rcd13ifvqcf0","pricing_plan_id":"cebpf4jnsgd1na2vs0mg"},{"bike_id":"86e093fc-1723-40ce-9960-e588d4e8d4d8","system_id":"levelo_inurba_marseille","lat":43.26572,"lon":5.39024,"is_reserved":false,"is_disabled":true,"rental_uris":{"android":"levelo://app?vid=86e093fc-1723-40ce-9960-e588d4e8d4d8","ios":"levelo://app?vid=86e093fc-1723-40ce-9960-e588d4e8d4d8"},"vehicle_type_id":"4","last_reported":1750270522,"current_range_meters":1600,"station_id":"ce4bhe12rcd13ifvqf30","pricing_plan_id":"cebpf4jnsgd1na2vs0mg"},{"bike_id":"eb4a9822-2043-4a1f-b4c1-8677569ffe95","system_id":"levelo_inurba_marseille","lat":43.254938,"lon":5.376628,"is_reserved":false,"is_disabled":true,"rental_uris":{"android":"levelo://app?vid=eb4a9822-2043-4a1f-b4c1-8677569ffe95","ios":"levelo://app?vid=eb4a9822-2043-4a1f-b4c1-8677569ffe95"},"vehicle_type_id":"4","last_reported":1750270522,"current_range_meters":1600,"station_id":"ce4bhh12rcd13ifvqff0","pricing_plan_id":"cebpf4jnsgd1na2vs0mg"},{"bike_id":"ac1c17be-32dc-4449-8610-ca5bfe2cd501","system_id":"levelo_inurba_marseille","lat":43.33797,"lon":5.37472,"is_reserved":false,"is_disabled":true,"rental_uris":{"android":"levelo://app?vid=ac1c17be-32dc-4449-8610-ca5bfe2cd501","ios":"levelo://app?vid=ac1c17be-32dc-4449-8610-ca5bfe2cd501"},"vehicle_type_id":"4","last_reported":1750270522,"current_range_meters":2000,"station_id":"","pricing_plan_id":"cebpf4jnsgd1na2vs0mg"},{"bike_id":"ea8443e7-a779-4ca8-80ce-fe1611569253","system_id":"levelo_inurba_marseille","lat":43.30574,"lon":5.37229,"is_reserved":false,"is_disabled":false,"rental_uris":{"android":"levelo://app?vid=ea8443e7-a779-4ca8-80ce-fe1611569253","ios":"levelo://app?vid=ea8443e7-a779-4ca8-80ce-fe1611569253"},"vehicle_type_id":"4","last_reported":1750270522,"current_range_meters":2000,"station_id":"ce4bgqh2rcd13ifvqc4g","pricing_plan_id":"cebpf4jnsgd1na2vs0mg"},{"bike_id":"0894e302-ff55-4665-ae39-c3e86615e53a","system_id":"levelo_inurba_marseille","lat":43.29198,"lon":5.35805,"is_reserved":false,"is_disabled":true,"rental_uris":{"android":"levelo://app?vid=0894e302-ff55-4665-ae39-c3e86615e53a","ios":"levelo://app?vid=0894e302-ff55-4665-ae39-c3e86615e53a"},"vehicle_type_id":"4","last_reported":1750270522,"current_range_meters":2000,"station_id":"ce4bhb12rcd13ifvqel0","pricing_plan_id":"cebpf4jnsgd1na2vs0mg"},{"bike_id":"b2a92dae-8506-4bec-be6c-3b7313213eb9","system_id":"levelo_inurba_marseille","lat":43.23151,"lon":5.4369,"is_reserved":false,"is_disabled":true,"rental_uris":{"android":"levelo://app?vid=b2a92dae-8506-4bec-be6c-3b7313213eb9","ios":"levelo://app?vid=b2a92dae-8506-4bec-be6c-3b7313213eb9"},"vehicle_type_id":"4","last_reported":1750270522,"current_range_meters":2000,"station_id":"ce4bhmp2rcd13ifvqgog","pricing_plan_id":"cebpf4jnsgd1na2vs0mg"},{"bike_id":"f7edec4e-4d5f-4000-93be-ac25b000e2f6","system_id":"levelo_inurba_marseille","lat":43.273787,"lon":5.362588,"is_reserved":false,"is_disabled":false,"rental_uris":{"android":"levelo://app?vid=f7edec4e-4d5f-4000-93be-ac25b000e2f6","ios":"levelo://app?vid=f7edec4e-4d5f-4000-93be-ac25b000e2f6"},"vehicle_type_id":"4","last_reported":1750270522,"current_range_meters":2800,"station_id":"","pricing_plan_id":"cebpf4jnsgd1na2vs0mg"},{"bike_id":"33e9c9da-1cc0-4262-ad00-281d3e3f35fc","system_id":"levelo_inurba_marseille","lat":43.33785,"lon":5.37476,"is_reserved":false,"is_disabled":false,"rental_uris":{"android":"levelo://app?vid=33e9c9da-1cc0-4262-ad00-281d3e3f35fc","ios":"levelo://app?vid=33e9c9da-1cc0-4262-ad00-281d3e3f35fc"},"vehicle_type_id":"4","last_reported":1750270522,"current_range_meters":2800,"station_id":"","pricing_plan_id":"cebpf4jnsgd1na2vs0mg"},{"bike_id":"084f82a6-1eca-4985-a6bb-ea29e2a327b4","system_id":"levelo_inurba_marseille","lat":43.30947,"lon":5.40579,"is_reserved":false,"is_disabled":false,"rental_uris":{"android":"levelo://app?vid=084f82a6-1eca-4985-a6bb-ea29e2a327b4","ios":"levelo://app?vid=084f82a6-1eca-4985-a6bb-ea29e2a327b4"},"vehicle_type_id":"4","last_reported":1750270522,"current_range_meters":2800,"station_id":"","pricing_plan_id":"cebpf4jnsgd1na2vs0mg"},{"bike_id":"4e9511d4-7471-4631-a09c-ba89db090414","system_id":"levelo_inurba_marseille","lat":43.27593,"lon":5.36109,"is_reserved":false,"is_disabled":false,"rental_uris":{"android":"levelo://app?vid=4e9511d4-7471-4631-a09c-ba89db090414","ios":"levelo://app?vid=4e9511d4-7471-4631-a09c-ba89db090414"},"vehicle_type_id":"4","last_reported":1750270522,"current_range_meters":2800,"station_id":"ce4bgj92rcd13ifvqbe0","pricing_plan_id":"cebpf4jnsgd1na2vs0mg"},{"bike_id":"00c4d291-534f-4a85-b570-1cab21293ec1","system_id":"levelo_inurba_marseille","lat":43.29623,"lon":5.37167,"is_reserved":false,"is_disabled":false,"rental_uris":{"android":"levelo://app?vid=00c4d291-534f-4a85-b570-1cab21293ec1","ios":"levelo://app?vid=00c4d291-534f-4a85-b570-1cab21293ec1"},"vehicle_type_id":"4","last_reported":1750270522,"current_range_meters":2800,"station_id":"ce4bgnh2rcd13ifvqc0g","pricing_plan_id":"cebpf4jnsgd1na2vs0mg"},{"bike_id":"a56abf7d-7860-451b-b3d4-25f241dd2cb6","system_id":"levelo_inurba_marseille","lat":43.27375,"lon":5.36254,"is_reserved":false,"is_disabled":false,"rental_uris":{"android":"levelo://app?vid=a56abf7d-7860-451b-b3d4-25f241dd2cb6","ios":"levelo://app?vid=a56abf7d-7860-451b-b3d4-25f241dd2cb6"},"vehicle_type_id":"4","last_reported":1750270522,"current_range_meters":2800,"station_id":"ce4bhbh2rcd13ifvqeo0","pricing_plan_id":"cebpf4jnsgd1na2vs0mg"},{"bike_id":"0e40573b-1645-41fa-8b03-fd57f9e9ef91","system_id":"levelo_inurba_marseille","lat":43.26681,"lon":5.38269,"is_reserved":false,"is_disabled":false,"rental_uris":{"android":"levelo://app?vid=0e40573b-1645-41fa-8b03-fd57f9e9ef91","ios":"levelo://app?vid=0e40573b-1645-41fa-8b03-fd57f9e9ef91"},"vehicle_type_id":"4","last_reported":1750270522,"current_range_meters":2800,"station_id":"ce4bhg92rcd13ifvqf90","pricing_plan_id":"cebpf4jnsgd1na2vs0mg"},{"bike_id":"15d9b3bd-c7af-4ccb-bef9-dd1cca2f5ddd","system_id":"levelo_inurba_marseille","lat":43.25699,"lon":5.41104,"is_reserved":false,"is_disabled":false,"rental_uris":{"android":"levelo://app?vid=15d9b3bd-c7af-4ccb-bef9-dd1cca2f5ddd","ios":"levelo://app?vid=15d9b3bd-c7af-4ccb-bef9-dd1cca2f5ddd"},"vehicle_type_id":"4","last_reported":1750270522,"current_range_meters":2800,"station_id":"ce4bhkp2rcd13ifvqgd0","pricing_plan_id":"cebpf4jnsgd1na2vs0mg"},{"bike_id":"e536e049-df87-46fb-8309-97ee8399fed1","system_id":"levelo_inurba_marseille","lat":43.30639,"lon":5.40089,"is_reserved":false,"is_disabled":false,"rental_uris":{"android":"levelo://app?vid=e536e049-df87-46fb-8309-97ee8399fed1","ios":"levelo://app?vid=e536e049-df87-46fb-8309-97ee8399fed1"},"vehicle_type_id":"4","last_reported":1750270522,"current_range_meters":3200,"station_id":"ce4bh112rcd13ifvqda0","pricing_plan_id":"cebpf4jnsgd1na2vs0mg"},{"bike_id":"ee627a35-c37e-4c4d-b1cb-6044e0c0c1d2","system_id":"levelo_inurba_marseille","lat":43.30375,"lon":5.42487,"is_reserved":false,"is_disabled":false,"rental_uris":{"android":"levelo://app?vid=ee627a35-c37e-4c4d-b1cb-6044e0c0c1d2","ios":"levelo://app?vid=ee627a35-c37e-4c4d-b1cb-6044e0c0c1d2"},"vehicle_type_id":"4","last_reported":1750270522,"current_range_meters":3200,"station_id":"ce4bhoh2rcd13ifvqh6g","pricing_plan_id":"cebpf4jnsgd1na2vs0mg"},{"bike_id":"fe753a6d-0961-441e-b4a4-a4fa5974f5cc","system_id":"levelo_inurba_marseille","lat":43.21191,"lon":5.35073,"is_reserved":false,"is_disabled":false,"rental_uris":{"android":"levelo://app?vid=fe753a6d-0961-441e-b4a4-a4fa5974f5cc","ios":"levelo://app?vid=fe753a6d-0961-441e-b4a4-a4fa5974f5cc"},"vehicle_type_id":"4","last_reported":1750270522,"current_range_meters":3200,"station_id":"st_cvj6sg6p6f1abm77japg","pricing_plan_id":"cebpf4jnsgd1na2vs0mg"},{"bike_id":"dcf38cf0-7284-4775-add2-8c5f9927b31c","system_id":"levelo_inurba_marseille","lat":43.25446,"lon":5.37865,"is_reserved":false,"is_disabled":false,"rental_uris":{"android":"levelo://app?vid=dcf38cf0-7284-4775-add2-8c5f9927b31c","ios":"levelo://app?vid=dcf38cf0-7284-4775-add2-8c5f9927b31c"},"vehicle_type_id":"4","last_reported":1750270522,"current_range_meters":4000,"station_id":"","pricing_plan_id":"cebpf4jnsgd1na2vs0mg"},{"bike_id":"cf663217-e3cd-4e4c-8aed-2ca44898752e","system_id":"levelo_inurba_marseille","lat":43.30425,"lon":5.39738,"is_reserved":false,"is_disabled":false,"rental_uris":{"android":"levelo://app?vid=cf663217-e3cd-4e4c-8aed-2ca44898752e","ios":"levelo://app?vid=cf663217-e3cd-4e4c-8aed-2ca44898752e"},"vehicle_type_id":"4","last_reported":1750270522,"current_range_meters":4000,"station_id":"ce4bh092rcd13ifvqd20","pricing_plan_id":"cebpf4jnsgd1na2vs0mg"},{"bike_id":"b896d892-9850-4b34-bbdb-668867262e38","system_id":"levelo_inurba_marseille","lat":43.29417,"lon":5.38619,"is_reserved":false,"is_disabled":false,"rental_uris":{"android":"levelo://app?vid=b896d892-9850-4b34-bbdb-668867262e38","ios":"levelo://app?vid=b896d892-9850-4b34-bbdb-668867262e38"},"vehicle_type_id":"4","last_reported":1750270522,"current_range_meters":4000,"station_id":"ce4bh2h2rcd13ifvqdh0","pricing_plan_id":"cebpf4jnsgd1na2vs0mg"},{"bike_id":"7956c2f6-1330-46e7-bab4-b6d6666f697e","system_id":"levelo_inurba_marseille","lat":43.28997,"lon":5.35617,"is_reserved":false,"is_disabled":false,"rental_uris":{"android":"levelo://app?vid=7956c2f6-1330-46e7-bab4-b6d6666f697e","ios":"levelo://app?vid=7956c2f6-1330-46e7-bab4-b6d6666f697e"},"vehicle_type_id":"4","last_reported":1750270522,"current_range_meters":4000,"station_id":"ce4bhb92rcd13ifvqen0","pricing_plan_id":"cebpf4jnsgd1na2vs0mg"},{"bike_id":"f7dcb202-b96a-4808-9b37-e49ad161e560","system_id":"levelo_inurba_marseille","lat":43.32365,"lon":5.38884,"is_reserved":false,"is_disabled":false,"rental_uris":{"android":"levelo://app?vid=f7dcb202-b96a-4808-9b37-e49ad161e560","ios":"levelo://app?vid=f7dcb202-b96a-4808-9b37-e49ad161e560"},"vehicle_type_id":"4","last_reported":1750270522,"current_range_meters":4000,"station_id":"ce4bhqp2rcd13ifvqhog","pricing_plan_id":"cebpf4jnsgd1na2vs0mg"},{"bike_id":"326f273c-9d62-4347-9ee1-d1b2518b8a6c","system_id":"levelo_inurba_marseille","lat":43.31161,"lon":5.37332,"is_reserved":false,"is_disabled":false,"rental_uris":{"android":"levelo://app?vid=326f273c-9d62-4347-9ee1-d1b2518b8a6c","ios":"levelo://app?vid=326f273c-9d62-4347-9ee1-d1b2518b8a6c"},"vehicle_type_id":"4","last_reported":1750270522,"current_range_meters":4400,"station_id":"","pricing_plan_id":"cebpf4jnsgd1na2vs0mg"},{"bike_id":"b721d04b-2c13-45a9-bb7a-f07e8dc8ad77","system_id":"levelo_inurba_marseille","lat":43.29009,"lon":5.35589,"is_reserved":false,"is_disabled":false,"rental_uris":{"android":"levelo://app?vid=b721d04b-2c13-45a9-bb7a-f07e8dc8ad77","ios":"levelo://app?vid=b721d04b-2c13-45a9-bb7a-f07e8dc8ad77"},"vehicle_type_id":"4","last_reported":1750270522,"current_range_meters":4400,"station_id":"ce4bhb92rcd13ifvqen0","pricing_plan_id":"cebpf4jnsgd1na2vs0mg"},{"bike_id":"5aa44dc0-26c7-4885-956c-6621ca7697a2","system_id":"levelo_inurba_marseille","lat":43.27378,"lon":5.36255,"is_reserved":false,"is_disabled":false,"rental_uris":{"android":"levelo://app?vid=5aa44dc0-26c7-4885-956c-6621ca7697a2","ios":"levelo://app?vid=5aa44dc0-26c7-4885-956c-6621ca7697a2"},"vehicle_type_id":"4","last_reported":1750270522,"current_range_meters":4400,"station_id":"ce4bhbh2rcd13ifvqeo0","pricing_plan_id":"cebpf4jnsgd1na2vs0mg"},{"bike_id":"18e0ee5a-fa86-463f-9a0e-6149e49dc7cc","system_id":"levelo_inurba_marseille","lat":43.283539,"lon":5.350247,"is_reserved":false,"is_disabled":false,"rental_uris":{"android":"levelo://app?vid=18e0ee5a-fa86-463f-9a0e-6149e49dc7cc","ios":"levelo://app?vid=18e0ee5a-fa86-463f-9a0e-6149e49dc7cc"},"vehicle_type_id":"4","last_reported":1750270522,"current_range_meters":4400,"station_id":"ce4bhbp2rcd13ifvqerg","pricing_plan_id":"cebpf4jnsgd1na2vs0mg"},{"bike_id":"dc24aed8-5e1c-452b-b724-9293570c1628","system_id":"levelo_inurba_marseille","lat":43.26032,"lon":5.37545,"is_reserved":false,"is_disabled":false,"rental_uris":{"android":"levelo://app?vid=dc24aed8-5e1c-452b-b724-9293570c1628","ios":"levelo://app?vid=dc24aed8-5e1c-452b-b724-9293570c1628"},"vehicle_type_id":"4","last_reported":1750270522,"current_range_meters":4400,"station_id":"ce4bhgh2rcd13ifvqfa0","pricing_plan_id":"cebpf4jnsgd1na2vs0mg"},{"bike_id":"15abd4ba-ca0c-45bd-8b18-4a6725c77bac","system_id":"levelo_inurba_marseille","lat":43.24176,"lon":5.39733,"is_reserved":false,"is_disabled":false,"rental_uris":{"android":"levelo://app?vid=15abd4ba-ca0c-45bd-8b18-4a6725c77bac","ios":"levelo://app?vid=15abd4ba-ca0c-45bd-8b18-4a6725c77bac"},"vehicle_type_id":"4","last_reported":1750270522,"current_range_meters":4400,"station_id":"ce4bhn12rcd13ifvqgpg","pricing_plan_id":"cebpf4jnsgd1na2vs0mg"},{"bike_id":"fb7f0fca-328c-4590-8315-5fcf92aa068d","system_id":"levelo_inurba_marseille","lat":43.3377,"lon":5.37487,"is_reserved":false,"is_disabled":false,"rental_uris":{"android":"levelo://app?vid=fb7f0fca-328c-4590-8315-5fcf92aa068d","ios":"levelo://app?vid=fb7f0fca-328c-4590-8315-5fcf92aa068d"},"vehicle_type_id":"4","last_reported":1750270522,"current_range_meters":4800,"station_id":"","pricing_plan_id":"cebpf4jnsgd1na2vs0mg"},{"bike_id":"8c58aa65-ed08-4210-8389-810aa30a3f28","system_id":"levelo_inurba_marseille","lat":43.29189,"lon":5.35794,"is_reserved":false,"is_disabled":false,"rental_uris":{"android":"levelo://app?vid=8c58aa65-ed08-4210-8389-810aa30a3f28","ios":"levelo://app?vid=8c58aa65-ed08-4210-8389-810aa30a3f28"},"vehicle_type_id":"4","last_reported":1750270522,"current_range_meters":4800,"station_id":"ce4bhb12rcd13ifvqel0","pricing_plan_id":"cebpf4jnsgd1na2vs0mg"},{"bike_id":"b6c5f5ff-df03-4122-a869-f9eaa569ad93","system_id":"levelo_inurba_marseille","lat":43.289915,"lon":5.354762,"is_reserved":false,"is_disabled":false,"rental_uris":{"android":"levelo://app?vid=b6c5f5ff-df03-4122-a869-f9eaa569ad93","ios":"levelo://app?vid=b6c5f5ff-df03-4122-a869-f9eaa569ad93"},"vehicle_type_id":"4","last_reported":1750270522,"current_range_meters":4800,"station_id":"ce4bhf92rcd13ifvqf40","pricing_plan_id":"cebpf4jnsgd1na2vs0mg"},{"bike_id":"612db5ef-c9ef-43ac-bba9-cb32e4e98d3e","system_id":"levelo_inurba_marseille","lat":43.25487,"lon":5.37646,"is_reserved":false,"is_disabled":false,"rental_uris":{"android":"levelo://app?vid=612db5ef-c9ef-43ac-bba9-cb32e4e98d3e","ios":"levelo://app?vid=612db5ef-c9ef-43ac-bba9-cb32e4e98d3e"},"vehicle_type_id":"4","last_reported":1750270522,"current_range_meters":4800,"station_id":"ce4bhh12rcd13ifvqff0","pricing_plan_id":"cebpf4jnsgd1na2vs0mg"},{"bike_id":"e03a6d42-f362-4878-ab56-4b5afba95b0c","system_id":"levelo_inurba_marseille","lat":43.31491,"lon":5.36894,"is_reserved":false,"is_disabled":false,"rental_uris":{"android":"levelo://app?vid=e03a6d42-f362-4878-ab56-4b5afba95b0c","ios":"levelo://app?vid=e03a6d42-f362-4878-ab56-4b5afba95b0c"},"vehicle_type_id":"4","last_reported":1750270522,"current_range_meters":5600,"station_id":"","pricing_plan_id":"cebpf4jnsgd1na2vs0mg"},{"bike_id":"7c78b1a5-6fd7-4104-881c-1e4ac6975890","system_id":"levelo_inurba_marseille","lat":43.2738,"lon":5.36263,"is_reserved":false,"is_disabled":false,"rental_uris":{"android":"levelo://app?vid=7c78b1a5-6fd7-4104-881c-1e4ac6975890","ios":"levelo://app?vid=7c78b1a5-6fd7-4104-881c-1e4ac6975890"},"vehicle_type_id":"4","last_reported":1750270522,"current_range_meters":5600,"station_id":"ce4bhbh2rcd13ifvqeo0","pricing_plan_id":"cebpf4jnsgd1na2vs0mg"},{"bike_id":"0c2732ce-a727-46b0-af5a-af7ba2098b27","system_id":"levelo_inurba_marseille","lat":43.33793,"lon":5.3747,"is_reserved":false,"is_disabled":false,"rental_uris":{"android":"levelo://app?vid=0c2732ce-a727-46b0-af5a-af7ba2098b27","ios":"levelo://app?vid=0c2732ce-a727-46b0-af5a-af7ba2098b27"},"vehicle_type_id":"4","last_reported":1750270522,"current_range_meters":6000,"station_id":"","pricing_plan_id":"cebpf4jnsgd1na2vs0mg"},{"bike_id":"87d68a03-196e-4575-b42c-7168bc3d0f14","system_id":"levelo_inurba_marseille","lat":43.29627,"lon":5.40595,"is_reserved":false,"is_disabled":false,"rental_uris":{"android":"levelo://app?vid=87d68a03-196e-4575-b42c-7168bc3d0f14","ios":"levelo://app?vid=87d68a03-196e-4575-b42c-7168bc3d0f14"},"vehicle_type_id":"4","last_reported":1750270522,"current_range_meters":6000,"station_id":"ce4bh0h2rcd13ifvqd60","pricing_plan_id":"cebpf4jnsgd1na2vs0mg"},{"bike_id":"adb862cd-13b5-42fd-a8fc-fa1421822e7d","system_id":"levelo_inurba_marseille","lat":43.290117,"lon":5.356106,"is_reserved":false,"is_disabled":false,"rental_uris":{"android":"levelo://app?vid=adb862cd-13b5-42fd-a8fc-fa1421822e7d","ios":"levelo://app?vid=adb862cd-13b5-42fd-a8fc-fa1421822e7d"},"vehicle_type_id":"4","last_reported":1750270522,"current_range_meters":6000,"station_id":"ce4bhb92rcd13ifvqen0","pricing_plan_id":"cebpf4jnsgd1na2vs0mg"},{"bike_id":"bca437ef-d398-46c6-bef3-10b17c1e34a6","system_id":"levelo_inurba_marseille","lat":43.29224,"lon":5.36054,"is_reserved":false,"is_disabled":false,"rental_uris":{"android":"levelo://app?vid=bca437ef-d398-46c6-bef3-10b17c1e34a6","ios":"levelo://app?vid=bca437ef-d398-46c6-bef3-10b17c1e34a6"},"vehicle_type_id":"4","last_reported":1750270522,"current_range_meters":6000,"station_id":"ce4bhbh2rcd13ifvqeqg","pricing_plan_id":"cebpf4jnsgd1na2vs0mg"},{"bike_id":"e5709ac7-18fb-4a89-bc30-269e63068c12","system_id":"levelo_inurba_marseille","lat":43.26214,"lon":5.374413,"is_reserved":false,"is_disabled":false,"rental_uris":{"android":"levelo://app?vid=e5709ac7-18fb-4a89-bc30-269e63068c12","ios":"levelo://app?vid=e5709ac7-18fb-4a89-bc30-269e63068c12"},"vehicle_type_id":"4","last_reported":1750270522,"current_range_meters":6000,"station_id":"ce4bhgp2rcd13ifvqfc0","pricing_plan_id":"cebpf4jnsgd1na2vs0mg"},{"bike_id":"9888ba23-b277-4d15-8b7c-5cc0d6e1d319","system_id":"levelo_inurba_marseille","lat":43.261531,"lon":5.393791,"is_reserved":false,"is_disabled":false,"rental_uris":{"android":"levelo://app?vid=9888ba23-b277-4d15-8b7c-5cc0d6e1d319","ios":"levelo://app?vid=9888ba23-b277-4d15-8b7c-5cc0d6e1d319"},"vehicle_type_id":"4","last_reported":1750270522,"current_range_meters":6000,"station_id":"ce4bhh92rcd13ifvqfj0","pricing_plan_id":"cebpf4jnsgd1na2vs0mg"},{"bike_id":"64b8b83e-503a-4015-b7c1-3bd9b6c0bb97","system_id":"levelo_inurba_marseille","lat":43.30373,"lon":5.45139,"is_reserved":false,"is_disabled":false,"rental_uris":{"android":"levelo://app?vid=64b8b83e-503a-4015-b7c1-3bd9b6c0bb97","ios":"levelo://app?vid=64b8b83e-503a-4015-b7c1-3bd9b6c0bb97"},"vehicle_type_id":"4","last_reported":1750270522,"current_range_meters":6400,"station_id":"","pricing_plan_id":"cebpf4jnsgd1na2vs0mg"},{"bike_id":"1e3bbf5d-c2d7-40e8-9022-89f8ae72e7d1","system_id":"levelo_inurba_marseille","lat":43.30464,"lon":5.37903,"is_reserved":false,"is_disabled":false,"rental_uris":{"android":"levelo://app?vid=1e3bbf5d-c2d7-40e8-9022-89f8ae72e7d1","ios":"levelo://app?vid=1e3bbf5d-c2d7-40e8-9022-89f8ae72e7d1"},"vehicle_type_id":"4","last_reported":1750270522,"current_range_meters":6400,"station_id":"ce4bgup2rcd13ifvqcn0","pricing_plan_id":"cebpf4jnsgd1na2vs0mg"},{"bike_id":"71f00989-6f19-446f-9eff-808cffe84340","system_id":"levelo_inurba_marseille","lat":43.29873,"lon":5.39728,"is_reserved":false,"is_disabled":false,"rental_uris":{"android":"levelo://app?vid=71f00989-6f19-446f-9eff-808cffe84340","ios":"levelo://app?vid=71f00989-6f19-446f-9eff-808cffe84340"},"vehicle_type_id":"4","last_reported":1750270522,"current_range_meters":6400,"station_id":"ce4bh0h2rcd13ifvqd50","pricing_plan_id":"cebpf4jnsgd1na2vs0mg"},{"bike_id":"9132bbdf-ead4-4c99-b8fa-3ac3430dc729","system_id":"levelo_inurba_marseille","lat":43.2621,"lon":5.37438,"is_reserved":false,"is_disabled":false,"rental_uris":{"android":"levelo://app?vid=9132bbdf-ead4-4c99-b8fa-3ac3430dc729","ios":"levelo://app?vid=9132bbdf-ead4-4c99-b8fa-3ac3430dc729"},"vehicle_type_id":"4","last_reported":1750270522,"current_range_meters":6400,"station_id":"ce4bhgp2rcd13ifvqfc0","pricing_plan_id":"cebpf4jnsgd1na2vs0mg"},{"bike_id":"0699c293-73c5-48a3-b557-26fcc4e821f2","system_id":"levelo_inurba_marseille","lat":43.322895,"lon":5.382605,"is_reserved":false,"is_disabled":false,"rental_uris":{"android":"levelo://app?vid=0699c293-73c5-48a3-b557-26fcc4e821f2","ios":"levelo://app?vid=0699c293-73c5-48a3-b557-26fcc4e821f2"},"vehicle_type_id":"4","last_reported":1750270522,"current_range_meters":6400,"station_id":"ce4bhr12rcd13ifvqhqg","pricing_plan_id":"cebpf4jnsgd1na2vs0mg"},{"bike_id":"13603010-4ba6-45d8-8742-faf7a41367fa","system_id":"levelo_inurba_marseille","lat":43.29201,"lon":5.38282,"is_reserved":false,"is_disabled":false,"rental_uris":{"android":"levelo://app?vid=13603010-4ba6-45d8-8742-faf7a41367fa","ios":"levelo://app?vid=13603010-4ba6-45d8-8742-faf7a41367fa"},"vehicle_type_id":"4","last_reported":1750270522,"current_range_meters":6800,"station_id":"","pricing_plan_id":"cebpf4jnsgd1na2vs0mg"},{"bike_id":"edcad349-a103-4cbf-ab04-0735f9ef3b79","system_id":"levelo_inurba_marseille","lat":43.27622,"lon":5.36103,"is_reserved":false,"is_disabled":false,"rental_uris":{"android":"levelo://app?vid=edcad349-a103-4cbf-ab04-0735f9ef3b79","ios":"levelo://app?vid=edcad349-a103-4cbf-ab04-0735f9ef3b79"},"vehicle_type_id":"4","last_reported":1750270522,"current_range_meters":6800,"station_id":"ce4bgj92rcd13ifvqbe0","pricing_plan_id":"cebpf4jnsgd1na2vs0mg"},{"bike_id":"820df921-69fc-426c-b325-82acf4918bb0","system_id":"levelo_inurba_marseille","lat":43.30604,"lon":5.372023,"is_reserved":false,"is_disabled":false,"rental_uris":{"android":"levelo://app?vid=820df921-69fc-426c-b325-82acf4918bb0","ios":"levelo://app?vid=820df921-69fc-426c-b325-82acf4918bb0"},"vehicle_type_id":"4","last_reported":1750270522,"current_range_meters":6800,"station_id":"ce4bgqh2rcd13ifvqc4g","pricing_plan_id":"cebpf4jnsgd1na2vs0mg"},{"bike_id":"6be149d7-cc0d-41e1-bd81-14d71a6735cf","system_id":"levelo_inurba_marseille","lat":43.28623,"lon":5.35099,"is_reserved":false,"is_disabled":false,"rental_uris":{"android":"levelo://app?vid=6be149d7-cc0d-41e1-bd81-14d71a6735cf","ios":"levelo://app?vid=6be149d7-cc0d-41e1-bd81-14d71a6735cf"},"vehicle_type_id":"4","last_reported":1750270522,"current_range_meters":6800,"station_id":"ce4bhch2rcd13ifvqeug","pricing_plan_id":"cebpf4jnsgd1na2vs0mg"},{"bike_id":"2c10359e-5896-4ea0-bcef-b43f5b6a60ba","system_id":"levelo_inurba_marseille","lat":43.26213,"lon":5.37444,"is_reserved":false,"is_disabled":false,"rental_uris":{"android":"levelo://app?vid=2c10359e-5896-4ea0-bcef-b43f5b6a60ba","ios":"levelo://app?vid=2c10359e-5896-4ea0-bcef-b43f5b6a60ba"},"vehicle_type_id":"4","last_reported":1750270522,"current_range_meters":6800,"station_id":"ce4bhgp2rcd13ifvqfc0","pricing_plan_id":"cebpf4jnsgd1na2vs0mg"},{"bike_id":"1ab2ee48-1251-4b91-ac5d-65cb486d1667","system_id":"levelo_inurba_marseille","lat":43.27809,"lon":5.40712,"is_reserved":false,"is_disabled":false,"rental_uris":{"android":"levelo://app?vid=1ab2ee48-1251-4b91-ac5d-65cb486d1667","ios":"levelo://app?vid=1ab2ee48-1251-4b91-ac5d-65cb486d1667"},"vehicle_type_id":"4","last_reported":1750270522,"current_range_meters":6800,"station_id":"ce4bhnh2rcd13ifvqgtg","pricing_plan_id":"cebpf4jnsgd1na2vs0mg"},{"bike_id":"753e4ae6-5ce5-455c-869e-b2594a9e0a04","system_id":"levelo_inurba_marseille","lat":43.21746,"lon":5.34599,"is_reserved":false,"is_disabled":false,"rental_uris":{"android":"levelo://app?vid=753e4ae6-5ce5-455c-869e-b2594a9e0a04","ios":"levelo://app?vid=753e4ae6-5ce5-455c-869e-b2594a9e0a04"},"vehicle_type_id":"4","last_reported":1750270522,"current_range_meters":6800,"station_id":"st_cvj6r9ubvosntc0bgbag","pricing_plan_id":"cebpf4jnsgd1na2vs0mg"},{"bike_id":"94bcc58f-7023-41cb-871b-3595da7eac8b","system_id":"levelo_inurba_marseille","lat":43.331514,"lon":5.381661,"is_reserved":false,"is_disabled":false,"rental_uris":{"android":"levelo://app?vid=94bcc58f-7023-41cb-871b-3595da7eac8b","ios":"levelo://app?vid=94bcc58f-7023-41cb-871b-3595da7eac8b"},"vehicle_type_id":"4","last_reported":1750270522,"current_range_meters":7200,"station_id":"","pricing_plan_id":"cebpf4jnsgd1na2vs0mg"},{"bike_id":"ab642d90-b462-4789-91d5-88b1c6268830","system_id":"levelo_inurba_marseille","lat":43.2828,"lon":5.35077,"is_reserved":false,"is_disabled":false,"rental_uris":{"android":"levelo://app?vid=ab642d90-b462-4789-91d5-88b1c6268830","ios":"levelo://app?vid=ab642d90-b462-4789-91d5-88b1c6268830"},"vehicle_type_id":"4","last_reported":1750270522,"current_range_meters":7200,"station_id":"ce4bhbp2rcd13ifvqerg","pricing_plan_id":"cebpf4jnsgd1na2vs0mg"},{"bike_id":"65893690-77e6-4ec2-8d14-3e51a4a6e98f","system_id":"levelo_inurba_marseille","lat":43.28157,"lon":5.42637,"is_reserved":false,"is_disabled":false,"rental_uris":{"android":"levelo://app?vid=65893690-77e6-4ec2-8d14-3e51a4a6e98f","ios":"levelo://app?vid=65893690-77e6-4ec2-8d14-3e51a4a6e98f"},"vehicle_type_id":"4","last_reported":1750270522,"current_range_meters":7200,"station_id":"ce4bhnh2rcd13ifvqgug","pricing_plan_id":"cebpf4jnsgd1na2vs0mg"},{"bike_id":"c5bb9805-0536-42fe-a40a-cf74ed321208","system_id":"levelo_inurba_marseille","lat":43.217487,"lon":5.346186,"is_reserved":false,"is_disabled":false,"rental_uris":{"android":"levelo://app?vid=c5bb9805-0536-42fe-a40a-cf74ed321208","ios":"levelo://app?vid=c5bb9805-0536-42fe-a40a-cf74ed321208"},"vehicle_type_id":"4","last_reported":1750270522,"current_range_meters":7200,"station_id":"st_cvj6r9ubvosntc0bgbag","pricing_plan_id":"cebpf4jnsgd1na2vs0mg"},{"bike_id":"884efa12-ce77-4eba-9082-28398d130c75","system_id":"levelo_inurba_marseille","lat":43.30747,"lon":5.41063,"is_reserved":false,"is_disabled":false,"rental_uris":{"android":"levelo://app?vid=884efa12-ce77-4eba-9082-28398d130c75","ios":"levelo://app?vid=884efa12-ce77-4eba-9082-28398d130c75"},"vehicle_type_id":"4","last_reported":1750270522,"current_range_meters":8000,"station_id":"","pricing_plan_id":"cebpf4jnsgd1na2vs0mg"},{"bike_id":"6f3a0055-18ce-456d-886f-5dd53c809fc5","system_id":"levelo_inurba_marseille","lat":43.26772,"lon":5.42562,"is_reserved":false,"is_disabled":false,"rental_uris":{"android":"levelo://app?vid=6f3a0055-18ce-456d-886f-5dd53c809fc5","ios":"levelo://app?vid=6f3a0055-18ce-456d-886f-5dd53c809fc5"},"vehicle_type_id":"4","last_reported":1750270522,"current_range_meters":8000,"station_id":"","pricing_plan_id":"cebpf4jnsgd1na2vs0mg"},{"bike_id":"c09581d2-483b-4362-a4bf-7d64f86b9a4c","system_id":"levelo_inurba_marseille","lat":43.31073,"lon":5.38351,"is_reserved":false,"is_disabled":false,"rental_uris":{"android":"levelo://app?vid=c09581d2-483b-4362-a4bf-7d64f86b9a4c","ios":"levelo://app?vid=c09581d2-483b-4362-a4bf-7d64f86b9a4c"},"vehicle_type_id":"4","last_reported":1750270522,"current_range_meters":8000,"station_id":"ce4bgv92rcd13ifvqcr0","pricing_plan_id":"cebpf4jnsgd1na2vs0mg"},{"bike_id":"be3875c2-6458-425c-a7e0-589f628f2376","system_id":"levelo_inurba_marseille","lat":43.29192,"lon":5.35797,"is_reserved":false,"is_disabled":false,"rental_uris":{"android":"levelo://app?vid=be3875c2-6458-425c-a7e0-589f628f2376","ios":"levelo://app?vid=be3875c2-6458-425c-a7e0-589f628f2376"},"vehicle_type_id":"4","last_reported":1750270522,"current_range_meters":8000,"station_id":"ce4bhb12rcd13ifvqel0","pricing_plan_id":"cebpf4jnsgd1na2vs0mg"},{"bike_id":"8bc05e9f-f421-4053-bdeb-02027076feb8","system_id":"levelo_inurba_marseille","lat":43.28416,"lon":5.34986,"is_reserved":false,"is_disabled":false,"rental_uris":{"android":"levelo://app?vid=8bc05e9f-f421-4053-bdeb-02027076feb8","ios":"levelo://app?vid=8bc05e9f-f421-4053-bdeb-02027076feb8"},"vehicle_type_id":"4","last_reported":1750270522,"current_range_meters":8000,"station_id":"ce4bhbh2rcd13ifvqepg","pricing_plan_id":"cebpf4jnsgd1na2vs0mg"},{"bike_id":"5cb24d35-5bae-44cd-8b3b-a187784cf51d","system_id":"levelo_inurba_marseille","lat":43.28271,"lon":5.35061,"is_reserved":false,"is_disabled":false,"rental_uris":{"android":"levelo://app?vid=5cb24d35-5bae-44cd-8b3b-a187784cf51d","ios":"levelo://app?vid=5cb24d35-5bae-44cd-8b3b-a187784cf51d"},"vehicle_type_id":"4","last_reported":1750270522,"current_range_meters":8000,"station_id":"ce4bhbp2rcd13ifvqerg","pricing_plan_id":"cebpf4jnsgd1na2vs0mg"},{"bike_id":"fe3493cd-6628-4331-9484-9200cdd76587","system_id":"levelo_inurba_marseille","lat":43.27062,"lon":5.40253,"is_reserved":false,"is_disabled":false,"rental_uris":{"android":"levelo://app?vid=fe3493cd-6628-4331-9484-9200cdd76587","ios":"levelo://app?vid=fe3493cd-6628-4331-9484-9200cdd76587"},"vehicle_type_id":"4","last_reported":1750270522,"current_range_meters":8000,"station_id":"ce4bhk92rcd13ifvqgc0","pricing_plan_id":"cebpf4jnsgd1na2vs0mg"},{"bike_id":"6a4c4d4c-4b0a-425d-8843-76ca37964130","system_id":"levelo_inurba_marseille","lat":43.21749,"lon":5.34601,"is_reserved":false,"is_disabled":false,"rental_uris":{"android":"levelo://app?vid=6a4c4d4c-4b0a-425d-8843-76ca37964130","ios":"levelo://app?vid=6a4c4d4c-4b0a-425d-8843-76ca37964130"},"vehicle_type_id":"4","last_reported":1750270522,"current_range_meters":8000,"station_id":"st_cvj6r9ubvosntc0bgbag","pricing_plan_id":"cebpf4jnsgd1na2vs0mg"},{"bike_id":"b5002037-f4b0-4634-8bc4-796d0c74810e","system_id":"levelo_inurba_marseille","lat":43.2437,"lon":5.41157,"is_reserved":false,"is_disabled":false,"rental_uris":{"android":"levelo://app?vid=b5002037-f4b0-4634-8bc4-796d0c74810e","ios":"levelo://app?vid=b5002037-f4b0-4634-8bc4-796d0c74810e"},"vehicle_type_id":"4","last_reported":1750270522,"current_range_meters":8400,"station_id":"","pricing_plan_id":"cebpf4jnsgd1na2vs0mg"},{"bike_id":"2f7ab6c5-eddd-4caf-b5e1-bb97c6aa1340","system_id":"levelo_inurba_marseille","lat":43.30649,"lon":5.401,"is_reserved":false,"is_disabled":false,"rental_uris":{"android":"levelo://app?vid=2f7ab6c5-eddd-4caf-b5e1-bb97c6aa1340","ios":"levelo://app?vid=2f7ab6c5-eddd-4caf-b5e1-bb97c6aa1340"},"vehicle_type_id":"4","last_reported":1750270522,"current_range_meters":8400,"station_id":"ce4bh112rcd13ifvqda0","pricing_plan_id":"cebpf4jnsgd1na2vs0mg"},{"bike_id":"2bff7311-bdc0-4fb4-9492-4eff81344bc1","system_id":"levelo_inurba_marseille","lat":43.2174,"lon":5.34615,"is_reserved":false,"is_disabled":false,"rental_uris":{"android":"levelo://app?vid=2bff7311-bdc0-4fb4-9492-4eff81344bc1","ios":"levelo://app?vid=2bff7311-bdc0-4fb4-9492-4eff81344bc1"},"vehicle_type_id":"4","last_reported":1750270522,"current_range_meters":8400,"station_id":"st_cvj6r9ubvosntc0bgbag","pricing_plan_id":"cebpf4jnsgd1na2vs0mg"},{"bike_id":"75fd588d-acfb-46e9-8dd8-1fb428c7a2d5","system_id":"levelo_inurba_marseille","lat":43.33808,"lon":5.37458,"is_reserved":false,"is_disabled":false,"rental_uris":{"android":"levelo://app?vid=75fd588d-acfb-46e9-8dd8-1fb428c7a2d5","ios":"levelo://app?vid=75fd588d-acfb-46e9-8dd8-1fb428c7a2d5"},"vehicle_type_id":"4","last_reported":1750270522,"current_range_meters":8800,"station_id":"","pricing_plan_id":"cebpf4jnsgd1na2vs0mg"},{"bike_id":"66dbc151-066a-461f-a55f-dd041350aa6d","system_id":"levelo_inurba_marseille","lat":43.309723,"lon":5.392375,"is_reserved":false,"is_disabled":false,"rental_uris":{"android":"levelo://app?vid=66dbc151-066a-461f-a55f-dd041350aa6d","ios":"levelo://app?vid=66dbc151-066a-461f-a55f-dd041350aa6d"},"vehicle_type_id":"4","last_reported":1750270522,"current_range_meters":8800,"station_id":"ce4bhch2rcd13ifvqeug","pricing_plan_id":"cebpf4jnsgd1na2vs0mg"},{"bike_id":"939aa6c2-d888-4f24-a536-cf89a980e8b5","system_id":"levelo_inurba_marseille","lat":43.3266,"lon":5.4099,"is_reserved":false,"is_disabled":false,"rental_uris":{"android":"levelo://app?vid=939aa6c2-d888-4f24-a536-cf89a980e8b5","ios":"levelo://app?vid=939aa6c2-d888-4f24-a536-cf89a980e8b5"},"vehicle_type_id":"4","last_reported":1750270522,"current_range_meters":8800,"station_id":"ce4bhpp2rcd13ifvqhgg","pricing_plan_id":"cebpf4jnsgd1na2vs0mg"},{"bike_id":"83cfee7d-980d-496a-98c8-745c7e44c68d","system_id":"levelo_inurba_marseille","lat":43.32881,"lon":5.39078,"is_reserved":false,"is_disabled":false,"rental_uris":{"android":"levelo://app?vid=83cfee7d-980d-496a-98c8-745c7e44c68d","ios":"levelo://app?vid=83cfee7d-980d-496a-98c8-745c7e44c68d"},"vehicle_type_id":"4","last_reported":1750270522,"current_range_meters":9200,"station_id":"","pricing_plan_id":"cebpf4jnsgd1na2vs0mg"},{"bike_id":"f6331e7b-5f4d-4ad2-bd87-b6cb94dfba72","system_id":"levelo_inurba_marseille","lat":43.27375,"lon":5.36244,"is_reserved":false,"is_disabled":false,"rental_uris":{"android":"levelo://app?vid=f6331e7b-5f4d-4ad2-bd87-b6cb94dfba72","ios":"levelo://app?vid=f6331e7b-5f4d-4ad2-bd87-b6cb94dfba72"},"vehicle_type_id":"4","last_reported":1750270522,"current_range_meters":9200,"station_id":"ce4bhbh2rcd13ifvqeo0","pricing_plan_id":"cebpf4jnsgd1na2vs0mg"},{"bike_id":"a834478b-c0c4-4d4f-baef-f2ba9ea03b58","system_id":"levelo_inurba_marseille","lat":43.28427,"lon":5.34989,"is_reserved":false,"is_disabled":false,"rental_uris":{"android":"levelo://app?vid=a834478b-c0c4-4d4f-baef-f2ba9ea03b58","ios":"levelo://app?vid=a834478b-c0c4-4d4f-baef-f2ba9ea03b58"},"vehicle_type_id":"4","last_reported":1750270522,"current_range_meters":9200,"station_id":"ce4bhbh2rcd13ifvqepg","pricing_plan_id":"cebpf4jnsgd1na2vs0mg"},{"bike_id":"f23876d6-a9f0-4c75-a97c-f15eb06b5682","system_id":"levelo_inurba_marseille","lat":43.29223,"lon":5.36045,"is_reserved":false,"is_disabled":false,"rental_uris":{"android":"levelo://app?vid=f23876d6-a9f0-4c75-a97c-f15eb06b5682","ios":"levelo://app?vid=f23876d6-a9f0-4c75-a97c-f15eb06b5682"},"vehicle_type_id":"4","last_reported":1750270522,"current_range_meters":9200,"station_id":"ce4bhbh2rcd13ifvqeqg","pricing_plan_id":"cebpf4jnsgd1na2vs0mg"},{"bike_id":"21bfe67e-0ac5-48b8-b567-ec6a964369dc","system_id":"levelo_inurba_marseille","lat":43.24069,"lon":5.37765,"is_reserved":false,"is_disabled":false,"rental_uris":{"android":"levelo://app?vid=21bfe67e-0ac5-48b8-b567-ec6a964369dc","ios":"levelo://app?vid=21bfe67e-0ac5-48b8-b567-ec6a964369dc"},"vehicle_type_id":"4","last_reported":1750270522,"current_range_meters":9600,"station_id":"ce4bhnp2rcd13ifvqgvg","pricing_plan_id":"cebpf4jnsgd1na2vs0mg"},{"bike_id":"09422bcc-671a-436f-b69f-25df465ecb21","system_id":"levelo_inurba_marseille","lat":43.21751,"lon":5.34593,"is_reserved":false,"is_disabled":false,"rental_uris":{"android":"levelo://app?vid=09422bcc-671a-436f-b69f-25df465ecb21","ios":"levelo://app?vid=09422bcc-671a-436f-b69f-25df465ecb21"},"vehicle_type_id":"4","last_reported":1750270522,"current_range_meters":9600,"station_id":"st_cvj6r9ubvosntc0bgbag","pricing_plan_id":"cebpf4jnsgd1na2vs0mg"},{"bike_id":"de0f7c2b-5974-4035-a240-8ed367c0e3f3","system_id":"levelo_inurba_marseille","lat":43.31974,"lon":5.37636,"is_reserved":false,"is_disabled":false,"rental_uris":{"android":"levelo://app?vid=de0f7c2b-5974-4035-a240-8ed367c0e3f3","ios":"levelo://app?vid=de0f7c2b-5974-4035-a240-8ed367c0e3f3"},"vehicle_type_id":"4","last_reported":1750270522,"current_range_meters":10000,"station_id":"","pricing_plan_id":"cebpf4jnsgd1na2vs0mg"},{"bike_id":"ef84aeb1-9e38-4d49-ab61-4c99dcba070f","system_id":"levelo_inurba_marseille","lat":43.28404,"lon":5.37522,"is_reserved":false,"is_disabled":false,"rental_uris":{"android":"levelo://app?vid=ef84aeb1-9e38-4d49-ab61-4c99dcba070f","ios":"levelo://app?vid=ef84aeb1-9e38-4d49-ab61-4c99dcba070f"},"vehicle_type_id":"4","last_reported":1750270522,"current_range_meters":10000,"station_id":"ce4bh412rcd13ifvqds0","pricing_plan_id":"cebpf4jnsgd1na2vs0mg"},{"bike_id":"23951b06-2b44-4e94-8581-8c43f1188551","system_id":"levelo_inurba_marseille","lat":43.27369,"lon":5.36266,"is_reserved":false,"is_disabled":false,"rental_uris":{"android":"levelo://app?vid=23951b06-2b44-4e94-8581-8c43f1188551","ios":"levelo://app?vid=23951b06-2b44-4e94-8581-8c43f1188551"},"vehicle_type_id":"4","last_reported":1750270522,"current_range_meters":10000,"station_id":"ce4bhbh2rcd13ifvqeo0","pricing_plan_id":"cebpf4jnsgd1na2vs0mg"},{"bike_id":"2516be4e-1835-484c-864b-9e10c993c8b1","system_id":"levelo_inurba_marseille","lat":43.27372,"lon":5.3625,"is_reserved":false,"is_disabled":false,"rental_uris":{"android":"levelo://app?vid=2516be4e-1835-484c-864b-9e10c993c8b1","ios":"levelo://app?vid=2516be4e-1835-484c-864b-9e10c993c8b1"},"vehicle_type_id":"4","last_reported":1750270522,"current_range_meters":10000,"station_id":"ce4bhbh2rcd13ifvqeo0","pricing_plan_id":"cebpf4jnsgd1na2vs0mg"},{"bike_id":"ccce7319-fd07-4a33-b5a2-60cf6592d737","system_id":"levelo_inurba_marseille","lat":43.30422,"lon":5.39749,"is_reserved":false,"is_disabled":false,"rental_uris":{"android":"levelo://app?vid=ccce7319-fd07-4a33-b5a2-60cf6592d737","ios":"levelo://app?vid=ccce7319-fd07-4a33-b5a2-60cf6592d737"},"vehicle_type_id":"4","last_reported":1750270522,"current_range_meters":10800,"station_id":"ce4bh092rcd13ifvqd20","pricing_plan_id":"cebpf4jnsgd1na2vs0mg"},{"bike_id":"2058b7ec-8182-4f96-83fb-800e0238a429","system_id":"levelo_inurba_marseille","lat":43.29005,"lon":5.35609,"is_reserved":false,"is_disabled":false,"rental_uris":{"android":"levelo://app?vid=2058b7ec-8182-4f96-83fb-800e0238a429","ios":"levelo://app?vid=2058b7ec-8182-4f96-83fb-800e0238a429"},"vehicle_type_id":"4","last_reported":1750270522,"current_range_meters":10800,"station_id":"ce4bhb92rcd13ifvqen0","pricing_plan_id":"cebpf4jnsgd1na2vs0mg"},{"bike_id":"8bdb2c6a-591a-4960-b5ed-805bab55ca73","system_id":"levelo_inurba_marseille","lat":43.28254,"lon":5.35067,"is_reserved":false,"is_disabled":false,"rental_uris":{"android":"levelo://app?vid=8bdb2c6a-591a-4960-b5ed-805bab55ca73","ios":"levelo://app?vid=8bdb2c6a-591a-4960-b5ed-805bab55ca73"},"vehicle_type_id":"4","last_reported":1750270522,"current_range_meters":10800,"station_id":"ce4bhbp2rcd13ifvqerg","pricing_plan_id":"cebpf4jnsgd1na2vs0mg"},{"bike_id":"103096e4-ad17-4db0-a09f-c27dd36f1567","system_id":"levelo_inurba_marseille","lat":43.28619,"lon":5.3509,"is_reserved":false,"is_disabled":false,"rental_uris":{"android":"levelo://app?vid=103096e4-ad17-4db0-a09f-c27dd36f1567","ios":"levelo://app?vid=103096e4-ad17-4db0-a09f-c27dd36f1567"},"vehicle_type_id":"4","last_reported":1750270522,"current_range_meters":10800,"station_id":"ce4bhch2rcd13ifvqeug","pricing_plan_id":"cebpf4jnsgd1na2vs0mg"},{"bike_id":"3518210a-6d90-482f-a11b-11cb7c94acd1","system_id":"levelo_inurba_marseille","lat":43.26476,"lon":5.39218,"is_reserved":false,"is_disabled":false,"rental_uris":{"android":"levelo://app?vid=3518210a-6d90-482f-a11b-11cb7c94acd1","ios":"levelo://app?vid=3518210a-6d90-482f-a11b-11cb7c94acd1"},"vehicle_type_id":"4","last_reported":1750270522,"current_range_meters":11200,"station_id":"","pricing_plan_id":"cebpf4jnsgd1na2vs0mg"},{"bike_id":"5fd61d92-c05b-4e9c-926b-2bcb83789571","system_id":"levelo_inurba_marseille","lat":43.30147,"lon":5.39849,"is_reserved":false,"is_disabled":false,"rental_uris":{"android":"levelo://app?vid=5fd61d92-c05b-4e9c-926b-2bcb83789571","ios":"levelo://app?vid=5fd61d92-c05b-4e9c-926b-2bcb83789571"},"vehicle_type_id":"4","last_reported":1750270522,"current_range_meters":11200,"station_id":"ce4bh0h2rcd13ifvqd40","pricing_plan_id":"cebpf4jnsgd1na2vs0mg"},{"bike_id":"2c853b6d-254e-442b-80eb-aeb8b48ea442","system_id":"levelo_inurba_marseille","lat":43.28429,"lon":5.34992,"is_reserved":false,"is_disabled":false,"rental_uris":{"android":"levelo://app?vid=2c853b6d-254e-442b-80eb-aeb8b48ea442","ios":"levelo://app?vid=2c853b6d-254e-442b-80eb-aeb8b48ea442"},"vehicle_type_id":"4","last_reported":1750270522,"current_range_meters":11200,"station_id":"ce4bhbh2rcd13ifvqepg","pricing_plan_id":"cebpf4jnsgd1na2vs0mg"},{"bike_id":"4104a466-9655-4d89-b0d8-97e6f7d4999f","system_id":"levelo_inurba_marseille","lat":43.25116,"lon":5.40319,"is_reserved":false,"is_disabled":false,"rental_uris":{"android":"levelo://app?vid=4104a466-9655-4d89-b0d8-97e6f7d4999f","ios":"levelo://app?vid=4104a466-9655-4d89-b0d8-97e6f7d4999f"},"vehicle_type_id":"4","last_reported":1750270522,"current_range_meters":11200,"station_id":"ce4bhlh2rcd13ifvqgig","pricing_plan_id":"cebpf4jnsgd1na2vs0mg"},{"bike_id":"a5c0eca6-0a75-4353-941c-2563cb6f5966","system_id":"levelo_inurba_marseille","lat":43.27377,"lon":5.36256,"is_reserved":false,"is_disabled":false,"rental_uris":{"android":"levelo://app?vid=a5c0eca6-0a75-4353-941c-2563cb6f5966","ios":"levelo://app?vid=a5c0eca6-0a75-4353-941c-2563cb6f5966"},"vehicle_type_id":"4","last_reported":1750270522,"current_range_meters":11600,"station_id":"ce4bhbh2rcd13ifvqeo0","pricing_plan_id":"cebpf4jnsgd1na2vs0mg"},{"bike_id":"5be5835e-2052-48d0-b2d1-388c3e3d0e88","system_id":"levelo_inurba_marseille","lat":43.2842,"lon":5.34978,"is_reserved":false,"is_disabled":false,"rental_uris":{"android":"levelo://app?vid=5be5835e-2052-48d0-b2d1-388c3e3d0e88","ios":"levelo://app?vid=5be5835e-2052-48d0-b2d1-388c3e3d0e88"},"vehicle_type_id":"4","last_reported":1750270522,"current_range_meters":11600,"station_id":"ce4bhbh2rcd13ifvqepg","pricing_plan_id":"cebpf4jnsgd1na2vs0mg"},{"bike_id":"f96fac91-fcd6-4cf6-94db-3fb959156263","system_id":"levelo_inurba_marseille","lat":43.28238,"lon":5.35059,"is_reserved":false,"is_disabled":false,"rental_uris":{"android":"levelo://app?vid=f96fac91-fcd6-4cf6-94db-3fb959156263","ios":"levelo://app?vid=f96fac91-fcd6-4cf6-94db-3fb959156263"},"vehicle_type_id":"4","last_reported":1750270522,"current_range_meters":11600,"station_id":"ce4bhbp2rcd13ifvqerg","pricing_plan_id":"cebpf4jnsgd1na2vs0mg"},{"bike_id":"4b8da722-ee9e-48a4-a5e5-3a8a10364708","system_id":"levelo_inurba_marseille","lat":43.3125,"lon":5.37796,"is_reserved":false,"is_disabled":false,"rental_uris":{"android":"levelo://app?vid=4b8da722-ee9e-48a4-a5e5-3a8a10364708","ios":"levelo://app?vid=4b8da722-ee9e-48a4-a5e5-3a8a10364708"},"vehicle_type_id":"4","last_reported":1750270522,"current_range_meters":12000,"station_id":"","pricing_plan_id":"cebpf4jnsgd1na2vs0mg"},{"bike_id":"72945425-1aaa-4e75-9ae2-476e905a3c78","system_id":"levelo_inurba_marseille","lat":43.27978,"lon":5.36864,"is_reserved":false,"is_disabled":false,"rental_uris":{"android":"levelo://app?vid=72945425-1aaa-4e75-9ae2-476e905a3c78","ios":"levelo://app?vid=72945425-1aaa-4e75-9ae2-476e905a3c78"},"vehicle_type_id":"4","last_reported":1750270522,"current_range_meters":12000,"station_id":"ce4bha12rcd13ifvqef0","pricing_plan_id":"cebpf4jnsgd1na2vs0mg"},{"bike_id":"507d14ef-c922-4d3e-be5f-2c7aaef4c043","system_id":"levelo_inurba_marseille","lat":43.282637,"lon":5.350735,"is_reserved":false,"is_disabled":false,"rental_uris":{"android":"levelo://app?vid=507d14ef-c922-4d3e-be5f-2c7aaef4c043","ios":"levelo://app?vid=507d14ef-c922-4d3e-be5f-2c7aaef4c043"},"vehicle_type_id":"4","last_reported":1750270522,"current_range_meters":12000,"station_id":"ce4bhbp2rcd13ifvqerg","pricing_plan_id":"cebpf4jnsgd1na2vs0mg"},{"bike_id":"afd32feb-85c3-4629-9049-28b88f65377e","system_id":"levelo_inurba_marseille","lat":43.217175,"lon":5.345717,"is_reserved":false,"is_disabled":false,"rental_uris":{"android":"levelo://app?vid=afd32feb-85c3-4629-9049-28b88f65377e","ios":"levelo://app?vid=afd32feb-85c3-4629-9049-28b88f65377e"},"vehicle_type_id":"4","last_reported":1750270522,"current_range_meters":12000,"station_id":"cpo3532slgdg3j2ikp40","pricing_plan_id":"cebpf4jnsgd1na2vs0mg"},{"bike_id":"72a93840-ce06-492f-9c60-a46270f3b67c","system_id":"levelo_inurba_marseille","lat":43.25349,"lon":5.39446,"is_reserved":false,"is_disabled":false,"rental_uris":{"android":"levelo://app?vid=72a93840-ce06-492f-9c60-a46270f3b67c","ios":"levelo://app?vid=72a93840-ce06-492f-9c60-a46270f3b67c"},"vehicle_type_id":"4","last_reported":1750270522,"current_range_meters":12400,"station_id":"","pricing_plan_id":"cebpf4jnsgd1na2vs0mg"},{"bike_id":"0dedb6f6-6801-483b-bfb8-9cd4533d158f","system_id":"levelo_inurba_marseille","lat":43.31149,"lon":5.38089,"is_reserved":false,"is_disabled":false,"rental_uris":{"android":"levelo://app?vid=0dedb6f6-6801-483b-bfb8-9cd4533d158f","ios":"levelo://app?vid=0dedb6f6-6801-483b-bfb8-9cd4533d158f"},"vehicle_type_id":"4","last_reported":1750270522,"current_range_meters":12400,"station_id":"","pricing_plan_id":"cebpf4jnsgd1na2vs0mg"},{"bike_id":"7f4e1d9a-af12-4bb2-b0c7-8f37c7469764","system_id":"levelo_inurba_marseille","lat":43.30461,"lon":5.37897,"is_reserved":false,"is_disabled":false,"rental_uris":{"android":"levelo://app?vid=7f4e1d9a-af12-4bb2-b0c7-8f37c7469764","ios":"levelo://app?vid=7f4e1d9a-af12-4bb2-b0c7-8f37c7469764"},"vehicle_type_id":"4","last_reported":1750270522,"current_range_meters":12400,"station_id":"ce4bgup2rcd13ifvqcn0","pricing_plan_id":"cebpf4jnsgd1na2vs0mg"},{"bike_id":"b9740617-416c-49ef-a593-d345aa13726b","system_id":"levelo_inurba_marseille","lat":43.270163,"lon":5.431327,"is_reserved":false,"is_disabled":false,"rental_uris":{"android":"levelo://app?vid=b9740617-416c-49ef-a593-d345aa13726b","ios":"levelo://app?vid=b9740617-416c-49ef-a593-d345aa13726b"},"vehicle_type_id":"4","last_reported":1750270522,"current_range_meters":12800,"station_id":"","pricing_plan_id":"cebpf4jnsgd1na2vs0mg"},{"bike_id":"155ad7b8-dc29-4ca8-bdc8-582add5147a8","system_id":"levelo_inurba_marseille","lat":43.28284,"lon":5.35072,"is_reserved":false,"is_disabled":false,"rental_uris":{"android":"levelo://app?vid=155ad7b8-dc29-4ca8-bdc8-582add5147a8","ios":"levelo://app?vid=155ad7b8-dc29-4ca8-bdc8-582add5147a8"},"vehicle_type_id":"4","last_reported":1750270522,"current_range_meters":12800,"station_id":"ce4bhbp2rcd13ifvqerg","pricing_plan_id":"cebpf4jnsgd1na2vs0mg"},{"bike_id":"65a0a534-b9f6-424a-ae2f-39034daf4336","system_id":"levelo_inurba_marseille","lat":43.26933,"lon":5.3892,"is_reserved":false,"is_disabled":false,"rental_uris":{"android":"levelo://app?vid=65a0a534-b9f6-424a-ae2f-39034daf4336","ios":"levelo://app?vid=65a0a534-b9f6-424a-ae2f-39034daf4336"},"vehicle_type_id":"4","last_reported":1750270522,"current_range_meters":12800,"station_id":"ce4bhhh2rcd13ifvqfl0","pricing_plan_id":"cebpf4jnsgd1na2vs0mg"},{"bike_id":"fa0ae0ed-102b-4234-907a-cfcb22a16335","system_id":"levelo_inurba_marseille","lat":43.31784,"lon":5.39055,"is_reserved":false,"is_disabled":false,"rental_uris":{"android":"levelo://app?vid=fa0ae0ed-102b-4234-907a-cfcb22a16335","ios":"levelo://app?vid=fa0ae0ed-102b-4234-907a-cfcb22a16335"},"vehicle_type_id":"4","last_reported":1750270522,"current_range_meters":12800,"station_id":"ce4bhqp2rcd13ifvqhng","pricing_plan_id":"cebpf4jnsgd1na2vs0mg"},{"bike_id":"090d8134-33c4-46ee-b3a3-bf74142ea81d","system_id":"levelo_inurba_marseille","lat":43.286601,"lon":5.367546,"is_reserved":false,"is_disabled":false,"rental_uris":{"android":"levelo://app?vid=090d8134-33c4-46ee-b3a3-bf74142ea81d","ios":"levelo://app?vid=090d8134-33c4-46ee-b3a3-bf74142ea81d"},"vehicle_type_id":"4","last_reported":1750270522,"current_range_meters":13600,"station_id":"ce4bgj92rcd13ifvqbd0","pricing_plan_id":"cebpf4jnsgd1na2vs0mg"},{"bike_id":"7ba21de9-cd11-44f4-8d2b-8093e441a1d4","system_id":"levelo_inurba_marseille","lat":43.28416,"lon":5.34976,"is_reserved":false,"is_disabled":false,"rental_uris":{"android":"levelo://app?vid=7ba21de9-cd11-44f4-8d2b-8093e441a1d4","ios":"levelo://app?vid=7ba21de9-cd11-44f4-8d2b-8093e441a1d4"},"vehicle_type_id":"4","last_reported":1750270522,"current_range_meters":13600,"station_id":"ce4bhbh2rcd13ifvqepg","pricing_plan_id":"cebpf4jnsgd1na2vs0mg"},{"bike_id":"1a8ca3ad-9ea3-498f-9008-81b738d413f5","system_id":"levelo_inurba_marseille","lat":43.28412,"lon":5.34981,"is_reserved":false,"is_disabled":false,"rental_uris":{"android":"levelo://app?vid=1a8ca3ad-9ea3-498f-9008-81b738d413f5","ios":"levelo://app?vid=1a8ca3ad-9ea3-498f-9008-81b738d413f5"},"vehicle_type_id":"4","last_reported":1750270522,"current_range_meters":13600,"station_id":"ce4bhbh2rcd13ifvqepg","pricing_plan_id":"cebpf4jnsgd1na2vs0mg"},{"bike_id":"45cb5e39-8ea2-45b9-8c1d-ec450b6036ad","system_id":"levelo_inurba_marseille","lat":43.28267,"lon":5.35061,"is_reserved":false,"is_disabled":false,"rental_uris":{"android":"levelo://app?vid=45cb5e39-8ea2-45b9-8c1d-ec450b6036ad","ios":"levelo://app?vid=45cb5e39-8ea2-45b9-8c1d-ec450b6036ad"},"vehicle_type_id":"4","last_reported":1750270522,"current_range_meters":13600,"station_id":"ce4bhbp2rcd13ifvqerg","pricing_plan_id":"cebpf4jnsgd1na2vs0mg"},{"bike_id":"6017268b-7338-4176-ac31-d04e6ac7cc02","system_id":"levelo_inurba_marseille","lat":43.26213,"lon":5.37442,"is_reserved":false,"is_disabled":false,"rental_uris":{"android":"levelo://app?vid=6017268b-7338-4176-ac31-d04e6ac7cc02","ios":"levelo://app?vid=6017268b-7338-4176-ac31-d04e6ac7cc02"},"vehicle_type_id":"4","last_reported":1750270522,"current_range_meters":13600,"station_id":"ce4bhgp2rcd13ifvqfc0","pricing_plan_id":"cebpf4jnsgd1na2vs0mg"},{"bike_id":"4b0d873f-cb7e-4f83-9061-d0873c4ddabc","system_id":"levelo_inurba_marseille","lat":43.2762,"lon":5.36107,"is_reserved":false,"is_disabled":false,"rental_uris":{"android":"levelo://app?vid=4b0d873f-cb7e-4f83-9061-d0873c4ddabc","ios":"levelo://app?vid=4b0d873f-cb7e-4f83-9061-d0873c4ddabc"},"vehicle_type_id":"4","last_reported":1750270522,"current_range_meters":14000,"station_id":"ce4bgj92rcd13ifvqbe0","pricing_plan_id":"cebpf4jnsgd1na2vs0mg"},{"bike_id":"f3d95cb5-70fd-4e15-8b24-8b2f97e6bb9f","system_id":"levelo_inurba_marseille","lat":43.24808,"lon":5.37458,"is_reserved":false,"is_disabled":false,"rental_uris":{"android":"levelo://app?vid=f3d95cb5-70fd-4e15-8b24-8b2f97e6bb9f","ios":"levelo://app?vid=f3d95cb5-70fd-4e15-8b24-8b2f97e6bb9f"},"vehicle_type_id":"4","last_reported":1750270522,"current_range_meters":14000,"station_id":"ce4bhgh2rcd13ifvqfb0","pricing_plan_id":"cebpf4jnsgd1na2vs0mg"},{"bike_id":"ff899b15-fdd1-4c2d-9023-b38ebd1a6335","system_id":"levelo_inurba_marseille","lat":43.23196,"lon":5.35554,"is_reserved":false,"is_disabled":false,"rental_uris":{"android":"levelo://app?vid=ff899b15-fdd1-4c2d-9023-b38ebd1a6335","ios":"levelo://app?vid=ff899b15-fdd1-4c2d-9023-b38ebd1a6335"},"vehicle_type_id":"4","last_reported":1750270522,"current_range_meters":14000,"station_id":"ce4bhu92rcd13ifvqi70","pricing_plan_id":"cebpf4jnsgd1na2vs0mg"},{"bike_id":"49d12d32-410f-44e4-a5a5-f785950cd9be","system_id":"levelo_inurba_marseille","lat":43.28416,"lon":5.34982,"is_reserved":false,"is_disabled":false,"rental_uris":{"android":"levelo://app?vid=49d12d32-410f-44e4-a5a5-f785950cd9be","ios":"levelo://app?vid=49d12d32-410f-44e4-a5a5-f785950cd9be"},"vehicle_type_id":"4","last_reported":1750270522,"current_range_meters":14400,"station_id":"","pricing_plan_id":"cebpf4jnsgd1na2vs0mg"},{"bike_id":"268aafb4-1331-426c-97bc-a7d6564caeb6","system_id":"levelo_inurba_marseille","lat":43.32933,"lon":5.37919,"is_reserved":false,"is_disabled":false,"rental_uris":{"android":"levelo://app?vid=268aafb4-1331-426c-97bc-a7d6564caeb6","ios":"levelo://app?vid=268aafb4-1331-426c-97bc-a7d6564caeb6"},"vehicle_type_id":"4","last_reported":1750270522,"current_range_meters":14400,"station_id":"","pricing_plan_id":"cebpf4jnsgd1na2vs0mg"},{"bike_id":"56940531-d7c5-403d-b578-ea79631b579d","system_id":"levelo_inurba_marseille","lat":43.30356,"lon":5.40442,"is_reserved":false,"is_disabled":false,"rental_uris":{"android":"levelo://app?vid=56940531-d7c5-403d-b578-ea79631b579d","ios":"levelo://app?vid=56940531-d7c5-403d-b578-ea79631b579d"},"vehicle_type_id":"4","last_reported":1750270522,"current_range_meters":14400,"station_id":"ce4bh012rcd13ifvqd10","pricing_plan_id":"cebpf4jnsgd1na2vs0mg"},{"bike_id":"527fe2bb-9667-4044-b1ef-a3b9ea74744e","system_id":"levelo_inurba_marseille","lat":43.28362,"lon":5.38095,"is_reserved":false,"is_disabled":false,"rental_uris":{"android":"levelo://app?vid=527fe2bb-9667-4044-b1ef-a3b9ea74744e","ios":"levelo://app?vid=527fe2bb-9667-4044-b1ef-a3b9ea74744e"},"vehicle_type_id":"4","last_reported":1750270522,"current_range_meters":14400,"station_id":"ce4bh412rcd13ifvqdr0","pricing_plan_id":"cebpf4jnsgd1na2vs0mg"},{"bike_id":"80b25b1e-ae9d-4532-96ff-2d177cda8073","system_id":"levelo_inurba_marseille","lat":43.28632,"lon":5.35091,"is_reserved":false,"is_disabled":false,"rental_uris":{"android":"levelo://app?vid=80b25b1e-ae9d-4532-96ff-2d177cda8073","ios":"levelo://app?vid=80b25b1e-ae9d-4532-96ff-2d177cda8073"},"vehicle_type_id":"4","last_reported":1750270522,"current_range_meters":14400,"station_id":"ce4bhch2rcd13ifvqeug","pricing_plan_id":"cebpf4jnsgd1na2vs0mg"},{"bike_id":"9e8a753e-1a3a-4387-a9be-de6f77f12b9d","system_id":"levelo_inurba_marseille","lat":43.2481,"lon":5.37455,"is_reserved":false,"is_disabled":false,"rental_uris":{"android":"levelo://app?vid=9e8a753e-1a3a-4387-a9be-de6f77f12b9d","ios":"levelo://app?vid=9e8a753e-1a3a-4387-a9be-de6f77f12b9d"},"vehicle_type_id":"4","last_reported":1750270522,"current_range_meters":14400,"station_id":"ce4bhgh2rcd13ifvqfb0","pricing_plan_id":"cebpf4jnsgd1na2vs0mg"},{"bike_id":"56084ee7-25d3-4876-8fe0-e631097d5df1","system_id":"levelo_inurba_marseille","lat":43.25583,"lon":5.38223,"is_reserved":false,"is_disabled":false,"rental_uris":{"android":"levelo://app?vid=56084ee7-25d3-4876-8fe0-e631097d5df1","ios":"levelo://app?vid=56084ee7-25d3-4876-8fe0-e631097d5df1"},"vehicle_type_id":"4","last_reported":1750270522,"current_range_meters":14400,"station_id":"ce4bhih2rcd13ifvqfs0","pricing_plan_id":"cebpf4jnsgd1na2vs0mg"},{"bike_id":"44e863ce-6dbf-4673-9052-ae7f9389a913","system_id":"levelo_inurba_marseille","lat":43.24553,"lon":5.39531,"is_reserved":false,"is_disabled":false,"rental_uris":{"android":"levelo://app?vid=44e863ce-6dbf-4673-9052-ae7f9389a913","ios":"levelo://app?vid=44e863ce-6dbf-4673-9052-ae7f9389a913"},"vehicle_type_id":"4","last_reported":1750270522,"current_range_meters":14400,"station_id":"ce4bhlp2rcd13ifvqgjg","pricing_plan_id":"cebpf4jnsgd1na2vs0mg"},{"bike_id":"975d7472-abaa-40d3-8524-613626275fdc","system_id":"levelo_inurba_marseille","lat":43.23193,"lon":5.35551,"is_reserved":false,"is_disabled":false,"rental_uris":{"android":"levelo://app?vid=975d7472-abaa-40d3-8524-613626275fdc","ios":"levelo://app?vid=975d7472-abaa-40d3-8524-613626275fdc"},"vehicle_type_id":"4","last_reported":1750270522,"current_range_meters":14400,"station_id":"ce4bhu92rcd13ifvqi70","pricing_plan_id":"cebpf4jnsgd1na2vs0mg"},{"bike_id":"2d436c77-2599-42be-ae7a-ea700afefca6","system_id":"levelo_inurba_marseille","lat":43.2417,"lon":5.36385,"is_reserved":false,"is_disabled":false,"rental_uris":{"android":"levelo://app?vid=2d436c77-2599-42be-ae7a-ea700afefca6","ios":"levelo://app?vid=2d436c77-2599-42be-ae7a-ea700afefca6"},"vehicle_type_id":"4","last_reported":1750270522,"current_range_meters":14400,"station_id":"cpo36qri1sfpv3e86is0","pricing_plan_id":"cebpf4jnsgd1na2vs0mg"},{"bike_id":"7e10a2e9-f08a-4933-a10e-ead7bd149a24","system_id":"levelo_inurba_marseille","lat":43.28736,"lon":5.37946,"is_reserved":false,"is_disabled":false,"rental_uris":{"android":"levelo://app?vid=7e10a2e9-f08a-4933-a10e-ead7bd149a24","ios":"levelo://app?vid=7e10a2e9-f08a-4933-a10e-ead7bd149a24"},"vehicle_type_id":"4","last_reported":1750270522,"current_range_meters":14800,"station_id":"ce4bh9p2rcd13ifvqec0","pricing_plan_id":"cebpf4jnsgd1na2vs0mg"},{"bike_id":"9637a346-4b0e-40cd-9fce-b2ca02d9432c","system_id":"levelo_inurba_marseille","lat":43.28606,"lon":5.35103,"is_reserved":false,"is_disabled":false,"rental_uris":{"android":"levelo://app?vid=9637a346-4b0e-40cd-9fce-b2ca02d9432c","ios":"levelo://app?vid=9637a346-4b0e-40cd-9fce-b2ca02d9432c"},"vehicle_type_id":"4","last_reported":1750270522,"current_range_meters":14800,"station_id":"ce4bhch2rcd13ifvqeug","pricing_plan_id":"cebpf4jnsgd1na2vs0mg"},{"bike_id":"9d2a90e7-394f-41d8-ae49-77712a22ee78","system_id":"levelo_inurba_marseille","lat":43.254883,"lon":5.37641,"is_reserved":false,"is_disabled":false,"rental_uris":{"android":"levelo://app?vid=9d2a90e7-394f-41d8-ae49-77712a22ee78","ios":"levelo://app?vid=9d2a90e7-394f-41d8-ae49-77712a22ee78"},"vehicle_type_id":"4","last_reported":1750270522,"current_range_meters":14800,"station_id":"ce4bhh12rcd13ifvqff0","pricing_plan_id":"cebpf4jnsgd1na2vs0mg"},{"bike_id":"4387d0e3-ba44-473b-ae7d-ec94758659fe","system_id":"levelo_inurba_marseille","lat":43.28724,"lon":5.36074,"is_reserved":false,"is_disabled":false,"rental_uris":{"android":"levelo://app?vid=4387d0e3-ba44-473b-ae7d-ec94758659fe","ios":"levelo://app?vid=4387d0e3-ba44-473b-ae7d-ec94758659fe"},"vehicle_type_id":"4","last_reported":1750270522,"current_range_meters":14800,"station_id":"cki0cbj6b192h4jlfktg","pricing_plan_id":"cebpf4jnsgd1na2vs0mg"},{"bike_id":"f025e0b0-8595-426c-b214-cb9b74c5fcfd","system_id":"levelo_inurba_marseille","lat":43.32208,"lon":5.40581,"is_reserved":false,"is_disabled":false,"rental_uris":{"android":"levelo://app?vid=f025e0b0-8595-426c-b214-cb9b74c5fcfd","ios":"levelo://app?vid=f025e0b0-8595-426c-b214-cb9b74c5fcfd"},"vehicle_type_id":"4","last_reported":1750270522,"current_range_meters":15200,"station_id":"","pricing_plan_id":"cebpf4jnsgd1na2vs0mg"},{"bike_id":"ca2d73a5-3166-4a61-8194-d4892442b30d","system_id":"levelo_inurba_marseille","lat":43.30249,"lon":5.4007,"is_reserved":false,"is_disabled":false,"rental_uris":{"android":"levelo://app?vid=ca2d73a5-3166-4a61-8194-d4892442b30d","ios":"levelo://app?vid=ca2d73a5-3166-4a61-8194-d4892442b30d"},"vehicle_type_id":"4","last_reported":1750270522,"current_range_meters":15200,"station_id":"ce4bgvh2rcd13ifvqcs0","pricing_plan_id":"cebpf4jnsgd1na2vs0mg"},{"bike_id":"87a7e052-ec35-4146-8d00-dc2cb30af42c","system_id":"levelo_inurba_marseille","lat":43.286125,"lon":5.350993,"is_reserved":false,"is_disabled":false,"rental_uris":{"android":"levelo://app?vid=87a7e052-ec35-4146-8d00-dc2cb30af42c","ios":"levelo://app?vid=87a7e052-ec35-4146-8d00-dc2cb30af42c"},"vehicle_type_id":"4","last_reported":1750270522,"current_range_meters":15200,"station_id":"ce4bhch2rcd13ifvqeug","pricing_plan_id":"cebpf4jnsgd1na2vs0mg"},{"bike_id":"92e9894b-6fef-4904-a4a8-4139fb8a1ed1","system_id":"levelo_inurba_marseille","lat":43.25492,"lon":5.37648,"is_reserved":false,"is_disabled":false,"rental_uris":{"android":"levelo://app?vid=92e9894b-6fef-4904-a4a8-4139fb8a1ed1","ios":"levelo://app?vid=92e9894b-6fef-4904-a4a8-4139fb8a1ed1"},"vehicle_type_id":"4","last_reported":1750270522,"current_range_meters":15200,"station_id":"ce4bhh12rcd13ifvqff0","pricing_plan_id":"cebpf4jnsgd1na2vs0mg"},{"bike_id":"85bf809a-e6ea-4d06-b20c-3ead18f5cc40","system_id":"levelo_inurba_marseille","lat":43.25579,"lon":5.38234,"is_reserved":false,"is_disabled":false,"rental_uris":{"android":"levelo://app?vid=85bf809a-e6ea-4d06-b20c-3ead18f5cc40","ios":"levelo://app?vid=85bf809a-e6ea-4d06-b20c-3ead18f5cc40"},"vehicle_type_id":"4","last_reported":1750270522,"current_range_meters":15200,"station_id":"ce4bhih2rcd13ifvqfs0","pricing_plan_id":"cebpf4jnsgd1na2vs0mg"},{"bike_id":"65be88d8-1132-4ab5-8053-668d0c8dc5a6","system_id":"levelo_inurba_marseille","lat":43.229316,"lon":5.353702,"is_reserved":false,"is_disabled":false,"rental_uris":{"android":"levelo://app?vid=65be88d8-1132-4ab5-8053-668d0c8dc5a6","ios":"levelo://app?vid=65be88d8-1132-4ab5-8053-668d0c8dc5a6"},"vehicle_type_id":"4","last_reported":1750270522,"current_range_meters":15200,"station_id":"cpo3532slgdg3j2ikp40","pricing_plan_id":"cebpf4jnsgd1na2vs0mg"},{"bike_id":"eaaa9fcd-34d4-4d0b-8f90-fbf605a0610f","system_id":"levelo_inurba_marseille","lat":43.21191,"lon":5.35072,"is_reserved":false,"is_disabled":false,"rental_uris":{"android":"levelo://app?vid=eaaa9fcd-34d4-4d0b-8f90-fbf605a0610f","ios":"levelo://app?vid=eaaa9fcd-34d4-4d0b-8f90-fbf605a0610f"},"vehicle_type_id":"4","last_reported":1750270522,"current_range_meters":15200,"station_id":"st_cvj6sg6p6f1abm77japg","pricing_plan_id":"cebpf4jnsgd1na2vs0mg"},{"bike_id":"e921cee3-b8ce-4c00-b7eb-8ab335b5e125","system_id":"levelo_inurba_marseille","lat":43.30202,"lon":5.42261,"is_reserved":false,"is_disabled":false,"rental_uris":{"android":"levelo://app?vid=e921cee3-b8ce-4c00-b7eb-8ab335b5e125","ios":"levelo://app?vid=e921cee3-b8ce-4c00-b7eb-8ab335b5e125"},"vehicle_type_id":"4","last_reported":1750270522,"current_range_meters":16000,"station_id":"","pricing_plan_id":"cebpf4jnsgd1na2vs0mg"},{"bike_id":"3eb9992a-e24a-4ed3-bd44-5e035e6e973e","system_id":"levelo_inurba_marseille","lat":43.31316,"lon":5.37879,"is_reserved":false,"is_disabled":false,"rental_uris":{"android":"levelo://app?vid=3eb9992a-e24a-4ed3-bd44-5e035e6e973e","ios":"levelo://app?vid=3eb9992a-e24a-4ed3-bd44-5e035e6e973e"},"vehicle_type_id":"4","last_reported":1750270522,"current_range_meters":16000,"station_id":"","pricing_plan_id":"cebpf4jnsgd1na2vs0mg"},{"bike_id":"56fdfc4e-979c-4ed5-9885-57018d76de79","system_id":"levelo_inurba_marseille","lat":43.29352,"lon":5.42831,"is_reserved":false,"is_disabled":false,"rental_uris":{"android":"levelo://app?vid=56fdfc4e-979c-4ed5-9885-57018d76de79","ios":"levelo://app?vid=56fdfc4e-979c-4ed5-9885-57018d76de79"},"vehicle_type_id":"4","last_reported":1750270522,"current_range_meters":16000,"station_id":"","pricing_plan_id":"cebpf4jnsgd1na2vs0mg"},{"bike_id":"988e0cd9-9388-4c01-bcc0-81bb5aadd2bf","system_id":"levelo_inurba_marseille","lat":43.30435,"lon":5.39743,"is_reserved":false,"is_disabled":false,"rental_uris":{"android":"levelo://app?vid=988e0cd9-9388-4c01-bcc0-81bb5aadd2bf","ios":"levelo://app?vid=988e0cd9-9388-4c01-bcc0-81bb5aadd2bf"},"vehicle_type_id":"4","last_reported":1750270522,"current_range_meters":16000,"station_id":"ce4bh092rcd13ifvqd20","pricing_plan_id":"cebpf4jnsgd1na2vs0mg"},{"bike_id":"26c92712-d5af-448e-b996-6934864ad8cb","system_id":"levelo_inurba_marseille","lat":43.28453,"lon":5.35893,"is_reserved":false,"is_disabled":false,"rental_uris":{"android":"levelo://app?vid=26c92712-d5af-448e-b996-6934864ad8cb","ios":"levelo://app?vid=26c92712-d5af-448e-b996-6934864ad8cb"},"vehicle_type_id":"4","last_reported":1750270522,"current_range_meters":16000,"station_id":"ce4bhah2rcd13ifvqei0","pricing_plan_id":"cebpf4jnsgd1na2vs0mg"},{"bike_id":"1ca258ed-119b-4b22-9d64-f1c44ade5669","system_id":"levelo_inurba_marseille","lat":43.28411,"lon":5.34986,"is_reserved":false,"is_disabled":false,"rental_uris":{"android":"levelo://app?vid=1ca258ed-119b-4b22-9d64-f1c44ade5669","ios":"levelo://app?vid=1ca258ed-119b-4b22-9d64-f1c44ade5669"},"vehicle_type_id":"4","last_reported":1750270522,"current_range_meters":16000,"station_id":"ce4bhbh2rcd13ifvqepg","pricing_plan_id":"cebpf4jnsgd1na2vs0mg"},{"bike_id":"b5e801da-6f42-404a-8dec-f6fc0337070f","system_id":"levelo_inurba_marseille","lat":43.28418,"lon":5.34994,"is_reserved":false,"is_disabled":false,"rental_uris":{"android":"levelo://app?vid=b5e801da-6f42-404a-8dec-f6fc0337070f","ios":"levelo://app?vid=b5e801da-6f42-404a-8dec-f6fc0337070f"},"vehicle_type_id":"4","last_reported":1750270522,"current_range_meters":16000,"station_id":"ce4bhbh2rcd13ifvqepg","pricing_plan_id":"cebpf4jnsgd1na2vs0mg"},{"bike_id":"5960303c-6ba2-4b42-b233-edc7bfea1825","system_id":"levelo_inurba_marseille","lat":43.23089,"lon":5.35464,"is_reserved":false,"is_disabled":false,"rental_uris":{"android":"levelo://app?vid=5960303c-6ba2-4b42-b233-edc7bfea1825","ios":"levelo://app?vid=5960303c-6ba2-4b42-b233-edc7bfea1825"},"vehicle_type_id":"4","last_reported":1750270522,"current_range_meters":16000,"station_id":"cpo3342slgdg3j2ifvpg","pricing_plan_id":"cebpf4jnsgd1na2vs0mg"},{"bike_id":"29ea011c-1ea3-4e46-bcb7-f65d38fe452d","system_id":"levelo_inurba_marseille","lat":43.28377,"lon":5.34984,"is_reserved":false,"is_disabled":false,"rental_uris":{"android":"levelo://app?vid=29ea011c-1ea3-4e46-bcb7-f65d38fe452d","ios":"levelo://app?vid=29ea011c-1ea3-4e46-bcb7-f65d38fe452d"},"vehicle_type_id":"4","last_reported":1750270522,"current_range_meters":16400,"station_id":"","pricing_plan_id":"cebpf4jnsgd1na2vs0mg"},{"bike_id":"206eb8cb-eb45-4d7f-91c6-21e497e22ba3","system_id":"levelo_inurba_marseille","lat":43.27622,"lon":5.36104,"is_reserved":false,"is_disabled":false,"rental_uris":{"android":"levelo://app?vid=206eb8cb-eb45-4d7f-91c6-21e497e22ba3","ios":"levelo://app?vid=206eb8cb-eb45-4d7f-91c6-21e497e22ba3"},"vehicle_type_id":"4","last_reported":1750270522,"current_range_meters":16400,"station_id":"ce4bgj92rcd13ifvqbe0","pricing_plan_id":"cebpf4jnsgd1na2vs0mg"},{"bike_id":"42d8938d-3149-42cb-9b3d-04cb399de5c6","system_id":"levelo_inurba_marseille","lat":43.28357,"lon":5.38099,"is_reserved":false,"is_disabled":false,"rental_uris":{"android":"levelo://app?vid=42d8938d-3149-42cb-9b3d-04cb399de5c6","ios":"levelo://app?vid=42d8938d-3149-42cb-9b3d-04cb399de5c6"},"vehicle_type_id":"4","last_reported":1750270522,"current_range_meters":16400,"station_id":"ce4bh412rcd13ifvqdr0","pricing_plan_id":"cebpf4jnsgd1na2vs0mg"},{"bike_id":"a8459e07-8177-4816-9bef-bb09439746f6","system_id":"levelo_inurba_marseille","lat":43.27376,"lon":5.36264,"is_reserved":false,"is_disabled":false,"rental_uris":{"android":"levelo://app?vid=a8459e07-8177-4816-9bef-bb09439746f6","ios":"levelo://app?vid=a8459e07-8177-4816-9bef-bb09439746f6"},"vehicle_type_id":"4","last_reported":1750270522,"current_range_meters":16400,"station_id":"ce4bhbh2rcd13ifvqeo0","pricing_plan_id":"cebpf4jnsgd1na2vs0mg"},{"bike_id":"c3d8ba2c-7397-49db-a288-020db6ed6d42","system_id":"levelo_inurba_marseille","lat":43.28278,"lon":5.3507,"is_reserved":false,"is_disabled":false,"rental_uris":{"android":"levelo://app?vid=c3d8ba2c-7397-49db-a288-020db6ed6d42","ios":"levelo://app?vid=c3d8ba2c-7397-49db-a288-020db6ed6d42"},"vehicle_type_id":"4","last_reported":1750270522,"current_range_meters":16400,"station_id":"ce4bhbp2rcd13ifvqerg","pricing_plan_id":"cebpf4jnsgd1na2vs0mg"},{"bike_id":"e7dad37e-e27e-45a3-98af-53555fde6281","system_id":"levelo_inurba_marseille","lat":43.28275,"lon":5.35064,"is_reserved":false,"is_disabled":false,"rental_uris":{"android":"levelo://app?vid=e7dad37e-e27e-45a3-98af-53555fde6281","ios":"levelo://app?vid=e7dad37e-e27e-45a3-98af-53555fde6281"},"vehicle_type_id":"4","last_reported":1750270522,"current_range_meters":16400,"station_id":"ce4bhbp2rcd13ifvqerg","pricing_plan_id":"cebpf4jnsgd1na2vs0mg"},{"bike_id":"dc12bb81-a2ba-45d7-b4a2-83cc096486d5","system_id":"levelo_inurba_marseille","lat":43.29273,"lon":5.36844,"is_reserved":false,"is_disabled":false,"rental_uris":{"android":"levelo://app?vid=dc12bb81-a2ba-45d7-b4a2-83cc096486d5","ios":"levelo://app?vid=dc12bb81-a2ba-45d7-b4a2-83cc096486d5"},"vehicle_type_id":"4","last_reported":1750270522,"current_range_meters":16400,"station_id":"ce4bhbp2rcd13ifvqesg","pricing_plan_id":"cebpf4jnsgd1na2vs0mg"},{"bike_id":"8ec3fc32-778d-4b5b-b2fe-e5796c7bcdf4","system_id":"levelo_inurba_marseille","lat":43.25819,"lon":5.39422,"is_reserved":false,"is_disabled":false,"rental_uris":{"android":"levelo://app?vid=8ec3fc32-778d-4b5b-b2fe-e5796c7bcdf4","ios":"levelo://app?vid=8ec3fc32-778d-4b5b-b2fe-e5796c7bcdf4"},"vehicle_type_id":"4","last_reported":1750270522,"current_range_meters":16400,"station_id":"ce4bhip2rcd13ifvqft0","pricing_plan_id":"cebpf4jnsgd1na2vs0mg"},{"bike_id":"77ac8037-3c3c-493a-82c2-904a9ad6c7d0","system_id":"levelo_inurba_marseille","lat":43.26832,"lon":5.39056,"is_reserved":false,"is_disabled":false,"rental_uris":{"android":"levelo://app?vid=77ac8037-3c3c-493a-82c2-904a9ad6c7d0","ios":"levelo://app?vid=77ac8037-3c3c-493a-82c2-904a9ad6c7d0"},"vehicle_type_id":"4","last_reported":1750270522,"current_range_meters":16800,"station_id":"","pricing_plan_id":"cebpf4jnsgd1na2vs0mg"},{"bike_id":"a698d91f-655d-4164-a932-a635f904b56f","system_id":"levelo_inurba_marseille","lat":43.28039,"lon":5.35215,"is_reserved":false,"is_disabled":false,"rental_uris":{"android":"levelo://app?vid=a698d91f-655d-4164-a932-a635f904b56f","ios":"levelo://app?vid=a698d91f-655d-4164-a932-a635f904b56f"},"vehicle_type_id":"4","last_reported":1750270522,"current_range_meters":16800,"station_id":"","pricing_plan_id":"cebpf4jnsgd1na2vs0mg"},{"bike_id":"744f0163-1137-46db-835e-c2dc58d25488","system_id":"levelo_inurba_marseille","lat":43.22975,"lon":5.35365,"is_reserved":false,"is_disabled":false,"rental_uris":{"android":"levelo://app?vid=744f0163-1137-46db-835e-c2dc58d25488","ios":"levelo://app?vid=744f0163-1137-46db-835e-c2dc58d25488"},"vehicle_type_id":"4","last_reported":1750270522,"current_range_meters":16800,"station_id":"","pricing_plan_id":"cebpf4jnsgd1na2vs0mg"},{"bike_id":"d957a1ea-78de-4d63-8339-8cb32cd77d5c","system_id":"levelo_inurba_marseille","lat":43.27375,"lon":5.36269,"is_reserved":false,"is_disabled":false,"rental_uris":{"android":"levelo://app?vid=d957a1ea-78de-4d63-8339-8cb32cd77d5c","ios":"levelo://app?vid=d957a1ea-78de-4d63-8339-8cb32cd77d5c"},"vehicle_type_id":"4","last_reported":1750270522,"current_range_meters":16800,"station_id":"ce4bhbh2rcd13ifvqeo0","pricing_plan_id":"cebpf4jnsgd1na2vs0mg"},{"bike_id":"a4a1f81d-f1d3-4a18-91ac-e86adf4b0027","system_id":"levelo_inurba_marseille","lat":43.28276,"lon":5.35077,"is_reserved":false,"is_disabled":false,"rental_uris":{"android":"levelo://app?vid=a4a1f81d-f1d3-4a18-91ac-e86adf4b0027","ios":"levelo://app?vid=a4a1f81d-f1d3-4a18-91ac-e86adf4b0027"},"vehicle_type_id":"4","last_reported":1750270522,"current_range_meters":16800,"station_id":"ce4bhbp2rcd13ifvqerg","pricing_plan_id":"cebpf4jnsgd1na2vs0mg"},{"bike_id":"3d818747-3770-45b2-9c35-472ea6ac4550","system_id":"levelo_inurba_marseille","lat":43.28621,"lon":5.35107,"is_reserved":false,"is_disabled":false,"rental_uris":{"android":"levelo://app?vid=3d818747-3770-45b2-9c35-472ea6ac4550","ios":"levelo://app?vid=3d818747-3770-45b2-9c35-472ea6ac4550"},"vehicle_type_id":"4","last_reported":1750270522,"current_range_meters":16800,"station_id":"ce4bhch2rcd13ifvqeug","pricing_plan_id":"cebpf4jnsgd1na2vs0mg"},{"bike_id":"d3eccb2b-8808-4f8a-b2e4-99ca1d6549a8","system_id":"levelo_inurba_marseille","lat":43.28618,"lon":5.35097,"is_reserved":false,"is_disabled":false,"rental_uris":{"android":"levelo://app?vid=d3eccb2b-8808-4f8a-b2e4-99ca1d6549a8","ios":"levelo://app?vid=d3eccb2b-8808-4f8a-b2e4-99ca1d6549a8"},"vehicle_type_id":"4","last_reported":1750270522,"current_range_meters":16800,"station_id":"ce4bhch2rcd13ifvqeug","pricing_plan_id":"cebpf4jnsgd1na2vs0mg"},{"bike_id":"f57c3844-b35c-4829-beb0-bce318ebc4f4","system_id":"levelo_inurba_marseille","lat":43.28672,"lon":5.35072,"is_reserved":false,"is_disabled":false,"rental_uris":{"android":"levelo://app?vid=f57c3844-b35c-4829-beb0-bce318ebc4f4","ios":"levelo://app?vid=f57c3844-b35c-4829-beb0-bce318ebc4f4"},"vehicle_type_id":"4","last_reported":1750270522,"current_range_meters":16800,"station_id":"ce4bhch2rcd13ifvqeug","pricing_plan_id":"cebpf4jnsgd1na2vs0mg"},{"bike_id":"5a6043ce-d74a-44de-82d3-187ed1175831","system_id":"levelo_inurba_marseille","lat":43.24809,"lon":5.37457,"is_reserved":false,"is_disabled":false,"rental_uris":{"android":"levelo://app?vid=5a6043ce-d74a-44de-82d3-187ed1175831","ios":"levelo://app?vid=5a6043ce-d74a-44de-82d3-187ed1175831"},"vehicle_type_id":"4","last_reported":1750270522,"current_range_meters":16800,"station_id":"ce4bhgh2rcd13ifvqfb0","pricing_plan_id":"cebpf4jnsgd1na2vs0mg"},{"bike_id":"7ed11479-d6a9-4630-9ec7-2d7b19cb2ea0","system_id":"levelo_inurba_marseille","lat":43.25116,"lon":5.40316,"is_reserved":false,"is_disabled":false,"rental_uris":{"android":"levelo://app?vid=7ed11479-d6a9-4630-9ec7-2d7b19cb2ea0","ios":"levelo://app?vid=7ed11479-d6a9-4630-9ec7-2d7b19cb2ea0"},"vehicle_type_id":"4","last_reported":1750270522,"current_range_meters":16800,"station_id":"ce4bhlh2rcd13ifvqgig","pricing_plan_id":"cebpf4jnsgd1na2vs0mg"},{"bike_id":"911e9acf-226e-458d-be98-6d8729e9b6b0","system_id":"levelo_inurba_marseille","lat":43.31714,"lon":5.43706,"is_reserved":false,"is_disabled":false,"rental_uris":{"android":"levelo://app?vid=911e9acf-226e-458d-be98-6d8729e9b6b0","ios":"levelo://app?vid=911e9acf-226e-458d-be98-6d8729e9b6b0"},"vehicle_type_id":"4","last_reported":1750270522,"current_range_meters":16800,"station_id":"ce4bhp92rcd13ifvqhcg","pricing_plan_id":"cebpf4jnsgd1na2vs0mg"},{"bike_id":"a004d7f2-75e1-49e9-b073-ad13bcf23d1e","system_id":"levelo_inurba_marseille","lat":43.23185,"lon":5.35535,"is_reserved":false,"is_disabled":false,"rental_uris":{"android":"levelo://app?vid=a004d7f2-75e1-49e9-b073-ad13bcf23d1e","ios":"levelo://app?vid=a004d7f2-75e1-49e9-b073-ad13bcf23d1e"},"vehicle_type_id":"4","last_reported":1750270522,"current_range_meters":16800,"station_id":"ce4bhu92rcd13ifvqi70","pricing_plan_id":"cebpf4jnsgd1na2vs0mg"},{"bike_id":"4b6b2a2b-d3c4-4663-8ea1-de4eff39b7b2","system_id":"levelo_inurba_marseille","lat":43.21194,"lon":5.35069,"is_reserved":false,"is_disabled":false,"rental_uris":{"android":"levelo://app?vid=4b6b2a2b-d3c4-4663-8ea1-de4eff39b7b2","ios":"levelo://app?vid=4b6b2a2b-d3c4-4663-8ea1-de4eff39b7b2"},"vehicle_type_id":"4","last_reported":1750270522,"current_range_meters":16800,"station_id":"st_cvj6sg6p6f1abm77japg","pricing_plan_id":"cebpf4jnsgd1na2vs0mg"},{"bike_id":"2c555767-5c9b-4c10-a745-6bbf5ccfa066","system_id":"levelo_inurba_marseille","lat":43.25406,"lon":5.37588,"is_reserved":false,"is_disabled":false,"rental_uris":{"android":"levelo://app?vid=2c555767-5c9b-4c10-a745-6bbf5ccfa066","ios":"levelo://app?vid=2c555767-5c9b-4c10-a745-6bbf5ccfa066"},"vehicle_type_id":"4","last_reported":1750270522,"current_range_meters":17200,"station_id":"","pricing_plan_id":"cebpf4jnsgd1na2vs0mg"},{"bike_id":"12749d26-f3f8-4806-b59d-96042745ad03","system_id":"levelo_inurba_marseille","lat":43.29004,"lon":5.37246,"is_reserved":false,"is_disabled":false,"rental_uris":{"android":"levelo://app?vid=12749d26-f3f8-4806-b59d-96042745ad03","ios":"levelo://app?vid=12749d26-f3f8-4806-b59d-96042745ad03"},"vehicle_type_id":"4","last_reported":1750270522,"current_range_meters":17200,"station_id":"","pricing_plan_id":"cebpf4jnsgd1na2vs0mg"},{"bike_id":"2102a372-19ea-4844-970d-3ffdc650eeb3","system_id":"levelo_inurba_marseille","lat":43.27383,"lon":5.36262,"is_reserved":false,"is_disabled":false,"rental_uris":{"android":"levelo://app?vid=2102a372-19ea-4844-970d-3ffdc650eeb3","ios":"levelo://app?vid=2102a372-19ea-4844-970d-3ffdc650eeb3"},"vehicle_type_id":"4","last_reported":1750270522,"current_range_meters":17200,"station_id":"ce4bhbh2rcd13ifvqeo0","pricing_plan_id":"cebpf4jnsgd1na2vs0mg"},{"bike_id":"b1f0ea84-2f92-4e13-a5a4-f0e90dd48e72","system_id":"levelo_inurba_marseille","lat":43.28422,"lon":5.34982,"is_reserved":false,"is_disabled":false,"rental_uris":{"android":"levelo://app?vid=b1f0ea84-2f92-4e13-a5a4-f0e90dd48e72","ios":"levelo://app?vid=b1f0ea84-2f92-4e13-a5a4-f0e90dd48e72"},"vehicle_type_id":"4","last_reported":1750270522,"current_range_meters":17200,"station_id":"ce4bhbh2rcd13ifvqepg","pricing_plan_id":"cebpf4jnsgd1na2vs0mg"},{"bike_id":"a1c3599a-e54a-42d7-b0ec-68b726909ec8","system_id":"levelo_inurba_marseille","lat":43.28422,"lon":5.34983,"is_reserved":false,"is_disabled":false,"rental_uris":{"android":"levelo://app?vid=a1c3599a-e54a-42d7-b0ec-68b726909ec8","ios":"levelo://app?vid=a1c3599a-e54a-42d7-b0ec-68b726909ec8"},"vehicle_type_id":"4","last_reported":1750270522,"current_range_meters":17200,"station_id":"ce4bhbh2rcd13ifvqepg","pricing_plan_id":"cebpf4jnsgd1na2vs0mg"},{"bike_id":"3faa3961-acba-40c7-9213-4c174004efab","system_id":"levelo_inurba_marseille","lat":43.28406,"lon":5.34996,"is_reserved":false,"is_disabled":false,"rental_uris":{"android":"levelo://app?vid=3faa3961-acba-40c7-9213-4c174004efab","ios":"levelo://app?vid=3faa3961-acba-40c7-9213-4c174004efab"},"vehicle_type_id":"4","last_reported":1750270522,"current_range_meters":17200,"station_id":"ce4bhbh2rcd13ifvqepg","pricing_plan_id":"cebpf4jnsgd1na2vs0mg"},{"bike_id":"130428e0-68b5-4aff-a260-9f102d8ed8d3","system_id":"levelo_inurba_marseille","lat":43.28261,"lon":5.35078,"is_reserved":false,"is_disabled":false,"rental_uris":{"android":"levelo://app?vid=130428e0-68b5-4aff-a260-9f102d8ed8d3","ios":"levelo://app?vid=130428e0-68b5-4aff-a260-9f102d8ed8d3"},"vehicle_type_id":"4","last_reported":1750270522,"current_range_meters":17200,"station_id":"ce4bhbp2rcd13ifvqerg","pricing_plan_id":"cebpf4jnsgd1na2vs0mg"},{"bike_id":"02c3224c-9090-4707-bb64-2f9f8c222fdf","system_id":"levelo_inurba_marseille","lat":43.29272,"lon":5.36838,"is_reserved":false,"is_disabled":false,"rental_uris":{"android":"levelo://app?vid=02c3224c-9090-4707-bb64-2f9f8c222fdf","ios":"levelo://app?vid=02c3224c-9090-4707-bb64-2f9f8c222fdf"},"vehicle_type_id":"4","last_reported":1750270522,"current_range_meters":17200,"station_id":"ce4bhbp2rcd13ifvqesg","pricing_plan_id":"cebpf4jnsgd1na2vs0mg"},{"bike_id":"7b90eff6-3832-438a-b1db-b4c9ff5fc565","system_id":"levelo_inurba_marseille","lat":43.27063,"lon":5.42265,"is_reserved":false,"is_disabled":false,"rental_uris":{"android":"levelo://app?vid=7b90eff6-3832-438a-b1db-b4c9ff5fc565","ios":"levelo://app?vid=7b90eff6-3832-438a-b1db-b4c9ff5fc565"},"vehicle_type_id":"4","last_reported":1750270522,"current_range_meters":17200,"station_id":"ce4bhk92rcd13ifvqgb0","pricing_plan_id":"cebpf4jnsgd1na2vs0mg"},{"bike_id":"5668cdb2-0f80-4fdc-9e87-26332f13354b","system_id":"levelo_inurba_marseille","lat":43.28609,"lon":5.37055,"is_reserved":false,"is_disabled":false,"rental_uris":{"android":"levelo://app?vid=5668cdb2-0f80-4fdc-9e87-26332f13354b","ios":"levelo://app?vid=5668cdb2-0f80-4fdc-9e87-26332f13354b"},"vehicle_type_id":"4","last_reported":1750270522,"current_range_meters":17200,"station_id":"ce4bht12rcd13ifvqi60","pricing_plan_id":"cebpf4jnsgd1na2vs0mg"},