{"last_updated":1742490567,"ttl":60,"version":"2.2","data":{"bikes":[{"bike_id":"dd848438-a873-4866-8e18-955a238c67cf","system_id":"levelo_inurba_marseille","lat":43.27816,"lon":5.4073,"is_reserved":false,"is_disabled":false,"rental_uris":{"android":"levelo://app?vid=dd848438-a873-4866-8e18-955a238c67cf","ios":"levelo://app?vid=dd848438-a873-4866-8e18-955a238c67cf"},"vehicle_type_id":"4","last_reported":1742490567,"current_range_meters":2800,"station_id":"ce4bhnh2rcd13ifvqgtg","pricing_plan_id":"cebpf4jnsgd1na2vs0mg"},{"bike_id":"24e8d10b-2c72-492b-84bf-64d787d73e65","system_id":"levelo_inurba_marseille","lat":43.29039,"lon":5.37573,"is_reserved":false,"is_disabled":false,"rental_uris":{"android":"levelo://app?vid=24e8d10b-2c72-492b-84bf-64d787d73e65","ios":"levelo://app?vid=24e8d10b-2c72-492b-84bf-64d787d73e65"},"vehicle_type_id":"4","last_reported":1742490567,"current_range_meters":2800,"station_id":"ce4bh692rcd13ifvqe90","pricing_plan_id":"cebpf4jnsgd1na2vs0mg"},{"bike_id":"ff3f1163-dfc1-456d-944f-7d9f9ead286e","system_id":"levelo_inurba_marseille","lat":43.3069,"lon":5.40108,"is_reserved":false,"is_disabled":false,"rental_uris":{"android":"levelo://app?vid=ff3f1163-dfc1-456d-944f-7d9f9ead286e","ios":"levelo://app?vid=ff3f1163-dfc1-456d-944f-7d9f9ead286e"},"vehicle_type_id":"4","last_reported":1742490567,"current_range_meters":2800,"station_id":"","pricing_plan_id":"cebpf4jnsgd1na2vs0mg"},{"bike_id":"fdbc4fed-7f3e-4b09-840f-6827a2433c9b","system_id":"levelo_inurba_marseille","lat":43.24548,"lon":5.39524,"is_reserved":false,"is_disabled":false,"rental_uris":{"android":"levelo://app?vid=fdbc4fed-7f3e-4b09-840f-6827a2433c9b","ios":"levelo://app?vid=fdbc4fed-7f3e-4b09-840f-6827a2433c9b"},"vehicle_type_id":"4","last_reported":1742490567,"current_range_meters":2800,"station_id":"ce4bhlp2rcd13ifvqgjg","pricing_plan_id":"cebpf4jnsgd1na2vs0mg"},{"bike_id":"be62f940-93e3-42b8-ae50-b1ab7efd46d1","system_id":"levelo_inurba_marseille","lat":43.2715,"lon":5.42216,"is_reserved":false,"is_disabled":false,"rental_uris":{"android":"levelo://app?vid=be62f940-93e3-42b8-ae50-b1ab7efd46d1","ios":"levelo://app?vid=be62f940-93e3-42b8-ae50-b1ab7efd46d1"},"vehicle_type_id":"4","last_reported":1742490567,"current_range_meters":2800,"station_id":"","pricing_plan_id":"cebpf4jnsgd1na2vs0mg"},{"bike_id":"05ac0451-e4cc-4338-acdb-edf8870aa1e0","system_id":"levelo_inurba_marseille","lat":43.3059,"lon":5.39358,"is_reserved":false,"is_disabled":false,"rental_uris":{"android":"levelo://app?vid=05ac0451-e4cc-4338-acdb-edf8870aa1e0","ios":"levelo://app?vid=05ac0451-e4cc-4338-acdb-edf8870aa1e0"},"vehicle_type_id":"4","last_reported":1742490567,"current_range_meters":3200,"station_id":"ce4bh0p2rcd13ifvqd80","pricing_plan_id":"cebpf4jnsgd1na2vs0mg"},{"bike_id":"0260fcef-2e93-4917-9348-db093431b3a3","system_id":"levelo_inurba_marseille","lat":43.30787,"lon":5.37637,"is_reserved":false,"is_disabled":false,"rental_uris":{"android":"levelo://app?vid=0260fcef-2e93-4917-9348-db093431b3a3","ios":"levelo://app?vid=0260fcef-2e93-4917-9348-db093431b3a3"},"vehicle_type_id":"4","last_reported":1742490567,"current_range_meters":3200,"station_id":"ce4bgv92rcd13ifvqcq0","pricing_plan_id":"cebpf4jnsgd1na2vs0mg"},{"bike_id":"83f0e0ea-3177-4ad6-8e61-919b673d765a","system_id":"levelo_inurba_marseille","lat":43.28,"lon":5.41661,"is_reserved":false,"is_disabled":false,"rental_uris":{"android":"levelo://app?vid=83f0e0ea-3177-4ad6-8e61-919b673d765a","ios":"levelo://app?vid=83f0e0ea-3177-4ad6-8e61-919b673d765a"},"vehicle_type_id":"4","last_reported":1742490567,"current_range_meters":3200,"station_id":"ce4bho12rcd13ifvqh1g","pricing_plan_id":"cebpf4jnsgd1na2vs0mg"},{"bike_id":"173d972b-332f-4dac-ab4b-53849fe1d7dc","system_id":"levelo_inurba_marseille","lat":43.26474,"lon":5.39549,"is_reserved":false,"is_disabled":true,"rental_uris":{"android":"levelo://app?vid=173d972b-332f-4dac-ab4b-53849fe1d7dc","ios":"levelo://app?vid=173d972b-332f-4dac-ab4b-53849fe1d7dc"},"vehicle_type_id":"4","last_reported":1742490567,"current_range_meters":3200,"station_id":"ce4bhi12rcd13ifvqfq0","pricing_plan_id":"cebpf4jnsgd1na2vs0mg"},{"bike_id":"258fd66d-a32d-4024-8ba9-13195930996e","system_id":"levelo_inurba_marseille","lat":43.27309,"lon":5.39074,"is_reserved":false,"is_disabled":false,"rental_uris":{"android":"levelo://app?vid=258fd66d-a32d-4024-8ba9-13195930996e","ios":"levelo://app?vid=258fd66d-a32d-4024-8ba9-13195930996e"},"vehicle_type_id":"4","last_reported":1742490567,"current_range_meters":2800,"station_id":"ce4bhgp2rcd13ifvqfe0","pricing_plan_id":"cebpf4jnsgd1na2vs0mg"},{"bike_id":"4d57964b-1fa3-446d-ab0b-b52f7417206a","system_id":"levelo_inurba_marseille","lat":43.28566,"lon":5.39509,"is_reserved":false,"is_disabled":false,"rental_uris":{"android":"levelo://app?vid=4d57964b-1fa3-446d-ab0b-b52f7417206a","ios":"levelo://app?vid=4d57964b-1fa3-446d-ab0b-b52f7417206a"},"vehicle_type_id":"4","last_reported":1742490567,"current_range_meters":3200,"station_id":"ce4bh292rcd13ifvqdg0","pricing_plan_id":"cebpf4jnsgd1na2vs0mg"},{"bike_id":"f84c08ee-7f48-46e0-bcd5-e5af8ff0c8c6","system_id":"levelo_inurba_marseille","lat":43.27834,"lon":5.39222,"is_reserved":false,"is_disabled":false,"rental_uris":{"android":"levelo://app?vid=f84c08ee-7f48-46e0-bcd5-e5af8ff0c8c6","ios":"levelo://app?vid=f84c08ee-7f48-46e0-bcd5-e5af8ff0c8c6"},"vehicle_type_id":"4","last_reported":1742490567,"current_range_meters":3600,"station_id":"ce4bhjp2rcd13ifvqga0","pricing_plan_id":"cebpf4jnsgd1na2vs0mg"},{"bike_id":"8290390f-0426-42a3-add8-baec64e6f990","system_id":"levelo_inurba_marseille","lat":43.26561,"lon":5.39004,"is_reserved":false,"is_disabled":false,"rental_uris":{"android":"levelo://app?vid=8290390f-0426-42a3-add8-baec64e6f990","ios":"levelo://app?vid=8290390f-0426-42a3-add8-baec64e6f990"},"vehicle_type_id":"4","last_reported":1742490567,"current_range_meters":3600,"station_id":"ce4bhe12rcd13ifvqf30","pricing_plan_id":"cebpf4jnsgd1na2vs0mg"},{"bike_id":"a045fb2a-2587-4994-9868-0340a87c6827","system_id":"levelo_inurba_marseille","lat":43.24691,"lon":5.381455,"is_reserved":false,"is_disabled":false,"rental_uris":{"android":"levelo://app?vid=a045fb2a-2587-4994-9868-0340a87c6827","ios":"levelo://app?vid=a045fb2a-2587-4994-9868-0340a87c6827"},"vehicle_type_id":"4","last_reported":1742490567,"current_range_meters":3600,"station_id":"ce4bhih2rcd13ifvqfr0","pricing_plan_id":"cebpf4jnsgd1na2vs0mg"},{"bike_id":"5110ad96-2b37-49d8-aca7-312916c02f55","system_id":"levelo_inurba_marseille","lat":43.30528,"lon":5.36712,"is_reserved":false,"is_disabled":false,"rental_uris":{"android":"levelo://app?vid=5110ad96-2b37-49d8-aca7-312916c02f55","ios":"levelo://app?vid=5110ad96-2b37-49d8-aca7-312916c02f55"},"vehicle_type_id":"4","last_reported":1742490567,"current_range_meters":3600,"station_id":"ce4bgrp2rcd13ifvqc9g","pricing_plan_id":"cebpf4jnsgd1na2vs0mg"},{"bike_id":"7f60e353-81c5-4b23-84e8-5bda76062599","system_id":"levelo_inurba_marseille","lat":43.2572,"lon":5.41111,"is_reserved":false,"is_disabled":false,"rental_uris":{"android":"levelo://app?vid=7f60e353-81c5-4b23-84e8-5bda76062599","ios":"levelo://app?vid=7f60e353-81c5-4b23-84e8-5bda76062599"},"vehicle_type_id":"4","last_reported":1742490567,"current_range_meters":3600,"station_id":"ce4bhkp2rcd13ifvqgd0","pricing_plan_id":"cebpf4jnsgd1na2vs0mg"},{"bike_id":"cae8e308-35da-48f1-a4b6-cab4f915da10","system_id":"levelo_inurba_marseille","lat":43.28713,"lon":5.37906,"is_reserved":false,"is_disabled":false,"rental_uris":{"android":"levelo://app?vid=cae8e308-35da-48f1-a4b6-cab4f915da10","ios":"levelo://app?vid=cae8e308-35da-48f1-a4b6-cab4f915da10"},"vehicle_type_id":"4","last_reported":1742490567,"current_range_meters":3600,"station_id":"ce4bh9p2rcd13ifvqec0","pricing_plan_id":"cebpf4jnsgd1na2vs0mg"},{"bike_id":"2e41a350-0541-4d8b-a73e-fa622ad04b10","system_id":"levelo_inurba_marseille","lat":43.27057,"lon":5.40258,"is_reserved":false,"is_disabled":false,"rental_uris":{"android":"levelo://app?vid=2e41a350-0541-4d8b-a73e-fa622ad04b10","ios":"levelo://app?vid=2e41a350-0541-4d8b-a73e-fa622ad04b10"},"vehicle_type_id":"4","last_reported":1742490567,"current_range_meters":4000,"station_id":"ce4bhk92rcd13ifvqgc0","pricing_plan_id":"cebpf4jnsgd1na2vs0mg"},{"bike_id":"0a02d2db-e80f-42a8-bf16-c2e2eeef33af","system_id":"levelo_inurba_marseille","lat":43.26552,"lon":5.38971,"is_reserved":false,"is_disabled":false,"rental_uris":{"android":"levelo://app?vid=0a02d2db-e80f-42a8-bf16-c2e2eeef33af","ios":"levelo://app?vid=0a02d2db-e80f-42a8-bf16-c2e2eeef33af"},"vehicle_type_id":"4","last_reported":1742490567,"current_range_meters":4000,"station_id":"ce4bhe12rcd13ifvqf30","pricing_plan_id":"cebpf4jnsgd1na2vs0mg"},{"bike_id":"1504adff-a6e5-47c2-9ec8-439894adace6","system_id":"levelo_inurba_marseille","lat":43.30341,"lon":5.40449,"is_reserved":false,"is_disabled":false,"rental_uris":{"android":"levelo://app?vid=1504adff-a6e5-47c2-9ec8-439894adace6","ios":"levelo://app?vid=1504adff-a6e5-47c2-9ec8-439894adace6"},"vehicle_type_id":"4","last_reported":1742490567,"current_range_meters":4000,"station_id":"ce4bh012rcd13ifvqd10","pricing_plan_id":"cebpf4jnsgd1na2vs0mg"},{"bike_id":"50c954ca-534e-44cb-b298-4b0e6941aece","system_id":"levelo_inurba_marseille","lat":43.27187,"lon":5.40994,"is_reserved":false,"is_disabled":false,"rental_uris":{"android":"levelo://app?vid=50c954ca-534e-44cb-b298-4b0e6941aece","ios":"levelo://app?vid=50c954ca-534e-44cb-b298-4b0e6941aece"},"vehicle_type_id":"4","last_reported":1742490567,"current_range_meters":4000,"station_id":"ce4bhl12rcd13ifvqgf0","pricing_plan_id":"cebpf4jnsgd1na2vs0mg"},{"bike_id":"bb707c48-eaef-4370-96be-8486482abfa7","system_id":"levelo_inurba_marseille","lat":43.30113,"lon":5.39863,"is_reserved":false,"is_disabled":false,"rental_uris":{"android":"levelo://app?vid=bb707c48-eaef-4370-96be-8486482abfa7","ios":"levelo://app?vid=bb707c48-eaef-4370-96be-8486482abfa7"},"vehicle_type_id":"4","last_reported":1742490567,"current_range_meters":4000,"station_id":"ce4bh0h2rcd13ifvqd40","pricing_plan_id":"cebpf4jnsgd1na2vs0mg"},{"bike_id":"eed58d3b-c43a-49f8-becf-a79d1ead7227","system_id":"levelo_inurba_marseille","lat":43.28703,"lon":5.39998,"is_reserved":false,"is_disabled":false,"rental_uris":{"android":"levelo://app?vid=eed58d3b-c43a-49f8-becf-a79d1ead7227","ios":"levelo://app?vid=eed58d3b-c43a-49f8-becf-a79d1ead7227"},"vehicle_type_id":"4","last_reported":1742490567,"current_range_meters":4000,"station_id":"ce4bho92rcd13ifvqh3g","pricing_plan_id":"cebpf4jnsgd1na2vs0mg"},{"bike_id":"a1d4474e-dc54-4e96-8359-81b099ba1a93","system_id":"levelo_inurba_marseille","lat":43.23193,"lon":5.39983,"is_reserved":false,"is_disabled":false,"rental_uris":{"android":"levelo://app?vid=a1d4474e-dc54-4e96-8359-81b099ba1a93","ios":"levelo://app?vid=a1d4474e-dc54-4e96-8359-81b099ba1a93"},"vehicle_type_id":"4","last_reported":1742490567,"current_range_meters":4400,"station_id":"ce4bhn12rcd13ifvqgqg","pricing_plan_id":"cebpf4jnsgd1na2vs0mg"},{"bike_id":"9a6e2ba2-f2b0-463e-aed1-752a3cc20324","system_id":"levelo_inurba_marseille","lat":43.29422,"lon":5.39736,"is_reserved":false,"is_disabled":false,"rental_uris":{"android":"levelo://app?vid=9a6e2ba2-f2b0-463e-aed1-752a3cc20324","ios":"levelo://app?vid=9a6e2ba2-f2b0-463e-aed1-752a3cc20324"},"vehicle_type_id":"4","last_reported":1742490567,"current_range_meters":4400,"station_id":"ce4bh3h2rcd13ifvqdo0","pricing_plan_id":"cebpf4jnsgd1na2vs0mg"},{"bike_id":"628bf57e-6a24-48f9-a399-32f48868bccf","system_id":"levelo_inurba_marseille","lat":43.30788,"lon":5.38146,"is_reserved":false,"is_disabled":false,"rental_uris":{"android":"levelo://app?vid=628bf57e-6a24-48f9-a399-32f48868bccf","ios":"levelo://app?vid=628bf57e-6a24-48f9-a399-32f48868bccf"},"vehicle_type_id":"4","last_reported":1742490567,"current_range_meters":4400,"station_id":"ce4bgt12rcd13ifvqce0","pricing_plan_id":"cebpf4jnsgd1na2vs0mg"},{"bike_id":"410b9e8d-d570-4d28-8bd1-fbebe307ab79","system_id":"levelo_inurba_marseille","lat":43.29521,"lon":5.37513,"is_reserved":false,"is_disabled":false,"rental_uris":{"android":"levelo://app?vid=410b9e8d-d570-4d28-8bd1-fbebe307ab79","ios":"levelo://app?vid=410b9e8d-d570-4d28-8bd1-fbebe307ab79"},"vehicle_type_id":"4","last_reported":1742490567,"current_range_meters":4400,"station_id":"ce4bgkp2rcd13ifvqbmg","pricing_plan_id":"cebpf4jnsgd1na2vs0mg"},{"bike_id":"28f34723-7aef-4dd9-ba81-7d6deba682cf","system_id":"levelo_inurba_marseille","lat":43.28159,"lon":5.42649,"is_reserved":false,"is_disabled":false,"rental_uris":{"android":"levelo://app?vid=28f34723-7aef-4dd9-ba81-7d6deba682cf","ios":"levelo://app?vid=28f34723-7aef-4dd9-ba81-7d6deba682cf"},"vehicle_type_id":"4","last_reported":1742490567,"current_range_meters":4400,"station_id":"ce4bhnh2rcd13ifvqgug","pricing_plan_id":"cebpf4jnsgd1na2vs0mg"},{"bike_id":"af6c0963-0249-4212-bc85-04308e89d83b","system_id":"levelo_inurba_marseille","lat":43.29697,"lon":5.37378,"is_reserved":false,"is_disabled":false,"rental_uris":{"android":"levelo://app?vid=af6c0963-0249-4212-bc85-04308e89d83b","ios":"levelo://app?vid=af6c0963-0249-4212-bc85-04308e89d83b"},"vehicle_type_id":"4","last_reported":1742490567,"current_range_meters":4400,"station_id":"","pricing_plan_id":"cebpf4jnsgd1na2vs0mg"},{"bike_id":"78422d82-7cba-4af4-aac5-55184865d095","system_id":"levelo_inurba_marseille","lat":43.29303,"lon":5.37166,"is_reserved":false,"is_disabled":false,"rental_uris":{"android":"levelo://app?vid=78422d82-7cba-4af4-aac5-55184865d095","ios":"levelo://app?vid=78422d82-7cba-4af4-aac5-55184865d095"},"vehicle_type_id":"4","last_reported":1742490567,"current_range_meters":4400,"station_id":"ce4bgh92rcd13ifvqb40","pricing_plan_id":"cebpf4jnsgd1na2vs0mg"},{"bike_id":"5c27a56a-9e63-4140-8f12-7189be90d9c1","system_id":"levelo_inurba_marseille","lat":43.3169,"lon":5.40476,"is_reserved":false,"is_disabled":false,"rental_uris":{"android":"levelo://app?vid=5c27a56a-9e63-4140-8f12-7189be90d9c1","ios":"levelo://app?vid=5c27a56a-9e63-4140-8f12-7189be90d9c1"},"vehicle_type_id":"4","last_reported":1742490567,"current_range_meters":4400,"station_id":"ce4bh012rcd13ifvqd00","pricing_plan_id":"cebpf4jnsgd1na2vs0mg"},{"bike_id":"8f4aba26-310a-4061-907d-dd7bcaaf0b61","system_id":"levelo_inurba_marseille","lat":43.232,"lon":5.3998,"is_reserved":false,"is_disabled":false,"rental_uris":{"android":"levelo://app?vid=8f4aba26-310a-4061-907d-dd7bcaaf0b61","ios":"levelo://app?vid=8f4aba26-310a-4061-907d-dd7bcaaf0b61"},"vehicle_type_id":"4","last_reported":1742490567,"current_range_meters":4800,"station_id":"ce4bhn12rcd13ifvqgqg","pricing_plan_id":"cebpf4jnsgd1na2vs0mg"},{"bike_id":"ab52fb8f-6664-4a89-b5a6-6e8c2896d399","system_id":"levelo_inurba_marseille","lat":43.28567,"lon":5.39489,"is_reserved":false,"is_disabled":false,"rental_uris":{"android":"levelo://app?vid=ab52fb8f-6664-4a89-b5a6-6e8c2896d399","ios":"levelo://app?vid=ab52fb8f-6664-4a89-b5a6-6e8c2896d399"},"vehicle_type_id":"4","last_reported":1742490567,"current_range_meters":4800,"station_id":"ce4bh292rcd13ifvqdg0","pricing_plan_id":"cebpf4jnsgd1na2vs0mg"},{"bike_id":"99743687-257a-444c-b1d0-3101ba257cca","system_id":"levelo_inurba_marseille","lat":43.281,"lon":5.39873,"is_reserved":false,"is_disabled":false,"rental_uris":{"android":"levelo://app?vid=99743687-257a-444c-b1d0-3101ba257cca","ios":"levelo://app?vid=99743687-257a-444c-b1d0-3101ba257cca"},"vehicle_type_id":"4","last_reported":1742490567,"current_range_meters":4800,"station_id":"","pricing_plan_id":"cebpf4jnsgd1na2vs0mg"},{"bike_id":"7c9cf1fe-d9a2-4001-a629-fcc670d7bf93","system_id":"levelo_inurba_marseille","lat":43.32667,"lon":5.40985,"is_reserved":false,"is_disabled":false,"rental_uris":{"android":"levelo://app?vid=7c9cf1fe-d9a2-4001-a629-fcc670d7bf93","ios":"levelo://app?vid=7c9cf1fe-d9a2-4001-a629-fcc670d7bf93"},"vehicle_type_id":"4","last_reported":1742490567,"current_range_meters":4800,"station_id":"ce4bhpp2rcd13ifvqhgg","pricing_plan_id":"cebpf4jnsgd1na2vs0mg"},{"bike_id":"7ab40b8d-fa18-4b14-83b5-9c3e7b9f2127","system_id":"levelo_inurba_marseille","lat":43.27175,"lon":5.40993,"is_reserved":false,"is_disabled":false,"rental_uris":{"android":"levelo://app?vid=7ab40b8d-fa18-4b14-83b5-9c3e7b9f2127","ios":"levelo://app?vid=7ab40b8d-fa18-4b14-83b5-9c3e7b9f2127"},"vehicle_type_id":"4","last_reported":1742490567,"current_range_meters":4800,"station_id":"ce4bhl12rcd13ifvqgf0","pricing_plan_id":"cebpf4jnsgd1na2vs0mg"},{"bike_id":"ca5c9aa7-8276-4b75-a799-476b45721dab","system_id":"levelo_inurba_marseille","lat":43.29965,"lon":5.37183,"is_reserved":false,"is_disabled":false,"rental_uris":{"android":"levelo://app?vid=ca5c9aa7-8276-4b75-a799-476b45721dab","ios":"levelo://app?vid=ca5c9aa7-8276-4b75-a799-476b45721dab"},"vehicle_type_id":"4","last_reported":1742490567,"current_range_meters":4800,"station_id":"ce4bgr92rcd13ifvqc7g","pricing_plan_id":"cebpf4jnsgd1na2vs0mg"},{"bike_id":"35c87e5b-3a8e-47f6-86e4-f11a3778bba0","system_id":"levelo_inurba_marseille","lat":43.29515,"lon":5.37508,"is_reserved":false,"is_disabled":false,"rental_uris":{"android":"levelo://app?vid=35c87e5b-3a8e-47f6-86e4-f11a3778bba0","ios":"levelo://app?vid=35c87e5b-3a8e-47f6-86e4-f11a3778bba0"},"vehicle_type_id":"4","last_reported":1742490567,"current_range_meters":5600,"station_id":"ce4bgkp2rcd13ifvqbmg","pricing_plan_id":"cebpf4jnsgd1na2vs0mg"},{"bike_id":"36b2ee71-3c66-4ae8-ba26-61c624b7fc11","system_id":"levelo_inurba_marseille","lat":43.3072,"lon":5.40485,"is_reserved":false,"is_disabled":false,"rental_uris":{"android":"levelo://app?vid=36b2ee71-3c66-4ae8-ba26-61c624b7fc11","ios":"levelo://app?vid=36b2ee71-3c66-4ae8-ba26-61c624b7fc11"},"vehicle_type_id":"4","last_reported":1742490567,"current_range_meters":5600,"station_id":"","pricing_plan_id":"cebpf4jnsgd1na2vs0mg"},{"bike_id":"0134c4eb-cb81-45fb-8190-07fb52725b22","system_id":"levelo_inurba_marseille","lat":43.27199,"lon":5.41023,"is_reserved":false,"is_disabled":false,"rental_uris":{"android":"levelo://app?vid=0134c4eb-cb81-45fb-8190-07fb52725b22","ios":"levelo://app?vid=0134c4eb-cb81-45fb-8190-07fb52725b22"},"vehicle_type_id":"4","last_reported":1742490567,"current_range_meters":5600,"station_id":"ce4bhl12rcd13ifvqgf0","pricing_plan_id":"cebpf4jnsgd1na2vs0mg"},{"bike_id":"d7a3fc7f-0740-4c4d-a5a2-feceb9d0cf3a","system_id":"levelo_inurba_marseille","lat":43.28143,"lon":5.42638,"is_reserved":false,"is_disabled":false,"rental_uris":{"android":"levelo://app?vid=d7a3fc7f-0740-4c4d-a5a2-feceb9d0cf3a","ios":"levelo://app?vid=d7a3fc7f-0740-4c4d-a5a2-feceb9d0cf3a"},"vehicle_type_id":"4","last_reported":1742490567,"current_range_meters":6000,"station_id":"ce4bhnh2rcd13ifvqgug","pricing_plan_id":"cebpf4jnsgd1na2vs0mg"},{"bike_id":"5d6040da-a22d-4644-92cc-c182b7481377","system_id":"levelo_inurba_marseille","lat":43.27187,"lon":5.40988,"is_reserved":false,"is_disabled":false,"rental_uris":{"android":"levelo://app?vid=5d6040da-a22d-4644-92cc-c182b7481377","ios":"levelo://app?vid=5d6040da-a22d-4644-92cc-c182b7481377"},"vehicle_type_id":"4","last_reported":1742490567,"current_range_meters":6000,"station_id":"ce4bhl12rcd13ifvqgf0","pricing_plan_id":"cebpf4jnsgd1na2vs0mg"},{"bike_id":"0ef11ccf-6515-47c0-acb2-1f7126ff0a10","system_id":"levelo_inurba_marseille","lat":43.30955,"lon":5.39022,"is_reserved":false,"is_disabled":true,"rental_uris":{"android":"levelo://app?vid=0ef11ccf-6515-47c0-acb2-1f7126ff0a10","ios":"levelo://app?vid=0ef11ccf-6515-47c0-acb2-1f7126ff0a10"},"vehicle_type_id":"4","last_reported":1742490567,"current_range_meters":6000,"station_id":"ce4bgup2rcd13ifvqco0","pricing_plan_id":"cebpf4jnsgd1na2vs0mg"},{"bike_id":"3455258b-4135-46b9-9a26-10bf95160e40","system_id":"levelo_inurba_marseille","lat":43.2319,"lon":5.35564,"is_reserved":false,"is_disabled":false,"rental_uris":{"android":"levelo://app?vid=3455258b-4135-46b9-9a26-10bf95160e40","ios":"levelo://app?vid=3455258b-4135-46b9-9a26-10bf95160e40"},"vehicle_type_id":"4","last_reported":1742490567,"current_range_meters":6000,"station_id":"ce4bhu92rcd13ifvqi70","pricing_plan_id":"cebpf4jnsgd1na2vs0mg"},{"bike_id":"1c630edb-7a69-4e2e-8690-8244e237eb6b","system_id":"levelo_inurba_marseille","lat":43.3096,"lon":5.39045,"is_reserved":false,"is_disabled":false,"rental_uris":{"android":"levelo://app?vid=1c630edb-7a69-4e2e-8690-8244e237eb6b","ios":"levelo://app?vid=1c630edb-7a69-4e2e-8690-8244e237eb6b"},"vehicle_type_id":"4","last_reported":1742490567,"current_range_meters":6000,"station_id":"ce4bgup2rcd13ifvqco0","pricing_plan_id":"cebpf4jnsgd1na2vs0mg"},{"bike_id":"30448cfc-53ac-4088-86ed-3a624fbeb1f7","system_id":"levelo_inurba_marseille","lat":43.23963,"lon":5.36648,"is_reserved":false,"is_disabled":false,"rental_uris":{"android":"levelo://app?vid=30448cfc-53ac-4088-86ed-3a624fbeb1f7","ios":"levelo://app?vid=30448cfc-53ac-4088-86ed-3a624fbeb1f7"},"vehicle_type_id":"4","last_reported":1742490567,"current_range_meters":6000,"station_id":"ce4bhi12rcd13ifvqfp0","pricing_plan_id":"cebpf4jnsgd1na2vs0mg"},{"bike_id":"9bba1d24-4daa-48d9-9558-4c1e96a8568d","system_id":"levelo_inurba_marseille","lat":43.29869,"lon":5.389,"is_reserved":false,"is_disabled":false,"rental_uris":{"android":"levelo://app?vid=9bba1d24-4daa-48d9-9558-4c1e96a8568d","ios":"levelo://app?vid=9bba1d24-4daa-48d9-9558-4c1e96a8568d"},"vehicle_type_id":"4","last_reported":1742490567,"current_range_meters":6400,"station_id":"ce4bh392rcd13ifvqdl0","pricing_plan_id":"cebpf4jnsgd1na2vs0mg"},{"bike_id":"0f0379d0-9e31-4d59-aa71-1b8fef29c39c","system_id":"levelo_inurba_marseille","lat":43.25711,"lon":5.4112,"is_reserved":false,"is_disabled":false,"rental_uris":{"android":"levelo://app?vid=0f0379d0-9e31-4d59-aa71-1b8fef29c39c","ios":"levelo://app?vid=0f0379d0-9e31-4d59-aa71-1b8fef29c39c"},"vehicle_type_id":"4","last_reported":1742490567,"current_range_meters":6400,"station_id":"ce4bhkp2rcd13ifvqgd0","pricing_plan_id":"cebpf4jnsgd1na2vs0mg"},{"bike_id":"d45aa902-4bcb-471b-8a0f-8cdc3416ec8c","system_id":"levelo_inurba_marseille","lat":43.27624,"lon":5.36124,"is_reserved":false,"is_disabled":false,"rental_uris":{"android":"levelo://app?vid=d45aa902-4bcb-471b-8a0f-8cdc3416ec8c","ios":"levelo://app?vid=d45aa902-4bcb-471b-8a0f-8cdc3416ec8c"},"vehicle_type_id":"4","last_reported":1742490567,"current_range_meters":6400,"station_id":"ce4bgj92rcd13ifvqbe0","pricing_plan_id":"cebpf4jnsgd1na2vs0mg"},{"bike_id":"a27e9e25-06bf-4175-9bd6-9c00c02ad86d","system_id":"levelo_inurba_marseille","lat":43.24405,"lon":5.3706,"is_reserved":false,"is_disabled":false,"rental_uris":{"android":"levelo://app?vid=a27e9e25-06bf-4175-9bd6-9c00c02ad86d","ios":"levelo://app?vid=a27e9e25-06bf-4175-9bd6-9c00c02ad86d"},"vehicle_type_id":"4","last_reported":1742490567,"current_range_meters":6400,"station_id":"ce4bhhh2rcd13ifvqfk0","pricing_plan_id":"cebpf4jnsgd1na2vs0mg"},{"bike_id":"604bb8a4-1bb3-48b5-89fa-be3068014596","system_id":"levelo_inurba_marseille","lat":43.25584,"lon":5.38235,"is_reserved":false,"is_disabled":false,"rental_uris":{"android":"levelo://app?vid=604bb8a4-1bb3-48b5-89fa-be3068014596","ios":"levelo://app?vid=604bb8a4-1bb3-48b5-89fa-be3068014596"},"vehicle_type_id":"4","last_reported":1742490567,"current_range_meters":6400,"station_id":"ce4bhih2rcd13ifvqfs0","pricing_plan_id":"cebpf4jnsgd1na2vs0mg"},{"bike_id":"cf834929-0c13-471e-b40c-ba8bdfb1bb6f","system_id":"levelo_inurba_marseille","lat":43.27674,"lon":5.38909,"is_reserved":false,"is_disabled":false,"rental_uris":{"android":"levelo://app?vid=cf834929-0c13-471e-b40c-ba8bdfb1bb6f","ios":"levelo://app?vid=cf834929-0c13-471e-b40c-ba8bdfb1bb6f"},"vehicle_type_id":"4","last_reported":1742490567,"current_range_meters":6400,"station_id":"ce4bhi12rcd13ifvqfo0","pricing_plan_id":"cebpf4jnsgd1na2vs0mg"},{"bike_id":"dd3884dc-0b6b-4a2b-8af5-b0f72ae3a61b","system_id":"levelo_inurba_marseille","lat":43.23197,"lon":5.35547,"is_reserved":false,"is_disabled":false,"rental_uris":{"android":"levelo://app?vid=dd3884dc-0b6b-4a2b-8af5-b0f72ae3a61b","ios":"levelo://app?vid=dd3884dc-0b6b-4a2b-8af5-b0f72ae3a61b"},"vehicle_type_id":"4","last_reported":1742490567,"current_range_meters":6400,"station_id":"ce4bhu92rcd13ifvqi70","pricing_plan_id":"cebpf4jnsgd1na2vs0mg"},{"bike_id":"1fea0b3c-94ab-41af-b18e-d9bbaa7dda49","system_id":"levelo_inurba_marseille","lat":43.31727,"lon":5.43707,"is_reserved":false,"is_disabled":false,"rental_uris":{"android":"levelo://app?vid=1fea0b3c-94ab-41af-b18e-d9bbaa7dda49","ios":"levelo://app?vid=1fea0b3c-94ab-41af-b18e-d9bbaa7dda49"},"vehicle_type_id":"4","last_reported":1742490567,"current_range_meters":6400,"station_id":"ce4bhp92rcd13ifvqhcg","pricing_plan_id":"cebpf4jnsgd1na2vs0mg"},{"bike_id":"f2dc44ab-4460-4ae6-9e8f-1abed24c55ae","system_id":"levelo_inurba_marseille","lat":43.27198,"lon":5.41011,"is_reserved":false,"is_disabled":false,"rental_uris":{"android":"levelo://app?vid=f2dc44ab-4460-4ae6-9e8f-1abed24c55ae","ios":"levelo://app?vid=f2dc44ab-4460-4ae6-9e8f-1abed24c55ae"},"vehicle_type_id":"4","last_reported":1742490567,"current_range_meters":6400,"station_id":"ce4bhl12rcd13ifvqgf0","pricing_plan_id":"cebpf4jnsgd1na2vs0mg"},{"bike_id":"6dfe7d18-1c59-4184-9a8f-e9d92c562748","system_id":"levelo_inurba_marseille","lat":43.29921,"lon":5.37478,"is_reserved":false,"is_disabled":false,"rental_uris":{"android":"levelo://app?vid=6dfe7d18-1c59-4184-9a8f-e9d92c562748","ios":"levelo://app?vid=6dfe7d18-1c59-4184-9a8f-e9d92c562748"},"vehicle_type_id":"4","last_reported":1742490567,"current_range_meters":6800,"station_id":"ce4bgjh2rcd13ifvqbg0","pricing_plan_id":"cebpf4jnsgd1na2vs0mg"},{"bike_id":"c76a4d35-3f4b-4728-a54f-decfdc407403","system_id":"levelo_inurba_marseille","lat":43.24663,"lon":5.38161,"is_reserved":false,"is_disabled":false,"rental_uris":{"android":"levelo://app?vid=c76a4d35-3f4b-4728-a54f-decfdc407403","ios":"levelo://app?vid=c76a4d35-3f4b-4728-a54f-decfdc407403"},"vehicle_type_id":"4","last_reported":1742490567,"current_range_meters":6800,"station_id":"ce4bhih2rcd13ifvqfr0","pricing_plan_id":"cebpf4jnsgd1na2vs0mg"},{"bike_id":"6ef43574-e478-4395-a0dc-33ae3834fbd6","system_id":"levelo_inurba_marseille","lat":43.30953,"lon":5.39033,"is_reserved":false,"is_disabled":false,"rental_uris":{"android":"levelo://app?vid=6ef43574-e478-4395-a0dc-33ae3834fbd6","ios":"levelo://app?vid=6ef43574-e478-4395-a0dc-33ae3834fbd6"},"vehicle_type_id":"4","last_reported":1742490567,"current_range_meters":6800,"station_id":"ce4bgup2rcd13ifvqco0","pricing_plan_id":"cebpf4jnsgd1na2vs0mg"},{"bike_id":"181a4fde-9b69-4103-90f9-7e9ef00b3a7a","system_id":"levelo_inurba_marseille","lat":43.24806,"lon":5.37461,"is_reserved":false,"is_disabled":false,"rental_uris":{"android":"levelo://app?vid=181a4fde-9b69-4103-90f9-7e9ef00b3a7a","ios":"levelo://app?vid=181a4fde-9b69-4103-90f9-7e9ef00b3a7a"},"vehicle_type_id":"4","last_reported":1742490567,"current_range_meters":6800,"station_id":"ce4bhgh2rcd13ifvqfb0","pricing_plan_id":"cebpf4jnsgd1na2vs0mg"},{"bike_id":"02f43b01-3b74-45fa-a40e-2df823c84cda","system_id":"levelo_inurba_marseille","lat":43.2421,"lon":5.39774,"is_reserved":false,"is_disabled":false,"rental_uris":{"android":"levelo://app?vid=02f43b01-3b74-45fa-a40e-2df823c84cda","ios":"levelo://app?vid=02f43b01-3b74-45fa-a40e-2df823c84cda"},"vehicle_type_id":"4","last_reported":1742490567,"current_range_meters":6800,"station_id":"ce4bhn12rcd13ifvqgpg","pricing_plan_id":"cebpf4jnsgd1na2vs0mg"},{"bike_id":"d526b6e2-b103-4339-baa5-b85128efba8c","system_id":"levelo_inurba_marseille","lat":43.2305,"lon":5.35496,"is_reserved":false,"is_disabled":false,"rental_uris":{"android":"levelo://app?vid=d526b6e2-b103-4339-baa5-b85128efba8c","ios":"levelo://app?vid=d526b6e2-b103-4339-baa5-b85128efba8c"},"vehicle_type_id":"4","last_reported":1742490567,"current_range_meters":6800,"station_id":"cpo3342slgdg3j2ifvpg","pricing_plan_id":"cebpf4jnsgd1na2vs0mg"},{"bike_id":"9ca04de1-e0f1-4186-9bba-159fbcc2fc30","system_id":"levelo_inurba_marseille","lat":43.26213,"lon":5.37927,"is_reserved":false,"is_disabled":true,"rental_uris":{"android":"levelo://app?vid=9ca04de1-e0f1-4186-9bba-159fbcc2fc30","ios":"levelo://app?vid=9ca04de1-e0f1-4186-9bba-159fbcc2fc30"},"vehicle_type_id":"4","last_reported":1742490567,"current_range_meters":6800,"station_id":"ce4bhjp2rcd13ifvqg90","pricing_plan_id":"cebpf4jnsgd1na2vs0mg"},{"bike_id":"9a7a597f-e959-4d32-87ca-b204dd2075da","system_id":"levelo_inurba_marseille","lat":43.28772,"lon":5.39033,"is_reserved":false,"is_disabled":false,"rental_uris":{"android":"levelo://app?vid=9a7a597f-e959-4d32-87ca-b204dd2075da","ios":"levelo://app?vid=9a7a597f-e959-4d32-87ca-b204dd2075da"},"vehicle_type_id":"4","last_reported":1742490567,"current_range_meters":7200,"station_id":"ce4bha12rcd13ifvqee0","pricing_plan_id":"cebpf4jnsgd1na2vs0mg"},{"bike_id":"ddccebef-7662-4d29-8264-7d0f55a0fe33","system_id":"levelo_inurba_marseille","lat":43.287215,"lon":5.379359,"is_reserved":false,"is_disabled":false,"rental_uris":{"android":"levelo://app?vid=ddccebef-7662-4d29-8264-7d0f55a0fe33","ios":"levelo://app?vid=ddccebef-7662-4d29-8264-7d0f55a0fe33"},"vehicle_type_id":"4","last_reported":1742490567,"current_range_meters":7200,"station_id":"ce4bh9p2rcd13ifvqec0","pricing_plan_id":"cebpf4jnsgd1na2vs0mg"},{"bike_id":"3ae4f3bd-c485-4c98-8e8e-3c9bb312423a","system_id":"levelo_inurba_marseille","lat":43.24812,"lon":5.37469,"is_reserved":false,"is_disabled":false,"rental_uris":{"android":"levelo://app?vid=3ae4f3bd-c485-4c98-8e8e-3c9bb312423a","ios":"levelo://app?vid=3ae4f3bd-c485-4c98-8e8e-3c9bb312423a"},"vehicle_type_id":"4","last_reported":1742490567,"current_range_meters":7200,"station_id":"ce4bhgh2rcd13ifvqfb0","pricing_plan_id":"cebpf4jnsgd1na2vs0mg"},{"bike_id":"a8b8dae1-87ef-4f8a-a2c8-fe9fd9bf0f77","system_id":"levelo_inurba_marseille","lat":43.23537,"lon":5.3777,"is_reserved":false,"is_disabled":false,"rental_uris":{"android":"levelo://app?vid=a8b8dae1-87ef-4f8a-a2c8-fe9fd9bf0f77","ios":"levelo://app?vid=a8b8dae1-87ef-4f8a-a2c8-fe9fd9bf0f77"},"vehicle_type_id":"4","last_reported":1742490567,"current_range_meters":7200,"station_id":"","pricing_plan_id":"cebpf4jnsgd1na2vs0mg"},{"bike_id":"55f53333-0f02-40e7-97b3-870db98a78c5","system_id":"levelo_inurba_marseille","lat":43.28159,"lon":5.42637,"is_reserved":false,"is_disabled":false,"rental_uris":{"android":"levelo://app?vid=55f53333-0f02-40e7-97b3-870db98a78c5","ios":"levelo://app?vid=55f53333-0f02-40e7-97b3-870db98a78c5"},"vehicle_type_id":"4","last_reported":1742490567,"current_range_meters":7200,"station_id":"ce4bhnh2rcd13ifvqgug","pricing_plan_id":"cebpf4jnsgd1na2vs0mg"},{"bike_id":"1dae76db-10c0-42f8-9aed-15a3f68b7f6e","system_id":"levelo_inurba_marseille","lat":43.297097,"lon":5.366129,"is_reserved":false,"is_disabled":false,"rental_uris":{"android":"levelo://app?vid=1dae76db-10c0-42f8-9aed-15a3f68b7f6e","ios":"levelo://app?vid=1dae76db-10c0-42f8-9aed-15a3f68b7f6e"},"vehicle_type_id":"4","last_reported":1742490567,"current_range_meters":7200,"station_id":"ce4bh3p2rcd13ifvqdp0","pricing_plan_id":"cebpf4jnsgd1na2vs0mg"},{"bike_id":"9d26c008-8ec1-4269-9cd2-f45774f03ccb","system_id":"levelo_inurba_marseille","lat":43.2794,"lon":5.37924,"is_reserved":false,"is_disabled":false,"rental_uris":{"android":"levelo://app?vid=9d26c008-8ec1-4269-9cd2-f45774f03ccb","ios":"levelo://app?vid=9d26c008-8ec1-4269-9cd2-f45774f03ccb"},"vehicle_type_id":"4","last_reported":1742490567,"current_range_meters":7200,"station_id":"","pricing_plan_id":"cebpf4jnsgd1na2vs0mg"},{"bike_id":"6eb98e18-92f8-411c-92c0-82d5569fb85c","system_id":"levelo_inurba_marseille","lat":43.32352,"lon":5.36741,"is_reserved":false,"is_disabled":false,"rental_uris":{"android":"levelo://app?vid=6eb98e18-92f8-411c-92c0-82d5569fb85c","ios":"levelo://app?vid=6eb98e18-92f8-411c-92c0-82d5569fb85c"},"vehicle_type_id":"4","last_reported":1742490567,"current_range_meters":8000,"station_id":"ce4bhsh2rcd13ifvqi2g","pricing_plan_id":"cebpf4jnsgd1na2vs0mg"},{"bike_id":"ed5cea79-0bea-4c86-8c80-f8de23687c7f","system_id":"levelo_inurba_marseille","lat":43.27494,"lon":5.43991,"is_reserved":false,"is_disabled":false,"rental_uris":{"android":"levelo://app?vid=ed5cea79-0bea-4c86-8c80-f8de23687c7f","ios":"levelo://app?vid=ed5cea79-0bea-4c86-8c80-f8de23687c7f"},"vehicle_type_id":"4","last_reported":1742490567,"current_range_meters":8000,"station_id":"","pricing_plan_id":"cebpf4jnsgd1na2vs0mg"},{"bike_id":"0d2cf8ff-8e9f-41d3-a223-c5aa49960d06","system_id":"levelo_inurba_marseille","lat":43.27999,"lon":5.4166,"is_reserved":false,"is_disabled":false,"rental_uris":{"android":"levelo://app?vid=0d2cf8ff-8e9f-41d3-a223-c5aa49960d06","ios":"levelo://app?vid=0d2cf8ff-8e9f-41d3-a223-c5aa49960d06"},"vehicle_type_id":"4","last_reported":1742490567,"current_range_meters":8000,"station_id":"ce4bho12rcd13ifvqh1g","pricing_plan_id":"cebpf4jnsgd1na2vs0mg"},{"bike_id":"c8d43040-a436-4ee7-a5df-ce6335d76a93","system_id":"levelo_inurba_marseille","lat":43.29021,"lon":5.38128,"is_reserved":false,"is_disabled":false,"rental_uris":{"android":"levelo://app?vid=c8d43040-a436-4ee7-a5df-ce6335d76a93","ios":"levelo://app?vid=c8d43040-a436-4ee7-a5df-ce6335d76a93"},"vehicle_type_id":"4","last_reported":1742490567,"current_range_meters":8000,"station_id":"ce4bh4p2rcd13ifvqe1g","pricing_plan_id":"cebpf4jnsgd1na2vs0mg"},{"bike_id":"176d2e0b-da43-4b98-b92e-b45d4ab12b2f","system_id":"levelo_inurba_marseille","lat":43.30213,"lon":5.38466,"is_reserved":false,"is_disabled":false,"rental_uris":{"android":"levelo://app?vid=176d2e0b-da43-4b98-b92e-b45d4ab12b2f","ios":"levelo://app?vid=176d2e0b-da43-4b98-b92e-b45d4ab12b2f"},"vehicle_type_id":"4","last_reported":1742490567,"current_range_meters":8000,"station_id":"","pricing_plan_id":"cebpf4jnsgd1na2vs0mg"},{"bike_id":"34f62ef8-0841-43ad-ae47-94f77f1fd13a","system_id":"levelo_inurba_marseille","lat":43.29252,"lon":5.4091,"is_reserved":false,"is_disabled":false,"rental_uris":{"android":"levelo://app?vid=34f62ef8-0841-43ad-ae47-94f77f1fd13a","ios":"levelo://app?vid=34f62ef8-0841-43ad-ae47-94f77f1fd13a"},"vehicle_type_id":"4","last_reported":1742490567,"current_range_meters":8400,"station_id":"ce4bh192rcd13ifvqdc0","pricing_plan_id":"cebpf4jnsgd1na2vs0mg"},{"bike_id":"3dffe535-bbd2-4529-908b-e84c876f61d0","system_id":"levelo_inurba_marseille","lat":43.27361,"lon":5.36246,"is_reserved":false,"is_disabled":false,"rental_uris":{"android":"levelo://app?vid=3dffe535-bbd2-4529-908b-e84c876f61d0","ios":"levelo://app?vid=3dffe535-bbd2-4529-908b-e84c876f61d0"},"vehicle_type_id":"4","last_reported":1742490567,"current_range_meters":8400,"station_id":"ce4bhbh2rcd13ifvqeo0","pricing_plan_id":"cebpf4jnsgd1na2vs0mg"},{"bike_id":"3c4a5071-afd8-4132-943a-c731f217d950","system_id":"levelo_inurba_marseille","lat":43.27373,"lon":5.36258,"is_reserved":false,"is_disabled":false,"rental_uris":{"android":"levelo://app?vid=3c4a5071-afd8-4132-943a-c731f217d950","ios":"levelo://app?vid=3c4a5071-afd8-4132-943a-c731f217d950"},"vehicle_type_id":"4","last_reported":1742490567,"current_range_meters":8400,"station_id":"ce4bhbh2rcd13ifvqeo0","pricing_plan_id":"cebpf4jnsgd1na2vs0mg"},{"bike_id":"f4c4bf6d-48a4-4198-942b-eda89b945e41","system_id":"levelo_inurba_marseille","lat":43.27374,"lon":5.36246,"is_reserved":false,"is_disabled":false,"rental_uris":{"android":"levelo://app?vid=f4c4bf6d-48a4-4198-942b-eda89b945e41","ios":"levelo://app?vid=f4c4bf6d-48a4-4198-942b-eda89b945e41"},"vehicle_type_id":"4","last_reported":1742490567,"current_range_meters":8400,"station_id":"ce4bhbh2rcd13ifvqeo0","pricing_plan_id":"cebpf4jnsgd1na2vs0mg"},{"bike_id":"471b8c1a-1a85-4080-b533-fb41f3dbfd81","system_id":"levelo_inurba_marseille","lat":43.23191,"lon":5.35564,"is_reserved":false,"is_disabled":false,"rental_uris":{"android":"levelo://app?vid=471b8c1a-1a85-4080-b533-fb41f3dbfd81","ios":"levelo://app?vid=471b8c1a-1a85-4080-b533-fb41f3dbfd81"},"vehicle_type_id":"4","last_reported":1742490567,"current_range_meters":8400,"station_id":"ce4bhu92rcd13ifvqi70","pricing_plan_id":"cebpf4jnsgd1na2vs0mg"},{"bike_id":"504ee4bc-f94f-46d1-b4aa-bb159ff861b7","system_id":"levelo_inurba_marseille","lat":43.27183,"lon":5.40995,"is_reserved":false,"is_disabled":false,"rental_uris":{"android":"levelo://app?vid=504ee4bc-f94f-46d1-b4aa-bb159ff861b7","ios":"levelo://app?vid=504ee4bc-f94f-46d1-b4aa-bb159ff861b7"},"vehicle_type_id":"4","last_reported":1742490567,"current_range_meters":8400,"station_id":"ce4bhl12rcd13ifvqgf0","pricing_plan_id":"cebpf4jnsgd1na2vs0mg"},{"bike_id":"671210b1-9e8f-4893-953f-985ab8b97e34","system_id":"levelo_inurba_marseille","lat":43.32116,"lon":5.36787,"is_reserved":false,"is_disabled":false,"rental_uris":{"android":"levelo://app?vid=671210b1-9e8f-4893-953f-985ab8b97e34","ios":"levelo://app?vid=671210b1-9e8f-4893-953f-985ab8b97e34"},"vehicle_type_id":"4","last_reported":1742490567,"current_range_meters":8400,"station_id":"ce4bhrh2rcd13ifvqhug","pricing_plan_id":"cebpf4jnsgd1na2vs0mg"},{"bike_id":"6bc9daa2-f4d9-442f-a646-3348ce0f65ee","system_id":"levelo_inurba_marseille","lat":43.30592,"lon":5.37274,"is_reserved":false,"is_disabled":false,"rental_uris":{"android":"levelo://app?vid=6bc9daa2-f4d9-442f-a646-3348ce0f65ee","ios":"levelo://app?vid=6bc9daa2-f4d9-442f-a646-3348ce0f65ee"},"vehicle_type_id":"4","last_reported":1742490567,"current_range_meters":8400,"station_id":"ce4bgqh2rcd13ifvqc4g","pricing_plan_id":"cebpf4jnsgd1na2vs0mg"},{"bike_id":"f8e69801-e786-4f8e-84e0-e330fc8defd7","system_id":"levelo_inurba_marseille","lat":43.32723,"lon":5.38308,"is_reserved":false,"is_disabled":false,"rental_uris":{"android":"levelo://app?vid=f8e69801-e786-4f8e-84e0-e330fc8defd7","ios":"levelo://app?vid=f8e69801-e786-4f8e-84e0-e330fc8defd7"},"vehicle_type_id":"4","last_reported":1742490567,"current_range_meters":8800,"station_id":"","pricing_plan_id":"cebpf4jnsgd1na2vs0mg"},{"bike_id":"6d3f830c-4185-4d92-aa5d-1c17ab550c3a","system_id":"levelo_inurba_marseille","lat":43.3211,"lon":5.3678,"is_reserved":false,"is_disabled":false,"rental_uris":{"android":"levelo://app?vid=6d3f830c-4185-4d92-aa5d-1c17ab550c3a","ios":"levelo://app?vid=6d3f830c-4185-4d92-aa5d-1c17ab550c3a"},"vehicle_type_id":"4","last_reported":1742490567,"current_range_meters":8800,"station_id":"ce4bhrh2rcd13ifvqhug","pricing_plan_id":"cebpf4jnsgd1na2vs0mg"},{"bike_id":"9b2a4ae1-45d2-42a7-b1d8-970226b193d0","system_id":"levelo_inurba_marseille","lat":43.24212,"lon":5.39709,"is_reserved":false,"is_disabled":false,"rental_uris":{"android":"levelo://app?vid=9b2a4ae1-45d2-42a7-b1d8-970226b193d0","ios":"levelo://app?vid=9b2a4ae1-45d2-42a7-b1d8-970226b193d0"},"vehicle_type_id":"4","last_reported":1742490567,"current_range_meters":8800,"station_id":"ce4bhn12rcd13ifvqgpg","pricing_plan_id":"cebpf4jnsgd1na2vs0mg"},{"bike_id":"d821ecdb-d05a-4fd1-a902-5aa36bb39e30","system_id":"levelo_inurba_marseille","lat":43.29534,"lon":5.39398,"is_reserved":false,"is_disabled":false,"rental_uris":{"android":"levelo://app?vid=d821ecdb-d05a-4fd1-a902-5aa36bb39e30","ios":"levelo://app?vid=d821ecdb-d05a-4fd1-a902-5aa36bb39e30"},"vehicle_type_id":"4","last_reported":1742490567,"current_range_meters":8800,"station_id":"ce4bh292rcd13ifvqdf0","pricing_plan_id":"cebpf4jnsgd1na2vs0mg"},{"bike_id":"06d0e448-9a0a-4f39-bfaf-824aafe9c300","system_id":"levelo_inurba_marseille","lat":43.32657,"lon":5.41002,"is_reserved":false,"is_disabled":false,"rental_uris":{"android":"levelo://app?vid=06d0e448-9a0a-4f39-bfaf-824aafe9c300","ios":"levelo://app?vid=06d0e448-9a0a-4f39-bfaf-824aafe9c300"},"vehicle_type_id":"4","last_reported":1742490567,"current_range_meters":8800,"station_id":"ce4bhpp2rcd13ifvqhgg","pricing_plan_id":"cebpf4jnsgd1na2vs0mg"},{"bike_id":"23c5c59f-2958-4531-be4c-d4e14e7b4fd0","system_id":"levelo_inurba_marseille","lat":43.26231,"lon":5.4045,"is_reserved":false,"is_disabled":false,"rental_uris":{"android":"levelo://app?vid=23c5c59f-2958-4531-be4c-d4e14e7b4fd0","ios":"levelo://app?vid=23c5c59f-2958-4531-be4c-d4e14e7b4fd0"},"vehicle_type_id":"4","last_reported":1742490567,"current_range_meters":8800,"station_id":"ce4bhmh2rcd13ifvqgmg","pricing_plan_id":"cebpf4jnsgd1na2vs0mg"},{"bike_id":"627c24dc-48dd-4668-bb91-814721a29b2b","system_id":"levelo_inurba_marseille","lat":43.2656,"lon":5.3728,"is_reserved":false,"is_disabled":false,"rental_uris":{"android":"levelo://app?vid=627c24dc-48dd-4668-bb91-814721a29b2b","ios":"levelo://app?vid=627c24dc-48dd-4668-bb91-814721a29b2b"},"vehicle_type_id":"4","last_reported":1742490567,"current_range_meters":8800,"station_id":"ce4bhg12rcd13ifvqf70","pricing_plan_id":"cebpf4jnsgd1na2vs0mg"},{"bike_id":"1983241e-dcf4-412a-b965-b9e661a9d6d5","system_id":"levelo_inurba_marseille","lat":43.29842,"lon":5.40168,"is_reserved":false,"is_disabled":false,"rental_uris":{"android":"levelo://app?vid=1983241e-dcf4-412a-b965-b9e661a9d6d5","ios":"levelo://app?vid=1983241e-dcf4-412a-b965-b9e661a9d6d5"},"vehicle_type_id":"4","last_reported":1742490567,"current_range_meters":8800,"station_id":"","pricing_plan_id":"cebpf4jnsgd1na2vs0mg"},{"bike_id":"0d95e6a4-60fa-4989-a414-058ecea80aee","system_id":"levelo_inurba_marseille","lat":43.30538,"lon":5.36521,"is_reserved":false,"is_disabled":false,"rental_uris":{"android":"levelo://app?vid=0d95e6a4-60fa-4989-a414-058ecea80aee","ios":"levelo://app?vid=0d95e6a4-60fa-4989-a414-058ecea80aee"},"vehicle_type_id":"4","last_reported":1742490567,"current_range_meters":9200,"station_id":"ce4bgs12rcd13ifvqcag","pricing_plan_id":"cebpf4jnsgd1na2vs0mg"},{"bike_id":"cb6062cd-3cfa-4917-b79b-5707b99e3c03","system_id":"levelo_inurba_marseille","lat":43.321185,"lon":5.367534,"is_reserved":false,"is_disabled":false,"rental_uris":{"android":"levelo://app?vid=cb6062cd-3cfa-4917-b79b-5707b99e3c03","ios":"levelo://app?vid=cb6062cd-3cfa-4917-b79b-5707b99e3c03"},"vehicle_type_id":"4","last_reported":1742490567,"current_range_meters":9200,"station_id":"ce4bho92rcd13ifvqh3g","pricing_plan_id":"cebpf4jnsgd1na2vs0mg"},{"bike_id":"20276738-7231-4b1e-8926-d014cc3ce7a5","system_id":"levelo_inurba_marseille","lat":43.24188,"lon":5.39724,"is_reserved":false,"is_disabled":false,"rental_uris":{"android":"levelo://app?vid=20276738-7231-4b1e-8926-d014cc3ce7a5","ios":"levelo://app?vid=20276738-7231-4b1e-8926-d014cc3ce7a5"},"vehicle_type_id":"4","last_reported":1742490567,"current_range_meters":9200,"station_id":"ce4bhn12rcd13ifvqgpg","pricing_plan_id":"cebpf4jnsgd1na2vs0mg"},{"bike_id":"dc537980-6042-493d-8080-0667efb1d6ad","system_id":"levelo_inurba_marseille","lat":43.24548,"lon":5.39524,"is_reserved":false,"is_disabled":false,"rental_uris":{"android":"levelo://app?vid=dc537980-6042-493d-8080-0667efb1d6ad","ios":"levelo://app?vid=dc537980-6042-493d-8080-0667efb1d6ad"},"vehicle_type_id":"4","last_reported":1742490567,"current_range_meters":9200,"station_id":"ce4bhlp2rcd13ifvqgjg","pricing_plan_id":"cebpf4jnsgd1na2vs0mg"},{"bike_id":"daabaf34-54bf-4535-8eb4-2b1d6cef51d7","system_id":"levelo_inurba_marseille","lat":43.28718,"lon":5.39982,"is_reserved":false,"is_disabled":false,"rental_uris":{"android":"levelo://app?vid=daabaf34-54bf-4535-8eb4-2b1d6cef51d7","ios":"levelo://app?vid=daabaf34-54bf-4535-8eb4-2b1d6cef51d7"},"vehicle_type_id":"4","last_reported":1742490567,"current_range_meters":9200,"station_id":"ce4bho92rcd13ifvqh3g","pricing_plan_id":"cebpf4jnsgd1na2vs0mg"},{"bike_id":"c11f02b4-8c2d-451e-9cde-01efc9ef6ac7","system_id":"levelo_inurba_marseille","lat":43.28385,"lon":5.38631,"is_reserved":false,"is_disabled":false,"rental_uris":{"android":"levelo://app?vid=c11f02b4-8c2d-451e-9cde-01efc9ef6ac7","ios":"levelo://app?vid=c11f02b4-8c2d-451e-9cde-01efc9ef6ac7"},"vehicle_type_id":"4","last_reported":1742490567,"current_range_meters":8800,"station_id":"ce4bh492rcd13ifvqdvg","pricing_plan_id":"cebpf4jnsgd1na2vs0mg"},{"bike_id":"bfb8aceb-271f-407e-8f66-f0880d7ac280","system_id":"levelo_inurba_marseille","lat":43.31335,"lon":5.39705,"is_reserved":false,"is_disabled":false,"rental_uris":{"android":"levelo://app?vid=bfb8aceb-271f-407e-8f66-f0880d7ac280","ios":"levelo://app?vid=bfb8aceb-271f-407e-8f66-f0880d7ac280"},"vehicle_type_id":"4","last_reported":1742490567,"current_range_meters":9200,"station_id":"ce4bgvp2rcd13ifvqcu0","pricing_plan_id":"cebpf4jnsgd1na2vs0mg"},{"bike_id":"3f297cc7-429f-4fbf-84c3-cf6196a6ab17","system_id":"levelo_inurba_marseille","lat":43.24806,"lon":5.37454,"is_reserved":false,"is_disabled":false,"rental_uris":{"android":"levelo://app?vid=3f297cc7-429f-4fbf-84c3-cf6196a6ab17","ios":"levelo://app?vid=3f297cc7-429f-4fbf-84c3-cf6196a6ab17"},"vehicle_type_id":"4","last_reported":1742490567,"current_range_meters":9200,"station_id":"ce4bhgh2rcd13ifvqfb0","pricing_plan_id":"cebpf4jnsgd1na2vs0mg"},{"bike_id":"f9f1c9e8-9a51-4058-af38-a43e88feaa11","system_id":"levelo_inurba_marseille","lat":43.29011,"lon":5.35591,"is_reserved":false,"is_disabled":false,"rental_uris":{"android":"levelo://app?vid=f9f1c9e8-9a51-4058-af38-a43e88feaa11","ios":"levelo://app?vid=f9f1c9e8-9a51-4058-af38-a43e88feaa11"},"vehicle_type_id":"4","last_reported":1742490567,"current_range_meters":9200,"station_id":"ce4bhb92rcd13ifvqen0","pricing_plan_id":"cebpf4jnsgd1na2vs0mg"},{"bike_id":"d7645557-54c5-44ed-8c44-41e433a350da","system_id":"levelo_inurba_marseille","lat":43.29479,"lon":5.35569,"is_reserved":false,"is_disabled":false,"rental_uris":{"android":"levelo://app?vid=d7645557-54c5-44ed-8c44-41e433a350da","ios":"levelo://app?vid=d7645557-54c5-44ed-8c44-41e433a350da"},"vehicle_type_id":"4","last_reported":1742490567,"current_range_meters":9200,"station_id":"","pricing_plan_id":"cebpf4jnsgd1na2vs0mg"},{"bike_id":"bd2e72e2-6ae3-41f8-84dc-79cbf208609c","system_id":"levelo_inurba_marseille","lat":43.2782,"lon":5.40713,"is_reserved":false,"is_disabled":false,"rental_uris":{"android":"levelo://app?vid=bd2e72e2-6ae3-41f8-84dc-79cbf208609c","ios":"levelo://app?vid=bd2e72e2-6ae3-41f8-84dc-79cbf208609c"},"vehicle_type_id":"4","last_reported":1742490567,"current_range_meters":9600,"station_id":"ce4bhnh2rcd13ifvqgtg","pricing_plan_id":"cebpf4jnsgd1na2vs0mg"},{"bike_id":"a0deeb6c-62a7-4efb-834c-1bec837aaba6","system_id":"levelo_inurba_marseille","lat":43.33684,"lon":5.37811,"is_reserved":false,"is_disabled":false,"rental_uris":{"android":"levelo://app?vid=a0deeb6c-62a7-4efb-834c-1bec837aaba6","ios":"levelo://app?vid=a0deeb6c-62a7-4efb-834c-1bec837aaba6"},"vehicle_type_id":"4","last_reported":1742490567,"current_range_meters":9600,"station_id":"","pricing_plan_id":"cebpf4jnsgd1na2vs0mg"},{"bike_id":"6e012308-6e43-4497-95b7-f712b61138e5","system_id":"levelo_inurba_marseille","lat":43.299347,"lon":5.373338,"is_reserved":false,"is_disabled":false,"rental_uris":{"android":"levelo://app?vid=6e012308-6e43-4497-95b7-f712b61138e5","ios":"levelo://app?vid=6e012308-6e43-4497-95b7-f712b61138e5"},"vehicle_type_id":"4","last_reported":1742490567,"current_range_meters":9600,"station_id":"ce4bgv12rcd13ifvqcp0","pricing_plan_id":"cebpf4jnsgd1na2vs0mg"},{"bike_id":"9a1e8e94-b45c-4226-aecb-0a0c702945eb","system_id":"levelo_inurba_marseille","lat":43.24385,"lon":5.37061,"is_reserved":false,"is_disabled":false,"rental_uris":{"android":"levelo://app?vid=9a1e8e94-b45c-4226-aecb-0a0c702945eb","ios":"levelo://app?vid=9a1e8e94-b45c-4226-aecb-0a0c702945eb"},"vehicle_type_id":"4","last_reported":1742490567,"current_range_meters":9600,"station_id":"ce4bhhh2rcd13ifvqfk0","pricing_plan_id":"cebpf4jnsgd1na2vs0mg"},{"bike_id":"181b1742-09ee-46ab-8712-67d8396af664","system_id":"levelo_inurba_marseille","lat":43.24187,"lon":5.39742,"is_reserved":false,"is_disabled":false,"rental_uris":{"android":"levelo://app?vid=181b1742-09ee-46ab-8712-67d8396af664","ios":"levelo://app?vid=181b1742-09ee-46ab-8712-67d8396af664"},"vehicle_type_id":"4","last_reported":1742490567,"current_range_meters":9600,"station_id":"ce4bhn12rcd13ifvqgpg","pricing_plan_id":"cebpf4jnsgd1na2vs0mg"},{"bike_id":"4ed67154-a93a-43e4-9232-9e316ae8abac","system_id":"levelo_inurba_marseille","lat":43.32666,"lon":5.40997,"is_reserved":false,"is_disabled":false,"rental_uris":{"android":"levelo://app?vid=4ed67154-a93a-43e4-9232-9e316ae8abac","ios":"levelo://app?vid=4ed67154-a93a-43e4-9232-9e316ae8abac"},"vehicle_type_id":"4","last_reported":1742490567,"current_range_meters":9600,"station_id":"ce4bhpp2rcd13ifvqhgg","pricing_plan_id":"cebpf4jnsgd1na2vs0mg"},{"bike_id":"ffbee1c9-ab8d-45ee-b606-c546ab78c5f2","system_id":"levelo_inurba_marseille","lat":43.29731,"lon":5.37788,"is_reserved":false,"is_disabled":false,"rental_uris":{"android":"levelo://app?vid=ffbee1c9-ab8d-45ee-b606-c546ab78c5f2","ios":"levelo://app?vid=ffbee1c9-ab8d-45ee-b606-c546ab78c5f2"},"vehicle_type_id":"4","last_reported":1742490567,"current_range_meters":10000,"station_id":"","pricing_plan_id":"cebpf4jnsgd1na2vs0mg"},{"bike_id":"0127acc2-243d-4e21-a437-8949ccf5b907","system_id":"levelo_inurba_marseille","lat":43.23185,"lon":5.39983,"is_reserved":false,"is_disabled":false,"rental_uris":{"android":"levelo://app?vid=0127acc2-243d-4e21-a437-8949ccf5b907","ios":"levelo://app?vid=0127acc2-243d-4e21-a437-8949ccf5b907"},"vehicle_type_id":"4","last_reported":1742490567,"current_range_meters":10000,"station_id":"ce4bhn12rcd13ifvqgqg","pricing_plan_id":"cebpf4jnsgd1na2vs0mg"},{"bike_id":"fee76059-72b4-4347-b538-25792f5aab3f","system_id":"levelo_inurba_marseille","lat":43.286638,"lon":5.386649,"is_reserved":false,"is_disabled":false,"rental_uris":{"android":"levelo://app?vid=fee76059-72b4-4347-b538-25792f5aab3f","ios":"levelo://app?vid=fee76059-72b4-4347-b538-25792f5aab3f"},"vehicle_type_id":"4","last_reported":1742490567,"current_range_meters":10000,"station_id":"ce4bh492rcd13ifvqdug","pricing_plan_id":"cebpf4jnsgd1na2vs0mg"},{"bike_id":"680182cf-d96c-46cf-828f-85503a05b178","system_id":"levelo_inurba_marseille","lat":43.30879,"lon":5.37185,"is_reserved":false,"is_disabled":false,"rental_uris":{"android":"levelo://app?vid=680182cf-d96c-46cf-828f-85503a05b178","ios":"levelo://app?vid=680182cf-d96c-46cf-828f-85503a05b178"},"vehicle_type_id":"4","last_reported":1742490567,"current_range_meters":10000,"station_id":"ce4bguh2rcd13ifvqckg","pricing_plan_id":"cebpf4jnsgd1na2vs0mg"},{"bike_id":"b9e4bdd0-024c-4547-9a94-39d0c7923642","system_id":"levelo_inurba_marseille","lat":43.24176,"lon":5.36413,"is_reserved":false,"is_disabled":false,"rental_uris":{"android":"levelo://app?vid=b9e4bdd0-024c-4547-9a94-39d0c7923642","ios":"levelo://app?vid=b9e4bdd0-024c-4547-9a94-39d0c7923642"},"vehicle_type_id":"4","last_reported":1742490567,"current_range_meters":10000,"station_id":"cpo36qri1sfpv3e86is0","pricing_plan_id":"cebpf4jnsgd1na2vs0mg"},{"bike_id":"5a744e10-af42-4895-8ea6-4be2388dba33","system_id":"levelo_inurba_marseille","lat":43.28482,"lon":5.39195,"is_reserved":false,"is_disabled":false,"rental_uris":{"android":"levelo://app?vid=5a744e10-af42-4895-8ea6-4be2388dba33","ios":"levelo://app?vid=5a744e10-af42-4895-8ea6-4be2388dba33"},"vehicle_type_id":"4","last_reported":1742490567,"current_range_meters":10000,"station_id":"ce4bhoh2rcd13ifvqh5g","pricing_plan_id":"cebpf4jnsgd1na2vs0mg"},{"bike_id":"54959fd2-28da-47a6-a8e7-a45f422e0bbf","system_id":"levelo_inurba_marseille","lat":43.28481,"lon":5.3855,"is_reserved":false,"is_disabled":false,"rental_uris":{"android":"levelo://app?vid=54959fd2-28da-47a6-a8e7-a45f422e0bbf","ios":"levelo://app?vid=54959fd2-28da-47a6-a8e7-a45f422e0bbf"},"vehicle_type_id":"4","last_reported":1742490567,"current_range_meters":10000,"station_id":"ce4bh8p2rcd13ifvqeb0","pricing_plan_id":"cebpf4jnsgd1na2vs0mg"},{"bike_id":"d06e1040-1f09-4d79-ade8-d91be13f7a30","system_id":"levelo_inurba_marseille","lat":43.27563,"lon":5.38409,"is_reserved":false,"is_disabled":false,"rental_uris":{"android":"levelo://app?vid=d06e1040-1f09-4d79-ade8-d91be13f7a30","ios":"levelo://app?vid=d06e1040-1f09-4d79-ade8-d91be13f7a30"},"vehicle_type_id":"4","last_reported":1742490567,"current_range_meters":10000,"station_id":"ce4bhh92rcd13ifvqfi0","pricing_plan_id":"cebpf4jnsgd1na2vs0mg"},{"bike_id":"c5bb5dca-1dc9-450e-9a3d-9fa737cf345d","system_id":"levelo_inurba_marseille","lat":43.24653,"lon":5.38907,"is_reserved":false,"is_disabled":false,"rental_uris":{"android":"levelo://app?vid=c5bb5dca-1dc9-450e-9a3d-9fa737cf345d","ios":"levelo://app?vid=c5bb5dca-1dc9-450e-9a3d-9fa737cf345d"},"vehicle_type_id":"4","last_reported":1742490567,"current_range_meters":10000,"station_id":"ce4bhg12rcd13ifvqf60","pricing_plan_id":"cebpf4jnsgd1na2vs0mg"},{"bike_id":"eb278d1a-947c-4080-bba0-b7e536362085","system_id":"levelo_inurba_marseille","lat":43.3019,"lon":5.36627,"is_reserved":false,"is_disabled":false,"rental_uris":{"android":"levelo://app?vid=eb278d1a-947c-4080-bba0-b7e536362085","ios":"levelo://app?vid=eb278d1a-947c-4080-bba0-b7e536362085"},"vehicle_type_id":"4","last_reported":1742490567,"current_range_meters":10800,"station_id":"ce4bgrh2rcd13ifvqc8g","pricing_plan_id":"cebpf4jnsgd1na2vs0mg"},{"bike_id":"ae03817f-5a20-4171-8c4e-cfa80f74af3b","system_id":"levelo_inurba_marseille","lat":43.3026,"lon":5.40075,"is_reserved":false,"is_disabled":false,"rental_uris":{"android":"levelo://app?vid=ae03817f-5a20-4171-8c4e-cfa80f74af3b","ios":"levelo://app?vid=ae03817f-5a20-4171-8c4e-cfa80f74af3b"},"vehicle_type_id":"4","last_reported":1742490567,"current_range_meters":10800,"station_id":"ce4bgvh2rcd13ifvqcs0","pricing_plan_id":"cebpf4jnsgd1na2vs0mg"},{"bike_id":"b31900d6-900b-4641-9480-da40bc2408ab","system_id":"levelo_inurba_marseille","lat":43.30872,"lon":5.39628,"is_reserved":false,"is_disabled":false,"rental_uris":{"android":"levelo://app?vid=b31900d6-900b-4641-9480-da40bc2408ab","ios":"levelo://app?vid=b31900d6-900b-4641-9480-da40bc2408ab"},"vehicle_type_id":"4","last_reported":1742490567,"current_range_meters":10800,"station_id":"ce4bh012rcd13ifvqcv0","pricing_plan_id":"cebpf4jnsgd1na2vs0mg"},{"bike_id":"e7099a91-f011-4f51-8f8e-c8f0d1018eb5","system_id":"levelo_inurba_marseille","lat":43.2318,"lon":5.3999,"is_reserved":false,"is_disabled":false,"rental_uris":{"android":"levelo://app?vid=e7099a91-f011-4f51-8f8e-c8f0d1018eb5","ios":"levelo://app?vid=e7099a91-f011-4f51-8f8e-c8f0d1018eb5"},"vehicle_type_id":"4","last_reported":1742490567,"current_range_meters":10800,"station_id":"ce4bhn12rcd13ifvqgqg","pricing_plan_id":"cebpf4jnsgd1na2vs0mg"},{"bike_id":"35613b08-4782-4523-af61-610d25405b74","system_id":"levelo_inurba_marseille","lat":43.26808,"lon":5.4027,"is_reserved":false,"is_disabled":false,"rental_uris":{"android":"levelo://app?vid=35613b08-4782-4523-af61-610d25405b74","ios":"levelo://app?vid=35613b08-4782-4523-af61-610d25405b74"},"vehicle_type_id":"4","last_reported":1742490567,"current_range_meters":11200,"station_id":"ce501612rcd8frsf0b60","pricing_plan_id":"cebpf4jnsgd1na2vs0mg"},{"bike_id":"10040ff5-09c7-4549-9697-fbeae20cf216","system_id":"levelo_inurba_marseille","lat":43.2466,"lon":5.38914,"is_reserved":false,"is_disabled":false,"rental_uris":{"android":"levelo://app?vid=10040ff5-09c7-4549-9697-fbeae20cf216","ios":"levelo://app?vid=10040ff5-09c7-4549-9697-fbeae20cf216"},"vehicle_type_id":"4","last_reported":1742490567,"current_range_meters":11200,"station_id":"ce4bhg12rcd13ifvqf60","pricing_plan_id":"cebpf4jnsgd1na2vs0mg"},{"bike_id":"e120952e-7ff4-4982-afc6-7f8c832324de","system_id":"levelo_inurba_marseille","lat":43.28673,"lon":5.38658,"is_reserved":false,"is_disabled":false,"rental_uris":{"android":"levelo://app?vid=e120952e-7ff4-4982-afc6-7f8c832324de","ios":"levelo://app?vid=e120952e-7ff4-4982-afc6-7f8c832324de"},"vehicle_type_id":"4","last_reported":1742490567,"current_range_meters":11200,"station_id":"ce4bh492rcd13ifvqdug","pricing_plan_id":"cebpf4jnsgd1na2vs0mg"},{"bike_id":"d4b8f3ac-69da-4a13-8307-f3070663ea65","system_id":"levelo_inurba_marseille","lat":43.28462,"lon":5.35885,"is_reserved":false,"is_disabled":false,"rental_uris":{"android":"levelo://app?vid=d4b8f3ac-69da-4a13-8307-f3070663ea65","ios":"levelo://app?vid=d4b8f3ac-69da-4a13-8307-f3070663ea65"},"vehicle_type_id":"4","last_reported":1742490567,"current_range_meters":11200,"station_id":"ce4bhah2rcd13ifvqei0","pricing_plan_id":"cebpf4jnsgd1na2vs0mg"},{"bike_id":"dcc18eac-d2e5-4e6e-91aa-19e270f58587","system_id":"levelo_inurba_marseille","lat":43.31329,"lon":5.39684,"is_reserved":false,"is_disabled":false,"rental_uris":{"android":"levelo://app?vid=dcc18eac-d2e5-4e6e-91aa-19e270f58587","ios":"levelo://app?vid=dcc18eac-d2e5-4e6e-91aa-19e270f58587"},"vehicle_type_id":"4","last_reported":1742490567,"current_range_meters":11200,"station_id":"ce4bgvp2rcd13ifvqcu0","pricing_plan_id":"cebpf4jnsgd1na2vs0mg"},{"bike_id":"8acba151-9ae9-4558-b581-94ee42db5de3","system_id":"levelo_inurba_marseille","lat":43.29042,"lon":5.37564,"is_reserved":false,"is_disabled":false,"rental_uris":{"android":"levelo://app?vid=8acba151-9ae9-4558-b581-94ee42db5de3","ios":"levelo://app?vid=8acba151-9ae9-4558-b581-94ee42db5de3"},"vehicle_type_id":"4","last_reported":1742490567,"current_range_meters":11200,"station_id":"ce4bh692rcd13ifvqe90","pricing_plan_id":"cebpf4jnsgd1na2vs0mg"},{"bike_id":"484ca34d-bac6-490e-b142-4de62386d5f9","system_id":"levelo_inurba_marseille","lat":43.30606,"lon":5.37215,"is_reserved":false,"is_disabled":false,"rental_uris":{"android":"levelo://app?vid=484ca34d-bac6-490e-b142-4de62386d5f9","ios":"levelo://app?vid=484ca34d-bac6-490e-b142-4de62386d5f9"},"vehicle_type_id":"4","last_reported":1742490567,"current_range_meters":11200,"station_id":"ce4bgqh2rcd13ifvqc4g","pricing_plan_id":"cebpf4jnsgd1na2vs0mg"},{"bike_id":"f75d32cd-32c5-4f70-9df2-f2320d24a18d","system_id":"levelo_inurba_marseille","lat":43.31997,"lon":5.38159,"is_reserved":false,"is_disabled":false,"rental_uris":{"android":"levelo://app?vid=f75d32cd-32c5-4f70-9df2-f2320d24a18d","ios":"levelo://app?vid=f75d32cd-32c5-4f70-9df2-f2320d24a18d"},"vehicle_type_id":"4","last_reported":1742490567,"current_range_meters":11200,"station_id":"ce4bhr12rcd13ifvqhpg","pricing_plan_id":"cebpf4jnsgd1na2vs0mg"},{"bike_id":"ac540f42-3b9e-4bc3-8495-8313e840d7d9","system_id":"levelo_inurba_marseille","lat":43.24656,"lon":5.3889,"is_reserved":false,"is_disabled":false,"rental_uris":{"android":"levelo://app?vid=ac540f42-3b9e-4bc3-8495-8313e840d7d9","ios":"levelo://app?vid=ac540f42-3b9e-4bc3-8495-8313e840d7d9"},"vehicle_type_id":"4","last_reported":1742490567,"current_range_meters":11600,"station_id":"ce4bhg12rcd13ifvqf60","pricing_plan_id":"cebpf4jnsgd1na2vs0mg"},{"bike_id":"361e6617-58dc-4d5d-b84b-f1a08916a0c8","system_id":"levelo_inurba_marseille","lat":43.29297,"lon":5.37463,"is_reserved":false,"is_disabled":false,"rental_uris":{"android":"levelo://app?vid=361e6617-58dc-4d5d-b84b-f1a08916a0c8","ios":"levelo://app?vid=361e6617-58dc-4d5d-b84b-f1a08916a0c8"},"vehicle_type_id":"4","last_reported":1742490567,"current_range_meters":11600,"station_id":"ce4bgi12rcd13ifvqb70","pricing_plan_id":"cebpf4jnsgd1na2vs0mg"},{"bike_id":"c0ee6106-b972-4393-b443-8d4dc79a91aa","system_id":"levelo_inurba_marseille","lat":43.31079,"lon":5.38353,"is_reserved":false,"is_disabled":false,"rental_uris":{"android":"levelo://app?vid=c0ee6106-b972-4393-b443-8d4dc79a91aa","ios":"levelo://app?vid=c0ee6106-b972-4393-b443-8d4dc79a91aa"},"vehicle_type_id":"4","last_reported":1742490567,"current_range_meters":11600,"station_id":"ce4bgv92rcd13ifvqcr0","pricing_plan_id":"cebpf4jnsgd1na2vs0mg"},{"bike_id":"159e01d8-0fbe-4181-af87-91929792f61b","system_id":"levelo_inurba_marseille","lat":43.24387,"lon":5.37053,"is_reserved":false,"is_disabled":false,"rental_uris":{"android":"levelo://app?vid=159e01d8-0fbe-4181-af87-91929792f61b","ios":"levelo://app?vid=159e01d8-0fbe-4181-af87-91929792f61b"},"vehicle_type_id":"4","last_reported":1742490567,"current_range_meters":11600,"station_id":"ce4bhhh2rcd13ifvqfk0","pricing_plan_id":"cebpf4jnsgd1na2vs0mg"},{"bike_id":"563ee584-476e-43f4-83dc-52890f9997a1","system_id":"levelo_inurba_marseille","lat":43.25585,"lon":5.38267,"is_reserved":false,"is_disabled":false,"rental_uris":{"android":"levelo://app?vid=563ee584-476e-43f4-83dc-52890f9997a1","ios":"levelo://app?vid=563ee584-476e-43f4-83dc-52890f9997a1"},"vehicle_type_id":"4","last_reported":1742490567,"current_range_meters":11600,"station_id":"ce4bhih2rcd13ifvqfs0","pricing_plan_id":"cebpf4jnsgd1na2vs0mg"},{"bike_id":"b3fb646a-edf1-4896-97b1-366543b207b0","system_id":"levelo_inurba_marseille","lat":43.29432,"lon":5.39736,"is_reserved":false,"is_disabled":false,"rental_uris":{"android":"levelo://app?vid=b3fb646a-edf1-4896-97b1-366543b207b0","ios":"levelo://app?vid=b3fb646a-edf1-4896-97b1-366543b207b0"},"vehicle_type_id":"4","last_reported":1742490567,"current_range_meters":12000,"station_id":"ce4bh3h2rcd13ifvqdo0","pricing_plan_id":"cebpf4jnsgd1na2vs0mg"},{"bike_id":"14da4850-f67c-4735-8949-7d2104a1e24b","system_id":"levelo_inurba_marseille","lat":43.23965,"lon":5.36627,"is_reserved":false,"is_disabled":false,"rental_uris":{"android":"levelo://app?vid=14da4850-f67c-4735-8949-7d2104a1e24b","ios":"levelo://app?vid=14da4850-f67c-4735-8949-7d2104a1e24b"},"vehicle_type_id":"4","last_reported":1742490567,"current_range_meters":12000,"station_id":"ce4bhi12rcd13ifvqfp0","pricing_plan_id":"cebpf4jnsgd1na2vs0mg"},{"bike_id":"772e956f-15e2-4e20-9a71-333acd9540dd","system_id":"levelo_inurba_marseille","lat":43.29033,"lon":5.35914,"is_reserved":false,"is_disabled":false,"rental_uris":{"android":"levelo://app?vid=772e956f-15e2-4e20-9a71-333acd9540dd","ios":"levelo://app?vid=772e956f-15e2-4e20-9a71-333acd9540dd"},"vehicle_type_id":"4","last_reported":1742490567,"current_range_meters":12000,"station_id":"ce4bha92rcd13ifvqeg0","pricing_plan_id":"cebpf4jnsgd1na2vs0mg"},{"bike_id":"70cdca2b-bab4-4047-8a13-c14ffeb417d9","system_id":"levelo_inurba_marseille","lat":43.29419,"lon":5.39761,"is_reserved":false,"is_disabled":false,"rental_uris":{"android":"levelo://app?vid=70cdca2b-bab4-4047-8a13-c14ffeb417d9","ios":"levelo://app?vid=70cdca2b-bab4-4047-8a13-c14ffeb417d9"},"vehicle_type_id":"4","last_reported":1742490567,"current_range_meters":12000,"station_id":"ce4bh3h2rcd13ifvqdo0","pricing_plan_id":"cebpf4jnsgd1na2vs0mg"},{"bike_id":"24016567-79c9-417a-ad0a-921105cb0978","system_id":"levelo_inurba_marseille","lat":43.32368,"lon":5.3888,"is_reserved":false,"is_disabled":false,"rental_uris":{"android":"levelo://app?vid=24016567-79c9-417a-ad0a-921105cb0978","ios":"levelo://app?vid=24016567-79c9-417a-ad0a-921105cb0978"},"vehicle_type_id":"4","last_reported":1742490567,"current_range_meters":12000,"station_id":"ce4bhqp2rcd13ifvqhog","pricing_plan_id":"cebpf4jnsgd1na2vs0mg"},{"bike_id":"1c3b5361-695c-4ccc-94f9-aca7f37b6d45","system_id":"levelo_inurba_marseille","lat":43.23193,"lon":5.35569,"is_reserved":false,"is_disabled":false,"rental_uris":{"android":"levelo://app?vid=1c3b5361-695c-4ccc-94f9-aca7f37b6d45","ios":"levelo://app?vid=1c3b5361-695c-4ccc-94f9-aca7f37b6d45"},"vehicle_type_id":"4","last_reported":1742490567,"current_range_meters":12400,"station_id":"ce4bhu92rcd13ifvqi70","pricing_plan_id":"cebpf4jnsgd1na2vs0mg"},{"bike_id":"777d259c-3aff-4e1d-a0c8-7abb9a149cbe","system_id":"levelo_inurba_marseille","lat":43.28667,"lon":5.36353,"is_reserved":false,"is_disabled":false,"rental_uris":{"android":"levelo://app?vid=777d259c-3aff-4e1d-a0c8-7abb9a149cbe","ios":"levelo://app?vid=777d259c-3aff-4e1d-a0c8-7abb9a149cbe"},"vehicle_type_id":"4","last_reported":1742490567,"current_range_meters":12400,"station_id":"ce4bhah2rcd13ifvqej0","pricing_plan_id":"cebpf4jnsgd1na2vs0mg"},{"bike_id":"2678929a-312d-4089-b116-1e816de7db90","system_id":"levelo_inurba_marseille","lat":43.32149,"lon":5.36775,"is_reserved":false,"is_disabled":false,"rental_uris":{"android":"levelo://app?vid=2678929a-312d-4089-b116-1e816de7db90","ios":"levelo://app?vid=2678929a-312d-4089-b116-1e816de7db90"},"vehicle_type_id":"4","last_reported":1742490567,"current_range_meters":12400,"station_id":"","pricing_plan_id":"cebpf4jnsgd1na2vs0mg"},{"bike_id":"35b0018b-cfae-4abe-b408-c50fb94c9dcf","system_id":"levelo_inurba_marseille","lat":43.30574,"lon":5.36545,"is_reserved":false,"is_disabled":false,"rental_uris":{"android":"levelo://app?vid=35b0018b-cfae-4abe-b408-c50fb94c9dcf","ios":"levelo://app?vid=35b0018b-cfae-4abe-b408-c50fb94c9dcf"},"vehicle_type_id":"4","last_reported":1742490567,"current_range_meters":12400,"station_id":"ce4bgs12rcd13ifvqcag","pricing_plan_id":"cebpf4jnsgd1na2vs0mg"},{"bike_id":"1295e912-beee-47fe-a5c8-2ae149d6d129","system_id":"levelo_inurba_marseille","lat":43.31633,"lon":5.37974,"is_reserved":false,"is_disabled":false,"rental_uris":{"android":"levelo://app?vid=1295e912-beee-47fe-a5c8-2ae149d6d129","ios":"levelo://app?vid=1295e912-beee-47fe-a5c8-2ae149d6d129"},"vehicle_type_id":"4","last_reported":1742490567,"current_range_meters":12400,"station_id":"","pricing_plan_id":"cebpf4jnsgd1na2vs0mg"},{"bike_id":"224d8ec9-fda1-4297-8da9-05943211c9a9","system_id":"levelo_inurba_marseille","lat":43.29438,"lon":5.39756,"is_reserved":false,"is_disabled":false,"rental_uris":{"android":"levelo://app?vid=224d8ec9-fda1-4297-8da9-05943211c9a9","ios":"levelo://app?vid=224d8ec9-fda1-4297-8da9-05943211c9a9"},"vehicle_type_id":"4","last_reported":1742490567,"current_range_meters":12400,"station_id":"ce4bh3h2rcd13ifvqdo0","pricing_plan_id":"cebpf4jnsgd1na2vs0mg"},{"bike_id":"bfce1d76-4859-49c6-b8ba-d79506309519","system_id":"levelo_inurba_marseille","lat":43.29525,"lon":5.39039,"is_reserved":false,"is_disabled":false,"rental_uris":{"android":"levelo://app?vid=bfce1d76-4859-49c6-b8ba-d79506309519","ios":"levelo://app?vid=bfce1d76-4859-49c6-b8ba-d79506309519"},"vehicle_type_id":"4","last_reported":1742490567,"current_range_meters":12400,"station_id":"ce4bh3p2rcd13ifvqdp0","pricing_plan_id":"cebpf4jnsgd1na2vs0mg"},{"bike_id":"35e75ce4-9511-4ad9-9515-3486f181db7e","system_id":"levelo_inurba_marseille","lat":43.2466,"lon":5.38162,"is_reserved":false,"is_disabled":false,"rental_uris":{"android":"levelo://app?vid=35e75ce4-9511-4ad9-9515-3486f181db7e","ios":"levelo://app?vid=35e75ce4-9511-4ad9-9515-3486f181db7e"},"vehicle_type_id":"4","last_reported":1742490567,"current_range_meters":12400,"station_id":"ce4bhih2rcd13ifvqfr0","pricing_plan_id":"cebpf4jnsgd1na2vs0mg"},{"bike_id":"219ee28e-b07b-4475-8aa8-52b7705c6eca","system_id":"levelo_inurba_marseille","lat":43.26208,"lon":5.37929,"is_reserved":false,"is_disabled":false,"rental_uris":{"android":"levelo://app?vid=219ee28e-b07b-4475-8aa8-52b7705c6eca","ios":"levelo://app?vid=219ee28e-b07b-4475-8aa8-52b7705c6eca"},"vehicle_type_id":"4","last_reported":1742490567,"current_range_meters":12400,"station_id":"ce4bhjp2rcd13ifvqg90","pricing_plan_id":"cebpf4jnsgd1na2vs0mg"},{"bike_id":"83fe4b7d-c313-402b-a1b1-9f765824d193","system_id":"levelo_inurba_marseille","lat":43.26206,"lon":5.37445,"is_reserved":false,"is_disabled":false,"rental_uris":{"android":"levelo://app?vid=83fe4b7d-c313-402b-a1b1-9f765824d193","ios":"levelo://app?vid=83fe4b7d-c313-402b-a1b1-9f765824d193"},"vehicle_type_id":"4","last_reported":1742490567,"current_range_meters":12400,"station_id":"ce4bhgp2rcd13ifvqfc0","pricing_plan_id":"cebpf4jnsgd1na2vs0mg"},{"bike_id":"0df27ea2-e0b7-4786-b667-9d648a00ab66","system_id":"levelo_inurba_marseille","lat":43.2928,"lon":5.3685,"is_reserved":false,"is_disabled":false,"rental_uris":{"android":"levelo://app?vid=0df27ea2-e0b7-4786-b667-9d648a00ab66","ios":"levelo://app?vid=0df27ea2-e0b7-4786-b667-9d648a00ab66"},"vehicle_type_id":"4","last_reported":1742490567,"current_range_meters":12800,"station_id":"ce4bhbp2rcd13ifvqesg","pricing_plan_id":"cebpf4jnsgd1na2vs0mg"},{"bike_id":"d1cd3948-e4f2-486c-b53f-2507592e89af","system_id":"levelo_inurba_marseille","lat":43.29521,"lon":5.39045,"is_reserved":false,"is_disabled":false,"rental_uris":{"android":"levelo://app?vid=d1cd3948-e4f2-486c-b53f-2507592e89af","ios":"levelo://app?vid=d1cd3948-e4f2-486c-b53f-2507592e89af"},"vehicle_type_id":"4","last_reported":1742490567,"current_range_meters":12800,"station_id":"ce4bh3p2rcd13ifvqdp0","pricing_plan_id":"cebpf4jnsgd1na2vs0mg"},{"bike_id":"19d0260e-5f0a-46fb-87eb-7f40b327daa1","system_id":"levelo_inurba_marseille","lat":43.33161,"lon":5.38171,"is_reserved":false,"is_disabled":false,"rental_uris":{"android":"levelo://app?vid=19d0260e-5f0a-46fb-87eb-7f40b327daa1","ios":"levelo://app?vid=19d0260e-5f0a-46fb-87eb-7f40b327daa1"},"vehicle_type_id":"4","last_reported":1742490567,"current_range_meters":13600,"station_id":"","pricing_plan_id":"cebpf4jnsgd1na2vs0mg"},{"bike_id":"a67c54b6-5ce9-4632-8070-5ca7d5b7fc9e","system_id":"levelo_inurba_marseille","lat":43.2306,"lon":5.35502,"is_reserved":false,"is_disabled":false,"rental_uris":{"android":"levelo://app?vid=a67c54b6-5ce9-4632-8070-5ca7d5b7fc9e","ios":"levelo://app?vid=a67c54b6-5ce9-4632-8070-5ca7d5b7fc9e"},"vehicle_type_id":"4","last_reported":1742490567,"current_range_meters":13600,"station_id":"cpo3342slgdg3j2ifvpg","pricing_plan_id":"cebpf4jnsgd1na2vs0mg"},{"bike_id":"981f91e1-12a3-4503-92b3-23c6cfcc12e8","system_id":"levelo_inurba_marseille","lat":43.29621,"lon":5.37154,"is_reserved":false,"is_disabled":false,"rental_uris":{"android":"levelo://app?vid=981f91e1-12a3-4503-92b3-23c6cfcc12e8","ios":"levelo://app?vid=981f91e1-12a3-4503-92b3-23c6cfcc12e8"},"vehicle_type_id":"4","last_reported":1742490567,"current_range_meters":12800,"station_id":"ce4bgnh2rcd13ifvqc0g","pricing_plan_id":"cebpf4jnsgd1na2vs0mg"},{"bike_id":"16476b8c-dbbc-41ed-a602-4b1d77eb6be9","system_id":"levelo_inurba_marseille","lat":43.2862,"lon":5.35101,"is_reserved":false,"is_disabled":false,"rental_uris":{"android":"levelo://app?vid=16476b8c-dbbc-41ed-a602-4b1d77eb6be9","ios":"levelo://app?vid=16476b8c-dbbc-41ed-a602-4b1d77eb6be9"},"vehicle_type_id":"4","last_reported":1742490567,"current_range_meters":13600,"station_id":"ce4bhch2rcd13ifvqeug","pricing_plan_id":"cebpf4jnsgd1na2vs0mg"},{"bike_id":"8e0bdb88-0fe0-4683-bf5f-846aad9115cf","system_id":"levelo_inurba_marseille","lat":43.31758,"lon":5.39014,"is_reserved":false,"is_disabled":false,"rental_uris":{"android":"levelo://app?vid=8e0bdb88-0fe0-4683-bf5f-846aad9115cf","ios":"levelo://app?vid=8e0bdb88-0fe0-4683-bf5f-846aad9115cf"},"vehicle_type_id":"4","last_reported":1742490567,"current_range_meters":12800,"station_id":"ce4bhqp2rcd13ifvqhng","pricing_plan_id":"cebpf4jnsgd1na2vs0mg"},{"bike_id":"fffba685-e696-4864-a482-983fb2b6491b","system_id":"levelo_inurba_marseille","lat":43.29608,"lon":5.38108,"is_reserved":false,"is_disabled":false,"rental_uris":{"android":"levelo://app?vid=fffba685-e696-4864-a482-983fb2b6491b","ios":"levelo://app?vid=fffba685-e696-4864-a482-983fb2b6491b"},"vehicle_type_id":"4","last_reported":1742490567,"current_range_meters":13600,"station_id":"ce4bgl12rcd13ifvqbo0","pricing_plan_id":"cebpf4jnsgd1na2vs0mg"},{"bike_id":"8a15fad4-85fd-44ed-851a-e2efbdb56e8f","system_id":"levelo_inurba_marseille","lat":43.28652,"lon":5.36338,"is_reserved":false,"is_disabled":false,"rental_uris":{"android":"levelo://app?vid=8a15fad4-85fd-44ed-851a-e2efbdb56e8f","ios":"levelo://app?vid=8a15fad4-85fd-44ed-851a-e2efbdb56e8f"},"vehicle_type_id":"4","last_reported":1742490567,"current_range_meters":14000,"station_id":"ce4bhah2rcd13ifvqej0","pricing_plan_id":"cebpf4jnsgd1na2vs0mg"},{"bike_id":"ae2c04f1-c350-4f35-8218-100dca39a0f6","system_id":"levelo_inurba_marseille","lat":43.28705,"lon":5.39973,"is_reserved":false,"is_disabled":false,"rental_uris":{"android":"levelo://app?vid=ae2c04f1-c350-4f35-8218-100dca39a0f6","ios":"levelo://app?vid=ae2c04f1-c350-4f35-8218-100dca39a0f6"},"vehicle_type_id":"4","last_reported":1742490567,"current_range_meters":14000,"station_id":"ce4bho92rcd13ifvqh3g","pricing_plan_id":"cebpf4jnsgd1na2vs0mg"},{"bike_id":"a65621eb-e83f-4297-8f17-f4726771054d","system_id":"levelo_inurba_marseille","lat":43.295203,"lon":5.39042,"is_reserved":false,"is_disabled":false,"rental_uris":{"android":"levelo://app?vid=a65621eb-e83f-4297-8f17-f4726771054d","ios":"levelo://app?vid=a65621eb-e83f-4297-8f17-f4726771054d"},"vehicle_type_id":"4","last_reported":1742490567,"current_range_meters":14000,"station_id":"ce4bh3p2rcd13ifvqdp0","pricing_plan_id":"cebpf4jnsgd1na2vs0mg"},{"bike_id":"3b4607c3-f79c-41fe-a61b-082f7b16d761","system_id":"levelo_inurba_marseille","lat":43.28421,"lon":5.34994,"is_reserved":false,"is_disabled":false,"rental_uris":{"android":"levelo://app?vid=3b4607c3-f79c-41fe-a61b-082f7b16d761","ios":"levelo://app?vid=3b4607c3-f79c-41fe-a61b-082f7b16d761"},"vehicle_type_id":"4","last_reported":1742490567,"current_range_meters":14000,"station_id":"ce4bhbh2rcd13ifvqepg","pricing_plan_id":"cebpf4jnsgd1na2vs0mg"},{"bike_id":"bf5d7bdb-65a8-4310-b955-6a76e2cbd7fe","system_id":"levelo_inurba_marseille","lat":43.33728,"lon":5.39183,"is_reserved":false,"is_disabled":false,"rental_uris":{"android":"levelo://app?vid=bf5d7bdb-65a8-4310-b955-6a76e2cbd7fe","ios":"levelo://app?vid=bf5d7bdb-65a8-4310-b955-6a76e2cbd7fe"},"vehicle_type_id":"4","last_reported":1742490567,"current_range_meters":14000,"station_id":"ce4bhr92rcd13ifvqhsg","pricing_plan_id":"cebpf4jnsgd1na2vs0mg"},{"bike_id":"a9c2b404-cec1-452c-ad38-3dc3432d3094","system_id":"levelo_inurba_marseille","lat":43.31392,"lon":5.37365,"is_reserved":false,"is_disabled":false,"rental_uris":{"android":"levelo://app?vid=a9c2b404-cec1-452c-ad38-3dc3432d3094","ios":"levelo://app?vid=a9c2b404-cec1-452c-ad38-3dc3432d3094"},"vehicle_type_id":"4","last_reported":1742490567,"current_range_meters":14000,"station_id":"","pricing_plan_id":"cebpf4jnsgd1na2vs0mg"},{"bike_id":"aba7a31c-d1db-4bb4-ba56-e84838fed699","system_id":"levelo_inurba_marseille","lat":43.24646,"lon":5.38892,"is_reserved":false,"is_disabled":false,"rental_uris":{"android":"levelo://app?vid=aba7a31c-d1db-4bb4-ba56-e84838fed699","ios":"levelo://app?vid=aba7a31c-d1db-4bb4-ba56-e84838fed699"},"vehicle_type_id":"4","last_reported":1742490567,"current_range_meters":14000,"station_id":"ce4bhg12rcd13ifvqf60","pricing_plan_id":"cebpf4jnsgd1na2vs0mg"},{"bike_id":"e22f5e34-57ac-4cb1-b2a6-eda12c5fa87e","system_id":"levelo_inurba_marseille","lat":43.29037,"lon":5.35921,"is_reserved":false,"is_disabled":false,"rental_uris":{"android":"levelo://app?vid=e22f5e34-57ac-4cb1-b2a6-eda12c5fa87e","ios":"levelo://app?vid=e22f5e34-57ac-4cb1-b2a6-eda12c5fa87e"},"vehicle_type_id":"4","last_reported":1742490567,"current_range_meters":14000,"station_id":"ce4bha92rcd13ifvqeg0","pricing_plan_id":"cebpf4jnsgd1na2vs0mg"},{"bike_id":"f65f39dc-bc9b-4859-bb9f-da0aa05aeb93","system_id":"levelo_inurba_marseille","lat":43.27836,"lon":5.39202,"is_reserved":false,"is_disabled":false,"rental_uris":{"android":"levelo://app?vid=f65f39dc-bc9b-4859-bb9f-da0aa05aeb93","ios":"levelo://app?vid=f65f39dc-bc9b-4859-bb9f-da0aa05aeb93"},"vehicle_type_id":"4","last_reported":1742490567,"current_range_meters":14000,"station_id":"ce4bhjp2rcd13ifvqga0","pricing_plan_id":"cebpf4jnsgd1na2vs0mg"},{"bike_id":"39036aae-8f0c-4ed2-8157-a35d0a4f55ee","system_id":"levelo_inurba_marseille","lat":43.23962,"lon":5.36627,"is_reserved":false,"is_disabled":false,"rental_uris":{"android":"levelo://app?vid=39036aae-8f0c-4ed2-8157-a35d0a4f55ee","ios":"levelo://app?vid=39036aae-8f0c-4ed2-8157-a35d0a4f55ee"},"vehicle_type_id":"4","last_reported":1742490567,"current_range_meters":14400,"station_id":"ce4bhi12rcd13ifvqfp0","pricing_plan_id":"cebpf4jnsgd1na2vs0mg"},{"bike_id":"6c45e6f5-2aee-4298-90f3-a0fdc7724ae1","system_id":"levelo_inurba_marseille","lat":43.29193,"lon":5.35803,"is_reserved":false,"is_disabled":false,"rental_uris":{"android":"levelo://app?vid=6c45e6f5-2aee-4298-90f3-a0fdc7724ae1","ios":"levelo://app?vid=6c45e6f5-2aee-4298-90f3-a0fdc7724ae1"},"vehicle_type_id":"4","last_reported":1742490567,"current_range_meters":14400,"station_id":"ce4bhb12rcd13ifvqel0","pricing_plan_id":"cebpf4jnsgd1na2vs0mg"},{"bike_id":"ac5c818b-a735-4188-aa63-d08b7cb0881d","system_id":"levelo_inurba_marseille","lat":43.298591,"lon":5.397272,"is_reserved":false,"is_disabled":false,"rental_uris":{"android":"levelo://app?vid=ac5c818b-a735-4188-aa63-d08b7cb0881d","ios":"levelo://app?vid=ac5c818b-a735-4188-aa63-d08b7cb0881d"},"vehicle_type_id":"4","last_reported":1742490567,"current_range_meters":14800,"station_id":"ce4bhb12rcd13ifvqem0","pricing_plan_id":"cebpf4jnsgd1na2vs0mg"},{"bike_id":"0cbe6077-7282-4027-987d-f3c53029f326","system_id":"levelo_inurba_marseille","lat":43.33027,"lon":5.39042,"is_reserved":false,"is_disabled":false,"rental_uris":{"android":"levelo://app?vid=0cbe6077-7282-4027-987d-f3c53029f326","ios":"levelo://app?vid=0cbe6077-7282-4027-987d-f3c53029f326"},"vehicle_type_id":"4","last_reported":1742490567,"current_range_meters":14800,"station_id":"ce4bhr92rcd13ifvqhrg","pricing_plan_id":"cebpf4jnsgd1na2vs0mg"},{"bike_id":"a81e7547-55d7-4c1c-a724-2c96fce552a8","system_id":"levelo_inurba_marseille","lat":43.23961,"lon":5.36639,"is_reserved":false,"is_disabled":false,"rental_uris":{"android":"levelo://app?vid=a81e7547-55d7-4c1c-a724-2c96fce552a8","ios":"levelo://app?vid=a81e7547-55d7-4c1c-a724-2c96fce552a8"},"vehicle_type_id":"4","last_reported":1742490567,"current_range_meters":14800,"station_id":"ce4bhi12rcd13ifvqfp0","pricing_plan_id":"cebpf4jnsgd1na2vs0mg"},{"bike_id":"806806e1-b2b5-444d-bdfc-bf002071a30c","system_id":"levelo_inurba_marseille","lat":43.31748,"lon":5.3686,"is_reserved":false,"is_disabled":false,"rental_uris":{"android":"levelo://app?vid=806806e1-b2b5-444d-bdfc-bf002071a30c","ios":"levelo://app?vid=806806e1-b2b5-444d-bdfc-bf002071a30c"},"vehicle_type_id":"4","last_reported":1742490567,"current_range_meters":14800,"station_id":"","pricing_plan_id":"cebpf4jnsgd1na2vs0mg"},{"bike_id":"d02c528f-2b6d-49ab-8967-297dc0f8c43f","system_id":"levelo_inurba_marseille","lat":43.274053,"lon":5.389584,"is_reserved":false,"is_disabled":false,"rental_uris":{"android":"levelo://app?vid=d02c528f-2b6d-49ab-8967-297dc0f8c43f","ios":"levelo://app?vid=d02c528f-2b6d-49ab-8967-297dc0f8c43f"},"vehicle_type_id":"4","last_reported":1742490567,"current_range_meters":15200,"station_id":"ce4bhi12rcd13ifvqfq0","pricing_plan_id":"cebpf4jnsgd1na2vs0mg"},{"bike_id":"aa8a7189-6baa-487f-8bfb-e4cffe522e56","system_id":"levelo_inurba_marseille","lat":43.26798,"lon":5.394121,"is_reserved":false,"is_disabled":false,"rental_uris":{"android":"levelo://app?vid=aa8a7189-6baa-487f-8bfb-e4cffe522e56","ios":"levelo://app?vid=aa8a7189-6baa-487f-8bfb-e4cffe522e56"},"vehicle_type_id":"4","last_reported":1742490567,"current_range_meters":15200,"station_id":"ce4bh692rcd13ifvqea0","pricing_plan_id":"cebpf4jnsgd1na2vs0mg"},{"bike_id":"ee9c0f6a-3789-4165-bd37-7dcfaef29a64","system_id":"levelo_inurba_marseille","lat":43.262,"lon":5.37932,"is_reserved":false,"is_disabled":false,"rental_uris":{"android":"levelo://app?vid=ee9c0f6a-3789-4165-bd37-7dcfaef29a64","ios":"levelo://app?vid=ee9c0f6a-3789-4165-bd37-7dcfaef29a64"},"vehicle_type_id":"4","last_reported":1742490567,"current_range_meters":15200,"station_id":"ce4bhjp2rcd13ifvqg90","pricing_plan_id":"cebpf4jnsgd1na2vs0mg"},{"bike_id":"fe48c9d1-25da-4f4f-8292-f57135409fc3","system_id":"levelo_inurba_marseille","lat":43.28037,"lon":5.36949,"is_reserved":false,"is_disabled":false,"rental_uris":{"android":"levelo://app?vid=fe48c9d1-25da-4f4f-8292-f57135409fc3","ios":"levelo://app?vid=fe48c9d1-25da-4f4f-8292-f57135409fc3"},"vehicle_type_id":"4","last_reported":1742490567,"current_range_meters":15200,"station_id":"ce4bha12rcd13ifvqef0","pricing_plan_id":"cebpf4jnsgd1na2vs0mg"},{"bike_id":"90772884-6ed2-4ff6-9608-95d875aa8b91","system_id":"levelo_inurba_marseille","lat":43.285389,"lon":5.383863,"is_reserved":false,"is_disabled":false,"rental_uris":{"android":"levelo://app?vid=90772884-6ed2-4ff6-9608-95d875aa8b91","ios":"levelo://app?vid=90772884-6ed2-4ff6-9608-95d875aa8b91"},"vehicle_type_id":"4","last_reported":1742490567,"current_range_meters":15200,"station_id":"ce4bh512rcd13ifvqe3g","pricing_plan_id":"cebpf4jnsgd1na2vs0mg"},{"bike_id":"9b513519-6571-4512-9426-8178711eafb7","system_id":"levelo_inurba_marseille","lat":43.29432,"lon":5.3975,"is_reserved":false,"is_disabled":true,"rental_uris":{"android":"levelo://app?vid=9b513519-6571-4512-9426-8178711eafb7","ios":"levelo://app?vid=9b513519-6571-4512-9426-8178711eafb7"},"vehicle_type_id":"4","last_reported":1742490567,"current_range_meters":15200,"station_id":"ce4bh3h2rcd13ifvqdo0","pricing_plan_id":"cebpf4jnsgd1na2vs0mg"},{"bike_id":"aca85f7e-b8a2-4870-b39b-b288e2417b85","system_id":"levelo_inurba_marseille","lat":43.32477,"lon":5.36562,"is_reserved":false,"is_disabled":false,"rental_uris":{"android":"levelo://app?vid=aca85f7e-b8a2-4870-b39b-b288e2417b85","ios":"levelo://app?vid=aca85f7e-b8a2-4870-b39b-b288e2417b85"},"vehicle_type_id":"4","last_reported":1742490567,"current_range_meters":15200,"station_id":"ce4bhs12rcd13ifvqhvg","pricing_plan_id":"cebpf4jnsgd1na2vs0mg"},{"bike_id":"d466a903-6071-4e59-b1ef-4ffaa43c5848","system_id":"levelo_inurba_marseille","lat":43.28468,"lon":5.35877,"is_reserved":false,"is_disabled":false,"rental_uris":{"android":"levelo://app?vid=d466a903-6071-4e59-b1ef-4ffaa43c5848","ios":"levelo://app?vid=d466a903-6071-4e59-b1ef-4ffaa43c5848"},"vehicle_type_id":"4","last_reported":1742490567,"current_range_meters":16000,"station_id":"ce4bhah2rcd13ifvqei0","pricing_plan_id":"cebpf4jnsgd1na2vs0mg"},{"bike_id":"c7d8d5fa-4e4d-44ef-8818-0b42bfe2d8e3","system_id":"levelo_inurba_marseille","lat":43.24652,"lon":5.38892,"is_reserved":false,"is_disabled":false,"rental_uris":{"android":"levelo://app?vid=c7d8d5fa-4e4d-44ef-8818-0b42bfe2d8e3","ios":"levelo://app?vid=c7d8d5fa-4e4d-44ef-8818-0b42bfe2d8e3"},"vehicle_type_id":"4","last_reported":1742490567,"current_range_meters":16000,"station_id":"ce4bhg12rcd13ifvqf60","pricing_plan_id":"cebpf4jnsgd1na2vs0mg"},{"bike_id":"141e4538-1f64-4f7a-83b9-c8f36a5d0fbc","system_id":"levelo_inurba_marseille","lat":43.24158,"lon":5.36395,"is_reserved":false,"is_disabled":false,"rental_uris":{"android":"levelo://app?vid=141e4538-1f64-4f7a-83b9-c8f36a5d0fbc","ios":"levelo://app?vid=141e4538-1f64-4f7a-83b9-c8f36a5d0fbc"},"vehicle_type_id":"4","last_reported":1742490567,"current_range_meters":16000,"station_id":"cpo36qri1sfpv3e86is0","pricing_plan_id":"cebpf4jnsgd1na2vs0mg"},{"bike_id":"70546797-1d75-4a7f-82b9-c05161c15bb4","system_id":"levelo_inurba_marseille","lat":43.33039,"lon":5.39047,"is_reserved":false,"is_disabled":false,"rental_uris":{"android":"levelo://app?vid=70546797-1d75-4a7f-82b9-c05161c15bb4","ios":"levelo://app?vid=70546797-1d75-4a7f-82b9-c05161c15bb4"},"vehicle_type_id":"4","last_reported":1742490567,"current_range_meters":16000,"station_id":"ce4bhr92rcd13ifvqhrg","pricing_plan_id":"cebpf4jnsgd1na2vs0mg"},{"bike_id":"15f8149b-b668-4cfb-b1be-88bd852513af","system_id":"levelo_inurba_marseille","lat":43.29441,"lon":5.39744,"is_reserved":false,"is_disabled":false,"rental_uris":{"android":"levelo://app?vid=15f8149b-b668-4cfb-b1be-88bd852513af","ios":"levelo://app?vid=15f8149b-b668-4cfb-b1be-88bd852513af"},"vehicle_type_id":"4","last_reported":1742490567,"current_range_meters":16000,"station_id":"ce4bh3h2rcd13ifvqdo0","pricing_plan_id":"cebpf4jnsgd1na2vs0mg"},{"bike_id":"4176b6ec-1c17-4647-9235-8dca6332785b","system_id":"levelo_inurba_marseille","lat":43.3149,"lon":5.37299,"is_reserved":false,"is_disabled":false,"rental_uris":{"android":"levelo://app?vid=4176b6ec-1c17-4647-9235-8dca6332785b","ios":"levelo://app?vid=4176b6ec-1c17-4647-9235-8dca6332785b"},"vehicle_type_id":"4","last_reported":1742490567,"current_range_meters":16000,"station_id":"ce4bgt12rcd13ifvqcd0","pricing_plan_id":"cebpf4jnsgd1na2vs0mg"},{"bike_id":"ec1c8476-096c-4a46-8e67-8b1db798f877","system_id":"levelo_inurba_marseille","lat":43.29057,"lon":5.37174,"is_reserved":false,"is_disabled":false,"rental_uris":{"android":"levelo://app?vid=ec1c8476-096c-4a46-8e67-8b1db798f877","ios":"levelo://app?vid=ec1c8476-096c-4a46-8e67-8b1db798f877"},"vehicle_type_id":"4","last_reported":1742490567,"current_range_meters":16000,"station_id":"ce4bh5p2rcd13ifvqe4g","pricing_plan_id":"cebpf4jnsgd1na2vs0mg"},{"bike_id":"79a8e1ef-3dd7-426c-916a-53f1fd56515f","system_id":"levelo_inurba_marseille","lat":43.27374,"lon":5.36263,"is_reserved":false,"is_disabled":false,"rental_uris":{"android":"levelo://app?vid=79a8e1ef-3dd7-426c-916a-53f1fd56515f","ios":"levelo://app?vid=79a8e1ef-3dd7-426c-916a-53f1fd56515f"},"vehicle_type_id":"4","last_reported":1742490567,"current_range_meters":16000,"station_id":"ce4bhbh2rcd13ifvqeo0","pricing_plan_id":"cebpf4jnsgd1na2vs0mg"},{"bike_id":"53e438fa-dedb-4d74-83bd-4285ba9df014","system_id":"levelo_inurba_marseille","lat":43.26035,"lon":5.41751,"is_reserved":false,"is_disabled":false,"rental_uris":{"android":"levelo://app?vid=53e438fa-dedb-4d74-83bd-4285ba9df014","ios":"levelo://app?vid=53e438fa-dedb-4d74-83bd-4285ba9df014"},"vehicle_type_id":"4","last_reported":1742490567,"current_range_meters":16000,"station_id":"","pricing_plan_id":"cebpf4jnsgd1na2vs0mg"},{"bike_id":"addc9e43-cb17-41f3-a0d8-a264d0dc9a57","system_id":"levelo_inurba_marseille","lat":43.34872,"lon":5.38154,"is_reserved":false,"is_disabled":false,"rental_uris":{"android":"levelo://app?vid=addc9e43-cb17-41f3-a0d8-a264d0dc9a57","ios":"levelo://app?vid=addc9e43-cb17-41f3-a0d8-a264d0dc9a57"},"vehicle_type_id":"4","last_reported":1742490567,"current_range_meters":16000,"station_id":"","pricing_plan_id":"cebpf4jnsgd1na2vs0mg"},{"bike_id":"8c3c6e64-a224-4b4f-b4f3-712e20d75b68","system_id":"levelo_inurba_marseille","lat":43.29874,"lon":5.39733,"is_reserved":false,"is_disabled":false,"rental_uris":{"android":"levelo://app?vid=8c3c6e64-a224-4b4f-b4f3-712e20d75b68","ios":"levelo://app?vid=8c3c6e64-a224-4b4f-b4f3-712e20d75b68"},"vehicle_type_id":"4","last_reported":1742490567,"current_range_meters":16000,"station_id":"ce4bh0h2rcd13ifvqd50","pricing_plan_id":"cebpf4jnsgd1na2vs0mg"},{"bike_id":"85e55a5f-6ef7-471c-bcc6-9175c89dc9de","system_id":"levelo_inurba_marseille","lat":43.31494,"lon":5.37309,"is_reserved":false,"is_disabled":false,"rental_uris":{"android":"levelo://app?vid=85e55a5f-6ef7-471c-bcc6-9175c89dc9de","ios":"levelo://app?vid=85e55a5f-6ef7-471c-bcc6-9175c89dc9de"},"vehicle_type_id":"4","last_reported":1742490567,"current_range_meters":16000,"station_id":"ce4bgt12rcd13ifvqcd0","pricing_plan_id":"cebpf4jnsgd1na2vs0mg"},{"bike_id":"a06df953-ee24-4eee-acd9-cfb685fc1c62","system_id":"levelo_inurba_marseille","lat":43.31423,"lon":5.37459,"is_reserved":false,"is_disabled":false,"rental_uris":{"android":"levelo://app?vid=a06df953-ee24-4eee-acd9-cfb685fc1c62","ios":"levelo://app?vid=a06df953-ee24-4eee-acd9-cfb685fc1c62"},"vehicle_type_id":"4","last_reported":1742490567,"current_range_meters":16400,"station_id":"","pricing_plan_id":"cebpf4jnsgd1na2vs0mg"},{"bike_id":"509868b2-1e6b-46c7-87aa-b450badfb556","system_id":"levelo_inurba_marseille","lat":43.28441,"lon":5.39202,"is_reserved":false,"is_disabled":false,"rental_uris":{"android":"levelo://app?vid=509868b2-1e6b-46c7-87aa-b450badfb556","ios":"levelo://app?vid=509868b2-1e6b-46c7-87aa-b450badfb556"},"vehicle_type_id":"4","last_reported":1742490567,"current_range_meters":16400,"station_id":"ce4bhoh2rcd13ifvqh5g","pricing_plan_id":"cebpf4jnsgd1na2vs0mg"},{"bike_id":"9f1c3e5c-869d-4869-b7c6-0c926f2da6bf","system_id":"levelo_inurba_marseille","lat":43.28371,"lon":5.39806,"is_reserved":false,"is_disabled":false,"rental_uris":{"android":"levelo://app?vid=9f1c3e5c-869d-4869-b7c6-0c926f2da6bf","ios":"levelo://app?vid=9f1c3e5c-869d-4869-b7c6-0c926f2da6bf"},"vehicle_type_id":"4","last_reported":1742490567,"current_range_meters":16400,"station_id":"","pricing_plan_id":"cebpf4jnsgd1na2vs0mg"},{"bike_id":"96029180-54ef-4379-bfaf-7e88c91090c2","system_id":"levelo_inurba_marseille","lat":43.30886,"lon":5.39651,"is_reserved":false,"is_disabled":false,"rental_uris":{"android":"levelo://app?vid=96029180-54ef-4379-bfaf-7e88c91090c2","ios":"levelo://app?vid=96029180-54ef-4379-bfaf-7e88c91090c2"},"vehicle_type_id":"4","last_reported":1742490567,"current_range_meters":16400,"station_id":"ce4bh012rcd13ifvqcv0","pricing_plan_id":"cebpf4jnsgd1na2vs0mg"},{"bike_id":"bf5b137c-c387-4f3d-b453-d930c12ee87d","system_id":"levelo_inurba_marseille","lat":43.27839,"lon":5.39208,"is_reserved":false,"is_disabled":false,"rental_uris":{"android":"levelo://app?vid=bf5b137c-c387-4f3d-b453-d930c12ee87d","ios":"levelo://app?vid=bf5b137c-c387-4f3d-b453-d930c12ee87d"},"vehicle_type_id":"4","last_reported":1742490567,"current_range_meters":16400,"station_id":"ce4bhjp2rcd13ifvqga0","pricing_plan_id":"cebpf4jnsgd1na2vs0mg"},{"bike_id":"c2e83226-9eac-42ab-a096-f2b99303ffdf","system_id":"levelo_inurba_marseille","lat":43.26783,"lon":5.39419,"is_reserved":false,"is_disabled":true,"rental_uris":{"android":"levelo://app?vid=c2e83226-9eac-42ab-a096-f2b99303ffdf","ios":"levelo://app?vid=c2e83226-9eac-42ab-a096-f2b99303ffdf"},"vehicle_type_id":"4","last_reported":1742490567,"current_range_meters":16400,"station_id":"ce4bhh12rcd13ifvqfg0","pricing_plan_id":"cebpf4jnsgd1na2vs0mg"},{"bike_id":"fbbb3028-b15b-4750-98dc-ac90972ecc9b","system_id":"levelo_inurba_marseille","lat":43.32105,"lon":5.368,"is_reserved":false,"is_disabled":false,"rental_uris":{"android":"levelo://app?vid=fbbb3028-b15b-4750-98dc-ac90972ecc9b","ios":"levelo://app?vid=fbbb3028-b15b-4750-98dc-ac90972ecc9b"},"vehicle_type_id":"4","last_reported":1742490567,"current_range_meters":16400,"station_id":"ce4bhrh2rcd13ifvqhug","pricing_plan_id":"cebpf4jnsgd1na2vs0mg"},{"bike_id":"3e26cbf8-ea7c-4fbc-a23e-f98f8f0d5728","system_id":"levelo_inurba_marseille","lat":43.27381,"lon":5.36258,"is_reserved":false,"is_disabled":false,"rental_uris":{"android":"levelo://app?vid=3e26cbf8-ea7c-4fbc-a23e-f98f8f0d5728","ios":"levelo://app?vid=3e26cbf8-ea7c-4fbc-a23e-f98f8f0d5728"},"vehicle_type_id":"4","last_reported":1742490567,"current_range_meters":16400,"station_id":"ce4bhbh2rcd13ifvqeo0","pricing_plan_id":"cebpf4jnsgd1na2vs0mg"},{"bike_id":"cf1dd86a-3965-4bed-b42b-61973a6002f1","system_id":"levelo_inurba_marseille","lat":43.28731,"lon":5.36093,"is_reserved":false,"is_disabled":false,"rental_uris":{"android":"levelo://app?vid=cf1dd86a-3965-4bed-b42b-61973a6002f1","ios":"levelo://app?vid=cf1dd86a-3965-4bed-b42b-61973a6002f1"},"vehicle_type_id":"4","last_reported":1742490567,"current_range_meters":16400,"station_id":"cki0cbj6b192h4jlfktg","pricing_plan_id":"cebpf4jnsgd1na2vs0mg"},{"bike_id":"746d4203-6c7c-4970-b9c7-c56a66f23264","system_id":"levelo_inurba_marseille","lat":43.33047,"lon":5.38896,"is_reserved":false,"is_disabled":false,"rental_uris":{"android":"levelo://app?vid=746d4203-6c7c-4970-b9c7-c56a66f23264","ios":"levelo://app?vid=746d4203-6c7c-4970-b9c7-c56a66f23264"},"vehicle_type_id":"4","last_reported":1742490567,"current_range_meters":16400,"station_id":"","pricing_plan_id":"cebpf4jnsgd1na2vs0mg"},{"bike_id":"09e54730-3ad2-419a-9317-3cefe8196151","system_id":"levelo_inurba_marseille","lat":43.27368,"lon":5.36248,"is_reserved":false,"is_disabled":false,"rental_uris":{"android":"levelo://app?vid=09e54730-3ad2-419a-9317-3cefe8196151","ios":"levelo://app?vid=09e54730-3ad2-419a-9317-3cefe8196151"},"vehicle_type_id":"4","last_reported":1742490567,"current_range_meters":16800,"station_id":"ce4bhbh2rcd13ifvqeo0","pricing_plan_id":"cebpf4jnsgd1na2vs0mg"},{"bike_id":"c5c72dbc-bdee-478c-8ffc-2a91e1c31a40","system_id":"levelo_inurba_marseille","lat":43.30156,"lon":5.3855,"is_reserved":false,"is_disabled":false,"rental_uris":{"android":"levelo://app?vid=c5c72dbc-bdee-478c-8ffc-2a91e1c31a40","ios":"levelo://app?vid=c5c72dbc-bdee-478c-8ffc-2a91e1c31a40"},"vehicle_type_id":"4","last_reported":1742490567,"current_range_meters":16800,"station_id":"","pricing_plan_id":"cebpf4jnsgd1na2vs0mg"},{"bike_id":"2f608053-a475-4cd0-9217-fb6dc09de981","system_id":"levelo_inurba_marseille","lat":43.24655,"lon":5.38898,"is_reserved":false,"is_disabled":false,"rental_uris":{"android":"levelo://app?vid=2f608053-a475-4cd0-9217-fb6dc09de981","ios":"levelo://app?vid=2f608053-a475-4cd0-9217-fb6dc09de981"},"vehicle_type_id":"4","last_reported":1742490567,"current_range_meters":16800,"station_id":"ce4bhg12rcd13ifvqf60","pricing_plan_id":"cebpf4jnsgd1na2vs0mg"},{"bike_id":"52c16ac5-3447-4053-956c-78fc8bf0dc7c","system_id":"levelo_inurba_marseille","lat":43.32364,"lon":5.36765,"is_reserved":false,"is_disabled":false,"rental_uris":{"android":"levelo://app?vid=52c16ac5-3447-4053-956c-78fc8bf0dc7c","ios":"levelo://app?vid=52c16ac5-3447-4053-956c-78fc8bf0dc7c"},"vehicle_type_id":"4","last_reported":1742490567,"current_range_meters":16800,"station_id":"ce4bhsh2rcd13ifvqi2g","pricing_plan_id":"cebpf4jnsgd1na2vs0mg"},{"bike_id":"15e97b7e-3439-4fed-8f2d-c5c541c8b943","system_id":"levelo_inurba_marseille","lat":43.34145,"lon":5.40904,"is_reserved":false,"is_disabled":false,"rental_uris":{"android":"levelo://app?vid=15e97b7e-3439-4fed-8f2d-c5c541c8b943","ios":"levelo://app?vid=15e97b7e-3439-4fed-8f2d-c5c541c8b943"},"vehicle_type_id":"4","last_reported":1742490567,"current_range_meters":16800,"station_id":"ce4bhqh2rcd13ifvqhlg","pricing_plan_id":"cebpf4jnsgd1na2vs0mg"},{"bike_id":"65de4fae-b1bd-4f83-8545-86ae0c068903","system_id":"levelo_inurba_marseille","lat":43.31176,"lon":5.38711,"is_reserved":false,"is_disabled":false,"rental_uris":{"android":"levelo://app?vid=65de4fae-b1bd-4f83-8545-86ae0c068903","ios":"levelo://app?vid=65de4fae-b1bd-4f83-8545-86ae0c068903"},"vehicle_type_id":"4","last_reported":1742490567,"current_range_meters":16800,"station_id":"ce4bgv12rcd13ifvqcp0","pricing_plan_id":"cebpf4jnsgd1na2vs0mg"},{"bike_id":"3a4326f5-9012-4f9a-808f-de607d07a3e8","system_id":"levelo_inurba_marseille","lat":43.28571,"lon":5.39492,"is_reserved":false,"is_disabled":false,"rental_uris":{"android":"levelo://app?vid=3a4326f5-9012-4f9a-808f-de607d07a3e8","ios":"levelo://app?vid=3a4326f5-9012-4f9a-808f-de607d07a3e8"},"vehicle_type_id":"4","last_reported":1742490567,"current_range_meters":16800,"station_id":"ce4bh292rcd13ifvqdg0","pricing_plan_id":"cebpf4jnsgd1na2vs0mg"},{"bike_id":"64312d82-9e8b-474f-9d4e-50106c1d05a8","system_id":"levelo_inurba_marseille","lat":43.23191,"lon":5.39987,"is_reserved":false,"is_disabled":false,"rental_uris":{"android":"levelo://app?vid=64312d82-9e8b-474f-9d4e-50106c1d05a8","ios":"levelo://app?vid=64312d82-9e8b-474f-9d4e-50106c1d05a8"},"vehicle_type_id":"4","last_reported":1742490567,"current_range_meters":16800,"station_id":"ce4bhn12rcd13ifvqgqg","pricing_plan_id":"cebpf4jnsgd1na2vs0mg"},{"bike_id":"e2fbfd49-3aa6-44d0-902f-637843d7c1c2","system_id":"levelo_inurba_marseille","lat":43.2872,"lon":5.36091,"is_reserved":false,"is_disabled":false,"rental_uris":{"android":"levelo://app?vid=e2fbfd49-3aa6-44d0-902f-637843d7c1c2","ios":"levelo://app?vid=e2fbfd49-3aa6-44d0-902f-637843d7c1c2"},"vehicle_type_id":"4","last_reported":1742490567,"current_range_meters":17200,"station_id":"cki0cbj6b192h4jlfktg","pricing_plan_id":"cebpf4jnsgd1na2vs0mg"},{"bike_id":"d4332e0a-0e3f-4d72-bc90-3b38a5de8c11","system_id":"levelo_inurba_marseille","lat":43.2957,"lon":5.39968,"is_reserved":false,"is_disabled":false,"rental_uris":{"android":"levelo://app?vid=d4332e0a-0e3f-4d72-bc90-3b38a5de8c11","ios":"levelo://app?vid=d4332e0a-0e3f-4d72-bc90-3b38a5de8c11"},"vehicle_type_id":"4","last_reported":1742490567,"current_range_meters":17200,"station_id":"ce4bh312rcd13ifvqdj0","pricing_plan_id":"cebpf4jnsgd1na2vs0mg"},{"bike_id":"0fb54bf1-2224-4fef-b967-32b447b8fc33","system_id":"levelo_inurba_marseille","lat":43.24653,"lon":5.389,"is_reserved":false,"is_disabled":false,"rental_uris":{"android":"levelo://app?vid=0fb54bf1-2224-4fef-b967-32b447b8fc33","ios":"levelo://app?vid=0fb54bf1-2224-4fef-b967-32b447b8fc33"},"vehicle_type_id":"4","last_reported":1742490567,"current_range_meters":17200,"station_id":"ce4bhg12rcd13ifvqf60","pricing_plan_id":"cebpf4jnsgd1na2vs0mg"},{"bike_id":"9e3d55ff-203d-46ab-99fa-69313c0f2ab9","system_id":"levelo_inurba_marseille","lat":43.30926,"lon":5.40151,"is_reserved":false,"is_disabled":false,"rental_uris":{"android":"levelo://app?vid=9e3d55ff-203d-46ab-99fa-69313c0f2ab9","ios":"levelo://app?vid=9e3d55ff-203d-46ab-99fa-69313c0f2ab9"},"vehicle_type_id":"4","last_reported":1742490567,"current_range_meters":17200,"station_id":"ce4bgvp2rcd13ifvqct0","pricing_plan_id":"cebpf4jnsgd1na2vs0mg"},{"bike_id":"15ecf1da-a7e5-4f8a-a83b-5761a6e31ae3","system_id":"levelo_inurba_marseille","lat":43.23203,"lon":5.35537,"is_reserved":false,"is_disabled":false,"rental_uris":{"android":"levelo://app?vid=15ecf1da-a7e5-4f8a-a83b-5761a6e31ae3","ios":"levelo://app?vid=15ecf1da-a7e5-4f8a-a83b-5761a6e31ae3"},"vehicle_type_id":"4","last_reported":1742490567,"current_range_meters":17200,"station_id":"ce4bhu92rcd13ifvqi70","pricing_plan_id":"cebpf4jnsgd1na2vs0mg"},{"bike_id":"d0134844-d2f0-48be-82f7-812cd298d9d1","system_id":"levelo_inurba_marseille","lat":43.26567,"lon":5.39006,"is_reserved":false,"is_disabled":false,"rental_uris":{"android":"levelo://app?vid=d0134844-d2f0-48be-82f7-812cd298d9d1","ios":"levelo://app?vid=d0134844-d2f0-48be-82f7-812cd298d9d1"},"vehicle_type_id":"4","last_reported":1742490567,"current_range_meters":17200,"station_id":"ce4bhe12rcd13ifvqf30","pricing_plan_id":"cebpf4jnsgd1na2vs0mg"},{"bike_id":"8d0d2abd-6630-4f94-bca2-55b42196737d","system_id":"levelo_inurba_marseille","lat":43.28681,"lon":5.36358,"is_reserved":false,"is_disabled":false,"rental_uris":{"android":"levelo://app?vid=8d0d2abd-6630-4f94-bca2-55b42196737d","ios":"levelo://app?vid=8d0d2abd-6630-4f94-bca2-55b42196737d"},"vehicle_type_id":"4","last_reported":1742490567,"current_range_meters":17200,"station_id":"ce4bhah2rcd13ifvqej0","pricing_plan_id":"cebpf4jnsgd1na2vs0mg"},{"bike_id":"5c49b038-ec6f-4efc-b577-99d999f73244","system_id":"levelo_inurba_marseille","lat":43.29269,"lon":5.38432,"is_reserved":false,"is_disabled":false,"rental_uris":{"android":"levelo://app?vid=5c49b038-ec6f-4efc-b577-99d999f73244","ios":"levelo://app?vid=5c49b038-ec6f-4efc-b577-99d999f73244"},"vehicle_type_id":"4","last_reported":1742490567,"current_range_meters":17200,"station_id":"ce4bh692rcd13ifvqea0","pricing_plan_id":"cebpf4jnsgd1na2vs0mg"},{"bike_id":"d13bc149-8900-4797-ad25-d49bb4ecad81","system_id":"levelo_inurba_marseille","lat":43.29276,"lon":5.37637,"is_reserved":false,"is_disabled":false,"rental_uris":{"android":"levelo://app?vid=d13bc149-8900-4797-ad25-d49bb4ecad81","ios":"levelo://app?vid=d13bc149-8900-4797-ad25-d49bb4ecad81"},"vehicle_type_id":"4","last_reported":1742490567,"current_range_meters":17200,"station_id":"ce4bgi12rcd13ifvqb80","pricing_plan_id":"cebpf4jnsgd1na2vs0mg"},{"bike_id":"43e6c561-2764-4767-bcb2-f6c0b05599bb","system_id":"levelo_inurba_marseille","lat":43.33043,"lon":5.39051,"is_reserved":false,"is_disabled":false,"rental_uris":{"android":"levelo://app?vid=43e6c561-2764-4767-bcb2-f6c0b05599bb","ios":"levelo://app?vid=43e6c561-2764-4767-bcb2-f6c0b05599bb"},"vehicle_type_id":"4","last_reported":1742490567,"current_range_meters":17600,"station_id":"ce4bhr92rcd13ifvqhrg","pricing_plan_id":"cebpf4jnsgd1na2vs0mg"},{"bike_id":"c93cf7a9-5637-4547-9cda-7e71ef8a7ce0","system_id":"levelo_inurba_marseille","lat":43.2871,"lon":5.39981,"is_reserved":false,"is_disabled":false,"rental_uris":{"android":"levelo://app?vid=c93cf7a9-5637-4547-9cda-7e71ef8a7ce0","ios":"levelo://app?vid=c93cf7a9-5637-4547-9cda-7e71ef8a7ce0"},"vehicle_type_id":"4","last_reported":1742490567,"current_range_meters":17600,"station_id":"ce4bho92rcd13ifvqh3g","pricing_plan_id":"cebpf4jnsgd1na2vs0mg"},{"bike_id":"2a9ad154-acc3-400e-b52f-18973c158b6d","system_id":"levelo_inurba_marseille","lat":43.24168,"lon":5.36396,"is_reserved":false,"is_disabled":false,"rental_uris":{"android":"levelo://app?vid=2a9ad154-acc3-400e-b52f-18973c158b6d","ios":"levelo://app?vid=2a9ad154-acc3-400e-b52f-18973c158b6d"},"vehicle_type_id":"4","last_reported":1742490567,"current_range_meters":17600,"station_id":"cpo36qri1sfpv3e86is0","pricing_plan_id":"cebpf4jnsgd1na2vs0mg"},{"bike_id":"f37300f8-1eea-42d1-953c-f73a148affc6","system_id":"levelo_inurba_marseille","lat":43.2848,"lon":5.38428,"is_reserved":false,"is_disabled":false,"rental_uris":{"android":"levelo://app?vid=f37300f8-1eea-42d1-953c-f73a148affc6","ios":"levelo://app?vid=f37300f8-1eea-42d1-953c-f73a148affc6"},"vehicle_type_id":"4","last_reported":1742490567,"current_range_meters":17600,"station_id":"ce4bh512rcd13ifvqe3g","pricing_plan_id":"cebpf4jnsgd1na2vs0mg"},