{"last_updated":1724861410,"ttl":30,"version":"2.2","data":{"bikes":[{"bike_id":"346dd716-e5cf-48bf-aecd-0ceee7b7c1eb","system_id":"levelo_inurba_marseille","lat":43.312239,"lon":5.368562,"is_reserved":false,"is_disabled":false,"rental_uris":{"android":"levelo://app?vid=346dd716-e5cf-48bf-aecd-0ceee7b7c1eb","ios":"levelo://app?vid=346dd716-e5cf-48bf-aecd-0ceee7b7c1eb"},"vehicle_type_id":"4","last_reported":1724861411,"current_range_meters":21600,"station_id":"ce4bgl92rcd13ifvqbq0","pricing_plan_id":"cebpf4jnsgd1na2vs0mg"},{"bike_id":"7ca76f5e-ef74-49a9-a538-a839ec1a71ff","system_id":"levelo_inurba_marseille","lat":43.314811,"lon":5.373103,"is_reserved":false,"is_disabled":false,"rental_uris":{"android":"levelo://app?vid=7ca76f5e-ef74-49a9-a538-a839ec1a71ff","ios":"levelo://app?vid=7ca76f5e-ef74-49a9-a538-a839ec1a71ff"},"vehicle_type_id":"4","last_reported":1724861411,"current_range_meters":16400,"station_id":"ce4bgt12rcd13ifvqcd0","pricing_plan_id":"cebpf4jnsgd1na2vs0mg"},{"bike_id":"0a66b486-ce4a-4aa3-b105-46582bd0a9f5","system_id":"levelo_inurba_marseille","lat":43.314811,"lon":5.373103,"is_reserved":false,"is_disabled":false,"rental_uris":{"android":"levelo://app?vid=0a66b486-ce4a-4aa3-b105-46582bd0a9f5","ios":"levelo://app?vid=0a66b486-ce4a-4aa3-b105-46582bd0a9f5"},"vehicle_type_id":"4","last_reported":1724861411,"current_range_meters":0,"station_id":"ce4bgt12rcd13ifvqcd0","pricing_plan_id":"cebpf4jnsgd1na2vs0mg"},{"bike_id":"89efff57-e579-457c-b1c1-fa5f07396bf9","system_id":"levelo_inurba_marseille","lat":43.31495,"lon":5.37308,"is_reserved":false,"is_disabled":false,"rental_uris":{"android":"levelo://app?vid=89efff57-e579-457c-b1c1-fa5f07396bf9","ios":"levelo://app?vid=89efff57-e579-457c-b1c1-fa5f07396bf9"},"vehicle_type_id":"4","last_reported":1724861411,"current_range_meters":28400,"station_id":"ce4bgt12rcd13ifvqcd0","pricing_plan_id":"cebpf4jnsgd1na2vs0mg"},{"bike_id":"e7e77165-befc-4dc6-a17c-55eea82a58c0","system_id":"levelo_inurba_marseille","lat":43.314811,"lon":5.373103,"is_reserved":false,"is_disabled":false,"rental_uris":{"android":"levelo://app?vid=e7e77165-befc-4dc6-a17c-55eea82a58c0","ios":"levelo://app?vid=e7e77165-befc-4dc6-a17c-55eea82a58c0"},"vehicle_type_id":"4","last_reported":1724861411,"current_range_meters":5600,"station_id":"ce4bgt12rcd13ifvqcd0","pricing_plan_id":"cebpf4jnsgd1na2vs0mg"},{"bike_id":"2e2d6fef-321f-4405-a759-a2820e927f2e","system_id":"levelo_inurba_marseille","lat":43.309039,"lon":5.371797,"is_reserved":false,"is_disabled":false,"rental_uris":{"android":"levelo://app?vid=2e2d6fef-321f-4405-a759-a2820e927f2e","ios":"levelo://app?vid=2e2d6fef-321f-4405-a759-a2820e927f2e"},"vehicle_type_id":"4","last_reported":1724861411,"current_range_meters":6400,"station_id":"ce4bguh2rcd13ifvqckg","pricing_plan_id":"cebpf4jnsgd1na2vs0mg"},{"bike_id":"66cc8088-1860-4d34-bfd6-02e33e1d0939","system_id":"levelo_inurba_marseille","lat":43.3055,"lon":5.36529,"is_reserved":false,"is_disabled":false,"rental_uris":{"android":"levelo://app?vid=66cc8088-1860-4d34-bfd6-02e33e1d0939","ios":"levelo://app?vid=66cc8088-1860-4d34-bfd6-02e33e1d0939"},"vehicle_type_id":"4","last_reported":1724861411,"current_range_meters":24000,"station_id":"ce4bgs12rcd13ifvqcag","pricing_plan_id":"cebpf4jnsgd1na2vs0mg"},{"bike_id":"a1786cf6-9ddf-4898-b1b6-449317a1dc33","system_id":"levelo_inurba_marseille","lat":43.30537,"lon":5.36548,"is_reserved":false,"is_disabled":false,"rental_uris":{"android":"levelo://app?vid=a1786cf6-9ddf-4898-b1b6-449317a1dc33","ios":"levelo://app?vid=a1786cf6-9ddf-4898-b1b6-449317a1dc33"},"vehicle_type_id":"4","last_reported":1724861411,"current_range_meters":0,"station_id":"ce4bgs12rcd13ifvqcag","pricing_plan_id":"cebpf4jnsgd1na2vs0mg"},{"bike_id":"df95b928-6aba-43cc-b8dd-e6e0094cc8a0","system_id":"levelo_inurba_marseille","lat":43.305989,"lon":5.37225,"is_reserved":false,"is_disabled":false,"rental_uris":{"android":"levelo://app?vid=df95b928-6aba-43cc-b8dd-e6e0094cc8a0","ios":"levelo://app?vid=df95b928-6aba-43cc-b8dd-e6e0094cc8a0"},"vehicle_type_id":"4","last_reported":1724861411,"current_range_meters":6400,"station_id":"ce4bgqh2rcd13ifvqc4g","pricing_plan_id":"cebpf4jnsgd1na2vs0mg"},{"bike_id":"4904faf0-8b50-44e1-bcfc-f1131821e3f0","system_id":"levelo_inurba_marseille","lat":43.305989,"lon":5.37225,"is_reserved":false,"is_disabled":false,"rental_uris":{"android":"levelo://app?vid=4904faf0-8b50-44e1-bcfc-f1131821e3f0","ios":"levelo://app?vid=4904faf0-8b50-44e1-bcfc-f1131821e3f0"},"vehicle_type_id":"4","last_reported":1724861411,"current_range_meters":7600,"station_id":"ce4bgqh2rcd13ifvqc4g","pricing_plan_id":"cebpf4jnsgd1na2vs0mg"},{"bike_id":"994aeaa9-d7c2-4e9a-b797-85c33203b38c","system_id":"levelo_inurba_marseille","lat":43.30514,"lon":5.36917,"is_reserved":false,"is_disabled":false,"rental_uris":{"android":"levelo://app?vid=994aeaa9-d7c2-4e9a-b797-85c33203b38c","ios":"levelo://app?vid=994aeaa9-d7c2-4e9a-b797-85c33203b38c"},"vehicle_type_id":"4","last_reported":1724861411,"current_range_meters":8000,"station_id":"","pricing_plan_id":"cebpf4jnsgd1na2vs0mg"},{"bike_id":"99ee4356-e96b-442f-a5d9-12968be7b70f","system_id":"levelo_inurba_marseille","lat":43.305989,"lon":5.37225,"is_reserved":false,"is_disabled":false,"rental_uris":{"android":"levelo://app?vid=99ee4356-e96b-442f-a5d9-12968be7b70f","ios":"levelo://app?vid=99ee4356-e96b-442f-a5d9-12968be7b70f"},"vehicle_type_id":"4","last_reported":1724861411,"current_range_meters":28800,"station_id":"ce4bgqh2rcd13ifvqc4g","pricing_plan_id":"cebpf4jnsgd1na2vs0mg"},{"bike_id":"f1c59df2-ce16-496d-b862-2c87a53d5a17","system_id":"levelo_inurba_marseille","lat":43.30597,"lon":5.37221,"is_reserved":false,"is_disabled":false,"rental_uris":{"android":"levelo://app?vid=f1c59df2-ce16-496d-b862-2c87a53d5a17","ios":"levelo://app?vid=f1c59df2-ce16-496d-b862-2c87a53d5a17"},"vehicle_type_id":"4","last_reported":1724861411,"current_range_meters":11600,"station_id":"ce4bgqh2rcd13ifvqc4g","pricing_plan_id":"cebpf4jnsgd1na2vs0mg"},{"bike_id":"82e72b38-876e-46a4-9b48-46fc9d15f68a","system_id":"levelo_inurba_marseille","lat":43.305989,"lon":5.37225,"is_reserved":false,"is_disabled":false,"rental_uris":{"android":"levelo://app?vid=82e72b38-876e-46a4-9b48-46fc9d15f68a","ios":"levelo://app?vid=82e72b38-876e-46a4-9b48-46fc9d15f68a"},"vehicle_type_id":"4","last_reported":1724861411,"current_range_meters":19200,"station_id":"ce4bgqh2rcd13ifvqc4g","pricing_plan_id":"cebpf4jnsgd1na2vs0mg"},{"bike_id":"5004585e-b65e-48e2-bd36-2a66bdcb9201","system_id":"levelo_inurba_marseille","lat":43.305989,"lon":5.37225,"is_reserved":false,"is_disabled":false,"rental_uris":{"android":"levelo://app?vid=5004585e-b65e-48e2-bd36-2a66bdcb9201","ios":"levelo://app?vid=5004585e-b65e-48e2-bd36-2a66bdcb9201"},"vehicle_type_id":"4","last_reported":1724861411,"current_range_meters":19200,"station_id":"ce4bgqh2rcd13ifvqc4g","pricing_plan_id":"cebpf4jnsgd1na2vs0mg"},{"bike_id":"c8498f91-7886-43da-9364-b55bd3fece10","system_id":"levelo_inurba_marseille","lat":43.311125,"lon":5.377624,"is_reserved":false,"is_disabled":false,"rental_uris":{"android":"levelo://app?vid=c8498f91-7886-43da-9364-b55bd3fece10","ios":"levelo://app?vid=c8498f91-7886-43da-9364-b55bd3fece10"},"vehicle_type_id":"4","last_reported":1724861411,"current_range_meters":4800,"station_id":"ce4bgt92rcd13ifvqcg0","pricing_plan_id":"cebpf4jnsgd1na2vs0mg"},{"bike_id":"fd984a1e-d390-49bc-a242-83b9d2f306cb","system_id":"levelo_inurba_marseille","lat":43.31708,"lon":5.37644,"is_reserved":false,"is_disabled":false,"rental_uris":{"android":"levelo://app?vid=fd984a1e-d390-49bc-a242-83b9d2f306cb","ios":"levelo://app?vid=fd984a1e-d390-49bc-a242-83b9d2f306cb"},"vehicle_type_id":"4","last_reported":1724861411,"current_range_meters":6400,"station_id":"","pricing_plan_id":"cebpf4jnsgd1na2vs0mg"},{"bike_id":"87205381-a421-4b9d-a5c6-ed9c11772cf1","system_id":"levelo_inurba_marseille","lat":43.307945,"lon":5.376487,"is_reserved":false,"is_disabled":false,"rental_uris":{"android":"levelo://app?vid=87205381-a421-4b9d-a5c6-ed9c11772cf1","ios":"levelo://app?vid=87205381-a421-4b9d-a5c6-ed9c11772cf1"},"vehicle_type_id":"4","last_reported":1724861411,"current_range_meters":17200,"station_id":"ce4bgv92rcd13ifvqcq0","pricing_plan_id":"cebpf4jnsgd1na2vs0mg"},{"bike_id":"324f46de-4738-4fec-a6ca-3ffbe3755fce","system_id":"levelo_inurba_marseille","lat":43.307945,"lon":5.376487,"is_reserved":false,"is_disabled":false,"rental_uris":{"android":"levelo://app?vid=324f46de-4738-4fec-a6ca-3ffbe3755fce","ios":"levelo://app?vid=324f46de-4738-4fec-a6ca-3ffbe3755fce"},"vehicle_type_id":"4","last_reported":1724861411,"current_range_meters":23600,"station_id":"ce4bgv92rcd13ifvqcq0","pricing_plan_id":"cebpf4jnsgd1na2vs0mg"},{"bike_id":"391c9f3c-0634-48a5-9223-af368c009236","system_id":"levelo_inurba_marseille","lat":43.307945,"lon":5.376487,"is_reserved":false,"is_disabled":false,"rental_uris":{"android":"levelo://app?vid=391c9f3c-0634-48a5-9223-af368c009236","ios":"levelo://app?vid=391c9f3c-0634-48a5-9223-af368c009236"},"vehicle_type_id":"4","last_reported":1724861411,"current_range_meters":12000,"station_id":"ce4bgv92rcd13ifvqcq0","pricing_plan_id":"cebpf4jnsgd1na2vs0mg"},{"bike_id":"a5ceb5bd-6345-47f4-8ba9-48dd16905498","system_id":"levelo_inurba_marseille","lat":43.307945,"lon":5.376487,"is_reserved":false,"is_disabled":false,"rental_uris":{"android":"levelo://app?vid=a5ceb5bd-6345-47f4-8ba9-48dd16905498","ios":"levelo://app?vid=a5ceb5bd-6345-47f4-8ba9-48dd16905498"},"vehicle_type_id":"4","last_reported":1724861411,"current_range_meters":24400,"station_id":"ce4bgv92rcd13ifvqcq0","pricing_plan_id":"cebpf4jnsgd1na2vs0mg"},{"bike_id":"337c3b3c-d54c-4cfa-9205-c2dc0a171676","system_id":"levelo_inurba_marseille","lat":43.307945,"lon":5.376487,"is_reserved":false,"is_disabled":false,"rental_uris":{"android":"levelo://app?vid=337c3b3c-d54c-4cfa-9205-c2dc0a171676","ios":"levelo://app?vid=337c3b3c-d54c-4cfa-9205-c2dc0a171676"},"vehicle_type_id":"4","last_reported":1724861411,"current_range_meters":19600,"station_id":"ce4bgv92rcd13ifvqcq0","pricing_plan_id":"cebpf4jnsgd1na2vs0mg"},{"bike_id":"4d8d1f0b-9d4c-4cb1-a2b4-9d88c671fcb3","system_id":"levelo_inurba_marseille","lat":43.303046,"lon":5.368981,"is_reserved":false,"is_disabled":false,"rental_uris":{"android":"levelo://app?vid=4d8d1f0b-9d4c-4cb1-a2b4-9d88c671fcb3","ios":"levelo://app?vid=4d8d1f0b-9d4c-4cb1-a2b4-9d88c671fcb3"},"vehicle_type_id":"4","last_reported":1724861411,"current_range_meters":22800,"station_id":"ce4bgqh2rcd13ifvqc5g","pricing_plan_id":"cebpf4jnsgd1na2vs0mg"},{"bike_id":"345b7cff-735e-4b7f-9831-3ce30188c342","system_id":"levelo_inurba_marseille","lat":43.30304,"lon":5.368987,"is_reserved":false,"is_disabled":false,"rental_uris":{"android":"levelo://app?vid=345b7cff-735e-4b7f-9831-3ce30188c342","ios":"levelo://app?vid=345b7cff-735e-4b7f-9831-3ce30188c342"},"vehicle_type_id":"4","last_reported":1724861411,"current_range_meters":26400,"station_id":"ce4bgqh2rcd13ifvqc5g","pricing_plan_id":"cebpf4jnsgd1na2vs0mg"},{"bike_id":"9d2478d8-81cf-4282-ac5e-3e24d6d3cdc6","system_id":"levelo_inurba_marseille","lat":43.31533,"lon":5.38026,"is_reserved":false,"is_disabled":false,"rental_uris":{"android":"levelo://app?vid=9d2478d8-81cf-4282-ac5e-3e24d6d3cdc6","ios":"levelo://app?vid=9d2478d8-81cf-4282-ac5e-3e24d6d3cdc6"},"vehicle_type_id":"4","last_reported":1724861411,"current_range_meters":25200,"station_id":"ce4bhsp2rcd13ifvqi50","pricing_plan_id":"cebpf4jnsgd1na2vs0mg"},{"bike_id":"02f9e525-1734-4640-b116-32f0c4c22643","system_id":"levelo_inurba_marseille","lat":43.315289,"lon":5.380349,"is_reserved":false,"is_disabled":false,"rental_uris":{"android":"levelo://app?vid=02f9e525-1734-4640-b116-32f0c4c22643","ios":"levelo://app?vid=02f9e525-1734-4640-b116-32f0c4c22643"},"vehicle_type_id":"4","last_reported":1724861411,"current_range_meters":20800,"station_id":"ce4bhsp2rcd13ifvqi50","pricing_plan_id":"cebpf4jnsgd1na2vs0mg"},{"bike_id":"94bcdebe-2292-436f-b663-ba02595f7955","system_id":"levelo_inurba_marseille","lat":43.301939,"lon":5.366286,"is_reserved":false,"is_disabled":false,"rental_uris":{"android":"levelo://app?vid=94bcdebe-2292-436f-b663-ba02595f7955","ios":"levelo://app?vid=94bcdebe-2292-436f-b663-ba02595f7955"},"vehicle_type_id":"4","last_reported":1724861411,"current_range_meters":31200,"station_id":"ce4bgrh2rcd13ifvqc8g","pricing_plan_id":"cebpf4jnsgd1na2vs0mg"},{"bike_id":"2e23da6c-d7e5-4b4f-ab3e-2eeea33dc61e","system_id":"levelo_inurba_marseille","lat":43.301939,"lon":5.366286,"is_reserved":false,"is_disabled":false,"rental_uris":{"android":"levelo://app?vid=2e23da6c-d7e5-4b4f-ab3e-2eeea33dc61e","ios":"levelo://app?vid=2e23da6c-d7e5-4b4f-ab3e-2eeea33dc61e"},"vehicle_type_id":"4","last_reported":1724861411,"current_range_meters":14400,"station_id":"ce4bgrh2rcd13ifvqc8g","pricing_plan_id":"cebpf4jnsgd1na2vs0mg"},{"bike_id":"592f0f1c-bda9-4053-b135-e153f35a3e57","system_id":"levelo_inurba_marseille","lat":43.301939,"lon":5.366286,"is_reserved":false,"is_disabled":false,"rental_uris":{"android":"levelo://app?vid=592f0f1c-bda9-4053-b135-e153f35a3e57","ios":"levelo://app?vid=592f0f1c-bda9-4053-b135-e153f35a3e57"},"vehicle_type_id":"4","last_reported":1724861411,"current_range_meters":27200,"station_id":"ce4bgrh2rcd13ifvqc8g","pricing_plan_id":"cebpf4jnsgd1na2vs0mg"},{"bike_id":"9f7fddc5-0640-414c-b16d-932e5ca73aaa","system_id":"levelo_inurba_marseille","lat":43.30187,"lon":5.36617,"is_reserved":false,"is_disabled":false,"rental_uris":{"android":"levelo://app?vid=9f7fddc5-0640-414c-b16d-932e5ca73aaa","ios":"levelo://app?vid=9f7fddc5-0640-414c-b16d-932e5ca73aaa"},"vehicle_type_id":"4","last_reported":1724861411,"current_range_meters":14800,"station_id":"ce4bgrh2rcd13ifvqc8g","pricing_plan_id":"cebpf4jnsgd1na2vs0mg"},{"bike_id":"23b5b26a-08f0-438d-9236-ef5e01aaa849","system_id":"levelo_inurba_marseille","lat":43.301939,"lon":5.366286,"is_reserved":false,"is_disabled":false,"rental_uris":{"android":"levelo://app?vid=23b5b26a-08f0-438d-9236-ef5e01aaa849","ios":"levelo://app?vid=23b5b26a-08f0-438d-9236-ef5e01aaa849"},"vehicle_type_id":"4","last_reported":1724861411,"current_range_meters":18400,"station_id":"ce4bgrh2rcd13ifvqc8g","pricing_plan_id":"cebpf4jnsgd1na2vs0mg"},{"bike_id":"25acd60b-192f-4a00-8a1d-16c614ea22e9","system_id":"levelo_inurba_marseille","lat":43.301939,"lon":5.366286,"is_reserved":false,"is_disabled":false,"rental_uris":{"android":"levelo://app?vid=25acd60b-192f-4a00-8a1d-16c614ea22e9","ios":"levelo://app?vid=25acd60b-192f-4a00-8a1d-16c614ea22e9"},"vehicle_type_id":"4","last_reported":1724861411,"current_range_meters":15200,"station_id":"ce4bgrh2rcd13ifvqc8g","pricing_plan_id":"cebpf4jnsgd1na2vs0mg"},{"bike_id":"5eefe335-038b-4d4e-86ed-88901685ce41","system_id":"levelo_inurba_marseille","lat":43.301939,"lon":5.366286,"is_reserved":false,"is_disabled":false,"rental_uris":{"android":"levelo://app?vid=5eefe335-038b-4d4e-86ed-88901685ce41","ios":"levelo://app?vid=5eefe335-038b-4d4e-86ed-88901685ce41"},"vehicle_type_id":"4","last_reported":1724861411,"current_range_meters":31600,"station_id":"ce4bgrh2rcd13ifvqc8g","pricing_plan_id":"cebpf4jnsgd1na2vs0mg"},{"bike_id":"ffbe8641-de54-4bfe-b876-83249ab02475","system_id":"levelo_inurba_marseille","lat":43.301939,"lon":5.366286,"is_reserved":false,"is_disabled":false,"rental_uris":{"android":"levelo://app?vid=ffbe8641-de54-4bfe-b876-83249ab02475","ios":"levelo://app?vid=ffbe8641-de54-4bfe-b876-83249ab02475"},"vehicle_type_id":"4","last_reported":1724861411,"current_range_meters":31600,"station_id":"ce4bgrh2rcd13ifvqc8g","pricing_plan_id":"cebpf4jnsgd1na2vs0mg"},{"bike_id":"7708c4f0-e7ea-4fc9-8d74-81ef1fe5bc06","system_id":"levelo_inurba_marseille","lat":43.301939,"lon":5.366286,"is_reserved":false,"is_disabled":false,"rental_uris":{"android":"levelo://app?vid=7708c4f0-e7ea-4fc9-8d74-81ef1fe5bc06","ios":"levelo://app?vid=7708c4f0-e7ea-4fc9-8d74-81ef1fe5bc06"},"vehicle_type_id":"4","last_reported":1724861411,"current_range_meters":31200,"station_id":"ce4bgrh2rcd13ifvqc8g","pricing_plan_id":"cebpf4jnsgd1na2vs0mg"},{"bike_id":"526bba7e-6834-4118-bcc1-0ca6824522fa","system_id":"levelo_inurba_marseille","lat":43.308012,"lon":5.381511,"is_reserved":false,"is_disabled":false,"rental_uris":{"android":"levelo://app?vid=526bba7e-6834-4118-bcc1-0ca6824522fa","ios":"levelo://app?vid=526bba7e-6834-4118-bcc1-0ca6824522fa"},"vehicle_type_id":"4","last_reported":1724861411,"current_range_meters":21200,"station_id":"ce4bgt12rcd13ifvqce0","pricing_plan_id":"cebpf4jnsgd1na2vs0mg"},{"bike_id":"be3788f0-5c04-463c-a9e5-728bacd66264","system_id":"levelo_inurba_marseille","lat":43.308012,"lon":5.381511,"is_reserved":false,"is_disabled":false,"rental_uris":{"android":"levelo://app?vid=be3788f0-5c04-463c-a9e5-728bacd66264","ios":"levelo://app?vid=be3788f0-5c04-463c-a9e5-728bacd66264"},"vehicle_type_id":"4","last_reported":1724861411,"current_range_meters":0,"station_id":"ce4bgt12rcd13ifvqce0","pricing_plan_id":"cebpf4jnsgd1na2vs0mg"},{"bike_id":"146086ae-41d2-46ca-8b96-db17ef061306","system_id":"levelo_inurba_marseille","lat":43.308012,"lon":5.381511,"is_reserved":false,"is_disabled":false,"rental_uris":{"android":"levelo://app?vid=146086ae-41d2-46ca-8b96-db17ef061306","ios":"levelo://app?vid=146086ae-41d2-46ca-8b96-db17ef061306"},"vehicle_type_id":"4","last_reported":1724861411,"current_range_meters":17600,"station_id":"ce4bgt12rcd13ifvqce0","pricing_plan_id":"cebpf4jnsgd1na2vs0mg"},{"bike_id":"f7925eb6-f747-4e16-a2c0-edb6afe7e9c3","system_id":"levelo_inurba_marseille","lat":43.313291,"lon":5.396838,"is_reserved":false,"is_disabled":false,"rental_uris":{"android":"levelo://app?vid=f7925eb6-f747-4e16-a2c0-edb6afe7e9c3","ios":"levelo://app?vid=f7925eb6-f747-4e16-a2c0-edb6afe7e9c3"},"vehicle_type_id":"4","last_reported":1724861411,"current_range_meters":4000,"station_id":"ce4bgvp2rcd13ifvqcu0","pricing_plan_id":"cebpf4jnsgd1na2vs0mg"},{"bike_id":"30433883-33f5-4d06-b092-41bf908a8757","system_id":"levelo_inurba_marseille","lat":43.30087,"lon":5.36682,"is_reserved":false,"is_disabled":false,"rental_uris":{"android":"levelo://app?vid=30433883-33f5-4d06-b092-41bf908a8757","ios":"levelo://app?vid=30433883-33f5-4d06-b092-41bf908a8757"},"vehicle_type_id":"4","last_reported":1724861411,"current_range_meters":12800,"station_id":"","pricing_plan_id":"cebpf4jnsgd1na2vs0mg"},{"bike_id":"70e63908-17b0-40fb-a999-ce32f25cc28f","system_id":"levelo_inurba_marseille","lat":43.304606,"lon":5.379026,"is_reserved":false,"is_disabled":false,"rental_uris":{"android":"levelo://app?vid=70e63908-17b0-40fb-a999-ce32f25cc28f","ios":"levelo://app?vid=70e63908-17b0-40fb-a999-ce32f25cc28f"},"vehicle_type_id":"4","last_reported":1724861411,"current_range_meters":3600,"station_id":"ce4bgup2rcd13ifvqcn0","pricing_plan_id":"cebpf4jnsgd1na2vs0mg"},{"bike_id":"7c65fcbf-a587-4b3c-9be6-882e5ed8b39a","system_id":"levelo_inurba_marseille","lat":43.324771,"lon":5.36557,"is_reserved":false,"is_disabled":false,"rental_uris":{"android":"levelo://app?vid=7c65fcbf-a587-4b3c-9be6-882e5ed8b39a","ios":"levelo://app?vid=7c65fcbf-a587-4b3c-9be6-882e5ed8b39a"},"vehicle_type_id":"4","last_reported":1724861411,"current_range_meters":26000,"station_id":"ce4bhs12rcd13ifvqhvg","pricing_plan_id":"cebpf4jnsgd1na2vs0mg"},{"bike_id":"4873d23f-b5be-4160-9db6-7b66e4732e95","system_id":"levelo_inurba_marseille","lat":43.304274,"lon":5.388873,"is_reserved":false,"is_disabled":false,"rental_uris":{"android":"levelo://app?vid=4873d23f-b5be-4160-9db6-7b66e4732e95","ios":"levelo://app?vid=4873d23f-b5be-4160-9db6-7b66e4732e95"},"vehicle_type_id":"4","last_reported":1724861411,"current_range_meters":31600,"station_id":"ce4bgk12rcd13ifvqbi0","pricing_plan_id":"cebpf4jnsgd1na2vs0mg"},{"bike_id":"dbea1e21-b4fd-4e4c-99e5-19299248cc53","system_id":"levelo_inurba_marseille","lat":43.324771,"lon":5.36557,"is_reserved":false,"is_disabled":false,"rental_uris":{"android":"levelo://app?vid=dbea1e21-b4fd-4e4c-99e5-19299248cc53","ios":"levelo://app?vid=dbea1e21-b4fd-4e4c-99e5-19299248cc53"},"vehicle_type_id":"4","last_reported":1724861411,"current_range_meters":26400,"station_id":"ce4bhs12rcd13ifvqhvg","pricing_plan_id":"cebpf4jnsgd1na2vs0mg"},{"bike_id":"70f59348-20f8-4d88-9a8e-df93989b0987","system_id":"levelo_inurba_marseille","lat":43.324771,"lon":5.36557,"is_reserved":false,"is_disabled":false,"rental_uris":{"android":"levelo://app?vid=70f59348-20f8-4d88-9a8e-df93989b0987","ios":"levelo://app?vid=70f59348-20f8-4d88-9a8e-df93989b0987"},"vehicle_type_id":"4","last_reported":1724861411,"current_range_meters":20800,"station_id":"ce4bhs12rcd13ifvqhvg","pricing_plan_id":"cebpf4jnsgd1na2vs0mg"},{"bike_id":"4c847e38-f1bd-4769-9b9f-2200dc5192f7","system_id":"levelo_inurba_marseille","lat":43.324771,"lon":5.36557,"is_reserved":false,"is_disabled":false,"rental_uris":{"android":"levelo://app?vid=4c847e38-f1bd-4769-9b9f-2200dc5192f7","ios":"levelo://app?vid=4c847e38-f1bd-4769-9b9f-2200dc5192f7"},"vehicle_type_id":"4","last_reported":1724861411,"current_range_meters":31600,"station_id":"ce4bhs12rcd13ifvqhvg","pricing_plan_id":"cebpf4jnsgd1na2vs0mg"},{"bike_id":"f2a7c5e3-55cc-4f04-9f4e-0ebe2dff0f6c","system_id":"levelo_inurba_marseille","lat":43.30403,"lon":5.37853,"is_reserved":false,"is_disabled":false,"rental_uris":{"android":"levelo://app?vid=f2a7c5e3-55cc-4f04-9f4e-0ebe2dff0f6c","ios":"levelo://app?vid=f2a7c5e3-55cc-4f04-9f4e-0ebe2dff0f6c"},"vehicle_type_id":"4","last_reported":1724861411,"current_range_meters":10000,"station_id":"","pricing_plan_id":"cebpf4jnsgd1na2vs0mg"},{"bike_id":"3ebd3302-695f-421e-a44f-35ea9b9d0e72","system_id":"levelo_inurba_marseille","lat":43.32485,"lon":5.36573,"is_reserved":false,"is_disabled":false,"rental_uris":{"android":"levelo://app?vid=3ebd3302-695f-421e-a44f-35ea9b9d0e72","ios":"levelo://app?vid=3ebd3302-695f-421e-a44f-35ea9b9d0e72"},"vehicle_type_id":"4","last_reported":1724861411,"current_range_meters":8800,"station_id":"ce4bhs12rcd13ifvqhvg","pricing_plan_id":"cebpf4jnsgd1na2vs0mg"},{"bike_id":"4b976fe2-cf30-4d09-80cb-85daf768b726","system_id":"levelo_inurba_marseille","lat":43.324847,"lon":5.365666,"is_reserved":false,"is_disabled":false,"rental_uris":{"android":"levelo://app?vid=4b976fe2-cf30-4d09-80cb-85daf768b726","ios":"levelo://app?vid=4b976fe2-cf30-4d09-80cb-85daf768b726"},"vehicle_type_id":"4","last_reported":1724861411,"current_range_meters":13200,"station_id":"ce4bhs12rcd13ifvqhvg","pricing_plan_id":"cebpf4jnsgd1na2vs0mg"},{"bike_id":"9e9b3f1b-21bf-4c7d-acaa-ab08ef6f6648","system_id":"levelo_inurba_marseille","lat":43.324855,"lon":5.365695,"is_reserved":false,"is_disabled":false,"rental_uris":{"android":"levelo://app?vid=9e9b3f1b-21bf-4c7d-acaa-ab08ef6f6648","ios":"levelo://app?vid=9e9b3f1b-21bf-4c7d-acaa-ab08ef6f6648"},"vehicle_type_id":"4","last_reported":1724861411,"current_range_meters":2000,"station_id":"ce4bhs12rcd13ifvqhvg","pricing_plan_id":"cebpf4jnsgd1na2vs0mg"},{"bike_id":"b0ade479-5d17-43b3-bd2a-ae03f6678f89","system_id":"levelo_inurba_marseille","lat":43.324771,"lon":5.36557,"is_reserved":false,"is_disabled":false,"rental_uris":{"android":"levelo://app?vid=b0ade479-5d17-43b3-bd2a-ae03f6678f89","ios":"levelo://app?vid=b0ade479-5d17-43b3-bd2a-ae03f6678f89"},"vehicle_type_id":"4","last_reported":1724861411,"current_range_meters":28000,"station_id":"ce4bhs12rcd13ifvqhvg","pricing_plan_id":"cebpf4jnsgd1na2vs0mg"},{"bike_id":"615111e5-18e0-40bf-9903-0900da9986a1","system_id":"levelo_inurba_marseille","lat":43.310804,"lon":5.38359,"is_reserved":false,"is_disabled":false,"rental_uris":{"android":"levelo://app?vid=615111e5-18e0-40bf-9903-0900da9986a1","ios":"levelo://app?vid=615111e5-18e0-40bf-9903-0900da9986a1"},"vehicle_type_id":"4","last_reported":1724861411,"current_range_meters":10800,"station_id":"ce4bgv92rcd13ifvqcr0","pricing_plan_id":"cebpf4jnsgd1na2vs0mg"},{"bike_id":"675a41ab-fe5e-4960-b8ea-c3b773e974c6","system_id":"levelo_inurba_marseille","lat":43.30276,"lon":5.3769,"is_reserved":false,"is_disabled":false,"rental_uris":{"android":"levelo://app?vid=675a41ab-fe5e-4960-b8ea-c3b773e974c6","ios":"levelo://app?vid=675a41ab-fe5e-4960-b8ea-c3b773e974c6"},"vehicle_type_id":"4","last_reported":1724861411,"current_range_meters":800,"station_id":"ce4bguh2rcd13ifvqcj0","pricing_plan_id":"cebpf4jnsgd1na2vs0mg"},{"bike_id":"4d804559-b222-42ec-bc92-ebd318c2a49b","system_id":"levelo_inurba_marseille","lat":43.325087,"lon":5.368703,"is_reserved":false,"is_disabled":false,"rental_uris":{"android":"levelo://app?vid=4d804559-b222-42ec-bc92-ebd318c2a49b","ios":"levelo://app?vid=4d804559-b222-42ec-bc92-ebd318c2a49b"},"vehicle_type_id":"4","last_reported":1724861411,"current_range_meters":21600,"station_id":"","pricing_plan_id":"cebpf4jnsgd1na2vs0mg"},{"bike_id":"9e05ce83-8090-48fb-a039-606c34e7f709","system_id":"levelo_inurba_marseille","lat":43.301429,"lon":5.37413,"is_reserved":false,"is_disabled":false,"rental_uris":{"android":"levelo://app?vid=9e05ce83-8090-48fb-a039-606c34e7f709","ios":"levelo://app?vid=9e05ce83-8090-48fb-a039-606c34e7f709"},"vehicle_type_id":"4","last_reported":1724861411,"current_range_meters":12800,"station_id":"ce4bgs92rcd13ifvqcc0","pricing_plan_id":"cebpf4jnsgd1na2vs0mg"},{"bike_id":"c00ff871-57c8-4642-83c6-8d30cf2a5c86","system_id":"levelo_inurba_marseille","lat":43.31984,"lon":5.38146,"is_reserved":false,"is_disabled":false,"rental_uris":{"android":"levelo://app?vid=c00ff871-57c8-4642-83c6-8d30cf2a5c86","ios":"levelo://app?vid=c00ff871-57c8-4642-83c6-8d30cf2a5c86"},"vehicle_type_id":"4","last_reported":1724861411,"current_range_meters":6800,"station_id":"ce4bhr12rcd13ifvqhpg","pricing_plan_id":"cebpf4jnsgd1na2vs0mg"},{"bike_id":"79807396-c2e6-4acf-9e45-bfcedf946306","system_id":"levelo_inurba_marseille","lat":43.32532,"lon":5.36409,"is_reserved":false,"is_disabled":false,"rental_uris":{"android":"levelo://app?vid=79807396-c2e6-4acf-9e45-bfcedf946306","ios":"levelo://app?vid=79807396-c2e6-4acf-9e45-bfcedf946306"},"vehicle_type_id":"4","last_reported":1724861411,"current_range_meters":800,"station_id":"","pricing_plan_id":"cebpf4jnsgd1na2vs0mg"},{"bike_id":"e6427d31-6233-48a3-95f5-652602548665","system_id":"levelo_inurba_marseille","lat":43.319935,"lon":5.381699,"is_reserved":false,"is_disabled":false,"rental_uris":{"android":"levelo://app?vid=e6427d31-6233-48a3-95f5-652602548665","ios":"levelo://app?vid=e6427d31-6233-48a3-95f5-652602548665"},"vehicle_type_id":"4","last_reported":1724861411,"current_range_meters":0,"station_id":"ce4bhr12rcd13ifvqhpg","pricing_plan_id":"cebpf4jnsgd1na2vs0mg"},{"bike_id":"29e6c0c6-6cc0-4b9b-a8bc-95b4c029c5b3","system_id":"levelo_inurba_marseille","lat":43.319935,"lon":5.381699,"is_reserved":false,"is_disabled":false,"rental_uris":{"android":"levelo://app?vid=29e6c0c6-6cc0-4b9b-a8bc-95b4c029c5b3","ios":"levelo://app?vid=29e6c0c6-6cc0-4b9b-a8bc-95b4c029c5b3"},"vehicle_type_id":"4","last_reported":1724861411,"current_range_meters":19600,"station_id":"ce4bhr12rcd13ifvqhpg","pricing_plan_id":"cebpf4jnsgd1na2vs0mg"},{"bike_id":"850af056-1bf7-4813-a6a4-02d69e7ff3f1","system_id":"levelo_inurba_marseille","lat":43.319935,"lon":5.381699,"is_reserved":false,"is_disabled":false,"rental_uris":{"android":"levelo://app?vid=850af056-1bf7-4813-a6a4-02d69e7ff3f1","ios":"levelo://app?vid=850af056-1bf7-4813-a6a4-02d69e7ff3f1"},"vehicle_type_id":"4","last_reported":1724861411,"current_range_meters":30000,"station_id":"ce4bhr12rcd13ifvqhpg","pricing_plan_id":"cebpf4jnsgd1na2vs0mg"},{"bike_id":"aa4e0181-e5d6-4db9-8467-724814b2d53c","system_id":"levelo_inurba_marseille","lat":43.313571,"lon":5.384829,"is_reserved":false,"is_disabled":false,"rental_uris":{"android":"levelo://app?vid=aa4e0181-e5d6-4db9-8467-724814b2d53c","ios":"levelo://app?vid=aa4e0181-e5d6-4db9-8467-724814b2d53c"},"vehicle_type_id":"4","last_reported":1724861411,"current_range_meters":5200,"station_id":"ce4bgt92rcd13ifvqcf0","pricing_plan_id":"cebpf4jnsgd1na2vs0mg"},{"bike_id":"2b88d300-80e9-4dac-87f5-b1d93489e176","system_id":"levelo_inurba_marseille","lat":43.299724,"lon":5.371829,"is_reserved":false,"is_disabled":false,"rental_uris":{"android":"levelo://app?vid=2b88d300-80e9-4dac-87f5-b1d93489e176","ios":"levelo://app?vid=2b88d300-80e9-4dac-87f5-b1d93489e176"},"vehicle_type_id":"4","last_reported":1724861411,"current_range_meters":20800,"station_id":"ce4bgr92rcd13ifvqc7g","pricing_plan_id":"cebpf4jnsgd1na2vs0mg"},{"bike_id":"eb234a86-f153-497b-a9a9-a6c66a120ad0","system_id":"levelo_inurba_marseille","lat":43.29871,"lon":5.362962,"is_reserved":false,"is_disabled":false,"rental_uris":{"android":"levelo://app?vid=eb234a86-f153-497b-a9a9-a6c66a120ad0","ios":"levelo://app?vid=eb234a86-f153-497b-a9a9-a6c66a120ad0"},"vehicle_type_id":"4","last_reported":1724861411,"current_range_meters":16800,"station_id":"ce4bgpp2rcd13ifvqc3g","pricing_plan_id":"cebpf4jnsgd1na2vs0mg"},{"bike_id":"b8616d00-8560-42f1-bde5-7fb6a606ff0c","system_id":"levelo_inurba_marseille","lat":43.29854,"lon":5.363026,"is_reserved":false,"is_disabled":false,"rental_uris":{"android":"levelo://app?vid=b8616d00-8560-42f1-bde5-7fb6a606ff0c","ios":"levelo://app?vid=b8616d00-8560-42f1-bde5-7fb6a606ff0c"},"vehicle_type_id":"4","last_reported":1724861411,"current_range_meters":10400,"station_id":"ce4bgpp2rcd13ifvqc3g","pricing_plan_id":"cebpf4jnsgd1na2vs0mg"},{"bike_id":"0d7d7aba-9539-45a5-96fb-ac665dd56cc2","system_id":"levelo_inurba_marseille","lat":43.29856,"lon":5.36281,"is_reserved":false,"is_disabled":false,"rental_uris":{"android":"levelo://app?vid=0d7d7aba-9539-45a5-96fb-ac665dd56cc2","ios":"levelo://app?vid=0d7d7aba-9539-45a5-96fb-ac665dd56cc2"},"vehicle_type_id":"4","last_reported":1724861411,"current_range_meters":16800,"station_id":"ce4bgpp2rcd13ifvqc3g","pricing_plan_id":"cebpf4jnsgd1na2vs0mg"},{"bike_id":"3c5c922a-86b6-4eaa-a338-93945f2a2130","system_id":"levelo_inurba_marseille","lat":43.29852,"lon":5.36286,"is_reserved":false,"is_disabled":false,"rental_uris":{"android":"levelo://app?vid=3c5c922a-86b6-4eaa-a338-93945f2a2130","ios":"levelo://app?vid=3c5c922a-86b6-4eaa-a338-93945f2a2130"},"vehicle_type_id":"4","last_reported":1724861411,"current_range_meters":17200,"station_id":"ce4bgpp2rcd13ifvqc3g","pricing_plan_id":"cebpf4jnsgd1na2vs0mg"},{"bike_id":"2f4478a5-b29c-446e-9b81-db6331bbdea5","system_id":"levelo_inurba_marseille","lat":43.298495,"lon":5.362855,"is_reserved":false,"is_disabled":false,"rental_uris":{"android":"levelo://app?vid=2f4478a5-b29c-446e-9b81-db6331bbdea5","ios":"levelo://app?vid=2f4478a5-b29c-446e-9b81-db6331bbdea5"},"vehicle_type_id":"4","last_reported":1724861411,"current_range_meters":6800,"station_id":"ce4bgpp2rcd13ifvqc3g","pricing_plan_id":"cebpf4jnsgd1na2vs0mg"},{"bike_id":"c891264f-414d-4d7a-b8ca-dbe81ef0827a","system_id":"levelo_inurba_marseille","lat":43.298483,"lon":5.362897,"is_reserved":false,"is_disabled":false,"rental_uris":{"android":"levelo://app?vid=c891264f-414d-4d7a-b8ca-dbe81ef0827a","ios":"levelo://app?vid=c891264f-414d-4d7a-b8ca-dbe81ef0827a"},"vehicle_type_id":"4","last_reported":1724861411,"current_range_meters":14400,"station_id":"ce4bgpp2rcd13ifvqc3g","pricing_plan_id":"cebpf4jnsgd1na2vs0mg"},{"bike_id":"19ab37db-6eaf-4fce-8d0c-75209193e11a","system_id":"levelo_inurba_marseille","lat":43.29849,"lon":5.36284,"is_reserved":false,"is_disabled":false,"rental_uris":{"android":"levelo://app?vid=19ab37db-6eaf-4fce-8d0c-75209193e11a","ios":"levelo://app?vid=19ab37db-6eaf-4fce-8d0c-75209193e11a"},"vehicle_type_id":"4","last_reported":1724861411,"current_range_meters":22000,"station_id":"ce4bgpp2rcd13ifvqc3g","pricing_plan_id":"cebpf4jnsgd1na2vs0mg"},{"bike_id":"35e321fa-b057-4d41-a525-8033688ff181","system_id":"levelo_inurba_marseille","lat":43.29848,"lon":5.36284,"is_reserved":false,"is_disabled":false,"rental_uris":{"android":"levelo://app?vid=35e321fa-b057-4d41-a525-8033688ff181","ios":"levelo://app?vid=35e321fa-b057-4d41-a525-8033688ff181"},"vehicle_type_id":"4","last_reported":1724861411,"current_range_meters":20800,"station_id":"ce4bgpp2rcd13ifvqc3g","pricing_plan_id":"cebpf4jnsgd1na2vs0mg"},{"bike_id":"224d08a8-e3d2-4311-a1a9-19da097d6382","system_id":"levelo_inurba_marseille","lat":43.29849,"lon":5.36276,"is_reserved":false,"is_disabled":false,"rental_uris":{"android":"levelo://app?vid=224d08a8-e3d2-4311-a1a9-19da097d6382","ios":"levelo://app?vid=224d08a8-e3d2-4311-a1a9-19da097d6382"},"vehicle_type_id":"4","last_reported":1724861411,"current_range_meters":15200,"station_id":"ce4bgpp2rcd13ifvqc3g","pricing_plan_id":"cebpf4jnsgd1na2vs0mg"},{"bike_id":"ad19517e-b6ef-49ce-a2ba-35e4a5a7f791","system_id":"levelo_inurba_marseille","lat":43.305364,"lon":5.384119,"is_reserved":false,"is_disabled":false,"rental_uris":{"android":"levelo://app?vid=ad19517e-b6ef-49ce-a2ba-35e4a5a7f791","ios":"levelo://app?vid=ad19517e-b6ef-49ce-a2ba-35e4a5a7f791"},"vehicle_type_id":"4","last_reported":1724861411,"current_range_meters":15600,"station_id":"ce4bgg92rcd13ifvqb30","pricing_plan_id":"cebpf4jnsgd1na2vs0mg"},{"bike_id":"a9018be4-5542-4f39-9d65-d5bd4a87edeb","system_id":"levelo_inurba_marseille","lat":43.298433,"lon":5.362774,"is_reserved":false,"is_disabled":false,"rental_uris":{"android":"levelo://app?vid=a9018be4-5542-4f39-9d65-d5bd4a87edeb","ios":"levelo://app?vid=a9018be4-5542-4f39-9d65-d5bd4a87edeb"},"vehicle_type_id":"4","last_reported":1724861411,"current_range_meters":24800,"station_id":"ce4bgpp2rcd13ifvqc3g","pricing_plan_id":"cebpf4jnsgd1na2vs0mg"},{"bike_id":"a5c6f232-dd71-4b80-9959-40c17bb18da8","system_id":"levelo_inurba_marseille","lat":43.305364,"lon":5.384119,"is_reserved":false,"is_disabled":false,"rental_uris":{"android":"levelo://app?vid=a5c6f232-dd71-4b80-9959-40c17bb18da8","ios":"levelo://app?vid=a5c6f232-dd71-4b80-9959-40c17bb18da8"},"vehicle_type_id":"4","last_reported":1724861411,"current_range_meters":13200,"station_id":"ce4bgg92rcd13ifvqb30","pricing_plan_id":"cebpf4jnsgd1na2vs0mg"},{"bike_id":"f813ef63-fce4-4b0b-b340-dcc5d4c85b4d","system_id":"levelo_inurba_marseille","lat":43.29844,"lon":5.362737,"is_reserved":false,"is_disabled":false,"rental_uris":{"android":"levelo://app?vid=f813ef63-fce4-4b0b-b340-dcc5d4c85b4d","ios":"levelo://app?vid=f813ef63-fce4-4b0b-b340-dcc5d4c85b4d"},"vehicle_type_id":"4","last_reported":1724861411,"current_range_meters":24800,"station_id":"ce4bgpp2rcd13ifvqc3g","pricing_plan_id":"cebpf4jnsgd1na2vs0mg"},{"bike_id":"c494634c-1676-4c52-beef-be075d63c337","system_id":"levelo_inurba_marseille","lat":43.29843,"lon":5.36272,"is_reserved":false,"is_disabled":false,"rental_uris":{"android":"levelo://app?vid=c494634c-1676-4c52-beef-be075d63c337","ios":"levelo://app?vid=c494634c-1676-4c52-beef-be075d63c337"},"vehicle_type_id":"4","last_reported":1724861411,"current_range_meters":22800,"station_id":"ce4bgpp2rcd13ifvqc3g","pricing_plan_id":"cebpf4jnsgd1na2vs0mg"},{"bike_id":"7ce21f1e-9531-4e68-8205-ffb806b0d511","system_id":"levelo_inurba_marseille","lat":43.298433,"lon":5.362774,"is_reserved":false,"is_disabled":false,"rental_uris":{"android":"levelo://app?vid=7ce21f1e-9531-4e68-8205-ffb806b0d511","ios":"levelo://app?vid=7ce21f1e-9531-4e68-8205-ffb806b0d511"},"vehicle_type_id":"4","last_reported":1724861411,"current_range_meters":31600,"station_id":"ce4bgpp2rcd13ifvqc3g","pricing_plan_id":"cebpf4jnsgd1na2vs0mg"},{"bike_id":"a7756ceb-6959-433f-8414-77ba118e796c","system_id":"levelo_inurba_marseille","lat":43.311722,"lon":5.387247,"is_reserved":false,"is_disabled":false,"rental_uris":{"android":"levelo://app?vid=a7756ceb-6959-433f-8414-77ba118e796c","ios":"levelo://app?vid=a7756ceb-6959-433f-8414-77ba118e796c"},"vehicle_type_id":"4","last_reported":1724861411,"current_range_meters":20800,"station_id":"ce4bgv12rcd13ifvqcp0","pricing_plan_id":"cebpf4jnsgd1na2vs0mg"},{"bike_id":"ba39d742-21ab-4e9b-aead-ca373a91df3b","system_id":"levelo_inurba_marseille","lat":43.311722,"lon":5.387247,"is_reserved":false,"is_disabled":false,"rental_uris":{"android":"levelo://app?vid=ba39d742-21ab-4e9b-aead-ca373a91df3b","ios":"levelo://app?vid=ba39d742-21ab-4e9b-aead-ca373a91df3b"},"vehicle_type_id":"4","last_reported":1724861411,"current_range_meters":7200,"station_id":"ce4bgv12rcd13ifvqcp0","pricing_plan_id":"cebpf4jnsgd1na2vs0mg"},{"bike_id":"cb042d50-2119-4794-bf75-851d46a54bf4","system_id":"levelo_inurba_marseille","lat":43.30151,"lon":5.38079,"is_reserved":false,"is_disabled":false,"rental_uris":{"android":"levelo://app?vid=cb042d50-2119-4794-bf75-851d46a54bf4","ios":"levelo://app?vid=cb042d50-2119-4794-bf75-851d46a54bf4"},"vehicle_type_id":"4","last_reported":1724861411,"current_range_meters":0,"station_id":"ce4bgjp2rcd13ifvqbh0","pricing_plan_id":"cebpf4jnsgd1na2vs0mg"},{"bike_id":"34c26b08-853c-47f7-b4bb-2cdd0e15dc56","system_id":"levelo_inurba_marseille","lat":43.311722,"lon":5.387247,"is_reserved":false,"is_disabled":false,"rental_uris":{"android":"levelo://app?vid=34c26b08-853c-47f7-b4bb-2cdd0e15dc56","ios":"levelo://app?vid=34c26b08-853c-47f7-b4bb-2cdd0e15dc56"},"vehicle_type_id":"4","last_reported":1724861411,"current_range_meters":5600,"station_id":"ce4bgv12rcd13ifvqcp0","pricing_plan_id":"cebpf4jnsgd1na2vs0mg"},{"bike_id":"58bf6de2-6738-4893-b4b6-0b79a33cf5b8","system_id":"levelo_inurba_marseille","lat":43.32288,"lon":5.38257,"is_reserved":false,"is_disabled":false,"rental_uris":{"android":"levelo://app?vid=58bf6de2-6738-4893-b4b6-0b79a33cf5b8","ios":"levelo://app?vid=58bf6de2-6738-4893-b4b6-0b79a33cf5b8"},"vehicle_type_id":"4","last_reported":1724861411,"current_range_meters":28800,"station_id":"ce4bhr12rcd13ifvqhqg","pricing_plan_id":"cebpf4jnsgd1na2vs0mg"},{"bike_id":"cb73b66e-dfa6-4f93-80b9-a70c2f549e78","system_id":"levelo_inurba_marseille","lat":43.32286,"lon":5.38265,"is_reserved":false,"is_disabled":false,"rental_uris":{"android":"levelo://app?vid=cb73b66e-dfa6-4f93-80b9-a70c2f549e78","ios":"levelo://app?vid=cb73b66e-dfa6-4f93-80b9-a70c2f549e78"},"vehicle_type_id":"4","last_reported":1724861411,"current_range_meters":3600,"station_id":"ce4bhr12rcd13ifvqhqg","pricing_plan_id":"cebpf4jnsgd1na2vs0mg"},{"bike_id":"44b694c3-cb61-44bd-8ac7-572678037941","system_id":"levelo_inurba_marseille","lat":43.322927,"lon":5.382576,"is_reserved":false,"is_disabled":false,"rental_uris":{"android":"levelo://app?vid=44b694c3-cb61-44bd-8ac7-572678037941","ios":"levelo://app?vid=44b694c3-cb61-44bd-8ac7-572678037941"},"vehicle_type_id":"4","last_reported":1724861411,"current_range_meters":11200,"station_id":"ce4bhr12rcd13ifvqhqg","pricing_plan_id":"cebpf4jnsgd1na2vs0mg"},{"bike_id":"d129f86d-42e6-4b77-935e-478b9ee74b4e","system_id":"levelo_inurba_marseille","lat":43.32292,"lon":5.38262,"is_reserved":false,"is_disabled":false,"rental_uris":{"android":"levelo://app?vid=d129f86d-42e6-4b77-935e-478b9ee74b4e","ios":"levelo://app?vid=d129f86d-42e6-4b77-935e-478b9ee74b4e"},"vehicle_type_id":"4","last_reported":1724861411,"current_range_meters":16000,"station_id":"ce4bhr12rcd13ifvqhqg","pricing_plan_id":"cebpf4jnsgd1na2vs0mg"},{"bike_id":"f8b19fce-1bfe-4240-bf1d-c17005e08c13","system_id":"levelo_inurba_marseille","lat":43.322872,"lon":5.382756,"is_reserved":false,"is_disabled":false,"rental_uris":{"android":"levelo://app?vid=f8b19fce-1bfe-4240-bf1d-c17005e08c13","ios":"levelo://app?vid=f8b19fce-1bfe-4240-bf1d-c17005e08c13"},"vehicle_type_id":"4","last_reported":1724861411,"current_range_meters":31200,"station_id":"ce4bhr12rcd13ifvqhqg","pricing_plan_id":"cebpf4jnsgd1na2vs0mg"},{"bike_id":"7ebc7b06-b9c0-4d04-a0fd-4573c90eadd1","system_id":"levelo_inurba_marseille","lat":43.322872,"lon":5.382756,"is_reserved":false,"is_disabled":false,"rental_uris":{"android":"levelo://app?vid=7ebc7b06-b9c0-4d04-a0fd-4573c90eadd1","ios":"levelo://app?vid=7ebc7b06-b9c0-4d04-a0fd-4573c90eadd1"},"vehicle_type_id":"4","last_reported":1724861411,"current_range_meters":8000,"station_id":"ce4bhr12rcd13ifvqhqg","pricing_plan_id":"cebpf4jnsgd1na2vs0mg"},{"bike_id":"801fd3b4-c6a7-494a-a2ed-649b754171bf","system_id":"levelo_inurba_marseille","lat":43.3229,"lon":5.38273,"is_reserved":false,"is_disabled":false,"rental_uris":{"android":"levelo://app?vid=801fd3b4-c6a7-494a-a2ed-649b754171bf","ios":"levelo://app?vid=801fd3b4-c6a7-494a-a2ed-649b754171bf"},"vehicle_type_id":"4","last_reported":1724861411,"current_range_meters":16000,"station_id":"ce4bhr12rcd13ifvqhqg","pricing_plan_id":"cebpf4jnsgd1na2vs0mg"},{"bike_id":"03f57e4c-b13c-4d3f-9afc-a0a783db6990","system_id":"levelo_inurba_marseille","lat":43.322872,"lon":5.382756,"is_reserved":false,"is_disabled":false,"rental_uris":{"android":"levelo://app?vid=03f57e4c-b13c-4d3f-9afc-a0a783db6990","ios":"levelo://app?vid=03f57e4c-b13c-4d3f-9afc-a0a783db6990"},"vehicle_type_id":"4","last_reported":1724861411,"current_range_meters":31200,"station_id":"ce4bhr12rcd13ifvqhqg","pricing_plan_id":"cebpf4jnsgd1na2vs0mg"},{"bike_id":"c8b78a56-f501-4377-aac9-53e9cf84dd25","system_id":"levelo_inurba_marseille","lat":43.29714,"lon":5.36884,"is_reserved":false,"is_disabled":false,"rental_uris":{"android":"levelo://app?vid=c8b78a56-f501-4377-aac9-53e9cf84dd25","ios":"levelo://app?vid=c8b78a56-f501-4377-aac9-53e9cf84dd25"},"vehicle_type_id":"4","last_reported":1724861411,"current_range_meters":0,"station_id":"","pricing_plan_id":"cebpf4jnsgd1na2vs0mg"},{"bike_id":"416ac78e-7d5a-4e79-91f3-3b0c497c42e0","system_id":"levelo_inurba_marseille","lat":43.297163,"lon":5.365866,"is_reserved":false,"is_disabled":false,"rental_uris":{"android":"levelo://app?vid=416ac78e-7d5a-4e79-91f3-3b0c497c42e0","ios":"levelo://app?vid=416ac78e-7d5a-4e79-91f3-3b0c497c42e0"},"vehicle_type_id":"4","last_reported":1724861411,"current_range_meters":5600,"station_id":"ce4bgn12rcd13ifvqbt0","pricing_plan_id":"cebpf4jnsgd1na2vs0mg"},{"bike_id":"219270d9-09e0-41bf-8509-2d7fdfe06052","system_id":"levelo_inurba_marseille","lat":43.297088,"lon":5.366134,"is_reserved":false,"is_disabled":false,"rental_uris":{"android":"levelo://app?vid=219270d9-09e0-41bf-8509-2d7fdfe06052","ios":"levelo://app?vid=219270d9-09e0-41bf-8509-2d7fdfe06052"},"vehicle_type_id":"4","last_reported":1724861411,"current_range_meters":21200,"station_id":"ce4bgn12rcd13ifvqbt0","pricing_plan_id":"cebpf4jnsgd1na2vs0mg"},{"bike_id":"d0442b37-3626-4c97-b7f0-8addd45e6295","system_id":"levelo_inurba_marseille","lat":43.297163,"lon":5.365866,"is_reserved":false,"is_disabled":false,"rental_uris":{"android":"levelo://app?vid=d0442b37-3626-4c97-b7f0-8addd45e6295","ios":"levelo://app?vid=d0442b37-3626-4c97-b7f0-8addd45e6295"},"vehicle_type_id":"4","last_reported":1724861411,"current_range_meters":8000,"station_id":"ce4bgn12rcd13ifvqbt0","pricing_plan_id":"cebpf4jnsgd1na2vs0mg"},{"bike_id":"c60457f3-ade8-447e-a30b-485d9e03f627","system_id":"levelo_inurba_marseille","lat":43.29707,"lon":5.36608,"is_reserved":false,"is_disabled":false,"rental_uris":{"android":"levelo://app?vid=c60457f3-ade8-447e-a30b-485d9e03f627","ios":"levelo://app?vid=c60457f3-ade8-447e-a30b-485d9e03f627"},"vehicle_type_id":"4","last_reported":1724861411,"current_range_meters":23200,"station_id":"ce4bgn12rcd13ifvqbt0","pricing_plan_id":"cebpf4jnsgd1na2vs0mg"},{"bike_id":"9bc1e286-a9a4-4b3a-9532-8ead4b8b0e1c","system_id":"levelo_inurba_marseille","lat":43.297163,"lon":5.365866,"is_reserved":false,"is_disabled":false,"rental_uris":{"android":"levelo://app?vid=9bc1e286-a9a4-4b3a-9532-8ead4b8b0e1c","ios":"levelo://app?vid=9bc1e286-a9a4-4b3a-9532-8ead4b8b0e1c"},"vehicle_type_id":"4","last_reported":1724861411,"current_range_meters":31600,"station_id":"ce4bgn12rcd13ifvqbt0","pricing_plan_id":"cebpf4jnsgd1na2vs0mg"},{"bike_id":"65239163-aefd-4d0e-8c7e-871013de6ce9","system_id":"levelo_inurba_marseille","lat":43.297163,"lon":5.365866,"is_reserved":false,"is_disabled":false,"rental_uris":{"android":"levelo://app?vid=65239163-aefd-4d0e-8c7e-871013de6ce9","ios":"levelo://app?vid=65239163-aefd-4d0e-8c7e-871013de6ce9"},"vehicle_type_id":"4","last_reported":1724861411,"current_range_meters":18000,"station_id":"ce4bgn12rcd13ifvqbt0","pricing_plan_id":"cebpf4jnsgd1na2vs0mg"},{"bike_id":"93667eb5-dc54-49ae-9c56-912fb33ffd12","system_id":"levelo_inurba_marseille","lat":43.297163,"lon":5.365866,"is_reserved":false,"is_disabled":false,"rental_uris":{"android":"levelo://app?vid=93667eb5-dc54-49ae-9c56-912fb33ffd12","ios":"levelo://app?vid=93667eb5-dc54-49ae-9c56-912fb33ffd12"},"vehicle_type_id":"4","last_reported":1724861411,"current_range_meters":26000,"station_id":"ce4bgn12rcd13ifvqbt0","pricing_plan_id":"cebpf4jnsgd1na2vs0mg"},{"bike_id":"25f8022e-cbcf-446a-9c10-1537288daa32","system_id":"levelo_inurba_marseille","lat":43.297163,"lon":5.365866,"is_reserved":false,"is_disabled":false,"rental_uris":{"android":"levelo://app?vid=25f8022e-cbcf-446a-9c10-1537288daa32","ios":"levelo://app?vid=25f8022e-cbcf-446a-9c10-1537288daa32"},"vehicle_type_id":"4","last_reported":1724861411,"current_range_meters":14400,"station_id":"ce4bgn12rcd13ifvqbt0","pricing_plan_id":"cebpf4jnsgd1na2vs0mg"},{"bike_id":"30ffba90-6ab5-46cd-89df-45d1723eb055","system_id":"levelo_inurba_marseille","lat":43.297163,"lon":5.365866,"is_reserved":false,"is_disabled":false,"rental_uris":{"android":"levelo://app?vid=30ffba90-6ab5-46cd-89df-45d1723eb055","ios":"levelo://app?vid=30ffba90-6ab5-46cd-89df-45d1723eb055"},"vehicle_type_id":"4","last_reported":1724861411,"current_range_meters":2000,"station_id":"ce4bgn12rcd13ifvqbt0","pricing_plan_id":"cebpf4jnsgd1na2vs0mg"},{"bike_id":"229da007-c4c2-46d6-bf7e-b456b327ad83","system_id":"levelo_inurba_marseille","lat":43.31528,"lon":5.38929,"is_reserved":false,"is_disabled":false,"rental_uris":{"android":"levelo://app?vid=229da007-c4c2-46d6-bf7e-b456b327ad83","ios":"levelo://app?vid=229da007-c4c2-46d6-bf7e-b456b327ad83"},"vehicle_type_id":"4","last_reported":1724861411,"current_range_meters":13600,"station_id":"","pricing_plan_id":"cebpf4jnsgd1na2vs0mg"},{"bike_id":"bc4313de-c8b8-4f30-912d-eccd1ce66687","system_id":"levelo_inurba_marseille","lat":43.29669,"lon":5.36144,"is_reserved":false,"is_disabled":false,"rental_uris":{"android":"levelo://app?vid=bc4313de-c8b8-4f30-912d-eccd1ce66687","ios":"levelo://app?vid=bc4313de-c8b8-4f30-912d-eccd1ce66687"},"vehicle_type_id":"4","last_reported":1724861411,"current_range_meters":15600,"station_id":"","pricing_plan_id":"cebpf4jnsgd1na2vs0mg"},{"bike_id":"b8a9fb2c-7ace-41c9-8262-e3da26bf26d2","system_id":"levelo_inurba_marseille","lat":43.29584,"lon":5.36743,"is_reserved":false,"is_disabled":false,"rental_uris":{"android":"levelo://app?vid=b8a9fb2c-7ace-41c9-8262-e3da26bf26d2","ios":"levelo://app?vid=b8a9fb2c-7ace-41c9-8262-e3da26bf26d2"},"vehicle_type_id":"4","last_reported":1724861411,"current_range_meters":4400,"station_id":"ce4bgph2rcd13ifvqc2g","pricing_plan_id":"cebpf4jnsgd1na2vs0mg"},{"bike_id":"30986a2a-7de1-4f7a-b731-bbab885b5bf0","system_id":"levelo_inurba_marseille","lat":43.29573,"lon":5.367355,"is_reserved":false,"is_disabled":false,"rental_uris":{"android":"levelo://app?vid=30986a2a-7de1-4f7a-b731-bbab885b5bf0","ios":"levelo://app?vid=30986a2a-7de1-4f7a-b731-bbab885b5bf0"},"vehicle_type_id":"4","last_reported":1724861411,"current_range_meters":22400,"station_id":"ce4bgph2rcd13ifvqc2g","pricing_plan_id":"cebpf4jnsgd1na2vs0mg"},{"bike_id":"5e7a42a1-c157-42a1-be3e-171e80165e20","system_id":"levelo_inurba_marseille","lat":43.29573,"lon":5.367355,"is_reserved":false,"is_disabled":false,"rental_uris":{"android":"levelo://app?vid=5e7a42a1-c157-42a1-be3e-171e80165e20","ios":"levelo://app?vid=5e7a42a1-c157-42a1-be3e-171e80165e20"},"vehicle_type_id":"4","last_reported":1724861411,"current_range_meters":24400,"station_id":"ce4bgph2rcd13ifvqc2g","pricing_plan_id":"cebpf4jnsgd1na2vs0mg"},{"bike_id":"e90c2908-0e71-4559-9c1c-852383441863","system_id":"levelo_inurba_marseille","lat":43.29573,"lon":5.367355,"is_reserved":false,"is_disabled":false,"rental_uris":{"android":"levelo://app?vid=e90c2908-0e71-4559-9c1c-852383441863","ios":"levelo://app?vid=e90c2908-0e71-4559-9c1c-852383441863"},"vehicle_type_id":"4","last_reported":1724861411,"current_range_meters":23600,"station_id":"ce4bgph2rcd13ifvqc2g","pricing_plan_id":"cebpf4jnsgd1na2vs0mg"},{"bike_id":"b715ce24-92e4-46d7-8e9e-7fc3ad4ff158","system_id":"levelo_inurba_marseille","lat":43.29573,"lon":5.367355,"is_reserved":false,"is_disabled":false,"rental_uris":{"android":"levelo://app?vid=b715ce24-92e4-46d7-8e9e-7fc3ad4ff158","ios":"levelo://app?vid=b715ce24-92e4-46d7-8e9e-7fc3ad4ff158"},"vehicle_type_id":"4","last_reported":1724861411,"current_range_meters":31200,"station_id":"ce4bgph2rcd13ifvqc2g","pricing_plan_id":"cebpf4jnsgd1na2vs0mg"},{"bike_id":"e993dc2c-139b-4e38-8d7d-18bcfcdd852c","system_id":"levelo_inurba_marseille","lat":43.29573,"lon":5.367355,"is_reserved":false,"is_disabled":false,"rental_uris":{"android":"levelo://app?vid=e993dc2c-139b-4e38-8d7d-18bcfcdd852c","ios":"levelo://app?vid=e993dc2c-139b-4e38-8d7d-18bcfcdd852c"},"vehicle_type_id":"4","last_reported":1724861411,"current_range_meters":10400,"station_id":"ce4bgph2rcd13ifvqc2g","pricing_plan_id":"cebpf4jnsgd1na2vs0mg"},{"bike_id":"328eec4e-51de-473b-990d-bb5dd1d51465","system_id":"levelo_inurba_marseille","lat":43.296921,"lon":5.376579,"is_reserved":false,"is_disabled":false,"rental_uris":{"android":"levelo://app?vid=328eec4e-51de-473b-990d-bb5dd1d51465","ios":"levelo://app?vid=328eec4e-51de-473b-990d-bb5dd1d51465"},"vehicle_type_id":"4","last_reported":1724861411,"current_range_meters":4800,"station_id":"ce4bgkh2rcd13ifvqbl0","pricing_plan_id":"cebpf4jnsgd1na2vs0mg"},{"bike_id":"6e521ad0-2e6d-4646-978a-84168676259d","system_id":"levelo_inurba_marseille","lat":43.299028,"lon":5.381509,"is_reserved":false,"is_disabled":false,"rental_uris":{"android":"levelo://app?vid=6e521ad0-2e6d-4646-978a-84168676259d","ios":"levelo://app?vid=6e521ad0-2e6d-4646-978a-84168676259d"},"vehicle_type_id":"4","last_reported":1724861411,"current_range_meters":8000,"station_id":"ce4bgj12rcd13ifvqbc0","pricing_plan_id":"cebpf4jnsgd1na2vs0mg"},{"bike_id":"498b7d91-c416-462e-be89-d261f7319629","system_id":"levelo_inurba_marseille","lat":43.299028,"lon":5.381509,"is_reserved":false,"is_disabled":false,"rental_uris":{"android":"levelo://app?vid=498b7d91-c416-462e-be89-d261f7319629","ios":"levelo://app?vid=498b7d91-c416-462e-be89-d261f7319629"},"vehicle_type_id":"4","last_reported":1724861411,"current_range_meters":15200,"station_id":"ce4bgj12rcd13ifvqbc0","pricing_plan_id":"cebpf4jnsgd1na2vs0mg"},{"bike_id":"e8b2b7d4-b8a1-4646-bc69-a1e393e99927","system_id":"levelo_inurba_marseille","lat":43.3095,"lon":5.39029,"is_reserved":false,"is_disabled":false,"rental_uris":{"android":"levelo://app?vid=e8b2b7d4-b8a1-4646-bc69-a1e393e99927","ios":"levelo://app?vid=e8b2b7d4-b8a1-4646-bc69-a1e393e99927"},"vehicle_type_id":"4","last_reported":1724861411,"current_range_meters":0,"station_id":"ce4bgup2rcd13ifvqco0","pricing_plan_id":"cebpf4jnsgd1na2vs0mg"},{"bike_id":"79c4dffa-c248-4889-be72-7cd89e515998","system_id":"levelo_inurba_marseille","lat":43.317557,"lon":5.390173,"is_reserved":false,"is_disabled":false,"rental_uris":{"android":"levelo://app?vid=79c4dffa-c248-4889-be72-7cd89e515998","ios":"levelo://app?vid=79c4dffa-c248-4889-be72-7cd89e515998"},"vehicle_type_id":"4","last_reported":1724861411,"current_range_meters":16400,"station_id":"ce4bhqp2rcd13ifvqhng","pricing_plan_id":"cebpf4jnsgd1na2vs0mg"},{"bike_id":"767ef6eb-d4f7-48ac-b178-6a5a6c3654ed","system_id":"levelo_inurba_marseille","lat":43.317557,"lon":5.390173,"is_reserved":false,"is_disabled":false,"rental_uris":{"android":"levelo://app?vid=767ef6eb-d4f7-48ac-b178-6a5a6c3654ed","ios":"levelo://app?vid=767ef6eb-d4f7-48ac-b178-6a5a6c3654ed"},"vehicle_type_id":"4","last_reported":1724861411,"current_range_meters":2000,"station_id":"ce4bhqp2rcd13ifvqhng","pricing_plan_id":"cebpf4jnsgd1na2vs0mg"},{"bike_id":"8c94cad1-07f7-4620-933b-898352702753","system_id":"levelo_inurba_marseille","lat":43.317557,"lon":5.390173,"is_reserved":false,"is_disabled":false,"rental_uris":{"android":"levelo://app?vid=8c94cad1-07f7-4620-933b-898352702753","ios":"levelo://app?vid=8c94cad1-07f7-4620-933b-898352702753"},"vehicle_type_id":"4","last_reported":1724861411,"current_range_meters":0,"station_id":"ce4bhqp2rcd13ifvqhng","pricing_plan_id":"cebpf4jnsgd1na2vs0mg"},{"bike_id":"f21888eb-13fb-476e-a013-120f1abe4634","system_id":"levelo_inurba_marseille","lat":43.317557,"lon":5.390173,"is_reserved":false,"is_disabled":false,"rental_uris":{"android":"levelo://app?vid=f21888eb-13fb-476e-a013-120f1abe4634","ios":"levelo://app?vid=f21888eb-13fb-476e-a013-120f1abe4634"},"vehicle_type_id":"4","last_reported":1724861411,"current_range_meters":0,"station_id":"ce4bhqp2rcd13ifvqhng","pricing_plan_id":"cebpf4jnsgd1na2vs0mg"},{"bike_id":"0543fb03-d452-4ef9-91e9-8f66a24011fa","system_id":"levelo_inurba_marseille","lat":43.298037,"lon":5.381066,"is_reserved":false,"is_disabled":false,"rental_uris":{"android":"levelo://app?vid=0543fb03-d452-4ef9-91e9-8f66a24011fa","ios":"levelo://app?vid=0543fb03-d452-4ef9-91e9-8f66a24011fa"},"vehicle_type_id":"4","last_reported":1724861411,"current_range_meters":14400,"station_id":"ce4bgip2rcd13ifvqbb0","pricing_plan_id":"cebpf4jnsgd1na2vs0mg"},{"bike_id":"be93696c-2925-495b-b4eb-03a38aa110f0","system_id":"levelo_inurba_marseille","lat":43.29586,"lon":5.37515,"is_reserved":false,"is_disabled":false,"rental_uris":{"android":"levelo://app?vid=be93696c-2925-495b-b4eb-03a38aa110f0","ios":"levelo://app?vid=be93696c-2925-495b-b4eb-03a38aa110f0"},"vehicle_type_id":"4","last_reported":1724861411,"current_range_meters":24800,"station_id":"ce4bgh92rcd13ifvqb50","pricing_plan_id":"cebpf4jnsgd1na2vs0mg"},{"bike_id":"4cd05eaa-0621-45f4-bae4-7f0f609957a4","system_id":"levelo_inurba_marseille","lat":43.304274,"lon":5.388873,"is_reserved":false,"is_disabled":false,"rental_uris":{"android":"levelo://app?vid=4cd05eaa-0621-45f4-bae4-7f0f609957a4","ios":"levelo://app?vid=4cd05eaa-0621-45f4-bae4-7f0f609957a4"},"vehicle_type_id":"4","last_reported":1724861411,"current_range_meters":22800,"station_id":"ce4bgk12rcd13ifvqbi0","pricing_plan_id":"cebpf4jnsgd1na2vs0mg"},{"bike_id":"3a3e9ee6-9ea0-49d8-92a0-7971577f1b17","system_id":"levelo_inurba_marseille","lat":43.304278,"lon":5.388868,"is_reserved":false,"is_disabled":false,"rental_uris":{"android":"levelo://app?vid=3a3e9ee6-9ea0-49d8-92a0-7971577f1b17","ios":"levelo://app?vid=3a3e9ee6-9ea0-49d8-92a0-7971577f1b17"},"vehicle_type_id":"4","last_reported":1724861411,"current_range_meters":23200,"station_id":"ce4bgk12rcd13ifvqbi0","pricing_plan_id":"cebpf4jnsgd1na2vs0mg"},{"bike_id":"6772eb90-c385-4b33-a422-0be9a897fb9e","system_id":"levelo_inurba_marseille","lat":43.304274,"lon":5.388873,"is_reserved":false,"is_disabled":false,"rental_uris":{"android":"levelo://app?vid=6772eb90-c385-4b33-a422-0be9a897fb9e","ios":"levelo://app?vid=6772eb90-c385-4b33-a422-0be9a897fb9e"},"vehicle_type_id":"4","last_reported":1724861411,"current_range_meters":17200,"station_id":"ce4bgk12rcd13ifvqbi0","pricing_plan_id":"cebpf4jnsgd1na2vs0mg"},{"bike_id":"8f4e2d87-e7b7-46d6-8f2c-fceb3d3a6836","system_id":"levelo_inurba_marseille","lat":43.295748,"lon":5.37522,"is_reserved":false,"is_disabled":false,"rental_uris":{"android":"levelo://app?vid=8f4e2d87-e7b7-46d6-8f2c-fceb3d3a6836","ios":"levelo://app?vid=8f4e2d87-e7b7-46d6-8f2c-fceb3d3a6836"},"vehicle_type_id":"4","last_reported":1724861411,"current_range_meters":29200,"station_id":"ce4bgh92rcd13ifvqb50","pricing_plan_id":"cebpf4jnsgd1na2vs0mg"},{"bike_id":"fec5a6d1-bdbb-480b-851d-f4cadb4fc874","system_id":"levelo_inurba_marseille","lat":43.304278,"lon":5.388868,"is_reserved":false,"is_disabled":false,"rental_uris":{"android":"levelo://app?vid=fec5a6d1-bdbb-480b-851d-f4cadb4fc874","ios":"levelo://app?vid=fec5a6d1-bdbb-480b-851d-f4cadb4fc874"},"vehicle_type_id":"4","last_reported":1724861411,"current_range_meters":31200,"station_id":"ce4bgk12rcd13ifvqbi0","pricing_plan_id":"cebpf4jnsgd1na2vs0mg"},{"bike_id":"9bed31f4-68bf-40b9-bf45-5e90054f6dc3","system_id":"levelo_inurba_marseille","lat":43.304278,"lon":5.388868,"is_reserved":false,"is_disabled":false,"rental_uris":{"android":"levelo://app?vid=9bed31f4-68bf-40b9-bf45-5e90054f6dc3","ios":"levelo://app?vid=9bed31f4-68bf-40b9-bf45-5e90054f6dc3"},"vehicle_type_id":"4","last_reported":1724861411,"current_range_meters":10000,"station_id":"ce4bgk12rcd13ifvqbi0","pricing_plan_id":"cebpf4jnsgd1na2vs0mg"},{"bike_id":"6cc34c17-7ef9-484c-9fc6-d3d722963acc","system_id":"levelo_inurba_marseille","lat":43.295748,"lon":5.37522,"is_reserved":false,"is_disabled":false,"rental_uris":{"android":"levelo://app?vid=6cc34c17-7ef9-484c-9fc6-d3d722963acc","ios":"levelo://app?vid=6cc34c17-7ef9-484c-9fc6-d3d722963acc"},"vehicle_type_id":"4","last_reported":1724861411,"current_range_meters":21600,"station_id":"ce4bgh92rcd13ifvqb50","pricing_plan_id":"cebpf4jnsgd1na2vs0mg"},{"bike_id":"1e259c46-738b-4488-80b0-b54bddc90204","system_id":"levelo_inurba_marseille","lat":43.296277,"lon":5.377108,"is_reserved":false,"is_disabled":false,"rental_uris":{"android":"levelo://app?vid=1e259c46-738b-4488-80b0-b54bddc90204","ios":"levelo://app?vid=1e259c46-738b-4488-80b0-b54bddc90204"},"vehicle_type_id":"4","last_reported":1724861411,"current_range_meters":30000,"station_id":"ce4bgi92rcd13ifvqb90","pricing_plan_id":"cebpf4jnsgd1na2vs0mg"},{"bike_id":"aa93050f-26b2-4aa8-bca0-0c9294f13d7e","system_id":"levelo_inurba_marseille","lat":43.296193,"lon":5.377393,"is_reserved":false,"is_disabled":false,"rental_uris":{"android":"levelo://app?vid=aa93050f-26b2-4aa8-bca0-0c9294f13d7e","ios":"levelo://app?vid=aa93050f-26b2-4aa8-bca0-0c9294f13d7e"},"vehicle_type_id":"4","last_reported":1724861411,"current_range_meters":24800,"station_id":"ce4bgi92rcd13ifvqb90","pricing_plan_id":"cebpf4jnsgd1na2vs0mg"},{"bike_id":"4ac7d3dc-30ea-408b-8aca-5866e8007994","system_id":"levelo_inurba_marseille","lat":43.299707,"lon":5.384859,"is_reserved":false,"is_disabled":false,"rental_uris":{"android":"levelo://app?vid=4ac7d3dc-30ea-408b-8aca-5866e8007994","ios":"levelo://app?vid=4ac7d3dc-30ea-408b-8aca-5866e8007994"},"vehicle_type_id":"4","last_reported":1724861411,"current_range_meters":28400,"station_id":"ce4bgj92rcd13ifvqbd0","pricing_plan_id":"cebpf4jnsgd1na2vs0mg"},{"bike_id":"a56fdf2f-4f78-4a16-9560-11446e5dc288","system_id":"levelo_inurba_marseille","lat":43.299707,"lon":5.384859,"is_reserved":false,"is_disabled":false,"rental_uris":{"android":"levelo://app?vid=a56fdf2f-4f78-4a16-9560-11446e5dc288","ios":"levelo://app?vid=a56fdf2f-4f78-4a16-9560-11446e5dc288"},"vehicle_type_id":"4","last_reported":1724861411,"current_range_meters":0,"station_id":"ce4bgj92rcd13ifvqbd0","pricing_plan_id":"cebpf4jnsgd1na2vs0mg"},{"bike_id":"6a7041b2-d977-4b16-a9d4-63262fcc9fa1","system_id":"levelo_inurba_marseille","lat":43.299707,"lon":5.384859,"is_reserved":false,"is_disabled":false,"rental_uris":{"android":"levelo://app?vid=6a7041b2-d977-4b16-a9d4-63262fcc9fa1","ios":"levelo://app?vid=6a7041b2-d977-4b16-a9d4-63262fcc9fa1"},"vehicle_type_id":"4","last_reported":1724861411,"current_range_meters":19200,"station_id":"ce4bgj92rcd13ifvqbd0","pricing_plan_id":"cebpf4jnsgd1na2vs0mg"},{"bike_id":"9c8a18ff-d4c7-4fd8-a611-c1dd81275895","system_id":"levelo_inurba_marseille","lat":43.295279,"lon":5.375048,"is_reserved":false,"is_disabled":false,"rental_uris":{"android":"levelo://app?vid=9c8a18ff-d4c7-4fd8-a611-c1dd81275895","ios":"levelo://app?vid=9c8a18ff-d4c7-4fd8-a611-c1dd81275895"},"vehicle_type_id":"4","last_reported":1724861411,"current_range_meters":400,"station_id":"ce4bgkp2rcd13ifvqbmg","pricing_plan_id":"cebpf4jnsgd1na2vs0mg"},{"bike_id":"7dcc67b5-9c4c-42a9-963b-d2288ed46931","system_id":"levelo_inurba_marseille","lat":43.314477,"lon":5.39261,"is_reserved":false,"is_disabled":false,"rental_uris":{"android":"levelo://app?vid=7dcc67b5-9c4c-42a9-963b-d2288ed46931","ios":"levelo://app?vid=7dcc67b5-9c4c-42a9-963b-d2288ed46931"},"vehicle_type_id":"4","last_reported":1724861411,"current_range_meters":30400,"station_id":"","pricing_plan_id":"cebpf4jnsgd1na2vs0mg"},{"bike_id":"8c020cb9-145f-4b2a-ac24-95275ba329ed","system_id":"levelo_inurba_marseille","lat":43.32367,"lon":5.388836,"is_reserved":false,"is_disabled":false,"rental_uris":{"android":"levelo://app?vid=8c020cb9-145f-4b2a-ac24-95275ba329ed","ios":"levelo://app?vid=8c020cb9-145f-4b2a-ac24-95275ba329ed"},"vehicle_type_id":"4","last_reported":1724861411,"current_range_meters":6000,"station_id":"ce4bhqp2rcd13ifvqhog","pricing_plan_id":"cebpf4jnsgd1na2vs0mg"},{"bike_id":"481ff2a5-855a-497b-87ae-e7a441a2b291","system_id":"levelo_inurba_marseille","lat":43.32361,"lon":5.38885,"is_reserved":false,"is_disabled":false,"rental_uris":{"android":"levelo://app?vid=481ff2a5-855a-497b-87ae-e7a441a2b291","ios":"levelo://app?vid=481ff2a5-855a-497b-87ae-e7a441a2b291"},"vehicle_type_id":"4","last_reported":1724861411,"current_range_meters":14000,"station_id":"ce4bhqp2rcd13ifvqhog","pricing_plan_id":"cebpf4jnsgd1na2vs0mg"},{"bike_id":"36edbb9a-4944-442c-8c53-57931af2c6bc","system_id":"levelo_inurba_marseille","lat":43.32367,"lon":5.388836,"is_reserved":false,"is_disabled":false,"rental_uris":{"android":"levelo://app?vid=36edbb9a-4944-442c-8c53-57931af2c6bc","ios":"levelo://app?vid=36edbb9a-4944-442c-8c53-57931af2c6bc"},"vehicle_type_id":"4","last_reported":1724861411,"current_range_meters":4400,"station_id":"ce4bhqp2rcd13ifvqhog","pricing_plan_id":"cebpf4jnsgd1na2vs0mg"},{"bike_id":"dc819171-5779-4657-b132-0f1b07b24dba","system_id":"levelo_inurba_marseille","lat":43.32367,"lon":5.388836,"is_reserved":false,"is_disabled":false,"rental_uris":{"android":"levelo://app?vid=dc819171-5779-4657-b132-0f1b07b24dba","ios":"levelo://app?vid=dc819171-5779-4657-b132-0f1b07b24dba"},"vehicle_type_id":"4","last_reported":1724861411,"current_range_meters":2000,"station_id":"ce4bhqp2rcd13ifvqhog","pricing_plan_id":"cebpf4jnsgd1na2vs0mg"},{"bike_id":"09f83755-3827-4685-a747-888150a890d7","system_id":"levelo_inurba_marseille","lat":43.32365,"lon":5.38886,"is_reserved":false,"is_disabled":false,"rental_uris":{"android":"levelo://app?vid=09f83755-3827-4685-a747-888150a890d7","ios":"levelo://app?vid=09f83755-3827-4685-a747-888150a890d7"},"vehicle_type_id":"4","last_reported":1724861411,"current_range_meters":3200,"station_id":"ce4bhqp2rcd13ifvqhog","pricing_plan_id":"cebpf4jnsgd1na2vs0mg"},{"bike_id":"0d9bf6e1-bcf0-4256-83ce-b85e4f0c800e","system_id":"levelo_inurba_marseille","lat":43.3118,"lon":5.3935,"is_reserved":false,"is_disabled":false,"rental_uris":{"android":"levelo://app?vid=0d9bf6e1-bcf0-4256-83ce-b85e4f0c800e","ios":"levelo://app?vid=0d9bf6e1-bcf0-4256-83ce-b85e4f0c800e"},"vehicle_type_id":"4","last_reported":1724861411,"current_range_meters":16800,"station_id":"","pricing_plan_id":"cebpf4jnsgd1na2vs0mg"},{"bike_id":"e9e42d0f-40ba-493e-a6f0-5b41420e9b59","system_id":"levelo_inurba_marseille","lat":43.29602,"lon":5.381084,"is_reserved":false,"is_disabled":false,"rental_uris":{"android":"levelo://app?vid=e9e42d0f-40ba-493e-a6f0-5b41420e9b59","ios":"levelo://app?vid=e9e42d0f-40ba-493e-a6f0-5b41420e9b59"},"vehicle_type_id":"4","last_reported":1724861411,"current_range_meters":10000,"station_id":"ce4bgl12rcd13ifvqbo0","pricing_plan_id":"cebpf4jnsgd1na2vs0mg"},{"bike_id":"aa929c5a-a32d-4435-91fb-942d2eafbeb1","system_id":"levelo_inurba_marseille","lat":43.29602,"lon":5.381084,"is_reserved":false,"is_disabled":false,"rental_uris":{"android":"levelo://app?vid=aa929c5a-a32d-4435-91fb-942d2eafbeb1","ios":"levelo://app?vid=aa929c5a-a32d-4435-91fb-942d2eafbeb1"},"vehicle_type_id":"4","last_reported":1724861411,"current_range_meters":10800,"station_id":"ce4bgl12rcd13ifvqbo0","pricing_plan_id":"cebpf4jnsgd1na2vs0mg"},{"bike_id":"4fb3c51b-bbd8-4dd3-988f-b5dcd68e6e01","system_id":"levelo_inurba_marseille","lat":43.29602,"lon":5.381084,"is_reserved":false,"is_disabled":false,"rental_uris":{"android":"levelo://app?vid=4fb3c51b-bbd8-4dd3-988f-b5dcd68e6e01","ios":"levelo://app?vid=4fb3c51b-bbd8-4dd3-988f-b5dcd68e6e01"},"vehicle_type_id":"4","last_reported":1724861411,"current_range_meters":3200,"station_id":"ce4bgl12rcd13ifvqbo0","pricing_plan_id":"cebpf4jnsgd1na2vs0mg"},{"bike_id":"38d4c9c3-3bdc-4a36-a728-3feffae3d6e7","system_id":"levelo_inurba_marseille","lat":43.30235,"lon":5.39037,"is_reserved":false,"is_disabled":false,"rental_uris":{"android":"levelo://app?vid=38d4c9c3-3bdc-4a36-a728-3feffae3d6e7","ios":"levelo://app?vid=38d4c9c3-3bdc-4a36-a728-3feffae3d6e7"},"vehicle_type_id":"4","last_reported":1724861411,"current_range_meters":28800,"station_id":"","pricing_plan_id":"cebpf4jnsgd1na2vs0mg"},{"bike_id":"bd70e523-b117-46a9-aa9f-43e3b62e12b3","system_id":"levelo_inurba_marseille","lat":43.293259,"lon":5.371586,"is_reserved":false,"is_disabled":false,"rental_uris":{"android":"levelo://app?vid=bd70e523-b117-46a9-aa9f-43e3b62e12b3","ios":"levelo://app?vid=bd70e523-b117-46a9-aa9f-43e3b62e12b3"},"vehicle_type_id":"4","last_reported":1724861411,"current_range_meters":11600,"station_id":"ce4bgh92rcd13ifvqb40","pricing_plan_id":"cebpf4jnsgd1na2vs0mg"},{"bike_id":"c9ce92d7-eec3-4f8d-aca4-b99e73a07b8a","system_id":"levelo_inurba_marseille","lat":43.293259,"lon":5.371586,"is_reserved":false,"is_disabled":false,"rental_uris":{"android":"levelo://app?vid=c9ce92d7-eec3-4f8d-aca4-b99e73a07b8a","ios":"levelo://app?vid=c9ce92d7-eec3-4f8d-aca4-b99e73a07b8a"},"vehicle_type_id":"4","last_reported":1724861411,"current_range_meters":18800,"station_id":"ce4bgh92rcd13ifvqb40","pricing_plan_id":"cebpf4jnsgd1na2vs0mg"},{"bike_id":"d66d0bae-546d-4680-b8d7-623eee3a7b9a","system_id":"levelo_inurba_marseille","lat":43.29302,"lon":5.3717,"is_reserved":false,"is_disabled":false,"rental_uris":{"android":"levelo://app?vid=d66d0bae-546d-4680-b8d7-623eee3a7b9a","ios":"levelo://app?vid=d66d0bae-546d-4680-b8d7-623eee3a7b9a"},"vehicle_type_id":"4","last_reported":1724861411,"current_range_meters":19600,"station_id":"ce4bgh92rcd13ifvqb40","pricing_plan_id":"cebpf4jnsgd1na2vs0mg"},{"bike_id":"f12d66b1-4614-4837-a352-735c52604d6b","system_id":"levelo_inurba_marseille","lat":43.293259,"lon":5.371586,"is_reserved":false,"is_disabled":false,"rental_uris":{"android":"levelo://app?vid=f12d66b1-4614-4837-a352-735c52604d6b","ios":"levelo://app?vid=f12d66b1-4614-4837-a352-735c52604d6b"},"vehicle_type_id":"4","last_reported":1724861411,"current_range_meters":5200,"station_id":"ce4bgh92rcd13ifvqb40","pricing_plan_id":"cebpf4jnsgd1na2vs0mg"},{"bike_id":"3eb270c8-b8f5-4015-a08b-0bc208863716","system_id":"levelo_inurba_marseille","lat":43.293259,"lon":5.371586,"is_reserved":false,"is_disabled":false,"rental_uris":{"android":"levelo://app?vid=3eb270c8-b8f5-4015-a08b-0bc208863716","ios":"levelo://app?vid=3eb270c8-b8f5-4015-a08b-0bc208863716"},"vehicle_type_id":"4","last_reported":1724861411,"current_range_meters":2400,"station_id":"ce4bgh92rcd13ifvqb40","pricing_plan_id":"cebpf4jnsgd1na2vs0mg"},{"bike_id":"8d24655b-5ce8-4fe4-bed0-d78b6b803e8e","system_id":"levelo_inurba_marseille","lat":43.292749,"lon":5.368398,"is_reserved":false,"is_disabled":false,"rental_uris":{"android":"levelo://app?vid=8d24655b-5ce8-4fe4-bed0-d78b6b803e8e","ios":"levelo://app?vid=8d24655b-5ce8-4fe4-bed0-d78b6b803e8e"},"vehicle_type_id":"4","last_reported":1724861411,"current_range_meters":26800,"station_id":"ce4bhbp2rcd13ifvqesg","pricing_plan_id":"cebpf4jnsgd1na2vs0mg"},{"bike_id":"24b3aca6-ddd7-4743-9286-1e1e00a01acc","system_id":"levelo_inurba_marseille","lat":43.292749,"lon":5.368398,"is_reserved":false,"is_disabled":false,"rental_uris":{"android":"levelo://app?vid=24b3aca6-ddd7-4743-9286-1e1e00a01acc","ios":"levelo://app?vid=24b3aca6-ddd7-4743-9286-1e1e00a01acc"},"vehicle_type_id":"4","last_reported":1724861411,"current_range_meters":8400,"station_id":"ce4bhbp2rcd13ifvqesg","pricing_plan_id":"cebpf4jnsgd1na2vs0mg"},{"bike_id":"7a385891-07d7-4236-b983-cfdd6b1e8d10","system_id":"levelo_inurba_marseille","lat":43.29309,"lon":5.37461,"is_reserved":false,"is_disabled":false,"rental_uris":{"android":"levelo://app?vid=7a385891-07d7-4236-b983-cfdd6b1e8d10","ios":"levelo://app?vid=7a385891-07d7-4236-b983-cfdd6b1e8d10"},"vehicle_type_id":"4","last_reported":1724861411,"current_range_meters":26000,"station_id":"ce4bgi12rcd13ifvqb70","pricing_plan_id":"cebpf4jnsgd1na2vs0mg"},{"bike_id":"8c2d7101-5696-4d89-9713-6fd53232ccc9","system_id":"levelo_inurba_marseille","lat":43.30596,"lon":5.3936,"is_reserved":false,"is_disabled":false,"rental_uris":{"android":"levelo://app?vid=8c2d7101-5696-4d89-9713-6fd53232ccc9","ios":"levelo://app?vid=8c2d7101-5696-4d89-9713-6fd53232ccc9"},"vehicle_type_id":"4","last_reported":1724861411,"current_range_meters":20400,"station_id":"ce4bh0p2rcd13ifvqd80","pricing_plan_id":"cebpf4jnsgd1na2vs0mg"},{"bike_id":"98ef64fe-1d35-4c2e-a858-203ccc114b3e","system_id":"levelo_inurba_marseille","lat":43.293009,"lon":5.374584,"is_reserved":false,"is_disabled":false,"rental_uris":{"android":"levelo://app?vid=98ef64fe-1d35-4c2e-a858-203ccc114b3e","ios":"levelo://app?vid=98ef64fe-1d35-4c2e-a858-203ccc114b3e"},"vehicle_type_id":"4","last_reported":1724861411,"current_range_meters":15200,"station_id":"ce4bgi12rcd13ifvqb70","pricing_plan_id":"cebpf4jnsgd1na2vs0mg"},{"bike_id":"8d441dd6-0e6c-41ed-b960-a22f08279840","system_id":"levelo_inurba_marseille","lat":43.293009,"lon":5.374584,"is_reserved":false,"is_disabled":false,"rental_uris":{"android":"levelo://app?vid=8d441dd6-0e6c-41ed-b960-a22f08279840","ios":"levelo://app?vid=8d441dd6-0e6c-41ed-b960-a22f08279840"},"vehicle_type_id":"4","last_reported":1724861411,"current_range_meters":0,"station_id":"ce4bgi12rcd13ifvqb70","pricing_plan_id":"cebpf4jnsgd1na2vs0mg"},{"bike_id":"31f756f6-307a-4877-829d-22c8faf4436c","system_id":"levelo_inurba_marseille","lat":43.30604,"lon":5.39364,"is_reserved":false,"is_disabled":false,"rental_uris":{"android":"levelo://app?vid=31f756f6-307a-4877-829d-22c8faf4436c","ios":"levelo://app?vid=31f756f6-307a-4877-829d-22c8faf4436c"},"vehicle_type_id":"4","last_reported":1724861411,"current_range_meters":20400,"station_id":"ce4bh0p2rcd13ifvqd80","pricing_plan_id":"cebpf4jnsgd1na2vs0mg"},{"bike_id":"92a8f46d-69cd-47b0-99ae-d9035cefd028","system_id":"levelo_inurba_marseille","lat":43.30291,"lon":5.39197,"is_reserved":false,"is_disabled":false,"rental_uris":{"android":"levelo://app?vid=92a8f46d-69cd-47b0-99ae-d9035cefd028","ios":"levelo://app?vid=92a8f46d-69cd-47b0-99ae-d9035cefd028"},"vehicle_type_id":"4","last_reported":1724861411,"current_range_meters":30800,"station_id":"ce4bgkh2rcd13ifvqbk0","pricing_plan_id":"cebpf4jnsgd1na2vs0mg"},{"bike_id":"845a773d-34c1-447b-9382-edb1c31227f8","system_id":"levelo_inurba_marseille","lat":43.29224,"lon":5.36074,"is_reserved":false,"is_disabled":false,"rental_uris":{"android":"levelo://app?vid=845a773d-34c1-447b-9382-edb1c31227f8","ios":"levelo://app?vid=845a773d-34c1-447b-9382-edb1c31227f8"},"vehicle_type_id":"4","last_reported":1724861411,"current_range_meters":20800,"station_id":"ce4bhbh2rcd13ifvqeqg","pricing_plan_id":"cebpf4jnsgd1na2vs0mg"},{"bike_id":"d8095707-b347-46cf-880e-53ea3aae54de","system_id":"levelo_inurba_marseille","lat":43.30085,"lon":5.390856,"is_reserved":false,"is_disabled":false,"rental_uris":{"android":"levelo://app?vid=d8095707-b347-46cf-880e-53ea3aae54de","ios":"levelo://app?vid=d8095707-b347-46cf-880e-53ea3aae54de"},"vehicle_type_id":"4","last_reported":1724861411,"current_range_meters":6000,"station_id":"ce4bh192rcd13ifvqdb0","pricing_plan_id":"cebpf4jnsgd1na2vs0mg"},{"bike_id":"0bf57d27-8405-4edc-a332-1747847161f5","system_id":"levelo_inurba_marseille","lat":43.30085,"lon":5.390856,"is_reserved":false,"is_disabled":false,"rental_uris":{"android":"levelo://app?vid=0bf57d27-8405-4edc-a332-1747847161f5","ios":"levelo://app?vid=0bf57d27-8405-4edc-a332-1747847161f5"},"vehicle_type_id":"4","last_reported":1724861411,"current_range_meters":5600,"station_id":"ce4bh192rcd13ifvqdb0","pricing_plan_id":"cebpf4jnsgd1na2vs0mg"},{"bike_id":"66737ec5-4290-469c-a33c-4f60eff76fd3","system_id":"levelo_inurba_marseille","lat":43.302784,"lon":5.377158,"is_reserved":false,"is_disabled":false,"rental_uris":{"android":"levelo://app?vid=66737ec5-4290-469c-a33c-4f60eff76fd3","ios":"levelo://app?vid=66737ec5-4290-469c-a33c-4f60eff76fd3"},"vehicle_type_id":"4","last_reported":1724861411,"current_range_meters":21200,"station_id":"ce4bguh2rcd13ifvqcj0","pricing_plan_id":"cebpf4jnsgd1na2vs0mg"},{"bike_id":"1d622e0d-9379-45d9-a983-ff4200bee9c5","system_id":"levelo_inurba_marseille","lat":43.298764,"lon":5.388973,"is_reserved":false,"is_disabled":false,"rental_uris":{"android":"levelo://app?vid=1d622e0d-9379-45d9-a983-ff4200bee9c5","ios":"levelo://app?vid=1d622e0d-9379-45d9-a983-ff4200bee9c5"},"vehicle_type_id":"4","last_reported":1724861411,"current_range_meters":28800,"station_id":"ce4bh392rcd13ifvqdl0","pricing_plan_id":"cebpf4jnsgd1na2vs0mg"},{"bike_id":"ec45371d-d37d-43bb-a9a0-5b0e13e5b824","system_id":"levelo_inurba_marseille","lat":43.298764,"lon":5.388973,"is_reserved":false,"is_disabled":false,"rental_uris":{"android":"levelo://app?vid=ec45371d-d37d-43bb-a9a0-5b0e13e5b824","ios":"levelo://app?vid=ec45371d-d37d-43bb-a9a0-5b0e13e5b824"},"vehicle_type_id":"4","last_reported":1724861411,"current_range_meters":24800,"station_id":"ce4bh392rcd13ifvqdl0","pricing_plan_id":"cebpf4jnsgd1na2vs0mg"},{"bike_id":"6ec26894-1009-4119-8d54-130716849248","system_id":"levelo_inurba_marseille","lat":43.3008,"lon":5.39128,"is_reserved":false,"is_disabled":false,"rental_uris":{"android":"levelo://app?vid=6ec26894-1009-4119-8d54-130716849248","ios":"levelo://app?vid=6ec26894-1009-4119-8d54-130716849248"},"vehicle_type_id":"4","last_reported":1724861411,"current_range_meters":1200,"station_id":"","pricing_plan_id":"cebpf4jnsgd1na2vs0mg"},{"bike_id":"c95ba3ed-dabe-47cf-8cff-40ef08e15114","system_id":"levelo_inurba_marseille","lat":43.30112,"lon":5.3918,"is_reserved":false,"is_disabled":false,"rental_uris":{"android":"levelo://app?vid=c95ba3ed-dabe-47cf-8cff-40ef08e15114","ios":"levelo://app?vid=c95ba3ed-dabe-47cf-8cff-40ef08e15114"},"vehicle_type_id":"4","last_reported":1724861411,"current_range_meters":26800,"station_id":"","pricing_plan_id":"cebpf4jnsgd1na2vs0mg"},{"bike_id":"6efa75ed-ac97-401f-9dfa-9340dbc73a73","system_id":"levelo_inurba_marseille","lat":43.29214,"lon":5.35802,"is_reserved":false,"is_disabled":false,"rental_uris":{"android":"levelo://app?vid=6efa75ed-ac97-401f-9dfa-9340dbc73a73","ios":"levelo://app?vid=6efa75ed-ac97-401f-9dfa-9340dbc73a73"},"vehicle_type_id":"4","last_reported":1724861411,"current_range_meters":12800,"station_id":"ce4bhb12rcd13ifvqel0","pricing_plan_id":"cebpf4jnsgd1na2vs0mg"},{"bike_id":"e8a6d1ed-4532-46a5-ba31-877470fdfafd","system_id":"levelo_inurba_marseille","lat":43.29529,"lon":5.385581,"is_reserved":false,"is_disabled":false,"rental_uris":{"android":"levelo://app?vid=e8a6d1ed-4532-46a5-ba31-877470fdfafd","ios":"levelo://app?vid=e8a6d1ed-4532-46a5-ba31-877470fdfafd"},"vehicle_type_id":"4","last_reported":1724861411,"current_range_meters":15200,"station_id":"ce4bgih2rcd13ifvqba0","pricing_plan_id":"cebpf4jnsgd1na2vs0mg"},{"bike_id":"25ae8aba-05ee-4761-bc8d-efeed146bc06","system_id":"levelo_inurba_marseille","lat":43.334061,"lon":5.361348,"is_reserved":false,"is_disabled":false,"rental_uris":{"android":"levelo://app?vid=25ae8aba-05ee-4761-bc8d-efeed146bc06","ios":"levelo://app?vid=25ae8aba-05ee-4761-bc8d-efeed146bc06"},"vehicle_type_id":"4","last_reported":1724861411,"current_range_meters":1200,"station_id":"","pricing_plan_id":"cebpf4jnsgd1na2vs0mg"},{"bike_id":"ac926fbc-1654-4eb8-b646-c307589b3d6c","system_id":"levelo_inurba_marseille","lat":43.309047,"lon":5.396551,"is_reserved":false,"is_disabled":false,"rental_uris":{"android":"levelo://app?vid=ac926fbc-1654-4eb8-b646-c307589b3d6c","ios":"levelo://app?vid=ac926fbc-1654-4eb8-b646-c307589b3d6c"},"vehicle_type_id":"4","last_reported":1724861411,"current_range_meters":24800,"station_id":"ce4bh012rcd13ifvqcv0","pricing_plan_id":"cebpf4jnsgd1na2vs0mg"},{"bike_id":"8d5b62b0-e972-4183-91bf-ec128eee6994","system_id":"levelo_inurba_marseille","lat":43.29197,"lon":5.35821,"is_reserved":false,"is_disabled":false,"rental_uris":{"android":"levelo://app?vid=8d5b62b0-e972-4183-91bf-ec128eee6994","ios":"levelo://app?vid=8d5b62b0-e972-4183-91bf-ec128eee6994"},"vehicle_type_id":"4","last_reported":1724861411,"current_range_meters":8000,"station_id":"ce4bhb12rcd13ifvqel0","pricing_plan_id":"cebpf4jnsgd1na2vs0mg"},{"bike_id":"ae237a1b-0ce3-4751-92e7-15feda4d7f83","system_id":"levelo_inurba_marseille","lat":43.291998,"lon":5.357999,"is_reserved":false,"is_disabled":false,"rental_uris":{"android":"levelo://app?vid=ae237a1b-0ce3-4751-92e7-15feda4d7f83","ios":"levelo://app?vid=ae237a1b-0ce3-4751-92e7-15feda4d7f83"},"vehicle_type_id":"4","last_reported":1724861411,"current_range_meters":24800,"station_id":"","pricing_plan_id":"cebpf4jnsgd1na2vs0mg"},{"bike_id":"15386e1f-a8ed-478b-b443-3f4d242dc9d4","system_id":"levelo_inurba_marseille","lat":43.29195,"lon":5.35806,"is_reserved":false,"is_disabled":false,"rental_uris":{"android":"levelo://app?vid=15386e1f-a8ed-478b-b443-3f4d242dc9d4","ios":"levelo://app?vid=15386e1f-a8ed-478b-b443-3f4d242dc9d4"},"vehicle_type_id":"4","last_reported":1724861411,"current_range_meters":16800,"station_id":"ce4bhb12rcd13ifvqel0","pricing_plan_id":"cebpf4jnsgd1na2vs0mg"},{"bike_id":"756ed52d-32f2-41a2-a0c9-3b470c87c60b","system_id":"levelo_inurba_marseille","lat":43.313291,"lon":5.396838,"is_reserved":false,"is_disabled":false,"rental_uris":{"android":"levelo://app?vid=756ed52d-32f2-41a2-a0c9-3b470c87c60b","ios":"levelo://app?vid=756ed52d-32f2-41a2-a0c9-3b470c87c60b"},"vehicle_type_id":"4","last_reported":1724861411,"current_range_meters":800,"station_id":"ce4bgvp2rcd13ifvqcu0","pricing_plan_id":"cebpf4jnsgd1na2vs0mg"},{"bike_id":"49361080-424f-4d8c-8b36-8454729acf7f","system_id":"levelo_inurba_marseille","lat":43.291788,"lon":5.375265,"is_reserved":false,"is_disabled":false,"rental_uris":{"android":"levelo://app?vid=49361080-424f-4d8c-8b36-8454729acf7f","ios":"levelo://app?vid=49361080-424f-4d8c-8b36-8454729acf7f"},"vehicle_type_id":"4","last_reported":1724861411,"current_range_meters":0,"station_id":"","pricing_plan_id":"cebpf4jnsgd1na2vs0mg"},{"bike_id":"17d993bc-9727-4cd6-9c1e-fadc5f90b30f","system_id":"levelo_inurba_marseille","lat":43.31329,"lon":5.3969,"is_reserved":false,"is_disabled":false,"rental_uris":{"android":"levelo://app?vid=17d993bc-9727-4cd6-9c1e-fadc5f90b30f","ios":"levelo://app?vid=17d993bc-9727-4cd6-9c1e-fadc5f90b30f"},"vehicle_type_id":"4","last_reported":1724861411,"current_range_meters":0,"station_id":"ce4bgvp2rcd13ifvqcu0","pricing_plan_id":"cebpf4jnsgd1na2vs0mg"},{"bike_id":"c19989ae-b357-4a55-9116-abab0f5d5def","system_id":"levelo_inurba_marseille","lat":43.29191,"lon":5.35791,"is_reserved":false,"is_disabled":false,"rental_uris":{"android":"levelo://app?vid=c19989ae-b357-4a55-9116-abab0f5d5def","ios":"levelo://app?vid=c19989ae-b357-4a55-9116-abab0f5d5def"},"vehicle_type_id":"4","last_reported":1724861411,"current_range_meters":31200,"station_id":"ce4bhb12rcd13ifvqel0","pricing_plan_id":"cebpf4jnsgd1na2vs0mg"},{"bike_id":"be5ef385-6c32-44c7-adad-b517b00fac33","system_id":"levelo_inurba_marseille","lat":43.29189,"lon":5.35798,"is_reserved":false,"is_disabled":false,"rental_uris":{"android":"levelo://app?vid=be5ef385-6c32-44c7-adad-b517b00fac33","ios":"levelo://app?vid=be5ef385-6c32-44c7-adad-b517b00fac33"},"vehicle_type_id":"4","last_reported":1724861411,"current_range_meters":31200,"station_id":"ce4bhb12rcd13ifvqel0","pricing_plan_id":"cebpf4jnsgd1na2vs0mg"},{"bike_id":"3621759a-b06b-4bd1-99c1-7593974d5d65","system_id":"levelo_inurba_marseille","lat":43.313291,"lon":5.396838,"is_reserved":false,"is_disabled":false,"rental_uris":{"android":"levelo://app?vid=3621759a-b06b-4bd1-99c1-7593974d5d65","ios":"levelo://app?vid=3621759a-b06b-4bd1-99c1-7593974d5d65"},"vehicle_type_id":"4","last_reported":1724861411,"current_range_meters":24400,"station_id":"ce4bgvp2rcd13ifvqcu0","pricing_plan_id":"cebpf4jnsgd1na2vs0mg"},{"bike_id":"74995e95-9bfd-4396-a991-cc1ab3525fa1","system_id":"levelo_inurba_marseille","lat":43.29529,"lon":5.385581,"is_reserved":false,"is_disabled":false,"rental_uris":{"android":"levelo://app?vid=74995e95-9bfd-4396-a991-cc1ab3525fa1","ios":"levelo://app?vid=74995e95-9bfd-4396-a991-cc1ab3525fa1"},"vehicle_type_id":"4","last_reported":1724861411,"current_range_meters":31200,"station_id":"ce4bgih2rcd13ifvqba0","pricing_plan_id":"cebpf4jnsgd1na2vs0mg"},{"bike_id":"ecce185a-9ea6-4e58-9d22-9327590f4a3d","system_id":"levelo_inurba_marseille","lat":43.29529,"lon":5.385581,"is_reserved":false,"is_disabled":false,"rental_uris":{"android":"levelo://app?vid=ecce185a-9ea6-4e58-9d22-9327590f4a3d","ios":"levelo://app?vid=ecce185a-9ea6-4e58-9d22-9327590f4a3d"},"vehicle_type_id":"4","last_reported":1724861411,"current_range_meters":17600,"station_id":"ce4bgih2rcd13ifvqba0","pricing_plan_id":"cebpf4jnsgd1na2vs0mg"},{"bike_id":"34a31d70-20ab-4f35-80eb-3fe9dde18bd5","system_id":"levelo_inurba_marseille","lat":43.29529,"lon":5.385581,"is_reserved":false,"is_disabled":false,"rental_uris":{"android":"levelo://app?vid=34a31d70-20ab-4f35-80eb-3fe9dde18bd5","ios":"levelo://app?vid=34a31d70-20ab-4f35-80eb-3fe9dde18bd5"},"vehicle_type_id":"4","last_reported":1724861411,"current_range_meters":30800,"station_id":"ce4bgih2rcd13ifvqba0","pricing_plan_id":"cebpf4jnsgd1na2vs0mg"},{"bike_id":"662257fc-7f68-436f-aa7f-80a4369a5a1e","system_id":"levelo_inurba_marseille","lat":43.29529,"lon":5.385581,"is_reserved":false,"is_disabled":false,"rental_uris":{"android":"levelo://app?vid=662257fc-7f68-436f-aa7f-80a4369a5a1e","ios":"levelo://app?vid=662257fc-7f68-436f-aa7f-80a4369a5a1e"},"vehicle_type_id":"4","last_reported":1724861411,"current_range_meters":31600,"station_id":"ce4bgih2rcd13ifvqba0","pricing_plan_id":"cebpf4jnsgd1na2vs0mg"},{"bike_id":"e95581de-d79d-407f-85c8-55b1778ab7cb","system_id":"levelo_inurba_marseille","lat":43.29529,"lon":5.385581,"is_reserved":false,"is_disabled":false,"rental_uris":{"android":"levelo://app?vid=e95581de-d79d-407f-85c8-55b1778ab7cb","ios":"levelo://app?vid=e95581de-d79d-407f-85c8-55b1778ab7cb"},"vehicle_type_id":"4","last_reported":1724861411,"current_range_meters":16400,"station_id":"ce4bgih2rcd13ifvqba0","pricing_plan_id":"cebpf4jnsgd1na2vs0mg"},{"bike_id":"79943fd3-35d8-448b-bdec-e14208c5fce0","system_id":"levelo_inurba_marseille","lat":43.29529,"lon":5.385581,"is_reserved":false,"is_disabled":false,"rental_uris":{"android":"levelo://app?vid=79943fd3-35d8-448b-bdec-e14208c5fce0","ios":"levelo://app?vid=79943fd3-35d8-448b-bdec-e14208c5fce0"},"vehicle_type_id":"4","last_reported":1724861411,"current_range_meters":16000,"station_id":"ce4bgih2rcd13ifvqba0","pricing_plan_id":"cebpf4jnsgd1na2vs0mg"},{"bike_id":"3a53bd99-235e-4690-8629-9ba9bd3e7a94","system_id":"levelo_inurba_marseille","lat":43.29529,"lon":5.385581,"is_reserved":false,"is_disabled":false,"rental_uris":{"android":"levelo://app?vid=3a53bd99-235e-4690-8629-9ba9bd3e7a94","ios":"levelo://app?vid=3a53bd99-235e-4690-8629-9ba9bd3e7a94"},"vehicle_type_id":"4","last_reported":1724861411,"current_range_meters":22800,"station_id":"ce4bgih2rcd13ifvqba0","pricing_plan_id":"cebpf4jnsgd1na2vs0mg"},{"bike_id":"cf2ba1c8-708e-4149-8609-f0562d026a84","system_id":"levelo_inurba_marseille","lat":43.29528,"lon":5.38542,"is_reserved":false,"is_disabled":false,"rental_uris":{"android":"levelo://app?vid=cf2ba1c8-708e-4149-8609-f0562d026a84","ios":"levelo://app?vid=cf2ba1c8-708e-4149-8609-f0562d026a84"},"vehicle_type_id":"4","last_reported":1724861411,"current_range_meters":31200,"station_id":"","pricing_plan_id":"cebpf4jnsgd1na2vs0mg"},{"bike_id":"1444616a-f54d-420e-a04a-5d6cad89028e","system_id":"levelo_inurba_marseille","lat":43.29529,"lon":5.385581,"is_reserved":false,"is_disabled":false,"rental_uris":{"android":"levelo://app?vid=1444616a-f54d-420e-a04a-5d6cad89028e","ios":"levelo://app?vid=1444616a-f54d-420e-a04a-5d6cad89028e"},"vehicle_type_id":"4","last_reported":1724861411,"current_range_meters":26000,"station_id":"ce4bgih2rcd13ifvqba0","pricing_plan_id":"cebpf4jnsgd1na2vs0mg"},{"bike_id":"9204b5f6-5ac9-45cd-b41e-6e0302e6e7ce","system_id":"levelo_inurba_marseille","lat":43.29529,"lon":5.385581,"is_reserved":false,"is_disabled":false,"rental_uris":{"android":"levelo://app?vid=9204b5f6-5ac9-45cd-b41e-6e0302e6e7ce","ios":"levelo://app?vid=9204b5f6-5ac9-45cd-b41e-6e0302e6e7ce"},"vehicle_type_id":"4","last_reported":1724861411,"current_range_meters":30000,"station_id":"ce4bgih2rcd13ifvqba0","pricing_plan_id":"cebpf4jnsgd1na2vs0mg"},{"bike_id":"5768e432-d5ee-4a18-b419-293313ee067f","system_id":"levelo_inurba_marseille","lat":43.29529,"lon":5.385581,"is_reserved":false,"is_disabled":false,"rental_uris":{"android":"levelo://app?vid=5768e432-d5ee-4a18-b419-293313ee067f","ios":"levelo://app?vid=5768e432-d5ee-4a18-b419-293313ee067f"},"vehicle_type_id":"4","last_reported":1724861411,"current_range_meters":17200,"station_id":"ce4bgih2rcd13ifvqba0","pricing_plan_id":"cebpf4jnsgd1na2vs0mg"},{"bike_id":"26173917-a565-4125-82f8-96a1b0fc33e8","system_id":"levelo_inurba_marseille","lat":43.29529,"lon":5.385581,"is_reserved":false,"is_disabled":false,"rental_uris":{"android":"levelo://app?vid=26173917-a565-4125-82f8-96a1b0fc33e8","ios":"levelo://app?vid=26173917-a565-4125-82f8-96a1b0fc33e8"},"vehicle_type_id":"4","last_reported":1724861411,"current_range_meters":22800,"station_id":"ce4bgih2rcd13ifvqba0","pricing_plan_id":"cebpf4jnsgd1na2vs0mg"},{"bike_id":"ce567767-c78d-4209-a55a-616c2fe0941d","system_id":"levelo_inurba_marseille","lat":43.29529,"lon":5.385581,"is_reserved":false,"is_disabled":false,"rental_uris":{"android":"levelo://app?vid=ce567767-c78d-4209-a55a-616c2fe0941d","ios":"levelo://app?vid=ce567767-c78d-4209-a55a-616c2fe0941d"},"vehicle_type_id":"4","last_reported":1724861411,"current_range_meters":11600,"station_id":"ce4bgih2rcd13ifvqba0","pricing_plan_id":"cebpf4jnsgd1na2vs0mg"},{"bike_id":"2d987b66-1a94-469e-9918-6a33c5baf1a2","system_id":"levelo_inurba_marseille","lat":43.291934,"lon":5.356687,"is_reserved":false,"is_disabled":false,"rental_uris":{"android":"levelo://app?vid=2d987b66-1a94-469e-9918-6a33c5baf1a2","ios":"levelo://app?vid=2d987b66-1a94-469e-9918-6a33c5baf1a2"},"vehicle_type_id":"4","last_reported":1724861411,"current_range_meters":17200,"station_id":"","pricing_plan_id":"cebpf4jnsgd1na2vs0mg"},{"bike_id":"d77b8fb4-34f1-466b-bd0e-a52ba0bf4d9e","system_id":"levelo_inurba_marseille","lat":43.29529,"lon":5.385581,"is_reserved":false,"is_disabled":false,"rental_uris":{"android":"levelo://app?vid=d77b8fb4-34f1-466b-bd0e-a52ba0bf4d9e","ios":"levelo://app?vid=d77b8fb4-34f1-466b-bd0e-a52ba0bf4d9e"},"vehicle_type_id":"4","last_reported":1724861411,"current_range_meters":27200,"station_id":"ce4bgih2rcd13ifvqba0","pricing_plan_id":"cebpf4jnsgd1na2vs0mg"},{"bike_id":"55ff1bf1-1855-44e8-bfaa-52a72de6b769","system_id":"levelo_inurba_marseille","lat":43.30209,"lon":5.39463,"is_reserved":false,"is_disabled":false,"rental_uris":{"android":"levelo://app?vid=55ff1bf1-1855-44e8-bfaa-52a72de6b769","ios":"levelo://app?vid=55ff1bf1-1855-44e8-bfaa-52a72de6b769"},"vehicle_type_id":"4","last_reported":1724861411,"current_range_meters":31200,"station_id":"ce4bh0p2rcd13ifvqd70","pricing_plan_id":"cebpf4jnsgd1na2vs0mg"},{"bike_id":"5a6bfc4f-01ea-4ed5-ae68-0ba3181a3563","system_id":"levelo_inurba_marseille","lat":43.3021,"lon":5.39466,"is_reserved":false,"is_disabled":false,"rental_uris":{"android":"levelo://app?vid=5a6bfc4f-01ea-4ed5-ae68-0ba3181a3563","ios":"levelo://app?vid=5a6bfc4f-01ea-4ed5-ae68-0ba3181a3563"},"vehicle_type_id":"4","last_reported":1724861411,"current_range_meters":16800,"station_id":"ce4bh0p2rcd13ifvqd70","pricing_plan_id":"cebpf4jnsgd1na2vs0mg"},{"bike_id":"29401697-e353-40d1-9f32-2fefdd8c70c3","system_id":"levelo_inurba_marseille","lat":43.302008,"lon":5.394694,"is_reserved":false,"is_disabled":false,"rental_uris":{"android":"levelo://app?vid=29401697-e353-40d1-9f32-2fefdd8c70c3","ios":"levelo://app?vid=29401697-e353-40d1-9f32-2fefdd8c70c3"},"vehicle_type_id":"4","last_reported":1724861411,"current_range_meters":28400,"station_id":"ce4bh0p2rcd13ifvqd70","pricing_plan_id":"cebpf4jnsgd1na2vs0mg"},{"bike_id":"1eb2b0d8-a81a-4a49-a74e-df42abd6d7b7","system_id":"levelo_inurba_marseille","lat":43.294153,"lon":5.386305,"is_reserved":false,"is_disabled":false,"rental_uris":{"android":"levelo://app?vid=1eb2b0d8-a81a-4a49-a74e-df42abd6d7b7","ios":"levelo://app?vid=1eb2b0d8-a81a-4a49-a74e-df42abd6d7b7"},"vehicle_type_id":"4","last_reported":1724861411,"current_range_meters":20400,"station_id":"ce4bh2h2rcd13ifvqdh0","pricing_plan_id":"cebpf4jnsgd1na2vs0mg"},{"bike_id":"802f44a7-1149-42a4-9ce7-0d6e1fc9e617","system_id":"levelo_inurba_marseille","lat":43.29419,"lon":5.38615,"is_reserved":false,"is_disabled":false,"rental_uris":{"android":"levelo://app?vid=802f44a7-1149-42a4-9ce7-0d6e1fc9e617","ios":"levelo://app?vid=802f44a7-1149-42a4-9ce7-0d6e1fc9e617"},"vehicle_type_id":"4","last_reported":1724861411,"current_range_meters":26800,"station_id":"ce4bh2h2rcd13ifvqdh0","pricing_plan_id":"cebpf4jnsgd1na2vs0mg"},{"bike_id":"3a1fdae0-f21a-49c9-8e98-1fdbe13cb7ab","system_id":"levelo_inurba_marseille","lat":43.294153,"lon":5.386305,"is_reserved":false,"is_disabled":false,"rental_uris":{"android":"levelo://app?vid=3a1fdae0-f21a-49c9-8e98-1fdbe13cb7ab","ios":"levelo://app?vid=3a1fdae0-f21a-49c9-8e98-1fdbe13cb7ab"},"vehicle_type_id":"4","last_reported":1724861411,"current_range_meters":24000,"station_id":"ce4bh2h2rcd13ifvqdh0","pricing_plan_id":"cebpf4jnsgd1na2vs0mg"},{"bike_id":"498b4136-eb26-4278-a5e6-9a6a4ee4cff7","system_id":"levelo_inurba_marseille","lat":43.294153,"lon":5.386305,"is_reserved":false,"is_disabled":false,"rental_uris":{"android":"levelo://app?vid=498b4136-eb26-4278-a5e6-9a6a4ee4cff7","ios":"levelo://app?vid=498b4136-eb26-4278-a5e6-9a6a4ee4cff7"},"vehicle_type_id":"4","last_reported":1724861411,"current_range_meters":5600,"station_id":"ce4bh2h2rcd13ifvqdh0","pricing_plan_id":"cebpf4jnsgd1na2vs0mg"},{"bike_id":"5b77a26c-ba54-437e-a61f-20e1b1bcece0","system_id":"levelo_inurba_marseille","lat":43.294153,"lon":5.386305,"is_reserved":false,"is_disabled":false,"rental_uris":{"android":"levelo://app?vid=5b77a26c-ba54-437e-a61f-20e1b1bcece0","ios":"levelo://app?vid=5b77a26c-ba54-437e-a61f-20e1b1bcece0"},"vehicle_type_id":"4","last_reported":1724861411,"current_range_meters":0,"station_id":"ce4bh2h2rcd13ifvqdh0","pricing_plan_id":"cebpf4jnsgd1na2vs0mg"},{"bike_id":"981a078c-7142-4d23-bbc2-938fd5624392","system_id":"levelo_inurba_marseille","lat":43.29416,"lon":5.38623,"is_reserved":false,"is_disabled":false,"rental_uris":{"android":"levelo://app?vid=981a078c-7142-4d23-bbc2-938fd5624392","ios":"levelo://app?vid=981a078c-7142-4d23-bbc2-938fd5624392"},"vehicle_type_id":"4","last_reported":1724861411,"current_range_meters":9200,"station_id":"ce4bh2h2rcd13ifvqdh0","pricing_plan_id":"cebpf4jnsgd1na2vs0mg"},{"bike_id":"9ef6d240-85c3-4b7f-9b24-c18b298a0385","system_id":"levelo_inurba_marseille","lat":43.294153,"lon":5.386305,"is_reserved":false,"is_disabled":false,"rental_uris":{"android":"levelo://app?vid=9ef6d240-85c3-4b7f-9b24-c18b298a0385","ios":"levelo://app?vid=9ef6d240-85c3-4b7f-9b24-c18b298a0385"},"vehicle_type_id":"4","last_reported":1724861411,"current_range_meters":12000,"station_id":"ce4bh2h2rcd13ifvqdh0","pricing_plan_id":"cebpf4jnsgd1na2vs0mg"},{"bike_id":"2c056d79-f348-4c01-be00-48bbd324c396","system_id":"levelo_inurba_marseille","lat":43.294153,"lon":5.386305,"is_reserved":false,"is_disabled":false,"rental_uris":{"android":"levelo://app?vid=2c056d79-f348-4c01-be00-48bbd324c396","ios":"levelo://app?vid=2c056d79-f348-4c01-be00-48bbd324c396"},"vehicle_type_id":"4","last_reported":1724861411,"current_range_meters":7600,"station_id":"ce4bh2h2rcd13ifvqdh0","pricing_plan_id":"cebpf4jnsgd1na2vs0mg"},{"bike_id":"970ff970-7c5d-4073-acff-92c2459b222c","system_id":"levelo_inurba_marseille","lat":43.29413,"lon":5.38622,"is_reserved":false,"is_disabled":false,"rental_uris":{"android":"levelo://app?vid=970ff970-7c5d-4073-acff-92c2459b222c","ios":"levelo://app?vid=970ff970-7c5d-4073-acff-92c2459b222c"},"vehicle_type_id":"4","last_reported":1724861411,"current_range_meters":8800,"station_id":"ce4bh2h2rcd13ifvqdh0","pricing_plan_id":"cebpf4jnsgd1na2vs0mg"},{"bike_id":"6dacf311-caaf-41e1-805f-0c8cdf27d69e","system_id":"levelo_inurba_marseille","lat":43.29413,"lon":5.38626,"is_reserved":false,"is_disabled":false,"rental_uris":{"android":"levelo://app?vid=6dacf311-caaf-41e1-805f-0c8cdf27d69e","ios":"levelo://app?vid=6dacf311-caaf-41e1-805f-0c8cdf27d69e"},"vehicle_type_id":"4","last_reported":1724861411,"current_range_meters":21200,"station_id":"ce4bh2h2rcd13ifvqdh0","pricing_plan_id":"cebpf4jnsgd1na2vs0mg"},{"bike_id":"3e4f5af7-e215-4a13-a66d-8e969da9f84f","system_id":"levelo_inurba_marseille","lat":43.289184,"lon":5.366408,"is_reserved":false,"is_disabled":false,"rental_uris":{"android":"levelo://app?vid=3e4f5af7-e215-4a13-a66d-8e969da9f84f","ios":"levelo://app?vid=3e4f5af7-e215-4a13-a66d-8e969da9f84f"},"vehicle_type_id":"4","last_reported":1724861411,"current_range_meters":14400,"station_id":"ce4bhap2rcd13ifvqek0","pricing_plan_id":"cebpf4jnsgd1na2vs0mg"},{"bike_id":"85f2e629-3681-4ed1-9618-e4e36ce6f5be","system_id":"levelo_inurba_marseille","lat":43.28928,"lon":5.36636,"is_reserved":false,"is_disabled":false,"rental_uris":{"android":"levelo://app?vid=85f2e629-3681-4ed1-9618-e4e36ce6f5be","ios":"levelo://app?vid=85f2e629-3681-4ed1-9618-e4e36ce6f5be"},"vehicle_type_id":"4","last_reported":1724861411,"current_range_meters":15600,"station_id":"ce4bhap2rcd13ifvqek0","pricing_plan_id":"cebpf4jnsgd1na2vs0mg"},{"bike_id":"3fbfc558-7f8e-4cb3-a085-5f649b075fd6","system_id":"levelo_inurba_marseille","lat":43.289184,"lon":5.366408,"is_reserved":false,"is_disabled":false,"rental_uris":{"android":"levelo://app?vid=3fbfc558-7f8e-4cb3-a085-5f649b075fd6","ios":"levelo://app?vid=3fbfc558-7f8e-4cb3-a085-5f649b075fd6"},"vehicle_type_id":"4","last_reported":1724861411,"current_range_meters":12800,"station_id":"ce4bhap2rcd13ifvqek0","pricing_plan_id":"cebpf4jnsgd1na2vs0mg"},{"bike_id":"cedfcccb-87ba-4b1b-b003-ed0f977fb32b","system_id":"levelo_inurba_marseille","lat":43.289468,"lon":5.363719,"is_reserved":false,"is_disabled":false,"rental_uris":{"android":"levelo://app?vid=cedfcccb-87ba-4b1b-b003-ed0f977fb32b","ios":"levelo://app?vid=cedfcccb-87ba-4b1b-b003-ed0f977fb32b"},"vehicle_type_id":"4","last_reported":1724861411,"current_range_meters":29200,"station_id":"ce4bhc92rcd13ifvqetg","pricing_plan_id":"cebpf4jnsgd1na2vs0mg"},{"bike_id":"1c3f4f9c-f785-4f1f-b7bb-3e1d7516d5f7","system_id":"levelo_inurba_marseille","lat":43.292642,"lon":5.384254,"is_reserved":false,"is_disabled":false,"rental_uris":{"android":"levelo://app?vid=1c3f4f9c-f785-4f1f-b7bb-3e1d7516d5f7","ios":"levelo://app?vid=1c3f4f9c-f785-4f1f-b7bb-3e1d7516d5f7"},"vehicle_type_id":"4","last_reported":1724861411,"current_range_meters":0,"station_id":"ce4bh692rcd13ifvqea0","pricing_plan_id":"cebpf4jnsgd1na2vs0mg"},{"bike_id":"87ce7263-b73b-4a1a-8817-678a27653c28","system_id":"levelo_inurba_marseille","lat":43.292644,"lon":5.384257,"is_reserved":false,"is_disabled":false,"rental_uris":{"android":"levelo://app?vid=87ce7263-b73b-4a1a-8817-678a27653c28","ios":"levelo://app?vid=87ce7263-b73b-4a1a-8817-678a27653c28"},"vehicle_type_id":"4","last_reported":1724861411,"current_range_meters":15200,"station_id":"ce4bh692rcd13ifvqea0","pricing_plan_id":"cebpf4jnsgd1na2vs0mg"},{"bike_id":"e6a0373c-8d5a-4d5f-bfba-059be95939fd","system_id":"levelo_inurba_marseille","lat":43.292642,"lon":5.384254,"is_reserved":false,"is_disabled":false,"rental_uris":{"android":"levelo://app?vid=e6a0373c-8d5a-4d5f-bfba-059be95939fd","ios":"levelo://app?vid=e6a0373c-8d5a-4d5f-bfba-059be95939fd"},"vehicle_type_id":"4","last_reported":1724861411,"current_range_meters":6000,"station_id":"ce4bh692rcd13ifvqea0","pricing_plan_id":"cebpf4jnsgd1na2vs0mg"},{"bike_id":"7c2c2ed8-d313-4da0-a2bd-56976a040c77","system_id":"levelo_inurba_marseille","lat":43.2933,"lon":5.385727,"is_reserved":false,"is_disabled":false,"rental_uris":{"android":"levelo://app?vid=7c2c2ed8-d313-4da0-a2bd-56976a040c77","ios":"levelo://app?vid=7c2c2ed8-d313-4da0-a2bd-56976a040c77"},"vehicle_type_id":"4","last_reported":1724861411,"current_range_meters":14400,"station_id":"","pricing_plan_id":"cebpf4jnsgd1na2vs0mg"},{"bike_id":"bc3a934f-aa1c-45a7-9d2a-721209496838","system_id":"levelo_inurba_marseille","lat":43.292644,"lon":5.384257,"is_reserved":false,"is_disabled":false,"rental_uris":{"android":"levelo://app?vid=bc3a934f-aa1c-45a7-9d2a-721209496838","ios":"levelo://app?vid=bc3a934f-aa1c-45a7-9d2a-721209496838"},"vehicle_type_id":"4","last_reported":1724861411,"current_range_meters":24400,"station_id":"ce4bh692rcd13ifvqea0","pricing_plan_id":"cebpf4jnsgd1na2vs0mg"},{"bike_id":"915bf6c2-7937-4d74-907f-1b83aa9a2fcd","system_id":"levelo_inurba_marseille","lat":43.30429,"lon":5.39752,"is_reserved":false,"is_disabled":false,"rental_uris":{"android":"levelo://app?vid=915bf6c2-7937-4d74-907f-1b83aa9a2fcd","ios":"levelo://app?vid=915bf6c2-7937-4d74-907f-1b83aa9a2fcd"},"vehicle_type_id":"4","last_reported":1724861411,"current_range_meters":0,"station_id":"ce4bh092rcd13ifvqd20","pricing_plan_id":"cebpf4jnsgd1na2vs0mg"},{"bike_id":"cab9e59f-0083-438c-8544-58d459f561f6","system_id":"levelo_inurba_marseille","lat":43.292644,"lon":5.384257,"is_reserved":false,"is_disabled":false,"rental_uris":{"android":"levelo://app?vid=cab9e59f-0083-438c-8544-58d459f561f6","ios":"levelo://app?vid=cab9e59f-0083-438c-8544-58d459f561f6"},"vehicle_type_id":"4","last_reported":1724861411,"current_range_meters":25200,"station_id":"ce4bh692rcd13ifvqea0","pricing_plan_id":"cebpf4jnsgd1na2vs0mg"},{"bike_id":"061a4a6d-feca-4b1f-a7ea-bbfd86364fbd","system_id":"levelo_inurba_marseille","lat":43.292642,"lon":5.384254,"is_reserved":false,"is_disabled":false,"rental_uris":{"android":"levelo://app?vid=061a4a6d-feca-4b1f-a7ea-bbfd86364fbd","ios":"levelo://app?vid=061a4a6d-feca-4b1f-a7ea-bbfd86364fbd"},"vehicle_type_id":"4","last_reported":1724861411,"current_range_meters":18400,"station_id":"ce4bh692rcd13ifvqea0","pricing_plan_id":"cebpf4jnsgd1na2vs0mg"},{"bike_id":"1bee7ba2-fd10-4089-bd9c-2898956d4075","system_id":"levelo_inurba_marseille","lat":43.30423,"lon":5.39759,"is_reserved":false,"is_disabled":false,"rental_uris":{"android":"levelo://app?vid=1bee7ba2-fd10-4089-bd9c-2898956d4075","ios":"levelo://app?vid=1bee7ba2-fd10-4089-bd9c-2898956d4075"},"vehicle_type_id":"4","last_reported":1724861411,"current_range_meters":5600,"station_id":"ce4bh092rcd13ifvqd20","pricing_plan_id":"cebpf4jnsgd1na2vs0mg"},{"bike_id":"36328e60-40f8-4ab0-80e4-b04e23574bf8","system_id":"levelo_inurba_marseille","lat":43.29251,"lon":5.38449,"is_reserved":false,"is_disabled":false,"rental_uris":{"android":"levelo://app?vid=36328e60-40f8-4ab0-80e4-b04e23574bf8","ios":"levelo://app?vid=36328e60-40f8-4ab0-80e4-b04e23574bf8"},"vehicle_type_id":"4","last_reported":1724861411,"current_range_meters":16800,"station_id":"ce4bh692rcd13ifvqea0","pricing_plan_id":"cebpf4jnsgd1na2vs0mg"},{"bike_id":"d5c678aa-6b59-4643-bb26-ab548d3a255c","system_id":"levelo_inurba_marseille","lat":43.290104,"lon":5.356111,"is_reserved":false,"is_disabled":false,"rental_uris":{"android":"levelo://app?vid=d5c678aa-6b59-4643-bb26-ab548d3a255c","ios":"levelo://app?vid=d5c678aa-6b59-4643-bb26-ab548d3a255c"},"vehicle_type_id":"4","last_reported":1724861411,"current_range_meters":6800,"station_id":"ce4bhb92rcd13ifvqen0","pricing_plan_id":"cebpf4jnsgd1na2vs0mg"},{"bike_id":"75555515-c4ef-497d-88a9-147e9a6cf7f3","system_id":"levelo_inurba_marseille","lat":43.29008,"lon":5.35622,"is_reserved":false,"is_disabled":false,"rental_uris":{"android":"levelo://app?vid=75555515-c4ef-497d-88a9-147e9a6cf7f3","ios":"levelo://app?vid=75555515-c4ef-497d-88a9-147e9a6cf7f3"},"vehicle_type_id":"4","last_reported":1724861411,"current_range_meters":31200,"station_id":"ce4bhb92rcd13ifvqen0","pricing_plan_id":"cebpf4jnsgd1na2vs0mg"},