{"last_updated":1746814465,"ttl":60,"version":"2.2","data":{"bikes":[{"bike_id":"39fee3b6-7972-4229-8d58-1bba2febac66","system_id":"levelo_inurba_marseille","lat":43.21751,"lon":5.346,"is_reserved":false,"is_disabled":false,"rental_uris":{"android":"levelo://app?vid=39fee3b6-7972-4229-8d58-1bba2febac66","ios":"levelo://app?vid=39fee3b6-7972-4229-8d58-1bba2febac66"},"vehicle_type_id":"4","last_reported":1746814465,"current_range_meters":2800,"station_id":"st_cvj6r9ubvosntc0bgbag","pricing_plan_id":"cebpf4jnsgd1na2vs0mg"},{"bike_id":"e70a6cc7-17eb-4c4e-8e7c-f66b5cfc0fab","system_id":"levelo_inurba_marseille","lat":43.21195,"lon":5.35079,"is_reserved":false,"is_disabled":false,"rental_uris":{"android":"levelo://app?vid=e70a6cc7-17eb-4c4e-8e7c-f66b5cfc0fab","ios":"levelo://app?vid=e70a6cc7-17eb-4c4e-8e7c-f66b5cfc0fab"},"vehicle_type_id":"4","last_reported":1746814465,"current_range_meters":2800,"station_id":"st_cvj6sg6p6f1abm77japg","pricing_plan_id":"cebpf4jnsgd1na2vs0mg"},{"bike_id":"01b9a1dc-4511-4e2a-b9f8-9001b8fb4b2f","system_id":"levelo_inurba_marseille","lat":43.30126,"lon":5.3986,"is_reserved":false,"is_disabled":false,"rental_uris":{"android":"levelo://app?vid=01b9a1dc-4511-4e2a-b9f8-9001b8fb4b2f","ios":"levelo://app?vid=01b9a1dc-4511-4e2a-b9f8-9001b8fb4b2f"},"vehicle_type_id":"4","last_reported":1746814465,"current_range_meters":2800,"station_id":"ce4bh0h2rcd13ifvqd40","pricing_plan_id":"cebpf4jnsgd1na2vs0mg"},{"bike_id":"89b0fde3-7c78-4629-8f3c-3d0a3435f0ec","system_id":"levelo_inurba_marseille","lat":43.23162,"lon":5.43691,"is_reserved":false,"is_disabled":false,"rental_uris":{"android":"levelo://app?vid=89b0fde3-7c78-4629-8f3c-3d0a3435f0ec","ios":"levelo://app?vid=89b0fde3-7c78-4629-8f3c-3d0a3435f0ec"},"vehicle_type_id":"4","last_reported":1746814465,"current_range_meters":3200,"station_id":"ce4bhmp2rcd13ifvqgog","pricing_plan_id":"cebpf4jnsgd1na2vs0mg"},{"bike_id":"4e34adca-1e17-4f20-a675-31cc6f21a4c8","system_id":"levelo_inurba_marseille","lat":43.27372,"lon":5.36257,"is_reserved":false,"is_disabled":false,"rental_uris":{"android":"levelo://app?vid=4e34adca-1e17-4f20-a675-31cc6f21a4c8","ios":"levelo://app?vid=4e34adca-1e17-4f20-a675-31cc6f21a4c8"},"vehicle_type_id":"4","last_reported":1746814465,"current_range_meters":2800,"station_id":"ce4bhbh2rcd13ifvqeo0","pricing_plan_id":"cebpf4jnsgd1na2vs0mg"},{"bike_id":"44f712da-532b-4123-b64a-1b0c04d1e11f","system_id":"levelo_inurba_marseille","lat":43.30121,"lon":5.37401,"is_reserved":false,"is_disabled":false,"rental_uris":{"android":"levelo://app?vid=44f712da-532b-4123-b64a-1b0c04d1e11f","ios":"levelo://app?vid=44f712da-532b-4123-b64a-1b0c04d1e11f"},"vehicle_type_id":"4","last_reported":1746814465,"current_range_meters":3600,"station_id":"ce4bgs92rcd13ifvqcc0","pricing_plan_id":"cebpf4jnsgd1na2vs0mg"},{"bike_id":"5f4e2656-c547-4c8e-ad72-30965dddbb9f","system_id":"levelo_inurba_marseille","lat":43.34147,"lon":5.409004,"is_reserved":false,"is_disabled":false,"rental_uris":{"android":"levelo://app?vid=5f4e2656-c547-4c8e-ad72-30965dddbb9f","ios":"levelo://app?vid=5f4e2656-c547-4c8e-ad72-30965dddbb9f"},"vehicle_type_id":"4","last_reported":1746814465,"current_range_meters":3200,"station_id":"ce4bhqh2rcd13ifvqhlg","pricing_plan_id":"cebpf4jnsgd1na2vs0mg"},{"bike_id":"795c7110-bad6-4ff1-95cc-69c260f8a800","system_id":"levelo_inurba_marseille","lat":43.28076,"lon":5.39662,"is_reserved":false,"is_disabled":false,"rental_uris":{"android":"levelo://app?vid=795c7110-bad6-4ff1-95cc-69c260f8a800","ios":"levelo://app?vid=795c7110-bad6-4ff1-95cc-69c260f8a800"},"vehicle_type_id":"4","last_reported":1746814465,"current_range_meters":3200,"station_id":"ce4bho12rcd13ifvqh2g","pricing_plan_id":"cebpf4jnsgd1na2vs0mg"},{"bike_id":"8a077ea4-87ce-48b5-9ef7-75e5999cddba","system_id":"levelo_inurba_marseille","lat":43.30335,"lon":5.39201,"is_reserved":false,"is_disabled":false,"rental_uris":{"android":"levelo://app?vid=8a077ea4-87ce-48b5-9ef7-75e5999cddba","ios":"levelo://app?vid=8a077ea4-87ce-48b5-9ef7-75e5999cddba"},"vehicle_type_id":"4","last_reported":1746814465,"current_range_meters":4000,"station_id":"ce4bgkh2rcd13ifvqbk0","pricing_plan_id":"cebpf4jnsgd1na2vs0mg"},{"bike_id":"7b02b9d2-0222-4315-8d9b-2e0db9dff6f1","system_id":"levelo_inurba_marseille","lat":43.290227,"lon":5.356124,"is_reserved":false,"is_disabled":false,"rental_uris":{"android":"levelo://app?vid=7b02b9d2-0222-4315-8d9b-2e0db9dff6f1","ios":"levelo://app?vid=7b02b9d2-0222-4315-8d9b-2e0db9dff6f1"},"vehicle_type_id":"4","last_reported":1746814465,"current_range_meters":4000,"station_id":"ce4bhb92rcd13ifvqen0","pricing_plan_id":"cebpf4jnsgd1na2vs0mg"},{"bike_id":"8701d2ef-7cfd-4e1d-8173-ecdeea76c633","system_id":"levelo_inurba_marseille","lat":43.28938,"lon":5.38401,"is_reserved":false,"is_disabled":false,"rental_uris":{"android":"levelo://app?vid=8701d2ef-7cfd-4e1d-8173-ecdeea76c633","ios":"levelo://app?vid=8701d2ef-7cfd-4e1d-8173-ecdeea76c633"},"vehicle_type_id":"4","last_reported":1746814465,"current_range_meters":1200,"station_id":"ce4bh612rcd13ifvqe6g","pricing_plan_id":"cebpf4jnsgd1na2vs0mg"},{"bike_id":"2aa9918c-90c0-4228-a23c-47f3fe3c3a74","system_id":"levelo_inurba_marseille","lat":43.294067,"lon":5.386308,"is_reserved":false,"is_disabled":false,"rental_uris":{"android":"levelo://app?vid=2aa9918c-90c0-4228-a23c-47f3fe3c3a74","ios":"levelo://app?vid=2aa9918c-90c0-4228-a23c-47f3fe3c3a74"},"vehicle_type_id":"4","last_reported":1746814465,"current_range_meters":6800,"station_id":"ce4bh2h2rcd13ifvqdh0","pricing_plan_id":"cebpf4jnsgd1na2vs0mg"},{"bike_id":"9e7b04f7-7314-46df-9b35-5fd6a94b857d","system_id":"levelo_inurba_marseille","lat":43.243872,"lon":5.370705,"is_reserved":false,"is_disabled":false,"rental_uris":{"android":"levelo://app?vid=9e7b04f7-7314-46df-9b35-5fd6a94b857d","ios":"levelo://app?vid=9e7b04f7-7314-46df-9b35-5fd6a94b857d"},"vehicle_type_id":"4","last_reported":1746814465,"current_range_meters":4800,"station_id":"ce4bhhh2rcd13ifvqfk0","pricing_plan_id":"cebpf4jnsgd1na2vs0mg"},{"bike_id":"067f8d27-eb5a-4096-8a53-5a39e1a25282","system_id":"levelo_inurba_marseille","lat":43.29263,"lon":5.37628,"is_reserved":false,"is_disabled":false,"rental_uris":{"android":"levelo://app?vid=067f8d27-eb5a-4096-8a53-5a39e1a25282","ios":"levelo://app?vid=067f8d27-eb5a-4096-8a53-5a39e1a25282"},"vehicle_type_id":"4","last_reported":1746814465,"current_range_meters":4800,"station_id":"ce4bgi12rcd13ifvqb80","pricing_plan_id":"cebpf4jnsgd1na2vs0mg"},{"bike_id":"2969dc81-5666-4b27-a811-40b09d4ae5ea","system_id":"levelo_inurba_marseille","lat":43.29017,"lon":5.38653,"is_reserved":false,"is_disabled":false,"rental_uris":{"android":"levelo://app?vid=2969dc81-5666-4b27-a811-40b09d4ae5ea","ios":"levelo://app?vid=2969dc81-5666-4b27-a811-40b09d4ae5ea"},"vehicle_type_id":"4","last_reported":1746814465,"current_range_meters":4800,"station_id":"ce4bh4p2rcd13ifvqe0g","pricing_plan_id":"cebpf4jnsgd1na2vs0mg"},{"bike_id":"f91a516f-0c73-425f-9194-000a828c8f9b","system_id":"levelo_inurba_marseille","lat":43.28945,"lon":5.36638,"is_reserved":false,"is_disabled":false,"rental_uris":{"android":"levelo://app?vid=f91a516f-0c73-425f-9194-000a828c8f9b","ios":"levelo://app?vid=f91a516f-0c73-425f-9194-000a828c8f9b"},"vehicle_type_id":"4","last_reported":1746814465,"current_range_meters":5600,"station_id":"ce4bhap2rcd13ifvqek0","pricing_plan_id":"cebpf4jnsgd1na2vs0mg"},{"bike_id":"af44b6b7-06af-4c19-8105-49b4080b5e1d","system_id":"levelo_inurba_marseille","lat":43.232,"lon":5.39981,"is_reserved":false,"is_disabled":false,"rental_uris":{"android":"levelo://app?vid=af44b6b7-06af-4c19-8105-49b4080b5e1d","ios":"levelo://app?vid=af44b6b7-06af-4c19-8105-49b4080b5e1d"},"vehicle_type_id":"4","last_reported":1746814465,"current_range_meters":5600,"station_id":"ce4bhn12rcd13ifvqgqg","pricing_plan_id":"cebpf4jnsgd1na2vs0mg"},{"bike_id":"3c6d0c37-471a-4ce7-b166-52edc6a87b8b","system_id":"levelo_inurba_marseille","lat":43.262282,"lon":5.404542,"is_reserved":false,"is_disabled":true,"rental_uris":{"android":"levelo://app?vid=3c6d0c37-471a-4ce7-b166-52edc6a87b8b","ios":"levelo://app?vid=3c6d0c37-471a-4ce7-b166-52edc6a87b8b"},"vehicle_type_id":"4","last_reported":1746814465,"current_range_meters":5600,"station_id":"ce4bhmh2rcd13ifvqgmg","pricing_plan_id":"cebpf4jnsgd1na2vs0mg"},{"bike_id":"1bcb9faf-9654-40dd-ae8d-257a3931c105","system_id":"levelo_inurba_marseille","lat":43.30434,"lon":5.38893,"is_reserved":false,"is_disabled":false,"rental_uris":{"android":"levelo://app?vid=1bcb9faf-9654-40dd-ae8d-257a3931c105","ios":"levelo://app?vid=1bcb9faf-9654-40dd-ae8d-257a3931c105"},"vehicle_type_id":"4","last_reported":1746814465,"current_range_meters":10800,"station_id":"ce4bgk12rcd13ifvqbi0","pricing_plan_id":"cebpf4jnsgd1na2vs0mg"},{"bike_id":"da8fd4c4-9c74-49c9-a26e-002fac6ef7c1","system_id":"levelo_inurba_marseille","lat":43.28612,"lon":5.35104,"is_reserved":false,"is_disabled":false,"rental_uris":{"android":"levelo://app?vid=da8fd4c4-9c74-49c9-a26e-002fac6ef7c1","ios":"levelo://app?vid=da8fd4c4-9c74-49c9-a26e-002fac6ef7c1"},"vehicle_type_id":"4","last_reported":1746814465,"current_range_meters":6000,"station_id":"ce4bhch2rcd13ifvqeug","pricing_plan_id":"cebpf4jnsgd1na2vs0mg"},{"bike_id":"2f883dbc-ca7e-45c3-8dba-9e47444f72a2","system_id":"levelo_inurba_marseille","lat":43.28355,"lon":5.38102,"is_reserved":false,"is_disabled":false,"rental_uris":{"android":"levelo://app?vid=2f883dbc-ca7e-45c3-8dba-9e47444f72a2","ios":"levelo://app?vid=2f883dbc-ca7e-45c3-8dba-9e47444f72a2"},"vehicle_type_id":"4","last_reported":1746814465,"current_range_meters":6000,"station_id":"ce4bh412rcd13ifvqdr0","pricing_plan_id":"cebpf4jnsgd1na2vs0mg"},{"bike_id":"00f7bdc4-f8ea-4e26-bda1-b525bac9c30a","system_id":"levelo_inurba_marseille","lat":43.28466,"lon":5.35889,"is_reserved":false,"is_disabled":false,"rental_uris":{"android":"levelo://app?vid=00f7bdc4-f8ea-4e26-bda1-b525bac9c30a","ios":"levelo://app?vid=00f7bdc4-f8ea-4e26-bda1-b525bac9c30a"},"vehicle_type_id":"4","last_reported":1746814465,"current_range_meters":6000,"station_id":"ce4bhah2rcd13ifvqei0","pricing_plan_id":"cebpf4jnsgd1na2vs0mg"},{"bike_id":"bf4e8cf4-90a1-451a-a376-56962e3ff11d","system_id":"levelo_inurba_marseille","lat":43.29895,"lon":5.43673,"is_reserved":false,"is_disabled":false,"rental_uris":{"android":"levelo://app?vid=bf4e8cf4-90a1-451a-a376-56962e3ff11d","ios":"levelo://app?vid=bf4e8cf4-90a1-451a-a376-56962e3ff11d"},"vehicle_type_id":"4","last_reported":1746814465,"current_range_meters":6000,"station_id":"ce4bhpp2rcd13ifvqhfg","pricing_plan_id":"cebpf4jnsgd1na2vs0mg"},{"bike_id":"807f2b0a-4c7d-4b26-85ac-25b85f3c7e20","system_id":"levelo_inurba_marseille","lat":43.28262,"lon":5.35071,"is_reserved":false,"is_disabled":false,"rental_uris":{"android":"levelo://app?vid=807f2b0a-4c7d-4b26-85ac-25b85f3c7e20","ios":"levelo://app?vid=807f2b0a-4c7d-4b26-85ac-25b85f3c7e20"},"vehicle_type_id":"4","last_reported":1746814465,"current_range_meters":6000,"station_id":"ce4bhbp2rcd13ifvqerg","pricing_plan_id":"cebpf4jnsgd1na2vs0mg"},{"bike_id":"a6952156-5fd9-4a13-80f5-152d6ddf508f","system_id":"levelo_inurba_marseille","lat":43.24549,"lon":5.39516,"is_reserved":false,"is_disabled":false,"rental_uris":{"android":"levelo://app?vid=a6952156-5fd9-4a13-80f5-152d6ddf508f","ios":"levelo://app?vid=a6952156-5fd9-4a13-80f5-152d6ddf508f"},"vehicle_type_id":"4","last_reported":1746814465,"current_range_meters":4000,"station_id":"ce4bhlp2rcd13ifvqgjg","pricing_plan_id":"cebpf4jnsgd1na2vs0mg"},{"bike_id":"08352857-35a3-4371-94e3-e4f6e3fb63c1","system_id":"levelo_inurba_marseille","lat":43.31356,"lon":5.38493,"is_reserved":false,"is_disabled":false,"rental_uris":{"android":"levelo://app?vid=08352857-35a3-4371-94e3-e4f6e3fb63c1","ios":"levelo://app?vid=08352857-35a3-4371-94e3-e4f6e3fb63c1"},"vehicle_type_id":"4","last_reported":1746814465,"current_range_meters":6400,"station_id":"ce4bgt92rcd13ifvqcf0","pricing_plan_id":"cebpf4jnsgd1na2vs0mg"},{"bike_id":"3aa2593a-ac16-449e-8e1d-9ad972579b99","system_id":"levelo_inurba_marseille","lat":43.28272,"lon":5.35066,"is_reserved":false,"is_disabled":false,"rental_uris":{"android":"levelo://app?vid=3aa2593a-ac16-449e-8e1d-9ad972579b99","ios":"levelo://app?vid=3aa2593a-ac16-449e-8e1d-9ad972579b99"},"vehicle_type_id":"4","last_reported":1746814465,"current_range_meters":6800,"station_id":"ce4bhbp2rcd13ifvqerg","pricing_plan_id":"cebpf4jnsgd1na2vs0mg"},{"bike_id":"fda8504a-1959-4e93-a072-e3c34c66df4f","system_id":"levelo_inurba_marseille","lat":43.304594,"lon":5.379123,"is_reserved":false,"is_disabled":false,"rental_uris":{"android":"levelo://app?vid=fda8504a-1959-4e93-a072-e3c34c66df4f","ios":"levelo://app?vid=fda8504a-1959-4e93-a072-e3c34c66df4f"},"vehicle_type_id":"4","last_reported":1746814465,"current_range_meters":7200,"station_id":"ce4bgup2rcd13ifvqcn0","pricing_plan_id":"cebpf4jnsgd1na2vs0mg"},{"bike_id":"4c4e6aff-1181-4931-9603-6da114eca893","system_id":"levelo_inurba_marseille","lat":43.22927,"lon":5.35374,"is_reserved":false,"is_disabled":false,"rental_uris":{"android":"levelo://app?vid=4c4e6aff-1181-4931-9603-6da114eca893","ios":"levelo://app?vid=4c4e6aff-1181-4931-9603-6da114eca893"},"vehicle_type_id":"4","last_reported":1746814465,"current_range_meters":6800,"station_id":"cpo3532slgdg3j2ikp40","pricing_plan_id":"cebpf4jnsgd1na2vs0mg"},{"bike_id":"5037ef3c-04ea-423b-a3ca-cff37750871f","system_id":"levelo_inurba_marseille","lat":43.24545,"lon":5.39517,"is_reserved":false,"is_disabled":false,"rental_uris":{"android":"levelo://app?vid=5037ef3c-04ea-423b-a3ca-cff37750871f","ios":"levelo://app?vid=5037ef3c-04ea-423b-a3ca-cff37750871f"},"vehicle_type_id":"4","last_reported":1746814465,"current_range_meters":6000,"station_id":"ce4bhlp2rcd13ifvqgjg","pricing_plan_id":"cebpf4jnsgd1na2vs0mg"},{"bike_id":"44135d1f-020a-4c14-9f46-4e83e5a8e603","system_id":"levelo_inurba_marseille","lat":43.30126,"lon":5.38783,"is_reserved":false,"is_disabled":false,"rental_uris":{"android":"levelo://app?vid=44135d1f-020a-4c14-9f46-4e83e5a8e603","ios":"levelo://app?vid=44135d1f-020a-4c14-9f46-4e83e5a8e603"},"vehicle_type_id":"4","last_reported":1746814465,"current_range_meters":3200,"station_id":"ce4bghh2rcd13ifvqb60","pricing_plan_id":"cebpf4jnsgd1na2vs0mg"},{"bike_id":"ff37785a-a1c4-4360-9eef-ab9238156bb7","system_id":"levelo_inurba_marseille","lat":43.28568,"lon":5.39495,"is_reserved":false,"is_disabled":false,"rental_uris":{"android":"levelo://app?vid=ff37785a-a1c4-4360-9eef-ab9238156bb7","ios":"levelo://app?vid=ff37785a-a1c4-4360-9eef-ab9238156bb7"},"vehicle_type_id":"4","last_reported":1746814465,"current_range_meters":4400,"station_id":"ce4bh292rcd13ifvqdg0","pricing_plan_id":"cebpf4jnsgd1na2vs0mg"},{"bike_id":"ce22ec69-a81d-4072-b05a-1b8f6e0f8b7a","system_id":"levelo_inurba_marseille","lat":43.24805,"lon":5.37461,"is_reserved":false,"is_disabled":false,"rental_uris":{"android":"levelo://app?vid=ce22ec69-a81d-4072-b05a-1b8f6e0f8b7a","ios":"levelo://app?vid=ce22ec69-a81d-4072-b05a-1b8f6e0f8b7a"},"vehicle_type_id":"4","last_reported":1746814465,"current_range_meters":6800,"station_id":"ce4bhgh2rcd13ifvqfb0","pricing_plan_id":"cebpf4jnsgd1na2vs0mg"},{"bike_id":"441bcdbf-74b1-4b50-aae5-94b87cf021c0","system_id":"levelo_inurba_marseille","lat":43.28414,"lon":5.34995,"is_reserved":false,"is_disabled":false,"rental_uris":{"android":"levelo://app?vid=441bcdbf-74b1-4b50-aae5-94b87cf021c0","ios":"levelo://app?vid=441bcdbf-74b1-4b50-aae5-94b87cf021c0"},"vehicle_type_id":"4","last_reported":1746814465,"current_range_meters":6800,"station_id":"ce4bhbh2rcd13ifvqepg","pricing_plan_id":"cebpf4jnsgd1na2vs0mg"},{"bike_id":"19efe7c0-e448-47c9-a604-664ccf8d7ff7","system_id":"levelo_inurba_marseille","lat":43.29968,"lon":5.37173,"is_reserved":false,"is_disabled":false,"rental_uris":{"android":"levelo://app?vid=19efe7c0-e448-47c9-a604-664ccf8d7ff7","ios":"levelo://app?vid=19efe7c0-e448-47c9-a604-664ccf8d7ff7"},"vehicle_type_id":"4","last_reported":1746814465,"current_range_meters":6400,"station_id":"ce4bgr92rcd13ifvqc7g","pricing_plan_id":"cebpf4jnsgd1na2vs0mg"},{"bike_id":"36f3fbba-76bd-4a89-b84a-a454330fb500","system_id":"levelo_inurba_marseille","lat":43.24574,"lon":5.3951,"is_reserved":false,"is_disabled":false,"rental_uris":{"android":"levelo://app?vid=36f3fbba-76bd-4a89-b84a-a454330fb500","ios":"levelo://app?vid=36f3fbba-76bd-4a89-b84a-a454330fb500"},"vehicle_type_id":"4","last_reported":1746814465,"current_range_meters":7200,"station_id":"ce4bhlp2rcd13ifvqgjg","pricing_plan_id":"cebpf4jnsgd1na2vs0mg"},{"bike_id":"f673a50d-776a-4d4f-8bc2-0f75017ffb52","system_id":"levelo_inurba_marseille","lat":43.284499,"lon":5.358347,"is_reserved":false,"is_disabled":false,"rental_uris":{"android":"levelo://app?vid=f673a50d-776a-4d4f-8bc2-0f75017ffb52","ios":"levelo://app?vid=f673a50d-776a-4d4f-8bc2-0f75017ffb52"},"vehicle_type_id":"4","last_reported":1746814465,"current_range_meters":7200,"station_id":"ce4bhah2rcd13ifvqei0","pricing_plan_id":"cebpf4jnsgd1na2vs0mg"},{"bike_id":"0e01b1b4-a2c4-4044-8420-c7d18a5a94eb","system_id":"levelo_inurba_marseille","lat":43.28163,"lon":5.42638,"is_reserved":false,"is_disabled":false,"rental_uris":{"android":"levelo://app?vid=0e01b1b4-a2c4-4044-8420-c7d18a5a94eb","ios":"levelo://app?vid=0e01b1b4-a2c4-4044-8420-c7d18a5a94eb"},"vehicle_type_id":"4","last_reported":1746814465,"current_range_meters":7200,"station_id":"ce4bhnh2rcd13ifvqgug","pricing_plan_id":"cebpf4jnsgd1na2vs0mg"},{"bike_id":"a129928a-e1c4-445e-a032-b1dc09548234","system_id":"levelo_inurba_marseille","lat":43.29276,"lon":5.38421,"is_reserved":false,"is_disabled":false,"rental_uris":{"android":"levelo://app?vid=a129928a-e1c4-445e-a032-b1dc09548234","ios":"levelo://app?vid=a129928a-e1c4-445e-a032-b1dc09548234"},"vehicle_type_id":"4","last_reported":1746814465,"current_range_meters":7200,"station_id":"ce4bh692rcd13ifvqea0","pricing_plan_id":"cebpf4jnsgd1na2vs0mg"},{"bike_id":"0fee9000-3e3f-47e5-b7ea-2ffc29150162","system_id":"levelo_inurba_marseille","lat":43.27071,"lon":5.40251,"is_reserved":false,"is_disabled":false,"rental_uris":{"android":"levelo://app?vid=0fee9000-3e3f-47e5-b7ea-2ffc29150162","ios":"levelo://app?vid=0fee9000-3e3f-47e5-b7ea-2ffc29150162"},"vehicle_type_id":"4","last_reported":1746814465,"current_range_meters":7200,"station_id":"ce4bhk92rcd13ifvqgc0","pricing_plan_id":"cebpf4jnsgd1na2vs0mg"},{"bike_id":"c4680486-7cd4-4f12-bbb7-18eafccfa5c0","system_id":"levelo_inurba_marseille","lat":43.27209,"lon":5.3918,"is_reserved":false,"is_disabled":false,"rental_uris":{"android":"levelo://app?vid=c4680486-7cd4-4f12-bbb7-18eafccfa5c0","ios":"levelo://app?vid=c4680486-7cd4-4f12-bbb7-18eafccfa5c0"},"vehicle_type_id":"4","last_reported":1746814465,"current_range_meters":7200,"station_id":"ce4bhhp2rcd13ifvqfm0","pricing_plan_id":"cebpf4jnsgd1na2vs0mg"},{"bike_id":"5dcceec2-a6cb-44c7-a3a0-5539a2c55ad8","system_id":"levelo_inurba_marseille","lat":43.24555,"lon":5.39526,"is_reserved":false,"is_disabled":false,"rental_uris":{"android":"levelo://app?vid=5dcceec2-a6cb-44c7-a3a0-5539a2c55ad8","ios":"levelo://app?vid=5dcceec2-a6cb-44c7-a3a0-5539a2c55ad8"},"vehicle_type_id":"4","last_reported":1746814465,"current_range_meters":7200,"station_id":"ce4bhlp2rcd13ifvqgjg","pricing_plan_id":"cebpf4jnsgd1na2vs0mg"},{"bike_id":"7a70bd67-ef32-4c57-b6c2-6bf8fc51054f","system_id":"levelo_inurba_marseille","lat":43.27969,"lon":5.41759,"is_reserved":false,"is_disabled":false,"rental_uris":{"android":"levelo://app?vid=7a70bd67-ef32-4c57-b6c2-6bf8fc51054f","ios":"levelo://app?vid=7a70bd67-ef32-4c57-b6c2-6bf8fc51054f"},"vehicle_type_id":"4","last_reported":1746814465,"current_range_meters":7200,"station_id":"","pricing_plan_id":"cebpf4jnsgd1na2vs0mg"},{"bike_id":"a816810c-03a7-403f-b4e5-92f0e8415dfd","system_id":"levelo_inurba_marseille","lat":43.31361,"lon":5.38495,"is_reserved":false,"is_disabled":false,"rental_uris":{"android":"levelo://app?vid=a816810c-03a7-403f-b4e5-92f0e8415dfd","ios":"levelo://app?vid=a816810c-03a7-403f-b4e5-92f0e8415dfd"},"vehicle_type_id":"4","last_reported":1746814465,"current_range_meters":7200,"station_id":"ce4bgt92rcd13ifvqcf0","pricing_plan_id":"cebpf4jnsgd1na2vs0mg"},{"bike_id":"eabf6de9-ac45-4b34-b2cd-1041883d4522","system_id":"levelo_inurba_marseille","lat":43.28187,"lon":5.42642,"is_reserved":false,"is_disabled":false,"rental_uris":{"android":"levelo://app?vid=eabf6de9-ac45-4b34-b2cd-1041883d4522","ios":"levelo://app?vid=eabf6de9-ac45-4b34-b2cd-1041883d4522"},"vehicle_type_id":"4","last_reported":1746814465,"current_range_meters":7200,"station_id":"ce4bhnh2rcd13ifvqgug","pricing_plan_id":"cebpf4jnsgd1na2vs0mg"},{"bike_id":"85aca280-c0aa-47a3-9369-d100569d2c78","system_id":"levelo_inurba_marseille","lat":43.25547,"lon":5.38208,"is_reserved":false,"is_disabled":false,"rental_uris":{"android":"levelo://app?vid=85aca280-c0aa-47a3-9369-d100569d2c78","ios":"levelo://app?vid=85aca280-c0aa-47a3-9369-d100569d2c78"},"vehicle_type_id":"4","last_reported":1746814465,"current_range_meters":7200,"station_id":"ce4bhih2rcd13ifvqfs0","pricing_plan_id":"cebpf4jnsgd1na2vs0mg"},{"bike_id":"8d4081fd-95a8-4023-86f5-d06c74c7c63f","system_id":"levelo_inurba_marseille","lat":43.273522,"lon":5.36271,"is_reserved":false,"is_disabled":false,"rental_uris":{"android":"levelo://app?vid=8d4081fd-95a8-4023-86f5-d06c74c7c63f","ios":"levelo://app?vid=8d4081fd-95a8-4023-86f5-d06c74c7c63f"},"vehicle_type_id":"4","last_reported":1746814465,"current_range_meters":7200,"station_id":"ce4bhbh2rcd13ifvqeo0","pricing_plan_id":"cebpf4jnsgd1na2vs0mg"},{"bike_id":"5f6a3d5a-8863-4de9-aa44-1966dfab0149","system_id":"levelo_inurba_marseille","lat":43.28428,"lon":5.34996,"is_reserved":false,"is_disabled":false,"rental_uris":{"android":"levelo://app?vid=5f6a3d5a-8863-4de9-aa44-1966dfab0149","ios":"levelo://app?vid=5f6a3d5a-8863-4de9-aa44-1966dfab0149"},"vehicle_type_id":"4","last_reported":1746814465,"current_range_meters":7200,"station_id":"ce4bhbh2rcd13ifvqepg","pricing_plan_id":"cebpf4jnsgd1na2vs0mg"},{"bike_id":"ba32ee3a-6a49-437c-90fb-7756461a61f4","system_id":"levelo_inurba_marseille","lat":43.24195,"lon":5.36382,"is_reserved":false,"is_disabled":false,"rental_uris":{"android":"levelo://app?vid=ba32ee3a-6a49-437c-90fb-7756461a61f4","ios":"levelo://app?vid=ba32ee3a-6a49-437c-90fb-7756461a61f4"},"vehicle_type_id":"4","last_reported":1746814465,"current_range_meters":8000,"station_id":"cpo36qri1sfpv3e86is0","pricing_plan_id":"cebpf4jnsgd1na2vs0mg"},{"bike_id":"8e0f2439-417f-4391-81c8-64676603369d","system_id":"levelo_inurba_marseille","lat":43.30802,"lon":5.43526,"is_reserved":false,"is_disabled":false,"rental_uris":{"android":"levelo://app?vid=8e0f2439-417f-4391-81c8-64676603369d","ios":"levelo://app?vid=8e0f2439-417f-4391-81c8-64676603369d"},"vehicle_type_id":"4","last_reported":1746814465,"current_range_meters":7200,"station_id":"ce4bhph2rcd13ifvqheg","pricing_plan_id":"cebpf4jnsgd1na2vs0mg"},{"bike_id":"e13c1435-f14e-4431-adab-0272d5f18334","system_id":"levelo_inurba_marseille","lat":43.30534,"lon":5.38429,"is_reserved":false,"is_disabled":false,"rental_uris":{"android":"levelo://app?vid=e13c1435-f14e-4431-adab-0272d5f18334","ios":"levelo://app?vid=e13c1435-f14e-4431-adab-0272d5f18334"},"vehicle_type_id":"4","last_reported":1746814465,"current_range_meters":8000,"station_id":"ce4bgg92rcd13ifvqb30","pricing_plan_id":"cebpf4jnsgd1na2vs0mg"},{"bike_id":"283c096d-9775-40df-9ef5-3ff56b9146cb","system_id":"levelo_inurba_marseille","lat":43.22947,"lon":5.35365,"is_reserved":false,"is_disabled":true,"rental_uris":{"android":"levelo://app?vid=283c096d-9775-40df-9ef5-3ff56b9146cb","ios":"levelo://app?vid=283c096d-9775-40df-9ef5-3ff56b9146cb"},"vehicle_type_id":"4","last_reported":1746814465,"current_range_meters":8000,"station_id":"cpo3532slgdg3j2ikp40","pricing_plan_id":"cebpf4jnsgd1na2vs0mg"},{"bike_id":"22e1a02d-387b-4bc4-96c2-b2cdee31887a","system_id":"levelo_inurba_marseille","lat":43.23975,"lon":5.3663,"is_reserved":false,"is_disabled":false,"rental_uris":{"android":"levelo://app?vid=22e1a02d-387b-4bc4-96c2-b2cdee31887a","ios":"levelo://app?vid=22e1a02d-387b-4bc4-96c2-b2cdee31887a"},"vehicle_type_id":"4","last_reported":1746814465,"current_range_meters":8000,"station_id":"ce4bhi12rcd13ifvqfp0","pricing_plan_id":"cebpf4jnsgd1na2vs0mg"},{"bike_id":"123406a3-60c2-4081-92b2-3056b4e289cc","system_id":"levelo_inurba_marseille","lat":43.24551,"lon":5.39521,"is_reserved":false,"is_disabled":false,"rental_uris":{"android":"levelo://app?vid=123406a3-60c2-4081-92b2-3056b4e289cc","ios":"levelo://app?vid=123406a3-60c2-4081-92b2-3056b4e289cc"},"vehicle_type_id":"4","last_reported":1746814465,"current_range_meters":8000,"station_id":"ce4bhlp2rcd13ifvqgjg","pricing_plan_id":"cebpf4jnsgd1na2vs0mg"},{"bike_id":"a1f33b52-0da2-4e2b-9262-2050242c0a05","system_id":"levelo_inurba_marseille","lat":43.30157,"lon":5.37311,"is_reserved":false,"is_disabled":false,"rental_uris":{"android":"levelo://app?vid=a1f33b52-0da2-4e2b-9262-2050242c0a05","ios":"levelo://app?vid=a1f33b52-0da2-4e2b-9262-2050242c0a05"},"vehicle_type_id":"4","last_reported":1746814465,"current_range_meters":8000,"station_id":"","pricing_plan_id":"cebpf4jnsgd1na2vs0mg"},{"bike_id":"0f5ca589-0ef7-428d-94ec-f0fc8b76ceb4","system_id":"levelo_inurba_marseille","lat":43.28165,"lon":5.42646,"is_reserved":false,"is_disabled":false,"rental_uris":{"android":"levelo://app?vid=0f5ca589-0ef7-428d-94ec-f0fc8b76ceb4","ios":"levelo://app?vid=0f5ca589-0ef7-428d-94ec-f0fc8b76ceb4"},"vehicle_type_id":"4","last_reported":1746814465,"current_range_meters":8400,"station_id":"ce4bhnh2rcd13ifvqgug","pricing_plan_id":"cebpf4jnsgd1na2vs0mg"},{"bike_id":"8af08734-5df5-4cbb-917f-db23920c2925","system_id":"levelo_inurba_marseille","lat":43.29527,"lon":5.38531,"is_reserved":false,"is_disabled":false,"rental_uris":{"android":"levelo://app?vid=8af08734-5df5-4cbb-917f-db23920c2925","ios":"levelo://app?vid=8af08734-5df5-4cbb-917f-db23920c2925"},"vehicle_type_id":"4","last_reported":1746814465,"current_range_meters":8400,"station_id":"ce4bgih2rcd13ifvqba0","pricing_plan_id":"cebpf4jnsgd1na2vs0mg"},{"bike_id":"571ab1e5-1aa5-47e5-ab2d-f0c5ac65e47a","system_id":"levelo_inurba_marseille","lat":43.29267,"lon":5.38433,"is_reserved":false,"is_disabled":false,"rental_uris":{"android":"levelo://app?vid=571ab1e5-1aa5-47e5-ab2d-f0c5ac65e47a","ios":"levelo://app?vid=571ab1e5-1aa5-47e5-ab2d-f0c5ac65e47a"},"vehicle_type_id":"4","last_reported":1746814465,"current_range_meters":8400,"station_id":"ce4bh692rcd13ifvqea0","pricing_plan_id":"cebpf4jnsgd1na2vs0mg"},{"bike_id":"caf9033d-5f00-49c3-b1ee-1328b62008dc","system_id":"levelo_inurba_marseille","lat":43.3361,"lon":5.42835,"is_reserved":false,"is_disabled":false,"rental_uris":{"android":"levelo://app?vid=caf9033d-5f00-49c3-b1ee-1328b62008dc","ios":"levelo://app?vid=caf9033d-5f00-49c3-b1ee-1328b62008dc"},"vehicle_type_id":"4","last_reported":1746814465,"current_range_meters":8400,"station_id":"","pricing_plan_id":"cebpf4jnsgd1na2vs0mg"},{"bike_id":"292c05b4-499f-42a3-a9e5-0a053e90f31d","system_id":"levelo_inurba_marseille","lat":43.3248,"lon":5.36569,"is_reserved":false,"is_disabled":false,"rental_uris":{"android":"levelo://app?vid=292c05b4-499f-42a3-a9e5-0a053e90f31d","ios":"levelo://app?vid=292c05b4-499f-42a3-a9e5-0a053e90f31d"},"vehicle_type_id":"4","last_reported":1746814465,"current_range_meters":8000,"station_id":"ce4bhs12rcd13ifvqhvg","pricing_plan_id":"cebpf4jnsgd1na2vs0mg"},{"bike_id":"86bc8c3e-b40f-4494-bcaf-2c13ca119bd5","system_id":"levelo_inurba_marseille","lat":43.28173,"lon":5.42626,"is_reserved":false,"is_disabled":false,"rental_uris":{"android":"levelo://app?vid=86bc8c3e-b40f-4494-bcaf-2c13ca119bd5","ios":"levelo://app?vid=86bc8c3e-b40f-4494-bcaf-2c13ca119bd5"},"vehicle_type_id":"4","last_reported":1746814465,"current_range_meters":8400,"station_id":"ce4bhnh2rcd13ifvqgug","pricing_plan_id":"cebpf4jnsgd1na2vs0mg"},{"bike_id":"f1b07d7d-b31a-4788-aefb-994afd600837","system_id":"levelo_inurba_marseille","lat":43.29333,"lon":5.37101,"is_reserved":false,"is_disabled":false,"rental_uris":{"android":"levelo://app?vid=f1b07d7d-b31a-4788-aefb-994afd600837","ios":"levelo://app?vid=f1b07d7d-b31a-4788-aefb-994afd600837"},"vehicle_type_id":"4","last_reported":1746814465,"current_range_meters":8400,"station_id":"","pricing_plan_id":"cebpf4jnsgd1na2vs0mg"},{"bike_id":"2ef50f2a-733d-4ec7-af71-672c5204d15d","system_id":"levelo_inurba_marseille","lat":43.25115,"lon":5.40321,"is_reserved":false,"is_disabled":false,"rental_uris":{"android":"levelo://app?vid=2ef50f2a-733d-4ec7-af71-672c5204d15d","ios":"levelo://app?vid=2ef50f2a-733d-4ec7-af71-672c5204d15d"},"vehicle_type_id":"4","last_reported":1746814465,"current_range_meters":8800,"station_id":"ce4bhlh2rcd13ifvqgig","pricing_plan_id":"cebpf4jnsgd1na2vs0mg"},{"bike_id":"4392a77b-c6a9-441c-9b6e-8bfc6f9fb7b3","system_id":"levelo_inurba_marseille","lat":43.28155,"lon":5.426413,"is_reserved":false,"is_disabled":false,"rental_uris":{"android":"levelo://app?vid=4392a77b-c6a9-441c-9b6e-8bfc6f9fb7b3","ios":"levelo://app?vid=4392a77b-c6a9-441c-9b6e-8bfc6f9fb7b3"},"vehicle_type_id":"4","last_reported":1746814465,"current_range_meters":8800,"station_id":"ce4bhnh2rcd13ifvqgug","pricing_plan_id":"cebpf4jnsgd1na2vs0mg"},{"bike_id":"812e31b7-42f9-4d63-b220-e99af5c192ed","system_id":"levelo_inurba_marseille","lat":43.31201,"lon":5.41604,"is_reserved":false,"is_disabled":false,"rental_uris":{"android":"levelo://app?vid=812e31b7-42f9-4d63-b220-e99af5c192ed","ios":"levelo://app?vid=812e31b7-42f9-4d63-b220-e99af5c192ed"},"vehicle_type_id":"4","last_reported":1746814465,"current_range_meters":8800,"station_id":"","pricing_plan_id":"cebpf4jnsgd1na2vs0mg"},{"bike_id":"a5035683-e922-4659-b77f-9b07031bc84e","system_id":"levelo_inurba_marseille","lat":43.21763,"lon":5.34591,"is_reserved":false,"is_disabled":true,"rental_uris":{"android":"levelo://app?vid=a5035683-e922-4659-b77f-9b07031bc84e","ios":"levelo://app?vid=a5035683-e922-4659-b77f-9b07031bc84e"},"vehicle_type_id":"4","last_reported":1746814465,"current_range_meters":9200,"station_id":"st_cvj6r9ubvosntc0bgbag","pricing_plan_id":"cebpf4jnsgd1na2vs0mg"},{"bike_id":"7bbddab9-ce58-49c5-8696-be4254399f31","system_id":"levelo_inurba_marseille","lat":43.2925,"lon":5.36853,"is_reserved":false,"is_disabled":true,"rental_uris":{"android":"levelo://app?vid=7bbddab9-ce58-49c5-8696-be4254399f31","ios":"levelo://app?vid=7bbddab9-ce58-49c5-8696-be4254399f31"},"vehicle_type_id":"4","last_reported":1746814465,"current_range_meters":9200,"station_id":"ce4bhbp2rcd13ifvqesg","pricing_plan_id":"cebpf4jnsgd1na2vs0mg"},{"bike_id":"f809f6b4-cc1b-44af-af60-0912ee69ffd9","system_id":"levelo_inurba_marseille","lat":43.27902,"lon":5.38019,"is_reserved":false,"is_disabled":false,"rental_uris":{"android":"levelo://app?vid=f809f6b4-cc1b-44af-af60-0912ee69ffd9","ios":"levelo://app?vid=f809f6b4-cc1b-44af-af60-0912ee69ffd9"},"vehicle_type_id":"4","last_reported":1746814465,"current_range_meters":8800,"station_id":"ce4bhf92rcd13ifvqf50","pricing_plan_id":"cebpf4jnsgd1na2vs0mg"},{"bike_id":"87f2bf91-3516-4150-a65a-8e509fd0de5a","system_id":"levelo_inurba_marseille","lat":43.26938,"lon":5.38912,"is_reserved":false,"is_disabled":false,"rental_uris":{"android":"levelo://app?vid=87f2bf91-3516-4150-a65a-8e509fd0de5a","ios":"levelo://app?vid=87f2bf91-3516-4150-a65a-8e509fd0de5a"},"vehicle_type_id":"4","last_reported":1746814465,"current_range_meters":8800,"station_id":"ce4bhhh2rcd13ifvqfl0","pricing_plan_id":"cebpf4jnsgd1na2vs0mg"},{"bike_id":"36727bfd-c924-4146-8478-15477e61e4f2","system_id":"levelo_inurba_marseille","lat":43.26479,"lon":5.3954,"is_reserved":false,"is_disabled":false,"rental_uris":{"android":"levelo://app?vid=36727bfd-c924-4146-8478-15477e61e4f2","ios":"levelo://app?vid=36727bfd-c924-4146-8478-15477e61e4f2"},"vehicle_type_id":"4","last_reported":1746814465,"current_range_meters":9600,"station_id":"ce4bhi12rcd13ifvqfq0","pricing_plan_id":"cebpf4jnsgd1na2vs0mg"},{"bike_id":"dc999bc4-ab27-43c4-8d3d-8c3106876441","system_id":"levelo_inurba_marseille","lat":43.24763,"lon":5.40167,"is_reserved":false,"is_disabled":false,"rental_uris":{"android":"levelo://app?vid=dc999bc4-ab27-43c4-8d3d-8c3106876441","ios":"levelo://app?vid=dc999bc4-ab27-43c4-8d3d-8c3106876441"},"vehicle_type_id":"4","last_reported":1746814465,"current_range_meters":9600,"station_id":"","pricing_plan_id":"cebpf4jnsgd1na2vs0mg"},{"bike_id":"ea7dd22b-f0cf-4f8f-a49f-73a60cc00e17","system_id":"levelo_inurba_marseille","lat":43.30352,"lon":5.41882,"is_reserved":false,"is_disabled":false,"rental_uris":{"android":"levelo://app?vid=ea7dd22b-f0cf-4f8f-a49f-73a60cc00e17","ios":"levelo://app?vid=ea7dd22b-f0cf-4f8f-a49f-73a60cc00e17"},"vehicle_type_id":"4","last_reported":1746814465,"current_range_meters":9600,"station_id":"ce4bhop2rcd13ifvqh7g","pricing_plan_id":"cebpf4jnsgd1na2vs0mg"},{"bike_id":"a6d770db-92b2-4e57-9d0a-36a95baa12fd","system_id":"levelo_inurba_marseille","lat":43.30151,"lon":5.37411,"is_reserved":false,"is_disabled":false,"rental_uris":{"android":"levelo://app?vid=a6d770db-92b2-4e57-9d0a-36a95baa12fd","ios":"levelo://app?vid=a6d770db-92b2-4e57-9d0a-36a95baa12fd"},"vehicle_type_id":"4","last_reported":1746814465,"current_range_meters":9600,"station_id":"ce4bgs92rcd13ifvqcc0","pricing_plan_id":"cebpf4jnsgd1na2vs0mg"},{"bike_id":"6ca69db7-bdbf-4901-a061-91257760b749","system_id":"levelo_inurba_marseille","lat":43.25728,"lon":5.41107,"is_reserved":false,"is_disabled":false,"rental_uris":{"android":"levelo://app?vid=6ca69db7-bdbf-4901-a061-91257760b749","ios":"levelo://app?vid=6ca69db7-bdbf-4901-a061-91257760b749"},"vehicle_type_id":"4","last_reported":1746814465,"current_range_meters":9600,"station_id":"ce4bhkp2rcd13ifvqgd0","pricing_plan_id":"cebpf4jnsgd1na2vs0mg"},{"bike_id":"96ca12e0-853c-4a95-b42a-5e41a3443e45","system_id":"levelo_inurba_marseille","lat":43.29123,"lon":5.38119,"is_reserved":false,"is_disabled":false,"rental_uris":{"android":"levelo://app?vid=96ca12e0-853c-4a95-b42a-5e41a3443e45","ios":"levelo://app?vid=96ca12e0-853c-4a95-b42a-5e41a3443e45"},"vehicle_type_id":"4","last_reported":1746814465,"current_range_meters":10000,"station_id":"ce4bh512rcd13ifvqe2g","pricing_plan_id":"cebpf4jnsgd1na2vs0mg"},{"bike_id":"14c9110d-9c62-422c-a539-759dbbb2a0dc","system_id":"levelo_inurba_marseille","lat":43.31685,"lon":5.40475,"is_reserved":false,"is_disabled":false,"rental_uris":{"android":"levelo://app?vid=14c9110d-9c62-422c-a539-759dbbb2a0dc","ios":"levelo://app?vid=14c9110d-9c62-422c-a539-759dbbb2a0dc"},"vehicle_type_id":"4","last_reported":1746814465,"current_range_meters":10000,"station_id":"ce4bh012rcd13ifvqd00","pricing_plan_id":"cebpf4jnsgd1na2vs0mg"},{"bike_id":"26e2623b-4d07-4198-908c-2ca9e1220d94","system_id":"levelo_inurba_marseille","lat":43.2407,"lon":5.37765,"is_reserved":false,"is_disabled":false,"rental_uris":{"android":"levelo://app?vid=26e2623b-4d07-4198-908c-2ca9e1220d94","ios":"levelo://app?vid=26e2623b-4d07-4198-908c-2ca9e1220d94"},"vehicle_type_id":"4","last_reported":1746814465,"current_range_meters":10000,"station_id":"ce4bhnp2rcd13ifvqgvg","pricing_plan_id":"cebpf4jnsgd1na2vs0mg"},{"bike_id":"26f07e4c-6f4e-48c8-8089-9fd48259a4a9","system_id":"levelo_inurba_marseille","lat":43.29254,"lon":5.38437,"is_reserved":false,"is_disabled":false,"rental_uris":{"android":"levelo://app?vid=26f07e4c-6f4e-48c8-8089-9fd48259a4a9","ios":"levelo://app?vid=26f07e4c-6f4e-48c8-8089-9fd48259a4a9"},"vehicle_type_id":"4","last_reported":1746814465,"current_range_meters":10000,"station_id":"ce4bh692rcd13ifvqea0","pricing_plan_id":"cebpf4jnsgd1na2vs0mg"},{"bike_id":"b742285c-77b0-417a-a770-e0daedcaa2ef","system_id":"levelo_inurba_marseille","lat":43.29002,"lon":5.35615,"is_reserved":false,"is_disabled":false,"rental_uris":{"android":"levelo://app?vid=b742285c-77b0-417a-a770-e0daedcaa2ef","ios":"levelo://app?vid=b742285c-77b0-417a-a770-e0daedcaa2ef"},"vehicle_type_id":"4","last_reported":1746814465,"current_range_meters":10000,"station_id":"ce4bhb92rcd13ifvqen0","pricing_plan_id":"cebpf4jnsgd1na2vs0mg"},{"bike_id":"bc4114ff-95de-469c-a23b-180771d649b8","system_id":"levelo_inurba_marseille","lat":43.30204,"lon":5.38803,"is_reserved":false,"is_disabled":false,"rental_uris":{"android":"levelo://app?vid=bc4114ff-95de-469c-a23b-180771d649b8","ios":"levelo://app?vid=bc4114ff-95de-469c-a23b-180771d649b8"},"vehicle_type_id":"4","last_reported":1746814465,"current_range_meters":9600,"station_id":"ce4bghh2rcd13ifvqb60","pricing_plan_id":"cebpf4jnsgd1na2vs0mg"},{"bike_id":"304c4265-9b9a-48c7-911b-444159eb75dc","system_id":"levelo_inurba_marseille","lat":43.30027,"lon":5.38476,"is_reserved":false,"is_disabled":false,"rental_uris":{"android":"levelo://app?vid=304c4265-9b9a-48c7-911b-444159eb75dc","ios":"levelo://app?vid=304c4265-9b9a-48c7-911b-444159eb75dc"},"vehicle_type_id":"4","last_reported":1746814465,"current_range_meters":10000,"station_id":"","pricing_plan_id":"cebpf4jnsgd1na2vs0mg"},{"bike_id":"51d0cb43-b907-4fea-a444-7b836beb81a6","system_id":"levelo_inurba_marseille","lat":43.28423,"lon":5.34984,"is_reserved":false,"is_disabled":false,"rental_uris":{"android":"levelo://app?vid=51d0cb43-b907-4fea-a444-7b836beb81a6","ios":"levelo://app?vid=51d0cb43-b907-4fea-a444-7b836beb81a6"},"vehicle_type_id":"4","last_reported":1746814465,"current_range_meters":10000,"station_id":"ce4bhbh2rcd13ifvqepg","pricing_plan_id":"cebpf4jnsgd1na2vs0mg"},{"bike_id":"d8feee39-4201-4814-9406-79e99347c2c4","system_id":"levelo_inurba_marseille","lat":43.28673,"lon":5.38667,"is_reserved":false,"is_disabled":false,"rental_uris":{"android":"levelo://app?vid=d8feee39-4201-4814-9406-79e99347c2c4","ios":"levelo://app?vid=d8feee39-4201-4814-9406-79e99347c2c4"},"vehicle_type_id":"4","last_reported":1746814465,"current_range_meters":9600,"station_id":"ce4bh492rcd13ifvqdug","pricing_plan_id":"cebpf4jnsgd1na2vs0mg"},{"bike_id":"2fe4eaf9-281e-4ad3-84e3-4efcddb0104b","system_id":"levelo_inurba_marseille","lat":43.23135,"lon":5.43739,"is_reserved":false,"is_disabled":false,"rental_uris":{"android":"levelo://app?vid=2fe4eaf9-281e-4ad3-84e3-4efcddb0104b","ios":"levelo://app?vid=2fe4eaf9-281e-4ad3-84e3-4efcddb0104b"},"vehicle_type_id":"4","last_reported":1746814465,"current_range_meters":10000,"station_id":"ce4bhmp2rcd13ifvqgog","pricing_plan_id":"cebpf4jnsgd1na2vs0mg"},{"bike_id":"b0c54ead-2c9a-4d45-904a-5e1b9abf7338","system_id":"levelo_inurba_marseille","lat":43.27934,"lon":5.44055,"is_reserved":false,"is_disabled":false,"rental_uris":{"android":"levelo://app?vid=b0c54ead-2c9a-4d45-904a-5e1b9abf7338","ios":"levelo://app?vid=b0c54ead-2c9a-4d45-904a-5e1b9abf7338"},"vehicle_type_id":"4","last_reported":1746814465,"current_range_meters":10000,"station_id":"","pricing_plan_id":"cebpf4jnsgd1na2vs0mg"},{"bike_id":"3c7670ff-3628-42b4-8ea8-664d4fa357dd","system_id":"levelo_inurba_marseille","lat":43.27975,"lon":5.41666,"is_reserved":false,"is_disabled":false,"rental_uris":{"android":"levelo://app?vid=3c7670ff-3628-42b4-8ea8-664d4fa357dd","ios":"levelo://app?vid=3c7670ff-3628-42b4-8ea8-664d4fa357dd"},"vehicle_type_id":"4","last_reported":1746814465,"current_range_meters":10000,"station_id":"ce4bho12rcd13ifvqh1g","pricing_plan_id":"cebpf4jnsgd1na2vs0mg"},{"bike_id":"b5abaa59-aabc-4b95-9b88-ab5d0418902d","system_id":"levelo_inurba_marseille","lat":43.33728,"lon":5.39187,"is_reserved":false,"is_disabled":false,"rental_uris":{"android":"levelo://app?vid=b5abaa59-aabc-4b95-9b88-ab5d0418902d","ios":"levelo://app?vid=b5abaa59-aabc-4b95-9b88-ab5d0418902d"},"vehicle_type_id":"4","last_reported":1746814465,"current_range_meters":10800,"station_id":"ce4bhr92rcd13ifvqhsg","pricing_plan_id":"cebpf4jnsgd1na2vs0mg"},{"bike_id":"dc9ec157-dfe5-481b-9da3-639c44fd1e90","system_id":"levelo_inurba_marseille","lat":43.29239,"lon":5.36061,"is_reserved":false,"is_disabled":false,"rental_uris":{"android":"levelo://app?vid=dc9ec157-dfe5-481b-9da3-639c44fd1e90","ios":"levelo://app?vid=dc9ec157-dfe5-481b-9da3-639c44fd1e90"},"vehicle_type_id":"4","last_reported":1746814465,"current_range_meters":10800,"station_id":"ce4bhbh2rcd13ifvqeqg","pricing_plan_id":"cebpf4jnsgd1na2vs0mg"},{"bike_id":"044478cb-8194-4092-b984-4fc9c042ef68","system_id":"levelo_inurba_marseille","lat":43.28767,"lon":5.46496,"is_reserved":false,"is_disabled":false,"rental_uris":{"android":"levelo://app?vid=044478cb-8194-4092-b984-4fc9c042ef68","ios":"levelo://app?vid=044478cb-8194-4092-b984-4fc9c042ef68"},"vehicle_type_id":"4","last_reported":1746814465,"current_range_meters":10800,"station_id":"","pricing_plan_id":"cebpf4jnsgd1na2vs0mg"},{"bike_id":"f8bd5ba1-0844-4c6d-9b78-f958f1313745","system_id":"levelo_inurba_marseille","lat":43.293418,"lon":5.4286,"is_reserved":false,"is_disabled":false,"rental_uris":{"android":"levelo://app?vid=f8bd5ba1-0844-4c6d-9b78-f958f1313745","ios":"levelo://app?vid=f8bd5ba1-0844-4c6d-9b78-f958f1313745"},"vehicle_type_id":"4","last_reported":1746814465,"current_range_meters":10800,"station_id":"","pricing_plan_id":"cebpf4jnsgd1na2vs0mg"},{"bike_id":"e10f680a-c0a9-4139-ac2b-870486d31346","system_id":"levelo_inurba_marseille","lat":43.28183,"lon":5.42652,"is_reserved":false,"is_disabled":false,"rental_uris":{"android":"levelo://app?vid=e10f680a-c0a9-4139-ac2b-870486d31346","ios":"levelo://app?vid=e10f680a-c0a9-4139-ac2b-870486d31346"},"vehicle_type_id":"4","last_reported":1746814465,"current_range_meters":10800,"station_id":"ce4bhnh2rcd13ifvqgug","pricing_plan_id":"cebpf4jnsgd1na2vs0mg"},{"bike_id":"5f90509f-c788-4c8f-b8d1-439af7f59a5d","system_id":"levelo_inurba_marseille","lat":43.29262,"lon":5.38428,"is_reserved":false,"is_disabled":false,"rental_uris":{"android":"levelo://app?vid=5f90509f-c788-4c8f-b8d1-439af7f59a5d","ios":"levelo://app?vid=5f90509f-c788-4c8f-b8d1-439af7f59a5d"},"vehicle_type_id":"4","last_reported":1746814465,"current_range_meters":10800,"station_id":"","pricing_plan_id":"cebpf4jnsgd1na2vs0mg"},{"bike_id":"5e8cf154-0eb5-4091-aff4-0926d0794ef3","system_id":"levelo_inurba_marseille","lat":43.280006,"lon":5.399993,"is_reserved":false,"is_disabled":false,"rental_uris":{"android":"levelo://app?vid=5e8cf154-0eb5-4091-aff4-0926d0794ef3","ios":"levelo://app?vid=5e8cf154-0eb5-4091-aff4-0926d0794ef3"},"vehicle_type_id":"4","last_reported":1746814465,"current_range_meters":10800,"station_id":"ce4bho92rcd13ifvqh4g","pricing_plan_id":"cebpf4jnsgd1na2vs0mg"},{"bike_id":"da7ded35-2b61-4f24-bc14-90474e051797","system_id":"levelo_inurba_marseille","lat":43.30576,"lon":5.3936,"is_reserved":false,"is_disabled":false,"rental_uris":{"android":"levelo://app?vid=da7ded35-2b61-4f24-bc14-90474e051797","ios":"levelo://app?vid=da7ded35-2b61-4f24-bc14-90474e051797"},"vehicle_type_id":"4","last_reported":1746814465,"current_range_meters":10800,"station_id":"ce4bh0p2rcd13ifvqd80","pricing_plan_id":"cebpf4jnsgd1na2vs0mg"},{"bike_id":"4eebc1f0-b8f6-4e3e-9682-97e1c204b0fc","system_id":"levelo_inurba_marseille","lat":43.29067,"lon":5.3815,"is_reserved":false,"is_disabled":false,"rental_uris":{"android":"levelo://app?vid=4eebc1f0-b8f6-4e3e-9682-97e1c204b0fc","ios":"levelo://app?vid=4eebc1f0-b8f6-4e3e-9682-97e1c204b0fc"},"vehicle_type_id":"4","last_reported":1746814465,"current_range_meters":10800,"station_id":"ce4bh512rcd13ifvqe2g","pricing_plan_id":"cebpf4jnsgd1na2vs0mg"},{"bike_id":"c2a33f68-1a61-4786-9af9-d925692d410f","system_id":"levelo_inurba_marseille","lat":43.24802,"lon":5.37457,"is_reserved":false,"is_disabled":false,"rental_uris":{"android":"levelo://app?vid=c2a33f68-1a61-4786-9af9-d925692d410f","ios":"levelo://app?vid=c2a33f68-1a61-4786-9af9-d925692d410f"},"vehicle_type_id":"4","last_reported":1746814465,"current_range_meters":10800,"station_id":"ce4bhgh2rcd13ifvqfb0","pricing_plan_id":"cebpf4jnsgd1na2vs0mg"},{"bike_id":"e00f68d1-1681-46a5-9392-f3eeb1cf3508","system_id":"levelo_inurba_marseille","lat":43.24816,"lon":5.37455,"is_reserved":false,"is_disabled":false,"rental_uris":{"android":"levelo://app?vid=e00f68d1-1681-46a5-9392-f3eeb1cf3508","ios":"levelo://app?vid=e00f68d1-1681-46a5-9392-f3eeb1cf3508"},"vehicle_type_id":"4","last_reported":1746814465,"current_range_meters":11200,"station_id":"ce4bhgh2rcd13ifvqfb0","pricing_plan_id":"cebpf4jnsgd1na2vs0mg"},{"bike_id":"2c8d7c02-8011-4fe8-989a-5e52221aa525","system_id":"levelo_inurba_marseille","lat":43.31355,"lon":5.38498,"is_reserved":false,"is_disabled":false,"rental_uris":{"android":"levelo://app?vid=2c8d7c02-8011-4fe8-989a-5e52221aa525","ios":"levelo://app?vid=2c8d7c02-8011-4fe8-989a-5e52221aa525"},"vehicle_type_id":"4","last_reported":1746814465,"current_range_meters":11200,"station_id":"ce4bgt92rcd13ifvqcf0","pricing_plan_id":"cebpf4jnsgd1na2vs0mg"},{"bike_id":"19004860-33a3-468f-93ae-7f012d3fb49a","system_id":"levelo_inurba_marseille","lat":43.28612,"lon":5.35107,"is_reserved":false,"is_disabled":false,"rental_uris":{"android":"levelo://app?vid=19004860-33a3-468f-93ae-7f012d3fb49a","ios":"levelo://app?vid=19004860-33a3-468f-93ae-7f012d3fb49a"},"vehicle_type_id":"4","last_reported":1746814465,"current_range_meters":11200,"station_id":"ce4bhch2rcd13ifvqeug","pricing_plan_id":"cebpf4jnsgd1na2vs0mg"},{"bike_id":"7929c725-4333-4740-b3f5-8506704a9f8c","system_id":"levelo_inurba_marseille","lat":43.29526,"lon":5.39054,"is_reserved":false,"is_disabled":false,"rental_uris":{"android":"levelo://app?vid=7929c725-4333-4740-b3f5-8506704a9f8c","ios":"levelo://app?vid=7929c725-4333-4740-b3f5-8506704a9f8c"},"vehicle_type_id":"4","last_reported":1746814465,"current_range_meters":11200,"station_id":"ce4bh3p2rcd13ifvqdp0","pricing_plan_id":"cebpf4jnsgd1na2vs0mg"},{"bike_id":"2dcbdc69-f573-4ca5-ab83-dd0e31366bb6","system_id":"levelo_inurba_marseille","lat":43.24171,"lon":5.39709,"is_reserved":false,"is_disabled":false,"rental_uris":{"android":"levelo://app?vid=2dcbdc69-f573-4ca5-ab83-dd0e31366bb6","ios":"levelo://app?vid=2dcbdc69-f573-4ca5-ab83-dd0e31366bb6"},"vehicle_type_id":"4","last_reported":1746814465,"current_range_meters":11200,"station_id":"ce4bhn12rcd13ifvqgpg","pricing_plan_id":"cebpf4jnsgd1na2vs0mg"},{"bike_id":"ece27808-caa3-4deb-96c7-04097c718c7c","system_id":"levelo_inurba_marseille","lat":43.28716,"lon":5.39994,"is_reserved":false,"is_disabled":true,"rental_uris":{"android":"levelo://app?vid=ece27808-caa3-4deb-96c7-04097c718c7c","ios":"levelo://app?vid=ece27808-caa3-4deb-96c7-04097c718c7c"},"vehicle_type_id":"4","last_reported":1746814465,"current_range_meters":11200,"station_id":"ce4bho92rcd13ifvqh3g","pricing_plan_id":"cebpf4jnsgd1na2vs0mg"},{"bike_id":"345ce1fb-b861-4aee-8c4c-ecef8dad57fb","system_id":"levelo_inurba_marseille","lat":43.243855,"lon":5.370423,"is_reserved":false,"is_disabled":false,"rental_uris":{"android":"levelo://app?vid=345ce1fb-b861-4aee-8c4c-ecef8dad57fb","ios":"levelo://app?vid=345ce1fb-b861-4aee-8c4c-ecef8dad57fb"},"vehicle_type_id":"4","last_reported":1746814465,"current_range_meters":11200,"station_id":"ce4bhhh2rcd13ifvqfk0","pricing_plan_id":"cebpf4jnsgd1na2vs0mg"},{"bike_id":"69a3ccd5-bd05-40e9-acc9-3262834d4df4","system_id":"levelo_inurba_marseille","lat":43.29811,"lon":5.42233,"is_reserved":false,"is_disabled":false,"rental_uris":{"android":"levelo://app?vid=69a3ccd5-bd05-40e9-acc9-3262834d4df4","ios":"levelo://app?vid=69a3ccd5-bd05-40e9-acc9-3262834d4df4"},"vehicle_type_id":"4","last_reported":1746814465,"current_range_meters":11200,"station_id":"ce4bhph2rcd13ifvqhdg","pricing_plan_id":"cebpf4jnsgd1na2vs0mg"},{"bike_id":"a80ef7d4-5765-46c5-a8c8-f44a7ba472b4","system_id":"levelo_inurba_marseille","lat":43.29424,"lon":5.3862,"is_reserved":false,"is_disabled":false,"rental_uris":{"android":"levelo://app?vid=a80ef7d4-5765-46c5-a8c8-f44a7ba472b4","ios":"levelo://app?vid=a80ef7d4-5765-46c5-a8c8-f44a7ba472b4"},"vehicle_type_id":"4","last_reported":1746814465,"current_range_meters":11200,"station_id":"ce4bh2h2rcd13ifvqdh0","pricing_plan_id":"cebpf4jnsgd1na2vs0mg"},{"bike_id":"8abd0715-213f-4207-b6de-662fd568f18a","system_id":"levelo_inurba_marseille","lat":43.3014,"lon":5.38053,"is_reserved":false,"is_disabled":false,"rental_uris":{"android":"levelo://app?vid=8abd0715-213f-4207-b6de-662fd568f18a","ios":"levelo://app?vid=8abd0715-213f-4207-b6de-662fd568f18a"},"vehicle_type_id":"4","last_reported":1746814465,"current_range_meters":10800,"station_id":"ce4bgjp2rcd13ifvqbh0","pricing_plan_id":"cebpf4jnsgd1na2vs0mg"},{"bike_id":"a8e39244-3b78-4fc2-a058-04c682b7964a","system_id":"levelo_inurba_marseille","lat":43.28702,"lon":5.39986,"is_reserved":false,"is_disabled":false,"rental_uris":{"android":"levelo://app?vid=a8e39244-3b78-4fc2-a058-04c682b7964a","ios":"levelo://app?vid=a8e39244-3b78-4fc2-a058-04c682b7964a"},"vehicle_type_id":"4","last_reported":1746814465,"current_range_meters":11200,"station_id":"ce4bho92rcd13ifvqh3g","pricing_plan_id":"cebpf4jnsgd1na2vs0mg"},{"bike_id":"1db35cd8-6aa4-4654-8e35-1451e1df65bb","system_id":"levelo_inurba_marseille","lat":43.29829,"lon":5.38081,"is_reserved":false,"is_disabled":false,"rental_uris":{"android":"levelo://app?vid=1db35cd8-6aa4-4654-8e35-1451e1df65bb","ios":"levelo://app?vid=1db35cd8-6aa4-4654-8e35-1451e1df65bb"},"vehicle_type_id":"4","last_reported":1746814465,"current_range_meters":11600,"station_id":"ce4bgip2rcd13ifvqbb0","pricing_plan_id":"cebpf4jnsgd1na2vs0mg"},{"bike_id":"e493c9a1-6a7d-4643-a37d-e07a2ad288bb","system_id":"levelo_inurba_marseille","lat":43.28701,"lon":5.37385,"is_reserved":false,"is_disabled":false,"rental_uris":{"android":"levelo://app?vid=e493c9a1-6a7d-4643-a37d-e07a2ad288bb","ios":"levelo://app?vid=e493c9a1-6a7d-4643-a37d-e07a2ad288bb"},"vehicle_type_id":"4","last_reported":1746814465,"current_range_meters":11600,"station_id":"ce4bh3p2rcd13ifvqdq0","pricing_plan_id":"cebpf4jnsgd1na2vs0mg"},{"bike_id":"e9bb402a-d136-42a8-8ae1-b0c43fe240f3","system_id":"levelo_inurba_marseille","lat":43.31484,"lon":5.37308,"is_reserved":false,"is_disabled":false,"rental_uris":{"android":"levelo://app?vid=e9bb402a-d136-42a8-8ae1-b0c43fe240f3","ios":"levelo://app?vid=e9bb402a-d136-42a8-8ae1-b0c43fe240f3"},"vehicle_type_id":"4","last_reported":1746814465,"current_range_meters":11600,"station_id":"ce4bgt12rcd13ifvqcd0","pricing_plan_id":"cebpf4jnsgd1na2vs0mg"},{"bike_id":"9cb56601-d547-4065-8776-c68a4c56cba5","system_id":"levelo_inurba_marseille","lat":43.29255,"lon":5.3845,"is_reserved":false,"is_disabled":false,"rental_uris":{"android":"levelo://app?vid=9cb56601-d547-4065-8776-c68a4c56cba5","ios":"levelo://app?vid=9cb56601-d547-4065-8776-c68a4c56cba5"},"vehicle_type_id":"4","last_reported":1746814465,"current_range_meters":12000,"station_id":"ce4bh692rcd13ifvqea0","pricing_plan_id":"cebpf4jnsgd1na2vs0mg"},{"bike_id":"f9e265c9-632c-4a18-8b4d-2318477eb200","system_id":"levelo_inurba_marseille","lat":43.28464,"lon":5.35885,"is_reserved":false,"is_disabled":false,"rental_uris":{"android":"levelo://app?vid=f9e265c9-632c-4a18-8b4d-2318477eb200","ios":"levelo://app?vid=f9e265c9-632c-4a18-8b4d-2318477eb200"},"vehicle_type_id":"4","last_reported":1746814465,"current_range_meters":12000,"station_id":"ce4bhah2rcd13ifvqei0","pricing_plan_id":"cebpf4jnsgd1na2vs0mg"},{"bike_id":"6c1c3a4e-dabe-4ab5-8e45-abc22b707505","system_id":"levelo_inurba_marseille","lat":43.28034,"lon":5.3695,"is_reserved":false,"is_disabled":false,"rental_uris":{"android":"levelo://app?vid=6c1c3a4e-dabe-4ab5-8e45-abc22b707505","ios":"levelo://app?vid=6c1c3a4e-dabe-4ab5-8e45-abc22b707505"},"vehicle_type_id":"4","last_reported":1746814465,"current_range_meters":12000,"station_id":"ce4bha12rcd13ifvqef0","pricing_plan_id":"cebpf4jnsgd1na2vs0mg"},{"bike_id":"70430d04-b8ee-4938-9fe0-5bc70772d67a","system_id":"levelo_inurba_marseille","lat":43.24809,"lon":5.374593,"is_reserved":false,"is_disabled":false,"rental_uris":{"android":"levelo://app?vid=70430d04-b8ee-4938-9fe0-5bc70772d67a","ios":"levelo://app?vid=70430d04-b8ee-4938-9fe0-5bc70772d67a"},"vehicle_type_id":"4","last_reported":1746814465,"current_range_meters":12400,"station_id":"ce4bhgh2rcd13ifvqfb0","pricing_plan_id":"cebpf4jnsgd1na2vs0mg"},{"bike_id":"e62d7219-d58e-4cdd-8080-935e117b0bfd","system_id":"levelo_inurba_marseille","lat":43.28659,"lon":5.35066,"is_reserved":false,"is_disabled":false,"rental_uris":{"android":"levelo://app?vid=e62d7219-d58e-4cdd-8080-935e117b0bfd","ios":"levelo://app?vid=e62d7219-d58e-4cdd-8080-935e117b0bfd"},"vehicle_type_id":"4","last_reported":1746814465,"current_range_meters":12400,"station_id":"ce4bhch2rcd13ifvqeug","pricing_plan_id":"cebpf4jnsgd1na2vs0mg"},{"bike_id":"86a85c38-4fba-4c4c-bd47-f5ae351d9df5","system_id":"levelo_inurba_marseille","lat":43.30876,"lon":5.39669,"is_reserved":false,"is_disabled":false,"rental_uris":{"android":"levelo://app?vid=86a85c38-4fba-4c4c-bd47-f5ae351d9df5","ios":"levelo://app?vid=86a85c38-4fba-4c4c-bd47-f5ae351d9df5"},"vehicle_type_id":"4","last_reported":1746814465,"current_range_meters":12400,"station_id":"ce4bh012rcd13ifvqcv0","pricing_plan_id":"cebpf4jnsgd1na2vs0mg"},{"bike_id":"79c8d684-a425-4aab-8ca4-59e521e72013","system_id":"levelo_inurba_marseille","lat":43.24834,"lon":5.37453,"is_reserved":false,"is_disabled":false,"rental_uris":{"android":"levelo://app?vid=79c8d684-a425-4aab-8ca4-59e521e72013","ios":"levelo://app?vid=79c8d684-a425-4aab-8ca4-59e521e72013"},"vehicle_type_id":"4","last_reported":1746814465,"current_range_meters":12800,"station_id":"ce4bhgh2rcd13ifvqfb0","pricing_plan_id":"cebpf4jnsgd1na2vs0mg"},{"bike_id":"257486f5-03bd-4b74-b96f-72b61bd25309","system_id":"levelo_inurba_marseille","lat":43.28643,"lon":5.35101,"is_reserved":false,"is_disabled":false,"rental_uris":{"android":"levelo://app?vid=257486f5-03bd-4b74-b96f-72b61bd25309","ios":"levelo://app?vid=257486f5-03bd-4b74-b96f-72b61bd25309"},"vehicle_type_id":"4","last_reported":1746814465,"current_range_meters":12800,"station_id":"ce4bhch2rcd13ifvqeug","pricing_plan_id":"cebpf4jnsgd1na2vs0mg"},{"bike_id":"5ce25159-7850-4c7a-8cc2-394cbc473455","system_id":"levelo_inurba_marseille","lat":43.29629,"lon":5.40598,"is_reserved":false,"is_disabled":false,"rental_uris":{"android":"levelo://app?vid=5ce25159-7850-4c7a-8cc2-394cbc473455","ios":"levelo://app?vid=5ce25159-7850-4c7a-8cc2-394cbc473455"},"vehicle_type_id":"4","last_reported":1746814465,"current_range_meters":12800,"station_id":"ce4bh0h2rcd13ifvqd60","pricing_plan_id":"cebpf4jnsgd1na2vs0mg"},{"bike_id":"4fd1637d-27bc-4e89-8024-3edb4a886e19","system_id":"levelo_inurba_marseille","lat":43.32372,"lon":5.36752,"is_reserved":false,"is_disabled":false,"rental_uris":{"android":"levelo://app?vid=4fd1637d-27bc-4e89-8024-3edb4a886e19","ios":"levelo://app?vid=4fd1637d-27bc-4e89-8024-3edb4a886e19"},"vehicle_type_id":"4","last_reported":1746814465,"current_range_meters":12800,"station_id":"ce4bhsh2rcd13ifvqi2g","pricing_plan_id":"cebpf4jnsgd1na2vs0mg"},{"bike_id":"3da47846-b930-435b-ab57-a552a4b1eea7","system_id":"levelo_inurba_marseille","lat":43.22934,"lon":5.35375,"is_reserved":false,"is_disabled":false,"rental_uris":{"android":"levelo://app?vid=3da47846-b930-435b-ab57-a552a4b1eea7","ios":"levelo://app?vid=3da47846-b930-435b-ab57-a552a4b1eea7"},"vehicle_type_id":"4","last_reported":1746814465,"current_range_meters":13600,"station_id":"cpo3532slgdg3j2ikp40","pricing_plan_id":"cebpf4jnsgd1na2vs0mg"},{"bike_id":"f0a1e306-4c46-4875-a389-e13bfbc4304f","system_id":"levelo_inurba_marseille","lat":43.28578,"lon":5.37139,"is_reserved":false,"is_disabled":false,"rental_uris":{"android":"levelo://app?vid=f0a1e306-4c46-4875-a389-e13bfbc4304f","ios":"levelo://app?vid=f0a1e306-4c46-4875-a389-e13bfbc4304f"},"vehicle_type_id":"4","last_reported":1746814465,"current_range_meters":13600,"station_id":"ce4bht12rcd13ifvqi60","pricing_plan_id":"cebpf4jnsgd1na2vs0mg"},{"bike_id":"d50aea48-5c2f-47b6-a274-f616a31cc5f7","system_id":"levelo_inurba_marseille","lat":43.26568,"lon":5.37274,"is_reserved":false,"is_disabled":false,"rental_uris":{"android":"levelo://app?vid=d50aea48-5c2f-47b6-a274-f616a31cc5f7","ios":"levelo://app?vid=d50aea48-5c2f-47b6-a274-f616a31cc5f7"},"vehicle_type_id":"4","last_reported":1746814465,"current_range_meters":13600,"station_id":"ce4bhg12rcd13ifvqf70","pricing_plan_id":"cebpf4jnsgd1na2vs0mg"},{"bike_id":"d02d1804-b9ba-4fc2-8e74-5957f375c0e6","system_id":"levelo_inurba_marseille","lat":43.24805,"lon":5.37455,"is_reserved":false,"is_disabled":false,"rental_uris":{"android":"levelo://app?vid=d02d1804-b9ba-4fc2-8e74-5957f375c0e6","ios":"levelo://app?vid=d02d1804-b9ba-4fc2-8e74-5957f375c0e6"},"vehicle_type_id":"4","last_reported":1746814465,"current_range_meters":13600,"station_id":"ce4bhgh2rcd13ifvqfb0","pricing_plan_id":"cebpf4jnsgd1na2vs0mg"},{"bike_id":"f37eb087-64f1-4214-a607-1e9103d914e8","system_id":"levelo_inurba_marseille","lat":43.28294,"lon":5.35087,"is_reserved":false,"is_disabled":false,"rental_uris":{"android":"levelo://app?vid=f37eb087-64f1-4214-a607-1e9103d914e8","ios":"levelo://app?vid=f37eb087-64f1-4214-a607-1e9103d914e8"},"vehicle_type_id":"4","last_reported":1746814465,"current_range_meters":14000,"station_id":"ce4bhbp2rcd13ifvqerg","pricing_plan_id":"cebpf4jnsgd1na2vs0mg"},{"bike_id":"869ddb51-d363-44f5-b961-004599b744b8","system_id":"levelo_inurba_marseille","lat":43.32366,"lon":5.38883,"is_reserved":false,"is_disabled":false,"rental_uris":{"android":"levelo://app?vid=869ddb51-d363-44f5-b961-004599b744b8","ios":"levelo://app?vid=869ddb51-d363-44f5-b961-004599b744b8"},"vehicle_type_id":"4","last_reported":1746814465,"current_range_meters":14000,"station_id":"ce4bhqp2rcd13ifvqhog","pricing_plan_id":"cebpf4jnsgd1na2vs0mg"},{"bike_id":"d388abd5-c0e6-48dd-a7fc-1d6206199050","system_id":"levelo_inurba_marseille","lat":43.341395,"lon":5.36094,"is_reserved":false,"is_disabled":false,"rental_uris":{"android":"levelo://app?vid=d388abd5-c0e6-48dd-a7fc-1d6206199050","ios":"levelo://app?vid=d388abd5-c0e6-48dd-a7fc-1d6206199050"},"vehicle_type_id":"4","last_reported":1746814465,"current_range_meters":14000,"station_id":"","pricing_plan_id":"cebpf4jnsgd1na2vs0mg"},{"bike_id":"09e1dc14-26ac-446e-add0-27edb09cfb56","system_id":"levelo_inurba_marseille","lat":43.29277,"lon":5.36848,"is_reserved":false,"is_disabled":false,"rental_uris":{"android":"levelo://app?vid=09e1dc14-26ac-446e-add0-27edb09cfb56","ios":"levelo://app?vid=09e1dc14-26ac-446e-add0-27edb09cfb56"},"vehicle_type_id":"4","last_reported":1746814465,"current_range_meters":14000,"station_id":"","pricing_plan_id":"cebpf4jnsgd1na2vs0mg"},{"bike_id":"620f9663-0b9e-4a81-91bf-a6fc8e1e78ef","system_id":"levelo_inurba_marseille","lat":43.29005,"lon":5.35609,"is_reserved":false,"is_disabled":false,"rental_uris":{"android":"levelo://app?vid=620f9663-0b9e-4a81-91bf-a6fc8e1e78ef","ios":"levelo://app?vid=620f9663-0b9e-4a81-91bf-a6fc8e1e78ef"},"vehicle_type_id":"4","last_reported":1746814465,"current_range_meters":14000,"station_id":"ce4bhb92rcd13ifvqen0","pricing_plan_id":"cebpf4jnsgd1na2vs0mg"},{"bike_id":"9367f21f-edf3-437d-89aa-02843f8d1972","system_id":"levelo_inurba_marseille","lat":43.27919,"lon":5.39573,"is_reserved":false,"is_disabled":false,"rental_uris":{"android":"levelo://app?vid=9367f21f-edf3-437d-89aa-02843f8d1972","ios":"levelo://app?vid=9367f21f-edf3-437d-89aa-02843f8d1972"},"vehicle_type_id":"4","last_reported":1746814465,"current_range_meters":14000,"station_id":"ce4bhf92rcd13ifvqf40","pricing_plan_id":"cebpf4jnsgd1na2vs0mg"},{"bike_id":"537443f9-84db-4726-a26c-a4b758430a77","system_id":"levelo_inurba_marseille","lat":43.27204,"lon":5.39178,"is_reserved":false,"is_disabled":false,"rental_uris":{"android":"levelo://app?vid=537443f9-84db-4726-a26c-a4b758430a77","ios":"levelo://app?vid=537443f9-84db-4726-a26c-a4b758430a77"},"vehicle_type_id":"4","last_reported":1746814465,"current_range_meters":14000,"station_id":"ce4bhhp2rcd13ifvqfm0","pricing_plan_id":"cebpf4jnsgd1na2vs0mg"},{"bike_id":"cc6f9c62-2924-4e7e-830b-b1eec505a08f","system_id":"levelo_inurba_marseille","lat":43.2827,"lon":5.35077,"is_reserved":false,"is_disabled":false,"rental_uris":{"android":"levelo://app?vid=cc6f9c62-2924-4e7e-830b-b1eec505a08f","ios":"levelo://app?vid=cc6f9c62-2924-4e7e-830b-b1eec505a08f"},"vehicle_type_id":"4","last_reported":1746814465,"current_range_meters":14400,"station_id":"ce4bhbp2rcd13ifvqerg","pricing_plan_id":"cebpf4jnsgd1na2vs0mg"},{"bike_id":"ffd4b4b7-d756-4f4c-9079-50837f1f3a85","system_id":"levelo_inurba_marseille","lat":43.30432,"lon":5.3889,"is_reserved":false,"is_disabled":false,"rental_uris":{"android":"levelo://app?vid=ffd4b4b7-d756-4f4c-9079-50837f1f3a85","ios":"levelo://app?vid=ffd4b4b7-d756-4f4c-9079-50837f1f3a85"},"vehicle_type_id":"4","last_reported":1746814465,"current_range_meters":14400,"station_id":"ce4bgk12rcd13ifvqbi0","pricing_plan_id":"cebpf4jnsgd1na2vs0mg"},{"bike_id":"25c299f1-28f6-4910-b57a-ebfba4ea516c","system_id":"levelo_inurba_marseille","lat":43.29004,"lon":5.35606,"is_reserved":false,"is_disabled":false,"rental_uris":{"android":"levelo://app?vid=25c299f1-28f6-4910-b57a-ebfba4ea516c","ios":"levelo://app?vid=25c299f1-28f6-4910-b57a-ebfba4ea516c"},"vehicle_type_id":"4","last_reported":1746814465,"current_range_meters":14400,"station_id":"ce4bhb92rcd13ifvqen0","pricing_plan_id":"cebpf4jnsgd1na2vs0mg"},{"bike_id":"ba25aed9-6cdd-4545-9a77-9e84528b2a48","system_id":"levelo_inurba_marseille","lat":43.28416,"lon":5.34981,"is_reserved":false,"is_disabled":false,"rental_uris":{"android":"levelo://app?vid=ba25aed9-6cdd-4545-9a77-9e84528b2a48","ios":"levelo://app?vid=ba25aed9-6cdd-4545-9a77-9e84528b2a48"},"vehicle_type_id":"4","last_reported":1746814465,"current_range_meters":14400,"station_id":"ce4bhbh2rcd13ifvqepg","pricing_plan_id":"cebpf4jnsgd1na2vs0mg"},{"bike_id":"2bcd659a-611c-43e2-89ef-f7e699246180","system_id":"levelo_inurba_marseille","lat":43.30245,"lon":5.40046,"is_reserved":false,"is_disabled":true,"rental_uris":{"android":"levelo://app?vid=2bcd659a-611c-43e2-89ef-f7e699246180","ios":"levelo://app?vid=2bcd659a-611c-43e2-89ef-f7e699246180"},"vehicle_type_id":"4","last_reported":1746814465,"current_range_meters":14800,"station_id":"ce4bgvh2rcd13ifvqcs0","pricing_plan_id":"cebpf4jnsgd1na2vs0mg"},{"bike_id":"c929039d-9fe0-429a-b12c-cc02b6a02e18","system_id":"levelo_inurba_marseille","lat":43.23195,"lon":5.39983,"is_reserved":false,"is_disabled":false,"rental_uris":{"android":"levelo://app?vid=c929039d-9fe0-429a-b12c-cc02b6a02e18","ios":"levelo://app?vid=c929039d-9fe0-429a-b12c-cc02b6a02e18"},"vehicle_type_id":"4","last_reported":1746814465,"current_range_meters":14800,"station_id":"ce4bhn12rcd13ifvqgqg","pricing_plan_id":"cebpf4jnsgd1na2vs0mg"},{"bike_id":"425a71c2-3497-48ea-abb4-541b2f2a7c98","system_id":"levelo_inurba_marseille","lat":43.24663,"lon":5.38165,"is_reserved":false,"is_disabled":false,"rental_uris":{"android":"levelo://app?vid=425a71c2-3497-48ea-abb4-541b2f2a7c98","ios":"levelo://app?vid=425a71c2-3497-48ea-abb4-541b2f2a7c98"},"vehicle_type_id":"4","last_reported":1746814465,"current_range_meters":14800,"station_id":"ce4bhih2rcd13ifvqfr0","pricing_plan_id":"cebpf4jnsgd1na2vs0mg"},{"bike_id":"bc3ed651-eab6-45f3-b33a-316f4fb8d57f","system_id":"levelo_inurba_marseille","lat":43.33612,"lon":5.41037,"is_reserved":false,"is_disabled":false,"rental_uris":{"android":"levelo://app?vid=bc3ed651-eab6-45f3-b33a-316f4fb8d57f","ios":"levelo://app?vid=bc3ed651-eab6-45f3-b33a-316f4fb8d57f"},"vehicle_type_id":"4","last_reported":1746814465,"current_range_meters":14400,"station_id":"ce4bhqh2rcd13ifvqhmg","pricing_plan_id":"cebpf4jnsgd1na2vs0mg"},{"bike_id":"3db13b06-700c-4ed9-aaab-e8dd53e50686","system_id":"levelo_inurba_marseille","lat":43.2992,"lon":5.40394,"is_reserved":false,"is_disabled":false,"rental_uris":{"android":"levelo://app?vid=3db13b06-700c-4ed9-aaab-e8dd53e50686","ios":"levelo://app?vid=3db13b06-700c-4ed9-aaab-e8dd53e50686"},"vehicle_type_id":"4","last_reported":1746814465,"current_range_meters":15200,"station_id":"","pricing_plan_id":"cebpf4jnsgd1na2vs0mg"},{"bike_id":"1bf62673-5c85-442c-b55f-b08945f26074","system_id":"levelo_inurba_marseille","lat":43.28934,"lon":5.38395,"is_reserved":false,"is_disabled":false,"rental_uris":{"android":"levelo://app?vid=1bf62673-5c85-442c-b55f-b08945f26074","ios":"levelo://app?vid=1bf62673-5c85-442c-b55f-b08945f26074"},"vehicle_type_id":"4","last_reported":1746814465,"current_range_meters":14800,"station_id":"ce4bh612rcd13ifvqe6g","pricing_plan_id":"cebpf4jnsgd1na2vs0mg"},{"bike_id":"5af9304f-7c5c-4e4a-94b4-e9ad19d14660","system_id":"levelo_inurba_marseille","lat":43.292696,"lon":5.384377,"is_reserved":false,"is_disabled":false,"rental_uris":{"android":"levelo://app?vid=5af9304f-7c5c-4e4a-94b4-e9ad19d14660","ios":"levelo://app?vid=5af9304f-7c5c-4e4a-94b4-e9ad19d14660"},"vehicle_type_id":"4","last_reported":1746814465,"current_range_meters":15200,"station_id":"","pricing_plan_id":"cebpf4jnsgd1na2vs0mg"},{"bike_id":"5ed8c669-49a3-446e-8509-de3c819c865a","system_id":"levelo_inurba_marseille","lat":43.21753,"lon":5.34601,"is_reserved":false,"is_disabled":false,"rental_uris":{"android":"levelo://app?vid=5ed8c669-49a3-446e-8509-de3c819c865a","ios":"levelo://app?vid=5ed8c669-49a3-446e-8509-de3c819c865a"},"vehicle_type_id":"4","last_reported":1746814465,"current_range_meters":15200,"station_id":"st_cvj6r9ubvosntc0bgbag","pricing_plan_id":"cebpf4jnsgd1na2vs0mg"},{"bike_id":"ead2ec5c-12e4-432d-be08-f92fe4e4390a","system_id":"levelo_inurba_marseille","lat":43.29256,"lon":5.38444,"is_reserved":false,"is_disabled":false,"rental_uris":{"android":"levelo://app?vid=ead2ec5c-12e4-432d-be08-f92fe4e4390a","ios":"levelo://app?vid=ead2ec5c-12e4-432d-be08-f92fe4e4390a"},"vehicle_type_id":"4","last_reported":1746814465,"current_range_meters":16000,"station_id":"ce4bh692rcd13ifvqea0","pricing_plan_id":"cebpf4jnsgd1na2vs0mg"},{"bike_id":"6c6860d6-c52e-4252-b92b-54d336bdd0bf","system_id":"levelo_inurba_marseille","lat":43.21752,"lon":5.34595,"is_reserved":false,"is_disabled":false,"rental_uris":{"android":"levelo://app?vid=6c6860d6-c52e-4252-b92b-54d336bdd0bf","ios":"levelo://app?vid=6c6860d6-c52e-4252-b92b-54d336bdd0bf"},"vehicle_type_id":"4","last_reported":1746814465,"current_range_meters":16000,"station_id":"st_cvj6r9ubvosntc0bgbag","pricing_plan_id":"cebpf4jnsgd1na2vs0mg"},{"bike_id":"61f486de-54de-4c90-b4b5-6486c59f0015","system_id":"levelo_inurba_marseille","lat":43.30357,"lon":5.41874,"is_reserved":false,"is_disabled":false,"rental_uris":{"android":"levelo://app?vid=61f486de-54de-4c90-b4b5-6486c59f0015","ios":"levelo://app?vid=61f486de-54de-4c90-b4b5-6486c59f0015"},"vehicle_type_id":"4","last_reported":1746814465,"current_range_meters":16000,"station_id":"ce4bhop2rcd13ifvqh7g","pricing_plan_id":"cebpf4jnsgd1na2vs0mg"},{"bike_id":"e6282093-23fb-41a9-859d-c0d9ad966535","system_id":"levelo_inurba_marseille","lat":43.3166,"lon":5.38159,"is_reserved":false,"is_disabled":false,"rental_uris":{"android":"levelo://app?vid=e6282093-23fb-41a9-859d-c0d9ad966535","ios":"levelo://app?vid=e6282093-23fb-41a9-859d-c0d9ad966535"},"vehicle_type_id":"4","last_reported":1746814465,"current_range_meters":16000,"station_id":"","pricing_plan_id":"cebpf4jnsgd1na2vs0mg"},{"bike_id":"08c04ff9-e615-4d87-ba3e-6b0e2342cce5","system_id":"levelo_inurba_marseille","lat":43.296201,"lon":5.367386,"is_reserved":false,"is_disabled":true,"rental_uris":{"android":"levelo://app?vid=08c04ff9-e615-4d87-ba3e-6b0e2342cce5","ios":"levelo://app?vid=08c04ff9-e615-4d87-ba3e-6b0e2342cce5"},"vehicle_type_id":"4","last_reported":1746814465,"current_range_meters":16000,"station_id":"","pricing_plan_id":"cebpf4jnsgd1na2vs0mg"},{"bike_id":"f3e908a7-51b4-4a6d-9340-32a942058b7f","system_id":"levelo_inurba_marseille","lat":43.27904,"lon":5.38014,"is_reserved":false,"is_disabled":false,"rental_uris":{"android":"levelo://app?vid=f3e908a7-51b4-4a6d-9340-32a942058b7f","ios":"levelo://app?vid=f3e908a7-51b4-4a6d-9340-32a942058b7f"},"vehicle_type_id":"4","last_reported":1746814465,"current_range_meters":16400,"station_id":"ce4bhf92rcd13ifvqf50","pricing_plan_id":"cebpf4jnsgd1na2vs0mg"},{"bike_id":"6e24abe9-ff49-40a5-bfac-cd5aacf6ebea","system_id":"levelo_inurba_marseille","lat":43.22931,"lon":5.353793,"is_reserved":false,"is_disabled":false,"rental_uris":{"android":"levelo://app?vid=6e24abe9-ff49-40a5-bfac-cd5aacf6ebea","ios":"levelo://app?vid=6e24abe9-ff49-40a5-bfac-cd5aacf6ebea"},"vehicle_type_id":"4","last_reported":1746814465,"current_range_meters":16400,"station_id":"cpo3532slgdg3j2ikp40","pricing_plan_id":"cebpf4jnsgd1na2vs0mg"},{"bike_id":"0bdcdff3-8294-49b9-80e9-145bbc1ad711","system_id":"levelo_inurba_marseille","lat":43.32292,"lon":5.36774,"is_reserved":false,"is_disabled":false,"rental_uris":{"android":"levelo://app?vid=0bdcdff3-8294-49b9-80e9-145bbc1ad711","ios":"levelo://app?vid=0bdcdff3-8294-49b9-80e9-145bbc1ad711"},"vehicle_type_id":"4","last_reported":1746814465,"current_range_meters":16400,"station_id":"","pricing_plan_id":"cebpf4jnsgd1na2vs0mg"},{"bike_id":"cf6bc856-5840-4cc7-87f8-ebcb25a380e4","system_id":"levelo_inurba_marseille","lat":43.25598,"lon":5.38218,"is_reserved":false,"is_disabled":false,"rental_uris":{"android":"levelo://app?vid=cf6bc856-5840-4cc7-87f8-ebcb25a380e4","ios":"levelo://app?vid=cf6bc856-5840-4cc7-87f8-ebcb25a380e4"},"vehicle_type_id":"4","last_reported":1746814465,"current_range_meters":16400,"station_id":"ce4bhih2rcd13ifvqfs0","pricing_plan_id":"cebpf4jnsgd1na2vs0mg"},{"bike_id":"8ddc67ae-257e-498b-a7de-cfe8f0b6b603","system_id":"levelo_inurba_marseille","lat":43.27058,"lon":5.42278,"is_reserved":false,"is_disabled":false,"rental_uris":{"android":"levelo://app?vid=8ddc67ae-257e-498b-a7de-cfe8f0b6b603","ios":"levelo://app?vid=8ddc67ae-257e-498b-a7de-cfe8f0b6b603"},"vehicle_type_id":"4","last_reported":1746814465,"current_range_meters":16400,"station_id":"ce4bhk92rcd13ifvqgb0","pricing_plan_id":"cebpf4jnsgd1na2vs0mg"},{"bike_id":"0a0d79df-bd29-44c4-a063-3a58924c071a","system_id":"levelo_inurba_marseille","lat":43.31884,"lon":5.4306,"is_reserved":false,"is_disabled":false,"rental_uris":{"android":"levelo://app?vid=0a0d79df-bd29-44c4-a063-3a58924c071a","ios":"levelo://app?vid=0a0d79df-bd29-44c4-a063-3a58924c071a"},"vehicle_type_id":"4","last_reported":1746814465,"current_range_meters":16800,"station_id":"","pricing_plan_id":"cebpf4jnsgd1na2vs0mg"},{"bike_id":"e4ae3670-bfb2-435a-88aa-54e82c0df57d","system_id":"levelo_inurba_marseille","lat":43.29006,"lon":5.3561,"is_reserved":false,"is_disabled":false,"rental_uris":{"android":"levelo://app?vid=e4ae3670-bfb2-435a-88aa-54e82c0df57d","ios":"levelo://app?vid=e4ae3670-bfb2-435a-88aa-54e82c0df57d"},"vehicle_type_id":"4","last_reported":1746814465,"current_range_meters":16000,"station_id":"ce4bhb92rcd13ifvqen0","pricing_plan_id":"cebpf4jnsgd1na2vs0mg"},{"bike_id":"4394d8dc-144c-4ff9-9bac-443ce52989f7","system_id":"levelo_inurba_marseille","lat":43.24808,"lon":5.37458,"is_reserved":false,"is_disabled":false,"rental_uris":{"android":"levelo://app?vid=4394d8dc-144c-4ff9-9bac-443ce52989f7","ios":"levelo://app?vid=4394d8dc-144c-4ff9-9bac-443ce52989f7"},"vehicle_type_id":"4","last_reported":1746814465,"current_range_meters":16400,"station_id":"ce4bhgh2rcd13ifvqfb0","pricing_plan_id":"cebpf4jnsgd1na2vs0mg"},{"bike_id":"205ba473-9ece-4e7a-920d-1f4e02e24da0","system_id":"levelo_inurba_marseille","lat":43.29103,"lon":5.381473,"is_reserved":false,"is_disabled":false,"rental_uris":{"android":"levelo://app?vid=205ba473-9ece-4e7a-920d-1f4e02e24da0","ios":"levelo://app?vid=205ba473-9ece-4e7a-920d-1f4e02e24da0"},"vehicle_type_id":"4","last_reported":1746814465,"current_range_meters":16800,"station_id":"ce4bh512rcd13ifvqe2g","pricing_plan_id":"cebpf4jnsgd1na2vs0mg"},{"bike_id":"07824dac-efde-42b3-bf69-7aa047c78958","system_id":"levelo_inurba_marseille","lat":43.29303,"lon":5.374583,"is_reserved":false,"is_disabled":false,"rental_uris":{"android":"levelo://app?vid=07824dac-efde-42b3-bf69-7aa047c78958","ios":"levelo://app?vid=07824dac-efde-42b3-bf69-7aa047c78958"},"vehicle_type_id":"4","last_reported":1746814465,"current_range_meters":16800,"station_id":"ce4bgi12rcd13ifvqb70","pricing_plan_id":"cebpf4jnsgd1na2vs0mg"},{"bike_id":"9a919805-a5a4-497f-a929-c9e08814771d","system_id":"levelo_inurba_marseille","lat":43.27989,"lon":5.41648,"is_reserved":false,"is_disabled":true,"rental_uris":{"android":"levelo://app?vid=9a919805-a5a4-497f-a929-c9e08814771d","ios":"levelo://app?vid=9a919805-a5a4-497f-a929-c9e08814771d"},"vehicle_type_id":"4","last_reported":1746814465,"current_range_meters":16800,"station_id":"ce4bho12rcd13ifvqh1g","pricing_plan_id":"cebpf4jnsgd1na2vs0mg"},{"bike_id":"d58e2bca-9cc6-4497-82e6-997f2f8b2940","system_id":"levelo_inurba_marseille","lat":43.24665,"lon":5.3816,"is_reserved":false,"is_disabled":false,"rental_uris":{"android":"levelo://app?vid=d58e2bca-9cc6-4497-82e6-997f2f8b2940","ios":"levelo://app?vid=d58e2bca-9cc6-4497-82e6-997f2f8b2940"},"vehicle_type_id":"4","last_reported":1746814465,"current_range_meters":16800,"station_id":"ce4bhih2rcd13ifvqfr0","pricing_plan_id":"cebpf4jnsgd1na2vs0mg"},{"bike_id":"f4d75554-9320-467f-af6c-849d4c1acd54","system_id":"levelo_inurba_marseille","lat":43.28938,"lon":5.39622,"is_reserved":false,"is_disabled":false,"rental_uris":{"android":"levelo://app?vid=f4d75554-9320-467f-af6c-849d4c1acd54","ios":"levelo://app?vid=f4d75554-9320-467f-af6c-849d4c1acd54"},"vehicle_type_id":"4","last_reported":1746814465,"current_range_meters":16800,"station_id":"ce4bh3h2rcd13ifvqdn0","pricing_plan_id":"cebpf4jnsgd1na2vs0mg"},{"bike_id":"0f09929d-9ef4-41ed-84a5-290a6b80250c","system_id":"levelo_inurba_marseille","lat":43.25719,"lon":5.41118,"is_reserved":false,"is_disabled":false,"rental_uris":{"android":"levelo://app?vid=0f09929d-9ef4-41ed-84a5-290a6b80250c","ios":"levelo://app?vid=0f09929d-9ef4-41ed-84a5-290a6b80250c"},"vehicle_type_id":"4","last_reported":1746814465,"current_range_meters":16800,"station_id":"ce4bhkp2rcd13ifvqgd0","pricing_plan_id":"cebpf4jnsgd1na2vs0mg"},{"bike_id":"026562e9-a955-4972-801e-556e6e1438c2","system_id":"levelo_inurba_marseille","lat":43.28153,"lon":5.42653,"is_reserved":false,"is_disabled":false,"rental_uris":{"android":"levelo://app?vid=026562e9-a955-4972-801e-556e6e1438c2","ios":"levelo://app?vid=026562e9-a955-4972-801e-556e6e1438c2"},"vehicle_type_id":"4","last_reported":1746814465,"current_range_meters":16800,"station_id":"ce4bhnh2rcd13ifvqgug","pricing_plan_id":"cebpf4jnsgd1na2vs0mg"},{"bike_id":"bb9dd4d9-ef7c-411c-9ce2-6f0d8890189a","system_id":"levelo_inurba_marseille","lat":43.24193,"lon":5.36381,"is_reserved":false,"is_disabled":false,"rental_uris":{"android":"levelo://app?vid=bb9dd4d9-ef7c-411c-9ce2-6f0d8890189a","ios":"levelo://app?vid=bb9dd4d9-ef7c-411c-9ce2-6f0d8890189a"},"vehicle_type_id":"4","last_reported":1746814465,"current_range_meters":17200,"station_id":"cpo36qri1sfpv3e86is0","pricing_plan_id":"cebpf4jnsgd1na2vs0mg"},{"bike_id":"8bf511d0-38fb-4adc-b82e-1f9070a069fd","system_id":"levelo_inurba_marseille","lat":43.29414,"lon":5.38622,"is_reserved":false,"is_disabled":false,"rental_uris":{"android":"levelo://app?vid=8bf511d0-38fb-4adc-b82e-1f9070a069fd","ios":"levelo://app?vid=8bf511d0-38fb-4adc-b82e-1f9070a069fd"},"vehicle_type_id":"4","last_reported":1746814465,"current_range_meters":17200,"station_id":"ce4bh2h2rcd13ifvqdh0","pricing_plan_id":"cebpf4jnsgd1na2vs0mg"},{"bike_id":"fd25c967-694a-4cf3-8e76-61b709a79e8b","system_id":"levelo_inurba_marseille","lat":43.28569,"lon":5.39496,"is_reserved":false,"is_disabled":false,"rental_uris":{"android":"levelo://app?vid=fd25c967-694a-4cf3-8e76-61b709a79e8b","ios":"levelo://app?vid=fd25c967-694a-4cf3-8e76-61b709a79e8b"},"vehicle_type_id":"4","last_reported":1746814465,"current_range_meters":17200,"station_id":"ce4bh292rcd13ifvqdg0","pricing_plan_id":"cebpf4jnsgd1na2vs0mg"},{"bike_id":"17508b04-f061-4d8e-951a-e24982101938","system_id":"levelo_inurba_marseille","lat":43.279207,"lon":5.395817,"is_reserved":false,"is_disabled":false,"rental_uris":{"android":"levelo://app?vid=17508b04-f061-4d8e-951a-e24982101938","ios":"levelo://app?vid=17508b04-f061-4d8e-951a-e24982101938"},"vehicle_type_id":"4","last_reported":1746814465,"current_range_meters":17200,"station_id":"ce4bhf92rcd13ifvqf40","pricing_plan_id":"cebpf4jnsgd1na2vs0mg"},{"bike_id":"72a8589a-eaf5-47f3-987b-965b67d4f9f7","system_id":"levelo_inurba_marseille","lat":43.24422,"lon":5.37071,"is_reserved":false,"is_disabled":false,"rental_uris":{"android":"levelo://app?vid=72a8589a-eaf5-47f3-987b-965b67d4f9f7","ios":"levelo://app?vid=72a8589a-eaf5-47f3-987b-965b67d4f9f7"},"vehicle_type_id":"4","last_reported":1746814465,"current_range_meters":17200,"station_id":"ce4bhhh2rcd13ifvqfk0","pricing_plan_id":"cebpf4jnsgd1na2vs0mg"},{"bike_id":"2123204f-4eac-47d2-b050-b6c347eaee89","system_id":"levelo_inurba_marseille","lat":43.23181,"lon":5.39967,"is_reserved":false,"is_disabled":false,"rental_uris":{"android":"levelo://app?vid=2123204f-4eac-47d2-b050-b6c347eaee89","ios":"levelo://app?vid=2123204f-4eac-47d2-b050-b6c347eaee89"},"vehicle_type_id":"4","last_reported":1746814465,"current_range_meters":17200,"station_id":"ce4bhn12rcd13ifvqgqg","pricing_plan_id":"cebpf4jnsgd1na2vs0mg"},{"bike_id":"a1dad9df-f06b-4ab1-b17d-2ddb44f25ead","system_id":"levelo_inurba_marseille","lat":43.24805,"lon":5.37456,"is_reserved":false,"is_disabled":false,"rental_uris":{"android":"levelo://app?vid=a1dad9df-f06b-4ab1-b17d-2ddb44f25ead","ios":"levelo://app?vid=a1dad9df-f06b-4ab1-b17d-2ddb44f25ead"},"vehicle_type_id":"4","last_reported":1746814465,"current_range_meters":17200,"station_id":"ce4bhgh2rcd13ifvqfb0","pricing_plan_id":"cebpf4jnsgd1na2vs0mg"},{"bike_id":"4225ada3-c6d2-4a86-b2ec-1bb5ee6d7e62","system_id":"levelo_inurba_marseille","lat":43.27917,"lon":5.39579,"is_reserved":false,"is_disabled":false,"rental_uris":{"android":"levelo://app?vid=4225ada3-c6d2-4a86-b2ec-1bb5ee6d7e62","ios":"levelo://app?vid=4225ada3-c6d2-4a86-b2ec-1bb5ee6d7e62"},"vehicle_type_id":"4","last_reported":1746814465,"current_range_meters":17200,"station_id":"ce4bhf92rcd13ifvqf40","pricing_plan_id":"cebpf4jnsgd1na2vs0mg"},{"bike_id":"1208665b-a689-4e32-8f85-40c17fb8f568","system_id":"levelo_inurba_marseille","lat":43.28151,"lon":5.42645,"is_reserved":false,"is_disabled":false,"rental_uris":{"android":"levelo://app?vid=1208665b-a689-4e32-8f85-40c17fb8f568","ios":"levelo://app?vid=1208665b-a689-4e32-8f85-40c17fb8f568"},"vehicle_type_id":"4","last_reported":1746814465,"current_range_meters":17200,"station_id":"ce4bhnh2rcd13ifvqgug","pricing_plan_id":"cebpf4jnsgd1na2vs0mg"},{"bike_id":"9969384c-4377-4303-81df-a6766224e27c","system_id":"levelo_inurba_marseille","lat":43.25129,"lon":5.40316,"is_reserved":false,"is_disabled":false,"rental_uris":{"android":"levelo://app?vid=9969384c-4377-4303-81df-a6766224e27c","ios":"levelo://app?vid=9969384c-4377-4303-81df-a6766224e27c"},"vehicle_type_id":"4","last_reported":1746814465,"current_range_meters":17200,"station_id":"ce4bhlh2rcd13ifvqgig","pricing_plan_id":"cebpf4jnsgd1na2vs0mg"},{"bike_id":"42df4f1f-589d-4e39-9c62-1f6eb5b1af65","system_id":"levelo_inurba_marseille","lat":43.294373,"lon":5.386256,"is_reserved":false,"is_disabled":false,"rental_uris":{"android":"levelo://app?vid=42df4f1f-589d-4e39-9c62-1f6eb5b1af65","ios":"levelo://app?vid=42df4f1f-589d-4e39-9c62-1f6eb5b1af65"},"vehicle_type_id":"4","last_reported":1746814465,"current_range_meters":17200,"station_id":"ce4bh2h2rcd13ifvqdh0","pricing_plan_id":"cebpf4jnsgd1na2vs0mg"},{"bike_id":"abd859d7-f665-4f3a-9417-aa0244464e14","system_id":"levelo_inurba_marseille","lat":43.29411,"lon":5.38633,"is_reserved":false,"is_disabled":false,"rental_uris":{"android":"levelo://app?vid=abd859d7-f665-4f3a-9417-aa0244464e14","ios":"levelo://app?vid=abd859d7-f665-4f3a-9417-aa0244464e14"},"vehicle_type_id":"4","last_reported":1746814465,"current_range_meters":18000,"station_id":"ce4bh2h2rcd13ifvqdh0","pricing_plan_id":"cebpf4jnsgd1na2vs0mg"},{"bike_id":"34c61c80-e951-4143-9965-f5c392366a47","system_id":"levelo_inurba_marseille","lat":43.31487,"lon":5.37308,"is_reserved":false,"is_disabled":false,"rental_uris":{"android":"levelo://app?vid=34c61c80-e951-4143-9965-f5c392366a47","ios":"levelo://app?vid=34c61c80-e951-4143-9965-f5c392366a47"},"vehicle_type_id":"4","last_reported":1746814465,"current_range_meters":17200,"station_id":"ce4bgt12rcd13ifvqcd0","pricing_plan_id":"cebpf4jnsgd1na2vs0mg"},{"bike_id":"5bee1775-528f-49e6-9c3e-19f7744c053e","system_id":"levelo_inurba_marseille","lat":43.279921,"lon":5.416663,"is_reserved":false,"is_disabled":false,"rental_uris":{"android":"levelo://app?vid=5bee1775-528f-49e6-9c3e-19f7744c053e","ios":"levelo://app?vid=5bee1775-528f-49e6-9c3e-19f7744c053e"},"vehicle_type_id":"4","last_reported":1746814465,"current_range_meters":17600,"station_id":"ce4bho12rcd13ifvqh1g","pricing_plan_id":"cebpf4jnsgd1na2vs0mg"},{"bike_id":"cf8aa6fe-8371-472a-8baf-b4bedb4735d3","system_id":"levelo_inurba_marseille","lat":43.25,"lon":5.389278,"is_reserved":false,"is_disabled":false,"rental_uris":{"android":"levelo://app?vid=cf8aa6fe-8371-472a-8baf-b4bedb4735d3","ios":"levelo://app?vid=cf8aa6fe-8371-472a-8baf-b4bedb4735d3"},"vehicle_type_id":"4","last_reported":1746814465,"current_range_meters":17600,"station_id":"ce4bhgp2rcd13ifvqfd0","pricing_plan_id":"cebpf4jnsgd1na2vs0mg"},{"bike_id":"6ed0723c-1c2f-4b43-b762-96521eb11012","system_id":"levelo_inurba_marseille","lat":43.27201,"lon":5.39188,"is_reserved":false,"is_disabled":false,"rental_uris":{"android":"levelo://app?vid=6ed0723c-1c2f-4b43-b762-96521eb11012","ios":"levelo://app?vid=6ed0723c-1c2f-4b43-b762-96521eb11012"},"vehicle_type_id":"4","last_reported":1746814465,"current_range_meters":17600,"station_id":"ce4bhhp2rcd13ifvqfm0","pricing_plan_id":"cebpf4jnsgd1na2vs0mg"},{"bike_id":"bb495b1d-188b-49e3-8195-6b30e0477e72","system_id":"levelo_inurba_marseille","lat":43.25007,"lon":5.38911,"is_reserved":false,"is_disabled":false,"rental_uris":{"android":"levelo://app?vid=bb495b1d-188b-49e3-8195-6b30e0477e72","ios":"levelo://app?vid=bb495b1d-188b-49e3-8195-6b30e0477e72"},"vehicle_type_id":"4","last_reported":1746814465,"current_range_meters":17600,"station_id":"ce4bhgp2rcd13ifvqfd0","pricing_plan_id":"cebpf4jnsgd1na2vs0mg"},{"bike_id":"589ba2c7-d3fd-4923-a3f0-f82451aded19","system_id":"levelo_inurba_marseille","lat":43.2781,"lon":5.40724,"is_reserved":false,"is_disabled":false,"rental_uris":{"android":"levelo://app?vid=589ba2c7-d3fd-4923-a3f0-f82451aded19","ios":"levelo://app?vid=589ba2c7-d3fd-4923-a3f0-f82451aded19"},"vehicle_type_id":"4","last_reported":1746814465,"current_range_meters":17600,"station_id":"ce4bhnh2rcd13ifvqgtg","pricing_plan_id":"cebpf4jnsgd1na2vs0mg"},{"bike_id":"d5fd7c2b-d08e-45b8-82a2-7f86bcaefce2","system_id":"levelo_inurba_marseille","lat":43.29294,"lon":5.37461,"is_reserved":false,"is_disabled":false,"rental_uris":{"android":"levelo://app?vid=d5fd7c2b-d08e-45b8-82a2-7f86bcaefce2","ios":"levelo://app?vid=d5fd7c2b-d08e-45b8-82a2-7f86bcaefce2"},"vehicle_type_id":"4","last_reported":1746814465,"current_range_meters":18000,"station_id":"ce4bgi12rcd13ifvqb70","pricing_plan_id":"cebpf4jnsgd1na2vs0mg"},{"bike_id":"fc2577e7-1497-425b-9d4f-ab8d7dc843c6","system_id":"levelo_inurba_marseille","lat":43.33771,"lon":5.37485,"is_reserved":false,"is_disabled":false,"rental_uris":{"android":"levelo://app?vid=fc2577e7-1497-425b-9d4f-ab8d7dc843c6","ios":"levelo://app?vid=fc2577e7-1497-425b-9d4f-ab8d7dc843c6"},"vehicle_type_id":"4","last_reported":1746814465,"current_range_meters":18000,"station_id":"","pricing_plan_id":"cebpf4jnsgd1na2vs0mg"},{"bike_id":"53bf5589-c893-4e8b-83d5-0a582fd324e6","system_id":"levelo_inurba_marseille","lat":43.3136,"lon":5.38491,"is_reserved":false,"is_disabled":false,"rental_uris":{"android":"levelo://app?vid=53bf5589-c893-4e8b-83d5-0a582fd324e6","ios":"levelo://app?vid=53bf5589-c893-4e8b-83d5-0a582fd324e6"},"vehicle_type_id":"4","last_reported":1746814465,"current_range_meters":18000,"station_id":"ce4bgt92rcd13ifvqcf0","pricing_plan_id":"cebpf4jnsgd1na2vs0mg"},{"bike_id":"7f5d124e-0208-4e32-98a3-46ddb765b36b","system_id":"levelo_inurba_marseille","lat":43.22935,"lon":5.35376,"is_reserved":false,"is_disabled":false,"rental_uris":{"android":"levelo://app?vid=7f5d124e-0208-4e32-98a3-46ddb765b36b","ios":"levelo://app?vid=7f5d124e-0208-4e32-98a3-46ddb765b36b"},"vehicle_type_id":"4","last_reported":1746814465,"current_range_meters":18000,"station_id":"cpo3532slgdg3j2ikp40","pricing_plan_id":"cebpf4jnsgd1na2vs0mg"},{"bike_id":"f0341d4f-1717-4164-ac90-9e779ab4840e","system_id":"levelo_inurba_marseille","lat":43.29689,"lon":5.372965,"is_reserved":false,"is_disabled":false,"rental_uris":{"android":"levelo://app?vid=f0341d4f-1717-4164-ac90-9e779ab4840e","ios":"levelo://app?vid=f0341d4f-1717-4164-ac90-9e779ab4840e"},"vehicle_type_id":"4","last_reported":1746814465,"current_range_meters":18000,"station_id":"ce4bgk12rcd13ifvqbj0","pricing_plan_id":"cebpf4jnsgd1na2vs0mg"},{"bike_id":"336ce01c-9295-4699-af38-b6ec4f52b90a","system_id":"levelo_inurba_marseille","lat":43.24811,"lon":5.37455,"is_reserved":false,"is_disabled":false,"rental_uris":{"android":"levelo://app?vid=336ce01c-9295-4699-af38-b6ec4f52b90a","ios":"levelo://app?vid=336ce01c-9295-4699-af38-b6ec4f52b90a"},"vehicle_type_id":"4","last_reported":1746814465,"current_range_meters":18000,"station_id":"ce4bhgh2rcd13ifvqfb0","pricing_plan_id":"cebpf4jnsgd1na2vs0mg"},{"bike_id":"e33dab5a-794c-4a14-844d-3ba9289d89ae","system_id":"levelo_inurba_marseille","lat":43.29416,"lon":5.38599,"is_reserved":false,"is_disabled":false,"rental_uris":{"android":"levelo://app?vid=e33dab5a-794c-4a14-844d-3ba9289d89ae","ios":"levelo://app?vid=e33dab5a-794c-4a14-844d-3ba9289d89ae"},"vehicle_type_id":"4","last_reported":1746814465,"current_range_meters":18000,"station_id":"ce4bh2h2rcd13ifvqdh0","pricing_plan_id":"cebpf4jnsgd1na2vs0mg"},{"bike_id":"c4c00445-3bbb-4e48-83d9-2a1e24273675","system_id":"levelo_inurba_marseille","lat":43.28933,"lon":5.36641,"is_reserved":false,"is_disabled":false,"rental_uris":{"android":"levelo://app?vid=c4c00445-3bbb-4e48-83d9-2a1e24273675","ios":"levelo://app?vid=c4c00445-3bbb-4e48-83d9-2a1e24273675"},"vehicle_type_id":"4","last_reported":1746814465,"current_range_meters":18000,"station_id":"ce4bhap2rcd13ifvqek0","pricing_plan_id":"cebpf4jnsgd1na2vs0mg"},{"bike_id":"2af26263-d9b0-4aff-bd3c-bb1863491797","system_id":"levelo_inurba_marseille","lat":43.21754,"lon":5.34616,"is_reserved":false,"is_disabled":false,"rental_uris":{"android":"levelo://app?vid=2af26263-d9b0-4aff-bd3c-bb1863491797","ios":"levelo://app?vid=2af26263-d9b0-4aff-bd3c-bb1863491797"},"vehicle_type_id":"4","last_reported":1746814465,"current_range_meters":18000,"station_id":"st_cvj6r9ubvosntc0bgbag","pricing_plan_id":"cebpf4jnsgd1na2vs0mg"},{"bike_id":"545e5687-b7df-4883-81be-75a8925d5f91","system_id":"levelo_inurba_marseille","lat":43.337444,"lon":5.374475,"is_reserved":false,"is_disabled":false,"rental_uris":{"android":"levelo://app?vid=545e5687-b7df-4883-81be-75a8925d5f91","ios":"levelo://app?vid=545e5687-b7df-4883-81be-75a8925d5f91"},"vehicle_type_id":"4","last_reported":1746814465,"current_range_meters":18000,"station_id":"","pricing_plan_id":"cebpf4jnsgd1na2vs0mg"},{"bike_id":"94cd8564-a06e-4cc5-88d9-996fbf8639fe","system_id":"levelo_inurba_marseille","lat":43.21755,"lon":5.34597,"is_reserved":false,"is_disabled":true,"rental_uris":{"android":"levelo://app?vid=94cd8564-a06e-4cc5-88d9-996fbf8639fe","ios":"levelo://app?vid=94cd8564-a06e-4cc5-88d9-996fbf8639fe"},"vehicle_type_id":"4","last_reported":1746814465,"current_range_meters":18800,"station_id":"st_cvj6r9ubvosntc0bgbag","pricing_plan_id":"cebpf4jnsgd1na2vs0mg"},{"bike_id":"ef9a0e45-9fdf-4799-abb5-6014f47cff97","system_id":"levelo_inurba_marseille","lat":43.29004,"lon":5.35602,"is_reserved":false,"is_disabled":false,"rental_uris":{"android":"levelo://app?vid=ef9a0e45-9fdf-4799-abb5-6014f47cff97","ios":"levelo://app?vid=ef9a0e45-9fdf-4799-abb5-6014f47cff97"},"vehicle_type_id":"4","last_reported":1746814465,"current_range_meters":18800,"station_id":"ce4bhb92rcd13ifvqen0","pricing_plan_id":"cebpf4jnsgd1na2vs0mg"},{"bike_id":"c2badabb-010f-46a9-8346-1481865455aa","system_id":"levelo_inurba_marseille","lat":43.28854,"lon":5.39307,"is_reserved":false,"is_disabled":false,"rental_uris":{"android":"levelo://app?vid=c2badabb-010f-46a9-8346-1481865455aa","ios":"levelo://app?vid=c2badabb-010f-46a9-8346-1481865455aa"},"vehicle_type_id":"4","last_reported":1746814465,"current_range_meters":18800,"station_id":"ce4bh2p2rcd13ifvqdi0","pricing_plan_id":"cebpf4jnsgd1na2vs0mg"},{"bike_id":"8b922ca6-4c4c-4cce-b120-dfd10f864eda","system_id":"levelo_inurba_marseille","lat":43.29612,"lon":5.38106,"is_reserved":false,"is_disabled":true,"rental_uris":{"android":"levelo://app?vid=8b922ca6-4c4c-4cce-b120-dfd10f864eda","ios":"levelo://app?vid=8b922ca6-4c4c-4cce-b120-dfd10f864eda"},"vehicle_type_id":"4","last_reported":1746814465,"current_range_meters":18800,"station_id":"ce4bgl12rcd13ifvqbo0","pricing_plan_id":"cebpf4jnsgd1na2vs0mg"},{"bike_id":"178114e8-2ddb-44e5-9a52-b44ed1faa547","system_id":"levelo_inurba_marseille","lat":43.26595,"lon":5.39028,"is_reserved":false,"is_disabled":false,"rental_uris":{"android":"levelo://app?vid=178114e8-2ddb-44e5-9a52-b44ed1faa547","ios":"levelo://app?vid=178114e8-2ddb-44e5-9a52-b44ed1faa547"},"vehicle_type_id":"4","last_reported":1746814465,"current_range_meters":18800,"station_id":"ce4bhe12rcd13ifvqf30","pricing_plan_id":"cebpf4jnsgd1na2vs0mg"},{"bike_id":"881c14db-73d5-4b1e-bb5c-97650d4212fe","system_id":"levelo_inurba_marseille","lat":43.29263,"lon":5.38425,"is_reserved":false,"is_disabled":false,"rental_uris":{"android":"levelo://app?vid=881c14db-73d5-4b1e-bb5c-97650d4212fe","ios":"levelo://app?vid=881c14db-73d5-4b1e-bb5c-97650d4212fe"},"vehicle_type_id":"4","last_reported":1746814465,"current_range_meters":18800,"station_id":"ce4bh692rcd13ifvqea0","pricing_plan_id":"cebpf4jnsgd1na2vs0mg"},{"bike_id":"608d0263-de70-4e98-9c78-190f5a6cca33","system_id":"levelo_inurba_marseille","lat":43.3043,"lon":5.38897,"is_reserved":false,"is_disabled":false,"rental_uris":{"android":"levelo://app?vid=608d0263-de70-4e98-9c78-190f5a6cca33","ios":"levelo://app?vid=608d0263-de70-4e98-9c78-190f5a6cca33"},"vehicle_type_id":"4","last_reported":1746814465,"current_range_meters":18800,"station_id":"ce4bgk12rcd13ifvqbi0","pricing_plan_id":"cebpf4jnsgd1na2vs0mg"},{"bike_id":"66d39f5f-1aac-423b-9ea7-bf9c1b0e5079","system_id":"levelo_inurba_marseille","lat":43.2752,"lon":5.41127,"is_reserved":false,"is_disabled":false,"rental_uris":{"android":"levelo://app?vid=66d39f5f-1aac-423b-9ea7-bf9c1b0e5079","ios":"levelo://app?vid=66d39f5f-1aac-423b-9ea7-bf9c1b0e5079"},"vehicle_type_id":"4","last_reported":1746814465,"current_range_meters":18800,"station_id":"","pricing_plan_id":"cebpf4jnsgd1na2vs0mg"},{"bike_id":"505d9890-e5ff-4079-a8a1-60709cb4979c","system_id":"levelo_inurba_marseille","lat":43.31917,"lon":5.43149,"is_reserved":false,"is_disabled":false,"rental_uris":{"android":"levelo://app?vid=505d9890-e5ff-4079-a8a1-60709cb4979c","ios":"levelo://app?vid=505d9890-e5ff-4079-a8a1-60709cb4979c"},"vehicle_type_id":"4","last_reported":1746814465,"current_range_meters":19200,"station_id":"","pricing_plan_id":"cebpf4jnsgd1na2vs0mg"},{"bike_id":"9b84e65f-2424-4f8e-b51b-21355d123536","system_id":"levelo_inurba_marseille","lat":43.31515,"lon":5.37247,"is_reserved":false,"is_disabled":false,"rental_uris":{"android":"levelo://app?vid=9b84e65f-2424-4f8e-b51b-21355d123536","ios":"levelo://app?vid=9b84e65f-2424-4f8e-b51b-21355d123536"},"vehicle_type_id":"4","last_reported":1746814465,"current_range_meters":19200,"station_id":"","pricing_plan_id":"cebpf4jnsgd1na2vs0mg"},{"bike_id":"8457f252-f319-49eb-bf5c-a7cbb69dcf31","system_id":"levelo_inurba_marseille","lat":43.2842,"lon":5.34989,"is_reserved":false,"is_disabled":false,"rental_uris":{"android":"levelo://app?vid=8457f252-f319-49eb-bf5c-a7cbb69dcf31","ios":"levelo://app?vid=8457f252-f319-49eb-bf5c-a7cbb69dcf31"},"vehicle_type_id":"4","last_reported":1746814465,"current_range_meters":19200,"station_id":"ce4bhbh2rcd13ifvqepg","pricing_plan_id":"cebpf4jnsgd1na2vs0mg"},{"bike_id":"907b11af-7734-4674-8629-646c3d74926b","system_id":"levelo_inurba_marseille","lat":43.29022,"lon":5.38645,"is_reserved":false,"is_disabled":false,"rental_uris":{"android":"levelo://app?vid=907b11af-7734-4674-8629-646c3d74926b","ios":"levelo://app?vid=907b11af-7734-4674-8629-646c3d74926b"},"vehicle_type_id":"4","last_reported":1746814465,"current_range_meters":19200,"station_id":"ce4bh4p2rcd13ifvqe0g","pricing_plan_id":"cebpf4jnsgd1na2vs0mg"},{"bike_id":"96e4a067-0974-4f96-bd22-b6353a054e26","system_id":"levelo_inurba_marseille","lat":43.27999,"lon":5.40011,"is_reserved":false,"is_disabled":true,"rental_uris":{"android":"levelo://app?vid=96e4a067-0974-4f96-bd22-b6353a054e26","ios":"levelo://app?vid=96e4a067-0974-4f96-bd22-b6353a054e26"},"vehicle_type_id":"4","last_reported":1746814465,"current_range_meters":19200,"station_id":"ce4bho92rcd13ifvqh4g","pricing_plan_id":"cebpf4jnsgd1na2vs0mg"},{"bike_id":"3afc3b33-5ae4-4ccb-beb6-0ecf13700467","system_id":"levelo_inurba_marseille","lat":43.28427,"lon":5.34995,"is_reserved":false,"is_disabled":false,"rental_uris":{"android":"levelo://app?vid=3afc3b33-5ae4-4ccb-beb6-0ecf13700467","ios":"levelo://app?vid=3afc3b33-5ae4-4ccb-beb6-0ecf13700467"},"vehicle_type_id":"4","last_reported":1746814465,"current_range_meters":19200,"station_id":"ce4bhbh2rcd13ifvqepg","pricing_plan_id":"cebpf4jnsgd1na2vs0mg"},{"bike_id":"936cb52a-1c9e-4473-aa70-16523ad66ffa","system_id":"levelo_inurba_marseille","lat":43.28094,"lon":5.39653,"is_reserved":false,"is_disabled":false,"rental_uris":{"android":"levelo://app?vid=936cb52a-1c9e-4473-aa70-16523ad66ffa","ios":"levelo://app?vid=936cb52a-1c9e-4473-aa70-16523ad66ffa"},"vehicle_type_id":"4","last_reported":1746814465,"current_range_meters":19600,"station_id":"ce4bho12rcd13ifvqh2g","pricing_plan_id":"cebpf4jnsgd1na2vs0mg"},{"bike_id":"a8c84e0f-6048-4db0-8ef4-a90b2abfd663","system_id":"levelo_inurba_marseille","lat":43.24646,"lon":5.38889,"is_reserved":false,"is_disabled":false,"rental_uris":{"android":"levelo://app?vid=a8c84e0f-6048-4db0-8ef4-a90b2abfd663","ios":"levelo://app?vid=a8c84e0f-6048-4db0-8ef4-a90b2abfd663"},"vehicle_type_id":"4","last_reported":1746814465,"current_range_meters":19200,"station_id":"ce4bhg12rcd13ifvqf60","pricing_plan_id":"cebpf4jnsgd1na2vs0mg"},{"bike_id":"22e06908-5f63-4956-82a4-8d5f112dbb14","system_id":"levelo_inurba_marseille","lat":43.28155,"lon":5.42645,"is_reserved":false,"is_disabled":false,"rental_uris":{"android":"levelo://app?vid=22e06908-5f63-4956-82a4-8d5f112dbb14","ios":"levelo://app?vid=22e06908-5f63-4956-82a4-8d5f112dbb14"},"vehicle_type_id":"4","last_reported":1746814465,"current_range_meters":19600,"station_id":"ce4bhnh2rcd13ifvqgug","pricing_plan_id":"cebpf4jnsgd1na2vs0mg"},{"bike_id":"acf2ac38-8212-4b8e-b554-9fa312058ecd","system_id":"levelo_inurba_marseille","lat":43.30425,"lon":5.38887,"is_reserved":false,"is_disabled":false,"rental_uris":{"android":"levelo://app?vid=acf2ac38-8212-4b8e-b554-9fa312058ecd","ios":"levelo://app?vid=acf2ac38-8212-4b8e-b554-9fa312058ecd"},"vehicle_type_id":"4","last_reported":1746814465,"current_range_meters":19600,"station_id":"ce4bgk12rcd13ifvqbi0","pricing_plan_id":"cebpf4jnsgd1na2vs0mg"},{"bike_id":"b3a423a2-3b90-4ddd-9ef4-37585b6c6e9b","system_id":"levelo_inurba_marseille","lat":43.30187,"lon":5.36615,"is_reserved":false,"is_disabled":false,"rental_uris":{"android":"levelo://app?vid=b3a423a2-3b90-4ddd-9ef4-37585b6c6e9b","ios":"levelo://app?vid=b3a423a2-3b90-4ddd-9ef4-37585b6c6e9b"},"vehicle_type_id":"4","last_reported":1746814465,"current_range_meters":19200,"station_id":"ce4bgrh2rcd13ifvqc8g","pricing_plan_id":"cebpf4jnsgd1na2vs0mg"},{"bike_id":"d6a33ca5-ced0-48f0-97bb-21ed392652d2","system_id":"levelo_inurba_marseille","lat":43.32985,"lon":5.3835,"is_reserved":false,"is_disabled":false,"rental_uris":{"android":"levelo://app?vid=d6a33ca5-ced0-48f0-97bb-21ed392652d2","ios":"levelo://app?vid=d6a33ca5-ced0-48f0-97bb-21ed392652d2"},"vehicle_type_id":"4","last_reported":1746814465,"current_range_meters":19600,"station_id":"","pricing_plan_id":"cebpf4jnsgd1na2vs0mg"},{"bike_id":"089388f9-578b-4ef2-a850-caec8891008b","system_id":"levelo_inurba_marseille","lat":43.29473,"lon":5.38602,"is_reserved":false,"is_disabled":false,"rental_uris":{"android":"levelo://app?vid=089388f9-578b-4ef2-a850-caec8891008b","ios":"levelo://app?vid=089388f9-578b-4ef2-a850-caec8891008b"},"vehicle_type_id":"4","last_reported":1746814465,"current_range_meters":20000,"station_id":"","pricing_plan_id":"cebpf4jnsgd1na2vs0mg"},{"bike_id":"23ff05a2-4231-472a-a52f-7ea5625c5295","system_id":"levelo_inurba_marseille","lat":43.33597,"lon":5.41033,"is_reserved":false,"is_disabled":false,"rental_uris":{"android":"levelo://app?vid=23ff05a2-4231-472a-a52f-7ea5625c5295","ios":"levelo://app?vid=23ff05a2-4231-472a-a52f-7ea5625c5295"},"vehicle_type_id":"4","last_reported":1746814465,"current_range_meters":20000,"station_id":"ce4bhqh2rcd13ifvqhmg","pricing_plan_id":"cebpf4jnsgd1na2vs0mg"},{"bike_id":"a1121b36-b5cd-4dda-96ef-13a3dfaa55e1","system_id":"levelo_inurba_marseille","lat":43.301401,"lon":5.387791,"is_reserved":false,"is_disabled":false,"rental_uris":{"android":"levelo://app?vid=a1121b36-b5cd-4dda-96ef-13a3dfaa55e1","ios":"levelo://app?vid=a1121b36-b5cd-4dda-96ef-13a3dfaa55e1"},"vehicle_type_id":"4","last_reported":1746814465,"current_range_meters":20000,"station_id":"","pricing_plan_id":"cebpf4jnsgd1na2vs0mg"},{"bike_id":"12a0b799-b475-4298-886d-6c91f9c99402","system_id":"levelo_inurba_marseille","lat":43.25135,"lon":5.40308,"is_reserved":false,"is_disabled":false,"rental_uris":{"android":"levelo://app?vid=12a0b799-b475-4298-886d-6c91f9c99402","ios":"levelo://app?vid=12a0b799-b475-4298-886d-6c91f9c99402"},"vehicle_type_id":"4","last_reported":1746814465,"current_range_meters":20000,"station_id":"ce4bhlh2rcd13ifvqgig","pricing_plan_id":"cebpf4jnsgd1na2vs0mg"},{"bike_id":"462336e2-a4e8-4882-be35-4ed6969a7cd6","system_id":"levelo_inurba_marseille","lat":43.299345,"lon":5.386365,"is_reserved":false,"is_disabled":false,"rental_uris":{"android":"levelo://app?vid=462336e2-a4e8-4882-be35-4ed6969a7cd6","ios":"levelo://app?vid=462336e2-a4e8-4882-be35-4ed6969a7cd6"},"vehicle_type_id":"4","last_reported":1746814465,"current_range_meters":20000,"station_id":"","pricing_plan_id":"cebpf4jnsgd1na2vs0mg"},{"bike_id":"f26d805f-0e69-432d-bb78-5efad2813a5b","system_id":"levelo_inurba_marseille","lat":43.29043,"lon":5.35913,"is_reserved":false,"is_disabled":false,"rental_uris":{"android":"levelo://app?vid=f26d805f-0e69-432d-bb78-5efad2813a5b","ios":"levelo://app?vid=f26d805f-0e69-432d-bb78-5efad2813a5b"},"vehicle_type_id":"4","last_reported":1746814465,"current_range_meters":20000,"station_id":"ce4bha92rcd13ifvqeg0","pricing_plan_id":"cebpf4jnsgd1na2vs0mg"},{"bike_id":"6559c59c-cf66-4a7d-8594-421581793306","system_id":"levelo_inurba_marseille","lat":43.29266,"lon":5.36055,"is_reserved":false,"is_disabled":false,"rental_uris":{"android":"levelo://app?vid=6559c59c-cf66-4a7d-8594-421581793306","ios":"levelo://app?vid=6559c59c-cf66-4a7d-8594-421581793306"},"vehicle_type_id":"4","last_reported":1746814465,"current_range_meters":20000,"station_id":"ce4bhbh2rcd13ifvqeqg","pricing_plan_id":"cebpf4jnsgd1na2vs0mg"},{"bike_id":"611984cb-882a-46b7-8fab-e6350303c611","system_id":"levelo_inurba_marseille","lat":43.24166,"lon":5.36395,"is_reserved":false,"is_disabled":false,"rental_uris":{"android":"levelo://app?vid=611984cb-882a-46b7-8fab-e6350303c611","ios":"levelo://app?vid=611984cb-882a-46b7-8fab-e6350303c611"},"vehicle_type_id":"4","last_reported":1746814465,"current_range_meters":20000,"station_id":"cpo36qri1sfpv3e86is0","pricing_plan_id":"cebpf4jnsgd1na2vs0mg"},{"bike_id":"7a413dfb-46e8-4834-9ee3-a63defaf715c","system_id":"levelo_inurba_marseille","lat":43.3098,"lon":5.394,"is_reserved":false,"is_disabled":false,"rental_uris":{"android":"levelo://app?vid=7a413dfb-46e8-4834-9ee3-a63defaf715c","ios":"levelo://app?vid=7a413dfb-46e8-4834-9ee3-a63defaf715c"},"vehicle_type_id":"4","last_reported":1746814465,"current_range_meters":20000,"station_id":"","pricing_plan_id":"cebpf4jnsgd1na2vs0mg"},