{"last_updated":1716044917,"ttl":30,"version":"2.2","data":{"bikes":[{"bike_id":"0075149d-2cba-48ec-98c4-f079e924d12e","system_id":"levelo_inurba_marseille","lat":43.313391,"lon":5.36706,"is_reserved":false,"is_disabled":false,"rental_uris":{"android":"levelo://app?vid=0075149d-2cba-48ec-98c4-f079e924d12e","ios":"levelo://app?vid=0075149d-2cba-48ec-98c4-f079e924d12e"},"vehicle_type_id":"4","last_reported":1716044917,"current_range_meters":31200,"station_id":"ce4bgr92rcd13ifvqc6g","pricing_plan_id":"cebpf4jnsgd1na2vs0mg"},{"bike_id":"82eea016-09b9-409c-8e1d-9492c6dba4c3","system_id":"levelo_inurba_marseille","lat":43.312239,"lon":5.368562,"is_reserved":false,"is_disabled":false,"rental_uris":{"android":"levelo://app?vid=82eea016-09b9-409c-8e1d-9492c6dba4c3","ios":"levelo://app?vid=82eea016-09b9-409c-8e1d-9492c6dba4c3"},"vehicle_type_id":"4","last_reported":1716044917,"current_range_meters":14000,"station_id":"ce4bgl92rcd13ifvqbq0","pricing_plan_id":"cebpf4jnsgd1na2vs0mg"},{"bike_id":"afab2cc5-130e-4bbc-976b-ed8f91749591","system_id":"levelo_inurba_marseille","lat":43.31308,"lon":5.369365,"is_reserved":false,"is_disabled":false,"rental_uris":{"android":"levelo://app?vid=afab2cc5-130e-4bbc-976b-ed8f91749591","ios":"levelo://app?vid=afab2cc5-130e-4bbc-976b-ed8f91749591"},"vehicle_type_id":"4","last_reported":1716044917,"current_range_meters":23600,"station_id":"","pricing_plan_id":"cebpf4jnsgd1na2vs0mg"},{"bike_id":"fc2d23f8-99be-47fa-8dc9-48beb1486587","system_id":"levelo_inurba_marseille","lat":43.309077,"lon":5.368545,"is_reserved":false,"is_disabled":false,"rental_uris":{"android":"levelo://app?vid=fc2d23f8-99be-47fa-8dc9-48beb1486587","ios":"levelo://app?vid=fc2d23f8-99be-47fa-8dc9-48beb1486587"},"vehicle_type_id":"4","last_reported":1716044917,"current_range_meters":11600,"station_id":"ce4bgn92rcd13ifvqbvg","pricing_plan_id":"cebpf4jnsgd1na2vs0mg"},{"bike_id":"f80c34e7-6741-44f8-a009-366d8d6f5876","system_id":"levelo_inurba_marseille","lat":43.31076,"lon":5.37178,"is_reserved":false,"is_disabled":false,"rental_uris":{"android":"levelo://app?vid=f80c34e7-6741-44f8-a009-366d8d6f5876","ios":"levelo://app?vid=f80c34e7-6741-44f8-a009-366d8d6f5876"},"vehicle_type_id":"4","last_reported":1716044917,"current_range_meters":19200,"station_id":"","pricing_plan_id":"cebpf4jnsgd1na2vs0mg"},{"bike_id":"3b6b7110-4aaf-4086-9258-b1ed04098f2b","system_id":"levelo_inurba_marseille","lat":43.314811,"lon":5.373103,"is_reserved":false,"is_disabled":false,"rental_uris":{"android":"levelo://app?vid=3b6b7110-4aaf-4086-9258-b1ed04098f2b","ios":"levelo://app?vid=3b6b7110-4aaf-4086-9258-b1ed04098f2b"},"vehicle_type_id":"4","last_reported":1716044917,"current_range_meters":17600,"station_id":"ce4bgt12rcd13ifvqcd0","pricing_plan_id":"cebpf4jnsgd1na2vs0mg"},{"bike_id":"87990ae8-c10f-458e-863b-ddb448680057","system_id":"levelo_inurba_marseille","lat":43.314811,"lon":5.373103,"is_reserved":false,"is_disabled":false,"rental_uris":{"android":"levelo://app?vid=87990ae8-c10f-458e-863b-ddb448680057","ios":"levelo://app?vid=87990ae8-c10f-458e-863b-ddb448680057"},"vehicle_type_id":"4","last_reported":1716044917,"current_range_meters":0,"station_id":"ce4bgt12rcd13ifvqcd0","pricing_plan_id":"cebpf4jnsgd1na2vs0mg"},{"bike_id":"33da7ae9-9170-4012-b75c-a85dcb137f63","system_id":"levelo_inurba_marseille","lat":43.315173,"lon":5.373063,"is_reserved":false,"is_disabled":false,"rental_uris":{"android":"levelo://app?vid=33da7ae9-9170-4012-b75c-a85dcb137f63","ios":"levelo://app?vid=33da7ae9-9170-4012-b75c-a85dcb137f63"},"vehicle_type_id":"4","last_reported":1716044917,"current_range_meters":0,"station_id":"ce4bgt12rcd13ifvqcd0","pricing_plan_id":"cebpf4jnsgd1na2vs0mg"},{"bike_id":"c39588c4-d5b4-4e91-9fc8-daf78d4ec9ff","system_id":"levelo_inurba_marseille","lat":43.30887,"lon":5.37182,"is_reserved":false,"is_disabled":false,"rental_uris":{"android":"levelo://app?vid=c39588c4-d5b4-4e91-9fc8-daf78d4ec9ff","ios":"levelo://app?vid=c39588c4-d5b4-4e91-9fc8-daf78d4ec9ff"},"vehicle_type_id":"4","last_reported":1716044917,"current_range_meters":12800,"station_id":"ce4bguh2rcd13ifvqckg","pricing_plan_id":"cebpf4jnsgd1na2vs0mg"},{"bike_id":"3cb01354-3dc6-47e6-9bb0-f132ce646945","system_id":"levelo_inurba_marseille","lat":43.309034,"lon":5.371783,"is_reserved":false,"is_disabled":false,"rental_uris":{"android":"levelo://app?vid=3cb01354-3dc6-47e6-9bb0-f132ce646945","ios":"levelo://app?vid=3cb01354-3dc6-47e6-9bb0-f132ce646945"},"vehicle_type_id":"4","last_reported":1716044917,"current_range_meters":0,"station_id":"ce4bguh2rcd13ifvqckg","pricing_plan_id":"cebpf4jnsgd1na2vs0mg"},{"bike_id":"d13aad28-d1a9-4475-b971-1a3681e685e8","system_id":"levelo_inurba_marseille","lat":43.309034,"lon":5.371783,"is_reserved":false,"is_disabled":false,"rental_uris":{"android":"levelo://app?vid=d13aad28-d1a9-4475-b971-1a3681e685e8","ios":"levelo://app?vid=d13aad28-d1a9-4475-b971-1a3681e685e8"},"vehicle_type_id":"4","last_reported":1716044917,"current_range_meters":13200,"station_id":"ce4bguh2rcd13ifvqckg","pricing_plan_id":"cebpf4jnsgd1na2vs0mg"},{"bike_id":"f2926ec0-a3a9-46cd-8efd-10bf15a5db47","system_id":"levelo_inurba_marseille","lat":43.309034,"lon":5.371783,"is_reserved":false,"is_disabled":false,"rental_uris":{"android":"levelo://app?vid=f2926ec0-a3a9-46cd-8efd-10bf15a5db47","ios":"levelo://app?vid=f2926ec0-a3a9-46cd-8efd-10bf15a5db47"},"vehicle_type_id":"4","last_reported":1716044917,"current_range_meters":3600,"station_id":"ce4bguh2rcd13ifvqckg","pricing_plan_id":"cebpf4jnsgd1na2vs0mg"},{"bike_id":"a277fe65-7ca8-46b0-927f-8ef2dae50fa5","system_id":"levelo_inurba_marseille","lat":43.309034,"lon":5.371783,"is_reserved":false,"is_disabled":false,"rental_uris":{"android":"levelo://app?vid=a277fe65-7ca8-46b0-927f-8ef2dae50fa5","ios":"levelo://app?vid=a277fe65-7ca8-46b0-927f-8ef2dae50fa5"},"vehicle_type_id":"4","last_reported":1716044917,"current_range_meters":2800,"station_id":"ce4bguh2rcd13ifvqckg","pricing_plan_id":"cebpf4jnsgd1na2vs0mg"},{"bike_id":"98881eea-6d23-4baf-a7f3-fe30f4cbd0b8","system_id":"levelo_inurba_marseille","lat":43.309034,"lon":5.371783,"is_reserved":false,"is_disabled":false,"rental_uris":{"android":"levelo://app?vid=98881eea-6d23-4baf-a7f3-fe30f4cbd0b8","ios":"levelo://app?vid=98881eea-6d23-4baf-a7f3-fe30f4cbd0b8"},"vehicle_type_id":"4","last_reported":1716044917,"current_range_meters":15200,"station_id":"ce4bguh2rcd13ifvqckg","pricing_plan_id":"cebpf4jnsgd1na2vs0mg"},{"bike_id":"67ef4303-f821-4544-a3d3-eca4d0f370fb","system_id":"levelo_inurba_marseille","lat":43.305712,"lon":5.365641,"is_reserved":false,"is_disabled":false,"rental_uris":{"android":"levelo://app?vid=67ef4303-f821-4544-a3d3-eca4d0f370fb","ios":"levelo://app?vid=67ef4303-f821-4544-a3d3-eca4d0f370fb"},"vehicle_type_id":"4","last_reported":1716044917,"current_range_meters":22400,"station_id":"ce4bgs12rcd13ifvqcag","pricing_plan_id":"cebpf4jnsgd1na2vs0mg"},{"bike_id":"85de950a-f0ee-4328-aa41-c239f4f6ad09","system_id":"levelo_inurba_marseille","lat":43.305712,"lon":5.365641,"is_reserved":false,"is_disabled":false,"rental_uris":{"android":"levelo://app?vid=85de950a-f0ee-4328-aa41-c239f4f6ad09","ios":"levelo://app?vid=85de950a-f0ee-4328-aa41-c239f4f6ad09"},"vehicle_type_id":"4","last_reported":1716044917,"current_range_meters":1200,"station_id":"ce4bgs12rcd13ifvqcag","pricing_plan_id":"cebpf4jnsgd1na2vs0mg"},{"bike_id":"521541e2-669b-45db-9a2d-de4ac6b5d8ff","system_id":"levelo_inurba_marseille","lat":43.305714,"lon":5.365633,"is_reserved":false,"is_disabled":false,"rental_uris":{"android":"levelo://app?vid=521541e2-669b-45db-9a2d-de4ac6b5d8ff","ios":"levelo://app?vid=521541e2-669b-45db-9a2d-de4ac6b5d8ff"},"vehicle_type_id":"4","last_reported":1716044917,"current_range_meters":10800,"station_id":"ce4bgs12rcd13ifvqcag","pricing_plan_id":"cebpf4jnsgd1na2vs0mg"},{"bike_id":"005f13da-dcda-450b-aa6a-9185db9a84fa","system_id":"levelo_inurba_marseille","lat":43.305714,"lon":5.365633,"is_reserved":false,"is_disabled":false,"rental_uris":{"android":"levelo://app?vid=005f13da-dcda-450b-aa6a-9185db9a84fa","ios":"levelo://app?vid=005f13da-dcda-450b-aa6a-9185db9a84fa"},"vehicle_type_id":"4","last_reported":1716044917,"current_range_meters":0,"station_id":"ce4bgs12rcd13ifvqcag","pricing_plan_id":"cebpf4jnsgd1na2vs0mg"},{"bike_id":"33aa71c7-27f6-40c0-9a52-f1f324408be6","system_id":"levelo_inurba_marseille","lat":43.30537,"lon":5.367345,"is_reserved":false,"is_disabled":false,"rental_uris":{"android":"levelo://app?vid=33aa71c7-27f6-40c0-9a52-f1f324408be6","ios":"levelo://app?vid=33aa71c7-27f6-40c0-9a52-f1f324408be6"},"vehicle_type_id":"4","last_reported":1716044917,"current_range_meters":18400,"station_id":"ce4bgrp2rcd13ifvqc9g","pricing_plan_id":"cebpf4jnsgd1na2vs0mg"},{"bike_id":"62688561-a1a1-4f8e-8599-4cdc858ca709","system_id":"levelo_inurba_marseille","lat":43.305714,"lon":5.365633,"is_reserved":false,"is_disabled":false,"rental_uris":{"android":"levelo://app?vid=62688561-a1a1-4f8e-8599-4cdc858ca709","ios":"levelo://app?vid=62688561-a1a1-4f8e-8599-4cdc858ca709"},"vehicle_type_id":"4","last_reported":1716044917,"current_range_meters":3600,"station_id":"ce4bgs12rcd13ifvqcag","pricing_plan_id":"cebpf4jnsgd1na2vs0mg"},{"bike_id":"2bf038cb-3de9-4b2b-9e1e-01bb0edf5100","system_id":"levelo_inurba_marseille","lat":43.30533,"lon":5.36706,"is_reserved":false,"is_disabled":false,"rental_uris":{"android":"levelo://app?vid=2bf038cb-3de9-4b2b-9e1e-01bb0edf5100","ios":"levelo://app?vid=2bf038cb-3de9-4b2b-9e1e-01bb0edf5100"},"vehicle_type_id":"4","last_reported":1716044917,"current_range_meters":800,"station_id":"ce4bgrp2rcd13ifvqc9g","pricing_plan_id":"cebpf4jnsgd1na2vs0mg"},{"bike_id":"72609d3e-6a8f-440d-b307-8ebb456fa045","system_id":"levelo_inurba_marseille","lat":43.305714,"lon":5.365633,"is_reserved":false,"is_disabled":false,"rental_uris":{"android":"levelo://app?vid=72609d3e-6a8f-440d-b307-8ebb456fa045","ios":"levelo://app?vid=72609d3e-6a8f-440d-b307-8ebb456fa045"},"vehicle_type_id":"4","last_reported":1716044917,"current_range_meters":0,"station_id":"ce4bgs12rcd13ifvqcag","pricing_plan_id":"cebpf4jnsgd1na2vs0mg"},{"bike_id":"e7215a92-80fc-4a5e-8d33-7a91f24ad373","system_id":"levelo_inurba_marseille","lat":43.305706,"lon":5.365654,"is_reserved":false,"is_disabled":false,"rental_uris":{"android":"levelo://app?vid=e7215a92-80fc-4a5e-8d33-7a91f24ad373","ios":"levelo://app?vid=e7215a92-80fc-4a5e-8d33-7a91f24ad373"},"vehicle_type_id":"4","last_reported":1716044917,"current_range_meters":20400,"station_id":"ce4bgs12rcd13ifvqcag","pricing_plan_id":"cebpf4jnsgd1na2vs0mg"},{"bike_id":"67c09956-ed18-4ca2-91d6-9207ff39174b","system_id":"levelo_inurba_marseille","lat":43.30537,"lon":5.367345,"is_reserved":false,"is_disabled":false,"rental_uris":{"android":"levelo://app?vid=67c09956-ed18-4ca2-91d6-9207ff39174b","ios":"levelo://app?vid=67c09956-ed18-4ca2-91d6-9207ff39174b"},"vehicle_type_id":"4","last_reported":1716044917,"current_range_meters":15200,"station_id":"ce4bgrp2rcd13ifvqc9g","pricing_plan_id":"cebpf4jnsgd1na2vs0mg"},{"bike_id":"49c86768-84af-469e-b1bd-ff69ed2a4958","system_id":"levelo_inurba_marseille","lat":43.305714,"lon":5.365633,"is_reserved":false,"is_disabled":false,"rental_uris":{"android":"levelo://app?vid=49c86768-84af-469e-b1bd-ff69ed2a4958","ios":"levelo://app?vid=49c86768-84af-469e-b1bd-ff69ed2a4958"},"vehicle_type_id":"4","last_reported":1716044917,"current_range_meters":400,"station_id":"ce4bgs12rcd13ifvqcag","pricing_plan_id":"cebpf4jnsgd1na2vs0mg"},{"bike_id":"0ecee781-a762-4a48-b1e0-42b40a75b7ae","system_id":"levelo_inurba_marseille","lat":43.30537,"lon":5.36548,"is_reserved":false,"is_disabled":false,"rental_uris":{"android":"levelo://app?vid=0ecee781-a762-4a48-b1e0-42b40a75b7ae","ios":"levelo://app?vid=0ecee781-a762-4a48-b1e0-42b40a75b7ae"},"vehicle_type_id":"4","last_reported":1716044917,"current_range_meters":0,"station_id":"ce4bgs12rcd13ifvqcag","pricing_plan_id":"cebpf4jnsgd1na2vs0mg"},{"bike_id":"48cd452b-a146-4840-b6e8-239c0817b9e3","system_id":"levelo_inurba_marseille","lat":43.305714,"lon":5.365633,"is_reserved":false,"is_disabled":false,"rental_uris":{"android":"levelo://app?vid=48cd452b-a146-4840-b6e8-239c0817b9e3","ios":"levelo://app?vid=48cd452b-a146-4840-b6e8-239c0817b9e3"},"vehicle_type_id":"4","last_reported":1716044917,"current_range_meters":9600,"station_id":"ce4bgs12rcd13ifvqcag","pricing_plan_id":"cebpf4jnsgd1na2vs0mg"},{"bike_id":"465741e4-d4c3-40fa-ae7f-25d335c2c470","system_id":"levelo_inurba_marseille","lat":43.305368,"lon":5.367343,"is_reserved":false,"is_disabled":false,"rental_uris":{"android":"levelo://app?vid=465741e4-d4c3-40fa-ae7f-25d335c2c470","ios":"levelo://app?vid=465741e4-d4c3-40fa-ae7f-25d335c2c470"},"vehicle_type_id":"4","last_reported":1716044917,"current_range_meters":1600,"station_id":"ce4bgrp2rcd13ifvqc9g","pricing_plan_id":"cebpf4jnsgd1na2vs0mg"},{"bike_id":"3696e680-1509-4e9a-83e2-f64f78fbac26","system_id":"levelo_inurba_marseille","lat":43.305714,"lon":5.365633,"is_reserved":false,"is_disabled":false,"rental_uris":{"android":"levelo://app?vid=3696e680-1509-4e9a-83e2-f64f78fbac26","ios":"levelo://app?vid=3696e680-1509-4e9a-83e2-f64f78fbac26"},"vehicle_type_id":"4","last_reported":1716044917,"current_range_meters":0,"station_id":"ce4bgs12rcd13ifvqcag","pricing_plan_id":"cebpf4jnsgd1na2vs0mg"},{"bike_id":"087f1aca-1827-442d-b2b0-f71ad38ab6db","system_id":"levelo_inurba_marseille","lat":43.30524,"lon":5.36571,"is_reserved":false,"is_disabled":false,"rental_uris":{"android":"levelo://app?vid=087f1aca-1827-442d-b2b0-f71ad38ab6db","ios":"levelo://app?vid=087f1aca-1827-442d-b2b0-f71ad38ab6db"},"vehicle_type_id":"4","last_reported":1716044917,"current_range_meters":1200,"station_id":"ce4bgs12rcd13ifvqcag","pricing_plan_id":"cebpf4jnsgd1na2vs0mg"},{"bike_id":"00793984-75e0-432c-bfd6-6ce441af04a7","system_id":"levelo_inurba_marseille","lat":43.305989,"lon":5.37225,"is_reserved":false,"is_disabled":false,"rental_uris":{"android":"levelo://app?vid=00793984-75e0-432c-bfd6-6ce441af04a7","ios":"levelo://app?vid=00793984-75e0-432c-bfd6-6ce441af04a7"},"vehicle_type_id":"4","last_reported":1716044917,"current_range_meters":5200,"station_id":"ce4bgqh2rcd13ifvqc4g","pricing_plan_id":"cebpf4jnsgd1na2vs0mg"},{"bike_id":"dc06ba75-2508-460c-9e18-a4b4c6e727ad","system_id":"levelo_inurba_marseille","lat":43.311125,"lon":5.377624,"is_reserved":false,"is_disabled":false,"rental_uris":{"android":"levelo://app?vid=dc06ba75-2508-460c-9e18-a4b4c6e727ad","ios":"levelo://app?vid=dc06ba75-2508-460c-9e18-a4b4c6e727ad"},"vehicle_type_id":"4","last_reported":1716044917,"current_range_meters":0,"station_id":"ce4bgt92rcd13ifvqcg0","pricing_plan_id":"cebpf4jnsgd1na2vs0mg"},{"bike_id":"56e391df-ad74-4df5-9b10-e54249918504","system_id":"levelo_inurba_marseille","lat":43.311171,"lon":5.377596,"is_reserved":false,"is_disabled":false,"rental_uris":{"android":"levelo://app?vid=56e391df-ad74-4df5-9b10-e54249918504","ios":"levelo://app?vid=56e391df-ad74-4df5-9b10-e54249918504"},"vehicle_type_id":"4","last_reported":1716044917,"current_range_meters":18800,"station_id":"ce4bgt92rcd13ifvqcg0","pricing_plan_id":"cebpf4jnsgd1na2vs0mg"},{"bike_id":"276cc8b7-0d46-4638-b7ae-504adcafca1c","system_id":"levelo_inurba_marseille","lat":43.311125,"lon":5.377624,"is_reserved":false,"is_disabled":false,"rental_uris":{"android":"levelo://app?vid=276cc8b7-0d46-4638-b7ae-504adcafca1c","ios":"levelo://app?vid=276cc8b7-0d46-4638-b7ae-504adcafca1c"},"vehicle_type_id":"4","last_reported":1716044917,"current_range_meters":0,"station_id":"ce4bgt92rcd13ifvqcg0","pricing_plan_id":"cebpf4jnsgd1na2vs0mg"},{"bike_id":"bbb33bf7-095a-40c5-a4bf-9e949247b92f","system_id":"levelo_inurba_marseille","lat":43.311131,"lon":5.377651,"is_reserved":false,"is_disabled":false,"rental_uris":{"android":"levelo://app?vid=bbb33bf7-095a-40c5-a4bf-9e949247b92f","ios":"levelo://app?vid=bbb33bf7-095a-40c5-a4bf-9e949247b92f"},"vehicle_type_id":"4","last_reported":1716044917,"current_range_meters":26800,"station_id":"ce4bgt92rcd13ifvqcg0","pricing_plan_id":"cebpf4jnsgd1na2vs0mg"},{"bike_id":"a8b5465d-0c81-495f-babd-624d35be5264","system_id":"levelo_inurba_marseille","lat":43.31117,"lon":5.377639,"is_reserved":false,"is_disabled":false,"rental_uris":{"android":"levelo://app?vid=a8b5465d-0c81-495f-babd-624d35be5264","ios":"levelo://app?vid=a8b5465d-0c81-495f-babd-624d35be5264"},"vehicle_type_id":"4","last_reported":1716044917,"current_range_meters":6400,"station_id":"ce4bgt92rcd13ifvqcg0","pricing_plan_id":"cebpf4jnsgd1na2vs0mg"},{"bike_id":"62f6453f-e275-46cc-a186-06908f9650d9","system_id":"levelo_inurba_marseille","lat":43.311125,"lon":5.377624,"is_reserved":false,"is_disabled":false,"rental_uris":{"android":"levelo://app?vid=62f6453f-e275-46cc-a186-06908f9650d9","ios":"levelo://app?vid=62f6453f-e275-46cc-a186-06908f9650d9"},"vehicle_type_id":"4","last_reported":1716044917,"current_range_meters":23200,"station_id":"ce4bgt92rcd13ifvqcg0","pricing_plan_id":"cebpf4jnsgd1na2vs0mg"},{"bike_id":"a1eabebe-a98b-46b4-8fec-54a6df3e2485","system_id":"levelo_inurba_marseille","lat":43.311131,"lon":5.377651,"is_reserved":false,"is_disabled":false,"rental_uris":{"android":"levelo://app?vid=a1eabebe-a98b-46b4-8fec-54a6df3e2485","ios":"levelo://app?vid=a1eabebe-a98b-46b4-8fec-54a6df3e2485"},"vehicle_type_id":"4","last_reported":1716044917,"current_range_meters":6800,"station_id":"ce4bgt92rcd13ifvqcg0","pricing_plan_id":"cebpf4jnsgd1na2vs0mg"},{"bike_id":"1d9aab7d-d014-4d93-aa9d-7b027a8af6fb","system_id":"levelo_inurba_marseille","lat":43.311226,"lon":5.377779,"is_reserved":false,"is_disabled":false,"rental_uris":{"android":"levelo://app?vid=1d9aab7d-d014-4d93-aa9d-7b027a8af6fb","ios":"levelo://app?vid=1d9aab7d-d014-4d93-aa9d-7b027a8af6fb"},"vehicle_type_id":"4","last_reported":1716044917,"current_range_meters":16400,"station_id":"ce4bgt92rcd13ifvqcg0","pricing_plan_id":"cebpf4jnsgd1na2vs0mg"},{"bike_id":"6fd9d230-d00a-418f-bf98-6dfec38949fe","system_id":"levelo_inurba_marseille","lat":43.311125,"lon":5.377624,"is_reserved":false,"is_disabled":false,"rental_uris":{"android":"levelo://app?vid=6fd9d230-d00a-418f-bf98-6dfec38949fe","ios":"levelo://app?vid=6fd9d230-d00a-418f-bf98-6dfec38949fe"},"vehicle_type_id":"4","last_reported":1716044917,"current_range_meters":0,"station_id":"ce4bgt92rcd13ifvqcg0","pricing_plan_id":"cebpf4jnsgd1na2vs0mg"},{"bike_id":"bdc2ea8f-01c0-476c-a0d9-8e809b7c787a","system_id":"levelo_inurba_marseille","lat":43.307956,"lon":5.376423,"is_reserved":false,"is_disabled":false,"rental_uris":{"android":"levelo://app?vid=bdc2ea8f-01c0-476c-a0d9-8e809b7c787a","ios":"levelo://app?vid=bdc2ea8f-01c0-476c-a0d9-8e809b7c787a"},"vehicle_type_id":"4","last_reported":1716044917,"current_range_meters":0,"station_id":"ce4bgv92rcd13ifvqcq0","pricing_plan_id":"cebpf4jnsgd1na2vs0mg"},{"bike_id":"a97284e7-1e3e-4e11-8b58-ec5adfc008f7","system_id":"levelo_inurba_marseille","lat":43.307945,"lon":5.376487,"is_reserved":false,"is_disabled":false,"rental_uris":{"android":"levelo://app?vid=a97284e7-1e3e-4e11-8b58-ec5adfc008f7","ios":"levelo://app?vid=a97284e7-1e3e-4e11-8b58-ec5adfc008f7"},"vehicle_type_id":"4","last_reported":1716044917,"current_range_meters":0,"station_id":"ce4bgv92rcd13ifvqcq0","pricing_plan_id":"cebpf4jnsgd1na2vs0mg"},{"bike_id":"620b2f30-3508-4a2c-89b9-45384c664f66","system_id":"levelo_inurba_marseille","lat":43.307945,"lon":5.376487,"is_reserved":false,"is_disabled":false,"rental_uris":{"android":"levelo://app?vid=620b2f30-3508-4a2c-89b9-45384c664f66","ios":"levelo://app?vid=620b2f30-3508-4a2c-89b9-45384c664f66"},"vehicle_type_id":"4","last_reported":1716044917,"current_range_meters":0,"station_id":"ce4bgv92rcd13ifvqcq0","pricing_plan_id":"cebpf4jnsgd1na2vs0mg"},{"bike_id":"99f34914-85fa-431b-9674-97f4f0f99ce4","system_id":"levelo_inurba_marseille","lat":43.317075,"lon":5.377367,"is_reserved":false,"is_disabled":false,"rental_uris":{"android":"levelo://app?vid=99f34914-85fa-431b-9674-97f4f0f99ce4","ios":"levelo://app?vid=99f34914-85fa-431b-9674-97f4f0f99ce4"},"vehicle_type_id":"4","last_reported":1716044917,"current_range_meters":20800,"station_id":"ce4bgth2rcd13ifvqch0","pricing_plan_id":"cebpf4jnsgd1na2vs0mg"},{"bike_id":"5209b1c1-c57f-4778-9988-584a1fb13298","system_id":"levelo_inurba_marseille","lat":43.30957,"lon":5.37967,"is_reserved":false,"is_disabled":false,"rental_uris":{"android":"levelo://app?vid=5209b1c1-c57f-4778-9988-584a1fb13298","ios":"levelo://app?vid=5209b1c1-c57f-4778-9988-584a1fb13298"},"vehicle_type_id":"4","last_reported":1716044917,"current_range_meters":12400,"station_id":"","pricing_plan_id":"cebpf4jnsgd1na2vs0mg"},{"bike_id":"b85b5f32-2edd-40a3-8e49-933fa4cdeed5","system_id":"levelo_inurba_marseille","lat":43.301939,"lon":5.366286,"is_reserved":false,"is_disabled":false,"rental_uris":{"android":"levelo://app?vid=b85b5f32-2edd-40a3-8e49-933fa4cdeed5","ios":"levelo://app?vid=b85b5f32-2edd-40a3-8e49-933fa4cdeed5"},"vehicle_type_id":"4","last_reported":1716044917,"current_range_meters":23200,"station_id":"ce4bgrh2rcd13ifvqc8g","pricing_plan_id":"cebpf4jnsgd1na2vs0mg"},{"bike_id":"d0cc9faf-e7c8-4554-a727-5377a11e5d22","system_id":"levelo_inurba_marseille","lat":43.30197,"lon":5.36956,"is_reserved":false,"is_disabled":false,"rental_uris":{"android":"levelo://app?vid=d0cc9faf-e7c8-4554-a727-5377a11e5d22","ios":"levelo://app?vid=d0cc9faf-e7c8-4554-a727-5377a11e5d22"},"vehicle_type_id":"4","last_reported":1716044917,"current_range_meters":13200,"station_id":"ce4bhbp2rcd13ifvqerg","pricing_plan_id":"cebpf4jnsgd1na2vs0mg"},{"bike_id":"eeb7b12b-df46-4d6f-9852-dced44a4ef5b","system_id":"levelo_inurba_marseille","lat":43.301939,"lon":5.366286,"is_reserved":false,"is_disabled":false,"rental_uris":{"android":"levelo://app?vid=eeb7b12b-df46-4d6f-9852-dced44a4ef5b","ios":"levelo://app?vid=eeb7b12b-df46-4d6f-9852-dced44a4ef5b"},"vehicle_type_id":"4","last_reported":1716044917,"current_range_meters":2000,"station_id":"ce4bgrh2rcd13ifvqc8g","pricing_plan_id":"cebpf4jnsgd1na2vs0mg"},{"bike_id":"760c3c8b-068a-48f3-b3b6-196195668652","system_id":"levelo_inurba_marseille","lat":43.301939,"lon":5.366286,"is_reserved":false,"is_disabled":false,"rental_uris":{"android":"levelo://app?vid=760c3c8b-068a-48f3-b3b6-196195668652","ios":"levelo://app?vid=760c3c8b-068a-48f3-b3b6-196195668652"},"vehicle_type_id":"4","last_reported":1716044917,"current_range_meters":28800,"station_id":"ce4bgrh2rcd13ifvqc8g","pricing_plan_id":"cebpf4jnsgd1na2vs0mg"},{"bike_id":"2d1d5dd3-4fe7-4ca1-b683-501b09405bd7","system_id":"levelo_inurba_marseille","lat":43.308011,"lon":5.381434,"is_reserved":false,"is_disabled":false,"rental_uris":{"android":"levelo://app?vid=2d1d5dd3-4fe7-4ca1-b683-501b09405bd7","ios":"levelo://app?vid=2d1d5dd3-4fe7-4ca1-b683-501b09405bd7"},"vehicle_type_id":"4","last_reported":1716044917,"current_range_meters":13200,"station_id":"ce4bgt12rcd13ifvqce0","pricing_plan_id":"cebpf4jnsgd1na2vs0mg"},{"bike_id":"c25cf62b-7ebd-461c-b2a3-07e6e6098bcb","system_id":"levelo_inurba_marseille","lat":43.308012,"lon":5.381511,"is_reserved":false,"is_disabled":false,"rental_uris":{"android":"levelo://app?vid=c25cf62b-7ebd-461c-b2a3-07e6e6098bcb","ios":"levelo://app?vid=c25cf62b-7ebd-461c-b2a3-07e6e6098bcb"},"vehicle_type_id":"4","last_reported":1716044917,"current_range_meters":12800,"station_id":"ce4bgt12rcd13ifvqce0","pricing_plan_id":"cebpf4jnsgd1na2vs0mg"},{"bike_id":"e715d9f7-3641-4375-917e-6df4e20b1edc","system_id":"levelo_inurba_marseille","lat":43.308012,"lon":5.381511,"is_reserved":false,"is_disabled":false,"rental_uris":{"android":"levelo://app?vid=e715d9f7-3641-4375-917e-6df4e20b1edc","ios":"levelo://app?vid=e715d9f7-3641-4375-917e-6df4e20b1edc"},"vehicle_type_id":"4","last_reported":1716044917,"current_range_meters":7600,"station_id":"ce4bgt12rcd13ifvqce0","pricing_plan_id":"cebpf4jnsgd1na2vs0mg"},{"bike_id":"4f069f87-2fe8-4322-8201-8c75c5080e7f","system_id":"levelo_inurba_marseille","lat":43.308012,"lon":5.381511,"is_reserved":false,"is_disabled":false,"rental_uris":{"android":"levelo://app?vid=4f069f87-2fe8-4322-8201-8c75c5080e7f","ios":"levelo://app?vid=4f069f87-2fe8-4322-8201-8c75c5080e7f"},"vehicle_type_id":"4","last_reported":1716044917,"current_range_meters":10000,"station_id":"ce4bgt12rcd13ifvqce0","pricing_plan_id":"cebpf4jnsgd1na2vs0mg"},{"bike_id":"dcb8532d-c67a-4a8d-973a-5b70b87eac69","system_id":"levelo_inurba_marseille","lat":43.304606,"lon":5.379026,"is_reserved":false,"is_disabled":false,"rental_uris":{"android":"levelo://app?vid=dcb8532d-c67a-4a8d-973a-5b70b87eac69","ios":"levelo://app?vid=dcb8532d-c67a-4a8d-973a-5b70b87eac69"},"vehicle_type_id":"4","last_reported":1716044917,"current_range_meters":26000,"station_id":"ce4bgup2rcd13ifvqcn0","pricing_plan_id":"cebpf4jnsgd1na2vs0mg"},{"bike_id":"1574eaee-2808-4e9e-ae0f-1f4a89511e8e","system_id":"levelo_inurba_marseille","lat":43.304606,"lon":5.379026,"is_reserved":false,"is_disabled":false,"rental_uris":{"android":"levelo://app?vid=1574eaee-2808-4e9e-ae0f-1f4a89511e8e","ios":"levelo://app?vid=1574eaee-2808-4e9e-ae0f-1f4a89511e8e"},"vehicle_type_id":"4","last_reported":1716044917,"current_range_meters":27600,"station_id":"ce4bgup2rcd13ifvqcn0","pricing_plan_id":"cebpf4jnsgd1na2vs0mg"},{"bike_id":"a7808c4a-ec9f-4dc8-9704-fd8bd64e1290","system_id":"levelo_inurba_marseille","lat":43.304603,"lon":5.37902,"is_reserved":false,"is_disabled":false,"rental_uris":{"android":"levelo://app?vid=a7808c4a-ec9f-4dc8-9704-fd8bd64e1290","ios":"levelo://app?vid=a7808c4a-ec9f-4dc8-9704-fd8bd64e1290"},"vehicle_type_id":"4","last_reported":1716044917,"current_range_meters":2000,"station_id":"ce4bgup2rcd13ifvqcn0","pricing_plan_id":"cebpf4jnsgd1na2vs0mg"},{"bike_id":"b019ca40-f0f6-45bb-808e-e353c7804144","system_id":"levelo_inurba_marseille","lat":43.324771,"lon":5.36557,"is_reserved":false,"is_disabled":false,"rental_uris":{"android":"levelo://app?vid=b019ca40-f0f6-45bb-808e-e353c7804144","ios":"levelo://app?vid=b019ca40-f0f6-45bb-808e-e353c7804144"},"vehicle_type_id":"4","last_reported":1716044917,"current_range_meters":2400,"station_id":"ce4bhs12rcd13ifvqhvg","pricing_plan_id":"cebpf4jnsgd1na2vs0mg"},{"bike_id":"e38b2bba-8bd9-4bc8-a0f3-2c13c0221c18","system_id":"levelo_inurba_marseille","lat":43.324771,"lon":5.36557,"is_reserved":false,"is_disabled":false,"rental_uris":{"android":"levelo://app?vid=e38b2bba-8bd9-4bc8-a0f3-2c13c0221c18","ios":"levelo://app?vid=e38b2bba-8bd9-4bc8-a0f3-2c13c0221c18"},"vehicle_type_id":"4","last_reported":1716044917,"current_range_meters":19600,"station_id":"ce4bhs12rcd13ifvqhvg","pricing_plan_id":"cebpf4jnsgd1na2vs0mg"},{"bike_id":"4ee85a9a-079b-4b6d-a5ba-f65f6fa1fe7c","system_id":"levelo_inurba_marseille","lat":43.324771,"lon":5.36557,"is_reserved":false,"is_disabled":false,"rental_uris":{"android":"levelo://app?vid=4ee85a9a-079b-4b6d-a5ba-f65f6fa1fe7c","ios":"levelo://app?vid=4ee85a9a-079b-4b6d-a5ba-f65f6fa1fe7c"},"vehicle_type_id":"4","last_reported":1716044917,"current_range_meters":4000,"station_id":"ce4bhs12rcd13ifvqhvg","pricing_plan_id":"cebpf4jnsgd1na2vs0mg"},{"bike_id":"a088e7c9-30ef-44bf-9d0d-b391b1f9296a","system_id":"levelo_inurba_marseille","lat":43.324771,"lon":5.36557,"is_reserved":false,"is_disabled":false,"rental_uris":{"android":"levelo://app?vid=a088e7c9-30ef-44bf-9d0d-b391b1f9296a","ios":"levelo://app?vid=a088e7c9-30ef-44bf-9d0d-b391b1f9296a"},"vehicle_type_id":"4","last_reported":1716044917,"current_range_meters":8800,"station_id":"ce4bhs12rcd13ifvqhvg","pricing_plan_id":"cebpf4jnsgd1na2vs0mg"},{"bike_id":"e6d736f8-9b8d-4ce5-9f23-7921ed85f212","system_id":"levelo_inurba_marseille","lat":43.310804,"lon":5.38359,"is_reserved":false,"is_disabled":false,"rental_uris":{"android":"levelo://app?vid=e6d736f8-9b8d-4ce5-9f23-7921ed85f212","ios":"levelo://app?vid=e6d736f8-9b8d-4ce5-9f23-7921ed85f212"},"vehicle_type_id":"4","last_reported":1716044917,"current_range_meters":23200,"station_id":"ce4bgv92rcd13ifvqcr0","pricing_plan_id":"cebpf4jnsgd1na2vs0mg"},{"bike_id":"34cabfc5-9eef-4fe8-a57a-267bbca1a0a2","system_id":"levelo_inurba_marseille","lat":43.324771,"lon":5.36557,"is_reserved":false,"is_disabled":false,"rental_uris":{"android":"levelo://app?vid=34cabfc5-9eef-4fe8-a57a-267bbca1a0a2","ios":"levelo://app?vid=34cabfc5-9eef-4fe8-a57a-267bbca1a0a2"},"vehicle_type_id":"4","last_reported":1716044917,"current_range_meters":25600,"station_id":"ce4bhs12rcd13ifvqhvg","pricing_plan_id":"cebpf4jnsgd1na2vs0mg"},{"bike_id":"72d53596-13e9-4e52-815d-1314a9d5e531","system_id":"levelo_inurba_marseille","lat":43.307521,"lon":5.382073,"is_reserved":false,"is_disabled":false,"rental_uris":{"android":"levelo://app?vid=72d53596-13e9-4e52-815d-1314a9d5e531","ios":"levelo://app?vid=72d53596-13e9-4e52-815d-1314a9d5e531"},"vehicle_type_id":"4","last_reported":1716044917,"current_range_meters":0,"station_id":"ce4bgt12rcd13ifvqce0","pricing_plan_id":"cebpf4jnsgd1na2vs0mg"},{"bike_id":"ebbaeca9-6b4e-4811-be37-80be5d5d08ca","system_id":"levelo_inurba_marseille","lat":43.310804,"lon":5.38359,"is_reserved":false,"is_disabled":false,"rental_uris":{"android":"levelo://app?vid=ebbaeca9-6b4e-4811-be37-80be5d5d08ca","ios":"levelo://app?vid=ebbaeca9-6b4e-4811-be37-80be5d5d08ca"},"vehicle_type_id":"4","last_reported":1716044917,"current_range_meters":13200,"station_id":"ce4bgv92rcd13ifvqcr0","pricing_plan_id":"cebpf4jnsgd1na2vs0mg"},{"bike_id":"c6cb9790-6a94-49bd-84d3-b71d483bc8a6","system_id":"levelo_inurba_marseille","lat":43.302784,"lon":5.377158,"is_reserved":false,"is_disabled":false,"rental_uris":{"android":"levelo://app?vid=c6cb9790-6a94-49bd-84d3-b71d483bc8a6","ios":"levelo://app?vid=c6cb9790-6a94-49bd-84d3-b71d483bc8a6"},"vehicle_type_id":"4","last_reported":1716044917,"current_range_meters":4000,"station_id":"ce4bguh2rcd13ifvqcj0","pricing_plan_id":"cebpf4jnsgd1na2vs0mg"},{"bike_id":"0dc07832-733e-4eeb-a805-9d23fdfebf91","system_id":"levelo_inurba_marseille","lat":43.302784,"lon":5.377158,"is_reserved":false,"is_disabled":false,"rental_uris":{"android":"levelo://app?vid=0dc07832-733e-4eeb-a805-9d23fdfebf91","ios":"levelo://app?vid=0dc07832-733e-4eeb-a805-9d23fdfebf91"},"vehicle_type_id":"4","last_reported":1716044917,"current_range_meters":28000,"station_id":"ce4bguh2rcd13ifvqcj0","pricing_plan_id":"cebpf4jnsgd1na2vs0mg"},{"bike_id":"683f059b-879f-4356-b04a-0f62af15c4bb","system_id":"levelo_inurba_marseille","lat":43.3131,"lon":5.384091,"is_reserved":false,"is_disabled":false,"rental_uris":{"android":"levelo://app?vid=683f059b-879f-4356-b04a-0f62af15c4bb","ios":"levelo://app?vid=683f059b-879f-4356-b04a-0f62af15c4bb"},"vehicle_type_id":"4","last_reported":1716044917,"current_range_meters":0,"station_id":"ce4bgt92rcd13ifvqcf0","pricing_plan_id":"cebpf4jnsgd1na2vs0mg"},{"bike_id":"13202006-de1f-4f11-8126-60c9e7d8948b","system_id":"levelo_inurba_marseille","lat":43.299707,"lon":5.384859,"is_reserved":false,"is_disabled":false,"rental_uris":{"android":"levelo://app?vid=13202006-de1f-4f11-8126-60c9e7d8948b","ios":"levelo://app?vid=13202006-de1f-4f11-8126-60c9e7d8948b"},"vehicle_type_id":"4","last_reported":1716044917,"current_range_meters":30800,"station_id":"ce4bgj92rcd13ifvqbd0","pricing_plan_id":"cebpf4jnsgd1na2vs0mg"},{"bike_id":"90bee476-048a-4e20-9a5a-e2ff38415c5e","system_id":"levelo_inurba_marseille","lat":43.313571,"lon":5.384829,"is_reserved":false,"is_disabled":false,"rental_uris":{"android":"levelo://app?vid=90bee476-048a-4e20-9a5a-e2ff38415c5e","ios":"levelo://app?vid=90bee476-048a-4e20-9a5a-e2ff38415c5e"},"vehicle_type_id":"4","last_reported":1716044917,"current_range_meters":800,"station_id":"ce4bgt92rcd13ifvqcf0","pricing_plan_id":"cebpf4jnsgd1na2vs0mg"},{"bike_id":"47aa39ad-3398-49c1-be4c-de4bbaca6610","system_id":"levelo_inurba_marseille","lat":43.313606,"lon":5.384963,"is_reserved":false,"is_disabled":false,"rental_uris":{"android":"levelo://app?vid=47aa39ad-3398-49c1-be4c-de4bbaca6610","ios":"levelo://app?vid=47aa39ad-3398-49c1-be4c-de4bbaca6610"},"vehicle_type_id":"4","last_reported":1716044917,"current_range_meters":13600,"station_id":"ce4bgt92rcd13ifvqcf0","pricing_plan_id":"cebpf4jnsgd1na2vs0mg"},{"bike_id":"a243a1c1-447b-4b24-b963-cffc0727648b","system_id":"levelo_inurba_marseille","lat":43.299222,"lon":5.365554,"is_reserved":false,"is_disabled":false,"rental_uris":{"android":"levelo://app?vid=a243a1c1-447b-4b24-b963-cffc0727648b","ios":"levelo://app?vid=a243a1c1-447b-4b24-b963-cffc0727648b"},"vehicle_type_id":"4","last_reported":1716044917,"current_range_meters":8800,"station_id":"ce4bgm92rcd13ifvqbr0","pricing_plan_id":"cebpf4jnsgd1na2vs0mg"},{"bike_id":"150c0d32-a140-4839-b131-646231ac1400","system_id":"levelo_inurba_marseille","lat":43.305364,"lon":5.384119,"is_reserved":false,"is_disabled":false,"rental_uris":{"android":"levelo://app?vid=150c0d32-a140-4839-b131-646231ac1400","ios":"levelo://app?vid=150c0d32-a140-4839-b131-646231ac1400"},"vehicle_type_id":"4","last_reported":1716044917,"current_range_meters":25600,"station_id":"ce4bgg92rcd13ifvqb30","pricing_plan_id":"cebpf4jnsgd1na2vs0mg"},{"bike_id":"1651bf92-180b-49de-9738-41c823560eaf","system_id":"levelo_inurba_marseille","lat":43.29989,"lon":5.37426,"is_reserved":false,"is_disabled":false,"rental_uris":{"android":"levelo://app?vid=1651bf92-180b-49de-9738-41c823560eaf","ios":"levelo://app?vid=1651bf92-180b-49de-9738-41c823560eaf"},"vehicle_type_id":"4","last_reported":1716044917,"current_range_meters":0,"station_id":"","pricing_plan_id":"cebpf4jnsgd1na2vs0mg"},{"bike_id":"dafeedd4-20d2-4016-a875-2d2b4d93bc11","system_id":"levelo_inurba_marseille","lat":43.298433,"lon":5.362774,"is_reserved":false,"is_disabled":false,"rental_uris":{"android":"levelo://app?vid=dafeedd4-20d2-4016-a875-2d2b4d93bc11","ios":"levelo://app?vid=dafeedd4-20d2-4016-a875-2d2b4d93bc11"},"vehicle_type_id":"4","last_reported":1716044917,"current_range_meters":9600,"station_id":"ce4bgpp2rcd13ifvqc3g","pricing_plan_id":"cebpf4jnsgd1na2vs0mg"},{"bike_id":"8ae09f27-e839-4dc3-8d4f-9c44c1fd8be9","system_id":"levelo_inurba_marseille","lat":43.301939,"lon":5.366286,"is_reserved":false,"is_disabled":false,"rental_uris":{"android":"levelo://app?vid=8ae09f27-e839-4dc3-8d4f-9c44c1fd8be9","ios":"levelo://app?vid=8ae09f27-e839-4dc3-8d4f-9c44c1fd8be9"},"vehicle_type_id":"4","last_reported":1716044917,"current_range_meters":8800,"station_id":"ce4bgrh2rcd13ifvqc8g","pricing_plan_id":"cebpf4jnsgd1na2vs0mg"},{"bike_id":"422a7e99-ef3d-47c2-a694-d846b44ff734","system_id":"levelo_inurba_marseille","lat":43.299243,"lon":5.37481,"is_reserved":false,"is_disabled":false,"rental_uris":{"android":"levelo://app?vid=422a7e99-ef3d-47c2-a694-d846b44ff734","ios":"levelo://app?vid=422a7e99-ef3d-47c2-a694-d846b44ff734"},"vehicle_type_id":"4","last_reported":1716044917,"current_range_meters":3200,"station_id":"ce4bgjh2rcd13ifvqbg0","pricing_plan_id":"cebpf4jnsgd1na2vs0mg"},{"bike_id":"be73a922-b7ba-4037-bae8-30904d59d556","system_id":"levelo_inurba_marseille","lat":43.299243,"lon":5.374807,"is_reserved":false,"is_disabled":false,"rental_uris":{"android":"levelo://app?vid=be73a922-b7ba-4037-bae8-30904d59d556","ios":"levelo://app?vid=be73a922-b7ba-4037-bae8-30904d59d556"},"vehicle_type_id":"4","last_reported":1716044917,"current_range_meters":1200,"station_id":"ce4bgjh2rcd13ifvqbg0","pricing_plan_id":"cebpf4jnsgd1na2vs0mg"},{"bike_id":"eddde780-c424-4d18-b738-74073c4c68bc","system_id":"levelo_inurba_marseille","lat":43.29919,"lon":5.374645,"is_reserved":false,"is_disabled":false,"rental_uris":{"android":"levelo://app?vid=eddde780-c424-4d18-b738-74073c4c68bc","ios":"levelo://app?vid=eddde780-c424-4d18-b738-74073c4c68bc"},"vehicle_type_id":"4","last_reported":1716044917,"current_range_meters":6800,"station_id":"ce4bgjh2rcd13ifvqbg0","pricing_plan_id":"cebpf4jnsgd1na2vs0mg"},{"bike_id":"caa354d9-4f75-45c7-ab42-11fe36099ff9","system_id":"levelo_inurba_marseille","lat":43.299243,"lon":5.374807,"is_reserved":false,"is_disabled":false,"rental_uris":{"android":"levelo://app?vid=caa354d9-4f75-45c7-ab42-11fe36099ff9","ios":"levelo://app?vid=caa354d9-4f75-45c7-ab42-11fe36099ff9"},"vehicle_type_id":"4","last_reported":1716044917,"current_range_meters":16000,"station_id":"ce4bgjh2rcd13ifvqbg0","pricing_plan_id":"cebpf4jnsgd1na2vs0mg"},{"bike_id":"488c393d-446b-4d9d-8669-0e27828d8bf7","system_id":"levelo_inurba_marseille","lat":43.299243,"lon":5.37481,"is_reserved":false,"is_disabled":false,"rental_uris":{"android":"levelo://app?vid=488c393d-446b-4d9d-8669-0e27828d8bf7","ios":"levelo://app?vid=488c393d-446b-4d9d-8669-0e27828d8bf7"},"vehicle_type_id":"4","last_reported":1716044917,"current_range_meters":12000,"station_id":"ce4bgjh2rcd13ifvqbg0","pricing_plan_id":"cebpf4jnsgd1na2vs0mg"},{"bike_id":"b22379ec-8777-4dcd-8c0e-9642bdad8cfd","system_id":"levelo_inurba_marseille","lat":43.297794,"lon":5.370888,"is_reserved":false,"is_disabled":false,"rental_uris":{"android":"levelo://app?vid=b22379ec-8777-4dcd-8c0e-9642bdad8cfd","ios":"levelo://app?vid=b22379ec-8777-4dcd-8c0e-9642bdad8cfd"},"vehicle_type_id":"4","last_reported":1716044917,"current_range_meters":30800,"station_id":"ce4bgop2rcd13ifvqc1g","pricing_plan_id":"cebpf4jnsgd1na2vs0mg"},{"bike_id":"a78c0371-18a7-4609-8a16-1a99a180568a","system_id":"levelo_inurba_marseille","lat":43.297794,"lon":5.370888,"is_reserved":false,"is_disabled":false,"rental_uris":{"android":"levelo://app?vid=a78c0371-18a7-4609-8a16-1a99a180568a","ios":"levelo://app?vid=a78c0371-18a7-4609-8a16-1a99a180568a"},"vehicle_type_id":"4","last_reported":1716044917,"current_range_meters":30400,"station_id":"ce4bgop2rcd13ifvqc1g","pricing_plan_id":"cebpf4jnsgd1na2vs0mg"},{"bike_id":"8f76ed4d-c035-4587-9402-db6595f38f9b","system_id":"levelo_inurba_marseille","lat":43.2978,"lon":5.37099,"is_reserved":false,"is_disabled":false,"rental_uris":{"android":"levelo://app?vid=8f76ed4d-c035-4587-9402-db6595f38f9b","ios":"levelo://app?vid=8f76ed4d-c035-4587-9402-db6595f38f9b"},"vehicle_type_id":"4","last_reported":1716044917,"current_range_meters":0,"station_id":"ce4bgop2rcd13ifvqc1g","pricing_plan_id":"cebpf4jnsgd1na2vs0mg"},{"bike_id":"cf4ce8e7-73ce-4782-b447-cdf93e1367d1","system_id":"levelo_inurba_marseille","lat":43.297061,"lon":5.366434,"is_reserved":false,"is_disabled":false,"rental_uris":{"android":"levelo://app?vid=cf4ce8e7-73ce-4782-b447-cdf93e1367d1","ios":"levelo://app?vid=cf4ce8e7-73ce-4782-b447-cdf93e1367d1"},"vehicle_type_id":"4","last_reported":1716044917,"current_range_meters":9200,"station_id":"ce4bgn12rcd13ifvqbt0","pricing_plan_id":"cebpf4jnsgd1na2vs0mg"},{"bike_id":"e8b74b53-1f66-4822-bc9f-59e0cd63ffdc","system_id":"levelo_inurba_marseille","lat":43.296968,"lon":5.368924,"is_reserved":false,"is_disabled":false,"rental_uris":{"android":"levelo://app?vid=e8b74b53-1f66-4822-bc9f-59e0cd63ffdc","ios":"levelo://app?vid=e8b74b53-1f66-4822-bc9f-59e0cd63ffdc"},"vehicle_type_id":"4","last_reported":1716044917,"current_range_meters":800,"station_id":"","pricing_plan_id":"cebpf4jnsgd1na2vs0mg"},{"bike_id":"46a51222-1e49-4283-9213-ea4cb4775ffa","system_id":"levelo_inurba_marseille","lat":43.2968,"lon":5.37291,"is_reserved":false,"is_disabled":false,"rental_uris":{"android":"levelo://app?vid=46a51222-1e49-4283-9213-ea4cb4775ffa","ios":"levelo://app?vid=46a51222-1e49-4283-9213-ea4cb4775ffa"},"vehicle_type_id":"4","last_reported":1716044917,"current_range_meters":30400,"station_id":"ce4bgk12rcd13ifvqbj0","pricing_plan_id":"cebpf4jnsgd1na2vs0mg"},{"bike_id":"684b7547-6c21-498c-895c-e13deba1bca6","system_id":"levelo_inurba_marseille","lat":43.2968,"lon":5.37291,"is_reserved":false,"is_disabled":false,"rental_uris":{"android":"levelo://app?vid=684b7547-6c21-498c-895c-e13deba1bca6","ios":"levelo://app?vid=684b7547-6c21-498c-895c-e13deba1bca6"},"vehicle_type_id":"4","last_reported":1716044917,"current_range_meters":0,"station_id":"ce4bgk12rcd13ifvqbj0","pricing_plan_id":"cebpf4jnsgd1na2vs0mg"},{"bike_id":"c0b498e0-13a8-4048-9ad1-239a98ef44f9","system_id":"levelo_inurba_marseille","lat":43.29883,"lon":5.379995,"is_reserved":false,"is_disabled":false,"rental_uris":{"android":"levelo://app?vid=c0b498e0-13a8-4048-9ad1-239a98ef44f9","ios":"levelo://app?vid=c0b498e0-13a8-4048-9ad1-239a98ef44f9"},"vehicle_type_id":"4","last_reported":1716044917,"current_range_meters":19600,"station_id":"","pricing_plan_id":"cebpf4jnsgd1na2vs0mg"},{"bike_id":"5d537918-9fa7-49f3-8f8e-9f36df049916","system_id":"levelo_inurba_marseille","lat":43.29719,"lon":5.37692,"is_reserved":false,"is_disabled":false,"rental_uris":{"android":"levelo://app?vid=5d537918-9fa7-49f3-8f8e-9f36df049916","ios":"levelo://app?vid=5d537918-9fa7-49f3-8f8e-9f36df049916"},"vehicle_type_id":"4","last_reported":1716044917,"current_range_meters":7200,"station_id":"ce4bgkh2rcd13ifvqbl0","pricing_plan_id":"cebpf4jnsgd1na2vs0mg"},{"bike_id":"5da9942c-de2b-4c45-869d-00569c9a41f2","system_id":"levelo_inurba_marseille","lat":43.299028,"lon":5.381509,"is_reserved":false,"is_disabled":false,"rental_uris":{"android":"levelo://app?vid=5da9942c-de2b-4c45-869d-00569c9a41f2","ios":"levelo://app?vid=5da9942c-de2b-4c45-869d-00569c9a41f2"},"vehicle_type_id":"4","last_reported":1716044917,"current_range_meters":0,"station_id":"ce4bgj12rcd13ifvqbc0","pricing_plan_id":"cebpf4jnsgd1na2vs0mg"},{"bike_id":"1bc87702-42ea-445e-8260-211155cfeec8","system_id":"levelo_inurba_marseille","lat":43.309523,"lon":5.390193,"is_reserved":false,"is_disabled":false,"rental_uris":{"android":"levelo://app?vid=1bc87702-42ea-445e-8260-211155cfeec8","ios":"levelo://app?vid=1bc87702-42ea-445e-8260-211155cfeec8"},"vehicle_type_id":"4","last_reported":1716044917,"current_range_meters":0,"station_id":"ce4bgup2rcd13ifvqco0","pricing_plan_id":"cebpf4jnsgd1na2vs0mg"},{"bike_id":"15135315-69b9-4983-91ff-81513fe62e8f","system_id":"levelo_inurba_marseille","lat":43.299028,"lon":5.381509,"is_reserved":false,"is_disabled":false,"rental_uris":{"android":"levelo://app?vid=15135315-69b9-4983-91ff-81513fe62e8f","ios":"levelo://app?vid=15135315-69b9-4983-91ff-81513fe62e8f"},"vehicle_type_id":"4","last_reported":1716044917,"current_range_meters":15600,"station_id":"ce4bgj12rcd13ifvqbc0","pricing_plan_id":"cebpf4jnsgd1na2vs0mg"},{"bike_id":"7a5511b9-c33b-49be-a4bf-cf0cca229be6","system_id":"levelo_inurba_marseille","lat":43.2971,"lon":5.37699,"is_reserved":false,"is_disabled":false,"rental_uris":{"android":"levelo://app?vid=7a5511b9-c33b-49be-a4bf-cf0cca229be6","ios":"levelo://app?vid=7a5511b9-c33b-49be-a4bf-cf0cca229be6"},"vehicle_type_id":"4","last_reported":1716044917,"current_range_meters":0,"station_id":"ce4bgkh2rcd13ifvqbl0","pricing_plan_id":"cebpf4jnsgd1na2vs0mg"},{"bike_id":"b0e34790-4890-44b0-a252-910bda289207","system_id":"levelo_inurba_marseille","lat":43.299028,"lon":5.381509,"is_reserved":false,"is_disabled":false,"rental_uris":{"android":"levelo://app?vid=b0e34790-4890-44b0-a252-910bda289207","ios":"levelo://app?vid=b0e34790-4890-44b0-a252-910bda289207"},"vehicle_type_id":"4","last_reported":1716044917,"current_range_meters":12800,"station_id":"ce4bgj12rcd13ifvqbc0","pricing_plan_id":"cebpf4jnsgd1na2vs0mg"},{"bike_id":"2913d847-37a2-4f23-8a40-4f0be0f4e5ed","system_id":"levelo_inurba_marseille","lat":43.309589,"lon":5.390258,"is_reserved":false,"is_disabled":false,"rental_uris":{"android":"levelo://app?vid=2913d847-37a2-4f23-8a40-4f0be0f4e5ed","ios":"levelo://app?vid=2913d847-37a2-4f23-8a40-4f0be0f4e5ed"},"vehicle_type_id":"4","last_reported":1716044917,"current_range_meters":12800,"station_id":"ce4bgup2rcd13ifvqco0","pricing_plan_id":"cebpf4jnsgd1na2vs0mg"},{"bike_id":"9db220a7-0e94-47cd-b514-1a2ab49f2b29","system_id":"levelo_inurba_marseille","lat":43.309589,"lon":5.390258,"is_reserved":false,"is_disabled":false,"rental_uris":{"android":"levelo://app?vid=9db220a7-0e94-47cd-b514-1a2ab49f2b29","ios":"levelo://app?vid=9db220a7-0e94-47cd-b514-1a2ab49f2b29"},"vehicle_type_id":"4","last_reported":1716044917,"current_range_meters":18800,"station_id":"ce4bgup2rcd13ifvqco0","pricing_plan_id":"cebpf4jnsgd1na2vs0mg"},{"bike_id":"30a415bd-2716-49fc-b862-88f39e692450","system_id":"levelo_inurba_marseille","lat":43.309589,"lon":5.390258,"is_reserved":false,"is_disabled":false,"rental_uris":{"android":"levelo://app?vid=30a415bd-2716-49fc-b862-88f39e692450","ios":"levelo://app?vid=30a415bd-2716-49fc-b862-88f39e692450"},"vehicle_type_id":"4","last_reported":1716044917,"current_range_meters":23600,"station_id":"ce4bgup2rcd13ifvqco0","pricing_plan_id":"cebpf4jnsgd1na2vs0mg"},{"bike_id":"c415f791-7645-46ef-ac58-094e17970cd2","system_id":"levelo_inurba_marseille","lat":43.309589,"lon":5.390258,"is_reserved":false,"is_disabled":false,"rental_uris":{"android":"levelo://app?vid=c415f791-7645-46ef-ac58-094e17970cd2","ios":"levelo://app?vid=c415f791-7645-46ef-ac58-094e17970cd2"},"vehicle_type_id":"4","last_reported":1716044917,"current_range_meters":16400,"station_id":"ce4bgup2rcd13ifvqco0","pricing_plan_id":"cebpf4jnsgd1na2vs0mg"},{"bike_id":"3f4205c1-aff8-4c22-8a63-476551be5f6f","system_id":"levelo_inurba_marseille","lat":43.309589,"lon":5.390258,"is_reserved":false,"is_disabled":false,"rental_uris":{"android":"levelo://app?vid=3f4205c1-aff8-4c22-8a63-476551be5f6f","ios":"levelo://app?vid=3f4205c1-aff8-4c22-8a63-476551be5f6f"},"vehicle_type_id":"4","last_reported":1716044917,"current_range_meters":12800,"station_id":"ce4bgup2rcd13ifvqco0","pricing_plan_id":"cebpf4jnsgd1na2vs0mg"},{"bike_id":"eb537c0f-f8ab-4dd0-b4af-0b90f760713d","system_id":"levelo_inurba_marseille","lat":43.295812,"lon":5.375057,"is_reserved":false,"is_disabled":false,"rental_uris":{"android":"levelo://app?vid=eb537c0f-f8ab-4dd0-b4af-0b90f760713d","ios":"levelo://app?vid=eb537c0f-f8ab-4dd0-b4af-0b90f760713d"},"vehicle_type_id":"4","last_reported":1716044917,"current_range_meters":0,"station_id":"ce4bgh92rcd13ifvqb50","pricing_plan_id":"cebpf4jnsgd1na2vs0mg"},{"bike_id":"31c8ebba-8e13-4ae1-b38a-26eeb8e4713c","system_id":"levelo_inurba_marseille","lat":43.297233,"lon":5.37958,"is_reserved":false,"is_disabled":false,"rental_uris":{"android":"levelo://app?vid=31c8ebba-8e13-4ae1-b38a-26eeb8e4713c","ios":"levelo://app?vid=31c8ebba-8e13-4ae1-b38a-26eeb8e4713c"},"vehicle_type_id":"4","last_reported":1716044917,"current_range_meters":26400,"station_id":"","pricing_plan_id":"cebpf4jnsgd1na2vs0mg"},{"bike_id":"a5ae58b1-16bd-4aa0-9b92-6711d835c168","system_id":"levelo_inurba_marseille","lat":43.295748,"lon":5.37522,"is_reserved":false,"is_disabled":false,"rental_uris":{"android":"levelo://app?vid=a5ae58b1-16bd-4aa0-9b92-6711d835c168","ios":"levelo://app?vid=a5ae58b1-16bd-4aa0-9b92-6711d835c168"},"vehicle_type_id":"4","last_reported":1716044917,"current_range_meters":0,"station_id":"ce4bgh92rcd13ifvqb50","pricing_plan_id":"cebpf4jnsgd1na2vs0mg"},{"bike_id":"c11a10b4-c52f-4f68-8ff5-64d9c15e5c4f","system_id":"levelo_inurba_marseille","lat":43.304274,"lon":5.388873,"is_reserved":false,"is_disabled":false,"rental_uris":{"android":"levelo://app?vid=c11a10b4-c52f-4f68-8ff5-64d9c15e5c4f","ios":"levelo://app?vid=c11a10b4-c52f-4f68-8ff5-64d9c15e5c4f"},"vehicle_type_id":"4","last_reported":1716044917,"current_range_meters":0,"station_id":"ce4bgk12rcd13ifvqbi0","pricing_plan_id":"cebpf4jnsgd1na2vs0mg"},{"bike_id":"b68702f2-ec65-4ede-8d3d-e24f50324314","system_id":"levelo_inurba_marseille","lat":43.298037,"lon":5.381066,"is_reserved":false,"is_disabled":false,"rental_uris":{"android":"levelo://app?vid=b68702f2-ec65-4ede-8d3d-e24f50324314","ios":"levelo://app?vid=b68702f2-ec65-4ede-8d3d-e24f50324314"},"vehicle_type_id":"4","last_reported":1716044917,"current_range_meters":1200,"station_id":"ce4bgip2rcd13ifvqbb0","pricing_plan_id":"cebpf4jnsgd1na2vs0mg"},{"bike_id":"978f4a2b-fc07-45aa-82b0-c13d8f3ddd41","system_id":"levelo_inurba_marseille","lat":43.296245,"lon":5.377301,"is_reserved":false,"is_disabled":false,"rental_uris":{"android":"levelo://app?vid=978f4a2b-fc07-45aa-82b0-c13d8f3ddd41","ios":"levelo://app?vid=978f4a2b-fc07-45aa-82b0-c13d8f3ddd41"},"vehicle_type_id":"4","last_reported":1716044917,"current_range_meters":0,"station_id":"ce4bgi92rcd13ifvqb90","pricing_plan_id":"cebpf4jnsgd1na2vs0mg"},{"bike_id":"2cff4689-b92f-44aa-94a7-022c60578cac","system_id":"levelo_inurba_marseille","lat":43.309589,"lon":5.390258,"is_reserved":false,"is_disabled":false,"rental_uris":{"android":"levelo://app?vid=2cff4689-b92f-44aa-94a7-022c60578cac","ios":"levelo://app?vid=2cff4689-b92f-44aa-94a7-022c60578cac"},"vehicle_type_id":"4","last_reported":1716044917,"current_range_meters":9600,"station_id":"ce4bgup2rcd13ifvqco0","pricing_plan_id":"cebpf4jnsgd1na2vs0mg"},{"bike_id":"4df09d90-146a-422e-b9c3-eb1f7f5251bf","system_id":"levelo_inurba_marseille","lat":43.295279,"lon":5.375048,"is_reserved":false,"is_disabled":false,"rental_uris":{"android":"levelo://app?vid=4df09d90-146a-422e-b9c3-eb1f7f5251bf","ios":"levelo://app?vid=4df09d90-146a-422e-b9c3-eb1f7f5251bf"},"vehicle_type_id":"4","last_reported":1716044917,"current_range_meters":0,"station_id":"ce4bgkp2rcd13ifvqbmg","pricing_plan_id":"cebpf4jnsgd1na2vs0mg"},{"bike_id":"4d049128-ec98-4017-83d5-0d9b4e9c6ad0","system_id":"levelo_inurba_marseille","lat":43.2952,"lon":5.37494,"is_reserved":false,"is_disabled":false,"rental_uris":{"android":"levelo://app?vid=4d049128-ec98-4017-83d5-0d9b4e9c6ad0","ios":"levelo://app?vid=4d049128-ec98-4017-83d5-0d9b4e9c6ad0"},"vehicle_type_id":"4","last_reported":1716044917,"current_range_meters":0,"station_id":"ce4bgkp2rcd13ifvqbmg","pricing_plan_id":"cebpf4jnsgd1na2vs0mg"},{"bike_id":"60ac0243-8f56-4755-9184-c88bf428831a","system_id":"levelo_inurba_marseille","lat":43.299724,"lon":5.384848,"is_reserved":false,"is_disabled":false,"rental_uris":{"android":"levelo://app?vid=60ac0243-8f56-4755-9184-c88bf428831a","ios":"levelo://app?vid=60ac0243-8f56-4755-9184-c88bf428831a"},"vehicle_type_id":"4","last_reported":1716044917,"current_range_meters":31600,"station_id":"ce4bgj92rcd13ifvqbd0","pricing_plan_id":"cebpf4jnsgd1na2vs0mg"},{"bike_id":"6768ede6-6af5-4a65-b50d-860ac0d79ba6","system_id":"levelo_inurba_marseille","lat":43.299724,"lon":5.384848,"is_reserved":false,"is_disabled":false,"rental_uris":{"android":"levelo://app?vid=6768ede6-6af5-4a65-b50d-860ac0d79ba6","ios":"levelo://app?vid=6768ede6-6af5-4a65-b50d-860ac0d79ba6"},"vehicle_type_id":"4","last_reported":1716044917,"current_range_meters":23200,"station_id":"ce4bgj92rcd13ifvqbd0","pricing_plan_id":"cebpf4jnsgd1na2vs0mg"},{"bike_id":"f9998aa9-f83f-4b4b-b6b1-5b70024f7f1b","system_id":"levelo_inurba_marseille","lat":43.309589,"lon":5.390258,"is_reserved":false,"is_disabled":false,"rental_uris":{"android":"levelo://app?vid=f9998aa9-f83f-4b4b-b6b1-5b70024f7f1b","ios":"levelo://app?vid=f9998aa9-f83f-4b4b-b6b1-5b70024f7f1b"},"vehicle_type_id":"4","last_reported":1716044917,"current_range_meters":2000,"station_id":"ce4bgup2rcd13ifvqco0","pricing_plan_id":"cebpf4jnsgd1na2vs0mg"},{"bike_id":"f7df399b-b5b4-4f04-a175-08b09ea59d51","system_id":"levelo_inurba_marseille","lat":43.299724,"lon":5.384848,"is_reserved":false,"is_disabled":false,"rental_uris":{"android":"levelo://app?vid=f7df399b-b5b4-4f04-a175-08b09ea59d51","ios":"levelo://app?vid=f7df399b-b5b4-4f04-a175-08b09ea59d51"},"vehicle_type_id":"4","last_reported":1716044917,"current_range_meters":18000,"station_id":"ce4bgj92rcd13ifvqbd0","pricing_plan_id":"cebpf4jnsgd1na2vs0mg"},{"bike_id":"42a31e13-a520-4ab6-9754-126c431fc490","system_id":"levelo_inurba_marseille","lat":43.298037,"lon":5.381066,"is_reserved":false,"is_disabled":false,"rental_uris":{"android":"levelo://app?vid=42a31e13-a520-4ab6-9754-126c431fc490","ios":"levelo://app?vid=42a31e13-a520-4ab6-9754-126c431fc490"},"vehicle_type_id":"4","last_reported":1716044917,"current_range_meters":1600,"station_id":"ce4bgip2rcd13ifvqbb0","pricing_plan_id":"cebpf4jnsgd1na2vs0mg"},{"bike_id":"527b2851-68c5-45ed-a100-fe3142e17af0","system_id":"levelo_inurba_marseille","lat":43.299513,"lon":5.385067,"is_reserved":false,"is_disabled":false,"rental_uris":{"android":"levelo://app?vid=527b2851-68c5-45ed-a100-fe3142e17af0","ios":"levelo://app?vid=527b2851-68c5-45ed-a100-fe3142e17af0"},"vehicle_type_id":"4","last_reported":1716044917,"current_range_meters":21200,"station_id":"ce4bgj92rcd13ifvqbd0","pricing_plan_id":"cebpf4jnsgd1na2vs0mg"},{"bike_id":"48b7dc82-0fb6-4c7e-aa94-9c4959306f05","system_id":"levelo_inurba_marseille","lat":43.32367,"lon":5.388836,"is_reserved":false,"is_disabled":false,"rental_uris":{"android":"levelo://app?vid=48b7dc82-0fb6-4c7e-aa94-9c4959306f05","ios":"levelo://app?vid=48b7dc82-0fb6-4c7e-aa94-9c4959306f05"},"vehicle_type_id":"4","last_reported":1716044917,"current_range_meters":12000,"station_id":"ce4bhqp2rcd13ifvqhog","pricing_plan_id":"cebpf4jnsgd1na2vs0mg"},{"bike_id":"f049b59c-4a89-4625-9e9f-ae67a4df389a","system_id":"levelo_inurba_marseille","lat":43.29602,"lon":5.381084,"is_reserved":false,"is_disabled":false,"rental_uris":{"android":"levelo://app?vid=f049b59c-4a89-4625-9e9f-ae67a4df389a","ios":"levelo://app?vid=f049b59c-4a89-4625-9e9f-ae67a4df389a"},"vehicle_type_id":"4","last_reported":1716044917,"current_range_meters":5200,"station_id":"ce4bgl12rcd13ifvqbo0","pricing_plan_id":"cebpf4jnsgd1na2vs0mg"},{"bike_id":"f0af1fbd-8dfd-463f-bf00-1099d85c96d5","system_id":"levelo_inurba_marseille","lat":43.29602,"lon":5.381084,"is_reserved":false,"is_disabled":false,"rental_uris":{"android":"levelo://app?vid=f0af1fbd-8dfd-463f-bf00-1099d85c96d5","ios":"levelo://app?vid=f0af1fbd-8dfd-463f-bf00-1099d85c96d5"},"vehicle_type_id":"4","last_reported":1716044917,"current_range_meters":6400,"station_id":"ce4bgl12rcd13ifvqbo0","pricing_plan_id":"cebpf4jnsgd1na2vs0mg"},{"bike_id":"3a1d74a4-91d9-47c5-8516-197da21cb835","system_id":"levelo_inurba_marseille","lat":43.293624,"lon":5.373295,"is_reserved":false,"is_disabled":false,"rental_uris":{"android":"levelo://app?vid=3a1d74a4-91d9-47c5-8516-197da21cb835","ios":"levelo://app?vid=3a1d74a4-91d9-47c5-8516-197da21cb835"},"vehicle_type_id":"4","last_reported":1716044917,"current_range_meters":2000,"station_id":"ce4bhbh2rcd13ifvqeo0","pricing_plan_id":"cebpf4jnsgd1na2vs0mg"},{"bike_id":"8c944c12-d06f-4b94-80a3-34451e86fb9c","system_id":"levelo_inurba_marseille","lat":43.298453,"lon":5.385776,"is_reserved":false,"is_disabled":false,"rental_uris":{"android":"levelo://app?vid=8c944c12-d06f-4b94-80a3-34451e86fb9c","ios":"levelo://app?vid=8c944c12-d06f-4b94-80a3-34451e86fb9c"},"vehicle_type_id":"4","last_reported":1716044917,"current_range_meters":18400,"station_id":"","pricing_plan_id":"cebpf4jnsgd1na2vs0mg"},{"bike_id":"6aa7674b-06bd-45be-b927-a50ce986923e","system_id":"levelo_inurba_marseille","lat":43.305994,"lon":5.393687,"is_reserved":false,"is_disabled":false,"rental_uris":{"android":"levelo://app?vid=6aa7674b-06bd-45be-b927-a50ce986923e","ios":"levelo://app?vid=6aa7674b-06bd-45be-b927-a50ce986923e"},"vehicle_type_id":"4","last_reported":1716044917,"current_range_meters":14800,"station_id":"ce4bh0p2rcd13ifvqd80","pricing_plan_id":"cebpf4jnsgd1na2vs0mg"},{"bike_id":"0d8357ca-dbe8-4945-a6f9-e4c96994b581","system_id":"levelo_inurba_marseille","lat":43.303002,"lon":5.392142,"is_reserved":false,"is_disabled":false,"rental_uris":{"android":"levelo://app?vid=0d8357ca-dbe8-4945-a6f9-e4c96994b581","ios":"levelo://app?vid=0d8357ca-dbe8-4945-a6f9-e4c96994b581"},"vehicle_type_id":"4","last_reported":1716044917,"current_range_meters":5200,"station_id":"ce4bgkh2rcd13ifvqbk0","pricing_plan_id":"cebpf4jnsgd1na2vs0mg"},{"bike_id":"224ff179-c762-4537-ba33-7a4213477292","system_id":"levelo_inurba_marseille","lat":43.2936,"lon":5.37835,"is_reserved":false,"is_disabled":false,"rental_uris":{"android":"levelo://app?vid=224ff179-c762-4537-ba33-7a4213477292","ios":"levelo://app?vid=224ff179-c762-4537-ba33-7a4213477292"},"vehicle_type_id":"4","last_reported":1716044917,"current_range_meters":0,"station_id":"ce4bgjh2rcd13ifvqbf0","pricing_plan_id":"cebpf4jnsgd1na2vs0mg"},{"bike_id":"4e98b554-57a5-4b66-977a-e19676805dfc","system_id":"levelo_inurba_marseille","lat":43.293009,"lon":5.374584,"is_reserved":false,"is_disabled":false,"rental_uris":{"android":"levelo://app?vid=4e98b554-57a5-4b66-977a-e19676805dfc","ios":"levelo://app?vid=4e98b554-57a5-4b66-977a-e19676805dfc"},"vehicle_type_id":"4","last_reported":1716044917,"current_range_meters":2400,"station_id":"ce4bgi12rcd13ifvqb70","pricing_plan_id":"cebpf4jnsgd1na2vs0mg"},{"bike_id":"57084456-d68e-400a-ab0b-0b1bfbb51d3f","system_id":"levelo_inurba_marseille","lat":43.2936,"lon":5.37835,"is_reserved":false,"is_disabled":false,"rental_uris":{"android":"levelo://app?vid=57084456-d68e-400a-ab0b-0b1bfbb51d3f","ios":"levelo://app?vid=57084456-d68e-400a-ab0b-0b1bfbb51d3f"},"vehicle_type_id":"4","last_reported":1716044917,"current_range_meters":23600,"station_id":"ce4bgjh2rcd13ifvqbf0","pricing_plan_id":"cebpf4jnsgd1na2vs0mg"},{"bike_id":"291d0aea-2bf2-4047-b13a-0a450601e7f1","system_id":"levelo_inurba_marseille","lat":43.30085,"lon":5.390856,"is_reserved":false,"is_disabled":false,"rental_uris":{"android":"levelo://app?vid=291d0aea-2bf2-4047-b13a-0a450601e7f1","ios":"levelo://app?vid=291d0aea-2bf2-4047-b13a-0a450601e7f1"},"vehicle_type_id":"4","last_reported":1716044917,"current_range_meters":25200,"station_id":"ce4bh192rcd13ifvqdb0","pricing_plan_id":"cebpf4jnsgd1na2vs0mg"},{"bike_id":"7040d9cf-0d29-4be9-9706-c98bad966c6c","system_id":"levelo_inurba_marseille","lat":43.292206,"lon":5.360745,"is_reserved":false,"is_disabled":false,"rental_uris":{"android":"levelo://app?vid=7040d9cf-0d29-4be9-9706-c98bad966c6c","ios":"levelo://app?vid=7040d9cf-0d29-4be9-9706-c98bad966c6c"},"vehicle_type_id":"4","last_reported":1716044917,"current_range_meters":12400,"station_id":"ce4bhbh2rcd13ifvqeqg","pricing_plan_id":"cebpf4jnsgd1na2vs0mg"},{"bike_id":"89c9a43e-1557-4515-95f1-e6a81977a24c","system_id":"levelo_inurba_marseille","lat":43.292311,"lon":5.360731,"is_reserved":false,"is_disabled":false,"rental_uris":{"android":"levelo://app?vid=89c9a43e-1557-4515-95f1-e6a81977a24c","ios":"levelo://app?vid=89c9a43e-1557-4515-95f1-e6a81977a24c"},"vehicle_type_id":"4","last_reported":1716044917,"current_range_meters":0,"station_id":"ce4bhbh2rcd13ifvqeqg","pricing_plan_id":"cebpf4jnsgd1na2vs0mg"},{"bike_id":"d9148242-909f-4f03-988d-94561209186b","system_id":"levelo_inurba_marseille","lat":43.293009,"lon":5.374584,"is_reserved":false,"is_disabled":false,"rental_uris":{"android":"levelo://app?vid=d9148242-909f-4f03-988d-94561209186b","ios":"levelo://app?vid=d9148242-909f-4f03-988d-94561209186b"},"vehicle_type_id":"4","last_reported":1716044917,"current_range_meters":14000,"station_id":"ce4bgi12rcd13ifvqb70","pricing_plan_id":"cebpf4jnsgd1na2vs0mg"},{"bike_id":"1f3e7094-272b-4556-8d17-ae3505035d12","system_id":"levelo_inurba_marseille","lat":43.293009,"lon":5.374584,"is_reserved":false,"is_disabled":false,"rental_uris":{"android":"levelo://app?vid=1f3e7094-272b-4556-8d17-ae3505035d12","ios":"levelo://app?vid=1f3e7094-272b-4556-8d17-ae3505035d12"},"vehicle_type_id":"4","last_reported":1716044917,"current_range_meters":5200,"station_id":"ce4bgi12rcd13ifvqb70","pricing_plan_id":"cebpf4jnsgd1na2vs0mg"},{"bike_id":"1f543bf7-0bc4-4be7-8519-17f185b66a45","system_id":"levelo_inurba_marseille","lat":43.298764,"lon":5.388973,"is_reserved":false,"is_disabled":false,"rental_uris":{"android":"levelo://app?vid=1f543bf7-0bc4-4be7-8519-17f185b66a45","ios":"levelo://app?vid=1f543bf7-0bc4-4be7-8519-17f185b66a45"},"vehicle_type_id":"4","last_reported":1716044917,"current_range_meters":20800,"station_id":"ce4bh392rcd13ifvqdl0","pricing_plan_id":"cebpf4jnsgd1na2vs0mg"},{"bike_id":"7f86a8da-05eb-4656-b57e-b3610d3720a1","system_id":"levelo_inurba_marseille","lat":43.298764,"lon":5.388973,"is_reserved":false,"is_disabled":false,"rental_uris":{"android":"levelo://app?vid=7f86a8da-05eb-4656-b57e-b3610d3720a1","ios":"levelo://app?vid=7f86a8da-05eb-4656-b57e-b3610d3720a1"},"vehicle_type_id":"4","last_reported":1716044917,"current_range_meters":12800,"station_id":"ce4bh392rcd13ifvqdl0","pricing_plan_id":"cebpf4jnsgd1na2vs0mg"},{"bike_id":"dc9f63d0-dc8b-4853-8f4b-a4ecedf74b0f","system_id":"levelo_inurba_marseille","lat":43.298764,"lon":5.388973,"is_reserved":false,"is_disabled":false,"rental_uris":{"android":"levelo://app?vid=dc9f63d0-dc8b-4853-8f4b-a4ecedf74b0f","ios":"levelo://app?vid=dc9f63d0-dc8b-4853-8f4b-a4ecedf74b0f"},"vehicle_type_id":"4","last_reported":1716044917,"current_range_meters":24400,"station_id":"ce4bh392rcd13ifvqdl0","pricing_plan_id":"cebpf4jnsgd1na2vs0mg"},{"bike_id":"956cec7d-cba5-4974-b065-94eaee78a9cd","system_id":"levelo_inurba_marseille","lat":43.298764,"lon":5.388973,"is_reserved":false,"is_disabled":false,"rental_uris":{"android":"levelo://app?vid=956cec7d-cba5-4974-b065-94eaee78a9cd","ios":"levelo://app?vid=956cec7d-cba5-4974-b065-94eaee78a9cd"},"vehicle_type_id":"4","last_reported":1716044917,"current_range_meters":18400,"station_id":"ce4bh392rcd13ifvqdl0","pricing_plan_id":"cebpf4jnsgd1na2vs0mg"},{"bike_id":"9bf7bbaa-1700-4199-999d-2858c7bbef88","system_id":"levelo_inurba_marseille","lat":43.29165,"lon":5.37159,"is_reserved":false,"is_disabled":false,"rental_uris":{"android":"levelo://app?vid=9bf7bbaa-1700-4199-999d-2858c7bbef88","ios":"levelo://app?vid=9bf7bbaa-1700-4199-999d-2858c7bbef88"},"vehicle_type_id":"4","last_reported":1716044917,"current_range_meters":27600,"station_id":"ce4bha92rcd13ifvqeh0","pricing_plan_id":"cebpf4jnsgd1na2vs0mg"},{"bike_id":"3896fc80-8bde-49db-911c-96543a704a5a","system_id":"levelo_inurba_marseille","lat":43.29163,"lon":5.37152,"is_reserved":false,"is_disabled":false,"rental_uris":{"android":"levelo://app?vid=3896fc80-8bde-49db-911c-96543a704a5a","ios":"levelo://app?vid=3896fc80-8bde-49db-911c-96543a704a5a"},"vehicle_type_id":"4","last_reported":1716044917,"current_range_meters":0,"station_id":"ce4bha92rcd13ifvqeh0","pricing_plan_id":"cebpf4jnsgd1na2vs0mg"},{"bike_id":"60c53add-8f60-4b4f-8b41-87cc14cc3ab1","system_id":"levelo_inurba_marseille","lat":43.29163,"lon":5.37159,"is_reserved":false,"is_disabled":false,"rental_uris":{"android":"levelo://app?vid=60c53add-8f60-4b4f-8b41-87cc14cc3ab1","ios":"levelo://app?vid=60c53add-8f60-4b4f-8b41-87cc14cc3ab1"},"vehicle_type_id":"4","last_reported":1716044917,"current_range_meters":7200,"station_id":"ce4bha92rcd13ifvqeh0","pricing_plan_id":"cebpf4jnsgd1na2vs0mg"},{"bike_id":"bf4fda37-f810-4b12-ba49-fc31880fbeb7","system_id":"levelo_inurba_marseille","lat":43.291765,"lon":5.37471,"is_reserved":false,"is_disabled":false,"rental_uris":{"android":"levelo://app?vid=bf4fda37-f810-4b12-ba49-fc31880fbeb7","ios":"levelo://app?vid=bf4fda37-f810-4b12-ba49-fc31880fbeb7"},"vehicle_type_id":"4","last_reported":1716044917,"current_range_meters":4800,"station_id":"ce4bha92rcd13ifvqeh0","pricing_plan_id":"cebpf4jnsgd1na2vs0mg"},{"bike_id":"8feaabe6-1a97-4986-abd6-98ec4921f76b","system_id":"levelo_inurba_marseille","lat":43.313291,"lon":5.396838,"is_reserved":false,"is_disabled":false,"rental_uris":{"android":"levelo://app?vid=8feaabe6-1a97-4986-abd6-98ec4921f76b","ios":"levelo://app?vid=8feaabe6-1a97-4986-abd6-98ec4921f76b"},"vehicle_type_id":"4","last_reported":1716044917,"current_range_meters":19200,"station_id":"ce4bgvp2rcd13ifvqcu0","pricing_plan_id":"cebpf4jnsgd1na2vs0mg"},{"bike_id":"1ed540cb-b45b-427f-ba8a-2e61064a644d","system_id":"levelo_inurba_marseille","lat":43.313291,"lon":5.396838,"is_reserved":false,"is_disabled":false,"rental_uris":{"android":"levelo://app?vid=1ed540cb-b45b-427f-ba8a-2e61064a644d","ios":"levelo://app?vid=1ed540cb-b45b-427f-ba8a-2e61064a644d"},"vehicle_type_id":"4","last_reported":1716044917,"current_range_meters":21600,"station_id":"ce4bgvp2rcd13ifvqcu0","pricing_plan_id":"cebpf4jnsgd1na2vs0mg"},{"bike_id":"63444de0-a1bb-4e8e-ae96-7acb218fc4db","system_id":"levelo_inurba_marseille","lat":43.29167,"lon":5.37506,"is_reserved":false,"is_disabled":false,"rental_uris":{"android":"levelo://app?vid=63444de0-a1bb-4e8e-ae96-7acb218fc4db","ios":"levelo://app?vid=63444de0-a1bb-4e8e-ae96-7acb218fc4db"},"vehicle_type_id":"4","last_reported":1716044917,"current_range_meters":0,"station_id":"ce4bgrp2rcd13ifvqc9g","pricing_plan_id":"cebpf4jnsgd1na2vs0mg"},{"bike_id":"eaa13ef6-942e-4ae9-81dd-c5184916c97d","system_id":"levelo_inurba_marseille","lat":43.309038,"lon":5.396546,"is_reserved":false,"is_disabled":false,"rental_uris":{"android":"levelo://app?vid=eaa13ef6-942e-4ae9-81dd-c5184916c97d","ios":"levelo://app?vid=eaa13ef6-942e-4ae9-81dd-c5184916c97d"},"vehicle_type_id":"4","last_reported":1716044917,"current_range_meters":1600,"station_id":"ce4bh012rcd13ifvqcv0","pricing_plan_id":"cebpf4jnsgd1na2vs0mg"},{"bike_id":"f9f9e2f9-0180-49af-a896-f613143fe8c2","system_id":"levelo_inurba_marseille","lat":43.309038,"lon":5.396546,"is_reserved":false,"is_disabled":false,"rental_uris":{"android":"levelo://app?vid=f9f9e2f9-0180-49af-a896-f613143fe8c2","ios":"levelo://app?vid=f9f9e2f9-0180-49af-a896-f613143fe8c2"},"vehicle_type_id":"4","last_reported":1716044917,"current_range_meters":15600,"station_id":"ce4bh012rcd13ifvqcv0","pricing_plan_id":"cebpf4jnsgd1na2vs0mg"},{"bike_id":"a1f555c1-378d-4ec4-adaf-8a28dece183f","system_id":"levelo_inurba_marseille","lat":43.302008,"lon":5.394694,"is_reserved":false,"is_disabled":false,"rental_uris":{"android":"levelo://app?vid=a1f555c1-378d-4ec4-adaf-8a28dece183f","ios":"levelo://app?vid=a1f555c1-378d-4ec4-adaf-8a28dece183f"},"vehicle_type_id":"4","last_reported":1716044917,"current_range_meters":0,"station_id":"ce4bh0p2rcd13ifvqd70","pricing_plan_id":"cebpf4jnsgd1na2vs0mg"},{"bike_id":"c105db45-3a89-4625-8910-5f72d604dbd6","system_id":"levelo_inurba_marseille","lat":43.302008,"lon":5.394694,"is_reserved":false,"is_disabled":false,"rental_uris":{"android":"levelo://app?vid=c105db45-3a89-4625-8910-5f72d604dbd6","ios":"levelo://app?vid=c105db45-3a89-4625-8910-5f72d604dbd6"},"vehicle_type_id":"4","last_reported":1716044917,"current_range_meters":7200,"station_id":"ce4bh0p2rcd13ifvqd70","pricing_plan_id":"cebpf4jnsgd1na2vs0mg"},{"bike_id":"22366688-4a24-4dc0-bdcd-5ff233f90a56","system_id":"levelo_inurba_marseille","lat":43.29045,"lon":5.37519,"is_reserved":false,"is_disabled":false,"rental_uris":{"android":"levelo://app?vid=22366688-4a24-4dc0-bdcd-5ff233f90a56","ios":"levelo://app?vid=22366688-4a24-4dc0-bdcd-5ff233f90a56"},"vehicle_type_id":"4","last_reported":1716044917,"current_range_meters":0,"station_id":"ce4bh692rcd13ifvqe90","pricing_plan_id":"cebpf4jnsgd1na2vs0mg"},{"bike_id":"9df77f54-478d-47be-ad65-2cca33a6d22a","system_id":"levelo_inurba_marseille","lat":43.29419,"lon":5.38618,"is_reserved":false,"is_disabled":false,"rental_uris":{"android":"levelo://app?vid=9df77f54-478d-47be-ad65-2cca33a6d22a","ios":"levelo://app?vid=9df77f54-478d-47be-ad65-2cca33a6d22a"},"vehicle_type_id":"4","last_reported":1716044917,"current_range_meters":0,"station_id":"ce4bh2h2rcd13ifvqdh0","pricing_plan_id":"cebpf4jnsgd1na2vs0mg"},{"bike_id":"06c12030-df93-4325-9fb4-9c87731a546e","system_id":"levelo_inurba_marseille","lat":43.289184,"lon":5.366408,"is_reserved":false,"is_disabled":false,"rental_uris":{"android":"levelo://app?vid=06c12030-df93-4325-9fb4-9c87731a546e","ios":"levelo://app?vid=06c12030-df93-4325-9fb4-9c87731a546e"},"vehicle_type_id":"4","last_reported":1716044917,"current_range_meters":800,"station_id":"ce4bhap2rcd13ifvqek0","pricing_plan_id":"cebpf4jnsgd1na2vs0mg"},{"bike_id":"f3f31b78-4329-4ada-804d-6eeaccfc51e8","system_id":"levelo_inurba_marseille","lat":43.29411,"lon":5.38624,"is_reserved":false,"is_disabled":false,"rental_uris":{"android":"levelo://app?vid=f3f31b78-4329-4ada-804d-6eeaccfc51e8","ios":"levelo://app?vid=f3f31b78-4329-4ada-804d-6eeaccfc51e8"},"vehicle_type_id":"4","last_reported":1716044917,"current_range_meters":20400,"station_id":"ce4bh2h2rcd13ifvqdh0","pricing_plan_id":"cebpf4jnsgd1na2vs0mg"},{"bike_id":"82c8a7b1-a95c-45ad-b994-00f8a1937442","system_id":"levelo_inurba_marseille","lat":43.28934,"lon":5.36637,"is_reserved":false,"is_disabled":false,"rental_uris":{"android":"levelo://app?vid=82c8a7b1-a95c-45ad-b994-00f8a1937442","ios":"levelo://app?vid=82c8a7b1-a95c-45ad-b994-00f8a1937442"},"vehicle_type_id":"4","last_reported":1716044917,"current_range_meters":0,"station_id":"ce4bhap2rcd13ifvqek0","pricing_plan_id":"cebpf4jnsgd1na2vs0mg"},{"bike_id":"963e7f5d-7f79-4de1-a470-92fc1a183f03","system_id":"levelo_inurba_marseille","lat":43.292642,"lon":5.384254,"is_reserved":false,"is_disabled":false,"rental_uris":{"android":"levelo://app?vid=963e7f5d-7f79-4de1-a470-92fc1a183f03","ios":"levelo://app?vid=963e7f5d-7f79-4de1-a470-92fc1a183f03"},"vehicle_type_id":"4","last_reported":1716044917,"current_range_meters":26400,"station_id":"ce4bh692rcd13ifvqea0","pricing_plan_id":"cebpf4jnsgd1na2vs0mg"},{"bike_id":"fc403521-c32b-4906-93aa-838cfc875393","system_id":"levelo_inurba_marseille","lat":43.292513,"lon":5.383969,"is_reserved":false,"is_disabled":false,"rental_uris":{"android":"levelo://app?vid=fc403521-c32b-4906-93aa-838cfc875393","ios":"levelo://app?vid=fc403521-c32b-4906-93aa-838cfc875393"},"vehicle_type_id":"4","last_reported":1716044917,"current_range_meters":14000,"station_id":"ce4bh692rcd13ifvqea0","pricing_plan_id":"cebpf4jnsgd1na2vs0mg"},{"bike_id":"8cffd3b0-23b4-49cc-9067-3bebb5542e9b","system_id":"levelo_inurba_marseille","lat":43.289741,"lon":5.378306,"is_reserved":false,"is_disabled":false,"rental_uris":{"android":"levelo://app?vid=8cffd3b0-23b4-49cc-9067-3bebb5542e9b","ios":"levelo://app?vid=8cffd3b0-23b4-49cc-9067-3bebb5542e9b"},"vehicle_type_id":"4","last_reported":1716044917,"current_range_meters":20000,"station_id":"ce4bh9p2rcd13ifvqed0","pricing_plan_id":"cebpf4jnsgd1na2vs0mg"},{"bike_id":"5671555a-f2e7-4dce-bdab-0b3fcc948c49","system_id":"levelo_inurba_marseille","lat":43.29264,"lon":5.3844,"is_reserved":false,"is_disabled":false,"rental_uris":{"android":"levelo://app?vid=5671555a-f2e7-4dce-bdab-0b3fcc948c49","ios":"levelo://app?vid=5671555a-f2e7-4dce-bdab-0b3fcc948c49"},"vehicle_type_id":"4","last_reported":1716044917,"current_range_meters":0,"station_id":"ce4bh692rcd13ifvqea0","pricing_plan_id":"cebpf4jnsgd1na2vs0mg"},{"bike_id":"661ee735-4134-4f46-b7c6-7066837e2903","system_id":"levelo_inurba_marseille","lat":43.290104,"lon":5.356111,"is_reserved":false,"is_disabled":false,"rental_uris":{"android":"levelo://app?vid=661ee735-4134-4f46-b7c6-7066837e2903","ios":"levelo://app?vid=661ee735-4134-4f46-b7c6-7066837e2903"},"vehicle_type_id":"4","last_reported":1716044917,"current_range_meters":4400,"station_id":"ce4bhb92rcd13ifvqen0","pricing_plan_id":"cebpf4jnsgd1na2vs0mg"},{"bike_id":"8730b0ab-47cb-4b6a-9c1b-116f9521f296","system_id":"levelo_inurba_marseille","lat":43.29004,"lon":5.35617,"is_reserved":false,"is_disabled":false,"rental_uris":{"android":"levelo://app?vid=8730b0ab-47cb-4b6a-9c1b-116f9521f296","ios":"levelo://app?vid=8730b0ab-47cb-4b6a-9c1b-116f9521f296"},"vehicle_type_id":"4","last_reported":1716044917,"current_range_meters":0,"station_id":"ce4bhb92rcd13ifvqen0","pricing_plan_id":"cebpf4jnsgd1na2vs0mg"},{"bike_id":"a7416ffb-afef-417c-a739-e43042b3ca4a","system_id":"levelo_inurba_marseille","lat":43.290995,"lon":5.381361,"is_reserved":false,"is_disabled":false,"rental_uris":{"android":"levelo://app?vid=a7416ffb-afef-417c-a739-e43042b3ca4a","ios":"levelo://app?vid=a7416ffb-afef-417c-a739-e43042b3ca4a"},"vehicle_type_id":"4","last_reported":1716044917,"current_range_meters":800,"station_id":"ce4bh512rcd13ifvqe2g","pricing_plan_id":"cebpf4jnsgd1na2vs0mg"},{"bike_id":"6f77a4d5-6561-4a39-a7aa-ff865e0e1f45","system_id":"levelo_inurba_marseille","lat":43.290995,"lon":5.381361,"is_reserved":false,"is_disabled":false,"rental_uris":{"android":"levelo://app?vid=6f77a4d5-6561-4a39-a7aa-ff865e0e1f45","ios":"levelo://app?vid=6f77a4d5-6561-4a39-a7aa-ff865e0e1f45"},"vehicle_type_id":"4","last_reported":1716044917,"current_range_meters":3200,"station_id":"ce4bh512rcd13ifvqe2g","pricing_plan_id":"cebpf4jnsgd1na2vs0mg"},{"bike_id":"caf53209-f2c8-4252-a456-9199aae3cd81","system_id":"levelo_inurba_marseille","lat":43.290995,"lon":5.381361,"is_reserved":false,"is_disabled":false,"rental_uris":{"android":"levelo://app?vid=caf53209-f2c8-4252-a456-9199aae3cd81","ios":"levelo://app?vid=caf53209-f2c8-4252-a456-9199aae3cd81"},"vehicle_type_id":"4","last_reported":1716044917,"current_range_meters":1600,"station_id":"ce4bh512rcd13ifvqe2g","pricing_plan_id":"cebpf4jnsgd1na2vs0mg"},{"bike_id":"ea81d48a-7ebd-45bd-a06c-9bbc16832fd9","system_id":"levelo_inurba_marseille","lat":43.290861,"lon":5.381356,"is_reserved":false,"is_disabled":false,"rental_uris":{"android":"levelo://app?vid=ea81d48a-7ebd-45bd-a06c-9bbc16832fd9","ios":"levelo://app?vid=ea81d48a-7ebd-45bd-a06c-9bbc16832fd9"},"vehicle_type_id":"4","last_reported":1716044917,"current_range_meters":400,"station_id":"ce4bh512rcd13ifvqe2g","pricing_plan_id":"cebpf4jnsgd1na2vs0mg"},{"bike_id":"9925adaa-e299-4066-bad9-5af67a14b2b1","system_id":"levelo_inurba_marseille","lat":43.290995,"lon":5.381361,"is_reserved":false,"is_disabled":false,"rental_uris":{"android":"levelo://app?vid=9925adaa-e299-4066-bad9-5af67a14b2b1","ios":"levelo://app?vid=9925adaa-e299-4066-bad9-5af67a14b2b1"},"vehicle_type_id":"4","last_reported":1716044917,"current_range_meters":1600,"station_id":"ce4bh512rcd13ifvqe2g","pricing_plan_id":"cebpf4jnsgd1na2vs0mg"},{"bike_id":"84888cb7-9c83-4e65-a41e-e4cf267f6c24","system_id":"levelo_inurba_marseille","lat":43.297815,"lon":5.393548,"is_reserved":false,"is_disabled":false,"rental_uris":{"android":"levelo://app?vid=84888cb7-9c83-4e65-a41e-e4cf267f6c24","ios":"levelo://app?vid=84888cb7-9c83-4e65-a41e-e4cf267f6c24"},"vehicle_type_id":"4","last_reported":1716044917,"current_range_meters":5200,"station_id":"chh1huq6cuj3fo74tm60","pricing_plan_id":"cebpf4jnsgd1na2vs0mg"},{"bike_id":"bb5e9155-dcfa-4ac5-81fc-e7f488cd7885","system_id":"levelo_inurba_marseille","lat":43.330442,"lon":5.389148,"is_reserved":false,"is_disabled":false,"rental_uris":{"android":"levelo://app?vid=bb5e9155-dcfa-4ac5-81fc-e7f488cd7885","ios":"levelo://app?vid=bb5e9155-dcfa-4ac5-81fc-e7f488cd7885"},"vehicle_type_id":"4","last_reported":1716044917,"current_range_meters":0,"station_id":"ce4bhr92rcd13ifvqhrg","pricing_plan_id":"cebpf4jnsgd1na2vs0mg"},{"bike_id":"afe358c8-89b8-48f4-979c-881344b1519a","system_id":"levelo_inurba_marseille","lat":43.330442,"lon":5.389148,"is_reserved":false,"is_disabled":false,"rental_uris":{"android":"levelo://app?vid=afe358c8-89b8-48f4-979c-881344b1519a","ios":"levelo://app?vid=afe358c8-89b8-48f4-979c-881344b1519a"},"vehicle_type_id":"4","last_reported":1716044917,"current_range_meters":28400,"station_id":"ce4bhr92rcd13ifvqhrg","pricing_plan_id":"cebpf4jnsgd1na2vs0mg"},{"bike_id":"e1ad7bbb-9f24-4289-9de8-93e15424e5a1","system_id":"levelo_inurba_marseille","lat":43.330442,"lon":5.389148,"is_reserved":false,"is_disabled":false,"rental_uris":{"android":"levelo://app?vid=e1ad7bbb-9f24-4289-9de8-93e15424e5a1","ios":"levelo://app?vid=e1ad7bbb-9f24-4289-9de8-93e15424e5a1"},"vehicle_type_id":"4","last_reported":1716044917,"current_range_meters":3600,"station_id":"ce4bhr92rcd13ifvqhrg","pricing_plan_id":"cebpf4jnsgd1na2vs0mg"},{"bike_id":"5360e05d-e751-43c8-9369-f102a8dafaa4","system_id":"levelo_inurba_marseille","lat":43.297815,"lon":5.393548,"is_reserved":false,"is_disabled":false,"rental_uris":{"android":"levelo://app?vid=5360e05d-e751-43c8-9369-f102a8dafaa4","ios":"levelo://app?vid=5360e05d-e751-43c8-9369-f102a8dafaa4"},"vehicle_type_id":"4","last_reported":1716044917,"current_range_meters":9200,"station_id":"chh1huq6cuj3fo74tm60","pricing_plan_id":"cebpf4jnsgd1na2vs0mg"},{"bike_id":"d278f38c-3ee0-4d1a-9dd5-8625dd9de837","system_id":"levelo_inurba_marseille","lat":43.295169,"lon":5.390426,"is_reserved":false,"is_disabled":false,"rental_uris":{"android":"levelo://app?vid=d278f38c-3ee0-4d1a-9dd5-8625dd9de837","ios":"levelo://app?vid=d278f38c-3ee0-4d1a-9dd5-8625dd9de837"},"vehicle_type_id":"4","last_reported":1716044917,"current_range_meters":27600,"station_id":"ce4bh3p2rcd13ifvqdp0","pricing_plan_id":"cebpf4jnsgd1na2vs0mg"},{"bike_id":"aa01dec2-694d-4964-b46a-1962836805bc","system_id":"levelo_inurba_marseille","lat":43.330442,"lon":5.389148,"is_reserved":false,"is_disabled":false,"rental_uris":{"android":"levelo://app?vid=aa01dec2-694d-4964-b46a-1962836805bc","ios":"levelo://app?vid=aa01dec2-694d-4964-b46a-1962836805bc"},"vehicle_type_id":"4","last_reported":1716044917,"current_range_meters":10400,"station_id":"ce4bhr92rcd13ifvqhrg","pricing_plan_id":"cebpf4jnsgd1na2vs0mg"},{"bike_id":"6325b447-57e4-459b-8b2f-e4011c42f457","system_id":"levelo_inurba_marseille","lat":43.289741,"lon":5.378306,"is_reserved":false,"is_disabled":false,"rental_uris":{"android":"levelo://app?vid=6325b447-57e4-459b-8b2f-e4011c42f457","ios":"levelo://app?vid=6325b447-57e4-459b-8b2f-e4011c42f457"},"vehicle_type_id":"4","last_reported":1716044917,"current_range_meters":400,"station_id":"ce4bh9p2rcd13ifvqed0","pricing_plan_id":"cebpf4jnsgd1na2vs0mg"},{"bike_id":"7f534d82-4220-4b1a-b9e1-4c74fe6ae4af","system_id":"levelo_inurba_marseille","lat":43.290351,"lon":5.381273,"is_reserved":false,"is_disabled":false,"rental_uris":{"android":"levelo://app?vid=7f534d82-4220-4b1a-b9e1-4c74fe6ae4af","ios":"levelo://app?vid=7f534d82-4220-4b1a-b9e1-4c74fe6ae4af"},"vehicle_type_id":"4","last_reported":1716044917,"current_range_meters":0,"station_id":"ce4bh4p2rcd13ifvqe1g","pricing_plan_id":"cebpf4jnsgd1na2vs0mg"},{"bike_id":"fa2c77a8-9a28-4148-8d3b-15f8d1ec6c25","system_id":"levelo_inurba_marseille","lat":43.290094,"lon":5.381264,"is_reserved":false,"is_disabled":false,"rental_uris":{"android":"levelo://app?vid=fa2c77a8-9a28-4148-8d3b-15f8d1ec6c25","ios":"levelo://app?vid=fa2c77a8-9a28-4148-8d3b-15f8d1ec6c25"},"vehicle_type_id":"4","last_reported":1716044917,"current_range_meters":24000,"station_id":"ce4bh4p2rcd13ifvqe1g","pricing_plan_id":"cebpf4jnsgd1na2vs0mg"},{"bike_id":"3caa6732-79a3-47e6-baf9-bb2519340fc5","system_id":"levelo_inurba_marseille","lat":43.29018,"lon":5.38125,"is_reserved":false,"is_disabled":false,"rental_uris":{"android":"levelo://app?vid=3caa6732-79a3-47e6-baf9-bb2519340fc5","ios":"levelo://app?vid=3caa6732-79a3-47e6-baf9-bb2519340fc5"},"vehicle_type_id":"4","last_reported":1716044917,"current_range_meters":0,"station_id":"ce4bh512rcd13ifvqe2g","pricing_plan_id":"cebpf4jnsgd1na2vs0mg"},{"bike_id":"52ca8372-347e-4a3f-8ebe-7dfb729d8fe7","system_id":"levelo_inurba_marseille","lat":43.28841,"lon":5.35841,"is_reserved":false,"is_disabled":false,"rental_uris":{"android":"levelo://app?vid=52ca8372-347e-4a3f-8ebe-7dfb729d8fe7","ios":"levelo://app?vid=52ca8372-347e-4a3f-8ebe-7dfb729d8fe7"},"vehicle_type_id":"4","last_reported":1716044917,"current_range_meters":0,"station_id":"ce4bhb12rcd13ifvqem0","pricing_plan_id":"cebpf4jnsgd1na2vs0mg"},{"bike_id":"4fa81c91-a39d-4160-93d7-b314e9fd0ee8","system_id":"levelo_inurba_marseille","lat":43.33745,"lon":5.37453,"is_reserved":false,"is_disabled":false,"rental_uris":{"android":"levelo://app?vid=4fa81c91-a39d-4160-93d7-b314e9fd0ee8","ios":"levelo://app?vid=4fa81c91-a39d-4160-93d7-b314e9fd0ee8"},"vehicle_type_id":"4","last_reported":1716044917,"current_range_meters":13200,"station_id":"","pricing_plan_id":"cebpf4jnsgd1na2vs0mg"},{"bike_id":"e2bf55d4-46b3-4cfe-bde5-76056d3bec3d","system_id":"levelo_inurba_marseille","lat":43.309371,"lon":5.401449,"is_reserved":false,"is_disabled":false,"rental_uris":{"android":"levelo://app?vid=e2bf55d4-46b3-4cfe-bde5-76056d3bec3d","ios":"levelo://app?vid=e2bf55d4-46b3-4cfe-bde5-76056d3bec3d"},"vehicle_type_id":"4","last_reported":1716044917,"current_range_meters":5200,"station_id":"ce4bgvp2rcd13ifvqct0","pricing_plan_id":"cebpf4jnsgd1na2vs0mg"},{"bike_id":"9d82c127-4742-4065-bb63-06165d9487ab","system_id":"levelo_inurba_marseille","lat":43.309362,"lon":5.401467,"is_reserved":false,"is_disabled":false,"rental_uris":{"android":"levelo://app?vid=9d82c127-4742-4065-bb63-06165d9487ab","ios":"levelo://app?vid=9d82c127-4742-4065-bb63-06165d9487ab"},"vehicle_type_id":"4","last_reported":1716044917,"current_range_meters":0,"station_id":"ce4bgvp2rcd13ifvqct0","pricing_plan_id":"cebpf4jnsgd1na2vs0mg"},{"bike_id":"8fc6ebe8-68ab-4991-9aa7-185ef6592e71","system_id":"levelo_inurba_marseille","lat":43.337568,"lon":5.37449,"is_reserved":false,"is_disabled":false,"rental_uris":{"android":"levelo://app?vid=8fc6ebe8-68ab-4991-9aa7-185ef6592e71","ios":"levelo://app?vid=8fc6ebe8-68ab-4991-9aa7-185ef6592e71"},"vehicle_type_id":"4","last_reported":1716044917,"current_range_meters":11600,"station_id":"","pricing_plan_id":"cebpf4jnsgd1na2vs0mg"},{"bike_id":"91d9714b-b35f-47ce-8f34-022bf351236f","system_id":"levelo_inurba_marseille","lat":43.337642,"lon":5.374393,"is_reserved":false,"is_disabled":false,"rental_uris":{"android":"levelo://app?vid=91d9714b-b35f-47ce-8f34-022bf351236f","ios":"levelo://app?vid=91d9714b-b35f-47ce-8f34-022bf351236f"},"vehicle_type_id":"4","last_reported":1716044917,"current_range_meters":20800,"station_id":"","pricing_plan_id":"cebpf4jnsgd1na2vs0mg"},{"bike_id":"e59d8796-ad3e-41ff-a09b-121169ca18e9","system_id":"levelo_inurba_marseille","lat":43.3378,"lon":5.37409,"is_reserved":false,"is_disabled":false,"rental_uris":{"android":"levelo://app?vid=e59d8796-ad3e-41ff-a09b-121169ca18e9","ios":"levelo://app?vid=e59d8796-ad3e-41ff-a09b-121169ca18e9"},"vehicle_type_id":"4","last_reported":1716044917,"current_range_meters":17200,"station_id":"","pricing_plan_id":"cebpf4jnsgd1na2vs0mg"},{"bike_id":"c14090e2-a8d1-4ddf-9bf8-1f4771605d34","system_id":"levelo_inurba_marseille","lat":43.301117,"lon":5.398795,"is_reserved":false,"is_disabled":false,"rental_uris":{"android":"levelo://app?vid=c14090e2-a8d1-4ddf-9bf8-1f4771605d34","ios":"levelo://app?vid=c14090e2-a8d1-4ddf-9bf8-1f4771605d34"},"vehicle_type_id":"4","last_reported":1716044917,"current_range_meters":11200,"station_id":"ce4bh0h2rcd13ifvqd40","pricing_plan_id":"cebpf4jnsgd1na2vs0mg"},{"bike_id":"72228019-9b86-4b06-84e4-df6caf5be918","system_id":"levelo_inurba_marseille","lat":43.30121,"lon":5.39857,"is_reserved":false,"is_disabled":false,"rental_uris":{"android":"levelo://app?vid=72228019-9b86-4b06-84e4-df6caf5be918","ios":"levelo://app?vid=72228019-9b86-4b06-84e4-df6caf5be918"},"vehicle_type_id":"4","last_reported":1716044917,"current_range_meters":0,"station_id":"ce4bh0h2rcd13ifvqd40","pricing_plan_id":"cebpf4jnsgd1na2vs0mg"},{"bike_id":"91e2e20c-3c3f-4bdc-889f-022fe2f01f9a","system_id":"levelo_inurba_marseille","lat":43.286961,"lon":5.373785,"is_reserved":false,"is_disabled":false,"rental_uris":{"android":"levelo://app?vid=91e2e20c-3c3f-4bdc-889f-022fe2f01f9a","ios":"levelo://app?vid=91e2e20c-3c3f-4bdc-889f-022fe2f01f9a"},"vehicle_type_id":"4","last_reported":1716044917,"current_range_meters":0,"station_id":"ce4bh3p2rcd13ifvqdq0","pricing_plan_id":"cebpf4jnsgd1na2vs0mg"},{"bike_id":"25e93884-9ea6-4d6b-a461-b173721ef578","system_id":"levelo_inurba_marseille","lat":43.286591,"lon":5.363346,"is_reserved":false,"is_disabled":false,"rental_uris":{"android":"levelo://app?vid=25e93884-9ea6-4d6b-a461-b173721ef578","ios":"levelo://app?vid=25e93884-9ea6-4d6b-a461-b173721ef578"},"vehicle_type_id":"4","last_reported":1716044917,"current_range_meters":10400,"station_id":"ce4bhah2rcd13ifvqej0","pricing_plan_id":"cebpf4jnsgd1na2vs0mg"},{"bike_id":"c906de13-a7a4-4336-b512-571f38210b38","system_id":"levelo_inurba_marseille","lat":43.286961,"lon":5.373785,"is_reserved":false,"is_disabled":false,"rental_uris":{"android":"levelo://app?vid=c906de13-a7a4-4336-b512-571f38210b38","ios":"levelo://app?vid=c906de13-a7a4-4336-b512-571f38210b38"},"vehicle_type_id":"4","last_reported":1716044917,"current_range_meters":6000,"station_id":"ce4bh3p2rcd13ifvqdq0","pricing_plan_id":"cebpf4jnsgd1na2vs0mg"},{"bike_id":"1dd41867-a18d-43b5-9f83-ebc6b3d068c2","system_id":"levelo_inurba_marseille","lat":43.286961,"lon":5.373785,"is_reserved":false,"is_disabled":false,"rental_uris":{"android":"levelo://app?vid=1dd41867-a18d-43b5-9f83-ebc6b3d068c2","ios":"levelo://app?vid=1dd41867-a18d-43b5-9f83-ebc6b3d068c2"},"vehicle_type_id":"4","last_reported":1716044917,"current_range_meters":15200,"station_id":"ce4bh3p2rcd13ifvqdq0","pricing_plan_id":"cebpf4jnsgd1na2vs0mg"},{"bike_id":"d4aa528d-5ab9-4ad4-9498-07c9be9513df","system_id":"levelo_inurba_marseille","lat":43.286593,"lon":5.363346,"is_reserved":false,"is_disabled":false,"rental_uris":{"android":"levelo://app?vid=d4aa528d-5ab9-4ad4-9498-07c9be9513df","ios":"levelo://app?vid=d4aa528d-5ab9-4ad4-9498-07c9be9513df"},"vehicle_type_id":"4","last_reported":1716044917,"current_range_meters":4400,"station_id":"ce4bhah2rcd13ifvqej0","pricing_plan_id":"cebpf4jnsgd1na2vs0mg"},{"bike_id":"d0b5951b-5ec0-4504-b468-2cf3eb91a3a9","system_id":"levelo_inurba_marseille","lat":43.286961,"lon":5.373785,"is_reserved":false,"is_disabled":false,"rental_uris":{"android":"levelo://app?vid=d0b5951b-5ec0-4504-b468-2cf3eb91a3a9","ios":"levelo://app?vid=d0b5951b-5ec0-4504-b468-2cf3eb91a3a9"},"vehicle_type_id":"4","last_reported":1716044917,"current_range_meters":16800,"station_id":"ce4bh3p2rcd13ifvqdq0","pricing_plan_id":"cebpf4jnsgd1na2vs0mg"},{"bike_id":"904c1fd4-0fa2-4c95-818a-bd3855ae2f20","system_id":"levelo_inurba_marseille","lat":43.286593,"lon":5.363346,"is_reserved":false,"is_disabled":false,"rental_uris":{"android":"levelo://app?vid=904c1fd4-0fa2-4c95-818a-bd3855ae2f20","ios":"levelo://app?vid=904c1fd4-0fa2-4c95-818a-bd3855ae2f20"},"vehicle_type_id":"4","last_reported":1716044917,"current_range_meters":0,"station_id":"ce4bhah2rcd13ifvqej0","pricing_plan_id":"cebpf4jnsgd1na2vs0mg"},{"bike_id":"26991d3c-06be-45bf-a08a-cf8e06c93218","system_id":"levelo_inurba_marseille","lat":43.295196,"lon":5.39397,"is_reserved":false,"is_disabled":false,"rental_uris":{"android":"levelo://app?vid=26991d3c-06be-45bf-a08a-cf8e06c93218","ios":"levelo://app?vid=26991d3c-06be-45bf-a08a-cf8e06c93218"},"vehicle_type_id":"4","last_reported":1716044917,"current_range_meters":3200,"station_id":"ce4bh292rcd13ifvqdf0","pricing_plan_id":"cebpf4jnsgd1na2vs0mg"},{"bike_id":"cccf856b-3d06-40ae-8959-ae0cf2551b1d","system_id":"levelo_inurba_marseille","lat":43.29029,"lon":5.38646,"is_reserved":false,"is_disabled":false,"rental_uris":{"android":"levelo://app?vid=cccf856b-3d06-40ae-8959-ae0cf2551b1d","ios":"levelo://app?vid=cccf856b-3d06-40ae-8959-ae0cf2551b1d"},"vehicle_type_id":"4","last_reported":1716044917,"current_range_meters":0,"station_id":"ce4bh4p2rcd13ifvqe0g","pricing_plan_id":"cebpf4jnsgd1na2vs0mg"},{"bike_id":"e6a5b211-f430-4501-bfc7-1a31b787def3","system_id":"levelo_inurba_marseille","lat":43.302759,"lon":5.400793,"is_reserved":false,"is_disabled":false,"rental_uris":{"android":"levelo://app?vid=e6a5b211-f430-4501-bfc7-1a31b787def3","ios":"levelo://app?vid=e6a5b211-f430-4501-bfc7-1a31b787def3"},"vehicle_type_id":"4","last_reported":1716044917,"current_range_meters":400,"station_id":"ce4bgvh2rcd13ifvqcs0","pricing_plan_id":"cebpf4jnsgd1na2vs0mg"},{"bike_id":"e9e7b524-be35-41b1-a69d-b833d3fb6bc7","system_id":"levelo_inurba_marseille","lat":43.28918,"lon":5.38398,"is_reserved":false,"is_disabled":false,"rental_uris":{"android":"levelo://app?vid=e9e7b524-be35-41b1-a69d-b833d3fb6bc7","ios":"levelo://app?vid=e9e7b524-be35-41b1-a69d-b833d3fb6bc7"},"vehicle_type_id":"4","last_reported":1716044917,"current_range_meters":0,"station_id":"ce4bh612rcd13ifvqe6g","pricing_plan_id":"cebpf4jnsgd1na2vs0mg"},{"bike_id":"fff18b5a-5f66-4af7-84f8-a4f8b0c55da4","system_id":"levelo_inurba_marseille","lat":43.284534,"lon":5.358662,"is_reserved":false,"is_disabled":false,"rental_uris":{"android":"levelo://app?vid=fff18b5a-5f66-4af7-84f8-a4f8b0c55da4","ios":"levelo://app?vid=fff18b5a-5f66-4af7-84f8-a4f8b0c55da4"},"vehicle_type_id":"4","last_reported":1716044917,"current_range_meters":5200,"station_id":"ce4bhah2rcd13ifvqei0","pricing_plan_id":"cebpf4jnsgd1na2vs0mg"},{"bike_id":"14c85672-99f1-41ae-b411-50b1001de1fe","system_id":"levelo_inurba_marseille","lat":43.286039,"lon":5.370681,"is_reserved":false,"is_disabled":false,"rental_uris":{"android":"levelo://app?vid=14c85672-99f1-41ae-b411-50b1001de1fe","ios":"levelo://app?vid=14c85672-99f1-41ae-b411-50b1001de1fe"},"vehicle_type_id":"4","last_reported":1716044917,"current_range_meters":0,"station_id":"ce4bht12rcd13ifvqi60","pricing_plan_id":"cebpf4jnsgd1na2vs0mg"},{"bike_id":"a401c36e-d1a1-4328-aa5b-65d260be015b","system_id":"levelo_inurba_marseille","lat":43.286039,"lon":5.370681,"is_reserved":false,"is_disabled":false,"rental_uris":{"android":"levelo://app?vid=a401c36e-d1a1-4328-aa5b-65d260be015b","ios":"levelo://app?vid=a401c36e-d1a1-4328-aa5b-65d260be015b"},"vehicle_type_id":"4","last_reported":1716044917,"current_range_meters":0,"station_id":"ce4bht12rcd13ifvqi60","pricing_plan_id":"cebpf4jnsgd1na2vs0mg"},{"bike_id":"9369f64a-ea07-48ea-909b-2e9de4d7415f","system_id":"levelo_inurba_marseille","lat":43.2872,"lon":5.37943,"is_reserved":false,"is_disabled":false,"rental_uris":{"android":"levelo://app?vid=9369f64a-ea07-48ea-909b-2e9de4d7415f","ios":"levelo://app?vid=9369f64a-ea07-48ea-909b-2e9de4d7415f"},"vehicle_type_id":"4","last_reported":1716044917,"current_range_meters":3600,"station_id":"","pricing_plan_id":"cebpf4jnsgd1na2vs0mg"},{"bike_id":"d0ad3dd2-aaa0-4ec1-b4b4-39c2843681ae","system_id":"levelo_inurba_marseille","lat":43.287184,"lon":5.37937,"is_reserved":false,"is_disabled":false,"rental_uris":{"android":"levelo://app?vid=d0ad3dd2-aaa0-4ec1-b4b4-39c2843681ae","ios":"levelo://app?vid=d0ad3dd2-aaa0-4ec1-b4b4-39c2843681ae"},"vehicle_type_id":"4","last_reported":1716044917,"current_range_meters":12400,"station_id":"ce4bh9p2rcd13ifvqec0","pricing_plan_id":"cebpf4jnsgd1na2vs0mg"},{"bike_id":"50722b0f-6636-4f3a-b828-1e3ea8c1adaa","system_id":"levelo_inurba_marseille","lat":43.303242,"lon":5.402674,"is_reserved":false,"is_disabled":false,"rental_uris":{"android":"levelo://app?vid=50722b0f-6636-4f3a-b828-1e3ea8c1adaa","ios":"levelo://app?vid=50722b0f-6636-4f3a-b828-1e3ea8c1adaa"},"vehicle_type_id":"4","last_reported":1716044917,"current_range_meters":16800,"station_id":"","pricing_plan_id":"cebpf4jnsgd1na2vs0mg"},{"bike_id":"dc83b74f-be3c-4883-8f78-e58aaf3344fc","system_id":"levelo_inurba_marseille","lat":43.316828,"lon":5.404723,"is_reserved":false,"is_disabled":false,"rental_uris":{"android":"levelo://app?vid=dc83b74f-be3c-4883-8f78-e58aaf3344fc","ios":"levelo://app?vid=dc83b74f-be3c-4883-8f78-e58aaf3344fc"},"vehicle_type_id":"4","last_reported":1716044917,"current_range_meters":3200,"station_id":"ce4bh012rcd13ifvqd00","pricing_plan_id":"cebpf4jnsgd1na2vs0mg"},{"bike_id":"46cab789-ae3d-4aa4-b590-97a9d4e4037d","system_id":"levelo_inurba_marseille","lat":43.287082,"lon":5.351905,"is_reserved":false,"is_disabled":false,"rental_uris":{"android":"levelo://app?vid=46cab789-ae3d-4aa4-b590-97a9d4e4037d","ios":"levelo://app?vid=46cab789-ae3d-4aa4-b590-97a9d4e4037d"},"vehicle_type_id":"4","last_reported":1716044917,"current_range_meters":8400,"station_id":"","pricing_plan_id":"cebpf4jnsgd1na2vs0mg"},{"bike_id":"ed534e0c-c037-457c-b27e-9526e3a2793b","system_id":"levelo_inurba_marseille","lat":43.291994,"lon":5.392907,"is_reserved":false,"is_disabled":false,"rental_uris":{"android":"levelo://app?vid=ed534e0c-c037-457c-b27e-9526e3a2793b","ios":"levelo://app?vid=ed534e0c-c037-457c-b27e-9526e3a2793b"},"vehicle_type_id":"4","last_reported":1716044917,"current_range_meters":6000,"station_id":"ce4bh192rcd13ifvqdd0","pricing_plan_id":"cebpf4jnsgd1na2vs0mg"},{"bike_id":"84476fdc-3b05-4ea5-ab6e-efb6a2775d8e","system_id":"levelo_inurba_marseille","lat":43.291994,"lon":5.392907,"is_reserved":false,"is_disabled":false,"rental_uris":{"android":"levelo://app?vid=84476fdc-3b05-4ea5-ab6e-efb6a2775d8e","ios":"levelo://app?vid=84476fdc-3b05-4ea5-ab6e-efb6a2775d8e"},"vehicle_type_id":"4","last_reported":1716044917,"current_range_meters":25200,"station_id":"ce4bh192rcd13ifvqdd0","pricing_plan_id":"cebpf4jnsgd1na2vs0mg"},{"bike_id":"2b7d987d-abde-4d9e-a232-f23eb0a27cee","system_id":"levelo_inurba_marseille","lat":43.284534,"lon":5.358662,"is_reserved":false,"is_disabled":false,"rental_uris":{"android":"levelo://app?vid=2b7d987d-abde-4d9e-a232-f23eb0a27cee","ios":"levelo://app?vid=2b7d987d-abde-4d9e-a232-f23eb0a27cee"},"vehicle_type_id":"4","last_reported":1716044917,"current_range_meters":6000,"station_id":"ce4bhah2rcd13ifvqei0","pricing_plan_id":"cebpf4jnsgd1na2vs0mg"},{"bike_id":"7ba1b34e-f10a-4c0b-927e-d4b3c9e5a04f","system_id":"levelo_inurba_marseille","lat":43.286491,"lon":5.351326,"is_reserved":false,"is_disabled":false,"rental_uris":{"android":"levelo://app?vid=7ba1b34e-f10a-4c0b-927e-d4b3c9e5a04f","ios":"levelo://app?vid=7ba1b34e-f10a-4c0b-927e-d4b3c9e5a04f"},"vehicle_type_id":"4","last_reported":1716044917,"current_range_meters":19200,"station_id":"ce4bhch2rcd13ifvqeug","pricing_plan_id":"cebpf4jnsgd1na2vs0mg"},{"bike_id":"a984553d-10dc-4a15-9a94-630e292fb8f1","system_id":"levelo_inurba_marseille","lat":43.284534,"lon":5.358662,"is_reserved":false,"is_disabled":false,"rental_uris":{"android":"levelo://app?vid=a984553d-10dc-4a15-9a94-630e292fb8f1","ios":"levelo://app?vid=a984553d-10dc-4a15-9a94-630e292fb8f1"},"vehicle_type_id":"4","last_reported":1716044917,"current_range_meters":20400,"station_id":"ce4bhah2rcd13ifvqei0","pricing_plan_id":"cebpf4jnsgd1na2vs0mg"},{"bike_id":"7cc6d533-41b8-4584-ad37-1adc7cb427cb","system_id":"levelo_inurba_marseille","lat":43.284538,"lon":5.358657,"is_reserved":false,"is_disabled":false,"rental_uris":{"android":"levelo://app?vid=7cc6d533-41b8-4584-ad37-1adc7cb427cb","ios":"levelo://app?vid=7cc6d533-41b8-4584-ad37-1adc7cb427cb"},"vehicle_type_id":"4","last_reported":1716044917,"current_range_meters":29200,"station_id":"ce4bhah2rcd13ifvqei0","pricing_plan_id":"cebpf4jnsgd1na2vs0mg"},{"bike_id":"7010f6c7-243f-423d-9fcd-cc8b7ff1062e","system_id":"levelo_inurba_marseille","lat":43.284538,"lon":5.358657,"is_reserved":false,"is_disabled":false,"rental_uris":{"android":"levelo://app?vid=7010f6c7-243f-423d-9fcd-cc8b7ff1062e","ios":"levelo://app?vid=7010f6c7-243f-423d-9fcd-cc8b7ff1062e"},"vehicle_type_id":"4","last_reported":1716044917,"current_range_meters":10800,"station_id":"ce4bhah2rcd13ifvqei0","pricing_plan_id":"cebpf4jnsgd1na2vs0mg"},{"bike_id":"7c6a5d7e-d240-445c-b225-ab95de76d769","system_id":"levelo_inurba_marseille","lat":43.284538,"lon":5.358657,"is_reserved":false,"is_disabled":false,"rental_uris":{"android":"levelo://app?vid=7c6a5d7e-d240-445c-b225-ab95de76d769","ios":"levelo://app?vid=7c6a5d7e-d240-445c-b225-ab95de76d769"},"vehicle_type_id":"4","last_reported":1716044917,"current_range_meters":17600,"station_id":"ce4bhah2rcd13ifvqei0","pricing_plan_id":"cebpf4jnsgd1na2vs0mg"},{"bike_id":"175439ae-fe6c-49a1-ac71-c56f60a0fdc6","system_id":"levelo_inurba_marseille","lat":43.284538,"lon":5.358657,"is_reserved":false,"is_disabled":false,"rental_uris":{"android":"levelo://app?vid=175439ae-fe6c-49a1-ac71-c56f60a0fdc6","ios":"levelo://app?vid=175439ae-fe6c-49a1-ac71-c56f60a0fdc6"},"vehicle_type_id":"4","last_reported":1716044917,"current_range_meters":800,"station_id":"ce4bhah2rcd13ifvqei0","pricing_plan_id":"cebpf4jnsgd1na2vs0mg"},{"bike_id":"c3295b1f-b401-4665-a192-649550632166","system_id":"levelo_inurba_marseille","lat":43.284534,"lon":5.358662,"is_reserved":false,"is_disabled":false,"rental_uris":{"android":"levelo://app?vid=c3295b1f-b401-4665-a192-649550632166","ios":"levelo://app?vid=c3295b1f-b401-4665-a192-649550632166"},"vehicle_type_id":"4","last_reported":1716044917,"current_range_meters":0,"station_id":"ce4bhah2rcd13ifvqei0","pricing_plan_id":"cebpf4jnsgd1na2vs0mg"},{"bike_id":"9b8af775-4b15-4960-9abd-70176048287c","system_id":"levelo_inurba_marseille","lat":43.284538,"lon":5.358657,"is_reserved":false,"is_disabled":false,"rental_uris":{"android":"levelo://app?vid=9b8af775-4b15-4960-9abd-70176048287c","ios":"levelo://app?vid=9b8af775-4b15-4960-9abd-70176048287c"},"vehicle_type_id":"4","last_reported":1716044917,"current_range_meters":0,"station_id":"ce4bhah2rcd13ifvqei0","pricing_plan_id":"cebpf4jnsgd1na2vs0mg"},{"bike_id":"12fae43f-67a8-4bf1-8e57-bc6f1f79f48c","system_id":"levelo_inurba_marseille","lat":43.284538,"lon":5.358657,"is_reserved":false,"is_disabled":false,"rental_uris":{"android":"levelo://app?vid=12fae43f-67a8-4bf1-8e57-bc6f1f79f48c","ios":"levelo://app?vid=12fae43f-67a8-4bf1-8e57-bc6f1f79f48c"},"vehicle_type_id":"4","last_reported":1716044917,"current_range_meters":24400,"station_id":"ce4bhah2rcd13ifvqei0","pricing_plan_id":"cebpf4jnsgd1na2vs0mg"},{"bike_id":"84a013d1-eba3-4aee-a80e-0248bc8b16c1","system_id":"levelo_inurba_marseille","lat":43.284534,"lon":5.358662,"is_reserved":false,"is_disabled":false,"rental_uris":{"android":"levelo://app?vid=84a013d1-eba3-4aee-a80e-0248bc8b16c1","ios":"levelo://app?vid=84a013d1-eba3-4aee-a80e-0248bc8b16c1"},"vehicle_type_id":"4","last_reported":1716044917,"current_range_meters":12800,"station_id":"ce4bhah2rcd13ifvqei0","pricing_plan_id":"cebpf4jnsgd1na2vs0mg"},{"bike_id":"15e0cb89-e2fe-4940-9ce8-ac0bd6a5f673","system_id":"levelo_inurba_marseille","lat":43.284538,"lon":5.358657,"is_reserved":false,"is_disabled":false,"rental_uris":{"android":"levelo://app?vid=15e0cb89-e2fe-4940-9ce8-ac0bd6a5f673","ios":"levelo://app?vid=15e0cb89-e2fe-4940-9ce8-ac0bd6a5f673"},"vehicle_type_id":"4","last_reported":1716044917,"current_range_meters":7600,"station_id":"ce4bhah2rcd13ifvqei0","pricing_plan_id":"cebpf4jnsgd1na2vs0mg"},{"bike_id":"7338de27-524b-4aa5-a4ad-2a7c20cfef52","system_id":"levelo_inurba_marseille","lat":43.284534,"lon":5.358662,"is_reserved":false,"is_disabled":false,"rental_uris":{"android":"levelo://app?vid=7338de27-524b-4aa5-a4ad-2a7c20cfef52","ios":"levelo://app?vid=7338de27-524b-4aa5-a4ad-2a7c20cfef52"},"vehicle_type_id":"4","last_reported":1716044917,"current_range_meters":10800,"station_id":"ce4bhah2rcd13ifvqei0","pricing_plan_id":"cebpf4jnsgd1na2vs0mg"},{"bike_id":"764d2c91-e46d-4095-ac86-e2f2b628e8f4","system_id":"levelo_inurba_marseille","lat":43.284534,"lon":5.358662,"is_reserved":false,"is_disabled":false,"rental_uris":{"android":"levelo://app?vid=764d2c91-e46d-4095-ac86-e2f2b628e8f4","ios":"levelo://app?vid=764d2c91-e46d-4095-ac86-e2f2b628e8f4"},"vehicle_type_id":"4","last_reported":1716044917,"current_range_meters":8400,"station_id":"ce4bhah2rcd13ifvqei0","pricing_plan_id":"cebpf4jnsgd1na2vs0mg"},{"bike_id":"ca6969df-be7d-495d-967b-7b4ecc977f4d","system_id":"levelo_inurba_marseille","lat":43.284538,"lon":5.358657,"is_reserved":false,"is_disabled":false,"rental_uris":{"android":"levelo://app?vid=ca6969df-be7d-495d-967b-7b4ecc977f4d","ios":"levelo://app?vid=ca6969df-be7d-495d-967b-7b4ecc977f4d"},"vehicle_type_id":"4","last_reported":1716044917,"current_range_meters":19600,"station_id":"ce4bhah2rcd13ifvqei0","pricing_plan_id":"cebpf4jnsgd1na2vs0mg"},{"bike_id":"c1a887ea-0c9e-4355-8a0d-394d822caba3","system_id":"levelo_inurba_marseille","lat":43.284534,"lon":5.358662,"is_reserved":false,"is_disabled":false,"rental_uris":{"android":"levelo://app?vid=c1a887ea-0c9e-4355-8a0d-394d822caba3","ios":"levelo://app?vid=c1a887ea-0c9e-4355-8a0d-394d822caba3"},"vehicle_type_id":"4","last_reported":1716044917,"current_range_meters":8400,"station_id":"ce4bhah2rcd13ifvqei0","pricing_plan_id":"cebpf4jnsgd1na2vs0mg"},{"bike_id":"66426fc4-6609-423d-9cfc-88e9f216142b","system_id":"levelo_inurba_marseille","lat":43.28625,"lon":5.35103,"is_reserved":false,"is_disabled":false,"rental_uris":{"android":"levelo://app?vid=66426fc4-6609-423d-9cfc-88e9f216142b","ios":"levelo://app?vid=66426fc4-6609-423d-9cfc-88e9f216142b"},"vehicle_type_id":"4","last_reported":1716044917,"current_range_meters":1200,"station_id":"ce4bhch2rcd13ifvqeug","pricing_plan_id":"cebpf4jnsgd1na2vs0mg"},{"bike_id":"2cb99353-df25-4e97-8f3d-167322af5811","system_id":"levelo_inurba_marseille","lat":43.28621,"lon":5.35102,"is_reserved":false,"is_disabled":false,"rental_uris":{"android":"levelo://app?vid=2cb99353-df25-4e97-8f3d-167322af5811","ios":"levelo://app?vid=2cb99353-df25-4e97-8f3d-167322af5811"},"vehicle_type_id":"4","last_reported":1716044917,"current_range_meters":0,"station_id":"ce4bhch2rcd13ifvqeug","pricing_plan_id":"cebpf4jnsgd1na2vs0mg"},