{"last_updated":1729624111,"ttl":60,"version":"2.2","data":{"bikes":[{"bike_id":"ea7d3ab6-ee1e-4076-8da7-882f636f6010","system_id":"levelo_inurba_marseille","lat":43.28349,"lon":5.38631,"is_reserved":false,"is_disabled":false,"rental_uris":{"android":"levelo://app?vid=ea7d3ab6-ee1e-4076-8da7-882f636f6010","ios":"levelo://app?vid=ea7d3ab6-ee1e-4076-8da7-882f636f6010"},"vehicle_type_id":"4","last_reported":1729624111,"current_range_meters":36800,"station_id":"ce4bh492rcd13ifvqdvg","pricing_plan_id":"cebpf4jnsgd1na2vs0mg"},{"bike_id":"f94fab34-b972-4784-b079-71558966e9cc","system_id":"levelo_inurba_marseille","lat":43.29903,"lon":5.43665,"is_reserved":false,"is_disabled":false,"rental_uris":{"android":"levelo://app?vid=f94fab34-b972-4784-b079-71558966e9cc","ios":"levelo://app?vid=f94fab34-b972-4784-b079-71558966e9cc"},"vehicle_type_id":"4","last_reported":1729624111,"current_range_meters":23200,"station_id":"ce4bhpp2rcd13ifvqhfg","pricing_plan_id":"cebpf4jnsgd1na2vs0mg"},{"bike_id":"5cf52cb7-967a-44b0-ab40-cbf661e9416d","system_id":"levelo_inurba_marseille","lat":43.24804,"lon":5.37458,"is_reserved":false,"is_disabled":false,"rental_uris":{"android":"levelo://app?vid=5cf52cb7-967a-44b0-ab40-cbf661e9416d","ios":"levelo://app?vid=5cf52cb7-967a-44b0-ab40-cbf661e9416d"},"vehicle_type_id":"4","last_reported":1729624111,"current_range_meters":39200,"station_id":"ce4bhgh2rcd13ifvqfb0","pricing_plan_id":"cebpf4jnsgd1na2vs0mg"},{"bike_id":"d8b08a95-af94-4c33-b50a-92aa2ca105da","system_id":"levelo_inurba_marseille","lat":43.29005,"lon":5.35606,"is_reserved":false,"is_disabled":false,"rental_uris":{"android":"levelo://app?vid=d8b08a95-af94-4c33-b50a-92aa2ca105da","ios":"levelo://app?vid=d8b08a95-af94-4c33-b50a-92aa2ca105da"},"vehicle_type_id":"4","last_reported":1729624111,"current_range_meters":12800,"station_id":"ce4bhb92rcd13ifvqen0","pricing_plan_id":"cebpf4jnsgd1na2vs0mg"},{"bike_id":"41ab3696-02ce-40e3-9010-f5bd25cf919e","system_id":"levelo_inurba_marseille","lat":43.29523,"lon":5.38546,"is_reserved":false,"is_disabled":false,"rental_uris":{"android":"levelo://app?vid=41ab3696-02ce-40e3-9010-f5bd25cf919e","ios":"levelo://app?vid=41ab3696-02ce-40e3-9010-f5bd25cf919e"},"vehicle_type_id":"4","last_reported":1729624111,"current_range_meters":38800,"station_id":"ce4bgih2rcd13ifvqba0","pricing_plan_id":"cebpf4jnsgd1na2vs0mg"},{"bike_id":"003d48c2-0961-4a1b-82b4-2a990e6b6612","system_id":"levelo_inurba_marseille","lat":43.28457,"lon":5.35894,"is_reserved":false,"is_disabled":false,"rental_uris":{"android":"levelo://app?vid=003d48c2-0961-4a1b-82b4-2a990e6b6612","ios":"levelo://app?vid=003d48c2-0961-4a1b-82b4-2a990e6b6612"},"vehicle_type_id":"4","last_reported":1729624111,"current_range_meters":20400,"station_id":"ce4bhah2rcd13ifvqei0","pricing_plan_id":"cebpf4jnsgd1na2vs0mg"},{"bike_id":"ce22f026-e7de-484f-85a5-36e5c4fc377f","system_id":"levelo_inurba_marseille","lat":43.24079,"lon":5.37747,"is_reserved":false,"is_disabled":false,"rental_uris":{"android":"levelo://app?vid=ce22f026-e7de-484f-85a5-36e5c4fc377f","ios":"levelo://app?vid=ce22f026-e7de-484f-85a5-36e5c4fc377f"},"vehicle_type_id":"4","last_reported":1729624111,"current_range_meters":26000,"station_id":"ce4bhnp2rcd13ifvqgvg","pricing_plan_id":"cebpf4jnsgd1na2vs0mg"},{"bike_id":"f959c94a-3644-4ed9-b7ed-65e914e837b3","system_id":"levelo_inurba_marseille","lat":43.31327,"lon":5.3969,"is_reserved":false,"is_disabled":false,"rental_uris":{"android":"levelo://app?vid=f959c94a-3644-4ed9-b7ed-65e914e837b3","ios":"levelo://app?vid=f959c94a-3644-4ed9-b7ed-65e914e837b3"},"vehicle_type_id":"4","last_reported":1729624111,"current_range_meters":25600,"station_id":"ce4bgvp2rcd13ifvqcu0","pricing_plan_id":"cebpf4jnsgd1na2vs0mg"},{"bike_id":"b03294c8-9cb7-4473-a06d-d3d5618a8319","system_id":"levelo_inurba_marseille","lat":43.28074,"lon":5.39653,"is_reserved":false,"is_disabled":false,"rental_uris":{"android":"levelo://app?vid=b03294c8-9cb7-4473-a06d-d3d5618a8319","ios":"levelo://app?vid=b03294c8-9cb7-4473-a06d-d3d5618a8319"},"vehicle_type_id":"4","last_reported":1729624111,"current_range_meters":15200,"station_id":"ce4bho12rcd13ifvqh2g","pricing_plan_id":"cebpf4jnsgd1na2vs0mg"},{"bike_id":"5de93826-ef8a-436a-8cfc-b11daa5c74cd","system_id":"levelo_inurba_marseille","lat":43.3013,"lon":5.38784,"is_reserved":false,"is_disabled":false,"rental_uris":{"android":"levelo://app?vid=5de93826-ef8a-436a-8cfc-b11daa5c74cd","ios":"levelo://app?vid=5de93826-ef8a-436a-8cfc-b11daa5c74cd"},"vehicle_type_id":"4","last_reported":1729624111,"current_range_meters":26000,"station_id":"ce4bghh2rcd13ifvqb60","pricing_plan_id":"cebpf4jnsgd1na2vs0mg"},{"bike_id":"3a8f12c4-9896-4bf0-a837-54e779b864cc","system_id":"levelo_inurba_marseille","lat":43.2957,"lon":5.375,"is_reserved":false,"is_disabled":false,"rental_uris":{"android":"levelo://app?vid=3a8f12c4-9896-4bf0-a837-54e779b864cc","ios":"levelo://app?vid=3a8f12c4-9896-4bf0-a837-54e779b864cc"},"vehicle_type_id":"4","last_reported":1729624111,"current_range_meters":35600,"station_id":"ce4bgh92rcd13ifvqb50","pricing_plan_id":"cebpf4jnsgd1na2vs0mg"},{"bike_id":"81ff30c8-cb64-4468-a7f3-7397fc601599","system_id":"levelo_inurba_marseille","lat":43.29792,"lon":5.40397,"is_reserved":false,"is_disabled":false,"rental_uris":{"android":"levelo://app?vid=81ff30c8-cb64-4468-a7f3-7397fc601599","ios":"levelo://app?vid=81ff30c8-cb64-4468-a7f3-7397fc601599"},"vehicle_type_id":"4","last_reported":1729624111,"current_range_meters":27600,"station_id":"ce4bh112rcd13ifvqd90","pricing_plan_id":"cebpf4jnsgd1na2vs0mg"},{"bike_id":"b1b4c31d-76a2-4008-ada1-3c522f4fcc5c","system_id":"levelo_inurba_marseille","lat":43.29267,"lon":5.38441,"is_reserved":false,"is_disabled":false,"rental_uris":{"android":"levelo://app?vid=b1b4c31d-76a2-4008-ada1-3c522f4fcc5c","ios":"levelo://app?vid=b1b4c31d-76a2-4008-ada1-3c522f4fcc5c"},"vehicle_type_id":"4","last_reported":1729624111,"current_range_meters":38800,"station_id":"ce4bh692rcd13ifvqea0","pricing_plan_id":"cebpf4jnsgd1na2vs0mg"},{"bike_id":"1dd8afc3-c5de-4629-b394-aac90fc53dab","system_id":"levelo_inurba_marseille","lat":43.25118,"lon":5.40312,"is_reserved":false,"is_disabled":false,"rental_uris":{"android":"levelo://app?vid=1dd8afc3-c5de-4629-b394-aac90fc53dab","ios":"levelo://app?vid=1dd8afc3-c5de-4629-b394-aac90fc53dab"},"vehicle_type_id":"4","last_reported":1729624111,"current_range_meters":8000,"station_id":"ce4bhlh2rcd13ifvqgig","pricing_plan_id":"cebpf4jnsgd1na2vs0mg"},{"bike_id":"220464bc-4c66-4286-861a-d912d6e768a9","system_id":"levelo_inurba_marseille","lat":43.28436,"lon":5.392,"is_reserved":false,"is_disabled":false,"rental_uris":{"android":"levelo://app?vid=220464bc-4c66-4286-861a-d912d6e768a9","ios":"levelo://app?vid=220464bc-4c66-4286-861a-d912d6e768a9"},"vehicle_type_id":"4","last_reported":1729624111,"current_range_meters":3600,"station_id":"ce4bhoh2rcd13ifvqh5g","pricing_plan_id":"cebpf4jnsgd1na2vs0mg"},{"bike_id":"5c449356-4ac4-4d08-a405-c433fbe21a80","system_id":"levelo_inurba_marseille","lat":43.33737,"lon":5.37458,"is_reserved":false,"is_disabled":false,"rental_uris":{"android":"levelo://app?vid=5c449356-4ac4-4d08-a405-c433fbe21a80","ios":"levelo://app?vid=5c449356-4ac4-4d08-a405-c433fbe21a80"},"vehicle_type_id":"4","last_reported":1729624111,"current_range_meters":32800,"station_id":"","pricing_plan_id":"cebpf4jnsgd1na2vs0mg"},{"bike_id":"a4a34e27-65ff-48e4-9786-23f1b80ff2db","system_id":"levelo_inurba_marseille","lat":43.29965,"lon":5.38502,"is_reserved":false,"is_disabled":false,"rental_uris":{"android":"levelo://app?vid=a4a34e27-65ff-48e4-9786-23f1b80ff2db","ios":"levelo://app?vid=a4a34e27-65ff-48e4-9786-23f1b80ff2db"},"vehicle_type_id":"4","last_reported":1729624111,"current_range_meters":4800,"station_id":"ce4bgj92rcd13ifvqbd0","pricing_plan_id":"cebpf4jnsgd1na2vs0mg"},{"bike_id":"37c20136-57a6-454b-9da1-97f877810c0b","system_id":"levelo_inurba_marseille","lat":43.28482,"lon":5.38424,"is_reserved":false,"is_disabled":false,"rental_uris":{"android":"levelo://app?vid=37c20136-57a6-454b-9da1-97f877810c0b","ios":"levelo://app?vid=37c20136-57a6-454b-9da1-97f877810c0b"},"vehicle_type_id":"4","last_reported":1729624111,"current_range_meters":24800,"station_id":"ce4bh512rcd13ifvqe3g","pricing_plan_id":"cebpf4jnsgd1na2vs0mg"},{"bike_id":"93602a24-3eac-4c89-ac5e-401a042efb9d","system_id":"levelo_inurba_marseille","lat":43.29931,"lon":5.36556,"is_reserved":false,"is_disabled":false,"rental_uris":{"android":"levelo://app?vid=93602a24-3eac-4c89-ac5e-401a042efb9d","ios":"levelo://app?vid=93602a24-3eac-4c89-ac5e-401a042efb9d"},"vehicle_type_id":"4","last_reported":1729624111,"current_range_meters":37600,"station_id":"ce4bgm92rcd13ifvqbr0","pricing_plan_id":"cebpf4jnsgd1na2vs0mg"},{"bike_id":"80f01561-4f78-4d59-98de-f130f22341eb","system_id":"levelo_inurba_marseille","lat":43.28154,"lon":5.42641,"is_reserved":false,"is_disabled":false,"rental_uris":{"android":"levelo://app?vid=80f01561-4f78-4d59-98de-f130f22341eb","ios":"levelo://app?vid=80f01561-4f78-4d59-98de-f130f22341eb"},"vehicle_type_id":"4","last_reported":1729624111,"current_range_meters":7200,"station_id":"ce4bhnh2rcd13ifvqgug","pricing_plan_id":"cebpf4jnsgd1na2vs0mg"},{"bike_id":"0c6b11eb-50a7-4dc0-bff2-d8026011ec1d","system_id":"levelo_inurba_marseille","lat":43.24392,"lon":5.37057,"is_reserved":false,"is_disabled":false,"rental_uris":{"android":"levelo://app?vid=0c6b11eb-50a7-4dc0-bff2-d8026011ec1d","ios":"levelo://app?vid=0c6b11eb-50a7-4dc0-bff2-d8026011ec1d"},"vehicle_type_id":"4","last_reported":1729624111,"current_range_meters":39200,"station_id":"ce4bhhh2rcd13ifvqfk0","pricing_plan_id":"cebpf4jnsgd1na2vs0mg"},{"bike_id":"df217360-aff1-4e07-a318-80500917e1e2","system_id":"levelo_inurba_marseille","lat":43.29795,"lon":5.39336,"is_reserved":false,"is_disabled":false,"rental_uris":{"android":"levelo://app?vid=df217360-aff1-4e07-a318-80500917e1e2","ios":"levelo://app?vid=df217360-aff1-4e07-a318-80500917e1e2"},"vehicle_type_id":"4","last_reported":1729624111,"current_range_meters":38800,"station_id":"chh1huq6cuj3fo74tm60","pricing_plan_id":"cebpf4jnsgd1na2vs0mg"},{"bike_id":"adcf90b4-ccde-4a53-a57c-3979bee364f2","system_id":"levelo_inurba_marseille","lat":43.29449,"lon":5.39752,"is_reserved":false,"is_disabled":false,"rental_uris":{"android":"levelo://app?vid=adcf90b4-ccde-4a53-a57c-3979bee364f2","ios":"levelo://app?vid=adcf90b4-ccde-4a53-a57c-3979bee364f2"},"vehicle_type_id":"4","last_reported":1729624111,"current_range_meters":12400,"station_id":"ce4bh3h2rcd13ifvqdo0","pricing_plan_id":"cebpf4jnsgd1na2vs0mg"},{"bike_id":"4882a116-5452-4f97-bdbd-13df4cccb9d6","system_id":"levelo_inurba_marseille","lat":43.30603,"lon":5.37239,"is_reserved":false,"is_disabled":false,"rental_uris":{"android":"levelo://app?vid=4882a116-5452-4f97-bdbd-13df4cccb9d6","ios":"levelo://app?vid=4882a116-5452-4f97-bdbd-13df4cccb9d6"},"vehicle_type_id":"4","last_reported":1729624111,"current_range_meters":33600,"station_id":"ce4bgqh2rcd13ifvqc4g","pricing_plan_id":"cebpf4jnsgd1na2vs0mg"},{"bike_id":"1124aa99-a4cf-4abb-81d2-6a98e5a17338","system_id":"levelo_inurba_marseille","lat":43.27832,"lon":5.39204,"is_reserved":false,"is_disabled":false,"rental_uris":{"android":"levelo://app?vid=1124aa99-a4cf-4abb-81d2-6a98e5a17338","ios":"levelo://app?vid=1124aa99-a4cf-4abb-81d2-6a98e5a17338"},"vehicle_type_id":"4","last_reported":1729624111,"current_range_meters":13600,"station_id":"ce4bhjp2rcd13ifvqga0","pricing_plan_id":"cebpf4jnsgd1na2vs0mg"},{"bike_id":"57633249-3b48-4b3f-9fc9-74faaaf52100","system_id":"levelo_inurba_marseille","lat":43.28404,"lon":5.37513,"is_reserved":false,"is_disabled":false,"rental_uris":{"android":"levelo://app?vid=57633249-3b48-4b3f-9fc9-74faaaf52100","ios":"levelo://app?vid=57633249-3b48-4b3f-9fc9-74faaaf52100"},"vehicle_type_id":"4","last_reported":1729624111,"current_range_meters":26000,"station_id":"ce4bh412rcd13ifvqds0","pricing_plan_id":"cebpf4jnsgd1na2vs0mg"},{"bike_id":"7cf35a4e-15f8-402d-9c69-c214b6b51c7d","system_id":"levelo_inurba_marseille","lat":43.29019,"lon":5.38143,"is_reserved":false,"is_disabled":false,"rental_uris":{"android":"levelo://app?vid=7cf35a4e-15f8-402d-9c69-c214b6b51c7d","ios":"levelo://app?vid=7cf35a4e-15f8-402d-9c69-c214b6b51c7d"},"vehicle_type_id":"4","last_reported":1729624111,"current_range_meters":27200,"station_id":"ce4bh4p2rcd13ifvqe1g","pricing_plan_id":"cebpf4jnsgd1na2vs0mg"},{"bike_id":"25bcee28-382b-45ae-8420-03e9970af0b0","system_id":"levelo_inurba_marseille","lat":43.29262,"lon":5.38435,"is_reserved":false,"is_disabled":false,"rental_uris":{"android":"levelo://app?vid=25bcee28-382b-45ae-8420-03e9970af0b0","ios":"levelo://app?vid=25bcee28-382b-45ae-8420-03e9970af0b0"},"vehicle_type_id":"4","last_reported":1729624111,"current_range_meters":16800,"station_id":"ce4bh692rcd13ifvqea0","pricing_plan_id":"cebpf4jnsgd1na2vs0mg"},{"bike_id":"abd43a03-2238-41df-8508-8d7d721d4b96","system_id":"levelo_inurba_marseille","lat":43.24386,"lon":5.3705,"is_reserved":false,"is_disabled":false,"rental_uris":{"android":"levelo://app?vid=abd43a03-2238-41df-8508-8d7d721d4b96","ios":"levelo://app?vid=abd43a03-2238-41df-8508-8d7d721d4b96"},"vehicle_type_id":"4","last_reported":1729624111,"current_range_meters":4000,"station_id":"ce4bhhh2rcd13ifvqfk0","pricing_plan_id":"cebpf4jnsgd1na2vs0mg"},{"bike_id":"cfbe5c3b-5d34-4d02-be01-cc903727bf21","system_id":"levelo_inurba_marseille","lat":43.29258,"lon":5.40911,"is_reserved":false,"is_disabled":false,"rental_uris":{"android":"levelo://app?vid=cfbe5c3b-5d34-4d02-be01-cc903727bf21","ios":"levelo://app?vid=cfbe5c3b-5d34-4d02-be01-cc903727bf21"},"vehicle_type_id":"4","last_reported":1729624111,"current_range_meters":7200,"station_id":"ce4bh192rcd13ifvqdc0","pricing_plan_id":"cebpf4jnsgd1na2vs0mg"},{"bike_id":"62a1335d-8351-4a2d-8461-e31a81fd9dcc","system_id":"levelo_inurba_marseille","lat":43.29585,"lon":5.36736,"is_reserved":false,"is_disabled":false,"rental_uris":{"android":"levelo://app?vid=62a1335d-8351-4a2d-8461-e31a81fd9dcc","ios":"levelo://app?vid=62a1335d-8351-4a2d-8461-e31a81fd9dcc"},"vehicle_type_id":"4","last_reported":1729624111,"current_range_meters":18000,"station_id":"ce4bgph2rcd13ifvqc2g","pricing_plan_id":"cebpf4jnsgd1na2vs0mg"},{"bike_id":"f0220362-e7c7-423a-a587-85c77fbcabb6","system_id":"levelo_inurba_marseille","lat":43.27071,"lon":5.42277,"is_reserved":false,"is_disabled":false,"rental_uris":{"android":"levelo://app?vid=f0220362-e7c7-423a-a587-85c77fbcabb6","ios":"levelo://app?vid=f0220362-e7c7-423a-a587-85c77fbcabb6"},"vehicle_type_id":"4","last_reported":1729624111,"current_range_meters":38000,"station_id":"ce4bhk92rcd13ifvqgb0","pricing_plan_id":"cebpf4jnsgd1na2vs0mg"},{"bike_id":"1d431b05-8605-41ed-a77d-f9c627d1a1ba","system_id":"levelo_inurba_marseille","lat":43.30601,"lon":5.37228,"is_reserved":false,"is_disabled":false,"rental_uris":{"android":"levelo://app?vid=1d431b05-8605-41ed-a77d-f9c627d1a1ba","ios":"levelo://app?vid=1d431b05-8605-41ed-a77d-f9c627d1a1ba"},"vehicle_type_id":"4","last_reported":1729624111,"current_range_meters":4800,"station_id":"ce4bgqh2rcd13ifvqc4g","pricing_plan_id":"cebpf4jnsgd1na2vs0mg"},{"bike_id":"291d45c8-fbb1-4ae8-9047-dc9bc89a1270","system_id":"levelo_inurba_marseille","lat":43.27168,"lon":5.40996,"is_reserved":false,"is_disabled":false,"rental_uris":{"android":"levelo://app?vid=291d45c8-fbb1-4ae8-9047-dc9bc89a1270","ios":"levelo://app?vid=291d45c8-fbb1-4ae8-9047-dc9bc89a1270"},"vehicle_type_id":"4","last_reported":1729624111,"current_range_meters":13600,"station_id":"ce4bhl12rcd13ifvqgf0","pricing_plan_id":"cebpf4jnsgd1na2vs0mg"},{"bike_id":"59db56d7-aa71-4b22-a5f7-22d9bf0fdb1e","system_id":"levelo_inurba_marseille","lat":43.30097,"lon":5.39075,"is_reserved":false,"is_disabled":false,"rental_uris":{"android":"levelo://app?vid=59db56d7-aa71-4b22-a5f7-22d9bf0fdb1e","ios":"levelo://app?vid=59db56d7-aa71-4b22-a5f7-22d9bf0fdb1e"},"vehicle_type_id":"4","last_reported":1729624111,"current_range_meters":38800,"station_id":"ce4bh192rcd13ifvqdb0","pricing_plan_id":"cebpf4jnsgd1na2vs0mg"},{"bike_id":"8601e475-de2b-420b-8123-fc41dabd105f","system_id":"levelo_inurba_marseille","lat":43.28353,"lon":5.38098,"is_reserved":false,"is_disabled":false,"rental_uris":{"android":"levelo://app?vid=8601e475-de2b-420b-8123-fc41dabd105f","ios":"levelo://app?vid=8601e475-de2b-420b-8123-fc41dabd105f"},"vehicle_type_id":"4","last_reported":1729624111,"current_range_meters":28400,"station_id":"ce4bh412rcd13ifvqdr0","pricing_plan_id":"cebpf4jnsgd1na2vs0mg"},{"bike_id":"b7512fa6-eadb-4ea0-a79f-8295c95658b1","system_id":"levelo_inurba_marseille","lat":43.255781,"lon":5.382214,"is_reserved":false,"is_disabled":false,"rental_uris":{"android":"levelo://app?vid=b7512fa6-eadb-4ea0-a79f-8295c95658b1","ios":"levelo://app?vid=b7512fa6-eadb-4ea0-a79f-8295c95658b1"},"vehicle_type_id":"4","last_reported":1729624111,"current_range_meters":20400,"station_id":"ce4bhih2rcd13ifvqfs0","pricing_plan_id":"cebpf4jnsgd1na2vs0mg"},{"bike_id":"6ae68e44-1995-4312-86f2-e628e69988cf","system_id":"levelo_inurba_marseille","lat":43.28595,"lon":5.38413,"is_reserved":false,"is_disabled":false,"rental_uris":{"android":"levelo://app?vid=6ae68e44-1995-4312-86f2-e628e69988cf","ios":"levelo://app?vid=6ae68e44-1995-4312-86f2-e628e69988cf"},"vehicle_type_id":"4","last_reported":1729624111,"current_range_meters":18800,"station_id":"ce4bh512rcd13ifvqe3g","pricing_plan_id":"cebpf4jnsgd1na2vs0mg"},{"bike_id":"d8bd7326-7ef0-4a5e-8d83-02034cf48a30","system_id":"levelo_inurba_marseille","lat":43.32345,"lon":5.40624,"is_reserved":false,"is_disabled":false,"rental_uris":{"android":"levelo://app?vid=d8bd7326-7ef0-4a5e-8d83-02034cf48a30","ios":"levelo://app?vid=d8bd7326-7ef0-4a5e-8d83-02034cf48a30"},"vehicle_type_id":"4","last_reported":1729624111,"current_range_meters":22800,"station_id":"ce4bhq92rcd13ifvqhjg","pricing_plan_id":"cebpf4jnsgd1na2vs0mg"},{"bike_id":"9b87b773-e061-40be-b290-ce236cd5d49c","system_id":"levelo_inurba_marseille","lat":43.28412,"lon":5.37522,"is_reserved":false,"is_disabled":false,"rental_uris":{"android":"levelo://app?vid=9b87b773-e061-40be-b290-ce236cd5d49c","ios":"levelo://app?vid=9b87b773-e061-40be-b290-ce236cd5d49c"},"vehicle_type_id":"4","last_reported":1729624111,"current_range_meters":2000,"station_id":"ce4bh412rcd13ifvqds0","pricing_plan_id":"cebpf4jnsgd1na2vs0mg"},{"bike_id":"f4f4cedb-ee30-4d0e-addd-0835963f6da5","system_id":"levelo_inurba_marseille","lat":43.29475,"lon":5.44399,"is_reserved":false,"is_disabled":false,"rental_uris":{"android":"levelo://app?vid=f4f4cedb-ee30-4d0e-addd-0835963f6da5","ios":"levelo://app?vid=f4f4cedb-ee30-4d0e-addd-0835963f6da5"},"vehicle_type_id":"4","last_reported":1729624111,"current_range_meters":6000,"station_id":"","pricing_plan_id":"cebpf4jnsgd1na2vs0mg"},{"bike_id":"da6bbd89-eb87-4105-b444-04b57f1f10e2","system_id":"levelo_inurba_marseille","lat":43.30779,"lon":5.37651,"is_reserved":false,"is_disabled":false,"rental_uris":{"android":"levelo://app?vid=da6bbd89-eb87-4105-b444-04b57f1f10e2","ios":"levelo://app?vid=da6bbd89-eb87-4105-b444-04b57f1f10e2"},"vehicle_type_id":"4","last_reported":1729624111,"current_range_meters":25200,"station_id":"ce4bgv92rcd13ifvqcq0","pricing_plan_id":"cebpf4jnsgd1na2vs0mg"},{"bike_id":"0a65736c-a6c1-4a9e-8b2b-1aa22c8d20a5","system_id":"levelo_inurba_marseille","lat":43.308875,"lon":5.396614,"is_reserved":false,"is_disabled":false,"rental_uris":{"android":"levelo://app?vid=0a65736c-a6c1-4a9e-8b2b-1aa22c8d20a5","ios":"levelo://app?vid=0a65736c-a6c1-4a9e-8b2b-1aa22c8d20a5"},"vehicle_type_id":"4","last_reported":1729624111,"current_range_meters":38800,"station_id":"ce4bh012rcd13ifvqcv0","pricing_plan_id":"cebpf4jnsgd1na2vs0mg"},{"bike_id":"c4546ed0-ad51-43a8-a225-8eb5465ecfcb","system_id":"levelo_inurba_marseille","lat":43.302195,"lon":5.373857,"is_reserved":false,"is_disabled":false,"rental_uris":{"android":"levelo://app?vid=c4546ed0-ad51-43a8-a225-8eb5465ecfcb","ios":"levelo://app?vid=c4546ed0-ad51-43a8-a225-8eb5465ecfcb"},"vehicle_type_id":"4","last_reported":1729624111,"current_range_meters":30800,"station_id":"","pricing_plan_id":"cebpf4jnsgd1na2vs0mg"},{"bike_id":"0385e8a4-b2e0-4cfc-84b3-8c3080ec3c78","system_id":"levelo_inurba_marseille","lat":43.30132,"lon":5.38766,"is_reserved":false,"is_disabled":false,"rental_uris":{"android":"levelo://app?vid=0385e8a4-b2e0-4cfc-84b3-8c3080ec3c78","ios":"levelo://app?vid=0385e8a4-b2e0-4cfc-84b3-8c3080ec3c78"},"vehicle_type_id":"4","last_reported":1729624111,"current_range_meters":38800,"station_id":"ce4bghh2rcd13ifvqb60","pricing_plan_id":"cebpf4jnsgd1na2vs0mg"},{"bike_id":"ed0e290e-6151-49b6-a00f-68f2520c627e","system_id":"levelo_inurba_marseille","lat":43.28614,"lon":5.35098,"is_reserved":false,"is_disabled":false,"rental_uris":{"android":"levelo://app?vid=ed0e290e-6151-49b6-a00f-68f2520c627e","ios":"levelo://app?vid=ed0e290e-6151-49b6-a00f-68f2520c627e"},"vehicle_type_id":"4","last_reported":1729624111,"current_range_meters":38800,"station_id":"ce4bhch2rcd13ifvqeug","pricing_plan_id":"cebpf4jnsgd1na2vs0mg"},{"bike_id":"7db0c8db-5874-4561-8e5f-ac9610bfd621","system_id":"levelo_inurba_marseille","lat":43.27814,"lon":5.40711,"is_reserved":false,"is_disabled":false,"rental_uris":{"android":"levelo://app?vid=7db0c8db-5874-4561-8e5f-ac9610bfd621","ios":"levelo://app?vid=7db0c8db-5874-4561-8e5f-ac9610bfd621"},"vehicle_type_id":"4","last_reported":1729624111,"current_range_meters":19200,"station_id":"ce4bhnh2rcd13ifvqgtg","pricing_plan_id":"cebpf4jnsgd1na2vs0mg"},{"bike_id":"81db9c70-bce4-4764-86a6-8d25b1c25e6d","system_id":"levelo_inurba_marseille","lat":43.24647,"lon":5.38887,"is_reserved":false,"is_disabled":false,"rental_uris":{"android":"levelo://app?vid=81db9c70-bce4-4764-86a6-8d25b1c25e6d","ios":"levelo://app?vid=81db9c70-bce4-4764-86a6-8d25b1c25e6d"},"vehicle_type_id":"4","last_reported":1729624111,"current_range_meters":19600,"station_id":"ce4bhg12rcd13ifvqf60","pricing_plan_id":"cebpf4jnsgd1na2vs0mg"},{"bike_id":"36f29174-278d-4a36-8d64-2c490ae15868","system_id":"levelo_inurba_marseille","lat":43.27497,"lon":5.42459,"is_reserved":false,"is_disabled":false,"rental_uris":{"android":"levelo://app?vid=36f29174-278d-4a36-8d64-2c490ae15868","ios":"levelo://app?vid=36f29174-278d-4a36-8d64-2c490ae15868"},"vehicle_type_id":"4","last_reported":1729624111,"current_range_meters":34800,"station_id":"ce4bhn92rcd13ifvqgrg","pricing_plan_id":"cebpf4jnsgd1na2vs0mg"},{"bike_id":"63d546d5-3fac-4df0-acc7-024b2ae59266","system_id":"levelo_inurba_marseille","lat":43.30426,"lon":5.398429,"is_reserved":false,"is_disabled":false,"rental_uris":{"android":"levelo://app?vid=63d546d5-3fac-4df0-acc7-024b2ae59266","ios":"levelo://app?vid=63d546d5-3fac-4df0-acc7-024b2ae59266"},"vehicle_type_id":"4","last_reported":1729624111,"current_range_meters":16800,"station_id":"","pricing_plan_id":"cebpf4jnsgd1na2vs0mg"},{"bike_id":"2d00c0a8-1b2c-4f67-ab84-fa0b2a2be82d","system_id":"levelo_inurba_marseille","lat":43.2871,"lon":5.37393,"is_reserved":false,"is_disabled":false,"rental_uris":{"android":"levelo://app?vid=2d00c0a8-1b2c-4f67-ab84-fa0b2a2be82d","ios":"levelo://app?vid=2d00c0a8-1b2c-4f67-ab84-fa0b2a2be82d"},"vehicle_type_id":"4","last_reported":1729624111,"current_range_meters":28800,"station_id":"ce4bh3p2rcd13ifvqdq0","pricing_plan_id":"cebpf4jnsgd1na2vs0mg"},{"bike_id":"09e31811-3b02-4e41-aba9-cce8881d6666","system_id":"levelo_inurba_marseille","lat":43.29416,"lon":5.38623,"is_reserved":false,"is_disabled":false,"rental_uris":{"android":"levelo://app?vid=09e31811-3b02-4e41-aba9-cce8881d6666","ios":"levelo://app?vid=09e31811-3b02-4e41-aba9-cce8881d6666"},"vehicle_type_id":"4","last_reported":1729624111,"current_range_meters":20000,"station_id":"ce4bh2h2rcd13ifvqdh0","pricing_plan_id":"cebpf4jnsgd1na2vs0mg"},{"bike_id":"990d6010-5862-46e9-b39f-801aedddc588","system_id":"levelo_inurba_marseille","lat":43.29197,"lon":5.39322,"is_reserved":false,"is_disabled":false,"rental_uris":{"android":"levelo://app?vid=990d6010-5862-46e9-b39f-801aedddc588","ios":"levelo://app?vid=990d6010-5862-46e9-b39f-801aedddc588"},"vehicle_type_id":"4","last_reported":1729624111,"current_range_meters":12000,"station_id":"ce4bh192rcd13ifvqdd0","pricing_plan_id":"cebpf4jnsgd1na2vs0mg"},{"bike_id":"11256fd2-b537-43fb-8f2f-2312433c9979","system_id":"levelo_inurba_marseille","lat":43.28104,"lon":5.37839,"is_reserved":false,"is_disabled":false,"rental_uris":{"android":"levelo://app?vid=11256fd2-b537-43fb-8f2f-2312433c9979","ios":"levelo://app?vid=11256fd2-b537-43fb-8f2f-2312433c9979"},"vehicle_type_id":"4","last_reported":1729624111,"current_range_meters":8400,"station_id":"ce4bha12rcd13ifvqee0","pricing_plan_id":"cebpf4jnsgd1na2vs0mg"},{"bike_id":"4dfcf2e0-5803-42aa-9249-724529f7938a","system_id":"levelo_inurba_marseille","lat":43.29031,"lon":5.37569,"is_reserved":false,"is_disabled":false,"rental_uris":{"android":"levelo://app?vid=4dfcf2e0-5803-42aa-9249-724529f7938a","ios":"levelo://app?vid=4dfcf2e0-5803-42aa-9249-724529f7938a"},"vehicle_type_id":"4","last_reported":1729624111,"current_range_meters":27600,"station_id":"ce4bh692rcd13ifvqe90","pricing_plan_id":"cebpf4jnsgd1na2vs0mg"},{"bike_id":"da160bd5-0a80-43ef-9114-560accffc538","system_id":"levelo_inurba_marseille","lat":43.31515,"lon":5.3803,"is_reserved":false,"is_disabled":false,"rental_uris":{"android":"levelo://app?vid=da160bd5-0a80-43ef-9114-560accffc538","ios":"levelo://app?vid=da160bd5-0a80-43ef-9114-560accffc538"},"vehicle_type_id":"4","last_reported":1729624111,"current_range_meters":9200,"station_id":"","pricing_plan_id":"cebpf4jnsgd1na2vs0mg"},{"bike_id":"9b385d95-98fd-423f-acc4-726ef0668044","system_id":"levelo_inurba_marseille","lat":43.29519,"lon":5.39039,"is_reserved":false,"is_disabled":false,"rental_uris":{"android":"levelo://app?vid=9b385d95-98fd-423f-acc4-726ef0668044","ios":"levelo://app?vid=9b385d95-98fd-423f-acc4-726ef0668044"},"vehicle_type_id":"4","last_reported":1729624111,"current_range_meters":17200,"station_id":"ce4bh3p2rcd13ifvqdp0","pricing_plan_id":"cebpf4jnsgd1na2vs0mg"},{"bike_id":"864575c1-85b8-4008-92ba-391073d4ed51","system_id":"levelo_inurba_marseille","lat":43.23194,"lon":5.35553,"is_reserved":false,"is_disabled":false,"rental_uris":{"android":"levelo://app?vid=864575c1-85b8-4008-92ba-391073d4ed51","ios":"levelo://app?vid=864575c1-85b8-4008-92ba-391073d4ed51"},"vehicle_type_id":"4","last_reported":1729624111,"current_range_meters":23200,"station_id":"ce4bhu92rcd13ifvqi70","pricing_plan_id":"cebpf4jnsgd1na2vs0mg"},{"bike_id":"0e505ea1-d652-4273-9fce-2670943b7d63","system_id":"levelo_inurba_marseille","lat":43.27371,"lon":5.36269,"is_reserved":false,"is_disabled":false,"rental_uris":{"android":"levelo://app?vid=0e505ea1-d652-4273-9fce-2670943b7d63","ios":"levelo://app?vid=0e505ea1-d652-4273-9fce-2670943b7d63"},"vehicle_type_id":"4","last_reported":1729624111,"current_range_meters":39200,"station_id":"ce4bhbh2rcd13ifvqeo0","pricing_plan_id":"cebpf4jnsgd1na2vs0mg"},{"bike_id":"41f75c63-5a1e-4adb-bcc3-29aa8accf432","system_id":"levelo_inurba_marseille","lat":43.27495,"lon":5.42452,"is_reserved":false,"is_disabled":false,"rental_uris":{"android":"levelo://app?vid=41f75c63-5a1e-4adb-bcc3-29aa8accf432","ios":"levelo://app?vid=41f75c63-5a1e-4adb-bcc3-29aa8accf432"},"vehicle_type_id":"4","last_reported":1729624111,"current_range_meters":36000,"station_id":"ce4bhn92rcd13ifvqgrg","pricing_plan_id":"cebpf4jnsgd1na2vs0mg"},{"bike_id":"5b58dcfb-5507-4a17-8cb8-8f66d7e06861","system_id":"levelo_inurba_marseille","lat":43.23187,"lon":5.39989,"is_reserved":false,"is_disabled":false,"rental_uris":{"android":"levelo://app?vid=5b58dcfb-5507-4a17-8cb8-8f66d7e06861","ios":"levelo://app?vid=5b58dcfb-5507-4a17-8cb8-8f66d7e06861"},"vehicle_type_id":"4","last_reported":1729624111,"current_range_meters":5600,"station_id":"ce4bhn12rcd13ifvqgqg","pricing_plan_id":"cebpf4jnsgd1na2vs0mg"},{"bike_id":"bbdd5630-eeb2-47e5-ae0d-abad01770607","system_id":"levelo_inurba_marseille","lat":43.285794,"lon":5.39497,"is_reserved":false,"is_disabled":false,"rental_uris":{"android":"levelo://app?vid=bbdd5630-eeb2-47e5-ae0d-abad01770607","ios":"levelo://app?vid=bbdd5630-eeb2-47e5-ae0d-abad01770607"},"vehicle_type_id":"4","last_reported":1729624111,"current_range_meters":37600,"station_id":"ce4bh292rcd13ifvqdg0","pricing_plan_id":"cebpf4jnsgd1na2vs0mg"},{"bike_id":"5759a2cf-23ce-4955-9a92-29d2a7c4f844","system_id":"levelo_inurba_marseille","lat":43.29019,"lon":5.38135,"is_reserved":false,"is_disabled":false,"rental_uris":{"android":"levelo://app?vid=5759a2cf-23ce-4955-9a92-29d2a7c4f844","ios":"levelo://app?vid=5759a2cf-23ce-4955-9a92-29d2a7c4f844"},"vehicle_type_id":"4","last_reported":1729624111,"current_range_meters":36000,"station_id":"ce4bh4p2rcd13ifvqe1g","pricing_plan_id":"cebpf4jnsgd1na2vs0mg"},{"bike_id":"747d76d1-2ad6-4664-830e-1bdfd82de986","system_id":"levelo_inurba_marseille","lat":43.29263,"lon":5.38448,"is_reserved":false,"is_disabled":false,"rental_uris":{"android":"levelo://app?vid=747d76d1-2ad6-4664-830e-1bdfd82de986","ios":"levelo://app?vid=747d76d1-2ad6-4664-830e-1bdfd82de986"},"vehicle_type_id":"4","last_reported":1729624111,"current_range_meters":23200,"station_id":"ce4bh692rcd13ifvqea0","pricing_plan_id":"cebpf4jnsgd1na2vs0mg"},{"bike_id":"79a1e020-318b-42a1-a8c0-a424b1daf69e","system_id":"levelo_inurba_marseille","lat":43.296,"lon":5.36142,"is_reserved":false,"is_disabled":false,"rental_uris":{"android":"levelo://app?vid=79a1e020-318b-42a1-a8c0-a424b1daf69e","ios":"levelo://app?vid=79a1e020-318b-42a1-a8c0-a424b1daf69e"},"vehicle_type_id":"4","last_reported":1729624111,"current_range_meters":4400,"station_id":"","pricing_plan_id":"cebpf4jnsgd1na2vs0mg"},{"bike_id":"9f1661b3-0c3e-4af7-b6a2-716ba0c63a9e","system_id":"levelo_inurba_marseille","lat":43.29992,"lon":5.37106,"is_reserved":false,"is_disabled":false,"rental_uris":{"android":"levelo://app?vid=9f1661b3-0c3e-4af7-b6a2-716ba0c63a9e","ios":"levelo://app?vid=9f1661b3-0c3e-4af7-b6a2-716ba0c63a9e"},"vehicle_type_id":"4","last_reported":1729624111,"current_range_meters":38800,"station_id":"","pricing_plan_id":"cebpf4jnsgd1na2vs0mg"},{"bike_id":"ab3ba71c-7391-40fe-bf63-807ed2993877","system_id":"levelo_inurba_marseille","lat":43.29354,"lon":5.37832,"is_reserved":false,"is_disabled":false,"rental_uris":{"android":"levelo://app?vid=ab3ba71c-7391-40fe-bf63-807ed2993877","ios":"levelo://app?vid=ab3ba71c-7391-40fe-bf63-807ed2993877"},"vehicle_type_id":"4","last_reported":1729624111,"current_range_meters":28400,"station_id":"ce4bgjh2rcd13ifvqbf0","pricing_plan_id":"cebpf4jnsgd1na2vs0mg"},{"bike_id":"e20eacab-28c4-4862-9c97-caa408edf48c","system_id":"levelo_inurba_marseille","lat":43.23182,"lon":5.39992,"is_reserved":false,"is_disabled":false,"rental_uris":{"android":"levelo://app?vid=e20eacab-28c4-4862-9c97-caa408edf48c","ios":"levelo://app?vid=e20eacab-28c4-4862-9c97-caa408edf48c"},"vehicle_type_id":"4","last_reported":1729624111,"current_range_meters":24800,"station_id":"ce4bhn12rcd13ifvqgqg","pricing_plan_id":"cebpf4jnsgd1na2vs0mg"},{"bike_id":"3b9565c0-e1e4-4453-914c-a89ae42611fd","system_id":"levelo_inurba_marseille","lat":43.299571,"lon":5.38524,"is_reserved":false,"is_disabled":false,"rental_uris":{"android":"levelo://app?vid=3b9565c0-e1e4-4453-914c-a89ae42611fd","ios":"levelo://app?vid=3b9565c0-e1e4-4453-914c-a89ae42611fd"},"vehicle_type_id":"4","last_reported":1729624111,"current_range_meters":39200,"station_id":"ce4bgj92rcd13ifvqbd0","pricing_plan_id":"cebpf4jnsgd1na2vs0mg"},{"bike_id":"1cb83924-fa4e-469e-a9f1-5e7168b2f7d6","system_id":"levelo_inurba_marseille","lat":43.23199,"lon":5.35551,"is_reserved":false,"is_disabled":false,"rental_uris":{"android":"levelo://app?vid=1cb83924-fa4e-469e-a9f1-5e7168b2f7d6","ios":"levelo://app?vid=1cb83924-fa4e-469e-a9f1-5e7168b2f7d6"},"vehicle_type_id":"4","last_reported":1729624111,"current_range_meters":8000,"station_id":"ce4bhu92rcd13ifvqi70","pricing_plan_id":"cebpf4jnsgd1na2vs0mg"},{"bike_id":"6e240bde-af8c-4fcb-ab2e-b7acd506d149","system_id":"levelo_inurba_marseille","lat":43.30127,"lon":5.39847,"is_reserved":false,"is_disabled":false,"rental_uris":{"android":"levelo://app?vid=6e240bde-af8c-4fcb-ab2e-b7acd506d149","ios":"levelo://app?vid=6e240bde-af8c-4fcb-ab2e-b7acd506d149"},"vehicle_type_id":"4","last_reported":1729624111,"current_range_meters":27200,"station_id":"ce4bh0h2rcd13ifvqd40","pricing_plan_id":"cebpf4jnsgd1na2vs0mg"},{"bike_id":"8d66234d-ed10-4a56-b9bf-7024ed1a6c9c","system_id":"levelo_inurba_marseille","lat":43.32364,"lon":5.38498,"is_reserved":false,"is_disabled":false,"rental_uris":{"android":"levelo://app?vid=8d66234d-ed10-4a56-b9bf-7024ed1a6c9c","ios":"levelo://app?vid=8d66234d-ed10-4a56-b9bf-7024ed1a6c9c"},"vehicle_type_id":"4","last_reported":1729624111,"current_range_meters":5600,"station_id":"","pricing_plan_id":"cebpf4jnsgd1na2vs0mg"},{"bike_id":"69e5ffd6-da96-41d4-95f4-578ce53f2298","system_id":"levelo_inurba_marseille","lat":43.30318,"lon":5.36864,"is_reserved":false,"is_disabled":false,"rental_uris":{"android":"levelo://app?vid=69e5ffd6-da96-41d4-95f4-578ce53f2298","ios":"levelo://app?vid=69e5ffd6-da96-41d4-95f4-578ce53f2298"},"vehicle_type_id":"4","last_reported":1729624111,"current_range_meters":38800,"station_id":"ce4bgqh2rcd13ifvqc5g","pricing_plan_id":"cebpf4jnsgd1na2vs0mg"},{"bike_id":"78517594-f9d3-473b-84e3-013301a3c2d5","system_id":"levelo_inurba_marseille","lat":43.30909,"lon":5.36854,"is_reserved":false,"is_disabled":false,"rental_uris":{"android":"levelo://app?vid=78517594-f9d3-473b-84e3-013301a3c2d5","ios":"levelo://app?vid=78517594-f9d3-473b-84e3-013301a3c2d5"},"vehicle_type_id":"4","last_reported":1729624111,"current_range_meters":37600,"station_id":"ce4bgn92rcd13ifvqbvg","pricing_plan_id":"cebpf4jnsgd1na2vs0mg"},{"bike_id":"34be8e3a-eefe-496b-810d-162ce65754e0","system_id":"levelo_inurba_marseille","lat":43.23198,"lon":5.35556,"is_reserved":false,"is_disabled":false,"rental_uris":{"android":"levelo://app?vid=34be8e3a-eefe-496b-810d-162ce65754e0","ios":"levelo://app?vid=34be8e3a-eefe-496b-810d-162ce65754e0"},"vehicle_type_id":"4","last_reported":1729624111,"current_range_meters":4000,"station_id":"ce4bhu92rcd13ifvqi70","pricing_plan_id":"cebpf4jnsgd1na2vs0mg"},{"bike_id":"7031b4dc-1903-4f26-a0eb-5efc2aad9925","system_id":"levelo_inurba_marseille","lat":43.294146,"lon":5.386212,"is_reserved":false,"is_disabled":false,"rental_uris":{"android":"levelo://app?vid=7031b4dc-1903-4f26-a0eb-5efc2aad9925","ios":"levelo://app?vid=7031b4dc-1903-4f26-a0eb-5efc2aad9925"},"vehicle_type_id":"4","last_reported":1729624111,"current_range_meters":10800,"station_id":"ce4bh2h2rcd13ifvqdh0","pricing_plan_id":"cebpf4jnsgd1na2vs0mg"},{"bike_id":"b260bd2d-7491-41ce-b05b-bfb3c10093ab","system_id":"levelo_inurba_marseille","lat":43.29274,"lon":5.3844,"is_reserved":false,"is_disabled":false,"rental_uris":{"android":"levelo://app?vid=b260bd2d-7491-41ce-b05b-bfb3c10093ab","ios":"levelo://app?vid=b260bd2d-7491-41ce-b05b-bfb3c10093ab"},"vehicle_type_id":"4","last_reported":1729624111,"current_range_meters":6000,"station_id":"ce4bh692rcd13ifvqea0","pricing_plan_id":"cebpf4jnsgd1na2vs0mg"},{"bike_id":"1ef457e6-64ac-4761-a222-dc68006a960e","system_id":"levelo_inurba_marseille","lat":43.30143,"lon":5.37421,"is_reserved":false,"is_disabled":false,"rental_uris":{"android":"levelo://app?vid=1ef457e6-64ac-4761-a222-dc68006a960e","ios":"levelo://app?vid=1ef457e6-64ac-4761-a222-dc68006a960e"},"vehicle_type_id":"4","last_reported":1729624111,"current_range_meters":37600,"station_id":"ce4bgs92rcd13ifvqcc0","pricing_plan_id":"cebpf4jnsgd1na2vs0mg"},{"bike_id":"a8fd90e1-0f06-42a3-906b-c91cb727d214","system_id":"levelo_inurba_marseille","lat":43.26817,"lon":5.41106,"is_reserved":false,"is_disabled":false,"rental_uris":{"android":"levelo://app?vid=a8fd90e1-0f06-42a3-906b-c91cb727d214","ios":"levelo://app?vid=a8fd90e1-0f06-42a3-906b-c91cb727d214"},"vehicle_type_id":"4","last_reported":1729624111,"current_range_meters":12400,"station_id":"","pricing_plan_id":"cebpf4jnsgd1na2vs0mg"},{"bike_id":"1e4f408a-7823-4f21-aceb-d6709974f1c5","system_id":"levelo_inurba_marseille","lat":43.23194,"lon":5.3555,"is_reserved":false,"is_disabled":false,"rental_uris":{"android":"levelo://app?vid=1e4f408a-7823-4f21-aceb-d6709974f1c5","ios":"levelo://app?vid=1e4f408a-7823-4f21-aceb-d6709974f1c5"},"vehicle_type_id":"4","last_reported":1729624111,"current_range_meters":24800,"station_id":"ce4bhu92rcd13ifvqi70","pricing_plan_id":"cebpf4jnsgd1na2vs0mg"},{"bike_id":"0db6c98a-254d-4db9-84c6-6cbf1e9dcc95","system_id":"levelo_inurba_marseille","lat":43.24544,"lon":5.39523,"is_reserved":false,"is_disabled":false,"rental_uris":{"android":"levelo://app?vid=0db6c98a-254d-4db9-84c6-6cbf1e9dcc95","ios":"levelo://app?vid=0db6c98a-254d-4db9-84c6-6cbf1e9dcc95"},"vehicle_type_id":"4","last_reported":1729624111,"current_range_meters":16000,"station_id":"ce4bhlp2rcd13ifvqgjg","pricing_plan_id":"cebpf4jnsgd1na2vs0mg"},{"bike_id":"e6a39001-b798-4ad1-8b07-328facde846f","system_id":"levelo_inurba_marseille","lat":43.30284,"lon":5.39238,"is_reserved":false,"is_disabled":false,"rental_uris":{"android":"levelo://app?vid=e6a39001-b798-4ad1-8b07-328facde846f","ios":"levelo://app?vid=e6a39001-b798-4ad1-8b07-328facde846f"},"vehicle_type_id":"4","last_reported":1729624111,"current_range_meters":38800,"station_id":"ce4bgkh2rcd13ifvqbk0","pricing_plan_id":"cebpf4jnsgd1na2vs0mg"},{"bike_id":"107da3a8-d291-4264-a4fc-434c72e533b4","system_id":"levelo_inurba_marseille","lat":43.308945,"lon":5.396575,"is_reserved":false,"is_disabled":false,"rental_uris":{"android":"levelo://app?vid=107da3a8-d291-4264-a4fc-434c72e533b4","ios":"levelo://app?vid=107da3a8-d291-4264-a4fc-434c72e533b4"},"vehicle_type_id":"4","last_reported":1729624111,"current_range_meters":38800,"station_id":"ce4bh012rcd13ifvqcv0","pricing_plan_id":"cebpf4jnsgd1na2vs0mg"},{"bike_id":"614b4d27-3061-4913-8e39-25a4924613d2","system_id":"levelo_inurba_marseille","lat":43.25114,"lon":5.4032,"is_reserved":false,"is_disabled":false,"rental_uris":{"android":"levelo://app?vid=614b4d27-3061-4913-8e39-25a4924613d2","ios":"levelo://app?vid=614b4d27-3061-4913-8e39-25a4924613d2"},"vehicle_type_id":"4","last_reported":1729624111,"current_range_meters":13600,"station_id":"ce4bhlh2rcd13ifvqgig","pricing_plan_id":"cebpf4jnsgd1na2vs0mg"},{"bike_id":"c3945b60-e38d-4106-8f18-92c7f436cc4f","system_id":"levelo_inurba_marseille","lat":43.33757,"lon":5.37448,"is_reserved":false,"is_disabled":false,"rental_uris":{"android":"levelo://app?vid=c3945b60-e38d-4106-8f18-92c7f436cc4f","ios":"levelo://app?vid=c3945b60-e38d-4106-8f18-92c7f436cc4f"},"vehicle_type_id":"4","last_reported":1729624111,"current_range_meters":30400,"station_id":"","pricing_plan_id":"cebpf4jnsgd1na2vs0mg"},{"bike_id":"96a7dace-0668-4ecd-b200-08d009b00073","system_id":"levelo_inurba_marseille","lat":43.302643,"lon":5.400816,"is_reserved":false,"is_disabled":false,"rental_uris":{"android":"levelo://app?vid=96a7dace-0668-4ecd-b200-08d009b00073","ios":"levelo://app?vid=96a7dace-0668-4ecd-b200-08d009b00073"},"vehicle_type_id":"4","last_reported":1729624111,"current_range_meters":7200,"station_id":"ce4bgvh2rcd13ifvqcs0","pricing_plan_id":"cebpf4jnsgd1na2vs0mg"},{"bike_id":"e6568ff7-a811-44c3-9f1f-742a0f992a31","system_id":"levelo_inurba_marseille","lat":43.29374,"lon":5.37833,"is_reserved":false,"is_disabled":false,"rental_uris":{"android":"levelo://app?vid=e6568ff7-a811-44c3-9f1f-742a0f992a31","ios":"levelo://app?vid=e6568ff7-a811-44c3-9f1f-742a0f992a31"},"vehicle_type_id":"4","last_reported":1729624111,"current_range_meters":38400,"station_id":"ce4bgjh2rcd13ifvqbf0","pricing_plan_id":"cebpf4jnsgd1na2vs0mg"},{"bike_id":"64ce22d5-3cd4-4499-bdfc-5c1003ff64b6","system_id":"levelo_inurba_marseille","lat":43.29595,"lon":5.38099,"is_reserved":false,"is_disabled":false,"rental_uris":{"android":"levelo://app?vid=64ce22d5-3cd4-4499-bdfc-5c1003ff64b6","ios":"levelo://app?vid=64ce22d5-3cd4-4499-bdfc-5c1003ff64b6"},"vehicle_type_id":"4","last_reported":1729624111,"current_range_meters":2000,"station_id":"ce4bgl12rcd13ifvqbo0","pricing_plan_id":"cebpf4jnsgd1na2vs0mg"},{"bike_id":"0c3d2a66-6a42-4307-8dc3-c34c1da3bb8e","system_id":"levelo_inurba_marseille","lat":43.28413,"lon":5.34982,"is_reserved":false,"is_disabled":false,"rental_uris":{"android":"levelo://app?vid=0c3d2a66-6a42-4307-8dc3-c34c1da3bb8e","ios":"levelo://app?vid=0c3d2a66-6a42-4307-8dc3-c34c1da3bb8e"},"vehicle_type_id":"4","last_reported":1729624111,"current_range_meters":20400,"station_id":"ce4bhbh2rcd13ifvqepg","pricing_plan_id":"cebpf4jnsgd1na2vs0mg"},{"bike_id":"1135af4d-b7d7-4190-b0cb-6113c69ae2ea","system_id":"levelo_inurba_marseille","lat":43.27374,"lon":5.36248,"is_reserved":false,"is_disabled":false,"rental_uris":{"android":"levelo://app?vid=1135af4d-b7d7-4190-b0cb-6113c69ae2ea","ios":"levelo://app?vid=1135af4d-b7d7-4190-b0cb-6113c69ae2ea"},"vehicle_type_id":"4","last_reported":1729624111,"current_range_meters":39200,"station_id":"ce4bhbh2rcd13ifvqeo0","pricing_plan_id":"cebpf4jnsgd1na2vs0mg"},{"bike_id":"ef864c2b-6be6-498d-acf8-d7d497cadbb8","system_id":"levelo_inurba_marseille","lat":43.28618,"lon":5.35105,"is_reserved":false,"is_disabled":false,"rental_uris":{"android":"levelo://app?vid=ef864c2b-6be6-498d-acf8-d7d497cadbb8","ios":"levelo://app?vid=ef864c2b-6be6-498d-acf8-d7d497cadbb8"},"vehicle_type_id":"4","last_reported":1729624111,"current_range_meters":38800,"station_id":"ce4bhch2rcd13ifvqeug","pricing_plan_id":"cebpf4jnsgd1na2vs0mg"},{"bike_id":"3beb6976-f6fe-409e-b91e-c0ed53becb4a","system_id":"levelo_inurba_marseille","lat":43.30307,"lon":5.36886,"is_reserved":false,"is_disabled":false,"rental_uris":{"android":"levelo://app?vid=3beb6976-f6fe-409e-b91e-c0ed53becb4a","ios":"levelo://app?vid=3beb6976-f6fe-409e-b91e-c0ed53becb4a"},"vehicle_type_id":"4","last_reported":1729624111,"current_range_meters":38800,"station_id":"ce4bgqh2rcd13ifvqc5g","pricing_plan_id":"cebpf4jnsgd1na2vs0mg"},{"bike_id":"926882c8-6941-46df-b0db-00cb3e28cc50","system_id":"levelo_inurba_marseille","lat":43.2997,"lon":5.38484,"is_reserved":false,"is_disabled":false,"rental_uris":{"android":"levelo://app?vid=926882c8-6941-46df-b0db-00cb3e28cc50","ios":"levelo://app?vid=926882c8-6941-46df-b0db-00cb3e28cc50"},"vehicle_type_id":"4","last_reported":1729624111,"current_range_meters":28400,"station_id":"ce4bgj92rcd13ifvqbd0","pricing_plan_id":"cebpf4jnsgd1na2vs0mg"},{"bike_id":"ef208f8b-3573-4503-a35e-894fb2bff42c","system_id":"levelo_inurba_marseille","lat":43.29528,"lon":5.38546,"is_reserved":false,"is_disabled":false,"rental_uris":{"android":"levelo://app?vid=ef208f8b-3573-4503-a35e-894fb2bff42c","ios":"levelo://app?vid=ef208f8b-3573-4503-a35e-894fb2bff42c"},"vehicle_type_id":"4","last_reported":1729624111,"current_range_meters":14800,"station_id":"ce4bgih2rcd13ifvqba0","pricing_plan_id":"cebpf4jnsgd1na2vs0mg"},{"bike_id":"d205a92d-0be3-4268-b54a-2d00c286f5cd","system_id":"levelo_inurba_marseille","lat":43.313298,"lon":5.396985,"is_reserved":false,"is_disabled":false,"rental_uris":{"android":"levelo://app?vid=d205a92d-0be3-4268-b54a-2d00c286f5cd","ios":"levelo://app?vid=d205a92d-0be3-4268-b54a-2d00c286f5cd"},"vehicle_type_id":"4","last_reported":1729624111,"current_range_meters":14800,"station_id":"ce4bgvp2rcd13ifvqcu0","pricing_plan_id":"cebpf4jnsgd1na2vs0mg"},{"bike_id":"0680767f-e110-45fb-a42a-11c8659b7297","system_id":"levelo_inurba_marseille","lat":43.33728,"lon":5.39182,"is_reserved":false,"is_disabled":false,"rental_uris":{"android":"levelo://app?vid=0680767f-e110-45fb-a42a-11c8659b7297","ios":"levelo://app?vid=0680767f-e110-45fb-a42a-11c8659b7297"},"vehicle_type_id":"4","last_reported":1729624111,"current_range_meters":22400,"station_id":"ce4bhr92rcd13ifvqhsg","pricing_plan_id":"cebpf4jnsgd1na2vs0mg"},{"bike_id":"72c50839-00c5-491b-b2fa-f0e94cd720a4","system_id":"levelo_inurba_marseille","lat":43.29265,"lon":5.38441,"is_reserved":false,"is_disabled":false,"rental_uris":{"android":"levelo://app?vid=72c50839-00c5-491b-b2fa-f0e94cd720a4","ios":"levelo://app?vid=72c50839-00c5-491b-b2fa-f0e94cd720a4"},"vehicle_type_id":"4","last_reported":1729624111,"current_range_meters":17200,"station_id":"ce4bh692rcd13ifvqea0","pricing_plan_id":"cebpf4jnsgd1na2vs0mg"},{"bike_id":"cdba8dd9-10d6-4358-97ce-fe5c3999d55d","system_id":"levelo_inurba_marseille","lat":43.305115,"lon":5.391841,"is_reserved":false,"is_disabled":false,"rental_uris":{"android":"levelo://app?vid=cdba8dd9-10d6-4358-97ce-fe5c3999d55d","ios":"levelo://app?vid=cdba8dd9-10d6-4358-97ce-fe5c3999d55d"},"vehicle_type_id":"4","last_reported":1729624111,"current_range_meters":33600,"station_id":"ce4bhop2rcd13ifvqh7g","pricing_plan_id":"cebpf4jnsgd1na2vs0mg"},{"bike_id":"925ca311-ea73-44f3-ae5e-35ca777de1cd","system_id":"levelo_inurba_marseille","lat":43.25577,"lon":5.38239,"is_reserved":false,"is_disabled":false,"rental_uris":{"android":"levelo://app?vid=925ca311-ea73-44f3-ae5e-35ca777de1cd","ios":"levelo://app?vid=925ca311-ea73-44f3-ae5e-35ca777de1cd"},"vehicle_type_id":"4","last_reported":1729624111,"current_range_meters":19600,"station_id":"ce4bhih2rcd13ifvqfs0","pricing_plan_id":"cebpf4jnsgd1na2vs0mg"},{"bike_id":"8f96facc-04d7-49b9-8d37-203af19e2d90","system_id":"levelo_inurba_marseille","lat":43.28609,"lon":5.3511,"is_reserved":false,"is_disabled":false,"rental_uris":{"android":"levelo://app?vid=8f96facc-04d7-49b9-8d37-203af19e2d90","ios":"levelo://app?vid=8f96facc-04d7-49b9-8d37-203af19e2d90"},"vehicle_type_id":"4","last_reported":1729624111,"current_range_meters":38800,"station_id":"ce4bhch2rcd13ifvqeug","pricing_plan_id":"cebpf4jnsgd1na2vs0mg"},{"bike_id":"d8d30b00-c51f-42c1-a4bc-5be916aaba37","system_id":"levelo_inurba_marseille","lat":43.27992,"lon":5.40022,"is_reserved":false,"is_disabled":false,"rental_uris":{"android":"levelo://app?vid=d8d30b00-c51f-42c1-a4bc-5be916aaba37","ios":"levelo://app?vid=d8d30b00-c51f-42c1-a4bc-5be916aaba37"},"vehicle_type_id":"4","last_reported":1729624111,"current_range_meters":30400,"station_id":"ce4bho92rcd13ifvqh4g","pricing_plan_id":"cebpf4jnsgd1na2vs0mg"},{"bike_id":"65ba87ab-c859-4c69-8f80-bd46b4424be0","system_id":"levelo_inurba_marseille","lat":43.28725,"lon":5.36082,"is_reserved":false,"is_disabled":false,"rental_uris":{"android":"levelo://app?vid=65ba87ab-c859-4c69-8f80-bd46b4424be0","ios":"levelo://app?vid=65ba87ab-c859-4c69-8f80-bd46b4424be0"},"vehicle_type_id":"4","last_reported":1729624111,"current_range_meters":32000,"station_id":"cki0cbj6b192h4jlfktg","pricing_plan_id":"cebpf4jnsgd1na2vs0mg"},{"bike_id":"6f3c99f6-25c2-4dd4-ba80-ca7e8e0ba65e","system_id":"levelo_inurba_marseille","lat":43.28155,"lon":5.42645,"is_reserved":false,"is_disabled":false,"rental_uris":{"android":"levelo://app?vid=6f3c99f6-25c2-4dd4-ba80-ca7e8e0ba65e","ios":"levelo://app?vid=6f3c99f6-25c2-4dd4-ba80-ca7e8e0ba65e"},"vehicle_type_id":"4","last_reported":1729624111,"current_range_meters":10000,"station_id":"ce4bhnh2rcd13ifvqgug","pricing_plan_id":"cebpf4jnsgd1na2vs0mg"},{"bike_id":"0bc0331c-d93a-4ee5-8e49-d711ae5edad9","system_id":"levelo_inurba_marseille","lat":43.27537,"lon":5.41788,"is_reserved":false,"is_disabled":false,"rental_uris":{"android":"levelo://app?vid=0bc0331c-d93a-4ee5-8e49-d711ae5edad9","ios":"levelo://app?vid=0bc0331c-d93a-4ee5-8e49-d711ae5edad9"},"vehicle_type_id":"4","last_reported":1729624111,"current_range_meters":20800,"station_id":"","pricing_plan_id":"cebpf4jnsgd1na2vs0mg"},{"bike_id":"4f4f65cf-efdc-4c41-b5ac-ce388133b46e","system_id":"levelo_inurba_marseille","lat":43.29572,"lon":5.37661,"is_reserved":false,"is_disabled":false,"rental_uris":{"android":"levelo://app?vid=4f4f65cf-efdc-4c41-b5ac-ce388133b46e","ios":"levelo://app?vid=4f4f65cf-efdc-4c41-b5ac-ce388133b46e"},"vehicle_type_id":"4","last_reported":1729624111,"current_range_meters":30800,"station_id":"ce4bgv12rcd13ifvqcp0","pricing_plan_id":"cebpf4jnsgd1na2vs0mg"},{"bike_id":"3dee495a-7a37-40c3-9d5a-0edc49499f73","system_id":"levelo_inurba_marseille","lat":43.27913,"lon":5.38006,"is_reserved":false,"is_disabled":false,"rental_uris":{"android":"levelo://app?vid=3dee495a-7a37-40c3-9d5a-0edc49499f73","ios":"levelo://app?vid=3dee495a-7a37-40c3-9d5a-0edc49499f73"},"vehicle_type_id":"4","last_reported":1729624111,"current_range_meters":28800,"station_id":"ce4bhf92rcd13ifvqf50","pricing_plan_id":"cebpf4jnsgd1na2vs0mg"},{"bike_id":"0547a563-6e1c-4dd7-bd39-d9b7c22dce89","system_id":"levelo_inurba_marseille","lat":43.29633,"lon":5.40601,"is_reserved":false,"is_disabled":false,"rental_uris":{"android":"levelo://app?vid=0547a563-6e1c-4dd7-bd39-d9b7c22dce89","ios":"levelo://app?vid=0547a563-6e1c-4dd7-bd39-d9b7c22dce89"},"vehicle_type_id":"4","last_reported":1729624111,"current_range_meters":800,"station_id":"ce4bh0h2rcd13ifvqd60","pricing_plan_id":"cebpf4jnsgd1na2vs0mg"},{"bike_id":"e68074ff-f5e2-424b-ac9b-aa2b95174368","system_id":"levelo_inurba_marseille","lat":43.28163,"lon":5.42648,"is_reserved":false,"is_disabled":false,"rental_uris":{"android":"levelo://app?vid=e68074ff-f5e2-424b-ac9b-aa2b95174368","ios":"levelo://app?vid=e68074ff-f5e2-424b-ac9b-aa2b95174368"},"vehicle_type_id":"4","last_reported":1729624111,"current_range_meters":29600,"station_id":"ce4bhnh2rcd13ifvqgug","pricing_plan_id":"cebpf4jnsgd1na2vs0mg"},{"bike_id":"7407cf11-385d-4921-83fa-a27e221365f4","system_id":"levelo_inurba_marseille","lat":43.29572,"lon":5.39982,"is_reserved":false,"is_disabled":false,"rental_uris":{"android":"levelo://app?vid=7407cf11-385d-4921-83fa-a27e221365f4","ios":"levelo://app?vid=7407cf11-385d-4921-83fa-a27e221365f4"},"vehicle_type_id":"4","last_reported":1729624111,"current_range_meters":2800,"station_id":"ce4bh312rcd13ifvqdj0","pricing_plan_id":"cebpf4jnsgd1na2vs0mg"},{"bike_id":"815dd284-1bd2-4bb9-992a-b2116e2485bc","system_id":"levelo_inurba_marseille","lat":43.32899,"lon":5.3643,"is_reserved":false,"is_disabled":false,"rental_uris":{"android":"levelo://app?vid=815dd284-1bd2-4bb9-992a-b2116e2485bc","ios":"levelo://app?vid=815dd284-1bd2-4bb9-992a-b2116e2485bc"},"vehicle_type_id":"4","last_reported":1729624111,"current_range_meters":32400,"station_id":"","pricing_plan_id":"cebpf4jnsgd1na2vs0mg"},{"bike_id":"470a6ebe-193c-4df5-89dc-4c0d25de3ba7","system_id":"levelo_inurba_marseille","lat":43.26061,"lon":5.39398,"is_reserved":false,"is_disabled":false,"rental_uris":{"android":"levelo://app?vid=470a6ebe-193c-4df5-89dc-4c0d25de3ba7","ios":"levelo://app?vid=470a6ebe-193c-4df5-89dc-4c0d25de3ba7"},"vehicle_type_id":"4","last_reported":1729624111,"current_range_meters":16800,"station_id":"ce4bhh92rcd13ifvqfj0","pricing_plan_id":"cebpf4jnsgd1na2vs0mg"},{"bike_id":"9ff64a80-fbeb-434b-b02d-660129a509df","system_id":"levelo_inurba_marseille","lat":43.284,"lon":5.37515,"is_reserved":false,"is_disabled":false,"rental_uris":{"android":"levelo://app?vid=9ff64a80-fbeb-434b-b02d-660129a509df","ios":"levelo://app?vid=9ff64a80-fbeb-434b-b02d-660129a509df"},"vehicle_type_id":"4","last_reported":1729624111,"current_range_meters":22800,"station_id":"ce4bh412rcd13ifvqds0","pricing_plan_id":"cebpf4jnsgd1na2vs0mg"},{"bike_id":"7f1c15f1-848d-4acc-9f79-9cbd4d7eea72","system_id":"levelo_inurba_marseille","lat":43.29258,"lon":5.40899,"is_reserved":false,"is_disabled":false,"rental_uris":{"android":"levelo://app?vid=7f1c15f1-848d-4acc-9f79-9cbd4d7eea72","ios":"levelo://app?vid=7f1c15f1-848d-4acc-9f79-9cbd4d7eea72"},"vehicle_type_id":"4","last_reported":1729624111,"current_range_meters":6800,"station_id":"ce4bh192rcd13ifvqdc0","pricing_plan_id":"cebpf4jnsgd1na2vs0mg"},{"bike_id":"aef67d90-fb66-4a24-a171-792dc284aadd","system_id":"levelo_inurba_marseille","lat":43.29261,"lon":5.38439,"is_reserved":false,"is_disabled":false,"rental_uris":{"android":"levelo://app?vid=aef67d90-fb66-4a24-a171-792dc284aadd","ios":"levelo://app?vid=aef67d90-fb66-4a24-a171-792dc284aadd"},"vehicle_type_id":"4","last_reported":1729624111,"current_range_meters":24000,"station_id":"ce4bh692rcd13ifvqea0","pricing_plan_id":"cebpf4jnsgd1na2vs0mg"},{"bike_id":"bacf3df1-0d8d-47a5-9325-bba25d3d37f0","system_id":"levelo_inurba_marseille","lat":43.2783,"lon":5.40728,"is_reserved":false,"is_disabled":false,"rental_uris":{"android":"levelo://app?vid=bacf3df1-0d8d-47a5-9325-bba25d3d37f0","ios":"levelo://app?vid=bacf3df1-0d8d-47a5-9325-bba25d3d37f0"},"vehicle_type_id":"4","last_reported":1729624111,"current_range_meters":8400,"station_id":"ce4bhnh2rcd13ifvqgtg","pricing_plan_id":"cebpf4jnsgd1na2vs0mg"},{"bike_id":"70f5c988-d736-45a0-9b49-4ca642435bb6","system_id":"levelo_inurba_marseille","lat":43.24165,"lon":5.36397,"is_reserved":false,"is_disabled":false,"rental_uris":{"android":"levelo://app?vid=70f5c988-d736-45a0-9b49-4ca642435bb6","ios":"levelo://app?vid=70f5c988-d736-45a0-9b49-4ca642435bb6"},"vehicle_type_id":"4","last_reported":1729624111,"current_range_meters":17200,"station_id":"cpo36qri1sfpv3e86is0","pricing_plan_id":"cebpf4jnsgd1na2vs0mg"},{"bike_id":"68258df3-2c10-412f-bf4f-49eafada0c2d","system_id":"levelo_inurba_marseille","lat":43.33024,"lon":5.39043,"is_reserved":false,"is_disabled":false,"rental_uris":{"android":"levelo://app?vid=68258df3-2c10-412f-bf4f-49eafada0c2d","ios":"levelo://app?vid=68258df3-2c10-412f-bf4f-49eafada0c2d"},"vehicle_type_id":"4","last_reported":1729624111,"current_range_meters":20800,"station_id":"ce4bhr92rcd13ifvqhrg","pricing_plan_id":"cebpf4jnsgd1na2vs0mg"},{"bike_id":"ce26414e-cf4f-4228-969f-0f32a95f8de8","system_id":"levelo_inurba_marseille","lat":43.28013,"lon":5.35,"is_reserved":false,"is_disabled":false,"rental_uris":{"android":"levelo://app?vid=ce26414e-cf4f-4228-969f-0f32a95f8de8","ios":"levelo://app?vid=ce26414e-cf4f-4228-969f-0f32a95f8de8"},"vehicle_type_id":"4","last_reported":1729624111,"current_range_meters":24800,"station_id":"","pricing_plan_id":"cebpf4jnsgd1na2vs0mg"},{"bike_id":"587e3748-697f-4c60-a28e-97991e6983ef","system_id":"levelo_inurba_marseille","lat":43.30211,"lon":5.39471,"is_reserved":false,"is_disabled":false,"rental_uris":{"android":"levelo://app?vid=587e3748-697f-4c60-a28e-97991e6983ef","ios":"levelo://app?vid=587e3748-697f-4c60-a28e-97991e6983ef"},"vehicle_type_id":"4","last_reported":1729624111,"current_range_meters":4000,"station_id":"ce4bh0p2rcd13ifvqd70","pricing_plan_id":"cebpf4jnsgd1na2vs0mg"},{"bike_id":"3794bd7c-6f64-4b8e-983e-3e1e4157df0b","system_id":"levelo_inurba_marseille","lat":43.28356,"lon":5.38101,"is_reserved":false,"is_disabled":false,"rental_uris":{"android":"levelo://app?vid=3794bd7c-6f64-4b8e-983e-3e1e4157df0b","ios":"levelo://app?vid=3794bd7c-6f64-4b8e-983e-3e1e4157df0b"},"vehicle_type_id":"4","last_reported":1729624111,"current_range_meters":24400,"station_id":"ce4bh412rcd13ifvqdr0","pricing_plan_id":"cebpf4jnsgd1na2vs0mg"},{"bike_id":"a1de00be-7b7d-4de0-8c92-ea85000f2d84","system_id":"levelo_inurba_marseille","lat":43.30112,"lon":5.38795,"is_reserved":false,"is_disabled":false,"rental_uris":{"android":"levelo://app?vid=a1de00be-7b7d-4de0-8c92-ea85000f2d84","ios":"levelo://app?vid=a1de00be-7b7d-4de0-8c92-ea85000f2d84"},"vehicle_type_id":"4","last_reported":1729624111,"current_range_meters":12000,"station_id":"ce4bghh2rcd13ifvqb60","pricing_plan_id":"cebpf4jnsgd1na2vs0mg"},{"bike_id":"cb4bec8b-fb72-42dd-8fc2-805b56b81d01","system_id":"levelo_inurba_marseille","lat":43.29262,"lon":5.38435,"is_reserved":false,"is_disabled":false,"rental_uris":{"android":"levelo://app?vid=cb4bec8b-fb72-42dd-8fc2-805b56b81d01","ios":"levelo://app?vid=cb4bec8b-fb72-42dd-8fc2-805b56b81d01"},"vehicle_type_id":"4","last_reported":1729624111,"current_range_meters":36400,"station_id":"ce4bh692rcd13ifvqea0","pricing_plan_id":"cebpf4jnsgd1na2vs0mg"},{"bike_id":"c0de3324-f0f6-483f-b2d5-cd9a86b7d182","system_id":"levelo_inurba_marseille","lat":43.2903,"lon":5.38649,"is_reserved":false,"is_disabled":false,"rental_uris":{"android":"levelo://app?vid=c0de3324-f0f6-483f-b2d5-cd9a86b7d182","ios":"levelo://app?vid=c0de3324-f0f6-483f-b2d5-cd9a86b7d182"},"vehicle_type_id":"4","last_reported":1729624111,"current_range_meters":28400,"station_id":"ce4bh4p2rcd13ifvqe0g","pricing_plan_id":"cebpf4jnsgd1na2vs0mg"},{"bike_id":"a9ce1152-17f0-404c-8257-8a34b1f33b0d","system_id":"levelo_inurba_marseille","lat":43.295709,"lon":5.39976,"is_reserved":false,"is_disabled":false,"rental_uris":{"android":"levelo://app?vid=a9ce1152-17f0-404c-8257-8a34b1f33b0d","ios":"levelo://app?vid=a9ce1152-17f0-404c-8257-8a34b1f33b0d"},"vehicle_type_id":"4","last_reported":1729624111,"current_range_meters":15200,"station_id":"ce4bh312rcd13ifvqdj0","pricing_plan_id":"cebpf4jnsgd1na2vs0mg"},{"bike_id":"78dfab96-ecf1-42b4-bcf5-a95bb2004a41","system_id":"levelo_inurba_marseille","lat":43.30415,"lon":5.41289,"is_reserved":false,"is_disabled":false,"rental_uris":{"android":"levelo://app?vid=78dfab96-ecf1-42b4-bcf5-a95bb2004a41","ios":"levelo://app?vid=78dfab96-ecf1-42b4-bcf5-a95bb2004a41"},"vehicle_type_id":"4","last_reported":1729624111,"current_range_meters":14800,"station_id":"ce4bhop2rcd13ifvqh8g","pricing_plan_id":"cebpf4jnsgd1na2vs0mg"},{"bike_id":"ef055a5b-48eb-40f6-8993-3d0e99bf88c6","system_id":"levelo_inurba_marseille","lat":43.29556,"lon":5.42293,"is_reserved":false,"is_disabled":false,"rental_uris":{"android":"levelo://app?vid=ef055a5b-48eb-40f6-8993-3d0e99bf88c6","ios":"levelo://app?vid=ef055a5b-48eb-40f6-8993-3d0e99bf88c6"},"vehicle_type_id":"4","last_reported":1729624111,"current_range_meters":30400,"station_id":"ce4bhph2rcd13ifvqhdg","pricing_plan_id":"cebpf4jnsgd1na2vs0mg"},{"bike_id":"e5e704e1-0d94-41f5-9502-849ea3ccab68","system_id":"levelo_inurba_marseille","lat":43.31176,"lon":5.38714,"is_reserved":false,"is_disabled":false,"rental_uris":{"android":"levelo://app?vid=e5e704e1-0d94-41f5-9502-849ea3ccab68","ios":"levelo://app?vid=e5e704e1-0d94-41f5-9502-849ea3ccab68"},"vehicle_type_id":"4","last_reported":1729624111,"current_range_meters":34800,"station_id":"ce4bgv12rcd13ifvqcp0","pricing_plan_id":"cebpf4jnsgd1na2vs0mg"},{"bike_id":"8f3de1c2-d81c-47ac-a1f0-f7a642e8795f","system_id":"levelo_inurba_marseille","lat":43.293121,"lon":5.371781,"is_reserved":false,"is_disabled":false,"rental_uris":{"android":"levelo://app?vid=8f3de1c2-d81c-47ac-a1f0-f7a642e8795f","ios":"levelo://app?vid=8f3de1c2-d81c-47ac-a1f0-f7a642e8795f"},"vehicle_type_id":"4","last_reported":1729624111,"current_range_meters":9600,"station_id":"ce4bh292rcd13ifvqdf0","pricing_plan_id":"cebpf4jnsgd1na2vs0mg"},{"bike_id":"0290ab5a-42d3-4476-9fc4-3caaf6899b72","system_id":"levelo_inurba_marseille","lat":43.29874,"lon":5.39735,"is_reserved":false,"is_disabled":false,"rental_uris":{"android":"levelo://app?vid=0290ab5a-42d3-4476-9fc4-3caaf6899b72","ios":"levelo://app?vid=0290ab5a-42d3-4476-9fc4-3caaf6899b72"},"vehicle_type_id":"4","last_reported":1729624111,"current_range_meters":30800,"station_id":"ce4bh0h2rcd13ifvqd50","pricing_plan_id":"cebpf4jnsgd1na2vs0mg"},{"bike_id":"f801a972-c648-424a-a7e1-9d8a4bf001b1","system_id":"levelo_inurba_marseille","lat":43.2803,"lon":5.36947,"is_reserved":false,"is_disabled":false,"rental_uris":{"android":"levelo://app?vid=f801a972-c648-424a-a7e1-9d8a4bf001b1","ios":"levelo://app?vid=f801a972-c648-424a-a7e1-9d8a4bf001b1"},"vehicle_type_id":"4","last_reported":1729624111,"current_range_meters":38000,"station_id":"ce4bha12rcd13ifvqef0","pricing_plan_id":"cebpf4jnsgd1na2vs0mg"},{"bike_id":"7ca2ea14-5faa-48f5-9b35-1a6abe704dd7","system_id":"levelo_inurba_marseille","lat":43.27669,"lon":5.38895,"is_reserved":false,"is_disabled":false,"rental_uris":{"android":"levelo://app?vid=7ca2ea14-5faa-48f5-9b35-1a6abe704dd7","ios":"levelo://app?vid=7ca2ea14-5faa-48f5-9b35-1a6abe704dd7"},"vehicle_type_id":"4","last_reported":1729624111,"current_range_meters":37600,"station_id":"ce4bhi12rcd13ifvqfo0","pricing_plan_id":"cebpf4jnsgd1na2vs0mg"},{"bike_id":"2cdf5722-0992-422b-b8c9-f0bdbeea1331","system_id":"levelo_inurba_marseille","lat":43.27069,"lon":5.42283,"is_reserved":false,"is_disabled":false,"rental_uris":{"android":"levelo://app?vid=2cdf5722-0992-422b-b8c9-f0bdbeea1331","ios":"levelo://app?vid=2cdf5722-0992-422b-b8c9-f0bdbeea1331"},"vehicle_type_id":"4","last_reported":1729624111,"current_range_meters":9200,"station_id":"ce4bhk92rcd13ifvqgb0","pricing_plan_id":"cebpf4jnsgd1na2vs0mg"},{"bike_id":"f811a1c9-7a68-452c-9a9d-bd7190b46bbc","system_id":"levelo_inurba_marseille","lat":43.31532,"lon":5.38043,"is_reserved":false,"is_disabled":false,"rental_uris":{"android":"levelo://app?vid=f811a1c9-7a68-452c-9a9d-bd7190b46bbc","ios":"levelo://app?vid=f811a1c9-7a68-452c-9a9d-bd7190b46bbc"},"vehicle_type_id":"4","last_reported":1729624111,"current_range_meters":4800,"station_id":"ce4bhsp2rcd13ifvqi50","pricing_plan_id":"cebpf4jnsgd1na2vs0mg"},{"bike_id":"8421729f-2262-4a58-a0a3-ecafe28b31c4","system_id":"levelo_inurba_marseille","lat":43.27907,"lon":5.38008,"is_reserved":false,"is_disabled":false,"rental_uris":{"android":"levelo://app?vid=8421729f-2262-4a58-a0a3-ecafe28b31c4","ios":"levelo://app?vid=8421729f-2262-4a58-a0a3-ecafe28b31c4"},"vehicle_type_id":"4","last_reported":1729624111,"current_range_meters":18000,"station_id":"ce4bhf92rcd13ifvqf50","pricing_plan_id":"cebpf4jnsgd1na2vs0mg"},{"bike_id":"efcfe299-aff8-44b3-af8e-1773f04c3f56","system_id":"levelo_inurba_marseille","lat":43.30432,"lon":5.389019,"is_reserved":false,"is_disabled":false,"rental_uris":{"android":"levelo://app?vid=efcfe299-aff8-44b3-af8e-1773f04c3f56","ios":"levelo://app?vid=efcfe299-aff8-44b3-af8e-1773f04c3f56"},"vehicle_type_id":"4","last_reported":1729624111,"current_range_meters":38800,"station_id":"ce4bgk12rcd13ifvqbi0","pricing_plan_id":"cebpf4jnsgd1na2vs0mg"},{"bike_id":"dcc861e6-bf72-42de-9fd3-e29e3726dc35","system_id":"levelo_inurba_marseille","lat":43.291931,"lon":5.358088,"is_reserved":false,"is_disabled":false,"rental_uris":{"android":"levelo://app?vid=dcc861e6-bf72-42de-9fd3-e29e3726dc35","ios":"levelo://app?vid=dcc861e6-bf72-42de-9fd3-e29e3726dc35"},"vehicle_type_id":"4","last_reported":1729624111,"current_range_meters":6000,"station_id":"ce4bhb12rcd13ifvqel0","pricing_plan_id":"cebpf4jnsgd1na2vs0mg"},{"bike_id":"2b80f943-bf35-49c7-9584-ea1845fd1d05","system_id":"levelo_inurba_marseille","lat":43.23191,"lon":5.35548,"is_reserved":false,"is_disabled":false,"rental_uris":{"android":"levelo://app?vid=2b80f943-bf35-49c7-9584-ea1845fd1d05","ios":"levelo://app?vid=2b80f943-bf35-49c7-9584-ea1845fd1d05"},"vehicle_type_id":"4","last_reported":1729624111,"current_range_meters":8800,"station_id":"ce4bhu92rcd13ifvqi70","pricing_plan_id":"cebpf4jnsgd1na2vs0mg"},{"bike_id":"d4be358b-41a1-4e5d-a11f-e010c6bddcd5","system_id":"levelo_inurba_marseille","lat":43.23192,"lon":5.35554,"is_reserved":false,"is_disabled":false,"rental_uris":{"android":"levelo://app?vid=d4be358b-41a1-4e5d-a11f-e010c6bddcd5","ios":"levelo://app?vid=d4be358b-41a1-4e5d-a11f-e010c6bddcd5"},"vehicle_type_id":"4","last_reported":1729624111,"current_range_meters":31200,"station_id":"ce4bhu92rcd13ifvqi70","pricing_plan_id":"cebpf4jnsgd1na2vs0mg"},{"bike_id":"3cfe18fe-d460-49e1-ae87-a71b98fe6e5d","system_id":"levelo_inurba_marseille","lat":43.29536,"lon":5.38539,"is_reserved":false,"is_disabled":false,"rental_uris":{"android":"levelo://app?vid=3cfe18fe-d460-49e1-ae87-a71b98fe6e5d","ios":"levelo://app?vid=3cfe18fe-d460-49e1-ae87-a71b98fe6e5d"},"vehicle_type_id":"4","last_reported":1729624111,"current_range_meters":38000,"station_id":"ce4bgih2rcd13ifvqba0","pricing_plan_id":"cebpf4jnsgd1na2vs0mg"},{"bike_id":"250ac974-4810-406d-9164-349ff4ee0953","system_id":"levelo_inurba_marseille","lat":43.25866,"lon":5.39899,"is_reserved":false,"is_disabled":false,"rental_uris":{"android":"levelo://app?vid=250ac974-4810-406d-9164-349ff4ee0953","ios":"levelo://app?vid=250ac974-4810-406d-9164-349ff4ee0953"},"vehicle_type_id":"4","last_reported":1729624111,"current_range_meters":8000,"station_id":"ce4bhl92rcd13ifvqghg","pricing_plan_id":"cebpf4jnsgd1na2vs0mg"},{"bike_id":"669bf473-ea4a-4c7d-acc6-14a612b65c49","system_id":"levelo_inurba_marseille","lat":43.3088,"lon":5.39642,"is_reserved":false,"is_disabled":false,"rental_uris":{"android":"levelo://app?vid=669bf473-ea4a-4c7d-acc6-14a612b65c49","ios":"levelo://app?vid=669bf473-ea4a-4c7d-acc6-14a612b65c49"},"vehicle_type_id":"4","last_reported":1729624111,"current_range_meters":35200,"station_id":"ce4bh012rcd13ifvqcv0","pricing_plan_id":"cebpf4jnsgd1na2vs0mg"},{"bike_id":"8b3fb690-85c6-4703-86e3-f27a8f80559c","system_id":"levelo_inurba_marseille","lat":43.27372,"lon":5.36265,"is_reserved":false,"is_disabled":false,"rental_uris":{"android":"levelo://app?vid=8b3fb690-85c6-4703-86e3-f27a8f80559c","ios":"levelo://app?vid=8b3fb690-85c6-4703-86e3-f27a8f80559c"},"vehicle_type_id":"4","last_reported":1729624111,"current_range_meters":11200,"station_id":"ce4bhbh2rcd13ifvqeo0","pricing_plan_id":"cebpf4jnsgd1na2vs0mg"},{"bike_id":"627c6540-d7df-46a3-8354-a24156ff4b61","system_id":"levelo_inurba_marseille","lat":43.3012,"lon":5.39873,"is_reserved":false,"is_disabled":false,"rental_uris":{"android":"levelo://app?vid=627c6540-d7df-46a3-8354-a24156ff4b61","ios":"levelo://app?vid=627c6540-d7df-46a3-8354-a24156ff4b61"},"vehicle_type_id":"4","last_reported":1729624111,"current_range_meters":38400,"station_id":"ce4bh0h2rcd13ifvqd40","pricing_plan_id":"cebpf4jnsgd1na2vs0mg"},{"bike_id":"bb42b4c4-a7f9-4cff-8e2f-88eb4eea6f3b","system_id":"levelo_inurba_marseille","lat":43.3149,"lon":5.3731,"is_reserved":false,"is_disabled":false,"rental_uris":{"android":"levelo://app?vid=bb42b4c4-a7f9-4cff-8e2f-88eb4eea6f3b","ios":"levelo://app?vid=bb42b4c4-a7f9-4cff-8e2f-88eb4eea6f3b"},"vehicle_type_id":"4","last_reported":1729624111,"current_range_meters":8400,"station_id":"ce4bgt12rcd13ifvqcd0","pricing_plan_id":"cebpf4jnsgd1na2vs0mg"},{"bike_id":"afea8f68-5061-45dc-9eed-ba2c96ecb9b6","system_id":"levelo_inurba_marseille","lat":43.28108,"lon":5.37842,"is_reserved":false,"is_disabled":false,"rental_uris":{"android":"levelo://app?vid=afea8f68-5061-45dc-9eed-ba2c96ecb9b6","ios":"levelo://app?vid=afea8f68-5061-45dc-9eed-ba2c96ecb9b6"},"vehicle_type_id":"4","last_reported":1729624111,"current_range_meters":20000,"station_id":"ce4bha12rcd13ifvqee0","pricing_plan_id":"cebpf4jnsgd1na2vs0mg"},{"bike_id":"9d4c98b6-ee4b-4c5d-9b13-2d2c9f017ba9","system_id":"levelo_inurba_marseille","lat":43.29266,"lon":5.38438,"is_reserved":false,"is_disabled":false,"rental_uris":{"android":"levelo://app?vid=9d4c98b6-ee4b-4c5d-9b13-2d2c9f017ba9","ios":"levelo://app?vid=9d4c98b6-ee4b-4c5d-9b13-2d2c9f017ba9"},"vehicle_type_id":"4","last_reported":1729624111,"current_range_meters":38800,"station_id":"ce4bh692rcd13ifvqea0","pricing_plan_id":"cebpf4jnsgd1na2vs0mg"},{"bike_id":"7f66619b-2f6c-4629-aa9f-89c7d0f7e283","system_id":"levelo_inurba_marseille","lat":43.28576,"lon":5.39495,"is_reserved":false,"is_disabled":false,"rental_uris":{"android":"levelo://app?vid=7f66619b-2f6c-4629-aa9f-89c7d0f7e283","ios":"levelo://app?vid=7f66619b-2f6c-4629-aa9f-89c7d0f7e283"},"vehicle_type_id":"4","last_reported":1729624111,"current_range_meters":19600,"station_id":"ce4bh292rcd13ifvqdg0","pricing_plan_id":"cebpf4jnsgd1na2vs0mg"},{"bike_id":"f677f8b2-f42c-4eea-837b-195a15132d93","system_id":"levelo_inurba_marseille","lat":43.31754,"lon":5.39019,"is_reserved":false,"is_disabled":false,"rental_uris":{"android":"levelo://app?vid=f677f8b2-f42c-4eea-837b-195a15132d93","ios":"levelo://app?vid=f677f8b2-f42c-4eea-837b-195a15132d93"},"vehicle_type_id":"4","last_reported":1729624111,"current_range_meters":4400,"station_id":"ce4bhqp2rcd13ifvqhng","pricing_plan_id":"cebpf4jnsgd1na2vs0mg"},{"bike_id":"e237ca81-6eb3-4433-8fce-924a2ddf22eb","system_id":"levelo_inurba_marseille","lat":43.29419,"lon":5.38633,"is_reserved":false,"is_disabled":false,"rental_uris":{"android":"levelo://app?vid=e237ca81-6eb3-4433-8fce-924a2ddf22eb","ios":"levelo://app?vid=e237ca81-6eb3-4433-8fce-924a2ddf22eb"},"vehicle_type_id":"4","last_reported":1729624111,"current_range_meters":29600,"station_id":"ce4bh2h2rcd13ifvqdh0","pricing_plan_id":"cebpf4jnsgd1na2vs0mg"},{"bike_id":"f1720f56-fc53-460f-9452-3135857c1f39","system_id":"levelo_inurba_marseille","lat":43.28654,"lon":5.36352,"is_reserved":false,"is_disabled":false,"rental_uris":{"android":"levelo://app?vid=f1720f56-fc53-460f-9452-3135857c1f39","ios":"levelo://app?vid=f1720f56-fc53-460f-9452-3135857c1f39"},"vehicle_type_id":"4","last_reported":1729624111,"current_range_meters":18000,"station_id":"ce4bhah2rcd13ifvqej0","pricing_plan_id":"cebpf4jnsgd1na2vs0mg"},{"bike_id":"c2632a56-eb49-4576-89f2-24ffcb35cebd","system_id":"levelo_inurba_marseille","lat":43.26998,"lon":5.3657,"is_reserved":false,"is_disabled":false,"rental_uris":{"android":"levelo://app?vid=c2632a56-eb49-4576-89f2-24ffcb35cebd","ios":"levelo://app?vid=c2632a56-eb49-4576-89f2-24ffcb35cebd"},"vehicle_type_id":"4","last_reported":1729624111,"current_range_meters":30400,"station_id":"","pricing_plan_id":"cebpf4jnsgd1na2vs0mg"},{"bike_id":"1b2938f5-6022-42e3-8759-190207d01f72","system_id":"levelo_inurba_marseille","lat":43.28102,"lon":5.37842,"is_reserved":false,"is_disabled":false,"rental_uris":{"android":"levelo://app?vid=1b2938f5-6022-42e3-8759-190207d01f72","ios":"levelo://app?vid=1b2938f5-6022-42e3-8759-190207d01f72"},"vehicle_type_id":"4","last_reported":1729624111,"current_range_meters":38800,"station_id":"ce4bha12rcd13ifvqee0","pricing_plan_id":"cebpf4jnsgd1na2vs0mg"},{"bike_id":"7b689173-8877-415f-ad6b-e425ff7a0a94","system_id":"levelo_inurba_marseille","lat":43.29599,"lon":5.38099,"is_reserved":false,"is_disabled":false,"rental_uris":{"android":"levelo://app?vid=7b689173-8877-415f-ad6b-e425ff7a0a94","ios":"levelo://app?vid=7b689173-8877-415f-ad6b-e425ff7a0a94"},"vehicle_type_id":"4","last_reported":1729624111,"current_range_meters":12400,"station_id":"ce4bgl12rcd13ifvqbo0","pricing_plan_id":"cebpf4jnsgd1na2vs0mg"},{"bike_id":"a7d17c5e-fa4e-4389-8c32-1b0d87b0877a","system_id":"levelo_inurba_marseille","lat":43.28109,"lon":5.406408,"is_reserved":false,"is_disabled":false,"rental_uris":{"android":"levelo://app?vid=a7d17c5e-fa4e-4389-8c32-1b0d87b0877a","ios":"levelo://app?vid=a7d17c5e-fa4e-4389-8c32-1b0d87b0877a"},"vehicle_type_id":"4","last_reported":1729624111,"current_range_meters":9200,"station_id":"","pricing_plan_id":"cebpf4jnsgd1na2vs0mg"},{"bike_id":"e1f8e01e-04ff-4e64-b8cf-b4e6ab38db6b","system_id":"levelo_inurba_marseille","lat":43.29014,"lon":5.38135,"is_reserved":false,"is_disabled":false,"rental_uris":{"android":"levelo://app?vid=e1f8e01e-04ff-4e64-b8cf-b4e6ab38db6b","ios":"levelo://app?vid=e1f8e01e-04ff-4e64-b8cf-b4e6ab38db6b"},"vehicle_type_id":"4","last_reported":1729624111,"current_range_meters":9600,"station_id":"ce4bh4p2rcd13ifvqe1g","pricing_plan_id":"cebpf4jnsgd1na2vs0mg"},{"bike_id":"d942f8a9-7daf-4ba1-b503-ab1da4a3b7b2","system_id":"levelo_inurba_marseille","lat":43.29977,"lon":5.37192,"is_reserved":false,"is_disabled":false,"rental_uris":{"android":"levelo://app?vid=d942f8a9-7daf-4ba1-b503-ab1da4a3b7b2","ios":"levelo://app?vid=d942f8a9-7daf-4ba1-b503-ab1da4a3b7b2"},"vehicle_type_id":"4","last_reported":1729624111,"current_range_meters":38800,"station_id":"ce4bgr92rcd13ifvqc7g","pricing_plan_id":"cebpf4jnsgd1na2vs0mg"},{"bike_id":"df6a7230-1222-4a82-9956-f05fad1a23f8","system_id":"levelo_inurba_marseille","lat":43.31071,"lon":5.40093,"is_reserved":false,"is_disabled":false,"rental_uris":{"android":"levelo://app?vid=df6a7230-1222-4a82-9956-f05fad1a23f8","ios":"levelo://app?vid=df6a7230-1222-4a82-9956-f05fad1a23f8"},"vehicle_type_id":"4","last_reported":1729624111,"current_range_meters":20400,"station_id":"","pricing_plan_id":"cebpf4jnsgd1na2vs0mg"},{"bike_id":"b9e7e85e-d263-4721-aeab-d1df79d031c6","system_id":"levelo_inurba_marseille","lat":43.30267,"lon":5.40078,"is_reserved":false,"is_disabled":false,"rental_uris":{"android":"levelo://app?vid=b9e7e85e-d263-4721-aeab-d1df79d031c6","ios":"levelo://app?vid=b9e7e85e-d263-4721-aeab-d1df79d031c6"},"vehicle_type_id":"4","last_reported":1729624111,"current_range_meters":22000,"station_id":"ce4bgvh2rcd13ifvqcs0","pricing_plan_id":"cebpf4jnsgd1na2vs0mg"},{"bike_id":"ae63166e-a841-434e-9961-fdf33c0d9458","system_id":"levelo_inurba_marseille","lat":43.29572,"lon":5.37512,"is_reserved":false,"is_disabled":false,"rental_uris":{"android":"levelo://app?vid=ae63166e-a841-434e-9961-fdf33c0d9458","ios":"levelo://app?vid=ae63166e-a841-434e-9961-fdf33c0d9458"},"vehicle_type_id":"4","last_reported":1729624111,"current_range_meters":33200,"station_id":"ce4bgh92rcd13ifvqb50","pricing_plan_id":"cebpf4jnsgd1na2vs0mg"},{"bike_id":"f3a9bfe9-0caf-4aaa-a956-888fb7f564fa","system_id":"levelo_inurba_marseille","lat":43.29424,"lon":5.38626,"is_reserved":false,"is_disabled":false,"rental_uris":{"android":"levelo://app?vid=f3a9bfe9-0caf-4aaa-a956-888fb7f564fa","ios":"levelo://app?vid=f3a9bfe9-0caf-4aaa-a956-888fb7f564fa"},"vehicle_type_id":"4","last_reported":1729624111,"current_range_meters":31200,"station_id":"ce4bh2h2rcd13ifvqdh0","pricing_plan_id":"cebpf4jnsgd1na2vs0mg"},{"bike_id":"38449b09-68ae-4e11-9fc1-7aad467e225f","system_id":"levelo_inurba_marseille","lat":43.30087,"lon":5.39082,"is_reserved":false,"is_disabled":false,"rental_uris":{"android":"levelo://app?vid=38449b09-68ae-4e11-9fc1-7aad467e225f","ios":"levelo://app?vid=38449b09-68ae-4e11-9fc1-7aad467e225f"},"vehicle_type_id":"4","last_reported":1729624111,"current_range_meters":6800,"station_id":"ce4bh192rcd13ifvqdb0","pricing_plan_id":"cebpf4jnsgd1na2vs0mg"},{"bike_id":"c4eec3c4-0ab1-42b5-b18d-f8455c82d372","system_id":"levelo_inurba_marseille","lat":43.30879,"lon":5.39636,"is_reserved":false,"is_disabled":false,"rental_uris":{"android":"levelo://app?vid=c4eec3c4-0ab1-42b5-b18d-f8455c82d372","ios":"levelo://app?vid=c4eec3c4-0ab1-42b5-b18d-f8455c82d372"},"vehicle_type_id":"4","last_reported":1729624111,"current_range_meters":33600,"station_id":"ce4bh012rcd13ifvqcv0","pricing_plan_id":"cebpf4jnsgd1na2vs0mg"},{"bike_id":"fd48b4a5-21e0-4357-af2d-13f8a366950c","system_id":"levelo_inurba_marseille","lat":43.28105,"lon":5.37841,"is_reserved":false,"is_disabled":false,"rental_uris":{"android":"levelo://app?vid=fd48b4a5-21e0-4357-af2d-13f8a366950c","ios":"levelo://app?vid=fd48b4a5-21e0-4357-af2d-13f8a366950c"},"vehicle_type_id":"4","last_reported":1729624111,"current_range_meters":6400,"station_id":"ce4bha12rcd13ifvqee0","pricing_plan_id":"cebpf4jnsgd1na2vs0mg"},{"bike_id":"f295f490-2d3f-427d-a5bc-9910d22cd39c","system_id":"levelo_inurba_marseille","lat":43.31369,"lon":5.38485,"is_reserved":false,"is_disabled":false,"rental_uris":{"android":"levelo://app?vid=f295f490-2d3f-427d-a5bc-9910d22cd39c","ios":"levelo://app?vid=f295f490-2d3f-427d-a5bc-9910d22cd39c"},"vehicle_type_id":"4","last_reported":1729624111,"current_range_meters":3200,"station_id":"ce4bgt92rcd13ifvqcf0","pricing_plan_id":"cebpf4jnsgd1na2vs0mg"},{"bike_id":"440a8754-951d-42db-9763-cade6b6bdf49","system_id":"levelo_inurba_marseille","lat":43.310812,"lon":5.378516,"is_reserved":false,"is_disabled":false,"rental_uris":{"android":"levelo://app?vid=440a8754-951d-42db-9763-cade6b6bdf49","ios":"levelo://app?vid=440a8754-951d-42db-9763-cade6b6bdf49"},"vehicle_type_id":"4","last_reported":1729624111,"current_range_meters":36800,"station_id":"ce4bgt12rcd13ifvqcd0","pricing_plan_id":"cebpf4jnsgd1na2vs0mg"},{"bike_id":"80e3b455-c690-4b9d-a635-58ce949b1ccf","system_id":"levelo_inurba_marseille","lat":43.27176,"lon":5.40998,"is_reserved":false,"is_disabled":false,"rental_uris":{"android":"levelo://app?vid=80e3b455-c690-4b9d-a635-58ce949b1ccf","ios":"levelo://app?vid=80e3b455-c690-4b9d-a635-58ce949b1ccf"},"vehicle_type_id":"4","last_reported":1729624111,"current_range_meters":11200,"station_id":"ce4bhl12rcd13ifvqgf0","pricing_plan_id":"cebpf4jnsgd1na2vs0mg"},{"bike_id":"c4c0d713-4111-4a7a-a6b5-2557950446e9","system_id":"levelo_inurba_marseille","lat":43.28357,"lon":5.38106,"is_reserved":false,"is_disabled":false,"rental_uris":{"android":"levelo://app?vid=c4c0d713-4111-4a7a-a6b5-2557950446e9","ios":"levelo://app?vid=c4c0d713-4111-4a7a-a6b5-2557950446e9"},"vehicle_type_id":"4","last_reported":1729624111,"current_range_meters":8800,"station_id":"ce4bh412rcd13ifvqdr0","pricing_plan_id":"cebpf4jnsgd1na2vs0mg"},{"bike_id":"c94abab2-f1f0-47ee-9525-418973ca413f","system_id":"levelo_inurba_marseille","lat":43.29973,"lon":5.37183,"is_reserved":false,"is_disabled":false,"rental_uris":{"android":"levelo://app?vid=c94abab2-f1f0-47ee-9525-418973ca413f","ios":"levelo://app?vid=c94abab2-f1f0-47ee-9525-418973ca413f"},"vehicle_type_id":"4","last_reported":1729624111,"current_range_meters":38400,"station_id":"ce4bgr92rcd13ifvqc7g","pricing_plan_id":"cebpf4jnsgd1na2vs0mg"},{"bike_id":"fc488335-d0c6-47a0-aae7-754d353380f8","system_id":"levelo_inurba_marseille","lat":43.29196,"lon":5.39321,"is_reserved":false,"is_disabled":false,"rental_uris":{"android":"levelo://app?vid=fc488335-d0c6-47a0-aae7-754d353380f8","ios":"levelo://app?vid=fc488335-d0c6-47a0-aae7-754d353380f8"},"vehicle_type_id":"4","last_reported":1729624111,"current_range_meters":11600,"station_id":"ce4bh192rcd13ifvqdd0","pricing_plan_id":"cebpf4jnsgd1na2vs0mg"},{"bike_id":"df6f69c0-7ceb-4f2d-bbe7-1066717d0c4c","system_id":"levelo_inurba_marseille","lat":43.2846,"lon":5.35893,"is_reserved":false,"is_disabled":false,"rental_uris":{"android":"levelo://app?vid=df6f69c0-7ceb-4f2d-bbe7-1066717d0c4c","ios":"levelo://app?vid=df6f69c0-7ceb-4f2d-bbe7-1066717d0c4c"},"vehicle_type_id":"4","last_reported":1729624111,"current_range_meters":9200,"station_id":"ce4bhah2rcd13ifvqei0","pricing_plan_id":"cebpf4jnsgd1na2vs0mg"},{"bike_id":"6ec530b6-b592-47be-aa1d-1fb2aef77d3f","system_id":"levelo_inurba_marseille","lat":43.2439,"lon":5.37062,"is_reserved":false,"is_disabled":false,"rental_uris":{"android":"levelo://app?vid=6ec530b6-b592-47be-aa1d-1fb2aef77d3f","ios":"levelo://app?vid=6ec530b6-b592-47be-aa1d-1fb2aef77d3f"},"vehicle_type_id":"4","last_reported":1729624111,"current_range_meters":36800,"station_id":"ce4bhhh2rcd13ifvqfk0","pricing_plan_id":"cebpf4jnsgd1na2vs0mg"},{"bike_id":"9dc24a04-3d2e-4167-8d9c-e15b1d91333a","system_id":"levelo_inurba_marseille","lat":43.25495,"lon":5.37649,"is_reserved":false,"is_disabled":false,"rental_uris":{"android":"levelo://app?vid=9dc24a04-3d2e-4167-8d9c-e15b1d91333a","ios":"levelo://app?vid=9dc24a04-3d2e-4167-8d9c-e15b1d91333a"},"vehicle_type_id":"4","last_reported":1729624111,"current_range_meters":17200,"station_id":"ce4bhh12rcd13ifvqff0","pricing_plan_id":"cebpf4jnsgd1na2vs0mg"},{"bike_id":"3b24906b-6163-4754-a6ac-6fae7ba899b3","system_id":"levelo_inurba_marseille","lat":43.289795,"lon":5.378378,"is_reserved":false,"is_disabled":false,"rental_uris":{"android":"levelo://app?vid=3b24906b-6163-4754-a6ac-6fae7ba899b3","ios":"levelo://app?vid=3b24906b-6163-4754-a6ac-6fae7ba899b3"},"vehicle_type_id":"4","last_reported":1729624111,"current_range_meters":20000,"station_id":"ce4bh9p2rcd13ifvqed0","pricing_plan_id":"cebpf4jnsgd1na2vs0mg"},{"bike_id":"d5fbbe87-f3dc-4d61-9755-931e1a0eb6db","system_id":"levelo_inurba_marseille","lat":43.2962,"lon":5.37172,"is_reserved":false,"is_disabled":false,"rental_uris":{"android":"levelo://app?vid=d5fbbe87-f3dc-4d61-9755-931e1a0eb6db","ios":"levelo://app?vid=d5fbbe87-f3dc-4d61-9755-931e1a0eb6db"},"vehicle_type_id":"4","last_reported":1729624111,"current_range_meters":24000,"station_id":"ce4bgnh2rcd13ifvqc0g","pricing_plan_id":"cebpf4jnsgd1na2vs0mg"},{"bike_id":"e6924fdb-9170-4ef4-ab76-add51ac06b8f","system_id":"levelo_inurba_marseille","lat":43.2582,"lon":5.39439,"is_reserved":false,"is_disabled":false,"rental_uris":{"android":"levelo://app?vid=e6924fdb-9170-4ef4-ab76-add51ac06b8f","ios":"levelo://app?vid=e6924fdb-9170-4ef4-ab76-add51ac06b8f"},"vehicle_type_id":"4","last_reported":1729624111,"current_range_meters":4000,"station_id":"ce4bhip2rcd13ifvqft0","pricing_plan_id":"cebpf4jnsgd1na2vs0mg"},{"bike_id":"fa65419f-05ad-4072-b4ee-e60c2f9a1fc6","system_id":"levelo_inurba_marseille","lat":43.29522,"lon":5.39038,"is_reserved":false,"is_disabled":false,"rental_uris":{"android":"levelo://app?vid=fa65419f-05ad-4072-b4ee-e60c2f9a1fc6","ios":"levelo://app?vid=fa65419f-05ad-4072-b4ee-e60c2f9a1fc6"},"vehicle_type_id":"4","last_reported":1729624111,"current_range_meters":27600,"station_id":"ce4bh3p2rcd13ifvqdp0","pricing_plan_id":"cebpf4jnsgd1na2vs0mg"},{"bike_id":"0388d260-bac3-4509-a67d-c60153f0de97","system_id":"levelo_inurba_marseille","lat":43.29552,"lon":5.42293,"is_reserved":false,"is_disabled":false,"rental_uris":{"android":"levelo://app?vid=0388d260-bac3-4509-a67d-c60153f0de97","ios":"levelo://app?vid=0388d260-bac3-4509-a67d-c60153f0de97"},"vehicle_type_id":"4","last_reported":1729624111,"current_range_meters":16000,"station_id":"ce4bhph2rcd13ifvqhdg","pricing_plan_id":"cebpf4jnsgd1na2vs0mg"},{"bike_id":"36156996-45e5-46cb-8a8d-381e1f24a4b5","system_id":"levelo_inurba_marseille","lat":43.28151,"lon":5.4264,"is_reserved":false,"is_disabled":false,"rental_uris":{"android":"levelo://app?vid=36156996-45e5-46cb-8a8d-381e1f24a4b5","ios":"levelo://app?vid=36156996-45e5-46cb-8a8d-381e1f24a4b5"},"vehicle_type_id":"4","last_reported":1729624111,"current_range_meters":14400,"station_id":"ce4bhnh2rcd13ifvqgug","pricing_plan_id":"cebpf4jnsgd1na2vs0mg"},{"bike_id":"41c7cb2b-fbbd-4393-860e-7f67203a6179","system_id":"levelo_inurba_marseille","lat":43.27611,"lon":5.360903,"is_reserved":false,"is_disabled":false,"rental_uris":{"android":"levelo://app?vid=41c7cb2b-fbbd-4393-860e-7f67203a6179","ios":"levelo://app?vid=41c7cb2b-fbbd-4393-860e-7f67203a6179"},"vehicle_type_id":"4","last_reported":1729624111,"current_range_meters":38000,"station_id":"ce4bgj92rcd13ifvqbe0","pricing_plan_id":"cebpf4jnsgd1na2vs0mg"},{"bike_id":"115c7d55-d46f-4f51-9475-79fbdb9af917","system_id":"levelo_inurba_marseille","lat":43.30783,"lon":5.37657,"is_reserved":false,"is_disabled":false,"rental_uris":{"android":"levelo://app?vid=115c7d55-d46f-4f51-9475-79fbdb9af917","ios":"levelo://app?vid=115c7d55-d46f-4f51-9475-79fbdb9af917"},"vehicle_type_id":"4","last_reported":1729624111,"current_range_meters":39200,"station_id":"ce4bgv92rcd13ifvqcq0","pricing_plan_id":"cebpf4jnsgd1na2vs0mg"},{"bike_id":"2f9296ee-c4a6-4ab2-be4c-42c9bd716a4c","system_id":"levelo_inurba_marseille","lat":43.29609,"lon":5.37725,"is_reserved":false,"is_disabled":false,"rental_uris":{"android":"levelo://app?vid=2f9296ee-c4a6-4ab2-be4c-42c9bd716a4c","ios":"levelo://app?vid=2f9296ee-c4a6-4ab2-be4c-42c9bd716a4c"},"vehicle_type_id":"4","last_reported":1729624111,"current_range_meters":38000,"station_id":"ce4bgi92rcd13ifvqb90","pricing_plan_id":"cebpf4jnsgd1na2vs0mg"},{"bike_id":"ecc12859-ad11-4bad-9d2f-e311165b7c51","system_id":"levelo_inurba_marseille","lat":43.27371,"lon":5.36266,"is_reserved":false,"is_disabled":false,"rental_uris":{"android":"levelo://app?vid=ecc12859-ad11-4bad-9d2f-e311165b7c51","ios":"levelo://app?vid=ecc12859-ad11-4bad-9d2f-e311165b7c51"},"vehicle_type_id":"4","last_reported":1729624111,"current_range_meters":39200,"station_id":"ce4bhbh2rcd13ifvqeo0","pricing_plan_id":"cebpf4jnsgd1na2vs0mg"},{"bike_id":"a3300d86-d6d3-4946-a53a-4211b49d72a2","system_id":"levelo_inurba_marseille","lat":43.30083,"lon":5.39084,"is_reserved":false,"is_disabled":false,"rental_uris":{"android":"levelo://app?vid=a3300d86-d6d3-4946-a53a-4211b49d72a2","ios":"levelo://app?vid=a3300d86-d6d3-4946-a53a-4211b49d72a2"},"vehicle_type_id":"4","last_reported":1729624111,"current_range_meters":26000,"station_id":"ce4bh192rcd13ifvqdb0","pricing_plan_id":"cebpf4jnsgd1na2vs0mg"},{"bike_id":"0d9ef5a3-2381-4d60-bff4-852d2062eb52","system_id":"levelo_inurba_marseille","lat":43.28102,"lon":5.37833,"is_reserved":false,"is_disabled":false,"rental_uris":{"android":"levelo://app?vid=0d9ef5a3-2381-4d60-bff4-852d2062eb52","ios":"levelo://app?vid=0d9ef5a3-2381-4d60-bff4-852d2062eb52"},"vehicle_type_id":"4","last_reported":1729624111,"current_range_meters":4800,"station_id":"ce4bha12rcd13ifvqee0","pricing_plan_id":"cebpf4jnsgd1na2vs0mg"},{"bike_id":"c76af8c3-f685-4d18-b51d-576f84ea933d","system_id":"levelo_inurba_marseille","lat":43.23963,"lon":5.3663,"is_reserved":false,"is_disabled":false,"rental_uris":{"android":"levelo://app?vid=c76af8c3-f685-4d18-b51d-576f84ea933d","ios":"levelo://app?vid=c76af8c3-f685-4d18-b51d-576f84ea933d"},"vehicle_type_id":"4","last_reported":1729624111,"current_range_meters":8000,"station_id":"ce4bhi12rcd13ifvqfp0","pricing_plan_id":"cebpf4jnsgd1na2vs0mg"},{"bike_id":"9221c06a-75f5-49e2-bb8c-153ff475ac43","system_id":"levelo_inurba_marseille","lat":43.23196,"lon":5.35556,"is_reserved":false,"is_disabled":false,"rental_uris":{"android":"levelo://app?vid=9221c06a-75f5-49e2-bb8c-153ff475ac43","ios":"levelo://app?vid=9221c06a-75f5-49e2-bb8c-153ff475ac43"},"vehicle_type_id":"4","last_reported":1729624111,"current_range_meters":10800,"station_id":"ce4bhu92rcd13ifvqi70","pricing_plan_id":"cebpf4jnsgd1na2vs0mg"},{"bike_id":"8bbc986d-cf6e-4a3d-b7ad-084efd1ff273","system_id":"levelo_inurba_marseille","lat":43.28084,"lon":5.39663,"is_reserved":false,"is_disabled":false,"rental_uris":{"android":"levelo://app?vid=8bbc986d-cf6e-4a3d-b7ad-084efd1ff273","ios":"levelo://app?vid=8bbc986d-cf6e-4a3d-b7ad-084efd1ff273"},"vehicle_type_id":"4","last_reported":1729624111,"current_range_meters":36000,"station_id":"ce4bho12rcd13ifvqh2g","pricing_plan_id":"cebpf4jnsgd1na2vs0mg"},{"bike_id":"d379f71e-6ec4-4660-8717-589534322671","system_id":"levelo_inurba_marseille","lat":43.3204,"lon":5.41552,"is_reserved":false,"is_disabled":false,"rental_uris":{"android":"levelo://app?vid=d379f71e-6ec4-4660-8717-589534322671","ios":"levelo://app?vid=d379f71e-6ec4-4660-8717-589534322671"},"vehicle_type_id":"4","last_reported":1729624111,"current_range_meters":6400,"station_id":"ce4bhq92rcd13ifvqhkg","pricing_plan_id":"cebpf4jnsgd1na2vs0mg"},{"bike_id":"2af1e066-e4da-45d1-8e35-6194aa4527ce","system_id":"levelo_inurba_marseille","lat":43.29035,"lon":5.37569,"is_reserved":false,"is_disabled":false,"rental_uris":{"android":"levelo://app?vid=2af1e066-e4da-45d1-8e35-6194aa4527ce","ios":"levelo://app?vid=2af1e066-e4da-45d1-8e35-6194aa4527ce"},"vehicle_type_id":"4","last_reported":1729624111,"current_range_meters":9200,"station_id":"ce4bh692rcd13ifvqe90","pricing_plan_id":"cebpf4jnsgd1na2vs0mg"},{"bike_id":"3bf8bf17-649f-416b-ad16-8167f9df6dc4","system_id":"levelo_inurba_marseille","lat":43.25,"lon":5.38927,"is_reserved":false,"is_disabled":false,"rental_uris":{"android":"levelo://app?vid=3bf8bf17-649f-416b-ad16-8167f9df6dc4","ios":"levelo://app?vid=3bf8bf17-649f-416b-ad16-8167f9df6dc4"},"vehicle_type_id":"4","last_reported":1729624111,"current_range_meters":35200,"station_id":"ce4bhgp2rcd13ifvqfd0","pricing_plan_id":"cebpf4jnsgd1na2vs0mg"},{"bike_id":"3fce564d-e89b-4fd9-99a6-46fcaba3dddd","system_id":"levelo_inurba_marseille","lat":43.29786,"lon":5.39338,"is_reserved":false,"is_disabled":false,"rental_uris":{"android":"levelo://app?vid=3fce564d-e89b-4fd9-99a6-46fcaba3dddd","ios":"levelo://app?vid=3fce564d-e89b-4fd9-99a6-46fcaba3dddd"},"vehicle_type_id":"4","last_reported":1729624111,"current_range_meters":30000,"station_id":"chh1huq6cuj3fo74tm60","pricing_plan_id":"cebpf4jnsgd1na2vs0mg"},{"bike_id":"45fec9e3-468b-4ce5-8637-586262f7698f","system_id":"levelo_inurba_marseille","lat":43.2954,"lon":5.3855,"is_reserved":false,"is_disabled":false,"rental_uris":{"android":"levelo://app?vid=45fec9e3-468b-4ce5-8637-586262f7698f","ios":"levelo://app?vid=45fec9e3-468b-4ce5-8637-586262f7698f"},"vehicle_type_id":"4","last_reported":1729624111,"current_range_meters":38800,"station_id":"ce4bgih2rcd13ifvqba0","pricing_plan_id":"cebpf4jnsgd1na2vs0mg"},{"bike_id":"4d222ebd-1e72-4398-84a0-8448eedddcac","system_id":"levelo_inurba_marseille","lat":43.28354,"lon":5.38109,"is_reserved":false,"is_disabled":false,"rental_uris":{"android":"levelo://app?vid=4d222ebd-1e72-4398-84a0-8448eedddcac","ios":"levelo://app?vid=4d222ebd-1e72-4398-84a0-8448eedddcac"},"vehicle_type_id":"4","last_reported":1729624111,"current_range_meters":3200,"station_id":"ce4bh412rcd13ifvqdr0","pricing_plan_id":"cebpf4jnsgd1na2vs0mg"},{"bike_id":"0109d152-d199-40e0-b6bd-321510cfc821","system_id":"levelo_inurba_marseille","lat":43.28705,"lon":5.37381,"is_reserved":false,"is_disabled":false,"rental_uris":{"android":"levelo://app?vid=0109d152-d199-40e0-b6bd-321510cfc821","ios":"levelo://app?vid=0109d152-d199-40e0-b6bd-321510cfc821"},"vehicle_type_id":"4","last_reported":1729624111,"current_range_meters":10800,"station_id":"ce4bh3p2rcd13ifvqdq0","pricing_plan_id":"cebpf4jnsgd1na2vs0mg"},{"bike_id":"6d8a385d-95a0-41f2-a793-54cf260078ce","system_id":"levelo_inurba_marseille","lat":43.2799,"lon":5.40002,"is_reserved":false,"is_disabled":false,"rental_uris":{"android":"levelo://app?vid=6d8a385d-95a0-41f2-a793-54cf260078ce","ios":"levelo://app?vid=6d8a385d-95a0-41f2-a793-54cf260078ce"},"vehicle_type_id":"4","last_reported":1729624111,"current_range_meters":22800,"station_id":"ce4bho92rcd13ifvqh4g","pricing_plan_id":"cebpf4jnsgd1na2vs0mg"},{"bike_id":"77defc3f-fb95-4f21-a59a-574de68b8750","system_id":"levelo_inurba_marseille","lat":43.31121,"lon":5.37752,"is_reserved":false,"is_disabled":false,"rental_uris":{"android":"levelo://app?vid=77defc3f-fb95-4f21-a59a-574de68b8750","ios":"levelo://app?vid=77defc3f-fb95-4f21-a59a-574de68b8750"},"vehicle_type_id":"4","last_reported":1729624111,"current_range_meters":1600,"station_id":"ce4bgt92rcd13ifvqcg0","pricing_plan_id":"cebpf4jnsgd1na2vs0mg"},{"bike_id":"e0a4af1e-706d-4cfa-89df-ea235b99aa80","system_id":"levelo_inurba_marseille","lat":43.23966,"lon":5.36636,"is_reserved":false,"is_disabled":false,"rental_uris":{"android":"levelo://app?vid=e0a4af1e-706d-4cfa-89df-ea235b99aa80","ios":"levelo://app?vid=e0a4af1e-706d-4cfa-89df-ea235b99aa80"},"vehicle_type_id":"4","last_reported":1729624111,"current_range_meters":3600,"station_id":"ce4bhi12rcd13ifvqfp0","pricing_plan_id":"cebpf4jnsgd1na2vs0mg"},{"bike_id":"435c9214-6a69-4bdf-aac9-28f0934f0654","system_id":"levelo_inurba_marseille","lat":43.29723,"lon":5.37687,"is_reserved":false,"is_disabled":false,"rental_uris":{"android":"levelo://app?vid=435c9214-6a69-4bdf-aac9-28f0934f0654","ios":"levelo://app?vid=435c9214-6a69-4bdf-aac9-28f0934f0654"},"vehicle_type_id":"4","last_reported":1729624111,"current_range_meters":38800,"station_id":"ce4bgkh2rcd13ifvqbl0","pricing_plan_id":"cebpf4jnsgd1na2vs0mg"},{"bike_id":"2697389b-fc13-4ad5-9651-07f9e379b7b5","system_id":"levelo_inurba_marseille","lat":43.24676,"lon":5.38166,"is_reserved":false,"is_disabled":false,"rental_uris":{"android":"levelo://app?vid=2697389b-fc13-4ad5-9651-07f9e379b7b5","ios":"levelo://app?vid=2697389b-fc13-4ad5-9651-07f9e379b7b5"},"vehicle_type_id":"4","last_reported":1729624111,"current_range_meters":30800,"station_id":"ce4bhih2rcd13ifvqfr0","pricing_plan_id":"cebpf4jnsgd1na2vs0mg"},{"bike_id":"b58ed50b-3e42-4c56-a79f-51bfc9025870","system_id":"levelo_inurba_marseille","lat":43.29261,"lon":5.38438,"is_reserved":false,"is_disabled":false,"rental_uris":{"android":"levelo://app?vid=b58ed50b-3e42-4c56-a79f-51bfc9025870","ios":"levelo://app?vid=b58ed50b-3e42-4c56-a79f-51bfc9025870"},"vehicle_type_id":"4","last_reported":1729624111,"current_range_meters":8800,"station_id":"ce4bh692rcd13ifvqea0","pricing_plan_id":"cebpf4jnsgd1na2vs0mg"},{"bike_id":"5c2f1429-5d80-4b89-8f6a-1a812a1dfce9","system_id":"levelo_inurba_marseille","lat":43.25724,"lon":5.41109,"is_reserved":false,"is_disabled":false,"rental_uris":{"android":"levelo://app?vid=5c2f1429-5d80-4b89-8f6a-1a812a1dfce9","ios":"levelo://app?vid=5c2f1429-5d80-4b89-8f6a-1a812a1dfce9"},"vehicle_type_id":"4","last_reported":1729624111,"current_range_meters":8000,"station_id":"ce4bhkp2rcd13ifvqgd0","pricing_plan_id":"cebpf4jnsgd1na2vs0mg"},{"bike_id":"50a9aeb3-a32e-40ab-b13a-45fc145b7401","system_id":"levelo_inurba_marseille","lat":43.30597,"lon":5.37228,"is_reserved":false,"is_disabled":false,"rental_uris":{"android":"levelo://app?vid=50a9aeb3-a32e-40ab-b13a-45fc145b7401","ios":"levelo://app?vid=50a9aeb3-a32e-40ab-b13a-45fc145b7401"},"vehicle_type_id":"4","last_reported":1729624111,"current_range_meters":4800,"station_id":"ce4bgqh2rcd13ifvqc4g","pricing_plan_id":"cebpf4jnsgd1na2vs0mg"},{"bike_id":"5144e368-ae5f-45f4-adcd-29bd97514d97","system_id":"levelo_inurba_marseille","lat":43.28567,"lon":5.395,"is_reserved":false,"is_disabled":false,"rental_uris":{"android":"levelo://app?vid=5144e368-ae5f-45f4-adcd-29bd97514d97","ios":"levelo://app?vid=5144e368-ae5f-45f4-adcd-29bd97514d97"},"vehicle_type_id":"4","last_reported":1729624111,"current_range_meters":4800,"station_id":"ce4bh292rcd13ifvqdg0","pricing_plan_id":"cebpf4jnsgd1na2vs0mg"},{"bike_id":"07f6adbc-f81b-4c22-8e50-c255adc89497","system_id":"levelo_inurba_marseille","lat":43.31332,"lon":5.39695,"is_reserved":false,"is_disabled":false,"rental_uris":{"android":"levelo://app?vid=07f6adbc-f81b-4c22-8e50-c255adc89497","ios":"levelo://app?vid=07f6adbc-f81b-4c22-8e50-c255adc89497"},"vehicle_type_id":"4","last_reported":1729624111,"current_range_meters":38800,"station_id":"ce4bgvp2rcd13ifvqcu0","pricing_plan_id":"cebpf4jnsgd1na2vs0mg"},{"bike_id":"3283ab75-c6f3-41d6-a066-3a7f091a9ec7","system_id":"levelo_inurba_marseille","lat":43.30135,"lon":5.38773,"is_reserved":false,"is_disabled":false,"rental_uris":{"android":"levelo://app?vid=3283ab75-c6f3-41d6-a066-3a7f091a9ec7","ios":"levelo://app?vid=3283ab75-c6f3-41d6-a066-3a7f091a9ec7"},"vehicle_type_id":"4","last_reported":1729624111,"current_range_meters":38800,"station_id":"ce4bghh2rcd13ifvqb60","pricing_plan_id":"cebpf4jnsgd1na2vs0mg"},{"bike_id":"9b566306-69a5-49dc-9a6c-b06ff221288e","system_id":"levelo_inurba_marseille","lat":43.29556,"lon":5.42298,"is_reserved":false,"is_disabled":false,"rental_uris":{"android":"levelo://app?vid=9b566306-69a5-49dc-9a6c-b06ff221288e","ios":"levelo://app?vid=9b566306-69a5-49dc-9a6c-b06ff221288e"},"vehicle_type_id":"4","last_reported":1729624111,"current_range_meters":4800,"station_id":"ce4bhph2rcd13ifvqhdg","pricing_plan_id":"cebpf4jnsgd1na2vs0mg"},{"bike_id":"fed6c561-ff1b-471e-98a9-d0231a4b21bc","system_id":"levelo_inurba_marseille","lat":43.27495,"lon":5.42449,"is_reserved":false,"is_disabled":false,"rental_uris":{"android":"levelo://app?vid=fed6c561-ff1b-471e-98a9-d0231a4b21bc","ios":"levelo://app?vid=fed6c561-ff1b-471e-98a9-d0231a4b21bc"},"vehicle_type_id":"4","last_reported":1729624111,"current_range_meters":9200,"station_id":"ce4bhn92rcd13ifvqgrg","pricing_plan_id":"cebpf4jnsgd1na2vs0mg"},{"bike_id":"2f807c1d-b2c7-4290-9a0e-8e5a2a4462c4","system_id":"levelo_inurba_marseille","lat":43.30129,"lon":5.38776,"is_reserved":false,"is_disabled":false,"rental_uris":{"android":"levelo://app?vid=2f807c1d-b2c7-4290-9a0e-8e5a2a4462c4","ios":"levelo://app?vid=2f807c1d-b2c7-4290-9a0e-8e5a2a4462c4"},"vehicle_type_id":"4","last_reported":1729624111,"current_range_meters":10800,"station_id":"ce4bghh2rcd13ifvqb60","pricing_plan_id":"cebpf4jnsgd1na2vs0mg"},{"bike_id":"6c511908-10db-4c86-981e-10bc24ba5518","system_id":"levelo_inurba_marseille","lat":43.30014,"lon":5.400946,"is_reserved":false,"is_disabled":false,"rental_uris":{"android":"levelo://app?vid=6c511908-10db-4c86-981e-10bc24ba5518","ios":"levelo://app?vid=6c511908-10db-4c86-981e-10bc24ba5518"},"vehicle_type_id":"4","last_reported":1729624111,"current_range_meters":27200,"station_id":"","pricing_plan_id":"cebpf4jnsgd1na2vs0mg"},{"bike_id":"6975a176-2e77-4805-8b8c-59661728b146","system_id":"levelo_inurba_marseille","lat":43.32364,"lon":5.36766,"is_reserved":false,"is_disabled":false,"rental_uris":{"android":"levelo://app?vid=6975a176-2e77-4805-8b8c-59661728b146","ios":"levelo://app?vid=6975a176-2e77-4805-8b8c-59661728b146"},"vehicle_type_id":"4","last_reported":1729624111,"current_range_meters":30400,"station_id":"","pricing_plan_id":"cebpf4jnsgd1na2vs0mg"},{"bike_id":"f909cf4c-3847-437d-90c7-6de34f8493ad","system_id":"levelo_inurba_marseille","lat":43.29912,"lon":5.38128,"is_reserved":false,"is_disabled":false,"rental_uris":{"android":"levelo://app?vid=f909cf4c-3847-437d-90c7-6de34f8493ad","ios":"levelo://app?vid=f909cf4c-3847-437d-90c7-6de34f8493ad"},"vehicle_type_id":"4","last_reported":1729624111,"current_range_meters":4800,"station_id":"ce4bgj12rcd13ifvqbc0","pricing_plan_id":"cebpf4jnsgd1na2vs0mg"},{"bike_id":"17740fa2-940d-4d1b-9c98-03c43205f307","system_id":"levelo_inurba_marseille","lat":43.24068,"lon":5.37754,"is_reserved":false,"is_disabled":false,"rental_uris":{"android":"levelo://app?vid=17740fa2-940d-4d1b-9c98-03c43205f307","ios":"levelo://app?vid=17740fa2-940d-4d1b-9c98-03c43205f307"},"vehicle_type_id":"4","last_reported":1729624111,"current_range_meters":12400,"station_id":"ce4bhnp2rcd13ifvqgvg","pricing_plan_id":"cebpf4jnsgd1na2vs0mg"},{"bike_id":"3c56dd74-6972-46ae-9854-a4963c5b0a54","system_id":"levelo_inurba_marseille","lat":43.28616,"lon":5.35109,"is_reserved":false,"is_disabled":false,"rental_uris":{"android":"levelo://app?vid=3c56dd74-6972-46ae-9854-a4963c5b0a54","ios":"levelo://app?vid=3c56dd74-6972-46ae-9854-a4963c5b0a54"},"vehicle_type_id":"4","last_reported":1729624111,"current_range_meters":38800,"station_id":"ce4bhch2rcd13ifvqeug","pricing_plan_id":"cebpf4jnsgd1na2vs0mg"},{"bike_id":"ae1d0db0-a8e2-4304-a1e1-a286f8abfc27","system_id":"levelo_inurba_marseille","lat":43.31756,"lon":5.39019,"is_reserved":false,"is_disabled":false,"rental_uris":{"android":"levelo://app?vid=ae1d0db0-a8e2-4304-a1e1-a286f8abfc27","ios":"levelo://app?vid=ae1d0db0-a8e2-4304-a1e1-a286f8abfc27"},"vehicle_type_id":"4","last_reported":1729624111,"current_range_meters":8000,"station_id":"ce4bhqp2rcd13ifvqhng","pricing_plan_id":"cebpf4jnsgd1na2vs0mg"},{"bike_id":"98f4a522-a473-4884-a90f-91395d100f72","system_id":"levelo_inurba_marseille","lat":43.30138,"lon":5.39865,"is_reserved":false,"is_disabled":false,"rental_uris":{"android":"levelo://app?vid=98f4a522-a473-4884-a90f-91395d100f72","ios":"levelo://app?vid=98f4a522-a473-4884-a90f-91395d100f72"},"vehicle_type_id":"4","last_reported":1729624111,"current_range_meters":9200,"station_id":"ce4bh0h2rcd13ifvqd40","pricing_plan_id":"cebpf4jnsgd1na2vs0mg"},{"bike_id":"b262aecd-6f51-49ed-a27a-d7bb89c929c9","system_id":"levelo_inurba_marseille","lat":43.25575,"lon":5.38233,"is_reserved":false,"is_disabled":false,"rental_uris":{"android":"levelo://app?vid=b262aecd-6f51-49ed-a27a-d7bb89c929c9","ios":"levelo://app?vid=b262aecd-6f51-49ed-a27a-d7bb89c929c9"},"vehicle_type_id":"4","last_reported":1729624111,"current_range_meters":8000,"station_id":"ce4bhih2rcd13ifvqfs0","pricing_plan_id":"cebpf4jnsgd1na2vs0mg"},{"bike_id":"349dc9de-da83-4001-92b6-ad294a32c0ee","system_id":"levelo_inurba_marseille","lat":43.30136,"lon":5.3878,"is_reserved":false,"is_disabled":false,"rental_uris":{"android":"levelo://app?vid=349dc9de-da83-4001-92b6-ad294a32c0ee","ios":"levelo://app?vid=349dc9de-da83-4001-92b6-ad294a32c0ee"},"vehicle_type_id":"4","last_reported":1729624111,"current_range_meters":36400,"station_id":"ce4bghh2rcd13ifvqb60","pricing_plan_id":"cebpf4jnsgd1na2vs0mg"},{"bike_id":"c2546aec-b38f-4e5b-94fe-27a4e9fce230","system_id":"levelo_inurba_marseille","lat":43.29975,"lon":5.37178,"is_reserved":false,"is_disabled":false,"rental_uris":{"android":"levelo://app?vid=c2546aec-b38f-4e5b-94fe-27a4e9fce230","ios":"levelo://app?vid=c2546aec-b38f-4e5b-94fe-27a4e9fce230"},"vehicle_type_id":"4","last_reported":1729624111,"current_range_meters":38800,"station_id":"ce4bgr92rcd13ifvqc7g","pricing_plan_id":"cebpf4jnsgd1na2vs0mg"},{"bike_id":"cbb7c38f-728a-4509-adbb-ff9fb063b4b1","system_id":"levelo_inurba_marseille","lat":43.31712,"lon":5.3774,"is_reserved":false,"is_disabled":false,"rental_uris":{"android":"levelo://app?vid=cbb7c38f-728a-4509-adbb-ff9fb063b4b1","ios":"levelo://app?vid=cbb7c38f-728a-4509-adbb-ff9fb063b4b1"},"vehicle_type_id":"4","last_reported":1729624111,"current_range_meters":14800,"station_id":"ce4bgth2rcd13ifvqch0","pricing_plan_id":"cebpf4jnsgd1na2vs0mg"},