{"last_updated":1761908949,"ttl":60,"version":"2.2","data":{"bikes":[{"bike_id":"c6698ab8-b9c1-4ef6-8d1d-6b190a79e8e9","system_id":"levelo_inurba_marseille","lat":43.309587,"lon":5.372755,"is_reserved":false,"is_disabled":false,"rental_uris":{"android":"levelo://app?vid=c6698ab8-b9c1-4ef6-8d1d-6b190a79e8e9","ios":"levelo://app?vid=c6698ab8-b9c1-4ef6-8d1d-6b190a79e8e9"},"vehicle_type_id":"4","last_reported":1761908950,"current_range_meters":3200,"station_id":"","pricing_plan_id":"cebpf4jnsgd1na2vs0mg"},{"bike_id":"5a48a3f9-9603-48a0-9300-10258d5a5839","system_id":"levelo_inurba_marseille","lat":43.30145,"lon":5.37413,"is_reserved":false,"is_disabled":false,"rental_uris":{"android":"levelo://app?vid=5a48a3f9-9603-48a0-9300-10258d5a5839","ios":"levelo://app?vid=5a48a3f9-9603-48a0-9300-10258d5a5839"},"vehicle_type_id":"4","last_reported":1761908950,"current_range_meters":4400,"station_id":"ce4bgs92rcd13ifvqcc0","pricing_plan_id":"cebpf4jnsgd1na2vs0mg"},{"bike_id":"b194e015-2b99-4311-80aa-3902c944846e","system_id":"levelo_inurba_marseille","lat":43.289668,"lon":5.378281,"is_reserved":false,"is_disabled":true,"rental_uris":{"android":"levelo://app?vid=b194e015-2b99-4311-80aa-3902c944846e","ios":"levelo://app?vid=b194e015-2b99-4311-80aa-3902c944846e"},"vehicle_type_id":"4","last_reported":1761908950,"current_range_meters":4400,"station_id":"","pricing_plan_id":"cebpf4jnsgd1na2vs0mg"},{"bike_id":"80cde17b-197a-4666-8e1e-92c981f7a2d9","system_id":"levelo_inurba_marseille","lat":43.29563,"lon":5.42292,"is_reserved":false,"is_disabled":false,"rental_uris":{"android":"levelo://app?vid=80cde17b-197a-4666-8e1e-92c981f7a2d9","ios":"levelo://app?vid=80cde17b-197a-4666-8e1e-92c981f7a2d9"},"vehicle_type_id":"4","last_reported":1761908950,"current_range_meters":4800,"station_id":"ce4bhph2rcd13ifvqhdg","pricing_plan_id":"cebpf4jnsgd1na2vs0mg"},{"bike_id":"faee4aed-34d1-4e59-9f3e-bc2337688920","system_id":"levelo_inurba_marseille","lat":43.31721,"lon":5.43716,"is_reserved":false,"is_disabled":true,"rental_uris":{"android":"levelo://app?vid=faee4aed-34d1-4e59-9f3e-bc2337688920","ios":"levelo://app?vid=faee4aed-34d1-4e59-9f3e-bc2337688920"},"vehicle_type_id":"4","last_reported":1761908950,"current_range_meters":5600,"station_id":"ce4bhp92rcd13ifvqhcg","pricing_plan_id":"cebpf4jnsgd1na2vs0mg"},{"bike_id":"85bb954b-6d38-4dcd-8df1-77a2d2a91189","system_id":"levelo_inurba_marseille","lat":43.24806,"lon":5.37456,"is_reserved":false,"is_disabled":false,"rental_uris":{"android":"levelo://app?vid=85bb954b-6d38-4dcd-8df1-77a2d2a91189","ios":"levelo://app?vid=85bb954b-6d38-4dcd-8df1-77a2d2a91189"},"vehicle_type_id":"4","last_reported":1761908950,"current_range_meters":6000,"station_id":"ce4bhgh2rcd13ifvqfb0","pricing_plan_id":"cebpf4jnsgd1na2vs0mg"},{"bike_id":"3a74d0e2-cbde-4a16-bef7-b7b2f5c5b0a2","system_id":"levelo_inurba_marseille","lat":43.29022,"lon":5.35602,"is_reserved":false,"is_disabled":false,"rental_uris":{"android":"levelo://app?vid=3a74d0e2-cbde-4a16-bef7-b7b2f5c5b0a2","ios":"levelo://app?vid=3a74d0e2-cbde-4a16-bef7-b7b2f5c5b0a2"},"vehicle_type_id":"4","last_reported":1761908950,"current_range_meters":6400,"station_id":"ce4bhb92rcd13ifvqen0","pricing_plan_id":"cebpf4jnsgd1na2vs0mg"},{"bike_id":"85b044fe-7d62-4016-a3a6-ff8b12a07096","system_id":"levelo_inurba_marseille","lat":43.29391,"lon":5.37835,"is_reserved":false,"is_disabled":false,"rental_uris":{"android":"levelo://app?vid=85b044fe-7d62-4016-a3a6-ff8b12a07096","ios":"levelo://app?vid=85b044fe-7d62-4016-a3a6-ff8b12a07096"},"vehicle_type_id":"4","last_reported":1761908950,"current_range_meters":6800,"station_id":"ce4bgjh2rcd13ifvqbf0","pricing_plan_id":"cebpf4jnsgd1na2vs0mg"},{"bike_id":"4042a8e6-9f9d-4750-97a0-8691b363476d","system_id":"levelo_inurba_marseille","lat":43.28853,"lon":5.39648,"is_reserved":false,"is_disabled":false,"rental_uris":{"android":"levelo://app?vid=4042a8e6-9f9d-4750-97a0-8691b363476d","ios":"levelo://app?vid=4042a8e6-9f9d-4750-97a0-8691b363476d"},"vehicle_type_id":"4","last_reported":1761908950,"current_range_meters":6800,"station_id":"","pricing_plan_id":"cebpf4jnsgd1na2vs0mg"},{"bike_id":"c7a9ebc5-d567-4690-9b42-2d2cc98d1309","system_id":"levelo_inurba_marseille","lat":43.27901,"lon":5.3801,"is_reserved":false,"is_disabled":false,"rental_uris":{"android":"levelo://app?vid=c7a9ebc5-d567-4690-9b42-2d2cc98d1309","ios":"levelo://app?vid=c7a9ebc5-d567-4690-9b42-2d2cc98d1309"},"vehicle_type_id":"4","last_reported":1761908950,"current_range_meters":6800,"station_id":"ce4bhf92rcd13ifvqf50","pricing_plan_id":"cebpf4jnsgd1na2vs0mg"},{"bike_id":"fcab4ddf-7c9a-4832-a957-af763c1f4abb","system_id":"levelo_inurba_marseille","lat":43.303754,"lon":5.424958,"is_reserved":false,"is_disabled":true,"rental_uris":{"android":"levelo://app?vid=fcab4ddf-7c9a-4832-a957-af763c1f4abb","ios":"levelo://app?vid=fcab4ddf-7c9a-4832-a957-af763c1f4abb"},"vehicle_type_id":"4","last_reported":1761908950,"current_range_meters":6800,"station_id":"","pricing_plan_id":"cebpf4jnsgd1na2vs0mg"},{"bike_id":"64dc5ada-2115-4d0f-b20c-46223f7b6084","system_id":"levelo_inurba_marseille","lat":43.28272,"lon":5.35063,"is_reserved":false,"is_disabled":false,"rental_uris":{"android":"levelo://app?vid=64dc5ada-2115-4d0f-b20c-46223f7b6084","ios":"levelo://app?vid=64dc5ada-2115-4d0f-b20c-46223f7b6084"},"vehicle_type_id":"4","last_reported":1761908950,"current_range_meters":6800,"station_id":"ce4bhbp2rcd13ifvqerg","pricing_plan_id":"cebpf4jnsgd1na2vs0mg"},{"bike_id":"25c9dff5-9a4a-4fad-bd25-d33551e5769f","system_id":"levelo_inurba_marseille","lat":43.29022,"lon":5.38119,"is_reserved":false,"is_disabled":false,"rental_uris":{"android":"levelo://app?vid=25c9dff5-9a4a-4fad-bd25-d33551e5769f","ios":"levelo://app?vid=25c9dff5-9a4a-4fad-bd25-d33551e5769f"},"vehicle_type_id":"4","last_reported":1761908950,"current_range_meters":6800,"station_id":"ce4bh4p2rcd13ifvqe1g","pricing_plan_id":"cebpf4jnsgd1na2vs0mg"},{"bike_id":"46f3e991-c55b-4d9d-9a37-f9e3e15f4f3f","system_id":"levelo_inurba_marseille","lat":43.21183,"lon":5.35068,"is_reserved":false,"is_disabled":false,"rental_uris":{"android":"levelo://app?vid=46f3e991-c55b-4d9d-9a37-f9e3e15f4f3f","ios":"levelo://app?vid=46f3e991-c55b-4d9d-9a37-f9e3e15f4f3f"},"vehicle_type_id":"4","last_reported":1761908950,"current_range_meters":6800,"station_id":"st_cvj6sg6p6f1abm77japg","pricing_plan_id":"cebpf4jnsgd1na2vs0mg"},{"bike_id":"1bdb0524-fd2f-434a-9e83-4b7a1a09b5bb","system_id":"levelo_inurba_marseille","lat":43.33402,"lon":5.41116,"is_reserved":false,"is_disabled":false,"rental_uris":{"android":"levelo://app?vid=1bdb0524-fd2f-434a-9e83-4b7a1a09b5bb","ios":"levelo://app?vid=1bdb0524-fd2f-434a-9e83-4b7a1a09b5bb"},"vehicle_type_id":"4","last_reported":1761908950,"current_range_meters":6800,"station_id":"","pricing_plan_id":"cebpf4jnsgd1na2vs0mg"},{"bike_id":"04fe2dca-f400-44e4-a4be-a6f20a0268a6","system_id":"levelo_inurba_marseille","lat":43.32476,"lon":5.36587,"is_reserved":false,"is_disabled":false,"rental_uris":{"android":"levelo://app?vid=04fe2dca-f400-44e4-a4be-a6f20a0268a6","ios":"levelo://app?vid=04fe2dca-f400-44e4-a4be-a6f20a0268a6"},"vehicle_type_id":"4","last_reported":1761908950,"current_range_meters":6800,"station_id":"ce4bhs12rcd13ifvqhvg","pricing_plan_id":"cebpf4jnsgd1na2vs0mg"},{"bike_id":"3a217d2d-0c7e-4d79-a702-b9135e90946e","system_id":"levelo_inurba_marseille","lat":43.28146,"lon":5.42643,"is_reserved":false,"is_disabled":true,"rental_uris":{"android":"levelo://app?vid=3a217d2d-0c7e-4d79-a702-b9135e90946e","ios":"levelo://app?vid=3a217d2d-0c7e-4d79-a702-b9135e90946e"},"vehicle_type_id":"4","last_reported":1761908950,"current_range_meters":7200,"station_id":"ce4bhnh2rcd13ifvqgug","pricing_plan_id":"cebpf4jnsgd1na2vs0mg"},{"bike_id":"28d0ad95-7833-42a7-ae4a-00d4adec32a3","system_id":"levelo_inurba_marseille","lat":43.27954,"lon":5.41042,"is_reserved":false,"is_disabled":false,"rental_uris":{"android":"levelo://app?vid=28d0ad95-7833-42a7-ae4a-00d4adec32a3","ios":"levelo://app?vid=28d0ad95-7833-42a7-ae4a-00d4adec32a3"},"vehicle_type_id":"4","last_reported":1761908950,"current_range_meters":8000,"station_id":"ce4bhnp2rcd13ifvqh0g","pricing_plan_id":"cebpf4jnsgd1na2vs0mg"},{"bike_id":"d544a5bf-8e56-4dcc-8e04-c6d8b3b06186","system_id":"levelo_inurba_marseille","lat":43.29844,"lon":5.3625,"is_reserved":false,"is_disabled":false,"rental_uris":{"android":"levelo://app?vid=d544a5bf-8e56-4dcc-8e04-c6d8b3b06186","ios":"levelo://app?vid=d544a5bf-8e56-4dcc-8e04-c6d8b3b06186"},"vehicle_type_id":"4","last_reported":1761908950,"current_range_meters":8000,"station_id":"ce4bgpp2rcd13ifvqc3g","pricing_plan_id":"cebpf4jnsgd1na2vs0mg"},{"bike_id":"4ea5c8d3-596b-4c15-9f77-2d54d14bff42","system_id":"levelo_inurba_marseille","lat":43.29875,"lon":5.3844,"is_reserved":false,"is_disabled":false,"rental_uris":{"android":"levelo://app?vid=4ea5c8d3-596b-4c15-9f77-2d54d14bff42","ios":"levelo://app?vid=4ea5c8d3-596b-4c15-9f77-2d54d14bff42"},"vehicle_type_id":"4","last_reported":1761908950,"current_range_meters":8400,"station_id":"","pricing_plan_id":"cebpf4jnsgd1na2vs0mg"},{"bike_id":"6fff56e2-dc33-4322-9554-e738206d1bc0","system_id":"levelo_inurba_marseille","lat":43.21212,"lon":5.35066,"is_reserved":false,"is_disabled":false,"rental_uris":{"android":"levelo://app?vid=6fff56e2-dc33-4322-9554-e738206d1bc0","ios":"levelo://app?vid=6fff56e2-dc33-4322-9554-e738206d1bc0"},"vehicle_type_id":"4","last_reported":1761908950,"current_range_meters":8400,"station_id":"st_cvj6sg6p6f1abm77japg","pricing_plan_id":"cebpf4jnsgd1na2vs0mg"},{"bike_id":"3126ce35-4101-4b06-a7b2-19548fb25089","system_id":"levelo_inurba_marseille","lat":43.22925,"lon":5.35365,"is_reserved":false,"is_disabled":false,"rental_uris":{"android":"levelo://app?vid=3126ce35-4101-4b06-a7b2-19548fb25089","ios":"levelo://app?vid=3126ce35-4101-4b06-a7b2-19548fb25089"},"vehicle_type_id":"4","last_reported":1761908950,"current_range_meters":8400,"station_id":"cpo3532slgdg3j2ikp40","pricing_plan_id":"cebpf4jnsgd1na2vs0mg"},{"bike_id":"fcfc0540-b373-413a-9910-dbd5abee0fea","system_id":"levelo_inurba_marseille","lat":43.27206,"lon":5.39174,"is_reserved":false,"is_disabled":false,"rental_uris":{"android":"levelo://app?vid=fcfc0540-b373-413a-9910-dbd5abee0fea","ios":"levelo://app?vid=fcfc0540-b373-413a-9910-dbd5abee0fea"},"vehicle_type_id":"4","last_reported":1761908950,"current_range_meters":8400,"station_id":"ce4bhhp2rcd13ifvqfm0","pricing_plan_id":"cebpf4jnsgd1na2vs0mg"},{"bike_id":"c80d649c-5018-416a-b3dd-ab8ca22d99e4","system_id":"levelo_inurba_marseille","lat":43.305951,"lon":5.393534,"is_reserved":false,"is_disabled":false,"rental_uris":{"android":"levelo://app?vid=c80d649c-5018-416a-b3dd-ab8ca22d99e4","ios":"levelo://app?vid=c80d649c-5018-416a-b3dd-ab8ca22d99e4"},"vehicle_type_id":"4","last_reported":1761908950,"current_range_meters":8400,"station_id":"ce4bh0p2rcd13ifvqd80","pricing_plan_id":"cebpf4jnsgd1na2vs0mg"},{"bike_id":"688e0991-23bb-4f67-a97d-b9bb7704a66a","system_id":"levelo_inurba_marseille","lat":43.29255,"lon":5.39101,"is_reserved":false,"is_disabled":false,"rental_uris":{"android":"levelo://app?vid=688e0991-23bb-4f67-a97d-b9bb7704a66a","ios":"levelo://app?vid=688e0991-23bb-4f67-a97d-b9bb7704a66a"},"vehicle_type_id":"4","last_reported":1761908950,"current_range_meters":8800,"station_id":"","pricing_plan_id":"cebpf4jnsgd1na2vs0mg"},{"bike_id":"f136f03c-612f-4584-8a94-56687e4533bb","system_id":"levelo_inurba_marseille","lat":43.29541,"lon":5.38531,"is_reserved":false,"is_disabled":false,"rental_uris":{"android":"levelo://app?vid=f136f03c-612f-4584-8a94-56687e4533bb","ios":"levelo://app?vid=f136f03c-612f-4584-8a94-56687e4533bb"},"vehicle_type_id":"4","last_reported":1761908950,"current_range_meters":8800,"station_id":"ce4bgih2rcd13ifvqba0","pricing_plan_id":"cebpf4jnsgd1na2vs0mg"},{"bike_id":"2ac0165e-9141-4b89-a040-16abeefd4030","system_id":"levelo_inurba_marseille","lat":43.29524,"lon":5.37498,"is_reserved":false,"is_disabled":false,"rental_uris":{"android":"levelo://app?vid=2ac0165e-9141-4b89-a040-16abeefd4030","ios":"levelo://app?vid=2ac0165e-9141-4b89-a040-16abeefd4030"},"vehicle_type_id":"4","last_reported":1761908950,"current_range_meters":8800,"station_id":"ce4bgkp2rcd13ifvqbmg","pricing_plan_id":"cebpf4jnsgd1na2vs0mg"},{"bike_id":"6c3f8b32-c115-4971-ab70-7ce53698f0ed","system_id":"levelo_inurba_marseille","lat":43.28155,"lon":5.42633,"is_reserved":false,"is_disabled":true,"rental_uris":{"android":"levelo://app?vid=6c3f8b32-c115-4971-ab70-7ce53698f0ed","ios":"levelo://app?vid=6c3f8b32-c115-4971-ab70-7ce53698f0ed"},"vehicle_type_id":"4","last_reported":1761908950,"current_range_meters":8800,"station_id":"ce4bhnh2rcd13ifvqgug","pricing_plan_id":"cebpf4jnsgd1na2vs0mg"},{"bike_id":"ef077506-ad53-48c6-96ed-57184394616c","system_id":"levelo_inurba_marseille","lat":43.308827,"lon":5.371946,"is_reserved":false,"is_disabled":false,"rental_uris":{"android":"levelo://app?vid=ef077506-ad53-48c6-96ed-57184394616c","ios":"levelo://app?vid=ef077506-ad53-48c6-96ed-57184394616c"},"vehicle_type_id":"4","last_reported":1761908950,"current_range_meters":9200,"station_id":"ce4bguh2rcd13ifvqckg","pricing_plan_id":"cebpf4jnsgd1na2vs0mg"},{"bike_id":"b1c45351-419f-4ba8-b9bd-c3314148e4c1","system_id":"levelo_inurba_marseille","lat":43.31075,"lon":5.38356,"is_reserved":false,"is_disabled":false,"rental_uris":{"android":"levelo://app?vid=b1c45351-419f-4ba8-b9bd-c3314148e4c1","ios":"levelo://app?vid=b1c45351-419f-4ba8-b9bd-c3314148e4c1"},"vehicle_type_id":"4","last_reported":1761908950,"current_range_meters":9200,"station_id":"ce4bgv92rcd13ifvqcr0","pricing_plan_id":"cebpf4jnsgd1na2vs0mg"},{"bike_id":"ff96407b-3f7e-4e83-be0c-1a3b6891d386","system_id":"levelo_inurba_marseille","lat":43.28999,"lon":5.35597,"is_reserved":false,"is_disabled":false,"rental_uris":{"android":"levelo://app?vid=ff96407b-3f7e-4e83-be0c-1a3b6891d386","ios":"levelo://app?vid=ff96407b-3f7e-4e83-be0c-1a3b6891d386"},"vehicle_type_id":"4","last_reported":1761908950,"current_range_meters":9600,"station_id":"ce4bhb92rcd13ifvqen0","pricing_plan_id":"cebpf4jnsgd1na2vs0mg"},{"bike_id":"d99505fe-d7a7-4e44-b7f5-f0065cd01a03","system_id":"levelo_inurba_marseille","lat":43.333768,"lon":5.429074,"is_reserved":false,"is_disabled":false,"rental_uris":{"android":"levelo://app?vid=d99505fe-d7a7-4e44-b7f5-f0065cd01a03","ios":"levelo://app?vid=d99505fe-d7a7-4e44-b7f5-f0065cd01a03"},"vehicle_type_id":"4","last_reported":1761908950,"current_range_meters":10000,"station_id":"","pricing_plan_id":"cebpf4jnsgd1na2vs0mg"},{"bike_id":"b885fea9-1289-40fc-95f3-f080d8a67de0","system_id":"levelo_inurba_marseille","lat":43.26204,"lon":5.37441,"is_reserved":false,"is_disabled":false,"rental_uris":{"android":"levelo://app?vid=b885fea9-1289-40fc-95f3-f080d8a67de0","ios":"levelo://app?vid=b885fea9-1289-40fc-95f3-f080d8a67de0"},"vehicle_type_id":"4","last_reported":1761908950,"current_range_meters":10000,"station_id":"ce4bhgp2rcd13ifvqfc0","pricing_plan_id":"cebpf4jnsgd1na2vs0mg"},{"bike_id":"afa34480-4d28-4d0c-a140-2b7bf2bea68f","system_id":"levelo_inurba_marseille","lat":43.30599,"lon":5.37229,"is_reserved":false,"is_disabled":false,"rental_uris":{"android":"levelo://app?vid=afa34480-4d28-4d0c-a140-2b7bf2bea68f","ios":"levelo://app?vid=afa34480-4d28-4d0c-a140-2b7bf2bea68f"},"vehicle_type_id":"4","last_reported":1761908950,"current_range_meters":10000,"station_id":"ce4bgqh2rcd13ifvqc4g","pricing_plan_id":"cebpf4jnsgd1na2vs0mg"},{"bike_id":"9b93b5e1-c939-4745-bf85-2d21945442dc","system_id":"levelo_inurba_marseille","lat":43.29985,"lon":5.36408,"is_reserved":false,"is_disabled":false,"rental_uris":{"android":"levelo://app?vid=9b93b5e1-c939-4745-bf85-2d21945442dc","ios":"levelo://app?vid=9b93b5e1-c939-4745-bf85-2d21945442dc"},"vehicle_type_id":"4","last_reported":1761908950,"current_range_meters":10800,"station_id":"","pricing_plan_id":"cebpf4jnsgd1na2vs0mg"},{"bike_id":"6031e130-bc2f-4945-be2d-739bc30e9d8e","system_id":"levelo_inurba_marseille","lat":43.28533,"lon":5.44093,"is_reserved":false,"is_disabled":false,"rental_uris":{"android":"levelo://app?vid=6031e130-bc2f-4945-be2d-739bc30e9d8e","ios":"levelo://app?vid=6031e130-bc2f-4945-be2d-739bc30e9d8e"},"vehicle_type_id":"4","last_reported":1761908950,"current_range_meters":10800,"station_id":"st_d3j3df2ikq2c7380ej80","pricing_plan_id":"cebpf4jnsgd1na2vs0mg"},{"bike_id":"8da2bf11-9bc4-4238-a344-ba852619a652","system_id":"levelo_inurba_marseille","lat":43.27811,"lon":5.40714,"is_reserved":false,"is_disabled":false,"rental_uris":{"android":"levelo://app?vid=8da2bf11-9bc4-4238-a344-ba852619a652","ios":"levelo://app?vid=8da2bf11-9bc4-4238-a344-ba852619a652"},"vehicle_type_id":"4","last_reported":1761908950,"current_range_meters":10800,"station_id":"ce4bhnh2rcd13ifvqgtg","pricing_plan_id":"cebpf4jnsgd1na2vs0mg"},{"bike_id":"69daedd1-e532-426c-b096-24cfed29fb24","system_id":"levelo_inurba_marseille","lat":43.27941,"lon":5.41049,"is_reserved":false,"is_disabled":false,"rental_uris":{"android":"levelo://app?vid=69daedd1-e532-426c-b096-24cfed29fb24","ios":"levelo://app?vid=69daedd1-e532-426c-b096-24cfed29fb24"},"vehicle_type_id":"4","last_reported":1761908950,"current_range_meters":10800,"station_id":"ce4bhnp2rcd13ifvqh0g","pricing_plan_id":"cebpf4jnsgd1na2vs0mg"},{"bike_id":"a18dbf48-2c4d-4fa4-a4c5-c9871d73c9a0","system_id":"levelo_inurba_marseille","lat":43.301994,"lon":5.383462,"is_reserved":false,"is_disabled":false,"rental_uris":{"android":"levelo://app?vid=a18dbf48-2c4d-4fa4-a4c5-c9871d73c9a0","ios":"levelo://app?vid=a18dbf48-2c4d-4fa4-a4c5-c9871d73c9a0"},"vehicle_type_id":"4","last_reported":1761908950,"current_range_meters":10800,"station_id":"ce4bgup2rcd13ifvqcn0","pricing_plan_id":"cebpf4jnsgd1na2vs0mg"},{"bike_id":"49273a0d-b962-4c90-bec3-3a4d908a123c","system_id":"levelo_inurba_marseille","lat":43.23955,"lon":5.36648,"is_reserved":false,"is_disabled":false,"rental_uris":{"android":"levelo://app?vid=49273a0d-b962-4c90-bec3-3a4d908a123c","ios":"levelo://app?vid=49273a0d-b962-4c90-bec3-3a4d908a123c"},"vehicle_type_id":"4","last_reported":1761908950,"current_range_meters":10800,"station_id":"ce4bhi12rcd13ifvqfp0","pricing_plan_id":"cebpf4jnsgd1na2vs0mg"},{"bike_id":"b61e1e59-261f-4781-9885-10fc3dd1eaf7","system_id":"levelo_inurba_marseille","lat":43.304806,"lon":5.368943,"is_reserved":false,"is_disabled":false,"rental_uris":{"android":"levelo://app?vid=b61e1e59-261f-4781-9885-10fc3dd1eaf7","ios":"levelo://app?vid=b61e1e59-261f-4781-9885-10fc3dd1eaf7"},"vehicle_type_id":"4","last_reported":1761908950,"current_range_meters":10800,"station_id":"","pricing_plan_id":"cebpf4jnsgd1na2vs0mg"},{"bike_id":"c2b29e2a-9ddf-4599-9569-ebeda3771708","system_id":"levelo_inurba_marseille","lat":43.22924,"lon":5.35376,"is_reserved":false,"is_disabled":false,"rental_uris":{"android":"levelo://app?vid=c2b29e2a-9ddf-4599-9569-ebeda3771708","ios":"levelo://app?vid=c2b29e2a-9ddf-4599-9569-ebeda3771708"},"vehicle_type_id":"4","last_reported":1761908950,"current_range_meters":11200,"station_id":"cpo3532slgdg3j2ikp40","pricing_plan_id":"cebpf4jnsgd1na2vs0mg"},{"bike_id":"85800a16-60b2-47ff-8509-ea53cdf1e0af","system_id":"levelo_inurba_marseille","lat":43.21191,"lon":5.35068,"is_reserved":false,"is_disabled":false,"rental_uris":{"android":"levelo://app?vid=85800a16-60b2-47ff-8509-ea53cdf1e0af","ios":"levelo://app?vid=85800a16-60b2-47ff-8509-ea53cdf1e0af"},"vehicle_type_id":"4","last_reported":1761908950,"current_range_meters":11200,"station_id":"st_cvj6sg6p6f1abm77japg","pricing_plan_id":"cebpf4jnsgd1na2vs0mg"},{"bike_id":"13b5bebc-2277-4643-9efc-b419c3a09bbd","system_id":"levelo_inurba_marseille","lat":43.22947,"lon":5.35383,"is_reserved":false,"is_disabled":false,"rental_uris":{"android":"levelo://app?vid=13b5bebc-2277-4643-9efc-b419c3a09bbd","ios":"levelo://app?vid=13b5bebc-2277-4643-9efc-b419c3a09bbd"},"vehicle_type_id":"4","last_reported":1761908950,"current_range_meters":11600,"station_id":"cpo3532slgdg3j2ikp40","pricing_plan_id":"cebpf4jnsgd1na2vs0mg"},{"bike_id":"2662fe9b-aa47-4e6a-8505-64d896678582","system_id":"levelo_inurba_marseille","lat":43.2256,"lon":5.41607,"is_reserved":false,"is_disabled":false,"rental_uris":{"android":"levelo://app?vid=2662fe9b-aa47-4e6a-8505-64d896678582","ios":"levelo://app?vid=2662fe9b-aa47-4e6a-8505-64d896678582"},"vehicle_type_id":"4","last_reported":1761908950,"current_range_meters":11600,"station_id":"st_d2o4gvlbi1j2169b742g","pricing_plan_id":"cebpf4jnsgd1na2vs0mg"},{"bike_id":"7435635b-177e-4316-af73-03b24c70afcc","system_id":"levelo_inurba_marseille","lat":43.30666,"lon":5.39995,"is_reserved":false,"is_disabled":false,"rental_uris":{"android":"levelo://app?vid=7435635b-177e-4316-af73-03b24c70afcc","ios":"levelo://app?vid=7435635b-177e-4316-af73-03b24c70afcc"},"vehicle_type_id":"4","last_reported":1761908950,"current_range_meters":12000,"station_id":"ce4bh112rcd13ifvqda0","pricing_plan_id":"cebpf4jnsgd1na2vs0mg"},{"bike_id":"d3e4191f-8708-4957-a7db-efe93d73dc66","system_id":"levelo_inurba_marseille","lat":43.28533,"lon":5.44109,"is_reserved":false,"is_disabled":false,"rental_uris":{"android":"levelo://app?vid=d3e4191f-8708-4957-a7db-efe93d73dc66","ios":"levelo://app?vid=d3e4191f-8708-4957-a7db-efe93d73dc66"},"vehicle_type_id":"4","last_reported":1761908950,"current_range_meters":12000,"station_id":"st_d3j3df2ikq2c7380ej80","pricing_plan_id":"cebpf4jnsgd1na2vs0mg"},{"bike_id":"88327406-ba65-4ce0-831c-3da476dbb691","system_id":"levelo_inurba_marseille","lat":43.23779,"lon":5.36637,"is_reserved":false,"is_disabled":false,"rental_uris":{"android":"levelo://app?vid=88327406-ba65-4ce0-831c-3da476dbb691","ios":"levelo://app?vid=88327406-ba65-4ce0-831c-3da476dbb691"},"vehicle_type_id":"4","last_reported":1761908950,"current_range_meters":12000,"station_id":"st_d3nk18o9ro0c73en2l3g","pricing_plan_id":"cebpf4jnsgd1na2vs0mg"},{"bike_id":"60ef5c64-5d03-41c7-afc2-aafc3eb32b64","system_id":"levelo_inurba_marseille","lat":43.2622,"lon":5.40461,"is_reserved":false,"is_disabled":false,"rental_uris":{"android":"levelo://app?vid=60ef5c64-5d03-41c7-afc2-aafc3eb32b64","ios":"levelo://app?vid=60ef5c64-5d03-41c7-afc2-aafc3eb32b64"},"vehicle_type_id":"4","last_reported":1761908950,"current_range_meters":12000,"station_id":"ce4bhmh2rcd13ifvqgmg","pricing_plan_id":"cebpf4jnsgd1na2vs0mg"},{"bike_id":"b8f404d3-62c4-4489-a471-d37212346558","system_id":"levelo_inurba_marseille","lat":43.31064,"lon":5.3785,"is_reserved":false,"is_disabled":false,"rental_uris":{"android":"levelo://app?vid=b8f404d3-62c4-4489-a471-d37212346558","ios":"levelo://app?vid=b8f404d3-62c4-4489-a471-d37212346558"},"vehicle_type_id":"4","last_reported":1761908950,"current_range_meters":12000,"station_id":"","pricing_plan_id":"cebpf4jnsgd1na2vs0mg"},{"bike_id":"645ddecc-598c-43b9-986f-3be375a36e66","system_id":"levelo_inurba_marseille","lat":43.27807,"lon":5.4072,"is_reserved":false,"is_disabled":false,"rental_uris":{"android":"levelo://app?vid=645ddecc-598c-43b9-986f-3be375a36e66","ios":"levelo://app?vid=645ddecc-598c-43b9-986f-3be375a36e66"},"vehicle_type_id":"4","last_reported":1761908950,"current_range_meters":12400,"station_id":"ce4bhnh2rcd13ifvqgtg","pricing_plan_id":"cebpf4jnsgd1na2vs0mg"},{"bike_id":"dd718b40-ac09-4712-a92c-cb36d641da7f","system_id":"levelo_inurba_marseille","lat":43.3055,"lon":5.36697,"is_reserved":false,"is_disabled":false,"rental_uris":{"android":"levelo://app?vid=dd718b40-ac09-4712-a92c-cb36d641da7f","ios":"levelo://app?vid=dd718b40-ac09-4712-a92c-cb36d641da7f"},"vehicle_type_id":"4","last_reported":1761908950,"current_range_meters":12400,"station_id":"ce4bgrp2rcd13ifvqc9g","pricing_plan_id":"cebpf4jnsgd1na2vs0mg"},{"bike_id":"ffebdc2b-1976-4f69-816d-4a39820368c8","system_id":"levelo_inurba_marseille","lat":43.28716,"lon":5.37933,"is_reserved":false,"is_disabled":false,"rental_uris":{"android":"levelo://app?vid=ffebdc2b-1976-4f69-816d-4a39820368c8","ios":"levelo://app?vid=ffebdc2b-1976-4f69-816d-4a39820368c8"},"vehicle_type_id":"4","last_reported":1761908950,"current_range_meters":12400,"station_id":"ce4bh9p2rcd13ifvqec0","pricing_plan_id":"cebpf4jnsgd1na2vs0mg"},{"bike_id":"7afafebc-9388-4b96-826a-eb1746b15f9a","system_id":"levelo_inurba_marseille","lat":43.27068,"lon":5.42277,"is_reserved":false,"is_disabled":false,"rental_uris":{"android":"levelo://app?vid=7afafebc-9388-4b96-826a-eb1746b15f9a","ios":"levelo://app?vid=7afafebc-9388-4b96-826a-eb1746b15f9a"},"vehicle_type_id":"4","last_reported":1761908950,"current_range_meters":12400,"station_id":"ce4bhk92rcd13ifvqgb0","pricing_plan_id":"cebpf4jnsgd1na2vs0mg"},{"bike_id":"8a0ff850-cf9f-4e75-bc3f-994489f28f31","system_id":"levelo_inurba_marseille","lat":43.22558,"lon":5.41631,"is_reserved":false,"is_disabled":false,"rental_uris":{"android":"levelo://app?vid=8a0ff850-cf9f-4e75-bc3f-994489f28f31","ios":"levelo://app?vid=8a0ff850-cf9f-4e75-bc3f-994489f28f31"},"vehicle_type_id":"4","last_reported":1761908950,"current_range_meters":12400,"station_id":"st_d2o4gvlbi1j2169b742g","pricing_plan_id":"cebpf4jnsgd1na2vs0mg"},{"bike_id":"55dcd01c-d34a-47be-a3d6-36ce1a799b9c","system_id":"levelo_inurba_marseille","lat":43.29221,"lon":5.36068,"is_reserved":false,"is_disabled":false,"rental_uris":{"android":"levelo://app?vid=55dcd01c-d34a-47be-a3d6-36ce1a799b9c","ios":"levelo://app?vid=55dcd01c-d34a-47be-a3d6-36ce1a799b9c"},"vehicle_type_id":"4","last_reported":1761908950,"current_range_meters":12800,"station_id":"ce4bhbh2rcd13ifvqeqg","pricing_plan_id":"cebpf4jnsgd1na2vs0mg"},{"bike_id":"80c53fab-d9fd-4b9a-94e7-e3f3183e35da","system_id":"levelo_inurba_marseille","lat":43.33024,"lon":5.3904,"is_reserved":false,"is_disabled":false,"rental_uris":{"android":"levelo://app?vid=80c53fab-d9fd-4b9a-94e7-e3f3183e35da","ios":"levelo://app?vid=80c53fab-d9fd-4b9a-94e7-e3f3183e35da"},"vehicle_type_id":"4","last_reported":1761908950,"current_range_meters":12800,"station_id":"ce4bhr92rcd13ifvqhrg","pricing_plan_id":"cebpf4jnsgd1na2vs0mg"},{"bike_id":"2f477f8f-972b-406c-841a-14096d9c76ee","system_id":"levelo_inurba_marseille","lat":43.29747,"lon":5.42784,"is_reserved":false,"is_disabled":false,"rental_uris":{"android":"levelo://app?vid=2f477f8f-972b-406c-841a-14096d9c76ee","ios":"levelo://app?vid=2f477f8f-972b-406c-841a-14096d9c76ee"},"vehicle_type_id":"4","last_reported":1761908950,"current_range_meters":13600,"station_id":"st_d3md5207bmas73dh9klg","pricing_plan_id":"cebpf4jnsgd1na2vs0mg"},{"bike_id":"70b7527d-67eb-4818-84c6-51aae343ca97","system_id":"levelo_inurba_marseille","lat":43.28498,"lon":5.48405,"is_reserved":false,"is_disabled":false,"rental_uris":{"android":"levelo://app?vid=70b7527d-67eb-4818-84c6-51aae343ca97","ios":"levelo://app?vid=70b7527d-67eb-4818-84c6-51aae343ca97"},"vehicle_type_id":"4","last_reported":1761908950,"current_range_meters":13600,"station_id":"st_d3svhcjqgbts73a3dn0g","pricing_plan_id":"cebpf4jnsgd1na2vs0mg"},{"bike_id":"1213ff01-604d-4b83-b3a2-60440c4b245e","system_id":"levelo_inurba_marseille","lat":43.23783,"lon":5.36631,"is_reserved":false,"is_disabled":false,"rental_uris":{"android":"levelo://app?vid=1213ff01-604d-4b83-b3a2-60440c4b245e","ios":"levelo://app?vid=1213ff01-604d-4b83-b3a2-60440c4b245e"},"vehicle_type_id":"4","last_reported":1761908950,"current_range_meters":13600,"station_id":"st_d3nk18o9ro0c73en2l3g","pricing_plan_id":"cebpf4jnsgd1na2vs0mg"},{"bike_id":"96ad2f8e-1ff0-415a-a84a-9186f2a5baf6","system_id":"levelo_inurba_marseille","lat":43.29606,"lon":5.37672,"is_reserved":false,"is_disabled":false,"rental_uris":{"android":"levelo://app?vid=96ad2f8e-1ff0-415a-a84a-9186f2a5baf6","ios":"levelo://app?vid=96ad2f8e-1ff0-415a-a84a-9186f2a5baf6"},"vehicle_type_id":"4","last_reported":1761908950,"current_range_meters":13600,"station_id":"ce4bgi12rcd13ifvqb80","pricing_plan_id":"cebpf4jnsgd1na2vs0mg"},{"bike_id":"46835159-5dd5-4fc9-a732-591f6a5307e4","system_id":"levelo_inurba_marseille","lat":43.31351,"lon":5.37912,"is_reserved":false,"is_disabled":false,"rental_uris":{"android":"levelo://app?vid=46835159-5dd5-4fc9-a732-591f6a5307e4","ios":"levelo://app?vid=46835159-5dd5-4fc9-a732-591f6a5307e4"},"vehicle_type_id":"4","last_reported":1761908950,"current_range_meters":13600,"station_id":"","pricing_plan_id":"cebpf4jnsgd1na2vs0mg"},{"bike_id":"a4dac4fa-66e6-48be-a654-6e17cdc7ca0b","system_id":"levelo_inurba_marseille","lat":43.337571,"lon":5.374323,"is_reserved":false,"is_disabled":false,"rental_uris":{"android":"levelo://app?vid=a4dac4fa-66e6-48be-a654-6e17cdc7ca0b","ios":"levelo://app?vid=a4dac4fa-66e6-48be-a654-6e17cdc7ca0b"},"vehicle_type_id":"4","last_reported":1761908950,"current_range_meters":14000,"station_id":"","pricing_plan_id":"cebpf4jnsgd1na2vs0mg"},{"bike_id":"8441cbd5-bd2d-4a84-9c97-21973dc7f2cf","system_id":"levelo_inurba_marseille","lat":43.29096,"lon":5.38139,"is_reserved":false,"is_disabled":false,"rental_uris":{"android":"levelo://app?vid=8441cbd5-bd2d-4a84-9c97-21973dc7f2cf","ios":"levelo://app?vid=8441cbd5-bd2d-4a84-9c97-21973dc7f2cf"},"vehicle_type_id":"4","last_reported":1761908950,"current_range_meters":14000,"station_id":"ce4bh512rcd13ifvqe2g","pricing_plan_id":"cebpf4jnsgd1na2vs0mg"},{"bike_id":"e1374d14-ca8c-4d30-bf7a-1e91101e2cee","system_id":"levelo_inurba_marseille","lat":43.28527,"lon":5.44103,"is_reserved":false,"is_disabled":false,"rental_uris":{"android":"levelo://app?vid=e1374d14-ca8c-4d30-bf7a-1e91101e2cee","ios":"levelo://app?vid=e1374d14-ca8c-4d30-bf7a-1e91101e2cee"},"vehicle_type_id":"4","last_reported":1761908950,"current_range_meters":14000,"station_id":"st_d3j3df2ikq2c7380ej80","pricing_plan_id":"cebpf4jnsgd1na2vs0mg"},{"bike_id":"7150a87f-46bb-48b3-b414-3182ede77513","system_id":"levelo_inurba_marseille","lat":43.27204,"lon":5.39177,"is_reserved":false,"is_disabled":false,"rental_uris":{"android":"levelo://app?vid=7150a87f-46bb-48b3-b414-3182ede77513","ios":"levelo://app?vid=7150a87f-46bb-48b3-b414-3182ede77513"},"vehicle_type_id":"4","last_reported":1761908950,"current_range_meters":14000,"station_id":"ce4bhhp2rcd13ifvqfm0","pricing_plan_id":"cebpf4jnsgd1na2vs0mg"},{"bike_id":"582592ea-b5f8-4e34-890b-17a4343fe380","system_id":"levelo_inurba_marseille","lat":43.29913,"lon":5.38133,"is_reserved":false,"is_disabled":false,"rental_uris":{"android":"levelo://app?vid=582592ea-b5f8-4e34-890b-17a4343fe380","ios":"levelo://app?vid=582592ea-b5f8-4e34-890b-17a4343fe380"},"vehicle_type_id":"4","last_reported":1761908950,"current_range_meters":14000,"station_id":"ce4bgj12rcd13ifvqbc0","pricing_plan_id":"cebpf4jnsgd1na2vs0mg"},{"bike_id":"1282d74a-548d-440e-84c8-e15be2e1b590","system_id":"levelo_inurba_marseille","lat":43.262033,"lon":5.379268,"is_reserved":false,"is_disabled":false,"rental_uris":{"android":"levelo://app?vid=1282d74a-548d-440e-84c8-e15be2e1b590","ios":"levelo://app?vid=1282d74a-548d-440e-84c8-e15be2e1b590"},"vehicle_type_id":"4","last_reported":1761908950,"current_range_meters":14400,"station_id":"ce4bhjp2rcd13ifvqg90","pricing_plan_id":"cebpf4jnsgd1na2vs0mg"},{"bike_id":"281a8b38-70ee-4c89-bb63-30fb3d82f6a7","system_id":"levelo_inurba_marseille","lat":43.2767,"lon":5.38874,"is_reserved":false,"is_disabled":false,"rental_uris":{"android":"levelo://app?vid=281a8b38-70ee-4c89-bb63-30fb3d82f6a7","ios":"levelo://app?vid=281a8b38-70ee-4c89-bb63-30fb3d82f6a7"},"vehicle_type_id":"4","last_reported":1761908950,"current_range_meters":14400,"station_id":"ce4bhi12rcd13ifvqfo0","pricing_plan_id":"cebpf4jnsgd1na2vs0mg"},{"bike_id":"7e2cd24e-9bbb-43f7-a796-98c4fcc49ba1","system_id":"levelo_inurba_marseille","lat":43.286202,"lon":5.351147,"is_reserved":false,"is_disabled":false,"rental_uris":{"android":"levelo://app?vid=7e2cd24e-9bbb-43f7-a796-98c4fcc49ba1","ios":"levelo://app?vid=7e2cd24e-9bbb-43f7-a796-98c4fcc49ba1"},"vehicle_type_id":"4","last_reported":1761908950,"current_range_meters":14400,"station_id":"ce4bhch2rcd13ifvqeug","pricing_plan_id":"cebpf4jnsgd1na2vs0mg"},{"bike_id":"51024fd0-c347-48fc-aeb0-c183df2ce438","system_id":"levelo_inurba_marseille","lat":43.27815,"lon":5.40702,"is_reserved":false,"is_disabled":false,"rental_uris":{"android":"levelo://app?vid=51024fd0-c347-48fc-aeb0-c183df2ce438","ios":"levelo://app?vid=51024fd0-c347-48fc-aeb0-c183df2ce438"},"vehicle_type_id":"4","last_reported":1761908950,"current_range_meters":14400,"station_id":"ce4bhnh2rcd13ifvqgtg","pricing_plan_id":"cebpf4jnsgd1na2vs0mg"},{"bike_id":"ee261a32-9de1-4b9e-a923-6c91e1e26176","system_id":"levelo_inurba_marseille","lat":43.28478,"lon":5.48382,"is_reserved":false,"is_disabled":false,"rental_uris":{"android":"levelo://app?vid=ee261a32-9de1-4b9e-a923-6c91e1e26176","ios":"levelo://app?vid=ee261a32-9de1-4b9e-a923-6c91e1e26176"},"vehicle_type_id":"4","last_reported":1761908950,"current_range_meters":14400,"station_id":"st_d3svhcjqgbts73a3dn0g","pricing_plan_id":"cebpf4jnsgd1na2vs0mg"},{"bike_id":"00461132-9c40-4f28-b6b6-8e078ea78dba","system_id":"levelo_inurba_marseille","lat":43.29213,"lon":5.36059,"is_reserved":false,"is_disabled":false,"rental_uris":{"android":"levelo://app?vid=00461132-9c40-4f28-b6b6-8e078ea78dba","ios":"levelo://app?vid=00461132-9c40-4f28-b6b6-8e078ea78dba"},"vehicle_type_id":"4","last_reported":1761908950,"current_range_meters":14400,"station_id":"ce4bhbh2rcd13ifvqeqg","pricing_plan_id":"cebpf4jnsgd1na2vs0mg"},{"bike_id":"beb5aeba-4e4d-4667-9243-ae63f411ac6a","system_id":"levelo_inurba_marseille","lat":43.305566,"lon":5.36565,"is_reserved":false,"is_disabled":false,"rental_uris":{"android":"levelo://app?vid=beb5aeba-4e4d-4667-9243-ae63f411ac6a","ios":"levelo://app?vid=beb5aeba-4e4d-4667-9243-ae63f411ac6a"},"vehicle_type_id":"4","last_reported":1761908950,"current_range_meters":14400,"station_id":"ce4bgs12rcd13ifvqcag","pricing_plan_id":"cebpf4jnsgd1na2vs0mg"},{"bike_id":"844408c0-2421-44e2-b843-9f6ace1b2c33","system_id":"levelo_inurba_marseille","lat":43.29571,"lon":5.37525,"is_reserved":false,"is_disabled":false,"rental_uris":{"android":"levelo://app?vid=844408c0-2421-44e2-b843-9f6ace1b2c33","ios":"levelo://app?vid=844408c0-2421-44e2-b843-9f6ace1b2c33"},"vehicle_type_id":"4","last_reported":1761908950,"current_range_meters":14800,"station_id":"ce4bgh92rcd13ifvqb50","pricing_plan_id":"cebpf4jnsgd1na2vs0mg"},{"bike_id":"719cab00-fc05-4a10-b7e7-f67576adad60","system_id":"levelo_inurba_marseille","lat":43.23147,"lon":5.43692,"is_reserved":false,"is_disabled":false,"rental_uris":{"android":"levelo://app?vid=719cab00-fc05-4a10-b7e7-f67576adad60","ios":"levelo://app?vid=719cab00-fc05-4a10-b7e7-f67576adad60"},"vehicle_type_id":"4","last_reported":1761908950,"current_range_meters":14800,"station_id":"ce4bhmp2rcd13ifvqgog","pricing_plan_id":"cebpf4jnsgd1na2vs0mg"},{"bike_id":"aad6a064-c048-4ba9-a156-1745b89548aa","system_id":"levelo_inurba_marseille","lat":43.28324,"lon":5.41105,"is_reserved":false,"is_disabled":false,"rental_uris":{"android":"levelo://app?vid=aad6a064-c048-4ba9-a156-1745b89548aa","ios":"levelo://app?vid=aad6a064-c048-4ba9-a156-1745b89548aa"},"vehicle_type_id":"4","last_reported":1761908950,"current_range_meters":14800,"station_id":"","pricing_plan_id":"cebpf4jnsgd1na2vs0mg"},{"bike_id":"de83f0dd-c65e-4351-b45e-c7a94a5552ba","system_id":"levelo_inurba_marseille","lat":43.32058,"lon":5.41574,"is_reserved":false,"is_disabled":false,"rental_uris":{"android":"levelo://app?vid=de83f0dd-c65e-4351-b45e-c7a94a5552ba","ios":"levelo://app?vid=de83f0dd-c65e-4351-b45e-c7a94a5552ba"},"vehicle_type_id":"4","last_reported":1761908950,"current_range_meters":14800,"station_id":"ce4bhq92rcd13ifvqhkg","pricing_plan_id":"cebpf4jnsgd1na2vs0mg"},{"bike_id":"399a9e86-a9a1-4916-8db4-864f513fb5ef","system_id":"levelo_inurba_marseille","lat":43.26191,"lon":5.3745,"is_reserved":false,"is_disabled":false,"rental_uris":{"android":"levelo://app?vid=399a9e86-a9a1-4916-8db4-864f513fb5ef","ios":"levelo://app?vid=399a9e86-a9a1-4916-8db4-864f513fb5ef"},"vehicle_type_id":"4","last_reported":1761908950,"current_range_meters":14800,"station_id":"ce4bhgp2rcd13ifvqfc0","pricing_plan_id":"cebpf4jnsgd1na2vs0mg"},{"bike_id":"90f51c4e-6767-4785-af76-ef48e43a238a","system_id":"levelo_inurba_marseille","lat":43.231552,"lon":5.437038,"is_reserved":false,"is_disabled":false,"rental_uris":{"android":"levelo://app?vid=90f51c4e-6767-4785-af76-ef48e43a238a","ios":"levelo://app?vid=90f51c4e-6767-4785-af76-ef48e43a238a"},"vehicle_type_id":"4","last_reported":1761908950,"current_range_meters":14800,"station_id":"ce4bhmp2rcd13ifvqgog","pricing_plan_id":"cebpf4jnsgd1na2vs0mg"},{"bike_id":"12c24c1a-5f34-4e4f-b6c0-f07cd6755b8d","system_id":"levelo_inurba_marseille","lat":43.249535,"lon":5.405076,"is_reserved":false,"is_disabled":false,"rental_uris":{"android":"levelo://app?vid=12c24c1a-5f34-4e4f-b6c0-f07cd6755b8d","ios":"levelo://app?vid=12c24c1a-5f34-4e4f-b6c0-f07cd6755b8d"},"vehicle_type_id":"4","last_reported":1761908950,"current_range_meters":15200,"station_id":"st_d2ngiaodas8pm72gd1h0","pricing_plan_id":"cebpf4jnsgd1na2vs0mg"},{"bike_id":"7f71708b-0ea1-4389-ad9e-9eb55c6a6cb9","system_id":"levelo_inurba_marseille","lat":43.288587,"lon":5.425236,"is_reserved":false,"is_disabled":false,"rental_uris":{"android":"levelo://app?vid=7f71708b-0ea1-4389-ad9e-9eb55c6a6cb9","ios":"levelo://app?vid=7f71708b-0ea1-4389-ad9e-9eb55c6a6cb9"},"vehicle_type_id":"4","last_reported":1761908950,"current_range_meters":15200,"station_id":"st_d3b462108ojc7389ooeg","pricing_plan_id":"cebpf4jnsgd1na2vs0mg"},{"bike_id":"08173caa-da0f-4493-a0dc-569af39d4af7","system_id":"levelo_inurba_marseille","lat":43.30121,"lon":5.43119,"is_reserved":false,"is_disabled":false,"rental_uris":{"android":"levelo://app?vid=08173caa-da0f-4493-a0dc-569af39d4af7","ios":"levelo://app?vid=08173caa-da0f-4493-a0dc-569af39d4af7"},"vehicle_type_id":"4","last_reported":1761908950,"current_range_meters":16000,"station_id":"st_d3js3co5814s73ftftug","pricing_plan_id":"cebpf4jnsgd1na2vs0mg"},{"bike_id":"8165f6ad-0457-4c12-8182-2c24600da263","system_id":"levelo_inurba_marseille","lat":43.266735,"lon":5.382635,"is_reserved":false,"is_disabled":false,"rental_uris":{"android":"levelo://app?vid=8165f6ad-0457-4c12-8182-2c24600da263","ios":"levelo://app?vid=8165f6ad-0457-4c12-8182-2c24600da263"},"vehicle_type_id":"4","last_reported":1761908950,"current_range_meters":16000,"station_id":"ce4bhg92rcd13ifvqf90","pricing_plan_id":"cebpf4jnsgd1na2vs0mg"},{"bike_id":"c6cc2ad5-87f3-46b4-954a-6b3fc4efe701","system_id":"levelo_inurba_marseille","lat":43.29867,"lon":5.36294,"is_reserved":false,"is_disabled":false,"rental_uris":{"android":"levelo://app?vid=c6cc2ad5-87f3-46b4-954a-6b3fc4efe701","ios":"levelo://app?vid=c6cc2ad5-87f3-46b4-954a-6b3fc4efe701"},"vehicle_type_id":"4","last_reported":1761908950,"current_range_meters":16000,"station_id":"ce4bgpp2rcd13ifvqc3g","pricing_plan_id":"cebpf4jnsgd1na2vs0mg"},{"bike_id":"6a560d8f-97b3-46dd-8b23-b0e9c6faafa3","system_id":"levelo_inurba_marseille","lat":43.30463,"lon":5.379,"is_reserved":false,"is_disabled":false,"rental_uris":{"android":"levelo://app?vid=6a560d8f-97b3-46dd-8b23-b0e9c6faafa3","ios":"levelo://app?vid=6a560d8f-97b3-46dd-8b23-b0e9c6faafa3"},"vehicle_type_id":"4","last_reported":1761908950,"current_range_meters":16000,"station_id":"ce4bgup2rcd13ifvqcn0","pricing_plan_id":"cebpf4jnsgd1na2vs0mg"},{"bike_id":"3b8d8128-20c3-4189-8013-ffc8bbfec252","system_id":"levelo_inurba_marseille","lat":43.2863,"lon":5.35104,"is_reserved":false,"is_disabled":false,"rental_uris":{"android":"levelo://app?vid=3b8d8128-20c3-4189-8013-ffc8bbfec252","ios":"levelo://app?vid=3b8d8128-20c3-4189-8013-ffc8bbfec252"},"vehicle_type_id":"4","last_reported":1761908950,"current_range_meters":16000,"station_id":"ce4bhch2rcd13ifvqeug","pricing_plan_id":"cebpf4jnsgd1na2vs0mg"},{"bike_id":"ec8e4f97-d500-4b79-b9f1-140344d7f670","system_id":"levelo_inurba_marseille","lat":43.23156,"lon":5.43713,"is_reserved":false,"is_disabled":false,"rental_uris":{"android":"levelo://app?vid=ec8e4f97-d500-4b79-b9f1-140344d7f670","ios":"levelo://app?vid=ec8e4f97-d500-4b79-b9f1-140344d7f670"},"vehicle_type_id":"4","last_reported":1761908950,"current_range_meters":16000,"station_id":"ce4bhmp2rcd13ifvqgog","pricing_plan_id":"cebpf4jnsgd1na2vs0mg"},{"bike_id":"90cc4e35-1e9a-4d48-878d-a3997094c0ce","system_id":"levelo_inurba_marseille","lat":43.24635,"lon":5.43118,"is_reserved":false,"is_disabled":false,"rental_uris":{"android":"levelo://app?vid=90cc4e35-1e9a-4d48-878d-a3997094c0ce","ios":"levelo://app?vid=90cc4e35-1e9a-4d48-878d-a3997094c0ce"},"vehicle_type_id":"4","last_reported":1761908950,"current_range_meters":16000,"station_id":"st_d2m6c4gdas8pm72e190g","pricing_plan_id":"cebpf4jnsgd1na2vs0mg"},{"bike_id":"319b8584-93f2-449c-b056-ea3f20ebc971","system_id":"levelo_inurba_marseille","lat":43.2852,"lon":5.4302,"is_reserved":false,"is_disabled":false,"rental_uris":{"android":"levelo://app?vid=319b8584-93f2-449c-b056-ea3f20ebc971","ios":"levelo://app?vid=319b8584-93f2-449c-b056-ea3f20ebc971"},"vehicle_type_id":"4","last_reported":1761908950,"current_range_meters":16000,"station_id":"","pricing_plan_id":"cebpf4jnsgd1na2vs0mg"},{"bike_id":"0dc930ae-88e6-493c-ab95-8df0b3ac1f8b","system_id":"levelo_inurba_marseille","lat":43.298991,"lon":5.436501,"is_reserved":false,"is_disabled":false,"rental_uris":{"android":"levelo://app?vid=0dc930ae-88e6-493c-ab95-8df0b3ac1f8b","ios":"levelo://app?vid=0dc930ae-88e6-493c-ab95-8df0b3ac1f8b"},"vehicle_type_id":"4","last_reported":1761908950,"current_range_meters":16400,"station_id":"ce4bhpp2rcd13ifvqhfg","pricing_plan_id":"cebpf4jnsgd1na2vs0mg"},{"bike_id":"b2ce8e73-e59b-4d30-b8e2-e59e2e1e3b22","system_id":"levelo_inurba_marseille","lat":43.33775,"lon":5.37482,"is_reserved":false,"is_disabled":false,"rental_uris":{"android":"levelo://app?vid=b2ce8e73-e59b-4d30-b8e2-e59e2e1e3b22","ios":"levelo://app?vid=b2ce8e73-e59b-4d30-b8e2-e59e2e1e3b22"},"vehicle_type_id":"4","last_reported":1761908950,"current_range_meters":16400,"station_id":"","pricing_plan_id":"cebpf4jnsgd1na2vs0mg"},{"bike_id":"e2234f26-0e6e-4c07-b518-4bca6fbdcf7a","system_id":"levelo_inurba_marseille","lat":43.29029,"lon":5.39963,"is_reserved":false,"is_disabled":false,"rental_uris":{"android":"levelo://app?vid=e2234f26-0e6e-4c07-b518-4bca6fbdcf7a","ios":"levelo://app?vid=e2234f26-0e6e-4c07-b518-4bca6fbdcf7a"},"vehicle_type_id":"4","last_reported":1761908950,"current_range_meters":16400,"station_id":"ce4bh392rcd13ifvqdm0","pricing_plan_id":"cebpf4jnsgd1na2vs0mg"},{"bike_id":"6cd59db7-cb12-4301-8385-22b87d7a5cfd","system_id":"levelo_inurba_marseille","lat":43.28528,"lon":5.44097,"is_reserved":false,"is_disabled":false,"rental_uris":{"android":"levelo://app?vid=6cd59db7-cb12-4301-8385-22b87d7a5cfd","ios":"levelo://app?vid=6cd59db7-cb12-4301-8385-22b87d7a5cfd"},"vehicle_type_id":"4","last_reported":1761908950,"current_range_meters":16400,"station_id":"st_d3j3df2ikq2c7380ej80","pricing_plan_id":"cebpf4jnsgd1na2vs0mg"},{"bike_id":"a74ca4e6-9019-4ce4-a364-7a22bd8e206a","system_id":"levelo_inurba_marseille","lat":43.26507,"lon":5.38524,"is_reserved":false,"is_disabled":false,"rental_uris":{"android":"levelo://app?vid=a74ca4e6-9019-4ce4-a364-7a22bd8e206a","ios":"levelo://app?vid=a74ca4e6-9019-4ce4-a364-7a22bd8e206a"},"vehicle_type_id":"4","last_reported":1761908950,"current_range_meters":16400,"station_id":"","pricing_plan_id":"cebpf4jnsgd1na2vs0mg"},{"bike_id":"33905860-27be-4617-9c46-dba5d5fa9800","system_id":"levelo_inurba_marseille","lat":43.29265,"lon":5.38426,"is_reserved":false,"is_disabled":false,"rental_uris":{"android":"levelo://app?vid=33905860-27be-4617-9c46-dba5d5fa9800","ios":"levelo://app?vid=33905860-27be-4617-9c46-dba5d5fa9800"},"vehicle_type_id":"4","last_reported":1761908950,"current_range_meters":16400,"station_id":"ce4bh692rcd13ifvqea0","pricing_plan_id":"cebpf4jnsgd1na2vs0mg"},{"bike_id":"c015c7a2-82a9-4665-ab56-4c69e7c6c92c","system_id":"levelo_inurba_marseille","lat":43.2791,"lon":5.39589,"is_reserved":false,"is_disabled":false,"rental_uris":{"android":"levelo://app?vid=c015c7a2-82a9-4665-ab56-4c69e7c6c92c","ios":"levelo://app?vid=c015c7a2-82a9-4665-ab56-4c69e7c6c92c"},"vehicle_type_id":"4","last_reported":1761908950,"current_range_meters":16400,"station_id":"ce4bhf92rcd13ifvqf40","pricing_plan_id":"cebpf4jnsgd1na2vs0mg"},{"bike_id":"67574b52-df04-494b-9774-94a1cce58039","system_id":"levelo_inurba_marseille","lat":43.29284,"lon":5.40114,"is_reserved":false,"is_disabled":false,"rental_uris":{"android":"levelo://app?vid=67574b52-df04-494b-9774-94a1cce58039","ios":"levelo://app?vid=67574b52-df04-494b-9774-94a1cce58039"},"vehicle_type_id":"4","last_reported":1761908950,"current_range_meters":16400,"station_id":"ce4bh312rcd13ifvqdk0","pricing_plan_id":"cebpf4jnsgd1na2vs0mg"},{"bike_id":"33a73ec8-b54a-4cf7-8ac3-87100564c0a9","system_id":"levelo_inurba_marseille","lat":43.266835,"lon":5.382722,"is_reserved":false,"is_disabled":false,"rental_uris":{"android":"levelo://app?vid=33a73ec8-b54a-4cf7-8ac3-87100564c0a9","ios":"levelo://app?vid=33a73ec8-b54a-4cf7-8ac3-87100564c0a9"},"vehicle_type_id":"4","last_reported":1761908950,"current_range_meters":16400,"station_id":"ce4bhg92rcd13ifvqf90","pricing_plan_id":"cebpf4jnsgd1na2vs0mg"},{"bike_id":"65f21baa-74e9-41fb-bd8d-b51991bbff21","system_id":"levelo_inurba_marseille","lat":43.27808,"lon":5.40691,"is_reserved":false,"is_disabled":false,"rental_uris":{"android":"levelo://app?vid=65f21baa-74e9-41fb-bd8d-b51991bbff21","ios":"levelo://app?vid=65f21baa-74e9-41fb-bd8d-b51991bbff21"},"vehicle_type_id":"4","last_reported":1761908950,"current_range_meters":16400,"station_id":"ce4bhnh2rcd13ifvqgtg","pricing_plan_id":"cebpf4jnsgd1na2vs0mg"},{"bike_id":"a9cdbb07-222c-4ae2-b8a0-add1896b5ebf","system_id":"levelo_inurba_marseille","lat":43.26069,"lon":5.39379,"is_reserved":false,"is_disabled":false,"rental_uris":{"android":"levelo://app?vid=a9cdbb07-222c-4ae2-b8a0-add1896b5ebf","ios":"levelo://app?vid=a9cdbb07-222c-4ae2-b8a0-add1896b5ebf"},"vehicle_type_id":"4","last_reported":1761908950,"current_range_meters":16800,"station_id":"ce4bhh92rcd13ifvqfj0","pricing_plan_id":"cebpf4jnsgd1na2vs0mg"},{"bike_id":"102aeb48-30b0-4c21-a180-2e8cff3e0ce1","system_id":"levelo_inurba_marseille","lat":43.26029,"lon":5.37562,"is_reserved":false,"is_disabled":false,"rental_uris":{"android":"levelo://app?vid=102aeb48-30b0-4c21-a180-2e8cff3e0ce1","ios":"levelo://app?vid=102aeb48-30b0-4c21-a180-2e8cff3e0ce1"},"vehicle_type_id":"4","last_reported":1761908950,"current_range_meters":16800,"station_id":"ce4bhgh2rcd13ifvqfa0","pricing_plan_id":"cebpf4jnsgd1na2vs0mg"},{"bike_id":"e7ead618-cc2b-4c53-bc61-330caff21889","system_id":"levelo_inurba_marseille","lat":43.25335,"lon":5.42168,"is_reserved":false,"is_disabled":false,"rental_uris":{"android":"levelo://app?vid=e7ead618-cc2b-4c53-bc61-330caff21889","ios":"levelo://app?vid=e7ead618-cc2b-4c53-bc61-330caff21889"},"vehicle_type_id":"4","last_reported":1761908950,"current_range_meters":16800,"station_id":"st_d2m65c5bi1j21697t3ng","pricing_plan_id":"cebpf4jnsgd1na2vs0mg"},{"bike_id":"efab51bb-2873-49b5-8a21-1850eb33cbaf","system_id":"levelo_inurba_marseille","lat":43.24015,"lon":5.37851,"is_reserved":false,"is_disabled":false,"rental_uris":{"android":"levelo://app?vid=efab51bb-2873-49b5-8a21-1850eb33cbaf","ios":"levelo://app?vid=efab51bb-2873-49b5-8a21-1850eb33cbaf"},"vehicle_type_id":"4","last_reported":1761908950,"current_range_meters":16800,"station_id":"","pricing_plan_id":"cebpf4jnsgd1na2vs0mg"},{"bike_id":"7942fb60-10e5-4b8f-b394-00c1075c73a4","system_id":"levelo_inurba_marseille","lat":43.29624,"lon":5.37714,"is_reserved":false,"is_disabled":false,"rental_uris":{"android":"levelo://app?vid=7942fb60-10e5-4b8f-b394-00c1075c73a4","ios":"levelo://app?vid=7942fb60-10e5-4b8f-b394-00c1075c73a4"},"vehicle_type_id":"4","last_reported":1761908950,"current_range_meters":16800,"station_id":"ce4bgi92rcd13ifvqb90","pricing_plan_id":"cebpf4jnsgd1na2vs0mg"},{"bike_id":"9426e984-d66a-46ec-83f8-e2f4059a3e57","system_id":"levelo_inurba_marseille","lat":43.298481,"lon":5.362874,"is_reserved":false,"is_disabled":false,"rental_uris":{"android":"levelo://app?vid=9426e984-d66a-46ec-83f8-e2f4059a3e57","ios":"levelo://app?vid=9426e984-d66a-46ec-83f8-e2f4059a3e57"},"vehicle_type_id":"4","last_reported":1761908950,"current_range_meters":16800,"station_id":"","pricing_plan_id":"cebpf4jnsgd1na2vs0mg"},{"bike_id":"f0fc9c16-8f12-4269-b451-eb77f3eb3fef","system_id":"levelo_inurba_marseille","lat":43.31883,"lon":5.40736,"is_reserved":false,"is_disabled":false,"rental_uris":{"android":"levelo://app?vid=f0fc9c16-8f12-4269-b451-eb77f3eb3fef","ios":"levelo://app?vid=f0fc9c16-8f12-4269-b451-eb77f3eb3fef"},"vehicle_type_id":"4","last_reported":1761908950,"current_range_meters":16800,"station_id":"ce4bhq12rcd13ifvqhig","pricing_plan_id":"cebpf4jnsgd1na2vs0mg"},{"bike_id":"f2942712-3404-47e6-8e4f-4b56a1fa9762","system_id":"levelo_inurba_marseille","lat":43.27315,"lon":5.39108,"is_reserved":false,"is_disabled":false,"rental_uris":{"android":"levelo://app?vid=f2942712-3404-47e6-8e4f-4b56a1fa9762","ios":"levelo://app?vid=f2942712-3404-47e6-8e4f-4b56a1fa9762"},"vehicle_type_id":"4","last_reported":1761908950,"current_range_meters":17200,"station_id":"ce4bhgp2rcd13ifvqfe0","pricing_plan_id":"cebpf4jnsgd1na2vs0mg"},{"bike_id":"b1e81361-2b17-4ef1-8a58-6def5753471b","system_id":"levelo_inurba_marseille","lat":43.33753,"lon":5.37484,"is_reserved":false,"is_disabled":false,"rental_uris":{"android":"levelo://app?vid=b1e81361-2b17-4ef1-8a58-6def5753471b","ios":"levelo://app?vid=b1e81361-2b17-4ef1-8a58-6def5753471b"},"vehicle_type_id":"4","last_reported":1761908950,"current_range_meters":17200,"station_id":"","pricing_plan_id":"cebpf4jnsgd1na2vs0mg"},{"bike_id":"d9879afc-1f3f-4d17-b24e-0f2dfeb42721","system_id":"levelo_inurba_marseille","lat":43.27182,"lon":5.40994,"is_reserved":false,"is_disabled":false,"rental_uris":{"android":"levelo://app?vid=d9879afc-1f3f-4d17-b24e-0f2dfeb42721","ios":"levelo://app?vid=d9879afc-1f3f-4d17-b24e-0f2dfeb42721"},"vehicle_type_id":"4","last_reported":1761908950,"current_range_meters":17200,"station_id":"ce4bhl12rcd13ifvqgf0","pricing_plan_id":"cebpf4jnsgd1na2vs0mg"},{"bike_id":"4a689795-3779-4fc2-8ed5-488beecb93ee","system_id":"levelo_inurba_marseille","lat":43.32661,"lon":5.40989,"is_reserved":false,"is_disabled":false,"rental_uris":{"android":"levelo://app?vid=4a689795-3779-4fc2-8ed5-488beecb93ee","ios":"levelo://app?vid=4a689795-3779-4fc2-8ed5-488beecb93ee"},"vehicle_type_id":"4","last_reported":1761908950,"current_range_meters":17200,"station_id":"ce4bhpp2rcd13ifvqhgg","pricing_plan_id":"cebpf4jnsgd1na2vs0mg"},{"bike_id":"52b117f2-4c01-4f66-887d-006722496528","system_id":"levelo_inurba_marseille","lat":43.30864,"lon":5.37143,"is_reserved":false,"is_disabled":false,"rental_uris":{"android":"levelo://app?vid=52b117f2-4c01-4f66-887d-006722496528","ios":"levelo://app?vid=52b117f2-4c01-4f66-887d-006722496528"},"vehicle_type_id":"4","last_reported":1761908950,"current_range_meters":17200,"station_id":"","pricing_plan_id":"cebpf4jnsgd1na2vs0mg"},{"bike_id":"a9bd6156-5973-4728-a560-5afb8e593a6c","system_id":"levelo_inurba_marseille","lat":43.30494,"lon":5.3791,"is_reserved":false,"is_disabled":false,"rental_uris":{"android":"levelo://app?vid=a9bd6156-5973-4728-a560-5afb8e593a6c","ios":"levelo://app?vid=a9bd6156-5973-4728-a560-5afb8e593a6c"},"vehicle_type_id":"4","last_reported":1761908950,"current_range_meters":17200,"station_id":"ce4bgup2rcd13ifvqcn0","pricing_plan_id":"cebpf4jnsgd1na2vs0mg"},{"bike_id":"b6b9269d-abf5-4b6c-aa2f-ee0564011954","system_id":"levelo_inurba_marseille","lat":43.28717,"lon":5.37937,"is_reserved":false,"is_disabled":false,"rental_uris":{"android":"levelo://app?vid=b6b9269d-abf5-4b6c-aa2f-ee0564011954","ios":"levelo://app?vid=b6b9269d-abf5-4b6c-aa2f-ee0564011954"},"vehicle_type_id":"4","last_reported":1761908950,"current_range_meters":17200,"station_id":"ce4bh9p2rcd13ifvqec0","pricing_plan_id":"cebpf4jnsgd1na2vs0mg"},{"bike_id":"933ed787-74a5-45ae-8d47-34a1b88d6813","system_id":"levelo_inurba_marseille","lat":43.23146,"lon":5.4369,"is_reserved":false,"is_disabled":false,"rental_uris":{"android":"levelo://app?vid=933ed787-74a5-45ae-8d47-34a1b88d6813","ios":"levelo://app?vid=933ed787-74a5-45ae-8d47-34a1b88d6813"},"vehicle_type_id":"4","last_reported":1761908950,"current_range_meters":17200,"station_id":"ce4bhmp2rcd13ifvqgog","pricing_plan_id":"cebpf4jnsgd1na2vs0mg"},{"bike_id":"b1529460-35c1-49c7-a059-1efcb986b42d","system_id":"levelo_inurba_marseille","lat":43.28752,"lon":5.38412,"is_reserved":false,"is_disabled":false,"rental_uris":{"android":"levelo://app?vid=b1529460-35c1-49c7-a059-1efcb986b42d","ios":"levelo://app?vid=b1529460-35c1-49c7-a059-1efcb986b42d"},"vehicle_type_id":"4","last_reported":1761908950,"current_range_meters":17600,"station_id":"","pricing_plan_id":"cebpf4jnsgd1na2vs0mg"},{"bike_id":"81ddfa84-8a38-4992-b757-66a5e1097b2f","system_id":"levelo_inurba_marseille","lat":43.29896,"lon":5.43653,"is_reserved":false,"is_disabled":false,"rental_uris":{"android":"levelo://app?vid=81ddfa84-8a38-4992-b757-66a5e1097b2f","ios":"levelo://app?vid=81ddfa84-8a38-4992-b757-66a5e1097b2f"},"vehicle_type_id":"4","last_reported":1761908950,"current_range_meters":17600,"station_id":"ce4bhpp2rcd13ifvqhfg","pricing_plan_id":"cebpf4jnsgd1na2vs0mg"},{"bike_id":"020bbd33-7d34-4d64-97f1-d3e4e4cb8292","system_id":"levelo_inurba_marseille","lat":43.30534,"lon":5.36539,"is_reserved":false,"is_disabled":false,"rental_uris":{"android":"levelo://app?vid=020bbd33-7d34-4d64-97f1-d3e4e4cb8292","ios":"levelo://app?vid=020bbd33-7d34-4d64-97f1-d3e4e4cb8292"},"vehicle_type_id":"4","last_reported":1761908950,"current_range_meters":17600,"station_id":"ce4bgs12rcd13ifvqcag","pricing_plan_id":"cebpf4jnsgd1na2vs0mg"},{"bike_id":"a0fbeb00-c29e-42c3-8914-dc6c4bbbfd9f","system_id":"levelo_inurba_marseille","lat":43.29842,"lon":5.3627,"is_reserved":false,"is_disabled":false,"rental_uris":{"android":"levelo://app?vid=a0fbeb00-c29e-42c3-8914-dc6c4bbbfd9f","ios":"levelo://app?vid=a0fbeb00-c29e-42c3-8914-dc6c4bbbfd9f"},"vehicle_type_id":"4","last_reported":1761908950,"current_range_meters":17600,"station_id":"ce4bgpp2rcd13ifvqc3g","pricing_plan_id":"cebpf4jnsgd1na2vs0mg"},{"bike_id":"87558ca7-6f0b-4ff5-911d-aff7009354eb","system_id":"levelo_inurba_marseille","lat":43.29025,"lon":5.35917,"is_reserved":false,"is_disabled":false,"rental_uris":{"android":"levelo://app?vid=87558ca7-6f0b-4ff5-911d-aff7009354eb","ios":"levelo://app?vid=87558ca7-6f0b-4ff5-911d-aff7009354eb"},"vehicle_type_id":"4","last_reported":1761908950,"current_range_meters":18000,"station_id":"ce4bha92rcd13ifvqeg0","pricing_plan_id":"cebpf4jnsgd1na2vs0mg"},{"bike_id":"dcfa80d8-3a0e-4479-9088-3f3146f2c2ac","system_id":"levelo_inurba_marseille","lat":43.29776,"lon":5.37605,"is_reserved":false,"is_disabled":false,"rental_uris":{"android":"levelo://app?vid=dcfa80d8-3a0e-4479-9088-3f3146f2c2ac","ios":"levelo://app?vid=dcfa80d8-3a0e-4479-9088-3f3146f2c2ac"},"vehicle_type_id":"4","last_reported":1761908950,"current_range_meters":18000,"station_id":"ce4bgkh2rcd13ifvqbl0","pricing_plan_id":"cebpf4jnsgd1na2vs0mg"},{"bike_id":"f3be1fcb-f594-4572-b199-284acc9ab2d1","system_id":"levelo_inurba_marseille","lat":43.22554,"lon":5.41623,"is_reserved":false,"is_disabled":false,"rental_uris":{"android":"levelo://app?vid=f3be1fcb-f594-4572-b199-284acc9ab2d1","ios":"levelo://app?vid=f3be1fcb-f594-4572-b199-284acc9ab2d1"},"vehicle_type_id":"4","last_reported":1761908950,"current_range_meters":18000,"station_id":"st_d2o4gvlbi1j2169b742g","pricing_plan_id":"cebpf4jnsgd1na2vs0mg"},{"bike_id":"0bbcd17e-cf65-4c6a-8f91-555c58a4f379","system_id":"levelo_inurba_marseille","lat":43.26219,"lon":5.40446,"is_reserved":false,"is_disabled":false,"rental_uris":{"android":"levelo://app?vid=0bbcd17e-cf65-4c6a-8f91-555c58a4f379","ios":"levelo://app?vid=0bbcd17e-cf65-4c6a-8f91-555c58a4f379"},"vehicle_type_id":"4","last_reported":1761908950,"current_range_meters":18000,"station_id":"ce4bhmh2rcd13ifvqgmg","pricing_plan_id":"cebpf4jnsgd1na2vs0mg"},{"bike_id":"5b725a3d-72a4-4b9d-935a-657520f375e0","system_id":"levelo_inurba_marseille","lat":43.2781,"lon":5.40705,"is_reserved":false,"is_disabled":false,"rental_uris":{"android":"levelo://app?vid=5b725a3d-72a4-4b9d-935a-657520f375e0","ios":"levelo://app?vid=5b725a3d-72a4-4b9d-935a-657520f375e0"},"vehicle_type_id":"4","last_reported":1761908950,"current_range_meters":18000,"station_id":"ce4bhnh2rcd13ifvqgtg","pricing_plan_id":"cebpf4jnsgd1na2vs0mg"},{"bike_id":"5329277d-b696-4f32-9412-95d13ccb7cbb","system_id":"levelo_inurba_marseille","lat":43.29823,"lon":5.44037,"is_reserved":false,"is_disabled":false,"rental_uris":{"android":"levelo://app?vid=5329277d-b696-4f32-9412-95d13ccb7cbb","ios":"levelo://app?vid=5329277d-b696-4f32-9412-95d13ccb7cbb"},"vehicle_type_id":"4","last_reported":1761908950,"current_range_meters":18000,"station_id":"st_d3jp68qikq2c7381ktn0","pricing_plan_id":"cebpf4jnsgd1na2vs0mg"},{"bike_id":"1f7dcafe-4659-46ce-af71-a935c75b160c","system_id":"levelo_inurba_marseille","lat":43.29925,"lon":5.36537,"is_reserved":false,"is_disabled":false,"rental_uris":{"android":"levelo://app?vid=1f7dcafe-4659-46ce-af71-a935c75b160c","ios":"levelo://app?vid=1f7dcafe-4659-46ce-af71-a935c75b160c"},"vehicle_type_id":"4","last_reported":1761908950,"current_range_meters":18000,"station_id":"ce4bgm92rcd13ifvqbr0","pricing_plan_id":"cebpf4jnsgd1na2vs0mg"},{"bike_id":"0a1446c3-6a2a-4366-a042-4158b1a68eb8","system_id":"levelo_inurba_marseille","lat":43.30325,"lon":5.40434,"is_reserved":false,"is_disabled":false,"rental_uris":{"android":"levelo://app?vid=0a1446c3-6a2a-4366-a042-4158b1a68eb8","ios":"levelo://app?vid=0a1446c3-6a2a-4366-a042-4158b1a68eb8"},"vehicle_type_id":"4","last_reported":1761908950,"current_range_meters":18000,"station_id":"ce4bh012rcd13ifvqd10","pricing_plan_id":"cebpf4jnsgd1na2vs0mg"},{"bike_id":"3e00c48f-4812-4e37-a972-5022b440bb99","system_id":"levelo_inurba_marseille","lat":43.30797,"lon":5.38154,"is_reserved":false,"is_disabled":false,"rental_uris":{"android":"levelo://app?vid=3e00c48f-4812-4e37-a972-5022b440bb99","ios":"levelo://app?vid=3e00c48f-4812-4e37-a972-5022b440bb99"},"vehicle_type_id":"4","last_reported":1761908950,"current_range_meters":18800,"station_id":"ce4bgt12rcd13ifvqce0","pricing_plan_id":"cebpf4jnsgd1na2vs0mg"},{"bike_id":"e04f332d-b41c-47fd-b12f-6fdc7d63f429","system_id":"levelo_inurba_marseille","lat":43.30842,"lon":5.38291,"is_reserved":false,"is_disabled":false,"rental_uris":{"android":"levelo://app?vid=e04f332d-b41c-47fd-b12f-6fdc7d63f429","ios":"levelo://app?vid=e04f332d-b41c-47fd-b12f-6fdc7d63f429"},"vehicle_type_id":"4","last_reported":1761908950,"current_range_meters":18800,"station_id":"","pricing_plan_id":"cebpf4jnsgd1na2vs0mg"},{"bike_id":"f45972e9-fcd4-4530-be29-10f95eb977d2","system_id":"levelo_inurba_marseille","lat":43.296313,"lon":5.37703,"is_reserved":false,"is_disabled":true,"rental_uris":{"android":"levelo://app?vid=f45972e9-fcd4-4530-be29-10f95eb977d2","ios":"levelo://app?vid=f45972e9-fcd4-4530-be29-10f95eb977d2"},"vehicle_type_id":"4","last_reported":1761908950,"current_range_meters":18800,"station_id":"ce4bh492rcd13ifvqdug","pricing_plan_id":"cebpf4jnsgd1na2vs0mg"},{"bike_id":"d21e693d-1ef2-4d48-b2eb-22f04ef511d2","system_id":"levelo_inurba_marseille","lat":43.30923,"lon":5.40143,"is_reserved":false,"is_disabled":false,"rental_uris":{"android":"levelo://app?vid=d21e693d-1ef2-4d48-b2eb-22f04ef511d2","ios":"levelo://app?vid=d21e693d-1ef2-4d48-b2eb-22f04ef511d2"},"vehicle_type_id":"4","last_reported":1761908950,"current_range_meters":18800,"station_id":"ce4bgvp2rcd13ifvqct0","pricing_plan_id":"cebpf4jnsgd1na2vs0mg"},{"bike_id":"4dd2764c-703c-4510-9f82-5734e2936bba","system_id":"levelo_inurba_marseille","lat":43.3043,"lon":5.38875,"is_reserved":false,"is_disabled":false,"rental_uris":{"android":"levelo://app?vid=4dd2764c-703c-4510-9f82-5734e2936bba","ios":"levelo://app?vid=4dd2764c-703c-4510-9f82-5734e2936bba"},"vehicle_type_id":"4","last_reported":1761908950,"current_range_meters":18800,"station_id":"ce4bgk12rcd13ifvqbi0","pricing_plan_id":"cebpf4jnsgd1na2vs0mg"},{"bike_id":"13e49cfc-e048-46bb-ac27-a2c767fe2036","system_id":"levelo_inurba_marseille","lat":43.30249,"lon":5.4007,"is_reserved":false,"is_disabled":false,"rental_uris":{"android":"levelo://app?vid=13e49cfc-e048-46bb-ac27-a2c767fe2036","ios":"levelo://app?vid=13e49cfc-e048-46bb-ac27-a2c767fe2036"},"vehicle_type_id":"4","last_reported":1761908950,"current_range_meters":18800,"station_id":"ce4bgvh2rcd13ifvqcs0","pricing_plan_id":"cebpf4jnsgd1na2vs0mg"},{"bike_id":"4476fb93-b41b-429c-b66e-779ffc5aabd1","system_id":"levelo_inurba_marseille","lat":43.253405,"lon":5.42173,"is_reserved":false,"is_disabled":false,"rental_uris":{"android":"levelo://app?vid=4476fb93-b41b-429c-b66e-779ffc5aabd1","ios":"levelo://app?vid=4476fb93-b41b-429c-b66e-779ffc5aabd1"},"vehicle_type_id":"4","last_reported":1761908950,"current_range_meters":19200,"station_id":"st_d2m65c5bi1j21697t3ng","pricing_plan_id":"cebpf4jnsgd1na2vs0mg"},{"bike_id":"c04ea6ec-c85d-4b9a-aa74-f0de2415a6d2","system_id":"levelo_inurba_marseille","lat":43.315483,"lon":5.382395,"is_reserved":false,"is_disabled":false,"rental_uris":{"android":"levelo://app?vid=c04ea6ec-c85d-4b9a-aa74-f0de2415a6d2","ios":"levelo://app?vid=c04ea6ec-c85d-4b9a-aa74-f0de2415a6d2"},"vehicle_type_id":"4","last_reported":1761908950,"current_range_meters":19200,"station_id":"","pricing_plan_id":"cebpf4jnsgd1na2vs0mg"},{"bike_id":"fbcc5886-69e3-488f-96fd-e45314a075e6","system_id":"levelo_inurba_marseille","lat":43.28852,"lon":5.425,"is_reserved":false,"is_disabled":false,"rental_uris":{"android":"levelo://app?vid=fbcc5886-69e3-488f-96fd-e45314a075e6","ios":"levelo://app?vid=fbcc5886-69e3-488f-96fd-e45314a075e6"},"vehicle_type_id":"4","last_reported":1761908950,"current_range_meters":19200,"station_id":"st_d3b462108ojc7389ooeg","pricing_plan_id":"cebpf4jnsgd1na2vs0mg"},{"bike_id":"040540ef-5358-418b-b2a2-f20dafe051cb","system_id":"levelo_inurba_marseille","lat":43.24805,"lon":5.37455,"is_reserved":false,"is_disabled":false,"rental_uris":{"android":"levelo://app?vid=040540ef-5358-418b-b2a2-f20dafe051cb","ios":"levelo://app?vid=040540ef-5358-418b-b2a2-f20dafe051cb"},"vehicle_type_id":"4","last_reported":1761908950,"current_range_meters":19200,"station_id":"ce4bhgh2rcd13ifvqfb0","pricing_plan_id":"cebpf4jnsgd1na2vs0mg"},{"bike_id":"4637449d-daaf-4e87-b7f5-54ac3f0d3bc0","system_id":"levelo_inurba_marseille","lat":43.24195,"lon":5.39707,"is_reserved":false,"is_disabled":false,"rental_uris":{"android":"levelo://app?vid=4637449d-daaf-4e87-b7f5-54ac3f0d3bc0","ios":"levelo://app?vid=4637449d-daaf-4e87-b7f5-54ac3f0d3bc0"},"vehicle_type_id":"4","last_reported":1761908950,"current_range_meters":19200,"station_id":"ce4bhn12rcd13ifvqgpg","pricing_plan_id":"cebpf4jnsgd1na2vs0mg"},{"bike_id":"5228f74b-a580-49fc-a703-94df1abde25d","system_id":"levelo_inurba_marseille","lat":43.30317,"lon":5.36894,"is_reserved":false,"is_disabled":false,"rental_uris":{"android":"levelo://app?vid=5228f74b-a580-49fc-a703-94df1abde25d","ios":"levelo://app?vid=5228f74b-a580-49fc-a703-94df1abde25d"},"vehicle_type_id":"4","last_reported":1761908950,"current_range_meters":19600,"station_id":"ce4bgqh2rcd13ifvqc5g","pricing_plan_id":"cebpf4jnsgd1na2vs0mg"},{"bike_id":"ff50002c-4520-4545-a663-079038ba1614","system_id":"levelo_inurba_marseille","lat":43.30587,"lon":5.372232,"is_reserved":false,"is_disabled":false,"rental_uris":{"android":"levelo://app?vid=ff50002c-4520-4545-a663-079038ba1614","ios":"levelo://app?vid=ff50002c-4520-4545-a663-079038ba1614"},"vehicle_type_id":"4","last_reported":1761908950,"current_range_meters":19600,"station_id":"ce4bgqh2rcd13ifvqc4g","pricing_plan_id":"cebpf4jnsgd1na2vs0mg"},{"bike_id":"0179aad9-8cf1-4065-b886-e1fdc3f62a49","system_id":"levelo_inurba_marseille","lat":43.2493,"lon":5.40478,"is_reserved":false,"is_disabled":false,"rental_uris":{"android":"levelo://app?vid=0179aad9-8cf1-4065-b886-e1fdc3f62a49","ios":"levelo://app?vid=0179aad9-8cf1-4065-b886-e1fdc3f62a49"},"vehicle_type_id":"4","last_reported":1761908950,"current_range_meters":19600,"station_id":"st_d2ngiaodas8pm72gd1h0","pricing_plan_id":"cebpf4jnsgd1na2vs0mg"},{"bike_id":"5cf62f85-3885-4872-966c-12b913dbcfff","system_id":"levelo_inurba_marseille","lat":43.29716,"lon":5.37696,"is_reserved":false,"is_disabled":false,"rental_uris":{"android":"levelo://app?vid=5cf62f85-3885-4872-966c-12b913dbcfff","ios":"levelo://app?vid=5cf62f85-3885-4872-966c-12b913dbcfff"},"vehicle_type_id":"4","last_reported":1761908950,"current_range_meters":19600,"station_id":"ce4bgkh2rcd13ifvqbl0","pricing_plan_id":"cebpf4jnsgd1na2vs0mg"},{"bike_id":"3965660d-d019-448d-9ea6-ad76591ec156","system_id":"levelo_inurba_marseille","lat":43.32134,"lon":5.36819,"is_reserved":false,"is_disabled":false,"rental_uris":{"android":"levelo://app?vid=3965660d-d019-448d-9ea6-ad76591ec156","ios":"levelo://app?vid=3965660d-d019-448d-9ea6-ad76591ec156"},"vehicle_type_id":"4","last_reported":1761908950,"current_range_meters":19600,"station_id":"ce4bhrh2rcd13ifvqhug","pricing_plan_id":"cebpf4jnsgd1na2vs0mg"},{"bike_id":"2819da96-e74b-4499-817d-c62867e34f4e","system_id":"levelo_inurba_marseille","lat":43.2985,"lon":5.36263,"is_reserved":false,"is_disabled":false,"rental_uris":{"android":"levelo://app?vid=2819da96-e74b-4499-817d-c62867e34f4e","ios":"levelo://app?vid=2819da96-e74b-4499-817d-c62867e34f4e"},"vehicle_type_id":"4","last_reported":1761908950,"current_range_meters":20000,"station_id":"ce4bgpp2rcd13ifvqc3g","pricing_plan_id":"cebpf4jnsgd1na2vs0mg"},{"bike_id":"3b592273-5838-4e8d-a1ac-57b93f81c09c","system_id":"levelo_inurba_marseille","lat":43.31067,"lon":5.38342,"is_reserved":false,"is_disabled":false,"rental_uris":{"android":"levelo://app?vid=3b592273-5838-4e8d-a1ac-57b93f81c09c","ios":"levelo://app?vid=3b592273-5838-4e8d-a1ac-57b93f81c09c"},"vehicle_type_id":"4","last_reported":1761908950,"current_range_meters":20400,"station_id":"ce4bgv92rcd13ifvqcr0","pricing_plan_id":"cebpf4jnsgd1na2vs0mg"},{"bike_id":"18b75b61-486d-4277-aba8-e8052fc4de61","system_id":"levelo_inurba_marseille","lat":43.28937,"lon":5.36402,"is_reserved":false,"is_disabled":false,"rental_uris":{"android":"levelo://app?vid=18b75b61-486d-4277-aba8-e8052fc4de61","ios":"levelo://app?vid=18b75b61-486d-4277-aba8-e8052fc4de61"},"vehicle_type_id":"4","last_reported":1761908950,"current_range_meters":20400,"station_id":"ce4bhc92rcd13ifvqetg","pricing_plan_id":"cebpf4jnsgd1na2vs0mg"},{"bike_id":"9cb78567-0cb0-4257-b374-dc5489c5feba","system_id":"levelo_inurba_marseille","lat":43.30251,"lon":5.40045,"is_reserved":false,"is_disabled":false,"rental_uris":{"android":"levelo://app?vid=9cb78567-0cb0-4257-b374-dc5489c5feba","ios":"levelo://app?vid=9cb78567-0cb0-4257-b374-dc5489c5feba"},"vehicle_type_id":"4","last_reported":1761908950,"current_range_meters":20400,"station_id":"ce4bgvh2rcd13ifvqcs0","pricing_plan_id":"cebpf4jnsgd1na2vs0mg"},{"bike_id":"891e42e4-b4ea-4410-8850-168bbe203b65","system_id":"levelo_inurba_marseille","lat":43.29373,"lon":5.37845,"is_reserved":false,"is_disabled":false,"rental_uris":{"android":"levelo://app?vid=891e42e4-b4ea-4410-8850-168bbe203b65","ios":"levelo://app?vid=891e42e4-b4ea-4410-8850-168bbe203b65"},"vehicle_type_id":"4","last_reported":1761908950,"current_range_meters":20400,"station_id":"ce4bgjh2rcd13ifvqbf0","pricing_plan_id":"cebpf4jnsgd1na2vs0mg"},{"bike_id":"1df5acf8-2868-442d-ac6b-a716815719c4","system_id":"levelo_inurba_marseille","lat":43.24172,"lon":5.39733,"is_reserved":false,"is_disabled":false,"rental_uris":{"android":"levelo://app?vid=1df5acf8-2868-442d-ac6b-a716815719c4","ios":"levelo://app?vid=1df5acf8-2868-442d-ac6b-a716815719c4"},"vehicle_type_id":"4","last_reported":1761908950,"current_range_meters":20800,"station_id":"ce4bhn12rcd13ifvqgpg","pricing_plan_id":"cebpf4jnsgd1na2vs0mg"},{"bike_id":"32632625-b281-4348-990f-071d78c42b84","system_id":"levelo_inurba_marseille","lat":43.26569,"lon":5.39014,"is_reserved":false,"is_disabled":false,"rental_uris":{"android":"levelo://app?vid=32632625-b281-4348-990f-071d78c42b84","ios":"levelo://app?vid=32632625-b281-4348-990f-071d78c42b84"},"vehicle_type_id":"4","last_reported":1761908950,"current_range_meters":20800,"station_id":"","pricing_plan_id":"cebpf4jnsgd1na2vs0mg"},{"bike_id":"3150b169-6d8b-4786-81cd-4b890da98702","system_id":"levelo_inurba_marseille","lat":43.23787,"lon":5.36597,"is_reserved":false,"is_disabled":false,"rental_uris":{"android":"levelo://app?vid=3150b169-6d8b-4786-81cd-4b890da98702","ios":"levelo://app?vid=3150b169-6d8b-4786-81cd-4b890da98702"},"vehicle_type_id":"4","last_reported":1761908950,"current_range_meters":20800,"station_id":"st_d3nk18o9ro0c73en2l3g","pricing_plan_id":"cebpf4jnsgd1na2vs0mg"},{"bike_id":"a5f9d115-2eb0-463d-bf65-9070eaddf3fb","system_id":"levelo_inurba_marseille","lat":43.2396,"lon":5.36626,"is_reserved":false,"is_disabled":false,"rental_uris":{"android":"levelo://app?vid=a5f9d115-2eb0-463d-bf65-9070eaddf3fb","ios":"levelo://app?vid=a5f9d115-2eb0-463d-bf65-9070eaddf3fb"},"vehicle_type_id":"4","last_reported":1761908950,"current_range_meters":20800,"station_id":"ce4bhi12rcd13ifvqfp0","pricing_plan_id":"cebpf4jnsgd1na2vs0mg"},{"bike_id":"41598790-345d-414f-9e87-720cb432f278","system_id":"levelo_inurba_marseille","lat":43.29477,"lon":5.36227,"is_reserved":false,"is_disabled":false,"rental_uris":{"android":"levelo://app?vid=41598790-345d-414f-9e87-720cb432f278","ios":"levelo://app?vid=41598790-345d-414f-9e87-720cb432f278"},"vehicle_type_id":"4","last_reported":1761908950,"current_range_meters":20800,"station_id":"","pricing_plan_id":"cebpf4jnsgd1na2vs0mg"},{"bike_id":"9f4dc427-2c29-4e41-82a8-c6cc9e0f5f4d","system_id":"levelo_inurba_marseille","lat":43.25959,"lon":5.40925,"is_reserved":false,"is_disabled":false,"rental_uris":{"android":"levelo://app?vid=9f4dc427-2c29-4e41-82a8-c6cc9e0f5f4d","ios":"levelo://app?vid=9f4dc427-2c29-4e41-82a8-c6cc9e0f5f4d"},"vehicle_type_id":"4","last_reported":1761908950,"current_range_meters":20800,"station_id":"ce4bhm92rcd13ifvqglg","pricing_plan_id":"cebpf4jnsgd1na2vs0mg"},{"bike_id":"28aa1f4a-e5ba-46af-be1c-d9836d8fe705","system_id":"levelo_inurba_marseille","lat":43.309143,"lon":5.368469,"is_reserved":false,"is_disabled":false,"rental_uris":{"android":"levelo://app?vid=28aa1f4a-e5ba-46af-be1c-d9836d8fe705","ios":"levelo://app?vid=28aa1f4a-e5ba-46af-be1c-d9836d8fe705"},"vehicle_type_id":"4","last_reported":1761908950,"current_range_meters":20800,"station_id":"ce4bgn92rcd13ifvqbvg","pricing_plan_id":"cebpf4jnsgd1na2vs0mg"},{"bike_id":"50c2c89c-4a9b-41f6-af05-b4e430e07029","system_id":"levelo_inurba_marseille","lat":43.246277,"lon":5.431462,"is_reserved":false,"is_disabled":false,"rental_uris":{"android":"levelo://app?vid=50c2c89c-4a9b-41f6-af05-b4e430e07029","ios":"levelo://app?vid=50c2c89c-4a9b-41f6-af05-b4e430e07029"},"vehicle_type_id":"4","last_reported":1761908950,"current_range_meters":20800,"station_id":"st_d2m6c4gdas8pm72e190g","pricing_plan_id":"cebpf4jnsgd1na2vs0mg"},{"bike_id":"cc0d6697-bf7c-4001-828f-c5cf42c80c59","system_id":"levelo_inurba_marseille","lat":43.2119,"lon":5.35063,"is_reserved":false,"is_disabled":false,"rental_uris":{"android":"levelo://app?vid=cc0d6697-bf7c-4001-828f-c5cf42c80c59","ios":"levelo://app?vid=cc0d6697-bf7c-4001-828f-c5cf42c80c59"},"vehicle_type_id":"4","last_reported":1761908950,"current_range_meters":20800,"station_id":"","pricing_plan_id":"cebpf4jnsgd1na2vs0mg"},{"bike_id":"fef134ba-455c-46b8-aa44-4d2ed8fb36fd","system_id":"levelo_inurba_marseille","lat":43.337592,"lon":5.374528,"is_reserved":false,"is_disabled":false,"rental_uris":{"android":"levelo://app?vid=fef134ba-455c-46b8-aa44-4d2ed8fb36fd","ios":"levelo://app?vid=fef134ba-455c-46b8-aa44-4d2ed8fb36fd"},"vehicle_type_id":"4","last_reported":1761908950,"current_range_meters":20800,"station_id":"","pricing_plan_id":"cebpf4jnsgd1na2vs0mg"},{"bike_id":"ec6886bc-b88a-4e3a-92df-2fc40a0089d0","system_id":"levelo_inurba_marseille","lat":43.2407,"lon":5.37748,"is_reserved":false,"is_disabled":false,"rental_uris":{"android":"levelo://app?vid=ec6886bc-b88a-4e3a-92df-2fc40a0089d0","ios":"levelo://app?vid=ec6886bc-b88a-4e3a-92df-2fc40a0089d0"},"vehicle_type_id":"4","last_reported":1761908950,"current_range_meters":21600,"station_id":"ce4bhnp2rcd13ifvqgvg","pricing_plan_id":"cebpf4jnsgd1na2vs0mg"},{"bike_id":"98d35a2c-6fc3-4028-8d21-97d565f362c3","system_id":"levelo_inurba_marseille","lat":43.240763,"lon":5.3776,"is_reserved":false,"is_disabled":false,"rental_uris":{"android":"levelo://app?vid=98d35a2c-6fc3-4028-8d21-97d565f362c3","ios":"levelo://app?vid=98d35a2c-6fc3-4028-8d21-97d565f362c3"},"vehicle_type_id":"4","last_reported":1761908950,"current_range_meters":21600,"station_id":"ce4bhnp2rcd13ifvqgvg","pricing_plan_id":"cebpf4jnsgd1na2vs0mg"},{"bike_id":"94084d75-b1ec-4cf5-8736-b1d0c7eed7ce","system_id":"levelo_inurba_marseille","lat":43.330252,"lon":5.390397,"is_reserved":false,"is_disabled":false,"rental_uris":{"android":"levelo://app?vid=94084d75-b1ec-4cf5-8736-b1d0c7eed7ce","ios":"levelo://app?vid=94084d75-b1ec-4cf5-8736-b1d0c7eed7ce"},"vehicle_type_id":"4","last_reported":1761908950,"current_range_meters":21600,"station_id":"ce4bhr92rcd13ifvqhrg","pricing_plan_id":"cebpf4jnsgd1na2vs0mg"},{"bike_id":"06fc4c44-20ba-493c-8944-d78c73d93c94","system_id":"levelo_inurba_marseille","lat":43.31195,"lon":5.39349,"is_reserved":false,"is_disabled":false,"rental_uris":{"android":"levelo://app?vid=06fc4c44-20ba-493c-8944-d78c73d93c94","ios":"levelo://app?vid=06fc4c44-20ba-493c-8944-d78c73d93c94"},"vehicle_type_id":"4","last_reported":1761908950,"current_range_meters":21600,"station_id":"","pricing_plan_id":"cebpf4jnsgd1na2vs0mg"},{"bike_id":"3ffbae57-8ecd-4e3d-96ad-932247e3fe54","system_id":"levelo_inurba_marseille","lat":43.318987,"lon":5.372967,"is_reserved":false,"is_disabled":false,"rental_uris":{"android":"levelo://app?vid=3ffbae57-8ecd-4e3d-96ad-932247e3fe54","ios":"levelo://app?vid=3ffbae57-8ecd-4e3d-96ad-932247e3fe54"},"vehicle_type_id":"4","last_reported":1761908950,"current_range_meters":21600,"station_id":"","pricing_plan_id":"cebpf4jnsgd1na2vs0mg"},{"bike_id":"30fe1658-7a14-463b-a80e-7a1b304d6740","system_id":"levelo_inurba_marseille","lat":43.21191,"lon":5.35069,"is_reserved":false,"is_disabled":false,"rental_uris":{"android":"levelo://app?vid=30fe1658-7a14-463b-a80e-7a1b304d6740","ios":"levelo://app?vid=30fe1658-7a14-463b-a80e-7a1b304d6740"},"vehicle_type_id":"4","last_reported":1761908950,"current_range_meters":21600,"station_id":"st_cvj6sg6p6f1abm77japg","pricing_plan_id":"cebpf4jnsgd1na2vs0mg"},{"bike_id":"7c19b7e9-393b-4fa2-b057-4dd7dff08f6d","system_id":"levelo_inurba_marseille","lat":43.211975,"lon":5.35068,"is_reserved":false,"is_disabled":false,"rental_uris":{"android":"levelo://app?vid=7c19b7e9-393b-4fa2-b057-4dd7dff08f6d","ios":"levelo://app?vid=7c19b7e9-393b-4fa2-b057-4dd7dff08f6d"},"vehicle_type_id":"4","last_reported":1761908950,"current_range_meters":21600,"station_id":"st_cvj6sg6p6f1abm77japg","pricing_plan_id":"cebpf4jnsgd1na2vs0mg"},{"bike_id":"a73a24c3-2218-4652-a302-2ad81b7034ad","system_id":"levelo_inurba_marseille","lat":43.318145,"lon":5.38761,"is_reserved":false,"is_disabled":false,"rental_uris":{"android":"levelo://app?vid=a73a24c3-2218-4652-a302-2ad81b7034ad","ios":"levelo://app?vid=a73a24c3-2218-4652-a302-2ad81b7034ad"},"vehicle_type_id":"4","last_reported":1761908950,"current_range_meters":21600,"station_id":"","pricing_plan_id":"cebpf4jnsgd1na2vs0mg"},{"bike_id":"35807d28-6475-487c-a519-c5109c603294","system_id":"levelo_inurba_marseille","lat":43.30535,"lon":5.36538,"is_reserved":false,"is_disabled":false,"rental_uris":{"android":"levelo://app?vid=35807d28-6475-487c-a519-c5109c603294","ios":"levelo://app?vid=35807d28-6475-487c-a519-c5109c603294"},"vehicle_type_id":"4","last_reported":1761908950,"current_range_meters":21600,"station_id":"ce4bgs12rcd13ifvqcag","pricing_plan_id":"cebpf4jnsgd1na2vs0mg"},{"bike_id":"f742a6c4-d65c-4ddd-8bd5-7bb2ba3deaae","system_id":"levelo_inurba_marseille","lat":43.24631,"lon":5.43141,"is_reserved":false,"is_disabled":false,"rental_uris":{"android":"levelo://app?vid=f742a6c4-d65c-4ddd-8bd5-7bb2ba3deaae","ios":"levelo://app?vid=f742a6c4-d65c-4ddd-8bd5-7bb2ba3deaae"},"vehicle_type_id":"4","last_reported":1761908950,"current_range_meters":21600,"station_id":"st_d2m6c4gdas8pm72e190g","pricing_plan_id":"cebpf4jnsgd1na2vs0mg"},{"bike_id":"42ee845a-4e54-4f5b-8729-bb3ec7276302","system_id":"levelo_inurba_marseille","lat":43.29444,"lon":5.40129,"is_reserved":false,"is_disabled":false,"rental_uris":{"android":"levelo://app?vid=42ee845a-4e54-4f5b-8729-bb3ec7276302","ios":"levelo://app?vid=42ee845a-4e54-4f5b-8729-bb3ec7276302"},"vehicle_type_id":"4","last_reported":1761908950,"current_range_meters":22000,"station_id":"","pricing_plan_id":"cebpf4jnsgd1na2vs0mg"},{"bike_id":"926593f6-579b-4bc9-b774-62aba5138a9f","system_id":"levelo_inurba_marseille","lat":43.3137,"lon":5.38489,"is_reserved":false,"is_disabled":false,"rental_uris":{"android":"levelo://app?vid=926593f6-579b-4bc9-b774-62aba5138a9f","ios":"levelo://app?vid=926593f6-579b-4bc9-b774-62aba5138a9f"},"vehicle_type_id":"4","last_reported":1761908950,"current_range_meters":22000,"station_id":"ce4bgt92rcd13ifvqcf0","pricing_plan_id":"cebpf4jnsgd1na2vs0mg"},{"bike_id":"c311dcd7-8990-4d0c-b893-da6fc911ae2a","system_id":"levelo_inurba_marseille","lat":43.23204,"lon":5.40008,"is_reserved":false,"is_disabled":false,"rental_uris":{"android":"levelo://app?vid=c311dcd7-8990-4d0c-b893-da6fc911ae2a","ios":"levelo://app?vid=c311dcd7-8990-4d0c-b893-da6fc911ae2a"},"vehicle_type_id":"4","last_reported":1761908950,"current_range_meters":22000,"station_id":"ce4bhn12rcd13ifvqgqg","pricing_plan_id":"cebpf4jnsgd1na2vs0mg"},{"bike_id":"624f1368-0f59-4135-8688-6c3ae15f61a6","system_id":"levelo_inurba_marseille","lat":43.3019,"lon":5.3662,"is_reserved":false,"is_disabled":false,"rental_uris":{"android":"levelo://app?vid=624f1368-0f59-4135-8688-6c3ae15f61a6","ios":"levelo://app?vid=624f1368-0f59-4135-8688-6c3ae15f61a6"},"vehicle_type_id":"4","last_reported":1761908950,"current_range_meters":22000,"station_id":"ce4bgrh2rcd13ifvqc8g","pricing_plan_id":"cebpf4jnsgd1na2vs0mg"},{"bike_id":"aca8a8af-ca4b-46df-86a1-ec41d5844162","system_id":"levelo_inurba_marseille","lat":43.24163,"lon":5.36411,"is_reserved":false,"is_disabled":false,"rental_uris":{"android":"levelo://app?vid=aca8a8af-ca4b-46df-86a1-ec41d5844162","ios":"levelo://app?vid=aca8a8af-ca4b-46df-86a1-ec41d5844162"},"vehicle_type_id":"4","last_reported":1761908950,"current_range_meters":22000,"station_id":"cpo36qri1sfpv3e86is0","pricing_plan_id":"cebpf4jnsgd1na2vs0mg"},{"bike_id":"66e0b750-502d-4a92-8af5-8b23bed7625b","system_id":"levelo_inurba_marseille","lat":43.29539,"lon":5.38524,"is_reserved":false,"is_disabled":false,"rental_uris":{"android":"levelo://app?vid=66e0b750-502d-4a92-8af5-8b23bed7625b","ios":"levelo://app?vid=66e0b750-502d-4a92-8af5-8b23bed7625b"},"vehicle_type_id":"4","last_reported":1761908950,"current_range_meters":22000,"station_id":"ce4bgih2rcd13ifvqba0","pricing_plan_id":"cebpf4jnsgd1na2vs0mg"},{"bike_id":"1be5927c-f59d-4eb8-a9e2-61699c384a77","system_id":"levelo_inurba_marseille","lat":43.28005,"lon":5.40005,"is_reserved":false,"is_disabled":false,"rental_uris":{"android":"levelo://app?vid=1be5927c-f59d-4eb8-a9e2-61699c384a77","ios":"levelo://app?vid=1be5927c-f59d-4eb8-a9e2-61699c384a77"},"vehicle_type_id":"4","last_reported":1761908950,"current_range_meters":22000,"station_id":"ce4bho92rcd13ifvqh4g","pricing_plan_id":"cebpf4jnsgd1na2vs0mg"},{"bike_id":"f4c38a56-4a35-49a9-bdea-5d14ae1ba768","system_id":"levelo_inurba_marseille","lat":43.29757,"lon":5.4278,"is_reserved":false,"is_disabled":false,"rental_uris":{"android":"levelo://app?vid=f4c38a56-4a35-49a9-bdea-5d14ae1ba768","ios":"levelo://app?vid=f4c38a56-4a35-49a9-bdea-5d14ae1ba768"},"vehicle_type_id":"4","last_reported":1761908950,"current_range_meters":22400,"station_id":"st_d3md5207bmas73dh9klg","pricing_plan_id":"cebpf4jnsgd1na2vs0mg"},{"bike_id":"7776d34e-6db1-4a95-b64a-dfa1faf6c280","system_id":"levelo_inurba_marseille","lat":43.30193,"lon":5.36981,"is_reserved":false,"is_disabled":false,"rental_uris":{"android":"levelo://app?vid=7776d34e-6db1-4a95-b64a-dfa1faf6c280","ios":"levelo://app?vid=7776d34e-6db1-4a95-b64a-dfa1faf6c280"},"vehicle_type_id":"4","last_reported":1761908950,"current_range_meters":22400,"station_id":"","pricing_plan_id":"cebpf4jnsgd1na2vs0mg"},{"bike_id":"2f49b0d6-abb8-411f-969a-a9c6e1696b5f","system_id":"levelo_inurba_marseille","lat":43.3015,"lon":5.3811,"is_reserved":false,"is_disabled":false,"rental_uris":{"android":"levelo://app?vid=2f49b0d6-abb8-411f-969a-a9c6e1696b5f","ios":"levelo://app?vid=2f49b0d6-abb8-411f-969a-a9c6e1696b5f"},"vehicle_type_id":"4","last_reported":1761908950,"current_range_meters":22400,"station_id":"ce4bgjp2rcd13ifvqbh0","pricing_plan_id":"cebpf4jnsgd1na2vs0mg"},{"bike_id":"aea69efe-0503-4b60-bce9-564bde7f7791","system_id":"levelo_inurba_marseille","lat":43.32102,"lon":5.36787,"is_reserved":false,"is_disabled":false,"rental_uris":{"android":"levelo://app?vid=aea69efe-0503-4b60-bce9-564bde7f7791","ios":"levelo://app?vid=aea69efe-0503-4b60-bce9-564bde7f7791"},"vehicle_type_id":"4","last_reported":1761908950,"current_range_meters":22400,"station_id":"ce4bhrh2rcd13ifvqhug","pricing_plan_id":"cebpf4jnsgd1na2vs0mg"},{"bike_id":"f06db950-a637-4196-9b84-1d5fe34386ff","system_id":"levelo_inurba_marseille","lat":43.295853,"lon":5.367589,"is_reserved":false,"is_disabled":false,"rental_uris":{"android":"levelo://app?vid=f06db950-a637-4196-9b84-1d5fe34386ff","ios":"levelo://app?vid=f06db950-a637-4196-9b84-1d5fe34386ff"},"vehicle_type_id":"4","last_reported":1761908950,"current_range_meters":22400,"station_id":"ce4bgph2rcd13ifvqc2g","pricing_plan_id":"cebpf4jnsgd1na2vs0mg"},{"bike_id":"e234df06-1f05-4887-b706-85c5b9955892","system_id":"levelo_inurba_marseille","lat":43.29849,"lon":5.36292,"is_reserved":false,"is_disabled":false,"rental_uris":{"android":"levelo://app?vid=e234df06-1f05-4887-b706-85c5b9955892","ios":"levelo://app?vid=e234df06-1f05-4887-b706-85c5b9955892"},"vehicle_type_id":"4","last_reported":1761908950,"current_range_meters":22400,"station_id":"ce4bgpp2rcd13ifvqc3g","pricing_plan_id":"cebpf4jnsgd1na2vs0mg"},{"bike_id":"c672ecda-1b5f-4811-9cd8-c8b1b3384f28","system_id":"levelo_inurba_marseille","lat":43.31931,"lon":5.40183,"is_reserved":false,"is_disabled":false,"rental_uris":{"android":"levelo://app?vid=c672ecda-1b5f-4811-9cd8-c8b1b3384f28","ios":"levelo://app?vid=c672ecda-1b5f-4811-9cd8-c8b1b3384f28"},"vehicle_type_id":"4","last_reported":1761908950,"current_range_meters":22400,"station_id":"","pricing_plan_id":"cebpf4jnsgd1na2vs0mg"},{"bike_id":"d22735cf-30fe-43f6-b3df-92ca4aafa310","system_id":"levelo_inurba_marseille","lat":43.23962,"lon":5.36639,"is_reserved":false,"is_disabled":false,"rental_uris":{"android":"levelo://app?vid=d22735cf-30fe-43f6-b3df-92ca4aafa310","ios":"levelo://app?vid=d22735cf-30fe-43f6-b3df-92ca4aafa310"},"vehicle_type_id":"4","last_reported":1761908950,"current_range_meters":22800,"station_id":"ce4bhi12rcd13ifvqfp0","pricing_plan_id":"cebpf4jnsgd1na2vs0mg"},{"bike_id":"62de671e-7a32-4ba9-9083-1401010c4da7","system_id":"levelo_inurba_marseille","lat":43.23143,"lon":5.43699,"is_reserved":false,"is_disabled":false,"rental_uris":{"android":"levelo://app?vid=62de671e-7a32-4ba9-9083-1401010c4da7","ios":"levelo://app?vid=62de671e-7a32-4ba9-9083-1401010c4da7"},"vehicle_type_id":"4","last_reported":1761908950,"current_range_meters":22800,"station_id":"ce4bhmp2rcd13ifvqgog","pricing_plan_id":"cebpf4jnsgd1na2vs0mg"},{"bike_id":"79c3e17b-6b52-40f3-829f-6b443681b1d3","system_id":"levelo_inurba_marseille","lat":43.281,"lon":5.39668,"is_reserved":false,"is_disabled":false,"rental_uris":{"android":"levelo://app?vid=79c3e17b-6b52-40f3-829f-6b443681b1d3","ios":"levelo://app?vid=79c3e17b-6b52-40f3-829f-6b443681b1d3"},"vehicle_type_id":"4","last_reported":1761908950,"current_range_meters":22800,"station_id":"ce4bho12rcd13ifvqh2g","pricing_plan_id":"cebpf4jnsgd1na2vs0mg"},{"bike_id":"cf7a8ce5-6096-4f39-86c5-cb2e7875b3f2","system_id":"levelo_inurba_marseille","lat":43.24546,"lon":5.39513,"is_reserved":false,"is_disabled":false,"rental_uris":{"android":"levelo://app?vid=cf7a8ce5-6096-4f39-86c5-cb2e7875b3f2","ios":"levelo://app?vid=cf7a8ce5-6096-4f39-86c5-cb2e7875b3f2"},"vehicle_type_id":"4","last_reported":1761908950,"current_range_meters":22800,"station_id":"ce4bhlp2rcd13ifvqgjg","pricing_plan_id":"cebpf4jnsgd1na2vs0mg"},{"bike_id":"762b8850-decf-4679-abbc-c2f891be85d1","system_id":"levelo_inurba_marseille","lat":43.3036,"lon":5.42476,"is_reserved":false,"is_disabled":false,"rental_uris":{"android":"levelo://app?vid=762b8850-decf-4679-abbc-c2f891be85d1","ios":"levelo://app?vid=762b8850-decf-4679-abbc-c2f891be85d1"},"vehicle_type_id":"4","last_reported":1761908950,"current_range_meters":22800,"station_id":"ce4bhoh2rcd13ifvqh6g","pricing_plan_id":"cebpf4jnsgd1na2vs0mg"},{"bike_id":"32478c6c-dcee-44b9-903d-1bdb6aa4115c","system_id":"levelo_inurba_marseille","lat":43.24659,"lon":5.38167,"is_reserved":false,"is_disabled":false,"rental_uris":{"android":"levelo://app?vid=32478c6c-dcee-44b9-903d-1bdb6aa4115c","ios":"levelo://app?vid=32478c6c-dcee-44b9-903d-1bdb6aa4115c"},"vehicle_type_id":"4","last_reported":1761908950,"current_range_meters":22800,"station_id":"ce4bhih2rcd13ifvqfr0","pricing_plan_id":"cebpf4jnsgd1na2vs0mg"},{"bike_id":"15eabd95-4639-4bd2-ac27-e38df8c429e0","system_id":"levelo_inurba_marseille","lat":43.24073,"lon":5.37727,"is_reserved":false,"is_disabled":false,"rental_uris":{"android":"levelo://app?vid=15eabd95-4639-4bd2-ac27-e38df8c429e0","ios":"levelo://app?vid=15eabd95-4639-4bd2-ac27-e38df8c429e0"},"vehicle_type_id":"4","last_reported":1761908950,"current_range_meters":22800,"station_id":"ce4bhnp2rcd13ifvqgvg","pricing_plan_id":"cebpf4jnsgd1na2vs0mg"},{"bike_id":"ba541a52-7e4e-4241-9791-ae6f1fb03dcd","system_id":"levelo_inurba_marseille","lat":43.31991,"lon":5.41599,"is_reserved":false,"is_disabled":false,"rental_uris":{"android":"levelo://app?vid=ba541a52-7e4e-4241-9791-ae6f1fb03dcd","ios":"levelo://app?vid=ba541a52-7e4e-4241-9791-ae6f1fb03dcd"},"vehicle_type_id":"4","last_reported":1761908950,"current_range_meters":22800,"station_id":"","pricing_plan_id":"cebpf4jnsgd1na2vs0mg"},{"bike_id":"b972cf20-dd24-4cc1-969c-7ef90666461c","system_id":"levelo_inurba_marseille","lat":43.31119,"lon":5.37767,"is_reserved":false,"is_disabled":false,"rental_uris":{"android":"levelo://app?vid=b972cf20-dd24-4cc1-969c-7ef90666461c","ios":"levelo://app?vid=b972cf20-dd24-4cc1-969c-7ef90666461c"},"vehicle_type_id":"4","last_reported":1761908950,"current_range_meters":23200,"station_id":"ce4bgt92rcd13ifvqcg0","pricing_plan_id":"cebpf4jnsgd1na2vs0mg"},{"bike_id":"983d793e-9fca-48db-a1ca-28908eea30fd","system_id":"levelo_inurba_marseille","lat":43.28971,"lon":5.37817,"is_reserved":false,"is_disabled":false,"rental_uris":{"android":"levelo://app?vid=983d793e-9fca-48db-a1ca-28908eea30fd","ios":"levelo://app?vid=983d793e-9fca-48db-a1ca-28908eea30fd"},"vehicle_type_id":"4","last_reported":1761908950,"current_range_meters":23200,"station_id":"ce4bh9p2rcd13ifvqed0","pricing_plan_id":"cebpf4jnsgd1na2vs0mg"},{"bike_id":"4e391c44-1911-4be7-a906-0c62db9e237c","system_id":"levelo_inurba_marseille","lat":43.24654,"lon":5.38894,"is_reserved":false,"is_disabled":false,"rental_uris":{"android":"levelo://app?vid=4e391c44-1911-4be7-a906-0c62db9e237c","ios":"levelo://app?vid=4e391c44-1911-4be7-a906-0c62db9e237c"},"vehicle_type_id":"4","last_reported":1761908950,"current_range_meters":23200,"station_id":"ce4bhg12rcd13ifvqf60","pricing_plan_id":"cebpf4jnsgd1na2vs0mg"},{"bike_id":"7b398713-e01c-4991-ac43-9a866f67d1f1","system_id":"levelo_inurba_marseille","lat":43.21189,"lon":5.35074,"is_reserved":false,"is_disabled":false,"rental_uris":{"android":"levelo://app?vid=7b398713-e01c-4991-ac43-9a866f67d1f1","ios":"levelo://app?vid=7b398713-e01c-4991-ac43-9a866f67d1f1"},"vehicle_type_id":"4","last_reported":1761908950,"current_range_meters":23200,"station_id":"st_cvj6sg6p6f1abm77japg","pricing_plan_id":"cebpf4jnsgd1na2vs0mg"},{"bike_id":"a6ec57d0-afc6-4889-9326-97f7357489c8","system_id":"levelo_inurba_marseille","lat":43.28702,"lon":5.37373,"is_reserved":false,"is_disabled":false,"rental_uris":{"android":"levelo://app?vid=a6ec57d0-afc6-4889-9326-97f7357489c8","ios":"levelo://app?vid=a6ec57d0-afc6-4889-9326-97f7357489c8"},"vehicle_type_id":"4","last_reported":1761908950,"current_range_meters":24000,"station_id":"ce4bh3p2rcd13ifvqdq0","pricing_plan_id":"cebpf4jnsgd1na2vs0mg"},{"bike_id":"aacd1b60-a75c-438f-8023-e4ace055b7a2","system_id":"levelo_inurba_marseille","lat":43.255644,"lon":5.382296,"is_reserved":false,"is_disabled":false,"rental_uris":{"android":"levelo://app?vid=aacd1b60-a75c-438f-8023-e4ace055b7a2","ios":"levelo://app?vid=aacd1b60-a75c-438f-8023-e4ace055b7a2"},"vehicle_type_id":"4","last_reported":1761908950,"current_range_meters":24000,"station_id":"ce4bhgp2rcd13ifvqfc0","pricing_plan_id":"cebpf4jnsgd1na2vs0mg"},{"bike_id":"b3e1aa2c-5fb8-43de-a366-499333c5907f","system_id":"levelo_inurba_marseille","lat":43.28936,"lon":5.39631,"is_reserved":false,"is_disabled":false,"rental_uris":{"android":"levelo://app?vid=b3e1aa2c-5fb8-43de-a366-499333c5907f","ios":"levelo://app?vid=b3e1aa2c-5fb8-43de-a366-499333c5907f"},"vehicle_type_id":"4","last_reported":1761908950,"current_range_meters":24000,"station_id":"ce4bh3h2rcd13ifvqdn0","pricing_plan_id":"cebpf4jnsgd1na2vs0mg"},{"bike_id":"e0f71462-bb5e-4d81-8e21-a0cc5330fc09","system_id":"levelo_inurba_marseille","lat":43.29781,"lon":5.37092,"is_reserved":false,"is_disabled":false,"rental_uris":{"android":"levelo://app?vid=e0f71462-bb5e-4d81-8e21-a0cc5330fc09","ios":"levelo://app?vid=e0f71462-bb5e-4d81-8e21-a0cc5330fc09"},"vehicle_type_id":"4","last_reported":1761908950,"current_range_meters":24000,"station_id":"ce4bgop2rcd13ifvqc1g","pricing_plan_id":"cebpf4jnsgd1na2vs0mg"},{"bike_id":"674e7722-4335-460d-85a2-fad0e1d32052","system_id":"levelo_inurba_marseille","lat":43.291721,"lon":5.371458,"is_reserved":false,"is_disabled":false,"rental_uris":{"android":"levelo://app?vid=674e7722-4335-460d-85a2-fad0e1d32052","ios":"levelo://app?vid=674e7722-4335-460d-85a2-fad0e1d32052"},"vehicle_type_id":"4","last_reported":1761908950,"current_range_meters":24000,"station_id":"ce4bha92rcd13ifvqeh0","pricing_plan_id":"cebpf4jnsgd1na2vs0mg"},{"bike_id":"fd491628-87df-4048-bf7c-d3e1be7e47dd","system_id":"levelo_inurba_marseille","lat":43.24072,"lon":5.37759,"is_reserved":false,"is_disabled":false,"rental_uris":{"android":"levelo://app?vid=fd491628-87df-4048-bf7c-d3e1be7e47dd","ios":"levelo://app?vid=fd491628-87df-4048-bf7c-d3e1be7e47dd"},"vehicle_type_id":"4","last_reported":1761908950,"current_range_meters":24000,"station_id":"ce4bhnp2rcd13ifvqgvg","pricing_plan_id":"cebpf4jnsgd1na2vs0mg"},{"bike_id":"9dc0ac3b-baf4-4388-8313-e103ae42509b","system_id":"levelo_inurba_marseille","lat":43.27209,"lon":5.39179,"is_reserved":false,"is_disabled":false,"rental_uris":{"android":"levelo://app?vid=9dc0ac3b-baf4-4388-8313-e103ae42509b","ios":"levelo://app?vid=9dc0ac3b-baf4-4388-8313-e103ae42509b"},"vehicle_type_id":"4","last_reported":1761908950,"current_range_meters":24000,"station_id":"ce4bhhp2rcd13ifvqfm0","pricing_plan_id":"cebpf4jnsgd1na2vs0mg"},{"bike_id":"f77a28de-ba16-41bc-a3a4-ba36b0519b67","system_id":"levelo_inurba_marseille","lat":43.29624,"lon":5.37322,"is_reserved":false,"is_disabled":false,"rental_uris":{"android":"levelo://app?vid=f77a28de-ba16-41bc-a3a4-ba36b0519b67","ios":"levelo://app?vid=f77a28de-ba16-41bc-a3a4-ba36b0519b67"},"vehicle_type_id":"4","last_reported":1761908950,"current_range_meters":24400,"station_id":"","pricing_plan_id":"cebpf4jnsgd1na2vs0mg"},{"bike_id":"999e89c0-6c59-4e25-b353-b7e62a134369","system_id":"levelo_inurba_marseille","lat":43.259401,"lon":5.409031,"is_reserved":false,"is_disabled":false,"rental_uris":{"android":"levelo://app?vid=999e89c0-6c59-4e25-b353-b7e62a134369","ios":"levelo://app?vid=999e89c0-6c59-4e25-b353-b7e62a134369"},"vehicle_type_id":"4","last_reported":1761908950,"current_range_meters":24400,"station_id":"","pricing_plan_id":"cebpf4jnsgd1na2vs0mg"},{"bike_id":"885b29da-0796-452d-a46f-c91b2df7c0e7","system_id":"levelo_inurba_marseille","lat":43.30533,"lon":5.36483,"is_reserved":false,"is_disabled":false,"rental_uris":{"android":"levelo://app?vid=885b29da-0796-452d-a46f-c91b2df7c0e7","ios":"levelo://app?vid=885b29da-0796-452d-a46f-c91b2df7c0e7"},"vehicle_type_id":"4","last_reported":1761908950,"current_range_meters":24400,"station_id":"","pricing_plan_id":"cebpf4jnsgd1na2vs0mg"},{"bike_id":"03545501-ce2a-4fa3-9618-ff7f83bc695b","system_id":"levelo_inurba_marseille","lat":43.25957,"lon":5.40891,"is_reserved":false,"is_disabled":false,"rental_uris":{"android":"levelo://app?vid=03545501-ce2a-4fa3-9618-ff7f83bc695b","ios":"levelo://app?vid=03545501-ce2a-4fa3-9618-ff7f83bc695b"},"vehicle_type_id":"4","last_reported":1761908950,"current_range_meters":24400,"station_id":"ce4bhm92rcd13ifvqglg","pricing_plan_id":"cebpf4jnsgd1na2vs0mg"},{"bike_id":"3c803815-8c28-4a5d-86c2-48ed25e06ce0","system_id":"levelo_inurba_marseille","lat":43.2407,"lon":5.37756,"is_reserved":false,"is_disabled":false,"rental_uris":{"android":"levelo://app?vid=3c803815-8c28-4a5d-86c2-48ed25e06ce0","ios":"levelo://app?vid=3c803815-8c28-4a5d-86c2-48ed25e06ce0"},"vehicle_type_id":"4","last_reported":1761908950,"current_range_meters":24400,"station_id":"ce4bhnp2rcd13ifvqgvg","pricing_plan_id":"cebpf4jnsgd1na2vs0mg"},{"bike_id":"89a3b381-ada9-430b-a2ff-b2d9330b6a95","system_id":"levelo_inurba_marseille","lat":43.29566,"lon":5.37517,"is_reserved":false,"is_disabled":false,"rental_uris":{"android":"levelo://app?vid=89a3b381-ada9-430b-a2ff-b2d9330b6a95","ios":"levelo://app?vid=89a3b381-ada9-430b-a2ff-b2d9330b6a95"},"vehicle_type_id":"4","last_reported":1761908950,"current_range_meters":24800,"station_id":"ce4bgh92rcd13ifvqb50","pricing_plan_id":"cebpf4jnsgd1na2vs0mg"},{"bike_id":"fbb7164e-1ac1-47ac-b48a-41c28aa88278","system_id":"levelo_inurba_marseille","lat":43.24166,"lon":5.36389,"is_reserved":false,"is_disabled":false,"rental_uris":{"android":"levelo://app?vid=fbb7164e-1ac1-47ac-b48a-41c28aa88278","ios":"levelo://app?vid=fbb7164e-1ac1-47ac-b48a-41c28aa88278"},"vehicle_type_id":"4","last_reported":1761908950,"current_range_meters":24800,"station_id":"cpo36qri1sfpv3e86is0","pricing_plan_id":"cebpf4jnsgd1na2vs0mg"},{"bike_id":"24ac2000-e25d-463e-a6c6-fcd66eff6c14","system_id":"levelo_inurba_marseille","lat":43.25938,"lon":5.40896,"is_reserved":false,"is_disabled":false,"rental_uris":{"android":"levelo://app?vid=24ac2000-e25d-463e-a6c6-fcd66eff6c14","ios":"levelo://app?vid=24ac2000-e25d-463e-a6c6-fcd66eff6c14"},"vehicle_type_id":"4","last_reported":1761908950,"current_range_meters":24800,"station_id":"ce4bhm92rcd13ifvqglg","pricing_plan_id":"cebpf4jnsgd1na2vs0mg"},{"bike_id":"90ed487e-3a89-413d-9b7a-22e832ec6c76","system_id":"levelo_inurba_marseille","lat":43.27813,"lon":5.40706,"is_reserved":false,"is_disabled":false,"rental_uris":{"android":"levelo://app?vid=90ed487e-3a89-413d-9b7a-22e832ec6c76","ios":"levelo://app?vid=90ed487e-3a89-413d-9b7a-22e832ec6c76"},"vehicle_type_id":"4","last_reported":1761908950,"current_range_meters":24800,"station_id":"ce4bhnh2rcd13ifvqgtg","pricing_plan_id":"cebpf4jnsgd1na2vs0mg"},{"bike_id":"2a4cca83-d1a6-420a-90e5-de7b2a7d34a6","system_id":"levelo_inurba_marseille","lat":43.25105,"lon":5.40323,"is_reserved":false,"is_disabled":false,"rental_uris":{"android":"levelo://app?vid=2a4cca83-d1a6-420a-90e5-de7b2a7d34a6","ios":"levelo://app?vid=2a4cca83-d1a6-420a-90e5-de7b2a7d34a6"},"vehicle_type_id":"4","last_reported":1761908950,"current_range_meters":24800,"station_id":"ce4bhlh2rcd13ifvqgig","pricing_plan_id":"cebpf4jnsgd1na2vs0mg"},{"bike_id":"30890c1b-4dd6-40d1-b653-db5b612a4a99","system_id":"levelo_inurba_marseille","lat":43.26208,"lon":5.40487,"is_reserved":false,"is_disabled":false,"rental_uris":{"android":"levelo://app?vid=30890c1b-4dd6-40d1-b653-db5b612a4a99","ios":"levelo://app?vid=30890c1b-4dd6-40d1-b653-db5b612a4a99"},"vehicle_type_id":"4","last_reported":1761908950,"current_range_meters":24800,"station_id":"ce4bhmh2rcd13ifvqgmg","pricing_plan_id":"cebpf4jnsgd1na2vs0mg"},{"bike_id":"784e26e6-244f-4434-9266-9b741a39c3d7","system_id":"levelo_inurba_marseille","lat":43.2707,"lon":5.42279,"is_reserved":false,"is_disabled":false,"rental_uris":{"android":"levelo://app?vid=784e26e6-244f-4434-9266-9b741a39c3d7","ios":"levelo://app?vid=784e26e6-244f-4434-9266-9b741a39c3d7"},"vehicle_type_id":"4","last_reported":1761908950,"current_range_meters":24800,"station_id":"ce4bhk92rcd13ifvqgb0","pricing_plan_id":"cebpf4jnsgd1na2vs0mg"},{"bike_id":"9b0d9e28-79a3-4616-8e57-580f61942c1e","system_id":"levelo_inurba_marseille","lat":43.28776,"lon":5.38563,"is_reserved":false,"is_disabled":false,"rental_uris":{"android":"levelo://app?vid=9b0d9e28-79a3-4616-8e57-580f61942c1e","ios":"levelo://app?vid=9b0d9e28-79a3-4616-8e57-580f61942c1e"},"vehicle_type_id":"4","last_reported":1761908950,"current_range_meters":24800,"station_id":"","pricing_plan_id":"cebpf4jnsgd1na2vs0mg"},{"bike_id":"4c1896d9-a522-438b-a603-2b8556bd3edb","system_id":"levelo_inurba_marseille","lat":43.21188,"lon":5.35061,"is_reserved":false,"is_disabled":false,"rental_uris":{"android":"levelo://app?vid=4c1896d9-a522-438b-a603-2b8556bd3edb","ios":"levelo://app?vid=4c1896d9-a522-438b-a603-2b8556bd3edb"},"vehicle_type_id":"4","last_reported":1761908950,"current_range_meters":24800,"station_id":"st_cvj6sg6p6f1abm77japg","pricing_plan_id":"cebpf4jnsgd1na2vs0mg"},{"bike_id":"e0d54695-e2e6-4a7d-b4ff-43fb26bfe078","system_id":"levelo_inurba_marseille","lat":43.30561,"lon":5.36546,"is_reserved":false,"is_disabled":false,"rental_uris":{"android":"levelo://app?vid=e0d54695-e2e6-4a7d-b4ff-43fb26bfe078","ios":"levelo://app?vid=e0d54695-e2e6-4a7d-b4ff-43fb26bfe078"},"vehicle_type_id":"4","last_reported":1761908950,"current_range_meters":24800,"station_id":"ce4bgs12rcd13ifvqcag","pricing_plan_id":"cebpf4jnsgd1na2vs0mg"},{"bike_id":"423802bb-722e-4533-9018-c0f75cce34a6","system_id":"levelo_inurba_marseille","lat":43.306673,"lon":5.381633,"is_reserved":false,"is_disabled":false,"rental_uris":{"android":"levelo://app?vid=423802bb-722e-4533-9018-c0f75cce34a6","ios":"levelo://app?vid=423802bb-722e-4533-9018-c0f75cce34a6"},"vehicle_type_id":"4","last_reported":1761908950,"current_range_meters":25200,"station_id":"","pricing_plan_id":"cebpf4jnsgd1na2vs0mg"},{"bike_id":"5698fe4c-c44e-47a0-88c1-c1f13c5bb80e","system_id":"levelo_inurba_marseille","lat":43.2983,"lon":5.36261,"is_reserved":false,"is_disabled":false,"rental_uris":{"android":"levelo://app?vid=5698fe4c-c44e-47a0-88c1-c1f13c5bb80e","ios":"levelo://app?vid=5698fe4c-c44e-47a0-88c1-c1f13c5bb80e"},"vehicle_type_id":"4","last_reported":1761908950,"current_range_meters":25200,"station_id":"ce4bgpp2rcd13ifvqc3g","pricing_plan_id":"cebpf4jnsgd1na2vs0mg"},{"bike_id":"dca819aa-7242-4395-a30e-75e143f05e33","system_id":"levelo_inurba_marseille","lat":43.30534,"lon":5.36509,"is_reserved":false,"is_disabled":false,"rental_uris":{"android":"levelo://app?vid=dca819aa-7242-4395-a30e-75e143f05e33","ios":"levelo://app?vid=dca819aa-7242-4395-a30e-75e143f05e33"},"vehicle_type_id":"4","last_reported":1761908950,"current_range_meters":25200,"station_id":"","pricing_plan_id":"cebpf4jnsgd1na2vs0mg"},{"bike_id":"6eb523a4-350d-4959-ac5e-1335d8f70954","system_id":"levelo_inurba_marseille","lat":43.315717,"lon":5.406423,"is_reserved":false,"is_disabled":false,"rental_uris":{"android":"levelo://app?vid=6eb523a4-350d-4959-ac5e-1335d8f70954","ios":"levelo://app?vid=6eb523a4-350d-4959-ac5e-1335d8f70954"},"vehicle_type_id":"4","last_reported":1761908950,"current_range_meters":25200,"station_id":"","pricing_plan_id":"cebpf4jnsgd1na2vs0mg"},