{"last_updated":1739477378,"ttl":60,"version":"2.2","data":{"bikes":[{"bike_id":"ed9deffe-4517-4acf-95e1-b5cda09fac41","system_id":"levelo_inurba_marseille","lat":43.29528,"lon":5.39398,"is_reserved":false,"is_disabled":false,"rental_uris":{"android":"levelo://app?vid=ed9deffe-4517-4acf-95e1-b5cda09fac41","ios":"levelo://app?vid=ed9deffe-4517-4acf-95e1-b5cda09fac41"},"vehicle_type_id":"4","last_reported":1739477378,"current_range_meters":34800,"station_id":"ce4bh292rcd13ifvqdf0","pricing_plan_id":"cebpf4jnsgd1na2vs0mg"},{"bike_id":"fabe0dc0-e9b8-4510-811e-856b5cccb082","system_id":"levelo_inurba_marseille","lat":43.25499,"lon":5.37651,"is_reserved":false,"is_disabled":true,"rental_uris":{"android":"levelo://app?vid=fabe0dc0-e9b8-4510-811e-856b5cccb082","ios":"levelo://app?vid=fabe0dc0-e9b8-4510-811e-856b5cccb082"},"vehicle_type_id":"4","last_reported":1739477378,"current_range_meters":26800,"station_id":"ce4bhh12rcd13ifvqff0","pricing_plan_id":"cebpf4jnsgd1na2vs0mg"},{"bike_id":"8de44643-9c65-479b-92b5-27d16e23072f","system_id":"levelo_inurba_marseille","lat":43.22921,"lon":5.35418,"is_reserved":false,"is_disabled":false,"rental_uris":{"android":"levelo://app?vid=8de44643-9c65-479b-92b5-27d16e23072f","ios":"levelo://app?vid=8de44643-9c65-479b-92b5-27d16e23072f"},"vehicle_type_id":"4","last_reported":1739477378,"current_range_meters":37600,"station_id":"cpo3532slgdg3j2ikp40","pricing_plan_id":"cebpf4jnsgd1na2vs0mg"},{"bike_id":"b8501d6e-2d89-4b52-a8f9-2f1a4dfcffa1","system_id":"levelo_inurba_marseille","lat":43.29879,"lon":5.38915,"is_reserved":false,"is_disabled":false,"rental_uris":{"android":"levelo://app?vid=b8501d6e-2d89-4b52-a8f9-2f1a4dfcffa1","ios":"levelo://app?vid=b8501d6e-2d89-4b52-a8f9-2f1a4dfcffa1"},"vehicle_type_id":"4","last_reported":1739477378,"current_range_meters":33600,"station_id":"ce4bh392rcd13ifvqdl0","pricing_plan_id":"cebpf4jnsgd1na2vs0mg"},{"bike_id":"5bb93883-746a-4657-831b-dceff88c8915","system_id":"levelo_inurba_marseille","lat":43.26198,"lon":5.37924,"is_reserved":false,"is_disabled":false,"rental_uris":{"android":"levelo://app?vid=5bb93883-746a-4657-831b-dceff88c8915","ios":"levelo://app?vid=5bb93883-746a-4657-831b-dceff88c8915"},"vehicle_type_id":"4","last_reported":1739477378,"current_range_meters":36400,"station_id":"ce4bhjp2rcd13ifvqg90","pricing_plan_id":"cebpf4jnsgd1na2vs0mg"},{"bike_id":"20b5aefc-789b-4c65-b550-e65187d324ee","system_id":"levelo_inurba_marseille","lat":43.29609,"lon":5.38098,"is_reserved":false,"is_disabled":false,"rental_uris":{"android":"levelo://app?vid=20b5aefc-789b-4c65-b550-e65187d324ee","ios":"levelo://app?vid=20b5aefc-789b-4c65-b550-e65187d324ee"},"vehicle_type_id":"4","last_reported":1739477378,"current_range_meters":23200,"station_id":"ce4bgl12rcd13ifvqbo0","pricing_plan_id":"cebpf4jnsgd1na2vs0mg"},{"bike_id":"5a76786f-544c-4752-9821-bd716088583e","system_id":"levelo_inurba_marseille","lat":43.28932,"lon":5.36399,"is_reserved":false,"is_disabled":false,"rental_uris":{"android":"levelo://app?vid=5a76786f-544c-4752-9821-bd716088583e","ios":"levelo://app?vid=5a76786f-544c-4752-9821-bd716088583e"},"vehicle_type_id":"4","last_reported":1739477378,"current_range_meters":37600,"station_id":"ce4bhc92rcd13ifvqetg","pricing_plan_id":"cebpf4jnsgd1na2vs0mg"},{"bike_id":"1d4165b9-e8af-42e7-8e88-54a0f84b4f26","system_id":"levelo_inurba_marseille","lat":43.23185,"lon":5.3998,"is_reserved":false,"is_disabled":false,"rental_uris":{"android":"levelo://app?vid=1d4165b9-e8af-42e7-8e88-54a0f84b4f26","ios":"levelo://app?vid=1d4165b9-e8af-42e7-8e88-54a0f84b4f26"},"vehicle_type_id":"4","last_reported":1739477378,"current_range_meters":33600,"station_id":"ce4bhn12rcd13ifvqgqg","pricing_plan_id":"cebpf4jnsgd1na2vs0mg"},{"bike_id":"a50857ba-15dc-4b25-9d00-0016debb7ec0","system_id":"levelo_inurba_marseille","lat":43.29923,"lon":5.37484,"is_reserved":false,"is_disabled":false,"rental_uris":{"android":"levelo://app?vid=a50857ba-15dc-4b25-9d00-0016debb7ec0","ios":"levelo://app?vid=a50857ba-15dc-4b25-9d00-0016debb7ec0"},"vehicle_type_id":"4","last_reported":1739477378,"current_range_meters":38000,"station_id":"ce4bgjh2rcd13ifvqbg0","pricing_plan_id":"cebpf4jnsgd1na2vs0mg"},{"bike_id":"e8887aed-fddd-4b96-bc9f-849d198fae08","system_id":"levelo_inurba_marseille","lat":43.2558,"lon":5.38243,"is_reserved":false,"is_disabled":false,"rental_uris":{"android":"levelo://app?vid=e8887aed-fddd-4b96-bc9f-849d198fae08","ios":"levelo://app?vid=e8887aed-fddd-4b96-bc9f-849d198fae08"},"vehicle_type_id":"4","last_reported":1739477378,"current_range_meters":13600,"station_id":"ce4bhih2rcd13ifvqfs0","pricing_plan_id":"cebpf4jnsgd1na2vs0mg"},{"bike_id":"e238aec4-306f-4def-b044-a0dc1f67d10d","system_id":"levelo_inurba_marseille","lat":43.30116,"lon":5.39091,"is_reserved":false,"is_disabled":false,"rental_uris":{"android":"levelo://app?vid=e238aec4-306f-4def-b044-a0dc1f67d10d","ios":"levelo://app?vid=e238aec4-306f-4def-b044-a0dc1f67d10d"},"vehicle_type_id":"4","last_reported":1739477378,"current_range_meters":38800,"station_id":"ce4bh192rcd13ifvqdb0","pricing_plan_id":"cebpf4jnsgd1na2vs0mg"},{"bike_id":"62e2024d-7707-4c3f-9191-bf722c66be1b","system_id":"levelo_inurba_marseille","lat":43.29978,"lon":5.37178,"is_reserved":false,"is_disabled":false,"rental_uris":{"android":"levelo://app?vid=62e2024d-7707-4c3f-9191-bf722c66be1b","ios":"levelo://app?vid=62e2024d-7707-4c3f-9191-bf722c66be1b"},"vehicle_type_id":"4","last_reported":1739477378,"current_range_meters":38800,"station_id":"ce4bgr92rcd13ifvqc7g","pricing_plan_id":"cebpf4jnsgd1na2vs0mg"},{"bike_id":"8390feee-0735-4b8f-90c8-f81c741ca7d5","system_id":"levelo_inurba_marseille","lat":43.24818,"lon":5.37434,"is_reserved":false,"is_disabled":false,"rental_uris":{"android":"levelo://app?vid=8390feee-0735-4b8f-90c8-f81c741ca7d5","ios":"levelo://app?vid=8390feee-0735-4b8f-90c8-f81c741ca7d5"},"vehicle_type_id":"4","last_reported":1739477378,"current_range_meters":37600,"station_id":"ce4bhgh2rcd13ifvqfb0","pricing_plan_id":"cebpf4jnsgd1na2vs0mg"},{"bike_id":"3978400e-dc40-48da-93af-d286b1eaeaf6","system_id":"levelo_inurba_marseille","lat":43.25501,"lon":5.37636,"is_reserved":false,"is_disabled":false,"rental_uris":{"android":"levelo://app?vid=3978400e-dc40-48da-93af-d286b1eaeaf6","ios":"levelo://app?vid=3978400e-dc40-48da-93af-d286b1eaeaf6"},"vehicle_type_id":"4","last_reported":1739477378,"current_range_meters":38800,"station_id":"ce4bhh12rcd13ifvqff0","pricing_plan_id":"cebpf4jnsgd1na2vs0mg"},{"bike_id":"c5d83290-7e41-4747-be49-5a88384d605e","system_id":"levelo_inurba_marseille","lat":43.28494,"lon":5.38533,"is_reserved":false,"is_disabled":true,"rental_uris":{"android":"levelo://app?vid=c5d83290-7e41-4747-be49-5a88384d605e","ios":"levelo://app?vid=c5d83290-7e41-4747-be49-5a88384d605e"},"vehicle_type_id":"4","last_reported":1739477378,"current_range_meters":22800,"station_id":"ce4bh8p2rcd13ifvqeb0","pricing_plan_id":"cebpf4jnsgd1na2vs0mg"},{"bike_id":"56192679-cc8f-4f99-a19c-ed0875b3f321","system_id":"levelo_inurba_marseille","lat":43.31736,"lon":5.42387,"is_reserved":false,"is_disabled":false,"rental_uris":{"android":"levelo://app?vid=56192679-cc8f-4f99-a19c-ed0875b3f321","ios":"levelo://app?vid=56192679-cc8f-4f99-a19c-ed0875b3f321"},"vehicle_type_id":"4","last_reported":1739477378,"current_range_meters":38800,"station_id":"ce4bhp92rcd13ifvqhbg","pricing_plan_id":"cebpf4jnsgd1na2vs0mg"},{"bike_id":"b34c6303-752a-46a1-93ad-ddbc991e20b6","system_id":"levelo_inurba_marseille","lat":43.23058,"lon":5.35497,"is_reserved":false,"is_disabled":false,"rental_uris":{"android":"levelo://app?vid=b34c6303-752a-46a1-93ad-ddbc991e20b6","ios":"levelo://app?vid=b34c6303-752a-46a1-93ad-ddbc991e20b6"},"vehicle_type_id":"4","last_reported":1739477378,"current_range_meters":8000,"station_id":"cpo3342slgdg3j2ifvpg","pricing_plan_id":"cebpf4jnsgd1na2vs0mg"},{"bike_id":"f4297ec3-a745-470f-8379-4a2b1e421801","system_id":"levelo_inurba_marseille","lat":43.29019,"lon":5.35882,"is_reserved":false,"is_disabled":true,"rental_uris":{"android":"levelo://app?vid=f4297ec3-a745-470f-8379-4a2b1e421801","ios":"levelo://app?vid=f4297ec3-a745-470f-8379-4a2b1e421801"},"vehicle_type_id":"4","last_reported":1739477378,"current_range_meters":38800,"station_id":"ce4bha92rcd13ifvqeg0","pricing_plan_id":"cebpf4jnsgd1na2vs0mg"},{"bike_id":"94f215f4-8d84-4a90-8447-d7fd34779bff","system_id":"levelo_inurba_marseille","lat":43.25497,"lon":5.37648,"is_reserved":false,"is_disabled":false,"rental_uris":{"android":"levelo://app?vid=94f215f4-8d84-4a90-8447-d7fd34779bff","ios":"levelo://app?vid=94f215f4-8d84-4a90-8447-d7fd34779bff"},"vehicle_type_id":"4","last_reported":1739477378,"current_range_meters":16400,"station_id":"ce4bhh12rcd13ifvqff0","pricing_plan_id":"cebpf4jnsgd1na2vs0mg"},{"bike_id":"1008caae-4554-45a8-be4b-7a22becb98fe","system_id":"levelo_inurba_marseille","lat":43.30295,"lon":5.39222,"is_reserved":false,"is_disabled":false,"rental_uris":{"android":"levelo://app?vid=1008caae-4554-45a8-be4b-7a22becb98fe","ios":"levelo://app?vid=1008caae-4554-45a8-be4b-7a22becb98fe"},"vehicle_type_id":"4","last_reported":1739477378,"current_range_meters":38800,"station_id":"ce4bgkh2rcd13ifvqbk0","pricing_plan_id":"cebpf4jnsgd1na2vs0mg"},{"bike_id":"7e3aa56e-620c-49ba-a222-8b981e930b79","system_id":"levelo_inurba_marseille","lat":43.31501,"lon":5.37338,"is_reserved":false,"is_disabled":false,"rental_uris":{"android":"levelo://app?vid=7e3aa56e-620c-49ba-a222-8b981e930b79","ios":"levelo://app?vid=7e3aa56e-620c-49ba-a222-8b981e930b79"},"vehicle_type_id":"4","last_reported":1739477378,"current_range_meters":32400,"station_id":"ce4bgt12rcd13ifvqcd0","pricing_plan_id":"cebpf4jnsgd1na2vs0mg"},{"bike_id":"741ea012-58fd-430b-9946-b864253bdf7d","system_id":"levelo_inurba_marseille","lat":43.29528,"lon":5.38549,"is_reserved":false,"is_disabled":false,"rental_uris":{"android":"levelo://app?vid=741ea012-58fd-430b-9946-b864253bdf7d","ios":"levelo://app?vid=741ea012-58fd-430b-9946-b864253bdf7d"},"vehicle_type_id":"4","last_reported":1739477378,"current_range_meters":27200,"station_id":"ce4bgih2rcd13ifvqba0","pricing_plan_id":"cebpf4jnsgd1na2vs0mg"},{"bike_id":"7b830c89-3a1c-4014-a605-109efca81479","system_id":"levelo_inurba_marseille","lat":43.27669,"lon":5.38857,"is_reserved":false,"is_disabled":false,"rental_uris":{"android":"levelo://app?vid=7b830c89-3a1c-4014-a605-109efca81479","ios":"levelo://app?vid=7b830c89-3a1c-4014-a605-109efca81479"},"vehicle_type_id":"4","last_reported":1739477378,"current_range_meters":38800,"station_id":"ce4bhi12rcd13ifvqfo0","pricing_plan_id":"cebpf4jnsgd1na2vs0mg"},{"bike_id":"ac563615-1c9b-4d54-94c9-bd17fd4a149f","system_id":"levelo_inurba_marseille","lat":43.2844,"lon":5.39192,"is_reserved":false,"is_disabled":false,"rental_uris":{"android":"levelo://app?vid=ac563615-1c9b-4d54-94c9-bd17fd4a149f","ios":"levelo://app?vid=ac563615-1c9b-4d54-94c9-bd17fd4a149f"},"vehicle_type_id":"4","last_reported":1739477378,"current_range_meters":38800,"station_id":"ce4bhoh2rcd13ifvqh5g","pricing_plan_id":"cebpf4jnsgd1na2vs0mg"},{"bike_id":"e3edb3d6-3aa8-49a2-a682-5215af49fd2c","system_id":"levelo_inurba_marseille","lat":43.2867,"lon":5.38664,"is_reserved":false,"is_disabled":false,"rental_uris":{"android":"levelo://app?vid=e3edb3d6-3aa8-49a2-a682-5215af49fd2c","ios":"levelo://app?vid=e3edb3d6-3aa8-49a2-a682-5215af49fd2c"},"vehicle_type_id":"4","last_reported":1739477378,"current_range_meters":35200,"station_id":"ce4bh492rcd13ifvqdug","pricing_plan_id":"cebpf4jnsgd1na2vs0mg"},{"bike_id":"4771bdc5-5a9a-4126-baef-ad23555935fc","system_id":"levelo_inurba_marseille","lat":43.295323,"lon":5.393728,"is_reserved":false,"is_disabled":false,"rental_uris":{"android":"levelo://app?vid=4771bdc5-5a9a-4126-baef-ad23555935fc","ios":"levelo://app?vid=4771bdc5-5a9a-4126-baef-ad23555935fc"},"vehicle_type_id":"4","last_reported":1739477378,"current_range_meters":28400,"station_id":"ce4bh292rcd13ifvqdf0","pricing_plan_id":"cebpf4jnsgd1na2vs0mg"},{"bike_id":"ae9ac42c-c442-4a42-a6d9-83f1be830871","system_id":"levelo_inurba_marseille","lat":43.29912,"lon":5.36545,"is_reserved":false,"is_disabled":false,"rental_uris":{"android":"levelo://app?vid=ae9ac42c-c442-4a42-a6d9-83f1be830871","ios":"levelo://app?vid=ae9ac42c-c442-4a42-a6d9-83f1be830871"},"vehicle_type_id":"4","last_reported":1739477378,"current_range_meters":9600,"station_id":"ce4bgm92rcd13ifvqbr0","pricing_plan_id":"cebpf4jnsgd1na2vs0mg"},{"bike_id":"2dfd07b4-aec1-4162-bd20-345c96ed41e8","system_id":"levelo_inurba_marseille","lat":43.29336,"lon":5.37136,"is_reserved":false,"is_disabled":false,"rental_uris":{"android":"levelo://app?vid=2dfd07b4-aec1-4162-bd20-345c96ed41e8","ios":"levelo://app?vid=2dfd07b4-aec1-4162-bd20-345c96ed41e8"},"vehicle_type_id":"4","last_reported":1739477378,"current_range_meters":38000,"station_id":"ce4bgh92rcd13ifvqb40","pricing_plan_id":"cebpf4jnsgd1na2vs0mg"},{"bike_id":"2a7fbfda-36d8-455b-955d-63e67c8c1e23","system_id":"levelo_inurba_marseille","lat":43.30908,"lon":5.44026,"is_reserved":false,"is_disabled":false,"rental_uris":{"android":"levelo://app?vid=2a7fbfda-36d8-455b-955d-63e67c8c1e23","ios":"levelo://app?vid=2a7fbfda-36d8-455b-955d-63e67c8c1e23"},"vehicle_type_id":"4","last_reported":1739477378,"current_range_meters":28000,"station_id":"","pricing_plan_id":"cebpf4jnsgd1na2vs0mg"},{"bike_id":"0806deb7-288d-46f9-a267-9d6d6605d61a","system_id":"levelo_inurba_marseille","lat":43.31527,"lon":5.38023,"is_reserved":false,"is_disabled":false,"rental_uris":{"android":"levelo://app?vid=0806deb7-288d-46f9-a267-9d6d6605d61a","ios":"levelo://app?vid=0806deb7-288d-46f9-a267-9d6d6605d61a"},"vehicle_type_id":"4","last_reported":1739477378,"current_range_meters":39200,"station_id":"ce4bhsp2rcd13ifvqi50","pricing_plan_id":"cebpf4jnsgd1na2vs0mg"},{"bike_id":"cd2ade96-d83c-484d-ad63-31dd855266a0","system_id":"levelo_inurba_marseille","lat":43.2988,"lon":5.39744,"is_reserved":false,"is_disabled":false,"rental_uris":{"android":"levelo://app?vid=cd2ade96-d83c-484d-ad63-31dd855266a0","ios":"levelo://app?vid=cd2ade96-d83c-484d-ad63-31dd855266a0"},"vehicle_type_id":"4","last_reported":1739477378,"current_range_meters":38800,"station_id":"ce4bh0h2rcd13ifvqd50","pricing_plan_id":"cebpf4jnsgd1na2vs0mg"},{"bike_id":"670d8b79-cf37-4bf6-9297-ca0919e71705","system_id":"levelo_inurba_marseille","lat":43.30547,"lon":5.38422,"is_reserved":false,"is_disabled":true,"rental_uris":{"android":"levelo://app?vid=670d8b79-cf37-4bf6-9297-ca0919e71705","ios":"levelo://app?vid=670d8b79-cf37-4bf6-9297-ca0919e71705"},"vehicle_type_id":"4","last_reported":1739477378,"current_range_meters":34800,"station_id":"ce4bgg92rcd13ifvqb30","pricing_plan_id":"cebpf4jnsgd1na2vs0mg"},{"bike_id":"4004e863-e0ca-4122-9424-ab9f70e142e6","system_id":"levelo_inurba_marseille","lat":43.31673,"lon":5.39646,"is_reserved":false,"is_disabled":false,"rental_uris":{"android":"levelo://app?vid=4004e863-e0ca-4122-9424-ab9f70e142e6","ios":"levelo://app?vid=4004e863-e0ca-4122-9424-ab9f70e142e6"},"vehicle_type_id":"4","last_reported":1739477378,"current_range_meters":25600,"station_id":"","pricing_plan_id":"cebpf4jnsgd1na2vs0mg"},{"bike_id":"1973349c-76b1-4d08-a981-a59f0ff4b1ea","system_id":"levelo_inurba_marseille","lat":43.29305,"lon":5.37165,"is_reserved":false,"is_disabled":false,"rental_uris":{"android":"levelo://app?vid=1973349c-76b1-4d08-a981-a59f0ff4b1ea","ios":"levelo://app?vid=1973349c-76b1-4d08-a981-a59f0ff4b1ea"},"vehicle_type_id":"4","last_reported":1739477378,"current_range_meters":27600,"station_id":"ce4bgh92rcd13ifvqb40","pricing_plan_id":"cebpf4jnsgd1na2vs0mg"},{"bike_id":"90e60eba-ea5a-48b6-b611-b06e0ea8c53e","system_id":"levelo_inurba_marseille","lat":43.29432,"lon":5.38639,"is_reserved":false,"is_disabled":false,"rental_uris":{"android":"levelo://app?vid=90e60eba-ea5a-48b6-b611-b06e0ea8c53e","ios":"levelo://app?vid=90e60eba-ea5a-48b6-b611-b06e0ea8c53e"},"vehicle_type_id":"4","last_reported":1739477378,"current_range_meters":24400,"station_id":"ce4bh2h2rcd13ifvqdh0","pricing_plan_id":"cebpf4jnsgd1na2vs0mg"},{"bike_id":"eae6c8f6-f4e7-40f6-847d-7bb82337a26c","system_id":"levelo_inurba_marseille","lat":43.28376,"lon":5.38629,"is_reserved":false,"is_disabled":false,"rental_uris":{"android":"levelo://app?vid=eae6c8f6-f4e7-40f6-847d-7bb82337a26c","ios":"levelo://app?vid=eae6c8f6-f4e7-40f6-847d-7bb82337a26c"},"vehicle_type_id":"4","last_reported":1739477378,"current_range_meters":25200,"station_id":"ce4bh492rcd13ifvqdvg","pricing_plan_id":"cebpf4jnsgd1na2vs0mg"},{"bike_id":"e4d14330-222d-46d5-8f26-efec567da29c","system_id":"levelo_inurba_marseille","lat":43.2862,"lon":5.35102,"is_reserved":false,"is_disabled":false,"rental_uris":{"android":"levelo://app?vid=e4d14330-222d-46d5-8f26-efec567da29c","ios":"levelo://app?vid=e4d14330-222d-46d5-8f26-efec567da29c"},"vehicle_type_id":"4","last_reported":1739477378,"current_range_meters":38800,"station_id":"ce4bhch2rcd13ifvqeug","pricing_plan_id":"cebpf4jnsgd1na2vs0mg"},{"bike_id":"03f1ee11-be7f-45e6-a171-a893130e88b6","system_id":"levelo_inurba_marseille","lat":43.28995,"lon":5.35582,"is_reserved":false,"is_disabled":true,"rental_uris":{"android":"levelo://app?vid=03f1ee11-be7f-45e6-a171-a893130e88b6","ios":"levelo://app?vid=03f1ee11-be7f-45e6-a171-a893130e88b6"},"vehicle_type_id":"4","last_reported":1739477378,"current_range_meters":38400,"station_id":"ce4bhb92rcd13ifvqen0","pricing_plan_id":"cebpf4jnsgd1na2vs0mg"},{"bike_id":"704ec19d-e7c0-4858-a423-dcfa560220a5","system_id":"levelo_inurba_marseille","lat":43.23178,"lon":5.39978,"is_reserved":false,"is_disabled":false,"rental_uris":{"android":"levelo://app?vid=704ec19d-e7c0-4858-a423-dcfa560220a5","ios":"levelo://app?vid=704ec19d-e7c0-4858-a423-dcfa560220a5"},"vehicle_type_id":"4","last_reported":1739477378,"current_range_meters":36400,"station_id":"ce4bhn12rcd13ifvqgqg","pricing_plan_id":"cebpf4jnsgd1na2vs0mg"},{"bike_id":"963d1818-54ef-4c94-9549-c89138639ec0","system_id":"levelo_inurba_marseille","lat":43.29303,"lon":5.37456,"is_reserved":false,"is_disabled":false,"rental_uris":{"android":"levelo://app?vid=963d1818-54ef-4c94-9549-c89138639ec0","ios":"levelo://app?vid=963d1818-54ef-4c94-9549-c89138639ec0"},"vehicle_type_id":"4","last_reported":1739477378,"current_range_meters":37600,"station_id":"ce4bgi12rcd13ifvqb70","pricing_plan_id":"cebpf4jnsgd1na2vs0mg"},{"bike_id":"81e8b687-b7dc-4f3b-902f-34681737fb40","system_id":"levelo_inurba_marseille","lat":43.30099,"lon":5.39078,"is_reserved":false,"is_disabled":false,"rental_uris":{"android":"levelo://app?vid=81e8b687-b7dc-4f3b-902f-34681737fb40","ios":"levelo://app?vid=81e8b687-b7dc-4f3b-902f-34681737fb40"},"vehicle_type_id":"4","last_reported":1739477378,"current_range_meters":34000,"station_id":"ce4bh192rcd13ifvqdb0","pricing_plan_id":"cebpf4jnsgd1na2vs0mg"},{"bike_id":"ff7717a2-1bda-44f0-be3b-adcd8ec742a4","system_id":"levelo_inurba_marseille","lat":43.30099,"lon":5.39068,"is_reserved":false,"is_disabled":false,"rental_uris":{"android":"levelo://app?vid=ff7717a2-1bda-44f0-be3b-adcd8ec742a4","ios":"levelo://app?vid=ff7717a2-1bda-44f0-be3b-adcd8ec742a4"},"vehicle_type_id":"4","last_reported":1739477378,"current_range_meters":26000,"station_id":"ce4bh192rcd13ifvqdb0","pricing_plan_id":"cebpf4jnsgd1na2vs0mg"},{"bike_id":"9ffe0681-9ede-4d8e-8df5-acca9b5ea6d7","system_id":"levelo_inurba_marseille","lat":43.29253,"lon":5.40925,"is_reserved":false,"is_disabled":false,"rental_uris":{"android":"levelo://app?vid=9ffe0681-9ede-4d8e-8df5-acca9b5ea6d7","ios":"levelo://app?vid=9ffe0681-9ede-4d8e-8df5-acca9b5ea6d7"},"vehicle_type_id":"4","last_reported":1739477378,"current_range_meters":4000,"station_id":"ce4bh192rcd13ifvqdc0","pricing_plan_id":"cebpf4jnsgd1na2vs0mg"},{"bike_id":"6e79fee3-d43f-4b38-9347-60eb150ccde4","system_id":"levelo_inurba_marseille","lat":43.29292,"lon":5.37134,"is_reserved":false,"is_disabled":false,"rental_uris":{"android":"levelo://app?vid=6e79fee3-d43f-4b38-9347-60eb150ccde4","ios":"levelo://app?vid=6e79fee3-d43f-4b38-9347-60eb150ccde4"},"vehicle_type_id":"4","last_reported":1739477378,"current_range_meters":38400,"station_id":"ce4bgh92rcd13ifvqb40","pricing_plan_id":"cebpf4jnsgd1na2vs0mg"},{"bike_id":"9cf8e6d9-67b8-441b-8ab4-08ef8560d2b0","system_id":"levelo_inurba_marseille","lat":43.33523,"lon":5.35591,"is_reserved":false,"is_disabled":true,"rental_uris":{"android":"levelo://app?vid=9cf8e6d9-67b8-441b-8ab4-08ef8560d2b0","ios":"levelo://app?vid=9cf8e6d9-67b8-441b-8ab4-08ef8560d2b0"},"vehicle_type_id":"4","last_reported":1739477378,"current_range_meters":0,"station_id":"","pricing_plan_id":"cebpf4jnsgd1na2vs0mg"},{"bike_id":"7a3720dd-298c-4d87-91ef-5d83e7db7658","system_id":"levelo_inurba_marseille","lat":43.2409,"lon":5.3772,"is_reserved":false,"is_disabled":false,"rental_uris":{"android":"levelo://app?vid=7a3720dd-298c-4d87-91ef-5d83e7db7658","ios":"levelo://app?vid=7a3720dd-298c-4d87-91ef-5d83e7db7658"},"vehicle_type_id":"4","last_reported":1739477378,"current_range_meters":38800,"station_id":"ce4bhnp2rcd13ifvqgvg","pricing_plan_id":"cebpf4jnsgd1na2vs0mg"},{"bike_id":"6279f888-1d4b-4ebb-b3f2-c7248902b00f","system_id":"levelo_inurba_marseille","lat":43.25496,"lon":5.37663,"is_reserved":false,"is_disabled":false,"rental_uris":{"android":"levelo://app?vid=6279f888-1d4b-4ebb-b3f2-c7248902b00f","ios":"levelo://app?vid=6279f888-1d4b-4ebb-b3f2-c7248902b00f"},"vehicle_type_id":"4","last_reported":1739477378,"current_range_meters":22800,"station_id":"ce4bhh12rcd13ifvqff0","pricing_plan_id":"cebpf4jnsgd1na2vs0mg"},{"bike_id":"ca062c0b-1406-4c08-b3d0-53ce49abfdfd","system_id":"levelo_inurba_marseille","lat":43.29513,"lon":5.39408,"is_reserved":false,"is_disabled":false,"rental_uris":{"android":"levelo://app?vid=ca062c0b-1406-4c08-b3d0-53ce49abfdfd","ios":"levelo://app?vid=ca062c0b-1406-4c08-b3d0-53ce49abfdfd"},"vehicle_type_id":"4","last_reported":1739477378,"current_range_meters":12400,"station_id":"ce4bh292rcd13ifvqdf0","pricing_plan_id":"cebpf4jnsgd1na2vs0mg"},{"bike_id":"3dac6192-3123-4c95-afea-ba492f5c9f4e","system_id":"levelo_inurba_marseille","lat":43.32662,"lon":5.43094,"is_reserved":false,"is_disabled":false,"rental_uris":{"android":"levelo://app?vid=3dac6192-3123-4c95-afea-ba492f5c9f4e","ios":"levelo://app?vid=3dac6192-3123-4c95-afea-ba492f5c9f4e"},"vehicle_type_id":"4","last_reported":1739477378,"current_range_meters":32800,"station_id":"","pricing_plan_id":"cebpf4jnsgd1na2vs0mg"},{"bike_id":"5b9b5a44-1e98-41ef-9574-1c9eef02aeaa","system_id":"levelo_inurba_marseille","lat":43.31165,"lon":5.38712,"is_reserved":false,"is_disabled":false,"rental_uris":{"android":"levelo://app?vid=5b9b5a44-1e98-41ef-9574-1c9eef02aeaa","ios":"levelo://app?vid=5b9b5a44-1e98-41ef-9574-1c9eef02aeaa"},"vehicle_type_id":"4","last_reported":1739477378,"current_range_meters":19200,"station_id":"ce4bgv12rcd13ifvqcp0","pricing_plan_id":"cebpf4jnsgd1na2vs0mg"},{"bike_id":"e26e4d9a-d17a-4e05-a615-8cb1580b2ec8","system_id":"levelo_inurba_marseille","lat":43.25872,"lon":5.39906,"is_reserved":false,"is_disabled":false,"rental_uris":{"android":"levelo://app?vid=e26e4d9a-d17a-4e05-a615-8cb1580b2ec8","ios":"levelo://app?vid=e26e4d9a-d17a-4e05-a615-8cb1580b2ec8"},"vehicle_type_id":"4","last_reported":1739477378,"current_range_meters":38800,"station_id":"ce4bhl92rcd13ifvqghg","pricing_plan_id":"cebpf4jnsgd1na2vs0mg"},{"bike_id":"8734aaee-8988-4d2e-b685-82736b8a71bd","system_id":"levelo_inurba_marseille","lat":43.27418,"lon":5.39399,"is_reserved":false,"is_disabled":false,"rental_uris":{"android":"levelo://app?vid=8734aaee-8988-4d2e-b685-82736b8a71bd","ios":"levelo://app?vid=8734aaee-8988-4d2e-b685-82736b8a71bd"},"vehicle_type_id":"4","last_reported":1739477378,"current_range_meters":38800,"station_id":"ce4bhdp2rcd13ifvqf20","pricing_plan_id":"cebpf4jnsgd1na2vs0mg"},{"bike_id":"51ab7186-5043-4bed-baca-73708608a302","system_id":"levelo_inurba_marseille","lat":43.29584,"lon":5.37026,"is_reserved":false,"is_disabled":true,"rental_uris":{"android":"levelo://app?vid=51ab7186-5043-4bed-baca-73708608a302","ios":"levelo://app?vid=51ab7186-5043-4bed-baca-73708608a302"},"vehicle_type_id":"4","last_reported":1739477378,"current_range_meters":0,"station_id":"","pricing_plan_id":"cebpf4jnsgd1na2vs0mg"},{"bike_id":"dc9a1e75-86df-4b70-8a3f-447b72834fd9","system_id":"levelo_inurba_marseille","lat":43.29883,"lon":5.38887,"is_reserved":false,"is_disabled":false,"rental_uris":{"android":"levelo://app?vid=dc9a1e75-86df-4b70-8a3f-447b72834fd9","ios":"levelo://app?vid=dc9a1e75-86df-4b70-8a3f-447b72834fd9"},"vehicle_type_id":"4","last_reported":1739477378,"current_range_meters":26000,"station_id":"ce4bh392rcd13ifvqdl0","pricing_plan_id":"cebpf4jnsgd1na2vs0mg"},{"bike_id":"0a091e32-861c-4a90-ba8d-79373292393c","system_id":"levelo_inurba_marseille","lat":43.27625,"lon":5.36114,"is_reserved":false,"is_disabled":false,"rental_uris":{"android":"levelo://app?vid=0a091e32-861c-4a90-ba8d-79373292393c","ios":"levelo://app?vid=0a091e32-861c-4a90-ba8d-79373292393c"},"vehicle_type_id":"4","last_reported":1739477378,"current_range_meters":9600,"station_id":"ce4bgj92rcd13ifvqbe0","pricing_plan_id":"cebpf4jnsgd1na2vs0mg"},{"bike_id":"d3fc5f7e-9983-4343-a9af-f36df7d45f29","system_id":"levelo_inurba_marseille","lat":43.23188,"lon":5.3999,"is_reserved":false,"is_disabled":false,"rental_uris":{"android":"levelo://app?vid=d3fc5f7e-9983-4343-a9af-f36df7d45f29","ios":"levelo://app?vid=d3fc5f7e-9983-4343-a9af-f36df7d45f29"},"vehicle_type_id":"4","last_reported":1739477378,"current_range_meters":23200,"station_id":"ce4bhn12rcd13ifvqgqg","pricing_plan_id":"cebpf4jnsgd1na2vs0mg"},{"bike_id":"d01cfddf-7881-4b7c-815e-f570bddc475f","system_id":"levelo_inurba_marseille","lat":43.27951,"lon":5.4105,"is_reserved":false,"is_disabled":false,"rental_uris":{"android":"levelo://app?vid=d01cfddf-7881-4b7c-815e-f570bddc475f","ios":"levelo://app?vid=d01cfddf-7881-4b7c-815e-f570bddc475f"},"vehicle_type_id":"4","last_reported":1739477378,"current_range_meters":38800,"station_id":"ce4bhnp2rcd13ifvqh0g","pricing_plan_id":"cebpf4jnsgd1na2vs0mg"},{"bike_id":"fe598011-a5df-46fc-94f5-abd59a564f24","system_id":"levelo_inurba_marseille","lat":43.29248,"lon":5.38459,"is_reserved":false,"is_disabled":false,"rental_uris":{"android":"levelo://app?vid=fe598011-a5df-46fc-94f5-abd59a564f24","ios":"levelo://app?vid=fe598011-a5df-46fc-94f5-abd59a564f24"},"vehicle_type_id":"4","last_reported":1739477378,"current_range_meters":35200,"station_id":"ce4bh692rcd13ifvqea0","pricing_plan_id":"cebpf4jnsgd1na2vs0mg"},{"bike_id":"7df97dc6-da55-4df4-9512-757ff39264dd","system_id":"levelo_inurba_marseille","lat":43.28934,"lon":5.36625,"is_reserved":false,"is_disabled":false,"rental_uris":{"android":"levelo://app?vid=7df97dc6-da55-4df4-9512-757ff39264dd","ios":"levelo://app?vid=7df97dc6-da55-4df4-9512-757ff39264dd"},"vehicle_type_id":"4","last_reported":1739477378,"current_range_meters":25200,"station_id":"ce4bhap2rcd13ifvqek0","pricing_plan_id":"cebpf4jnsgd1na2vs0mg"},{"bike_id":"acd44aaf-4b8d-47bb-ac6d-caa2fb83484e","system_id":"levelo_inurba_marseille","lat":43.29522,"lon":5.39077,"is_reserved":false,"is_disabled":false,"rental_uris":{"android":"levelo://app?vid=acd44aaf-4b8d-47bb-ac6d-caa2fb83484e","ios":"levelo://app?vid=acd44aaf-4b8d-47bb-ac6d-caa2fb83484e"},"vehicle_type_id":"4","last_reported":1739477378,"current_range_meters":39200,"station_id":"ce4bh3p2rcd13ifvqdp0","pricing_plan_id":"cebpf4jnsgd1na2vs0mg"},{"bike_id":"c40e2cb9-b89c-4dbd-956b-535ef79f1d37","system_id":"levelo_inurba_marseille","lat":43.24801,"lon":5.37454,"is_reserved":false,"is_disabled":false,"rental_uris":{"android":"levelo://app?vid=c40e2cb9-b89c-4dbd-956b-535ef79f1d37","ios":"levelo://app?vid=c40e2cb9-b89c-4dbd-956b-535ef79f1d37"},"vehicle_type_id":"4","last_reported":1739477378,"current_range_meters":22800,"station_id":"ce4bhgh2rcd13ifvqfb0","pricing_plan_id":"cebpf4jnsgd1na2vs0mg"},{"bike_id":"7cd0daa1-55ff-4122-a5aa-b2ad843b72ea","system_id":"levelo_inurba_marseille","lat":43.28096,"lon":5.39847,"is_reserved":false,"is_disabled":false,"rental_uris":{"android":"levelo://app?vid=7cd0daa1-55ff-4122-a5aa-b2ad843b72ea","ios":"levelo://app?vid=7cd0daa1-55ff-4122-a5aa-b2ad843b72ea"},"vehicle_type_id":"4","last_reported":1739477378,"current_range_meters":10000,"station_id":"","pricing_plan_id":"cebpf4jnsgd1na2vs0mg"},{"bike_id":"1e59cb05-2d52-485f-ae25-4ce5b8e37d13","system_id":"levelo_inurba_marseille","lat":43.23183,"lon":5.39983,"is_reserved":false,"is_disabled":false,"rental_uris":{"android":"levelo://app?vid=1e59cb05-2d52-485f-ae25-4ce5b8e37d13","ios":"levelo://app?vid=1e59cb05-2d52-485f-ae25-4ce5b8e37d13"},"vehicle_type_id":"4","last_reported":1739477378,"current_range_meters":7200,"station_id":"ce4bhn12rcd13ifvqgqg","pricing_plan_id":"cebpf4jnsgd1na2vs0mg"},{"bike_id":"d94ad0a4-4209-47fc-bb1e-86a94e106366","system_id":"levelo_inurba_marseille","lat":43.28854,"lon":5.35857,"is_reserved":false,"is_disabled":false,"rental_uris":{"android":"levelo://app?vid=d94ad0a4-4209-47fc-bb1e-86a94e106366","ios":"levelo://app?vid=d94ad0a4-4209-47fc-bb1e-86a94e106366"},"vehicle_type_id":"4","last_reported":1739477378,"current_range_meters":10800,"station_id":"ce4bhb12rcd13ifvqem0","pricing_plan_id":"cebpf4jnsgd1na2vs0mg"},{"bike_id":"ee079ffa-4416-4a91-bc98-3bd665acea3b","system_id":"levelo_inurba_marseille","lat":43.337318,"lon":5.391875,"is_reserved":false,"is_disabled":false,"rental_uris":{"android":"levelo://app?vid=ee079ffa-4416-4a91-bc98-3bd665acea3b","ios":"levelo://app?vid=ee079ffa-4416-4a91-bc98-3bd665acea3b"},"vehicle_type_id":"4","last_reported":1739477378,"current_range_meters":38800,"station_id":"ce4bhr92rcd13ifvqhsg","pricing_plan_id":"cebpf4jnsgd1na2vs0mg"},{"bike_id":"1fa82dc6-47d4-4356-bbca-393bf4461726","system_id":"levelo_inurba_marseille","lat":43.23953,"lon":5.36654,"is_reserved":false,"is_disabled":false,"rental_uris":{"android":"levelo://app?vid=1fa82dc6-47d4-4356-bbca-393bf4461726","ios":"levelo://app?vid=1fa82dc6-47d4-4356-bbca-393bf4461726"},"vehicle_type_id":"4","last_reported":1739477378,"current_range_meters":38400,"station_id":"ce4bhi12rcd13ifvqfp0","pricing_plan_id":"cebpf4jnsgd1na2vs0mg"},{"bike_id":"eafbb86e-0095-46c0-a2c6-0835e69f8ed6","system_id":"levelo_inurba_marseille","lat":43.30754,"lon":5.37435,"is_reserved":false,"is_disabled":false,"rental_uris":{"android":"levelo://app?vid=eafbb86e-0095-46c0-a2c6-0835e69f8ed6","ios":"levelo://app?vid=eafbb86e-0095-46c0-a2c6-0835e69f8ed6"},"vehicle_type_id":"4","last_reported":1739477378,"current_range_meters":4400,"station_id":"","pricing_plan_id":"cebpf4jnsgd1na2vs0mg"},{"bike_id":"55851924-ebf6-45cb-af08-d48cd614ee56","system_id":"levelo_inurba_marseille","lat":43.2782,"lon":5.40721,"is_reserved":false,"is_disabled":false,"rental_uris":{"android":"levelo://app?vid=55851924-ebf6-45cb-af08-d48cd614ee56","ios":"levelo://app?vid=55851924-ebf6-45cb-af08-d48cd614ee56"},"vehicle_type_id":"4","last_reported":1739477378,"current_range_meters":38800,"station_id":"ce4bhnh2rcd13ifvqgtg","pricing_plan_id":"cebpf4jnsgd1na2vs0mg"},{"bike_id":"9638b1de-6e65-4723-820d-87a0cd11082b","system_id":"levelo_inurba_marseille","lat":43.29983,"lon":5.38512,"is_reserved":false,"is_disabled":true,"rental_uris":{"android":"levelo://app?vid=9638b1de-6e65-4723-820d-87a0cd11082b","ios":"levelo://app?vid=9638b1de-6e65-4723-820d-87a0cd11082b"},"vehicle_type_id":"4","last_reported":1739477378,"current_range_meters":38000,"station_id":"ce4bgj92rcd13ifvqbd0","pricing_plan_id":"cebpf4jnsgd1na2vs0mg"},{"bike_id":"0ad48c9a-7426-4177-a641-db454b5cad67","system_id":"levelo_inurba_marseille","lat":43.23185,"lon":5.39982,"is_reserved":false,"is_disabled":false,"rental_uris":{"android":"levelo://app?vid=0ad48c9a-7426-4177-a641-db454b5cad67","ios":"levelo://app?vid=0ad48c9a-7426-4177-a641-db454b5cad67"},"vehicle_type_id":"4","last_reported":1739477378,"current_range_meters":30000,"station_id":"ce4bhn12rcd13ifvqgqg","pricing_plan_id":"cebpf4jnsgd1na2vs0mg"},{"bike_id":"2a4b9998-a405-4a0e-9257-7329c18e12ae","system_id":"levelo_inurba_marseille","lat":43.24077,"lon":5.37766,"is_reserved":false,"is_disabled":false,"rental_uris":{"android":"levelo://app?vid=2a4b9998-a405-4a0e-9257-7329c18e12ae","ios":"levelo://app?vid=2a4b9998-a405-4a0e-9257-7329c18e12ae"},"vehicle_type_id":"4","last_reported":1739477378,"current_range_meters":18800,"station_id":"ce4bhnp2rcd13ifvqgvg","pricing_plan_id":"cebpf4jnsgd1na2vs0mg"},{"bike_id":"896ec56b-5525-4094-9b48-4e6034904017","system_id":"levelo_inurba_marseille","lat":43.30886,"lon":5.3963,"is_reserved":false,"is_disabled":false,"rental_uris":{"android":"levelo://app?vid=896ec56b-5525-4094-9b48-4e6034904017","ios":"levelo://app?vid=896ec56b-5525-4094-9b48-4e6034904017"},"vehicle_type_id":"4","last_reported":1739477378,"current_range_meters":36800,"station_id":"ce4bh012rcd13ifvqcv0","pricing_plan_id":"cebpf4jnsgd1na2vs0mg"},{"bike_id":"03706abf-dd23-4ac0-89ff-63091fc84b83","system_id":"levelo_inurba_marseille","lat":43.28699,"lon":5.3866,"is_reserved":false,"is_disabled":false,"rental_uris":{"android":"levelo://app?vid=03706abf-dd23-4ac0-89ff-63091fc84b83","ios":"levelo://app?vid=03706abf-dd23-4ac0-89ff-63091fc84b83"},"vehicle_type_id":"4","last_reported":1739477378,"current_range_meters":32400,"station_id":"ce4bh492rcd13ifvqdug","pricing_plan_id":"cebpf4jnsgd1na2vs0mg"},{"bike_id":"b2c2d795-8fcd-4b62-8101-8fe31e15144e","system_id":"levelo_inurba_marseille","lat":43.29923,"lon":5.36523,"is_reserved":false,"is_disabled":false,"rental_uris":{"android":"levelo://app?vid=b2c2d795-8fcd-4b62-8101-8fe31e15144e","ios":"levelo://app?vid=b2c2d795-8fcd-4b62-8101-8fe31e15144e"},"vehicle_type_id":"4","last_reported":1739477378,"current_range_meters":16800,"station_id":"ce4bgm92rcd13ifvqbr0","pricing_plan_id":"cebpf4jnsgd1na2vs0mg"},{"bike_id":"a3c1a4ab-82f6-4315-9ed6-5bac6bafe89a","system_id":"levelo_inurba_marseille","lat":43.28728,"lon":5.36097,"is_reserved":false,"is_disabled":false,"rental_uris":{"android":"levelo://app?vid=a3c1a4ab-82f6-4315-9ed6-5bac6bafe89a","ios":"levelo://app?vid=a3c1a4ab-82f6-4315-9ed6-5bac6bafe89a"},"vehicle_type_id":"4","last_reported":1739477378,"current_range_meters":22000,"station_id":"cki0cbj6b192h4jlfktg","pricing_plan_id":"cebpf4jnsgd1na2vs0mg"},{"bike_id":"3f0d5a9b-ed4b-4d06-952e-029576553500","system_id":"levelo_inurba_marseille","lat":43.26062,"lon":5.39395,"is_reserved":false,"is_disabled":false,"rental_uris":{"android":"levelo://app?vid=3f0d5a9b-ed4b-4d06-952e-029576553500","ios":"levelo://app?vid=3f0d5a9b-ed4b-4d06-952e-029576553500"},"vehicle_type_id":"4","last_reported":1739477378,"current_range_meters":24000,"station_id":"ce4bhh92rcd13ifvqfj0","pricing_plan_id":"cebpf4jnsgd1na2vs0mg"},{"bike_id":"0f2de5cd-c636-4001-ab39-c26b347a3fee","system_id":"levelo_inurba_marseille","lat":43.26064,"lon":5.39387,"is_reserved":false,"is_disabled":false,"rental_uris":{"android":"levelo://app?vid=0f2de5cd-c636-4001-ab39-c26b347a3fee","ios":"levelo://app?vid=0f2de5cd-c636-4001-ab39-c26b347a3fee"},"vehicle_type_id":"4","last_reported":1739477378,"current_range_meters":35200,"station_id":"ce4bhh92rcd13ifvqfj0","pricing_plan_id":"cebpf4jnsgd1na2vs0mg"},{"bike_id":"64c6b46b-656d-4ea4-b38b-769c889a07b3","system_id":"levelo_inurba_marseille","lat":43.26562,"lon":5.39015,"is_reserved":false,"is_disabled":false,"rental_uris":{"android":"levelo://app?vid=64c6b46b-656d-4ea4-b38b-769c889a07b3","ios":"levelo://app?vid=64c6b46b-656d-4ea4-b38b-769c889a07b3"},"vehicle_type_id":"4","last_reported":1739477378,"current_range_meters":38800,"station_id":"ce4bhe12rcd13ifvqf30","pricing_plan_id":"cebpf4jnsgd1na2vs0mg"},{"bike_id":"7b930d1d-1ab9-4f0c-b58a-b09e1c772917","system_id":"levelo_inurba_marseille","lat":43.30176,"lon":5.36607,"is_reserved":false,"is_disabled":false,"rental_uris":{"android":"levelo://app?vid=7b930d1d-1ab9-4f0c-b58a-b09e1c772917","ios":"levelo://app?vid=7b930d1d-1ab9-4f0c-b58a-b09e1c772917"},"vehicle_type_id":"4","last_reported":1739477378,"current_range_meters":5600,"station_id":"ce4bgrh2rcd13ifvqc8g","pricing_plan_id":"cebpf4jnsgd1na2vs0mg"},{"bike_id":"39aaa5d4-2a53-47c2-883c-03455c231e64","system_id":"levelo_inurba_marseille","lat":43.28735,"lon":5.36091,"is_reserved":false,"is_disabled":false,"rental_uris":{"android":"levelo://app?vid=39aaa5d4-2a53-47c2-883c-03455c231e64","ios":"levelo://app?vid=39aaa5d4-2a53-47c2-883c-03455c231e64"},"vehicle_type_id":"4","last_reported":1739477378,"current_range_meters":36000,"station_id":"cki0cbj6b192h4jlfktg","pricing_plan_id":"cebpf4jnsgd1na2vs0mg"},{"bike_id":"7714cb08-627e-432d-9887-5f5185c10638","system_id":"levelo_inurba_marseille","lat":43.31688,"lon":5.40474,"is_reserved":false,"is_disabled":false,"rental_uris":{"android":"levelo://app?vid=7714cb08-627e-432d-9887-5f5185c10638","ios":"levelo://app?vid=7714cb08-627e-432d-9887-5f5185c10638"},"vehicle_type_id":"4","last_reported":1739477378,"current_range_meters":38800,"station_id":"ce4bh012rcd13ifvqd00","pricing_plan_id":"cebpf4jnsgd1na2vs0mg"},{"bike_id":"6edc9f1f-8d45-4c93-9056-106322591863","system_id":"levelo_inurba_marseille","lat":43.2857,"lon":5.39492,"is_reserved":false,"is_disabled":false,"rental_uris":{"android":"levelo://app?vid=6edc9f1f-8d45-4c93-9056-106322591863","ios":"levelo://app?vid=6edc9f1f-8d45-4c93-9056-106322591863"},"vehicle_type_id":"4","last_reported":1739477378,"current_range_meters":28000,"station_id":"ce4bh292rcd13ifvqdg0","pricing_plan_id":"cebpf4jnsgd1na2vs0mg"},{"bike_id":"85299ea2-1a1b-41d4-8ee9-43325dd8e003","system_id":"levelo_inurba_marseille","lat":43.2922,"lon":5.36068,"is_reserved":false,"is_disabled":false,"rental_uris":{"android":"levelo://app?vid=85299ea2-1a1b-41d4-8ee9-43325dd8e003","ios":"levelo://app?vid=85299ea2-1a1b-41d4-8ee9-43325dd8e003"},"vehicle_type_id":"4","last_reported":1739477378,"current_range_meters":38800,"station_id":"ce4bhbh2rcd13ifvqeqg","pricing_plan_id":"cebpf4jnsgd1na2vs0mg"},{"bike_id":"08a86ebb-b290-4f14-9520-6a5a716f26bd","system_id":"levelo_inurba_marseille","lat":43.2396,"lon":5.36629,"is_reserved":false,"is_disabled":false,"rental_uris":{"android":"levelo://app?vid=08a86ebb-b290-4f14-9520-6a5a716f26bd","ios":"levelo://app?vid=08a86ebb-b290-4f14-9520-6a5a716f26bd"},"vehicle_type_id":"4","last_reported":1739477378,"current_range_meters":38400,"station_id":"ce4bhi12rcd13ifvqfp0","pricing_plan_id":"cebpf4jnsgd1na2vs0mg"},{"bike_id":"3f256d00-faa3-4407-b889-a8a81fa1603d","system_id":"levelo_inurba_marseille","lat":43.29897,"lon":5.3814,"is_reserved":false,"is_disabled":false,"rental_uris":{"android":"levelo://app?vid=3f256d00-faa3-4407-b889-a8a81fa1603d","ios":"levelo://app?vid=3f256d00-faa3-4407-b889-a8a81fa1603d"},"vehicle_type_id":"4","last_reported":1739477378,"current_range_meters":28800,"station_id":"ce4bgj12rcd13ifvqbc0","pricing_plan_id":"cebpf4jnsgd1na2vs0mg"},{"bike_id":"80897a2a-2a00-41fb-b479-a38b46796bd7","system_id":"levelo_inurba_marseille","lat":43.3041,"lon":5.37819,"is_reserved":false,"is_disabled":true,"rental_uris":{"android":"levelo://app?vid=80897a2a-2a00-41fb-b479-a38b46796bd7","ios":"levelo://app?vid=80897a2a-2a00-41fb-b479-a38b46796bd7"},"vehicle_type_id":"4","last_reported":1739477378,"current_range_meters":0,"station_id":"","pricing_plan_id":"cebpf4jnsgd1na2vs0mg"},{"bike_id":"b0e41783-fdea-44bc-8bdb-e91e16025fcd","system_id":"levelo_inurba_marseille","lat":43.28977,"lon":5.38636,"is_reserved":false,"is_disabled":false,"rental_uris":{"android":"levelo://app?vid=b0e41783-fdea-44bc-8bdb-e91e16025fcd","ios":"levelo://app?vid=b0e41783-fdea-44bc-8bdb-e91e16025fcd"},"vehicle_type_id":"4","last_reported":1739477378,"current_range_meters":4800,"station_id":"ce4bh4p2rcd13ifvqe0g","pricing_plan_id":"cebpf4jnsgd1na2vs0mg"},{"bike_id":"23849fcd-4bc4-44f6-8337-e9a9a16fe0e7","system_id":"levelo_inurba_marseille","lat":43.29753,"lon":5.47938,"is_reserved":false,"is_disabled":false,"rental_uris":{"android":"levelo://app?vid=23849fcd-4bc4-44f6-8337-e9a9a16fe0e7","ios":"levelo://app?vid=23849fcd-4bc4-44f6-8337-e9a9a16fe0e7"},"vehicle_type_id":"4","last_reported":1739477378,"current_range_meters":7200,"station_id":"","pricing_plan_id":"cebpf4jnsgd1na2vs0mg"},{"bike_id":"fe02ae05-699c-4f05-a53d-04396c4b1391","system_id":"levelo_inurba_marseille","lat":43.29421,"lon":5.38622,"is_reserved":false,"is_disabled":false,"rental_uris":{"android":"levelo://app?vid=fe02ae05-699c-4f05-a53d-04396c4b1391","ios":"levelo://app?vid=fe02ae05-699c-4f05-a53d-04396c4b1391"},"vehicle_type_id":"4","last_reported":1739477378,"current_range_meters":38800,"station_id":"ce4bh2h2rcd13ifvqdh0","pricing_plan_id":"cebpf4jnsgd1na2vs0mg"},{"bike_id":"c1af073b-dd9a-4a77-ac16-33944535d631","system_id":"levelo_inurba_marseille","lat":43.2893,"lon":5.36644,"is_reserved":false,"is_disabled":false,"rental_uris":{"android":"levelo://app?vid=c1af073b-dd9a-4a77-ac16-33944535d631","ios":"levelo://app?vid=c1af073b-dd9a-4a77-ac16-33944535d631"},"vehicle_type_id":"4","last_reported":1739477378,"current_range_meters":14000,"station_id":"ce4bhap2rcd13ifvqek0","pricing_plan_id":"cebpf4jnsgd1na2vs0mg"},{"bike_id":"9e1b4f1a-9453-4547-8dc5-ef181d8eb72c","system_id":"levelo_inurba_marseille","lat":43.2957,"lon":5.37499,"is_reserved":false,"is_disabled":false,"rental_uris":{"android":"levelo://app?vid=9e1b4f1a-9453-4547-8dc5-ef181d8eb72c","ios":"levelo://app?vid=9e1b4f1a-9453-4547-8dc5-ef181d8eb72c"},"vehicle_type_id":"4","last_reported":1739477378,"current_range_meters":27600,"station_id":"ce4bgh92rcd13ifvqb50","pricing_plan_id":"cebpf4jnsgd1na2vs0mg"},{"bike_id":"64e4c6d4-ad3f-47bc-897a-dfd70884592f","system_id":"levelo_inurba_marseille","lat":43.31685,"lon":5.40469,"is_reserved":false,"is_disabled":false,"rental_uris":{"android":"levelo://app?vid=64e4c6d4-ad3f-47bc-897a-dfd70884592f","ios":"levelo://app?vid=64e4c6d4-ad3f-47bc-897a-dfd70884592f"},"vehicle_type_id":"4","last_reported":1739477378,"current_range_meters":31200,"station_id":"ce4bh012rcd13ifvqd00","pricing_plan_id":"cebpf4jnsgd1na2vs0mg"},{"bike_id":"b89af336-4ce3-4543-b60c-2e08a3e07554","system_id":"levelo_inurba_marseille","lat":43.30324,"lon":5.40442,"is_reserved":false,"is_disabled":false,"rental_uris":{"android":"levelo://app?vid=b89af336-4ce3-4543-b60c-2e08a3e07554","ios":"levelo://app?vid=b89af336-4ce3-4543-b60c-2e08a3e07554"},"vehicle_type_id":"4","last_reported":1739477378,"current_range_meters":38000,"station_id":"ce4bh012rcd13ifvqd10","pricing_plan_id":"cebpf4jnsgd1na2vs0mg"},{"bike_id":"1f84712b-5242-428d-8c9a-77198073a7b1","system_id":"levelo_inurba_marseille","lat":43.288483,"lon":5.358553,"is_reserved":false,"is_disabled":false,"rental_uris":{"android":"levelo://app?vid=1f84712b-5242-428d-8c9a-77198073a7b1","ios":"levelo://app?vid=1f84712b-5242-428d-8c9a-77198073a7b1"},"vehicle_type_id":"4","last_reported":1739477378,"current_range_meters":20800,"station_id":"ce4bhb12rcd13ifvqem0","pricing_plan_id":"cebpf4jnsgd1na2vs0mg"},{"bike_id":"6cfbf51a-4ec4-4b50-afa2-a58eb7355bc4","system_id":"levelo_inurba_marseille","lat":43.32719,"lon":5.39175,"is_reserved":false,"is_disabled":false,"rental_uris":{"android":"levelo://app?vid=6cfbf51a-4ec4-4b50-afa2-a58eb7355bc4","ios":"levelo://app?vid=6cfbf51a-4ec4-4b50-afa2-a58eb7355bc4"},"vehicle_type_id":"4","last_reported":1739477378,"current_range_meters":26000,"station_id":"","pricing_plan_id":"cebpf4jnsgd1na2vs0mg"},{"bike_id":"2ffed822-7174-41f8-ad36-b592fa66c5a6","system_id":"levelo_inurba_marseille","lat":43.2306,"lon":5.35492,"is_reserved":false,"is_disabled":false,"rental_uris":{"android":"levelo://app?vid=2ffed822-7174-41f8-ad36-b592fa66c5a6","ios":"levelo://app?vid=2ffed822-7174-41f8-ad36-b592fa66c5a6"},"vehicle_type_id":"4","last_reported":1739477378,"current_range_meters":8000,"station_id":"cpo3342slgdg3j2ifvpg","pricing_plan_id":"cebpf4jnsgd1na2vs0mg"},{"bike_id":"09a26d4e-e987-420b-833a-e775f5ca23fd","system_id":"levelo_inurba_marseille","lat":43.24183,"lon":5.397279,"is_reserved":false,"is_disabled":false,"rental_uris":{"android":"levelo://app?vid=09a26d4e-e987-420b-833a-e775f5ca23fd","ios":"levelo://app?vid=09a26d4e-e987-420b-833a-e775f5ca23fd"},"vehicle_type_id":"4","last_reported":1739477378,"current_range_meters":16000,"station_id":"ce4bhn12rcd13ifvqgpg","pricing_plan_id":"cebpf4jnsgd1na2vs0mg"},{"bike_id":"90069231-8d02-46fd-ba3f-d8e7e83900ee","system_id":"levelo_inurba_marseille","lat":43.28844,"lon":5.43815,"is_reserved":false,"is_disabled":true,"rental_uris":{"android":"levelo://app?vid=90069231-8d02-46fd-ba3f-d8e7e83900ee","ios":"levelo://app?vid=90069231-8d02-46fd-ba3f-d8e7e83900ee"},"vehicle_type_id":"4","last_reported":1739477378,"current_range_meters":0,"station_id":"","pricing_plan_id":"cebpf4jnsgd1na2vs0mg"},{"bike_id":"9d249881-5a15-4231-8a5b-9e0b021f19d2","system_id":"levelo_inurba_marseille","lat":43.27999,"lon":5.38688,"is_reserved":false,"is_disabled":true,"rental_uris":{"android":"levelo://app?vid=9d249881-5a15-4231-8a5b-9e0b021f19d2","ios":"levelo://app?vid=9d249881-5a15-4231-8a5b-9e0b021f19d2"},"vehicle_type_id":"4","last_reported":1739477378,"current_range_meters":34800,"station_id":"","pricing_plan_id":"cebpf4jnsgd1na2vs0mg"},{"bike_id":"39b5acfc-db38-41ce-852a-dfee02f154c0","system_id":"levelo_inurba_marseille","lat":43.31535,"lon":5.38033,"is_reserved":false,"is_disabled":false,"rental_uris":{"android":"levelo://app?vid=39b5acfc-db38-41ce-852a-dfee02f154c0","ios":"levelo://app?vid=39b5acfc-db38-41ce-852a-dfee02f154c0"},"vehicle_type_id":"4","last_reported":1739477378,"current_range_meters":4800,"station_id":"ce4bhsp2rcd13ifvqi50","pricing_plan_id":"cebpf4jnsgd1na2vs0mg"},{"bike_id":"8e20fbe5-7b46-43c2-bd63-dae2a38a6b37","system_id":"levelo_inurba_marseille","lat":43.29583,"lon":5.37516,"is_reserved":false,"is_disabled":false,"rental_uris":{"android":"levelo://app?vid=8e20fbe5-7b46-43c2-bd63-dae2a38a6b37","ios":"levelo://app?vid=8e20fbe5-7b46-43c2-bd63-dae2a38a6b37"},"vehicle_type_id":"4","last_reported":1739477378,"current_range_meters":11600,"station_id":"ce4bgh92rcd13ifvqb50","pricing_plan_id":"cebpf4jnsgd1na2vs0mg"},{"bike_id":"73b42648-e404-4494-8b3b-894459ae94cd","system_id":"levelo_inurba_marseille","lat":43.2926,"lon":5.38446,"is_reserved":false,"is_disabled":false,"rental_uris":{"android":"levelo://app?vid=73b42648-e404-4494-8b3b-894459ae94cd","ios":"levelo://app?vid=73b42648-e404-4494-8b3b-894459ae94cd"},"vehicle_type_id":"4","last_reported":1739477378,"current_range_meters":12800,"station_id":"ce4bh692rcd13ifvqea0","pricing_plan_id":"cebpf4jnsgd1na2vs0mg"},{"bike_id":"722c03d4-5f09-4a1d-bb2e-829c66405a32","system_id":"levelo_inurba_marseille","lat":43.27916,"lon":5.39563,"is_reserved":false,"is_disabled":true,"rental_uris":{"android":"levelo://app?vid=722c03d4-5f09-4a1d-bb2e-829c66405a32","ios":"levelo://app?vid=722c03d4-5f09-4a1d-bb2e-829c66405a32"},"vehicle_type_id":"4","last_reported":1739477378,"current_range_meters":38000,"station_id":"ce4bhf92rcd13ifvqf40","pricing_plan_id":"cebpf4jnsgd1na2vs0mg"},{"bike_id":"fb122c6a-b6dc-4889-9238-d4d98b0fc80a","system_id":"levelo_inurba_marseille","lat":43.29618,"lon":5.37172,"is_reserved":false,"is_disabled":false,"rental_uris":{"android":"levelo://app?vid=fb122c6a-b6dc-4889-9238-d4d98b0fc80a","ios":"levelo://app?vid=fb122c6a-b6dc-4889-9238-d4d98b0fc80a"},"vehicle_type_id":"4","last_reported":1739477378,"current_range_meters":38800,"station_id":"ce4bgnh2rcd13ifvqc0g","pricing_plan_id":"cebpf4jnsgd1na2vs0mg"},{"bike_id":"76c1b6f4-a8f2-41c4-a5d3-46affc7e3b84","system_id":"levelo_inurba_marseille","lat":43.28629,"lon":5.35091,"is_reserved":false,"is_disabled":false,"rental_uris":{"android":"levelo://app?vid=76c1b6f4-a8f2-41c4-a5d3-46affc7e3b84","ios":"levelo://app?vid=76c1b6f4-a8f2-41c4-a5d3-46affc7e3b84"},"vehicle_type_id":"4","last_reported":1739477378,"current_range_meters":20400,"station_id":"ce4bhch2rcd13ifvqeug","pricing_plan_id":"cebpf4jnsgd1na2vs0mg"},{"bike_id":"5ca4e660-d1e6-4665-9472-03e7715d8278","system_id":"levelo_inurba_marseille","lat":43.28132,"lon":5.42659,"is_reserved":false,"is_disabled":false,"rental_uris":{"android":"levelo://app?vid=5ca4e660-d1e6-4665-9472-03e7715d8278","ios":"levelo://app?vid=5ca4e660-d1e6-4665-9472-03e7715d8278"},"vehicle_type_id":"4","last_reported":1739477378,"current_range_meters":38800,"station_id":"ce4bhnh2rcd13ifvqgug","pricing_plan_id":"cebpf4jnsgd1na2vs0mg"},{"bike_id":"f502111f-7748-48e8-918b-58ab12805627","system_id":"levelo_inurba_marseille","lat":43.27947,"lon":5.41043,"is_reserved":false,"is_disabled":false,"rental_uris":{"android":"levelo://app?vid=f502111f-7748-48e8-918b-58ab12805627","ios":"levelo://app?vid=f502111f-7748-48e8-918b-58ab12805627"},"vehicle_type_id":"4","last_reported":1739477378,"current_range_meters":38800,"station_id":"ce4bhnp2rcd13ifvqh0g","pricing_plan_id":"cebpf4jnsgd1na2vs0mg"},{"bike_id":"5e174c38-593c-4c54-8a50-8ce84af0465c","system_id":"levelo_inurba_marseille","lat":43.24806,"lon":5.37453,"is_reserved":false,"is_disabled":false,"rental_uris":{"android":"levelo://app?vid=5e174c38-593c-4c54-8a50-8ce84af0465c","ios":"levelo://app?vid=5e174c38-593c-4c54-8a50-8ce84af0465c"},"vehicle_type_id":"4","last_reported":1739477378,"current_range_meters":38400,"station_id":"ce4bhgh2rcd13ifvqfb0","pricing_plan_id":"cebpf4jnsgd1na2vs0mg"},{"bike_id":"4905e5df-d72b-4022-9334-58bc01823618","system_id":"levelo_inurba_marseille","lat":43.24812,"lon":5.37458,"is_reserved":false,"is_disabled":false,"rental_uris":{"android":"levelo://app?vid=4905e5df-d72b-4022-9334-58bc01823618","ios":"levelo://app?vid=4905e5df-d72b-4022-9334-58bc01823618"},"vehicle_type_id":"4","last_reported":1739477378,"current_range_meters":36000,"station_id":"ce4bhgh2rcd13ifvqfb0","pricing_plan_id":"cebpf4jnsgd1na2vs0mg"},{"bike_id":"3ea65334-425f-4a48-b99c-a619debf2ad5","system_id":"levelo_inurba_marseille","lat":43.29902,"lon":5.43662,"is_reserved":false,"is_disabled":false,"rental_uris":{"android":"levelo://app?vid=3ea65334-425f-4a48-b99c-a619debf2ad5","ios":"levelo://app?vid=3ea65334-425f-4a48-b99c-a619debf2ad5"},"vehicle_type_id":"4","last_reported":1739477378,"current_range_meters":38000,"station_id":"ce4bhpp2rcd13ifvqhfg","pricing_plan_id":"cebpf4jnsgd1na2vs0mg"},{"bike_id":"60b4b24c-997c-42e2-b2f9-ef7d673c1e51","system_id":"levelo_inurba_marseille","lat":43.2845,"lon":5.35882,"is_reserved":false,"is_disabled":false,"rental_uris":{"android":"levelo://app?vid=60b4b24c-997c-42e2-b2f9-ef7d673c1e51","ios":"levelo://app?vid=60b4b24c-997c-42e2-b2f9-ef7d673c1e51"},"vehicle_type_id":"4","last_reported":1739477378,"current_range_meters":27600,"station_id":"ce4bhah2rcd13ifvqei0","pricing_plan_id":"cebpf4jnsgd1na2vs0mg"},{"bike_id":"cc4c71a9-7dc9-4678-96be-85485a3a6ee4","system_id":"levelo_inurba_marseille","lat":43.29202,"lon":5.393188,"is_reserved":false,"is_disabled":false,"rental_uris":{"android":"levelo://app?vid=cc4c71a9-7dc9-4678-96be-85485a3a6ee4","ios":"levelo://app?vid=cc4c71a9-7dc9-4678-96be-85485a3a6ee4"},"vehicle_type_id":"4","last_reported":1739477378,"current_range_meters":38400,"station_id":"ce4bh192rcd13ifvqdd0","pricing_plan_id":"cebpf4jnsgd1na2vs0mg"},{"bike_id":"34e125e7-8163-4fa7-8a27-5638fff8471f","system_id":"levelo_inurba_marseille","lat":43.30313,"lon":5.39211,"is_reserved":false,"is_disabled":false,"rental_uris":{"android":"levelo://app?vid=34e125e7-8163-4fa7-8a27-5638fff8471f","ios":"levelo://app?vid=34e125e7-8163-4fa7-8a27-5638fff8471f"},"vehicle_type_id":"4","last_reported":1739477378,"current_range_meters":34000,"station_id":"ce4bgkh2rcd13ifvqbk0","pricing_plan_id":"cebpf4jnsgd1na2vs0mg"},{"bike_id":"41abf10c-ba4e-478e-8bb2-4fecadace466","system_id":"levelo_inurba_marseille","lat":43.3112,"lon":5.37769,"is_reserved":false,"is_disabled":false,"rental_uris":{"android":"levelo://app?vid=41abf10c-ba4e-478e-8bb2-4fecadace466","ios":"levelo://app?vid=41abf10c-ba4e-478e-8bb2-4fecadace466"},"vehicle_type_id":"4","last_reported":1739477378,"current_range_meters":8800,"station_id":"ce4bgt92rcd13ifvqcg0","pricing_plan_id":"cebpf4jnsgd1na2vs0mg"},{"bike_id":"4d77db09-905c-49b4-96d1-a6c7bd4303b6","system_id":"levelo_inurba_marseille","lat":43.27378,"lon":5.36253,"is_reserved":false,"is_disabled":false,"rental_uris":{"android":"levelo://app?vid=4d77db09-905c-49b4-96d1-a6c7bd4303b6","ios":"levelo://app?vid=4d77db09-905c-49b4-96d1-a6c7bd4303b6"},"vehicle_type_id":"4","last_reported":1739477378,"current_range_meters":33200,"station_id":"ce4bhbh2rcd13ifvqeo0","pricing_plan_id":"cebpf4jnsgd1na2vs0mg"},{"bike_id":"d11b0b08-9f51-4e8d-a22a-eff7c43afd04","system_id":"levelo_inurba_marseille","lat":43.2762,"lon":5.36104,"is_reserved":false,"is_disabled":false,"rental_uris":{"android":"levelo://app?vid=d11b0b08-9f51-4e8d-a22a-eff7c43afd04","ios":"levelo://app?vid=d11b0b08-9f51-4e8d-a22a-eff7c43afd04"},"vehicle_type_id":"4","last_reported":1739477378,"current_range_meters":30400,"station_id":"ce4bgj92rcd13ifvqbe0","pricing_plan_id":"cebpf4jnsgd1na2vs0mg"},{"bike_id":"79e5ad63-abd5-4d07-9e51-60dc9e7253cd","system_id":"levelo_inurba_marseille","lat":43.23189,"lon":5.3995,"is_reserved":false,"is_disabled":true,"rental_uris":{"android":"levelo://app?vid=79e5ad63-abd5-4d07-9e51-60dc9e7253cd","ios":"levelo://app?vid=79e5ad63-abd5-4d07-9e51-60dc9e7253cd"},"vehicle_type_id":"4","last_reported":1739477378,"current_range_meters":0,"station_id":"ce4bhn12rcd13ifvqgqg","pricing_plan_id":"cebpf4jnsgd1na2vs0mg"},{"bike_id":"728a64b0-8845-4fee-bec0-879f6012db2f","system_id":"levelo_inurba_marseille","lat":43.28346,"lon":5.38128,"is_reserved":false,"is_disabled":false,"rental_uris":{"android":"levelo://app?vid=728a64b0-8845-4fee-bec0-879f6012db2f","ios":"levelo://app?vid=728a64b0-8845-4fee-bec0-879f6012db2f"},"vehicle_type_id":"4","last_reported":1739477378,"current_range_meters":18000,"station_id":"ce4bh412rcd13ifvqdr0","pricing_plan_id":"cebpf4jnsgd1na2vs0mg"},{"bike_id":"492e558b-0ce5-4984-b6b1-1d33f225a96b","system_id":"levelo_inurba_marseille","lat":43.241709,"lon":5.364102,"is_reserved":false,"is_disabled":false,"rental_uris":{"android":"levelo://app?vid=492e558b-0ce5-4984-b6b1-1d33f225a96b","ios":"levelo://app?vid=492e558b-0ce5-4984-b6b1-1d33f225a96b"},"vehicle_type_id":"4","last_reported":1739477378,"current_range_meters":38800,"station_id":"cpo36qri1sfpv3e86is0","pricing_plan_id":"cebpf4jnsgd1na2vs0mg"},{"bike_id":"6bf99e3e-9f10-4617-93f9-2e16108e33a0","system_id":"levelo_inurba_marseille","lat":43.2317,"lon":5.43693,"is_reserved":false,"is_disabled":false,"rental_uris":{"android":"levelo://app?vid=6bf99e3e-9f10-4617-93f9-2e16108e33a0","ios":"levelo://app?vid=6bf99e3e-9f10-4617-93f9-2e16108e33a0"},"vehicle_type_id":"4","last_reported":1739477378,"current_range_meters":38800,"station_id":"ce4bhmp2rcd13ifvqgog","pricing_plan_id":"cebpf4jnsgd1na2vs0mg"},{"bike_id":"3d17da82-f609-4b40-93f1-1e2486e3e48f","system_id":"levelo_inurba_marseille","lat":43.29093,"lon":5.38093,"is_reserved":false,"is_disabled":false,"rental_uris":{"android":"levelo://app?vid=3d17da82-f609-4b40-93f1-1e2486e3e48f","ios":"levelo://app?vid=3d17da82-f609-4b40-93f1-1e2486e3e48f"},"vehicle_type_id":"4","last_reported":1739477378,"current_range_meters":32800,"station_id":"ce4bh512rcd13ifvqe2g","pricing_plan_id":"cebpf4jnsgd1na2vs0mg"},{"bike_id":"069b441a-3fd9-4959-8a02-ec410f21c709","system_id":"levelo_inurba_marseille","lat":43.2894,"lon":5.36634,"is_reserved":false,"is_disabled":false,"rental_uris":{"android":"levelo://app?vid=069b441a-3fd9-4959-8a02-ec410f21c709","ios":"levelo://app?vid=069b441a-3fd9-4959-8a02-ec410f21c709"},"vehicle_type_id":"4","last_reported":1739477378,"current_range_meters":16000,"station_id":"ce4bhap2rcd13ifvqek0","pricing_plan_id":"cebpf4jnsgd1na2vs0mg"},{"bike_id":"13ba3871-b56c-49d0-b46f-3e06d29994b6","system_id":"levelo_inurba_marseille","lat":43.28082,"lon":5.39659,"is_reserved":false,"is_disabled":false,"rental_uris":{"android":"levelo://app?vid=13ba3871-b56c-49d0-b46f-3e06d29994b6","ios":"levelo://app?vid=13ba3871-b56c-49d0-b46f-3e06d29994b6"},"vehicle_type_id":"4","last_reported":1739477378,"current_range_meters":25600,"station_id":"ce4bho12rcd13ifvqh2g","pricing_plan_id":"cebpf4jnsgd1na2vs0mg"},{"bike_id":"ff489825-db76-49d3-aa98-c1c0aaa6bdad","system_id":"levelo_inurba_marseille","lat":43.2922,"lon":5.36668,"is_reserved":false,"is_disabled":false,"rental_uris":{"android":"levelo://app?vid=ff489825-db76-49d3-aa98-c1c0aaa6bdad","ios":"levelo://app?vid=ff489825-db76-49d3-aa98-c1c0aaa6bdad"},"vehicle_type_id":"4","last_reported":1739477378,"current_range_meters":8400,"station_id":"","pricing_plan_id":"cebpf4jnsgd1na2vs0mg"},{"bike_id":"de3a9cf4-8e51-4851-80b5-6932ae669b1d","system_id":"levelo_inurba_marseille","lat":43.28734,"lon":5.36085,"is_reserved":false,"is_disabled":false,"rental_uris":{"android":"levelo://app?vid=de3a9cf4-8e51-4851-80b5-6932ae669b1d","ios":"levelo://app?vid=de3a9cf4-8e51-4851-80b5-6932ae669b1d"},"vehicle_type_id":"4","last_reported":1739477378,"current_range_meters":30800,"station_id":"cki0cbj6b192h4jlfktg","pricing_plan_id":"cebpf4jnsgd1na2vs0mg"},{"bike_id":"b05188c1-c27a-4360-a55b-799ca6e034cf","system_id":"levelo_inurba_marseille","lat":43.2804,"lon":5.36957,"is_reserved":false,"is_disabled":false,"rental_uris":{"android":"levelo://app?vid=b05188c1-c27a-4360-a55b-799ca6e034cf","ios":"levelo://app?vid=b05188c1-c27a-4360-a55b-799ca6e034cf"},"vehicle_type_id":"4","last_reported":1739477378,"current_range_meters":12800,"station_id":"ce4bha12rcd13ifvqef0","pricing_plan_id":"cebpf4jnsgd1na2vs0mg"},{"bike_id":"bace8bf9-f802-4769-a1ab-149feec80afe","system_id":"levelo_inurba_marseille","lat":43.28839,"lon":5.35847,"is_reserved":false,"is_disabled":false,"rental_uris":{"android":"levelo://app?vid=bace8bf9-f802-4769-a1ab-149feec80afe","ios":"levelo://app?vid=bace8bf9-f802-4769-a1ab-149feec80afe"},"vehicle_type_id":"4","last_reported":1739477378,"current_range_meters":26000,"station_id":"ce4bhb12rcd13ifvqem0","pricing_plan_id":"cebpf4jnsgd1na2vs0mg"},{"bike_id":"696cf135-f594-4ebe-9761-65a94f5684af","system_id":"levelo_inurba_marseille","lat":43.2844,"lon":5.39185,"is_reserved":false,"is_disabled":true,"rental_uris":{"android":"levelo://app?vid=696cf135-f594-4ebe-9761-65a94f5684af","ios":"levelo://app?vid=696cf135-f594-4ebe-9761-65a94f5684af"},"vehicle_type_id":"4","last_reported":1739477378,"current_range_meters":800,"station_id":"ce4bhoh2rcd13ifvqh5g","pricing_plan_id":"cebpf4jnsgd1na2vs0mg"},{"bike_id":"0c08fd6b-87ec-4c21-bb5e-30c2269f474e","system_id":"levelo_inurba_marseille","lat":43.30807,"lon":5.43526,"is_reserved":false,"is_disabled":false,"rental_uris":{"android":"levelo://app?vid=0c08fd6b-87ec-4c21-bb5e-30c2269f474e","ios":"levelo://app?vid=0c08fd6b-87ec-4c21-bb5e-30c2269f474e"},"vehicle_type_id":"4","last_reported":1739477378,"current_range_meters":20400,"station_id":"ce4bhph2rcd13ifvqheg","pricing_plan_id":"cebpf4jnsgd1na2vs0mg"},{"bike_id":"af7ae1e3-87b2-4cd3-9b8f-a973c351af89","system_id":"levelo_inurba_marseille","lat":43.23188,"lon":5.39981,"is_reserved":false,"is_disabled":false,"rental_uris":{"android":"levelo://app?vid=af7ae1e3-87b2-4cd3-9b8f-a973c351af89","ios":"levelo://app?vid=af7ae1e3-87b2-4cd3-9b8f-a973c351af89"},"vehicle_type_id":"4","last_reported":1739477378,"current_range_meters":36800,"station_id":"ce4bhn12rcd13ifvqgqg","pricing_plan_id":"cebpf4jnsgd1na2vs0mg"},{"bike_id":"004dcd9f-fe33-47bd-93fa-19bdccc4b89f","system_id":"levelo_inurba_marseille","lat":43.251181,"lon":5.403092,"is_reserved":false,"is_disabled":false,"rental_uris":{"android":"levelo://app?vid=004dcd9f-fe33-47bd-93fa-19bdccc4b89f","ios":"levelo://app?vid=004dcd9f-fe33-47bd-93fa-19bdccc4b89f"},"vehicle_type_id":"4","last_reported":1739477378,"current_range_meters":38800,"station_id":"ce4bhm12rcd13ifvqgkg","pricing_plan_id":"cebpf4jnsgd1na2vs0mg"},{"bike_id":"4dbc26c6-2a15-45e7-b1cd-4e0586d88b2f","system_id":"levelo_inurba_marseille","lat":43.27385,"lon":5.36265,"is_reserved":false,"is_disabled":true,"rental_uris":{"android":"levelo://app?vid=4dbc26c6-2a15-45e7-b1cd-4e0586d88b2f","ios":"levelo://app?vid=4dbc26c6-2a15-45e7-b1cd-4e0586d88b2f"},"vehicle_type_id":"4","last_reported":1739477378,"current_range_meters":37600,"station_id":"ce4bhbh2rcd13ifvqeo0","pricing_plan_id":"cebpf4jnsgd1na2vs0mg"},{"bike_id":"2a8d5b38-12c7-43ca-969a-fe7b4ef5b359","system_id":"levelo_inurba_marseille","lat":43.31701,"lon":5.3776,"is_reserved":false,"is_disabled":true,"rental_uris":{"android":"levelo://app?vid=2a8d5b38-12c7-43ca-969a-fe7b4ef5b359","ios":"levelo://app?vid=2a8d5b38-12c7-43ca-969a-fe7b4ef5b359"},"vehicle_type_id":"4","last_reported":1739477378,"current_range_meters":1200,"station_id":"ce4bgth2rcd13ifvqch0","pricing_plan_id":"cebpf4jnsgd1na2vs0mg"},{"bike_id":"6667b4d4-ceb0-4435-a527-8fea93b7d41b","system_id":"levelo_inurba_marseille","lat":43.24806,"lon":5.37452,"is_reserved":false,"is_disabled":false,"rental_uris":{"android":"levelo://app?vid=6667b4d4-ceb0-4435-a527-8fea93b7d41b","ios":"levelo://app?vid=6667b4d4-ceb0-4435-a527-8fea93b7d41b"},"vehicle_type_id":"4","last_reported":1739477378,"current_range_meters":34800,"station_id":"ce4bhgh2rcd13ifvqfb0","pricing_plan_id":"cebpf4jnsgd1na2vs0mg"},{"bike_id":"a679c3c7-ae46-4558-bb10-4bb5766a2a31","system_id":"levelo_inurba_marseille","lat":43.24807,"lon":5.37459,"is_reserved":false,"is_disabled":false,"rental_uris":{"android":"levelo://app?vid=a679c3c7-ae46-4558-bb10-4bb5766a2a31","ios":"levelo://app?vid=a679c3c7-ae46-4558-bb10-4bb5766a2a31"},"vehicle_type_id":"4","last_reported":1739477378,"current_range_meters":7200,"station_id":"ce4bhgh2rcd13ifvqfb0","pricing_plan_id":"cebpf4jnsgd1na2vs0mg"},{"bike_id":"00f8a0ff-c4e3-42da-8103-f17cc4b1ba0d","system_id":"levelo_inurba_marseille","lat":43.28142,"lon":5.42642,"is_reserved":false,"is_disabled":false,"rental_uris":{"android":"levelo://app?vid=00f8a0ff-c4e3-42da-8103-f17cc4b1ba0d","ios":"levelo://app?vid=00f8a0ff-c4e3-42da-8103-f17cc4b1ba0d"},"vehicle_type_id":"4","last_reported":1739477378,"current_range_meters":20800,"station_id":"ce4bhnh2rcd13ifvqgug","pricing_plan_id":"cebpf4jnsgd1na2vs0mg"},{"bike_id":"25ed0a1a-f26b-4cfb-a5bb-10f23d4e64a2","system_id":"levelo_inurba_marseille","lat":43.29274,"lon":5.3684,"is_reserved":false,"is_disabled":true,"rental_uris":{"android":"levelo://app?vid=25ed0a1a-f26b-4cfb-a5bb-10f23d4e64a2","ios":"levelo://app?vid=25ed0a1a-f26b-4cfb-a5bb-10f23d4e64a2"},"vehicle_type_id":"4","last_reported":1739477378,"current_range_meters":2000,"station_id":"ce4bhbp2rcd13ifvqesg","pricing_plan_id":"cebpf4jnsgd1na2vs0mg"},{"bike_id":"d7211194-703e-4d7b-b1fc-6a1467a41aa6","system_id":"levelo_inurba_marseille","lat":43.28045,"lon":5.36927,"is_reserved":false,"is_disabled":false,"rental_uris":{"android":"levelo://app?vid=d7211194-703e-4d7b-b1fc-6a1467a41aa6","ios":"levelo://app?vid=d7211194-703e-4d7b-b1fc-6a1467a41aa6"},"vehicle_type_id":"4","last_reported":1739477378,"current_range_meters":38400,"station_id":"ce4bha12rcd13ifvqef0","pricing_plan_id":"cebpf4jnsgd1na2vs0mg"},{"bike_id":"5429a055-5c17-4863-ac08-ee7234bc7af8","system_id":"levelo_inurba_marseille","lat":43.32277,"lon":5.36831,"is_reserved":false,"is_disabled":false,"rental_uris":{"android":"levelo://app?vid=5429a055-5c17-4863-ac08-ee7234bc7af8","ios":"levelo://app?vid=5429a055-5c17-4863-ac08-ee7234bc7af8"},"vehicle_type_id":"4","last_reported":1739477378,"current_range_meters":38800,"station_id":"","pricing_plan_id":"cebpf4jnsgd1na2vs0mg"},{"bike_id":"5ed01087-bc26-4d8b-803c-fe0488bb5fb1","system_id":"levelo_inurba_marseille","lat":43.292734,"lon":5.38412,"is_reserved":false,"is_disabled":false,"rental_uris":{"android":"levelo://app?vid=5ed01087-bc26-4d8b-803c-fe0488bb5fb1","ios":"levelo://app?vid=5ed01087-bc26-4d8b-803c-fe0488bb5fb1"},"vehicle_type_id":"4","last_reported":1739477378,"current_range_meters":36000,"station_id":"ce4bh692rcd13ifvqea0","pricing_plan_id":"cebpf4jnsgd1na2vs0mg"},{"bike_id":"9183921d-8e97-4c4b-a98e-67fb34e43b27","system_id":"levelo_inurba_marseille","lat":43.28628,"lon":5.35092,"is_reserved":false,"is_disabled":false,"rental_uris":{"android":"levelo://app?vid=9183921d-8e97-4c4b-a98e-67fb34e43b27","ios":"levelo://app?vid=9183921d-8e97-4c4b-a98e-67fb34e43b27"},"vehicle_type_id":"4","last_reported":1739477378,"current_range_meters":15200,"station_id":"ce4bhch2rcd13ifvqeug","pricing_plan_id":"cebpf4jnsgd1na2vs0mg"},{"bike_id":"dc864486-9e7a-4256-9c08-507bf1b41c08","system_id":"levelo_inurba_marseille","lat":43.29625,"lon":5.3714,"is_reserved":false,"is_disabled":true,"rental_uris":{"android":"levelo://app?vid=dc864486-9e7a-4256-9c08-507bf1b41c08","ios":"levelo://app?vid=dc864486-9e7a-4256-9c08-507bf1b41c08"},"vehicle_type_id":"4","last_reported":1739477378,"current_range_meters":38800,"station_id":"ce4bgnh2rcd13ifvqc0g","pricing_plan_id":"cebpf4jnsgd1na2vs0mg"},{"bike_id":"acc39daa-3a4d-4c95-b5a8-16360a611402","system_id":"levelo_inurba_marseille","lat":43.29623,"lon":5.37155,"is_reserved":false,"is_disabled":true,"rental_uris":{"android":"levelo://app?vid=acc39daa-3a4d-4c95-b5a8-16360a611402","ios":"levelo://app?vid=acc39daa-3a4d-4c95-b5a8-16360a611402"},"vehicle_type_id":"4","last_reported":1739477378,"current_range_meters":38000,"station_id":"ce4bgnh2rcd13ifvqc0g","pricing_plan_id":"cebpf4jnsgd1na2vs0mg"},{"bike_id":"859c79c3-9c5b-47b3-94ad-94355d1f1457","system_id":"levelo_inurba_marseille","lat":43.243834,"lon":5.370532,"is_reserved":false,"is_disabled":false,"rental_uris":{"android":"levelo://app?vid=859c79c3-9c5b-47b3-94ad-94355d1f1457","ios":"levelo://app?vid=859c79c3-9c5b-47b3-94ad-94355d1f1457"},"vehicle_type_id":"4","last_reported":1739477378,"current_range_meters":16800,"station_id":"ce4bhhh2rcd13ifvqfk0","pricing_plan_id":"cebpf4jnsgd1na2vs0mg"},{"bike_id":"cf73e322-554b-4367-90da-4094aa8d4425","system_id":"levelo_inurba_marseille","lat":43.29595,"lon":5.38091,"is_reserved":false,"is_disabled":false,"rental_uris":{"android":"levelo://app?vid=cf73e322-554b-4367-90da-4094aa8d4425","ios":"levelo://app?vid=cf73e322-554b-4367-90da-4094aa8d4425"},"vehicle_type_id":"4","last_reported":1739477378,"current_range_meters":23200,"station_id":"ce4bgl12rcd13ifvqbo0","pricing_plan_id":"cebpf4jnsgd1na2vs0mg"},{"bike_id":"b110e296-e7b2-4ae7-a3ba-3e181ac1ac49","system_id":"levelo_inurba_marseille","lat":43.29886,"lon":5.38893,"is_reserved":false,"is_disabled":false,"rental_uris":{"android":"levelo://app?vid=b110e296-e7b2-4ae7-a3ba-3e181ac1ac49","ios":"levelo://app?vid=b110e296-e7b2-4ae7-a3ba-3e181ac1ac49"},"vehicle_type_id":"4","last_reported":1739477378,"current_range_meters":24800,"station_id":"ce4bh392rcd13ifvqdl0","pricing_plan_id":"cebpf4jnsgd1na2vs0mg"},{"bike_id":"dcc02a2e-faec-466e-a787-bab1c59d293e","system_id":"levelo_inurba_marseille","lat":43.31491,"lon":5.37307,"is_reserved":false,"is_disabled":false,"rental_uris":{"android":"levelo://app?vid=dcc02a2e-faec-466e-a787-bab1c59d293e","ios":"levelo://app?vid=dcc02a2e-faec-466e-a787-bab1c59d293e"},"vehicle_type_id":"4","last_reported":1739477378,"current_range_meters":10800,"station_id":"ce4bgt12rcd13ifvqcd0","pricing_plan_id":"cebpf4jnsgd1na2vs0mg"},{"bike_id":"0e7b7964-ea54-42c5-bc2b-8ebf34f8cbe5","system_id":"levelo_inurba_marseille","lat":43.27614,"lon":5.36114,"is_reserved":false,"is_disabled":false,"rental_uris":{"android":"levelo://app?vid=0e7b7964-ea54-42c5-bc2b-8ebf34f8cbe5","ios":"levelo://app?vid=0e7b7964-ea54-42c5-bc2b-8ebf34f8cbe5"},"vehicle_type_id":"4","last_reported":1739477378,"current_range_meters":33600,"station_id":"ce4bgj92rcd13ifvqbe0","pricing_plan_id":"cebpf4jnsgd1na2vs0mg"},{"bike_id":"26f0985e-a357-471e-b223-f3f92b194cf2","system_id":"levelo_inurba_marseille","lat":43.29419,"lon":5.38623,"is_reserved":false,"is_disabled":false,"rental_uris":{"android":"levelo://app?vid=26f0985e-a357-471e-b223-f3f92b194cf2","ios":"levelo://app?vid=26f0985e-a357-471e-b223-f3f92b194cf2"},"vehicle_type_id":"4","last_reported":1739477378,"current_range_meters":21600,"station_id":"ce4bh2h2rcd13ifvqdh0","pricing_plan_id":"cebpf4jnsgd1na2vs0mg"},{"bike_id":"2013cac2-eba1-4d23-a520-58986dfc296d","system_id":"levelo_inurba_marseille","lat":43.29426,"lon":5.38618,"is_reserved":false,"is_disabled":false,"rental_uris":{"android":"levelo://app?vid=2013cac2-eba1-4d23-a520-58986dfc296d","ios":"levelo://app?vid=2013cac2-eba1-4d23-a520-58986dfc296d"},"vehicle_type_id":"4","last_reported":1739477378,"current_range_meters":16400,"station_id":"ce4bh2h2rcd13ifvqdh0","pricing_plan_id":"cebpf4jnsgd1na2vs0mg"},{"bike_id":"a40e6477-f581-46a3-9649-1a7492848197","system_id":"levelo_inurba_marseille","lat":43.31885,"lon":5.40739,"is_reserved":false,"is_disabled":false,"rental_uris":{"android":"levelo://app?vid=a40e6477-f581-46a3-9649-1a7492848197","ios":"levelo://app?vid=a40e6477-f581-46a3-9649-1a7492848197"},"vehicle_type_id":"4","last_reported":1739477378,"current_range_meters":14800,"station_id":"ce4bhq12rcd13ifvqhig","pricing_plan_id":"cebpf4jnsgd1na2vs0mg"},{"bike_id":"d6f38d8d-bb5a-4b27-b5d4-6029f0946ece","system_id":"levelo_inurba_marseille","lat":43.27466,"lon":5.43509,"is_reserved":false,"is_disabled":false,"rental_uris":{"android":"levelo://app?vid=d6f38d8d-bb5a-4b27-b5d4-6029f0946ece","ios":"levelo://app?vid=d6f38d8d-bb5a-4b27-b5d4-6029f0946ece"},"vehicle_type_id":"4","last_reported":1739477378,"current_range_meters":8000,"station_id":"","pricing_plan_id":"cebpf4jnsgd1na2vs0mg"},{"bike_id":"537454ac-80e7-4925-a511-c1d8a661a1ca","system_id":"levelo_inurba_marseille","lat":43.28443,"lon":5.39214,"is_reserved":false,"is_disabled":false,"rental_uris":{"android":"levelo://app?vid=537454ac-80e7-4925-a511-c1d8a661a1ca","ios":"levelo://app?vid=537454ac-80e7-4925-a511-c1d8a661a1ca"},"vehicle_type_id":"4","last_reported":1739477378,"current_range_meters":38800,"station_id":"ce4bhoh2rcd13ifvqh5g","pricing_plan_id":"cebpf4jnsgd1na2vs0mg"},{"bike_id":"9e8fe326-5d76-4691-9e64-acf86b994dab","system_id":"levelo_inurba_marseille","lat":43.27619,"lon":5.36107,"is_reserved":false,"is_disabled":false,"rental_uris":{"android":"levelo://app?vid=9e8fe326-5d76-4691-9e64-acf86b994dab","ios":"levelo://app?vid=9e8fe326-5d76-4691-9e64-acf86b994dab"},"vehicle_type_id":"4","last_reported":1739477378,"current_range_meters":30000,"station_id":"ce4bgj92rcd13ifvqbe0","pricing_plan_id":"cebpf4jnsgd1na2vs0mg"},{"bike_id":"eb74081f-8035-495f-a073-abb8444b5eb2","system_id":"levelo_inurba_marseille","lat":43.23949,"lon":5.36712,"is_reserved":false,"is_disabled":false,"rental_uris":{"android":"levelo://app?vid=eb74081f-8035-495f-a073-abb8444b5eb2","ios":"levelo://app?vid=eb74081f-8035-495f-a073-abb8444b5eb2"},"vehicle_type_id":"4","last_reported":1739477378,"current_range_meters":38000,"station_id":"","pricing_plan_id":"cebpf4jnsgd1na2vs0mg"},{"bike_id":"213e7ed3-b6c6-470c-8e37-ca6ffb58bff8","system_id":"levelo_inurba_marseille","lat":43.27493,"lon":5.42455,"is_reserved":false,"is_disabled":true,"rental_uris":{"android":"levelo://app?vid=213e7ed3-b6c6-470c-8e37-ca6ffb58bff8","ios":"levelo://app?vid=213e7ed3-b6c6-470c-8e37-ca6ffb58bff8"},"vehicle_type_id":"4","last_reported":1739477378,"current_range_meters":27200,"station_id":"ce4bhn92rcd13ifvqgrg","pricing_plan_id":"cebpf4jnsgd1na2vs0mg"},{"bike_id":"9e9a6714-3fc9-40fa-9906-8520375a2b7c","system_id":"levelo_inurba_marseille","lat":43.23152,"lon":5.43725,"is_reserved":false,"is_disabled":false,"rental_uris":{"android":"levelo://app?vid=9e9a6714-3fc9-40fa-9906-8520375a2b7c","ios":"levelo://app?vid=9e9a6714-3fc9-40fa-9906-8520375a2b7c"},"vehicle_type_id":"4","last_reported":1739477378,"current_range_meters":36800,"station_id":"ce4bhmp2rcd13ifvqgog","pricing_plan_id":"cebpf4jnsgd1na2vs0mg"},{"bike_id":"861e94fe-13dc-4381-880a-a34620fe78bc","system_id":"levelo_inurba_marseille","lat":43.31536,"lon":5.38032,"is_reserved":false,"is_disabled":false,"rental_uris":{"android":"levelo://app?vid=861e94fe-13dc-4381-880a-a34620fe78bc","ios":"levelo://app?vid=861e94fe-13dc-4381-880a-a34620fe78bc"},"vehicle_type_id":"4","last_reported":1739477378,"current_range_meters":25600,"station_id":"ce4bhsp2rcd13ifvqi50","pricing_plan_id":"cebpf4jnsgd1na2vs0mg"},{"bike_id":"1d59eb4d-eac6-4772-a8ee-d443954ded39","system_id":"levelo_inurba_marseille","lat":43.29412,"lon":5.38636,"is_reserved":false,"is_disabled":false,"rental_uris":{"android":"levelo://app?vid=1d59eb4d-eac6-4772-a8ee-d443954ded39","ios":"levelo://app?vid=1d59eb4d-eac6-4772-a8ee-d443954ded39"},"vehicle_type_id":"4","last_reported":1739477378,"current_range_meters":18000,"station_id":"ce4bh2h2rcd13ifvqdh0","pricing_plan_id":"cebpf4jnsgd1na2vs0mg"},{"bike_id":"3b92acd6-3254-4254-8822-55a356dbb932","system_id":"levelo_inurba_marseille","lat":43.29547,"lon":5.38554,"is_reserved":false,"is_disabled":false,"rental_uris":{"android":"levelo://app?vid=3b92acd6-3254-4254-8822-55a356dbb932","ios":"levelo://app?vid=3b92acd6-3254-4254-8822-55a356dbb932"},"vehicle_type_id":"4","last_reported":1739477378,"current_range_meters":28000,"station_id":"ce4bgih2rcd13ifvqba0","pricing_plan_id":"cebpf4jnsgd1na2vs0mg"},{"bike_id":"1ec14052-2d33-4aa1-9ab8-58cc71db74d1","system_id":"levelo_inurba_marseille","lat":43.24174,"lon":5.36398,"is_reserved":false,"is_disabled":true,"rental_uris":{"android":"levelo://app?vid=1ec14052-2d33-4aa1-9ab8-58cc71db74d1","ios":"levelo://app?vid=1ec14052-2d33-4aa1-9ab8-58cc71db74d1"},"vehicle_type_id":"4","last_reported":1739477378,"current_range_meters":4800,"station_id":"cpo36qri1sfpv3e86is0","pricing_plan_id":"cebpf4jnsgd1na2vs0mg"},{"bike_id":"6e58a69c-2a4e-4c49-840d-6e728a603acb","system_id":"levelo_inurba_marseille","lat":43.23068,"lon":5.35489,"is_reserved":false,"is_disabled":false,"rental_uris":{"android":"levelo://app?vid=6e58a69c-2a4e-4c49-840d-6e728a603acb","ios":"levelo://app?vid=6e58a69c-2a4e-4c49-840d-6e728a603acb"},"vehicle_type_id":"4","last_reported":1739477378,"current_range_meters":38800,"station_id":"cpo3342slgdg3j2ifvpg","pricing_plan_id":"cebpf4jnsgd1na2vs0mg"},{"bike_id":"4e01ce0b-738c-4105-bce0-e6deef90d0d4","system_id":"levelo_inurba_marseille","lat":43.28157,"lon":5.42637,"is_reserved":false,"is_disabled":false,"rental_uris":{"android":"levelo://app?vid=4e01ce0b-738c-4105-bce0-e6deef90d0d4","ios":"levelo://app?vid=4e01ce0b-738c-4105-bce0-e6deef90d0d4"},"vehicle_type_id":"4","last_reported":1739477378,"current_range_meters":38800,"station_id":"ce4bhnh2rcd13ifvqgug","pricing_plan_id":"cebpf4jnsgd1na2vs0mg"},{"bike_id":"cdd384b0-278a-4f91-b9e6-35c402322f3a","system_id":"levelo_inurba_marseille","lat":43.29519,"lon":5.3941,"is_reserved":false,"is_disabled":false,"rental_uris":{"android":"levelo://app?vid=cdd384b0-278a-4f91-b9e6-35c402322f3a","ios":"levelo://app?vid=cdd384b0-278a-4f91-b9e6-35c402322f3a"},"vehicle_type_id":"4","last_reported":1739477378,"current_range_meters":39200,"station_id":"ce4bh292rcd13ifvqdf0","pricing_plan_id":"cebpf4jnsgd1na2vs0mg"},{"bike_id":"ad8f6ef4-cc35-4977-9039-32a61f9200e5","system_id":"levelo_inurba_marseille","lat":43.28628,"lon":5.35096,"is_reserved":false,"is_disabled":false,"rental_uris":{"android":"levelo://app?vid=ad8f6ef4-cc35-4977-9039-32a61f9200e5","ios":"levelo://app?vid=ad8f6ef4-cc35-4977-9039-32a61f9200e5"},"vehicle_type_id":"4","last_reported":1739477378,"current_range_meters":38800,"station_id":"ce4bhch2rcd13ifvqeug","pricing_plan_id":"cebpf4jnsgd1na2vs0mg"},{"bike_id":"0734d612-ef77-4b2c-aaa6-bce46c2274cc","system_id":"levelo_inurba_marseille","lat":43.29935,"lon":5.36533,"is_reserved":false,"is_disabled":true,"rental_uris":{"android":"levelo://app?vid=0734d612-ef77-4b2c-aaa6-bce46c2274cc","ios":"levelo://app?vid=0734d612-ef77-4b2c-aaa6-bce46c2274cc"},"vehicle_type_id":"4","last_reported":1739477378,"current_range_meters":33600,"station_id":"ce4bgm92rcd13ifvqbr0","pricing_plan_id":"cebpf4jnsgd1na2vs0mg"},{"bike_id":"f50eff07-a8c4-4cc6-b46b-160543be4a0c","system_id":"levelo_inurba_marseille","lat":43.28409,"lon":5.37522,"is_reserved":false,"is_disabled":false,"rental_uris":{"android":"levelo://app?vid=f50eff07-a8c4-4cc6-b46b-160543be4a0c","ios":"levelo://app?vid=f50eff07-a8c4-4cc6-b46b-160543be4a0c"},"vehicle_type_id":"4","last_reported":1739477378,"current_range_meters":17600,"station_id":"ce4bh412rcd13ifvqds0","pricing_plan_id":"cebpf4jnsgd1na2vs0mg"},{"bike_id":"4450d397-c7c4-4c68-aed9-fa811598c082","system_id":"levelo_inurba_marseille","lat":43.32531,"lon":5.36492,"is_reserved":false,"is_disabled":false,"rental_uris":{"android":"levelo://app?vid=4450d397-c7c4-4c68-aed9-fa811598c082","ios":"levelo://app?vid=4450d397-c7c4-4c68-aed9-fa811598c082"},"vehicle_type_id":"4","last_reported":1739477378,"current_range_meters":35600,"station_id":"","pricing_plan_id":"cebpf4jnsgd1na2vs0mg"},{"bike_id":"4e5f4522-f8ff-44eb-a5fd-5b55c1a95e03","system_id":"levelo_inurba_marseille","lat":43.29273,"lon":5.38456,"is_reserved":false,"is_disabled":false,"rental_uris":{"android":"levelo://app?vid=4e5f4522-f8ff-44eb-a5fd-5b55c1a95e03","ios":"levelo://app?vid=4e5f4522-f8ff-44eb-a5fd-5b55c1a95e03"},"vehicle_type_id":"4","last_reported":1739477378,"current_range_meters":14000,"station_id":"ce4bh692rcd13ifvqea0","pricing_plan_id":"cebpf4jnsgd1na2vs0mg"},{"bike_id":"f692e2a9-f61b-4756-b34f-0b932f852eba","system_id":"levelo_inurba_marseille","lat":43.29362,"lon":5.38628,"is_reserved":false,"is_disabled":false,"rental_uris":{"android":"levelo://app?vid=f692e2a9-f61b-4756-b34f-0b932f852eba","ios":"levelo://app?vid=f692e2a9-f61b-4756-b34f-0b932f852eba"},"vehicle_type_id":"4","last_reported":1739477378,"current_range_meters":32800,"station_id":"","pricing_plan_id":"cebpf4jnsgd1na2vs0mg"},{"bike_id":"42a5b989-860a-4133-8b8a-d8a69179e428","system_id":"levelo_inurba_marseille","lat":43.29031,"lon":5.38653,"is_reserved":false,"is_disabled":false,"rental_uris":{"android":"levelo://app?vid=42a5b989-860a-4133-8b8a-d8a69179e428","ios":"levelo://app?vid=42a5b989-860a-4133-8b8a-d8a69179e428"},"vehicle_type_id":"4","last_reported":1739477378,"current_range_meters":20000,"station_id":"ce4bh4p2rcd13ifvqe0g","pricing_plan_id":"cebpf4jnsgd1na2vs0mg"},{"bike_id":"04e79b02-26b7-408e-8d07-a04361b8a27a","system_id":"levelo_inurba_marseille","lat":43.2319,"lon":5.39983,"is_reserved":false,"is_disabled":false,"rental_uris":{"android":"levelo://app?vid=04e79b02-26b7-408e-8d07-a04361b8a27a","ios":"levelo://app?vid=04e79b02-26b7-408e-8d07-a04361b8a27a"},"vehicle_type_id":"4","last_reported":1739477378,"current_range_meters":38800,"station_id":"ce4bhn12rcd13ifvqgqg","pricing_plan_id":"cebpf4jnsgd1na2vs0mg"},{"bike_id":"02ed9ecf-6481-4888-bb85-5082d846accd","system_id":"levelo_inurba_marseille","lat":43.25113,"lon":5.40338,"is_reserved":false,"is_disabled":false,"rental_uris":{"android":"levelo://app?vid=02ed9ecf-6481-4888-bb85-5082d846accd","ios":"levelo://app?vid=02ed9ecf-6481-4888-bb85-5082d846accd"},"vehicle_type_id":"4","last_reported":1739477378,"current_range_meters":38800,"station_id":"ce4bhlh2rcd13ifvqgig","pricing_plan_id":"cebpf4jnsgd1na2vs0mg"},{"bike_id":"98ff255c-ffca-4178-be4f-17181c4aa087","system_id":"levelo_inurba_marseille","lat":43.3019,"lon":5.36626,"is_reserved":false,"is_disabled":false,"rental_uris":{"android":"levelo://app?vid=98ff255c-ffca-4178-be4f-17181c4aa087","ios":"levelo://app?vid=98ff255c-ffca-4178-be4f-17181c4aa087"},"vehicle_type_id":"4","last_reported":1739477378,"current_range_meters":7200,"station_id":"ce4bgrh2rcd13ifvqc8g","pricing_plan_id":"cebpf4jnsgd1na2vs0mg"},{"bike_id":"b64cb318-9a9d-45df-b9e1-d16ce258851f","system_id":"levelo_inurba_marseille","lat":43.28157,"lon":5.42651,"is_reserved":false,"is_disabled":true,"rental_uris":{"android":"levelo://app?vid=b64cb318-9a9d-45df-b9e1-d16ce258851f","ios":"levelo://app?vid=b64cb318-9a9d-45df-b9e1-d16ce258851f"},"vehicle_type_id":"4","last_reported":1739477378,"current_range_meters":6000,"station_id":"ce4bhnh2rcd13ifvqgug","pricing_plan_id":"cebpf4jnsgd1na2vs0mg"},{"bike_id":"152fd37b-faf3-480e-a36f-94e6a745b61a","system_id":"levelo_inurba_marseille","lat":43.29308,"lon":5.37183,"is_reserved":false,"is_disabled":true,"rental_uris":{"android":"levelo://app?vid=152fd37b-faf3-480e-a36f-94e6a745b61a","ios":"levelo://app?vid=152fd37b-faf3-480e-a36f-94e6a745b61a"},"vehicle_type_id":"4","last_reported":1739477378,"current_range_meters":38800,"station_id":"ce4bgh92rcd13ifvqb40","pricing_plan_id":"cebpf4jnsgd1na2vs0mg"},{"bike_id":"cdacc5a7-75d8-41b3-b6fe-5c39a0e17503","system_id":"levelo_inurba_marseille","lat":43.2926,"lon":5.38445,"is_reserved":false,"is_disabled":false,"rental_uris":{"android":"levelo://app?vid=cdacc5a7-75d8-41b3-b6fe-5c39a0e17503","ios":"levelo://app?vid=cdacc5a7-75d8-41b3-b6fe-5c39a0e17503"},"vehicle_type_id":"4","last_reported":1739477378,"current_range_meters":38800,"station_id":"ce4bh692rcd13ifvqea0","pricing_plan_id":"cebpf4jnsgd1na2vs0mg"},{"bike_id":"2823b4ca-1fc1-4eee-9c24-b3b1b91f5ca3","system_id":"levelo_inurba_marseille","lat":43.28153,"lon":5.42641,"is_reserved":false,"is_disabled":false,"rental_uris":{"android":"levelo://app?vid=2823b4ca-1fc1-4eee-9c24-b3b1b91f5ca3","ios":"levelo://app?vid=2823b4ca-1fc1-4eee-9c24-b3b1b91f5ca3"},"vehicle_type_id":"4","last_reported":1739477378,"current_range_meters":11600,"station_id":"ce4bhnh2rcd13ifvqgug","pricing_plan_id":"cebpf4jnsgd1na2vs0mg"},{"bike_id":"37f74419-ccf5-47cc-94a4-9cebdc5c37ad","system_id":"levelo_inurba_marseille","lat":43.3058,"lon":5.39334,"is_reserved":false,"is_disabled":false,"rental_uris":{"android":"levelo://app?vid=37f74419-ccf5-47cc-94a4-9cebdc5c37ad","ios":"levelo://app?vid=37f74419-ccf5-47cc-94a4-9cebdc5c37ad"},"vehicle_type_id":"4","last_reported":1739477378,"current_range_meters":9200,"station_id":"ce4bh0p2rcd13ifvqd80","pricing_plan_id":"cebpf4jnsgd1na2vs0mg"},{"bike_id":"af7adf50-b494-4a51-934b-6d78f2292b69","system_id":"levelo_inurba_marseille","lat":43.29416,"lon":5.38619,"is_reserved":false,"is_disabled":false,"rental_uris":{"android":"levelo://app?vid=af7adf50-b494-4a51-934b-6d78f2292b69","ios":"levelo://app?vid=af7adf50-b494-4a51-934b-6d78f2292b69"},"vehicle_type_id":"4","last_reported":1739477378,"current_range_meters":6000,"station_id":"ce4bh2h2rcd13ifvqdh0","pricing_plan_id":"cebpf4jnsgd1na2vs0mg"},{"bike_id":"78859df7-09af-4b3d-9738-6841c8767f38","system_id":"levelo_inurba_marseille","lat":43.29415,"lon":5.38634,"is_reserved":false,"is_disabled":false,"rental_uris":{"android":"levelo://app?vid=78859df7-09af-4b3d-9738-6841c8767f38","ios":"levelo://app?vid=78859df7-09af-4b3d-9738-6841c8767f38"},"vehicle_type_id":"4","last_reported":1739477378,"current_range_meters":20800,"station_id":"ce4bh2h2rcd13ifvqdh0","pricing_plan_id":"cebpf4jnsgd1na2vs0mg"},{"bike_id":"bbb6f758-ef12-4737-861c-2da510dfe0ae","system_id":"levelo_inurba_marseille","lat":43.30042,"lon":5.37506,"is_reserved":false,"is_disabled":false,"rental_uris":{"android":"levelo://app?vid=bbb6f758-ef12-4737-861c-2da510dfe0ae","ios":"levelo://app?vid=bbb6f758-ef12-4737-861c-2da510dfe0ae"},"vehicle_type_id":"4","last_reported":1739477378,"current_range_meters":22800,"station_id":"","pricing_plan_id":"cebpf4jnsgd1na2vs0mg"},{"bike_id":"b6881918-8fab-4d8a-96de-b10ed08a0034","system_id":"levelo_inurba_marseille","lat":43.29256,"lon":5.38434,"is_reserved":false,"is_disabled":false,"rental_uris":{"android":"levelo://app?vid=b6881918-8fab-4d8a-96de-b10ed08a0034","ios":"levelo://app?vid=b6881918-8fab-4d8a-96de-b10ed08a0034"},"vehicle_type_id":"4","last_reported":1739477378,"current_range_meters":38800,"station_id":"ce4bh692rcd13ifvqea0","pricing_plan_id":"cebpf4jnsgd1na2vs0mg"},{"bike_id":"140a9934-a1cc-40f7-bcd0-9281ef3c9b01","system_id":"levelo_inurba_marseille","lat":43.29047,"lon":5.37586,"is_reserved":false,"is_disabled":true,"rental_uris":{"android":"levelo://app?vid=140a9934-a1cc-40f7-bcd0-9281ef3c9b01","ios":"levelo://app?vid=140a9934-a1cc-40f7-bcd0-9281ef3c9b01"},"vehicle_type_id":"4","last_reported":1739477378,"current_range_meters":0,"station_id":"ce4bh692rcd13ifvqe90","pricing_plan_id":"cebpf4jnsgd1na2vs0mg"},{"bike_id":"d65c45a4-f34a-4b7b-912f-c7fb50a76eb5","system_id":"levelo_inurba_marseille","lat":43.29254,"lon":5.38438,"is_reserved":false,"is_disabled":false,"rental_uris":{"android":"levelo://app?vid=d65c45a4-f34a-4b7b-912f-c7fb50a76eb5","ios":"levelo://app?vid=d65c45a4-f34a-4b7b-912f-c7fb50a76eb5"},"vehicle_type_id":"4","last_reported":1739477378,"current_range_meters":32800,"station_id":"ce4bh692rcd13ifvqea0","pricing_plan_id":"cebpf4jnsgd1na2vs0mg"},{"bike_id":"d38cdbe8-a8af-4066-8a7b-efc3320f9786","system_id":"levelo_inurba_marseille","lat":43.30819,"lon":5.37396,"is_reserved":false,"is_disabled":false,"rental_uris":{"android":"levelo://app?vid=d38cdbe8-a8af-4066-8a7b-efc3320f9786","ios":"levelo://app?vid=d38cdbe8-a8af-4066-8a7b-efc3320f9786"},"vehicle_type_id":"4","last_reported":1739477378,"current_range_meters":28400,"station_id":"","pricing_plan_id":"cebpf4jnsgd1na2vs0mg"},{"bike_id":"9f4e567b-990b-4552-986f-cc59880dea6c","system_id":"levelo_inurba_marseille","lat":43.33604,"lon":5.41033,"is_reserved":false,"is_disabled":false,"rental_uris":{"android":"levelo://app?vid=9f4e567b-990b-4552-986f-cc59880dea6c","ios":"levelo://app?vid=9f4e567b-990b-4552-986f-cc59880dea6c"},"vehicle_type_id":"4","last_reported":1739477378,"current_range_meters":26800,"station_id":"ce4bhqh2rcd13ifvqhmg","pricing_plan_id":"cebpf4jnsgd1na2vs0mg"},{"bike_id":"1c66cdd9-2671-481e-bd4a-2f1128389c14","system_id":"levelo_inurba_marseille","lat":43.30441,"lon":5.38893,"is_reserved":false,"is_disabled":false,"rental_uris":{"android":"levelo://app?vid=1c66cdd9-2671-481e-bd4a-2f1128389c14","ios":"levelo://app?vid=1c66cdd9-2671-481e-bd4a-2f1128389c14"},"vehicle_type_id":"4","last_reported":1739477378,"current_range_meters":27200,"station_id":"ce4bgk12rcd13ifvqbi0","pricing_plan_id":"cebpf4jnsgd1na2vs0mg"},{"bike_id":"b75124e2-ba1b-4483-be55-83c993879b4b","system_id":"levelo_inurba_marseille","lat":43.30092,"lon":5.39085,"is_reserved":false,"is_disabled":false,"rental_uris":{"android":"levelo://app?vid=b75124e2-ba1b-4483-be55-83c993879b4b","ios":"levelo://app?vid=b75124e2-ba1b-4483-be55-83c993879b4b"},"vehicle_type_id":"4","last_reported":1739477378,"current_range_meters":25200,"station_id":"ce4bh192rcd13ifvqdb0","pricing_plan_id":"cebpf4jnsgd1na2vs0mg"},{"bike_id":"259c009c-3c83-4ff5-a62b-43abc035ef94","system_id":"levelo_inurba_marseille","lat":43.2943,"lon":5.38634,"is_reserved":false,"is_disabled":false,"rental_uris":{"android":"levelo://app?vid=259c009c-3c83-4ff5-a62b-43abc035ef94","ios":"levelo://app?vid=259c009c-3c83-4ff5-a62b-43abc035ef94"},"vehicle_type_id":"4","last_reported":1739477378,"current_range_meters":10800,"station_id":"ce4bh2h2rcd13ifvqdh0","pricing_plan_id":"cebpf4jnsgd1na2vs0mg"},{"bike_id":"ee566f3d-0e78-4ced-ac1b-e3b33c18e89e","system_id":"levelo_inurba_marseille","lat":43.24401,"lon":5.37044,"is_reserved":false,"is_disabled":false,"rental_uris":{"android":"levelo://app?vid=ee566f3d-0e78-4ced-ac1b-e3b33c18e89e","ios":"levelo://app?vid=ee566f3d-0e78-4ced-ac1b-e3b33c18e89e"},"vehicle_type_id":"4","last_reported":1739477378,"current_range_meters":20400,"station_id":"ce4bhhh2rcd13ifvqfk0","pricing_plan_id":"cebpf4jnsgd1na2vs0mg"},{"bike_id":"6078af5b-90c4-4707-8a91-a7e0efb98397","system_id":"levelo_inurba_marseille","lat":43.29286,"lon":5.37458,"is_reserved":false,"is_disabled":false,"rental_uris":{"android":"levelo://app?vid=6078af5b-90c4-4707-8a91-a7e0efb98397","ios":"levelo://app?vid=6078af5b-90c4-4707-8a91-a7e0efb98397"},"vehicle_type_id":"4","last_reported":1739477378,"current_range_meters":38800,"station_id":"ce4bgi12rcd13ifvqb70","pricing_plan_id":"cebpf4jnsgd1na2vs0mg"},{"bike_id":"0522f794-1232-4c9b-bc22-b0243233d03c","system_id":"levelo_inurba_marseille","lat":43.27943,"lon":5.41057,"is_reserved":false,"is_disabled":true,"rental_uris":{"android":"levelo://app?vid=0522f794-1232-4c9b-bc22-b0243233d03c","ios":"levelo://app?vid=0522f794-1232-4c9b-bc22-b0243233d03c"},"vehicle_type_id":"4","last_reported":1739477378,"current_range_meters":400,"station_id":"ce4bhnp2rcd13ifvqh0g","pricing_plan_id":"cebpf4jnsgd1na2vs0mg"},{"bike_id":"dcb35dcf-7028-4590-ba4f-9a2320ca4230","system_id":"levelo_inurba_marseille","lat":43.2811,"lon":5.37848,"is_reserved":false,"is_disabled":false,"rental_uris":{"android":"levelo://app?vid=dcb35dcf-7028-4590-ba4f-9a2320ca4230","ios":"levelo://app?vid=dcb35dcf-7028-4590-ba4f-9a2320ca4230"},"vehicle_type_id":"4","last_reported":1739477378,"current_range_meters":34000,"station_id":"ce4bha12rcd13ifvqee0","pricing_plan_id":"cebpf4jnsgd1na2vs0mg"},{"bike_id":"2650d8a5-cef0-45cb-a033-98f311f7956b","system_id":"levelo_inurba_marseille","lat":43.3013,"lon":5.38773,"is_reserved":false,"is_disabled":false,"rental_uris":{"android":"levelo://app?vid=2650d8a5-cef0-45cb-a033-98f311f7956b","ios":"levelo://app?vid=2650d8a5-cef0-45cb-a033-98f311f7956b"},"vehicle_type_id":"4","last_reported":1739477378,"current_range_meters":29600,"station_id":"ce4bghh2rcd13ifvqb60","pricing_plan_id":"cebpf4jnsgd1na2vs0mg"},{"bike_id":"54ce597b-1ca1-4d62-923d-d4b29eec04b3","system_id":"levelo_inurba_marseille","lat":43.31131,"lon":5.38261,"is_reserved":false,"is_disabled":false,"rental_uris":{"android":"levelo://app?vid=54ce597b-1ca1-4d62-923d-d4b29eec04b3","ios":"levelo://app?vid=54ce597b-1ca1-4d62-923d-d4b29eec04b3"},"vehicle_type_id":"4","last_reported":1739477378,"current_range_meters":8800,"station_id":"","pricing_plan_id":"cebpf4jnsgd1na2vs0mg"},{"bike_id":"5900da6e-6ade-4e81-b9ef-ce2685f5a5b4","system_id":"levelo_inurba_marseille","lat":43.28848,"lon":5.39336,"is_reserved":false,"is_disabled":true,"rental_uris":{"android":"levelo://app?vid=5900da6e-6ade-4e81-b9ef-ce2685f5a5b4","ios":"levelo://app?vid=5900da6e-6ade-4e81-b9ef-ce2685f5a5b4"},"vehicle_type_id":"4","last_reported":1739477378,"current_range_meters":8000,"station_id":"ce4bh2p2rcd13ifvqdi0","pricing_plan_id":"cebpf4jnsgd1na2vs0mg"},{"bike_id":"402369da-661e-404a-928c-d7b4f9814877","system_id":"levelo_inurba_marseille","lat":43.31539,"lon":5.38032,"is_reserved":false,"is_disabled":false,"rental_uris":{"android":"levelo://app?vid=402369da-661e-404a-928c-d7b4f9814877","ios":"levelo://app?vid=402369da-661e-404a-928c-d7b4f9814877"},"vehicle_type_id":"4","last_reported":1739477378,"current_range_meters":28800,"station_id":"ce4bhsp2rcd13ifvqi50","pricing_plan_id":"cebpf4jnsgd1na2vs0mg"},{"bike_id":"82cc7838-4b5a-40fa-9f35-ce1cd1ae67e1","system_id":"levelo_inurba_marseille","lat":43.29684,"lon":5.37297,"is_reserved":false,"is_disabled":false,"rental_uris":{"android":"levelo://app?vid=82cc7838-4b5a-40fa-9f35-ce1cd1ae67e1","ios":"levelo://app?vid=82cc7838-4b5a-40fa-9f35-ce1cd1ae67e1"},"vehicle_type_id":"4","last_reported":1739477378,"current_range_meters":38000,"station_id":"ce4bgk12rcd13ifvqbj0","pricing_plan_id":"cebpf4jnsgd1na2vs0mg"},{"bike_id":"3976f6fd-b1cd-4431-a4fb-873d67a7a0f6","system_id":"levelo_inurba_marseille","lat":43.25697,"lon":5.41095,"is_reserved":false,"is_disabled":false,"rental_uris":{"android":"levelo://app?vid=3976f6fd-b1cd-4431-a4fb-873d67a7a0f6","ios":"levelo://app?vid=3976f6fd-b1cd-4431-a4fb-873d67a7a0f6"},"vehicle_type_id":"4","last_reported":1739477378,"current_range_meters":27600,"station_id":"ce4bhkp2rcd13ifvqgd0","pricing_plan_id":"cebpf4jnsgd1na2vs0mg"},{"bike_id":"70a4f2ba-b81c-4796-81af-69d388f880aa","system_id":"levelo_inurba_marseille","lat":43.31113,"lon":5.37772,"is_reserved":false,"is_disabled":false,"rental_uris":{"android":"levelo://app?vid=70a4f2ba-b81c-4796-81af-69d388f880aa","ios":"levelo://app?vid=70a4f2ba-b81c-4796-81af-69d388f880aa"},"vehicle_type_id":"4","last_reported":1739477378,"current_range_meters":29600,"station_id":"ce4bgt92rcd13ifvqcg0","pricing_plan_id":"cebpf4jnsgd1na2vs0mg"},{"bike_id":"433d4959-ea9b-40b1-a650-117adf08163f","system_id":"levelo_inurba_marseille","lat":43.29296,"lon":5.37464,"is_reserved":false,"is_disabled":false,"rental_uris":{"android":"levelo://app?vid=433d4959-ea9b-40b1-a650-117adf08163f","ios":"levelo://app?vid=433d4959-ea9b-40b1-a650-117adf08163f"},"vehicle_type_id":"4","last_reported":1739477378,"current_range_meters":10000,"station_id":"ce4bgi12rcd13ifvqb70","pricing_plan_id":"cebpf4jnsgd1na2vs0mg"},{"bike_id":"e5ef80dd-4702-46bb-bfde-5dd61590a716","system_id":"levelo_inurba_marseille","lat":43.29259,"lon":5.40908,"is_reserved":false,"is_disabled":false,"rental_uris":{"android":"levelo://app?vid=e5ef80dd-4702-46bb-bfde-5dd61590a716","ios":"levelo://app?vid=e5ef80dd-4702-46bb-bfde-5dd61590a716"},"vehicle_type_id":"4","last_reported":1739477378,"current_range_meters":38400,"station_id":"ce4bh192rcd13ifvqdc0","pricing_plan_id":"cebpf4jnsgd1na2vs0mg"},{"bike_id":"48296354-c1b9-4701-919e-f78762984268","system_id":"levelo_inurba_marseille","lat":43.31628,"lon":5.3782,"is_reserved":false,"is_disabled":false,"rental_uris":{"android":"levelo://app?vid=48296354-c1b9-4701-919e-f78762984268","ios":"levelo://app?vid=48296354-c1b9-4701-919e-f78762984268"},"vehicle_type_id":"4","last_reported":1739477378,"current_range_meters":34000,"station_id":"ce4bgth2rcd13ifvqch0","pricing_plan_id":"cebpf4jnsgd1na2vs0mg"},{"bike_id":"8366fb7c-0063-4186-8d36-8b24404479fb","system_id":"levelo_inurba_marseille","lat":43.31361,"lon":5.38494,"is_reserved":false,"is_disabled":true,"rental_uris":{"android":"levelo://app?vid=8366fb7c-0063-4186-8d36-8b24404479fb","ios":"levelo://app?vid=8366fb7c-0063-4186-8d36-8b24404479fb"},"vehicle_type_id":"4","last_reported":1739477378,"current_range_meters":1600,"station_id":"ce4bgt92rcd13ifvqcf0","pricing_plan_id":"cebpf4jnsgd1na2vs0mg"},{"bike_id":"59681ca3-08bb-44b7-936c-357406e933bf","system_id":"levelo_inurba_marseille","lat":43.25864,"lon":5.39901,"is_reserved":false,"is_disabled":false,"rental_uris":{"android":"levelo://app?vid=59681ca3-08bb-44b7-936c-357406e933bf","ios":"levelo://app?vid=59681ca3-08bb-44b7-936c-357406e933bf"},"vehicle_type_id":"4","last_reported":1739477378,"current_range_meters":38800,"station_id":"ce4bhl92rcd13ifvqghg","pricing_plan_id":"cebpf4jnsgd1na2vs0mg"},{"bike_id":"b8a4c6fb-5aef-4871-8769-f0f985186c26","system_id":"levelo_inurba_marseille","lat":43.29537,"lon":5.38536,"is_reserved":false,"is_disabled":false,"rental_uris":{"android":"levelo://app?vid=b8a4c6fb-5aef-4871-8769-f0f985186c26","ios":"levelo://app?vid=b8a4c6fb-5aef-4871-8769-f0f985186c26"},"vehicle_type_id":"4","last_reported":1739477378,"current_range_meters":36000,"station_id":"ce4bgih2rcd13ifvqba0","pricing_plan_id":"cebpf4jnsgd1na2vs0mg"},{"bike_id":"5799683b-0df1-48a8-b611-35c1dd436b66","system_id":"levelo_inurba_marseille","lat":43.29249,"lon":5.3844,"is_reserved":false,"is_disabled":false,"rental_uris":{"android":"levelo://app?vid=5799683b-0df1-48a8-b611-35c1dd436b66","ios":"levelo://app?vid=5799683b-0df1-48a8-b611-35c1dd436b66"},"vehicle_type_id":"4","last_reported":1739477378,"current_range_meters":27200,"station_id":"ce4bh692rcd13ifvqea0","pricing_plan_id":"cebpf4jnsgd1na2vs0mg"},{"bike_id":"eed51985-6abc-4136-9c70-f0994b322ee2","system_id":"levelo_inurba_marseille","lat":43.29421,"lon":5.3861,"is_reserved":false,"is_disabled":true,"rental_uris":{"android":"levelo://app?vid=eed51985-6abc-4136-9c70-f0994b322ee2","ios":"levelo://app?vid=eed51985-6abc-4136-9c70-f0994b322ee2"},"vehicle_type_id":"4","last_reported":1739477378,"current_range_meters":0,"station_id":"ce4bh2h2rcd13ifvqdh0","pricing_plan_id":"cebpf4jnsgd1na2vs0mg"},{"bike_id":"58ca8d36-3abf-4f9b-bf3f-e62ed0e7a978","system_id":"levelo_inurba_marseille","lat":43.23955,"lon":5.36631,"is_reserved":false,"is_disabled":false,"rental_uris":{"android":"levelo://app?vid=58ca8d36-3abf-4f9b-bf3f-e62ed0e7a978","ios":"levelo://app?vid=58ca8d36-3abf-4f9b-bf3f-e62ed0e7a978"},"vehicle_type_id":"4","last_reported":1739477378,"current_range_meters":12800,"station_id":"ce4bhi12rcd13ifvqfp0","pricing_plan_id":"cebpf4jnsgd1na2vs0mg"},{"bike_id":"d5669aa4-72b8-4166-b63a-440367e38820","system_id":"levelo_inurba_marseille","lat":43.2953,"lon":5.3855,"is_reserved":false,"is_disabled":false,"rental_uris":{"android":"levelo://app?vid=d5669aa4-72b8-4166-b63a-440367e38820","ios":"levelo://app?vid=d5669aa4-72b8-4166-b63a-440367e38820"},"vehicle_type_id":"4","last_reported":1739477378,"current_range_meters":25600,"station_id":"ce4bgih2rcd13ifvqba0","pricing_plan_id":"cebpf4jnsgd1na2vs0mg"},{"bike_id":"05753aab-2a5e-492a-80c0-4434a5f0cd7d","system_id":"levelo_inurba_marseille","lat":43.299387,"lon":5.365518,"is_reserved":false,"is_disabled":false,"rental_uris":{"android":"levelo://app?vid=05753aab-2a5e-492a-80c0-4434a5f0cd7d","ios":"levelo://app?vid=05753aab-2a5e-492a-80c0-4434a5f0cd7d"},"vehicle_type_id":"4","last_reported":1739477378,"current_range_meters":38800,"station_id":"ce4bgm92rcd13ifvqbr0","pricing_plan_id":"cebpf4jnsgd1na2vs0mg"},{"bike_id":"7922997c-706c-4b2b-b3ff-e3f5e95f0585","system_id":"levelo_inurba_marseille","lat":43.24548,"lon":5.39522,"is_reserved":false,"is_disabled":false,"rental_uris":{"android":"levelo://app?vid=7922997c-706c-4b2b-b3ff-e3f5e95f0585","ios":"levelo://app?vid=7922997c-706c-4b2b-b3ff-e3f5e95f0585"},"vehicle_type_id":"4","last_reported":1739477378,"current_range_meters":33200,"station_id":"ce4bhlp2rcd13ifvqgjg","pricing_plan_id":"cebpf4jnsgd1na2vs0mg"},{"bike_id":"fd2869ac-3022-4dd7-9d03-75a9b586e7a3","system_id":"levelo_inurba_marseille","lat":43.28657,"lon":5.36347,"is_reserved":false,"is_disabled":false,"rental_uris":{"android":"levelo://app?vid=fd2869ac-3022-4dd7-9d03-75a9b586e7a3","ios":"levelo://app?vid=fd2869ac-3022-4dd7-9d03-75a9b586e7a3"},"vehicle_type_id":"4","last_reported":1739477378,"current_range_meters":4800,"station_id":"ce4bhah2rcd13ifvqej0","pricing_plan_id":"cebpf4jnsgd1na2vs0mg"},{"bike_id":"d157203c-3a5b-4bbc-9638-6eefce740d5e","system_id":"levelo_inurba_marseille","lat":43.23194,"lon":5.35568,"is_reserved":false,"is_disabled":false,"rental_uris":{"android":"levelo://app?vid=d157203c-3a5b-4bbc-9638-6eefce740d5e","ios":"levelo://app?vid=d157203c-3a5b-4bbc-9638-6eefce740d5e"},"vehicle_type_id":"4","last_reported":1739477378,"current_range_meters":30000,"station_id":"ce4bhu92rcd13ifvqi70","pricing_plan_id":"cebpf4jnsgd1na2vs0mg"},{"bike_id":"641f4def-c716-40cb-8669-bd50d3e5d6eb","system_id":"levelo_inurba_marseille","lat":43.28076,"lon":5.39646,"is_reserved":false,"is_disabled":false,"rental_uris":{"android":"levelo://app?vid=641f4def-c716-40cb-8669-bd50d3e5d6eb","ios":"levelo://app?vid=641f4def-c716-40cb-8669-bd50d3e5d6eb"},"vehicle_type_id":"4","last_reported":1739477378,"current_range_meters":38800,"station_id":"ce4bho12rcd13ifvqh2g","pricing_plan_id":"cebpf4jnsgd1na2vs0mg"},{"bike_id":"a19427af-ecee-44d2-82c0-ff0376cf2bda","system_id":"levelo_inurba_marseille","lat":43.23962,"lon":5.3663,"is_reserved":false,"is_disabled":false,"rental_uris":{"android":"levelo://app?vid=a19427af-ecee-44d2-82c0-ff0376cf2bda","ios":"levelo://app?vid=a19427af-ecee-44d2-82c0-ff0376cf2bda"},"vehicle_type_id":"4","last_reported":1739477378,"current_range_meters":38800,"station_id":"ce4bhi12rcd13ifvqfp0","pricing_plan_id":"cebpf4jnsgd1na2vs0mg"},{"bike_id":"537bd4b6-10fb-469a-a67d-0d47e7ff99e8","system_id":"levelo_inurba_marseille","lat":43.29266,"lon":5.3844,"is_reserved":false,"is_disabled":false,"rental_uris":{"android":"levelo://app?vid=537bd4b6-10fb-469a-a67d-0d47e7ff99e8","ios":"levelo://app?vid=537bd4b6-10fb-469a-a67d-0d47e7ff99e8"},"vehicle_type_id":"4","last_reported":1739477378,"current_range_meters":13600,"station_id":"ce4bh692rcd13ifvqea0","pricing_plan_id":"cebpf4jnsgd1na2vs0mg"},{"bike_id":"2eb379fe-4482-4d6f-addb-665254f54ba0","system_id":"levelo_inurba_marseille","lat":43.29426,"lon":5.38635,"is_reserved":false,"is_disabled":false,"rental_uris":{"android":"levelo://app?vid=2eb379fe-4482-4d6f-addb-665254f54ba0","ios":"levelo://app?vid=2eb379fe-4482-4d6f-addb-665254f54ba0"},"vehicle_type_id":"4","last_reported":1739477378,"current_range_meters":15200,"station_id":"ce4bh2h2rcd13ifvqdh0","pricing_plan_id":"cebpf4jnsgd1na2vs0mg"},{"bike_id":"22357605-22f9-4c7f-a011-3059b1fea57b","system_id":"levelo_inurba_marseille","lat":43.24638,"lon":5.3891,"is_reserved":false,"is_disabled":false,"rental_uris":{"android":"levelo://app?vid=22357605-22f9-4c7f-a011-3059b1fea57b","ios":"levelo://app?vid=22357605-22f9-4c7f-a011-3059b1fea57b"},