{"last_updated":1732691387,"ttl":60,"version":"2.2","data":{"bikes":[{"bike_id":"867de474-7d21-4a45-b160-f59fdff81394","system_id":"levelo_inurba_marseille","lat":43.31328,"lon":5.39693,"is_reserved":false,"is_disabled":false,"rental_uris":{"android":"levelo://app?vid=867de474-7d21-4a45-b160-f59fdff81394","ios":"levelo://app?vid=867de474-7d21-4a45-b160-f59fdff81394"},"vehicle_type_id":"4","last_reported":1732691388,"current_range_meters":38000,"station_id":"ce4bgvp2rcd13ifvqcu0","pricing_plan_id":"cebpf4jnsgd1na2vs0mg"},{"bike_id":"d9c28aa4-81a4-4d13-8fc9-100bb4e3d7e2","system_id":"levelo_inurba_marseille","lat":43.274,"lon":5.38947,"is_reserved":false,"is_disabled":true,"rental_uris":{"android":"levelo://app?vid=d9c28aa4-81a4-4d13-8fc9-100bb4e3d7e2","ios":"levelo://app?vid=d9c28aa4-81a4-4d13-8fc9-100bb4e3d7e2"},"vehicle_type_id":"4","last_reported":1732691388,"current_range_meters":0,"station_id":"","pricing_plan_id":"cebpf4jnsgd1na2vs0mg"},{"bike_id":"b856c8b4-412d-4c25-bdd4-e6b29aed04cb","system_id":"levelo_inurba_marseille","lat":43.22939,"lon":5.35375,"is_reserved":false,"is_disabled":false,"rental_uris":{"android":"levelo://app?vid=b856c8b4-412d-4c25-bdd4-e6b29aed04cb","ios":"levelo://app?vid=b856c8b4-412d-4c25-bdd4-e6b29aed04cb"},"vehicle_type_id":"4","last_reported":1732691388,"current_range_meters":38800,"station_id":"cpo3532slgdg3j2ikp40","pricing_plan_id":"cebpf4jnsgd1na2vs0mg"},{"bike_id":"4eebdf16-4fbb-423f-bcd8-8055ad21b28f","system_id":"levelo_inurba_marseille","lat":43.31106,"lon":5.38375,"is_reserved":false,"is_disabled":false,"rental_uris":{"android":"levelo://app?vid=4eebdf16-4fbb-423f-bcd8-8055ad21b28f","ios":"levelo://app?vid=4eebdf16-4fbb-423f-bcd8-8055ad21b28f"},"vehicle_type_id":"4","last_reported":1732691388,"current_range_meters":26000,"station_id":"ce4bgv92rcd13ifvqcr0","pricing_plan_id":"cebpf4jnsgd1na2vs0mg"},{"bike_id":"b51d31e3-b561-4c0d-b4c9-74c74d6a4aa9","system_id":"levelo_inurba_marseille","lat":43.33022,"lon":5.39053,"is_reserved":false,"is_disabled":false,"rental_uris":{"android":"levelo://app?vid=b51d31e3-b561-4c0d-b4c9-74c74d6a4aa9","ios":"levelo://app?vid=b51d31e3-b561-4c0d-b4c9-74c74d6a4aa9"},"vehicle_type_id":"4","last_reported":1732691388,"current_range_meters":38000,"station_id":"ce4bhr92rcd13ifvqhrg","pricing_plan_id":"cebpf4jnsgd1na2vs0mg"},{"bike_id":"bcbd5430-31ae-4318-97b4-71a3f13eec90","system_id":"levelo_inurba_marseille","lat":43.30478,"lon":5.37919,"is_reserved":false,"is_disabled":false,"rental_uris":{"android":"levelo://app?vid=bcbd5430-31ae-4318-97b4-71a3f13eec90","ios":"levelo://app?vid=bcbd5430-31ae-4318-97b4-71a3f13eec90"},"vehicle_type_id":"4","last_reported":1732691388,"current_range_meters":14400,"station_id":"ce4bgup2rcd13ifvqcn0","pricing_plan_id":"cebpf4jnsgd1na2vs0mg"},{"bike_id":"f0347ef3-0bf2-4904-8134-c34ce91c6bae","system_id":"levelo_inurba_marseille","lat":43.3054,"lon":5.36696,"is_reserved":false,"is_disabled":true,"rental_uris":{"android":"levelo://app?vid=f0347ef3-0bf2-4904-8134-c34ce91c6bae","ios":"levelo://app?vid=f0347ef3-0bf2-4904-8134-c34ce91c6bae"},"vehicle_type_id":"4","last_reported":1732691388,"current_range_meters":12400,"station_id":"ce4bgrp2rcd13ifvqc9g","pricing_plan_id":"cebpf4jnsgd1na2vs0mg"},{"bike_id":"d2cf7a78-7eb1-4d32-aa77-ae8ed51e3e3f","system_id":"levelo_inurba_marseille","lat":43.33762,"lon":5.37435,"is_reserved":false,"is_disabled":false,"rental_uris":{"android":"levelo://app?vid=d2cf7a78-7eb1-4d32-aa77-ae8ed51e3e3f","ios":"levelo://app?vid=d2cf7a78-7eb1-4d32-aa77-ae8ed51e3e3f"},"vehicle_type_id":"4","last_reported":1732691388,"current_range_meters":19200,"station_id":"","pricing_plan_id":"cebpf4jnsgd1na2vs0mg"},{"bike_id":"a481b9a0-9c57-4f11-a4b3-9fcac54c7392","system_id":"levelo_inurba_marseille","lat":43.24074,"lon":5.37759,"is_reserved":false,"is_disabled":false,"rental_uris":{"android":"levelo://app?vid=a481b9a0-9c57-4f11-a4b3-9fcac54c7392","ios":"levelo://app?vid=a481b9a0-9c57-4f11-a4b3-9fcac54c7392"},"vehicle_type_id":"4","last_reported":1732691388,"current_range_meters":38400,"station_id":"ce4bhnp2rcd13ifvqgvg","pricing_plan_id":"cebpf4jnsgd1na2vs0mg"},{"bike_id":"22a2749d-d9ea-44ee-b811-f63bec838cf1","system_id":"levelo_inurba_marseille","lat":43.28939,"lon":5.36404,"is_reserved":false,"is_disabled":false,"rental_uris":{"android":"levelo://app?vid=22a2749d-d9ea-44ee-b811-f63bec838cf1","ios":"levelo://app?vid=22a2749d-d9ea-44ee-b811-f63bec838cf1"},"vehicle_type_id":"4","last_reported":1732691388,"current_range_meters":29600,"station_id":"ce4bhc92rcd13ifvqetg","pricing_plan_id":"cebpf4jnsgd1na2vs0mg"},{"bike_id":"4a6f40e9-24aa-48ac-9ef2-a1bddf93539a","system_id":"levelo_inurba_marseille","lat":43.24072,"lon":5.37757,"is_reserved":false,"is_disabled":false,"rental_uris":{"android":"levelo://app?vid=4a6f40e9-24aa-48ac-9ef2-a1bddf93539a","ios":"levelo://app?vid=4a6f40e9-24aa-48ac-9ef2-a1bddf93539a"},"vehicle_type_id":"4","last_reported":1732691388,"current_range_meters":36000,"station_id":"ce4bhnp2rcd13ifvqgvg","pricing_plan_id":"cebpf4jnsgd1na2vs0mg"},{"bike_id":"37ee09df-8673-47a3-96b4-c2ef618884e5","system_id":"levelo_inurba_marseille","lat":43.337444,"lon":5.374475,"is_reserved":false,"is_disabled":false,"rental_uris":{"android":"levelo://app?vid=37ee09df-8673-47a3-96b4-c2ef618884e5","ios":"levelo://app?vid=37ee09df-8673-47a3-96b4-c2ef618884e5"},"vehicle_type_id":"4","last_reported":1732691388,"current_range_meters":32400,"station_id":"","pricing_plan_id":"cebpf4jnsgd1na2vs0mg"},{"bike_id":"d4949147-d2cd-4b84-9d10-f0b7392efd5c","system_id":"levelo_inurba_marseille","lat":43.29016,"lon":5.38637,"is_reserved":false,"is_disabled":false,"rental_uris":{"android":"levelo://app?vid=d4949147-d2cd-4b84-9d10-f0b7392efd5c","ios":"levelo://app?vid=d4949147-d2cd-4b84-9d10-f0b7392efd5c"},"vehicle_type_id":"4","last_reported":1732691388,"current_range_meters":32800,"station_id":"ce4bh4p2rcd13ifvqe0g","pricing_plan_id":"cebpf4jnsgd1na2vs0mg"},{"bike_id":"c523214a-88b9-4353-bb8b-55d45b020426","system_id":"levelo_inurba_marseille","lat":43.27817,"lon":5.40712,"is_reserved":false,"is_disabled":true,"rental_uris":{"android":"levelo://app?vid=c523214a-88b9-4353-bb8b-55d45b020426","ios":"levelo://app?vid=c523214a-88b9-4353-bb8b-55d45b020426"},"vehicle_type_id":"4","last_reported":1732691388,"current_range_meters":26000,"station_id":"ce4bhnh2rcd13ifvqgtg","pricing_plan_id":"cebpf4jnsgd1na2vs0mg"},{"bike_id":"208770de-9b49-4ea6-b6b3-1c83bb03a84e","system_id":"levelo_inurba_marseille","lat":43.29594,"lon":5.38104,"is_reserved":false,"is_disabled":true,"rental_uris":{"android":"levelo://app?vid=208770de-9b49-4ea6-b6b3-1c83bb03a84e","ios":"levelo://app?vid=208770de-9b49-4ea6-b6b3-1c83bb03a84e"},"vehicle_type_id":"4","last_reported":1732691388,"current_range_meters":36400,"station_id":"ce4bgl12rcd13ifvqbo0","pricing_plan_id":"cebpf4jnsgd1na2vs0mg"},{"bike_id":"e7d61961-f2fb-44c4-9ee3-a227626b507f","system_id":"levelo_inurba_marseille","lat":43.23063,"lon":5.35482,"is_reserved":false,"is_disabled":false,"rental_uris":{"android":"levelo://app?vid=e7d61961-f2fb-44c4-9ee3-a227626b507f","ios":"levelo://app?vid=e7d61961-f2fb-44c4-9ee3-a227626b507f"},"vehicle_type_id":"4","last_reported":1732691388,"current_range_meters":38800,"station_id":"cpo3342slgdg3j2ifvpg","pricing_plan_id":"cebpf4jnsgd1na2vs0mg"},{"bike_id":"f7165f07-e923-4579-b202-89b3912a60e2","system_id":"levelo_inurba_marseille","lat":43.25867,"lon":5.39892,"is_reserved":false,"is_disabled":false,"rental_uris":{"android":"levelo://app?vid=f7165f07-e923-4579-b202-89b3912a60e2","ios":"levelo://app?vid=f7165f07-e923-4579-b202-89b3912a60e2"},"vehicle_type_id":"4","last_reported":1732691388,"current_range_meters":35200,"station_id":"ce4bhl92rcd13ifvqghg","pricing_plan_id":"cebpf4jnsgd1na2vs0mg"},{"bike_id":"a6e22c89-3dcb-4b2e-a4cc-b4c11dbf537a","system_id":"levelo_inurba_marseille","lat":43.23185,"lon":5.39994,"is_reserved":false,"is_disabled":false,"rental_uris":{"android":"levelo://app?vid=a6e22c89-3dcb-4b2e-a4cc-b4c11dbf537a","ios":"levelo://app?vid=a6e22c89-3dcb-4b2e-a4cc-b4c11dbf537a"},"vehicle_type_id":"4","last_reported":1732691388,"current_range_meters":8400,"station_id":"ce4bhn12rcd13ifvqgqg","pricing_plan_id":"cebpf4jnsgd1na2vs0mg"},{"bike_id":"aaf9c27b-7ee5-491b-adfa-138fc61a2e2f","system_id":"levelo_inurba_marseille","lat":43.29796,"lon":5.38096,"is_reserved":false,"is_disabled":false,"rental_uris":{"android":"levelo://app?vid=aaf9c27b-7ee5-491b-adfa-138fc61a2e2f","ios":"levelo://app?vid=aaf9c27b-7ee5-491b-adfa-138fc61a2e2f"},"vehicle_type_id":"4","last_reported":1732691388,"current_range_meters":34800,"station_id":"ce4bgip2rcd13ifvqbb0","pricing_plan_id":"cebpf4jnsgd1na2vs0mg"},{"bike_id":"e213b865-e118-4973-9cb7-7bd97c56616d","system_id":"levelo_inurba_marseille","lat":43.33609,"lon":5.41031,"is_reserved":false,"is_disabled":false,"rental_uris":{"android":"levelo://app?vid=e213b865-e118-4973-9cb7-7bd97c56616d","ios":"levelo://app?vid=e213b865-e118-4973-9cb7-7bd97c56616d"},"vehicle_type_id":"4","last_reported":1732691388,"current_range_meters":4400,"station_id":"ce4bhqh2rcd13ifvqhmg","pricing_plan_id":"cebpf4jnsgd1na2vs0mg"},{"bike_id":"f98cf346-2f95-41c1-a190-288b7ed6e557","system_id":"levelo_inurba_marseille","lat":43.24086,"lon":5.37735,"is_reserved":false,"is_disabled":false,"rental_uris":{"android":"levelo://app?vid=f98cf346-2f95-41c1-a190-288b7ed6e557","ios":"levelo://app?vid=f98cf346-2f95-41c1-a190-288b7ed6e557"},"vehicle_type_id":"4","last_reported":1732691388,"current_range_meters":38400,"station_id":"ce4bhnp2rcd13ifvqgvg","pricing_plan_id":"cebpf4jnsgd1na2vs0mg"},{"bike_id":"3e74510c-d86b-4186-a956-0b286b8b0c60","system_id":"levelo_inurba_marseille","lat":43.24675,"lon":5.38175,"is_reserved":false,"is_disabled":false,"rental_uris":{"android":"levelo://app?vid=3e74510c-d86b-4186-a956-0b286b8b0c60","ios":"levelo://app?vid=3e74510c-d86b-4186-a956-0b286b8b0c60"},"vehicle_type_id":"4","last_reported":1732691388,"current_range_meters":38800,"station_id":"ce4bhih2rcd13ifvqfr0","pricing_plan_id":"cebpf4jnsgd1na2vs0mg"},{"bike_id":"52573f65-5b72-43da-b5d4-77d70a8ca779","system_id":"levelo_inurba_marseille","lat":43.29897,"lon":5.4366,"is_reserved":false,"is_disabled":false,"rental_uris":{"android":"levelo://app?vid=52573f65-5b72-43da-b5d4-77d70a8ca779","ios":"levelo://app?vid=52573f65-5b72-43da-b5d4-77d70a8ca779"},"vehicle_type_id":"4","last_reported":1732691388,"current_range_meters":30800,"station_id":"ce4bhpp2rcd13ifvqhfg","pricing_plan_id":"cebpf4jnsgd1na2vs0mg"},{"bike_id":"63969398-aead-4450-9204-3c1d2cb164b4","system_id":"levelo_inurba_marseille","lat":43.2749,"lon":5.42452,"is_reserved":false,"is_disabled":false,"rental_uris":{"android":"levelo://app?vid=63969398-aead-4450-9204-3c1d2cb164b4","ios":"levelo://app?vid=63969398-aead-4450-9204-3c1d2cb164b4"},"vehicle_type_id":"4","last_reported":1732691388,"current_range_meters":34000,"station_id":"ce4bhn92rcd13ifvqgrg","pricing_plan_id":"cebpf4jnsgd1na2vs0mg"},{"bike_id":"5b5e3a03-a727-4ee6-ac62-98aea082a704","system_id":"levelo_inurba_marseille","lat":43.30132,"lon":5.38781,"is_reserved":false,"is_disabled":false,"rental_uris":{"android":"levelo://app?vid=5b5e3a03-a727-4ee6-ac62-98aea082a704","ios":"levelo://app?vid=5b5e3a03-a727-4ee6-ac62-98aea082a704"},"vehicle_type_id":"4","last_reported":1732691388,"current_range_meters":3600,"station_id":"ce4bghh2rcd13ifvqb60","pricing_plan_id":"cebpf4jnsgd1na2vs0mg"},{"bike_id":"69847f92-5711-41be-a69f-0733358b625e","system_id":"levelo_inurba_marseille","lat":43.31356,"lon":5.38493,"is_reserved":false,"is_disabled":false,"rental_uris":{"android":"levelo://app?vid=69847f92-5711-41be-a69f-0733358b625e","ios":"levelo://app?vid=69847f92-5711-41be-a69f-0733358b625e"},"vehicle_type_id":"4","last_reported":1732691388,"current_range_meters":36400,"station_id":"ce4bgt92rcd13ifvqcf0","pricing_plan_id":"cebpf4jnsgd1na2vs0mg"},{"bike_id":"9f0d99d0-4576-4f22-ab76-950a0271ec39","system_id":"levelo_inurba_marseille","lat":43.28339,"lon":5.38109,"is_reserved":false,"is_disabled":true,"rental_uris":{"android":"levelo://app?vid=9f0d99d0-4576-4f22-ab76-950a0271ec39","ios":"levelo://app?vid=9f0d99d0-4576-4f22-ab76-950a0271ec39"},"vehicle_type_id":"4","last_reported":1732691388,"current_range_meters":36800,"station_id":"ce4bh412rcd13ifvqdr0","pricing_plan_id":"cebpf4jnsgd1na2vs0mg"},{"bike_id":"05ad44e5-d7ad-40e4-b78e-31a67af522c0","system_id":"levelo_inurba_marseille","lat":43.25719,"lon":5.41119,"is_reserved":false,"is_disabled":false,"rental_uris":{"android":"levelo://app?vid=05ad44e5-d7ad-40e4-b78e-31a67af522c0","ios":"levelo://app?vid=05ad44e5-d7ad-40e4-b78e-31a67af522c0"},"vehicle_type_id":"4","last_reported":1732691388,"current_range_meters":36800,"station_id":"ce4bhkp2rcd13ifvqgd0","pricing_plan_id":"cebpf4jnsgd1na2vs0mg"},{"bike_id":"947b4ae5-6d27-48cd-83df-1d5aa4a4dc55","system_id":"levelo_inurba_marseille","lat":43.24665,"lon":5.38155,"is_reserved":false,"is_disabled":false,"rental_uris":{"android":"levelo://app?vid=947b4ae5-6d27-48cd-83df-1d5aa4a4dc55","ios":"levelo://app?vid=947b4ae5-6d27-48cd-83df-1d5aa4a4dc55"},"vehicle_type_id":"4","last_reported":1732691388,"current_range_meters":30400,"station_id":"ce4bhih2rcd13ifvqfr0","pricing_plan_id":"cebpf4jnsgd1na2vs0mg"},{"bike_id":"58ec9d0a-6115-4290-a9c7-393feeabd127","system_id":"levelo_inurba_marseille","lat":43.28485,"lon":5.38406,"is_reserved":false,"is_disabled":true,"rental_uris":{"android":"levelo://app?vid=58ec9d0a-6115-4290-a9c7-393feeabd127","ios":"levelo://app?vid=58ec9d0a-6115-4290-a9c7-393feeabd127"},"vehicle_type_id":"4","last_reported":1732691388,"current_range_meters":36400,"station_id":"ce4bh512rcd13ifvqe3g","pricing_plan_id":"cebpf4jnsgd1na2vs0mg"},{"bike_id":"d7b4e41b-5ea8-4d2c-9fe2-df65bc6478d3","system_id":"levelo_inurba_marseille","lat":43.24813,"lon":5.37459,"is_reserved":false,"is_disabled":false,"rental_uris":{"android":"levelo://app?vid=d7b4e41b-5ea8-4d2c-9fe2-df65bc6478d3","ios":"levelo://app?vid=d7b4e41b-5ea8-4d2c-9fe2-df65bc6478d3"},"vehicle_type_id":"4","last_reported":1732691388,"current_range_meters":16400,"station_id":"ce4bhgh2rcd13ifvqfb0","pricing_plan_id":"cebpf4jnsgd1na2vs0mg"},{"bike_id":"730718ae-d786-4d6e-883c-c60966b23e43","system_id":"levelo_inurba_marseille","lat":43.24077,"lon":5.37763,"is_reserved":false,"is_disabled":false,"rental_uris":{"android":"levelo://app?vid=730718ae-d786-4d6e-883c-c60966b23e43","ios":"levelo://app?vid=730718ae-d786-4d6e-883c-c60966b23e43"},"vehicle_type_id":"4","last_reported":1732691388,"current_range_meters":18800,"station_id":"ce4bhnp2rcd13ifvqgvg","pricing_plan_id":"cebpf4jnsgd1na2vs0mg"},{"bike_id":"835a170b-9333-4a62-9af0-a89a87c1a309","system_id":"levelo_inurba_marseille","lat":43.24651,"lon":5.38156,"is_reserved":false,"is_disabled":false,"rental_uris":{"android":"levelo://app?vid=835a170b-9333-4a62-9af0-a89a87c1a309","ios":"levelo://app?vid=835a170b-9333-4a62-9af0-a89a87c1a309"},"vehicle_type_id":"4","last_reported":1732691388,"current_range_meters":7200,"station_id":"ce4bhih2rcd13ifvqfr0","pricing_plan_id":"cebpf4jnsgd1na2vs0mg"},{"bike_id":"830d6b87-87f9-4255-8695-a991d2800c7b","system_id":"levelo_inurba_marseille","lat":43.25579,"lon":5.3823,"is_reserved":false,"is_disabled":false,"rental_uris":{"android":"levelo://app?vid=830d6b87-87f9-4255-8695-a991d2800c7b","ios":"levelo://app?vid=830d6b87-87f9-4255-8695-a991d2800c7b"},"vehicle_type_id":"4","last_reported":1732691388,"current_range_meters":38000,"station_id":"ce4bhih2rcd13ifvqfs0","pricing_plan_id":"cebpf4jnsgd1na2vs0mg"},{"bike_id":"42fa77f0-3a98-43bb-b66c-67879def4297","system_id":"levelo_inurba_marseille","lat":43.26215,"lon":5.37439,"is_reserved":false,"is_disabled":false,"rental_uris":{"android":"levelo://app?vid=42fa77f0-3a98-43bb-b66c-67879def4297","ios":"levelo://app?vid=42fa77f0-3a98-43bb-b66c-67879def4297"},"vehicle_type_id":"4","last_reported":1732691388,"current_range_meters":38800,"station_id":"ce4bhgp2rcd13ifvqfc0","pricing_plan_id":"cebpf4jnsgd1na2vs0mg"},{"bike_id":"2e957287-4b81-4723-9ccd-2639d1a2cd2e","system_id":"levelo_inurba_marseille","lat":43.28696,"lon":5.39979,"is_reserved":false,"is_disabled":false,"rental_uris":{"android":"levelo://app?vid=2e957287-4b81-4723-9ccd-2639d1a2cd2e","ios":"levelo://app?vid=2e957287-4b81-4723-9ccd-2639d1a2cd2e"},"vehicle_type_id":"4","last_reported":1732691388,"current_range_meters":38400,"station_id":"ce4bho92rcd13ifvqh3g","pricing_plan_id":"cebpf4jnsgd1na2vs0mg"},{"bike_id":"4dce1994-3cf6-441a-ab62-177d5218e23a","system_id":"levelo_inurba_marseille","lat":43.296,"lon":5.38092,"is_reserved":false,"is_disabled":false,"rental_uris":{"android":"levelo://app?vid=4dce1994-3cf6-441a-ab62-177d5218e23a","ios":"levelo://app?vid=4dce1994-3cf6-441a-ab62-177d5218e23a"},"vehicle_type_id":"4","last_reported":1732691388,"current_range_meters":25200,"station_id":"ce4bgl12rcd13ifvqbo0","pricing_plan_id":"cebpf4jnsgd1na2vs0mg"},{"bike_id":"0f3c4609-b021-4270-bbe3-e446888f05ca","system_id":"levelo_inurba_marseille","lat":43.25581,"lon":5.38223,"is_reserved":false,"is_disabled":false,"rental_uris":{"android":"levelo://app?vid=0f3c4609-b021-4270-bbe3-e446888f05ca","ios":"levelo://app?vid=0f3c4609-b021-4270-bbe3-e446888f05ca"},"vehicle_type_id":"4","last_reported":1732691388,"current_range_meters":30800,"station_id":"ce4bhih2rcd13ifvqfs0","pricing_plan_id":"cebpf4jnsgd1na2vs0mg"},{"bike_id":"ecdb3743-a3d9-4afc-bb51-ff07b746abac","system_id":"levelo_inurba_marseille","lat":43.29031,"lon":5.39976,"is_reserved":false,"is_disabled":true,"rental_uris":{"android":"levelo://app?vid=ecdb3743-a3d9-4afc-bb51-ff07b746abac","ios":"levelo://app?vid=ecdb3743-a3d9-4afc-bb51-ff07b746abac"},"vehicle_type_id":"4","last_reported":1732691388,"current_range_meters":38400,"station_id":"ce4bh392rcd13ifvqdm0","pricing_plan_id":"cebpf4jnsgd1na2vs0mg"},{"bike_id":"0a2d70bc-b761-4725-9e3d-6717bfcaa6cc","system_id":"levelo_inurba_marseille","lat":43.337444,"lon":5.374475,"is_reserved":false,"is_disabled":false,"rental_uris":{"android":"levelo://app?vid=0a2d70bc-b761-4725-9e3d-6717bfcaa6cc","ios":"levelo://app?vid=0a2d70bc-b761-4725-9e3d-6717bfcaa6cc"},"vehicle_type_id":"4","last_reported":1732691388,"current_range_meters":34800,"station_id":"","pricing_plan_id":"cebpf4jnsgd1na2vs0mg"},{"bike_id":"b3479e59-acbd-4cc9-9c90-f77a72c4b110","system_id":"levelo_inurba_marseille","lat":43.31769,"lon":5.39045,"is_reserved":false,"is_disabled":false,"rental_uris":{"android":"levelo://app?vid=b3479e59-acbd-4cc9-9c90-f77a72c4b110","ios":"levelo://app?vid=b3479e59-acbd-4cc9-9c90-f77a72c4b110"},"vehicle_type_id":"4","last_reported":1732691388,"current_range_meters":6800,"station_id":"ce4bhqp2rcd13ifvqhng","pricing_plan_id":"cebpf4jnsgd1na2vs0mg"},{"bike_id":"8e46b2c9-0288-44ad-a5dd-399cf4cb50ae","system_id":"levelo_inurba_marseille","lat":43.336131,"lon":5.410309,"is_reserved":false,"is_disabled":false,"rental_uris":{"android":"levelo://app?vid=8e46b2c9-0288-44ad-a5dd-399cf4cb50ae","ios":"levelo://app?vid=8e46b2c9-0288-44ad-a5dd-399cf4cb50ae"},"vehicle_type_id":"4","last_reported":1732691388,"current_range_meters":8400,"station_id":"ce4bhqh2rcd13ifvqhmg","pricing_plan_id":"cebpf4jnsgd1na2vs0mg"},{"bike_id":"820f12a0-cf28-488c-8a74-3f1b9d2e4db5","system_id":"levelo_inurba_marseille","lat":43.23058,"lon":5.35486,"is_reserved":false,"is_disabled":false,"rental_uris":{"android":"levelo://app?vid=820f12a0-cf28-488c-8a74-3f1b9d2e4db5","ios":"levelo://app?vid=820f12a0-cf28-488c-8a74-3f1b9d2e4db5"},"vehicle_type_id":"4","last_reported":1732691388,"current_range_meters":19600,"station_id":"cpo3342slgdg3j2ifvpg","pricing_plan_id":"cebpf4jnsgd1na2vs0mg"},{"bike_id":"c0144486-4a71-49d9-9d5a-bdb77b50458a","system_id":"levelo_inurba_marseille","lat":43.29798,"lon":5.38102,"is_reserved":false,"is_disabled":false,"rental_uris":{"android":"levelo://app?vid=c0144486-4a71-49d9-9d5a-bdb77b50458a","ios":"levelo://app?vid=c0144486-4a71-49d9-9d5a-bdb77b50458a"},"vehicle_type_id":"4","last_reported":1732691388,"current_range_meters":33600,"station_id":"ce4bgip2rcd13ifvqbb0","pricing_plan_id":"cebpf4jnsgd1na2vs0mg"},{"bike_id":"36e535af-6ffe-45ec-a5b2-99a3b6c78331","system_id":"levelo_inurba_marseille","lat":43.28725,"lon":5.36101,"is_reserved":false,"is_disabled":true,"rental_uris":{"android":"levelo://app?vid=36e535af-6ffe-45ec-a5b2-99a3b6c78331","ios":"levelo://app?vid=36e535af-6ffe-45ec-a5b2-99a3b6c78331"},"vehicle_type_id":"4","last_reported":1732691388,"current_range_meters":7200,"station_id":"cki0cbj6b192h4jlfktg","pricing_plan_id":"cebpf4jnsgd1na2vs0mg"},{"bike_id":"a4f5ec09-594b-4d89-bf3e-08aaf07da9b6","system_id":"levelo_inurba_marseille","lat":43.30152,"lon":5.38081,"is_reserved":false,"is_disabled":false,"rental_uris":{"android":"levelo://app?vid=a4f5ec09-594b-4d89-bf3e-08aaf07da9b6","ios":"levelo://app?vid=a4f5ec09-594b-4d89-bf3e-08aaf07da9b6"},"vehicle_type_id":"4","last_reported":1732691388,"current_range_meters":37600,"station_id":"ce4bgjp2rcd13ifvqbh0","pricing_plan_id":"cebpf4jnsgd1na2vs0mg"},{"bike_id":"3451b272-9230-4dff-84d2-783314fd3bbb","system_id":"levelo_inurba_marseille","lat":43.251084,"lon":5.403211,"is_reserved":false,"is_disabled":true,"rental_uris":{"android":"levelo://app?vid=3451b272-9230-4dff-84d2-783314fd3bbb","ios":"levelo://app?vid=3451b272-9230-4dff-84d2-783314fd3bbb"},"vehicle_type_id":"4","last_reported":1732691388,"current_range_meters":0,"station_id":"ce4bhlh2rcd13ifvqgig","pricing_plan_id":"cebpf4jnsgd1na2vs0mg"},{"bike_id":"e4b0cdcb-67be-4389-b5ba-4fc73a6f16d7","system_id":"levelo_inurba_marseille","lat":43.28339,"lon":5.38092,"is_reserved":false,"is_disabled":false,"rental_uris":{"android":"levelo://app?vid=e4b0cdcb-67be-4389-b5ba-4fc73a6f16d7","ios":"levelo://app?vid=e4b0cdcb-67be-4389-b5ba-4fc73a6f16d7"},"vehicle_type_id":"4","last_reported":1732691388,"current_range_meters":39200,"station_id":"ce4bh412rcd13ifvqdr0","pricing_plan_id":"cebpf4jnsgd1na2vs0mg"},{"bike_id":"2f9b9b42-f665-4c1c-86a1-5a0ce40d3de2","system_id":"levelo_inurba_marseille","lat":43.3248,"lon":5.36583,"is_reserved":false,"is_disabled":true,"rental_uris":{"android":"levelo://app?vid=2f9b9b42-f665-4c1c-86a1-5a0ce40d3de2","ios":"levelo://app?vid=2f9b9b42-f665-4c1c-86a1-5a0ce40d3de2"},"vehicle_type_id":"4","last_reported":1732691388,"current_range_meters":26800,"station_id":"ce4bhs12rcd13ifvqhvg","pricing_plan_id":"cebpf4jnsgd1na2vs0mg"},{"bike_id":"8e529a7b-9745-466a-bcda-339ddd0ef383","system_id":"levelo_inurba_marseille","lat":43.26561,"lon":5.39017,"is_reserved":false,"is_disabled":false,"rental_uris":{"android":"levelo://app?vid=8e529a7b-9745-466a-bcda-339ddd0ef383","ios":"levelo://app?vid=8e529a7b-9745-466a-bcda-339ddd0ef383"},"vehicle_type_id":"4","last_reported":1732691388,"current_range_meters":34800,"station_id":"ce4bhe12rcd13ifvqf30","pricing_plan_id":"cebpf4jnsgd1na2vs0mg"},{"bike_id":"cb67f517-b055-4f00-ba20-a4b44888f759","system_id":"levelo_inurba_marseille","lat":43.31708,"lon":5.37749,"is_reserved":false,"is_disabled":false,"rental_uris":{"android":"levelo://app?vid=cb67f517-b055-4f00-ba20-a4b44888f759","ios":"levelo://app?vid=cb67f517-b055-4f00-ba20-a4b44888f759"},"vehicle_type_id":"4","last_reported":1732691388,"current_range_meters":28400,"station_id":"ce4bgth2rcd13ifvqch0","pricing_plan_id":"cebpf4jnsgd1na2vs0mg"},{"bike_id":"7f36dcea-8f94-455a-830f-e4586dcdf612","system_id":"levelo_inurba_marseille","lat":43.25584,"lon":5.38222,"is_reserved":false,"is_disabled":false,"rental_uris":{"android":"levelo://app?vid=7f36dcea-8f94-455a-830f-e4586dcdf612","ios":"levelo://app?vid=7f36dcea-8f94-455a-830f-e4586dcdf612"},"vehicle_type_id":"4","last_reported":1732691388,"current_range_meters":22400,"station_id":"ce4bhih2rcd13ifvqfs0","pricing_plan_id":"cebpf4jnsgd1na2vs0mg"},{"bike_id":"c6323cc4-3a8d-4794-8c5c-c47ccfb2ec44","system_id":"levelo_inurba_marseille","lat":43.30553,"lon":5.36697,"is_reserved":false,"is_disabled":false,"rental_uris":{"android":"levelo://app?vid=c6323cc4-3a8d-4794-8c5c-c47ccfb2ec44","ios":"levelo://app?vid=c6323cc4-3a8d-4794-8c5c-c47ccfb2ec44"},"vehicle_type_id":"4","last_reported":1732691388,"current_range_meters":34000,"station_id":"ce4bgrp2rcd13ifvqc9g","pricing_plan_id":"cebpf4jnsgd1na2vs0mg"},{"bike_id":"b8724aa3-11ec-491b-842f-eeefa4c01d79","system_id":"levelo_inurba_marseille","lat":43.2749,"lon":5.42455,"is_reserved":false,"is_disabled":false,"rental_uris":{"android":"levelo://app?vid=b8724aa3-11ec-491b-842f-eeefa4c01d79","ios":"levelo://app?vid=b8724aa3-11ec-491b-842f-eeefa4c01d79"},"vehicle_type_id":"4","last_reported":1732691388,"current_range_meters":9200,"station_id":"ce4bhn92rcd13ifvqgrg","pricing_plan_id":"cebpf4jnsgd1na2vs0mg"},{"bike_id":"277f3546-97d6-4aa1-8554-a3090c9b905e","system_id":"levelo_inurba_marseille","lat":43.32538,"lon":5.41424,"is_reserved":false,"is_disabled":false,"rental_uris":{"android":"levelo://app?vid=277f3546-97d6-4aa1-8554-a3090c9b905e","ios":"levelo://app?vid=277f3546-97d6-4aa1-8554-a3090c9b905e"},"vehicle_type_id":"4","last_reported":1732691388,"current_range_meters":16400,"station_id":"ce4bhq12rcd13ifvqhhg","pricing_plan_id":"cebpf4jnsgd1na2vs0mg"},{"bike_id":"287fa067-0159-4a80-8436-f002b330f07a","system_id":"levelo_inurba_marseille","lat":43.27073,"lon":5.42271,"is_reserved":false,"is_disabled":false,"rental_uris":{"android":"levelo://app?vid=287fa067-0159-4a80-8436-f002b330f07a","ios":"levelo://app?vid=287fa067-0159-4a80-8436-f002b330f07a"},"vehicle_type_id":"4","last_reported":1732691388,"current_range_meters":38800,"station_id":"ce4bhk92rcd13ifvqgb0","pricing_plan_id":"cebpf4jnsgd1na2vs0mg"},{"bike_id":"4d4c884f-6933-49c0-8899-f9856d90f44d","system_id":"levelo_inurba_marseille","lat":43.297286,"lon":5.380053,"is_reserved":false,"is_disabled":true,"rental_uris":{"android":"levelo://app?vid=4d4c884f-6933-49c0-8899-f9856d90f44d","ios":"levelo://app?vid=4d4c884f-6933-49c0-8899-f9856d90f44d"},"vehicle_type_id":"4","last_reported":1732691388,"current_range_meters":0,"station_id":"","pricing_plan_id":"cebpf4jnsgd1na2vs0mg"},{"bike_id":"41fb53ca-a0a3-4a69-aa76-ed6a157b8fa0","system_id":"levelo_inurba_marseille","lat":43.30466,"lon":5.37897,"is_reserved":false,"is_disabled":false,"rental_uris":{"android":"levelo://app?vid=41fb53ca-a0a3-4a69-aa76-ed6a157b8fa0","ios":"levelo://app?vid=41fb53ca-a0a3-4a69-aa76-ed6a157b8fa0"},"vehicle_type_id":"4","last_reported":1732691388,"current_range_meters":34800,"station_id":"ce4bgup2rcd13ifvqcn0","pricing_plan_id":"cebpf4jnsgd1na2vs0mg"},{"bike_id":"55339742-29d1-4563-81c8-46551a560258","system_id":"levelo_inurba_marseille","lat":43.280997,"lon":5.378508,"is_reserved":false,"is_disabled":false,"rental_uris":{"android":"levelo://app?vid=55339742-29d1-4563-81c8-46551a560258","ios":"levelo://app?vid=55339742-29d1-4563-81c8-46551a560258"},"vehicle_type_id":"4","last_reported":1732691388,"current_range_meters":28800,"station_id":"ce4bha12rcd13ifvqee0","pricing_plan_id":"cebpf4jnsgd1na2vs0mg"},{"bike_id":"898a2045-3b1f-450d-bbe2-0cde778f9bcb","system_id":"levelo_inurba_marseille","lat":43.29289,"lon":5.36838,"is_reserved":false,"is_disabled":false,"rental_uris":{"android":"levelo://app?vid=898a2045-3b1f-450d-bbe2-0cde778f9bcb","ios":"levelo://app?vid=898a2045-3b1f-450d-bbe2-0cde778f9bcb"},"vehicle_type_id":"4","last_reported":1732691388,"current_range_meters":27600,"station_id":"ce4bhbp2rcd13ifvqesg","pricing_plan_id":"cebpf4jnsgd1na2vs0mg"},{"bike_id":"1fd68eae-a001-469a-a916-fc8df7b33cca","system_id":"levelo_inurba_marseille","lat":43.29604,"lon":5.38103,"is_reserved":false,"is_disabled":false,"rental_uris":{"android":"levelo://app?vid=1fd68eae-a001-469a-a916-fc8df7b33cca","ios":"levelo://app?vid=1fd68eae-a001-469a-a916-fc8df7b33cca"},"vehicle_type_id":"4","last_reported":1732691388,"current_range_meters":38400,"station_id":"ce4bgl12rcd13ifvqbo0","pricing_plan_id":"cebpf4jnsgd1na2vs0mg"},{"bike_id":"979a2490-8b77-4145-8568-267c4c5a928a","system_id":"levelo_inurba_marseille","lat":43.27811,"lon":5.40712,"is_reserved":false,"is_disabled":false,"rental_uris":{"android":"levelo://app?vid=979a2490-8b77-4145-8568-267c4c5a928a","ios":"levelo://app?vid=979a2490-8b77-4145-8568-267c4c5a928a"},"vehicle_type_id":"4","last_reported":1732691388,"current_range_meters":38800,"station_id":"ce4bhnh2rcd13ifvqgtg","pricing_plan_id":"cebpf4jnsgd1na2vs0mg"},{"bike_id":"20b3d934-42a7-42b9-bb49-0833cf2f0412","system_id":"levelo_inurba_marseille","lat":43.293079,"lon":5.371844,"is_reserved":false,"is_disabled":true,"rental_uris":{"android":"levelo://app?vid=20b3d934-42a7-42b9-bb49-0833cf2f0412","ios":"levelo://app?vid=20b3d934-42a7-42b9-bb49-0833cf2f0412"},"vehicle_type_id":"4","last_reported":1732691388,"current_range_meters":38800,"station_id":"ce4bgh92rcd13ifvqb40","pricing_plan_id":"cebpf4jnsgd1na2vs0mg"},{"bike_id":"1553e989-9fe5-4d06-aa1a-7944ed1ac256","system_id":"levelo_inurba_marseille","lat":43.28666,"lon":5.36354,"is_reserved":false,"is_disabled":false,"rental_uris":{"android":"levelo://app?vid=1553e989-9fe5-4d06-aa1a-7944ed1ac256","ios":"levelo://app?vid=1553e989-9fe5-4d06-aa1a-7944ed1ac256"},"vehicle_type_id":"4","last_reported":1732691388,"current_range_meters":25600,"station_id":"ce4bhah2rcd13ifvqej0","pricing_plan_id":"cebpf4jnsgd1na2vs0mg"},{"bike_id":"e023ff32-6c4f-4673-a7aa-5fcdbec26d0f","system_id":"levelo_inurba_marseille","lat":43.28843,"lon":5.35831,"is_reserved":false,"is_disabled":true,"rental_uris":{"android":"levelo://app?vid=e023ff32-6c4f-4673-a7aa-5fcdbec26d0f","ios":"levelo://app?vid=e023ff32-6c4f-4673-a7aa-5fcdbec26d0f"},"vehicle_type_id":"4","last_reported":1732691388,"current_range_meters":26000,"station_id":"ce4bhb12rcd13ifvqem0","pricing_plan_id":"cebpf4jnsgd1na2vs0mg"},{"bike_id":"22c0168c-678d-471b-9881-7150f7db9bb9","system_id":"levelo_inurba_marseille","lat":43.31757,"lon":5.38995,"is_reserved":false,"is_disabled":false,"rental_uris":{"android":"levelo://app?vid=22c0168c-678d-471b-9881-7150f7db9bb9","ios":"levelo://app?vid=22c0168c-678d-471b-9881-7150f7db9bb9"},"vehicle_type_id":"4","last_reported":1732691388,"current_range_meters":20400,"station_id":"ce4bhqp2rcd13ifvqhng","pricing_plan_id":"cebpf4jnsgd1na2vs0mg"},{"bike_id":"f9ca3389-f0b0-42e9-b890-7ec20aa8d35e","system_id":"levelo_inurba_marseille","lat":43.29274,"lon":5.36839,"is_reserved":false,"is_disabled":true,"rental_uris":{"android":"levelo://app?vid=f9ca3389-f0b0-42e9-b890-7ec20aa8d35e","ios":"levelo://app?vid=f9ca3389-f0b0-42e9-b890-7ec20aa8d35e"},"vehicle_type_id":"4","last_reported":1732691388,"current_range_meters":12000,"station_id":"ce4bhbp2rcd13ifvqesg","pricing_plan_id":"cebpf4jnsgd1na2vs0mg"},{"bike_id":"4d809776-4d2b-4bf5-8aa6-666b5b1fd18f","system_id":"levelo_inurba_marseille","lat":43.33724,"lon":5.39192,"is_reserved":false,"is_disabled":false,"rental_uris":{"android":"levelo://app?vid=4d809776-4d2b-4bf5-8aa6-666b5b1fd18f","ios":"levelo://app?vid=4d809776-4d2b-4bf5-8aa6-666b5b1fd18f"},"vehicle_type_id":"4","last_reported":1732691388,"current_range_meters":38800,"station_id":"ce4bhr92rcd13ifvqhsg","pricing_plan_id":"cebpf4jnsgd1na2vs0mg"},{"bike_id":"b08e20b5-f00e-4042-93cf-68b043595c11","system_id":"levelo_inurba_marseille","lat":43.2668,"lon":5.38266,"is_reserved":false,"is_disabled":false,"rental_uris":{"android":"levelo://app?vid=b08e20b5-f00e-4042-93cf-68b043595c11","ios":"levelo://app?vid=b08e20b5-f00e-4042-93cf-68b043595c11"},"vehicle_type_id":"4","last_reported":1732691388,"current_range_meters":35200,"station_id":"ce4bhg92rcd13ifvqf90","pricing_plan_id":"cebpf4jnsgd1na2vs0mg"},{"bike_id":"5817161f-5d63-41b2-92c0-c94f8059d60c","system_id":"levelo_inurba_marseille","lat":43.33811,"lon":5.37425,"is_reserved":false,"is_disabled":false,"rental_uris":{"android":"levelo://app?vid=5817161f-5d63-41b2-92c0-c94f8059d60c","ios":"levelo://app?vid=5817161f-5d63-41b2-92c0-c94f8059d60c"},"vehicle_type_id":"4","last_reported":1732691388,"current_range_meters":37600,"station_id":"","pricing_plan_id":"cebpf4jnsgd1na2vs0mg"},{"bike_id":"5c89ccab-80c2-49a1-9b7e-a1e55222bd20","system_id":"levelo_inurba_marseille","lat":43.24076,"lon":5.37758,"is_reserved":false,"is_disabled":false,"rental_uris":{"android":"levelo://app?vid=5c89ccab-80c2-49a1-9b7e-a1e55222bd20","ios":"levelo://app?vid=5c89ccab-80c2-49a1-9b7e-a1e55222bd20"},"vehicle_type_id":"4","last_reported":1732691388,"current_range_meters":38000,"station_id":"ce4bhnp2rcd13ifvqgvg","pricing_plan_id":"cebpf4jnsgd1na2vs0mg"},{"bike_id":"3c99833d-85a4-43d2-84d8-2f934664111f","system_id":"levelo_inurba_marseille","lat":43.29601,"lon":5.38103,"is_reserved":false,"is_disabled":false,"rental_uris":{"android":"levelo://app?vid=3c99833d-85a4-43d2-84d8-2f934664111f","ios":"levelo://app?vid=3c99833d-85a4-43d2-84d8-2f934664111f"},"vehicle_type_id":"4","last_reported":1732691388,"current_range_meters":27200,"station_id":"ce4bgl12rcd13ifvqbo0","pricing_plan_id":"cebpf4jnsgd1na2vs0mg"},{"bike_id":"e5da1ae6-135f-41e5-8637-13cc0af4d550","system_id":"levelo_inurba_marseille","lat":43.28344,"lon":5.38111,"is_reserved":false,"is_disabled":false,"rental_uris":{"android":"levelo://app?vid=e5da1ae6-135f-41e5-8637-13cc0af4d550","ios":"levelo://app?vid=e5da1ae6-135f-41e5-8637-13cc0af4d550"},"vehicle_type_id":"4","last_reported":1732691388,"current_range_meters":31200,"station_id":"ce4bh412rcd13ifvqdr0","pricing_plan_id":"cebpf4jnsgd1na2vs0mg"},{"bike_id":"4141aa03-ec41-432e-8f7e-4c1246226a57","system_id":"levelo_inurba_marseille","lat":43.2706,"lon":5.40262,"is_reserved":false,"is_disabled":false,"rental_uris":{"android":"levelo://app?vid=4141aa03-ec41-432e-8f7e-4c1246226a57","ios":"levelo://app?vid=4141aa03-ec41-432e-8f7e-4c1246226a57"},"vehicle_type_id":"4","last_reported":1732691388,"current_range_meters":38000,"station_id":"ce4bhk92rcd13ifvqgc0","pricing_plan_id":"cebpf4jnsgd1na2vs0mg"},{"bike_id":"73203dcb-1e3d-4dfd-939a-eac856f05ade","system_id":"levelo_inurba_marseille","lat":43.27494,"lon":5.42453,"is_reserved":false,"is_disabled":false,"rental_uris":{"android":"levelo://app?vid=73203dcb-1e3d-4dfd-939a-eac856f05ade","ios":"levelo://app?vid=73203dcb-1e3d-4dfd-939a-eac856f05ade"},"vehicle_type_id":"4","last_reported":1732691388,"current_range_meters":2800,"station_id":"ce4bhn92rcd13ifvqgrg","pricing_plan_id":"cebpf4jnsgd1na2vs0mg"},{"bike_id":"9ca0bee1-3ee3-42dd-bd49-56d5f853d816","system_id":"levelo_inurba_marseille","lat":43.24075,"lon":5.3776,"is_reserved":false,"is_disabled":false,"rental_uris":{"android":"levelo://app?vid=9ca0bee1-3ee3-42dd-bd49-56d5f853d816","ios":"levelo://app?vid=9ca0bee1-3ee3-42dd-bd49-56d5f853d816"},"vehicle_type_id":"4","last_reported":1732691388,"current_range_meters":32400,"station_id":"ce4bhnp2rcd13ifvqgvg","pricing_plan_id":"cebpf4jnsgd1na2vs0mg"},{"bike_id":"e217ab46-3533-4266-8525-236073afdbfc","system_id":"levelo_inurba_marseille","lat":43.30149,"lon":5.38091,"is_reserved":false,"is_disabled":false,"rental_uris":{"android":"levelo://app?vid=e217ab46-3533-4266-8525-236073afdbfc","ios":"levelo://app?vid=e217ab46-3533-4266-8525-236073afdbfc"},"vehicle_type_id":"4","last_reported":1732691388,"current_range_meters":16400,"station_id":"ce4bgjp2rcd13ifvqbh0","pricing_plan_id":"cebpf4jnsgd1na2vs0mg"},{"bike_id":"674df4ab-5b72-443e-a3da-efdec3ddef4f","system_id":"levelo_inurba_marseille","lat":43.314902,"lon":5.373178,"is_reserved":false,"is_disabled":false,"rental_uris":{"android":"levelo://app?vid=674df4ab-5b72-443e-a3da-efdec3ddef4f","ios":"levelo://app?vid=674df4ab-5b72-443e-a3da-efdec3ddef4f"},"vehicle_type_id":"4","last_reported":1732691388,"current_range_meters":6400,"station_id":"ce4bgt12rcd13ifvqcd0","pricing_plan_id":"cebpf4jnsgd1na2vs0mg"},{"bike_id":"6ea27bcb-4564-461e-8ad3-52be6ce29ff9","system_id":"levelo_inurba_marseille","lat":43.26962,"lon":5.38632,"is_reserved":false,"is_disabled":false,"rental_uris":{"android":"levelo://app?vid=6ea27bcb-4564-461e-8ad3-52be6ce29ff9","ios":"levelo://app?vid=6ea27bcb-4564-461e-8ad3-52be6ce29ff9"},"vehicle_type_id":"4","last_reported":1732691388,"current_range_meters":38800,"station_id":"ce4bhh92rcd13ifvqfh0","pricing_plan_id":"cebpf4jnsgd1na2vs0mg"},{"bike_id":"a71d24b9-b22e-418c-be0b-37629e71fe9a","system_id":"levelo_inurba_marseille","lat":43.24672,"lon":5.38402,"is_reserved":false,"is_disabled":false,"rental_uris":{"android":"levelo://app?vid=a71d24b9-b22e-418c-be0b-37629e71fe9a","ios":"levelo://app?vid=a71d24b9-b22e-418c-be0b-37629e71fe9a"},"vehicle_type_id":"4","last_reported":1732691388,"current_range_meters":28000,"station_id":"","pricing_plan_id":"cebpf4jnsgd1na2vs0mg"},{"bike_id":"0cd7fb1f-f090-4e80-a2fb-03510d2b2219","system_id":"levelo_inurba_marseille","lat":43.29572,"lon":5.37502,"is_reserved":false,"is_disabled":true,"rental_uris":{"android":"levelo://app?vid=0cd7fb1f-f090-4e80-a2fb-03510d2b2219","ios":"levelo://app?vid=0cd7fb1f-f090-4e80-a2fb-03510d2b2219"},"vehicle_type_id":"4","last_reported":1732691388,"current_range_meters":27200,"station_id":"ce4bgh92rcd13ifvqb50","pricing_plan_id":"cebpf4jnsgd1na2vs0mg"},{"bike_id":"94347279-d3a0-421b-a693-e49181879011","system_id":"levelo_inurba_marseille","lat":43.28943,"lon":5.39648,"is_reserved":false,"is_disabled":false,"rental_uris":{"android":"levelo://app?vid=94347279-d3a0-421b-a693-e49181879011","ios":"levelo://app?vid=94347279-d3a0-421b-a693-e49181879011"},"vehicle_type_id":"4","last_reported":1732691388,"current_range_meters":23200,"station_id":"ce4bh3h2rcd13ifvqdn0","pricing_plan_id":"cebpf4jnsgd1na2vs0mg"},{"bike_id":"bc313ab8-a6b4-45fb-89b7-ffdf65698691","system_id":"levelo_inurba_marseille","lat":43.27493,"lon":5.42454,"is_reserved":false,"is_disabled":false,"rental_uris":{"android":"levelo://app?vid=bc313ab8-a6b4-45fb-89b7-ffdf65698691","ios":"levelo://app?vid=bc313ab8-a6b4-45fb-89b7-ffdf65698691"},"vehicle_type_id":"4","last_reported":1732691388,"current_range_meters":24400,"station_id":"ce4bhn92rcd13ifvqgrg","pricing_plan_id":"cebpf4jnsgd1na2vs0mg"},{"bike_id":"afec7923-bb94-4d10-aee5-c8a044b181fe","system_id":"levelo_inurba_marseille","lat":43.336057,"lon":5.410357,"is_reserved":false,"is_disabled":false,"rental_uris":{"android":"levelo://app?vid=afec7923-bb94-4d10-aee5-c8a044b181fe","ios":"levelo://app?vid=afec7923-bb94-4d10-aee5-c8a044b181fe"},"vehicle_type_id":"4","last_reported":1732691388,"current_range_meters":35200,"station_id":"","pricing_plan_id":"cebpf4jnsgd1na2vs0mg"},{"bike_id":"6a243988-d267-4e1e-bafc-c091870de6a8","system_id":"levelo_inurba_marseille","lat":43.24174,"lon":5.36423,"is_reserved":false,"is_disabled":false,"rental_uris":{"android":"levelo://app?vid=6a243988-d267-4e1e-bafc-c091870de6a8","ios":"levelo://app?vid=6a243988-d267-4e1e-bafc-c091870de6a8"},"vehicle_type_id":"4","last_reported":1732691388,"current_range_meters":36000,"station_id":"cpo36qri1sfpv3e86is0","pricing_plan_id":"cebpf4jnsgd1na2vs0mg"},{"bike_id":"fad5c5ad-bbe1-451c-a110-6684c364d128","system_id":"levelo_inurba_marseille","lat":43.26937,"lon":5.40241,"is_reserved":false,"is_disabled":false,"rental_uris":{"android":"levelo://app?vid=fad5c5ad-bbe1-451c-a110-6684c364d128","ios":"levelo://app?vid=fad5c5ad-bbe1-451c-a110-6684c364d128"},"vehicle_type_id":"4","last_reported":1732691388,"current_range_meters":38800,"station_id":"cjm6bp8fraef2m0cb0m0","pricing_plan_id":"cebpf4jnsgd1na2vs0mg"},{"bike_id":"2cb9cca3-fdf4-4aa6-867a-d56f814776be","system_id":"levelo_inurba_marseille","lat":43.29803,"lon":5.38121,"is_reserved":false,"is_disabled":false,"rental_uris":{"android":"levelo://app?vid=2cb9cca3-fdf4-4aa6-867a-d56f814776be","ios":"levelo://app?vid=2cb9cca3-fdf4-4aa6-867a-d56f814776be"},"vehicle_type_id":"4","last_reported":1732691388,"current_range_meters":4800,"station_id":"ce4bgip2rcd13ifvqbb0","pricing_plan_id":"cebpf4jnsgd1na2vs0mg"},{"bike_id":"8d7fb948-8394-45df-85f4-38659c7c1984","system_id":"levelo_inurba_marseille","lat":43.24645,"lon":5.38889,"is_reserved":false,"is_disabled":false,"rental_uris":{"android":"levelo://app?vid=8d7fb948-8394-45df-85f4-38659c7c1984","ios":"levelo://app?vid=8d7fb948-8394-45df-85f4-38659c7c1984"},"vehicle_type_id":"4","last_reported":1732691388,"current_range_meters":12800,"station_id":"ce4bhg12rcd13ifvqf60","pricing_plan_id":"cebpf4jnsgd1na2vs0mg"},{"bike_id":"82d9c03a-6f43-4338-8c7b-2b9ac3a50f16","system_id":"levelo_inurba_marseille","lat":43.28929,"lon":5.36634,"is_reserved":false,"is_disabled":true,"rental_uris":{"android":"levelo://app?vid=82d9c03a-6f43-4338-8c7b-2b9ac3a50f16","ios":"levelo://app?vid=82d9c03a-6f43-4338-8c7b-2b9ac3a50f16"},"vehicle_type_id":"4","last_reported":1732691388,"current_range_meters":16000,"station_id":"ce4bhap2rcd13ifvqek0","pricing_plan_id":"cebpf4jnsgd1na2vs0mg"},{"bike_id":"39b04c21-6a6a-40a7-a489-741c2b67c9bd","system_id":"levelo_inurba_marseille","lat":43.337253,"lon":5.391919,"is_reserved":false,"is_disabled":false,"rental_uris":{"android":"levelo://app?vid=39b04c21-6a6a-40a7-a489-741c2b67c9bd","ios":"levelo://app?vid=39b04c21-6a6a-40a7-a489-741c2b67c9bd"},"vehicle_type_id":"4","last_reported":1732691388,"current_range_meters":11200,"station_id":"ce4bhr92rcd13ifvqhsg","pricing_plan_id":"cebpf4jnsgd1na2vs0mg"},{"bike_id":"fed165e5-8382-4dd2-865b-69f1cdb3e32b","system_id":"levelo_inurba_marseille","lat":43.3134,"lon":5.36719,"is_reserved":false,"is_disabled":false,"rental_uris":{"android":"levelo://app?vid=fed165e5-8382-4dd2-865b-69f1cdb3e32b","ios":"levelo://app?vid=fed165e5-8382-4dd2-865b-69f1cdb3e32b"},"vehicle_type_id":"4","last_reported":1732691388,"current_range_meters":27200,"station_id":"ce4bgr92rcd13ifvqc6g","pricing_plan_id":"cebpf4jnsgd1na2vs0mg"},{"bike_id":"79b3dc1f-6e84-475f-a7e3-8f948157f916","system_id":"levelo_inurba_marseille","lat":43.30324,"lon":5.40434,"is_reserved":false,"is_disabled":false,"rental_uris":{"android":"levelo://app?vid=79b3dc1f-6e84-475f-a7e3-8f948157f916","ios":"levelo://app?vid=79b3dc1f-6e84-475f-a7e3-8f948157f916"},"vehicle_type_id":"4","last_reported":1732691388,"current_range_meters":11200,"station_id":"ce4bh012rcd13ifvqd10","pricing_plan_id":"cebpf4jnsgd1na2vs0mg"},{"bike_id":"9e4b69eb-fee4-468a-a48d-f649843ccd23","system_id":"levelo_inurba_marseille","lat":43.30598,"lon":5.3936,"is_reserved":false,"is_disabled":false,"rental_uris":{"android":"levelo://app?vid=9e4b69eb-fee4-468a-a48d-f649843ccd23","ios":"levelo://app?vid=9e4b69eb-fee4-468a-a48d-f649843ccd23"},"vehicle_type_id":"4","last_reported":1732691388,"current_range_meters":38400,"station_id":"ce4bh0p2rcd13ifvqd80","pricing_plan_id":"cebpf4jnsgd1na2vs0mg"},{"bike_id":"7d51e624-0ea6-4353-a684-c3afe6c0bb90","system_id":"levelo_inurba_marseille","lat":43.25579,"lon":5.38231,"is_reserved":false,"is_disabled":false,"rental_uris":{"android":"levelo://app?vid=7d51e624-0ea6-4353-a684-c3afe6c0bb90","ios":"levelo://app?vid=7d51e624-0ea6-4353-a684-c3afe6c0bb90"},"vehicle_type_id":"4","last_reported":1732691388,"current_range_meters":38400,"station_id":"ce4bhih2rcd13ifvqfs0","pricing_plan_id":"cebpf4jnsgd1na2vs0mg"},{"bike_id":"704ddb11-043f-474f-a260-926d75682a49","system_id":"levelo_inurba_marseille","lat":43.29807,"lon":5.40405,"is_reserved":false,"is_disabled":false,"rental_uris":{"android":"levelo://app?vid=704ddb11-043f-474f-a260-926d75682a49","ios":"levelo://app?vid=704ddb11-043f-474f-a260-926d75682a49"},"vehicle_type_id":"4","last_reported":1732691388,"current_range_meters":38800,"station_id":"ce4bh112rcd13ifvqd90","pricing_plan_id":"cebpf4jnsgd1na2vs0mg"},{"bike_id":"d0efdbb4-8350-4368-8476-c95f775462d2","system_id":"levelo_inurba_marseille","lat":43.29253,"lon":5.40918,"is_reserved":false,"is_disabled":false,"rental_uris":{"android":"levelo://app?vid=d0efdbb4-8350-4368-8476-c95f775462d2","ios":"levelo://app?vid=d0efdbb4-8350-4368-8476-c95f775462d2"},"vehicle_type_id":"4","last_reported":1732691388,"current_range_meters":8400,"station_id":"ce4bh192rcd13ifvqdc0","pricing_plan_id":"cebpf4jnsgd1na2vs0mg"},{"bike_id":"29a8d8d5-e1fc-4b82-8d20-210b436ad901","system_id":"levelo_inurba_marseille","lat":43.30906,"lon":5.36844,"is_reserved":false,"is_disabled":false,"rental_uris":{"android":"levelo://app?vid=29a8d8d5-e1fc-4b82-8d20-210b436ad901","ios":"levelo://app?vid=29a8d8d5-e1fc-4b82-8d20-210b436ad901"},"vehicle_type_id":"4","last_reported":1732691388,"current_range_meters":24400,"station_id":"ce4bgn92rcd13ifvqbvg","pricing_plan_id":"cebpf4jnsgd1na2vs0mg"},{"bike_id":"a95b4fc0-3ad4-4725-9e0d-c8f22b5b6280","system_id":"levelo_inurba_marseille","lat":43.30418,"lon":5.39758,"is_reserved":false,"is_disabled":false,"rental_uris":{"android":"levelo://app?vid=a95b4fc0-3ad4-4725-9e0d-c8f22b5b6280","ios":"levelo://app?vid=a95b4fc0-3ad4-4725-9e0d-c8f22b5b6280"},"vehicle_type_id":"4","last_reported":1732691388,"current_range_meters":18800,"station_id":"ce4bh092rcd13ifvqd20","pricing_plan_id":"cebpf4jnsgd1na2vs0mg"},{"bike_id":"3b2ddd61-7276-4381-b067-2a88d42fe9ff","system_id":"levelo_inurba_marseille","lat":43.28252,"lon":5.35047,"is_reserved":false,"is_disabled":false,"rental_uris":{"android":"levelo://app?vid=3b2ddd61-7276-4381-b067-2a88d42fe9ff","ios":"levelo://app?vid=3b2ddd61-7276-4381-b067-2a88d42fe9ff"},"vehicle_type_id":"4","last_reported":1732691388,"current_range_meters":16000,"station_id":"ce4bhbp2rcd13ifvqerg","pricing_plan_id":"cebpf4jnsgd1na2vs0mg"},{"bike_id":"ae635ed7-bedf-44f2-a57c-30c7b2ffef80","system_id":"levelo_inurba_marseille","lat":43.30204,"lon":5.39472,"is_reserved":false,"is_disabled":true,"rental_uris":{"android":"levelo://app?vid=ae635ed7-bedf-44f2-a57c-30c7b2ffef80","ios":"levelo://app?vid=ae635ed7-bedf-44f2-a57c-30c7b2ffef80"},"vehicle_type_id":"4","last_reported":1732691388,"current_range_meters":0,"station_id":"ce4bh0p2rcd13ifvqd70","pricing_plan_id":"cebpf4jnsgd1na2vs0mg"},{"bike_id":"36296f5c-0176-4be0-97c8-7930cda9c369","system_id":"levelo_inurba_marseille","lat":43.32101,"lon":5.36769,"is_reserved":false,"is_disabled":false,"rental_uris":{"android":"levelo://app?vid=36296f5c-0176-4be0-97c8-7930cda9c369","ios":"levelo://app?vid=36296f5c-0176-4be0-97c8-7930cda9c369"},"vehicle_type_id":"4","last_reported":1732691388,"current_range_meters":17600,"station_id":"ce4bhrh2rcd13ifvqhug","pricing_plan_id":"cebpf4jnsgd1na2vs0mg"},{"bike_id":"ca2719d9-81ef-4435-a326-aa4860d557e9","system_id":"levelo_inurba_marseille","lat":43.30566,"lon":5.3917,"is_reserved":false,"is_disabled":false,"rental_uris":{"android":"levelo://app?vid=ca2719d9-81ef-4435-a326-aa4860d557e9","ios":"levelo://app?vid=ca2719d9-81ef-4435-a326-aa4860d557e9"},"vehicle_type_id":"4","last_reported":1732691388,"current_range_meters":28000,"station_id":"ce4bgk12rcd13ifvqbi0","pricing_plan_id":"cebpf4jnsgd1na2vs0mg"},{"bike_id":"be4d2d1c-e4ca-47d5-a123-024b21714b07","system_id":"levelo_inurba_marseille","lat":43.30901,"lon":5.36841,"is_reserved":false,"is_disabled":false,"rental_uris":{"android":"levelo://app?vid=be4d2d1c-e4ca-47d5-a123-024b21714b07","ios":"levelo://app?vid=be4d2d1c-e4ca-47d5-a123-024b21714b07"},"vehicle_type_id":"4","last_reported":1732691388,"current_range_meters":38000,"station_id":"ce4bgn92rcd13ifvqbvg","pricing_plan_id":"cebpf4jnsgd1na2vs0mg"},{"bike_id":"5a64147f-da9a-40cb-a940-153001e1f291","system_id":"levelo_inurba_marseille","lat":43.297951,"lon":5.381927,"is_reserved":false,"is_disabled":true,"rental_uris":{"android":"levelo://app?vid=5a64147f-da9a-40cb-a940-153001e1f291","ios":"levelo://app?vid=5a64147f-da9a-40cb-a940-153001e1f291"},"vehicle_type_id":"4","last_reported":1732691388,"current_range_meters":28400,"station_id":"","pricing_plan_id":"cebpf4jnsgd1na2vs0mg"},{"bike_id":"9317a861-d78b-4065-9dfd-176ae62e33bd","system_id":"levelo_inurba_marseille","lat":43.28346,"lon":5.38109,"is_reserved":false,"is_disabled":false,"rental_uris":{"android":"levelo://app?vid=9317a861-d78b-4065-9dfd-176ae62e33bd","ios":"levelo://app?vid=9317a861-d78b-4065-9dfd-176ae62e33bd"},"vehicle_type_id":"4","last_reported":1732691388,"current_range_meters":31200,"station_id":"ce4bh412rcd13ifvqdr0","pricing_plan_id":"cebpf4jnsgd1na2vs0mg"},{"bike_id":"a6d7a9b9-988c-45e5-b37b-3a86475a2324","system_id":"levelo_inurba_marseille","lat":43.24072,"lon":5.37757,"is_reserved":false,"is_disabled":false,"rental_uris":{"android":"levelo://app?vid=a6d7a9b9-988c-45e5-b37b-3a86475a2324","ios":"levelo://app?vid=a6d7a9b9-988c-45e5-b37b-3a86475a2324"},"vehicle_type_id":"4","last_reported":1732691388,"current_range_meters":10000,"station_id":"ce4bhnp2rcd13ifvqgvg","pricing_plan_id":"cebpf4jnsgd1na2vs0mg"},{"bike_id":"2547bb87-4747-45bc-9f51-ddf806ad79b1","system_id":"levelo_inurba_marseille","lat":43.27492,"lon":5.4245,"is_reserved":false,"is_disabled":false,"rental_uris":{"android":"levelo://app?vid=2547bb87-4747-45bc-9f51-ddf806ad79b1","ios":"levelo://app?vid=2547bb87-4747-45bc-9f51-ddf806ad79b1"},"vehicle_type_id":"4","last_reported":1732691388,"current_range_meters":27600,"station_id":"ce4bhn92rcd13ifvqgrg","pricing_plan_id":"cebpf4jnsgd1na2vs0mg"},{"bike_id":"3fb4bf40-3244-4e47-8fea-9dc5b0fd98ab","system_id":"levelo_inurba_marseille","lat":43.3414,"lon":5.40907,"is_reserved":false,"is_disabled":false,"rental_uris":{"android":"levelo://app?vid=3fb4bf40-3244-4e47-8fea-9dc5b0fd98ab","ios":"levelo://app?vid=3fb4bf40-3244-4e47-8fea-9dc5b0fd98ab"},"vehicle_type_id":"4","last_reported":1732691388,"current_range_meters":8400,"station_id":"ce4bhqh2rcd13ifvqhlg","pricing_plan_id":"cebpf4jnsgd1na2vs0mg"},{"bike_id":"cb4f7320-0a67-460c-b828-07ac6cff3837","system_id":"levelo_inurba_marseille","lat":43.30473,"lon":5.37906,"is_reserved":false,"is_disabled":false,"rental_uris":{"android":"levelo://app?vid=cb4f7320-0a67-460c-b828-07ac6cff3837","ios":"levelo://app?vid=cb4f7320-0a67-460c-b828-07ac6cff3837"},"vehicle_type_id":"4","last_reported":1732691388,"current_range_meters":30400,"station_id":"ce4bgup2rcd13ifvqcn0","pricing_plan_id":"cebpf4jnsgd1na2vs0mg"},{"bike_id":"ab9d27c8-9335-4870-b8e1-937fefd36777","system_id":"levelo_inurba_marseille","lat":43.3091,"lon":5.36846,"is_reserved":false,"is_disabled":false,"rental_uris":{"android":"levelo://app?vid=ab9d27c8-9335-4870-b8e1-937fefd36777","ios":"levelo://app?vid=ab9d27c8-9335-4870-b8e1-937fefd36777"},"vehicle_type_id":"4","last_reported":1732691388,"current_range_meters":36800,"station_id":"ce4bgn92rcd13ifvqbvg","pricing_plan_id":"cebpf4jnsgd1na2vs0mg"},{"bike_id":"18561410-f6e2-4ef3-9541-19fe22080b6a","system_id":"levelo_inurba_marseille","lat":43.29791,"lon":5.380943,"is_reserved":false,"is_disabled":false,"rental_uris":{"android":"levelo://app?vid=18561410-f6e2-4ef3-9541-19fe22080b6a","ios":"levelo://app?vid=18561410-f6e2-4ef3-9541-19fe22080b6a"},"vehicle_type_id":"4","last_reported":1732691388,"current_range_meters":38400,"station_id":"ce4bgip2rcd13ifvqbb0","pricing_plan_id":"cebpf4jnsgd1na2vs0mg"},{"bike_id":"1cd78e3c-eca2-430e-a00b-3450b52eb373","system_id":"levelo_inurba_marseille","lat":43.22927,"lon":5.35368,"is_reserved":false,"is_disabled":false,"rental_uris":{"android":"levelo://app?vid=1cd78e3c-eca2-430e-a00b-3450b52eb373","ios":"levelo://app?vid=1cd78e3c-eca2-430e-a00b-3450b52eb373"},"vehicle_type_id":"4","last_reported":1732691388,"current_range_meters":38000,"station_id":"cpo3532slgdg3j2ikp40","pricing_plan_id":"cebpf4jnsgd1na2vs0mg"},{"bike_id":"f6bfaf70-a9dc-4d17-af73-2831edc13099","system_id":"levelo_inurba_marseille","lat":43.2558,"lon":5.38227,"is_reserved":false,"is_disabled":false,"rental_uris":{"android":"levelo://app?vid=f6bfaf70-a9dc-4d17-af73-2831edc13099","ios":"levelo://app?vid=f6bfaf70-a9dc-4d17-af73-2831edc13099"},"vehicle_type_id":"4","last_reported":1732691388,"current_range_meters":38800,"station_id":"ce4bhih2rcd13ifvqfs0","pricing_plan_id":"cebpf4jnsgd1na2vs0mg"},{"bike_id":"391001e2-7361-4b92-b20f-4fb1d1376b6e","system_id":"levelo_inurba_marseille","lat":43.23188,"lon":5.40019,"is_reserved":false,"is_disabled":false,"rental_uris":{"android":"levelo://app?vid=391001e2-7361-4b92-b20f-4fb1d1376b6e","ios":"levelo://app?vid=391001e2-7361-4b92-b20f-4fb1d1376b6e"},"vehicle_type_id":"4","last_reported":1732691388,"current_range_meters":37600,"station_id":"ce4bhn12rcd13ifvqgqg","pricing_plan_id":"cebpf4jnsgd1na2vs0mg"},{"bike_id":"4a5edfa9-8dfd-4c0c-9f8c-7043babfbe18","system_id":"levelo_inurba_marseille","lat":43.32324,"lon":5.40616,"is_reserved":false,"is_disabled":false,"rental_uris":{"android":"levelo://app?vid=4a5edfa9-8dfd-4c0c-9f8c-7043babfbe18","ios":"levelo://app?vid=4a5edfa9-8dfd-4c0c-9f8c-7043babfbe18"},"vehicle_type_id":"4","last_reported":1732691388,"current_range_meters":9200,"station_id":"ce4bhq92rcd13ifvqhjg","pricing_plan_id":"cebpf4jnsgd1na2vs0mg"},{"bike_id":"2c00a602-8192-4d74-ac5c-523367d7be3a","system_id":"levelo_inurba_marseille","lat":43.29595,"lon":5.381195,"is_reserved":false,"is_disabled":false,"rental_uris":{"android":"levelo://app?vid=2c00a602-8192-4d74-ac5c-523367d7be3a","ios":"levelo://app?vid=2c00a602-8192-4d74-ac5c-523367d7be3a"},"vehicle_type_id":"4","last_reported":1732691388,"current_range_meters":37600,"station_id":"ce4bgl12rcd13ifvqbo0","pricing_plan_id":"cebpf4jnsgd1na2vs0mg"},{"bike_id":"7661e34e-ac55-4dca-b4c7-31a506d67932","system_id":"levelo_inurba_marseille","lat":43.2594,"lon":5.40903,"is_reserved":false,"is_disabled":false,"rental_uris":{"android":"levelo://app?vid=7661e34e-ac55-4dca-b4c7-31a506d67932","ios":"levelo://app?vid=7661e34e-ac55-4dca-b4c7-31a506d67932"},"vehicle_type_id":"4","last_reported":1732691388,"current_range_meters":20400,"station_id":"ce4bhm92rcd13ifvqglg","pricing_plan_id":"cebpf4jnsgd1na2vs0mg"},{"bike_id":"ad147b94-4180-4578-a0fa-c4d1998acb2d","system_id":"levelo_inurba_marseille","lat":43.29026,"lon":5.35932,"is_reserved":false,"is_disabled":true,"rental_uris":{"android":"levelo://app?vid=ad147b94-4180-4578-a0fa-c4d1998acb2d","ios":"levelo://app?vid=ad147b94-4180-4578-a0fa-c4d1998acb2d"},"vehicle_type_id":"4","last_reported":1732691388,"current_range_meters":37600,"station_id":"ce4bha92rcd13ifvqeg0","pricing_plan_id":"cebpf4jnsgd1na2vs0mg"},{"bike_id":"466f99e8-4092-4c37-b2d7-83c495404794","system_id":"levelo_inurba_marseille","lat":43.29602,"lon":5.38107,"is_reserved":false,"is_disabled":false,"rental_uris":{"android":"levelo://app?vid=466f99e8-4092-4c37-b2d7-83c495404794","ios":"levelo://app?vid=466f99e8-4092-4c37-b2d7-83c495404794"},"vehicle_type_id":"4","last_reported":1732691388,"current_range_meters":26800,"station_id":"ce4bgl12rcd13ifvqbo0","pricing_plan_id":"cebpf4jnsgd1na2vs0mg"},{"bike_id":"2e95a691-d7d8-426b-8dba-47b6b56c6a41","system_id":"levelo_inurba_marseille","lat":43.28154,"lon":5.4264,"is_reserved":false,"is_disabled":true,"rental_uris":{"android":"levelo://app?vid=2e95a691-d7d8-426b-8dba-47b6b56c6a41","ios":"levelo://app?vid=2e95a691-d7d8-426b-8dba-47b6b56c6a41"},"vehicle_type_id":"4","last_reported":1732691388,"current_range_meters":2800,"station_id":"ce4bhnh2rcd13ifvqgug","pricing_plan_id":"cebpf4jnsgd1na2vs0mg"},{"bike_id":"e1023cd0-0598-4752-bca2-87e3d8646e5a","system_id":"levelo_inurba_marseille","lat":43.27371,"lon":5.36256,"is_reserved":false,"is_disabled":false,"rental_uris":{"android":"levelo://app?vid=e1023cd0-0598-4752-bca2-87e3d8646e5a","ios":"levelo://app?vid=e1023cd0-0598-4752-bca2-87e3d8646e5a"},"vehicle_type_id":"4","last_reported":1732691388,"current_range_meters":38400,"station_id":"ce4bhbh2rcd13ifvqeo0","pricing_plan_id":"cebpf4jnsgd1na2vs0mg"},{"bike_id":"cbc9f954-8758-40c7-a093-276daeb1d283","system_id":"levelo_inurba_marseille","lat":43.3134,"lon":5.36719,"is_reserved":false,"is_disabled":false,"rental_uris":{"android":"levelo://app?vid=cbc9f954-8758-40c7-a093-276daeb1d283","ios":"levelo://app?vid=cbc9f954-8758-40c7-a093-276daeb1d283"},"vehicle_type_id":"4","last_reported":1732691388,"current_range_meters":16400,"station_id":"ce4bgr92rcd13ifvqc6g","pricing_plan_id":"cebpf4jnsgd1na2vs0mg"},{"bike_id":"fba1ceb6-3cef-4b3a-8f1d-cb2909f800c4","system_id":"levelo_inurba_marseille","lat":43.31363,"lon":5.366983,"is_reserved":false,"is_disabled":false,"rental_uris":{"android":"levelo://app?vid=fba1ceb6-3cef-4b3a-8f1d-cb2909f800c4","ios":"levelo://app?vid=fba1ceb6-3cef-4b3a-8f1d-cb2909f800c4"},"vehicle_type_id":"4","last_reported":1732691388,"current_range_meters":38800,"station_id":"ce4bgr92rcd13ifvqc6g","pricing_plan_id":"cebpf4jnsgd1na2vs0mg"},{"bike_id":"296383cf-b9f1-4ece-98e9-977ef8cbd17a","system_id":"levelo_inurba_marseille","lat":43.2318,"lon":5.40003,"is_reserved":false,"is_disabled":false,"rental_uris":{"android":"levelo://app?vid=296383cf-b9f1-4ece-98e9-977ef8cbd17a","ios":"levelo://app?vid=296383cf-b9f1-4ece-98e9-977ef8cbd17a"},"vehicle_type_id":"4","last_reported":1732691388,"current_range_meters":19200,"station_id":"ce4bhn12rcd13ifvqgqg","pricing_plan_id":"cebpf4jnsgd1na2vs0mg"},{"bike_id":"0d885c33-99e8-4e60-9043-86656721a083","system_id":"levelo_inurba_marseille","lat":43.2925,"lon":5.40897,"is_reserved":false,"is_disabled":false,"rental_uris":{"android":"levelo://app?vid=0d885c33-99e8-4e60-9043-86656721a083","ios":"levelo://app?vid=0d885c33-99e8-4e60-9043-86656721a083"},"vehicle_type_id":"4","last_reported":1732691388,"current_range_meters":9200,"station_id":"ce4bh192rcd13ifvqdc0","pricing_plan_id":"cebpf4jnsgd1na2vs0mg"},{"bike_id":"dbfbc751-4499-461c-bea6-9fab71beba99","system_id":"levelo_inurba_marseille","lat":43.27667,"lon":5.38876,"is_reserved":false,"is_disabled":false,"rental_uris":{"android":"levelo://app?vid=dbfbc751-4499-461c-bea6-9fab71beba99","ios":"levelo://app?vid=dbfbc751-4499-461c-bea6-9fab71beba99"},"vehicle_type_id":"4","last_reported":1732691388,"current_range_meters":16400,"station_id":"ce4bhi12rcd13ifvqfo0","pricing_plan_id":"cebpf4jnsgd1na2vs0mg"},{"bike_id":"1606c510-b735-4fc8-8ac9-1879292672fd","system_id":"levelo_inurba_marseille","lat":43.25861,"lon":5.39897,"is_reserved":false,"is_disabled":false,"rental_uris":{"android":"levelo://app?vid=1606c510-b735-4fc8-8ac9-1879292672fd","ios":"levelo://app?vid=1606c510-b735-4fc8-8ac9-1879292672fd"},"vehicle_type_id":"4","last_reported":1732691388,"current_range_meters":8000,"station_id":"ce4bhl92rcd13ifvqghg","pricing_plan_id":"cebpf4jnsgd1na2vs0mg"},{"bike_id":"858b65e1-94fc-4151-a71e-8b168cb19dcb","system_id":"levelo_inurba_marseille","lat":43.32249,"lon":5.39241,"is_reserved":false,"is_disabled":true,"rental_uris":{"android":"levelo://app?vid=858b65e1-94fc-4151-a71e-8b168cb19dcb","ios":"levelo://app?vid=858b65e1-94fc-4151-a71e-8b168cb19dcb"},"vehicle_type_id":"4","last_reported":1732691388,"current_range_meters":0,"station_id":"","pricing_plan_id":"cebpf4jnsgd1na2vs0mg"},{"bike_id":"7eb1e2c7-8123-4851-a7f7-35d3b6862be1","system_id":"levelo_inurba_marseille","lat":43.30584,"lon":5.39345,"is_reserved":false,"is_disabled":false,"rental_uris":{"android":"levelo://app?vid=7eb1e2c7-8123-4851-a7f7-35d3b6862be1","ios":"levelo://app?vid=7eb1e2c7-8123-4851-a7f7-35d3b6862be1"},"vehicle_type_id":"4","last_reported":1732691388,"current_range_meters":26800,"station_id":"ce4bh0p2rcd13ifvqd80","pricing_plan_id":"cebpf4jnsgd1na2vs0mg"},{"bike_id":"e51b2acb-d883-446b-9ce9-347608453ece","system_id":"levelo_inurba_marseille","lat":43.2293,"lon":5.35372,"is_reserved":false,"is_disabled":false,"rental_uris":{"android":"levelo://app?vid=e51b2acb-d883-446b-9ce9-347608453ece","ios":"levelo://app?vid=e51b2acb-d883-446b-9ce9-347608453ece"},"vehicle_type_id":"4","last_reported":1732691388,"current_range_meters":37600,"station_id":"cpo3532slgdg3j2ikp40","pricing_plan_id":"cebpf4jnsgd1na2vs0mg"},{"bike_id":"068dc7a2-b009-4852-97f8-8242c1aa131b","system_id":"levelo_inurba_marseille","lat":43.2963,"lon":5.40599,"is_reserved":false,"is_disabled":false,"rental_uris":{"android":"levelo://app?vid=068dc7a2-b009-4852-97f8-8242c1aa131b","ios":"levelo://app?vid=068dc7a2-b009-4852-97f8-8242c1aa131b"},"vehicle_type_id":"4","last_reported":1732691388,"current_range_meters":32000,"station_id":"ce4bh0h2rcd13ifvqd60","pricing_plan_id":"cebpf4jnsgd1na2vs0mg"},{"bike_id":"92c6c2b8-814a-4a18-ba1a-e771f58bc8ef","system_id":"levelo_inurba_marseille","lat":43.2408,"lon":5.37751,"is_reserved":false,"is_disabled":true,"rental_uris":{"android":"levelo://app?vid=92c6c2b8-814a-4a18-ba1a-e771f58bc8ef","ios":"levelo://app?vid=92c6c2b8-814a-4a18-ba1a-e771f58bc8ef"},"vehicle_type_id":"4","last_reported":1732691388,"current_range_meters":0,"station_id":"ce4bhnp2rcd13ifvqgvg","pricing_plan_id":"cebpf4jnsgd1na2vs0mg"},{"bike_id":"42267d30-9d0b-4c16-95f5-61dc03e6a8f0","system_id":"levelo_inurba_marseille","lat":43.30794,"lon":5.37651,"is_reserved":false,"is_disabled":true,"rental_uris":{"android":"levelo://app?vid=42267d30-9d0b-4c16-95f5-61dc03e6a8f0","ios":"levelo://app?vid=42267d30-9d0b-4c16-95f5-61dc03e6a8f0"},"vehicle_type_id":"4","last_reported":1732691388,"current_range_meters":0,"station_id":"ce4bgv92rcd13ifvqcq0","pricing_plan_id":"cebpf4jnsgd1na2vs0mg"},{"bike_id":"687bcf23-a5c0-4a08-836b-545238d7de20","system_id":"levelo_inurba_marseille","lat":43.2749,"lon":5.42444,"is_reserved":false,"is_disabled":false,"rental_uris":{"android":"levelo://app?vid=687bcf23-a5c0-4a08-836b-545238d7de20","ios":"levelo://app?vid=687bcf23-a5c0-4a08-836b-545238d7de20"},"vehicle_type_id":"4","last_reported":1732691388,"current_range_meters":19200,"station_id":"ce4bhn92rcd13ifvqgrg","pricing_plan_id":"cebpf4jnsgd1na2vs0mg"},{"bike_id":"d5da5333-8509-4b0a-b744-e59e463e7865","system_id":"levelo_inurba_marseille","lat":43.27902,"lon":5.38292,"is_reserved":false,"is_disabled":true,"rental_uris":{"android":"levelo://app?vid=d5da5333-8509-4b0a-b744-e59e463e7865","ios":"levelo://app?vid=d5da5333-8509-4b0a-b744-e59e463e7865"},"vehicle_type_id":"4","last_reported":1732691388,"current_range_meters":20000,"station_id":"","pricing_plan_id":"cebpf4jnsgd1na2vs0mg"},{"bike_id":"5b9df18a-310e-4322-9aec-13ce65e92c31","system_id":"levelo_inurba_marseille","lat":43.30303,"lon":5.4025,"is_reserved":false,"is_disabled":false,"rental_uris":{"android":"levelo://app?vid=5b9df18a-310e-4322-9aec-13ce65e92c31","ios":"levelo://app?vid=5b9df18a-310e-4322-9aec-13ce65e92c31"},"vehicle_type_id":"4","last_reported":1732691388,"current_range_meters":20800,"station_id":"","pricing_plan_id":"cebpf4jnsgd1na2vs0mg"},{"bike_id":"07fb3438-115c-4c8b-ad76-fcfa66de616f","system_id":"levelo_inurba_marseille","lat":43.29801,"lon":5.38089,"is_reserved":false,"is_disabled":false,"rental_uris":{"android":"levelo://app?vid=07fb3438-115c-4c8b-ad76-fcfa66de616f","ios":"levelo://app?vid=07fb3438-115c-4c8b-ad76-fcfa66de616f"},"vehicle_type_id":"4","last_reported":1732691388,"current_range_meters":13600,"station_id":"ce4bgip2rcd13ifvqbb0","pricing_plan_id":"cebpf4jnsgd1na2vs0mg"},{"bike_id":"f7f3756c-1ec7-4782-9c87-6273f87b6774","system_id":"levelo_inurba_marseille","lat":43.337444,"lon":5.374475,"is_reserved":false,"is_disabled":true,"rental_uris":{"android":"levelo://app?vid=f7f3756c-1ec7-4782-9c87-6273f87b6774","ios":"levelo://app?vid=f7f3756c-1ec7-4782-9c87-6273f87b6774"},"vehicle_type_id":"4","last_reported":1732691388,"current_range_meters":16000,"station_id":"","pricing_plan_id":"cebpf4jnsgd1na2vs0mg"},{"bike_id":"9a7fc65c-a473-4df1-8da8-b97e38cbdb89","system_id":"levelo_inurba_marseille","lat":43.23154,"lon":5.43739,"is_reserved":false,"is_disabled":false,"rental_uris":{"android":"levelo://app?vid=9a7fc65c-a473-4df1-8da8-b97e38cbdb89","ios":"levelo://app?vid=9a7fc65c-a473-4df1-8da8-b97e38cbdb89"},"vehicle_type_id":"4","last_reported":1732691388,"current_range_meters":8000,"station_id":"ce4bhmp2rcd13ifvqgog","pricing_plan_id":"cebpf4jnsgd1na2vs0mg"},{"bike_id":"5ad94f11-d0cb-4d81-815c-d14c511fb2a1","system_id":"levelo_inurba_marseille","lat":43.24154,"lon":5.39714,"is_reserved":false,"is_disabled":false,"rental_uris":{"android":"levelo://app?vid=5ad94f11-d0cb-4d81-815c-d14c511fb2a1","ios":"levelo://app?vid=5ad94f11-d0cb-4d81-815c-d14c511fb2a1"},"vehicle_type_id":"4","last_reported":1732691388,"current_range_meters":19200,"station_id":"ce4bhn12rcd13ifvqgpg","pricing_plan_id":"cebpf4jnsgd1na2vs0mg"},{"bike_id":"5ac84619-8500-415b-9629-5dc640523aaa","system_id":"levelo_inurba_marseille","lat":43.29521,"lon":5.3749,"is_reserved":false,"is_disabled":true,"rental_uris":{"android":"levelo://app?vid=5ac84619-8500-415b-9629-5dc640523aaa","ios":"levelo://app?vid=5ac84619-8500-415b-9629-5dc640523aaa"},"vehicle_type_id":"4","last_reported":1732691388,"current_range_meters":12400,"station_id":"ce4bgkp2rcd13ifvqbmg","pricing_plan_id":"cebpf4jnsgd1na2vs0mg"},{"bike_id":"a37ba686-f848-4425-935c-849ad6207784","system_id":"levelo_inurba_marseille","lat":43.28478,"lon":5.37287,"is_reserved":false,"is_disabled":false,"rental_uris":{"android":"levelo://app?vid=a37ba686-f848-4425-935c-849ad6207784","ios":"levelo://app?vid=a37ba686-f848-4425-935c-849ad6207784"},"vehicle_type_id":"4","last_reported":1732691388,"current_range_meters":26000,"station_id":"ce4bht12rcd13ifvqi60","pricing_plan_id":"cebpf4jnsgd1na2vs0mg"},{"bike_id":"79248b71-e381-4425-958e-44a988ca2b76","system_id":"levelo_inurba_marseille","lat":43.23151,"lon":5.43717,"is_reserved":false,"is_disabled":false,"rental_uris":{"android":"levelo://app?vid=79248b71-e381-4425-958e-44a988ca2b76","ios":"levelo://app?vid=79248b71-e381-4425-958e-44a988ca2b76"},"vehicle_type_id":"4","last_reported":1732691388,"current_range_meters":7200,"station_id":"ce4bhmp2rcd13ifvqgog","pricing_plan_id":"cebpf4jnsgd1na2vs0mg"},{"bike_id":"3e2ee879-ff2e-4801-b72c-a459f067b0a6","system_id":"levelo_inurba_marseille","lat":43.24075,"lon":5.37759,"is_reserved":false,"is_disabled":false,"rental_uris":{"android":"levelo://app?vid=3e2ee879-ff2e-4801-b72c-a459f067b0a6","ios":"levelo://app?vid=3e2ee879-ff2e-4801-b72c-a459f067b0a6"},"vehicle_type_id":"4","last_reported":1732691388,"current_range_meters":30800,"station_id":"ce4bhnp2rcd13ifvqgvg","pricing_plan_id":"cebpf4jnsgd1na2vs0mg"},{"bike_id":"be75626b-aa28-4d29-a136-b3bd4a0311ca","system_id":"levelo_inurba_marseille","lat":43.305506,"lon":5.365281,"is_reserved":false,"is_disabled":true,"rental_uris":{"android":"levelo://app?vid=be75626b-aa28-4d29-a136-b3bd4a0311ca","ios":"levelo://app?vid=be75626b-aa28-4d29-a136-b3bd4a0311ca"},"vehicle_type_id":"4","last_reported":1732691388,"current_range_meters":40000,"station_id":"ce4bgs12rcd13ifvqcag","pricing_plan_id":"cebpf4jnsgd1na2vs0mg"},{"bike_id":"e8b7f019-07fa-4a11-8d10-b2c4c529ac8a","system_id":"levelo_inurba_marseille","lat":43.29873,"lon":5.39743,"is_reserved":false,"is_disabled":true,"rental_uris":{"android":"levelo://app?vid=e8b7f019-07fa-4a11-8d10-b2c4c529ac8a","ios":"levelo://app?vid=e8b7f019-07fa-4a11-8d10-b2c4c529ac8a"},"vehicle_type_id":"4","last_reported":1732691388,"current_range_meters":36800,"station_id":"ce4bh0h2rcd13ifvqd50","pricing_plan_id":"cebpf4jnsgd1na2vs0mg"},{"bike_id":"5beeafd9-fc35-4444-8f38-3d5aae2d23a8","system_id":"levelo_inurba_marseille","lat":43.32483,"lon":5.36563,"is_reserved":false,"is_disabled":false,"rental_uris":{"android":"levelo://app?vid=5beeafd9-fc35-4444-8f38-3d5aae2d23a8","ios":"levelo://app?vid=5beeafd9-fc35-4444-8f38-3d5aae2d23a8"},"vehicle_type_id":"4","last_reported":1732691388,"current_range_meters":15200,"station_id":"ce4bhs12rcd13ifvqhvg","pricing_plan_id":"cebpf4jnsgd1na2vs0mg"},{"bike_id":"0622dd3d-0eca-4b89-916f-6729a0b91e35","system_id":"levelo_inurba_marseille","lat":43.3013,"lon":5.38768,"is_reserved":false,"is_disabled":false,"rental_uris":{"android":"levelo://app?vid=0622dd3d-0eca-4b89-916f-6729a0b91e35","ios":"levelo://app?vid=0622dd3d-0eca-4b89-916f-6729a0b91e35"},"vehicle_type_id":"4","last_reported":1732691388,"current_range_meters":10000,"station_id":"ce4bghh2rcd13ifvqb60","pricing_plan_id":"cebpf4jnsgd1na2vs0mg"},{"bike_id":"bdba8763-ef2a-4c3b-81a0-41269a86086a","system_id":"levelo_inurba_marseille","lat":43.28344,"lon":5.38101,"is_reserved":false,"is_disabled":false,"rental_uris":{"android":"levelo://app?vid=bdba8763-ef2a-4c3b-81a0-41269a86086a","ios":"levelo://app?vid=bdba8763-ef2a-4c3b-81a0-41269a86086a"},"vehicle_type_id":"4","last_reported":1732691388,"current_range_meters":19600,"station_id":"ce4bh412rcd13ifvqdr0","pricing_plan_id":"cebpf4jnsgd1na2vs0mg"},{"bike_id":"11bd84dd-c289-4844-8258-f998208a9f79","system_id":"levelo_inurba_marseille","lat":43.26957,"lon":5.38617,"is_reserved":false,"is_disabled":false,"rental_uris":{"android":"levelo://app?vid=11bd84dd-c289-4844-8258-f998208a9f79","ios":"levelo://app?vid=11bd84dd-c289-4844-8258-f998208a9f79"},"vehicle_type_id":"4","last_reported":1732691388,"current_range_meters":24000,"station_id":"ce4bhh92rcd13ifvqfh0","pricing_plan_id":"cebpf4jnsgd1na2vs0mg"},{"bike_id":"b94865bd-271b-4f4b-bfb5-073ca9cd54df","system_id":"levelo_inurba_marseille","lat":43.30294,"lon":5.39221,"is_reserved":false,"is_disabled":true,"rental_uris":{"android":"levelo://app?vid=b94865bd-271b-4f4b-bfb5-073ca9cd54df","ios":"levelo://app?vid=b94865bd-271b-4f4b-bfb5-073ca9cd54df"},"vehicle_type_id":"4","last_reported":1732691388,"current_range_meters":30400,"station_id":"ce4bgkh2rcd13ifvqbk0","pricing_plan_id":"cebpf4jnsgd1na2vs0mg"},{"bike_id":"08853085-5d8c-429b-a736-112d7037b3d3","system_id":"levelo_inurba_marseille","lat":43.3021,"lon":5.39469,"is_reserved":false,"is_disabled":false,"rental_uris":{"android":"levelo://app?vid=08853085-5d8c-429b-a736-112d7037b3d3","ios":"levelo://app?vid=08853085-5d8c-429b-a736-112d7037b3d3"},"vehicle_type_id":"4","last_reported":1732691388,"current_range_meters":31200,"station_id":"ce4bh0p2rcd13ifvqd70","pricing_plan_id":"cebpf4jnsgd1na2vs0mg"},{"bike_id":"8eee5c87-5c23-43dc-9d4d-62c2b6f62111","system_id":"levelo_inurba_marseille","lat":43.27491,"lon":5.42455,"is_reserved":false,"is_disabled":false,"rental_uris":{"android":"levelo://app?vid=8eee5c87-5c23-43dc-9d4d-62c2b6f62111","ios":"levelo://app?vid=8eee5c87-5c23-43dc-9d4d-62c2b6f62111"},"vehicle_type_id":"4","last_reported":1732691388,"current_range_meters":16000,"station_id":"ce4bhn92rcd13ifvqgrg","pricing_plan_id":"cebpf4jnsgd1na2vs0mg"},{"bike_id":"a5909545-3e09-4859-9fda-9ffe4e6e4883","system_id":"levelo_inurba_marseille","lat":43.23065,"lon":5.35491,"is_reserved":false,"is_disabled":false,"rental_uris":{"android":"levelo://app?vid=a5909545-3e09-4859-9fda-9ffe4e6e4883","ios":"levelo://app?vid=a5909545-3e09-4859-9fda-9ffe4e6e4883"},"vehicle_type_id":"4","last_reported":1732691388,"current_range_meters":28000,"station_id":"cpo3342slgdg3j2ifvpg","pricing_plan_id":"cebpf4jnsgd1na2vs0mg"},{"bike_id":"4eefb489-f6bc-4861-9c95-5a8ea61f5d6c","system_id":"levelo_inurba_marseille","lat":43.28349,"lon":5.38101,"is_reserved":false,"is_disabled":false,"rental_uris":{"android":"levelo://app?vid=4eefb489-f6bc-4861-9c95-5a8ea61f5d6c","ios":"levelo://app?vid=4eefb489-f6bc-4861-9c95-5a8ea61f5d6c"},"vehicle_type_id":"4","last_reported":1732691388,"current_range_meters":36000,"station_id":"ce4bh412rcd13ifvqdr0","pricing_plan_id":"cebpf4jnsgd1na2vs0mg"},{"bike_id":"00c1b85e-f618-4a9f-97fe-87be3eac83ec","system_id":"levelo_inurba_marseille","lat":43.25862,"lon":5.399,"is_reserved":false,"is_disabled":false,"rental_uris":{"android":"levelo://app?vid=00c1b85e-f618-4a9f-97fe-87be3eac83ec","ios":"levelo://app?vid=00c1b85e-f618-4a9f-97fe-87be3eac83ec"},"vehicle_type_id":"4","last_reported":1732691388,"current_range_meters":38800,"station_id":"ce4bhl92rcd13ifvqghg","pricing_plan_id":"cebpf4jnsgd1na2vs0mg"},{"bike_id":"410be458-26df-4ab6-b673-ac23590e9546","system_id":"levelo_inurba_marseille","lat":43.24074,"lon":5.3776,"is_reserved":false,"is_disabled":false,"rental_uris":{"android":"levelo://app?vid=410be458-26df-4ab6-b673-ac23590e9546","ios":"levelo://app?vid=410be458-26df-4ab6-b673-ac23590e9546"},"vehicle_type_id":"4","last_reported":1732691388,"current_range_meters":20000,"station_id":"ce4bhnp2rcd13ifvqgvg","pricing_plan_id":"cebpf4jnsgd1na2vs0mg"},{"bike_id":"05e23176-3866-40e6-b374-560fd2540e8b","system_id":"levelo_inurba_marseille","lat":43.30479,"lon":5.37916,"is_reserved":false,"is_disabled":false,"rental_uris":{"android":"levelo://app?vid=05e23176-3866-40e6-b374-560fd2540e8b","ios":"levelo://app?vid=05e23176-3866-40e6-b374-560fd2540e8b"},"vehicle_type_id":"4","last_reported":1732691388,"current_range_meters":38800,"station_id":"ce4bgup2rcd13ifvqcn0","pricing_plan_id":"cebpf4jnsgd1na2vs0mg"},{"bike_id":"e5951ee3-4a5a-4ebb-b469-096c5188dfa3","system_id":"levelo_inurba_marseille","lat":43.23192,"lon":5.35572,"is_reserved":false,"is_disabled":false,"rental_uris":{"android":"levelo://app?vid=e5951ee3-4a5a-4ebb-b469-096c5188dfa3","ios":"levelo://app?vid=e5951ee3-4a5a-4ebb-b469-096c5188dfa3"},"vehicle_type_id":"4","last_reported":1732691388,"current_range_meters":33200,"station_id":"ce4bhu92rcd13ifvqi70","pricing_plan_id":"cebpf4jnsgd1na2vs0mg"},{"bike_id":"40544a4e-77a7-402d-a5f2-7e9e3aac2e42","system_id":"levelo_inurba_marseille","lat":43.29581,"lon":5.39035,"is_reserved":false,"is_disabled":false,"rental_uris":{"android":"levelo://app?vid=40544a4e-77a7-402d-a5f2-7e9e3aac2e42","ios":"levelo://app?vid=40544a4e-77a7-402d-a5f2-7e9e3aac2e42"},"vehicle_type_id":"4","last_reported":1732691388,"current_range_meters":14000,"station_id":"","pricing_plan_id":"cebpf4jnsgd1na2vs0mg"},{"bike_id":"c4ff3c2c-87d7-4575-9335-5f53ac047a46","system_id":"levelo_inurba_marseille","lat":43.27066,"lon":5.42288,"is_reserved":false,"is_disabled":false,"rental_uris":{"android":"levelo://app?vid=c4ff3c2c-87d7-4575-9335-5f53ac047a46","ios":"levelo://app?vid=c4ff3c2c-87d7-4575-9335-5f53ac047a46"},"vehicle_type_id":"4","last_reported":1732691388,"current_range_meters":38800,"station_id":"ce4bhk92rcd13ifvqgb0","pricing_plan_id":"cebpf4jnsgd1na2vs0mg"},{"bike_id":"8b90e280-1859-48e5-8cc1-f1521436ad0b","system_id":"levelo_inurba_marseille","lat":43.25568,"lon":5.38261,"is_reserved":false,"is_disabled":false,"rental_uris":{"android":"levelo://app?vid=8b90e280-1859-48e5-8cc1-f1521436ad0b","ios":"levelo://app?vid=8b90e280-1859-48e5-8cc1-f1521436ad0b"},"vehicle_type_id":"4","last_reported":1732691388,"current_range_meters":16800,"station_id":"ce4bhih2rcd13ifvqfs0","pricing_plan_id":"cebpf4jnsgd1na2vs0mg"},{"bike_id":"3379f44f-c07d-4ec3-b622-4c7ff9c0b74e","system_id":"levelo_inurba_marseille","lat":43.23194,"lon":5.35546,"is_reserved":false,"is_disabled":false,"rental_uris":{"android":"levelo://app?vid=3379f44f-c07d-4ec3-b622-4c7ff9c0b74e","ios":"levelo://app?vid=3379f44f-c07d-4ec3-b622-4c7ff9c0b74e"},"vehicle_type_id":"4","last_reported":1732691388,"current_range_meters":7200,"station_id":"ce4bhu92rcd13ifvqi70","pricing_plan_id":"cebpf4jnsgd1na2vs0mg"},{"bike_id":"6c948e9c-d5b3-4fe5-a918-1bd2f7c83b02","system_id":"levelo_inurba_marseille","lat":43.32111,"lon":5.3677,"is_reserved":false,"is_disabled":false,"rental_uris":{"android":"levelo://app?vid=6c948e9c-d5b3-4fe5-a918-1bd2f7c83b02","ios":"levelo://app?vid=6c948e9c-d5b3-4fe5-a918-1bd2f7c83b02"},"vehicle_type_id":"4","last_reported":1732691388,"current_range_meters":14000,"station_id":"ce4bhrh2rcd13ifvqhug","pricing_plan_id":"cebpf4jnsgd1na2vs0mg"},{"bike_id":"9e620abf-d324-4f99-84fc-d67e71109f2a","system_id":"levelo_inurba_marseille","lat":43.31077,"lon":5.42435,"is_reserved":false,"is_disabled":true,"rental_uris":{"android":"levelo://app?vid=9e620abf-d324-4f99-84fc-d67e71109f2a","ios":"levelo://app?vid=9e620abf-d324-4f99-84fc-d67e71109f2a"},"vehicle_type_id":"4","last_reported":1732691388,"current_range_meters":0,"station_id":"ce4bhp92rcd13ifvqhag","pricing_plan_id":"cebpf4jnsgd1na2vs0mg"},{"bike_id":"311c22a9-d002-4f76-a390-2ec196f39862","system_id":"levelo_inurba_marseille","lat":43.31025,"lon":5.38342,"is_reserved":false,"is_disabled":true,"rental_uris":{"android":"levelo://app?vid=311c22a9-d002-4f76-a390-2ec196f39862","ios":"levelo://app?vid=311c22a9-d002-4f76-a390-2ec196f39862"},"vehicle_type_id":"4","last_reported":1732691388,"current_range_meters":0,"station_id":"","pricing_plan_id":"cebpf4jnsgd1na2vs0mg"},{"bike_id":"904df2cc-4f3b-4bc0-9900-605f0ef6d4e6","system_id":"levelo_inurba_marseille","lat":43.30292,"lon":5.36879,"is_reserved":false,"is_disabled":false,"rental_uris":{"android":"levelo://app?vid=904df2cc-4f3b-4bc0-9900-605f0ef6d4e6","ios":"levelo://app?vid=904df2cc-4f3b-4bc0-9900-605f0ef6d4e6"},"vehicle_type_id":"4","last_reported":1732691388,"current_range_meters":24400,"station_id":"ce4bgqh2rcd13ifvqc5g","pricing_plan_id":"cebpf4jnsgd1na2vs0mg"},{"bike_id":"319db8f6-ad1c-4b46-ad57-5033d5ed25eb","system_id":"levelo_inurba_marseille","lat":43.25726,"lon":5.41132,"is_reserved":false,"is_disabled":false,"rental_uris":{"android":"levelo://app?vid=319db8f6-ad1c-4b46-ad57-5033d5ed25eb","ios":"levelo://app?vid=319db8f6-ad1c-4b46-ad57-5033d5ed25eb"},"vehicle_type_id":"4","last_reported":1732691388,"current_range_meters":19600,"station_id":"ce4bhkp2rcd13ifvqgd0","pricing_plan_id":"cebpf4jnsgd1na2vs0mg"},{"bike_id":"5c53cfbd-2547-413a-b79a-f8cc3b1ca992","system_id":"levelo_inurba_marseille","lat":43.32106,"lon":5.36769,"is_reserved":false,"is_disabled":false,"rental_uris":{"android":"levelo://app?vid=5c53cfbd-2547-413a-b79a-f8cc3b1ca992","ios":"levelo://app?vid=5c53cfbd-2547-413a-b79a-f8cc3b1ca992"},"vehicle_type_id":"4","last_reported":1732691388,"current_range_meters":28400,"station_id":"ce4bhrh2rcd13ifvqhug","pricing_plan_id":"cebpf4jnsgd1na2vs0mg"},{"bike_id":"18045cdd-2260-48a4-ab4b-06afcf0afb50","system_id":"levelo_inurba_marseille","lat":43.28263,"lon":5.35049,"is_reserved":false,"is_disabled":false,"rental_uris":{"android":"levelo://app?vid=18045cdd-2260-48a4-ab4b-06afcf0afb50","ios":"levelo://app?vid=18045cdd-2260-48a4-ab4b-06afcf0afb50"},"vehicle_type_id":"4","last_reported":1732691388,"current_range_meters":39200,"station_id":"ce4bhbp2rcd13ifvqerg","pricing_plan_id":"cebpf4jnsgd1na2vs0mg"},{"bike_id":"d857c7ff-0eae-417a-a283-d08c196b617c","system_id":"levelo_inurba_marseille","lat":43.23151,"lon":5.4371,"is_reserved":false,"is_disabled":false,"rental_uris":{"android":"levelo://app?vid=d857c7ff-0eae-417a-a283-d08c196b617c","ios":"levelo://app?vid=d857c7ff-0eae-417a-a283-d08c196b617c"},"vehicle_type_id":"4","last_reported":1732691388,"current_range_meters":24000,"station_id":"ce4bhmp2rcd13ifvqgog","pricing_plan_id":"cebpf4jnsgd1na2vs0mg"},{"bike_id":"e3910269-0960-41ab-9a5c-2f153c15e14c","system_id":"levelo_inurba_marseille","lat":43.255726,"lon":5.382349,"is_reserved":false,"is_disabled":false,"rental_uris":{"android":"levelo://app?vid=e3910269-0960-41ab-9a5c-2f153c15e14c","ios":"levelo://app?vid=e3910269-0960-41ab-9a5c-2f153c15e14c"},"vehicle_type_id":"4","last_reported":1732691388,"current_range_meters":38000,"station_id":"ce4bhih2rcd13ifvqfs0","pricing_plan_id":"cebpf4jnsgd1na2vs0mg"},{"bike_id":"842fb95f-7e99-4a59-9251-bdf4c049b4fc","system_id":"levelo_inurba_marseille","lat":43.2396,"lon":5.36624,"is_reserved":false,"is_disabled":false,"rental_uris":{"android":"levelo://app?vid=842fb95f-7e99-4a59-9251-bdf4c049b4fc","ios":"levelo://app?vid=842fb95f-7e99-4a59-9251-bdf4c049b4fc"},"vehicle_type_id":"4","last_reported":1732691388,"current_range_meters":9200,"station_id":"ce4bhi12rcd13ifvqfp0","pricing_plan_id":"cebpf4jnsgd1na2vs0mg"},{"bike_id":"d7d3efe9-1788-45c6-bd51-33c58ae43549","system_id":"levelo_inurba_marseille","lat":43.3054,"lon":5.36557,"is_reserved":false,"is_disabled":false,"rental_uris":{"android":"levelo://app?vid=d7d3efe9-1788-45c6-bd51-33c58ae43549","ios":"levelo://app?vid=d7d3efe9-1788-45c6-bd51-33c58ae43549"},"vehicle_type_id":"4","last_reported":1732691388,"current_range_meters":25600,"station_id":"ce4bgs12rcd13ifvqcag","pricing_plan_id":"cebpf4jnsgd1na2vs0mg"},{"bike_id":"15c459ad-41e1-445c-a7a2-9804a9e6e112","system_id":"levelo_inurba_marseille","lat":43.28345,"lon":5.381,"is_reserved":false,"is_disabled":false,"rental_uris":{"android":"levelo://app?vid=15c459ad-41e1-445c-a7a2-9804a9e6e112","ios":"levelo://app?vid=15c459ad-41e1-445c-a7a2-9804a9e6e112"},"vehicle_type_id":"4","last_reported":1732691388,"current_range_meters":36800,"station_id":"ce4bh412rcd13ifvqdr0","pricing_plan_id":"cebpf4jnsgd1na2vs0mg"},{"bike_id":"276c8eac-f26f-4d52-8494-1e5f39f12889","system_id":"levelo_inurba_marseille","lat":43.25581,"lon":5.38222,"is_reserved":false,"is_disabled":false,"rental_uris":{"android":"levelo://app?vid=276c8eac-f26f-4d52-8494-1e5f39f12889","ios":"levelo://app?vid=276c8eac-f26f-4d52-8494-1e5f39f12889"},"vehicle_type_id":"4","last_reported":1732691388,"current_range_meters":38800,"station_id":"ce4bhih2rcd13ifvqfs0","pricing_plan_id":"cebpf4jnsgd1na2vs0mg"},{"bike_id":"30a476b5-19ff-4959-95de-6c8f0d1c5e5a","system_id":"levelo_inurba_marseille","lat":43.26957,"lon":5.38632,"is_reserved":false,"is_disabled":false,"rental_uris":{"android":"levelo://app?vid=30a476b5-19ff-4959-95de-6c8f0d1c5e5a","ios":"levelo://app?vid=30a476b5-19ff-4959-95de-6c8f0d1c5e5a"},"vehicle_type_id":"4","last_reported":1732691388,"current_range_meters":28800,"station_id":"ce4bhh92rcd13ifvqfh0","pricing_plan_id":"cebpf4jnsgd1na2vs0mg"},{"bike_id":"0dbf4a25-0b81-4076-980f-2de46488ffa7","system_id":"levelo_inurba_marseille","lat":43.28606,"lon":5.35088,"is_reserved":false,"is_disabled":true,"rental_uris":{"android":"levelo://app?vid=0dbf4a25-0b81-4076-980f-2de46488ffa7","ios":"levelo://app?vid=0dbf4a25-0b81-4076-980f-2de46488ffa7"},"vehicle_type_id":"4","last_reported":1732691388,"current_range_meters":15200,"station_id":"","pricing_plan_id":"cebpf4jnsgd1na2vs0mg"},{"bike_id":"4490893b-651f-4a29-8a23-f841e9f73902","system_id":"levelo_inurba_marseille","lat":43.3311,"lon":5.38221,"is_reserved":false,"is_disabled":false,"rental_uris":{"android":"levelo://app?vid=4490893b-651f-4a29-8a23-f841e9f73902","ios":"levelo://app?vid=4490893b-651f-4a29-8a23-f841e9f73902"},"vehicle_type_id":"4","last_reported":1732691388,"current_range_meters":24800,"station_id":"","pricing_plan_id":"cebpf4jnsgd1na2vs0mg"},{"bike_id":"54700745-665f-4342-a30f-7f0a232bca27","system_id":"levelo_inurba_marseille","lat":43.27198,"lon":5.39178,"is_reserved":false,"is_disabled":false,"rental_uris":{"android":"levelo://app?vid=54700745-665f-4342-a30f-7f0a232bca27","ios":"levelo://app?vid=54700745-665f-4342-a30f-7f0a232bca27"},"vehicle_type_id":"4","last_reported":1732691388,"current_range_meters":38800,"station_id":"ce4bhhp2rcd13ifvqfm0","pricing_plan_id":"cebpf4jnsgd1na2vs0mg"},{"bike_id":"43746d86-8a13-4845-9faf-ae69b548d714","system_id":"levelo_inurba_marseille","lat":43.29459,"lon":5.37917,"is_reserved":false,"is_disabled":true,"rental_uris":{"android":"levelo://app?vid=43746d86-8a13-4845-9faf-ae69b548d714","ios":"levelo://app?vid=43746d86-8a13-4845-9faf-ae69b548d714"},"vehicle_type_id":"4","last_reported":1732691388,"current_range_meters":0,"station_id":"","pricing_plan_id":"cebpf4jnsgd1na2vs0mg"},{"bike_id":"e6a98e09-efc5-4507-9fb0-a56012aa8712","system_id":"levelo_inurba_marseille","lat":43.28144,"lon":5.42639,"is_reserved":false,"is_disabled":false,"rental_uris":{"android":"levelo://app?vid=e6a98e09-efc5-4507-9fb0-a56012aa8712","ios":"levelo://app?vid=e6a98e09-efc5-4507-9fb0-a56012aa8712"},"vehicle_type_id":"4","last_reported":1732691388,"current_range_meters":36400,"station_id":"ce4bhnh2rcd13ifvqgug","pricing_plan_id":"cebpf4jnsgd1na2vs0mg"},{"bike_id":"49ad9574-b0d7-498d-8456-68bdd40aec93","system_id":"levelo_inurba_marseille","lat":43.24664,"lon":5.38155,"is_reserved":false,"is_disabled":false,"rental_uris":{"android":"levelo://app?vid=49ad9574-b0d7-498d-8456-68bdd40aec93","ios":"levelo://app?vid=49ad9574-b0d7-498d-8456-68bdd40aec93"},"vehicle_type_id":"4","last_reported":1732691388,"current_range_meters":36000,"station_id":"ce4bhih2rcd13ifvqfr0","pricing_plan_id":"cebpf4jnsgd1na2vs0mg"},{"bike_id":"df76b7bf-b879-4e94-9796-439ee296ef0a","system_id":"levelo_inurba_marseille","lat":43.22928,"lon":5.3537,"is_reserved":false,"is_disabled":false,"rental_uris":{"android":"levelo://app?vid=df76b7bf-b879-4e94-9796-439ee296ef0a","ios":"levelo://app?vid=df76b7bf-b879-4e94-9796-439ee296ef0a"},"vehicle_type_id":"4","last_reported":1732691388,"current_range_meters":38400,"station_id":"cpo3532slgdg3j2ikp40","pricing_plan_id":"cebpf4jnsgd1na2vs0mg"},{"bike_id":"3cbcbb34-d27b-4f73-8740-bbee51c3c199","system_id":"levelo_inurba_marseille","lat":43.30165,"lon":5.38084,"is_reserved":false,"is_disabled":false,"rental_uris":{"android":"levelo://app?vid=3cbcbb34-d27b-4f73-8740-bbee51c3c199","ios":"levelo://app?vid=3cbcbb34-d27b-4f73-8740-bbee51c3c199"},"vehicle_type_id":"4","last_reported":1732691388,"current_range_meters":36800,"station_id":"ce4bgjp2rcd13ifvqbh0","pricing_plan_id":"cebpf4jnsgd1na2vs0mg"},{"bike_id":"f971abee-70f8-43dc-afe4-4050ccc8c3f7","system_id":"levelo_inurba_marseille","lat":43.25857,"lon":5.39927,"is_reserved":false,"is_disabled":true,"rental_uris":{"android":"levelo://app?vid=f971abee-70f8-43dc-afe4-4050ccc8c3f7","ios":"levelo://app?vid=f971abee-70f8-43dc-afe4-4050ccc8c3f7"},"vehicle_type_id":"4","last_reported":1732691388,"current_range_meters":38800,"station_id":"ce4bhl92rcd13ifvqghg","pricing_plan_id":"cebpf4jnsgd1na2vs0mg"},{"bike_id":"e429a23d-08fa-43bc-a99f-41dd20232034","system_id":"levelo_inurba_marseille","lat":43.26303,"lon":5.398671,"is_reserved":false,"is_disabled":true,"rental_uris":{"android":"levelo://app?vid=e429a23d-08fa-43bc-a99f-41dd20232034","ios":"levelo://app?vid=e429a23d-08fa-43bc-a99f-41dd20232034"},"vehicle_type_id":"4","last_reported":1732691388,"current_range_meters":0,"station_id":"","pricing_plan_id":"cebpf4jnsgd1na2vs0mg"},{"bike_id":"9f57441d-cda3-4212-8d4d-27e3c3ce5bbe","system_id":"levelo_inurba_marseille","lat":43.27897,"lon":5.38009,"is_reserved":false,"is_disabled":false,"rental_uris":{"android":"levelo://app?vid=9f57441d-cda3-4212-8d4d-27e3c3ce5bbe","ios":"levelo://app?vid=9f57441d-cda3-4212-8d4d-27e3c3ce5bbe"},"vehicle_type_id":"4","last_reported":1732691388,"current_range_meters":30000,"station_id":"ce4bhf92rcd13ifvqf50","pricing_plan_id":"cebpf4jnsgd1na2vs0mg"},{"bike_id":"3faf8b2f-845f-4fd3-8bc7-04d1158d9692","system_id":"levelo_inurba_marseille","lat":43.33019,"lon":5.39032,"is_reserved":false,"is_disabled":false,"rental_uris":{"android":"levelo://app?vid=3faf8b2f-845f-4fd3-8bc7-04d1158d9692","ios":"levelo://app?vid=3faf8b2f-845f-4fd3-8bc7-04d1158d9692"},"vehicle_type_id":"4","last_reported":1732691388,"current_range_meters":24800,"station_id":"ce4bhr92rcd13ifvqhrg","pricing_plan_id":"cebpf4jnsgd1na2vs0mg"},{"bike_id":"1b369746-c244-4667-bf00-4dc6251158a6","system_id":"levelo_inurba_marseille","lat":43.24079,"lon":5.37754,"is_reserved":false,"is_disabled":false,"rental_uris":{"android":"levelo://app?vid=1b369746-c244-4667-bf00-4dc6251158a6","ios":"levelo://app?vid=1b369746-c244-4667-bf00-4dc6251158a6"},"vehicle_type_id":"4","last_reported":1732691388,"current_range_meters":26800,"station_id":"ce4bhnp2rcd13ifvqgvg","pricing_plan_id":"cebpf4jnsgd1na2vs0mg"},{"bike_id":"f9348c5f-0f0a-4894-b579-99d81f6dbbba","system_id":"levelo_inurba_marseille","lat":43.28154,"lon":5.42643,"is_reserved":false,"is_disabled":false,"rental_uris":{"android":"levelo://app?vid=f9348c5f-0f0a-4894-b579-99d81f6dbbba","ios":"levelo://app?vid=f9348c5f-0f0a-4894-b579-99d81f6dbbba"},"vehicle_type_id":"4","last_reported":1732691388,"current_range_meters":29600,"station_id":"ce4bhnh2rcd13ifvqgug","pricing_plan_id":"cebpf4jnsgd1na2vs0mg"},{"bike_id":"a077a7bd-d44b-4ca0-96c1-49693516b3b4","system_id":"levelo_inurba_marseille","lat":43.33793,"lon":5.37434,"is_reserved":false,"is_disabled":false,"rental_uris":{"android":"levelo://app?vid=a077a7bd-d44b-4ca0-96c1-49693516b3b4","ios":"levelo://app?vid=a077a7bd-d44b-4ca0-96c1-49693516b3b4"},"vehicle_type_id":"4","last_reported":1732691388,"current_range_meters":38000,"station_id":"","pricing_plan_id":"cebpf4jnsgd1na2vs0mg"},{"bike_id":"925d9d68-1b01-45a4-af19-d1a58d7476b9","system_id":"levelo_inurba_marseille","lat":43.312042,"lon":5.367348,"is_reserved":false,"is_disabled":true,"rental_uris":{"android":"levelo://app?vid=925d9d68-1b01-45a4-af19-d1a58d7476b9","ios":"levelo://app?vid=925d9d68-1b01-45a4-af19-d1a58d7476b9"},"vehicle_type_id":"4","last_reported":1732691388,"current_range_meters":0,"station_id":"","pricing_plan_id":"cebpf4jnsgd1na2vs0mg"},{"bike_id":"b85ab8e4-b623-4c2f-a6fb-707134f169c8","system_id":"levelo_inurba_marseille","lat":43.34139,"lon":5.40914,"is_reserved":false,"is_disabled":false,"rental_uris":{"android":"levelo://app?vid=b85ab8e4-b623-4c2f-a6fb-707134f169c8","ios":"levelo://app?vid=b85ab8e4-b623-4c2f-a6fb-707134f169c8"},"vehicle_type_id":"4","last_reported":1732691388,"current_range_meters":20000,"station_id":"ce4bhqh2rcd13ifvqhlg","pricing_plan_id":"cebpf4jnsgd1na2vs0mg"},{"bike_id":"33494449-58d9-4cca-a0f0-1bd03fa7a3ce","system_id":"levelo_inurba_marseille","lat":43.28724,"lon":5.36096,"is_reserved":false,"is_disabled":false,"rental_uris":{"android":"levelo://app?vid=33494449-58d9-4cca-a0f0-1bd03fa7a3ce","ios":"levelo://app?vid=33494449-58d9-4cca-a0f0-1bd03fa7a3ce"},"vehicle_type_id":"4","last_reported":1732691388,"current_range_meters":38400,"station_id":"cki0cbj6b192h4jlfktg","pricing_plan_id":"cebpf4jnsgd1na2vs0mg"},{"bike_id":"cf298d8c-a0c9-4883-b341-ff4459ca7832","system_id":"levelo_inurba_marseille","lat":43.22932,"lon":5.35378,"is_reserved":false,"is_disabled":false,"rental_uris":{"android":"levelo://app?vid=cf298d8c-a0c9-4883-b341-ff4459ca7832","ios":"levelo://app?vid=cf298d8c-a0c9-4883-b341-ff4459ca7832"},"vehicle_type_id":"4","last_reported":1732691388,"current_range_meters":38400,"station_id":"cpo3532slgdg3j2ikp40","pricing_plan_id":"cebpf4jnsgd1na2vs0mg"},{"bike_id":"d93d1461-f523-408d-9ecd-c0d362744ea1","system_id":"levelo_inurba_marseille","lat":43.27493,"lon":5.42453,"is_reserved":false,"is_disabled":false,"rental_uris":{"android":"levelo://app?vid=d93d1461-f523-408d-9ecd-c0d362744ea1","ios":"levelo://app?vid=d93d1461-f523-408d-9ecd-c0d362744ea1"},"vehicle_type_id":"4","last_reported":1732691388,"current_range_meters":26800,"station_id":"ce4bhn92rcd13ifvqgrg","pricing_plan_id":"cebpf4jnsgd1na2vs0mg"},{"bike_id":"de994ac7-543a-4269-bcb8-cf359a8abc18","system_id":"levelo_inurba_marseille","lat":43.28614,"lon":5.35102,"is_reserved":false,"is_disabled":false,"rental_uris":{"android":"levelo://app?vid=de994ac7-543a-4269-bcb8-cf359a8abc18","ios":"levelo://app?vid=de994ac7-543a-4269-bcb8-cf359a8abc18"},"vehicle_type_id":"4","last_reported":1732691388,"current_range_meters":35600,"station_id":"ce4bhch2rcd13ifvqeug","pricing_plan_id":"cebpf4jnsgd1na2vs0mg"},{"bike_id":"d9ef5ed5-65f4-4a4b-8dbb-274b0e908852","system_id":"levelo_inurba_marseille","lat":43.24171,"lon":5.36396,"is_reserved":false,"is_disabled":false,"rental_uris":{"android":"levelo://app?vid=d9ef5ed5-65f4-4a4b-8dbb-274b0e908852","ios":"levelo://app?vid=d9ef5ed5-65f4-4a4b-8dbb-274b0e908852"},"vehicle_type_id":"4","last_reported":1732691388,"current_range_meters":25600,"station_id":"cpo36qri1sfpv3e86is0","pricing_plan_id":"cebpf4jnsgd1na2vs0mg"},{"bike_id":"be8b9de5-c3da-435a-b91a-e0f01d920c64","system_id":"levelo_inurba_marseille","lat":43.31996,"lon":5.38144,"is_reserved":false,"is_disabled":false,"rental_uris":{"android":"levelo://app?vid=be8b9de5-c3da-435a-b91a-e0f01d920c64","ios":"levelo://app?vid=be8b9de5-c3da-435a-b91a-e0f01d920c64"},"vehicle_type_id":"4","last_reported":1732691388,"current_range_meters":38800,"station_id":"ce4bhr12rcd13ifvqhpg","pricing_plan_id":"cebpf4jnsgd1na2vs0mg"},{"bike_id":"c0da6876-60bc-457a-8fe2-6ab0475dfa8f","system_id":"levelo_inurba_marseille","lat":43.23194,"lon":5.35556,"is_reserved":false,"is_disabled":false,"rental_uris":{"android":"levelo://app?vid=c0da6876-60bc-457a-8fe2-6ab0475dfa8f","ios":"levelo://app?vid=c0da6876-60bc-457a-8fe2-6ab0475dfa8f"},"vehicle_type_id":"4","last_reported":1732691388,"current_range_meters":19200,"station_id":"ce4bhu92rcd13ifvqi70","pricing_plan_id":"cebpf4jnsgd1na2vs0mg"},{"bike_id":"3aeebbe6-b5e8-4eb4-bcbd-926c21eddb28","system_id":"levelo_inurba_marseille","lat":43.27212,"lon":5.39187,"is_reserved":false,"is_disabled":true,"rental_uris":{"android":"levelo://app?vid=3aeebbe6-b5e8-4eb4-bcbd-926c21eddb28","ios":"levelo://app?vid=3aeebbe6-b5e8-4eb4-bcbd-926c21eddb28"},"vehicle_type_id":"4","last_reported":1732691388,"current_range_meters":400,"station_id":"ce4bhhp2rcd13ifvqfm0","pricing_plan_id":"cebpf4jnsgd1na2vs0mg"},{"bike_id":"da6aa873-a094-4671-8b6e-63a3fc023bd2","system_id":"levelo_inurba_marseille","lat":43.27998,"lon":5.41661,"is_reserved":false,"is_disabled":false,"rental_uris":{"android":"levelo://app?vid=da6aa873-a094-4671-8b6e-63a3fc023bd2","ios":"levelo://app?vid=da6aa873-a094-4671-8b6e-63a3fc023bd2"},"vehicle_type_id":"4","last_reported":1732691388,"current_range_meters":32400,"station_id":"ce4bho12rcd13ifvqh1g","pricing_plan_id":"cebpf4jnsgd1na2vs0mg"},{"bike_id":"1229a2a9-1056-43db-a0fc-42d83b3d962d","system_id":"levelo_inurba_marseille","lat":43.30591,"lon":5.39355,"is_reserved":false,"is_disabled":false,"rental_uris":{"android":"levelo://app?vid=1229a2a9-1056-43db-a0fc-42d83b3d962d","ios":"levelo://app?vid=1229a2a9-1056-43db-a0fc-42d83b3d962d"},"vehicle_type_id":"4","last_reported":1732691388,"current_range_meters":36800,"station_id":"ce4bh0p2rcd13ifvqd80","pricing_plan_id":"cebpf4jnsgd1na2vs0mg"},{"bike_id":"76273592-9879-490a-9f64-c33340e3af5c","system_id":"levelo_inurba_marseille","lat":43.24082,"lon":5.37749,"is_reserved":false,"is_disabled":false,"rental_uris":{"android":"levelo://app?vid=76273592-9879-490a-9f64-c33340e3af5c","ios":"levelo://app?vid=76273592-9879-490a-9f64-c33340e3af5c"},"vehicle_type_id":"4","last_reported":1732691388,"current_range_meters":30800,"station_id":"ce4bhnp2rcd13ifvqgvg","pricing_plan_id":"cebpf4jnsgd1na2vs0mg"},{"bike_id":"75307887-00fc-43a9-af8b-6a034b645f94","system_id":"levelo_inurba_marseille","lat":43.26834,"lon":5.39354,"is_reserved":false,"is_disabled":true,"rental_uris":{"android":"levelo://app?vid=75307887-00fc-43a9-af8b-6a034b645f94","ios":"levelo://app?vid=75307887-00fc-43a9-af8b-6a034b645f94"},"vehicle_type_id":"4","last_reported":1732691388,"current_range_meters":0,"station_id":"","pricing_plan_id":"cebpf4jnsgd1na2vs0mg"},{"bike_id":"f8b83245-b49b-4fee-9665-a3d6c4fcebf5","system_id":"levelo_inurba_marseille","lat":43.28152,"lon":5.42642,"is_reserved":false,"is_disabled":false,"rental_uris":{"android":"levelo://app?vid=f8b83245-b49b-4fee-9665-a3d6c4fcebf5","ios":"levelo://app?vid=f8b83245-b49b-4fee-9665-a3d6c4fcebf5"},"vehicle_type_id":"4","last_reported":1732691388,"current_range_meters":38800,"station_id":"ce4bhnh2rcd13ifvqgug","pricing_plan_id":"cebpf4jnsgd1na2vs0mg"},{"bike_id":"e25b69e2-93a4-40b5-ae2e-fc6df166f1c9","system_id":"levelo_inurba_marseille","lat":43.29532,"lon":5.42286,"is_reserved":false,"is_disabled":false,"rental_uris":{"android":"levelo://app?vid=e25b69e2-93a4-40b5-ae2e-fc6df166f1c9","ios":"levelo://app?vid=e25b69e2-93a4-40b5-ae2e-fc6df166f1c9"},"vehicle_type_id":"4","last_reported":1732691388,"current_range_meters":38800,"station_id":"ce4bhph2rcd13ifvqhdg","pricing_plan_id":"cebpf4jnsgd1na2vs0mg"},{"bike_id":"ee05ac60-a365-4a07-8df9-f1d6a7c1f3f4","system_id":"levelo_inurba_marseille","lat":43.30149,"lon":5.38083,"is_reserved":false,"is_disabled":false,"rental_uris":{"android":"levelo://app?vid=ee05ac60-a365-4a07-8df9-f1d6a7c1f3f4","ios":"levelo://app?vid=ee05ac60-a365-4a07-8df9-f1d6a7c1f3f4"},"vehicle_type_id":"4","last_reported":1732691388,"current_range_meters":36000,"station_id":"ce4bgjp2rcd13ifvqbh0","pricing_plan_id":"cebpf4jnsgd1na2vs0mg"},{"bike_id":"dd771d3c-1bff-451c-9d0a-985d99bb56af","system_id":"levelo_inurba_marseille","lat":43.2959,"lon":5.36975,"is_reserved":false,"is_disabled":false,"rental_uris":{"android":"levelo://app?vid=dd771d3c-1bff-451c-9d0a-985d99bb56af","ios":"levelo://app?vid=dd771d3c-1bff-451c-9d0a-985d99bb56af"},"vehicle_type_id":"4","last_reported":1732691388,"current_range_meters":7200,"station_id":"","pricing_plan_id":"cebpf4jnsgd1na2vs0mg"},{"bike_id":"441a1c08-ade8-4870-a513-9986867f0aab","system_id":"levelo_inurba_marseille","lat":43.31334,"lon":5.39684,"is_reserved":false,"is_disabled":true,"rental_uris":{"android":"levelo://app?vid=441a1c08-ade8-4870-a513-9986867f0aab","ios":"levelo://app?vid=441a1c08-ade8-4870-a513-9986867f0aab"},"vehicle_type_id":"4","last_reported":1732691388,"current_range_meters":0,"station_id":"ce4bgvp2rcd13ifvqcu0","pricing_plan_id":"cebpf4jnsgd1na2vs0mg"},{"bike_id":"d51e7c27-01a2-4b89-a037-e0b09ebe0ab5","system_id":"levelo_inurba_marseille","lat":43.30025,"lon":5.39983,"is_reserved":false,"is_disabled":true,"rental_uris":{"android":"levelo://app?vid=d51e7c27-01a2-4b89-a037-e0b09ebe0ab5","ios":"levelo://app?vid=d51e7c27-01a2-4b89-a037-e0b09ebe0ab5"},"vehicle_type_id":"4","last_reported":1732691388,"current_range_meters":0,"station_id":"","pricing_plan_id":"cebpf4jnsgd1na2vs0mg"},{"bike_id":"3665e513-b219-4654-8cb1-11fd8b41d15e","system_id":"levelo_inurba_marseille","lat":43.30591,"lon":5.39352,"is_reserved":false,"is_disabled":false,"rental_uris":{"android":"levelo://app?vid=3665e513-b219-4654-8cb1-11fd8b41d15e","ios":"levelo://app?vid=3665e513-b219-4654-8cb1-11fd8b41d15e"},"vehicle_type_id":"4","last_reported":1732691388,"current_range_meters":37600,"station_id":"ce4bh0p2rcd13ifvqd80","pricing_plan_id":"cebpf4jnsgd1na2vs0mg"},{"bike_id":"7e04bb67-c24d-44da-93e9-2e0567bf10fa","system_id":"levelo_inurba_marseille","lat":43.23152,"lon":5.43713,"is_reserved":false,"is_disabled":true,"rental_uris":{"android":"levelo://app?vid=7e04bb67-c24d-44da-93e9-2e0567bf10fa","ios":"levelo://app?vid=7e04bb67-c24d-44da-93e9-2e0567bf10fa"},"vehicle_type_id":"4","last_reported":1732691388,"current_range_meters":0,"station_id":"ce4bhmp2rcd13ifvqgog","pricing_plan_id":"cebpf4jnsgd1na2vs0mg"},{"bike_id":"17b94292-830a-41ef-85a8-2b3c6dda58d0","system_id":"levelo_inurba_marseille","lat":43.29096,"lon":5.38143,"is_reserved":false,"is_disabled":false,"rental_uris":{"android":"levelo://app?vid=17b94292-830a-41ef-85a8-2b3c6dda58d0","ios":"levelo://app?vid=17b94292-830a-41ef-85a8-2b3c6dda58d0"},"vehicle_type_id":"4","last_reported":1732691388,"current_range_meters":28400,"station_id":"ce4bh512rcd13ifvqe2g","pricing_plan_id":"cebpf4jnsgd1na2vs0mg"},{"bike_id":"9e001124-a5af-4971-88ef-0ce675620918","system_id":"levelo_inurba_marseille","lat":43.2796,"lon":5.38714,"is_reserved":false,"is_disabled":true,"rental_uris":{"android":"levelo://app?vid=9e001124-a5af-4971-88ef-0ce675620918","ios":"levelo://app?vid=9e001124-a5af-4971-88ef-0ce675620918"},"vehicle_type_id":"4","last_reported":1732691388,"current_range_meters":0,"station_id":"ce4bhg12rcd13ifvqf80","pricing_plan_id":"cebpf4jnsgd1na2vs0mg"},{"bike_id":"a9a33277-cb3b-4b4c-8f1b-ffbd49a4815e","system_id":"levelo_inurba_marseille","lat":43.30466,"lon":5.37902,"is_reserved":false,"is_disabled":false,"rental_uris":{"android":"levelo://app?vid=a9a33277-cb3b-4b4c-8f1b-ffbd49a4815e","ios":"levelo://app?vid=a9a33277-cb3b-4b4c-8f1b-ffbd49a4815e"},"vehicle_type_id":"4","last_reported":1732691388,"current_range_meters":32800,"station_id":"ce4bgup2rcd13ifvqcn0","pricing_plan_id":"cebpf4jnsgd1na2vs0mg"},{"bike_id":"e4395f26-4c0b-4bec-b10e-ec01132237c1","system_id":"levelo_inurba_marseille","lat":43.27171,"lon":5.410007,"is_reserved":false,"is_disabled":true,"rental_uris":{"android":"levelo://app?vid=e4395f26-4c0b-4bec-b10e-ec01132237c1","ios":"levelo://app?vid=e4395f26-4c0b-4bec-b10e-ec01132237c1"},"vehicle_type_id":"4","last_reported":1732691388,"current_range_meters":0,"station_id":"ce4bhl12rcd13ifvqgf0","pricing_plan_id":"cebpf4jnsgd1na2vs0mg"},{"bike_id":"841cc266-395b-4212-9f71-d71007d312d1","system_id":"levelo_inurba_marseille","lat":43.30153,"lon":5.38078,"is_reserved":false,"is_disabled":false,"rental_uris":{"android":"levelo://app?vid=841cc266-395b-4212-9f71-d71007d312d1","ios":"levelo://app?vid=841cc266-395b-4212-9f71-d71007d312d1"},"vehicle_type_id":"4","last_reported":1732691388,"current_range_meters":8400,"station_id":"ce4bgjp2rcd13ifvqbh0","pricing_plan_id":"cebpf4jnsgd1na2vs0mg"},{"bike_id":"9957db75-618f-4fa8-9bb6-4dbc799dce9a","system_id":"levelo_inurba_marseille","lat":43.29531,"lon":5.37504,"is_reserved":false,"is_disabled":true,"rental_uris":{"android":"levelo://app?vid=9957db75-618f-4fa8-9bb6-4dbc799dce9a","ios":"levelo://app?vid=9957db75-618f-4fa8-9bb6-4dbc799dce9a"},"vehicle_type_id":"4","last_reported":1732691388,"current_range_meters":12000,"station_id":"ce4bgkp2rcd13ifvqbmg","pricing_plan_id":"cebpf4jnsgd1na2vs0mg"},