{"last_updated":1779172738,"ttl":60,"version":"2.2","data":{"bikes":[{"bike_id":"7d641315-6110-49cb-a9dd-d637ff032de1","system_id":"levelo_inurba_marseille","lat":43.337444,"lon":5.374475,"is_reserved":false,"is_disabled":false,"rental_uris":{"android":"levelo://app?vid=7d641315-6110-49cb-a9dd-d637ff032de1","ios":"levelo://app?vid=7d641315-6110-49cb-a9dd-d637ff032de1"},"vehicle_type_id":"4","last_reported":1779172739,"current_range_meters":0,"station_id":"","pricing_plan_id":"cebpf4jnsgd1na2vs0mg"},{"bike_id":"72ea4ae9-933a-4d7c-8d2d-4f5a8ee19f5d","system_id":"levelo_inurba_marseille","lat":43.23178,"lon":5.39994,"is_reserved":false,"is_disabled":false,"rental_uris":{"android":"levelo://app?vid=72ea4ae9-933a-4d7c-8d2d-4f5a8ee19f5d","ios":"levelo://app?vid=72ea4ae9-933a-4d7c-8d2d-4f5a8ee19f5d"},"vehicle_type_id":"4","last_reported":1779172739,"current_range_meters":2800,"station_id":"ce4bhn12rcd13ifvqgqg","pricing_plan_id":"cebpf4jnsgd1na2vs0mg"},{"bike_id":"4feeb0f1-9905-4845-86c7-e9af4964b610","system_id":"levelo_inurba_marseille","lat":43.29715,"lon":5.37688,"is_reserved":false,"is_disabled":false,"rental_uris":{"android":"levelo://app?vid=4feeb0f1-9905-4845-86c7-e9af4964b610","ios":"levelo://app?vid=4feeb0f1-9905-4845-86c7-e9af4964b610"},"vehicle_type_id":"4","last_reported":1779172739,"current_range_meters":2800,"station_id":"ce4bgkh2rcd13ifvqbl0","pricing_plan_id":"cebpf4jnsgd1na2vs0mg"},{"bike_id":"9e4605bd-fb5f-4dea-85c6-6d392142aaa8","system_id":"levelo_inurba_marseille","lat":43.29713,"lon":5.41631,"is_reserved":false,"is_disabled":false,"rental_uris":{"android":"levelo://app?vid=9e4605bd-fb5f-4dea-85c6-6d392142aaa8","ios":"levelo://app?vid=9e4605bd-fb5f-4dea-85c6-6d392142aaa8"},"vehicle_type_id":"4","last_reported":1779172739,"current_range_meters":2800,"station_id":"","pricing_plan_id":"cebpf4jnsgd1na2vs0mg"},{"bike_id":"5385fbf0-8466-4efc-8174-39a738809f74","system_id":"levelo_inurba_marseille","lat":43.30486,"lon":5.37925,"is_reserved":false,"is_disabled":false,"rental_uris":{"android":"levelo://app?vid=5385fbf0-8466-4efc-8174-39a738809f74","ios":"levelo://app?vid=5385fbf0-8466-4efc-8174-39a738809f74"},"vehicle_type_id":"4","last_reported":1779172739,"current_range_meters":2800,"station_id":"ce4bgup2rcd13ifvqcn0","pricing_plan_id":"cebpf4jnsgd1na2vs0mg"},{"bike_id":"bb719097-49f9-4ef8-b021-ede068d8c8f6","system_id":"levelo_inurba_marseille","lat":43.2582,"lon":5.39431,"is_reserved":false,"is_disabled":false,"rental_uris":{"android":"levelo://app?vid=bb719097-49f9-4ef8-b021-ede068d8c8f6","ios":"levelo://app?vid=bb719097-49f9-4ef8-b021-ede068d8c8f6"},"vehicle_type_id":"4","last_reported":1779172739,"current_range_meters":2800,"station_id":"ce4bhip2rcd13ifvqft0","pricing_plan_id":"cebpf4jnsgd1na2vs0mg"},{"bike_id":"1e419bb4-f72e-411c-9528-d30aeed3f29b","system_id":"levelo_inurba_marseille","lat":43.29537,"lon":5.38538,"is_reserved":false,"is_disabled":true,"rental_uris":{"android":"levelo://app?vid=1e419bb4-f72e-411c-9528-d30aeed3f29b","ios":"levelo://app?vid=1e419bb4-f72e-411c-9528-d30aeed3f29b"},"vehicle_type_id":"4","last_reported":1779172739,"current_range_meters":2800,"station_id":"ce4bgih2rcd13ifvqba0","pricing_plan_id":"cebpf4jnsgd1na2vs0mg"},{"bike_id":"8725df66-c4d7-497c-b058-ed0348fcd21a","system_id":"levelo_inurba_marseille","lat":43.24084,"lon":5.37746,"is_reserved":false,"is_disabled":false,"rental_uris":{"android":"levelo://app?vid=8725df66-c4d7-497c-b058-ed0348fcd21a","ios":"levelo://app?vid=8725df66-c4d7-497c-b058-ed0348fcd21a"},"vehicle_type_id":"4","last_reported":1779172739,"current_range_meters":2800,"station_id":"ce4bhnp2rcd13ifvqgvg","pricing_plan_id":"cebpf4jnsgd1na2vs0mg"},{"bike_id":"db6a2c04-da4a-4750-8c5c-d1712b5a5a30","system_id":"levelo_inurba_marseille","lat":43.30432,"lon":5.38899,"is_reserved":false,"is_disabled":false,"rental_uris":{"android":"levelo://app?vid=db6a2c04-da4a-4750-8c5c-d1712b5a5a30","ios":"levelo://app?vid=db6a2c04-da4a-4750-8c5c-d1712b5a5a30"},"vehicle_type_id":"4","last_reported":1779172739,"current_range_meters":2800,"station_id":"ce4bgk12rcd13ifvqbi0","pricing_plan_id":"cebpf4jnsgd1na2vs0mg"},{"bike_id":"48c8e573-722e-4e28-8459-2d52b038a035","system_id":"levelo_inurba_marseille","lat":43.25088,"lon":5.39507,"is_reserved":false,"is_disabled":false,"rental_uris":{"android":"levelo://app?vid=48c8e573-722e-4e28-8459-2d52b038a035","ios":"levelo://app?vid=48c8e573-722e-4e28-8459-2d52b038a035"},"vehicle_type_id":"4","last_reported":1779172739,"current_range_meters":2800,"station_id":"ce4bhm12rcd13ifvqgkg","pricing_plan_id":"cebpf4jnsgd1na2vs0mg"},{"bike_id":"9fdcbe47-e271-4e8a-a5f4-2b31fe40ea31","system_id":"levelo_inurba_marseille","lat":43.28615,"lon":5.35108,"is_reserved":false,"is_disabled":false,"rental_uris":{"android":"levelo://app?vid=9fdcbe47-e271-4e8a-a5f4-2b31fe40ea31","ios":"levelo://app?vid=9fdcbe47-e271-4e8a-a5f4-2b31fe40ea31"},"vehicle_type_id":"4","last_reported":1779172739,"current_range_meters":2800,"station_id":"ce4bhch2rcd13ifvqeug","pricing_plan_id":"cebpf4jnsgd1na2vs0mg"},{"bike_id":"d6ce45c5-ac45-429f-aeb0-25b79ede24b6","system_id":"levelo_inurba_marseille","lat":43.29608,"lon":5.38104,"is_reserved":false,"is_disabled":false,"rental_uris":{"android":"levelo://app?vid=d6ce45c5-ac45-429f-aeb0-25b79ede24b6","ios":"levelo://app?vid=d6ce45c5-ac45-429f-aeb0-25b79ede24b6"},"vehicle_type_id":"4","last_reported":1779172739,"current_range_meters":2800,"station_id":"ce4bgl12rcd13ifvqbo0","pricing_plan_id":"cebpf4jnsgd1na2vs0mg"},{"bike_id":"2501e45f-08e5-4e1e-b1d6-4597fc74d164","system_id":"levelo_inurba_marseille","lat":43.30885,"lon":5.37183,"is_reserved":false,"is_disabled":false,"rental_uris":{"android":"levelo://app?vid=2501e45f-08e5-4e1e-b1d6-4597fc74d164","ios":"levelo://app?vid=2501e45f-08e5-4e1e-b1d6-4597fc74d164"},"vehicle_type_id":"4","last_reported":1779172739,"current_range_meters":3200,"station_id":"ce4bguh2rcd13ifvqckg","pricing_plan_id":"cebpf4jnsgd1na2vs0mg"},{"bike_id":"2246ea98-8f4b-405c-b291-053a405f541f","system_id":"levelo_inurba_marseille","lat":43.33163,"lon":5.37681,"is_reserved":false,"is_disabled":false,"rental_uris":{"android":"levelo://app?vid=2246ea98-8f4b-405c-b291-053a405f541f","ios":"levelo://app?vid=2246ea98-8f4b-405c-b291-053a405f541f"},"vehicle_type_id":"4","last_reported":1779172739,"current_range_meters":3200,"station_id":"st_d46cu089ee8s73dldbu0","pricing_plan_id":"cebpf4jnsgd1na2vs0mg"},{"bike_id":"539fc6a1-6c4d-4a4d-8eca-915b47206a3a","system_id":"levelo_inurba_marseille","lat":43.22558,"lon":5.41621,"is_reserved":false,"is_disabled":false,"rental_uris":{"android":"levelo://app?vid=539fc6a1-6c4d-4a4d-8eca-915b47206a3a","ios":"levelo://app?vid=539fc6a1-6c4d-4a4d-8eca-915b47206a3a"},"vehicle_type_id":"4","last_reported":1779172739,"current_range_meters":3200,"station_id":"st_d2o4gvlbi1j2169b742g","pricing_plan_id":"cebpf4jnsgd1na2vs0mg"},{"bike_id":"cc4e3d8f-90f0-467b-aaae-6318e2e15179","system_id":"levelo_inurba_marseille","lat":43.271926,"lon":5.391796,"is_reserved":false,"is_disabled":false,"rental_uris":{"android":"levelo://app?vid=cc4e3d8f-90f0-467b-aaae-6318e2e15179","ios":"levelo://app?vid=cc4e3d8f-90f0-467b-aaae-6318e2e15179"},"vehicle_type_id":"4","last_reported":1779172739,"current_range_meters":3200,"station_id":"ce4bhgp2rcd13ifvqfd0","pricing_plan_id":"cebpf4jnsgd1na2vs0mg"},{"bike_id":"da66c6ce-3d3c-40b4-8a30-8668c058cfe8","system_id":"levelo_inurba_marseille","lat":43.24675,"lon":5.3817,"is_reserved":false,"is_disabled":false,"rental_uris":{"android":"levelo://app?vid=da66c6ce-3d3c-40b4-8a30-8668c058cfe8","ios":"levelo://app?vid=da66c6ce-3d3c-40b4-8a30-8668c058cfe8"},"vehicle_type_id":"4","last_reported":1779172739,"current_range_meters":3200,"station_id":"ce4bhih2rcd13ifvqfr0","pricing_plan_id":"cebpf4jnsgd1na2vs0mg"},{"bike_id":"7cea42b6-f3cb-4018-8035-ceafb7834e84","system_id":"levelo_inurba_marseille","lat":43.31512,"lon":5.37288,"is_reserved":false,"is_disabled":false,"rental_uris":{"android":"levelo://app?vid=7cea42b6-f3cb-4018-8035-ceafb7834e84","ios":"levelo://app?vid=7cea42b6-f3cb-4018-8035-ceafb7834e84"},"vehicle_type_id":"4","last_reported":1779172739,"current_range_meters":3600,"station_id":"ce4bgt12rcd13ifvqcd0","pricing_plan_id":"cebpf4jnsgd1na2vs0mg"},{"bike_id":"f46dc198-f447-4b28-8d13-72a1d78dd32a","system_id":"levelo_inurba_marseille","lat":43.28993,"lon":5.35511,"is_reserved":false,"is_disabled":false,"rental_uris":{"android":"levelo://app?vid=f46dc198-f447-4b28-8d13-72a1d78dd32a","ios":"levelo://app?vid=f46dc198-f447-4b28-8d13-72a1d78dd32a"},"vehicle_type_id":"4","last_reported":1779172739,"current_range_meters":3600,"station_id":"","pricing_plan_id":"cebpf4jnsgd1na2vs0mg"},{"bike_id":"c3043968-1751-408c-9ac4-e11aa6298c44","system_id":"levelo_inurba_marseille","lat":43.262,"lon":5.37936,"is_reserved":false,"is_disabled":false,"rental_uris":{"android":"levelo://app?vid=c3043968-1751-408c-9ac4-e11aa6298c44","ios":"levelo://app?vid=c3043968-1751-408c-9ac4-e11aa6298c44"},"vehicle_type_id":"4","last_reported":1779172739,"current_range_meters":3600,"station_id":"ce4bhjp2rcd13ifvqg90","pricing_plan_id":"cebpf4jnsgd1na2vs0mg"},{"bike_id":"185113fd-b3bd-49f2-9b2e-dfb619e0d36f","system_id":"levelo_inurba_marseille","lat":43.24165,"lon":5.39737,"is_reserved":false,"is_disabled":false,"rental_uris":{"android":"levelo://app?vid=185113fd-b3bd-49f2-9b2e-dfb619e0d36f","ios":"levelo://app?vid=185113fd-b3bd-49f2-9b2e-dfb619e0d36f"},"vehicle_type_id":"4","last_reported":1779172739,"current_range_meters":3600,"station_id":"ce4bhn12rcd13ifvqgpg","pricing_plan_id":"cebpf4jnsgd1na2vs0mg"},{"bike_id":"59962e8b-a26d-4322-b6dc-57813ce3326c","system_id":"levelo_inurba_marseille","lat":43.32111,"lon":5.36772,"is_reserved":false,"is_disabled":false,"rental_uris":{"android":"levelo://app?vid=59962e8b-a26d-4322-b6dc-57813ce3326c","ios":"levelo://app?vid=59962e8b-a26d-4322-b6dc-57813ce3326c"},"vehicle_type_id":"4","last_reported":1779172739,"current_range_meters":3600,"station_id":"ce4bhrh2rcd13ifvqhug","pricing_plan_id":"cebpf4jnsgd1na2vs0mg"},{"bike_id":"4a373c1c-4bc7-4893-8f18-a7eae188020c","system_id":"levelo_inurba_marseille","lat":43.28699,"lon":5.46701,"is_reserved":false,"is_disabled":false,"rental_uris":{"android":"levelo://app?vid=4a373c1c-4bc7-4893-8f18-a7eae188020c","ios":"levelo://app?vid=4a373c1c-4bc7-4893-8f18-a7eae188020c"},"vehicle_type_id":"4","last_reported":1779172739,"current_range_meters":3600,"station_id":"st_d6tc3vkotcvc738tfjhg","pricing_plan_id":"cebpf4jnsgd1na2vs0mg"},{"bike_id":"e9ca092f-eeb9-4bf2-8670-de7420368db8","system_id":"levelo_inurba_marseille","lat":43.262043,"lon":5.374319,"is_reserved":false,"is_disabled":false,"rental_uris":{"android":"levelo://app?vid=e9ca092f-eeb9-4bf2-8670-de7420368db8","ios":"levelo://app?vid=e9ca092f-eeb9-4bf2-8670-de7420368db8"},"vehicle_type_id":"4","last_reported":1779172739,"current_range_meters":3600,"station_id":"st_d3n2fo6cfp8s73cte1j0","pricing_plan_id":"cebpf4jnsgd1na2vs0mg"},{"bike_id":"31ff2bc9-defb-4580-a7b6-ec23763942fe","system_id":"levelo_inurba_marseille","lat":43.23783,"lon":5.36619,"is_reserved":false,"is_disabled":false,"rental_uris":{"android":"levelo://app?vid=31ff2bc9-defb-4580-a7b6-ec23763942fe","ios":"levelo://app?vid=31ff2bc9-defb-4580-a7b6-ec23763942fe"},"vehicle_type_id":"4","last_reported":1779172739,"current_range_meters":3600,"station_id":"st_d3nk18o9ro0c73en2l3g","pricing_plan_id":"cebpf4jnsgd1na2vs0mg"},{"bike_id":"6f02c462-5be8-4fd9-bd86-49563918d3d3","system_id":"levelo_inurba_marseille","lat":43.31892,"lon":5.36805,"is_reserved":false,"is_disabled":false,"rental_uris":{"android":"levelo://app?vid=6f02c462-5be8-4fd9-bd86-49563918d3d3","ios":"levelo://app?vid=6f02c462-5be8-4fd9-bd86-49563918d3d3"},"vehicle_type_id":"4","last_reported":1779172739,"current_range_meters":3600,"station_id":"st_d6o2h0d0559c73evc1b0","pricing_plan_id":"cebpf4jnsgd1na2vs0mg"},{"bike_id":"39989002-a94c-4046-9f91-d8de9e67f1f6","system_id":"levelo_inurba_marseille","lat":43.25115,"lon":5.40321,"is_reserved":false,"is_disabled":true,"rental_uris":{"android":"levelo://app?vid=39989002-a94c-4046-9f91-d8de9e67f1f6","ios":"levelo://app?vid=39989002-a94c-4046-9f91-d8de9e67f1f6"},"vehicle_type_id":"4","last_reported":1779172739,"current_range_meters":3600,"station_id":"ce4bhlh2rcd13ifvqgig","pricing_plan_id":"cebpf4jnsgd1na2vs0mg"},{"bike_id":"4de22d2a-42b5-4340-9a15-d6954e69ec3b","system_id":"levelo_inurba_marseille","lat":43.25502,"lon":5.37649,"is_reserved":false,"is_disabled":false,"rental_uris":{"android":"levelo://app?vid=4de22d2a-42b5-4340-9a15-d6954e69ec3b","ios":"levelo://app?vid=4de22d2a-42b5-4340-9a15-d6954e69ec3b"},"vehicle_type_id":"4","last_reported":1779172739,"current_range_meters":3600,"station_id":"ce4bhh12rcd13ifvqff0","pricing_plan_id":"cebpf4jnsgd1na2vs0mg"},{"bike_id":"46117692-980b-4971-bcf1-25795253a6b1","system_id":"levelo_inurba_marseille","lat":43.28607,"lon":5.3706,"is_reserved":false,"is_disabled":false,"rental_uris":{"android":"levelo://app?vid=46117692-980b-4971-bcf1-25795253a6b1","ios":"levelo://app?vid=46117692-980b-4971-bcf1-25795253a6b1"},"vehicle_type_id":"4","last_reported":1779172739,"current_range_meters":3600,"station_id":"ce4bht12rcd13ifvqi60","pricing_plan_id":"cebpf4jnsgd1na2vs0mg"},{"bike_id":"0487ef7f-8e46-4ed5-842a-2a4f41d76b87","system_id":"levelo_inurba_marseille","lat":43.25933,"lon":5.409005,"is_reserved":false,"is_disabled":false,"rental_uris":{"android":"levelo://app?vid=0487ef7f-8e46-4ed5-842a-2a4f41d76b87","ios":"levelo://app?vid=0487ef7f-8e46-4ed5-842a-2a4f41d76b87"},"vehicle_type_id":"4","last_reported":1779172739,"current_range_meters":3600,"station_id":"ce4bhm92rcd13ifvqglg","pricing_plan_id":"cebpf4jnsgd1na2vs0mg"},{"bike_id":"fc221e3f-51d0-45f1-988a-20d004c74526","system_id":"levelo_inurba_marseille","lat":43.31251,"lon":5.41337,"is_reserved":false,"is_disabled":false,"rental_uris":{"android":"levelo://app?vid=fc221e3f-51d0-45f1-988a-20d004c74526","ios":"levelo://app?vid=fc221e3f-51d0-45f1-988a-20d004c74526"},"vehicle_type_id":"4","last_reported":1779172739,"current_range_meters":3600,"station_id":"","pricing_plan_id":"cebpf4jnsgd1na2vs0mg"},{"bike_id":"e5d3f8e5-7fc2-4063-b550-2d1f9611ba34","system_id":"levelo_inurba_marseille","lat":43.212,"lon":5.3508,"is_reserved":false,"is_disabled":true,"rental_uris":{"android":"levelo://app?vid=e5d3f8e5-7fc2-4063-b550-2d1f9611ba34","ios":"levelo://app?vid=e5d3f8e5-7fc2-4063-b550-2d1f9611ba34"},"vehicle_type_id":"4","last_reported":1779172739,"current_range_meters":3600,"station_id":"st_cvj6sg6p6f1abm77japg","pricing_plan_id":"cebpf4jnsgd1na2vs0mg"},{"bike_id":"56611aee-4a97-497f-a541-b301e0a4b4f4","system_id":"levelo_inurba_marseille","lat":43.33184,"lon":5.40642,"is_reserved":false,"is_disabled":false,"rental_uris":{"android":"levelo://app?vid=56611aee-4a97-497f-a541-b301e0a4b4f4","ios":"levelo://app?vid=56611aee-4a97-497f-a541-b301e0a4b4f4"},"vehicle_type_id":"4","last_reported":1779172739,"current_range_meters":3600,"station_id":"","pricing_plan_id":"cebpf4jnsgd1na2vs0mg"},{"bike_id":"1e83bb69-67d4-4436-a694-2a70fa6c12ea","system_id":"levelo_inurba_marseille","lat":43.24667,"lon":5.38163,"is_reserved":false,"is_disabled":false,"rental_uris":{"android":"levelo://app?vid=1e83bb69-67d4-4436-a694-2a70fa6c12ea","ios":"levelo://app?vid=1e83bb69-67d4-4436-a694-2a70fa6c12ea"},"vehicle_type_id":"4","last_reported":1779172739,"current_range_meters":3600,"station_id":"ce4bhih2rcd13ifvqfr0","pricing_plan_id":"cebpf4jnsgd1na2vs0mg"},{"bike_id":"627051ca-ceab-4958-842c-b7590911776e","system_id":"levelo_inurba_marseille","lat":43.3237,"lon":5.36713,"is_reserved":false,"is_disabled":false,"rental_uris":{"android":"levelo://app?vid=627051ca-ceab-4958-842c-b7590911776e","ios":"levelo://app?vid=627051ca-ceab-4958-842c-b7590911776e"},"vehicle_type_id":"4","last_reported":1779172739,"current_range_meters":3600,"station_id":"","pricing_plan_id":"cebpf4jnsgd1na2vs0mg"},{"bike_id":"c61ee1f3-e7bc-4a40-925d-78f3f44d2b3b","system_id":"levelo_inurba_marseille","lat":43.30157,"lon":5.38082,"is_reserved":false,"is_disabled":false,"rental_uris":{"android":"levelo://app?vid=c61ee1f3-e7bc-4a40-925d-78f3f44d2b3b","ios":"levelo://app?vid=c61ee1f3-e7bc-4a40-925d-78f3f44d2b3b"},"vehicle_type_id":"4","last_reported":1779172739,"current_range_meters":4000,"station_id":"ce4bgjp2rcd13ifvqbh0","pricing_plan_id":"cebpf4jnsgd1na2vs0mg"},{"bike_id":"d3acd850-e2d6-46de-8ca5-83c5f75f597d","system_id":"levelo_inurba_marseille","lat":43.306,"lon":5.39373,"is_reserved":false,"is_disabled":false,"rental_uris":{"android":"levelo://app?vid=d3acd850-e2d6-46de-8ca5-83c5f75f597d","ios":"levelo://app?vid=d3acd850-e2d6-46de-8ca5-83c5f75f597d"},"vehicle_type_id":"4","last_reported":1779172739,"current_range_meters":4000,"station_id":"ce4bh0p2rcd13ifvqd80","pricing_plan_id":"cebpf4jnsgd1na2vs0mg"},{"bike_id":"e6a24dde-c344-417a-aa1b-f7f3664aea84","system_id":"levelo_inurba_marseille","lat":43.31055,"lon":5.37179,"is_reserved":false,"is_disabled":false,"rental_uris":{"android":"levelo://app?vid=e6a24dde-c344-417a-aa1b-f7f3664aea84","ios":"levelo://app?vid=e6a24dde-c344-417a-aa1b-f7f3664aea84"},"vehicle_type_id":"4","last_reported":1779172739,"current_range_meters":4000,"station_id":"st_d4kl2rp97mjs73e7tdfg","pricing_plan_id":"cebpf4jnsgd1na2vs0mg"},{"bike_id":"6ea6c320-3fde-4b3f-983f-c4ea28652a4e","system_id":"levelo_inurba_marseille","lat":43.22555,"lon":5.4162,"is_reserved":false,"is_disabled":false,"rental_uris":{"android":"levelo://app?vid=6ea6c320-3fde-4b3f-983f-c4ea28652a4e","ios":"levelo://app?vid=6ea6c320-3fde-4b3f-983f-c4ea28652a4e"},"vehicle_type_id":"4","last_reported":1779172739,"current_range_meters":4000,"station_id":"st_d2o4gvlbi1j2169b742g","pricing_plan_id":"cebpf4jnsgd1na2vs0mg"},{"bike_id":"8f6fb70f-9962-4c14-afae-9cd42b60f2ca","system_id":"levelo_inurba_marseille","lat":43.26796,"lon":5.39415,"is_reserved":false,"is_disabled":true,"rental_uris":{"android":"levelo://app?vid=8f6fb70f-9962-4c14-afae-9cd42b60f2ca","ios":"levelo://app?vid=8f6fb70f-9962-4c14-afae-9cd42b60f2ca"},"vehicle_type_id":"4","last_reported":1779172739,"current_range_meters":4000,"station_id":"ce4bhh12rcd13ifvqfg0","pricing_plan_id":"cebpf4jnsgd1na2vs0mg"},{"bike_id":"1c2eb4d1-e613-4047-a77c-317fbe0accea","system_id":"levelo_inurba_marseille","lat":43.29257,"lon":5.3841,"is_reserved":false,"is_disabled":true,"rental_uris":{"android":"levelo://app?vid=1c2eb4d1-e613-4047-a77c-317fbe0accea","ios":"levelo://app?vid=1c2eb4d1-e613-4047-a77c-317fbe0accea"},"vehicle_type_id":"4","last_reported":1779172739,"current_range_meters":4000,"station_id":"ce4bh692rcd13ifvqea0","pricing_plan_id":"cebpf4jnsgd1na2vs0mg"},{"bike_id":"cf5544a4-8e85-4838-918f-f563a2f5fb78","system_id":"levelo_inurba_marseille","lat":43.28152,"lon":5.42641,"is_reserved":false,"is_disabled":false,"rental_uris":{"android":"levelo://app?vid=cf5544a4-8e85-4838-918f-f563a2f5fb78","ios":"levelo://app?vid=cf5544a4-8e85-4838-918f-f563a2f5fb78"},"vehicle_type_id":"4","last_reported":1779172739,"current_range_meters":4000,"station_id":"ce4bhnh2rcd13ifvqgug","pricing_plan_id":"cebpf4jnsgd1na2vs0mg"},{"bike_id":"80b13410-2b38-4065-9ee7-6899f603dc75","system_id":"levelo_inurba_marseille","lat":43.28726,"lon":5.36091,"is_reserved":false,"is_disabled":false,"rental_uris":{"android":"levelo://app?vid=80b13410-2b38-4065-9ee7-6899f603dc75","ios":"levelo://app?vid=80b13410-2b38-4065-9ee7-6899f603dc75"},"vehicle_type_id":"4","last_reported":1779172739,"current_range_meters":4000,"station_id":"cki0cbj6b192h4jlfktg","pricing_plan_id":"cebpf4jnsgd1na2vs0mg"},{"bike_id":"becbe472-0c9f-4df5-9353-e539ee115a59","system_id":"levelo_inurba_marseille","lat":43.29685,"lon":5.37295,"is_reserved":false,"is_disabled":false,"rental_uris":{"android":"levelo://app?vid=becbe472-0c9f-4df5-9353-e539ee115a59","ios":"levelo://app?vid=becbe472-0c9f-4df5-9353-e539ee115a59"},"vehicle_type_id":"4","last_reported":1779172739,"current_range_meters":4000,"station_id":"ce4bgk12rcd13ifvqbj0","pricing_plan_id":"cebpf4jnsgd1na2vs0mg"},{"bike_id":"9e2fe2f7-d6df-4ab9-966a-e0a262530a00","system_id":"levelo_inurba_marseille","lat":43.24806,"lon":5.37453,"is_reserved":false,"is_disabled":false,"rental_uris":{"android":"levelo://app?vid=9e2fe2f7-d6df-4ab9-966a-e0a262530a00","ios":"levelo://app?vid=9e2fe2f7-d6df-4ab9-966a-e0a262530a00"},"vehicle_type_id":"4","last_reported":1779172739,"current_range_meters":4000,"station_id":"ce4bhgh2rcd13ifvqfb0","pricing_plan_id":"cebpf4jnsgd1na2vs0mg"},{"bike_id":"f0155b3f-a757-41e6-a885-d929684d0a3c","system_id":"levelo_inurba_marseille","lat":43.30605,"lon":5.36563,"is_reserved":false,"is_disabled":false,"rental_uris":{"android":"levelo://app?vid=f0155b3f-a757-41e6-a885-d929684d0a3c","ios":"levelo://app?vid=f0155b3f-a757-41e6-a885-d929684d0a3c"},"vehicle_type_id":"4","last_reported":1779172739,"current_range_meters":4000,"station_id":"ce4bgs12rcd13ifvqcag","pricing_plan_id":"cebpf4jnsgd1na2vs0mg"},{"bike_id":"39a3ea2d-cf66-4e8d-a6d9-63731ee71959","system_id":"levelo_inurba_marseille","lat":43.2621,"lon":5.37916,"is_reserved":false,"is_disabled":false,"rental_uris":{"android":"levelo://app?vid=39a3ea2d-cf66-4e8d-a6d9-63731ee71959","ios":"levelo://app?vid=39a3ea2d-cf66-4e8d-a6d9-63731ee71959"},"vehicle_type_id":"4","last_reported":1779172739,"current_range_meters":4000,"station_id":"ce4bhjp2rcd13ifvqg90","pricing_plan_id":"cebpf4jnsgd1na2vs0mg"},{"bike_id":"462b788c-6301-44ac-95e3-03eeaa9ea279","system_id":"levelo_inurba_marseille","lat":43.31037,"lon":5.37152,"is_reserved":false,"is_disabled":false,"rental_uris":{"android":"levelo://app?vid=462b788c-6301-44ac-95e3-03eeaa9ea279","ios":"levelo://app?vid=462b788c-6301-44ac-95e3-03eeaa9ea279"},"vehicle_type_id":"4","last_reported":1779172739,"current_range_meters":4000,"station_id":"st_d4kl2rp97mjs73e7tdfg","pricing_plan_id":"cebpf4jnsgd1na2vs0mg"},{"bike_id":"5321f702-e2b0-42bf-9d68-0a4a7c9f661f","system_id":"levelo_inurba_marseille","lat":43.25582,"lon":5.38238,"is_reserved":false,"is_disabled":false,"rental_uris":{"android":"levelo://app?vid=5321f702-e2b0-42bf-9d68-0a4a7c9f661f","ios":"levelo://app?vid=5321f702-e2b0-42bf-9d68-0a4a7c9f661f"},"vehicle_type_id":"4","last_reported":1779172739,"current_range_meters":4400,"station_id":"ce4bhih2rcd13ifvqfs0","pricing_plan_id":"cebpf4jnsgd1na2vs0mg"},{"bike_id":"b9ca77f1-80fa-475b-9a37-ec72feacc5df","system_id":"levelo_inurba_marseille","lat":43.29799,"lon":5.44054,"is_reserved":false,"is_disabled":false,"rental_uris":{"android":"levelo://app?vid=b9ca77f1-80fa-475b-9a37-ec72feacc5df","ios":"levelo://app?vid=b9ca77f1-80fa-475b-9a37-ec72feacc5df"},"vehicle_type_id":"4","last_reported":1779172739,"current_range_meters":4400,"station_id":"st_d3jp68qikq2c7381ktn0","pricing_plan_id":"cebpf4jnsgd1na2vs0mg"},{"bike_id":"ef8be139-eb13-4ce1-a36c-5967b112305f","system_id":"levelo_inurba_marseille","lat":43.31707,"lon":5.37775,"is_reserved":false,"is_disabled":false,"rental_uris":{"android":"levelo://app?vid=ef8be139-eb13-4ce1-a36c-5967b112305f","ios":"levelo://app?vid=ef8be139-eb13-4ce1-a36c-5967b112305f"},"vehicle_type_id":"4","last_reported":1779172739,"current_range_meters":4400,"station_id":"ce4bgth2rcd13ifvqch0","pricing_plan_id":"cebpf4jnsgd1na2vs0mg"},{"bike_id":"f730d25a-84e3-42c5-a939-51609cebefcd","system_id":"levelo_inurba_marseille","lat":43.28702,"lon":5.46688,"is_reserved":false,"is_disabled":false,"rental_uris":{"android":"levelo://app?vid=f730d25a-84e3-42c5-a939-51609cebefcd","ios":"levelo://app?vid=f730d25a-84e3-42c5-a939-51609cebefcd"},"vehicle_type_id":"4","last_reported":1779172739,"current_range_meters":4400,"station_id":"st_d6tc3vkotcvc738tfjhg","pricing_plan_id":"cebpf4jnsgd1na2vs0mg"},{"bike_id":"642652c0-8c63-45f6-a188-a78d4572b856","system_id":"levelo_inurba_marseille","lat":43.2767,"lon":5.38901,"is_reserved":false,"is_disabled":false,"rental_uris":{"android":"levelo://app?vid=642652c0-8c63-45f6-a188-a78d4572b856","ios":"levelo://app?vid=642652c0-8c63-45f6-a188-a78d4572b856"},"vehicle_type_id":"4","last_reported":1779172739,"current_range_meters":4400,"station_id":"ce4bhi12rcd13ifvqfo0","pricing_plan_id":"cebpf4jnsgd1na2vs0mg"},{"bike_id":"6af654b7-7a8b-457b-ad58-fba21b09801a","system_id":"levelo_inurba_marseille","lat":43.32108,"lon":5.36772,"is_reserved":false,"is_disabled":false,"rental_uris":{"android":"levelo://app?vid=6af654b7-7a8b-457b-ad58-fba21b09801a","ios":"levelo://app?vid=6af654b7-7a8b-457b-ad58-fba21b09801a"},"vehicle_type_id":"4","last_reported":1779172739,"current_range_meters":4400,"station_id":"ce4bhrh2rcd13ifvqhug","pricing_plan_id":"cebpf4jnsgd1na2vs0mg"},{"bike_id":"92d1f52a-2b5f-46f0-a31e-967db06a4663","system_id":"levelo_inurba_marseille","lat":43.23377,"lon":5.41231,"is_reserved":false,"is_disabled":true,"rental_uris":{"android":"levelo://app?vid=92d1f52a-2b5f-46f0-a31e-967db06a4663","ios":"levelo://app?vid=92d1f52a-2b5f-46f0-a31e-967db06a4663"},"vehicle_type_id":"4","last_reported":1779172739,"current_range_meters":4400,"station_id":"st_d75pvndhf9lc73cqq3eg","pricing_plan_id":"cebpf4jnsgd1na2vs0mg"},{"bike_id":"26591e34-5557-4c47-85c1-c0340780f77e","system_id":"levelo_inurba_marseille","lat":43.2455,"lon":5.39513,"is_reserved":false,"is_disabled":false,"rental_uris":{"android":"levelo://app?vid=26591e34-5557-4c47-85c1-c0340780f77e","ios":"levelo://app?vid=26591e34-5557-4c47-85c1-c0340780f77e"},"vehicle_type_id":"4","last_reported":1779172739,"current_range_meters":4400,"station_id":"ce4bhlp2rcd13ifvqgjg","pricing_plan_id":"cebpf4jnsgd1na2vs0mg"},{"bike_id":"5a1c8a28-d79f-4b07-a4d8-bce75ba2c426","system_id":"levelo_inurba_marseille","lat":43.25855,"lon":5.39904,"is_reserved":false,"is_disabled":true,"rental_uris":{"android":"levelo://app?vid=5a1c8a28-d79f-4b07-a4d8-bce75ba2c426","ios":"levelo://app?vid=5a1c8a28-d79f-4b07-a4d8-bce75ba2c426"},"vehicle_type_id":"4","last_reported":1779172739,"current_range_meters":4800,"station_id":"ce4bhl92rcd13ifvqghg","pricing_plan_id":"cebpf4jnsgd1na2vs0mg"},{"bike_id":"8b40f371-b5b3-4fc4-8d18-2cb1fc4066c3","system_id":"levelo_inurba_marseille","lat":43.28935,"lon":5.38407,"is_reserved":false,"is_disabled":true,"rental_uris":{"android":"levelo://app?vid=8b40f371-b5b3-4fc4-8d18-2cb1fc4066c3","ios":"levelo://app?vid=8b40f371-b5b3-4fc4-8d18-2cb1fc4066c3"},"vehicle_type_id":"4","last_reported":1779172739,"current_range_meters":4800,"station_id":"ce4bh612rcd13ifvqe6g","pricing_plan_id":"cebpf4jnsgd1na2vs0mg"},{"bike_id":"8f3af7fc-2bf8-4325-97eb-54f330bbc6f4","system_id":"levelo_inurba_marseille","lat":43.24157,"lon":5.36378,"is_reserved":false,"is_disabled":false,"rental_uris":{"android":"levelo://app?vid=8f3af7fc-2bf8-4325-97eb-54f330bbc6f4","ios":"levelo://app?vid=8f3af7fc-2bf8-4325-97eb-54f330bbc6f4"},"vehicle_type_id":"4","last_reported":1779172739,"current_range_meters":4800,"station_id":"cpo36qri1sfpv3e86is0","pricing_plan_id":"cebpf4jnsgd1na2vs0mg"},{"bike_id":"428a210f-87f7-428f-9ac4-76d179596d35","system_id":"levelo_inurba_marseille","lat":43.28567,"lon":5.39509,"is_reserved":false,"is_disabled":true,"rental_uris":{"android":"levelo://app?vid=428a210f-87f7-428f-9ac4-76d179596d35","ios":"levelo://app?vid=428a210f-87f7-428f-9ac4-76d179596d35"},"vehicle_type_id":"4","last_reported":1779172739,"current_range_meters":4800,"station_id":"ce4bh292rcd13ifvqdg0","pricing_plan_id":"cebpf4jnsgd1na2vs0mg"},{"bike_id":"535ad4d9-d8e9-4c0f-9778-d2007616c1fe","system_id":"levelo_inurba_marseille","lat":43.2998,"lon":5.37184,"is_reserved":false,"is_disabled":false,"rental_uris":{"android":"levelo://app?vid=535ad4d9-d8e9-4c0f-9778-d2007616c1fe","ios":"levelo://app?vid=535ad4d9-d8e9-4c0f-9778-d2007616c1fe"},"vehicle_type_id":"4","last_reported":1779172739,"current_range_meters":4800,"station_id":"ce4bgr92rcd13ifvqc7g","pricing_plan_id":"cebpf4jnsgd1na2vs0mg"},{"bike_id":"a7214e9f-c80d-412b-acf4-22422f627ed4","system_id":"levelo_inurba_marseille","lat":43.26678,"lon":5.38264,"is_reserved":false,"is_disabled":false,"rental_uris":{"android":"levelo://app?vid=a7214e9f-c80d-412b-acf4-22422f627ed4","ios":"levelo://app?vid=a7214e9f-c80d-412b-acf4-22422f627ed4"},"vehicle_type_id":"4","last_reported":1779172739,"current_range_meters":4800,"station_id":"ce4bhg92rcd13ifvqf90","pricing_plan_id":"cebpf4jnsgd1na2vs0mg"},{"bike_id":"0665cd30-2671-4f43-a34d-10c18ad81c12","system_id":"levelo_inurba_marseille","lat":43.30133,"lon":5.38095,"is_reserved":false,"is_disabled":false,"rental_uris":{"android":"levelo://app?vid=0665cd30-2671-4f43-a34d-10c18ad81c12","ios":"levelo://app?vid=0665cd30-2671-4f43-a34d-10c18ad81c12"},"vehicle_type_id":"4","last_reported":1779172739,"current_range_meters":4800,"station_id":"ce4bgjp2rcd13ifvqbh0","pricing_plan_id":"cebpf4jnsgd1na2vs0mg"},{"bike_id":"fe9b1e06-377d-4a4a-86dd-69d87bbb6487","system_id":"levelo_inurba_marseille","lat":43.27341,"lon":5.39102,"is_reserved":false,"is_disabled":false,"rental_uris":{"android":"levelo://app?vid=fe9b1e06-377d-4a4a-86dd-69d87bbb6487","ios":"levelo://app?vid=fe9b1e06-377d-4a4a-86dd-69d87bbb6487"},"vehicle_type_id":"4","last_reported":1779172739,"current_range_meters":4800,"station_id":"ce4bhgp2rcd13ifvqfe0","pricing_plan_id":"cebpf4jnsgd1na2vs0mg"},{"bike_id":"ec163896-b840-49f0-a7a3-6ae943e82d96","system_id":"levelo_inurba_marseille","lat":43.27633,"lon":5.4178,"is_reserved":false,"is_disabled":false,"rental_uris":{"android":"levelo://app?vid=ec163896-b840-49f0-a7a3-6ae943e82d96","ios":"levelo://app?vid=ec163896-b840-49f0-a7a3-6ae943e82d96"},"vehicle_type_id":"4","last_reported":1779172739,"current_range_meters":4800,"station_id":"","pricing_plan_id":"cebpf4jnsgd1na2vs0mg"},{"bike_id":"35db1608-5b19-447c-985e-d54a9f8f28eb","system_id":"levelo_inurba_marseille","lat":43.30526,"lon":5.38424,"is_reserved":false,"is_disabled":false,"rental_uris":{"android":"levelo://app?vid=35db1608-5b19-447c-985e-d54a9f8f28eb","ios":"levelo://app?vid=35db1608-5b19-447c-985e-d54a9f8f28eb"},"vehicle_type_id":"4","last_reported":1779172739,"current_range_meters":4800,"station_id":"ce4bgg92rcd13ifvqb30","pricing_plan_id":"cebpf4jnsgd1na2vs0mg"},{"bike_id":"3ae5fe99-474b-4982-a6fe-38e39bb48e1d","system_id":"levelo_inurba_marseille","lat":43.31692,"lon":5.40467,"is_reserved":false,"is_disabled":false,"rental_uris":{"android":"levelo://app?vid=3ae5fe99-474b-4982-a6fe-38e39bb48e1d","ios":"levelo://app?vid=3ae5fe99-474b-4982-a6fe-38e39bb48e1d"},"vehicle_type_id":"4","last_reported":1779172739,"current_range_meters":5600,"station_id":"ce4bh012rcd13ifvqd00","pricing_plan_id":"cebpf4jnsgd1na2vs0mg"},{"bike_id":"f953e7df-9a8f-4f8e-8e56-6a5db7d34d82","system_id":"levelo_inurba_marseille","lat":43.269189,"lon":5.380411,"is_reserved":false,"is_disabled":false,"rental_uris":{"android":"levelo://app?vid=f953e7df-9a8f-4f8e-8e56-6a5db7d34d82","ios":"levelo://app?vid=f953e7df-9a8f-4f8e-8e56-6a5db7d34d82"},"vehicle_type_id":"4","last_reported":1779172739,"current_range_meters":5600,"station_id":"","pricing_plan_id":"cebpf4jnsgd1na2vs0mg"},{"bike_id":"118f25d8-0255-44ef-8a35-47bb481bb8b6","system_id":"levelo_inurba_marseille","lat":43.243791,"lon":5.370656,"is_reserved":false,"is_disabled":true,"rental_uris":{"android":"levelo://app?vid=118f25d8-0255-44ef-8a35-47bb481bb8b6","ios":"levelo://app?vid=118f25d8-0255-44ef-8a35-47bb481bb8b6"},"vehicle_type_id":"4","last_reported":1779172739,"current_range_meters":5600,"station_id":"ce4bhhh2rcd13ifvqfk0","pricing_plan_id":"cebpf4jnsgd1na2vs0mg"},{"bike_id":"d330ebaf-89a2-4938-8fb2-a03c97594a54","system_id":"levelo_inurba_marseille","lat":43.28977,"lon":5.37619,"is_reserved":false,"is_disabled":false,"rental_uris":{"android":"levelo://app?vid=d330ebaf-89a2-4938-8fb2-a03c97594a54","ios":"levelo://app?vid=d330ebaf-89a2-4938-8fb2-a03c97594a54"},"vehicle_type_id":"4","last_reported":1779172739,"current_range_meters":5600,"station_id":"","pricing_plan_id":"cebpf4jnsgd1na2vs0mg"},{"bike_id":"d76bcd8d-16ce-4142-8da7-b7802e18c3c0","system_id":"levelo_inurba_marseille","lat":43.337444,"lon":5.374475,"is_reserved":false,"is_disabled":false,"rental_uris":{"android":"levelo://app?vid=d76bcd8d-16ce-4142-8da7-b7802e18c3c0","ios":"levelo://app?vid=d76bcd8d-16ce-4142-8da7-b7802e18c3c0"},"vehicle_type_id":"4","last_reported":1779172739,"current_range_meters":5600,"station_id":"","pricing_plan_id":"cebpf4jnsgd1na2vs0mg"},{"bike_id":"21500814-6683-446e-8685-c501c2e51c66","system_id":"levelo_inurba_marseille","lat":43.30888,"lon":5.37201,"is_reserved":false,"is_disabled":false,"rental_uris":{"android":"levelo://app?vid=21500814-6683-446e-8685-c501c2e51c66","ios":"levelo://app?vid=21500814-6683-446e-8685-c501c2e51c66"},"vehicle_type_id":"4","last_reported":1779172739,"current_range_meters":5600,"station_id":"ce4bguh2rcd13ifvqckg","pricing_plan_id":"cebpf4jnsgd1na2vs0mg"},{"bike_id":"e20cca08-0b38-426d-943e-6fce609088d3","system_id":"levelo_inurba_marseille","lat":43.31358,"lon":5.36722,"is_reserved":false,"is_disabled":false,"rental_uris":{"android":"levelo://app?vid=e20cca08-0b38-426d-943e-6fce609088d3","ios":"levelo://app?vid=e20cca08-0b38-426d-943e-6fce609088d3"},"vehicle_type_id":"4","last_reported":1779172739,"current_range_meters":5600,"station_id":"ce4bgr92rcd13ifvqc6g","pricing_plan_id":"cebpf4jnsgd1na2vs0mg"},{"bike_id":"6d8e5e94-477d-48c7-a857-d5cdacd32b60","system_id":"levelo_inurba_marseille","lat":43.30593,"lon":5.39341,"is_reserved":false,"is_disabled":false,"rental_uris":{"android":"levelo://app?vid=6d8e5e94-477d-48c7-a857-d5cdacd32b60","ios":"levelo://app?vid=6d8e5e94-477d-48c7-a857-d5cdacd32b60"},"vehicle_type_id":"4","last_reported":1779172739,"current_range_meters":5600,"station_id":"ce4bh0p2rcd13ifvqd80","pricing_plan_id":"cebpf4jnsgd1na2vs0mg"},{"bike_id":"b3e47a10-789b-4113-b169-face25d448d0","system_id":"levelo_inurba_marseille","lat":43.28689,"lon":5.46675,"is_reserved":false,"is_disabled":false,"rental_uris":{"android":"levelo://app?vid=b3e47a10-789b-4113-b169-face25d448d0","ios":"levelo://app?vid=b3e47a10-789b-4113-b169-face25d448d0"},"vehicle_type_id":"4","last_reported":1779172739,"current_range_meters":5600,"station_id":"st_d6tc3vkotcvc738tfjhg","pricing_plan_id":"cebpf4jnsgd1na2vs0mg"},{"bike_id":"6a4190a9-60c1-474d-b36b-bd9f7c409216","system_id":"levelo_inurba_marseille","lat":43.30397,"lon":5.42475,"is_reserved":false,"is_disabled":false,"rental_uris":{"android":"levelo://app?vid=6a4190a9-60c1-474d-b36b-bd9f7c409216","ios":"levelo://app?vid=6a4190a9-60c1-474d-b36b-bd9f7c409216"},"vehicle_type_id":"4","last_reported":1779172739,"current_range_meters":5600,"station_id":"ce4bhoh2rcd13ifvqh6g","pricing_plan_id":"cebpf4jnsgd1na2vs0mg"},{"bike_id":"67298b0d-96b3-4d14-87eb-fc9a2dd8b027","system_id":"levelo_inurba_marseille","lat":43.25123,"lon":5.40309,"is_reserved":false,"is_disabled":false,"rental_uris":{"android":"levelo://app?vid=67298b0d-96b3-4d14-87eb-fc9a2dd8b027","ios":"levelo://app?vid=67298b0d-96b3-4d14-87eb-fc9a2dd8b027"},"vehicle_type_id":"4","last_reported":1779172739,"current_range_meters":5600,"station_id":"ce4bhkp2rcd13ifvqgd0","pricing_plan_id":"cebpf4jnsgd1na2vs0mg"},{"bike_id":"dece5751-fcb0-4b88-8626-e00a9bd1903b","system_id":"levelo_inurba_marseille","lat":43.24465,"lon":5.42525,"is_reserved":false,"is_disabled":false,"rental_uris":{"android":"levelo://app?vid=dece5751-fcb0-4b88-8626-e00a9bd1903b","ios":"levelo://app?vid=dece5751-fcb0-4b88-8626-e00a9bd1903b"},"vehicle_type_id":"4","last_reported":1779172739,"current_range_meters":6000,"station_id":"st_d4a3vfp97mjs738cd8kg","pricing_plan_id":"cebpf4jnsgd1na2vs0mg"},{"bike_id":"addcdd95-92f1-4085-b077-e57d382466cb","system_id":"levelo_inurba_marseille","lat":43.29009,"lon":5.35604,"is_reserved":false,"is_disabled":true,"rental_uris":{"android":"levelo://app?vid=addcdd95-92f1-4085-b077-e57d382466cb","ios":"levelo://app?vid=addcdd95-92f1-4085-b077-e57d382466cb"},"vehicle_type_id":"4","last_reported":1779172739,"current_range_meters":6000,"station_id":"ce4bhb92rcd13ifvqen0","pricing_plan_id":"cebpf4jnsgd1na2vs0mg"},{"bike_id":"1f8259a9-7e55-4812-b53f-6d999496a759","system_id":"levelo_inurba_marseille","lat":43.28707,"lon":5.46688,"is_reserved":false,"is_disabled":false,"rental_uris":{"android":"levelo://app?vid=1f8259a9-7e55-4812-b53f-6d999496a759","ios":"levelo://app?vid=1f8259a9-7e55-4812-b53f-6d999496a759"},"vehicle_type_id":"4","last_reported":1779172739,"current_range_meters":6000,"station_id":"st_d6tc3vkotcvc738tfjhg","pricing_plan_id":"cebpf4jnsgd1na2vs0mg"},{"bike_id":"5eb11d83-2461-40c2-9484-0a35868d2011","system_id":"levelo_inurba_marseille","lat":43.29745,"lon":5.42773,"is_reserved":false,"is_disabled":true,"rental_uris":{"android":"levelo://app?vid=5eb11d83-2461-40c2-9484-0a35868d2011","ios":"levelo://app?vid=5eb11d83-2461-40c2-9484-0a35868d2011"},"vehicle_type_id":"4","last_reported":1779172739,"current_range_meters":6000,"station_id":"st_d3md5207bmas73dh9klg","pricing_plan_id":"cebpf4jnsgd1na2vs0mg"},{"bike_id":"e3cdd5c4-e2de-40e0-9b9a-2c1819f976d5","system_id":"levelo_inurba_marseille","lat":43.2927,"lon":5.40101,"is_reserved":false,"is_disabled":false,"rental_uris":{"android":"levelo://app?vid=e3cdd5c4-e2de-40e0-9b9a-2c1819f976d5","ios":"levelo://app?vid=e3cdd5c4-e2de-40e0-9b9a-2c1819f976d5"},"vehicle_type_id":"4","last_reported":1779172739,"current_range_meters":6000,"station_id":"ce4bh312rcd13ifvqdk0","pricing_plan_id":"cebpf4jnsgd1na2vs0mg"},{"bike_id":"75895f86-15b3-4742-a807-d4b5c5734fb5","system_id":"levelo_inurba_marseille","lat":43.28727,"lon":5.3793,"is_reserved":false,"is_disabled":false,"rental_uris":{"android":"levelo://app?vid=75895f86-15b3-4742-a807-d4b5c5734fb5","ios":"levelo://app?vid=75895f86-15b3-4742-a807-d4b5c5734fb5"},"vehicle_type_id":"4","last_reported":1779172739,"current_range_meters":6000,"station_id":"ce4bh9p2rcd13ifvqec0","pricing_plan_id":"cebpf4jnsgd1na2vs0mg"},{"bike_id":"fecbad9b-de34-45b5-aec9-0d12e826acd8","system_id":"levelo_inurba_marseille","lat":43.21186,"lon":5.35073,"is_reserved":false,"is_disabled":true,"rental_uris":{"android":"levelo://app?vid=fecbad9b-de34-45b5-aec9-0d12e826acd8","ios":"levelo://app?vid=fecbad9b-de34-45b5-aec9-0d12e826acd8"},"vehicle_type_id":"4","last_reported":1779172739,"current_range_meters":6000,"station_id":"st_cvj6sg6p6f1abm77japg","pricing_plan_id":"cebpf4jnsgd1na2vs0mg"},{"bike_id":"6bd314e1-ab15-4455-b889-55d1f77e4075","system_id":"levelo_inurba_marseille","lat":43.28616,"lon":5.35101,"is_reserved":false,"is_disabled":false,"rental_uris":{"android":"levelo://app?vid=6bd314e1-ab15-4455-b889-55d1f77e4075","ios":"levelo://app?vid=6bd314e1-ab15-4455-b889-55d1f77e4075"},"vehicle_type_id":"4","last_reported":1779172739,"current_range_meters":6000,"station_id":"ce4bhch2rcd13ifvqeug","pricing_plan_id":"cebpf4jnsgd1na2vs0mg"},{"bike_id":"46be8dd3-948b-467e-ad94-fd338307b9c7","system_id":"levelo_inurba_marseille","lat":43.29798,"lon":5.36589,"is_reserved":false,"is_disabled":false,"rental_uris":{"android":"levelo://app?vid=46be8dd3-948b-467e-ad94-fd338307b9c7","ios":"levelo://app?vid=46be8dd3-948b-467e-ad94-fd338307b9c7"},"vehicle_type_id":"4","last_reported":1779172739,"current_range_meters":6000,"station_id":"","pricing_plan_id":"cebpf4jnsgd1na2vs0mg"},{"bike_id":"497e6644-8987-41b1-81ab-505bc931c380","system_id":"levelo_inurba_marseille","lat":43.24949,"lon":5.40482,"is_reserved":false,"is_disabled":false,"rental_uris":{"android":"levelo://app?vid=497e6644-8987-41b1-81ab-505bc931c380","ios":"levelo://app?vid=497e6644-8987-41b1-81ab-505bc931c380"},"vehicle_type_id":"4","last_reported":1779172739,"current_range_meters":6000,"station_id":"st_d2ngiaodas8pm72gd1h0","pricing_plan_id":"cebpf4jnsgd1na2vs0mg"},{"bike_id":"b80f04ea-4895-4dc8-8099-10ac72e1b0fc","system_id":"levelo_inurba_marseille","lat":43.31054,"lon":5.37182,"is_reserved":false,"is_disabled":false,"rental_uris":{"android":"levelo://app?vid=b80f04ea-4895-4dc8-8099-10ac72e1b0fc","ios":"levelo://app?vid=b80f04ea-4895-4dc8-8099-10ac72e1b0fc"},"vehicle_type_id":"4","last_reported":1779172739,"current_range_meters":6000,"station_id":"st_d4kl2rp97mjs73e7tdfg","pricing_plan_id":"cebpf4jnsgd1na2vs0mg"},{"bike_id":"979f20ed-d63a-46a6-bad7-27b51e3a9e3b","system_id":"levelo_inurba_marseille","lat":43.26554,"lon":5.37284,"is_reserved":false,"is_disabled":false,"rental_uris":{"android":"levelo://app?vid=979f20ed-d63a-46a6-bad7-27b51e3a9e3b","ios":"levelo://app?vid=979f20ed-d63a-46a6-bad7-27b51e3a9e3b"},"vehicle_type_id":"4","last_reported":1779172739,"current_range_meters":6000,"station_id":"ce4bhg12rcd13ifvqf70","pricing_plan_id":"cebpf4jnsgd1na2vs0mg"},{"bike_id":"b0c83c94-f6ed-4b7b-b08c-e46573410511","system_id":"levelo_inurba_marseille","lat":43.31368,"lon":5.366917,"is_reserved":false,"is_disabled":false,"rental_uris":{"android":"levelo://app?vid=b0c83c94-f6ed-4b7b-b08c-e46573410511","ios":"levelo://app?vid=b0c83c94-f6ed-4b7b-b08c-e46573410511"},"vehicle_type_id":"4","last_reported":1779172739,"current_range_meters":6000,"station_id":"ce4bgr92rcd13ifvqc6g","pricing_plan_id":"cebpf4jnsgd1na2vs0mg"},{"bike_id":"76822842-6de5-44db-bee3-28d0eed2902b","system_id":"levelo_inurba_marseille","lat":43.22929,"lon":5.35373,"is_reserved":false,"is_disabled":false,"rental_uris":{"android":"levelo://app?vid=76822842-6de5-44db-bee3-28d0eed2902b","ios":"levelo://app?vid=76822842-6de5-44db-bee3-28d0eed2902b"},"vehicle_type_id":"4","last_reported":1779172739,"current_range_meters":6000,"station_id":"cpo3532slgdg3j2ikp40","pricing_plan_id":"cebpf4jnsgd1na2vs0mg"},{"bike_id":"4a170901-2cdd-442d-aa21-d97612b5b3ec","system_id":"levelo_inurba_marseille","lat":43.28604,"lon":5.35109,"is_reserved":false,"is_disabled":false,"rental_uris":{"android":"levelo://app?vid=4a170901-2cdd-442d-aa21-d97612b5b3ec","ios":"levelo://app?vid=4a170901-2cdd-442d-aa21-d97612b5b3ec"},"vehicle_type_id":"4","last_reported":1779172739,"current_range_meters":6000,"station_id":"ce4bhch2rcd13ifvqeug","pricing_plan_id":"cebpf4jnsgd1na2vs0mg"},{"bike_id":"c3f0931a-b98e-4ec6-aa39-67278fb8aaff","system_id":"levelo_inurba_marseille","lat":43.31891,"lon":5.36808,"is_reserved":false,"is_disabled":false,"rental_uris":{"android":"levelo://app?vid=c3f0931a-b98e-4ec6-aa39-67278fb8aaff","ios":"levelo://app?vid=c3f0931a-b98e-4ec6-aa39-67278fb8aaff"},"vehicle_type_id":"4","last_reported":1779172739,"current_range_meters":6400,"station_id":"st_d6o2h0d0559c73evc1b0","pricing_plan_id":"cebpf4jnsgd1na2vs0mg"},{"bike_id":"49cd5fa9-a416-420c-8138-2d8d148e5502","system_id":"levelo_inurba_marseille","lat":43.33745,"lon":5.37444,"is_reserved":false,"is_disabled":false,"rental_uris":{"android":"levelo://app?vid=49cd5fa9-a416-420c-8138-2d8d148e5502","ios":"levelo://app?vid=49cd5fa9-a416-420c-8138-2d8d148e5502"},"vehicle_type_id":"4","last_reported":1779172739,"current_range_meters":6400,"station_id":"st_d46tts09ee8s73dlu43g","pricing_plan_id":"cebpf4jnsgd1na2vs0mg"},{"bike_id":"b27287c5-907b-4d58-ab2f-fd6bb99bea76","system_id":"levelo_inurba_marseille","lat":43.2512,"lon":5.4032,"is_reserved":false,"is_disabled":false,"rental_uris":{"android":"levelo://app?vid=b27287c5-907b-4d58-ab2f-fd6bb99bea76","ios":"levelo://app?vid=b27287c5-907b-4d58-ab2f-fd6bb99bea76"},"vehicle_type_id":"4","last_reported":1779172739,"current_range_meters":6400,"station_id":"ce4bhlh2rcd13ifvqgig","pricing_plan_id":"cebpf4jnsgd1na2vs0mg"},{"bike_id":"2d03e62f-ba8b-4d0b-92f6-555161cc53ff","system_id":"levelo_inurba_marseille","lat":43.29717,"lon":5.41339,"is_reserved":false,"is_disabled":false,"rental_uris":{"android":"levelo://app?vid=2d03e62f-ba8b-4d0b-92f6-555161cc53ff","ios":"levelo://app?vid=2d03e62f-ba8b-4d0b-92f6-555161cc53ff"},"vehicle_type_id":"4","last_reported":1779172739,"current_range_meters":6400,"station_id":"","pricing_plan_id":"cebpf4jnsgd1na2vs0mg"},{"bike_id":"11e4c352-0d1e-415d-adcc-09d2987aa226","system_id":"levelo_inurba_marseille","lat":43.23145,"lon":5.43737,"is_reserved":false,"is_disabled":false,"rental_uris":{"android":"levelo://app?vid=11e4c352-0d1e-415d-adcc-09d2987aa226","ios":"levelo://app?vid=11e4c352-0d1e-415d-adcc-09d2987aa226"},"vehicle_type_id":"4","last_reported":1779172739,"current_range_meters":6400,"station_id":"ce4bhmp2rcd13ifvqgog","pricing_plan_id":"cebpf4jnsgd1na2vs0mg"},{"bike_id":"8b426092-1c20-4584-a231-b33107bb5876","system_id":"levelo_inurba_marseille","lat":43.279862,"lon":5.416862,"is_reserved":false,"is_disabled":false,"rental_uris":{"android":"levelo://app?vid=8b426092-1c20-4584-a231-b33107bb5876","ios":"levelo://app?vid=8b426092-1c20-4584-a231-b33107bb5876"},"vehicle_type_id":"4","last_reported":1779172739,"current_range_meters":6400,"station_id":"ce4bho12rcd13ifvqh1g","pricing_plan_id":"cebpf4jnsgd1na2vs0mg"},{"bike_id":"c0d467e6-6fef-4d21-8af4-af3c30cfe717","system_id":"levelo_inurba_marseille","lat":43.29789,"lon":5.3652,"is_reserved":false,"is_disabled":false,"rental_uris":{"android":"levelo://app?vid=c0d467e6-6fef-4d21-8af4-af3c30cfe717","ios":"levelo://app?vid=c0d467e6-6fef-4d21-8af4-af3c30cfe717"},"vehicle_type_id":"4","last_reported":1779172739,"current_range_meters":6400,"station_id":"","pricing_plan_id":"cebpf4jnsgd1na2vs0mg"},{"bike_id":"19fc25ea-351b-4426-a1ce-87bcda62e902","system_id":"levelo_inurba_marseille","lat":43.30542,"lon":5.36731,"is_reserved":false,"is_disabled":false,"rental_uris":{"android":"levelo://app?vid=19fc25ea-351b-4426-a1ce-87bcda62e902","ios":"levelo://app?vid=19fc25ea-351b-4426-a1ce-87bcda62e902"},"vehicle_type_id":"4","last_reported":1779172739,"current_range_meters":6400,"station_id":"ce4bgrp2rcd13ifvqc9g","pricing_plan_id":"cebpf4jnsgd1na2vs0mg"},{"bike_id":"756dda76-f7ad-4653-bf3e-ad0c5accc63a","system_id":"levelo_inurba_marseille","lat":43.26957,"lon":5.40234,"is_reserved":false,"is_disabled":false,"rental_uris":{"android":"levelo://app?vid=756dda76-f7ad-4653-bf3e-ad0c5accc63a","ios":"levelo://app?vid=756dda76-f7ad-4653-bf3e-ad0c5accc63a"},"vehicle_type_id":"4","last_reported":1779172739,"current_range_meters":6400,"station_id":"cjm6bp8fraef2m0cb0m0","pricing_plan_id":"cebpf4jnsgd1na2vs0mg"},{"bike_id":"a739f6f6-8343-4c4c-be8c-5f6e7deabd5f","system_id":"levelo_inurba_marseille","lat":43.26212,"lon":5.37434,"is_reserved":false,"is_disabled":false,"rental_uris":{"android":"levelo://app?vid=a739f6f6-8343-4c4c-be8c-5f6e7deabd5f","ios":"levelo://app?vid=a739f6f6-8343-4c4c-be8c-5f6e7deabd5f"},"vehicle_type_id":"4","last_reported":1779172739,"current_range_meters":6400,"station_id":"ce4bhgp2rcd13ifvqfc0","pricing_plan_id":"cebpf4jnsgd1na2vs0mg"},{"bike_id":"46e5ee1b-6e75-4db8-88e1-e8ff6d5292d7","system_id":"levelo_inurba_marseille","lat":43.23062,"lon":5.39461,"is_reserved":false,"is_disabled":false,"rental_uris":{"android":"levelo://app?vid=46e5ee1b-6e75-4db8-88e1-e8ff6d5292d7","ios":"levelo://app?vid=46e5ee1b-6e75-4db8-88e1-e8ff6d5292d7"},"vehicle_type_id":"4","last_reported":1779172739,"current_range_meters":6400,"station_id":"","pricing_plan_id":"cebpf4jnsgd1na2vs0mg"},{"bike_id":"90bf0bdd-41a7-4a15-813d-09be68efb9f3","system_id":"levelo_inurba_marseille","lat":43.28217,"lon":5.40566,"is_reserved":false,"is_disabled":false,"rental_uris":{"android":"levelo://app?vid=90bf0bdd-41a7-4a15-813d-09be68efb9f3","ios":"levelo://app?vid=90bf0bdd-41a7-4a15-813d-09be68efb9f3"},"vehicle_type_id":"4","last_reported":1779172739,"current_range_meters":6400,"station_id":"","pricing_plan_id":"cebpf4jnsgd1na2vs0mg"},{"bike_id":"0e0d5418-4a56-4251-8866-025e6b539885","system_id":"levelo_inurba_marseille","lat":43.28867,"lon":5.42508,"is_reserved":false,"is_disabled":false,"rental_uris":{"android":"levelo://app?vid=0e0d5418-4a56-4251-8866-025e6b539885","ios":"levelo://app?vid=0e0d5418-4a56-4251-8866-025e6b539885"},"vehicle_type_id":"4","last_reported":1779172739,"current_range_meters":6800,"station_id":"st_d3b462108ojc7389ooeg","pricing_plan_id":"cebpf4jnsgd1na2vs0mg"},{"bike_id":"373f9222-30d0-4160-9fc0-3f4cc13ad446","system_id":"levelo_inurba_marseille","lat":43.21731,"lon":5.34605,"is_reserved":false,"is_disabled":false,"rental_uris":{"android":"levelo://app?vid=373f9222-30d0-4160-9fc0-3f4cc13ad446","ios":"levelo://app?vid=373f9222-30d0-4160-9fc0-3f4cc13ad446"},"vehicle_type_id":"4","last_reported":1779172739,"current_range_meters":6800,"station_id":"st_cvj6r9ubvosntc0bgbag","pricing_plan_id":"cebpf4jnsgd1na2vs0mg"},{"bike_id":"e6f19690-add7-4afb-aabb-6b8519815447","system_id":"levelo_inurba_marseille","lat":43.30529,"lon":5.38419,"is_reserved":false,"is_disabled":false,"rental_uris":{"android":"levelo://app?vid=e6f19690-add7-4afb-aabb-6b8519815447","ios":"levelo://app?vid=e6f19690-add7-4afb-aabb-6b8519815447"},"vehicle_type_id":"4","last_reported":1779172739,"current_range_meters":6800,"station_id":"ce4bgg92rcd13ifvqb30","pricing_plan_id":"cebpf4jnsgd1na2vs0mg"},{"bike_id":"6c152a2f-f191-4099-97a3-0495976e932f","system_id":"levelo_inurba_marseille","lat":43.26361,"lon":5.41074,"is_reserved":false,"is_disabled":false,"rental_uris":{"android":"levelo://app?vid=6c152a2f-f191-4099-97a3-0495976e932f","ios":"levelo://app?vid=6c152a2f-f191-4099-97a3-0495976e932f"},"vehicle_type_id":"4","last_reported":1779172739,"current_range_meters":6800,"station_id":"st_d4e5ca6na9uc73bfl5fg","pricing_plan_id":"cebpf4jnsgd1na2vs0mg"},{"bike_id":"1e7eeb6e-f6c4-4208-9356-8e94a37f45b8","system_id":"levelo_inurba_marseille","lat":43.29446,"lon":5.39759,"is_reserved":false,"is_disabled":true,"rental_uris":{"android":"levelo://app?vid=1e7eeb6e-f6c4-4208-9356-8e94a37f45b8","ios":"levelo://app?vid=1e7eeb6e-f6c4-4208-9356-8e94a37f45b8"},"vehicle_type_id":"4","last_reported":1779172739,"current_range_meters":6800,"station_id":"ce4bh3h2rcd13ifvqdo0","pricing_plan_id":"cebpf4jnsgd1na2vs0mg"},{"bike_id":"50cfa01f-de61-45f0-90a3-3f0cfe3b0f41","system_id":"levelo_inurba_marseille","lat":43.27208,"lon":5.38565,"is_reserved":false,"is_disabled":false,"rental_uris":{"android":"levelo://app?vid=50cfa01f-de61-45f0-90a3-3f0cfe3b0f41","ios":"levelo://app?vid=50cfa01f-de61-45f0-90a3-3f0cfe3b0f41"},"vehicle_type_id":"4","last_reported":1779172739,"current_range_meters":6800,"station_id":"","pricing_plan_id":"cebpf4jnsgd1na2vs0mg"},{"bike_id":"71dadbbf-2988-4d63-8dfa-fc0cb188b342","system_id":"levelo_inurba_marseille","lat":43.27063,"lon":5.40263,"is_reserved":false,"is_disabled":true,"rental_uris":{"android":"levelo://app?vid=71dadbbf-2988-4d63-8dfa-fc0cb188b342","ios":"levelo://app?vid=71dadbbf-2988-4d63-8dfa-fc0cb188b342"},"vehicle_type_id":"4","last_reported":1779172739,"current_range_meters":6800,"station_id":"ce4bhk92rcd13ifvqgc0","pricing_plan_id":"cebpf4jnsgd1na2vs0mg"},{"bike_id":"e40439b8-70d1-4a31-b2ca-aacd85765f54","system_id":"levelo_inurba_marseille","lat":43.32106,"lon":5.36756,"is_reserved":false,"is_disabled":false,"rental_uris":{"android":"levelo://app?vid=e40439b8-70d1-4a31-b2ca-aacd85765f54","ios":"levelo://app?vid=e40439b8-70d1-4a31-b2ca-aacd85765f54"},"vehicle_type_id":"4","last_reported":1779172739,"current_range_meters":6800,"station_id":"ce4bhrh2rcd13ifvqhug","pricing_plan_id":"cebpf4jnsgd1na2vs0mg"},{"bike_id":"dc16d907-1362-4b3a-9410-43b0effbb837","system_id":"levelo_inurba_marseille","lat":43.30515,"lon":5.38433,"is_reserved":false,"is_disabled":false,"rental_uris":{"android":"levelo://app?vid=dc16d907-1362-4b3a-9410-43b0effbb837","ios":"levelo://app?vid=dc16d907-1362-4b3a-9410-43b0effbb837"},"vehicle_type_id":"4","last_reported":1779172739,"current_range_meters":6800,"station_id":"ce4bgg92rcd13ifvqb30","pricing_plan_id":"cebpf4jnsgd1na2vs0mg"},{"bike_id":"3467f6e8-d4b1-4c81-83eb-9bfd2f1ebb8f","system_id":"levelo_inurba_marseille","lat":43.27999,"lon":5.40006,"is_reserved":false,"is_disabled":false,"rental_uris":{"android":"levelo://app?vid=3467f6e8-d4b1-4c81-83eb-9bfd2f1ebb8f","ios":"levelo://app?vid=3467f6e8-d4b1-4c81-83eb-9bfd2f1ebb8f"},"vehicle_type_id":"4","last_reported":1779172739,"current_range_meters":6800,"station_id":"ce4bho92rcd13ifvqh4g","pricing_plan_id":"cebpf4jnsgd1na2vs0mg"},{"bike_id":"56687bfa-2b63-4826-87d3-05291fb0de8c","system_id":"levelo_inurba_marseille","lat":43.23224,"lon":5.39935,"is_reserved":false,"is_disabled":false,"rental_uris":{"android":"levelo://app?vid=56687bfa-2b63-4826-87d3-05291fb0de8c","ios":"levelo://app?vid=56687bfa-2b63-4826-87d3-05291fb0de8c"},"vehicle_type_id":"4","last_reported":1779172739,"current_range_meters":6800,"station_id":"","pricing_plan_id":"cebpf4jnsgd1na2vs0mg"},{"bike_id":"13385d31-9d70-40eb-8cc5-7110dec04d8b","system_id":"levelo_inurba_marseille","lat":43.28851,"lon":5.35857,"is_reserved":false,"is_disabled":false,"rental_uris":{"android":"levelo://app?vid=13385d31-9d70-40eb-8cc5-7110dec04d8b","ios":"levelo://app?vid=13385d31-9d70-40eb-8cc5-7110dec04d8b"},"vehicle_type_id":"4","last_reported":1779172739,"current_range_meters":6800,"station_id":"ce4bhb12rcd13ifvqem0","pricing_plan_id":"cebpf4jnsgd1na2vs0mg"},{"bike_id":"e632fd55-d64d-438b-a858-8c2eb7d334b4","system_id":"levelo_inurba_marseille","lat":43.31343,"lon":5.36742,"is_reserved":false,"is_disabled":false,"rental_uris":{"android":"levelo://app?vid=e632fd55-d64d-438b-a858-8c2eb7d334b4","ios":"levelo://app?vid=e632fd55-d64d-438b-a858-8c2eb7d334b4"},"vehicle_type_id":"4","last_reported":1779172739,"current_range_meters":7200,"station_id":"ce4bgr92rcd13ifvqc6g","pricing_plan_id":"cebpf4jnsgd1na2vs0mg"},{"bike_id":"9d45a253-1d3a-41f8-95ed-2518452886d5","system_id":"levelo_inurba_marseille","lat":43.255156,"lon":5.376527,"is_reserved":false,"is_disabled":true,"rental_uris":{"android":"levelo://app?vid=9d45a253-1d3a-41f8-95ed-2518452886d5","ios":"levelo://app?vid=9d45a253-1d3a-41f8-95ed-2518452886d5"},"vehicle_type_id":"4","last_reported":1779172739,"current_range_meters":7200,"station_id":"ce4bhh12rcd13ifvqff0","pricing_plan_id":"cebpf4jnsgd1na2vs0mg"},{"bike_id":"859ff56d-18cc-492b-8658-56eb50f4e061","system_id":"levelo_inurba_marseille","lat":43.23895,"lon":5.37453,"is_reserved":false,"is_disabled":false,"rental_uris":{"android":"levelo://app?vid=859ff56d-18cc-492b-8658-56eb50f4e061","ios":"levelo://app?vid=859ff56d-18cc-492b-8658-56eb50f4e061"},"vehicle_type_id":"4","last_reported":1779172739,"current_range_meters":7200,"station_id":"st_d6sm7csbq4hs73f8fpjg","pricing_plan_id":"cebpf4jnsgd1na2vs0mg"},{"bike_id":"ca4f6bf2-59b9-4fb8-9cc3-7ba12b36fa60","system_id":"levelo_inurba_marseille","lat":43.2962,"lon":5.40573,"is_reserved":false,"is_disabled":false,"rental_uris":{"android":"levelo://app?vid=ca4f6bf2-59b9-4fb8-9cc3-7ba12b36fa60","ios":"levelo://app?vid=ca4f6bf2-59b9-4fb8-9cc3-7ba12b36fa60"},"vehicle_type_id":"4","last_reported":1779172739,"current_range_meters":7200,"station_id":"ce4bh0h2rcd13ifvqd60","pricing_plan_id":"cebpf4jnsgd1na2vs0mg"},{"bike_id":"6e790415-aecf-44aa-a8ca-f8ab84aae953","system_id":"levelo_inurba_marseille","lat":43.28076,"lon":5.3965,"is_reserved":false,"is_disabled":false,"rental_uris":{"android":"levelo://app?vid=6e790415-aecf-44aa-a8ca-f8ab84aae953","ios":"levelo://app?vid=6e790415-aecf-44aa-a8ca-f8ab84aae953"},"vehicle_type_id":"4","last_reported":1779172739,"current_range_meters":7200,"station_id":"ce4bho12rcd13ifvqh2g","pricing_plan_id":"cebpf4jnsgd1na2vs0mg"},{"bike_id":"ebf97062-a7b2-4970-81d2-78528c11a8cb","system_id":"levelo_inurba_marseille","lat":43.27371,"lon":5.36261,"is_reserved":false,"is_disabled":false,"rental_uris":{"android":"levelo://app?vid=ebf97062-a7b2-4970-81d2-78528c11a8cb","ios":"levelo://app?vid=ebf97062-a7b2-4970-81d2-78528c11a8cb"},"vehicle_type_id":"4","last_reported":1779172739,"current_range_meters":7200,"station_id":"ce4bhbh2rcd13ifvqeo0","pricing_plan_id":"cebpf4jnsgd1na2vs0mg"},{"bike_id":"c9513b4e-0f0e-49bc-bbff-f4414a2b16f9","system_id":"levelo_inurba_marseille","lat":43.27496,"lon":5.41599,"is_reserved":false,"is_disabled":false,"rental_uris":{"android":"levelo://app?vid=c9513b4e-0f0e-49bc-bbff-f4414a2b16f9","ios":"levelo://app?vid=c9513b4e-0f0e-49bc-bbff-f4414a2b16f9"},"vehicle_type_id":"4","last_reported":1779172739,"current_range_meters":7200,"station_id":"st_d6im8g6chgec73a5pndg","pricing_plan_id":"cebpf4jnsgd1na2vs0mg"},{"bike_id":"b7b73ecc-c049-4700-9017-522cdc0d77f1","system_id":"levelo_inurba_marseille","lat":43.27191,"lon":5.39188,"is_reserved":false,"is_disabled":false,"rental_uris":{"android":"levelo://app?vid=b7b73ecc-c049-4700-9017-522cdc0d77f1","ios":"levelo://app?vid=b7b73ecc-c049-4700-9017-522cdc0d77f1"},"vehicle_type_id":"4","last_reported":1779172739,"current_range_meters":7200,"station_id":"ce4bhhp2rcd13ifvqfm0","pricing_plan_id":"cebpf4jnsgd1na2vs0mg"},{"bike_id":"e91adb3b-92eb-4c9a-be94-5c60bf746d48","system_id":"levelo_inurba_marseille","lat":43.28725,"lon":5.36079,"is_reserved":false,"is_disabled":false,"rental_uris":{"android":"levelo://app?vid=e91adb3b-92eb-4c9a-be94-5c60bf746d48","ios":"levelo://app?vid=e91adb3b-92eb-4c9a-be94-5c60bf746d48"},"vehicle_type_id":"4","last_reported":1779172739,"current_range_meters":7200,"station_id":"cki0cbj6b192h4jlfktg","pricing_plan_id":"cebpf4jnsgd1na2vs0mg"},{"bike_id":"b1bec6e6-e182-4c28-9b00-f9b657ec7c77","system_id":"levelo_inurba_marseille","lat":43.26928,"lon":5.40288,"is_reserved":false,"is_disabled":false,"rental_uris":{"android":"levelo://app?vid=b1bec6e6-e182-4c28-9b00-f9b657ec7c77","ios":"levelo://app?vid=b1bec6e6-e182-4c28-9b00-f9b657ec7c77"},"vehicle_type_id":"4","last_reported":1779172739,"current_range_meters":7200,"station_id":"cjm6bp8fraef2m0cb0m0","pricing_plan_id":"cebpf4jnsgd1na2vs0mg"},{"bike_id":"6b4a17da-6f65-4878-8770-e57be1f60b38","system_id":"levelo_inurba_marseille","lat":43.29637,"lon":5.40593,"is_reserved":false,"is_disabled":false,"rental_uris":{"android":"levelo://app?vid=6b4a17da-6f65-4878-8770-e57be1f60b38","ios":"levelo://app?vid=6b4a17da-6f65-4878-8770-e57be1f60b38"},"vehicle_type_id":"4","last_reported":1779172739,"current_range_meters":7200,"station_id":"ce4bh0h2rcd13ifvqd60","pricing_plan_id":"cebpf4jnsgd1na2vs0mg"},{"bike_id":"9a147a82-1909-4624-8e35-bd6b119bb2af","system_id":"levelo_inurba_marseille","lat":43.3064,"lon":5.40051,"is_reserved":false,"is_disabled":true,"rental_uris":{"android":"levelo://app?vid=9a147a82-1909-4624-8e35-bd6b119bb2af","ios":"levelo://app?vid=9a147a82-1909-4624-8e35-bd6b119bb2af"},"vehicle_type_id":"4","last_reported":1779172739,"current_range_meters":7200,"station_id":"ce4bh112rcd13ifvqda0","pricing_plan_id":"cebpf4jnsgd1na2vs0mg"},{"bike_id":"41aeab6c-6978-4475-9abb-adbd218ad412","system_id":"levelo_inurba_marseille","lat":43.29609,"lon":5.37704,"is_reserved":false,"is_disabled":true,"rental_uris":{"android":"levelo://app?vid=41aeab6c-6978-4475-9abb-adbd218ad412","ios":"levelo://app?vid=41aeab6c-6978-4475-9abb-adbd218ad412"},"vehicle_type_id":"4","last_reported":1779172739,"current_range_meters":7200,"station_id":"ce4bgi92rcd13ifvqb90","pricing_plan_id":"cebpf4jnsgd1na2vs0mg"},{"bike_id":"ff3b4694-4c2d-4e0e-882d-168610d86b23","system_id":"levelo_inurba_marseille","lat":43.21744,"lon":5.34591,"is_reserved":false,"is_disabled":false,"rental_uris":{"android":"levelo://app?vid=ff3b4694-4c2d-4e0e-882d-168610d86b23","ios":"levelo://app?vid=ff3b4694-4c2d-4e0e-882d-168610d86b23"},"vehicle_type_id":"4","last_reported":1779172739,"current_range_meters":7200,"station_id":"st_cvj6r9ubvosntc0bgbag","pricing_plan_id":"cebpf4jnsgd1na2vs0mg"},{"bike_id":"8e549feb-b998-4680-b427-4a838e30c531","system_id":"levelo_inurba_marseille","lat":43.30159,"lon":5.38095,"is_reserved":false,"is_disabled":false,"rental_uris":{"android":"levelo://app?vid=8e549feb-b998-4680-b427-4a838e30c531","ios":"levelo://app?vid=8e549feb-b998-4680-b427-4a838e30c531"},"vehicle_type_id":"4","last_reported":1779172739,"current_range_meters":7200,"station_id":"ce4bgjp2rcd13ifvqbh0","pricing_plan_id":"cebpf4jnsgd1na2vs0mg"},{"bike_id":"6ccf4f87-c84f-470c-9ce4-7958a1e238b2","system_id":"levelo_inurba_marseille","lat":43.24946,"lon":5.4049,"is_reserved":false,"is_disabled":false,"rental_uris":{"android":"levelo://app?vid=6ccf4f87-c84f-470c-9ce4-7958a1e238b2","ios":"levelo://app?vid=6ccf4f87-c84f-470c-9ce4-7958a1e238b2"},"vehicle_type_id":"4","last_reported":1779172739,"current_range_meters":7200,"station_id":"st_d2ngiaodas8pm72gd1h0","pricing_plan_id":"cebpf4jnsgd1na2vs0mg"},{"bike_id":"bc056627-1c3f-4ad6-af07-b39b6b219bea","system_id":"levelo_inurba_marseille","lat":43.28656,"lon":5.36356,"is_reserved":false,"is_disabled":false,"rental_uris":{"android":"levelo://app?vid=bc056627-1c3f-4ad6-af07-b39b6b219bea","ios":"levelo://app?vid=bc056627-1c3f-4ad6-af07-b39b6b219bea"},"vehicle_type_id":"4","last_reported":1779172739,"current_range_meters":7200,"station_id":"ce4bhah2rcd13ifvqej0","pricing_plan_id":"cebpf4jnsgd1na2vs0mg"},{"bike_id":"d1741aa6-8154-4c24-82bf-8d54783d58ec","system_id":"levelo_inurba_marseille","lat":43.29542,"lon":5.37489,"is_reserved":false,"is_disabled":false,"rental_uris":{"android":"levelo://app?vid=d1741aa6-8154-4c24-82bf-8d54783d58ec","ios":"levelo://app?vid=d1741aa6-8154-4c24-82bf-8d54783d58ec"},"vehicle_type_id":"4","last_reported":1779172739,"current_range_meters":7200,"station_id":"ce4bgkp2rcd13ifvqbmg","pricing_plan_id":"cebpf4jnsgd1na2vs0mg"},{"bike_id":"5064e4d1-a4b8-4d4d-9cf4-b90eda56c5de","system_id":"levelo_inurba_marseille","lat":43.33551,"lon":5.37463,"is_reserved":false,"is_disabled":false,"rental_uris":{"android":"levelo://app?vid=5064e4d1-a4b8-4d4d-9cf4-b90eda56c5de","ios":"levelo://app?vid=5064e4d1-a4b8-4d4d-9cf4-b90eda56c5de"},"vehicle_type_id":"4","last_reported":1779172739,"current_range_meters":7200,"station_id":"st_d46tts09ee8s73dlu43g","pricing_plan_id":"cebpf4jnsgd1na2vs0mg"},{"bike_id":"170c8db2-acb8-4c8a-be7d-b83c42f48658","system_id":"levelo_inurba_marseille","lat":43.31164,"lon":5.36967,"is_reserved":false,"is_disabled":false,"rental_uris":{"android":"levelo://app?vid=170c8db2-acb8-4c8a-be7d-b83c42f48658","ios":"levelo://app?vid=170c8db2-acb8-4c8a-be7d-b83c42f48658"},"vehicle_type_id":"4","last_reported":1779172739,"current_range_meters":7200,"station_id":"ce4bgl92rcd13ifvqbq0","pricing_plan_id":"cebpf4jnsgd1na2vs0mg"},{"bike_id":"626f8d4e-2654-41bb-adc8-7cdd5f5a4c8e","system_id":"levelo_inurba_marseille","lat":43.28286,"lon":5.3507,"is_reserved":false,"is_disabled":true,"rental_uris":{"android":"levelo://app?vid=626f8d4e-2654-41bb-adc8-7cdd5f5a4c8e","ios":"levelo://app?vid=626f8d4e-2654-41bb-adc8-7cdd5f5a4c8e"},"vehicle_type_id":"4","last_reported":1779172739,"current_range_meters":8000,"station_id":"ce4bhbp2rcd13ifvqerg","pricing_plan_id":"cebpf4jnsgd1na2vs0mg"},{"bike_id":"58c98de5-8c45-44bc-b9d2-d73286c3efe5","system_id":"levelo_inurba_marseille","lat":43.28159,"lon":5.42654,"is_reserved":false,"is_disabled":false,"rental_uris":{"android":"levelo://app?vid=58c98de5-8c45-44bc-b9d2-d73286c3efe5","ios":"levelo://app?vid=58c98de5-8c45-44bc-b9d2-d73286c3efe5"},"vehicle_type_id":"4","last_reported":1779172739,"current_range_meters":8000,"station_id":"ce4bhnh2rcd13ifvqgug","pricing_plan_id":"cebpf4jnsgd1na2vs0mg"},{"bike_id":"695b8d0a-21a4-49aa-b015-a857cf7302c9","system_id":"levelo_inurba_marseille","lat":43.27574,"lon":5.38425,"is_reserved":false,"is_disabled":false,"rental_uris":{"android":"levelo://app?vid=695b8d0a-21a4-49aa-b015-a857cf7302c9","ios":"levelo://app?vid=695b8d0a-21a4-49aa-b015-a857cf7302c9"},"vehicle_type_id":"4","last_reported":1779172739,"current_range_meters":8000,"station_id":"ce4bhh92rcd13ifvqfi0","pricing_plan_id":"cebpf4jnsgd1na2vs0mg"},{"bike_id":"f56000a0-d6ac-44c4-b1c3-d113d32a84a9","system_id":"levelo_inurba_marseille","lat":43.28701,"lon":5.39987,"is_reserved":false,"is_disabled":false,"rental_uris":{"android":"levelo://app?vid=f56000a0-d6ac-44c4-b1c3-d113d32a84a9","ios":"levelo://app?vid=f56000a0-d6ac-44c4-b1c3-d113d32a84a9"},"vehicle_type_id":"4","last_reported":1779172739,"current_range_meters":8000,"station_id":"ce4bho92rcd13ifvqh3g","pricing_plan_id":"cebpf4jnsgd1na2vs0mg"},{"bike_id":"547402e8-4b98-430e-8a04-6a3e568275ce","system_id":"levelo_inurba_marseille","lat":43.26951,"lon":5.38629,"is_reserved":false,"is_disabled":false,"rental_uris":{"android":"levelo://app?vid=547402e8-4b98-430e-8a04-6a3e568275ce","ios":"levelo://app?vid=547402e8-4b98-430e-8a04-6a3e568275ce"},"vehicle_type_id":"4","last_reported":1779172739,"current_range_meters":8000,"station_id":"ce4bhh92rcd13ifvqfh0","pricing_plan_id":"cebpf4jnsgd1na2vs0mg"},{"bike_id":"2fbad4ff-3321-4ed4-955d-868f812d0490","system_id":"levelo_inurba_marseille","lat":43.24464,"lon":5.42532,"is_reserved":false,"is_disabled":false,"rental_uris":{"android":"levelo://app?vid=2fbad4ff-3321-4ed4-955d-868f812d0490","ios":"levelo://app?vid=2fbad4ff-3321-4ed4-955d-868f812d0490"},"vehicle_type_id":"4","last_reported":1779172739,"current_range_meters":8000,"station_id":"st_d4a3vfp97mjs738cd8kg","pricing_plan_id":"cebpf4jnsgd1na2vs0mg"},{"bike_id":"89dcf81e-d685-4eb4-82aa-fe68a85d332a","system_id":"levelo_inurba_marseille","lat":43.32115,"lon":5.36783,"is_reserved":false,"is_disabled":false,"rental_uris":{"android":"levelo://app?vid=89dcf81e-d685-4eb4-82aa-fe68a85d332a","ios":"levelo://app?vid=89dcf81e-d685-4eb4-82aa-fe68a85d332a"},"vehicle_type_id":"4","last_reported":1779172739,"current_range_meters":8000,"station_id":"ce4bhrh2rcd13ifvqhug","pricing_plan_id":"cebpf4jnsgd1na2vs0mg"},{"bike_id":"fa592942-41bc-4de8-816e-0cc8cfc267c2","system_id":"levelo_inurba_marseille","lat":43.23959,"lon":5.36613,"is_reserved":false,"is_disabled":false,"rental_uris":{"android":"levelo://app?vid=fa592942-41bc-4de8-816e-0cc8cfc267c2","ios":"levelo://app?vid=fa592942-41bc-4de8-816e-0cc8cfc267c2"},"vehicle_type_id":"4","last_reported":1779172739,"current_range_meters":8000,"station_id":"ce4bhi12rcd13ifvqfp0","pricing_plan_id":"cebpf4jnsgd1na2vs0mg"},{"bike_id":"8bd36308-f19b-4c81-baf2-f80d63464915","system_id":"levelo_inurba_marseille","lat":43.27159,"lon":5.40959,"is_reserved":false,"is_disabled":false,"rental_uris":{"android":"levelo://app?vid=8bd36308-f19b-4c81-baf2-f80d63464915","ios":"levelo://app?vid=8bd36308-f19b-4c81-baf2-f80d63464915"},"vehicle_type_id":"4","last_reported":1779172739,"current_range_meters":8000,"station_id":"ce4bhl12rcd13ifvqgf0","pricing_plan_id":"cebpf4jnsgd1na2vs0mg"},{"bike_id":"d5507518-cb58-4fc3-a22b-de5ad3c6e51d","system_id":"levelo_inurba_marseille","lat":43.29811,"lon":5.44067,"is_reserved":false,"is_disabled":false,"rental_uris":{"android":"levelo://app?vid=d5507518-cb58-4fc3-a22b-de5ad3c6e51d","ios":"levelo://app?vid=d5507518-cb58-4fc3-a22b-de5ad3c6e51d"},"vehicle_type_id":"4","last_reported":1779172739,"current_range_meters":8000,"station_id":"st_d3jp68qikq2c7381ktn0","pricing_plan_id":"cebpf4jnsgd1na2vs0mg"},{"bike_id":"837d0bda-15b8-41c3-8408-194bd5878f2f","system_id":"levelo_inurba_marseille","lat":43.26357,"lon":5.41085,"is_reserved":false,"is_disabled":false,"rental_uris":{"android":"levelo://app?vid=837d0bda-15b8-41c3-8408-194bd5878f2f","ios":"levelo://app?vid=837d0bda-15b8-41c3-8408-194bd5878f2f"},"vehicle_type_id":"4","last_reported":1779172739,"current_range_meters":8000,"station_id":"st_d4e5ca6na9uc73bfl5fg","pricing_plan_id":"cebpf4jnsgd1na2vs0mg"},{"bike_id":"e4b7d2c4-ea52-4d9f-8a4b-f2f114353753","system_id":"levelo_inurba_marseille","lat":43.32355,"lon":5.36723,"is_reserved":false,"is_disabled":false,"rental_uris":{"android":"levelo://app?vid=e4b7d2c4-ea52-4d9f-8a4b-f2f114353753","ios":"levelo://app?vid=e4b7d2c4-ea52-4d9f-8a4b-f2f114353753"},"vehicle_type_id":"4","last_reported":1779172739,"current_range_meters":8000,"station_id":"ce4bhsh2rcd13ifvqi2g","pricing_plan_id":"cebpf4jnsgd1na2vs0mg"},{"bike_id":"ea2b7db2-4ec0-4ed4-95e7-78571752cefd","system_id":"levelo_inurba_marseille","lat":43.24832,"lon":5.37442,"is_reserved":false,"is_disabled":false,"rental_uris":{"android":"levelo://app?vid=ea2b7db2-4ec0-4ed4-95e7-78571752cefd","ios":"levelo://app?vid=ea2b7db2-4ec0-4ed4-95e7-78571752cefd"},"vehicle_type_id":"4","last_reported":1779172739,"current_range_meters":8000,"station_id":"ce4bhgh2rcd13ifvqfb0","pricing_plan_id":"cebpf4jnsgd1na2vs0mg"},{"bike_id":"9ac179ff-f816-4df1-b797-e266fb3684f0","system_id":"levelo_inurba_marseille","lat":43.28538,"lon":5.40182,"is_reserved":false,"is_disabled":false,"rental_uris":{"android":"levelo://app?vid=9ac179ff-f816-4df1-b797-e266fb3684f0","ios":"levelo://app?vid=9ac179ff-f816-4df1-b797-e266fb3684f0"},"vehicle_type_id":"4","last_reported":1779172739,"current_range_meters":8000,"station_id":"","pricing_plan_id":"cebpf4jnsgd1na2vs0mg"},{"bike_id":"e8703d1e-38d7-4a37-8b34-74e110535cc7","system_id":"levelo_inurba_marseille","lat":43.25079,"lon":5.39494,"is_reserved":false,"is_disabled":false,"rental_uris":{"android":"levelo://app?vid=e8703d1e-38d7-4a37-8b34-74e110535cc7","ios":"levelo://app?vid=e8703d1e-38d7-4a37-8b34-74e110535cc7"},"vehicle_type_id":"4","last_reported":1779172739,"current_range_meters":8400,"station_id":"ce4bhm12rcd13ifvqgkg","pricing_plan_id":"cebpf4jnsgd1na2vs0mg"},{"bike_id":"32a2fbf2-476b-4eab-9bbd-ac3a1ce848fe","system_id":"levelo_inurba_marseille","lat":43.23204,"lon":5.39986,"is_reserved":false,"is_disabled":false,"rental_uris":{"android":"levelo://app?vid=32a2fbf2-476b-4eab-9bbd-ac3a1ce848fe","ios":"levelo://app?vid=32a2fbf2-476b-4eab-9bbd-ac3a1ce848fe"},"vehicle_type_id":"4","last_reported":1779172739,"current_range_meters":8400,"station_id":"ce4bhn12rcd13ifvqgqg","pricing_plan_id":"cebpf4jnsgd1na2vs0mg"},{"bike_id":"604c8d35-0292-4781-b66d-7833a0f007ea","system_id":"levelo_inurba_marseille","lat":43.33546,"lon":5.37459,"is_reserved":false,"is_disabled":false,"rental_uris":{"android":"levelo://app?vid=604c8d35-0292-4781-b66d-7833a0f007ea","ios":"levelo://app?vid=604c8d35-0292-4781-b66d-7833a0f007ea"},"vehicle_type_id":"4","last_reported":1779172739,"current_range_meters":8400,"station_id":"st_d46tts09ee8s73dlu43g","pricing_plan_id":"cebpf4jnsgd1na2vs0mg"},{"bike_id":"4a8fff30-cbc5-491d-8d3e-d22b568d1485","system_id":"levelo_inurba_marseille","lat":43.26454,"lon":5.37414,"is_reserved":false,"is_disabled":false,"rental_uris":{"android":"levelo://app?vid=4a8fff30-cbc5-491d-8d3e-d22b568d1485","ios":"levelo://app?vid=4a8fff30-cbc5-491d-8d3e-d22b568d1485"},"vehicle_type_id":"4","last_reported":1779172739,"current_range_meters":8400,"station_id":"","pricing_plan_id":"cebpf4jnsgd1na2vs0mg"},{"bike_id":"359eb808-75a6-4e9a-b943-bf5873a0e29f","system_id":"levelo_inurba_marseille","lat":43.25579,"lon":5.3825,"is_reserved":false,"is_disabled":false,"rental_uris":{"android":"levelo://app?vid=359eb808-75a6-4e9a-b943-bf5873a0e29f","ios":"levelo://app?vid=359eb808-75a6-4e9a-b943-bf5873a0e29f"},"vehicle_type_id":"4","last_reported":1779172739,"current_range_meters":8400,"station_id":"ce4bhih2rcd13ifvqfs0","pricing_plan_id":"cebpf4jnsgd1na2vs0mg"},{"bike_id":"d158088c-7f3a-4e9a-927c-374debfdf1a9","system_id":"levelo_inurba_marseille","lat":43.29902,"lon":5.3815,"is_reserved":false,"is_disabled":true,"rental_uris":{"android":"levelo://app?vid=d158088c-7f3a-4e9a-927c-374debfdf1a9","ios":"levelo://app?vid=d158088c-7f3a-4e9a-927c-374debfdf1a9"},"vehicle_type_id":"4","last_reported":1779172739,"current_range_meters":8400,"station_id":"ce4bgj12rcd13ifvqbc0","pricing_plan_id":"cebpf4jnsgd1na2vs0mg"},{"bike_id":"af731511-fe2c-4bad-84ee-94ac31edb0da","system_id":"levelo_inurba_marseille","lat":43.23194,"lon":5.35551,"is_reserved":false,"is_disabled":false,"rental_uris":{"android":"levelo://app?vid=af731511-fe2c-4bad-84ee-94ac31edb0da","ios":"levelo://app?vid=af731511-fe2c-4bad-84ee-94ac31edb0da"},"vehicle_type_id":"4","last_reported":1779172739,"current_range_meters":8400,"station_id":"ce4bhu92rcd13ifvqi70","pricing_plan_id":"cebpf4jnsgd1na2vs0mg"},{"bike_id":"7c6d6d9b-3833-4a97-9410-34c49ea2b854","system_id":"levelo_inurba_marseille","lat":43.28661,"lon":5.36366,"is_reserved":false,"is_disabled":false,"rental_uris":{"android":"levelo://app?vid=7c6d6d9b-3833-4a97-9410-34c49ea2b854","ios":"levelo://app?vid=7c6d6d9b-3833-4a97-9410-34c49ea2b854"},"vehicle_type_id":"4","last_reported":1779172739,"current_range_meters":8400,"station_id":"ce4bhah2rcd13ifvqej0","pricing_plan_id":"cebpf4jnsgd1na2vs0mg"},{"bike_id":"33f1022a-86ed-42b2-a2fa-b6b00d8323f5","system_id":"levelo_inurba_marseille","lat":43.3112,"lon":5.37789,"is_reserved":false,"is_disabled":false,"rental_uris":{"android":"levelo://app?vid=33f1022a-86ed-42b2-a2fa-b6b00d8323f5","ios":"levelo://app?vid=33f1022a-86ed-42b2-a2fa-b6b00d8323f5"},"vehicle_type_id":"4","last_reported":1779172739,"current_range_meters":8400,"station_id":"ce4bgt92rcd13ifvqcg0","pricing_plan_id":"cebpf4jnsgd1na2vs0mg"},{"bike_id":"e91d9ac4-09fe-4199-9139-d3b3c174f46e","system_id":"levelo_inurba_marseille","lat":43.28938,"lon":5.39631,"is_reserved":false,"is_disabled":true,"rental_uris":{"android":"levelo://app?vid=e91d9ac4-09fe-4199-9139-d3b3c174f46e","ios":"levelo://app?vid=e91d9ac4-09fe-4199-9139-d3b3c174f46e"},"vehicle_type_id":"4","last_reported":1779172739,"current_range_meters":8400,"station_id":"ce4bh3h2rcd13ifvqdn0","pricing_plan_id":"cebpf4jnsgd1na2vs0mg"},{"bike_id":"6f6a74ab-d46a-42ab-a47c-dce6310158cb","system_id":"levelo_inurba_marseille","lat":43.32473,"lon":5.36563,"is_reserved":false,"is_disabled":false,"rental_uris":{"android":"levelo://app?vid=6f6a74ab-d46a-42ab-a47c-dce6310158cb","ios":"levelo://app?vid=6f6a74ab-d46a-42ab-a47c-dce6310158cb"},"vehicle_type_id":"4","last_reported":1779172739,"current_range_meters":8400,"station_id":"ce4bhs12rcd13ifvqhvg","pricing_plan_id":"cebpf4jnsgd1na2vs0mg"},{"bike_id":"544a5a8f-218d-4183-b454-e008e38c18a0","system_id":"levelo_inurba_marseille","lat":43.24654,"lon":5.38884,"is_reserved":false,"is_disabled":false,"rental_uris":{"android":"levelo://app?vid=544a5a8f-218d-4183-b454-e008e38c18a0","ios":"levelo://app?vid=544a5a8f-218d-4183-b454-e008e38c18a0"},"vehicle_type_id":"4","last_reported":1779172739,"current_range_meters":8400,"station_id":"ce4bhg12rcd13ifvqf60","pricing_plan_id":"cebpf4jnsgd1na2vs0mg"},{"bike_id":"a57b6d8c-426e-41f2-88fd-ed699a7b5fab","system_id":"levelo_inurba_marseille","lat":43.32103,"lon":5.36776,"is_reserved":false,"is_disabled":false,"rental_uris":{"android":"levelo://app?vid=a57b6d8c-426e-41f2-88fd-ed699a7b5fab","ios":"levelo://app?vid=a57b6d8c-426e-41f2-88fd-ed699a7b5fab"},"vehicle_type_id":"4","last_reported":1779172739,"current_range_meters":8400,"station_id":"ce4bhrh2rcd13ifvqhug","pricing_plan_id":"cebpf4jnsgd1na2vs0mg"},{"bike_id":"32f7a7a9-0053-40f9-b061-be6c97e235a7","system_id":"levelo_inurba_marseille","lat":43.28612,"lon":5.35103,"is_reserved":false,"is_disabled":false,"rental_uris":{"android":"levelo://app?vid=32f7a7a9-0053-40f9-b061-be6c97e235a7","ios":"levelo://app?vid=32f7a7a9-0053-40f9-b061-be6c97e235a7"},"vehicle_type_id":"4","last_reported":1779172739,"current_range_meters":8400,"station_id":"ce4bhch2rcd13ifvqeug","pricing_plan_id":"cebpf4jnsgd1na2vs0mg"},{"bike_id":"3942a10b-fbde-44cf-9339-8b9493e06000","system_id":"levelo_inurba_marseille","lat":43.29003,"lon":5.37507,"is_reserved":false,"is_disabled":true,"rental_uris":{"android":"levelo://app?vid=3942a10b-fbde-44cf-9339-8b9493e06000","ios":"levelo://app?vid=3942a10b-fbde-44cf-9339-8b9493e06000"},"vehicle_type_id":"4","last_reported":1779172739,"current_range_meters":8400,"station_id":"","pricing_plan_id":"cebpf4jnsgd1na2vs0mg"},{"bike_id":"e1edea3c-a9ec-4e1d-ae51-331278ede585","system_id":"levelo_inurba_marseille","lat":43.31033,"lon":5.39299,"is_reserved":false,"is_disabled":false,"rental_uris":{"android":"levelo://app?vid=e1edea3c-a9ec-4e1d-ae51-331278ede585","ios":"levelo://app?vid=e1edea3c-a9ec-4e1d-ae51-331278ede585"},"vehicle_type_id":"4","last_reported":1779172739,"current_range_meters":8400,"station_id":"","pricing_plan_id":"cebpf4jnsgd1na2vs0mg"},{"bike_id":"76a82a0c-f46c-4d9d-976b-14036ab63795","system_id":"levelo_inurba_marseille","lat":43.28494,"lon":5.40147,"is_reserved":false,"is_disabled":false,"rental_uris":{"android":"levelo://app?vid=76a82a0c-f46c-4d9d-976b-14036ab63795","ios":"levelo://app?vid=76a82a0c-f46c-4d9d-976b-14036ab63795"},"vehicle_type_id":"4","last_reported":1779172739,"current_range_meters":8400,"station_id":"","pricing_plan_id":"cebpf4jnsgd1na2vs0mg"},{"bike_id":"cc16b525-32a1-417e-b9d1-50fd191b0f92","system_id":"levelo_inurba_marseille","lat":43.24945,"lon":5.40504,"is_reserved":false,"is_disabled":false,"rental_uris":{"android":"levelo://app?vid=cc16b525-32a1-417e-b9d1-50fd191b0f92","ios":"levelo://app?vid=cc16b525-32a1-417e-b9d1-50fd191b0f92"},"vehicle_type_id":"4","last_reported":1779172739,"current_range_meters":8400,"station_id":"st_d2ngiaodas8pm72gd1h0","pricing_plan_id":"cebpf4jnsgd1na2vs0mg"},{"bike_id":"d80c859b-4090-45a4-a196-1650f0aff438","system_id":"levelo_inurba_marseille","lat":43.25923,"lon":5.40913,"is_reserved":false,"is_disabled":false,"rental_uris":{"android":"levelo://app?vid=d80c859b-4090-45a4-a196-1650f0aff438","ios":"levelo://app?vid=d80c859b-4090-45a4-a196-1650f0aff438"},"vehicle_type_id":"4","last_reported":1779172739,"current_range_meters":8400,"station_id":"ce4bhm92rcd13ifvqglg","pricing_plan_id":"cebpf4jnsgd1na2vs0mg"},{"bike_id":"c982f197-5ae1-441d-9666-187b23fc3a07","system_id":"levelo_inurba_marseille","lat":43.28093,"lon":5.34989,"is_reserved":false,"is_disabled":false,"rental_uris":{"android":"levelo://app?vid=c982f197-5ae1-441d-9666-187b23fc3a07","ios":"levelo://app?vid=c982f197-5ae1-441d-9666-187b23fc3a07"},"vehicle_type_id":"4","last_reported":1779172739,"current_range_meters":8400,"station_id":"","pricing_plan_id":"cebpf4jnsgd1na2vs0mg"},{"bike_id":"a9ba4495-09dc-4445-b27b-fca8a22932a2","system_id":"levelo_inurba_marseille","lat":43.25828,"lon":5.39421,"is_reserved":false,"is_disabled":false,"rental_uris":{"android":"levelo://app?vid=a9ba4495-09dc-4445-b27b-fca8a22932a2","ios":"levelo://app?vid=a9ba4495-09dc-4445-b27b-fca8a22932a2"},"vehicle_type_id":"4","last_reported":1779172739,"current_range_meters":8400,"station_id":"ce4bhip2rcd13ifvqft0","pricing_plan_id":"cebpf4jnsgd1na2vs0mg"},{"bike_id":"40cdbae6-714d-4f35-95a9-676040c67aef","system_id":"levelo_inurba_marseille","lat":43.24009,"lon":5.413,"is_reserved":false,"is_disabled":false,"rental_uris":{"android":"levelo://app?vid=40cdbae6-714d-4f35-95a9-676040c67aef","ios":"levelo://app?vid=40cdbae6-714d-4f35-95a9-676040c67aef"},"vehicle_type_id":"4","last_reported":1779172739,"current_range_meters":8400,"station_id":"","pricing_plan_id":"cebpf4jnsgd1na2vs0mg"},{"bike_id":"0ab54c51-2cd5-429e-99a7-d9b354415bcb","system_id":"levelo_inurba_marseille","lat":43.312,"lon":5.3783,"is_reserved":false,"is_disabled":false,"rental_uris":{"android":"levelo://app?vid=0ab54c51-2cd5-429e-99a7-d9b354415bcb","ios":"levelo://app?vid=0ab54c51-2cd5-429e-99a7-d9b354415bcb"},"vehicle_type_id":"4","last_reported":1779172739,"current_range_meters":8400,"station_id":"","pricing_plan_id":"cebpf4jnsgd1na2vs0mg"},{"bike_id":"261f2914-f86b-4668-a408-95acc694e9f6","system_id":"levelo_inurba_marseille","lat":43.27068,"lon":5.42277,"is_reserved":false,"is_disabled":false,"rental_uris":{"android":"levelo://app?vid=261f2914-f86b-4668-a408-95acc694e9f6","ios":"levelo://app?vid=261f2914-f86b-4668-a408-95acc694e9f6"},"vehicle_type_id":"4","last_reported":1779172739,"current_range_meters":8400,"station_id":"ce4bhk92rcd13ifvqgb0","pricing_plan_id":"cebpf4jnsgd1na2vs0mg"},{"bike_id":"b830fcf8-16b1-40c0-9362-830ba31d9afd","system_id":"levelo_inurba_marseille","lat":43.30773,"lon":5.38123,"is_reserved":false,"is_disabled":false,"rental_uris":{"android":"levelo://app?vid=b830fcf8-16b1-40c0-9362-830ba31d9afd","ios":"levelo://app?vid=b830fcf8-16b1-40c0-9362-830ba31d9afd"},"vehicle_type_id":"4","last_reported":1779172739,"current_range_meters":8400,"station_id":"ce4bgt12rcd13ifvqce0","pricing_plan_id":"cebpf4jnsgd1na2vs0mg"},{"bike_id":"7a7a7c91-59f9-4e9c-b9a3-3a49c7f6a2f9","system_id":"levelo_inurba_marseille","lat":43.28404,"lon":5.34962,"is_reserved":false,"is_disabled":true,"rental_uris":{"android":"levelo://app?vid=7a7a7c91-59f9-4e9c-b9a3-3a49c7f6a2f9","ios":"levelo://app?vid=7a7a7c91-59f9-4e9c-b9a3-3a49c7f6a2f9"},"vehicle_type_id":"4","last_reported":1779172739,"current_range_meters":8400,"station_id":"ce4bhbh2rcd13ifvqepg","pricing_plan_id":"cebpf4jnsgd1na2vs0mg"},{"bike_id":"8b5fe887-0d07-4a23-9fbd-a7025800ec01","system_id":"levelo_inurba_marseille","lat":43.273725,"lon":5.36265,"is_reserved":false,"is_disabled":false,"rental_uris":{"android":"levelo://app?vid=8b5fe887-0d07-4a23-9fbd-a7025800ec01","ios":"levelo://app?vid=8b5fe887-0d07-4a23-9fbd-a7025800ec01"},"vehicle_type_id":"4","last_reported":1779172739,"current_range_meters":8400,"station_id":"ce4bhbh2rcd13ifvqeo0","pricing_plan_id":"cebpf4jnsgd1na2vs0mg"},{"bike_id":"aa5bce49-4b8b-4f4f-b5f0-e444ca6b7b26","system_id":"levelo_inurba_marseille","lat":43.27213,"lon":5.39175,"is_reserved":false,"is_disabled":false,"rental_uris":{"android":"levelo://app?vid=aa5bce49-4b8b-4f4f-b5f0-e444ca6b7b26","ios":"levelo://app?vid=aa5bce49-4b8b-4f4f-b5f0-e444ca6b7b26"},"vehicle_type_id":"4","last_reported":1779172739,"current_range_meters":8400,"station_id":"ce4bhhp2rcd13ifvqfm0","pricing_plan_id":"cebpf4jnsgd1na2vs0mg"},{"bike_id":"8096af5f-e076-40b5-82d1-25d6de00c2f7","system_id":"levelo_inurba_marseille","lat":43.21187,"lon":5.3507,"is_reserved":false,"is_disabled":false,"rental_uris":{"android":"levelo://app?vid=8096af5f-e076-40b5-82d1-25d6de00c2f7","ios":"levelo://app?vid=8096af5f-e076-40b5-82d1-25d6de00c2f7"},"vehicle_type_id":"4","last_reported":1779172739,"current_range_meters":8800,"station_id":"st_cvj6sg6p6f1abm77japg","pricing_plan_id":"cebpf4jnsgd1na2vs0mg"},{"bike_id":"8aa4042b-067b-4783-a174-79e2496089f3","system_id":"levelo_inurba_marseille","lat":43.28616,"lon":5.35101,"is_reserved":false,"is_disabled":false,"rental_uris":{"android":"levelo://app?vid=8aa4042b-067b-4783-a174-79e2496089f3","ios":"levelo://app?vid=8aa4042b-067b-4783-a174-79e2496089f3"},"vehicle_type_id":"4","last_reported":1779172739,"current_range_meters":8800,"station_id":"ce4bhch2rcd13ifvqeug","pricing_plan_id":"cebpf4jnsgd1na2vs0mg"},{"bike_id":"fe75e68e-565e-4f31-bf46-c65b1576a80f","system_id":"levelo_inurba_marseille","lat":43.28631,"lon":5.3508,"is_reserved":false,"is_disabled":false,"rental_uris":{"android":"levelo://app?vid=fe75e68e-565e-4f31-bf46-c65b1576a80f","ios":"levelo://app?vid=fe75e68e-565e-4f31-bf46-c65b1576a80f"},"vehicle_type_id":"4","last_reported":1779172739,"current_range_meters":8800,"station_id":"ce4bhch2rcd13ifvqeug","pricing_plan_id":"cebpf4jnsgd1na2vs0mg"},{"bike_id":"7c260c7d-d9ed-4ca3-9e2d-27bf132a1d6d","system_id":"levelo_inurba_marseille","lat":43.301559,"lon":5.38132,"is_reserved":false,"is_disabled":false,"rental_uris":{"android":"levelo://app?vid=7c260c7d-d9ed-4ca3-9e2d-27bf132a1d6d","ios":"levelo://app?vid=7c260c7d-d9ed-4ca3-9e2d-27bf132a1d6d"},"vehicle_type_id":"4","last_reported":1779172739,"current_range_meters":8800,"station_id":"ce4bgjp2rcd13ifvqbh0","pricing_plan_id":"cebpf4jnsgd1na2vs0mg"},{"bike_id":"3f42a6d9-721c-4045-81f8-56e377ee5c6e","system_id":"levelo_inurba_marseille","lat":43.26496,"lon":5.39546,"is_reserved":false,"is_disabled":true,"rental_uris":{"android":"levelo://app?vid=3f42a6d9-721c-4045-81f8-56e377ee5c6e","ios":"levelo://app?vid=3f42a6d9-721c-4045-81f8-56e377ee5c6e"},"vehicle_type_id":"4","last_reported":1779172739,"current_range_meters":8800,"station_id":"ce4bhi12rcd13ifvqfq0","pricing_plan_id":"cebpf4jnsgd1na2vs0mg"},{"bike_id":"40e11415-186d-4a53-ac50-ac693db6945a","system_id":"levelo_inurba_marseille","lat":43.33539,"lon":5.37496,"is_reserved":false,"is_disabled":false,"rental_uris":{"android":"levelo://app?vid=40e11415-186d-4a53-ac50-ac693db6945a","ios":"levelo://app?vid=40e11415-186d-4a53-ac50-ac693db6945a"},"vehicle_type_id":"4","last_reported":1779172739,"current_range_meters":8800,"station_id":"st_d46tts09ee8s73dlu43g","pricing_plan_id":"cebpf4jnsgd1na2vs0mg"},{"bike_id":"8dddc768-c81f-41e8-93e2-946ed0ab3a02","system_id":"levelo_inurba_marseille","lat":43.28344,"lon":5.38091,"is_reserved":false,"is_disabled":false,"rental_uris":{"android":"levelo://app?vid=8dddc768-c81f-41e8-93e2-946ed0ab3a02","ios":"levelo://app?vid=8dddc768-c81f-41e8-93e2-946ed0ab3a02"},"vehicle_type_id":"4","last_reported":1779172739,"current_range_meters":8800,"station_id":"ce4bh412rcd13ifvqdr0","pricing_plan_id":"cebpf4jnsgd1na2vs0mg"},{"bike_id":"c2da2745-c378-47bd-ac75-9a4ccb40a22d","system_id":"levelo_inurba_marseille","lat":43.27626,"lon":5.36161,"is_reserved":false,"is_disabled":false,"rental_uris":{"android":"levelo://app?vid=c2da2745-c378-47bd-ac75-9a4ccb40a22d","ios":"levelo://app?vid=c2da2745-c378-47bd-ac75-9a4ccb40a22d"},"vehicle_type_id":"4","last_reported":1779172739,"current_range_meters":8800,"station_id":"ce4bgj92rcd13ifvqbe0","pricing_plan_id":"cebpf4jnsgd1na2vs0mg"},{"bike_id":"5d4dc8e3-e1c8-4f4d-afda-06dc4c7d444e","system_id":"levelo_inurba_marseille","lat":43.26031,"lon":5.39377,"is_reserved":false,"is_disabled":false,"rental_uris":{"android":"levelo://app?vid=5d4dc8e3-e1c8-4f4d-afda-06dc4c7d444e","ios":"levelo://app?vid=5d4dc8e3-e1c8-4f4d-afda-06dc4c7d444e"},"vehicle_type_id":"4","last_reported":1779172739,"current_range_meters":8800,"station_id":"ce4bhh92rcd13ifvqfj0","pricing_plan_id":"cebpf4jnsgd1na2vs0mg"},{"bike_id":"ce271f87-07bf-49c2-b6b1-450caa168f12","system_id":"levelo_inurba_marseille","lat":43.23877,"lon":5.37468,"is_reserved":false,"is_disabled":false,"rental_uris":{"android":"levelo://app?vid=ce271f87-07bf-49c2-b6b1-450caa168f12","ios":"levelo://app?vid=ce271f87-07bf-49c2-b6b1-450caa168f12"},"vehicle_type_id":"4","last_reported":1779172739,"current_range_meters":8800,"station_id":"st_d6sm7csbq4hs73f8fpjg","pricing_plan_id":"cebpf4jnsgd1na2vs0mg"},{"bike_id":"0e005930-50d3-4810-aa57-22cd17a23cef","system_id":"levelo_inurba_marseille","lat":43.30982,"lon":5.36652,"is_reserved":false,"is_disabled":false,"rental_uris":{"android":"levelo://app?vid=0e005930-50d3-4810-aa57-22cd17a23cef","ios":"levelo://app?vid=0e005930-50d3-4810-aa57-22cd17a23cef"},"vehicle_type_id":"4","last_reported":1779172739,"current_range_meters":8800,"station_id":"","pricing_plan_id":"cebpf4jnsgd1na2vs0mg"},{"bike_id":"04c60dce-643f-4ff4-9750-c3b8a66bfdb8","system_id":"levelo_inurba_marseille","lat":43.29274,"lon":5.40127,"is_reserved":false,"is_disabled":false,"rental_uris":{"android":"levelo://app?vid=04c60dce-643f-4ff4-9750-c3b8a66bfdb8","ios":"levelo://app?vid=04c60dce-643f-4ff4-9750-c3b8a66bfdb8"},"vehicle_type_id":"4","last_reported":1779172739,"current_range_meters":8800,"station_id":"ce4bh312rcd13ifvqdk0","pricing_plan_id":"cebpf4jnsgd1na2vs0mg"},{"bike_id":"f342279d-2ff6-4fdc-95c7-cd1fa7ec08f5","system_id":"levelo_inurba_marseille","lat":43.2835,"lon":5.38102,"is_reserved":false,"is_disabled":false,"rental_uris":{"android":"levelo://app?vid=f342279d-2ff6-4fdc-95c7-cd1fa7ec08f5","ios":"levelo://app?vid=f342279d-2ff6-4fdc-95c7-cd1fa7ec08f5"},"vehicle_type_id":"4","last_reported":1779172739,"current_range_meters":8800,"station_id":"ce4bh412rcd13ifvqdr0","pricing_plan_id":"cebpf4jnsgd1na2vs0mg"},{"bike_id":"0c2b3871-9f7c-47e4-b56c-51981e5f12b4","system_id":"levelo_inurba_marseille","lat":43.27626,"lon":5.361,"is_reserved":false,"is_disabled":false,"rental_uris":{"android":"levelo://app?vid=0c2b3871-9f7c-47e4-b56c-51981e5f12b4","ios":"levelo://app?vid=0c2b3871-9f7c-47e4-b56c-51981e5f12b4"},"vehicle_type_id":"4","last_reported":1779172739,"current_range_meters":8800,"station_id":"ce4bgj92rcd13ifvqbe0","pricing_plan_id":"cebpf4jnsgd1na2vs0mg"},{"bike_id":"d3b50581-76b5-4d34-9588-713ec76a1957","system_id":"levelo_inurba_marseille","lat":43.2119,"lon":5.35069,"is_reserved":false,"is_disabled":false,"rental_uris":{"android":"levelo://app?vid=d3b50581-76b5-4d34-9588-713ec76a1957","ios":"levelo://app?vid=d3b50581-76b5-4d34-9588-713ec76a1957"},"vehicle_type_id":"4","last_reported":1779172739,"current_range_meters":8800,"station_id":"st_cvj6sg6p6f1abm77japg","pricing_plan_id":"cebpf4jnsgd1na2vs0mg"},{"bike_id":"f4ac26ba-6af2-4a73-af45-c735269cfee8","system_id":"levelo_inurba_marseille","lat":43.23193,"lon":5.40022,"is_reserved":false,"is_disabled":false,"rental_uris":{"android":"levelo://app?vid=f4ac26ba-6af2-4a73-af45-c735269cfee8","ios":"levelo://app?vid=f4ac26ba-6af2-4a73-af45-c735269cfee8"},"vehicle_type_id":"4","last_reported":1779172739,"current_range_meters":8800,"station_id":"ce4bhn12rcd13ifvqgqg","pricing_plan_id":"cebpf4jnsgd1na2vs0mg"},{"bike_id":"1ae5e1af-0a8c-478b-aefb-67cb805fb920","system_id":"levelo_inurba_marseille","lat":43.29714,"lon":5.37672,"is_reserved":false,"is_disabled":false,"rental_uris":{"android":"levelo://app?vid=1ae5e1af-0a8c-478b-aefb-67cb805fb920","ios":"levelo://app?vid=1ae5e1af-0a8c-478b-aefb-67cb805fb920"},"vehicle_type_id":"4","last_reported":1779172739,"current_range_meters":8800,"station_id":"ce4bgkh2rcd13ifvqbl0","pricing_plan_id":"cebpf4jnsgd1na2vs0mg"},{"bike_id":"ab1329d0-fa90-4b23-8aae-f364fd6e31a9","system_id":"levelo_inurba_marseille","lat":43.21188,"lon":5.35114,"is_reserved":false,"is_disabled":false,"rental_uris":{"android":"levelo://app?vid=ab1329d0-fa90-4b23-8aae-f364fd6e31a9","ios":"levelo://app?vid=ab1329d0-fa90-4b23-8aae-f364fd6e31a9"},"vehicle_type_id":"4","last_reported":1779172739,"current_range_meters":9200,"station_id":"st_cvj6sg6p6f1abm77japg","pricing_plan_id":"cebpf4jnsgd1na2vs0mg"},{"bike_id":"bd4d89de-cc54-4b2f-a6c3-a00399faaf0f","system_id":"levelo_inurba_marseille","lat":43.27064,"lon":5.42276,"is_reserved":false,"is_disabled":false,"rental_uris":{"android":"levelo://app?vid=bd4d89de-cc54-4b2f-a6c3-a00399faaf0f","ios":"levelo://app?vid=bd4d89de-cc54-4b2f-a6c3-a00399faaf0f"},"vehicle_type_id":"4","last_reported":1779172739,"current_range_meters":9200,"station_id":"ce4bhk92rcd13ifvqgb0","pricing_plan_id":"cebpf4jnsgd1na2vs0mg"},{"bike_id":"e110d775-688f-4a6e-9cd7-b6f793c3bed0","system_id":"levelo_inurba_marseille","lat":43.31277,"lon":5.40162,"is_reserved":false,"is_disabled":false,"rental_uris":{"android":"levelo://app?vid=e110d775-688f-4a6e-9cd7-b6f793c3bed0","ios":"levelo://app?vid=e110d775-688f-4a6e-9cd7-b6f793c3bed0"},"vehicle_type_id":"4","last_reported":1779172739,"current_range_meters":9200,"station_id":"ce4bh092rcd13ifvqd30","pricing_plan_id":"cebpf4jnsgd1na2vs0mg"},{"bike_id":"7c7fb249-fc8e-4d79-a1ce-dd5b0f183060","system_id":"levelo_inurba_marseille","lat":43.29819,"lon":5.44063,"is_reserved":false,"is_disabled":false,"rental_uris":{"android":"levelo://app?vid=7c7fb249-fc8e-4d79-a1ce-dd5b0f183060","ios":"levelo://app?vid=7c7fb249-fc8e-4d79-a1ce-dd5b0f183060"},"vehicle_type_id":"4","last_reported":1779172739,"current_range_meters":9200,"station_id":"st_d3jp68qikq2c7381ktn0","pricing_plan_id":"cebpf4jnsgd1na2vs0mg"},{"bike_id":"d2abe37c-883e-4b78-abe7-962a451ef821","system_id":"levelo_inurba_marseille","lat":43.28608,"lon":5.35086,"is_reserved":false,"is_disabled":false,"rental_uris":{"android":"levelo://app?vid=d2abe37c-883e-4b78-abe7-962a451ef821","ios":"levelo://app?vid=d2abe37c-883e-4b78-abe7-962a451ef821"},"vehicle_type_id":"4","last_reported":1779172739,"current_range_meters":9200,"station_id":"ce4bhch2rcd13ifvqeug","pricing_plan_id":"cebpf4jnsgd1na2vs0mg"},{"bike_id":"9c94c862-4a13-4d0b-b02e-fbf3a0eff560","system_id":"levelo_inurba_marseille","lat":43.2557,"lon":5.38239,"is_reserved":false,"is_disabled":false,"rental_uris":{"android":"levelo://app?vid=9c94c862-4a13-4d0b-b02e-fbf3a0eff560","ios":"levelo://app?vid=9c94c862-4a13-4d0b-b02e-fbf3a0eff560"},"vehicle_type_id":"4","last_reported":1779172739,"current_range_meters":9200,"station_id":"ce4bhih2rcd13ifvqfs0","pricing_plan_id":"cebpf4jnsgd1na2vs0mg"},{"bike_id":"bb303e92-9b67-4e48-ae07-5553b91fa66a","system_id":"levelo_inurba_marseille","lat":43.23951,"lon":5.36628,"is_reserved":false,"is_disabled":false,"rental_uris":{"android":"levelo://app?vid=bb303e92-9b67-4e48-ae07-5553b91fa66a","ios":"levelo://app?vid=bb303e92-9b67-4e48-ae07-5553b91fa66a"},"vehicle_type_id":"4","last_reported":1779172739,"current_range_meters":9200,"station_id":"ce4bhi12rcd13ifvqfp0","pricing_plan_id":"cebpf4jnsgd1na2vs0mg"},{"bike_id":"92c23094-35b2-4e29-b626-784ab1b9dabb","system_id":"levelo_inurba_marseille","lat":43.28634,"lon":5.35106,"is_reserved":false,"is_disabled":false,"rental_uris":{"android":"levelo://app?vid=92c23094-35b2-4e29-b626-784ab1b9dabb","ios":"levelo://app?vid=92c23094-35b2-4e29-b626-784ab1b9dabb"},"vehicle_type_id":"4","last_reported":1779172739,"current_range_meters":9200,"station_id":"ce4bhch2rcd13ifvqeug","pricing_plan_id":"cebpf4jnsgd1na2vs0mg"},{"bike_id":"75f75e9c-d7a2-4994-9350-8f55536b0afd","system_id":"levelo_inurba_marseille","lat":43.30957,"lon":5.42984,"is_reserved":false,"is_disabled":false,"rental_uris":{"android":"levelo://app?vid=75f75e9c-d7a2-4994-9350-8f55536b0afd","ios":"levelo://app?vid=75f75e9c-d7a2-4994-9350-8f55536b0afd"},"vehicle_type_id":"4","last_reported":1779172739,"current_range_meters":9200,"station_id":"","pricing_plan_id":"cebpf4jnsgd1na2vs0mg"},{"bike_id":"14489bec-0cf2-4782-be85-917b48ea592c","system_id":"levelo_inurba_marseille","lat":43.29557,"lon":5.42279,"is_reserved":false,"is_disabled":false,"rental_uris":{"android":"levelo://app?vid=14489bec-0cf2-4782-be85-917b48ea592c","ios":"levelo://app?vid=14489bec-0cf2-4782-be85-917b48ea592c"},"vehicle_type_id":"4","last_reported":1779172739,"current_range_meters":9200,"station_id":"ce4bhph2rcd13ifvqhdg","pricing_plan_id":"cebpf4jnsgd1na2vs0mg"},{"bike_id":"94133b29-971d-48eb-9475-ae0b64fbd116","system_id":"levelo_inurba_marseille","lat":43.28208,"lon":5.38159,"is_reserved":false,"is_disabled":false,"rental_uris":{"android":"levelo://app?vid=94133b29-971d-48eb-9475-ae0b64fbd116","ios":"levelo://app?vid=94133b29-971d-48eb-9475-ae0b64fbd116"},"vehicle_type_id":"4","last_reported":1779172739,"current_range_meters":9200,"station_id":"","pricing_plan_id":"cebpf4jnsgd1na2vs0mg"},{"bike_id":"170a9d48-e2c9-4fef-aeea-c07bf3342cf2","system_id":"levelo_inurba_marseille","lat":43.23956,"lon":5.36623,"is_reserved":false,"is_disabled":false,"rental_uris":{"android":"levelo://app?vid=170a9d48-e2c9-4fef-aeea-c07bf3342cf2","ios":"levelo://app?vid=170a9d48-e2c9-4fef-aeea-c07bf3342cf2"},"vehicle_type_id":"4","last_reported":1779172739,"current_range_meters":9200,"station_id":"ce4bhi12rcd13ifvqfp0","pricing_plan_id":"cebpf4jnsgd1na2vs0mg"},{"bike_id":"5ea9dc01-f766-48fb-a11b-cc95386dac34","system_id":"levelo_inurba_marseille","lat":43.316895,"lon":5.404796,"is_reserved":false,"is_disabled":false,"rental_uris":{"android":"levelo://app?vid=5ea9dc01-f766-48fb-a11b-cc95386dac34","ios":"levelo://app?vid=5ea9dc01-f766-48fb-a11b-cc95386dac34"},"vehicle_type_id":"4","last_reported":1779172739,"current_range_meters":9200,"station_id":"ce4bh012rcd13ifvqd00","pricing_plan_id":"cebpf4jnsgd1na2vs0mg"},{"bike_id":"70fa82b7-6ab6-401e-87ef-e9b8f74ed0f2","system_id":"levelo_inurba_marseille","lat":43.33152,"lon":5.37686,"is_reserved":false,"is_disabled":false,"rental_uris":{"android":"levelo://app?vid=70fa82b7-6ab6-401e-87ef-e9b8f74ed0f2","ios":"levelo://app?vid=70fa82b7-6ab6-401e-87ef-e9b8f74ed0f2"},"vehicle_type_id":"4","last_reported":1779172739,"current_range_meters":9200,"station_id":"st_d46cu089ee8s73dldbu0","pricing_plan_id":"cebpf4jnsgd1na2vs0mg"},{"bike_id":"46a262d6-dfbc-49a1-a6fc-717c8fc21e49","system_id":"levelo_inurba_marseille","lat":43.30488,"lon":5.37918,"is_reserved":false,"is_disabled":false,"rental_uris":{"android":"levelo://app?vid=46a262d6-dfbc-49a1-a6fc-717c8fc21e49","ios":"levelo://app?vid=46a262d6-dfbc-49a1-a6fc-717c8fc21e49"},"vehicle_type_id":"4","last_reported":1779172739,"current_range_meters":9200,"station_id":"ce4bgup2rcd13ifvqcn0","pricing_plan_id":"cebpf4jnsgd1na2vs0mg"},{"bike_id":"01461216-8644-4803-b226-478f36eeeaad","system_id":"levelo_inurba_marseille","lat":43.28676,"lon":5.38668,"is_reserved":false,"is_disabled":true,"rental_uris":{"android":"levelo://app?vid=01461216-8644-4803-b226-478f36eeeaad","ios":"levelo://app?vid=01461216-8644-4803-b226-478f36eeeaad"},"vehicle_type_id":"4","last_reported":1779172739,"current_range_meters":9200,"station_id":"ce4bh492rcd13ifvqdug","pricing_plan_id":"cebpf4jnsgd1na2vs0mg"},{"bike_id":"f110d14d-1813-4104-82a6-5526f611b0b1","system_id":"levelo_inurba_marseille","lat":43.292247,"lon":5.360481,"is_reserved":false,"is_disabled":false,"rental_uris":{"android":"levelo://app?vid=f110d14d-1813-4104-82a6-5526f611b0b1","ios":"levelo://app?vid=f110d14d-1813-4104-82a6-5526f611b0b1"},"vehicle_type_id":"4","last_reported":1779172739,"current_range_meters":9200,"station_id":"ce4bhbh2rcd13ifvqeqg","pricing_plan_id":"cebpf4jnsgd1na2vs0mg"},{"bike_id":"fb3198b3-774f-4723-ac87-5e7db2600fd6","system_id":"levelo_inurba_marseille","lat":43.2795,"lon":5.4104,"is_reserved":false,"is_disabled":false,"rental_uris":{"android":"levelo://app?vid=fb3198b3-774f-4723-ac87-5e7db2600fd6","ios":"levelo://app?vid=fb3198b3-774f-4723-ac87-5e7db2600fd6"},"vehicle_type_id":"4","last_reported":1779172739,"current_range_meters":9200,"station_id":"ce4bhnp2rcd13ifvqh0g","pricing_plan_id":"cebpf4jnsgd1na2vs0mg"},{"bike_id":"b5225d9b-2e1e-4060-9ca2-c709e98a1ccf","system_id":"levelo_inurba_marseille","lat":43.31327,"lon":5.42364,"is_reserved":false,"is_disabled":false,"rental_uris":{"android":"levelo://app?vid=b5225d9b-2e1e-4060-9ca2-c709e98a1ccf","ios":"levelo://app?vid=b5225d9b-2e1e-4060-9ca2-c709e98a1ccf"},"vehicle_type_id":"4","last_reported":1779172739,"current_range_meters":9200,"station_id":"","pricing_plan_id":"cebpf4jnsgd1na2vs0mg"},{"bike_id":"80cc7be8-e95e-4d57-afd7-767e38f6fffc","system_id":"levelo_inurba_marseille","lat":43.2976,"lon":5.42774,"is_reserved":false,"is_disabled":false,"rental_uris":{"android":"levelo://app?vid=80cc7be8-e95e-4d57-afd7-767e38f6fffc","ios":"levelo://app?vid=80cc7be8-e95e-4d57-afd7-767e38f6fffc"},"vehicle_type_id":"4","last_reported":1779172739,"current_range_meters":9200,"station_id":"st_d3md5207bmas73dh9klg","pricing_plan_id":"cebpf4jnsgd1na2vs0mg"},{"bike_id":"408701cc-3f2d-4c32-b20d-587f50ccde82","system_id":"levelo_inurba_marseille","lat":43.305578,"lon":5.367156,"is_reserved":false,"is_disabled":false,"rental_uris":{"android":"levelo://app?vid=408701cc-3f2d-4c32-b20d-587f50ccde82","ios":"levelo://app?vid=408701cc-3f2d-4c32-b20d-587f50ccde82"},"vehicle_type_id":"4","last_reported":1779172739,"current_range_meters":9200,"station_id":"","pricing_plan_id":"cebpf4jnsgd1na2vs0mg"},{"bike_id":"74cb2cab-39b6-4ebc-8620-b99860a86f58","system_id":"levelo_inurba_marseille","lat":43.29362,"lon":5.3721,"is_reserved":false,"is_disabled":false,"rental_uris":{"android":"levelo://app?vid=74cb2cab-39b6-4ebc-8620-b99860a86f58","ios":"levelo://app?vid=74cb2cab-39b6-4ebc-8620-b99860a86f58"},"vehicle_type_id":"4","last_reported":1779172739,"current_range_meters":9200,"station_id":"","pricing_plan_id":"cebpf4jnsgd1na2vs0mg"},{"bike_id":"0fbcb0bc-5687-4bc3-b406-8c8ebd4b343f","system_id":"levelo_inurba_marseille","lat":43.27832,"lon":5.39208,"is_reserved":false,"is_disabled":false,"rental_uris":{"android":"levelo://app?vid=0fbcb0bc-5687-4bc3-b406-8c8ebd4b343f","ios":"levelo://app?vid=0fbcb0bc-5687-4bc3-b406-8c8ebd4b343f"},"vehicle_type_id":"4","last_reported":1779172739,"current_range_meters":9200,"station_id":"ce4bhjp2rcd13ifvqga0","pricing_plan_id":"cebpf4jnsgd1na2vs0mg"},{"bike_id":"8da21eec-5ab2-4041-a50a-4bb534e98d35","system_id":"levelo_inurba_marseille","lat":43.30321,"lon":5.38925,"is_reserved":false,"is_disabled":false,"rental_uris":{"android":"levelo://app?vid=8da21eec-5ab2-4041-a50a-4bb534e98d35","ios":"levelo://app?vid=8da21eec-5ab2-4041-a50a-4bb534e98d35"},"vehicle_type_id":"4","last_reported":1779172739,"current_range_meters":9200,"station_id":"","pricing_plan_id":"cebpf4jnsgd1na2vs0mg"},{"bike_id":"35a58446-c491-4d38-91d7-8064bc6f2cae","system_id":"levelo_inurba_marseille","lat":43.26788,"lon":5.39408,"is_reserved":false,"is_disabled":false,"rental_uris":{"android":"levelo://app?vid=35a58446-c491-4d38-91d7-8064bc6f2cae","ios":"levelo://app?vid=35a58446-c491-4d38-91d7-8064bc6f2cae"},"vehicle_type_id":"4","last_reported":1779172739,"current_range_meters":9600,"station_id":"ce4bhh12rcd13ifvqfg0","pricing_plan_id":"cebpf4jnsgd1na2vs0mg"},