{"last_updated":1691859840,"ttl":30,"version":"2.2","data":{"bikes":[{"bike_id":"f5b36f05-bc83-4749-b16d-7539dc41e3ee","system_id":"levelo_inurba_marseille","lat":43.31218,"lon":5.36849,"is_reserved":false,"is_disabled":false,"rental_uris":{"android":"levelo://app?vid=f5b36f05-bc83-4749-b16d-7539dc41e3ee","ios":"levelo://app?vid=f5b36f05-bc83-4749-b16d-7539dc41e3ee"},"vehicle_type_id":"4","last_reported":1691859841,"current_range_meters":29600,"station_id":"ce4bgl92rcd13ifvqbq0","pricing_plan_id":"free"},{"bike_id":"d858a23f-b479-47d9-94d3-349ba457eb55","system_id":"levelo_inurba_marseille","lat":43.314811,"lon":5.373103,"is_reserved":false,"is_disabled":false,"rental_uris":{"android":"levelo://app?vid=d858a23f-b479-47d9-94d3-349ba457eb55","ios":"levelo://app?vid=d858a23f-b479-47d9-94d3-349ba457eb55"},"vehicle_type_id":"4","last_reported":1691859841,"current_range_meters":18400,"station_id":"ce4bgt12rcd13ifvqcd0","pricing_plan_id":"free"},{"bike_id":"fb7f5f5d-8e94-42f5-873c-5ffb0bbdfb05","system_id":"levelo_inurba_marseille","lat":43.305368,"lon":5.367343,"is_reserved":false,"is_disabled":false,"rental_uris":{"android":"levelo://app?vid=fb7f5f5d-8e94-42f5-873c-5ffb0bbdfb05","ios":"levelo://app?vid=fb7f5f5d-8e94-42f5-873c-5ffb0bbdfb05"},"vehicle_type_id":"4","last_reported":1691859841,"current_range_meters":0,"station_id":"ce4bgrp2rcd13ifvqc9g","pricing_plan_id":"free"},{"bike_id":"1db1d03a-047e-48d2-9e7c-20d28b403a78","system_id":"levelo_inurba_marseille","lat":43.3189,"lon":5.37632,"is_reserved":false,"is_disabled":false,"rental_uris":{"android":"levelo://app?vid=1db1d03a-047e-48d2-9e7c-20d28b403a78","ios":"levelo://app?vid=1db1d03a-047e-48d2-9e7c-20d28b403a78"},"vehicle_type_id":"4","last_reported":1691859841,"current_range_meters":24400,"station_id":"","pricing_plan_id":"free"},{"bike_id":"6b7e6f16-4b6d-4beb-ab37-4e54e4596e1a","system_id":"levelo_inurba_marseille","lat":43.3032,"lon":5.36896,"is_reserved":false,"is_disabled":false,"rental_uris":{"android":"levelo://app?vid=6b7e6f16-4b6d-4beb-ab37-4e54e4596e1a","ios":"levelo://app?vid=6b7e6f16-4b6d-4beb-ab37-4e54e4596e1a"},"vehicle_type_id":"4","last_reported":1691859841,"current_range_meters":400,"station_id":"ce4bgqh2rcd13ifvqc5g","pricing_plan_id":"free"},{"bike_id":"7af84fe4-cbd1-48cf-8c24-6c1a1d4c6597","system_id":"levelo_inurba_marseille","lat":43.30307,"lon":5.36591,"is_reserved":false,"is_disabled":false,"rental_uris":{"android":"levelo://app?vid=7af84fe4-cbd1-48cf-8c24-6c1a1d4c6597","ios":"levelo://app?vid=7af84fe4-cbd1-48cf-8c24-6c1a1d4c6597"},"vehicle_type_id":"4","last_reported":1691859841,"current_range_meters":2400,"station_id":"","pricing_plan_id":"free"},{"bike_id":"72aee89d-8589-483d-a954-40654b9012c6","system_id":"levelo_inurba_marseille","lat":43.3153,"lon":5.38025,"is_reserved":false,"is_disabled":false,"rental_uris":{"android":"levelo://app?vid=72aee89d-8589-483d-a954-40654b9012c6","ios":"levelo://app?vid=72aee89d-8589-483d-a954-40654b9012c6"},"vehicle_type_id":"4","last_reported":1691859841,"current_range_meters":8000,"station_id":"ce4bhsp2rcd13ifvqi50","pricing_plan_id":"free"},{"bike_id":"102828f1-3894-4ffb-8d15-4da23d3456ed","system_id":"levelo_inurba_marseille","lat":43.31534,"lon":5.3803,"is_reserved":false,"is_disabled":false,"rental_uris":{"android":"levelo://app?vid=102828f1-3894-4ffb-8d15-4da23d3456ed","ios":"levelo://app?vid=102828f1-3894-4ffb-8d15-4da23d3456ed"},"vehicle_type_id":"4","last_reported":1691859841,"current_range_meters":16400,"station_id":"ce4bhsp2rcd13ifvqi50","pricing_plan_id":"free"},{"bike_id":"6a0232fa-80b1-4833-b4f3-d079d6504d6f","system_id":"levelo_inurba_marseille","lat":43.315289,"lon":5.380349,"is_reserved":false,"is_disabled":false,"rental_uris":{"android":"levelo://app?vid=6a0232fa-80b1-4833-b4f3-d079d6504d6f","ios":"levelo://app?vid=6a0232fa-80b1-4833-b4f3-d079d6504d6f"},"vehicle_type_id":"4","last_reported":1691859841,"current_range_meters":31200,"station_id":"ce4bhsp2rcd13ifvqi50","pricing_plan_id":"free"},{"bike_id":"a698cc27-9df8-4872-86d6-98a07c577f98","system_id":"levelo_inurba_marseille","lat":43.3153,"lon":5.38039,"is_reserved":false,"is_disabled":false,"rental_uris":{"android":"levelo://app?vid=a698cc27-9df8-4872-86d6-98a07c577f98","ios":"levelo://app?vid=a698cc27-9df8-4872-86d6-98a07c577f98"},"vehicle_type_id":"4","last_reported":1691859841,"current_range_meters":24000,"station_id":"ce4bhsp2rcd13ifvqi50","pricing_plan_id":"free"},{"bike_id":"35877fe8-5e7e-468c-8edc-4dc0bcc242fc","system_id":"levelo_inurba_marseille","lat":43.301939,"lon":5.366286,"is_reserved":false,"is_disabled":false,"rental_uris":{"android":"levelo://app?vid=35877fe8-5e7e-468c-8edc-4dc0bcc242fc","ios":"levelo://app?vid=35877fe8-5e7e-468c-8edc-4dc0bcc242fc"},"vehicle_type_id":"4","last_reported":1691859841,"current_range_meters":400,"station_id":"ce4bgrh2rcd13ifvqc8g","pricing_plan_id":"free"},{"bike_id":"7f69d4f5-58c4-459f-8736-4d1202fae65d","system_id":"levelo_inurba_marseille","lat":43.304606,"lon":5.379026,"is_reserved":false,"is_disabled":false,"rental_uris":{"android":"levelo://app?vid=7f69d4f5-58c4-459f-8736-4d1202fae65d","ios":"levelo://app?vid=7f69d4f5-58c4-459f-8736-4d1202fae65d"},"vehicle_type_id":"4","last_reported":1691859841,"current_range_meters":400,"station_id":"ce4bgup2rcd13ifvqcn0","pricing_plan_id":"free"},{"bike_id":"45b365de-94c8-496e-bb5a-8ccdee0e7462","system_id":"levelo_inurba_marseille","lat":43.304606,"lon":5.379026,"is_reserved":false,"is_disabled":false,"rental_uris":{"android":"levelo://app?vid=45b365de-94c8-496e-bb5a-8ccdee0e7462","ios":"levelo://app?vid=45b365de-94c8-496e-bb5a-8ccdee0e7462"},"vehicle_type_id":"4","last_reported":1691859841,"current_range_meters":22000,"station_id":"ce4bgup2rcd13ifvqcn0","pricing_plan_id":"free"},{"bike_id":"c158a544-5a6f-4167-b61f-162865aa59e1","system_id":"levelo_inurba_marseille","lat":43.302784,"lon":5.377158,"is_reserved":false,"is_disabled":false,"rental_uris":{"android":"levelo://app?vid=c158a544-5a6f-4167-b61f-162865aa59e1","ios":"levelo://app?vid=c158a544-5a6f-4167-b61f-162865aa59e1"},"vehicle_type_id":"4","last_reported":1691859841,"current_range_meters":800,"station_id":"ce4bguh2rcd13ifvqcj0","pricing_plan_id":"free"},{"bike_id":"9c9c9dd2-c55b-46cb-9729-cac80045df60","system_id":"levelo_inurba_marseille","lat":43.302784,"lon":5.377158,"is_reserved":false,"is_disabled":false,"rental_uris":{"android":"levelo://app?vid=9c9c9dd2-c55b-46cb-9729-cac80045df60","ios":"levelo://app?vid=9c9c9dd2-c55b-46cb-9729-cac80045df60"},"vehicle_type_id":"4","last_reported":1691859841,"current_range_meters":10000,"station_id":"ce4bguh2rcd13ifvqcj0","pricing_plan_id":"free"},{"bike_id":"f8d23e75-2836-4001-a11b-547c24d9bad1","system_id":"levelo_inurba_marseille","lat":43.302784,"lon":5.377158,"is_reserved":false,"is_disabled":false,"rental_uris":{"android":"levelo://app?vid=f8d23e75-2836-4001-a11b-547c24d9bad1","ios":"levelo://app?vid=f8d23e75-2836-4001-a11b-547c24d9bad1"},"vehicle_type_id":"4","last_reported":1691859841,"current_range_meters":15200,"station_id":"ce4bguh2rcd13ifvqcj0","pricing_plan_id":"free"},{"bike_id":"8c96af8e-14c9-470f-a090-103859bce931","system_id":"levelo_inurba_marseille","lat":43.313571,"lon":5.384829,"is_reserved":false,"is_disabled":false,"rental_uris":{"android":"levelo://app?vid=8c96af8e-14c9-470f-a090-103859bce931","ios":"levelo://app?vid=8c96af8e-14c9-470f-a090-103859bce931"},"vehicle_type_id":"4","last_reported":1691859841,"current_range_meters":27200,"station_id":"ce4bgt92rcd13ifvqcf0","pricing_plan_id":"free"},{"bike_id":"b5c95c2e-1a02-40d0-9b35-bec122ac23ac","system_id":"levelo_inurba_marseille","lat":43.29932,"lon":5.36546,"is_reserved":false,"is_disabled":false,"rental_uris":{"android":"levelo://app?vid=b5c95c2e-1a02-40d0-9b35-bec122ac23ac","ios":"levelo://app?vid=b5c95c2e-1a02-40d0-9b35-bec122ac23ac"},"vehicle_type_id":"4","last_reported":1691859841,"current_range_meters":18800,"station_id":"ce4bgm92rcd13ifvqbr0","pricing_plan_id":"free"},{"bike_id":"b1ea3f89-aa83-437e-be96-c29a4c442b20","system_id":"levelo_inurba_marseille","lat":43.31055,"lon":5.3863,"is_reserved":false,"is_disabled":false,"rental_uris":{"android":"levelo://app?vid=b1ea3f89-aa83-437e-be96-c29a4c442b20","ios":"levelo://app?vid=b1ea3f89-aa83-437e-be96-c29a4c442b20"},"vehicle_type_id":"4","last_reported":1691859841,"current_range_meters":4800,"station_id":"","pricing_plan_id":"free"},{"bike_id":"5a859094-17de-4a47-af1f-0a7cba6b9d33","system_id":"levelo_inurba_marseille","lat":43.30549,"lon":5.3842,"is_reserved":false,"is_disabled":false,"rental_uris":{"android":"levelo://app?vid=5a859094-17de-4a47-af1f-0a7cba6b9d33","ios":"levelo://app?vid=5a859094-17de-4a47-af1f-0a7cba6b9d33"},"vehicle_type_id":"4","last_reported":1691859841,"current_range_meters":12400,"station_id":"ce4bgg92rcd13ifvqb30","pricing_plan_id":"free"},{"bike_id":"6d9378aa-93d4-41c3-aadf-57e6aca7247c","system_id":"levelo_inurba_marseille","lat":43.3055,"lon":5.38422,"is_reserved":false,"is_disabled":false,"rental_uris":{"android":"levelo://app?vid=6d9378aa-93d4-41c3-aadf-57e6aca7247c","ios":"levelo://app?vid=6d9378aa-93d4-41c3-aadf-57e6aca7247c"},"vehicle_type_id":"4","last_reported":1691859841,"current_range_meters":22400,"station_id":"ce4bgg92rcd13ifvqb30","pricing_plan_id":"free"},{"bike_id":"7b27395b-fa8f-45e9-9b01-bd3872cf19ed","system_id":"levelo_inurba_marseille","lat":43.29852,"lon":5.36288,"is_reserved":false,"is_disabled":false,"rental_uris":{"android":"levelo://app?vid=7b27395b-fa8f-45e9-9b01-bd3872cf19ed","ios":"levelo://app?vid=7b27395b-fa8f-45e9-9b01-bd3872cf19ed"},"vehicle_type_id":"4","last_reported":1691859841,"current_range_meters":18800,"station_id":"ce4bgpp2rcd13ifvqc3g","pricing_plan_id":"free"},{"bike_id":"3a9df4eb-02f8-4a76-afb9-ae89b41c5a4c","system_id":"levelo_inurba_marseille","lat":43.298433,"lon":5.362774,"is_reserved":false,"is_disabled":false,"rental_uris":{"android":"levelo://app?vid=3a9df4eb-02f8-4a76-afb9-ae89b41c5a4c","ios":"levelo://app?vid=3a9df4eb-02f8-4a76-afb9-ae89b41c5a4c"},"vehicle_type_id":"4","last_reported":1691859841,"current_range_meters":24400,"station_id":"ce4bgpp2rcd13ifvqc3g","pricing_plan_id":"free"},{"bike_id":"f0bbb121-9555-4b52-a21d-eeff9244faa3","system_id":"levelo_inurba_marseille","lat":43.298433,"lon":5.362774,"is_reserved":false,"is_disabled":false,"rental_uris":{"android":"levelo://app?vid=f0bbb121-9555-4b52-a21d-eeff9244faa3","ios":"levelo://app?vid=f0bbb121-9555-4b52-a21d-eeff9244faa3"},"vehicle_type_id":"4","last_reported":1691859841,"current_range_meters":8000,"station_id":"ce4bgpp2rcd13ifvqc3g","pricing_plan_id":"free"},{"bike_id":"5f45aa18-b0fb-4392-8dca-6c48fa9a60f1","system_id":"levelo_inurba_marseille","lat":43.305364,"lon":5.384119,"is_reserved":false,"is_disabled":false,"rental_uris":{"android":"levelo://app?vid=5f45aa18-b0fb-4392-8dca-6c48fa9a60f1","ios":"levelo://app?vid=5f45aa18-b0fb-4392-8dca-6c48fa9a60f1"},"vehicle_type_id":"4","last_reported":1691859841,"current_range_meters":20400,"station_id":"ce4bgg92rcd13ifvqb30","pricing_plan_id":"free"},{"bike_id":"a0d3bed5-36ea-4353-8a7a-a4ef06039fa9","system_id":"levelo_inurba_marseille","lat":43.299243,"lon":5.37481,"is_reserved":false,"is_disabled":false,"rental_uris":{"android":"levelo://app?vid=a0d3bed5-36ea-4353-8a7a-a4ef06039fa9","ios":"levelo://app?vid=a0d3bed5-36ea-4353-8a7a-a4ef06039fa9"},"vehicle_type_id":"4","last_reported":1691859841,"current_range_meters":20800,"station_id":"ce4bgjh2rcd13ifvqbg0","pricing_plan_id":"free"},{"bike_id":"21b90659-460a-4629-934f-08db3650db25","system_id":"levelo_inurba_marseille","lat":43.30521,"lon":5.38434,"is_reserved":false,"is_disabled":false,"rental_uris":{"android":"levelo://app?vid=21b90659-460a-4629-934f-08db3650db25","ios":"levelo://app?vid=21b90659-460a-4629-934f-08db3650db25"},"vehicle_type_id":"4","last_reported":1691859841,"current_range_meters":30400,"station_id":"ce4bgg92rcd13ifvqb30","pricing_plan_id":"free"},{"bike_id":"00a2f255-d449-4957-a717-68ff6195437b","system_id":"levelo_inurba_marseille","lat":43.311722,"lon":5.387247,"is_reserved":false,"is_disabled":false,"rental_uris":{"android":"levelo://app?vid=00a2f255-d449-4957-a717-68ff6195437b","ios":"levelo://app?vid=00a2f255-d449-4957-a717-68ff6195437b"},"vehicle_type_id":"4","last_reported":1691859841,"current_range_meters":14400,"station_id":"ce4bgv12rcd13ifvqcp0","pricing_plan_id":"free"},{"bike_id":"9f964275-2774-4ff8-b43c-834d143f926a","system_id":"levelo_inurba_marseille","lat":43.311722,"lon":5.387247,"is_reserved":false,"is_disabled":false,"rental_uris":{"android":"levelo://app?vid=9f964275-2774-4ff8-b43c-834d143f926a","ios":"levelo://app?vid=9f964275-2774-4ff8-b43c-834d143f926a"},"vehicle_type_id":"4","last_reported":1691859841,"current_range_meters":20400,"station_id":"ce4bgv12rcd13ifvqcp0","pricing_plan_id":"free"},{"bike_id":"934a1f80-8602-40fd-bc1d-1935aadc5d17","system_id":"levelo_inurba_marseille","lat":43.311722,"lon":5.387247,"is_reserved":false,"is_disabled":false,"rental_uris":{"android":"levelo://app?vid=934a1f80-8602-40fd-bc1d-1935aadc5d17","ios":"levelo://app?vid=934a1f80-8602-40fd-bc1d-1935aadc5d17"},"vehicle_type_id":"4","last_reported":1691859841,"current_range_meters":13600,"station_id":"ce4bgv12rcd13ifvqcp0","pricing_plan_id":"free"},{"bike_id":"2e341b8a-19ca-467a-9062-4e524deac17d","system_id":"levelo_inurba_marseille","lat":43.32284,"lon":5.38264,"is_reserved":false,"is_disabled":false,"rental_uris":{"android":"levelo://app?vid=2e341b8a-19ca-467a-9062-4e524deac17d","ios":"levelo://app?vid=2e341b8a-19ca-467a-9062-4e524deac17d"},"vehicle_type_id":"4","last_reported":1691859841,"current_range_meters":27200,"station_id":"ce4bhr12rcd13ifvqhqg","pricing_plan_id":"free"},{"bike_id":"026ee3db-f828-4ad6-9e78-43e60a812318","system_id":"levelo_inurba_marseille","lat":43.32285,"lon":5.38263,"is_reserved":false,"is_disabled":false,"rental_uris":{"android":"levelo://app?vid=026ee3db-f828-4ad6-9e78-43e60a812318","ios":"levelo://app?vid=026ee3db-f828-4ad6-9e78-43e60a812318"},"vehicle_type_id":"4","last_reported":1691859841,"current_range_meters":19600,"station_id":"ce4bhr12rcd13ifvqhqg","pricing_plan_id":"free"},{"bike_id":"8f2aa7e2-24d9-41bf-9969-7328a1bb97fe","system_id":"levelo_inurba_marseille","lat":43.297774,"lon":5.370875,"is_reserved":false,"is_disabled":false,"rental_uris":{"android":"levelo://app?vid=8f2aa7e2-24d9-41bf-9969-7328a1bb97fe","ios":"levelo://app?vid=8f2aa7e2-24d9-41bf-9969-7328a1bb97fe"},"vehicle_type_id":"4","last_reported":1691859841,"current_range_meters":22800,"station_id":"ce4bgop2rcd13ifvqc1g","pricing_plan_id":"free"},{"bike_id":"3d75ec31-9bc5-447c-81ba-d21539df621f","system_id":"levelo_inurba_marseille","lat":43.32286,"lon":5.38265,"is_reserved":false,"is_disabled":false,"rental_uris":{"android":"levelo://app?vid=3d75ec31-9bc5-447c-81ba-d21539df621f","ios":"levelo://app?vid=3d75ec31-9bc5-447c-81ba-d21539df621f"},"vehicle_type_id":"4","last_reported":1691859841,"current_range_meters":9600,"station_id":"ce4bhr12rcd13ifvqhqg","pricing_plan_id":"free"},{"bike_id":"5cef4262-f054-4974-9121-fc3d341ebbb0","system_id":"levelo_inurba_marseille","lat":43.32285,"lon":5.38268,"is_reserved":false,"is_disabled":false,"rental_uris":{"android":"levelo://app?vid=5cef4262-f054-4974-9121-fc3d341ebbb0","ios":"levelo://app?vid=5cef4262-f054-4974-9121-fc3d341ebbb0"},"vehicle_type_id":"4","last_reported":1691859841,"current_range_meters":12800,"station_id":"ce4bhr12rcd13ifvqhqg","pricing_plan_id":"free"},{"bike_id":"34544adb-53d3-44b1-86f1-bb8bc7dbf546","system_id":"levelo_inurba_marseille","lat":43.32286,"lon":5.38268,"is_reserved":false,"is_disabled":false,"rental_uris":{"android":"levelo://app?vid=34544adb-53d3-44b1-86f1-bb8bc7dbf546","ios":"levelo://app?vid=34544adb-53d3-44b1-86f1-bb8bc7dbf546"},"vehicle_type_id":"4","last_reported":1691859841,"current_range_meters":24400,"station_id":"ce4bhr12rcd13ifvqhqg","pricing_plan_id":"free"},{"bike_id":"daf1c66e-67e4-446b-ab69-51ad2a5f2181","system_id":"levelo_inurba_marseille","lat":43.322872,"lon":5.382756,"is_reserved":false,"is_disabled":false,"rental_uris":{"android":"levelo://app?vid=daf1c66e-67e4-446b-ab69-51ad2a5f2181","ios":"levelo://app?vid=daf1c66e-67e4-446b-ab69-51ad2a5f2181"},"vehicle_type_id":"4","last_reported":1691859841,"current_range_meters":25600,"station_id":"ce4bhr12rcd13ifvqhqg","pricing_plan_id":"free"},{"bike_id":"1b203c54-0be7-49b8-a54f-17ca79a8f7f4","system_id":"levelo_inurba_marseille","lat":43.32288,"lon":5.3827,"is_reserved":false,"is_disabled":false,"rental_uris":{"android":"levelo://app?vid=1b203c54-0be7-49b8-a54f-17ca79a8f7f4","ios":"levelo://app?vid=1b203c54-0be7-49b8-a54f-17ca79a8f7f4"},"vehicle_type_id":"4","last_reported":1691859841,"current_range_meters":20400,"station_id":"ce4bhr12rcd13ifvqhqg","pricing_plan_id":"free"},{"bike_id":"2a877c10-47b3-4336-884b-4186f2d4f096","system_id":"levelo_inurba_marseille","lat":43.32293,"lon":5.38264,"is_reserved":false,"is_disabled":false,"rental_uris":{"android":"levelo://app?vid=2a877c10-47b3-4336-884b-4186f2d4f096","ios":"levelo://app?vid=2a877c10-47b3-4336-884b-4186f2d4f096"},"vehicle_type_id":"4","last_reported":1691859841,"current_range_meters":14000,"station_id":"ce4bhr12rcd13ifvqhqg","pricing_plan_id":"free"},{"bike_id":"63b63e6c-c5a9-49f5-8d21-3106e36d3542","system_id":"levelo_inurba_marseille","lat":43.32288,"lon":5.38272,"is_reserved":false,"is_disabled":false,"rental_uris":{"android":"levelo://app?vid=63b63e6c-c5a9-49f5-8d21-3106e36d3542","ios":"levelo://app?vid=63b63e6c-c5a9-49f5-8d21-3106e36d3542"},"vehicle_type_id":"4","last_reported":1691859841,"current_range_meters":24800,"station_id":"ce4bhr12rcd13ifvqhqg","pricing_plan_id":"free"},{"bike_id":"4c0051b2-93b8-4cc5-a80a-2595421ac1f5","system_id":"levelo_inurba_marseille","lat":43.32284,"lon":5.38277,"is_reserved":false,"is_disabled":false,"rental_uris":{"android":"levelo://app?vid=4c0051b2-93b8-4cc5-a80a-2595421ac1f5","ios":"levelo://app?vid=4c0051b2-93b8-4cc5-a80a-2595421ac1f5"},"vehicle_type_id":"4","last_reported":1691859841,"current_range_meters":24800,"station_id":"ce4bhr12rcd13ifvqhqg","pricing_plan_id":"free"},{"bike_id":"ccde4fab-a619-4b85-80d1-631ae22c1186","system_id":"levelo_inurba_marseille","lat":43.32284,"lon":5.38279,"is_reserved":false,"is_disabled":false,"rental_uris":{"android":"levelo://app?vid=ccde4fab-a619-4b85-80d1-631ae22c1186","ios":"levelo://app?vid=ccde4fab-a619-4b85-80d1-631ae22c1186"},"vehicle_type_id":"4","last_reported":1691859841,"current_range_meters":18400,"station_id":"ce4bhr12rcd13ifvqhqg","pricing_plan_id":"free"},{"bike_id":"cbdb1e2e-23aa-4305-8e8f-f1f9efca0a4f","system_id":"levelo_inurba_marseille","lat":43.32286,"lon":5.3828,"is_reserved":false,"is_disabled":false,"rental_uris":{"android":"levelo://app?vid=cbdb1e2e-23aa-4305-8e8f-f1f9efca0a4f","ios":"levelo://app?vid=cbdb1e2e-23aa-4305-8e8f-f1f9efca0a4f"},"vehicle_type_id":"4","last_reported":1691859841,"current_range_meters":22400,"station_id":"ce4bhr12rcd13ifvqhqg","pricing_plan_id":"free"},{"bike_id":"454e4186-321d-4414-91ad-51d1deee69be","system_id":"levelo_inurba_marseille","lat":43.32293,"lon":5.38272,"is_reserved":false,"is_disabled":false,"rental_uris":{"android":"levelo://app?vid=454e4186-321d-4414-91ad-51d1deee69be","ios":"levelo://app?vid=454e4186-321d-4414-91ad-51d1deee69be"},"vehicle_type_id":"4","last_reported":1691859841,"current_range_meters":28800,"station_id":"ce4bhr12rcd13ifvqhqg","pricing_plan_id":"free"},{"bike_id":"89a27216-6889-475c-b194-71d37300ff08","system_id":"levelo_inurba_marseille","lat":43.32827,"lon":5.36698,"is_reserved":false,"is_disabled":false,"rental_uris":{"android":"levelo://app?vid=89a27216-6889-475c-b194-71d37300ff08","ios":"levelo://app?vid=89a27216-6889-475c-b194-71d37300ff08"},"vehicle_type_id":"4","last_reported":1691859841,"current_range_meters":19200,"station_id":"ce4bhs92rcd13ifvqi0g","pricing_plan_id":"free"},{"bike_id":"950e1524-4eab-4de4-b8aa-aab857a3d5f2","system_id":"levelo_inurba_marseille","lat":43.328371,"lon":5.366909,"is_reserved":false,"is_disabled":false,"rental_uris":{"android":"levelo://app?vid=950e1524-4eab-4de4-b8aa-aab857a3d5f2","ios":"levelo://app?vid=950e1524-4eab-4de4-b8aa-aab857a3d5f2"},"vehicle_type_id":"4","last_reported":1691859841,"current_range_meters":27200,"station_id":"ce4bhs92rcd13ifvqi0g","pricing_plan_id":"free"},{"bike_id":"dd789220-e7b5-42c1-b9dc-dc4243148021","system_id":"levelo_inurba_marseille","lat":43.297163,"lon":5.365866,"is_reserved":false,"is_disabled":false,"rental_uris":{"android":"levelo://app?vid=dd789220-e7b5-42c1-b9dc-dc4243148021","ios":"levelo://app?vid=dd789220-e7b5-42c1-b9dc-dc4243148021"},"vehicle_type_id":"4","last_reported":1691859841,"current_range_meters":31600,"station_id":"ce4bgn12rcd13ifvqbt0","pricing_plan_id":"free"},{"bike_id":"b428ddc8-83c6-453c-b5dd-cb14751b674f","system_id":"levelo_inurba_marseille","lat":43.29685,"lon":5.36954,"is_reserved":false,"is_disabled":false,"rental_uris":{"android":"levelo://app?vid=b428ddc8-83c6-453c-b5dd-cb14751b674f","ios":"levelo://app?vid=b428ddc8-83c6-453c-b5dd-cb14751b674f"},"vehicle_type_id":"4","last_reported":1691859841,"current_range_meters":0,"station_id":"","pricing_plan_id":"free"},{"bike_id":"4546f8c1-0a9e-45be-b4bd-18c11f686c5c","system_id":"levelo_inurba_marseille","lat":43.29667,"lon":5.36559,"is_reserved":false,"is_disabled":false,"rental_uris":{"android":"levelo://app?vid=4546f8c1-0a9e-45be-b4bd-18c11f686c5c","ios":"levelo://app?vid=4546f8c1-0a9e-45be-b4bd-18c11f686c5c"},"vehicle_type_id":"4","last_reported":1691859841,"current_range_meters":2400,"station_id":"","pricing_plan_id":"free"},{"bike_id":"18eb71cb-b312-48f0-99e8-99f79478d16a","system_id":"levelo_inurba_marseille","lat":43.2968,"lon":5.37291,"is_reserved":false,"is_disabled":false,"rental_uris":{"android":"levelo://app?vid=18eb71cb-b312-48f0-99e8-99f79478d16a","ios":"levelo://app?vid=18eb71cb-b312-48f0-99e8-99f79478d16a"},"vehicle_type_id":"4","last_reported":1691859841,"current_range_meters":6400,"station_id":"ce4bgk12rcd13ifvqbj0","pricing_plan_id":"free"},{"bike_id":"cb160f57-9d34-4899-9572-06001753a899","system_id":"levelo_inurba_marseille","lat":43.2968,"lon":5.37291,"is_reserved":false,"is_disabled":false,"rental_uris":{"android":"levelo://app?vid=cb160f57-9d34-4899-9572-06001753a899","ios":"levelo://app?vid=cb160f57-9d34-4899-9572-06001753a899"},"vehicle_type_id":"4","last_reported":1691859841,"current_range_meters":18400,"station_id":"ce4bgk12rcd13ifvqbj0","pricing_plan_id":"free"},{"bike_id":"0d5d0176-fcfe-4de0-9371-2dba8beca22f","system_id":"levelo_inurba_marseille","lat":43.296129,"lon":5.370777,"is_reserved":false,"is_disabled":false,"rental_uris":{"android":"levelo://app?vid=0d5d0176-fcfe-4de0-9371-2dba8beca22f","ios":"levelo://app?vid=0d5d0176-fcfe-4de0-9371-2dba8beca22f"},"vehicle_type_id":"4","last_reported":1691859841,"current_range_meters":14800,"station_id":"ce4bgnh2rcd13ifvqc0g","pricing_plan_id":"free"},{"bike_id":"26354dd3-c096-4d17-b3f7-321ad8d6e5e6","system_id":"levelo_inurba_marseille","lat":43.29573,"lon":5.367355,"is_reserved":false,"is_disabled":false,"rental_uris":{"android":"levelo://app?vid=26354dd3-c096-4d17-b3f7-321ad8d6e5e6","ios":"levelo://app?vid=26354dd3-c096-4d17-b3f7-321ad8d6e5e6"},"vehicle_type_id":"4","last_reported":1691859841,"current_range_meters":29600,"station_id":"ce4bgph2rcd13ifvqc2g","pricing_plan_id":"free"},{"bike_id":"e68fb961-4f14-4e09-ab7a-5457c25de771","system_id":"levelo_inurba_marseille","lat":43.29573,"lon":5.367355,"is_reserved":false,"is_disabled":false,"rental_uris":{"android":"levelo://app?vid=e68fb961-4f14-4e09-ab7a-5457c25de771","ios":"levelo://app?vid=e68fb961-4f14-4e09-ab7a-5457c25de771"},"vehicle_type_id":"4","last_reported":1691859841,"current_range_meters":21200,"station_id":"ce4bgph2rcd13ifvqc2g","pricing_plan_id":"free"},{"bike_id":"4dfd1c41-2305-4197-a2bf-7e65789d7ca8","system_id":"levelo_inurba_marseille","lat":43.29573,"lon":5.367355,"is_reserved":false,"is_disabled":false,"rental_uris":{"android":"levelo://app?vid=4dfd1c41-2305-4197-a2bf-7e65789d7ca8","ios":"levelo://app?vid=4dfd1c41-2305-4197-a2bf-7e65789d7ca8"},"vehicle_type_id":"4","last_reported":1691859841,"current_range_meters":8800,"station_id":"ce4bgph2rcd13ifvqc2g","pricing_plan_id":"free"},{"bike_id":"71953b1e-8085-475f-a91d-ea9d80e052c9","system_id":"levelo_inurba_marseille","lat":43.309589,"lon":5.390258,"is_reserved":false,"is_disabled":false,"rental_uris":{"android":"levelo://app?vid=71953b1e-8085-475f-a91d-ea9d80e052c9","ios":"levelo://app?vid=71953b1e-8085-475f-a91d-ea9d80e052c9"},"vehicle_type_id":"4","last_reported":1691859841,"current_range_meters":22800,"station_id":"ce4bgup2rcd13ifvqco0","pricing_plan_id":"free"},{"bike_id":"e7a8b685-c779-4053-94b2-1c6b7a48c1d7","system_id":"levelo_inurba_marseille","lat":43.296921,"lon":5.376579,"is_reserved":false,"is_disabled":false,"rental_uris":{"android":"levelo://app?vid=e7a8b685-c779-4053-94b2-1c6b7a48c1d7","ios":"levelo://app?vid=e7a8b685-c779-4053-94b2-1c6b7a48c1d7"},"vehicle_type_id":"4","last_reported":1691859841,"current_range_meters":5600,"station_id":"ce4bgkh2rcd13ifvqbl0","pricing_plan_id":"free"},{"bike_id":"df513614-97f5-4379-b184-9a7fb1d29158","system_id":"levelo_inurba_marseille","lat":43.299028,"lon":5.381509,"is_reserved":false,"is_disabled":false,"rental_uris":{"android":"levelo://app?vid=df513614-97f5-4379-b184-9a7fb1d29158","ios":"levelo://app?vid=df513614-97f5-4379-b184-9a7fb1d29158"},"vehicle_type_id":"4","last_reported":1691859841,"current_range_meters":20000,"station_id":"ce4bgj12rcd13ifvqbc0","pricing_plan_id":"free"},{"bike_id":"917cddbf-71b4-408e-8140-28213d47acbc","system_id":"levelo_inurba_marseille","lat":43.309589,"lon":5.390258,"is_reserved":false,"is_disabled":false,"rental_uris":{"android":"levelo://app?vid=917cddbf-71b4-408e-8140-28213d47acbc","ios":"levelo://app?vid=917cddbf-71b4-408e-8140-28213d47acbc"},"vehicle_type_id":"4","last_reported":1691859841,"current_range_meters":7600,"station_id":"ce4bgup2rcd13ifvqco0","pricing_plan_id":"free"},{"bike_id":"2382cfea-454e-4fd1-bef5-cd5b47bb6cdd","system_id":"levelo_inurba_marseille","lat":43.296921,"lon":5.376579,"is_reserved":false,"is_disabled":false,"rental_uris":{"android":"levelo://app?vid=2382cfea-454e-4fd1-bef5-cd5b47bb6cdd","ios":"levelo://app?vid=2382cfea-454e-4fd1-bef5-cd5b47bb6cdd"},"vehicle_type_id":"4","last_reported":1691859841,"current_range_meters":6400,"station_id":"ce4bgkh2rcd13ifvqbl0","pricing_plan_id":"free"},{"bike_id":"ad609110-d437-4840-9dcf-417bd270c377","system_id":"levelo_inurba_marseille","lat":43.309589,"lon":5.390258,"is_reserved":false,"is_disabled":false,"rental_uris":{"android":"levelo://app?vid=ad609110-d437-4840-9dcf-417bd270c377","ios":"levelo://app?vid=ad609110-d437-4840-9dcf-417bd270c377"},"vehicle_type_id":"4","last_reported":1691859841,"current_range_meters":30000,"station_id":"ce4bgup2rcd13ifvqco0","pricing_plan_id":"free"},{"bike_id":"8cc67a76-0de7-4eef-b978-32f624ffbbc4","system_id":"levelo_inurba_marseille","lat":43.298037,"lon":5.381066,"is_reserved":false,"is_disabled":false,"rental_uris":{"android":"levelo://app?vid=8cc67a76-0de7-4eef-b978-32f624ffbbc4","ios":"levelo://app?vid=8cc67a76-0de7-4eef-b978-32f624ffbbc4"},"vehicle_type_id":"4","last_reported":1691859841,"current_range_meters":26000,"station_id":"ce4bgip2rcd13ifvqbb0","pricing_plan_id":"free"},{"bike_id":"da4b7ed6-d23a-457d-b393-d041150d5531","system_id":"levelo_inurba_marseille","lat":43.298037,"lon":5.381066,"is_reserved":false,"is_disabled":false,"rental_uris":{"android":"levelo://app?vid=da4b7ed6-d23a-457d-b393-d041150d5531","ios":"levelo://app?vid=da4b7ed6-d23a-457d-b393-d041150d5531"},"vehicle_type_id":"4","last_reported":1691859841,"current_range_meters":15600,"station_id":"ce4bgip2rcd13ifvqbb0","pricing_plan_id":"free"},{"bike_id":"f26c0be1-41c7-40e5-be3b-2b8e4eeebf0a","system_id":"levelo_inurba_marseille","lat":43.298037,"lon":5.381066,"is_reserved":false,"is_disabled":false,"rental_uris":{"android":"levelo://app?vid=f26c0be1-41c7-40e5-be3b-2b8e4eeebf0a","ios":"levelo://app?vid=f26c0be1-41c7-40e5-be3b-2b8e4eeebf0a"},"vehicle_type_id":"4","last_reported":1691859841,"current_range_meters":31600,"station_id":"ce4bgip2rcd13ifvqbb0","pricing_plan_id":"free"},{"bike_id":"29216e44-9f2f-482b-a917-a5e9c42c5070","system_id":"levelo_inurba_marseille","lat":43.29578,"lon":5.37502,"is_reserved":false,"is_disabled":false,"rental_uris":{"android":"levelo://app?vid=29216e44-9f2f-482b-a917-a5e9c42c5070","ios":"levelo://app?vid=29216e44-9f2f-482b-a917-a5e9c42c5070"},"vehicle_type_id":"4","last_reported":1691859841,"current_range_meters":28400,"station_id":"ce4bgh92rcd13ifvqb50","pricing_plan_id":"free"},{"bike_id":"a4df99ce-0488-49dd-a888-94686f562e88","system_id":"levelo_inurba_marseille","lat":43.295748,"lon":5.37522,"is_reserved":false,"is_disabled":false,"rental_uris":{"android":"levelo://app?vid=a4df99ce-0488-49dd-a888-94686f562e88","ios":"levelo://app?vid=a4df99ce-0488-49dd-a888-94686f562e88"},"vehicle_type_id":"4","last_reported":1691859841,"current_range_meters":29600,"station_id":"ce4bgh92rcd13ifvqb50","pricing_plan_id":"free"},{"bike_id":"c25a0bb0-60c9-40e9-8577-1fe02d2004d7","system_id":"levelo_inurba_marseille","lat":43.296277,"lon":5.377108,"is_reserved":false,"is_disabled":false,"rental_uris":{"android":"levelo://app?vid=c25a0bb0-60c9-40e9-8577-1fe02d2004d7","ios":"levelo://app?vid=c25a0bb0-60c9-40e9-8577-1fe02d2004d7"},"vehicle_type_id":"4","last_reported":1691859841,"current_range_meters":11600,"station_id":"ce4bgi92rcd13ifvqb90","pricing_plan_id":"free"},{"bike_id":"9cae7822-cc37-4789-8bd3-9fccba47db27","system_id":"levelo_inurba_marseille","lat":43.299843,"lon":5.384797,"is_reserved":false,"is_disabled":false,"rental_uris":{"android":"levelo://app?vid=9cae7822-cc37-4789-8bd3-9fccba47db27","ios":"levelo://app?vid=9cae7822-cc37-4789-8bd3-9fccba47db27"},"vehicle_type_id":"4","last_reported":1691859841,"current_range_meters":6000,"station_id":"","pricing_plan_id":"free"},{"bike_id":"2ef1dc0f-ccae-4a21-a932-678e09e99c87","system_id":"levelo_inurba_marseille","lat":43.299707,"lon":5.384859,"is_reserved":false,"is_disabled":false,"rental_uris":{"android":"levelo://app?vid=2ef1dc0f-ccae-4a21-a932-678e09e99c87","ios":"levelo://app?vid=2ef1dc0f-ccae-4a21-a932-678e09e99c87"},"vehicle_type_id":"4","last_reported":1691859841,"current_range_meters":24000,"station_id":"ce4bgj92rcd13ifvqbd0","pricing_plan_id":"free"},{"bike_id":"19112ba8-b4d3-4596-8849-2529cce753a0","system_id":"levelo_inurba_marseille","lat":43.299717,"lon":5.384845,"is_reserved":false,"is_disabled":false,"rental_uris":{"android":"levelo://app?vid=19112ba8-b4d3-4596-8849-2529cce753a0","ios":"levelo://app?vid=19112ba8-b4d3-4596-8849-2529cce753a0"},"vehicle_type_id":"4","last_reported":1691859841,"current_range_meters":13600,"station_id":"ce4bgj92rcd13ifvqbd0","pricing_plan_id":"free"},{"bike_id":"fbe51afe-e58e-4401-bce8-142438eb5f97","system_id":"levelo_inurba_marseille","lat":43.32368,"lon":5.38878,"is_reserved":false,"is_disabled":false,"rental_uris":{"android":"levelo://app?vid=fbe51afe-e58e-4401-bce8-142438eb5f97","ios":"levelo://app?vid=fbe51afe-e58e-4401-bce8-142438eb5f97"},"vehicle_type_id":"4","last_reported":1691859841,"current_range_meters":30000,"station_id":"ce4bhqp2rcd13ifvqhog","pricing_plan_id":"free"},{"bike_id":"0aa4abac-dd3c-446a-b986-ff96ec672a99","system_id":"levelo_inurba_marseille","lat":43.32366,"lon":5.38885,"is_reserved":false,"is_disabled":false,"rental_uris":{"android":"levelo://app?vid=0aa4abac-dd3c-446a-b986-ff96ec672a99","ios":"levelo://app?vid=0aa4abac-dd3c-446a-b986-ff96ec672a99"},"vehicle_type_id":"4","last_reported":1691859841,"current_range_meters":28000,"station_id":"ce4bhqp2rcd13ifvqhog","pricing_plan_id":"free"},{"bike_id":"a7758e93-92f2-4ba1-8882-417901e6037c","system_id":"levelo_inurba_marseille","lat":43.32366,"lon":5.38886,"is_reserved":false,"is_disabled":false,"rental_uris":{"android":"levelo://app?vid=a7758e93-92f2-4ba1-8882-417901e6037c","ios":"levelo://app?vid=a7758e93-92f2-4ba1-8882-417901e6037c"},"vehicle_type_id":"4","last_reported":1691859841,"current_range_meters":8800,"station_id":"ce4bhqp2rcd13ifvqhog","pricing_plan_id":"free"},{"bike_id":"511a61f5-26fd-44ad-b1e0-464a714d6cd5","system_id":"levelo_inurba_marseille","lat":43.29602,"lon":5.381084,"is_reserved":false,"is_disabled":false,"rental_uris":{"android":"levelo://app?vid=511a61f5-26fd-44ad-b1e0-464a714d6cd5","ios":"levelo://app?vid=511a61f5-26fd-44ad-b1e0-464a714d6cd5"},"vehicle_type_id":"4","last_reported":1691859841,"current_range_meters":19200,"station_id":"ce4bgl12rcd13ifvqbo0","pricing_plan_id":"free"},{"bike_id":"4a0f080b-965e-483a-b0d4-45a4dad69099","system_id":"levelo_inurba_marseille","lat":43.29602,"lon":5.381084,"is_reserved":false,"is_disabled":false,"rental_uris":{"android":"levelo://app?vid=4a0f080b-965e-483a-b0d4-45a4dad69099","ios":"levelo://app?vid=4a0f080b-965e-483a-b0d4-45a4dad69099"},"vehicle_type_id":"4","last_reported":1691859841,"current_range_meters":16400,"station_id":"ce4bgl12rcd13ifvqbo0","pricing_plan_id":"free"},{"bike_id":"dbe406a0-e31d-4174-932b-0d8d584d17c2","system_id":"levelo_inurba_marseille","lat":43.292749,"lon":5.368398,"is_reserved":false,"is_disabled":false,"rental_uris":{"android":"levelo://app?vid=dbe406a0-e31d-4174-932b-0d8d584d17c2","ios":"levelo://app?vid=dbe406a0-e31d-4174-932b-0d8d584d17c2"},"vehicle_type_id":"4","last_reported":1691859841,"current_range_meters":31200,"station_id":"ce4bhbp2rcd13ifvqesg","pricing_plan_id":"free"},{"bike_id":"d99bd6d4-7b4f-4799-a259-ed9c87606853","system_id":"levelo_inurba_marseille","lat":43.292749,"lon":5.368402,"is_reserved":false,"is_disabled":false,"rental_uris":{"android":"levelo://app?vid=d99bd6d4-7b4f-4799-a259-ed9c87606853","ios":"levelo://app?vid=d99bd6d4-7b4f-4799-a259-ed9c87606853"},"vehicle_type_id":"4","last_reported":1691859841,"current_range_meters":3600,"station_id":"ce4bhbp2rcd13ifvqesg","pricing_plan_id":"free"},{"bike_id":"efee9cdd-9e8a-4d51-ade9-5766867b39d2","system_id":"levelo_inurba_marseille","lat":43.293009,"lon":5.374584,"is_reserved":false,"is_disabled":false,"rental_uris":{"android":"levelo://app?vid=efee9cdd-9e8a-4d51-ade9-5766867b39d2","ios":"levelo://app?vid=efee9cdd-9e8a-4d51-ade9-5766867b39d2"},"vehicle_type_id":"4","last_reported":1691859841,"current_range_meters":21200,"station_id":"ce4bgi12rcd13ifvqb70","pricing_plan_id":"free"},{"bike_id":"a2a256af-533b-4744-b311-ad85728d5762","system_id":"levelo_inurba_marseille","lat":43.305994,"lon":5.393687,"is_reserved":false,"is_disabled":false,"rental_uris":{"android":"levelo://app?vid=a2a256af-533b-4744-b311-ad85728d5762","ios":"levelo://app?vid=a2a256af-533b-4744-b311-ad85728d5762"},"vehicle_type_id":"4","last_reported":1691859841,"current_range_meters":31200,"station_id":"ce4bh0p2rcd13ifvqd80","pricing_plan_id":"free"},{"bike_id":"8db904c1-ac95-49f5-bae8-baf30b8576ec","system_id":"levelo_inurba_marseille","lat":43.30096,"lon":5.39065,"is_reserved":false,"is_disabled":false,"rental_uris":{"android":"levelo://app?vid=8db904c1-ac95-49f5-bae8-baf30b8576ec","ios":"levelo://app?vid=8db904c1-ac95-49f5-bae8-baf30b8576ec"},"vehicle_type_id":"4","last_reported":1691859841,"current_range_meters":25200,"station_id":"","pricing_plan_id":"free"},{"bike_id":"5d264583-795b-4671-b77a-b04dd349c8c5","system_id":"levelo_inurba_marseille","lat":43.292311,"lon":5.360731,"is_reserved":false,"is_disabled":false,"rental_uris":{"android":"levelo://app?vid=5d264583-795b-4671-b77a-b04dd349c8c5","ios":"levelo://app?vid=5d264583-795b-4671-b77a-b04dd349c8c5"},"vehicle_type_id":"4","last_reported":1691859841,"current_range_meters":27200,"station_id":"ce4bhbh2rcd13ifvqeqg","pricing_plan_id":"free"},{"bike_id":"a5060047-3856-49ca-beb8-0db8691f1c68","system_id":"levelo_inurba_marseille","lat":43.292311,"lon":5.360731,"is_reserved":false,"is_disabled":false,"rental_uris":{"android":"levelo://app?vid=a5060047-3856-49ca-beb8-0db8691f1c68","ios":"levelo://app?vid=a5060047-3856-49ca-beb8-0db8691f1c68"},"vehicle_type_id":"4","last_reported":1691859841,"current_range_meters":26400,"station_id":"ce4bhbh2rcd13ifvqeqg","pricing_plan_id":"free"},{"bike_id":"cbf77e21-d349-465d-987c-b83eb83caa3a","system_id":"levelo_inurba_marseille","lat":43.292311,"lon":5.360731,"is_reserved":false,"is_disabled":false,"rental_uris":{"android":"levelo://app?vid=cbf77e21-d349-465d-987c-b83eb83caa3a","ios":"levelo://app?vid=cbf77e21-d349-465d-987c-b83eb83caa3a"},"vehicle_type_id":"4","last_reported":1691859841,"current_range_meters":7600,"station_id":"ce4bhbh2rcd13ifvqeqg","pricing_plan_id":"free"},{"bike_id":"6ef57ab7-3901-4867-bbcb-99bfd5d2b41c","system_id":"levelo_inurba_marseille","lat":43.30078,"lon":5.39077,"is_reserved":false,"is_disabled":false,"rental_uris":{"android":"levelo://app?vid=6ef57ab7-3901-4867-bbcb-99bfd5d2b41c","ios":"levelo://app?vid=6ef57ab7-3901-4867-bbcb-99bfd5d2b41c"},"vehicle_type_id":"4","last_reported":1691859841,"current_range_meters":0,"station_id":"ce4bh192rcd13ifvqdb0","pricing_plan_id":"free"},{"bike_id":"2888d2c2-e6b9-433a-b73a-3c17e5f90584","system_id":"levelo_inurba_marseille","lat":43.309038,"lon":5.396546,"is_reserved":false,"is_disabled":false,"rental_uris":{"android":"levelo://app?vid=2888d2c2-e6b9-433a-b73a-3c17e5f90584","ios":"levelo://app?vid=2888d2c2-e6b9-433a-b73a-3c17e5f90584"},"vehicle_type_id":"4","last_reported":1691859841,"current_range_meters":8000,"station_id":"ce4bh012rcd13ifvqcv0","pricing_plan_id":"free"},{"bike_id":"b9b66caf-befc-458b-8d6c-f92205f59394","system_id":"levelo_inurba_marseille","lat":43.29529,"lon":5.385581,"is_reserved":false,"is_disabled":false,"rental_uris":{"android":"levelo://app?vid=b9b66caf-befc-458b-8d6c-f92205f59394","ios":"levelo://app?vid=b9b66caf-befc-458b-8d6c-f92205f59394"},"vehicle_type_id":"4","last_reported":1691859841,"current_range_meters":29200,"station_id":"ce4bgih2rcd13ifvqba0","pricing_plan_id":"free"},{"bike_id":"9134377e-f76f-43e4-80b9-bf849f5e65a7","system_id":"levelo_inurba_marseille","lat":43.29529,"lon":5.385581,"is_reserved":false,"is_disabled":false,"rental_uris":{"android":"levelo://app?vid=9134377e-f76f-43e4-80b9-bf849f5e65a7","ios":"levelo://app?vid=9134377e-f76f-43e4-80b9-bf849f5e65a7"},"vehicle_type_id":"4","last_reported":1691859841,"current_range_meters":30400,"station_id":"ce4bgih2rcd13ifvqba0","pricing_plan_id":"free"},{"bike_id":"8e33822a-057c-4e4e-bb82-c9346dbb75d2","system_id":"levelo_inurba_marseille","lat":43.29529,"lon":5.385581,"is_reserved":false,"is_disabled":false,"rental_uris":{"android":"levelo://app?vid=8e33822a-057c-4e4e-bb82-c9346dbb75d2","ios":"levelo://app?vid=8e33822a-057c-4e4e-bb82-c9346dbb75d2"},"vehicle_type_id":"4","last_reported":1691859841,"current_range_meters":20000,"station_id":"ce4bgih2rcd13ifvqba0","pricing_plan_id":"free"},{"bike_id":"27d339c5-606c-4e60-b5cd-d470a91397f6","system_id":"levelo_inurba_marseille","lat":43.29529,"lon":5.385581,"is_reserved":false,"is_disabled":false,"rental_uris":{"android":"levelo://app?vid=27d339c5-606c-4e60-b5cd-d470a91397f6","ios":"levelo://app?vid=27d339c5-606c-4e60-b5cd-d470a91397f6"},"vehicle_type_id":"4","last_reported":1691859841,"current_range_meters":19200,"station_id":"ce4bgih2rcd13ifvqba0","pricing_plan_id":"free"},{"bike_id":"c3852713-385a-4943-af4f-a40f30add2d1","system_id":"levelo_inurba_marseille","lat":43.290624,"lon":5.359245,"is_reserved":false,"is_disabled":false,"rental_uris":{"android":"levelo://app?vid=c3852713-385a-4943-af4f-a40f30add2d1","ios":"levelo://app?vid=c3852713-385a-4943-af4f-a40f30add2d1"},"vehicle_type_id":"4","last_reported":1691859841,"current_range_meters":800,"station_id":"ce4bha92rcd13ifvqeg0","pricing_plan_id":"free"},{"bike_id":"dd9ab4b8-550b-489f-ae61-772eb5d5e5d7","system_id":"levelo_inurba_marseille","lat":43.290631,"lon":5.359244,"is_reserved":false,"is_disabled":false,"rental_uris":{"android":"levelo://app?vid=dd9ab4b8-550b-489f-ae61-772eb5d5e5d7","ios":"levelo://app?vid=dd9ab4b8-550b-489f-ae61-772eb5d5e5d7"},"vehicle_type_id":"4","last_reported":1691859841,"current_range_meters":31600,"station_id":"ce4bha92rcd13ifvqeg0","pricing_plan_id":"free"},{"bike_id":"55ea17f0-512a-472c-9db8-7dfb9d187cf4","system_id":"levelo_inurba_marseille","lat":43.290631,"lon":5.359244,"is_reserved":false,"is_disabled":false,"rental_uris":{"android":"levelo://app?vid=55ea17f0-512a-472c-9db8-7dfb9d187cf4","ios":"levelo://app?vid=55ea17f0-512a-472c-9db8-7dfb9d187cf4"},"vehicle_type_id":"4","last_reported":1691859841,"current_range_meters":26000,"station_id":"ce4bha92rcd13ifvqeg0","pricing_plan_id":"free"},{"bike_id":"3f4bf4aa-39fa-4aef-aa4a-7ea732a80f4a","system_id":"levelo_inurba_marseille","lat":43.290631,"lon":5.359244,"is_reserved":false,"is_disabled":false,"rental_uris":{"android":"levelo://app?vid=3f4bf4aa-39fa-4aef-aa4a-7ea732a80f4a","ios":"levelo://app?vid=3f4bf4aa-39fa-4aef-aa4a-7ea732a80f4a"},"vehicle_type_id":"4","last_reported":1691859841,"current_range_meters":14800,"station_id":"ce4bha92rcd13ifvqeg0","pricing_plan_id":"free"},{"bike_id":"294a5aa4-f8f1-49fd-bdcd-556da983630e","system_id":"levelo_inurba_marseille","lat":43.290624,"lon":5.359245,"is_reserved":false,"is_disabled":false,"rental_uris":{"android":"levelo://app?vid=294a5aa4-f8f1-49fd-bdcd-556da983630e","ios":"levelo://app?vid=294a5aa4-f8f1-49fd-bdcd-556da983630e"},"vehicle_type_id":"4","last_reported":1691859841,"current_range_meters":30800,"station_id":"ce4bha92rcd13ifvqeg0","pricing_plan_id":"free"},{"bike_id":"3ccc779a-cd94-42c0-8b7e-97b956f75427","system_id":"levelo_inurba_marseille","lat":43.294153,"lon":5.386305,"is_reserved":false,"is_disabled":false,"rental_uris":{"android":"levelo://app?vid=3ccc779a-cd94-42c0-8b7e-97b956f75427","ios":"levelo://app?vid=3ccc779a-cd94-42c0-8b7e-97b956f75427"},"vehicle_type_id":"4","last_reported":1691859841,"current_range_meters":1600,"station_id":"ce4bh2h2rcd13ifvqdh0","pricing_plan_id":"free"},{"bike_id":"c73de739-07b3-4071-9f26-1a82b6ddb87d","system_id":"levelo_inurba_marseille","lat":43.294153,"lon":5.386305,"is_reserved":false,"is_disabled":false,"rental_uris":{"android":"levelo://app?vid=c73de739-07b3-4071-9f26-1a82b6ddb87d","ios":"levelo://app?vid=c73de739-07b3-4071-9f26-1a82b6ddb87d"},"vehicle_type_id":"4","last_reported":1691859841,"current_range_meters":800,"station_id":"ce4bh2h2rcd13ifvqdh0","pricing_plan_id":"free"},{"bike_id":"99e914b1-fd9f-46c2-a274-b4f0e417eb18","system_id":"levelo_inurba_marseille","lat":43.29417,"lon":5.38621,"is_reserved":false,"is_disabled":false,"rental_uris":{"android":"levelo://app?vid=99e914b1-fd9f-46c2-a274-b4f0e417eb18","ios":"levelo://app?vid=99e914b1-fd9f-46c2-a274-b4f0e417eb18"},"vehicle_type_id":"4","last_reported":1691859841,"current_range_meters":800,"station_id":"ce4bh2h2rcd13ifvqdh0","pricing_plan_id":"free"},{"bike_id":"3785fbaf-fa4c-468e-9c93-19ebb2900c3a","system_id":"levelo_inurba_marseille","lat":43.289184,"lon":5.366408,"is_reserved":false,"is_disabled":false,"rental_uris":{"android":"levelo://app?vid=3785fbaf-fa4c-468e-9c93-19ebb2900c3a","ios":"levelo://app?vid=3785fbaf-fa4c-468e-9c93-19ebb2900c3a"},"vehicle_type_id":"4","last_reported":1691859841,"current_range_meters":26000,"station_id":"ce4bhap2rcd13ifvqek0","pricing_plan_id":"free"},{"bike_id":"7e8b01b4-b324-44a0-af6a-e4402037532b","system_id":"levelo_inurba_marseille","lat":43.29127,"lon":5.37949,"is_reserved":false,"is_disabled":false,"rental_uris":{"android":"levelo://app?vid=7e8b01b4-b324-44a0-af6a-e4402037532b","ios":"levelo://app?vid=7e8b01b4-b324-44a0-af6a-e4402037532b"},"vehicle_type_id":"4","last_reported":1691859841,"current_range_meters":11200,"station_id":"ce4bgi92rcd13ifvqb90","pricing_plan_id":"free"},{"bike_id":"79fed9a0-cb6b-45aa-974e-e4ad4f054022","system_id":"levelo_inurba_marseille","lat":43.28936,"lon":5.36638,"is_reserved":false,"is_disabled":false,"rental_uris":{"android":"levelo://app?vid=79fed9a0-cb6b-45aa-974e-e4ad4f054022","ios":"levelo://app?vid=79fed9a0-cb6b-45aa-974e-e4ad4f054022"},"vehicle_type_id":"4","last_reported":1691859841,"current_range_meters":24400,"station_id":"ce4bhap2rcd13ifvqek0","pricing_plan_id":"free"},{"bike_id":"e2c7f5e5-f35c-4586-9c31-604294e49920","system_id":"levelo_inurba_marseille","lat":43.289184,"lon":5.366408,"is_reserved":false,"is_disabled":false,"rental_uris":{"android":"levelo://app?vid=e2c7f5e5-f35c-4586-9c31-604294e49920","ios":"levelo://app?vid=e2c7f5e5-f35c-4586-9c31-604294e49920"},"vehicle_type_id":"4","last_reported":1691859841,"current_range_meters":30000,"station_id":"ce4bhap2rcd13ifvqek0","pricing_plan_id":"free"},{"bike_id":"318da459-f029-410f-8e16-a9c3539a6bd4","system_id":"levelo_inurba_marseille","lat":43.28928,"lon":5.364,"is_reserved":false,"is_disabled":false,"rental_uris":{"android":"levelo://app?vid=318da459-f029-410f-8e16-a9c3539a6bd4","ios":"levelo://app?vid=318da459-f029-410f-8e16-a9c3539a6bd4"},"vehicle_type_id":"4","last_reported":1691859841,"current_range_meters":22000,"station_id":"ce4bhc92rcd13ifvqetg","pricing_plan_id":"free"},{"bike_id":"99f90f28-6b34-49ff-a998-01fb35198cf7","system_id":"levelo_inurba_marseille","lat":43.289468,"lon":5.363719,"is_reserved":false,"is_disabled":false,"rental_uris":{"android":"levelo://app?vid=99f90f28-6b34-49ff-a998-01fb35198cf7","ios":"levelo://app?vid=99f90f28-6b34-49ff-a998-01fb35198cf7"},"vehicle_type_id":"4","last_reported":1691859841,"current_range_meters":10800,"station_id":"ce4bhc92rcd13ifvqetg","pricing_plan_id":"free"},{"bike_id":"ebe62ede-6ee2-4e69-ab27-b2db25f209f0","system_id":"levelo_inurba_marseille","lat":43.304274,"lon":5.397513,"is_reserved":false,"is_disabled":false,"rental_uris":{"android":"levelo://app?vid=ebe62ede-6ee2-4e69-ab27-b2db25f209f0","ios":"levelo://app?vid=ebe62ede-6ee2-4e69-ab27-b2db25f209f0"},"vehicle_type_id":"4","last_reported":1691859841,"current_range_meters":0,"station_id":"ce4bh092rcd13ifvqd20","pricing_plan_id":"free"},{"bike_id":"cf151b72-401f-4886-85e3-996de6dd7211","system_id":"levelo_inurba_marseille","lat":43.292642,"lon":5.384254,"is_reserved":false,"is_disabled":false,"rental_uris":{"android":"levelo://app?vid=cf151b72-401f-4886-85e3-996de6dd7211","ios":"levelo://app?vid=cf151b72-401f-4886-85e3-996de6dd7211"},"vehicle_type_id":"4","last_reported":1691859841,"current_range_meters":27200,"station_id":"ce4bh692rcd13ifvqea0","pricing_plan_id":"free"},{"bike_id":"4145a897-49a7-4010-8851-5a17ebe05233","system_id":"levelo_inurba_marseille","lat":43.292642,"lon":5.384254,"is_reserved":false,"is_disabled":false,"rental_uris":{"android":"levelo://app?vid=4145a897-49a7-4010-8851-5a17ebe05233","ios":"levelo://app?vid=4145a897-49a7-4010-8851-5a17ebe05233"},"vehicle_type_id":"4","last_reported":1691859841,"current_range_meters":15600,"station_id":"ce4bh692rcd13ifvqea0","pricing_plan_id":"free"},{"bike_id":"927ce4e3-a2c7-4eef-acc1-477742aa9752","system_id":"levelo_inurba_marseille","lat":43.29261,"lon":5.38439,"is_reserved":false,"is_disabled":false,"rental_uris":{"android":"levelo://app?vid=927ce4e3-a2c7-4eef-acc1-477742aa9752","ios":"levelo://app?vid=927ce4e3-a2c7-4eef-acc1-477742aa9752"},"vehicle_type_id":"4","last_reported":1691859841,"current_range_meters":15200,"station_id":"ce4bh692rcd13ifvqea0","pricing_plan_id":"free"},{"bike_id":"73ca765c-9ca4-4d74-a0de-07ad8e6141dc","system_id":"levelo_inurba_marseille","lat":43.29261,"lon":5.38445,"is_reserved":false,"is_disabled":false,"rental_uris":{"android":"levelo://app?vid=73ca765c-9ca4-4d74-a0de-07ad8e6141dc","ios":"levelo://app?vid=73ca765c-9ca4-4d74-a0de-07ad8e6141dc"},"vehicle_type_id":"4","last_reported":1691859841,"current_range_meters":23200,"station_id":"ce4bh692rcd13ifvqea0","pricing_plan_id":"free"},{"bike_id":"10658d8e-9c38-4e77-b15f-ac7ec80b9dd6","system_id":"levelo_inurba_marseille","lat":43.292642,"lon":5.384254,"is_reserved":false,"is_disabled":false,"rental_uris":{"android":"levelo://app?vid=10658d8e-9c38-4e77-b15f-ac7ec80b9dd6","ios":"levelo://app?vid=10658d8e-9c38-4e77-b15f-ac7ec80b9dd6"},"vehicle_type_id":"4","last_reported":1691859841,"current_range_meters":12800,"station_id":"ce4bh692rcd13ifvqea0","pricing_plan_id":"free"},{"bike_id":"d513a7e2-13a0-455f-8ca4-7a1fe06f1e6a","system_id":"levelo_inurba_marseille","lat":43.29257,"lon":5.38445,"is_reserved":false,"is_disabled":false,"rental_uris":{"android":"levelo://app?vid=d513a7e2-13a0-455f-8ca4-7a1fe06f1e6a","ios":"levelo://app?vid=d513a7e2-13a0-455f-8ca4-7a1fe06f1e6a"},"vehicle_type_id":"4","last_reported":1691859841,"current_range_meters":10800,"station_id":"ce4bh692rcd13ifvqea0","pricing_plan_id":"free"},{"bike_id":"270386ed-7149-4cc1-a1ab-6b4e5093f9db","system_id":"levelo_inurba_marseille","lat":43.29254,"lon":5.38444,"is_reserved":false,"is_disabled":false,"rental_uris":{"android":"levelo://app?vid=270386ed-7149-4cc1-a1ab-6b4e5093f9db","ios":"levelo://app?vid=270386ed-7149-4cc1-a1ab-6b4e5093f9db"},"vehicle_type_id":"4","last_reported":1691859841,"current_range_meters":22000,"station_id":"ce4bh692rcd13ifvqea0","pricing_plan_id":"free"},{"bike_id":"69c23820-b8c4-4b33-a6c2-28beb4ed1d2a","system_id":"levelo_inurba_marseille","lat":43.330357,"lon":5.38912,"is_reserved":false,"is_disabled":false,"rental_uris":{"android":"levelo://app?vid=69c23820-b8c4-4b33-a6c2-28beb4ed1d2a","ios":"levelo://app?vid=69c23820-b8c4-4b33-a6c2-28beb4ed1d2a"},"vehicle_type_id":"4","last_reported":1691859841,"current_range_meters":12800,"station_id":"","pricing_plan_id":"free"},{"bike_id":"455260f5-201e-45ac-8473-9f69d25d2f7d","system_id":"levelo_inurba_marseille","lat":43.33044,"lon":5.3891,"is_reserved":false,"is_disabled":false,"rental_uris":{"android":"levelo://app?vid=455260f5-201e-45ac-8473-9f69d25d2f7d","ios":"levelo://app?vid=455260f5-201e-45ac-8473-9f69d25d2f7d"},"vehicle_type_id":"4","last_reported":1691859841,"current_range_meters":11200,"station_id":"ce4bhr92rcd13ifvqhrg","pricing_plan_id":"free"},{"bike_id":"892867ae-c845-473e-87fc-2b3f5701ecf4","system_id":"levelo_inurba_marseille","lat":43.29005,"lon":5.35616,"is_reserved":false,"is_disabled":false,"rental_uris":{"android":"levelo://app?vid=892867ae-c845-473e-87fc-2b3f5701ecf4","ios":"levelo://app?vid=892867ae-c845-473e-87fc-2b3f5701ecf4"},"vehicle_type_id":"4","last_reported":1691859841,"current_range_meters":18800,"station_id":"ce4bhb92rcd13ifvqen0","pricing_plan_id":"free"},{"bike_id":"d92191b5-3897-428d-989c-4b986c7a7e64","system_id":"levelo_inurba_marseille","lat":43.28999,"lon":5.35612,"is_reserved":false,"is_disabled":false,"rental_uris":{"android":"levelo://app?vid=d92191b5-3897-428d-989c-4b986c7a7e64","ios":"levelo://app?vid=d92191b5-3897-428d-989c-4b986c7a7e64"},"vehicle_type_id":"4","last_reported":1691859841,"current_range_meters":18800,"station_id":"ce4bhb92rcd13ifvqen0","pricing_plan_id":"free"},{"bike_id":"9819f5d9-bbe5-4599-b1ff-7d4a4a6599d8","system_id":"levelo_inurba_marseille","lat":43.29099,"lon":5.38112,"is_reserved":false,"is_disabled":false,"rental_uris":{"android":"levelo://app?vid=9819f5d9-bbe5-4599-b1ff-7d4a4a6599d8","ios":"levelo://app?vid=9819f5d9-bbe5-4599-b1ff-7d4a4a6599d8"},"vehicle_type_id":"4","last_reported":1691859841,"current_range_meters":27600,"station_id":"","pricing_plan_id":"free"},{"bike_id":"a9d47165-33a2-497a-a183-17fe519432a3","system_id":"levelo_inurba_marseille","lat":43.297815,"lon":5.393548,"is_reserved":false,"is_disabled":false,"rental_uris":{"android":"levelo://app?vid=a9d47165-33a2-497a-a183-17fe519432a3","ios":"levelo://app?vid=a9d47165-33a2-497a-a183-17fe519432a3"},"vehicle_type_id":"4","last_reported":1691859841,"current_range_meters":20400,"station_id":"chh1huq6cuj3fo74tm60","pricing_plan_id":"free"},{"bike_id":"1756142a-dbb9-4985-9149-fdbb46dc3f51","system_id":"levelo_inurba_marseille","lat":43.297815,"lon":5.393548,"is_reserved":false,"is_disabled":false,"rental_uris":{"android":"levelo://app?vid=1756142a-dbb9-4985-9149-fdbb46dc3f51","ios":"levelo://app?vid=1756142a-dbb9-4985-9149-fdbb46dc3f51"},"vehicle_type_id":"4","last_reported":1691859841,"current_range_meters":29200,"station_id":"chh1huq6cuj3fo74tm60","pricing_plan_id":"free"},{"bike_id":"b0f34892-715b-4f0d-a53a-3b3d5238bbdc","system_id":"levelo_inurba_marseille","lat":43.29518,"lon":5.3906,"is_reserved":false,"is_disabled":false,"rental_uris":{"android":"levelo://app?vid=b0f34892-715b-4f0d-a53a-3b3d5238bbdc","ios":"levelo://app?vid=b0f34892-715b-4f0d-a53a-3b3d5238bbdc"},"vehicle_type_id":"4","last_reported":1691859841,"current_range_meters":25200,"station_id":"","pricing_plan_id":"free"},{"bike_id":"bba73fc3-52be-486f-a262-205ba033b88c","system_id":"levelo_inurba_marseille","lat":43.2901,"lon":5.381269,"is_reserved":false,"is_disabled":false,"rental_uris":{"android":"levelo://app?vid=bba73fc3-52be-486f-a262-205ba033b88c","ios":"levelo://app?vid=bba73fc3-52be-486f-a262-205ba033b88c"},"vehicle_type_id":"4","last_reported":1691859841,"current_range_meters":27200,"station_id":"ce4bh4p2rcd13ifvqe1g","pricing_plan_id":"free"},{"bike_id":"7ac4ad57-e01e-49fa-818c-cc2e91fa59f6","system_id":"levelo_inurba_marseille","lat":43.33763,"lon":5.37498,"is_reserved":false,"is_disabled":false,"rental_uris":{"android":"levelo://app?vid=7ac4ad57-e01e-49fa-818c-cc2e91fa59f6","ios":"levelo://app?vid=7ac4ad57-e01e-49fa-818c-cc2e91fa59f6"},"vehicle_type_id":"4","last_reported":1691859841,"current_range_meters":4000,"station_id":"","pricing_plan_id":"free"},{"bike_id":"c8f0d792-1564-41aa-a035-1b55a0772be3","system_id":"levelo_inurba_marseille","lat":43.301117,"lon":5.398795,"is_reserved":false,"is_disabled":false,"rental_uris":{"android":"levelo://app?vid=c8f0d792-1564-41aa-a035-1b55a0772be3","ios":"levelo://app?vid=c8f0d792-1564-41aa-a035-1b55a0772be3"},"vehicle_type_id":"4","last_reported":1691859841,"current_range_meters":30000,"station_id":"ce4bh0h2rcd13ifvqd40","pricing_plan_id":"free"},{"bike_id":"d3d99da2-869b-4ed4-9925-bd10bf705479","system_id":"levelo_inurba_marseille","lat":43.286961,"lon":5.373785,"is_reserved":false,"is_disabled":false,"rental_uris":{"android":"levelo://app?vid=d3d99da2-869b-4ed4-9925-bd10bf705479","ios":"levelo://app?vid=d3d99da2-869b-4ed4-9925-bd10bf705479"},"vehicle_type_id":"4","last_reported":1691859841,"current_range_meters":5200,"station_id":"ce4bh3p2rcd13ifvqdq0","pricing_plan_id":"free"},{"bike_id":"915f802e-f31b-4c71-8de0-2a5fc39e5970","system_id":"levelo_inurba_marseille","lat":43.32994,"lon":5.39403,"is_reserved":false,"is_disabled":false,"rental_uris":{"android":"levelo://app?vid=915f802e-f31b-4c71-8de0-2a5fc39e5970","ios":"levelo://app?vid=915f802e-f31b-4c71-8de0-2a5fc39e5970"},"vehicle_type_id":"4","last_reported":1691859841,"current_range_meters":2800,"station_id":"","pricing_plan_id":"free"},{"bike_id":"b3e4fa8d-acc9-4e0b-abfa-c5378fcdfec1","system_id":"levelo_inurba_marseille","lat":43.286961,"lon":5.373785,"is_reserved":false,"is_disabled":false,"rental_uris":{"android":"levelo://app?vid=b3e4fa8d-acc9-4e0b-abfa-c5378fcdfec1","ios":"levelo://app?vid=b3e4fa8d-acc9-4e0b-abfa-c5378fcdfec1"},"vehicle_type_id":"4","last_reported":1691859841,"current_range_meters":30000,"station_id":"ce4bh3p2rcd13ifvqdq0","pricing_plan_id":"free"},{"bike_id":"e73eaa10-b96a-4c75-b06e-d20fdf329c16","system_id":"levelo_inurba_marseille","lat":43.286961,"lon":5.373785,"is_reserved":false,"is_disabled":false,"rental_uris":{"android":"levelo://app?vid=e73eaa10-b96a-4c75-b06e-d20fdf329c16","ios":"levelo://app?vid=e73eaa10-b96a-4c75-b06e-d20fdf329c16"},"vehicle_type_id":"4","last_reported":1691859841,"current_range_meters":20400,"station_id":"ce4bh3p2rcd13ifvqdq0","pricing_plan_id":"free"},{"bike_id":"79ee01c5-282e-450c-a27d-0d1a703bfbc3","system_id":"levelo_inurba_marseille","lat":43.295196,"lon":5.39397,"is_reserved":false,"is_disabled":false,"rental_uris":{"android":"levelo://app?vid=79ee01c5-282e-450c-a27d-0d1a703bfbc3","ios":"levelo://app?vid=79ee01c5-282e-450c-a27d-0d1a703bfbc3"},"vehicle_type_id":"4","last_reported":1691859841,"current_range_meters":18000,"station_id":"ce4bh292rcd13ifvqdf0","pricing_plan_id":"free"},{"bike_id":"1b6c7922-fb20-4914-b6a3-2b88d6316d61","system_id":"levelo_inurba_marseille","lat":43.286593,"lon":5.363346,"is_reserved":false,"is_disabled":false,"rental_uris":{"android":"levelo://app?vid=1b6c7922-fb20-4914-b6a3-2b88d6316d61","ios":"levelo://app?vid=1b6c7922-fb20-4914-b6a3-2b88d6316d61"},"vehicle_type_id":"4","last_reported":1691859841,"current_range_meters":8000,"station_id":"ce4bhah2rcd13ifvqej0","pricing_plan_id":"free"},{"bike_id":"bc3bd300-5b85-4df0-bf97-fb58afdb2430","system_id":"levelo_inurba_marseille","lat":43.286961,"lon":5.373785,"is_reserved":false,"is_disabled":false,"rental_uris":{"android":"levelo://app?vid=bc3bd300-5b85-4df0-bf97-fb58afdb2430","ios":"levelo://app?vid=bc3bd300-5b85-4df0-bf97-fb58afdb2430"},"vehicle_type_id":"4","last_reported":1691859841,"current_range_meters":9200,"station_id":"ce4bh3p2rcd13ifvqdq0","pricing_plan_id":"free"},{"bike_id":"65d3ffdb-9a4b-40f2-a0a7-a8146baaf68f","system_id":"levelo_inurba_marseille","lat":43.286961,"lon":5.373785,"is_reserved":false,"is_disabled":false,"rental_uris":{"android":"levelo://app?vid=65d3ffdb-9a4b-40f2-a0a7-a8146baaf68f","ios":"levelo://app?vid=65d3ffdb-9a4b-40f2-a0a7-a8146baaf68f"},"vehicle_type_id":"4","last_reported":1691859841,"current_range_meters":28800,"station_id":"ce4bh3p2rcd13ifvqdq0","pricing_plan_id":"free"},{"bike_id":"75199276-b705-4ad7-b6a9-49aeaa84628a","system_id":"levelo_inurba_marseille","lat":43.286591,"lon":5.363346,"is_reserved":false,"is_disabled":false,"rental_uris":{"android":"levelo://app?vid=75199276-b705-4ad7-b6a9-49aeaa84628a","ios":"levelo://app?vid=75199276-b705-4ad7-b6a9-49aeaa84628a"},"vehicle_type_id":"4","last_reported":1691859841,"current_range_meters":31200,"station_id":"ce4bhah2rcd13ifvqej0","pricing_plan_id":"free"},{"bike_id":"378a9631-5db4-45cf-80af-5219f9422cdc","system_id":"levelo_inurba_marseille","lat":43.286961,"lon":5.373785,"is_reserved":false,"is_disabled":false,"rental_uris":{"android":"levelo://app?vid=378a9631-5db4-45cf-80af-5219f9422cdc","ios":"levelo://app?vid=378a9631-5db4-45cf-80af-5219f9422cdc"},"vehicle_type_id":"4","last_reported":1691859841,"current_range_meters":21600,"station_id":"ce4bh3p2rcd13ifvqdq0","pricing_plan_id":"free"},{"bike_id":"5b8bc1f0-37fd-42cd-8b00-6817727e4b32","system_id":"levelo_inurba_marseille","lat":43.286961,"lon":5.373785,"is_reserved":false,"is_disabled":false,"rental_uris":{"android":"levelo://app?vid=5b8bc1f0-37fd-42cd-8b00-6817727e4b32","ios":"levelo://app?vid=5b8bc1f0-37fd-42cd-8b00-6817727e4b32"},"vehicle_type_id":"4","last_reported":1691859841,"current_range_meters":15600,"station_id":"ce4bh3p2rcd13ifvqdq0","pricing_plan_id":"free"},{"bike_id":"f62e1356-02e1-443f-b47e-f57105a388f9","system_id":"levelo_inurba_marseille","lat":43.295194,"lon":5.39397,"is_reserved":false,"is_disabled":false,"rental_uris":{"android":"levelo://app?vid=f62e1356-02e1-443f-b47e-f57105a388f9","ios":"levelo://app?vid=f62e1356-02e1-443f-b47e-f57105a388f9"},"vehicle_type_id":"4","last_reported":1691859841,"current_range_meters":17200,"station_id":"ce4bh292rcd13ifvqdf0","pricing_plan_id":"free"},{"bike_id":"7c4caffb-c4cc-4dc4-855c-4eff736955be","system_id":"levelo_inurba_marseille","lat":43.290345,"lon":5.38646,"is_reserved":false,"is_disabled":false,"rental_uris":{"android":"levelo://app?vid=7c4caffb-c4cc-4dc4-855c-4eff736955be","ios":"levelo://app?vid=7c4caffb-c4cc-4dc4-855c-4eff736955be"},"vehicle_type_id":"4","last_reported":1691859841,"current_range_meters":11600,"station_id":"ce4bh4p2rcd13ifvqe0g","pricing_plan_id":"free"},{"bike_id":"97c9d08d-a532-4472-a4c4-396386d0f6e5","system_id":"levelo_inurba_marseille","lat":43.290345,"lon":5.38646,"is_reserved":false,"is_disabled":false,"rental_uris":{"android":"levelo://app?vid=97c9d08d-a532-4472-a4c4-396386d0f6e5","ios":"levelo://app?vid=97c9d08d-a532-4472-a4c4-396386d0f6e5"},"vehicle_type_id":"4","last_reported":1691859841,"current_range_meters":2800,"station_id":"ce4bh4p2rcd13ifvqe0g","pricing_plan_id":"free"},{"bike_id":"b0d3d835-3251-429a-bdef-8968291a57a7","system_id":"levelo_inurba_marseille","lat":43.290336,"lon":5.386425,"is_reserved":false,"is_disabled":false,"rental_uris":{"android":"levelo://app?vid=b0d3d835-3251-429a-bdef-8968291a57a7","ios":"levelo://app?vid=b0d3d835-3251-429a-bdef-8968291a57a7"},"vehicle_type_id":"4","last_reported":1691859841,"current_range_meters":2800,"station_id":"ce4bh4p2rcd13ifvqe0g","pricing_plan_id":"free"},{"bike_id":"7f4c3513-2215-4ad1-bb1c-6dcf4cb1125e","system_id":"levelo_inurba_marseille","lat":43.290336,"lon":5.386425,"is_reserved":false,"is_disabled":false,"rental_uris":{"android":"levelo://app?vid=7f4c3513-2215-4ad1-bb1c-6dcf4cb1125e","ios":"levelo://app?vid=7f4c3513-2215-4ad1-bb1c-6dcf4cb1125e"},"vehicle_type_id":"4","last_reported":1691859841,"current_range_meters":19600,"station_id":"ce4bh4p2rcd13ifvqe0g","pricing_plan_id":"free"},{"bike_id":"34f30842-8d81-4790-9b00-e97cbfc051d8","system_id":"levelo_inurba_marseille","lat":43.290336,"lon":5.386425,"is_reserved":false,"is_disabled":false,"rental_uris":{"android":"levelo://app?vid=34f30842-8d81-4790-9b00-e97cbfc051d8","ios":"levelo://app?vid=34f30842-8d81-4790-9b00-e97cbfc051d8"},"vehicle_type_id":"4","last_reported":1691859841,"current_range_meters":31200,"station_id":"ce4bh4p2rcd13ifvqe0g","pricing_plan_id":"free"},{"bike_id":"5d233fc4-c29e-4012-a2e5-0101fc9e9270","system_id":"levelo_inurba_marseille","lat":43.302759,"lon":5.400793,"is_reserved":false,"is_disabled":false,"rental_uris":{"android":"levelo://app?vid=5d233fc4-c29e-4012-a2e5-0101fc9e9270","ios":"levelo://app?vid=5d233fc4-c29e-4012-a2e5-0101fc9e9270"},"vehicle_type_id":"4","last_reported":1691859841,"current_range_meters":2400,"station_id":"ce4bgvh2rcd13ifvqcs0","pricing_plan_id":"free"},{"bike_id":"a6998a7a-3387-4212-aecf-0251229852d0","system_id":"levelo_inurba_marseille","lat":43.302759,"lon":5.400793,"is_reserved":false,"is_disabled":false,"rental_uris":{"android":"levelo://app?vid=a6998a7a-3387-4212-aecf-0251229852d0","ios":"levelo://app?vid=a6998a7a-3387-4212-aecf-0251229852d0"},"vehicle_type_id":"4","last_reported":1691859841,"current_range_meters":28800,"station_id":"ce4bgvh2rcd13ifvqcs0","pricing_plan_id":"free"},{"bike_id":"d347b2ba-c9ed-44a6-868a-aa180198be56","system_id":"levelo_inurba_marseille","lat":43.286039,"lon":5.370679,"is_reserved":false,"is_disabled":false,"rental_uris":{"android":"levelo://app?vid=d347b2ba-c9ed-44a6-868a-aa180198be56","ios":"levelo://app?vid=d347b2ba-c9ed-44a6-868a-aa180198be56"},"vehicle_type_id":"4","last_reported":1691859841,"current_range_meters":5600,"station_id":"ce4bht12rcd13ifvqi60","pricing_plan_id":"free"},{"bike_id":"33c3e967-0f35-420b-ac8d-cfb5ae6f1329","system_id":"levelo_inurba_marseille","lat":43.286039,"lon":5.370679,"is_reserved":false,"is_disabled":false,"rental_uris":{"android":"levelo://app?vid=33c3e967-0f35-420b-ac8d-cfb5ae6f1329","ios":"levelo://app?vid=33c3e967-0f35-420b-ac8d-cfb5ae6f1329"},"vehicle_type_id":"4","last_reported":1691859841,"current_range_meters":21200,"station_id":"ce4bht12rcd13ifvqi60","pricing_plan_id":"free"},{"bike_id":"c167e342-02bf-4c22-82f7-cc2cdc9d7a3d","system_id":"levelo_inurba_marseille","lat":43.316403,"lon":5.404242,"is_reserved":false,"is_disabled":false,"rental_uris":{"android":"levelo://app?vid=c167e342-02bf-4c22-82f7-cc2cdc9d7a3d","ios":"levelo://app?vid=c167e342-02bf-4c22-82f7-cc2cdc9d7a3d"},"vehicle_type_id":"4","last_reported":1691859841,"current_range_meters":31200,"station_id":"ce4bh012rcd13ifvqd00","pricing_plan_id":"free"},{"bike_id":"aba005d5-f147-41e1-ad08-0718801aaf03","system_id":"levelo_inurba_marseille","lat":43.31647,"lon":5.404303,"is_reserved":false,"is_disabled":false,"rental_uris":{"android":"levelo://app?vid=aba005d5-f147-41e1-ad08-0718801aaf03","ios":"levelo://app?vid=aba005d5-f147-41e1-ad08-0718801aaf03"},"vehicle_type_id":"4","last_reported":1691859841,"current_range_meters":8000,"station_id":"ce4bh012rcd13ifvqd00","pricing_plan_id":"free"},{"bike_id":"bae09e80-3b6b-404f-8322-7d1b1001393c","system_id":"levelo_inurba_marseille","lat":43.316517,"lon":5.404375,"is_reserved":false,"is_disabled":false,"rental_uris":{"android":"levelo://app?vid=bae09e80-3b6b-404f-8322-7d1b1001393c","ios":"levelo://app?vid=bae09e80-3b6b-404f-8322-7d1b1001393c"},"vehicle_type_id":"4","last_reported":1691859841,"current_range_meters":31200,"station_id":"ce4bh012rcd13ifvqd00","pricing_plan_id":"free"},{"bike_id":"f60a61e1-1711-473a-bd83-5b1cdcdc2133","system_id":"levelo_inurba_marseille","lat":43.31649,"lon":5.40438,"is_reserved":false,"is_disabled":false,"rental_uris":{"android":"levelo://app?vid=f60a61e1-1711-473a-bd83-5b1cdcdc2133","ios":"levelo://app?vid=f60a61e1-1711-473a-bd83-5b1cdcdc2133"},"vehicle_type_id":"4","last_reported":1691859841,"current_range_meters":10000,"station_id":"ce4bh012rcd13ifvqd00","pricing_plan_id":"free"},{"bike_id":"97a3bad6-0312-40ea-9f77-4d8d50311d51","system_id":"levelo_inurba_marseille","lat":43.31644,"lon":5.40439,"is_reserved":false,"is_disabled":false,"rental_uris":{"android":"levelo://app?vid=97a3bad6-0312-40ea-9f77-4d8d50311d51","ios":"levelo://app?vid=97a3bad6-0312-40ea-9f77-4d8d50311d51"},"vehicle_type_id":"4","last_reported":1691859841,"current_range_meters":31200,"station_id":"ce4bh012rcd13ifvqd00","pricing_plan_id":"free"},{"bike_id":"7486eb3f-edd2-46b6-8a9a-70d9939e1f54","system_id":"levelo_inurba_marseille","lat":43.291994,"lon":5.392907,"is_reserved":false,"is_disabled":false,"rental_uris":{"android":"levelo://app?vid=7486eb3f-edd2-46b6-8a9a-70d9939e1f54","ios":"levelo://app?vid=7486eb3f-edd2-46b6-8a9a-70d9939e1f54"},"vehicle_type_id":"4","last_reported":1691859841,"current_range_meters":10800,"station_id":"ce4bh192rcd13ifvqdd0","pricing_plan_id":"free"},{"bike_id":"2a69f48d-ac00-4ec2-94ea-428476af8d93","system_id":"levelo_inurba_marseille","lat":43.291994,"lon":5.392907,"is_reserved":false,"is_disabled":false,"rental_uris":{"android":"levelo://app?vid=2a69f48d-ac00-4ec2-94ea-428476af8d93","ios":"levelo://app?vid=2a69f48d-ac00-4ec2-94ea-428476af8d93"},"vehicle_type_id":"4","last_reported":1691859841,"current_range_meters":2000,"station_id":"ce4bh192rcd13ifvqdd0","pricing_plan_id":"free"},{"bike_id":"740b289b-302e-4a7b-96c4-795488cfabc1","system_id":"levelo_inurba_marseille","lat":43.291994,"lon":5.392907,"is_reserved":false,"is_disabled":false,"rental_uris":{"android":"levelo://app?vid=740b289b-302e-4a7b-96c4-795488cfabc1","ios":"levelo://app?vid=740b289b-302e-4a7b-96c4-795488cfabc1"},"vehicle_type_id":"4","last_reported":1691859841,"current_range_meters":22400,"station_id":"ce4bh192rcd13ifvqdd0","pricing_plan_id":"free"},{"bike_id":"dd0bf54b-bb30-478e-9c7d-dc5a876d505f","system_id":"levelo_inurba_marseille","lat":43.291994,"lon":5.392907,"is_reserved":false,"is_disabled":false,"rental_uris":{"android":"levelo://app?vid=dd0bf54b-bb30-478e-9c7d-dc5a876d505f","ios":"levelo://app?vid=dd0bf54b-bb30-478e-9c7d-dc5a876d505f"},"vehicle_type_id":"4","last_reported":1691859841,"current_range_meters":9200,"station_id":"ce4bh192rcd13ifvqdd0","pricing_plan_id":"free"},{"bike_id":"e6be4a32-b623-442a-b020-1c7925c77df9","system_id":"levelo_inurba_marseille","lat":43.291994,"lon":5.392907,"is_reserved":false,"is_disabled":false,"rental_uris":{"android":"levelo://app?vid=e6be4a32-b623-442a-b020-1c7925c77df9","ios":"levelo://app?vid=e6be4a32-b623-442a-b020-1c7925c77df9"},"vehicle_type_id":"4","last_reported":1691859841,"current_range_meters":17200,"station_id":"ce4bh192rcd13ifvqdd0","pricing_plan_id":"free"},{"bike_id":"a2220ee3-0a57-4076-81be-6350c2ffcb3c","system_id":"levelo_inurba_marseille","lat":43.284538,"lon":5.358657,"is_reserved":false,"is_disabled":false,"rental_uris":{"android":"levelo://app?vid=a2220ee3-0a57-4076-81be-6350c2ffcb3c","ios":"levelo://app?vid=a2220ee3-0a57-4076-81be-6350c2ffcb3c"},"vehicle_type_id":"4","last_reported":1691859841,"current_range_meters":10400,"station_id":"ce4bhah2rcd13ifvqei0","pricing_plan_id":"free"},{"bike_id":"96d208dc-30d3-4c85-b6a9-5f93131fd40f","system_id":"levelo_inurba_marseille","lat":43.284538,"lon":5.358657,"is_reserved":false,"is_disabled":false,"rental_uris":{"android":"levelo://app?vid=96d208dc-30d3-4c85-b6a9-5f93131fd40f","ios":"levelo://app?vid=96d208dc-30d3-4c85-b6a9-5f93131fd40f"},"vehicle_type_id":"4","last_reported":1691859841,"current_range_meters":8400,"station_id":"ce4bhah2rcd13ifvqei0","pricing_plan_id":"free"},{"bike_id":"346826ba-aa37-4714-a589-a96fec599272","system_id":"levelo_inurba_marseille","lat":43.284534,"lon":5.358662,"is_reserved":false,"is_disabled":false,"rental_uris":{"android":"levelo://app?vid=346826ba-aa37-4714-a589-a96fec599272","ios":"levelo://app?vid=346826ba-aa37-4714-a589-a96fec599272"},"vehicle_type_id":"4","last_reported":1691859841,"current_range_meters":10000,"station_id":"ce4bhah2rcd13ifvqei0","pricing_plan_id":"free"},{"bike_id":"5c959f62-e010-4548-b735-419a6cee803c","system_id":"levelo_inurba_marseille","lat":43.284534,"lon":5.358662,"is_reserved":false,"is_disabled":false,"rental_uris":{"android":"levelo://app?vid=5c959f62-e010-4548-b735-419a6cee803c","ios":"levelo://app?vid=5c959f62-e010-4548-b735-419a6cee803c"},"vehicle_type_id":"4","last_reported":1691859841,"current_range_meters":24800,"station_id":"ce4bhah2rcd13ifvqei0","pricing_plan_id":"free"},{"bike_id":"53bd356c-32da-43e9-9e61-98461430ddfb","system_id":"levelo_inurba_marseille","lat":43.284538,"lon":5.358657,"is_reserved":false,"is_disabled":false,"rental_uris":{"android":"levelo://app?vid=53bd356c-32da-43e9-9e61-98461430ddfb","ios":"levelo://app?vid=53bd356c-32da-43e9-9e61-98461430ddfb"},"vehicle_type_id":"4","last_reported":1691859841,"current_range_meters":24000,"station_id":"ce4bhah2rcd13ifvqei0","pricing_plan_id":"free"},{"bike_id":"890a41d8-e321-4e93-9185-76131defb105","system_id":"levelo_inurba_marseille","lat":43.28621,"lon":5.35107,"is_reserved":false,"is_disabled":false,"rental_uris":{"android":"levelo://app?vid=890a41d8-e321-4e93-9185-76131defb105","ios":"levelo://app?vid=890a41d8-e321-4e93-9185-76131defb105"},"vehicle_type_id":"4","last_reported":1691859841,"current_range_meters":31200,"station_id":"ce4bhch2rcd13ifvqeug","pricing_plan_id":"free"},{"bike_id":"33e4141f-33b2-4487-b986-7feb5dfe391b","system_id":"levelo_inurba_marseille","lat":43.28617,"lon":5.35107,"is_reserved":false,"is_disabled":false,"rental_uris":{"android":"levelo://app?vid=33e4141f-33b2-4487-b986-7feb5dfe391b","ios":"levelo://app?vid=33e4141f-33b2-4487-b986-7feb5dfe391b"},"vehicle_type_id":"4","last_reported":1691859841,"current_range_meters":30000,"station_id":"ce4bhch2rcd13ifvqeug","pricing_plan_id":"free"},{"bike_id":"149b21f7-acf4-404e-babf-9565dee6ad38","system_id":"levelo_inurba_marseille","lat":43.28618,"lon":5.35101,"is_reserved":false,"is_disabled":false,"rental_uris":{"android":"levelo://app?vid=149b21f7-acf4-404e-babf-9565dee6ad38","ios":"levelo://app?vid=149b21f7-acf4-404e-babf-9565dee6ad38"},"vehicle_type_id":"4","last_reported":1691859841,"current_range_meters":15600,"station_id":"ce4bhch2rcd13ifvqeug","pricing_plan_id":"free"},{"bike_id":"bef976df-52ae-4189-924a-17d925cc75dd","system_id":"levelo_inurba_marseille","lat":43.28434,"lon":5.37495,"is_reserved":false,"is_disabled":false,"rental_uris":{"android":"levelo://app?vid=bef976df-52ae-4189-924a-17d925cc75dd","ios":"levelo://app?vid=bef976df-52ae-4189-924a-17d925cc75dd"},"vehicle_type_id":"4","last_reported":1691859841,"current_range_meters":8000,"station_id":"ce4bh412rcd13ifvqds0","pricing_plan_id":"free"},{"bike_id":"5fb4a7c7-8f3f-46e5-80b8-2ac428353a49","system_id":"levelo_inurba_marseille","lat":43.2861,"lon":5.351,"is_reserved":false,"is_disabled":false,"rental_uris":{"android":"levelo://app?vid=5fb4a7c7-8f3f-46e5-80b8-2ac428353a49","ios":"levelo://app?vid=5fb4a7c7-8f3f-46e5-80b8-2ac428353a49"},"vehicle_type_id":"4","last_reported":1691859841,"current_range_meters":10800,"station_id":"ce4bhch2rcd13ifvqeug","pricing_plan_id":"free"},{"bike_id":"bb33a29a-43d7-48be-9865-bf8429f2b97d","system_id":"levelo_inurba_marseille","lat":43.2841,"lon":5.37502,"is_reserved":false,"is_disabled":false,"rental_uris":{"android":"levelo://app?vid=bb33a29a-43d7-48be-9865-bf8429f2b97d","ios":"levelo://app?vid=bb33a29a-43d7-48be-9865-bf8429f2b97d"},"vehicle_type_id":"4","last_reported":1691859841,"current_range_meters":800,"station_id":"ce4bh412rcd13ifvqds0","pricing_plan_id":"free"},{"bike_id":"147ecef0-d37e-4835-ad5f-a01fe0971300","system_id":"levelo_inurba_marseille","lat":43.283998,"lon":5.375062,"is_reserved":false,"is_disabled":false,"rental_uris":{"android":"levelo://app?vid=147ecef0-d37e-4835-ad5f-a01fe0971300","ios":"levelo://app?vid=147ecef0-d37e-4835-ad5f-a01fe0971300"},"vehicle_type_id":"4","last_reported":1691859841,"current_range_meters":30000,"station_id":"ce4bh412rcd13ifvqds0","pricing_plan_id":"free"},{"bike_id":"18d60405-7fcb-4f0d-a3c0-66a2bebff4ef","system_id":"levelo_inurba_marseille","lat":43.319179,"lon":5.407725,"is_reserved":false,"is_disabled":false,"rental_uris":{"android":"levelo://app?vid=18d60405-7fcb-4f0d-a3c0-66a2bebff4ef","ios":"levelo://app?vid=18d60405-7fcb-4f0d-a3c0-66a2bebff4ef"},"vehicle_type_id":"4","last_reported":1691859841,"current_range_meters":28000,"station_id":"ce4bhq12rcd13ifvqhig","pricing_plan_id":"free"},{"bike_id":"1e5fc929-b2e6-478f-90e9-ed5e75397a8d","system_id":"levelo_inurba_marseille","lat":43.323464,"lon":5.406297,"is_reserved":false,"is_disabled":false,"rental_uris":{"android":"levelo://app?vid=1e5fc929-b2e6-478f-90e9-ed5e75397a8d","ios":"levelo://app?vid=1e5fc929-b2e6-478f-90e9-ed5e75397a8d"},"vehicle_type_id":"4","last_reported":1691859841,"current_range_meters":31600,"station_id":"ce4bhq92rcd13ifvqhjg","pricing_plan_id":"free"},{"bike_id":"d0077ace-8d19-4088-b70c-82e3c4919915","system_id":"levelo_inurba_marseille","lat":43.323464,"lon":5.406297,"is_reserved":false,"is_disabled":false,"rental_uris":{"android":"levelo://app?vid=d0077ace-8d19-4088-b70c-82e3c4919915","ios":"levelo://app?vid=d0077ace-8d19-4088-b70c-82e3c4919915"},"vehicle_type_id":"4","last_reported":1691859841,"current_range_meters":31200,"station_id":"ce4bhq92rcd13ifvqhjg","pricing_plan_id":"free"},{"bike_id":"fbfeeb75-e370-407d-81d3-a22af631e8cf","system_id":"levelo_inurba_marseille","lat":43.323464,"lon":5.406297,"is_reserved":false,"is_disabled":false,"rental_uris":{"android":"levelo://app?vid=fbfeeb75-e370-407d-81d3-a22af631e8cf","ios":"levelo://app?vid=fbfeeb75-e370-407d-81d3-a22af631e8cf"},"vehicle_type_id":"4","last_reported":1691859841,"current_range_meters":31600,"station_id":"ce4bhq92rcd13ifvqhjg","pricing_plan_id":"free"},{"bike_id":"9bc415fc-3848-4f40-bd8b-edea610d478a","system_id":"levelo_inurba_marseille","lat":43.33717,"lon":5.391857,"is_reserved":false,"is_disabled":false,"rental_uris":{"android":"levelo://app?vid=9bc415fc-3848-4f40-bd8b-edea610d478a","ios":"levelo://app?vid=9bc415fc-3848-4f40-bd8b-edea610d478a"},"vehicle_type_id":"4","last_reported":1691859841,"current_range_meters":2800,"station_id":"ce4bhr92rcd13ifvqhsg","pricing_plan_id":"free"},{"bike_id":"b2188b0d-5227-4325-bc94-84b6f1239ecf","system_id":"levelo_inurba_marseille","lat":43.323464,"lon":5.406297,"is_reserved":false,"is_disabled":false,"rental_uris":{"android":"levelo://app?vid=b2188b0d-5227-4325-bc94-84b6f1239ecf","ios":"levelo://app?vid=b2188b0d-5227-4325-bc94-84b6f1239ecf"},"vehicle_type_id":"4","last_reported":1691859841,"current_range_meters":31600,"station_id":"ce4bhq92rcd13ifvqhjg","pricing_plan_id":"free"},{"bike_id":"99655be4-85c4-4618-9f8f-575f85f1237b","system_id":"levelo_inurba_marseille","lat":43.323464,"lon":5.406297,"is_reserved":false,"is_disabled":false,"rental_uris":{"android":"levelo://app?vid=99655be4-85c4-4618-9f8f-575f85f1237b","ios":"levelo://app?vid=99655be4-85c4-4618-9f8f-575f85f1237b"},"vehicle_type_id":"4","last_reported":1691859841,"current_range_meters":31200,"station_id":"ce4bhq92rcd13ifvqhjg","pricing_plan_id":"free"},{"bike_id":"a7f977ab-df2a-42be-af54-1bb16c7ef5dc","system_id":"levelo_inurba_marseille","lat":43.323464,"lon":5.406297,"is_reserved":false,"is_disabled":false,"rental_uris":{"android":"levelo://app?vid=a7f977ab-df2a-42be-af54-1bb16c7ef5dc","ios":"levelo://app?vid=a7f977ab-df2a-42be-af54-1bb16c7ef5dc"},"vehicle_type_id":"4","last_reported":1691859841,"current_range_meters":31600,"station_id":"ce4bhq92rcd13ifvqhjg","pricing_plan_id":"free"},{"bike_id":"77387bbb-06d5-400f-b530-4b392abf819f","system_id":"levelo_inurba_marseille","lat":43.323464,"lon":5.406297,"is_reserved":false,"is_disabled":false,"rental_uris":{"android":"levelo://app?vid=77387bbb-06d5-400f-b530-4b392abf819f","ios":"levelo://app?vid=77387bbb-06d5-400f-b530-4b392abf819f"},"vehicle_type_id":"4","last_reported":1691859841,"current_range_meters":31200,"station_id":"ce4bhq92rcd13ifvqhjg","pricing_plan_id":"free"},{"bike_id":"b715fbc1-3e27-463b-b010-bead04f06ee1","system_id":"levelo_inurba_marseille","lat":43.323464,"lon":5.406297,"is_reserved":false,"is_disabled":false,"rental_uris":{"android":"levelo://app?vid=b715fbc1-3e27-463b-b010-bead04f06ee1","ios":"levelo://app?vid=b715fbc1-3e27-463b-b010-bead04f06ee1"},"vehicle_type_id":"4","last_reported":1691859841,"current_range_meters":28800,"station_id":"ce4bhq92rcd13ifvqhjg","pricing_plan_id":"free"},{"bike_id":"e2c2f663-5dd6-43cb-9f3c-986ac869dd33","system_id":"levelo_inurba_marseille","lat":43.323464,"lon":5.406297,"is_reserved":false,"is_disabled":false,"rental_uris":{"android":"levelo://app?vid=e2c2f663-5dd6-43cb-9f3c-986ac869dd33","ios":"levelo://app?vid=e2c2f663-5dd6-43cb-9f3c-986ac869dd33"},"vehicle_type_id":"4","last_reported":1691859841,"current_range_meters":7200,"station_id":"ce4bhq92rcd13ifvqhjg","pricing_plan_id":"free"},{"bike_id":"0f37a334-b23f-4231-8c75-c49ee23dddb1","system_id":"levelo_inurba_marseille","lat":43.323464,"lon":5.406297,"is_reserved":false,"is_disabled":false,"rental_uris":{"android":"levelo://app?vid=0f37a334-b23f-4231-8c75-c49ee23dddb1","ios":"levelo://app?vid=0f37a334-b23f-4231-8c75-c49ee23dddb1"},"vehicle_type_id":"4","last_reported":1691859841,"current_range_meters":31600,"station_id":"ce4bhq92rcd13ifvqhjg","pricing_plan_id":"free"},{"bike_id":"9c88b162-66af-4d80-b737-a3db75d2a885","system_id":"levelo_inurba_marseille","lat":43.323464,"lon":5.406297,"is_reserved":false,"is_disabled":false,"rental_uris":{"android":"levelo://app?vid=9c88b162-66af-4d80-b737-a3db75d2a885","ios":"levelo://app?vid=9c88b162-66af-4d80-b737-a3db75d2a885"},"vehicle_type_id":"4","last_reported":1691859841,"current_range_meters":28400,"station_id":"ce4bhq92rcd13ifvqhjg","pricing_plan_id":"free"},{"bike_id":"e77d0ece-c17f-4bbe-b4e2-630927af7edf","system_id":"levelo_inurba_marseille","lat":43.323464,"lon":5.406297,"is_reserved":false,"is_disabled":false,"rental_uris":{"android":"levelo://app?vid=e77d0ece-c17f-4bbe-b4e2-630927af7edf","ios":"levelo://app?vid=e77d0ece-c17f-4bbe-b4e2-630927af7edf"},"vehicle_type_id":"4","last_reported":1691859841,"current_range_meters":13200,"station_id":"ce4bhq92rcd13ifvqhjg","pricing_plan_id":"free"},{"bike_id":"7460c8d0-5157-44e8-88a8-237d1833d417","system_id":"levelo_inurba_marseille","lat":43.323464,"lon":5.406297,"is_reserved":false,"is_disabled":false,"rental_uris":{"android":"levelo://app?vid=7460c8d0-5157-44e8-88a8-237d1833d417","ios":"levelo://app?vid=7460c8d0-5157-44e8-88a8-237d1833d417"},"vehicle_type_id":"4","last_reported":1691859841,"current_range_meters":29200,"station_id":"ce4bhq92rcd13ifvqhjg","pricing_plan_id":"free"},{"bike_id":"1d1f8de5-a381-4951-8286-1972c35a95ab","system_id":"levelo_inurba_marseille","lat":43.323464,"lon":5.406297,"is_reserved":false,"is_disabled":false,"rental_uris":{"android":"levelo://app?vid=1d1f8de5-a381-4951-8286-1972c35a95ab","ios":"levelo://app?vid=1d1f8de5-a381-4951-8286-1972c35a95ab"},"vehicle_type_id":"4","last_reported":1691859841,"current_range_meters":27200,"station_id":"ce4bhq92rcd13ifvqhjg","pricing_plan_id":"free"},{"bike_id":"a2ebd087-bb57-4678-9b19-f7c1b574e8e0","system_id":"levelo_inurba_marseille","lat":43.29795,"lon":5.404086,"is_reserved":false,"is_disabled":false,"rental_uris":{"android":"levelo://app?vid=a2ebd087-bb57-4678-9b19-f7c1b574e8e0","ios":"levelo://app?vid=a2ebd087-bb57-4678-9b19-f7c1b574e8e0"},"vehicle_type_id":"4","last_reported":1691859841,"current_range_meters":0,"station_id":"ce4bh112rcd13ifvqd90","pricing_plan_id":"free"},{"bike_id":"de8ad574-945d-45b0-b5fa-8e8c336b6512","system_id":"levelo_inurba_marseille","lat":43.3239,"lon":5.40663,"is_reserved":false,"is_disabled":false,"rental_uris":{"android":"levelo://app?vid=de8ad574-945d-45b0-b5fa-8e8c336b6512","ios":"levelo://app?vid=de8ad574-945d-45b0-b5fa-8e8c336b6512"},"vehicle_type_id":"4","last_reported":1691859841,"current_range_meters":19600,"station_id":"","pricing_plan_id":"free"},{"bike_id":"db926445-28f2-43d0-8bff-9406229a7e14","system_id":"levelo_inurba_marseille","lat":43.283498,"lon":5.380948,"is_reserved":false,"is_disabled":false,"rental_uris":{"android":"levelo://app?vid=db926445-28f2-43d0-8bff-9406229a7e14","ios":"levelo://app?vid=db926445-28f2-43d0-8bff-9406229a7e14"},"vehicle_type_id":"4","last_reported":1691859841,"current_range_meters":13600,"station_id":"ce4bh412rcd13ifvqdr0","pricing_plan_id":"free"},{"bike_id":"85debf30-127f-44de-9db9-9e78aaed80b9","system_id":"levelo_inurba_marseille","lat":43.283498,"lon":5.380948,"is_reserved":false,"is_disabled":false,"rental_uris":{"android":"levelo://app?vid=85debf30-127f-44de-9db9-9e78aaed80b9","ios":"levelo://app?vid=85debf30-127f-44de-9db9-9e78aaed80b9"},"vehicle_type_id":"4","last_reported":1691859841,"current_range_meters":31600,"station_id":"ce4bh412rcd13ifvqdr0","pricing_plan_id":"free"},{"bike_id":"c7a9e6e0-ae6e-4c8d-bfa2-72dd9f7ec87a","system_id":"levelo_inurba_marseille","lat":43.283498,"lon":5.380948,"is_reserved":false,"is_disabled":false,"rental_uris":{"android":"levelo://app?vid=c7a9e6e0-ae6e-4c8d-bfa2-72dd9f7ec87a","ios":"levelo://app?vid=c7a9e6e0-ae6e-4c8d-bfa2-72dd9f7ec87a"},"vehicle_type_id":"4","last_reported":1691859841,"current_range_meters":10000,"station_id":"ce4bh412rcd13ifvqdr0","pricing_plan_id":"free"},{"bike_id":"9748fdf7-dd9a-4497-8b44-3703cf71dc14","system_id":"levelo_inurba_marseille","lat":43.292724,"lon":5.401131,"is_reserved":false,"is_disabled":false,"rental_uris":{"android":"levelo://app?vid=9748fdf7-dd9a-4497-8b44-3703cf71dc14","ios":"levelo://app?vid=9748fdf7-dd9a-4497-8b44-3703cf71dc14"},"vehicle_type_id":"4","last_reported":1691859841,"current_range_meters":25600,"station_id":"ce4bh312rcd13ifvqdk0","pricing_plan_id":"free"},{"bike_id":"f58b141f-1a70-4950-9450-0aa3e0eb1edb","system_id":"levelo_inurba_marseille","lat":43.29279,"lon":5.40118,"is_reserved":false,"is_disabled":false,"rental_uris":{"android":"levelo://app?vid=f58b141f-1a70-4950-9450-0aa3e0eb1edb","ios":"levelo://app?vid=f58b141f-1a70-4950-9450-0aa3e0eb1edb"},"vehicle_type_id":"4","last_reported":1691859841,"current_range_meters":0,"station_id":"","pricing_plan_id":"free"},{"bike_id":"7ce153e0-880f-4653-baa4-af9c7523ee3f","system_id":"levelo_inurba_marseille","lat":43.292724,"lon":5.401131,"is_reserved":false,"is_disabled":false,"rental_uris":{"android":"levelo://app?vid=7ce153e0-880f-4653-baa4-af9c7523ee3f","ios":"levelo://app?vid=7ce153e0-880f-4653-baa4-af9c7523ee3f"},"vehicle_type_id":"4","last_reported":1691859841,"current_range_meters":7200,"station_id":"ce4bh312rcd13ifvqdk0","pricing_plan_id":"free"},{"bike_id":"5cec26ac-344f-432b-af34-450b75305b9b","system_id":"levelo_inurba_marseille","lat":43.292724,"lon":5.401131,"is_reserved":false,"is_disabled":false,"rental_uris":{"android":"levelo://app?vid=5cec26ac-344f-432b-af34-450b75305b9b","ios":"levelo://app?vid=5cec26ac-344f-432b-af34-450b75305b9b"},"vehicle_type_id":"4","last_reported":1691859841,"current_range_meters":31600,"station_id":"ce4bh312rcd13ifvqdk0","pricing_plan_id":"free"},{"bike_id":"88940920-727e-47f8-bee6-24feedff1167","system_id":"levelo_inurba_marseille","lat":43.28267,"lon":5.35066,"is_reserved":false,"is_disabled":false,"rental_uris":{"android":"levelo://app?vid=88940920-727e-47f8-bee6-24feedff1167","ios":"levelo://app?vid=88940920-727e-47f8-bee6-24feedff1167"},"vehicle_type_id":"4","last_reported":1691859841,"current_range_meters":31200,"station_id":"ce4bhbp2rcd13ifvqerg","pricing_plan_id":"free"},{"bike_id":"87019cb5-0c38-49b4-b3a6-f5617e2c25f4","system_id":"levelo_inurba_marseille","lat":43.28039,"lon":5.369297,"is_reserved":false,"is_disabled":false,"rental_uris":{"android":"levelo://app?vid=87019cb5-0c38-49b4-b3a6-f5617e2c25f4","ios":"levelo://app?vid=87019cb5-0c38-49b4-b3a6-f5617e2c25f4"},"vehicle_type_id":"4","last_reported":1691859841,"current_range_meters":22000,"station_id":"ce4bha12rcd13ifvqef0","pricing_plan_id":"free"},{"bike_id":"a53d44aa-c168-44a2-8822-3f9c7daa0a68","system_id":"levelo_inurba_marseille","lat":43.28037,"lon":5.36951,"is_reserved":false,"is_disabled":false,"rental_uris":{"android":"levelo://app?vid=a53d44aa-c168-44a2-8822-3f9c7daa0a68","ios":"levelo://app?vid=a53d44aa-c168-44a2-8822-3f9c7daa0a68"},"vehicle_type_id":"4","last_reported":1691859841,"current_range_meters":27600,"station_id":"ce4bha12rcd13ifvqef0","pricing_plan_id":"free"},{"bike_id":"eb8e4c4f-5fc5-4007-ab2b-231fad0dc17c","system_id":"levelo_inurba_marseille","lat":43.29041,"lon":5.399634,"is_reserved":false,"is_disabled":false,"rental_uris":{"android":"levelo://app?vid=eb8e4c4f-5fc5-4007-ab2b-231fad0dc17c","ios":"levelo://app?vid=eb8e4c4f-5fc5-4007-ab2b-231fad0dc17c"},"vehicle_type_id":"4","last_reported":1691859841,"current_range_meters":31600,"station_id":"ce4bh392rcd13ifvqdm0","pricing_plan_id":"free"},{"bike_id":"c3b2f628-faed-4b9d-b26c-711d20c1f702","system_id":"levelo_inurba_marseille","lat":43.296263,"lon":5.40601,"is_reserved":false,"is_disabled":false,"rental_uris":{"android":"levelo://app?vid=c3b2f628-faed-4b9d-b26c-711d20c1f702","ios":"levelo://app?vid=c3b2f628-faed-4b9d-b26c-711d20c1f702"},"vehicle_type_id":"4","last_reported":1691859841,"current_range_meters":14400,"station_id":"ce4bh0h2rcd13ifvqd60","pricing_plan_id":"free"},{"bike_id":"1d3536ce-ea6e-4aa8-a39f-af0e63ff7da7","system_id":"levelo_inurba_marseille","lat":43.283498,"lon":5.380948,"is_reserved":false,"is_disabled":false,"rental_uris":{"android":"levelo://app?vid=1d3536ce-ea6e-4aa8-a39f-af0e63ff7da7","ios":"levelo://app?vid=1d3536ce-ea6e-4aa8-a39f-af0e63ff7da7"},"vehicle_type_id":"4","last_reported":1691859841,"current_range_meters":17600,"station_id":"ce4bh412rcd13ifvqdr0","pricing_plan_id":"free"},{"bike_id":"5cb816ca-e9a6-4433-8a05-a8dd71a1f854","system_id":"levelo_inurba_marseille","lat":43.284462,"lon":5.392121,"is_reserved":false,"is_disabled":false,"rental_uris":{"android":"levelo://app?vid=5cb816ca-e9a6-4433-8a05-a8dd71a1f854","ios":"levelo://app?vid=5cb816ca-e9a6-4433-8a05-a8dd71a1f854"},"vehicle_type_id":"4","last_reported":1691859841,"current_range_meters":24000,"station_id":"ce4bhoh2rcd13ifvqh5g","pricing_plan_id":"free"},{"bike_id":"13dac9f6-cbb5-4177-a942-2496b22a999d","system_id":"levelo_inurba_marseille","lat":43.284462,"lon":5.392121,"is_reserved":false,"is_disabled":false,"rental_uris":{"android":"levelo://app?vid=13dac9f6-cbb5-4177-a942-2496b22a999d","ios":"levelo://app?vid=13dac9f6-cbb5-4177-a942-2496b22a999d"},"vehicle_type_id":"4","last_reported":1691859841,"current_range_meters":24800,"station_id":"ce4bhoh2rcd13ifvqh5g","pricing_plan_id":"free"},{"bike_id":"a0f258ed-ced3-412c-a3a0-592502c28464","system_id":"levelo_inurba_marseille","lat":43.32661,"lon":5.40929,"is_reserved":false,"is_disabled":false,"rental_uris":{"android":"levelo://app?vid=a0f258ed-ced3-412c-a3a0-592502c28464","ios":"levelo://app?vid=a0f258ed-ced3-412c-a3a0-592502c28464"},"vehicle_type_id":"4","last_reported":1691859841,"current_range_meters":14800,"station_id":"","pricing_plan_id":"free"},{"bike_id":"482fc622-e271-488a-83f0-3334b6aee62d","system_id":"levelo_inurba_marseille","lat":43.3266,"lon":5.40983,"is_reserved":false,"is_disabled":false,"rental_uris":{"android":"levelo://app?vid=482fc622-e271-488a-83f0-3334b6aee62d","ios":"levelo://app?vid=482fc622-e271-488a-83f0-3334b6aee62d"},"vehicle_type_id":"4","last_reported":1691859841,"current_range_meters":31200,"station_id":"ce4bhpp2rcd13ifvqhgg","pricing_plan_id":"free"},{"bike_id":"a198a2b7-0bb3-43a3-a883-3f9fd89f016e","system_id":"levelo_inurba_marseille","lat":43.32662,"lon":5.40984,"is_reserved":false,"is_disabled":false,"rental_uris":{"android":"levelo://app?vid=a198a2b7-0bb3-43a3-a883-3f9fd89f016e","ios":"levelo://app?vid=a198a2b7-0bb3-43a3-a883-3f9fd89f016e"},"vehicle_type_id":"4","last_reported":1691859841,"current_range_meters":30800,"station_id":"ce4bhpp2rcd13ifvqhgg","pricing_plan_id":"free"},{"bike_id":"7d20c6f9-54b3-482c-9f46-2975184da393","system_id":"levelo_inurba_marseille","lat":43.32655,"lon":5.40993,"is_reserved":false,"is_disabled":false,"rental_uris":{"android":"levelo://app?vid=7d20c6f9-54b3-482c-9f46-2975184da393","ios":"levelo://app?vid=7d20c6f9-54b3-482c-9f46-2975184da393"},"vehicle_type_id":"4","last_reported":1691859841,"current_range_meters":9600,"station_id":"ce4bhpp2rcd13ifvqhgg","pricing_plan_id":"free"},{"bike_id":"13d6f20a-2962-492b-a962-6d7b6df4a821","system_id":"levelo_inurba_marseille","lat":43.32658,"lon":5.40992,"is_reserved":false,"is_disabled":false,"rental_uris":{"android":"levelo://app?vid=13d6f20a-2962-492b-a962-6d7b6df4a821","ios":"levelo://app?vid=13d6f20a-2962-492b-a962-6d7b6df4a821"},"vehicle_type_id":"4","last_reported":1691859841,"current_range_meters":7200,"station_id":"ce4bhpp2rcd13ifvqhgg","pricing_plan_id":"free"},{"bike_id":"17871fac-3496-4a57-be8e-0acb60dc3de5","system_id":"levelo_inurba_marseille","lat":43.32663,"lon":5.40989,"is_reserved":false,"is_disabled":false,"rental_uris":{"android":"levelo://app?vid=17871fac-3496-4a57-be8e-0acb60dc3de5","ios":"levelo://app?vid=17871fac-3496-4a57-be8e-0acb60dc3de5"},"vehicle_type_id":"4","last_reported":1691859841,"current_range_meters":31200,"station_id":"ce4bhpp2rcd13ifvqhgg","pricing_plan_id":"free"},{"bike_id":"1c14edb4-41c5-4b75-ba63-7b8ce648a4b7","system_id":"levelo_inurba_marseille","lat":43.32661,"lon":5.40991,"is_reserved":false,"is_disabled":false,"rental_uris":{"android":"levelo://app?vid=1c14edb4-41c5-4b75-ba63-7b8ce648a4b7","ios":"levelo://app?vid=1c14edb4-41c5-4b75-ba63-7b8ce648a4b7"},"vehicle_type_id":"4","last_reported":1691859841,"current_range_meters":29600,"station_id":"ce4bhpp2rcd13ifvqhgg","pricing_plan_id":"free"},{"bike_id":"36ce7164-f9f0-44c7-8ef2-59c30c7602ae","system_id":"levelo_inurba_marseille","lat":43.326605,"lon":5.409903,"is_reserved":false,"is_disabled":false,"rental_uris":{"android":"levelo://app?vid=36ce7164-f9f0-44c7-8ef2-59c30c7602ae","ios":"levelo://app?vid=36ce7164-f9f0-44c7-8ef2-59c30c7602ae"},"vehicle_type_id":"4","last_reported":1691859841,"current_range_meters":10000,"station_id":"ce4bhpp2rcd13ifvqhgg","pricing_plan_id":"free"},{"bike_id":"738d49be-9570-4611-a11f-7d3113a06ee9","system_id":"levelo_inurba_marseille","lat":43.33192,"lon":5.4066,"is_reserved":false,"is_disabled":false,"rental_uris":{"android":"levelo://app?vid=738d49be-9570-4611-a11f-7d3113a06ee9","ios":"levelo://app?vid=738d49be-9570-4611-a11f-7d3113a06ee9"},"vehicle_type_id":"4","last_reported":1691859841,"current_range_meters":31200,"station_id":"","pricing_plan_id":"free"},{"bike_id":"2ec1a3ae-43c9-405f-a1e1-b78ee0392aa4","system_id":"levelo_inurba_marseille","lat":43.33255,"lon":5.40685,"is_reserved":false,"is_disabled":false,"rental_uris":{"android":"levelo://app?vid=2ec1a3ae-43c9-405f-a1e1-b78ee0392aa4","ios":"levelo://app?vid=2ec1a3ae-43c9-405f-a1e1-b78ee0392aa4"},"vehicle_type_id":"4","last_reported":1691859841,"current_range_meters":4800,"station_id":"","pricing_plan_id":"free"},{"bike_id":"897014e0-5f5e-412d-97e8-3d8d4cf1982d","system_id":"levelo_inurba_marseille","lat":43.29965,"lon":5.41297,"is_reserved":false,"is_disabled":false,"rental_uris":{"android":"levelo://app?vid=897014e0-5f5e-412d-97e8-3d8d4cf1982d","ios":"levelo://app?vid=897014e0-5f5e-412d-97e8-3d8d4cf1982d"},"vehicle_type_id":"4","last_reported":1691859841,"current_range_meters":16000,"station_id":"ce4bhp12rcd13ifvqh9g","pricing_plan_id":"free"},{"bike_id":"da38a3c4-85a9-45a5-b433-be522ffceee6","system_id":"levelo_inurba_marseille","lat":43.320045,"lon":5.415046,"is_reserved":false,"is_disabled":false,"rental_uris":{"android":"levelo://app?vid=da38a3c4-85a9-45a5-b433-be522ffceee6","ios":"levelo://app?vid=da38a3c4-85a9-45a5-b433-be522ffceee6"},"vehicle_type_id":"4","last_reported":1691859841,"current_range_meters":28000,"station_id":"ce4bhq92rcd13ifvqhkg","pricing_plan_id":"free"},{"bike_id":"b1fafdfa-1ecc-42bb-b88b-8147e74dea10","system_id":"levelo_inurba_marseille","lat":43.320045,"lon":5.415048,"is_reserved":false,"is_disabled":false,"rental_uris":{"android":"levelo://app?vid=b1fafdfa-1ecc-42bb-b88b-8147e74dea10","ios":"levelo://app?vid=b1fafdfa-1ecc-42bb-b88b-8147e74dea10"},"vehicle_type_id":"4","last_reported":1691859841,"current_range_meters":31600,"station_id":"ce4bhq92rcd13ifvqhkg","pricing_plan_id":"free"},{"bike_id":"c327718a-8fe6-4791-a349-aba0f8f94e82","system_id":"levelo_inurba_marseille","lat":43.279742,"lon":5.38744,"is_reserved":false,"is_disabled":false,"rental_uris":{"android":"levelo://app?vid=c327718a-8fe6-4791-a349-aba0f8f94e82","ios":"levelo://app?vid=c327718a-8fe6-4791-a349-aba0f8f94e82"},"vehicle_type_id":"4","last_reported":1691859841,"current_range_meters":29600,"station_id":"ce4bhg12rcd13ifvqf80","pricing_plan_id":"free"},{"bike_id":"ce6d723a-32c0-4915-970a-d09e7f109dbd","system_id":"levelo_inurba_marseille","lat":43.279742,"lon":5.38744,"is_reserved":false,"is_disabled":false,"rental_uris":{"android":"levelo://app?vid=ce6d723a-32c0-4915-970a-d09e7f109dbd","ios":"levelo://app?vid=ce6d723a-32c0-4915-970a-d09e7f109dbd"},"vehicle_type_id":"4","last_reported":1691859841,"current_range_meters":18800,"station_id":"ce4bhg12rcd13ifvqf80","pricing_plan_id":"free"},{"bike_id":"e4f9a437-6ca5-4da4-840c-d25c9d1cda9b","system_id":"levelo_inurba_marseille","lat":43.320045,"lon":5.415048,"is_reserved":false,"is_disabled":false,"rental_uris":{"android":"levelo://app?vid=e4f9a437-6ca5-4da4-840c-d25c9d1cda9b","ios":"levelo://app?vid=e4f9a437-6ca5-4da4-840c-d25c9d1cda9b"},"vehicle_type_id":"4","last_reported":1691859841,"current_range_meters":16800,"station_id":"ce4bhq92rcd13ifvqhkg","pricing_plan_id":"free"},{"bike_id":"12002288-12d2-4306-90f4-1bea76b7d8b9","system_id":"levelo_inurba_marseille","lat":43.32034,"lon":5.4157,"is_reserved":false,"is_disabled":false,"rental_uris":{"android":"levelo://app?vid=12002288-12d2-4306-90f4-1bea76b7d8b9","ios":"levelo://app?vid=12002288-12d2-4306-90f4-1bea76b7d8b9"},"vehicle_type_id":"4","last_reported":1691859841,"current_range_meters":31600,"station_id":"ce4bhq92rcd13ifvqhkg","pricing_plan_id":"free"},{"bike_id":"316adb91-43d6-4169-b5db-2abf73455f0e","system_id":"levelo_inurba_marseille","lat":43.27966,"lon":5.38745,"is_reserved":false,"is_disabled":false,"rental_uris":{"android":"levelo://app?vid=316adb91-43d6-4169-b5db-2abf73455f0e","ios":"levelo://app?vid=316adb91-43d6-4169-b5db-2abf73455f0e"},"vehicle_type_id":"4","last_reported":1691859841,"current_range_meters":5600,"station_id":"ce4bhg12rcd13ifvqf80","pricing_plan_id":"free"},{"bike_id":"0afb30fc-26d7-4a64-9586-f9b0152b0c07","system_id":"levelo_inurba_marseille","lat":43.325233,"lon":5.414318,"is_reserved":false,"is_disabled":false,"rental_uris":{"android":"levelo://app?vid=0afb30fc-26d7-4a64-9586-f9b0152b0c07","ios":"levelo://app?vid=0afb30fc-26d7-4a64-9586-f9b0152b0c07"},"vehicle_type_id":"4","last_reported":1691859841,"current_range_meters":9600,"station_id":"ce4bhq12rcd13ifvqhhg","pricing_plan_id":"free"},{"bike_id":"d884478b-aa48-418f-9b14-d7b9d6a07462","system_id":"levelo_inurba_marseille","lat":43.32544,"lon":5.41434,"is_reserved":false,"is_disabled":false,"rental_uris":{"android":"levelo://app?vid=d884478b-aa48-418f-9b14-d7b9d6a07462","ios":"levelo://app?vid=d884478b-aa48-418f-9b14-d7b9d6a07462"},"vehicle_type_id":"4","last_reported":1691859841,"current_range_meters":27200,"station_id":"ce4bhq12rcd13ifvqhhg","pricing_plan_id":"free"},{"bike_id":"1e242145-38eb-4938-a6df-bbfde5080df8","system_id":"levelo_inurba_marseille","lat":43.276226,"lon":5.361056,"is_reserved":false,"is_disabled":false,"rental_uris":{"android":"levelo://app?vid=1e242145-38eb-4938-a6df-bbfde5080df8","ios":"levelo://app?vid=1e242145-38eb-4938-a6df-bbfde5080df8"},"vehicle_type_id":"4","last_reported":1691859841,"current_range_meters":31200,"station_id":"ce4bgj92rcd13ifvqbe0","pricing_plan_id":"free"},{"bike_id":"a906beed-32d8-4893-a3de-4317b149b163","system_id":"levelo_inurba_marseille","lat":43.27618,"lon":5.36112,"is_reserved":false,"is_disabled":false,"rental_uris":{"android":"levelo://app?vid=a906beed-32d8-4893-a3de-4317b149b163","ios":"levelo://app?vid=a906beed-32d8-4893-a3de-4317b149b163"},"vehicle_type_id":"4","last_reported":1691859841,"current_range_meters":12800,"station_id":"ce4bgj92rcd13ifvqbe0","pricing_plan_id":"free"},{"bike_id":"22291eca-5e9e-489a-9817-d15b56f3bb32","system_id":"levelo_inurba_marseille","lat":43.27618,"lon":5.3611,"is_reserved":false,"is_disabled":false,"rental_uris":{"android":"levelo://app?vid=22291eca-5e9e-489a-9817-d15b56f3bb32","ios":"levelo://app?vid=22291eca-5e9e-489a-9817-d15b56f3bb32"},"vehicle_type_id":"4","last_reported":1691859841,"current_range_meters":31200,"station_id":"ce4bgj92rcd13ifvqbe0","pricing_plan_id":"free"},{"bike_id":"c719af05-ab86-4a5d-a717-6ebca01f1ef7","system_id":"levelo_inurba_marseille","lat":43.27615,"lon":5.36102,"is_reserved":false,"is_disabled":false,"rental_uris":{"android":"levelo://app?vid=c719af05-ab86-4a5d-a717-6ebca01f1ef7","ios":"levelo://app?vid=c719af05-ab86-4a5d-a717-6ebca01f1ef7"},"vehicle_type_id":"4","last_reported":1691859841,"current_range_meters":11600,"station_id":"ce4bgj92rcd13ifvqbe0","pricing_plan_id":"free"},{"bike_id":"148e14a7-7856-4895-9bba-034d4b607325","system_id":"levelo_inurba_marseille","lat":43.27612,"lon":5.36109,"is_reserved":false,"is_disabled":false,"rental_uris":{"android":"levelo://app?vid=148e14a7-7856-4895-9bba-034d4b607325","ios":"levelo://app?vid=148e14a7-7856-4895-9bba-034d4b607325"},"vehicle_type_id":"4","last_reported":1691859841,"current_range_meters":7200,"station_id":"ce4bgj92rcd13ifvqbe0","pricing_plan_id":"free"},{"bike_id":"386ed8e3-b71e-4f68-86af-202c5b76503e","system_id":"levelo_inurba_marseille","lat":43.27607,"lon":5.36112,"is_reserved":false,"is_disabled":false,"rental_uris":{"android":"levelo://app?vid=386ed8e3-b71e-4f68-86af-202c5b76503e","ios":"levelo://app?vid=386ed8e3-b71e-4f68-86af-202c5b76503e"},"vehicle_type_id":"4","last_reported":1691859841,"current_range_meters":23200,"station_id":"ce4bgj92rcd13ifvqbe0","pricing_plan_id":"free"},{"bike_id":"63f55d30-8374-428b-aa89-4fcbd704c0bc","system_id":"levelo_inurba_marseille","lat":43.280784,"lon":5.396622,"is_reserved":false,"is_disabled":false,"rental_uris":{"android":"levelo://app?vid=63f55d30-8374-428b-aa89-4fcbd704c0bc","ios":"levelo://app?vid=63f55d30-8374-428b-aa89-4fcbd704c0bc"},"vehicle_type_id":"4","last_reported":1691859841,"current_range_meters":26400,"station_id":"ce4bho12rcd13ifvqh2g","pricing_plan_id":"free"},{"bike_id":"882a7780-f435-4322-bcdc-535c99b4e433","system_id":"levelo_inurba_marseille","lat":43.280784,"lon":5.396622,"is_reserved":false,"is_disabled":false,"rental_uris":{"android":"levelo://app?vid=882a7780-f435-4322-bcdc-535c99b4e433","ios":"levelo://app?vid=882a7780-f435-4322-bcdc-535c99b4e433"},"vehicle_type_id":"4","last_reported":1691859841,"current_range_meters":12800,"station_id":"ce4bho12rcd13ifvqh2g","pricing_plan_id":"free"},{"bike_id":"e054d7f3-9372-409e-9f0c-ac68b3331341","system_id":"levelo_inurba_marseille","lat":43.303837,"lon":5.418724,"is_reserved":false,"is_disabled":false,"rental_uris":{"android":"levelo://app?vid=e054d7f3-9372-409e-9f0c-ac68b3331341","ios":"levelo://app?vid=e054d7f3-9372-409e-9f0c-ac68b3331341"},"vehicle_type_id":"4","last_reported":1691859841,"current_range_meters":24000,"station_id":"ce4bhop2rcd13ifvqh7g","pricing_plan_id":"free"},