{"last_updated":1732698645,"ttl":60,"version":"2.2","data":{"bikes":[{"bike_id":"bf2cd157-98d0-4e6e-818c-0734b30a6a82","system_id":"levelo_inurba_marseille","lat":43.27808,"lon":5.40704,"is_reserved":false,"is_disabled":true,"rental_uris":{"android":"levelo://app?vid=bf2cd157-98d0-4e6e-818c-0734b30a6a82","ios":"levelo://app?vid=bf2cd157-98d0-4e6e-818c-0734b30a6a82"},"vehicle_type_id":"4","last_reported":1732698645,"current_range_meters":0,"station_id":"ce4bhnh2rcd13ifvqgtg","pricing_plan_id":"cebpf4jnsgd1na2vs0mg"},{"bike_id":"f63a2a00-2c2b-41cf-9bf2-46b189bba93c","system_id":"levelo_inurba_marseille","lat":43.25936,"lon":5.40901,"is_reserved":false,"is_disabled":false,"rental_uris":{"android":"levelo://app?vid=f63a2a00-2c2b-41cf-9bf2-46b189bba93c","ios":"levelo://app?vid=f63a2a00-2c2b-41cf-9bf2-46b189bba93c"},"vehicle_type_id":"4","last_reported":1732698645,"current_range_meters":22400,"station_id":"ce4bhm92rcd13ifvqglg","pricing_plan_id":"cebpf4jnsgd1na2vs0mg"},{"bike_id":"b856c8b4-412d-4c25-bdd4-e6b29aed04cb","system_id":"levelo_inurba_marseille","lat":43.22939,"lon":5.35375,"is_reserved":false,"is_disabled":false,"rental_uris":{"android":"levelo://app?vid=b856c8b4-412d-4c25-bdd4-e6b29aed04cb","ios":"levelo://app?vid=b856c8b4-412d-4c25-bdd4-e6b29aed04cb"},"vehicle_type_id":"4","last_reported":1732698645,"current_range_meters":38400,"station_id":"cpo3532slgdg3j2ikp40","pricing_plan_id":"cebpf4jnsgd1na2vs0mg"},{"bike_id":"15f93f3a-f398-4842-8c41-ad2d598cde47","system_id":"levelo_inurba_marseille","lat":43.30529,"lon":5.36709,"is_reserved":false,"is_disabled":false,"rental_uris":{"android":"levelo://app?vid=15f93f3a-f398-4842-8c41-ad2d598cde47","ios":"levelo://app?vid=15f93f3a-f398-4842-8c41-ad2d598cde47"},"vehicle_type_id":"4","last_reported":1732698645,"current_range_meters":12000,"station_id":"ce4bgrp2rcd13ifvqc9g","pricing_plan_id":"cebpf4jnsgd1na2vs0mg"},{"bike_id":"b51d31e3-b561-4c0d-b4c9-74c74d6a4aa9","system_id":"levelo_inurba_marseille","lat":43.33026,"lon":5.39042,"is_reserved":false,"is_disabled":false,"rental_uris":{"android":"levelo://app?vid=b51d31e3-b561-4c0d-b4c9-74c74d6a4aa9","ios":"levelo://app?vid=b51d31e3-b561-4c0d-b4c9-74c74d6a4aa9"},"vehicle_type_id":"4","last_reported":1732698645,"current_range_meters":38000,"station_id":"ce4bhr92rcd13ifvqhrg","pricing_plan_id":"cebpf4jnsgd1na2vs0mg"},{"bike_id":"13b69a4c-c9d5-4b43-b76b-633ca739dbed","system_id":"levelo_inurba_marseille","lat":43.31336,"lon":5.3672,"is_reserved":false,"is_disabled":false,"rental_uris":{"android":"levelo://app?vid=13b69a4c-c9d5-4b43-b76b-633ca739dbed","ios":"levelo://app?vid=13b69a4c-c9d5-4b43-b76b-633ca739dbed"},"vehicle_type_id":"4","last_reported":1732698645,"current_range_meters":11600,"station_id":"ce4bgr92rcd13ifvqc6g","pricing_plan_id":"cebpf4jnsgd1na2vs0mg"},{"bike_id":"1ca45e91-2ac1-447f-a061-75c6cb857e8c","system_id":"levelo_inurba_marseille","lat":43.30294,"lon":5.39215,"is_reserved":false,"is_disabled":false,"rental_uris":{"android":"levelo://app?vid=1ca45e91-2ac1-447f-a061-75c6cb857e8c","ios":"levelo://app?vid=1ca45e91-2ac1-447f-a061-75c6cb857e8c"},"vehicle_type_id":"4","last_reported":1732698645,"current_range_meters":13600,"station_id":"ce4bgkh2rcd13ifvqbk0","pricing_plan_id":"cebpf4jnsgd1na2vs0mg"},{"bike_id":"d2cf7a78-7eb1-4d32-aa77-ae8ed51e3e3f","system_id":"levelo_inurba_marseille","lat":43.337616,"lon":5.37439,"is_reserved":false,"is_disabled":false,"rental_uris":{"android":"levelo://app?vid=d2cf7a78-7eb1-4d32-aa77-ae8ed51e3e3f","ios":"levelo://app?vid=d2cf7a78-7eb1-4d32-aa77-ae8ed51e3e3f"},"vehicle_type_id":"4","last_reported":1732698645,"current_range_meters":19200,"station_id":"","pricing_plan_id":"cebpf4jnsgd1na2vs0mg"},{"bike_id":"a481b9a0-9c57-4f11-a4b3-9fcac54c7392","system_id":"levelo_inurba_marseille","lat":43.24074,"lon":5.37759,"is_reserved":false,"is_disabled":false,"rental_uris":{"android":"levelo://app?vid=a481b9a0-9c57-4f11-a4b3-9fcac54c7392","ios":"levelo://app?vid=a481b9a0-9c57-4f11-a4b3-9fcac54c7392"},"vehicle_type_id":"4","last_reported":1732698645,"current_range_meters":38000,"station_id":"ce4bhnp2rcd13ifvqgvg","pricing_plan_id":"cebpf4jnsgd1na2vs0mg"},{"bike_id":"0fa82e23-4a3f-460a-a0a9-6383841fe087","system_id":"levelo_inurba_marseille","lat":43.28003,"lon":5.4001,"is_reserved":false,"is_disabled":false,"rental_uris":{"android":"levelo://app?vid=0fa82e23-4a3f-460a-a0a9-6383841fe087","ios":"levelo://app?vid=0fa82e23-4a3f-460a-a0a9-6383841fe087"},"vehicle_type_id":"4","last_reported":1732698645,"current_range_meters":27200,"station_id":"ce4bho92rcd13ifvqh4g","pricing_plan_id":"cebpf4jnsgd1na2vs0mg"},{"bike_id":"fdbf19ce-3666-482f-9d97-402ec817541e","system_id":"levelo_inurba_marseille","lat":43.30139,"lon":5.374,"is_reserved":false,"is_disabled":false,"rental_uris":{"android":"levelo://app?vid=fdbf19ce-3666-482f-9d97-402ec817541e","ios":"levelo://app?vid=fdbf19ce-3666-482f-9d97-402ec817541e"},"vehicle_type_id":"4","last_reported":1732698645,"current_range_meters":28400,"station_id":"ce4bgs92rcd13ifvqcc0","pricing_plan_id":"cebpf4jnsgd1na2vs0mg"},{"bike_id":"4a6f40e9-24aa-48ac-9ef2-a1bddf93539a","system_id":"levelo_inurba_marseille","lat":43.24072,"lon":5.37757,"is_reserved":false,"is_disabled":false,"rental_uris":{"android":"levelo://app?vid=4a6f40e9-24aa-48ac-9ef2-a1bddf93539a","ios":"levelo://app?vid=4a6f40e9-24aa-48ac-9ef2-a1bddf93539a"},"vehicle_type_id":"4","last_reported":1732698645,"current_range_meters":36000,"station_id":"ce4bhnp2rcd13ifvqgvg","pricing_plan_id":"cebpf4jnsgd1na2vs0mg"},{"bike_id":"67c0b52c-8db4-4f31-861f-fb7839e61cd3","system_id":"levelo_inurba_marseille","lat":43.30243,"lon":5.40063,"is_reserved":false,"is_disabled":false,"rental_uris":{"android":"levelo://app?vid=67c0b52c-8db4-4f31-861f-fb7839e61cd3","ios":"levelo://app?vid=67c0b52c-8db4-4f31-861f-fb7839e61cd3"},"vehicle_type_id":"4","last_reported":1732698645,"current_range_meters":21600,"station_id":"ce4bgvh2rcd13ifvqcs0","pricing_plan_id":"cebpf4jnsgd1na2vs0mg"},{"bike_id":"208770de-9b49-4ea6-b6b3-1c83bb03a84e","system_id":"levelo_inurba_marseille","lat":43.29598,"lon":5.38089,"is_reserved":false,"is_disabled":true,"rental_uris":{"android":"levelo://app?vid=208770de-9b49-4ea6-b6b3-1c83bb03a84e","ios":"levelo://app?vid=208770de-9b49-4ea6-b6b3-1c83bb03a84e"},"vehicle_type_id":"4","last_reported":1732698645,"current_range_meters":36400,"station_id":"ce4bgl12rcd13ifvqbo0","pricing_plan_id":"cebpf4jnsgd1na2vs0mg"},{"bike_id":"e7d61961-f2fb-44c4-9ee3-a227626b507f","system_id":"levelo_inurba_marseille","lat":43.23063,"lon":5.35482,"is_reserved":false,"is_disabled":false,"rental_uris":{"android":"levelo://app?vid=e7d61961-f2fb-44c4-9ee3-a227626b507f","ios":"levelo://app?vid=e7d61961-f2fb-44c4-9ee3-a227626b507f"},"vehicle_type_id":"4","last_reported":1732698645,"current_range_meters":38400,"station_id":"cpo3342slgdg3j2ifvpg","pricing_plan_id":"cebpf4jnsgd1na2vs0mg"},{"bike_id":"1b9864eb-ebda-46d7-a9ca-a6fc007f6e00","system_id":"levelo_inurba_marseille","lat":43.31343,"lon":5.36713,"is_reserved":false,"is_disabled":false,"rental_uris":{"android":"levelo://app?vid=1b9864eb-ebda-46d7-a9ca-a6fc007f6e00","ios":"levelo://app?vid=1b9864eb-ebda-46d7-a9ca-a6fc007f6e00"},"vehicle_type_id":"4","last_reported":1732698645,"current_range_meters":22800,"station_id":"ce4bgr92rcd13ifvqc6g","pricing_plan_id":"cebpf4jnsgd1na2vs0mg"},{"bike_id":"8410319f-806a-4b83-8885-4666ae292b99","system_id":"levelo_inurba_marseille","lat":43.25584,"lon":5.38223,"is_reserved":false,"is_disabled":false,"rental_uris":{"android":"levelo://app?vid=8410319f-806a-4b83-8885-4666ae292b99","ios":"levelo://app?vid=8410319f-806a-4b83-8885-4666ae292b99"},"vehicle_type_id":"4","last_reported":1732698645,"current_range_meters":18800,"station_id":"ce4bhih2rcd13ifvqfs0","pricing_plan_id":"cebpf4jnsgd1na2vs0mg"},{"bike_id":"a669fc4c-1592-4bd1-87ea-e6e507b2d262","system_id":"levelo_inurba_marseille","lat":43.33606,"lon":5.41021,"is_reserved":false,"is_disabled":false,"rental_uris":{"android":"levelo://app?vid=a669fc4c-1592-4bd1-87ea-e6e507b2d262","ios":"levelo://app?vid=a669fc4c-1592-4bd1-87ea-e6e507b2d262"},"vehicle_type_id":"4","last_reported":1732698645,"current_range_meters":38800,"station_id":"ce4bhqh2rcd13ifvqhmg","pricing_plan_id":"cebpf4jnsgd1na2vs0mg"},{"bike_id":"f8701991-8c40-432f-accb-db30a9ac6844","system_id":"levelo_inurba_marseille","lat":43.31343,"lon":5.36719,"is_reserved":false,"is_disabled":false,"rental_uris":{"android":"levelo://app?vid=f8701991-8c40-432f-accb-db30a9ac6844","ios":"levelo://app?vid=f8701991-8c40-432f-accb-db30a9ac6844"},"vehicle_type_id":"4","last_reported":1732698645,"current_range_meters":36400,"station_id":"ce4bgr92rcd13ifvqc6g","pricing_plan_id":"cebpf4jnsgd1na2vs0mg"},{"bike_id":"f98cf346-2f95-41c1-a190-288b7ed6e557","system_id":"levelo_inurba_marseille","lat":43.24085,"lon":5.37737,"is_reserved":false,"is_disabled":false,"rental_uris":{"android":"levelo://app?vid=f98cf346-2f95-41c1-a190-288b7ed6e557","ios":"levelo://app?vid=f98cf346-2f95-41c1-a190-288b7ed6e557"},"vehicle_type_id":"4","last_reported":1732698645,"current_range_meters":38400,"station_id":"ce4bhnp2rcd13ifvqgvg","pricing_plan_id":"cebpf4jnsgd1na2vs0mg"},{"bike_id":"3e74510c-d86b-4186-a956-0b286b8b0c60","system_id":"levelo_inurba_marseille","lat":43.24663,"lon":5.38142,"is_reserved":false,"is_disabled":false,"rental_uris":{"android":"levelo://app?vid=3e74510c-d86b-4186-a956-0b286b8b0c60","ios":"levelo://app?vid=3e74510c-d86b-4186-a956-0b286b8b0c60"},"vehicle_type_id":"4","last_reported":1732698645,"current_range_meters":38800,"station_id":"ce4bhih2rcd13ifvqfr0","pricing_plan_id":"cebpf4jnsgd1na2vs0mg"},{"bike_id":"b5533476-8cbe-405c-a4fd-2be9c55df1ae","system_id":"levelo_inurba_marseille","lat":43.27418,"lon":5.3941,"is_reserved":false,"is_disabled":false,"rental_uris":{"android":"levelo://app?vid=b5533476-8cbe-405c-a4fd-2be9c55df1ae","ios":"levelo://app?vid=b5533476-8cbe-405c-a4fd-2be9c55df1ae"},"vehicle_type_id":"4","last_reported":1732698645,"current_range_meters":5600,"station_id":"ce4bhdp2rcd13ifvqf20","pricing_plan_id":"cebpf4jnsgd1na2vs0mg"},{"bike_id":"9789e421-83e5-4329-a1b2-4d098e373920","system_id":"levelo_inurba_marseille","lat":43.30954,"lon":5.39032,"is_reserved":false,"is_disabled":false,"rental_uris":{"android":"levelo://app?vid=9789e421-83e5-4329-a1b2-4d098e373920","ios":"levelo://app?vid=9789e421-83e5-4329-a1b2-4d098e373920"},"vehicle_type_id":"4","last_reported":1732698645,"current_range_meters":20800,"station_id":"ce4bgup2rcd13ifvqco0","pricing_plan_id":"cebpf4jnsgd1na2vs0mg"},{"bike_id":"63969398-aead-4450-9204-3c1d2cb164b4","system_id":"levelo_inurba_marseille","lat":43.2749,"lon":5.42452,"is_reserved":false,"is_disabled":false,"rental_uris":{"android":"levelo://app?vid=63969398-aead-4450-9204-3c1d2cb164b4","ios":"levelo://app?vid=63969398-aead-4450-9204-3c1d2cb164b4"},"vehicle_type_id":"4","last_reported":1732698645,"current_range_meters":35200,"station_id":"ce4bhn92rcd13ifvqgrg","pricing_plan_id":"cebpf4jnsgd1na2vs0mg"},{"bike_id":"6f7949e1-de87-4a49-8620-fec27e04447f","system_id":"levelo_inurba_marseille","lat":43.33705,"lon":5.39208,"is_reserved":false,"is_disabled":true,"rental_uris":{"android":"levelo://app?vid=6f7949e1-de87-4a49-8620-fec27e04447f","ios":"levelo://app?vid=6f7949e1-de87-4a49-8620-fec27e04447f"},"vehicle_type_id":"4","last_reported":1732698645,"current_range_meters":0,"station_id":"ce4bhr92rcd13ifvqhsg","pricing_plan_id":"cebpf4jnsgd1na2vs0mg"},{"bike_id":"64c32c12-6135-4609-9367-8c88c6ffc2a1","system_id":"levelo_inurba_marseille","lat":43.31351,"lon":5.36719,"is_reserved":false,"is_disabled":false,"rental_uris":{"android":"levelo://app?vid=64c32c12-6135-4609-9367-8c88c6ffc2a1","ios":"levelo://app?vid=64c32c12-6135-4609-9367-8c88c6ffc2a1"},"vehicle_type_id":"4","last_reported":1732698645,"current_range_meters":17600,"station_id":"ce4bgr92rcd13ifvqc6g","pricing_plan_id":"cebpf4jnsgd1na2vs0mg"},{"bike_id":"67a4ab7f-292e-4618-a0c3-0ade6c82baee","system_id":"levelo_inurba_marseille","lat":43.29764,"lon":5.3811,"is_reserved":false,"is_disabled":false,"rental_uris":{"android":"levelo://app?vid=67a4ab7f-292e-4618-a0c3-0ade6c82baee","ios":"levelo://app?vid=67a4ab7f-292e-4618-a0c3-0ade6c82baee"},"vehicle_type_id":"4","last_reported":1732698645,"current_range_meters":30800,"station_id":"ce4bgip2rcd13ifvqbb0","pricing_plan_id":"cebpf4jnsgd1na2vs0mg"},{"bike_id":"b7a5ba08-0df7-41f9-ad5a-ea7e176429d7","system_id":"levelo_inurba_marseille","lat":43.24667,"lon":5.38167,"is_reserved":false,"is_disabled":false,"rental_uris":{"android":"levelo://app?vid=b7a5ba08-0df7-41f9-ad5a-ea7e176429d7","ios":"levelo://app?vid=b7a5ba08-0df7-41f9-ad5a-ea7e176429d7"},"vehicle_type_id":"4","last_reported":1732698645,"current_range_meters":6400,"station_id":"ce4bhih2rcd13ifvqfr0","pricing_plan_id":"cebpf4jnsgd1na2vs0mg"},{"bike_id":"a5b7304e-9e8b-4ee2-856c-5b94eb8532f6","system_id":"levelo_inurba_marseille","lat":43.314947,"lon":5.373097,"is_reserved":false,"is_disabled":false,"rental_uris":{"android":"levelo://app?vid=a5b7304e-9e8b-4ee2-856c-5b94eb8532f6","ios":"levelo://app?vid=a5b7304e-9e8b-4ee2-856c-5b94eb8532f6"},"vehicle_type_id":"4","last_reported":1732698645,"current_range_meters":26800,"station_id":"ce4bgt12rcd13ifvqcd0","pricing_plan_id":"cebpf4jnsgd1na2vs0mg"},{"bike_id":"88c0a23c-decf-469d-95fc-e70f9cd8eb3b","system_id":"levelo_inurba_marseille","lat":43.33754,"lon":5.37436,"is_reserved":false,"is_disabled":false,"rental_uris":{"android":"levelo://app?vid=88c0a23c-decf-469d-95fc-e70f9cd8eb3b","ios":"levelo://app?vid=88c0a23c-decf-469d-95fc-e70f9cd8eb3b"},"vehicle_type_id":"4","last_reported":1732698645,"current_range_meters":36800,"station_id":"","pricing_plan_id":"cebpf4jnsgd1na2vs0mg"},{"bike_id":"05ad44e5-d7ad-40e4-b78e-31a67af522c0","system_id":"levelo_inurba_marseille","lat":43.2573,"lon":5.41108,"is_reserved":false,"is_disabled":true,"rental_uris":{"android":"levelo://app?vid=05ad44e5-d7ad-40e4-b78e-31a67af522c0","ios":"levelo://app?vid=05ad44e5-d7ad-40e4-b78e-31a67af522c0"},"vehicle_type_id":"4","last_reported":1732698645,"current_range_meters":36400,"station_id":"ce4bhkp2rcd13ifvqgd0","pricing_plan_id":"cebpf4jnsgd1na2vs0mg"},{"bike_id":"947b4ae5-6d27-48cd-83df-1d5aa4a4dc55","system_id":"levelo_inurba_marseille","lat":43.24665,"lon":5.38157,"is_reserved":false,"is_disabled":false,"rental_uris":{"android":"levelo://app?vid=947b4ae5-6d27-48cd-83df-1d5aa4a4dc55","ios":"levelo://app?vid=947b4ae5-6d27-48cd-83df-1d5aa4a4dc55"},"vehicle_type_id":"4","last_reported":1732698645,"current_range_meters":30400,"station_id":"ce4bhih2rcd13ifvqfr0","pricing_plan_id":"cebpf4jnsgd1na2vs0mg"},{"bike_id":"e9453f45-1719-4d95-84b6-9fec3792c91c","system_id":"levelo_inurba_marseille","lat":43.24075,"lon":5.37754,"is_reserved":false,"is_disabled":false,"rental_uris":{"android":"levelo://app?vid=e9453f45-1719-4d95-84b6-9fec3792c91c","ios":"levelo://app?vid=e9453f45-1719-4d95-84b6-9fec3792c91c"},"vehicle_type_id":"4","last_reported":1732698645,"current_range_meters":37600,"station_id":"ce4bhnp2rcd13ifvqgvg","pricing_plan_id":"cebpf4jnsgd1na2vs0mg"},{"bike_id":"6b7ccf7e-484a-4f22-baf0-4737914f5815","system_id":"levelo_inurba_marseille","lat":43.29833,"lon":5.362819,"is_reserved":false,"is_disabled":false,"rental_uris":{"android":"levelo://app?vid=6b7ccf7e-484a-4f22-baf0-4737914f5815","ios":"levelo://app?vid=6b7ccf7e-484a-4f22-baf0-4737914f5815"},"vehicle_type_id":"4","last_reported":1732698645,"current_range_meters":30800,"station_id":"ce4bgpp2rcd13ifvqc3g","pricing_plan_id":"cebpf4jnsgd1na2vs0mg"},{"bike_id":"d27e03e9-147c-4a86-8e3c-f6e54a3af6c3","system_id":"levelo_inurba_marseille","lat":43.27974,"lon":5.38745,"is_reserved":false,"is_disabled":false,"rental_uris":{"android":"levelo://app?vid=d27e03e9-147c-4a86-8e3c-f6e54a3af6c3","ios":"levelo://app?vid=d27e03e9-147c-4a86-8e3c-f6e54a3af6c3"},"vehicle_type_id":"4","last_reported":1732698645,"current_range_meters":12400,"station_id":"ce4bhg12rcd13ifvqf80","pricing_plan_id":"cebpf4jnsgd1na2vs0mg"},{"bike_id":"730718ae-d786-4d6e-883c-c60966b23e43","system_id":"levelo_inurba_marseille","lat":43.24077,"lon":5.37751,"is_reserved":false,"is_disabled":false,"rental_uris":{"android":"levelo://app?vid=730718ae-d786-4d6e-883c-c60966b23e43","ios":"levelo://app?vid=730718ae-d786-4d6e-883c-c60966b23e43"},"vehicle_type_id":"4","last_reported":1732698645,"current_range_meters":18800,"station_id":"ce4bhnp2rcd13ifvqgvg","pricing_plan_id":"cebpf4jnsgd1na2vs0mg"},{"bike_id":"835a170b-9333-4a62-9af0-a89a87c1a309","system_id":"levelo_inurba_marseille","lat":43.24651,"lon":5.38156,"is_reserved":false,"is_disabled":false,"rental_uris":{"android":"levelo://app?vid=835a170b-9333-4a62-9af0-a89a87c1a309","ios":"levelo://app?vid=835a170b-9333-4a62-9af0-a89a87c1a309"},"vehicle_type_id":"4","last_reported":1732698645,"current_range_meters":7200,"station_id":"ce4bhih2rcd13ifvqfr0","pricing_plan_id":"cebpf4jnsgd1na2vs0mg"},{"bike_id":"f817df3c-1f2f-446f-b44b-72642cb30418","system_id":"levelo_inurba_marseille","lat":43.29768,"lon":5.38101,"is_reserved":false,"is_disabled":false,"rental_uris":{"android":"levelo://app?vid=f817df3c-1f2f-446f-b44b-72642cb30418","ios":"levelo://app?vid=f817df3c-1f2f-446f-b44b-72642cb30418"},"vehicle_type_id":"4","last_reported":1732698645,"current_range_meters":38800,"station_id":"ce4bgip2rcd13ifvqbb0","pricing_plan_id":"cebpf4jnsgd1na2vs0mg"},{"bike_id":"19ef8423-4bc5-40c6-be0a-3120494a75c4","system_id":"levelo_inurba_marseille","lat":43.29533,"lon":5.39049,"is_reserved":false,"is_disabled":false,"rental_uris":{"android":"levelo://app?vid=19ef8423-4bc5-40c6-be0a-3120494a75c4","ios":"levelo://app?vid=19ef8423-4bc5-40c6-be0a-3120494a75c4"},"vehicle_type_id":"4","last_reported":1732698645,"current_range_meters":30000,"station_id":"ce4bh3p2rcd13ifvqdp0","pricing_plan_id":"cebpf4jnsgd1na2vs0mg"},{"bike_id":"6dda5676-3da7-4659-b792-af2ff3a8787d","system_id":"levelo_inurba_marseille","lat":43.3122,"lon":5.36848,"is_reserved":false,"is_disabled":false,"rental_uris":{"android":"levelo://app?vid=6dda5676-3da7-4659-b792-af2ff3a8787d","ios":"levelo://app?vid=6dda5676-3da7-4659-b792-af2ff3a8787d"},"vehicle_type_id":"4","last_reported":1732698645,"current_range_meters":16000,"station_id":"ce4bgl92rcd13ifvqbq0","pricing_plan_id":"cebpf4jnsgd1na2vs0mg"},{"bike_id":"ecdb3743-a3d9-4afc-bb51-ff07b746abac","system_id":"levelo_inurba_marseille","lat":43.29038,"lon":5.39972,"is_reserved":false,"is_disabled":true,"rental_uris":{"android":"levelo://app?vid=ecdb3743-a3d9-4afc-bb51-ff07b746abac","ios":"levelo://app?vid=ecdb3743-a3d9-4afc-bb51-ff07b746abac"},"vehicle_type_id":"4","last_reported":1732698645,"current_range_meters":38800,"station_id":"ce4bh392rcd13ifvqdm0","pricing_plan_id":"cebpf4jnsgd1na2vs0mg"},{"bike_id":"8e46b2c9-0288-44ad-a5dd-399cf4cb50ae","system_id":"levelo_inurba_marseille","lat":43.33606,"lon":5.41021,"is_reserved":false,"is_disabled":false,"rental_uris":{"android":"levelo://app?vid=8e46b2c9-0288-44ad-a5dd-399cf4cb50ae","ios":"levelo://app?vid=8e46b2c9-0288-44ad-a5dd-399cf4cb50ae"},"vehicle_type_id":"4","last_reported":1732698645,"current_range_meters":8000,"station_id":"ce4bhqh2rcd13ifvqhmg","pricing_plan_id":"cebpf4jnsgd1na2vs0mg"},{"bike_id":"820f12a0-cf28-488c-8a74-3f1b9d2e4db5","system_id":"levelo_inurba_marseille","lat":43.23058,"lon":5.35486,"is_reserved":false,"is_disabled":false,"rental_uris":{"android":"levelo://app?vid=820f12a0-cf28-488c-8a74-3f1b9d2e4db5","ios":"levelo://app?vid=820f12a0-cf28-488c-8a74-3f1b9d2e4db5"},"vehicle_type_id":"4","last_reported":1732698645,"current_range_meters":19200,"station_id":"cpo3342slgdg3j2ifvpg","pricing_plan_id":"cebpf4jnsgd1na2vs0mg"},{"bike_id":"5cfa082c-7c1e-4ec1-be51-3e0c163e81f0","system_id":"levelo_inurba_marseille","lat":43.29562,"lon":5.37507,"is_reserved":false,"is_disabled":false,"rental_uris":{"android":"levelo://app?vid=5cfa082c-7c1e-4ec1-be51-3e0c163e81f0","ios":"levelo://app?vid=5cfa082c-7c1e-4ec1-be51-3e0c163e81f0"},"vehicle_type_id":"4","last_reported":1732698645,"current_range_meters":29600,"station_id":"ce4bgh92rcd13ifvqb50","pricing_plan_id":"cebpf4jnsgd1na2vs0mg"},{"bike_id":"958ae39c-ac6d-4685-adb6-01dd774c93e1","system_id":"levelo_inurba_marseille","lat":43.30308,"lon":5.36892,"is_reserved":false,"is_disabled":false,"rental_uris":{"android":"levelo://app?vid=958ae39c-ac6d-4685-adb6-01dd774c93e1","ios":"levelo://app?vid=958ae39c-ac6d-4685-adb6-01dd774c93e1"},"vehicle_type_id":"4","last_reported":1732698645,"current_range_meters":30000,"station_id":"ce4bgqh2rcd13ifvqc5g","pricing_plan_id":"cebpf4jnsgd1na2vs0mg"},{"bike_id":"7a0400d2-ebb9-4d66-9e7c-45bd1b294b09","system_id":"levelo_inurba_marseille","lat":43.27494,"lon":5.42449,"is_reserved":false,"is_disabled":false,"rental_uris":{"android":"levelo://app?vid=7a0400d2-ebb9-4d66-9e7c-45bd1b294b09","ios":"levelo://app?vid=7a0400d2-ebb9-4d66-9e7c-45bd1b294b09"},"vehicle_type_id":"4","last_reported":1732698645,"current_range_meters":24000,"station_id":"ce4bhn92rcd13ifvqgrg","pricing_plan_id":"cebpf4jnsgd1na2vs0mg"},{"bike_id":"a6a7a918-1329-43a3-b75e-e559ca6a9d9a","system_id":"levelo_inurba_marseille","lat":43.3053,"lon":5.36716,"is_reserved":false,"is_disabled":false,"rental_uris":{"android":"levelo://app?vid=a6a7a918-1329-43a3-b75e-e559ca6a9d9a","ios":"levelo://app?vid=a6a7a918-1329-43a3-b75e-e559ca6a9d9a"},"vehicle_type_id":"4","last_reported":1732698645,"current_range_meters":38800,"station_id":"ce4bgrp2rcd13ifvqc9g","pricing_plan_id":"cebpf4jnsgd1na2vs0mg"},{"bike_id":"a4f5ec09-594b-4d89-bf3e-08aaf07da9b6","system_id":"levelo_inurba_marseille","lat":43.3015,"lon":5.38083,"is_reserved":false,"is_disabled":false,"rental_uris":{"android":"levelo://app?vid=a4f5ec09-594b-4d89-bf3e-08aaf07da9b6","ios":"levelo://app?vid=a4f5ec09-594b-4d89-bf3e-08aaf07da9b6"},"vehicle_type_id":"4","last_reported":1732698645,"current_range_meters":37600,"station_id":"ce4bgjp2rcd13ifvqbh0","pricing_plan_id":"cebpf4jnsgd1na2vs0mg"},{"bike_id":"3451b272-9230-4dff-84d2-783314fd3bbb","system_id":"levelo_inurba_marseille","lat":43.25111,"lon":5.40323,"is_reserved":false,"is_disabled":false,"rental_uris":{"android":"levelo://app?vid=3451b272-9230-4dff-84d2-783314fd3bbb","ios":"levelo://app?vid=3451b272-9230-4dff-84d2-783314fd3bbb"},"vehicle_type_id":"4","last_reported":1732698645,"current_range_meters":2000,"station_id":"ce4bhlh2rcd13ifvqgig","pricing_plan_id":"cebpf4jnsgd1na2vs0mg"},{"bike_id":"d11a35e4-3282-4e1b-b89d-3681311dc965","system_id":"levelo_inurba_marseille","lat":43.28685,"lon":5.38656,"is_reserved":false,"is_disabled":false,"rental_uris":{"android":"levelo://app?vid=d11a35e4-3282-4e1b-b89d-3681311dc965","ios":"levelo://app?vid=d11a35e4-3282-4e1b-b89d-3681311dc965"},"vehicle_type_id":"4","last_reported":1732698645,"current_range_meters":36400,"station_id":"ce4bh492rcd13ifvqdug","pricing_plan_id":"cebpf4jnsgd1na2vs0mg"},{"bike_id":"7d93fd60-b8d7-46a8-b162-5641b5ce3bda","system_id":"levelo_inurba_marseille","lat":43.24994,"lon":5.38935,"is_reserved":false,"is_disabled":false,"rental_uris":{"android":"levelo://app?vid=7d93fd60-b8d7-46a8-b162-5641b5ce3bda","ios":"levelo://app?vid=7d93fd60-b8d7-46a8-b162-5641b5ce3bda"},"vehicle_type_id":"4","last_reported":1732698645,"current_range_meters":31200,"station_id":"ce4bhgp2rcd13ifvqfd0","pricing_plan_id":"cebpf4jnsgd1na2vs0mg"},{"bike_id":"cb67f517-b055-4f00-ba20-a4b44888f759","system_id":"levelo_inurba_marseille","lat":43.3171,"lon":5.37739,"is_reserved":false,"is_disabled":false,"rental_uris":{"android":"levelo://app?vid=cb67f517-b055-4f00-ba20-a4b44888f759","ios":"levelo://app?vid=cb67f517-b055-4f00-ba20-a4b44888f759"},"vehicle_type_id":"4","last_reported":1732698645,"current_range_meters":37600,"station_id":"ce4bgth2rcd13ifvqch0","pricing_plan_id":"cebpf4jnsgd1na2vs0mg"},{"bike_id":"c6323cc4-3a8d-4794-8c5c-c47ccfb2ec44","system_id":"levelo_inurba_marseille","lat":43.3055,"lon":5.36693,"is_reserved":false,"is_disabled":false,"rental_uris":{"android":"levelo://app?vid=c6323cc4-3a8d-4794-8c5c-c47ccfb2ec44","ios":"levelo://app?vid=c6323cc4-3a8d-4794-8c5c-c47ccfb2ec44"},"vehicle_type_id":"4","last_reported":1732698645,"current_range_meters":33600,"station_id":"ce4bgrp2rcd13ifvqc9g","pricing_plan_id":"cebpf4jnsgd1na2vs0mg"},{"bike_id":"7ccc2b04-fc81-4c9c-b2df-f46a8500519e","system_id":"levelo_inurba_marseille","lat":43.29017,"lon":5.38642,"is_reserved":false,"is_disabled":false,"rental_uris":{"android":"levelo://app?vid=7ccc2b04-fc81-4c9c-b2df-f46a8500519e","ios":"levelo://app?vid=7ccc2b04-fc81-4c9c-b2df-f46a8500519e"},"vehicle_type_id":"4","last_reported":1732698645,"current_range_meters":20800,"station_id":"ce4bh4p2rcd13ifvqe0g","pricing_plan_id":"cebpf4jnsgd1na2vs0mg"},{"bike_id":"287fa067-0159-4a80-8436-f002b330f07a","system_id":"levelo_inurba_marseille","lat":43.270729,"lon":5.422713,"is_reserved":false,"is_disabled":false,"rental_uris":{"android":"levelo://app?vid=287fa067-0159-4a80-8436-f002b330f07a","ios":"levelo://app?vid=287fa067-0159-4a80-8436-f002b330f07a"},"vehicle_type_id":"4","last_reported":1732698645,"current_range_meters":38800,"station_id":"ce4bhk92rcd13ifvqgb0","pricing_plan_id":"cebpf4jnsgd1na2vs0mg"},{"bike_id":"b6df706b-8a11-4fb1-814d-c19eff907861","system_id":"levelo_inurba_marseille","lat":43.28614,"lon":5.35101,"is_reserved":false,"is_disabled":false,"rental_uris":{"android":"levelo://app?vid=b6df706b-8a11-4fb1-814d-c19eff907861","ios":"levelo://app?vid=b6df706b-8a11-4fb1-814d-c19eff907861"},"vehicle_type_id":"4","last_reported":1732698645,"current_range_meters":8800,"station_id":"ce4bhch2rcd13ifvqeug","pricing_plan_id":"cebpf4jnsgd1na2vs0mg"},{"bike_id":"4d4c884f-6933-49c0-8899-f9856d90f44d","system_id":"levelo_inurba_marseille","lat":43.29747,"lon":5.37964,"is_reserved":false,"is_disabled":true,"rental_uris":{"android":"levelo://app?vid=4d4c884f-6933-49c0-8899-f9856d90f44d","ios":"levelo://app?vid=4d4c884f-6933-49c0-8899-f9856d90f44d"},"vehicle_type_id":"4","last_reported":1732698645,"current_range_meters":0,"station_id":"","pricing_plan_id":"cebpf4jnsgd1na2vs0mg"},{"bike_id":"24b38645-9029-4d4b-97da-190c683f379b","system_id":"levelo_inurba_marseille","lat":43.29308,"lon":5.37165,"is_reserved":false,"is_disabled":false,"rental_uris":{"android":"levelo://app?vid=24b38645-9029-4d4b-97da-190c683f379b","ios":"levelo://app?vid=24b38645-9029-4d4b-97da-190c683f379b"},"vehicle_type_id":"4","last_reported":1732698645,"current_range_meters":30000,"station_id":"ce4bgh92rcd13ifvqb40","pricing_plan_id":"cebpf4jnsgd1na2vs0mg"},{"bike_id":"898a2045-3b1f-450d-bbe2-0cde778f9bcb","system_id":"levelo_inurba_marseille","lat":43.30148,"lon":5.38081,"is_reserved":false,"is_disabled":false,"rental_uris":{"android":"levelo://app?vid=898a2045-3b1f-450d-bbe2-0cde778f9bcb","ios":"levelo://app?vid=898a2045-3b1f-450d-bbe2-0cde778f9bcb"},"vehicle_type_id":"4","last_reported":1732698645,"current_range_meters":28800,"station_id":"ce4bgjp2rcd13ifvqbh0","pricing_plan_id":"cebpf4jnsgd1na2vs0mg"},{"bike_id":"43e60175-b97e-4e64-9a5a-2bf86d2f77ca","system_id":"levelo_inurba_marseille","lat":43.30292,"lon":5.37688,"is_reserved":false,"is_disabled":false,"rental_uris":{"android":"levelo://app?vid=43e60175-b97e-4e64-9a5a-2bf86d2f77ca","ios":"levelo://app?vid=43e60175-b97e-4e64-9a5a-2bf86d2f77ca"},"vehicle_type_id":"4","last_reported":1732698645,"current_range_meters":33200,"station_id":"ce4bguh2rcd13ifvqcj0","pricing_plan_id":"cebpf4jnsgd1na2vs0mg"},{"bike_id":"20b3d934-42a7-42b9-bb49-0833cf2f0412","system_id":"levelo_inurba_marseille","lat":43.29198,"lon":5.37259,"is_reserved":false,"is_disabled":true,"rental_uris":{"android":"levelo://app?vid=20b3d934-42a7-42b9-bb49-0833cf2f0412","ios":"levelo://app?vid=20b3d934-42a7-42b9-bb49-0833cf2f0412"},"vehicle_type_id":"4","last_reported":1732698645,"current_range_meters":38400,"station_id":"ce4bha92rcd13ifvqeh0","pricing_plan_id":"cebpf4jnsgd1na2vs0mg"},{"bike_id":"0cb4ba6d-d720-43f4-b11e-bbd18e9ade15","system_id":"levelo_inurba_marseille","lat":43.2418,"lon":5.39728,"is_reserved":false,"is_disabled":false,"rental_uris":{"android":"levelo://app?vid=0cb4ba6d-d720-43f4-b11e-bbd18e9ade15","ios":"levelo://app?vid=0cb4ba6d-d720-43f4-b11e-bbd18e9ade15"},"vehicle_type_id":"4","last_reported":1732698645,"current_range_meters":8800,"station_id":"ce4bhn12rcd13ifvqgpg","pricing_plan_id":"cebpf4jnsgd1na2vs0mg"},{"bike_id":"27ad8271-c5fe-415f-845b-8714a7c98d76","system_id":"levelo_inurba_marseille","lat":43.28099,"lon":5.37835,"is_reserved":false,"is_disabled":false,"rental_uris":{"android":"levelo://app?vid=27ad8271-c5fe-415f-845b-8714a7c98d76","ios":"levelo://app?vid=27ad8271-c5fe-415f-845b-8714a7c98d76"},"vehicle_type_id":"4","last_reported":1732698645,"current_range_meters":35600,"station_id":"ce4bha12rcd13ifvqee0","pricing_plan_id":"cebpf4jnsgd1na2vs0mg"},{"bike_id":"e023ff32-6c4f-4673-a7aa-5fcdbec26d0f","system_id":"levelo_inurba_marseille","lat":43.28847,"lon":5.35837,"is_reserved":false,"is_disabled":true,"rental_uris":{"android":"levelo://app?vid=e023ff32-6c4f-4673-a7aa-5fcdbec26d0f","ios":"levelo://app?vid=e023ff32-6c4f-4673-a7aa-5fcdbec26d0f"},"vehicle_type_id":"4","last_reported":1732698645,"current_range_meters":25600,"station_id":"ce4bhb12rcd13ifvqem0","pricing_plan_id":"cebpf4jnsgd1na2vs0mg"},{"bike_id":"44deab34-75a9-4d53-8c74-3de869b80c74","system_id":"levelo_inurba_marseille","lat":43.30131,"lon":5.39869,"is_reserved":false,"is_disabled":false,"rental_uris":{"android":"levelo://app?vid=44deab34-75a9-4d53-8c74-3de869b80c74","ios":"levelo://app?vid=44deab34-75a9-4d53-8c74-3de869b80c74"},"vehicle_type_id":"4","last_reported":1732698645,"current_range_meters":2800,"station_id":"ce4bh0h2rcd13ifvqd40","pricing_plan_id":"cebpf4jnsgd1na2vs0mg"},{"bike_id":"c2c67871-d14a-4a79-ade3-c2da12334478","system_id":"levelo_inurba_marseille","lat":43.25495,"lon":5.37649,"is_reserved":false,"is_disabled":false,"rental_uris":{"android":"levelo://app?vid=c2c67871-d14a-4a79-ade3-c2da12334478","ios":"levelo://app?vid=c2c67871-d14a-4a79-ade3-c2da12334478"},"vehicle_type_id":"4","last_reported":1732698645,"current_range_meters":36800,"station_id":"ce4bhh12rcd13ifvqff0","pricing_plan_id":"cebpf4jnsgd1na2vs0mg"},{"bike_id":"f9ca3389-f0b0-42e9-b890-7ec20aa8d35e","system_id":"levelo_inurba_marseille","lat":43.29273,"lon":5.36838,"is_reserved":false,"is_disabled":true,"rental_uris":{"android":"levelo://app?vid=f9ca3389-f0b0-42e9-b890-7ec20aa8d35e","ios":"levelo://app?vid=f9ca3389-f0b0-42e9-b890-7ec20aa8d35e"},"vehicle_type_id":"4","last_reported":1732698645,"current_range_meters":11600,"station_id":"ce4bhbp2rcd13ifvqesg","pricing_plan_id":"cebpf4jnsgd1na2vs0mg"},{"bike_id":"4d809776-4d2b-4bf5-8aa6-666b5b1fd18f","system_id":"levelo_inurba_marseille","lat":43.337179,"lon":5.391892,"is_reserved":false,"is_disabled":false,"rental_uris":{"android":"levelo://app?vid=4d809776-4d2b-4bf5-8aa6-666b5b1fd18f","ios":"levelo://app?vid=4d809776-4d2b-4bf5-8aa6-666b5b1fd18f"},"vehicle_type_id":"4","last_reported":1732698645,"current_range_meters":38400,"station_id":"ce4bhr92rcd13ifvqhsg","pricing_plan_id":"cebpf4jnsgd1na2vs0mg"},{"bike_id":"55857015-4925-4b83-9c73-4a782a962aeb","system_id":"levelo_inurba_marseille","lat":43.30953,"lon":5.39036,"is_reserved":false,"is_disabled":false,"rental_uris":{"android":"levelo://app?vid=55857015-4925-4b83-9c73-4a782a962aeb","ios":"levelo://app?vid=55857015-4925-4b83-9c73-4a782a962aeb"},"vehicle_type_id":"4","last_reported":1732698645,"current_range_meters":24400,"station_id":"ce4bgup2rcd13ifvqco0","pricing_plan_id":"cebpf4jnsgd1na2vs0mg"},{"bike_id":"b08e20b5-f00e-4042-93cf-68b043595c11","system_id":"levelo_inurba_marseille","lat":43.2668,"lon":5.38266,"is_reserved":false,"is_disabled":false,"rental_uris":{"android":"levelo://app?vid=b08e20b5-f00e-4042-93cf-68b043595c11","ios":"levelo://app?vid=b08e20b5-f00e-4042-93cf-68b043595c11"},"vehicle_type_id":"4","last_reported":1732698645,"current_range_meters":34800,"station_id":"ce4bhg92rcd13ifvqf90","pricing_plan_id":"cebpf4jnsgd1na2vs0mg"},{"bike_id":"339850c3-d6a6-49d9-9bea-bb2f74b15c16","system_id":"levelo_inurba_marseille","lat":43.29534,"lon":5.38546,"is_reserved":false,"is_disabled":true,"rental_uris":{"android":"levelo://app?vid=339850c3-d6a6-49d9-9bea-bb2f74b15c16","ios":"levelo://app?vid=339850c3-d6a6-49d9-9bea-bb2f74b15c16"},"vehicle_type_id":"4","last_reported":1732698645,"current_range_meters":33600,"station_id":"ce4bgih2rcd13ifvqba0","pricing_plan_id":"cebpf4jnsgd1na2vs0mg"},{"bike_id":"5c89ccab-80c2-49a1-9b7e-a1e55222bd20","system_id":"levelo_inurba_marseille","lat":43.24078,"lon":5.37753,"is_reserved":false,"is_disabled":false,"rental_uris":{"android":"levelo://app?vid=5c89ccab-80c2-49a1-9b7e-a1e55222bd20","ios":"levelo://app?vid=5c89ccab-80c2-49a1-9b7e-a1e55222bd20"},"vehicle_type_id":"4","last_reported":1732698645,"current_range_meters":38000,"station_id":"ce4bhnp2rcd13ifvqgvg","pricing_plan_id":"cebpf4jnsgd1na2vs0mg"},{"bike_id":"632211cd-b346-4150-9c78-c71d7b11441f","system_id":"levelo_inurba_marseille","lat":43.33603,"lon":5.41024,"is_reserved":false,"is_disabled":true,"rental_uris":{"android":"levelo://app?vid=632211cd-b346-4150-9c78-c71d7b11441f","ios":"levelo://app?vid=632211cd-b346-4150-9c78-c71d7b11441f"},"vehicle_type_id":"4","last_reported":1732698645,"current_range_meters":12800,"station_id":"ce4bhqh2rcd13ifvqhmg","pricing_plan_id":"cebpf4jnsgd1na2vs0mg"},{"bike_id":"834fa57d-9857-4cdc-bc18-1867eaf6f20a","system_id":"levelo_inurba_marseille","lat":43.30543,"lon":5.36527,"is_reserved":false,"is_disabled":true,"rental_uris":{"android":"levelo://app?vid=834fa57d-9857-4cdc-bc18-1867eaf6f20a","ios":"levelo://app?vid=834fa57d-9857-4cdc-bc18-1867eaf6f20a"},"vehicle_type_id":"4","last_reported":1732698645,"current_range_meters":14800,"station_id":"ce4bgs12rcd13ifvqcag","pricing_plan_id":"cebpf4jnsgd1na2vs0mg"},{"bike_id":"242eba8c-5633-44b9-9a97-b18308730ded","system_id":"levelo_inurba_marseille","lat":43.2408,"lon":5.37746,"is_reserved":false,"is_disabled":false,"rental_uris":{"android":"levelo://app?vid=242eba8c-5633-44b9-9a97-b18308730ded","ios":"levelo://app?vid=242eba8c-5633-44b9-9a97-b18308730ded"},"vehicle_type_id":"4","last_reported":1732698645,"current_range_meters":25200,"station_id":"ce4bhnp2rcd13ifvqgvg","pricing_plan_id":"cebpf4jnsgd1na2vs0mg"},{"bike_id":"9ca0bee1-3ee3-42dd-bd49-56d5f853d816","system_id":"levelo_inurba_marseille","lat":43.24071,"lon":5.37756,"is_reserved":false,"is_disabled":false,"rental_uris":{"android":"levelo://app?vid=9ca0bee1-3ee3-42dd-bd49-56d5f853d816","ios":"levelo://app?vid=9ca0bee1-3ee3-42dd-bd49-56d5f853d816"},"vehicle_type_id":"4","last_reported":1732698645,"current_range_meters":32400,"station_id":"ce4bhnp2rcd13ifvqgvg","pricing_plan_id":"cebpf4jnsgd1na2vs0mg"},{"bike_id":"8fc317a6-f919-4f3f-9dd2-8017c1da5d78","system_id":"levelo_inurba_marseille","lat":43.29633,"lon":5.37704,"is_reserved":false,"is_disabled":false,"rental_uris":{"android":"levelo://app?vid=8fc317a6-f919-4f3f-9dd2-8017c1da5d78","ios":"levelo://app?vid=8fc317a6-f919-4f3f-9dd2-8017c1da5d78"},"vehicle_type_id":"4","last_reported":1732698645,"current_range_meters":12000,"station_id":"ce4bgi92rcd13ifvqb90","pricing_plan_id":"cebpf4jnsgd1na2vs0mg"},{"bike_id":"674df4ab-5b72-443e-a3da-efdec3ddef4f","system_id":"levelo_inurba_marseille","lat":43.31492,"lon":5.3731,"is_reserved":false,"is_disabled":true,"rental_uris":{"android":"levelo://app?vid=674df4ab-5b72-443e-a3da-efdec3ddef4f","ios":"levelo://app?vid=674df4ab-5b72-443e-a3da-efdec3ddef4f"},"vehicle_type_id":"4","last_reported":1732698645,"current_range_meters":5600,"station_id":"ce4bgt12rcd13ifvqcd0","pricing_plan_id":"cebpf4jnsgd1na2vs0mg"},{"bike_id":"a71d24b9-b22e-418c-be0b-37629e71fe9a","system_id":"levelo_inurba_marseille","lat":43.24074,"lon":5.3776,"is_reserved":false,"is_disabled":false,"rental_uris":{"android":"levelo://app?vid=a71d24b9-b22e-418c-be0b-37629e71fe9a","ios":"levelo://app?vid=a71d24b9-b22e-418c-be0b-37629e71fe9a"},"vehicle_type_id":"4","last_reported":1732698645,"current_range_meters":27600,"station_id":"ce4bhnp2rcd13ifvqgvg","pricing_plan_id":"cebpf4jnsgd1na2vs0mg"},{"bike_id":"26e9bba5-e2f2-4e5e-990c-4106cf89abc0","system_id":"levelo_inurba_marseille","lat":43.28487,"lon":5.38422,"is_reserved":false,"is_disabled":true,"rental_uris":{"android":"levelo://app?vid=26e9bba5-e2f2-4e5e-990c-4106cf89abc0","ios":"levelo://app?vid=26e9bba5-e2f2-4e5e-990c-4106cf89abc0"},"vehicle_type_id":"4","last_reported":1732698645,"current_range_meters":38800,"station_id":"ce4bh512rcd13ifvqe3g","pricing_plan_id":"cebpf4jnsgd1na2vs0mg"},{"bike_id":"bc313ab8-a6b4-45fb-89b7-ffdf65698691","system_id":"levelo_inurba_marseille","lat":43.27493,"lon":5.42446,"is_reserved":false,"is_disabled":false,"rental_uris":{"android":"levelo://app?vid=bc313ab8-a6b4-45fb-89b7-ffdf65698691","ios":"levelo://app?vid=bc313ab8-a6b4-45fb-89b7-ffdf65698691"},"vehicle_type_id":"4","last_reported":1732698645,"current_range_meters":23200,"station_id":"ce4bhn92rcd13ifvqgrg","pricing_plan_id":"cebpf4jnsgd1na2vs0mg"},{"bike_id":"3144177c-138f-422c-b107-83912af0da00","system_id":"levelo_inurba_marseille","lat":43.27813,"lon":5.40711,"is_reserved":false,"is_disabled":false,"rental_uris":{"android":"levelo://app?vid=3144177c-138f-422c-b107-83912af0da00","ios":"levelo://app?vid=3144177c-138f-422c-b107-83912af0da00"},"vehicle_type_id":"4","last_reported":1732698645,"current_range_meters":36800,"station_id":"ce4bhnh2rcd13ifvqgtg","pricing_plan_id":"cebpf4jnsgd1na2vs0mg"},{"bike_id":"6a243988-d267-4e1e-bafc-c091870de6a8","system_id":"levelo_inurba_marseille","lat":43.24172,"lon":5.36395,"is_reserved":false,"is_disabled":false,"rental_uris":{"android":"levelo://app?vid=6a243988-d267-4e1e-bafc-c091870de6a8","ios":"levelo://app?vid=6a243988-d267-4e1e-bafc-c091870de6a8"},"vehicle_type_id":"4","last_reported":1732698645,"current_range_meters":35600,"station_id":"cpo36qri1sfpv3e86is0","pricing_plan_id":"cebpf4jnsgd1na2vs0mg"},{"bike_id":"1d52e8b3-c48e-4170-8a24-4c34b66e4851","system_id":"levelo_inurba_marseille","lat":43.25822,"lon":5.39444,"is_reserved":false,"is_disabled":false,"rental_uris":{"android":"levelo://app?vid=1d52e8b3-c48e-4170-8a24-4c34b66e4851","ios":"levelo://app?vid=1d52e8b3-c48e-4170-8a24-4c34b66e4851"},"vehicle_type_id":"4","last_reported":1732698645,"current_range_meters":38800,"station_id":"ce4bhip2rcd13ifvqft0","pricing_plan_id":"cebpf4jnsgd1na2vs0mg"},{"bike_id":"82d9c03a-6f43-4338-8c7b-2b9ac3a50f16","system_id":"levelo_inurba_marseille","lat":43.28939,"lon":5.36633,"is_reserved":false,"is_disabled":false,"rental_uris":{"android":"levelo://app?vid=82d9c03a-6f43-4338-8c7b-2b9ac3a50f16","ios":"levelo://app?vid=82d9c03a-6f43-4338-8c7b-2b9ac3a50f16"},"vehicle_type_id":"4","last_reported":1732698645,"current_range_meters":10800,"station_id":"ce4bhap2rcd13ifvqek0","pricing_plan_id":"cebpf4jnsgd1na2vs0mg"},{"bike_id":"39b04c21-6a6a-40a7-a489-741c2b67c9bd","system_id":"levelo_inurba_marseille","lat":43.33726,"lon":5.39191,"is_reserved":false,"is_disabled":false,"rental_uris":{"android":"levelo://app?vid=39b04c21-6a6a-40a7-a489-741c2b67c9bd","ios":"levelo://app?vid=39b04c21-6a6a-40a7-a489-741c2b67c9bd"},"vehicle_type_id":"4","last_reported":1732698645,"current_range_meters":10800,"station_id":"ce4bhr92rcd13ifvqhsg","pricing_plan_id":"cebpf4jnsgd1na2vs0mg"},{"bike_id":"e465c5d0-0923-4e47-9eed-14fbda58d8e8","system_id":"levelo_inurba_marseille","lat":43.262,"lon":5.37926,"is_reserved":false,"is_disabled":true,"rental_uris":{"android":"levelo://app?vid=e465c5d0-0923-4e47-9eed-14fbda58d8e8","ios":"levelo://app?vid=e465c5d0-0923-4e47-9eed-14fbda58d8e8"},"vehicle_type_id":"4","last_reported":1732698645,"current_range_meters":22800,"station_id":"ce4bhjp2rcd13ifvqg90","pricing_plan_id":"cebpf4jnsgd1na2vs0mg"},{"bike_id":"fed165e5-8382-4dd2-865b-69f1cdb3e32b","system_id":"levelo_inurba_marseille","lat":43.31358,"lon":5.36712,"is_reserved":false,"is_disabled":false,"rental_uris":{"android":"levelo://app?vid=fed165e5-8382-4dd2-865b-69f1cdb3e32b","ios":"levelo://app?vid=fed165e5-8382-4dd2-865b-69f1cdb3e32b"},"vehicle_type_id":"4","last_reported":1732698645,"current_range_meters":20800,"station_id":"ce4bgr92rcd13ifvqc6g","pricing_plan_id":"cebpf4jnsgd1na2vs0mg"},{"bike_id":"6399fd12-8aa7-4c62-b7cd-b0948e694e6d","system_id":"levelo_inurba_marseille","lat":43.30137,"lon":5.37406,"is_reserved":false,"is_disabled":false,"rental_uris":{"android":"levelo://app?vid=6399fd12-8aa7-4c62-b7cd-b0948e694e6d","ios":"levelo://app?vid=6399fd12-8aa7-4c62-b7cd-b0948e694e6d"},"vehicle_type_id":"4","last_reported":1732698645,"current_range_meters":9200,"station_id":"ce4bgs92rcd13ifvqcc0","pricing_plan_id":"cebpf4jnsgd1na2vs0mg"},{"bike_id":"7d51e624-0ea6-4353-a684-c3afe6c0bb90","system_id":"levelo_inurba_marseille","lat":43.25581,"lon":5.38233,"is_reserved":false,"is_disabled":false,"rental_uris":{"android":"levelo://app?vid=7d51e624-0ea6-4353-a684-c3afe6c0bb90","ios":"levelo://app?vid=7d51e624-0ea6-4353-a684-c3afe6c0bb90"},"vehicle_type_id":"4","last_reported":1732698645,"current_range_meters":38400,"station_id":"ce4bhih2rcd13ifvqfs0","pricing_plan_id":"cebpf4jnsgd1na2vs0mg"},{"bike_id":"13fd2bce-54b9-45f3-8458-389a76aeb80d","system_id":"levelo_inurba_marseille","lat":43.29531,"lon":5.39032,"is_reserved":false,"is_disabled":false,"rental_uris":{"android":"levelo://app?vid=13fd2bce-54b9-45f3-8458-389a76aeb80d","ios":"levelo://app?vid=13fd2bce-54b9-45f3-8458-389a76aeb80d"},"vehicle_type_id":"4","last_reported":1732698645,"current_range_meters":20000,"station_id":"ce4bh3p2rcd13ifvqdp0","pricing_plan_id":"cebpf4jnsgd1na2vs0mg"},{"bike_id":"d0efdbb4-8350-4368-8476-c95f775462d2","system_id":"levelo_inurba_marseille","lat":43.29254,"lon":5.40906,"is_reserved":false,"is_disabled":true,"rental_uris":{"android":"levelo://app?vid=d0efdbb4-8350-4368-8476-c95f775462d2","ios":"levelo://app?vid=d0efdbb4-8350-4368-8476-c95f775462d2"},"vehicle_type_id":"4","last_reported":1732698645,"current_range_meters":8400,"station_id":"ce4bh192rcd13ifvqdc0","pricing_plan_id":"cebpf4jnsgd1na2vs0mg"},{"bike_id":"c1578ee6-792b-4201-aa74-682c9e167f21","system_id":"levelo_inurba_marseille","lat":43.29288,"lon":5.371567,"is_reserved":false,"is_disabled":false,"rental_uris":{"android":"levelo://app?vid=c1578ee6-792b-4201-aa74-682c9e167f21","ios":"levelo://app?vid=c1578ee6-792b-4201-aa74-682c9e167f21"},"vehicle_type_id":"4","last_reported":1732698645,"current_range_meters":38400,"station_id":"ce4bgh92rcd13ifvqb40","pricing_plan_id":"cebpf4jnsgd1na2vs0mg"},{"bike_id":"102e2552-da3a-46fa-aa68-a8112f495fde","system_id":"levelo_inurba_marseille","lat":43.27034,"lon":5.39285,"is_reserved":false,"is_disabled":false,"rental_uris":{"android":"levelo://app?vid=102e2552-da3a-46fa-aa68-a8112f495fde","ios":"levelo://app?vid=102e2552-da3a-46fa-aa68-a8112f495fde"},"vehicle_type_id":"4","last_reported":1732698645,"current_range_meters":15200,"station_id":"ce4bh492rcd13ifvqdug","pricing_plan_id":"cebpf4jnsgd1na2vs0mg"},{"bike_id":"e1407f29-7f53-45cb-a6d7-81bbf060b4eb","system_id":"levelo_inurba_marseille","lat":43.304299,"lon":5.397489,"is_reserved":false,"is_disabled":true,"rental_uris":{"android":"levelo://app?vid=e1407f29-7f53-45cb-a6d7-81bbf060b4eb","ios":"levelo://app?vid=e1407f29-7f53-45cb-a6d7-81bbf060b4eb"},"vehicle_type_id":"4","last_reported":1732698645,"current_range_meters":18000,"station_id":"ce4bh092rcd13ifvqd20","pricing_plan_id":"cebpf4jnsgd1na2vs0mg"},{"bike_id":"f3b2cf9b-41cc-4bae-8991-d9221e0e0cfc","system_id":"levelo_inurba_marseille","lat":43.28252,"lon":5.35039,"is_reserved":false,"is_disabled":false,"rental_uris":{"android":"levelo://app?vid=f3b2cf9b-41cc-4bae-8991-d9221e0e0cfc","ios":"levelo://app?vid=f3b2cf9b-41cc-4bae-8991-d9221e0e0cfc"},"vehicle_type_id":"4","last_reported":1732698645,"current_range_meters":31200,"station_id":"ce4bhbp2rcd13ifvqerg","pricing_plan_id":"cebpf4jnsgd1na2vs0mg"},{"bike_id":"36296f5c-0176-4be0-97c8-7930cda9c369","system_id":"levelo_inurba_marseille","lat":43.32101,"lon":5.36769,"is_reserved":false,"is_disabled":false,"rental_uris":{"android":"levelo://app?vid=36296f5c-0176-4be0-97c8-7930cda9c369","ios":"levelo://app?vid=36296f5c-0176-4be0-97c8-7930cda9c369"},"vehicle_type_id":"4","last_reported":1732698645,"current_range_meters":17200,"station_id":"ce4bhrh2rcd13ifvqhug","pricing_plan_id":"cebpf4jnsgd1na2vs0mg"},{"bike_id":"2015b399-7b63-48fc-9f8f-3dc77f0f11c3","system_id":"levelo_inurba_marseille","lat":43.239653,"lon":5.366284,"is_reserved":false,"is_disabled":false,"rental_uris":{"android":"levelo://app?vid=2015b399-7b63-48fc-9f8f-3dc77f0f11c3","ios":"levelo://app?vid=2015b399-7b63-48fc-9f8f-3dc77f0f11c3"},"vehicle_type_id":"4","last_reported":1732698645,"current_range_meters":33600,"station_id":"ce4bhi12rcd13ifvqfp0","pricing_plan_id":"cebpf4jnsgd1na2vs0mg"},{"bike_id":"bb99de60-0a27-461b-8211-89a6d2be6257","system_id":"levelo_inurba_marseille","lat":43.32542,"lon":5.41432,"is_reserved":false,"is_disabled":false,"rental_uris":{"android":"levelo://app?vid=bb99de60-0a27-461b-8211-89a6d2be6257","ios":"levelo://app?vid=bb99de60-0a27-461b-8211-89a6d2be6257"},"vehicle_type_id":"4","last_reported":1732698645,"current_range_meters":24000,"station_id":"ce4bhq12rcd13ifvqhhg","pricing_plan_id":"cebpf4jnsgd1na2vs0mg"},{"bike_id":"be4d2d1c-e4ca-47d5-a123-024b21714b07","system_id":"levelo_inurba_marseille","lat":43.30914,"lon":5.36848,"is_reserved":false,"is_disabled":false,"rental_uris":{"android":"levelo://app?vid=be4d2d1c-e4ca-47d5-a123-024b21714b07","ios":"levelo://app?vid=be4d2d1c-e4ca-47d5-a123-024b21714b07"},"vehicle_type_id":"4","last_reported":1732698645,"current_range_meters":38800,"station_id":"ce4bgn92rcd13ifvqbvg","pricing_plan_id":"cebpf4jnsgd1na2vs0mg"},{"bike_id":"5a64147f-da9a-40cb-a940-153001e1f291","system_id":"levelo_inurba_marseille","lat":43.29795,"lon":5.38181,"is_reserved":false,"is_disabled":true,"rental_uris":{"android":"levelo://app?vid=5a64147f-da9a-40cb-a940-153001e1f291","ios":"levelo://app?vid=5a64147f-da9a-40cb-a940-153001e1f291"},"vehicle_type_id":"4","last_reported":1732698645,"current_range_meters":28400,"station_id":"","pricing_plan_id":"cebpf4jnsgd1na2vs0mg"},{"bike_id":"ed7352e9-c457-4903-99fa-4a280b4fe031","system_id":"levelo_inurba_marseille","lat":43.29532,"lon":5.3904,"is_reserved":false,"is_disabled":false,"rental_uris":{"android":"levelo://app?vid=ed7352e9-c457-4903-99fa-4a280b4fe031","ios":"levelo://app?vid=ed7352e9-c457-4903-99fa-4a280b4fe031"},"vehicle_type_id":"4","last_reported":1732698645,"current_range_meters":28000,"station_id":"ce4bh3p2rcd13ifvqdp0","pricing_plan_id":"cebpf4jnsgd1na2vs0mg"},{"bike_id":"a6d7a9b9-988c-45e5-b37b-3a86475a2324","system_id":"levelo_inurba_marseille","lat":43.24072,"lon":5.37761,"is_reserved":false,"is_disabled":false,"rental_uris":{"android":"levelo://app?vid=a6d7a9b9-988c-45e5-b37b-3a86475a2324","ios":"levelo://app?vid=a6d7a9b9-988c-45e5-b37b-3a86475a2324"},"vehicle_type_id":"4","last_reported":1732698645,"current_range_meters":38800,"station_id":"ce4bhnp2rcd13ifvqgvg","pricing_plan_id":"cebpf4jnsgd1na2vs0mg"},{"bike_id":"39337a25-0d00-439d-b466-b5cba86f9c46","system_id":"levelo_inurba_marseille","lat":43.26574,"lon":5.39002,"is_reserved":false,"is_disabled":false,"rental_uris":{"android":"levelo://app?vid=39337a25-0d00-439d-b466-b5cba86f9c46","ios":"levelo://app?vid=39337a25-0d00-439d-b466-b5cba86f9c46"},"vehicle_type_id":"4","last_reported":1732698645,"current_range_meters":28400,"station_id":"ce4bhe12rcd13ifvqf30","pricing_plan_id":"cebpf4jnsgd1na2vs0mg"},{"bike_id":"affb837e-55ee-4ed5-abe4-aee4b04adbe6","system_id":"levelo_inurba_marseille","lat":43.30283,"lon":5.37693,"is_reserved":false,"is_disabled":false,"rental_uris":{"android":"levelo://app?vid=affb837e-55ee-4ed5-abe4-aee4b04adbe6","ios":"levelo://app?vid=affb837e-55ee-4ed5-abe4-aee4b04adbe6"},"vehicle_type_id":"4","last_reported":1732698645,"current_range_meters":32800,"station_id":"ce4bguh2rcd13ifvqcj0","pricing_plan_id":"cebpf4jnsgd1na2vs0mg"},{"bike_id":"3fb4bf40-3244-4e47-8fea-9dc5b0fd98ab","system_id":"levelo_inurba_marseille","lat":43.3414,"lon":5.40907,"is_reserved":false,"is_disabled":false,"rental_uris":{"android":"levelo://app?vid=3fb4bf40-3244-4e47-8fea-9dc5b0fd98ab","ios":"levelo://app?vid=3fb4bf40-3244-4e47-8fea-9dc5b0fd98ab"},"vehicle_type_id":"4","last_reported":1732698645,"current_range_meters":16400,"station_id":"ce4bhqh2rcd13ifvqhlg","pricing_plan_id":"cebpf4jnsgd1na2vs0mg"},{"bike_id":"829a0840-8576-4508-91f6-9853744029c7","system_id":"levelo_inurba_marseille","lat":43.24544,"lon":5.39521,"is_reserved":false,"is_disabled":false,"rental_uris":{"android":"levelo://app?vid=829a0840-8576-4508-91f6-9853744029c7","ios":"levelo://app?vid=829a0840-8576-4508-91f6-9853744029c7"},"vehicle_type_id":"4","last_reported":1732698645,"current_range_meters":25600,"station_id":"ce4bhlp2rcd13ifvqgjg","pricing_plan_id":"cebpf4jnsgd1na2vs0mg"},{"bike_id":"ec45c867-d259-4c41-afad-879f783f53fe","system_id":"levelo_inurba_marseille","lat":43.29518,"lon":5.39051,"is_reserved":false,"is_disabled":false,"rental_uris":{"android":"levelo://app?vid=ec45c867-d259-4c41-afad-879f783f53fe","ios":"levelo://app?vid=ec45c867-d259-4c41-afad-879f783f53fe"},"vehicle_type_id":"4","last_reported":1732698645,"current_range_meters":38800,"station_id":"ce4bh3p2rcd13ifvqdp0","pricing_plan_id":"cebpf4jnsgd1na2vs0mg"},{"bike_id":"699a92ef-9bdf-44a5-b698-21e6b9fa89fb","system_id":"levelo_inurba_marseille","lat":43.29908,"lon":5.38133,"is_reserved":false,"is_disabled":true,"rental_uris":{"android":"levelo://app?vid=699a92ef-9bdf-44a5-b698-21e6b9fa89fb","ios":"levelo://app?vid=699a92ef-9bdf-44a5-b698-21e6b9fa89fb"},"vehicle_type_id":"4","last_reported":1732698645,"current_range_meters":38800,"station_id":"ce4bgj12rcd13ifvqbc0","pricing_plan_id":"cebpf4jnsgd1na2vs0mg"},{"bike_id":"604dd96f-5e5b-41a0-9904-5b7d85d376d6","system_id":"levelo_inurba_marseille","lat":43.29565,"lon":5.37505,"is_reserved":false,"is_disabled":true,"rental_uris":{"android":"levelo://app?vid=604dd96f-5e5b-41a0-9904-5b7d85d376d6","ios":"levelo://app?vid=604dd96f-5e5b-41a0-9904-5b7d85d376d6"},"vehicle_type_id":"4","last_reported":1732698645,"current_range_meters":9600,"station_id":"ce4bgh92rcd13ifvqb50","pricing_plan_id":"cebpf4jnsgd1na2vs0mg"},{"bike_id":"f02d1dd8-2f4d-4901-ac52-3ec3998b87a7","system_id":"levelo_inurba_marseille","lat":43.30457,"lon":5.37894,"is_reserved":false,"is_disabled":false,"rental_uris":{"android":"levelo://app?vid=f02d1dd8-2f4d-4901-ac52-3ec3998b87a7","ios":"levelo://app?vid=f02d1dd8-2f4d-4901-ac52-3ec3998b87a7"},"vehicle_type_id":"4","last_reported":1732698645,"current_range_meters":31200,"station_id":"ce4bgup2rcd13ifvqcn0","pricing_plan_id":"cebpf4jnsgd1na2vs0mg"},{"bike_id":"1cd78e3c-eca2-430e-a00b-3450b52eb373","system_id":"levelo_inurba_marseille","lat":43.22927,"lon":5.35368,"is_reserved":false,"is_disabled":false,"rental_uris":{"android":"levelo://app?vid=1cd78e3c-eca2-430e-a00b-3450b52eb373","ios":"levelo://app?vid=1cd78e3c-eca2-430e-a00b-3450b52eb373"},"vehicle_type_id":"4","last_reported":1732698645,"current_range_meters":38000,"station_id":"cpo3532slgdg3j2ikp40","pricing_plan_id":"cebpf4jnsgd1na2vs0mg"},{"bike_id":"f6bfaf70-a9dc-4d17-af73-2831edc13099","system_id":"levelo_inurba_marseille","lat":43.2558,"lon":5.38221,"is_reserved":false,"is_disabled":false,"rental_uris":{"android":"levelo://app?vid=f6bfaf70-a9dc-4d17-af73-2831edc13099","ios":"levelo://app?vid=f6bfaf70-a9dc-4d17-af73-2831edc13099"},"vehicle_type_id":"4","last_reported":1732698645,"current_range_meters":26800,"station_id":"ce4bhih2rcd13ifvqfs0","pricing_plan_id":"cebpf4jnsgd1na2vs0mg"},{"bike_id":"52e14122-a6f3-4983-aede-3bf162ebba59","system_id":"levelo_inurba_marseille","lat":43.24544,"lon":5.39522,"is_reserved":false,"is_disabled":false,"rental_uris":{"android":"levelo://app?vid=52e14122-a6f3-4983-aede-3bf162ebba59","ios":"levelo://app?vid=52e14122-a6f3-4983-aede-3bf162ebba59"},"vehicle_type_id":"4","last_reported":1732698645,"current_range_meters":24000,"station_id":"ce4bhlp2rcd13ifvqgjg","pricing_plan_id":"cebpf4jnsgd1na2vs0mg"},{"bike_id":"28915062-1464-41e4-bc41-88c2d611d1e3","system_id":"levelo_inurba_marseille","lat":43.27991,"lon":5.40007,"is_reserved":false,"is_disabled":false,"rental_uris":{"android":"levelo://app?vid=28915062-1464-41e4-bc41-88c2d611d1e3","ios":"levelo://app?vid=28915062-1464-41e4-bc41-88c2d611d1e3"},"vehicle_type_id":"4","last_reported":1732698645,"current_range_meters":37600,"station_id":"ce4bho92rcd13ifvqh4g","pricing_plan_id":"cebpf4jnsgd1na2vs0mg"},{"bike_id":"f1b41902-7b26-496c-8015-7bbf805aeb52","system_id":"levelo_inurba_marseille","lat":43.29273,"lon":5.36841,"is_reserved":false,"is_disabled":true,"rental_uris":{"android":"levelo://app?vid=f1b41902-7b26-496c-8015-7bbf805aeb52","ios":"levelo://app?vid=f1b41902-7b26-496c-8015-7bbf805aeb52"},"vehicle_type_id":"4","last_reported":1732698645,"current_range_meters":36000,"station_id":"ce4bhbp2rcd13ifvqesg","pricing_plan_id":"cebpf4jnsgd1na2vs0mg"},{"bike_id":"b229d446-8386-4daf-9dc9-16d46d904c92","system_id":"levelo_inurba_marseille","lat":43.24067,"lon":5.37763,"is_reserved":false,"is_disabled":false,"rental_uris":{"android":"levelo://app?vid=b229d446-8386-4daf-9dc9-16d46d904c92","ios":"levelo://app?vid=b229d446-8386-4daf-9dc9-16d46d904c92"},"vehicle_type_id":"4","last_reported":1732698645,"current_range_meters":20000,"station_id":"ce4bhnp2rcd13ifvqgvg","pricing_plan_id":"cebpf4jnsgd1na2vs0mg"},{"bike_id":"11004d7b-4c65-40af-bcfc-c714ae5f9afc","system_id":"levelo_inurba_marseille","lat":43.29915,"lon":5.37466,"is_reserved":false,"is_disabled":false,"rental_uris":{"android":"levelo://app?vid=11004d7b-4c65-40af-bcfc-c714ae5f9afc","ios":"levelo://app?vid=11004d7b-4c65-40af-bcfc-c714ae5f9afc"},"vehicle_type_id":"4","last_reported":1732698645,"current_range_meters":24800,"station_id":"ce4bgjh2rcd13ifvqbg0","pricing_plan_id":"cebpf4jnsgd1na2vs0mg"},{"bike_id":"7661e34e-ac55-4dca-b4c7-31a506d67932","system_id":"levelo_inurba_marseille","lat":43.2594,"lon":5.40903,"is_reserved":false,"is_disabled":false,"rental_uris":{"android":"levelo://app?vid=7661e34e-ac55-4dca-b4c7-31a506d67932","ios":"levelo://app?vid=7661e34e-ac55-4dca-b4c7-31a506d67932"},"vehicle_type_id":"4","last_reported":1732698645,"current_range_meters":11600,"station_id":"ce4bhm92rcd13ifvqglg","pricing_plan_id":"cebpf4jnsgd1na2vs0mg"},{"bike_id":"1bdc2328-cbec-40be-b3ba-d7ba745425f8","system_id":"levelo_inurba_marseille","lat":43.30534,"lon":5.36545,"is_reserved":false,"is_disabled":false,"rental_uris":{"android":"levelo://app?vid=1bdc2328-cbec-40be-b3ba-d7ba745425f8","ios":"levelo://app?vid=1bdc2328-cbec-40be-b3ba-d7ba745425f8"},"vehicle_type_id":"4","last_reported":1732698645,"current_range_meters":34000,"station_id":"ce4bgs12rcd13ifvqcag","pricing_plan_id":"cebpf4jnsgd1na2vs0mg"},{"bike_id":"bdf3672a-3699-4daf-8d40-46a3aead35d3","system_id":"levelo_inurba_marseille","lat":43.24546,"lon":5.3952,"is_reserved":false,"is_disabled":false,"rental_uris":{"android":"levelo://app?vid=bdf3672a-3699-4daf-8d40-46a3aead35d3","ios":"levelo://app?vid=bdf3672a-3699-4daf-8d40-46a3aead35d3"},"vehicle_type_id":"4","last_reported":1732698645,"current_range_meters":18000,"station_id":"ce4bhlp2rcd13ifvqgjg","pricing_plan_id":"cebpf4jnsgd1na2vs0mg"},{"bike_id":"4fd476a7-07c4-43fe-be98-87f83abbb12b","system_id":"levelo_inurba_marseille","lat":43.31344,"lon":5.36721,"is_reserved":false,"is_disabled":false,"rental_uris":{"android":"levelo://app?vid=4fd476a7-07c4-43fe-be98-87f83abbb12b","ios":"levelo://app?vid=4fd476a7-07c4-43fe-be98-87f83abbb12b"},"vehicle_type_id":"4","last_reported":1732698645,"current_range_meters":12800,"station_id":"ce4bgr92rcd13ifvqc6g","pricing_plan_id":"cebpf4jnsgd1na2vs0mg"},{"bike_id":"2e95a691-d7d8-426b-8dba-47b6b56c6a41","system_id":"levelo_inurba_marseille","lat":43.28157,"lon":5.42629,"is_reserved":false,"is_disabled":true,"rental_uris":{"android":"levelo://app?vid=2e95a691-d7d8-426b-8dba-47b6b56c6a41","ios":"levelo://app?vid=2e95a691-d7d8-426b-8dba-47b6b56c6a41"},"vehicle_type_id":"4","last_reported":1732698645,"current_range_meters":2800,"station_id":"ce4bhnh2rcd13ifvqgug","pricing_plan_id":"cebpf4jnsgd1na2vs0mg"},{"bike_id":"e1023cd0-0598-4752-bca2-87e3d8646e5a","system_id":"levelo_inurba_marseille","lat":43.27383,"lon":5.36259,"is_reserved":false,"is_disabled":false,"rental_uris":{"android":"levelo://app?vid=e1023cd0-0598-4752-bca2-87e3d8646e5a","ios":"levelo://app?vid=e1023cd0-0598-4752-bca2-87e3d8646e5a"},"vehicle_type_id":"4","last_reported":1732698645,"current_range_meters":38400,"station_id":"ce4bhbh2rcd13ifvqeo0","pricing_plan_id":"cebpf4jnsgd1na2vs0mg"},{"bike_id":"cbc9f954-8758-40c7-a093-276daeb1d283","system_id":"levelo_inurba_marseille","lat":43.31361,"lon":5.36703,"is_reserved":false,"is_disabled":false,"rental_uris":{"android":"levelo://app?vid=cbc9f954-8758-40c7-a093-276daeb1d283","ios":"levelo://app?vid=cbc9f954-8758-40c7-a093-276daeb1d283"},"vehicle_type_id":"4","last_reported":1732698645,"current_range_meters":21600,"station_id":"ce4bgr92rcd13ifvqc6g","pricing_plan_id":"cebpf4jnsgd1na2vs0mg"},{"bike_id":"fba1ceb6-3cef-4b3a-8f1d-cb2909f800c4","system_id":"levelo_inurba_marseille","lat":43.31346,"lon":5.36703,"is_reserved":false,"is_disabled":false,"rental_uris":{"android":"levelo://app?vid=fba1ceb6-3cef-4b3a-8f1d-cb2909f800c4","ios":"levelo://app?vid=fba1ceb6-3cef-4b3a-8f1d-cb2909f800c4"},"vehicle_type_id":"4","last_reported":1732698645,"current_range_meters":38400,"station_id":"ce4bgr92rcd13ifvqc6g","pricing_plan_id":"cebpf4jnsgd1na2vs0mg"},{"bike_id":"a5848fc1-9c38-4c0f-8cd3-7a1f74903e08","system_id":"levelo_inurba_marseille","lat":43.23188,"lon":5.39979,"is_reserved":false,"is_disabled":false,"rental_uris":{"android":"levelo://app?vid=a5848fc1-9c38-4c0f-8cd3-7a1f74903e08","ios":"levelo://app?vid=a5848fc1-9c38-4c0f-8cd3-7a1f74903e08"},"vehicle_type_id":"4","last_reported":1732698645,"current_range_meters":23200,"station_id":"ce4bhn12rcd13ifvqgqg","pricing_plan_id":"cebpf4jnsgd1na2vs0mg"},{"bike_id":"bf85c0ae-48e0-4e50-a503-48187d5c9650","system_id":"levelo_inurba_marseille","lat":43.30148,"lon":5.37409,"is_reserved":false,"is_disabled":false,"rental_uris":{"android":"levelo://app?vid=bf85c0ae-48e0-4e50-a503-48187d5c9650","ios":"levelo://app?vid=bf85c0ae-48e0-4e50-a503-48187d5c9650"},"vehicle_type_id":"4","last_reported":1732698645,"current_range_meters":38800,"station_id":"ce4bgs92rcd13ifvqcc0","pricing_plan_id":"cebpf4jnsgd1na2vs0mg"},{"bike_id":"bae4f94f-12b8-48d5-8a1d-6ab60a6fba6b","system_id":"levelo_inurba_marseille","lat":43.2315,"lon":5.43705,"is_reserved":false,"is_disabled":false,"rental_uris":{"android":"levelo://app?vid=bae4f94f-12b8-48d5-8a1d-6ab60a6fba6b","ios":"levelo://app?vid=bae4f94f-12b8-48d5-8a1d-6ab60a6fba6b"},"vehicle_type_id":"4","last_reported":1732698645,"current_range_meters":10800,"station_id":"ce4bhmp2rcd13ifvqgog","pricing_plan_id":"cebpf4jnsgd1na2vs0mg"},{"bike_id":"1606c510-b735-4fc8-8ac9-1879292672fd","system_id":"levelo_inurba_marseille","lat":43.25861,"lon":5.39897,"is_reserved":false,"is_disabled":true,"rental_uris":{"android":"levelo://app?vid=1606c510-b735-4fc8-8ac9-1879292672fd","ios":"levelo://app?vid=1606c510-b735-4fc8-8ac9-1879292672fd"},"vehicle_type_id":"4","last_reported":1732698645,"current_range_meters":8000,"station_id":"ce4bhl92rcd13ifvqghg","pricing_plan_id":"cebpf4jnsgd1na2vs0mg"},{"bike_id":"858b65e1-94fc-4151-a71e-8b168cb19dcb","system_id":"levelo_inurba_marseille","lat":43.32249,"lon":5.39241,"is_reserved":false,"is_disabled":true,"rental_uris":{"android":"levelo://app?vid=858b65e1-94fc-4151-a71e-8b168cb19dcb","ios":"levelo://app?vid=858b65e1-94fc-4151-a71e-8b168cb19dcb"},"vehicle_type_id":"4","last_reported":1732698645,"current_range_meters":0,"station_id":"","pricing_plan_id":"cebpf4jnsgd1na2vs0mg"},{"bike_id":"0cf314c7-2378-4346-b5e8-c81c997d5879","system_id":"levelo_inurba_marseille","lat":43.31351,"lon":5.36718,"is_reserved":false,"is_disabled":false,"rental_uris":{"android":"levelo://app?vid=0cf314c7-2378-4346-b5e8-c81c997d5879","ios":"levelo://app?vid=0cf314c7-2378-4346-b5e8-c81c997d5879"},"vehicle_type_id":"4","last_reported":1732698645,"current_range_meters":25200,"station_id":"ce4bgr92rcd13ifvqc6g","pricing_plan_id":"cebpf4jnsgd1na2vs0mg"},{"bike_id":"e51b2acb-d883-446b-9ce9-347608453ece","system_id":"levelo_inurba_marseille","lat":43.2293,"lon":5.35372,"is_reserved":false,"is_disabled":false,"rental_uris":{"android":"levelo://app?vid=e51b2acb-d883-446b-9ce9-347608453ece","ios":"levelo://app?vid=e51b2acb-d883-446b-9ce9-347608453ece"},"vehicle_type_id":"4","last_reported":1732698645,"current_range_meters":37600,"station_id":"cpo3532slgdg3j2ikp40","pricing_plan_id":"cebpf4jnsgd1na2vs0mg"},{"bike_id":"f72ad362-5906-4bc9-a9ce-34d15bfedd9d","system_id":"levelo_inurba_marseille","lat":43.29918,"lon":5.37465,"is_reserved":false,"is_disabled":false,"rental_uris":{"android":"levelo://app?vid=f72ad362-5906-4bc9-a9ce-34d15bfedd9d","ios":"levelo://app?vid=f72ad362-5906-4bc9-a9ce-34d15bfedd9d"},"vehicle_type_id":"4","last_reported":1732698645,"current_range_meters":19600,"station_id":"ce4bgjh2rcd13ifvqbg0","pricing_plan_id":"cebpf4jnsgd1na2vs0mg"},{"bike_id":"92c6c2b8-814a-4a18-ba1a-e771f58bc8ef","system_id":"levelo_inurba_marseille","lat":43.24084,"lon":5.37743,"is_reserved":false,"is_disabled":false,"rental_uris":{"android":"levelo://app?vid=92c6c2b8-814a-4a18-ba1a-e771f58bc8ef","ios":"levelo://app?vid=92c6c2b8-814a-4a18-ba1a-e771f58bc8ef"},"vehicle_type_id":"4","last_reported":1732698645,"current_range_meters":38800,"station_id":"ce4bhnp2rcd13ifvqgvg","pricing_plan_id":"cebpf4jnsgd1na2vs0mg"},{"bike_id":"687bcf23-a5c0-4a08-836b-545238d7de20","system_id":"levelo_inurba_marseille","lat":43.27493,"lon":5.42449,"is_reserved":false,"is_disabled":false,"rental_uris":{"android":"levelo://app?vid=687bcf23-a5c0-4a08-836b-545238d7de20","ios":"levelo://app?vid=687bcf23-a5c0-4a08-836b-545238d7de20"},"vehicle_type_id":"4","last_reported":1732698645,"current_range_meters":17200,"station_id":"ce4bhn92rcd13ifvqgrg","pricing_plan_id":"cebpf4jnsgd1na2vs0mg"},{"bike_id":"6a84fe5c-81fa-4ede-b74d-0690303fc0a8","system_id":"levelo_inurba_marseille","lat":43.30534,"lon":5.36505,"is_reserved":false,"is_disabled":false,"rental_uris":{"android":"levelo://app?vid=6a84fe5c-81fa-4ede-b74d-0690303fc0a8","ios":"levelo://app?vid=6a84fe5c-81fa-4ede-b74d-0690303fc0a8"},"vehicle_type_id":"4","last_reported":1732698645,"current_range_meters":37600,"station_id":"ce4bgs12rcd13ifvqcag","pricing_plan_id":"cebpf4jnsgd1na2vs0mg"},{"bike_id":"1aba9999-861f-4a36-85bd-515c27a2a462","system_id":"levelo_inurba_marseille","lat":43.240804,"lon":5.377402,"is_reserved":false,"is_disabled":false,"rental_uris":{"android":"levelo://app?vid=1aba9999-861f-4a36-85bd-515c27a2a462","ios":"levelo://app?vid=1aba9999-861f-4a36-85bd-515c27a2a462"},"vehicle_type_id":"4","last_reported":1732698645,"current_range_meters":16000,"station_id":"ce4bhnp2rcd13ifvqgvg","pricing_plan_id":"cebpf4jnsgd1na2vs0mg"},{"bike_id":"f7f3756c-1ec7-4782-9c87-6273f87b6774","system_id":"levelo_inurba_marseille","lat":43.337444,"lon":5.374475,"is_reserved":false,"is_disabled":true,"rental_uris":{"android":"levelo://app?vid=f7f3756c-1ec7-4782-9c87-6273f87b6774","ios":"levelo://app?vid=f7f3756c-1ec7-4782-9c87-6273f87b6774"},"vehicle_type_id":"4","last_reported":1732698645,"current_range_meters":16000,"station_id":"","pricing_plan_id":"cebpf4jnsgd1na2vs0mg"},{"bike_id":"9a7fc65c-a473-4df1-8da8-b97e38cbdb89","system_id":"levelo_inurba_marseille","lat":43.23144,"lon":5.43714,"is_reserved":false,"is_disabled":false,"rental_uris":{"android":"levelo://app?vid=9a7fc65c-a473-4df1-8da8-b97e38cbdb89","ios":"levelo://app?vid=9a7fc65c-a473-4df1-8da8-b97e38cbdb89"},"vehicle_type_id":"4","last_reported":1732698645,"current_range_meters":7200,"station_id":"ce4bhmp2rcd13ifvqgog","pricing_plan_id":"cebpf4jnsgd1na2vs0mg"},{"bike_id":"5ad94f11-d0cb-4d81-815c-d14c511fb2a1","system_id":"levelo_inurba_marseille","lat":43.24154,"lon":5.39714,"is_reserved":false,"is_disabled":true,"rental_uris":{"android":"levelo://app?vid=5ad94f11-d0cb-4d81-815c-d14c511fb2a1","ios":"levelo://app?vid=5ad94f11-d0cb-4d81-815c-d14c511fb2a1"},"vehicle_type_id":"4","last_reported":1732698645,"current_range_meters":18800,"station_id":"ce4bhn12rcd13ifvqgpg","pricing_plan_id":"cebpf4jnsgd1na2vs0mg"},{"bike_id":"5ac84619-8500-415b-9629-5dc640523aaa","system_id":"levelo_inurba_marseille","lat":43.295225,"lon":5.375022,"is_reserved":false,"is_disabled":true,"rental_uris":{"android":"levelo://app?vid=5ac84619-8500-415b-9629-5dc640523aaa","ios":"levelo://app?vid=5ac84619-8500-415b-9629-5dc640523aaa"},"vehicle_type_id":"4","last_reported":1732698645,"current_range_meters":12000,"station_id":"ce4bgkp2rcd13ifvqbmg","pricing_plan_id":"cebpf4jnsgd1na2vs0mg"},{"bike_id":"5dadf578-e948-48ee-a51f-0528253f70a2","system_id":"levelo_inurba_marseille","lat":43.28075,"lon":5.38521,"is_reserved":false,"is_disabled":true,"rental_uris":{"android":"levelo://app?vid=5dadf578-e948-48ee-a51f-0528253f70a2","ios":"levelo://app?vid=5dadf578-e948-48ee-a51f-0528253f70a2"},"vehicle_type_id":"4","last_reported":1732698645,"current_range_meters":33600,"station_id":"","pricing_plan_id":"cebpf4jnsgd1na2vs0mg"},{"bike_id":"79248b71-e381-4425-958e-44a988ca2b76","system_id":"levelo_inurba_marseille","lat":43.23151,"lon":5.43717,"is_reserved":false,"is_disabled":false,"rental_uris":{"android":"levelo://app?vid=79248b71-e381-4425-958e-44a988ca2b76","ios":"levelo://app?vid=79248b71-e381-4425-958e-44a988ca2b76"},"vehicle_type_id":"4","last_reported":1732698645,"current_range_meters":7200,"station_id":"ce4bhmp2rcd13ifvqgog","pricing_plan_id":"cebpf4jnsgd1na2vs0mg"},{"bike_id":"3e2ee879-ff2e-4801-b72c-a459f067b0a6","system_id":"levelo_inurba_marseille","lat":43.24075,"lon":5.37759,"is_reserved":false,"is_disabled":false,"rental_uris":{"android":"levelo://app?vid=3e2ee879-ff2e-4801-b72c-a459f067b0a6","ios":"levelo://app?vid=3e2ee879-ff2e-4801-b72c-a459f067b0a6"},"vehicle_type_id":"4","last_reported":1732698645,"current_range_meters":33200,"station_id":"ce4bhnp2rcd13ifvqgvg","pricing_plan_id":"cebpf4jnsgd1na2vs0mg"},{"bike_id":"5beeafd9-fc35-4444-8f38-3d5aae2d23a8","system_id":"levelo_inurba_marseille","lat":43.32481,"lon":5.36607,"is_reserved":false,"is_disabled":false,"rental_uris":{"android":"levelo://app?vid=5beeafd9-fc35-4444-8f38-3d5aae2d23a8","ios":"levelo://app?vid=5beeafd9-fc35-4444-8f38-3d5aae2d23a8"},"vehicle_type_id":"4","last_reported":1732698645,"current_range_meters":14800,"station_id":"ce4bhs12rcd13ifvqhvg","pricing_plan_id":"cebpf4jnsgd1na2vs0mg"},{"bike_id":"9d6dc472-d32b-45d8-a774-07d3233538cb","system_id":"levelo_inurba_marseille","lat":43.290166,"lon":5.381342,"is_reserved":false,"is_disabled":false,"rental_uris":{"android":"levelo://app?vid=9d6dc472-d32b-45d8-a774-07d3233538cb","ios":"levelo://app?vid=9d6dc472-d32b-45d8-a774-07d3233538cb"},"vehicle_type_id":"4","last_reported":1732698645,"current_range_meters":6000,"station_id":"ce4bh4p2rcd13ifvqe1g","pricing_plan_id":"cebpf4jnsgd1na2vs0mg"},{"bike_id":"82e831e5-33ec-4f29-965f-70e9753ca3d0","system_id":"levelo_inurba_marseille","lat":43.30308,"lon":5.36897,"is_reserved":false,"is_disabled":false,"rental_uris":{"android":"levelo://app?vid=82e831e5-33ec-4f29-965f-70e9753ca3d0","ios":"levelo://app?vid=82e831e5-33ec-4f29-965f-70e9753ca3d0"},"vehicle_type_id":"4","last_reported":1732698645,"current_range_meters":11600,"station_id":"ce4bgqh2rcd13ifvqc5g","pricing_plan_id":"cebpf4jnsgd1na2vs0mg"},{"bike_id":"e937af93-4cba-4da6-a421-b49c77f1a0ab","system_id":"levelo_inurba_marseille","lat":43.24072,"lon":5.3776,"is_reserved":false,"is_disabled":false,"rental_uris":{"android":"levelo://app?vid=e937af93-4cba-4da6-a421-b49c77f1a0ab","ios":"levelo://app?vid=e937af93-4cba-4da6-a421-b49c77f1a0ab"},"vehicle_type_id":"4","last_reported":1732698645,"current_range_meters":17600,"station_id":"ce4bhnp2rcd13ifvqgvg","pricing_plan_id":"cebpf4jnsgd1na2vs0mg"},{"bike_id":"c87d933d-4ef2-4709-8918-ec2d85365e86","system_id":"levelo_inurba_marseille","lat":43.30315,"lon":5.36896,"is_reserved":false,"is_disabled":false,"rental_uris":{"android":"levelo://app?vid=c87d933d-4ef2-4709-8918-ec2d85365e86","ios":"levelo://app?vid=c87d933d-4ef2-4709-8918-ec2d85365e86"},"vehicle_type_id":"4","last_reported":1732698645,"current_range_meters":16000,"station_id":"ce4bgqh2rcd13ifvqc5g","pricing_plan_id":"cebpf4jnsgd1na2vs0mg"},{"bike_id":"a5909545-3e09-4859-9fda-9ffe4e6e4883","system_id":"levelo_inurba_marseille","lat":43.23065,"lon":5.35491,"is_reserved":false,"is_disabled":false,"rental_uris":{"android":"levelo://app?vid=a5909545-3e09-4859-9fda-9ffe4e6e4883","ios":"levelo://app?vid=a5909545-3e09-4859-9fda-9ffe4e6e4883"},"vehicle_type_id":"4","last_reported":1732698645,"current_range_meters":28000,"station_id":"cpo3342slgdg3j2ifvpg","pricing_plan_id":"cebpf4jnsgd1na2vs0mg"},{"bike_id":"2d7a2bb6-d4df-4627-8c77-207c49dff95f","system_id":"levelo_inurba_marseille","lat":43.30186,"lon":5.36623,"is_reserved":false,"is_disabled":false,"rental_uris":{"android":"levelo://app?vid=2d7a2bb6-d4df-4627-8c77-207c49dff95f","ios":"levelo://app?vid=2d7a2bb6-d4df-4627-8c77-207c49dff95f"},"vehicle_type_id":"4","last_reported":1732698645,"current_range_meters":30000,"station_id":"ce4bgrh2rcd13ifvqc8g","pricing_plan_id":"cebpf4jnsgd1na2vs0mg"},{"bike_id":"0dce6a32-9976-459b-9a44-64b10ff4b95d","system_id":"levelo_inurba_marseille","lat":43.25869,"lon":5.39905,"is_reserved":false,"is_disabled":true,"rental_uris":{"android":"levelo://app?vid=0dce6a32-9976-459b-9a44-64b10ff4b95d","ios":"levelo://app?vid=0dce6a32-9976-459b-9a44-64b10ff4b95d"},"vehicle_type_id":"4","last_reported":1732698645,"current_range_meters":800,"station_id":"ce4bhl92rcd13ifvqghg","pricing_plan_id":"cebpf4jnsgd1na2vs0mg"},{"bike_id":"410be458-26df-4ab6-b673-ac23590e9546","system_id":"levelo_inurba_marseille","lat":43.24074,"lon":5.3776,"is_reserved":false,"is_disabled":false,"rental_uris":{"android":"levelo://app?vid=410be458-26df-4ab6-b673-ac23590e9546","ios":"levelo://app?vid=410be458-26df-4ab6-b673-ac23590e9546"},"vehicle_type_id":"4","last_reported":1732698645,"current_range_meters":18800,"station_id":"ce4bhnp2rcd13ifvqgvg","pricing_plan_id":"cebpf4jnsgd1na2vs0mg"},{"bike_id":"e5951ee3-4a5a-4ebb-b469-096c5188dfa3","system_id":"levelo_inurba_marseille","lat":43.23187,"lon":5.35566,"is_reserved":false,"is_disabled":false,"rental_uris":{"android":"levelo://app?vid=e5951ee3-4a5a-4ebb-b469-096c5188dfa3","ios":"levelo://app?vid=e5951ee3-4a5a-4ebb-b469-096c5188dfa3"},"vehicle_type_id":"4","last_reported":1732698645,"current_range_meters":32800,"station_id":"ce4bhu92rcd13ifvqi70","pricing_plan_id":"cebpf4jnsgd1na2vs0mg"},{"bike_id":"f5ced30d-226f-4346-bf62-37f37846f9d7","system_id":"levelo_inurba_marseille","lat":43.29793,"lon":5.38093,"is_reserved":false,"is_disabled":true,"rental_uris":{"android":"levelo://app?vid=f5ced30d-226f-4346-bf62-37f37846f9d7","ios":"levelo://app?vid=f5ced30d-226f-4346-bf62-37f37846f9d7"},"vehicle_type_id":"4","last_reported":1732698645,"current_range_meters":14000,"station_id":"ce4bgip2rcd13ifvqbb0","pricing_plan_id":"cebpf4jnsgd1na2vs0mg"},{"bike_id":"c4ff3c2c-87d7-4575-9335-5f53ac047a46","system_id":"levelo_inurba_marseille","lat":43.27068,"lon":5.42277,"is_reserved":false,"is_disabled":false,"rental_uris":{"android":"levelo://app?vid=c4ff3c2c-87d7-4575-9335-5f53ac047a46","ios":"levelo://app?vid=c4ff3c2c-87d7-4575-9335-5f53ac047a46"},"vehicle_type_id":"4","last_reported":1732698645,"current_range_meters":38800,"station_id":"ce4bhk92rcd13ifvqgb0","pricing_plan_id":"cebpf4jnsgd1na2vs0mg"},{"bike_id":"8b90e280-1859-48e5-8cc1-f1521436ad0b","system_id":"levelo_inurba_marseille","lat":43.2557,"lon":5.3824,"is_reserved":false,"is_disabled":false,"rental_uris":{"android":"levelo://app?vid=8b90e280-1859-48e5-8cc1-f1521436ad0b","ios":"levelo://app?vid=8b90e280-1859-48e5-8cc1-f1521436ad0b"},"vehicle_type_id":"4","last_reported":1732698645,"current_range_meters":16400,"station_id":"ce4bhih2rcd13ifvqfs0","pricing_plan_id":"cebpf4jnsgd1na2vs0mg"},{"bike_id":"3379f44f-c07d-4ec3-b622-4c7ff9c0b74e","system_id":"levelo_inurba_marseille","lat":43.23194,"lon":5.35546,"is_reserved":false,"is_disabled":false,"rental_uris":{"android":"levelo://app?vid=3379f44f-c07d-4ec3-b622-4c7ff9c0b74e","ios":"levelo://app?vid=3379f44f-c07d-4ec3-b622-4c7ff9c0b74e"},"vehicle_type_id":"4","last_reported":1732698645,"current_range_meters":6800,"station_id":"ce4bhu92rcd13ifvqi70","pricing_plan_id":"cebpf4jnsgd1na2vs0mg"},{"bike_id":"6c948e9c-d5b3-4fe5-a918-1bd2f7c83b02","system_id":"levelo_inurba_marseille","lat":43.32111,"lon":5.3677,"is_reserved":false,"is_disabled":false,"rental_uris":{"android":"levelo://app?vid=6c948e9c-d5b3-4fe5-a918-1bd2f7c83b02","ios":"levelo://app?vid=6c948e9c-d5b3-4fe5-a918-1bd2f7c83b02"},"vehicle_type_id":"4","last_reported":1732698645,"current_range_meters":13600,"station_id":"ce4bhrh2rcd13ifvqhug","pricing_plan_id":"cebpf4jnsgd1na2vs0mg"},{"bike_id":"311c22a9-d002-4f76-a390-2ec196f39862","system_id":"levelo_inurba_marseille","lat":43.31025,"lon":5.38342,"is_reserved":false,"is_disabled":true,"rental_uris":{"android":"levelo://app?vid=311c22a9-d002-4f76-a390-2ec196f39862","ios":"levelo://app?vid=311c22a9-d002-4f76-a390-2ec196f39862"},"vehicle_type_id":"4","last_reported":1732698645,"current_range_meters":0,"station_id":"","pricing_plan_id":"cebpf4jnsgd1na2vs0mg"},{"bike_id":"6152ba36-5ec7-4cc8-9654-e69bb45902e6","system_id":"levelo_inurba_marseille","lat":43.337444,"lon":5.374475,"is_reserved":false,"is_disabled":false,"rental_uris":{"android":"levelo://app?vid=6152ba36-5ec7-4cc8-9654-e69bb45902e6","ios":"levelo://app?vid=6152ba36-5ec7-4cc8-9654-e69bb45902e6"},"vehicle_type_id":"4","last_reported":1732698645,"current_range_meters":38000,"station_id":"","pricing_plan_id":"cebpf4jnsgd1na2vs0mg"},{"bike_id":"b0b5f03b-f2d1-4340-8eb7-761aacc2cbf1","system_id":"levelo_inurba_marseille","lat":43.23182,"lon":5.39982,"is_reserved":false,"is_disabled":false,"rental_uris":{"android":"levelo://app?vid=b0b5f03b-f2d1-4340-8eb7-761aacc2cbf1","ios":"levelo://app?vid=b0b5f03b-f2d1-4340-8eb7-761aacc2cbf1"},"vehicle_type_id":"4","last_reported":1732698645,"current_range_meters":30000,"station_id":"ce4bhn12rcd13ifvqgqg","pricing_plan_id":"cebpf4jnsgd1na2vs0mg"},{"bike_id":"319db8f6-ad1c-4b46-ad57-5033d5ed25eb","system_id":"levelo_inurba_marseille","lat":43.25724,"lon":5.41105,"is_reserved":false,"is_disabled":false,"rental_uris":{"android":"levelo://app?vid=319db8f6-ad1c-4b46-ad57-5033d5ed25eb","ios":"levelo://app?vid=319db8f6-ad1c-4b46-ad57-5033d5ed25eb"},"vehicle_type_id":"4","last_reported":1732698645,"current_range_meters":19600,"station_id":"ce4bhkp2rcd13ifvqgd0","pricing_plan_id":"cebpf4jnsgd1na2vs0mg"},{"bike_id":"5c53cfbd-2547-413a-b79a-f8cc3b1ca992","system_id":"levelo_inurba_marseille","lat":43.321061,"lon":5.367689,"is_reserved":false,"is_disabled":false,"rental_uris":{"android":"levelo://app?vid=5c53cfbd-2547-413a-b79a-f8cc3b1ca992","ios":"levelo://app?vid=5c53cfbd-2547-413a-b79a-f8cc3b1ca992"},"vehicle_type_id":"4","last_reported":1732698645,"current_range_meters":28400,"station_id":"ce4bhrh2rcd13ifvqhug","pricing_plan_id":"cebpf4jnsgd1na2vs0mg"},{"bike_id":"579facde-334f-493a-99b8-076f2ddc010f","system_id":"levelo_inurba_marseille","lat":43.297414,"lon":5.373508,"is_reserved":false,"is_disabled":false,"rental_uris":{"android":"levelo://app?vid=579facde-334f-493a-99b8-076f2ddc010f","ios":"levelo://app?vid=579facde-334f-493a-99b8-076f2ddc010f"},"vehicle_type_id":"4","last_reported":1732698645,"current_range_meters":38000,"station_id":"ce4bgk12rcd13ifvqbj0","pricing_plan_id":"cebpf4jnsgd1na2vs0mg"},{"bike_id":"d857c7ff-0eae-417a-a283-d08c196b617c","system_id":"levelo_inurba_marseille","lat":43.231326,"lon":5.437206,"is_reserved":false,"is_disabled":false,"rental_uris":{"android":"levelo://app?vid=d857c7ff-0eae-417a-a283-d08c196b617c","ios":"levelo://app?vid=d857c7ff-0eae-417a-a283-d08c196b617c"},"vehicle_type_id":"4","last_reported":1732698645,"current_range_meters":39200,"station_id":"ce4bhmp2rcd13ifvqgog","pricing_plan_id":"cebpf4jnsgd1na2vs0mg"},{"bike_id":"e3910269-0960-41ab-9a5c-2f153c15e14c","system_id":"levelo_inurba_marseille","lat":43.25576,"lon":5.38227,"is_reserved":false,"is_disabled":false,"rental_uris":{"android":"levelo://app?vid=e3910269-0960-41ab-9a5c-2f153c15e14c","ios":"levelo://app?vid=e3910269-0960-41ab-9a5c-2f153c15e14c"},"vehicle_type_id":"4","last_reported":1732698645,"current_range_meters":38000,"station_id":"ce4bhih2rcd13ifvqfs0","pricing_plan_id":"cebpf4jnsgd1na2vs0mg"},{"bike_id":"e58a03b6-eed8-44b9-815a-6f38c2c24efa","system_id":"levelo_inurba_marseille","lat":43.33716,"lon":5.39184,"is_reserved":false,"is_disabled":false,"rental_uris":{"android":"levelo://app?vid=e58a03b6-eed8-44b9-815a-6f38c2c24efa","ios":"levelo://app?vid=e58a03b6-eed8-44b9-815a-6f38c2c24efa"},"vehicle_type_id":"4","last_reported":1732698645,"current_range_meters":33200,"station_id":"ce4bhr92rcd13ifvqhsg","pricing_plan_id":"cebpf4jnsgd1na2vs0mg"},{"bike_id":"be5670d9-9f9d-41aa-9542-4591ad1fe316","system_id":"levelo_inurba_marseille","lat":43.24544,"lon":5.39525,"is_reserved":false,"is_disabled":false,"rental_uris":{"android":"levelo://app?vid=be5670d9-9f9d-41aa-9542-4591ad1fe316","ios":"levelo://app?vid=be5670d9-9f9d-41aa-9542-4591ad1fe316"},"vehicle_type_id":"4","last_reported":1732698645,"current_range_meters":8800,"station_id":"ce4bhlp2rcd13ifvqgjg","pricing_plan_id":"cebpf4jnsgd1na2vs0mg"},{"bike_id":"d7d3efe9-1788-45c6-bd51-33c58ae43549","system_id":"levelo_inurba_marseille","lat":43.30536,"lon":5.36534,"is_reserved":false,"is_disabled":false,"rental_uris":{"android":"levelo://app?vid=d7d3efe9-1788-45c6-bd51-33c58ae43549","ios":"levelo://app?vid=d7d3efe9-1788-45c6-bd51-33c58ae43549"},"vehicle_type_id":"4","last_reported":1732698645,"current_range_meters":23200,"station_id":"ce4bgs12rcd13ifvqcag","pricing_plan_id":"cebpf4jnsgd1na2vs0mg"},{"bike_id":"41ef6e9a-6e79-4aa0-a7fb-748c8b32e486","system_id":"levelo_inurba_marseille","lat":43.30909,"lon":5.36849,"is_reserved":false,"is_disabled":false,"rental_uris":{"android":"levelo://app?vid=41ef6e9a-6e79-4aa0-a7fb-748c8b32e486","ios":"levelo://app?vid=41ef6e9a-6e79-4aa0-a7fb-748c8b32e486"},"vehicle_type_id":"4","last_reported":1732698645,"current_range_meters":34000,"station_id":"ce4bgn92rcd13ifvqbvg","pricing_plan_id":"cebpf4jnsgd1na2vs0mg"},{"bike_id":"c32aafd8-8905-4559-a1d0-f74aa7efcf0e","system_id":"levelo_inurba_marseille","lat":43.338,"lon":5.37474,"is_reserved":false,"is_disabled":false,"rental_uris":{"android":"levelo://app?vid=c32aafd8-8905-4559-a1d0-f74aa7efcf0e","ios":"levelo://app?vid=c32aafd8-8905-4559-a1d0-f74aa7efcf0e"},"vehicle_type_id":"4","last_reported":1732698645,"current_range_meters":38400,"station_id":"","pricing_plan_id":"cebpf4jnsgd1na2vs0mg"},{"bike_id":"08355d24-2f5d-42e1-a029-f7d6f439c714","system_id":"levelo_inurba_marseille","lat":43.30442,"lon":5.38882,"is_reserved":false,"is_disabled":false,"rental_uris":{"android":"levelo://app?vid=08355d24-2f5d-42e1-a029-f7d6f439c714","ios":"levelo://app?vid=08355d24-2f5d-42e1-a029-f7d6f439c714"},"vehicle_type_id":"4","last_reported":1732698645,"current_range_meters":18000,"station_id":"ce4bgk12rcd13ifvqbi0","pricing_plan_id":"cebpf4jnsgd1na2vs0mg"},{"bike_id":"fc17c41a-b334-4870-ae03-e7b919a2d987","system_id":"levelo_inurba_marseille","lat":43.30154,"lon":5.37415,"is_reserved":false,"is_disabled":false,"rental_uris":{"android":"levelo://app?vid=fc17c41a-b334-4870-ae03-e7b919a2d987","ios":"levelo://app?vid=fc17c41a-b334-4870-ae03-e7b919a2d987"},"vehicle_type_id":"4","last_reported":1732698645,"current_range_meters":34800,"station_id":"ce4bgs92rcd13ifvqcc0","pricing_plan_id":"cebpf4jnsgd1na2vs0mg"},{"bike_id":"0dbf4a25-0b81-4076-980f-2de46488ffa7","system_id":"levelo_inurba_marseille","lat":43.28606,"lon":5.35088,"is_reserved":false,"is_disabled":true,"rental_uris":{"android":"levelo://app?vid=0dbf4a25-0b81-4076-980f-2de46488ffa7","ios":"levelo://app?vid=0dbf4a25-0b81-4076-980f-2de46488ffa7"},"vehicle_type_id":"4","last_reported":1732698645,"current_range_meters":15200,"station_id":"","pricing_plan_id":"cebpf4jnsgd1na2vs0mg"},{"bike_id":"4490893b-651f-4a29-8a23-f841e9f73902","system_id":"levelo_inurba_marseille","lat":43.33118,"lon":5.38218,"is_reserved":false,"is_disabled":false,"rental_uris":{"android":"levelo://app?vid=4490893b-651f-4a29-8a23-f841e9f73902","ios":"levelo://app?vid=4490893b-651f-4a29-8a23-f841e9f73902"},"vehicle_type_id":"4","last_reported":1732698645,"current_range_meters":24400,"station_id":"","pricing_plan_id":"cebpf4jnsgd1na2vs0mg"},{"bike_id":"43746d86-8a13-4845-9faf-ae69b548d714","system_id":"levelo_inurba_marseille","lat":43.29459,"lon":5.37917,"is_reserved":false,"is_disabled":true,"rental_uris":{"android":"levelo://app?vid=43746d86-8a13-4845-9faf-ae69b548d714","ios":"levelo://app?vid=43746d86-8a13-4845-9faf-ae69b548d714"},"vehicle_type_id":"4","last_reported":1732698645,"current_range_meters":0,"station_id":"","pricing_plan_id":"cebpf4jnsgd1na2vs0mg"},{"bike_id":"e6a98e09-efc5-4507-9fb0-a56012aa8712","system_id":"levelo_inurba_marseille","lat":43.28152,"lon":5.42636,"is_reserved":false,"is_disabled":false,"rental_uris":{"android":"levelo://app?vid=e6a98e09-efc5-4507-9fb0-a56012aa8712","ios":"levelo://app?vid=e6a98e09-efc5-4507-9fb0-a56012aa8712"},"vehicle_type_id":"4","last_reported":1732698645,"current_range_meters":36400,"station_id":"ce4bhnh2rcd13ifvqgug","pricing_plan_id":"cebpf4jnsgd1na2vs0mg"},{"bike_id":"49ad9574-b0d7-498d-8456-68bdd40aec93","system_id":"levelo_inurba_marseille","lat":43.24673,"lon":5.38158,"is_reserved":false,"is_disabled":false,"rental_uris":{"android":"levelo://app?vid=49ad9574-b0d7-498d-8456-68bdd40aec93","ios":"levelo://app?vid=49ad9574-b0d7-498d-8456-68bdd40aec93"},"vehicle_type_id":"4","last_reported":1732698645,"current_range_meters":35600,"station_id":"ce4bhih2rcd13ifvqfr0","pricing_plan_id":"cebpf4jnsgd1na2vs0mg"},{"bike_id":"df76b7bf-b879-4e94-9796-439ee296ef0a","system_id":"levelo_inurba_marseille","lat":43.22928,"lon":5.3537,"is_reserved":false,"is_disabled":false,"rental_uris":{"android":"levelo://app?vid=df76b7bf-b879-4e94-9796-439ee296ef0a","ios":"levelo://app?vid=df76b7bf-b879-4e94-9796-439ee296ef0a"},"vehicle_type_id":"4","last_reported":1732698645,"current_range_meters":38000,"station_id":"cpo3532slgdg3j2ikp40","pricing_plan_id":"cebpf4jnsgd1na2vs0mg"},{"bike_id":"f971abee-70f8-43dc-afe4-4050ccc8c3f7","system_id":"levelo_inurba_marseille","lat":43.25864,"lon":5.39921,"is_reserved":false,"is_disabled":true,"rental_uris":{"android":"levelo://app?vid=f971abee-70f8-43dc-afe4-4050ccc8c3f7","ios":"levelo://app?vid=f971abee-70f8-43dc-afe4-4050ccc8c3f7"},"vehicle_type_id":"4","last_reported":1732698645,"current_range_meters":38800,"station_id":"ce4bhl92rcd13ifvqghg","pricing_plan_id":"cebpf4jnsgd1na2vs0mg"},{"bike_id":"e429a23d-08fa-43bc-a99f-41dd20232034","system_id":"levelo_inurba_marseille","lat":43.26298,"lon":5.39865,"is_reserved":false,"is_disabled":true,"rental_uris":{"android":"levelo://app?vid=e429a23d-08fa-43bc-a99f-41dd20232034","ios":"levelo://app?vid=e429a23d-08fa-43bc-a99f-41dd20232034"},"vehicle_type_id":"4","last_reported":1732698645,"current_range_meters":0,"station_id":"","pricing_plan_id":"cebpf4jnsgd1na2vs0mg"},{"bike_id":"ef29e600-6cde-4e4e-a534-789357eb2cb0","system_id":"levelo_inurba_marseille","lat":43.31087,"lon":5.38335,"is_reserved":false,"is_disabled":false,"rental_uris":{"android":"levelo://app?vid=ef29e600-6cde-4e4e-a534-789357eb2cb0","ios":"levelo://app?vid=ef29e600-6cde-4e4e-a534-789357eb2cb0"},"vehicle_type_id":"4","last_reported":1732698645,"current_range_meters":17600,"station_id":"ce4bgv92rcd13ifvqcr0","pricing_plan_id":"cebpf4jnsgd1na2vs0mg"},{"bike_id":"df2a3e4f-77d5-4edf-b48e-557c0077674b","system_id":"levelo_inurba_marseille","lat":43.26944,"lon":5.38624,"is_reserved":false,"is_disabled":false,"rental_uris":{"android":"levelo://app?vid=df2a3e4f-77d5-4edf-b48e-557c0077674b","ios":"levelo://app?vid=df2a3e4f-77d5-4edf-b48e-557c0077674b"},"vehicle_type_id":"4","last_reported":1732698645,"current_range_meters":30000,"station_id":"ce4bhh92rcd13ifvqfh0","pricing_plan_id":"cebpf4jnsgd1na2vs0mg"},{"bike_id":"3faf8b2f-845f-4fd3-8bc7-04d1158d9692","system_id":"levelo_inurba_marseille","lat":43.33019,"lon":5.39032,"is_reserved":false,"is_disabled":false,"rental_uris":{"android":"levelo://app?vid=3faf8b2f-845f-4fd3-8bc7-04d1158d9692","ios":"levelo://app?vid=3faf8b2f-845f-4fd3-8bc7-04d1158d9692"},"vehicle_type_id":"4","last_reported":1732698645,"current_range_meters":24400,"station_id":"ce4bhr92rcd13ifvqhrg","pricing_plan_id":"cebpf4jnsgd1na2vs0mg"},{"bike_id":"1b369746-c244-4667-bf00-4dc6251158a6","system_id":"levelo_inurba_marseille","lat":43.24078,"lon":5.37759,"is_reserved":false,"is_disabled":false,"rental_uris":{"android":"levelo://app?vid=1b369746-c244-4667-bf00-4dc6251158a6","ios":"levelo://app?vid=1b369746-c244-4667-bf00-4dc6251158a6"},"vehicle_type_id":"4","last_reported":1732698645,"current_range_meters":28000,"station_id":"ce4bhnp2rcd13ifvqgvg","pricing_plan_id":"cebpf4jnsgd1na2vs0mg"},{"bike_id":"925d9d68-1b01-45a4-af19-d1a58d7476b9","system_id":"levelo_inurba_marseille","lat":43.312042,"lon":5.367348,"is_reserved":false,"is_disabled":true,"rental_uris":{"android":"levelo://app?vid=925d9d68-1b01-45a4-af19-d1a58d7476b9","ios":"levelo://app?vid=925d9d68-1b01-45a4-af19-d1a58d7476b9"},"vehicle_type_id":"4","last_reported":1732698645,"current_range_meters":0,"station_id":"","pricing_plan_id":"cebpf4jnsgd1na2vs0mg"},{"bike_id":"b85ab8e4-b623-4c2f-a6fb-707134f169c8","system_id":"levelo_inurba_marseille","lat":43.34141,"lon":5.40907,"is_reserved":false,"is_disabled":false,"rental_uris":{"android":"levelo://app?vid=b85ab8e4-b623-4c2f-a6fb-707134f169c8","ios":"levelo://app?vid=b85ab8e4-b623-4c2f-a6fb-707134f169c8"},"vehicle_type_id":"4","last_reported":1732698645,"current_range_meters":20400,"station_id":"ce4bhqh2rcd13ifvqhlg","pricing_plan_id":"cebpf4jnsgd1na2vs0mg"},{"bike_id":"cf298d8c-a0c9-4883-b341-ff4459ca7832","system_id":"levelo_inurba_marseille","lat":43.22932,"lon":5.35378,"is_reserved":false,"is_disabled":false,"rental_uris":{"android":"levelo://app?vid=cf298d8c-a0c9-4883-b341-ff4459ca7832","ios":"levelo://app?vid=cf298d8c-a0c9-4883-b341-ff4459ca7832"},"vehicle_type_id":"4","last_reported":1732698645,"current_range_meters":38000,"station_id":"cpo3532slgdg3j2ikp40","pricing_plan_id":"cebpf4jnsgd1na2vs0mg"},{"bike_id":"d93d1461-f523-408d-9ecd-c0d362744ea1","system_id":"levelo_inurba_marseille","lat":43.27495,"lon":5.4245,"is_reserved":false,"is_disabled":false,"rental_uris":{"android":"levelo://app?vid=d93d1461-f523-408d-9ecd-c0d362744ea1","ios":"levelo://app?vid=d93d1461-f523-408d-9ecd-c0d362744ea1"},"vehicle_type_id":"4","last_reported":1732698645,"current_range_meters":28000,"station_id":"ce4bhn92rcd13ifvqgrg","pricing_plan_id":"cebpf4jnsgd1na2vs0mg"},{"bike_id":"d9ef5ed5-65f4-4a4b-8dbb-274b0e908852","system_id":"levelo_inurba_marseille","lat":43.24171,"lon":5.36396,"is_reserved":false,"is_disabled":false,"rental_uris":{"android":"levelo://app?vid=d9ef5ed5-65f4-4a4b-8dbb-274b0e908852","ios":"levelo://app?vid=d9ef5ed5-65f4-4a4b-8dbb-274b0e908852"},"vehicle_type_id":"4","last_reported":1732698645,"current_range_meters":25600,"station_id":"cpo36qri1sfpv3e86is0","pricing_plan_id":"cebpf4jnsgd1na2vs0mg"},{"bike_id":"66132751-c0dc-4e27-8cb1-86ddd363280c","system_id":"levelo_inurba_marseille","lat":43.337444,"lon":5.374475,"is_reserved":false,"is_disabled":true,"rental_uris":{"android":"levelo://app?vid=66132751-c0dc-4e27-8cb1-86ddd363280c","ios":"levelo://app?vid=66132751-c0dc-4e27-8cb1-86ddd363280c"},"vehicle_type_id":"4","last_reported":1732698645,"current_range_meters":38800,"station_id":"","pricing_plan_id":"cebpf4jnsgd1na2vs0mg"},{"bike_id":"835b8644-8eb5-432a-a7e5-6db42e504b1f","system_id":"levelo_inurba_marseille","lat":43.24181,"lon":5.39723,"is_reserved":false,"is_disabled":false,"rental_uris":{"android":"levelo://app?vid=835b8644-8eb5-432a-a7e5-6db42e504b1f","ios":"levelo://app?vid=835b8644-8eb5-432a-a7e5-6db42e504b1f"},"vehicle_type_id":"4","last_reported":1732698645,"current_range_meters":6000,"station_id":"ce4bhn12rcd13ifvqgpg","pricing_plan_id":"cebpf4jnsgd1na2vs0mg"},{"bike_id":"3a101022-f8f1-4524-ab23-5fb2fab2f00b","system_id":"levelo_inurba_marseille","lat":43.28672,"lon":5.38663,"is_reserved":false,"is_disabled":false,"rental_uris":{"android":"levelo://app?vid=3a101022-f8f1-4524-ab23-5fb2fab2f00b","ios":"levelo://app?vid=3a101022-f8f1-4524-ab23-5fb2fab2f00b"},"vehicle_type_id":"4","last_reported":1732698645,"current_range_meters":20800,"station_id":"ce4bh492rcd13ifvqdug","pricing_plan_id":"cebpf4jnsgd1na2vs0mg"},{"bike_id":"90dc5659-4d05-485f-861a-84cf080e3910","system_id":"levelo_inurba_marseille","lat":43.28262,"lon":5.35069,"is_reserved":false,"is_disabled":false,"rental_uris":{"android":"levelo://app?vid=90dc5659-4d05-485f-861a-84cf080e3910","ios":"levelo://app?vid=90dc5659-4d05-485f-861a-84cf080e3910"},"vehicle_type_id":"4","last_reported":1732698645,"current_range_meters":30800,"station_id":"ce4bhbp2rcd13ifvqerg","pricing_plan_id":"cebpf4jnsgd1na2vs0mg"},{"bike_id":"f4aa82f6-2719-4084-baeb-41f5b0cf8bea","system_id":"levelo_inurba_marseille","lat":43.29316,"lon":5.37182,"is_reserved":false,"is_disabled":false,"rental_uris":{"android":"levelo://app?vid=f4aa82f6-2719-4084-baeb-41f5b0cf8bea","ios":"levelo://app?vid=f4aa82f6-2719-4084-baeb-41f5b0cf8bea"},"vehicle_type_id":"4","last_reported":1732698645,"current_range_meters":28400,"station_id":"ce4bgh92rcd13ifvqb40","pricing_plan_id":"cebpf4jnsgd1na2vs0mg"},{"bike_id":"76273592-9879-490a-9f64-c33340e3af5c","system_id":"levelo_inurba_marseille","lat":43.24082,"lon":5.37749,"is_reserved":false,"is_disabled":false,"rental_uris":{"android":"levelo://app?vid=76273592-9879-490a-9f64-c33340e3af5c","ios":"levelo://app?vid=76273592-9879-490a-9f64-c33340e3af5c"},"vehicle_type_id":"4","last_reported":1732698645,"current_range_meters":30400,"station_id":"ce4bhnp2rcd13ifvqgvg","pricing_plan_id":"cebpf4jnsgd1na2vs0mg"},{"bike_id":"006b9058-6efe-481f-aea3-cd4a774043f3","system_id":"levelo_inurba_marseille","lat":43.337444,"lon":5.374475,"is_reserved":false,"is_disabled":true,"rental_uris":{"android":"levelo://app?vid=006b9058-6efe-481f-aea3-cd4a774043f3","ios":"levelo://app?vid=006b9058-6efe-481f-aea3-cd4a774043f3"},"vehicle_type_id":"4","last_reported":1732698645,"current_range_meters":0,"station_id":"","pricing_plan_id":"cebpf4jnsgd1na2vs0mg"},{"bike_id":"2bc2a732-ccce-4b9a-a746-a9ede31cf47c","system_id":"levelo_inurba_marseille","lat":43.27997,"lon":5.40009,"is_reserved":false,"is_disabled":false,"rental_uris":{"android":"levelo://app?vid=2bc2a732-ccce-4b9a-a746-a9ede31cf47c","ios":"levelo://app?vid=2bc2a732-ccce-4b9a-a746-a9ede31cf47c"},"vehicle_type_id":"4","last_reported":1732698645,"current_range_meters":30400,"station_id":"ce4bho92rcd13ifvqh4g","pricing_plan_id":"cebpf4jnsgd1na2vs0mg"},{"bike_id":"192233ce-ac57-43e4-abfb-3731e5d20c9a","system_id":"levelo_inurba_marseille","lat":43.26681,"lon":5.38267,"is_reserved":false,"is_disabled":false,"rental_uris":{"android":"levelo://app?vid=192233ce-ac57-43e4-abfb-3731e5d20c9a","ios":"levelo://app?vid=192233ce-ac57-43e4-abfb-3731e5d20c9a"},"vehicle_type_id":"4","last_reported":1732698645,"current_range_meters":37600,"station_id":"ce4bhg92rcd13ifvqf90","pricing_plan_id":"cebpf4jnsgd1na2vs0mg"},{"bike_id":"e25b69e2-93a4-40b5-ae2e-fc6df166f1c9","system_id":"levelo_inurba_marseille","lat":43.29543,"lon":5.42279,"is_reserved":false,"is_disabled":false,"rental_uris":{"android":"levelo://app?vid=e25b69e2-93a4-40b5-ae2e-fc6df166f1c9","ios":"levelo://app?vid=e25b69e2-93a4-40b5-ae2e-fc6df166f1c9"},"vehicle_type_id":"4","last_reported":1732698645,"current_range_meters":38800,"station_id":"ce4bhph2rcd13ifvqhdg","pricing_plan_id":"cebpf4jnsgd1na2vs0mg"},{"bike_id":"ee05ac60-a365-4a07-8df9-f1d6a7c1f3f4","system_id":"levelo_inurba_marseille","lat":43.30149,"lon":5.38083,"is_reserved":false,"is_disabled":false,"rental_uris":{"android":"levelo://app?vid=ee05ac60-a365-4a07-8df9-f1d6a7c1f3f4","ios":"levelo://app?vid=ee05ac60-a365-4a07-8df9-f1d6a7c1f3f4"},"vehicle_type_id":"4","last_reported":1732698645,"current_range_meters":35200,"station_id":"ce4bgjp2rcd13ifvqbh0","pricing_plan_id":"cebpf4jnsgd1na2vs0mg"},{"bike_id":"94c6df7b-1726-4d5b-99fa-ac711456db7e","system_id":"levelo_inurba_marseille","lat":43.29571,"lon":5.39961,"is_reserved":false,"is_disabled":false,"rental_uris":{"android":"levelo://app?vid=94c6df7b-1726-4d5b-99fa-ac711456db7e","ios":"levelo://app?vid=94c6df7b-1726-4d5b-99fa-ac711456db7e"},"vehicle_type_id":"4","last_reported":1732698645,"current_range_meters":4400,"station_id":"ce4bh312rcd13ifvqdj0","pricing_plan_id":"cebpf4jnsgd1na2vs0mg"},{"bike_id":"441a1c08-ade8-4870-a513-9986867f0aab","system_id":"levelo_inurba_marseille","lat":43.3133,"lon":5.39695,"is_reserved":false,"is_disabled":true,"rental_uris":{"android":"levelo://app?vid=441a1c08-ade8-4870-a513-9986867f0aab","ios":"levelo://app?vid=441a1c08-ade8-4870-a513-9986867f0aab"},"vehicle_type_id":"4","last_reported":1732698645,"current_range_meters":0,"station_id":"ce4bgvp2rcd13ifvqcu0","pricing_plan_id":"cebpf4jnsgd1na2vs0mg"},{"bike_id":"e9c17faa-0a50-4311-9b95-9e8911926bd0","system_id":"levelo_inurba_marseille","lat":43.30525,"lon":5.36712,"is_reserved":false,"is_disabled":false,"rental_uris":{"android":"levelo://app?vid=e9c17faa-0a50-4311-9b95-9e8911926bd0","ios":"levelo://app?vid=e9c17faa-0a50-4311-9b95-9e8911926bd0"},"vehicle_type_id":"4","last_reported":1732698645,"current_range_meters":12400,"station_id":"ce4bgrp2rcd13ifvqc9g","pricing_plan_id":"cebpf4jnsgd1na2vs0mg"},{"bike_id":"5c64b618-f514-4c74-ac9f-250948202701","system_id":"levelo_inurba_marseille","lat":43.27681,"lon":5.38868,"is_reserved":false,"is_disabled":false,"rental_uris":{"android":"levelo://app?vid=5c64b618-f514-4c74-ac9f-250948202701","ios":"levelo://app?vid=5c64b618-f514-4c74-ac9f-250948202701"},"vehicle_type_id":"4","last_reported":1732698645,"current_range_meters":32000,"station_id":"ce4bhi12rcd13ifvqfo0","pricing_plan_id":"cebpf4jnsgd1na2vs0mg"},{"bike_id":"7e04bb67-c24d-44da-93e9-2e0567bf10fa","system_id":"levelo_inurba_marseille","lat":43.23152,"lon":5.43713,"is_reserved":false,"is_disabled":true,"rental_uris":{"android":"levelo://app?vid=7e04bb67-c24d-44da-93e9-2e0567bf10fa","ios":"levelo://app?vid=7e04bb67-c24d-44da-93e9-2e0567bf10fa"},"vehicle_type_id":"4","last_reported":1732698645,"current_range_meters":0,"station_id":"ce4bhmp2rcd13ifvqgog","pricing_plan_id":"cebpf4jnsgd1na2vs0mg"},{"bike_id":"02811350-00c3-4744-93aa-3b089495aa27","system_id":"levelo_inurba_marseille","lat":43.29029,"lon":5.37562,"is_reserved":false,"is_disabled":false,"rental_uris":{"android":"levelo://app?vid=02811350-00c3-4744-93aa-3b089495aa27","ios":"levelo://app?vid=02811350-00c3-4744-93aa-3b089495aa27"},"vehicle_type_id":"4","last_reported":1732698645,"current_range_meters":38800,"station_id":"ce4bh692rcd13ifvqe90","pricing_plan_id":"cebpf4jnsgd1na2vs0mg"},{"bike_id":"d7476d4e-b96c-4c66-a413-8e05589dc234","system_id":"levelo_inurba_marseille","lat":43.29447,"lon":5.39752,"is_reserved":false,"is_disabled":true,"rental_uris":{"android":"levelo://app?vid=d7476d4e-b96c-4c66-a413-8e05589dc234","ios":"levelo://app?vid=d7476d4e-b96c-4c66-a413-8e05589dc234"},"vehicle_type_id":"4","last_reported":1732698645,"current_range_meters":9600,"station_id":"ce4bh3h2rcd13ifvqdo0","pricing_plan_id":"cebpf4jnsgd1na2vs0mg"},{"bike_id":"a60497f7-5ba7-48ab-8226-22df8ef18105","system_id":"levelo_inurba_marseille","lat":43.31209,"lon":5.36834,"is_reserved":false,"is_disabled":false,"rental_uris":{"android":"levelo://app?vid=a60497f7-5ba7-48ab-8226-22df8ef18105","ios":"levelo://app?vid=a60497f7-5ba7-48ab-8226-22df8ef18105"},"vehicle_type_id":"4","last_reported":1732698645,"current_range_meters":36400,"station_id":"ce4bgl92rcd13ifvqbq0","pricing_plan_id":"cebpf4jnsgd1na2vs0mg"},{"bike_id":"9e001124-a5af-4971-88ef-0ce675620918","system_id":"levelo_inurba_marseille","lat":43.27958,"lon":5.38715,"is_reserved":false,"is_disabled":true,"rental_uris":{"android":"levelo://app?vid=9e001124-a5af-4971-88ef-0ce675620918","ios":"levelo://app?vid=9e001124-a5af-4971-88ef-0ce675620918"},"vehicle_type_id":"4","last_reported":1732698645,"current_range_meters":0,"station_id":"ce4bhg12rcd13ifvqf80","pricing_plan_id":"cebpf4jnsgd1na2vs0mg"},{"bike_id":"ddfc40d7-f1dc-4fba-ad92-f1cb84dbec8b","system_id":"levelo_inurba_marseille","lat":43.27059,"lon":5.40257,"is_reserved":false,"is_disabled":false,"rental_uris":{"android":"levelo://app?vid=ddfc40d7-f1dc-4fba-ad92-f1cb84dbec8b","ios":"levelo://app?vid=ddfc40d7-f1dc-4fba-ad92-f1cb84dbec8b"},"vehicle_type_id":"4","last_reported":1732698645,"current_range_meters":20800,"station_id":"ce4bhk92rcd13ifvqgc0","pricing_plan_id":"cebpf4jnsgd1na2vs0mg"},{"bike_id":"841cc266-395b-4212-9f71-d71007d312d1","system_id":"levelo_inurba_marseille","lat":43.30148,"lon":5.38078,"is_reserved":false,"is_disabled":false,"rental_uris":{"android":"levelo://app?vid=841cc266-395b-4212-9f71-d71007d312d1","ios":"levelo://app?vid=841cc266-395b-4212-9f71-d71007d312d1"},"vehicle_type_id":"4","last_reported":1732698645,"current_range_meters":38800,"station_id":"ce4bgjp2rcd13ifvqbh0","pricing_plan_id":"cebpf4jnsgd1na2vs0mg"},{"bike_id":"9957db75-618f-4fa8-9bb6-4dbc799dce9a","system_id":"levelo_inurba_marseille","lat":43.295391,"lon":5.375003,"is_reserved":false,"is_disabled":true,"rental_uris":{"android":"levelo://app?vid=9957db75-618f-4fa8-9bb6-4dbc799dce9a","ios":"levelo://app?vid=9957db75-618f-4fa8-9bb6-4dbc799dce9a"},"vehicle_type_id":"4","last_reported":1732698645,"current_range_meters":11600,"station_id":"ce4bgkp2rcd13ifvqbmg","pricing_plan_id":"cebpf4jnsgd1na2vs0mg"},{"bike_id":"35e46067-4012-48c5-bffb-084a2cc7e205","system_id":"levelo_inurba_marseille","lat":43.29551,"lon":5.42276,"is_reserved":false,"is_disabled":false,"rental_uris":{"android":"levelo://app?vid=35e46067-4012-48c5-bffb-084a2cc7e205","ios":"levelo://app?vid=35e46067-4012-48c5-bffb-084a2cc7e205"},"vehicle_type_id":"4","last_reported":1732698645,"current_range_meters":38800,"station_id":"ce4bhph2rcd13ifvqhdg","pricing_plan_id":"cebpf4jnsgd1na2vs0mg"},{"bike_id":"562a76b4-6ab9-4ff0-9faf-2020d86f5e9a","system_id":"levelo_inurba_marseille","lat":43.24147,"lon":5.39703,"is_reserved":false,"is_disabled":true,"rental_uris":{"android":"levelo://app?vid=562a76b4-6ab9-4ff0-9faf-2020d86f5e9a","ios":"levelo://app?vid=562a76b4-6ab9-4ff0-9faf-2020d86f5e9a"},"vehicle_type_id":"4","last_reported":1732698645,"current_range_meters":0,"station_id":"ce4bhn12rcd13ifvqgpg","pricing_plan_id":"cebpf4jnsgd1na2vs0mg"},{"bike_id":"abcc3c82-6c01-4f46-ad93-c1d25b42613e","system_id":"levelo_inurba_marseille","lat":43.32487,"lon":5.3657,"is_reserved":false,"is_disabled":false,"rental_uris":{"android":"levelo://app?vid=abcc3c82-6c01-4f46-ad93-c1d25b42613e","ios":"levelo://app?vid=abcc3c82-6c01-4f46-ad93-c1d25b42613e"},"vehicle_type_id":"4","last_reported":1732698645,"current_range_meters":15200,"station_id":"ce4bhs12rcd13ifvqhvg","pricing_plan_id":"cebpf4jnsgd1na2vs0mg"},{"bike_id":"203b12dc-9010-4e0e-a630-28488f3a8c6a","system_id":"levelo_inurba_marseille","lat":43.30481,"lon":5.37904,"is_reserved":false,"is_disabled":false,"rental_uris":{"android":"levelo://app?vid=203b12dc-9010-4e0e-a630-28488f3a8c6a","ios":"levelo://app?vid=203b12dc-9010-4e0e-a630-28488f3a8c6a"},"vehicle_type_id":"4","last_reported":1732698645,"current_range_meters":18000,"station_id":"ce4bgph2rcd13ifvqc2g","pricing_plan_id":"cebpf4jnsgd1na2vs0mg"},{"bike_id":"bdd51559-1c46-46e3-81da-d8886117bb3d","system_id":"levelo_inurba_marseille","lat":43.25936,"lon":5.40903,"is_reserved":false,"is_disabled":true,"rental_uris":{"android":"levelo://app?vid=bdd51559-1c46-46e3-81da-d8886117bb3d","ios":"levelo://app?vid=bdd51559-1c46-46e3-81da-d8886117bb3d"},