{"last_updated":1731510581,"ttl":60,"version":"2.2","data":{"bikes":[{"bike_id":"ee96f154-9683-421d-b9bf-103c7d37cb6a","system_id":"levelo_inurba_marseille","lat":43.26486,"lon":5.39551,"is_reserved":false,"is_disabled":false,"rental_uris":{"android":"levelo://app?vid=ee96f154-9683-421d-b9bf-103c7d37cb6a","ios":"levelo://app?vid=ee96f154-9683-421d-b9bf-103c7d37cb6a"},"vehicle_type_id":"4","last_reported":1731510581,"current_range_meters":37600,"station_id":"ce4bhi12rcd13ifvqfq0","pricing_plan_id":"cebpf4jnsgd1na2vs0mg"},{"bike_id":"6599dd91-11f4-4e40-aa87-97db1ce4d4ad","system_id":"levelo_inurba_marseille","lat":43.337444,"lon":5.374475,"is_reserved":false,"is_disabled":false,"rental_uris":{"android":"levelo://app?vid=6599dd91-11f4-4e40-aa87-97db1ce4d4ad","ios":"levelo://app?vid=6599dd91-11f4-4e40-aa87-97db1ce4d4ad"},"vehicle_type_id":"4","last_reported":1731510581,"current_range_meters":38800,"station_id":"","pricing_plan_id":"cebpf4jnsgd1na2vs0mg"},{"bike_id":"e001af91-5503-4663-b71f-e2e2dcf326ba","system_id":"levelo_inurba_marseille","lat":43.30132,"lon":5.3744,"is_reserved":false,"is_disabled":false,"rental_uris":{"android":"levelo://app?vid=e001af91-5503-4663-b71f-e2e2dcf326ba","ios":"levelo://app?vid=e001af91-5503-4663-b71f-e2e2dcf326ba"},"vehicle_type_id":"4","last_reported":1731510581,"current_range_meters":38800,"station_id":"ce4bgs92rcd13ifvqcc0","pricing_plan_id":"cebpf4jnsgd1na2vs0mg"},{"bike_id":"52c3b47c-4ac8-4b12-96e0-93b36678801c","system_id":"levelo_inurba_marseille","lat":43.30553,"lon":5.36539,"is_reserved":false,"is_disabled":false,"rental_uris":{"android":"levelo://app?vid=52c3b47c-4ac8-4b12-96e0-93b36678801c","ios":"levelo://app?vid=52c3b47c-4ac8-4b12-96e0-93b36678801c"},"vehicle_type_id":"4","last_reported":1731510581,"current_range_meters":38800,"station_id":"ce4bgs12rcd13ifvqcag","pricing_plan_id":"cebpf4jnsgd1na2vs0mg"},{"bike_id":"a8b5795a-f92a-4c99-951c-d3c4edb74e83","system_id":"levelo_inurba_marseille","lat":43.28461,"lon":5.35885,"is_reserved":false,"is_disabled":false,"rental_uris":{"android":"levelo://app?vid=a8b5795a-f92a-4c99-951c-d3c4edb74e83","ios":"levelo://app?vid=a8b5795a-f92a-4c99-951c-d3c4edb74e83"},"vehicle_type_id":"4","last_reported":1731510581,"current_range_meters":37600,"station_id":"ce4bhah2rcd13ifvqei0","pricing_plan_id":"cebpf4jnsgd1na2vs0mg"},{"bike_id":"fd84e03a-38a2-4a51-bd44-f75317b4cc73","system_id":"levelo_inurba_marseille","lat":43.28698,"lon":5.37378,"is_reserved":false,"is_disabled":false,"rental_uris":{"android":"levelo://app?vid=fd84e03a-38a2-4a51-bd44-f75317b4cc73","ios":"levelo://app?vid=fd84e03a-38a2-4a51-bd44-f75317b4cc73"},"vehicle_type_id":"4","last_reported":1731510581,"current_range_meters":8400,"station_id":"ce4bh3p2rcd13ifvqdq0","pricing_plan_id":"cebpf4jnsgd1na2vs0mg"},{"bike_id":"093b143a-ecec-424e-b05a-301513aef236","system_id":"levelo_inurba_marseille","lat":43.25929,"lon":5.4091,"is_reserved":false,"is_disabled":false,"rental_uris":{"android":"levelo://app?vid=093b143a-ecec-424e-b05a-301513aef236","ios":"levelo://app?vid=093b143a-ecec-424e-b05a-301513aef236"},"vehicle_type_id":"4","last_reported":1731510581,"current_range_meters":32800,"station_id":"ce4bhm92rcd13ifvqglg","pricing_plan_id":"cebpf4jnsgd1na2vs0mg"},{"bike_id":"156e2413-88e6-4d0e-b921-b82d65851dd4","system_id":"levelo_inurba_marseille","lat":43.31878,"lon":5.40741,"is_reserved":false,"is_disabled":false,"rental_uris":{"android":"levelo://app?vid=156e2413-88e6-4d0e-b921-b82d65851dd4","ios":"levelo://app?vid=156e2413-88e6-4d0e-b921-b82d65851dd4"},"vehicle_type_id":"4","last_reported":1731510581,"current_range_meters":38800,"station_id":"ce4bhq12rcd13ifvqhig","pricing_plan_id":"cebpf4jnsgd1na2vs0mg"},{"bike_id":"4975a392-5fa7-4546-a287-d41c060411c1","system_id":"levelo_inurba_marseille","lat":43.31071,"lon":5.38364,"is_reserved":false,"is_disabled":false,"rental_uris":{"android":"levelo://app?vid=4975a392-5fa7-4546-a287-d41c060411c1","ios":"levelo://app?vid=4975a392-5fa7-4546-a287-d41c060411c1"},"vehicle_type_id":"4","last_reported":1731510581,"current_range_meters":6400,"station_id":"ce4bgv92rcd13ifvqcr0","pricing_plan_id":"cebpf4jnsgd1na2vs0mg"},{"bike_id":"088a3263-5d69-4cb5-b3d1-8ff94f70ae58","system_id":"levelo_inurba_marseille","lat":43.27999,"lon":5.40018,"is_reserved":false,"is_disabled":false,"rental_uris":{"android":"levelo://app?vid=088a3263-5d69-4cb5-b3d1-8ff94f70ae58","ios":"levelo://app?vid=088a3263-5d69-4cb5-b3d1-8ff94f70ae58"},"vehicle_type_id":"4","last_reported":1731510581,"current_range_meters":4400,"station_id":"ce4bho92rcd13ifvqh4g","pricing_plan_id":"cebpf4jnsgd1na2vs0mg"},{"bike_id":"de869bcc-46fb-48d1-853d-ab99bb346600","system_id":"levelo_inurba_marseille","lat":43.28464,"lon":5.35898,"is_reserved":false,"is_disabled":false,"rental_uris":{"android":"levelo://app?vid=de869bcc-46fb-48d1-853d-ab99bb346600","ios":"levelo://app?vid=de869bcc-46fb-48d1-853d-ab99bb346600"},"vehicle_type_id":"4","last_reported":1731510581,"current_range_meters":18800,"station_id":"ce4bhah2rcd13ifvqei0","pricing_plan_id":"cebpf4jnsgd1na2vs0mg"},{"bike_id":"ef678a22-5597-415e-8629-0d443d735e1c","system_id":"levelo_inurba_marseille","lat":43.30587,"lon":5.37271,"is_reserved":false,"is_disabled":false,"rental_uris":{"android":"levelo://app?vid=ef678a22-5597-415e-8629-0d443d735e1c","ios":"levelo://app?vid=ef678a22-5597-415e-8629-0d443d735e1c"},"vehicle_type_id":"4","last_reported":1731510581,"current_range_meters":32400,"station_id":"ce4bgqh2rcd13ifvqc4g","pricing_plan_id":"cebpf4jnsgd1na2vs0mg"},{"bike_id":"40cd8bf0-9fae-4cf2-83d9-fb8fa42dd199","system_id":"levelo_inurba_marseille","lat":43.27365,"lon":5.36251,"is_reserved":false,"is_disabled":false,"rental_uris":{"android":"levelo://app?vid=40cd8bf0-9fae-4cf2-83d9-fb8fa42dd199","ios":"levelo://app?vid=40cd8bf0-9fae-4cf2-83d9-fb8fa42dd199"},"vehicle_type_id":"4","last_reported":1731510581,"current_range_meters":6400,"station_id":"ce4bhbh2rcd13ifvqeo0","pricing_plan_id":"cebpf4jnsgd1na2vs0mg"},{"bike_id":"0b942ed8-fbd0-47eb-aca2-23553ed1cd02","system_id":"levelo_inurba_marseille","lat":43.26805,"lon":5.40262,"is_reserved":false,"is_disabled":false,"rental_uris":{"android":"levelo://app?vid=0b942ed8-fbd0-47eb-aca2-23553ed1cd02","ios":"levelo://app?vid=0b942ed8-fbd0-47eb-aca2-23553ed1cd02"},"vehicle_type_id":"4","last_reported":1731510581,"current_range_meters":19200,"station_id":"ce501612rcd8frsf0b60","pricing_plan_id":"cebpf4jnsgd1na2vs0mg"},{"bike_id":"13f09d1e-16fa-4ca3-a5eb-0c42732830af","system_id":"levelo_inurba_marseille","lat":43.272156,"lon":5.391225,"is_reserved":false,"is_disabled":false,"rental_uris":{"android":"levelo://app?vid=13f09d1e-16fa-4ca3-a5eb-0c42732830af","ios":"levelo://app?vid=13f09d1e-16fa-4ca3-a5eb-0c42732830af"},"vehicle_type_id":"4","last_reported":1731510581,"current_range_meters":9200,"station_id":"ce4bhhp2rcd13ifvqfm0","pricing_plan_id":"cebpf4jnsgd1na2vs0mg"},{"bike_id":"8cbba59c-0c2f-4620-aa92-6963a68c585c","system_id":"levelo_inurba_marseille","lat":43.28264,"lon":5.3508,"is_reserved":false,"is_disabled":false,"rental_uris":{"android":"levelo://app?vid=8cbba59c-0c2f-4620-aa92-6963a68c585c","ios":"levelo://app?vid=8cbba59c-0c2f-4620-aa92-6963a68c585c"},"vehicle_type_id":"4","last_reported":1731510581,"current_range_meters":34800,"station_id":"ce4bhbp2rcd13ifvqerg","pricing_plan_id":"cebpf4jnsgd1na2vs0mg"},{"bike_id":"993a2407-dea1-4de6-b3ec-4b72998a4778","system_id":"levelo_inurba_marseille","lat":43.30143,"lon":5.37412,"is_reserved":false,"is_disabled":false,"rental_uris":{"android":"levelo://app?vid=993a2407-dea1-4de6-b3ec-4b72998a4778","ios":"levelo://app?vid=993a2407-dea1-4de6-b3ec-4b72998a4778"},"vehicle_type_id":"4","last_reported":1731510581,"current_range_meters":38800,"station_id":"ce4bgs92rcd13ifvqcc0","pricing_plan_id":"cebpf4jnsgd1na2vs0mg"},{"bike_id":"bd80256c-4180-4f3f-a20f-831fb4b88108","system_id":"levelo_inurba_marseille","lat":43.27195,"lon":5.39199,"is_reserved":false,"is_disabled":false,"rental_uris":{"android":"levelo://app?vid=bd80256c-4180-4f3f-a20f-831fb4b88108","ios":"levelo://app?vid=bd80256c-4180-4f3f-a20f-831fb4b88108"},"vehicle_type_id":"4","last_reported":1731510581,"current_range_meters":17200,"station_id":"ce4bhhp2rcd13ifvqfm0","pricing_plan_id":"cebpf4jnsgd1na2vs0mg"},{"bike_id":"859ad82f-642b-46c4-956e-bed10ed51d29","system_id":"levelo_inurba_marseille","lat":43.29039,"lon":5.37566,"is_reserved":false,"is_disabled":false,"rental_uris":{"android":"levelo://app?vid=859ad82f-642b-46c4-956e-bed10ed51d29","ios":"levelo://app?vid=859ad82f-642b-46c4-956e-bed10ed51d29"},"vehicle_type_id":"4","last_reported":1731510581,"current_range_meters":33600,"station_id":"ce4bh692rcd13ifvqe90","pricing_plan_id":"cebpf4jnsgd1na2vs0mg"},{"bike_id":"aa638680-37b0-43ca-9aef-032dcc0adea1","system_id":"levelo_inurba_marseille","lat":43.28462,"lon":5.3589,"is_reserved":false,"is_disabled":false,"rental_uris":{"android":"levelo://app?vid=aa638680-37b0-43ca-9aef-032dcc0adea1","ios":"levelo://app?vid=aa638680-37b0-43ca-9aef-032dcc0adea1"},"vehicle_type_id":"4","last_reported":1731510581,"current_range_meters":22000,"station_id":"ce4bhah2rcd13ifvqei0","pricing_plan_id":"cebpf4jnsgd1na2vs0mg"},{"bike_id":"5fed6b8a-ae71-4edb-bfe8-406158c432c9","system_id":"levelo_inurba_marseille","lat":43.27991,"lon":5.40018,"is_reserved":false,"is_disabled":false,"rental_uris":{"android":"levelo://app?vid=5fed6b8a-ae71-4edb-bfe8-406158c432c9","ios":"levelo://app?vid=5fed6b8a-ae71-4edb-bfe8-406158c432c9"},"vehicle_type_id":"4","last_reported":1731510581,"current_range_meters":26000,"station_id":"ce4bho92rcd13ifvqh4g","pricing_plan_id":"cebpf4jnsgd1na2vs0mg"},{"bike_id":"4a74f469-1d99-48ee-a8ca-9199898c00a4","system_id":"levelo_inurba_marseille","lat":43.23197,"lon":5.35553,"is_reserved":false,"is_disabled":false,"rental_uris":{"android":"levelo://app?vid=4a74f469-1d99-48ee-a8ca-9199898c00a4","ios":"levelo://app?vid=4a74f469-1d99-48ee-a8ca-9199898c00a4"},"vehicle_type_id":"4","last_reported":1731510581,"current_range_meters":26800,"station_id":"ce4bhu92rcd13ifvqi70","pricing_plan_id":"cebpf4jnsgd1na2vs0mg"},{"bike_id":"030997c1-d05e-43dc-8576-c68922e31afb","system_id":"levelo_inurba_marseille","lat":43.30131,"lon":5.37429,"is_reserved":false,"is_disabled":false,"rental_uris":{"android":"levelo://app?vid=030997c1-d05e-43dc-8576-c68922e31afb","ios":"levelo://app?vid=030997c1-d05e-43dc-8576-c68922e31afb"},"vehicle_type_id":"4","last_reported":1731510581,"current_range_meters":22400,"station_id":"ce4bgs92rcd13ifvqcc0","pricing_plan_id":"cebpf4jnsgd1na2vs0mg"},{"bike_id":"77849bd5-5bfe-4445-8191-82da714d15fa","system_id":"levelo_inurba_marseille","lat":43.27808,"lon":5.4072,"is_reserved":false,"is_disabled":false,"rental_uris":{"android":"levelo://app?vid=77849bd5-5bfe-4445-8191-82da714d15fa","ios":"levelo://app?vid=77849bd5-5bfe-4445-8191-82da714d15fa"},"vehicle_type_id":"4","last_reported":1731510581,"current_range_meters":36800,"station_id":"ce4bhnh2rcd13ifvqgtg","pricing_plan_id":"cebpf4jnsgd1na2vs0mg"},{"bike_id":"d8097ebd-a77a-4abe-8a37-33e9cff7dc21","system_id":"levelo_inurba_marseille","lat":43.25827,"lon":5.39434,"is_reserved":false,"is_disabled":false,"rental_uris":{"android":"levelo://app?vid=d8097ebd-a77a-4abe-8a37-33e9cff7dc21","ios":"levelo://app?vid=d8097ebd-a77a-4abe-8a37-33e9cff7dc21"},"vehicle_type_id":"4","last_reported":1731510581,"current_range_meters":9600,"station_id":"ce4bhip2rcd13ifvqft0","pricing_plan_id":"cebpf4jnsgd1na2vs0mg"},{"bike_id":"594a0382-3079-476b-8a48-5d589c98b6fb","system_id":"levelo_inurba_marseille","lat":43.29776,"lon":5.37102,"is_reserved":false,"is_disabled":false,"rental_uris":{"android":"levelo://app?vid=594a0382-3079-476b-8a48-5d589c98b6fb","ios":"levelo://app?vid=594a0382-3079-476b-8a48-5d589c98b6fb"},"vehicle_type_id":"4","last_reported":1731510581,"current_range_meters":22000,"station_id":"ce4bgop2rcd13ifvqc1g","pricing_plan_id":"cebpf4jnsgd1na2vs0mg"},{"bike_id":"22d1be38-9596-4d4a-a6c0-cb37336284d7","system_id":"levelo_inurba_marseille","lat":43.28264,"lon":5.35063,"is_reserved":false,"is_disabled":false,"rental_uris":{"android":"levelo://app?vid=22d1be38-9596-4d4a-a6c0-cb37336284d7","ios":"levelo://app?vid=22d1be38-9596-4d4a-a6c0-cb37336284d7"},"vehicle_type_id":"4","last_reported":1731510581,"current_range_meters":28400,"station_id":"ce4bhbp2rcd13ifvqerg","pricing_plan_id":"cebpf4jnsgd1na2vs0mg"},{"bike_id":"d2267faf-0425-4a98-b30d-1bae458a7a01","system_id":"levelo_inurba_marseille","lat":43.28959,"lon":5.37842,"is_reserved":false,"is_disabled":false,"rental_uris":{"android":"levelo://app?vid=d2267faf-0425-4a98-b30d-1bae458a7a01","ios":"levelo://app?vid=d2267faf-0425-4a98-b30d-1bae458a7a01"},"vehicle_type_id":"4","last_reported":1731510581,"current_range_meters":19600,"station_id":"ce4bh9p2rcd13ifvqed0","pricing_plan_id":"cebpf4jnsgd1na2vs0mg"},{"bike_id":"d048f0dc-8ce0-4132-bf0a-0867dc618e8d","system_id":"levelo_inurba_marseille","lat":43.2984,"lon":5.36269,"is_reserved":false,"is_disabled":false,"rental_uris":{"android":"levelo://app?vid=d048f0dc-8ce0-4132-bf0a-0867dc618e8d","ios":"levelo://app?vid=d048f0dc-8ce0-4132-bf0a-0867dc618e8d"},"vehicle_type_id":"4","last_reported":1731510581,"current_range_meters":12400,"station_id":"ce4bgpp2rcd13ifvqc3g","pricing_plan_id":"cebpf4jnsgd1na2vs0mg"},{"bike_id":"3034d7f1-0dc1-485a-aa3d-1f761df92527","system_id":"levelo_inurba_marseille","lat":43.31178,"lon":5.36847,"is_reserved":false,"is_disabled":false,"rental_uris":{"android":"levelo://app?vid=3034d7f1-0dc1-485a-aa3d-1f761df92527","ios":"levelo://app?vid=3034d7f1-0dc1-485a-aa3d-1f761df92527"},"vehicle_type_id":"4","last_reported":1731510581,"current_range_meters":33200,"station_id":"ce4bgl92rcd13ifvqbq0","pricing_plan_id":"cebpf4jnsgd1na2vs0mg"},{"bike_id":"f7b78c13-c2d9-4d84-8cb1-a0bb65b2f9f7","system_id":"levelo_inurba_marseille","lat":43.30599,"lon":5.37241,"is_reserved":false,"is_disabled":false,"rental_uris":{"android":"levelo://app?vid=f7b78c13-c2d9-4d84-8cb1-a0bb65b2f9f7","ios":"levelo://app?vid=f7b78c13-c2d9-4d84-8cb1-a0bb65b2f9f7"},"vehicle_type_id":"4","last_reported":1731510581,"current_range_meters":33600,"station_id":"ce4bgqh2rcd13ifvqc4g","pricing_plan_id":"cebpf4jnsgd1na2vs0mg"},{"bike_id":"ceaf1c85-1d4c-4daa-b4b7-bbb91b330960","system_id":"levelo_inurba_marseille","lat":43.28654,"lon":5.36352,"is_reserved":false,"is_disabled":false,"rental_uris":{"android":"levelo://app?vid=ceaf1c85-1d4c-4daa-b4b7-bbb91b330960","ios":"levelo://app?vid=ceaf1c85-1d4c-4daa-b4b7-bbb91b330960"},"vehicle_type_id":"4","last_reported":1731510581,"current_range_meters":10000,"station_id":"ce4bhah2rcd13ifvqej0","pricing_plan_id":"cebpf4jnsgd1na2vs0mg"},{"bike_id":"cf29235f-e831-4fd9-a41b-a0645a98e989","system_id":"levelo_inurba_marseille","lat":43.27608,"lon":5.36121,"is_reserved":false,"is_disabled":false,"rental_uris":{"android":"levelo://app?vid=cf29235f-e831-4fd9-a41b-a0645a98e989","ios":"levelo://app?vid=cf29235f-e831-4fd9-a41b-a0645a98e989"},"vehicle_type_id":"4","last_reported":1731510581,"current_range_meters":29600,"station_id":"ce4bgj92rcd13ifvqbe0","pricing_plan_id":"cebpf4jnsgd1na2vs0mg"},{"bike_id":"7d7c161f-e5e3-4ce9-b742-5b96f0044808","system_id":"levelo_inurba_marseille","lat":43.30601,"lon":5.3722,"is_reserved":false,"is_disabled":false,"rental_uris":{"android":"levelo://app?vid=7d7c161f-e5e3-4ce9-b742-5b96f0044808","ios":"levelo://app?vid=7d7c161f-e5e3-4ce9-b742-5b96f0044808"},"vehicle_type_id":"4","last_reported":1731510581,"current_range_meters":25200,"station_id":"ce4bgqh2rcd13ifvqc4g","pricing_plan_id":"cebpf4jnsgd1na2vs0mg"},{"bike_id":"66b67f2e-442b-4259-98bd-5cb12d35e4de","system_id":"levelo_inurba_marseille","lat":43.27971,"lon":5.38742,"is_reserved":false,"is_disabled":false,"rental_uris":{"android":"levelo://app?vid=66b67f2e-442b-4259-98bd-5cb12d35e4de","ios":"levelo://app?vid=66b67f2e-442b-4259-98bd-5cb12d35e4de"},"vehicle_type_id":"4","last_reported":1731510581,"current_range_meters":31200,"station_id":"ce4bhg12rcd13ifvqf80","pricing_plan_id":"cebpf4jnsgd1na2vs0mg"},{"bike_id":"0090ef7d-1fce-413c-97c7-b1a66442a7ac","system_id":"levelo_inurba_marseille","lat":43.330328,"lon":5.390384,"is_reserved":false,"is_disabled":false,"rental_uris":{"android":"levelo://app?vid=0090ef7d-1fce-413c-97c7-b1a66442a7ac","ios":"levelo://app?vid=0090ef7d-1fce-413c-97c7-b1a66442a7ac"},"vehicle_type_id":"4","last_reported":1731510581,"current_range_meters":38800,"station_id":"ce4bhr92rcd13ifvqhrg","pricing_plan_id":"cebpf4jnsgd1na2vs0mg"},{"bike_id":"13eb5d0f-e985-46b6-9523-642dec538e74","system_id":"levelo_inurba_marseille","lat":43.29045,"lon":5.35921,"is_reserved":false,"is_disabled":false,"rental_uris":{"android":"levelo://app?vid=13eb5d0f-e985-46b6-9523-642dec538e74","ios":"levelo://app?vid=13eb5d0f-e985-46b6-9523-642dec538e74"},"vehicle_type_id":"4","last_reported":1731510581,"current_range_meters":12400,"station_id":"ce4bha92rcd13ifvqeg0","pricing_plan_id":"cebpf4jnsgd1na2vs0mg"},{"bike_id":"564a4ecb-914b-4473-a63d-241aec0c22bb","system_id":"levelo_inurba_marseille","lat":43.30643,"lon":5.40075,"is_reserved":false,"is_disabled":false,"rental_uris":{"android":"levelo://app?vid=564a4ecb-914b-4473-a63d-241aec0c22bb","ios":"levelo://app?vid=564a4ecb-914b-4473-a63d-241aec0c22bb"},"vehicle_type_id":"4","last_reported":1731510581,"current_range_meters":34000,"station_id":"ce4bh112rcd13ifvqda0","pricing_plan_id":"cebpf4jnsgd1na2vs0mg"},{"bike_id":"ebdf3bfe-5bf0-4a1f-b63c-f9acc6cf846c","system_id":"levelo_inurba_marseille","lat":43.275656,"lon":5.384304,"is_reserved":false,"is_disabled":false,"rental_uris":{"android":"levelo://app?vid=ebdf3bfe-5bf0-4a1f-b63c-f9acc6cf846c","ios":"levelo://app?vid=ebdf3bfe-5bf0-4a1f-b63c-f9acc6cf846c"},"vehicle_type_id":"4","last_reported":1731510581,"current_range_meters":22000,"station_id":"","pricing_plan_id":"cebpf4jnsgd1na2vs0mg"},{"bike_id":"e01f0a03-0136-42ef-85d4-37ccdd27885f","system_id":"levelo_inurba_marseille","lat":43.26188,"lon":5.37453,"is_reserved":false,"is_disabled":false,"rental_uris":{"android":"levelo://app?vid=e01f0a03-0136-42ef-85d4-37ccdd27885f","ios":"levelo://app?vid=e01f0a03-0136-42ef-85d4-37ccdd27885f"},"vehicle_type_id":"4","last_reported":1731510581,"current_range_meters":27200,"station_id":"ce4bhgp2rcd13ifvqfc0","pricing_plan_id":"cebpf4jnsgd1na2vs0mg"},{"bike_id":"56569525-aa58-4f8c-8856-b040be34cee4","system_id":"levelo_inurba_marseille","lat":43.29868,"lon":5.37639,"is_reserved":false,"is_disabled":false,"rental_uris":{"android":"levelo://app?vid=56569525-aa58-4f8c-8856-b040be34cee4","ios":"levelo://app?vid=56569525-aa58-4f8c-8856-b040be34cee4"},"vehicle_type_id":"4","last_reported":1731510581,"current_range_meters":12800,"station_id":"","pricing_plan_id":"cebpf4jnsgd1na2vs0mg"},{"bike_id":"9b028067-e0e4-4a8e-b6d8-8dd92afb9e91","system_id":"levelo_inurba_marseille","lat":43.28428,"lon":5.37495,"is_reserved":false,"is_disabled":false,"rental_uris":{"android":"levelo://app?vid=9b028067-e0e4-4a8e-b6d8-8dd92afb9e91","ios":"levelo://app?vid=9b028067-e0e4-4a8e-b6d8-8dd92afb9e91"},"vehicle_type_id":"4","last_reported":1731510581,"current_range_meters":18000,"station_id":"ce4bh412rcd13ifvqds0","pricing_plan_id":"cebpf4jnsgd1na2vs0mg"},{"bike_id":"ea6b2753-260e-4451-866a-2fcfbea3534f","system_id":"levelo_inurba_marseille","lat":43.25494,"lon":5.3765,"is_reserved":false,"is_disabled":false,"rental_uris":{"android":"levelo://app?vid=ea6b2753-260e-4451-866a-2fcfbea3534f","ios":"levelo://app?vid=ea6b2753-260e-4451-866a-2fcfbea3534f"},"vehicle_type_id":"4","last_reported":1731510581,"current_range_meters":28000,"station_id":"ce4bhh12rcd13ifvqff0","pricing_plan_id":"cebpf4jnsgd1na2vs0mg"},{"bike_id":"d99bff46-e3e0-4c25-9719-3fa3dd9a1a6e","system_id":"levelo_inurba_marseille","lat":43.31466,"lon":5.37443,"is_reserved":false,"is_disabled":false,"rental_uris":{"android":"levelo://app?vid=d99bff46-e3e0-4c25-9719-3fa3dd9a1a6e","ios":"levelo://app?vid=d99bff46-e3e0-4c25-9719-3fa3dd9a1a6e"},"vehicle_type_id":"4","last_reported":1731510581,"current_range_meters":22400,"station_id":"","pricing_plan_id":"cebpf4jnsgd1na2vs0mg"},{"bike_id":"4335b000-cdcc-48f3-ac17-560aeecb4683","system_id":"levelo_inurba_marseille","lat":43.29189,"lon":5.39324,"is_reserved":false,"is_disabled":false,"rental_uris":{"android":"levelo://app?vid=4335b000-cdcc-48f3-ac17-560aeecb4683","ios":"levelo://app?vid=4335b000-cdcc-48f3-ac17-560aeecb4683"},"vehicle_type_id":"4","last_reported":1731510581,"current_range_meters":17200,"station_id":"ce4bh192rcd13ifvqdd0","pricing_plan_id":"cebpf4jnsgd1na2vs0mg"},{"bike_id":"e9bb8950-76de-4c9d-9aff-35253f090ff2","system_id":"levelo_inurba_marseille","lat":43.28106,"lon":5.37847,"is_reserved":false,"is_disabled":false,"rental_uris":{"android":"levelo://app?vid=e9bb8950-76de-4c9d-9aff-35253f090ff2","ios":"levelo://app?vid=e9bb8950-76de-4c9d-9aff-35253f090ff2"},"vehicle_type_id":"4","last_reported":1731510581,"current_range_meters":36000,"station_id":"ce4bha12rcd13ifvqee0","pricing_plan_id":"cebpf4jnsgd1na2vs0mg"},{"bike_id":"65517de8-35f6-4cdf-83a3-74fc36784996","system_id":"levelo_inurba_marseille","lat":43.28257,"lon":5.35075,"is_reserved":false,"is_disabled":false,"rental_uris":{"android":"levelo://app?vid=65517de8-35f6-4cdf-83a3-74fc36784996","ios":"levelo://app?vid=65517de8-35f6-4cdf-83a3-74fc36784996"},"vehicle_type_id":"4","last_reported":1731510581,"current_range_meters":39200,"station_id":"ce4bhbp2rcd13ifvqerg","pricing_plan_id":"cebpf4jnsgd1na2vs0mg"},{"bike_id":"d85645ce-d4d9-4c68-902a-0933f5754c5f","system_id":"levelo_inurba_marseille","lat":43.27946,"lon":5.41051,"is_reserved":false,"is_disabled":false,"rental_uris":{"android":"levelo://app?vid=d85645ce-d4d9-4c68-902a-0933f5754c5f","ios":"levelo://app?vid=d85645ce-d4d9-4c68-902a-0933f5754c5f"},"vehicle_type_id":"4","last_reported":1731510581,"current_range_meters":24800,"station_id":"ce4bhnp2rcd13ifvqh0g","pricing_plan_id":"cebpf4jnsgd1na2vs0mg"},{"bike_id":"35bf010d-052c-4109-8565-060b8dc4bd0d","system_id":"levelo_inurba_marseille","lat":43.3123,"lon":5.36864,"is_reserved":false,"is_disabled":false,"rental_uris":{"android":"levelo://app?vid=35bf010d-052c-4109-8565-060b8dc4bd0d","ios":"levelo://app?vid=35bf010d-052c-4109-8565-060b8dc4bd0d"},"vehicle_type_id":"4","last_reported":1731510581,"current_range_meters":22000,"station_id":"ce4bgl92rcd13ifvqbq0","pricing_plan_id":"cebpf4jnsgd1na2vs0mg"},{"bike_id":"b3d55156-54f2-439f-a9e2-551597aa5e3d","system_id":"levelo_inurba_marseille","lat":43.29276,"lon":5.40134,"is_reserved":false,"is_disabled":false,"rental_uris":{"android":"levelo://app?vid=b3d55156-54f2-439f-a9e2-551597aa5e3d","ios":"levelo://app?vid=b3d55156-54f2-439f-a9e2-551597aa5e3d"},"vehicle_type_id":"4","last_reported":1731510581,"current_range_meters":17600,"station_id":"ce4bh312rcd13ifvqdk0","pricing_plan_id":"cebpf4jnsgd1na2vs0mg"},{"bike_id":"38b31dd2-73ed-42c1-9a1b-39dffae1a35e","system_id":"levelo_inurba_marseille","lat":43.25861,"lon":5.39903,"is_reserved":false,"is_disabled":false,"rental_uris":{"android":"levelo://app?vid=38b31dd2-73ed-42c1-9a1b-39dffae1a35e","ios":"levelo://app?vid=38b31dd2-73ed-42c1-9a1b-39dffae1a35e"},"vehicle_type_id":"4","last_reported":1731510581,"current_range_meters":25600,"station_id":"ce4bhl92rcd13ifvqghg","pricing_plan_id":"cebpf4jnsgd1na2vs0mg"},{"bike_id":"850edffa-09b1-46e6-93f8-6411289a40f2","system_id":"levelo_inurba_marseille","lat":43.29583,"lon":5.36739,"is_reserved":false,"is_disabled":false,"rental_uris":{"android":"levelo://app?vid=850edffa-09b1-46e6-93f8-6411289a40f2","ios":"levelo://app?vid=850edffa-09b1-46e6-93f8-6411289a40f2"},"vehicle_type_id":"4","last_reported":1731510581,"current_range_meters":34000,"station_id":"ce4bgph2rcd13ifvqc2g","pricing_plan_id":"cebpf4jnsgd1na2vs0mg"},{"bike_id":"6d338959-dac2-4460-a617-8941699747f4","system_id":"levelo_inurba_marseille","lat":43.29245,"lon":5.40911,"is_reserved":false,"is_disabled":false,"rental_uris":{"android":"levelo://app?vid=6d338959-dac2-4460-a617-8941699747f4","ios":"levelo://app?vid=6d338959-dac2-4460-a617-8941699747f4"},"vehicle_type_id":"4","last_reported":1731510581,"current_range_meters":26000,"station_id":"ce4bh192rcd13ifvqdc0","pricing_plan_id":"cebpf4jnsgd1na2vs0mg"},{"bike_id":"7c240009-8c2b-4097-b148-cc3511e71a66","system_id":"levelo_inurba_marseille","lat":43.33023,"lon":5.39038,"is_reserved":false,"is_disabled":false,"rental_uris":{"android":"levelo://app?vid=7c240009-8c2b-4097-b148-cc3511e71a66","ios":"levelo://app?vid=7c240009-8c2b-4097-b148-cc3511e71a66"},"vehicle_type_id":"4","last_reported":1731510581,"current_range_meters":30400,"station_id":"ce4bhr92rcd13ifvqhrg","pricing_plan_id":"cebpf4jnsgd1na2vs0mg"},{"bike_id":"3c4744cc-81a4-4cb4-92e2-c61822698af9","system_id":"levelo_inurba_marseille","lat":43.29226,"lon":5.36065,"is_reserved":false,"is_disabled":false,"rental_uris":{"android":"levelo://app?vid=3c4744cc-81a4-4cb4-92e2-c61822698af9","ios":"levelo://app?vid=3c4744cc-81a4-4cb4-92e2-c61822698af9"},"vehicle_type_id":"4","last_reported":1731510581,"current_range_meters":30000,"station_id":"ce4bhbh2rcd13ifvqeqg","pricing_plan_id":"cebpf4jnsgd1na2vs0mg"},{"bike_id":"797e37eb-5aad-404f-98b6-b421690943b7","system_id":"levelo_inurba_marseille","lat":43.2756,"lon":5.38418,"is_reserved":false,"is_disabled":false,"rental_uris":{"android":"levelo://app?vid=797e37eb-5aad-404f-98b6-b421690943b7","ios":"levelo://app?vid=797e37eb-5aad-404f-98b6-b421690943b7"},"vehicle_type_id":"4","last_reported":1731510581,"current_range_meters":38800,"station_id":"ce4bhh92rcd13ifvqfi0","pricing_plan_id":"cebpf4jnsgd1na2vs0mg"},{"bike_id":"441c383e-a566-46d4-aa4d-39827dfa6520","system_id":"levelo_inurba_marseille","lat":43.28668,"lon":5.38669,"is_reserved":false,"is_disabled":false,"rental_uris":{"android":"levelo://app?vid=441c383e-a566-46d4-aa4d-39827dfa6520","ios":"levelo://app?vid=441c383e-a566-46d4-aa4d-39827dfa6520"},"vehicle_type_id":"4","last_reported":1731510581,"current_range_meters":4800,"station_id":"ce4bh492rcd13ifvqdug","pricing_plan_id":"cebpf4jnsgd1na2vs0mg"},{"bike_id":"0dc3a957-2599-4f5c-b271-bb0e3347e0f2","system_id":"levelo_inurba_marseille","lat":43.284,"lon":5.37508,"is_reserved":false,"is_disabled":false,"rental_uris":{"android":"levelo://app?vid=0dc3a957-2599-4f5c-b271-bb0e3347e0f2","ios":"levelo://app?vid=0dc3a957-2599-4f5c-b271-bb0e3347e0f2"},"vehicle_type_id":"4","last_reported":1731510581,"current_range_meters":8800,"station_id":"ce4bh412rcd13ifvqds0","pricing_plan_id":"cebpf4jnsgd1na2vs0mg"},{"bike_id":"e5658d24-40e6-4fbe-8b2d-3358ba7defdd","system_id":"levelo_inurba_marseille","lat":43.29883,"lon":5.38909,"is_reserved":false,"is_disabled":false,"rental_uris":{"android":"levelo://app?vid=e5658d24-40e6-4fbe-8b2d-3358ba7defdd","ios":"levelo://app?vid=e5658d24-40e6-4fbe-8b2d-3358ba7defdd"},"vehicle_type_id":"4","last_reported":1731510581,"current_range_meters":16000,"station_id":"ce4bh392rcd13ifvqdl0","pricing_plan_id":"cebpf4jnsgd1na2vs0mg"},{"bike_id":"b83d5a8a-b0a5-42e7-98a3-9c12a5510a4e","system_id":"levelo_inurba_marseille","lat":43.28666,"lon":5.36359,"is_reserved":false,"is_disabled":false,"rental_uris":{"android":"levelo://app?vid=b83d5a8a-b0a5-42e7-98a3-9c12a5510a4e","ios":"levelo://app?vid=b83d5a8a-b0a5-42e7-98a3-9c12a5510a4e"},"vehicle_type_id":"4","last_reported":1731510581,"current_range_meters":38800,"station_id":"ce4bhah2rcd13ifvqej0","pricing_plan_id":"cebpf4jnsgd1na2vs0mg"},{"bike_id":"7997f395-8737-491c-b028-8037cbf97585","system_id":"levelo_inurba_marseille","lat":43.298897,"lon":5.389054,"is_reserved":false,"is_disabled":false,"rental_uris":{"android":"levelo://app?vid=7997f395-8737-491c-b028-8037cbf97585","ios":"levelo://app?vid=7997f395-8737-491c-b028-8037cbf97585"},"vehicle_type_id":"4","last_reported":1731510581,"current_range_meters":7200,"station_id":"ce4bh392rcd13ifvqdl0","pricing_plan_id":"cebpf4jnsgd1na2vs0mg"},{"bike_id":"8963f262-bdcb-43f5-9e37-237198779ba8","system_id":"levelo_inurba_marseille","lat":43.33773,"lon":5.37442,"is_reserved":false,"is_disabled":false,"rental_uris":{"android":"levelo://app?vid=8963f262-bdcb-43f5-9e37-237198779ba8","ios":"levelo://app?vid=8963f262-bdcb-43f5-9e37-237198779ba8"},"vehicle_type_id":"4","last_reported":1731510581,"current_range_meters":38000,"station_id":"","pricing_plan_id":"cebpf4jnsgd1na2vs0mg"},{"bike_id":"9e206ec4-3bc2-4292-bb12-90ccf987d885","system_id":"levelo_inurba_marseille","lat":43.337444,"lon":5.374475,"is_reserved":false,"is_disabled":false,"rental_uris":{"android":"levelo://app?vid=9e206ec4-3bc2-4292-bb12-90ccf987d885","ios":"levelo://app?vid=9e206ec4-3bc2-4292-bb12-90ccf987d885"},"vehicle_type_id":"4","last_reported":1731510581,"current_range_meters":36800,"station_id":"","pricing_plan_id":"cebpf4jnsgd1na2vs0mg"},{"bike_id":"398b47b3-a042-4cec-b1dd-254773a78263","system_id":"levelo_inurba_marseille","lat":43.27402,"lon":5.38951,"is_reserved":false,"is_disabled":false,"rental_uris":{"android":"levelo://app?vid=398b47b3-a042-4cec-b1dd-254773a78263","ios":"levelo://app?vid=398b47b3-a042-4cec-b1dd-254773a78263"},"vehicle_type_id":"4","last_reported":1731510581,"current_range_meters":8800,"station_id":"","pricing_plan_id":"cebpf4jnsgd1na2vs0mg"},{"bike_id":"9748b761-dff6-418f-8a16-173dcf561a0c","system_id":"levelo_inurba_marseille","lat":43.30311,"lon":5.36902,"is_reserved":false,"is_disabled":false,"rental_uris":{"android":"levelo://app?vid=9748b761-dff6-418f-8a16-173dcf561a0c","ios":"levelo://app?vid=9748b761-dff6-418f-8a16-173dcf561a0c"},"vehicle_type_id":"4","last_reported":1731510581,"current_range_meters":18000,"station_id":"ce4bgqh2rcd13ifvqc5g","pricing_plan_id":"cebpf4jnsgd1na2vs0mg"},{"bike_id":"f3601aa4-22df-446b-adb3-8e098ec5d334","system_id":"levelo_inurba_marseille","lat":43.295951,"lon":5.400379,"is_reserved":false,"is_disabled":false,"rental_uris":{"android":"levelo://app?vid=f3601aa4-22df-446b-adb3-8e098ec5d334","ios":"levelo://app?vid=f3601aa4-22df-446b-adb3-8e098ec5d334"},"vehicle_type_id":"4","last_reported":1731510581,"current_range_meters":20000,"station_id":"ce4bh312rcd13ifvqdj0","pricing_plan_id":"cebpf4jnsgd1na2vs0mg"},{"bike_id":"45f574f4-3b3a-4f67-bc11-43fe8c0da209","system_id":"levelo_inurba_marseille","lat":43.31965,"lon":5.38193,"is_reserved":false,"is_disabled":false,"rental_uris":{"android":"levelo://app?vid=45f574f4-3b3a-4f67-bc11-43fe8c0da209","ios":"levelo://app?vid=45f574f4-3b3a-4f67-bc11-43fe8c0da209"},"vehicle_type_id":"4","last_reported":1731510581,"current_range_meters":18800,"station_id":"ce4bhr12rcd13ifvqhpg","pricing_plan_id":"cebpf4jnsgd1na2vs0mg"},{"bike_id":"badab822-d5bc-4b24-8873-e944b6c531a6","system_id":"levelo_inurba_marseille","lat":43.28432,"lon":5.39186,"is_reserved":false,"is_disabled":false,"rental_uris":{"android":"levelo://app?vid=badab822-d5bc-4b24-8873-e944b6c531a6","ios":"levelo://app?vid=badab822-d5bc-4b24-8873-e944b6c531a6"},"vehicle_type_id":"4","last_reported":1731510581,"current_range_meters":2800,"station_id":"ce4bhoh2rcd13ifvqh5g","pricing_plan_id":"cebpf4jnsgd1na2vs0mg"},{"bike_id":"92e3ad17-17c9-4714-a148-ef9436ad6113","system_id":"levelo_inurba_marseille","lat":43.22933,"lon":5.35383,"is_reserved":false,"is_disabled":false,"rental_uris":{"android":"levelo://app?vid=92e3ad17-17c9-4714-a148-ef9436ad6113","ios":"levelo://app?vid=92e3ad17-17c9-4714-a148-ef9436ad6113"},"vehicle_type_id":"4","last_reported":1731510581,"current_range_meters":39200,"station_id":"cpo3532slgdg3j2ikp40","pricing_plan_id":"cebpf4jnsgd1na2vs0mg"},{"bike_id":"ee664284-278f-4f6e-beba-6a7aeddc8721","system_id":"levelo_inurba_marseille","lat":43.2842,"lon":5.34977,"is_reserved":false,"is_disabled":false,"rental_uris":{"android":"levelo://app?vid=ee664284-278f-4f6e-beba-6a7aeddc8721","ios":"levelo://app?vid=ee664284-278f-4f6e-beba-6a7aeddc8721"},"vehicle_type_id":"4","last_reported":1731510581,"current_range_meters":17200,"station_id":"ce4bhbh2rcd13ifvqepg","pricing_plan_id":"cebpf4jnsgd1na2vs0mg"},{"bike_id":"beb7b9bd-a544-4d0c-b0ee-a6204f3f5108","system_id":"levelo_inurba_marseille","lat":43.291962,"lon":5.385193,"is_reserved":false,"is_disabled":false,"rental_uris":{"android":"levelo://app?vid=beb7b9bd-a544-4d0c-b0ee-a6204f3f5108","ios":"levelo://app?vid=beb7b9bd-a544-4d0c-b0ee-a6204f3f5108"},"vehicle_type_id":"4","last_reported":1731510581,"current_range_meters":28400,"station_id":"","pricing_plan_id":"cebpf4jnsgd1na2vs0mg"},{"bike_id":"82f309e6-c4ae-421f-89cb-1d64a8e0ef10","system_id":"levelo_inurba_marseille","lat":43.337444,"lon":5.374475,"is_reserved":false,"is_disabled":false,"rental_uris":{"android":"levelo://app?vid=82f309e6-c4ae-421f-89cb-1d64a8e0ef10","ios":"levelo://app?vid=82f309e6-c4ae-421f-89cb-1d64a8e0ef10"},"vehicle_type_id":"4","last_reported":1731510581,"current_range_meters":36800,"station_id":"","pricing_plan_id":"cebpf4jnsgd1na2vs0mg"},{"bike_id":"d2423466-98bc-4d3a-a5fc-c0d33f6c410d","system_id":"levelo_inurba_marseille","lat":43.337444,"lon":5.374475,"is_reserved":false,"is_disabled":false,"rental_uris":{"android":"levelo://app?vid=d2423466-98bc-4d3a-a5fc-c0d33f6c410d","ios":"levelo://app?vid=d2423466-98bc-4d3a-a5fc-c0d33f6c410d"},"vehicle_type_id":"4","last_reported":1731510581,"current_range_meters":36800,"station_id":"","pricing_plan_id":"cebpf4jnsgd1na2vs0mg"},{"bike_id":"54a68224-10a1-4553-b0a8-759eb25b491c","system_id":"levelo_inurba_marseille","lat":43.2846,"lon":5.35887,"is_reserved":false,"is_disabled":false,"rental_uris":{"android":"levelo://app?vid=54a68224-10a1-4553-b0a8-759eb25b491c","ios":"levelo://app?vid=54a68224-10a1-4553-b0a8-759eb25b491c"},"vehicle_type_id":"4","last_reported":1731510581,"current_range_meters":22800,"station_id":"ce4bhah2rcd13ifvqei0","pricing_plan_id":"cebpf4jnsgd1na2vs0mg"},{"bike_id":"826826cf-fca1-46c7-8ffc-8b023628e256","system_id":"levelo_inurba_marseille","lat":43.27493,"lon":5.42456,"is_reserved":false,"is_disabled":false,"rental_uris":{"android":"levelo://app?vid=826826cf-fca1-46c7-8ffc-8b023628e256","ios":"levelo://app?vid=826826cf-fca1-46c7-8ffc-8b023628e256"},"vehicle_type_id":"4","last_reported":1731510581,"current_range_meters":6400,"station_id":"ce4bhn92rcd13ifvqgrg","pricing_plan_id":"cebpf4jnsgd1na2vs0mg"},{"bike_id":"6e4ab7d2-c1df-4ea4-bb4b-2f5c43ed5717","system_id":"levelo_inurba_marseille","lat":43.33768,"lon":5.37439,"is_reserved":false,"is_disabled":false,"rental_uris":{"android":"levelo://app?vid=6e4ab7d2-c1df-4ea4-bb4b-2f5c43ed5717","ios":"levelo://app?vid=6e4ab7d2-c1df-4ea4-bb4b-2f5c43ed5717"},"vehicle_type_id":"4","last_reported":1731510581,"current_range_meters":36400,"station_id":"","pricing_plan_id":"cebpf4jnsgd1na2vs0mg"},{"bike_id":"e328e3b2-cacf-4239-a6db-f21f87451394","system_id":"levelo_inurba_marseille","lat":43.28398,"lon":5.3753,"is_reserved":false,"is_disabled":false,"rental_uris":{"android":"levelo://app?vid=e328e3b2-cacf-4239-a6db-f21f87451394","ios":"levelo://app?vid=e328e3b2-cacf-4239-a6db-f21f87451394"},"vehicle_type_id":"4","last_reported":1731510581,"current_range_meters":23200,"station_id":"ce4bh412rcd13ifvqds0","pricing_plan_id":"cebpf4jnsgd1na2vs0mg"},{"bike_id":"b1f50a4e-bf80-417b-be95-adf7b4bc4b3b","system_id":"levelo_inurba_marseille","lat":43.30387,"lon":5.37003,"is_reserved":false,"is_disabled":false,"rental_uris":{"android":"levelo://app?vid=b1f50a4e-bf80-417b-be95-adf7b4bc4b3b","ios":"levelo://app?vid=b1f50a4e-bf80-417b-be95-adf7b4bc4b3b"},"vehicle_type_id":"4","last_reported":1731510581,"current_range_meters":34800,"station_id":"","pricing_plan_id":"cebpf4jnsgd1na2vs0mg"},{"bike_id":"0da4b47e-c94f-47f0-b064-d638f22a2985","system_id":"levelo_inurba_marseille","lat":43.31074,"lon":5.38356,"is_reserved":false,"is_disabled":false,"rental_uris":{"android":"levelo://app?vid=0da4b47e-c94f-47f0-b064-d638f22a2985","ios":"levelo://app?vid=0da4b47e-c94f-47f0-b064-d638f22a2985"},"vehicle_type_id":"4","last_reported":1731510581,"current_range_meters":24000,"station_id":"ce4bgv92rcd13ifvqcr0","pricing_plan_id":"cebpf4jnsgd1na2vs0mg"},{"bike_id":"f7bf4a8b-d32c-41fb-83f7-13f1c0a83221","system_id":"levelo_inurba_marseille","lat":43.29047,"lon":5.35922,"is_reserved":false,"is_disabled":false,"rental_uris":{"android":"levelo://app?vid=f7bf4a8b-d32c-41fb-83f7-13f1c0a83221","ios":"levelo://app?vid=f7bf4a8b-d32c-41fb-83f7-13f1c0a83221"},"vehicle_type_id":"4","last_reported":1731510581,"current_range_meters":36000,"station_id":"ce4bha92rcd13ifvqeg0","pricing_plan_id":"cebpf4jnsgd1na2vs0mg"},{"bike_id":"ef619835-b1e8-429c-acd3-2d17a3e7828b","system_id":"levelo_inurba_marseille","lat":43.31084,"lon":5.42429,"is_reserved":false,"is_disabled":false,"rental_uris":{"android":"levelo://app?vid=ef619835-b1e8-429c-acd3-2d17a3e7828b","ios":"levelo://app?vid=ef619835-b1e8-429c-acd3-2d17a3e7828b"},"vehicle_type_id":"4","last_reported":1731510581,"current_range_meters":28000,"station_id":"ce4bhp92rcd13ifvqhag","pricing_plan_id":"cebpf4jnsgd1na2vs0mg"},{"bike_id":"c9d041c0-acec-4cf4-bba2-e01a92441368","system_id":"levelo_inurba_marseille","lat":43.337444,"lon":5.374475,"is_reserved":false,"is_disabled":false,"rental_uris":{"android":"levelo://app?vid=c9d041c0-acec-4cf4-bba2-e01a92441368","ios":"levelo://app?vid=c9d041c0-acec-4cf4-bba2-e01a92441368"},"vehicle_type_id":"4","last_reported":1731510581,"current_range_meters":35600,"station_id":"","pricing_plan_id":"cebpf4jnsgd1na2vs0mg"},{"bike_id":"5fc3aff0-54d6-4c05-9449-2758af5f6874","system_id":"levelo_inurba_marseille","lat":43.29585,"lon":5.36763,"is_reserved":false,"is_disabled":false,"rental_uris":{"android":"levelo://app?vid=5fc3aff0-54d6-4c05-9449-2758af5f6874","ios":"levelo://app?vid=5fc3aff0-54d6-4c05-9449-2758af5f6874"},"vehicle_type_id":"4","last_reported":1731510581,"current_range_meters":38400,"station_id":"ce4bgph2rcd13ifvqc2g","pricing_plan_id":"cebpf4jnsgd1na2vs0mg"},{"bike_id":"23201a00-bd54-4063-8853-b811fd16a360","system_id":"levelo_inurba_marseille","lat":43.299255,"lon":5.374723,"is_reserved":false,"is_disabled":false,"rental_uris":{"android":"levelo://app?vid=23201a00-bd54-4063-8853-b811fd16a360","ios":"levelo://app?vid=23201a00-bd54-4063-8853-b811fd16a360"},"vehicle_type_id":"4","last_reported":1731510581,"current_range_meters":6800,"station_id":"ce4bgjh2rcd13ifvqbg0","pricing_plan_id":"cebpf4jnsgd1na2vs0mg"},{"bike_id":"5197c6cd-4ead-452d-ba3c-80470c4aaf25","system_id":"levelo_inurba_marseille","lat":43.30138,"lon":5.38787,"is_reserved":false,"is_disabled":false,"rental_uris":{"android":"levelo://app?vid=5197c6cd-4ead-452d-ba3c-80470c4aaf25","ios":"levelo://app?vid=5197c6cd-4ead-452d-ba3c-80470c4aaf25"},"vehicle_type_id":"4","last_reported":1731510581,"current_range_meters":38800,"station_id":"ce4bghh2rcd13ifvqb60","pricing_plan_id":"cebpf4jnsgd1na2vs0mg"},{"bike_id":"a259dc59-abd0-4ca1-8047-e50dcef22e3e","system_id":"levelo_inurba_marseille","lat":43.337444,"lon":5.374475,"is_reserved":false,"is_disabled":false,"rental_uris":{"android":"levelo://app?vid=a259dc59-abd0-4ca1-8047-e50dcef22e3e","ios":"levelo://app?vid=a259dc59-abd0-4ca1-8047-e50dcef22e3e"},"vehicle_type_id":"4","last_reported":1731510581,"current_range_meters":36800,"station_id":"","pricing_plan_id":"cebpf4jnsgd1na2vs0mg"},{"bike_id":"a3cb2d42-c6d7-4c4b-86b3-0e3657249b76","system_id":"levelo_inurba_marseille","lat":43.26778,"lon":5.39421,"is_reserved":false,"is_disabled":false,"rental_uris":{"android":"levelo://app?vid=a3cb2d42-c6d7-4c4b-86b3-0e3657249b76","ios":"levelo://app?vid=a3cb2d42-c6d7-4c4b-86b3-0e3657249b76"},"vehicle_type_id":"4","last_reported":1731510581,"current_range_meters":38800,"station_id":"ce4bhh12rcd13ifvqfg0","pricing_plan_id":"cebpf4jnsgd1na2vs0mg"},{"bike_id":"6b2bb51a-e273-48ef-90eb-9671fc1764f0","system_id":"levelo_inurba_marseille","lat":43.27944,"lon":5.4105,"is_reserved":false,"is_disabled":false,"rental_uris":{"android":"levelo://app?vid=6b2bb51a-e273-48ef-90eb-9671fc1764f0","ios":"levelo://app?vid=6b2bb51a-e273-48ef-90eb-9671fc1764f0"},"vehicle_type_id":"4","last_reported":1731510581,"current_range_meters":9600,"station_id":"ce4bhnp2rcd13ifvqh0g","pricing_plan_id":"cebpf4jnsgd1na2vs0mg"},{"bike_id":"aa02abbe-28cf-4133-876d-839e83f2f309","system_id":"levelo_inurba_marseille","lat":43.26572,"lon":5.38996,"is_reserved":false,"is_disabled":false,"rental_uris":{"android":"levelo://app?vid=aa02abbe-28cf-4133-876d-839e83f2f309","ios":"levelo://app?vid=aa02abbe-28cf-4133-876d-839e83f2f309"},"vehicle_type_id":"4","last_reported":1731510581,"current_range_meters":16000,"station_id":"ce4bhe12rcd13ifvqf30","pricing_plan_id":"cebpf4jnsgd1na2vs0mg"},{"bike_id":"4f437639-02cf-4651-a51f-74623e036837","system_id":"levelo_inurba_marseille","lat":43.2909,"lon":5.38131,"is_reserved":false,"is_disabled":false,"rental_uris":{"android":"levelo://app?vid=4f437639-02cf-4651-a51f-74623e036837","ios":"levelo://app?vid=4f437639-02cf-4651-a51f-74623e036837"},"vehicle_type_id":"4","last_reported":1731510581,"current_range_meters":32000,"station_id":"ce4bh512rcd13ifvqe2g","pricing_plan_id":"cebpf4jnsgd1na2vs0mg"},{"bike_id":"92a7a4b8-71a2-4d89-a912-8ce23346a0d1","system_id":"levelo_inurba_marseille","lat":43.29893,"lon":5.43661,"is_reserved":false,"is_disabled":false,"rental_uris":{"android":"levelo://app?vid=92a7a4b8-71a2-4d89-a912-8ce23346a0d1","ios":"levelo://app?vid=92a7a4b8-71a2-4d89-a912-8ce23346a0d1"},"vehicle_type_id":"4","last_reported":1731510581,"current_range_meters":5600,"station_id":"ce4bhpp2rcd13ifvqhfg","pricing_plan_id":"cebpf4jnsgd1na2vs0mg"},{"bike_id":"140bb10e-b66a-439a-bda2-33834008ef62","system_id":"levelo_inurba_marseille","lat":43.26945,"lon":5.38626,"is_reserved":false,"is_disabled":false,"rental_uris":{"android":"levelo://app?vid=140bb10e-b66a-439a-bda2-33834008ef62","ios":"levelo://app?vid=140bb10e-b66a-439a-bda2-33834008ef62"},"vehicle_type_id":"4","last_reported":1731510581,"current_range_meters":6400,"station_id":"ce4bhh92rcd13ifvqfh0","pricing_plan_id":"cebpf4jnsgd1na2vs0mg"},{"bike_id":"b978470e-9a55-400c-ab7e-35a5d26deb82","system_id":"levelo_inurba_marseille","lat":43.27371,"lon":5.36248,"is_reserved":false,"is_disabled":false,"rental_uris":{"android":"levelo://app?vid=b978470e-9a55-400c-ab7e-35a5d26deb82","ios":"levelo://app?vid=b978470e-9a55-400c-ab7e-35a5d26deb82"},"vehicle_type_id":"4","last_reported":1731510581,"current_range_meters":11200,"station_id":"ce4bhbh2rcd13ifvqeo0","pricing_plan_id":"cebpf4jnsgd1na2vs0mg"},{"bike_id":"5bc8a2cc-e5b1-4065-a734-e2ab36656fe9","system_id":"levelo_inurba_marseille","lat":43.2991,"lon":5.37472,"is_reserved":false,"is_disabled":false,"rental_uris":{"android":"levelo://app?vid=5bc8a2cc-e5b1-4065-a734-e2ab36656fe9","ios":"levelo://app?vid=5bc8a2cc-e5b1-4065-a734-e2ab36656fe9"},"vehicle_type_id":"4","last_reported":1731510581,"current_range_meters":26800,"station_id":"ce4bgjh2rcd13ifvqbg0","pricing_plan_id":"cebpf4jnsgd1na2vs0mg"},{"bike_id":"47fdd3bf-4cb5-4eed-812e-3770c79fd243","system_id":"levelo_inurba_marseille","lat":43.32112,"lon":5.36776,"is_reserved":false,"is_disabled":false,"rental_uris":{"android":"levelo://app?vid=47fdd3bf-4cb5-4eed-812e-3770c79fd243","ios":"levelo://app?vid=47fdd3bf-4cb5-4eed-812e-3770c79fd243"},"vehicle_type_id":"4","last_reported":1731510581,"current_range_meters":12800,"station_id":"ce4bhrh2rcd13ifvqhug","pricing_plan_id":"cebpf4jnsgd1na2vs0mg"},{"bike_id":"68f5de20-238b-41c3-a6c0-54ac841a57ea","system_id":"levelo_inurba_marseille","lat":43.32098,"lon":5.36789,"is_reserved":false,"is_disabled":false,"rental_uris":{"android":"levelo://app?vid=68f5de20-238b-41c3-a6c0-54ac841a57ea","ios":"levelo://app?vid=68f5de20-238b-41c3-a6c0-54ac841a57ea"},"vehicle_type_id":"4","last_reported":1731510581,"current_range_meters":38800,"station_id":"ce4bhrh2rcd13ifvqhug","pricing_plan_id":"cebpf4jnsgd1na2vs0mg"},{"bike_id":"59718f49-e517-427c-9492-6c32e22ba7be","system_id":"levelo_inurba_marseille","lat":43.29957,"lon":5.41314,"is_reserved":false,"is_disabled":false,"rental_uris":{"android":"levelo://app?vid=59718f49-e517-427c-9492-6c32e22ba7be","ios":"levelo://app?vid=59718f49-e517-427c-9492-6c32e22ba7be"},"vehicle_type_id":"4","last_reported":1731510581,"current_range_meters":27600,"station_id":"ce4bhp12rcd13ifvqh9g","pricing_plan_id":"cebpf4jnsgd1na2vs0mg"},{"bike_id":"1120182f-9596-45a6-ba56-35505811b5ea","system_id":"levelo_inurba_marseille","lat":43.2315,"lon":5.43724,"is_reserved":false,"is_disabled":false,"rental_uris":{"android":"levelo://app?vid=1120182f-9596-45a6-ba56-35505811b5ea","ios":"levelo://app?vid=1120182f-9596-45a6-ba56-35505811b5ea"},"vehicle_type_id":"4","last_reported":1731510581,"current_range_meters":36400,"station_id":"ce4bhmp2rcd13ifvqgog","pricing_plan_id":"cebpf4jnsgd1na2vs0mg"},{"bike_id":"7510d933-10dd-480b-b7a2-9968ef50470b","system_id":"levelo_inurba_marseille","lat":43.30884,"lon":5.37185,"is_reserved":false,"is_disabled":false,"rental_uris":{"android":"levelo://app?vid=7510d933-10dd-480b-b7a2-9968ef50470b","ios":"levelo://app?vid=7510d933-10dd-480b-b7a2-9968ef50470b"},"vehicle_type_id":"4","last_reported":1731510581,"current_range_meters":39200,"station_id":"ce4bguh2rcd13ifvqckg","pricing_plan_id":"cebpf4jnsgd1na2vs0mg"},{"bike_id":"bd905f31-cfc9-44e9-aea9-10bc82628865","system_id":"levelo_inurba_marseille","lat":43.25723,"lon":5.41106,"is_reserved":false,"is_disabled":false,"rental_uris":{"android":"levelo://app?vid=bd905f31-cfc9-44e9-aea9-10bc82628865","ios":"levelo://app?vid=bd905f31-cfc9-44e9-aea9-10bc82628865"},"vehicle_type_id":"4","last_reported":1731510581,"current_range_meters":38800,"station_id":"ce4bhkp2rcd13ifvqgd0","pricing_plan_id":"cebpf4jnsgd1na2vs0mg"},{"bike_id":"5b41e762-1614-46f6-92e6-bba5e7d3cb79","system_id":"levelo_inurba_marseille","lat":43.28464,"lon":5.35885,"is_reserved":false,"is_disabled":false,"rental_uris":{"android":"levelo://app?vid=5b41e762-1614-46f6-92e6-bba5e7d3cb79","ios":"levelo://app?vid=5b41e762-1614-46f6-92e6-bba5e7d3cb79"},"vehicle_type_id":"4","last_reported":1731510581,"current_range_meters":13600,"station_id":"ce4bhah2rcd13ifvqei0","pricing_plan_id":"cebpf4jnsgd1na2vs0mg"},{"bike_id":"f30ff5cf-3d38-4f86-bb4f-c254e8a50795","system_id":"levelo_inurba_marseille","lat":43.29602,"lon":5.37737,"is_reserved":false,"is_disabled":false,"rental_uris":{"android":"levelo://app?vid=f30ff5cf-3d38-4f86-bb4f-c254e8a50795","ios":"levelo://app?vid=f30ff5cf-3d38-4f86-bb4f-c254e8a50795"},"vehicle_type_id":"4","last_reported":1731510581,"current_range_meters":11200,"station_id":"ce4bgnh2rcd13ifvqc0g","pricing_plan_id":"cebpf4jnsgd1na2vs0mg"},{"bike_id":"70e78c93-084e-4ab7-a814-465f1ec8a7f0","system_id":"levelo_inurba_marseille","lat":43.23153,"lon":5.43708,"is_reserved":false,"is_disabled":false,"rental_uris":{"android":"levelo://app?vid=70e78c93-084e-4ab7-a814-465f1ec8a7f0","ios":"levelo://app?vid=70e78c93-084e-4ab7-a814-465f1ec8a7f0"},"vehicle_type_id":"4","last_reported":1731510581,"current_range_meters":28400,"station_id":"ce4bhmp2rcd13ifvqgog","pricing_plan_id":"cebpf4jnsgd1na2vs0mg"},{"bike_id":"248ed894-0f1e-4cc9-aa84-0d23b0eb4f9f","system_id":"levelo_inurba_marseille","lat":43.24178,"lon":5.39729,"is_reserved":false,"is_disabled":false,"rental_uris":{"android":"levelo://app?vid=248ed894-0f1e-4cc9-aa84-0d23b0eb4f9f","ios":"levelo://app?vid=248ed894-0f1e-4cc9-aa84-0d23b0eb4f9f"},"vehicle_type_id":"4","last_reported":1731510581,"current_range_meters":25600,"station_id":"ce4bhn12rcd13ifvqgpg","pricing_plan_id":"cebpf4jnsgd1na2vs0mg"},{"bike_id":"c3528645-8771-44e5-ab51-bac932797d44","system_id":"levelo_inurba_marseille","lat":43.29631,"lon":5.40606,"is_reserved":false,"is_disabled":false,"rental_uris":{"android":"levelo://app?vid=c3528645-8771-44e5-ab51-bac932797d44","ios":"levelo://app?vid=c3528645-8771-44e5-ab51-bac932797d44"},"vehicle_type_id":"4","last_reported":1731510581,"current_range_meters":32400,"station_id":"ce4bh0h2rcd13ifvqd60","pricing_plan_id":"cebpf4jnsgd1na2vs0mg"},{"bike_id":"d27ed9a8-09e7-43aa-b832-cabfe3079afc","system_id":"levelo_inurba_marseille","lat":43.25716,"lon":5.4112,"is_reserved":false,"is_disabled":false,"rental_uris":{"android":"levelo://app?vid=d27ed9a8-09e7-43aa-b832-cabfe3079afc","ios":"levelo://app?vid=d27ed9a8-09e7-43aa-b832-cabfe3079afc"},"vehicle_type_id":"4","last_reported":1731510581,"current_range_meters":28800,"station_id":"ce4bhkp2rcd13ifvqgd0","pricing_plan_id":"cebpf4jnsgd1na2vs0mg"},{"bike_id":"7c9b8995-ac96-4708-b4eb-b4b17631b9d8","system_id":"levelo_inurba_marseille","lat":43.337444,"lon":5.374475,"is_reserved":false,"is_disabled":false,"rental_uris":{"android":"levelo://app?vid=7c9b8995-ac96-4708-b4eb-b4b17631b9d8","ios":"levelo://app?vid=7c9b8995-ac96-4708-b4eb-b4b17631b9d8"},"vehicle_type_id":"4","last_reported":1731510581,"current_range_meters":36800,"station_id":"","pricing_plan_id":"cebpf4jnsgd1na2vs0mg"},{"bike_id":"58e12413-d879-4dff-a084-333be006c499","system_id":"levelo_inurba_marseille","lat":43.29556,"lon":5.42291,"is_reserved":false,"is_disabled":false,"rental_uris":{"android":"levelo://app?vid=58e12413-d879-4dff-a084-333be006c499","ios":"levelo://app?vid=58e12413-d879-4dff-a084-333be006c499"},"vehicle_type_id":"4","last_reported":1731510581,"current_range_meters":29600,"station_id":"ce4bhph2rcd13ifvqhdg","pricing_plan_id":"cebpf4jnsgd1na2vs0mg"},{"bike_id":"5d82e346-3481-4f2f-9f39-0952db7e093b","system_id":"levelo_inurba_marseille","lat":43.24807,"lon":5.37459,"is_reserved":false,"is_disabled":false,"rental_uris":{"android":"levelo://app?vid=5d82e346-3481-4f2f-9f39-0952db7e093b","ios":"levelo://app?vid=5d82e346-3481-4f2f-9f39-0952db7e093b"},"vehicle_type_id":"4","last_reported":1731510581,"current_range_meters":13600,"station_id":"ce4bhgh2rcd13ifvqfb0","pricing_plan_id":"cebpf4jnsgd1na2vs0mg"},{"bike_id":"7f54565b-bbcd-4529-9842-e551b281e311","system_id":"levelo_inurba_marseille","lat":43.29845,"lon":5.3629,"is_reserved":false,"is_disabled":false,"rental_uris":{"android":"levelo://app?vid=7f54565b-bbcd-4529-9842-e551b281e311","ios":"levelo://app?vid=7f54565b-bbcd-4529-9842-e551b281e311"},"vehicle_type_id":"4","last_reported":1731510581,"current_range_meters":5600,"station_id":"ce4bgpp2rcd13ifvqc3g","pricing_plan_id":"cebpf4jnsgd1na2vs0mg"},{"bike_id":"63bd9f09-a4b7-43a4-9587-1e7186a6b1a0","system_id":"levelo_inurba_marseille","lat":43.30909,"lon":5.36853,"is_reserved":false,"is_disabled":false,"rental_uris":{"android":"levelo://app?vid=63bd9f09-a4b7-43a4-9587-1e7186a6b1a0","ios":"levelo://app?vid=63bd9f09-a4b7-43a4-9587-1e7186a6b1a0"},"vehicle_type_id":"4","last_reported":1731510581,"current_range_meters":30400,"station_id":"ce4bgn92rcd13ifvqbvg","pricing_plan_id":"cebpf4jnsgd1na2vs0mg"},{"bike_id":"6a74bd13-2f0d-4293-a500-24db67983d5b","system_id":"levelo_inurba_marseille","lat":43.23065,"lon":5.35489,"is_reserved":false,"is_disabled":false,"rental_uris":{"android":"levelo://app?vid=6a74bd13-2f0d-4293-a500-24db67983d5b","ios":"levelo://app?vid=6a74bd13-2f0d-4293-a500-24db67983d5b"},"vehicle_type_id":"4","last_reported":1731510581,"current_range_meters":36800,"station_id":"cpo3342slgdg3j2ifvpg","pricing_plan_id":"cebpf4jnsgd1na2vs0mg"},{"bike_id":"046893b8-bd12-41a2-8606-fbdab340a2d6","system_id":"levelo_inurba_marseille","lat":43.26941,"lon":5.40257,"is_reserved":false,"is_disabled":false,"rental_uris":{"android":"levelo://app?vid=046893b8-bd12-41a2-8606-fbdab340a2d6","ios":"levelo://app?vid=046893b8-bd12-41a2-8606-fbdab340a2d6"},"vehicle_type_id":"4","last_reported":1731510581,"current_range_meters":28400,"station_id":"cjm6bp8fraef2m0cb0m0","pricing_plan_id":"cebpf4jnsgd1na2vs0mg"},{"bike_id":"3547cf2b-0c07-4559-b36e-6c606a50778e","system_id":"levelo_inurba_marseille","lat":43.30528,"lon":5.36537,"is_reserved":false,"is_disabled":false,"rental_uris":{"android":"levelo://app?vid=3547cf2b-0c07-4559-b36e-6c606a50778e","ios":"levelo://app?vid=3547cf2b-0c07-4559-b36e-6c606a50778e"},"vehicle_type_id":"4","last_reported":1731510581,"current_range_meters":9200,"station_id":"ce4bgs12rcd13ifvqcag","pricing_plan_id":"cebpf4jnsgd1na2vs0mg"},{"bike_id":"ef9dca20-df5f-46f5-9f92-1a12dc644190","system_id":"levelo_inurba_marseille","lat":43.2781,"lon":5.40714,"is_reserved":false,"is_disabled":false,"rental_uris":{"android":"levelo://app?vid=ef9dca20-df5f-46f5-9f92-1a12dc644190","ios":"levelo://app?vid=ef9dca20-df5f-46f5-9f92-1a12dc644190"},"vehicle_type_id":"4","last_reported":1731510581,"current_range_meters":29600,"station_id":"ce4bhnh2rcd13ifvqgtg","pricing_plan_id":"cebpf4jnsgd1na2vs0mg"},{"bike_id":"0dff06b9-7b88-4c2e-8388-2fd0b34170ec","system_id":"levelo_inurba_marseille","lat":43.296722,"lon":5.381265,"is_reserved":false,"is_disabled":false,"rental_uris":{"android":"levelo://app?vid=0dff06b9-7b88-4c2e-8388-2fd0b34170ec","ios":"levelo://app?vid=0dff06b9-7b88-4c2e-8388-2fd0b34170ec"},"vehicle_type_id":"4","last_reported":1731510581,"current_range_meters":36800,"station_id":"ce4bgr92rcd13ifvqc7g","pricing_plan_id":"cebpf4jnsgd1na2vs0mg"},{"bike_id":"ddc82b0c-0ad3-46a1-9406-831ffe816536","system_id":"levelo_inurba_marseille","lat":43.28603,"lon":5.37064,"is_reserved":false,"is_disabled":false,"rental_uris":{"android":"levelo://app?vid=ddc82b0c-0ad3-46a1-9406-831ffe816536","ios":"levelo://app?vid=ddc82b0c-0ad3-46a1-9406-831ffe816536"},"vehicle_type_id":"4","last_reported":1731510581,"current_range_meters":11200,"station_id":"ce4bht12rcd13ifvqi60","pricing_plan_id":"cebpf4jnsgd1na2vs0mg"},{"bike_id":"30ed7699-5077-4463-a11a-d1d49246598d","system_id":"levelo_inurba_marseille","lat":43.30905,"lon":5.36854,"is_reserved":false,"is_disabled":false,"rental_uris":{"android":"levelo://app?vid=30ed7699-5077-4463-a11a-d1d49246598d","ios":"levelo://app?vid=30ed7699-5077-4463-a11a-d1d49246598d"},"vehicle_type_id":"4","last_reported":1731510581,"current_range_meters":17600,"station_id":"ce4bgn92rcd13ifvqbvg","pricing_plan_id":"cebpf4jnsgd1na2vs0mg"},{"bike_id":"8b23c43b-b7e3-4c7c-a8a8-d715b9a7b32c","system_id":"levelo_inurba_marseille","lat":43.25724,"lon":5.4111,"is_reserved":false,"is_disabled":false,"rental_uris":{"android":"levelo://app?vid=8b23c43b-b7e3-4c7c-a8a8-d715b9a7b32c","ios":"levelo://app?vid=8b23c43b-b7e3-4c7c-a8a8-d715b9a7b32c"},"vehicle_type_id":"4","last_reported":1731510581,"current_range_meters":38800,"station_id":"ce4bhkp2rcd13ifvqgd0","pricing_plan_id":"cebpf4jnsgd1na2vs0mg"},{"bike_id":"8c9b3aad-9091-47ea-aa6b-0fbca0f0777e","system_id":"levelo_inurba_marseille","lat":43.30591,"lon":5.37225,"is_reserved":false,"is_disabled":false,"rental_uris":{"android":"levelo://app?vid=8c9b3aad-9091-47ea-aa6b-0fbca0f0777e","ios":"levelo://app?vid=8c9b3aad-9091-47ea-aa6b-0fbca0f0777e"},"vehicle_type_id":"4","last_reported":1731510581,"current_range_meters":27600,"station_id":"ce4bgqh2rcd13ifvqc4g","pricing_plan_id":"cebpf4jnsgd1na2vs0mg"},{"bike_id":"9d21ff4a-d516-4d71-a226-ead22ace12fd","system_id":"levelo_inurba_marseille","lat":43.25936,"lon":5.40904,"is_reserved":false,"is_disabled":false,"rental_uris":{"android":"levelo://app?vid=9d21ff4a-d516-4d71-a226-ead22ace12fd","ios":"levelo://app?vid=9d21ff4a-d516-4d71-a226-ead22ace12fd"},"vehicle_type_id":"4","last_reported":1731510581,"current_range_meters":17600,"station_id":"ce4bhm92rcd13ifvqglg","pricing_plan_id":"cebpf4jnsgd1na2vs0mg"},{"bike_id":"c971ea53-db60-47e9-9532-798f39ec74b9","system_id":"levelo_inurba_marseille","lat":43.28565,"lon":5.39501,"is_reserved":false,"is_disabled":false,"rental_uris":{"android":"levelo://app?vid=c971ea53-db60-47e9-9532-798f39ec74b9","ios":"levelo://app?vid=c971ea53-db60-47e9-9532-798f39ec74b9"},"vehicle_type_id":"4","last_reported":1731510581,"current_range_meters":35200,"station_id":"ce4bh292rcd13ifvqdg0","pricing_plan_id":"cebpf4jnsgd1na2vs0mg"},{"bike_id":"6d969e9a-0fce-4707-9b03-ad2853c83ed1","system_id":"levelo_inurba_marseille","lat":43.31491,"lon":5.37306,"is_reserved":false,"is_disabled":false,"rental_uris":{"android":"levelo://app?vid=6d969e9a-0fce-4707-9b03-ad2853c83ed1","ios":"levelo://app?vid=6d969e9a-0fce-4707-9b03-ad2853c83ed1"},"vehicle_type_id":"4","last_reported":1731510581,"current_range_meters":18000,"station_id":"ce4bgt12rcd13ifvqcd0","pricing_plan_id":"cebpf4jnsgd1na2vs0mg"},{"bike_id":"ad32aaa2-12d5-422b-ae94-ecd75d029618","system_id":"levelo_inurba_marseille","lat":43.30531,"lon":5.36543,"is_reserved":false,"is_disabled":false,"rental_uris":{"android":"levelo://app?vid=ad32aaa2-12d5-422b-ae94-ecd75d029618","ios":"levelo://app?vid=ad32aaa2-12d5-422b-ae94-ecd75d029618"},"vehicle_type_id":"4","last_reported":1731510581,"current_range_meters":24400,"station_id":"ce4bgs12rcd13ifvqcag","pricing_plan_id":"cebpf4jnsgd1na2vs0mg"},{"bike_id":"d7b966af-f12d-4063-ab00-53c580e79fd7","system_id":"levelo_inurba_marseille","lat":43.30892,"lon":5.37196,"is_reserved":false,"is_disabled":false,"rental_uris":{"android":"levelo://app?vid=d7b966af-f12d-4063-ab00-53c580e79fd7","ios":"levelo://app?vid=d7b966af-f12d-4063-ab00-53c580e79fd7"},"vehicle_type_id":"4","last_reported":1731510581,"current_range_meters":28800,"station_id":"ce4bguh2rcd13ifvqckg","pricing_plan_id":"cebpf4jnsgd1na2vs0mg"},{"bike_id":"279f2da5-91d4-4de6-933d-7d77cd37174d","system_id":"levelo_inurba_marseille","lat":43.28416,"lon":5.34979,"is_reserved":false,"is_disabled":false,"rental_uris":{"android":"levelo://app?vid=279f2da5-91d4-4de6-933d-7d77cd37174d","ios":"levelo://app?vid=279f2da5-91d4-4de6-933d-7d77cd37174d"},"vehicle_type_id":"4","last_reported":1731510581,"current_range_meters":38000,"station_id":"ce4bhbh2rcd13ifvqepg","pricing_plan_id":"cebpf4jnsgd1na2vs0mg"},{"bike_id":"afeb40e4-1457-49b5-b0e5-87e7228ed389","system_id":"levelo_inurba_marseille","lat":43.31754,"lon":5.39014,"is_reserved":false,"is_disabled":false,"rental_uris":{"android":"levelo://app?vid=afeb40e4-1457-49b5-b0e5-87e7228ed389","ios":"levelo://app?vid=afeb40e4-1457-49b5-b0e5-87e7228ed389"},"vehicle_type_id":"4","last_reported":1731510581,"current_range_meters":35200,"station_id":"ce4bhqp2rcd13ifvqhng","pricing_plan_id":"cebpf4jnsgd1na2vs0mg"},{"bike_id":"459a5777-57d4-4613-900e-258d8697c41c","system_id":"levelo_inurba_marseille","lat":43.28451,"lon":5.35892,"is_reserved":false,"is_disabled":false,"rental_uris":{"android":"levelo://app?vid=459a5777-57d4-4613-900e-258d8697c41c","ios":"levelo://app?vid=459a5777-57d4-4613-900e-258d8697c41c"},"vehicle_type_id":"4","last_reported":1731510581,"current_range_meters":38800,"station_id":"ce4bhah2rcd13ifvqei0","pricing_plan_id":"cebpf4jnsgd1na2vs0mg"},{"bike_id":"360364fb-c55f-445f-909f-33899f8d0665","system_id":"levelo_inurba_marseille","lat":43.3054,"lon":5.36532,"is_reserved":false,"is_disabled":false,"rental_uris":{"android":"levelo://app?vid=360364fb-c55f-445f-909f-33899f8d0665","ios":"levelo://app?vid=360364fb-c55f-445f-909f-33899f8d0665"},"vehicle_type_id":"4","last_reported":1731510581,"current_range_meters":32400,"station_id":"ce4bgs12rcd13ifvqcag","pricing_plan_id":"cebpf4jnsgd1na2vs0mg"},{"bike_id":"876d09ce-2269-4e21-a6c5-815dc7639960","system_id":"levelo_inurba_marseille","lat":43.30547,"lon":5.36553,"is_reserved":false,"is_disabled":false,"rental_uris":{"android":"levelo://app?vid=876d09ce-2269-4e21-a6c5-815dc7639960","ios":"levelo://app?vid=876d09ce-2269-4e21-a6c5-815dc7639960"},"vehicle_type_id":"4","last_reported":1731510581,"current_range_meters":38800,"station_id":"ce4bgs12rcd13ifvqcag","pricing_plan_id":"cebpf4jnsgd1na2vs0mg"},{"bike_id":"de4f0c86-704e-4c22-8c5a-51f6e3e4bdee","system_id":"levelo_inurba_marseille","lat":43.2508,"lon":5.39516,"is_reserved":false,"is_disabled":false,"rental_uris":{"android":"levelo://app?vid=de4f0c86-704e-4c22-8c5a-51f6e3e4bdee","ios":"levelo://app?vid=de4f0c86-704e-4c22-8c5a-51f6e3e4bdee"},"vehicle_type_id":"4","last_reported":1731510581,"current_range_meters":30400,"station_id":"ce4bhm12rcd13ifvqgkg","pricing_plan_id":"cebpf4jnsgd1na2vs0mg"},{"bike_id":"33b7ef42-f320-4e85-a7ae-4156f4716051","system_id":"levelo_inurba_marseille","lat":43.29848,"lon":5.36285,"is_reserved":false,"is_disabled":false,"rental_uris":{"android":"levelo://app?vid=33b7ef42-f320-4e85-a7ae-4156f4716051","ios":"levelo://app?vid=33b7ef42-f320-4e85-a7ae-4156f4716051"},"vehicle_type_id":"4","last_reported":1731510581,"current_range_meters":6000,"station_id":"ce4bgpp2rcd13ifvqc3g","pricing_plan_id":"cebpf4jnsgd1na2vs0mg"},{"bike_id":"7891995d-7c39-4fa5-ab0a-02ee601a522d","system_id":"levelo_inurba_marseille","lat":43.32285,"lon":5.38265,"is_reserved":false,"is_disabled":false,"rental_uris":{"android":"levelo://app?vid=7891995d-7c39-4fa5-ab0a-02ee601a522d","ios":"levelo://app?vid=7891995d-7c39-4fa5-ab0a-02ee601a522d"},"vehicle_type_id":"4","last_reported":1731510581,"current_range_meters":38800,"station_id":"ce4bhr12rcd13ifvqhqg","pricing_plan_id":"cebpf4jnsgd1na2vs0mg"},{"bike_id":"e72b8f84-5bd4-4621-96fe-13e4304aad62","system_id":"levelo_inurba_marseille","lat":43.29378,"lon":5.37849,"is_reserved":false,"is_disabled":false,"rental_uris":{"android":"levelo://app?vid=e72b8f84-5bd4-4621-96fe-13e4304aad62","ios":"levelo://app?vid=e72b8f84-5bd4-4621-96fe-13e4304aad62"},"vehicle_type_id":"4","last_reported":1731510581,"current_range_meters":24400,"station_id":"ce4bgjh2rcd13ifvqbf0","pricing_plan_id":"cebpf4jnsgd1na2vs0mg"},{"bike_id":"1f145ca8-98f4-469c-b229-b0a7909094f8","system_id":"levelo_inurba_marseille","lat":43.23131,"lon":5.43622,"is_reserved":false,"is_disabled":false,"rental_uris":{"android":"levelo://app?vid=1f145ca8-98f4-469c-b229-b0a7909094f8","ios":"levelo://app?vid=1f145ca8-98f4-469c-b229-b0a7909094f8"},"vehicle_type_id":"4","last_reported":1731510581,"current_range_meters":25200,"station_id":"ce4bhmp2rcd13ifvqgog","pricing_plan_id":"cebpf4jnsgd1na2vs0mg"},{"bike_id":"64505eb4-b32c-417b-a576-2489fd3e0290","system_id":"levelo_inurba_marseille","lat":43.30642,"lon":5.401,"is_reserved":false,"is_disabled":false,"rental_uris":{"android":"levelo://app?vid=64505eb4-b32c-417b-a576-2489fd3e0290","ios":"levelo://app?vid=64505eb4-b32c-417b-a576-2489fd3e0290"},"vehicle_type_id":"4","last_reported":1731510581,"current_range_meters":18000,"station_id":"ce4bh112rcd13ifvqda0","pricing_plan_id":"cebpf4jnsgd1na2vs0mg"},{"bike_id":"4a796ec6-b8ad-43c3-b209-f653a3200602","system_id":"levelo_inurba_marseille","lat":43.30428,"lon":5.38889,"is_reserved":false,"is_disabled":false,"rental_uris":{"android":"levelo://app?vid=4a796ec6-b8ad-43c3-b209-f653a3200602","ios":"levelo://app?vid=4a796ec6-b8ad-43c3-b209-f653a3200602"},"vehicle_type_id":"4","last_reported":1731510581,"current_range_meters":31200,"station_id":"ce4bgk12rcd13ifvqbi0","pricing_plan_id":"cebpf4jnsgd1na2vs0mg"},{"bike_id":"508c7c06-1eca-4d90-bbf1-dcc7d10390da","system_id":"levelo_inurba_marseille","lat":43.286727,"lon":5.386769,"is_reserved":false,"is_disabled":false,"rental_uris":{"android":"levelo://app?vid=508c7c06-1eca-4d90-bbf1-dcc7d10390da","ios":"levelo://app?vid=508c7c06-1eca-4d90-bbf1-dcc7d10390da"},"vehicle_type_id":"4","last_reported":1731510581,"current_range_meters":38000,"station_id":"ce4bh492rcd13ifvqdug","pricing_plan_id":"cebpf4jnsgd1na2vs0mg"},{"bike_id":"e3f42fe4-d58f-4a0f-9ec2-f49f2f5972f7","system_id":"levelo_inurba_marseille","lat":43.2781,"lon":5.40724,"is_reserved":false,"is_disabled":false,"rental_uris":{"android":"levelo://app?vid=e3f42fe4-d58f-4a0f-9ec2-f49f2f5972f7","ios":"levelo://app?vid=e3f42fe4-d58f-4a0f-9ec2-f49f2f5972f7"},"vehicle_type_id":"4","last_reported":1731510581,"current_range_meters":24000,"station_id":"ce4bhnh2rcd13ifvqgtg","pricing_plan_id":"cebpf4jnsgd1na2vs0mg"},{"bike_id":"1311c692-6e9d-4afb-b7b0-20686564fe7a","system_id":"levelo_inurba_marseille","lat":43.337444,"lon":5.374475,"is_reserved":false,"is_disabled":false,"rental_uris":{"android":"levelo://app?vid=1311c692-6e9d-4afb-b7b0-20686564fe7a","ios":"levelo://app?vid=1311c692-6e9d-4afb-b7b0-20686564fe7a"},"vehicle_type_id":"4","last_reported":1731510581,"current_range_meters":36800,"station_id":"","pricing_plan_id":"cebpf4jnsgd1na2vs0mg"},{"bike_id":"d83ca9d9-4469-4510-adb0-96b0f9e49283","system_id":"levelo_inurba_marseille","lat":43.240784,"lon":5.37758,"is_reserved":false,"is_disabled":false,"rental_uris":{"android":"levelo://app?vid=d83ca9d9-4469-4510-adb0-96b0f9e49283","ios":"levelo://app?vid=d83ca9d9-4469-4510-adb0-96b0f9e49283"},"vehicle_type_id":"4","last_reported":1731510581,"current_range_meters":10800,"station_id":"ce4bhnp2rcd13ifvqgvg","pricing_plan_id":"cebpf4jnsgd1na2vs0mg"},{"bike_id":"5427ec44-65b5-4156-9be1-ec87130aec0f","system_id":"levelo_inurba_marseille","lat":43.33736,"lon":5.37463,"is_reserved":false,"is_disabled":false,"rental_uris":{"android":"levelo://app?vid=5427ec44-65b5-4156-9be1-ec87130aec0f","ios":"levelo://app?vid=5427ec44-65b5-4156-9be1-ec87130aec0f"},"vehicle_type_id":"4","last_reported":1731510581,"current_range_meters":24800,"station_id":"","pricing_plan_id":"cebpf4jnsgd1na2vs0mg"},{"bike_id":"f76e50df-64c1-4e65-95d1-95856d9f8417","system_id":"levelo_inurba_marseille","lat":43.28601,"lon":5.37068,"is_reserved":false,"is_disabled":false,"rental_uris":{"android":"levelo://app?vid=f76e50df-64c1-4e65-95d1-95856d9f8417","ios":"levelo://app?vid=f76e50df-64c1-4e65-95d1-95856d9f8417"},"vehicle_type_id":"4","last_reported":1731510581,"current_range_meters":12400,"station_id":"ce4bht12rcd13ifvqi60","pricing_plan_id":"cebpf4jnsgd1na2vs0mg"},{"bike_id":"082e9e38-ed1e-4cc1-a3df-a88469374fe0","system_id":"levelo_inurba_marseille","lat":43.31222,"lon":5.36851,"is_reserved":false,"is_disabled":false,"rental_uris":{"android":"levelo://app?vid=082e9e38-ed1e-4cc1-a3df-a88469374fe0","ios":"levelo://app?vid=082e9e38-ed1e-4cc1-a3df-a88469374fe0"},"vehicle_type_id":"4","last_reported":1731510581,"current_range_meters":23200,"station_id":"ce4bgl92rcd13ifvqbq0","pricing_plan_id":"cebpf4jnsgd1na2vs0mg"},{"bike_id":"a862db0c-0c71-403f-b661-d6729e804010","system_id":"levelo_inurba_marseille","lat":43.29531,"lon":5.38537,"is_reserved":false,"is_disabled":false,"rental_uris":{"android":"levelo://app?vid=a862db0c-0c71-403f-b661-d6729e804010","ios":"levelo://app?vid=a862db0c-0c71-403f-b661-d6729e804010"},"vehicle_type_id":"4","last_reported":1731510581,"current_range_meters":22000,"station_id":"ce4bgih2rcd13ifvqba0","pricing_plan_id":"cebpf4jnsgd1na2vs0mg"},{"bike_id":"cda74122-040c-41fa-b50e-e7cb292dc84a","system_id":"levelo_inurba_marseille","lat":43.31224,"lon":5.36861,"is_reserved":false,"is_disabled":false,"rental_uris":{"android":"levelo://app?vid=cda74122-040c-41fa-b50e-e7cb292dc84a","ios":"levelo://app?vid=cda74122-040c-41fa-b50e-e7cb292dc84a"},"vehicle_type_id":"4","last_reported":1731510581,"current_range_meters":34800,"station_id":"ce4bgl92rcd13ifvqbq0","pricing_plan_id":"cebpf4jnsgd1na2vs0mg"},{"bike_id":"579aaf61-dc4e-4cfd-a344-5d3ea052c559","system_id":"levelo_inurba_marseille","lat":43.30889,"lon":5.37186,"is_reserved":false,"is_disabled":false,"rental_uris":{"android":"levelo://app?vid=579aaf61-dc4e-4cfd-a344-5d3ea052c559","ios":"levelo://app?vid=579aaf61-dc4e-4cfd-a344-5d3ea052c559"},"vehicle_type_id":"4","last_reported":1731510581,"current_range_meters":26800,"station_id":"ce4bguh2rcd13ifvqckg","pricing_plan_id":"cebpf4jnsgd1na2vs0mg"},{"bike_id":"824aa58f-57cc-49d3-b625-099c257bc04e","system_id":"levelo_inurba_marseille","lat":43.2418,"lon":5.39727,"is_reserved":false,"is_disabled":false,"rental_uris":{"android":"levelo://app?vid=824aa58f-57cc-49d3-b625-099c257bc04e","ios":"levelo://app?vid=824aa58f-57cc-49d3-b625-099c257bc04e"},"vehicle_type_id":"4","last_reported":1731510581,"current_range_meters":38800,"station_id":"ce4bhn12rcd13ifvqgpg","pricing_plan_id":"cebpf4jnsgd1na2vs0mg"},{"bike_id":"1016a47e-d58f-492d-8d67-4aaf95fa4796","system_id":"levelo_inurba_marseille","lat":43.30876,"lon":5.39652,"is_reserved":false,"is_disabled":false,"rental_uris":{"android":"levelo://app?vid=1016a47e-d58f-492d-8d67-4aaf95fa4796","ios":"levelo://app?vid=1016a47e-d58f-492d-8d67-4aaf95fa4796"},"vehicle_type_id":"4","last_reported":1731510581,"current_range_meters":20400,"station_id":"ce4bh012rcd13ifvqcv0","pricing_plan_id":"cebpf4jnsgd1na2vs0mg"},{"bike_id":"4e234532-5550-4cbc-b9e4-50d8fc493926","system_id":"levelo_inurba_marseille","lat":43.31216,"lon":5.36868,"is_reserved":false,"is_disabled":false,"rental_uris":{"android":"levelo://app?vid=4e234532-5550-4cbc-b9e4-50d8fc493926","ios":"levelo://app?vid=4e234532-5550-4cbc-b9e4-50d8fc493926"},"vehicle_type_id":"4","last_reported":1731510581,"current_range_meters":30800,"station_id":"ce4bgl92rcd13ifvqbq0","pricing_plan_id":"cebpf4jnsgd1na2vs0mg"},{"bike_id":"a8e7bc15-df4b-4c8a-8171-d8d51586c834","system_id":"levelo_inurba_marseille","lat":43.337444,"lon":5.374475,"is_reserved":false,"is_disabled":false,"rental_uris":{"android":"levelo://app?vid=a8e7bc15-df4b-4c8a-8171-d8d51586c834","ios":"levelo://app?vid=a8e7bc15-df4b-4c8a-8171-d8d51586c834"},"vehicle_type_id":"4","last_reported":1731510581,"current_range_meters":31200,"station_id":"","pricing_plan_id":"cebpf4jnsgd1na2vs0mg"},{"bike_id":"15fcc91a-3807-4f6c-9623-302142a45e30","system_id":"levelo_inurba_marseille","lat":43.23061,"lon":5.35489,"is_reserved":false,"is_disabled":false,"rental_uris":{"android":"levelo://app?vid=15fcc91a-3807-4f6c-9623-302142a45e30","ios":"levelo://app?vid=15fcc91a-3807-4f6c-9623-302142a45e30"},"vehicle_type_id":"4","last_reported":1731510581,"current_range_meters":24400,"station_id":"cpo3342slgdg3j2ifvpg","pricing_plan_id":"cebpf4jnsgd1na2vs0mg"},{"bike_id":"3298d759-d231-4dbb-9509-b79fa66e9838","system_id":"levelo_inurba_marseille","lat":43.30522,"lon":5.38085,"is_reserved":false,"is_disabled":false,"rental_uris":{"android":"levelo://app?vid=3298d759-d231-4dbb-9509-b79fa66e9838","ios":"levelo://app?vid=3298d759-d231-4dbb-9509-b79fa66e9838"},"vehicle_type_id":"4","last_reported":1731510581,"current_range_meters":11200,"station_id":"","pricing_plan_id":"cebpf4jnsgd1na2vs0mg"},{"bike_id":"b9b9ca99-abc1-4d74-b34d-2422c7c3d10f","system_id":"levelo_inurba_marseille","lat":43.3236,"lon":5.36752,"is_reserved":false,"is_disabled":false,"rental_uris":{"android":"levelo://app?vid=b9b9ca99-abc1-4d74-b34d-2422c7c3d10f","ios":"levelo://app?vid=b9b9ca99-abc1-4d74-b34d-2422c7c3d10f"},"vehicle_type_id":"4","last_reported":1731510581,"current_range_meters":31200,"station_id":"ce4bhsh2rcd13ifvqi2g","pricing_plan_id":"cebpf4jnsgd1na2vs0mg"},{"bike_id":"73786808-0bde-48b5-9d55-d00e12c7c933","system_id":"levelo_inurba_marseille","lat":43.28998,"lon":5.37799,"is_reserved":false,"is_disabled":false,"rental_uris":{"android":"levelo://app?vid=73786808-0bde-48b5-9d55-d00e12c7c933","ios":"levelo://app?vid=73786808-0bde-48b5-9d55-d00e12c7c933"},"vehicle_type_id":"4","last_reported":1731510581,"current_range_meters":38400,"station_id":"ce4bgph2rcd13ifvqc2g","pricing_plan_id":"cebpf4jnsgd1na2vs0mg"},{"bike_id":"1b6aedf9-aa79-4e62-b4b6-0d4304a12219","system_id":"levelo_inurba_marseille","lat":43.31226,"lon":5.36856,"is_reserved":false,"is_disabled":false,"rental_uris":{"android":"levelo://app?vid=1b6aedf9-aa79-4e62-b4b6-0d4304a12219","ios":"levelo://app?vid=1b6aedf9-aa79-4e62-b4b6-0d4304a12219"},"vehicle_type_id":"4","last_reported":1731510581,"current_range_meters":16400,"station_id":"ce4bgl92rcd13ifvqbq0","pricing_plan_id":"cebpf4jnsgd1na2vs0mg"},{"bike_id":"3c16dd34-e776-42e0-bd94-cec16b41504c","system_id":"levelo_inurba_marseille","lat":43.28938,"lon":5.36641,"is_reserved":false,"is_disabled":false,"rental_uris":{"android":"levelo://app?vid=3c16dd34-e776-42e0-bd94-cec16b41504c","ios":"levelo://app?vid=3c16dd34-e776-42e0-bd94-cec16b41504c"},"vehicle_type_id":"4","last_reported":1731510581,"current_range_meters":33200,"station_id":"ce4bhap2rcd13ifvqek0","pricing_plan_id":"cebpf4jnsgd1na2vs0mg"},{"bike_id":"cbcd652f-29d4-491d-b92e-9eb2cba724dc","system_id":"levelo_inurba_marseille","lat":43.28003,"lon":5.40013,"is_reserved":false,"is_disabled":false,"rental_uris":{"android":"levelo://app?vid=cbcd652f-29d4-491d-b92e-9eb2cba724dc","ios":"levelo://app?vid=cbcd652f-29d4-491d-b92e-9eb2cba724dc"},"vehicle_type_id":"4","last_reported":1731510581,"current_range_meters":27200,"station_id":"ce4bho92rcd13ifvqh4g","pricing_plan_id":"cebpf4jnsgd1na2vs0mg"},{"bike_id":"21809597-df4b-4bb7-ac3d-1537178d4615","system_id":"levelo_inurba_marseille","lat":43.25866,"lon":5.39898,"is_reserved":false,"is_disabled":false,"rental_uris":{"android":"levelo://app?vid=21809597-df4b-4bb7-ac3d-1537178d4615","ios":"levelo://app?vid=21809597-df4b-4bb7-ac3d-1537178d4615"},"vehicle_type_id":"4","last_reported":1731510581,"current_range_meters":27200,"station_id":"ce4bhl92rcd13ifvqghg","pricing_plan_id":"cebpf4jnsgd1na2vs0mg"},{"bike_id":"e648bda7-e74e-4004-a453-e77ad8d46ccf","system_id":"levelo_inurba_marseille","lat":43.27375,"lon":5.36262,"is_reserved":false,"is_disabled":false,"rental_uris":{"android":"levelo://app?vid=e648bda7-e74e-4004-a453-e77ad8d46ccf","ios":"levelo://app?vid=e648bda7-e74e-4004-a453-e77ad8d46ccf"},"vehicle_type_id":"4","last_reported":1731510581,"current_range_meters":28400,"station_id":"ce4bhbh2rcd13ifvqeo0","pricing_plan_id":"cebpf4jnsgd1na2vs0mg"},{"bike_id":"46c0c645-e47f-4b6a-86b9-41094fca7c0c","system_id":"levelo_inurba_marseille","lat":43.27369,"lon":5.36256,"is_reserved":false,"is_disabled":false,"rental_uris":{"android":"levelo://app?vid=46c0c645-e47f-4b6a-86b9-41094fca7c0c","ios":"levelo://app?vid=46c0c645-e47f-4b6a-86b9-41094fca7c0c"},"vehicle_type_id":"4","last_reported":1731510581,"current_range_meters":27600,"station_id":"ce4bhbh2rcd13ifvqeo0","pricing_plan_id":"cebpf4jnsgd1na2vs0mg"},{"bike_id":"bd74a537-773d-4685-8b7b-0ca6edccee1d","system_id":"levelo_inurba_marseille","lat":43.27933,"lon":5.41043,"is_reserved":false,"is_disabled":false,"rental_uris":{"android":"levelo://app?vid=bd74a537-773d-4685-8b7b-0ca6edccee1d","ios":"levelo://app?vid=bd74a537-773d-4685-8b7b-0ca6edccee1d"},"vehicle_type_id":"4","last_reported":1731510581,"current_range_meters":14800,"station_id":"ce4bhnp2rcd13ifvqh0g","pricing_plan_id":"cebpf4jnsgd1na2vs0mg"},{"bike_id":"1b2a1b74-2085-4edd-9c4f-6b4ddf38eb93","system_id":"levelo_inurba_marseille","lat":43.2826,"lon":5.35074,"is_reserved":false,"is_disabled":false,"rental_uris":{"android":"levelo://app?vid=1b2a1b74-2085-4edd-9c4f-6b4ddf38eb93","ios":"levelo://app?vid=1b2a1b74-2085-4edd-9c4f-6b4ddf38eb93"},"vehicle_type_id":"4","last_reported":1731510581,"current_range_meters":19600,"station_id":"ce4bhbp2rcd13ifvqerg","pricing_plan_id":"cebpf4jnsgd1na2vs0mg"},{"bike_id":"85b22788-b6d8-484d-b78b-882c32c0b86c","system_id":"levelo_inurba_marseille","lat":43.31683,"lon":5.40483,"is_reserved":false,"is_disabled":false,"rental_uris":{"android":"levelo://app?vid=85b22788-b6d8-484d-b78b-882c32c0b86c","ios":"levelo://app?vid=85b22788-b6d8-484d-b78b-882c32c0b86c"},"vehicle_type_id":"4","last_reported":1731510581,"current_range_meters":22800,"station_id":"ce4bh012rcd13ifvqd00","pricing_plan_id":"cebpf4jnsgd1na2vs0mg"},{"bike_id":"f4d8166f-f4e3-4a2d-b9dd-76615fe6c7b8","system_id":"levelo_inurba_marseille","lat":43.29934,"lon":5.37451,"is_reserved":false,"is_disabled":false,"rental_uris":{"android":"levelo://app?vid=f4d8166f-f4e3-4a2d-b9dd-76615fe6c7b8","ios":"levelo://app?vid=f4d8166f-f4e3-4a2d-b9dd-76615fe6c7b8"},"vehicle_type_id":"4","last_reported":1731510581,"current_range_meters":33600,"station_id":"ce4bgjh2rcd13ifvqbg0","pricing_plan_id":"cebpf4jnsgd1na2vs0mg"},{"bike_id":"73678db0-b543-471b-a90a-954c247c8aed","system_id":"levelo_inurba_marseille","lat":43.25094,"lon":5.40386,"is_reserved":false,"is_disabled":false,"rental_uris":{"android":"levelo://app?vid=73678db0-b543-471b-a90a-954c247c8aed","ios":"levelo://app?vid=73678db0-b543-471b-a90a-954c247c8aed"},"vehicle_type_id":"4","last_reported":1731510581,"current_range_meters":25200,"station_id":"ce4bhlh2rcd13ifvqgig","pricing_plan_id":"cebpf4jnsgd1na2vs0mg"},{"bike_id":"d009af0f-0a91-4de0-9f7d-624c3414b613","system_id":"levelo_inurba_marseille","lat":43.299347,"lon":5.365594,"is_reserved":false,"is_disabled":false,"rental_uris":{"android":"levelo://app?vid=d009af0f-0a91-4de0-9f7d-624c3414b613","ios":"levelo://app?vid=d009af0f-0a91-4de0-9f7d-624c3414b613"},"vehicle_type_id":"4","last_reported":1731510581,"current_range_meters":8400,"station_id":"ce4bgm92rcd13ifvqbr0","pricing_plan_id":"cebpf4jnsgd1na2vs0mg"},{"bike_id":"efed9b1a-88d9-49ff-913f-55c4eed219e8","system_id":"levelo_inurba_marseille","lat":43.26195,"lon":5.37935,"is_reserved":false,"is_disabled":false,"rental_uris":{"android":"levelo://app?vid=efed9b1a-88d9-49ff-913f-55c4eed219e8","ios":"levelo://app?vid=efed9b1a-88d9-49ff-913f-55c4eed219e8"},"vehicle_type_id":"4","last_reported":1731510581,"current_range_meters":36400,"station_id":"ce4bhjp2rcd13ifvqg90","pricing_plan_id":"cebpf4jnsgd1na2vs0mg"},{"bike_id":"5d1f4316-b04e-4ffe-949b-df676969a7da","system_id":"levelo_inurba_marseille","lat":43.27376,"lon":5.3626,"is_reserved":false,"is_disabled":false,"rental_uris":{"android":"levelo://app?vid=5d1f4316-b04e-4ffe-949b-df676969a7da","ios":"levelo://app?vid=5d1f4316-b04e-4ffe-949b-df676969a7da"},"vehicle_type_id":"4","last_reported":1731510581,"current_range_meters":38800,"station_id":"ce4bhbh2rcd13ifvqeo0","pricing_plan_id":"cebpf4jnsgd1na2vs0mg"},{"bike_id":"b448c76e-6a85-4e4e-8af8-7d9249501502","system_id":"levelo_inurba_marseille","lat":43.337444,"lon":5.374475,"is_reserved":false,"is_disabled":false,"rental_uris":{"android":"levelo://app?vid=b448c76e-6a85-4e4e-8af8-7d9249501502","ios":"levelo://app?vid=b448c76e-6a85-4e4e-8af8-7d9249501502"},"vehicle_type_id":"4","last_reported":1731510581,"current_range_meters":36800,"station_id":"","pricing_plan_id":"cebpf4jnsgd1na2vs0mg"},{"bike_id":"e0270152-44d1-410a-8967-1641ad92db53","system_id":"levelo_inurba_marseille","lat":43.301442,"lon":5.380623,"is_reserved":false,"is_disabled":false,"rental_uris":{"android":"levelo://app?vid=e0270152-44d1-410a-8967-1641ad92db53","ios":"levelo://app?vid=e0270152-44d1-410a-8967-1641ad92db53"},"vehicle_type_id":"4","last_reported":1731510581,"current_range_meters":19200,"station_id":"ce4bgjp2rcd13ifvqbh0","pricing_plan_id":"cebpf4jnsgd1na2vs0mg"},{"bike_id":"6ea481b3-61d7-4471-a4c1-1b01f363ddcc","system_id":"levelo_inurba_marseille","lat":43.23194,"lon":5.35558,"is_reserved":false,"is_disabled":false,"rental_uris":{"android":"levelo://app?vid=6ea481b3-61d7-4471-a4c1-1b01f363ddcc","ios":"levelo://app?vid=6ea481b3-61d7-4471-a4c1-1b01f363ddcc"},"vehicle_type_id":"4","last_reported":1731510581,"current_range_meters":27600,"station_id":"ce4bhu92rcd13ifvqi70","pricing_plan_id":"cebpf4jnsgd1na2vs0mg"},{"bike_id":"bd242193-93e0-478c-97b8-f1cd0d1bbc8c","system_id":"levelo_inurba_marseille","lat":43.33023,"lon":5.39043,"is_reserved":false,"is_disabled":false,"rental_uris":{"android":"levelo://app?vid=bd242193-93e0-478c-97b8-f1cd0d1bbc8c","ios":"levelo://app?vid=bd242193-93e0-478c-97b8-f1cd0d1bbc8c"},"vehicle_type_id":"4","last_reported":1731510581,"current_range_meters":19200,"station_id":"ce4bhr92rcd13ifvqhrg","pricing_plan_id":"cebpf4jnsgd1na2vs0mg"},{"bike_id":"66e71830-8bda-445a-a01a-c4fda11d27d6","system_id":"levelo_inurba_marseille","lat":43.29632,"lon":5.40604,"is_reserved":false,"is_disabled":false,"rental_uris":{"android":"levelo://app?vid=66e71830-8bda-445a-a01a-c4fda11d27d6","ios":"levelo://app?vid=66e71830-8bda-445a-a01a-c4fda11d27d6"},"vehicle_type_id":"4","last_reported":1731510581,"current_range_meters":6800,"station_id":"ce4bh0h2rcd13ifvqd60","pricing_plan_id":"cebpf4jnsgd1na2vs0mg"},{"bike_id":"dd71a3f1-81d2-493d-ae7d-c35e7416e4af","system_id":"levelo_inurba_marseille","lat":43.33017,"lon":5.39015,"is_reserved":false,"is_disabled":false,"rental_uris":{"android":"levelo://app?vid=dd71a3f1-81d2-493d-ae7d-c35e7416e4af","ios":"levelo://app?vid=dd71a3f1-81d2-493d-ae7d-c35e7416e4af"},"vehicle_type_id":"4","last_reported":1731510581,"current_range_meters":31200,"station_id":"ce4bhr92rcd13ifvqhrg","pricing_plan_id":"cebpf4jnsgd1na2vs0mg"},{"bike_id":"5882dbc6-28b4-4983-8788-c827c0f00311","system_id":"levelo_inurba_marseille","lat":43.30597,"lon":5.37249,"is_reserved":false,"is_disabled":false,"rental_uris":{"android":"levelo://app?vid=5882dbc6-28b4-4983-8788-c827c0f00311","ios":"levelo://app?vid=5882dbc6-28b4-4983-8788-c827c0f00311"},"vehicle_type_id":"4","last_reported":1731510581,"current_range_meters":24800,"station_id":"ce4bgqh2rcd13ifvqc4g","pricing_plan_id":"cebpf4jnsgd1na2vs0mg"},{"bike_id":"6af924b4-f8ba-413f-84cb-e29bf13f5ff7","system_id":"levelo_inurba_marseille","lat":43.25583,"lon":5.38233,"is_reserved":false,"is_disabled":false,"rental_uris":{"android":"levelo://app?vid=6af924b4-f8ba-413f-84cb-e29bf13f5ff7","ios":"levelo://app?vid=6af924b4-f8ba-413f-84cb-e29bf13f5ff7"},"vehicle_type_id":"4","last_reported":1731510581,"current_range_meters":17600,"station_id":"ce4bhih2rcd13ifvqfs0","pricing_plan_id":"cebpf4jnsgd1na2vs0mg"},{"bike_id":"46077565-e1c4-4820-ab4a-59682a4124ad","system_id":"levelo_inurba_marseille","lat":43.24165,"lon":5.36393,"is_reserved":false,"is_disabled":false,"rental_uris":{"android":"levelo://app?vid=46077565-e1c4-4820-ab4a-59682a4124ad","ios":"levelo://app?vid=46077565-e1c4-4820-ab4a-59682a4124ad"},"vehicle_type_id":"4","last_reported":1731510581,"current_range_meters":36400,"station_id":"cpo36qri1sfpv3e86is0","pricing_plan_id":"cebpf4jnsgd1na2vs0mg"},{"bike_id":"b88966dc-c212-494b-aac1-d525650a7a22","system_id":"levelo_inurba_marseille","lat":43.29578,"lon":5.36736,"is_reserved":false,"is_disabled":false,"rental_uris":{"android":"levelo://app?vid=b88966dc-c212-494b-aac1-d525650a7a22","ios":"levelo://app?vid=b88966dc-c212-494b-aac1-d525650a7a22"},"vehicle_type_id":"4","last_reported":1731510581,"current_range_meters":19600,"station_id":"ce4bgph2rcd13ifvqc2g","pricing_plan_id":"cebpf4jnsgd1na2vs0mg"},{"bike_id":"4018447b-2886-4c23-942b-201819b3bc28","system_id":"levelo_inurba_marseille","lat":43.337444,"lon":5.374475,"is_reserved":false,"is_disabled":false,"rental_uris":{"android":"levelo://app?vid=4018447b-2886-4c23-942b-201819b3bc28","ios":"levelo://app?vid=4018447b-2886-4c23-942b-201819b3bc28"},"vehicle_type_id":"4","last_reported":1731510581,"current_range_meters":36800,"station_id":"","pricing_plan_id":"cebpf4jnsgd1na2vs0mg"},{"bike_id":"82177570-77c8-45db-bec7-ab2b10dc4402","system_id":"levelo_inurba_marseille","lat":43.25085,"lon":5.39521,"is_reserved":false,"is_disabled":false,"rental_uris":{"android":"levelo://app?vid=82177570-77c8-45db-bec7-ab2b10dc4402","ios":"levelo://app?vid=82177570-77c8-45db-bec7-ab2b10dc4402"},"vehicle_type_id":"4","last_reported":1731510581,"current_range_meters":28800,"station_id":"ce4bhm12rcd13ifvqgkg","pricing_plan_id":"cebpf4jnsgd1na2vs0mg"},{"bike_id":"8f4d92ae-0222-4237-978d-920ba49e7c8f","system_id":"levelo_inurba_marseille","lat":43.2319,"lon":5.35555,"is_reserved":false,"is_disabled":false,"rental_uris":{"android":"levelo://app?vid=8f4d92ae-0222-4237-978d-920ba49e7c8f","ios":"levelo://app?vid=8f4d92ae-0222-4237-978d-920ba49e7c8f"},"vehicle_type_id":"4","last_reported":1731510581,"current_range_meters":38000,"station_id":"ce4bhu92rcd13ifvqi70","pricing_plan_id":"cebpf4jnsgd1na2vs0mg"},{"bike_id":"1442820b-914b-40e4-911f-cfafa9b91b29","system_id":"levelo_inurba_marseille","lat":43.29035,"lon":5.39963,"is_reserved":false,"is_disabled":false,"rental_uris":{"android":"levelo://app?vid=1442820b-914b-40e4-911f-cfafa9b91b29","ios":"levelo://app?vid=1442820b-914b-40e4-911f-cfafa9b91b29"},"vehicle_type_id":"4","last_reported":1731510581,"current_range_meters":2800,"station_id":"ce4bhc92rcd13ifvqetg","pricing_plan_id":"cebpf4jnsgd1na2vs0mg"},{"bike_id":"f8f15494-4d0b-466a-95d1-1baf6625cd54","system_id":"levelo_inurba_marseille","lat":43.314871,"lon":5.373089,"is_reserved":false,"is_disabled":false,"rental_uris":{"android":"levelo://app?vid=f8f15494-4d0b-466a-95d1-1baf6625cd54","ios":"levelo://app?vid=f8f15494-4d0b-466a-95d1-1baf6625cd54"},"vehicle_type_id":"4","last_reported":1731510581,"current_range_meters":38800,"station_id":"ce4bgt12rcd13ifvqcd0","pricing_plan_id":"cebpf4jnsgd1na2vs0mg"},{"bike_id":"69b02fdd-f0e5-44a7-9b8c-007018621578","system_id":"levelo_inurba_marseille","lat":43.23956,"lon":5.36634,"is_reserved":false,"is_disabled":false,"rental_uris":{"android":"levelo://app?vid=69b02fdd-f0e5-44a7-9b8c-007018621578","ios":"levelo://app?vid=69b02fdd-f0e5-44a7-9b8c-007018621578"},"vehicle_type_id":"4","last_reported":1731510581,"current_range_meters":38000,"station_id":"ce4bhi12rcd13ifvqfp0","pricing_plan_id":"cebpf4jnsgd1na2vs0mg"},{"bike_id":"5437c5a5-94da-405f-b040-a3e6b93fcbfc","system_id":"levelo_inurba_marseille","lat":43.28443,"lon":5.39189,"is_reserved":false,"is_disabled":false,"rental_uris":{"android":"levelo://app?vid=5437c5a5-94da-405f-b040-a3e6b93fcbfc","ios":"levelo://app?vid=5437c5a5-94da-405f-b040-a3e6b93fcbfc"},"vehicle_type_id":"4","last_reported":1731510581,"current_range_meters":39200,"station_id":"ce4bhoh2rcd13ifvqh5g","pricing_plan_id":"cebpf4jnsgd1na2vs0mg"},{"bike_id":"8ff3daf9-97e9-480f-95f9-4d1d61792a54","system_id":"levelo_inurba_marseille","lat":43.33758,"lon":5.37471,"is_reserved":false,"is_disabled":false,"rental_uris":{"android":"levelo://app?vid=8ff3daf9-97e9-480f-95f9-4d1d61792a54","ios":"levelo://app?vid=8ff3daf9-97e9-480f-95f9-4d1d61792a54"},"vehicle_type_id":"4","last_reported":1731510581,"current_range_meters":35200,"station_id":"","pricing_plan_id":"cebpf4jnsgd1na2vs0mg"},{"bike_id":"151aa6b5-2cbf-440f-8ed3-35942a598b7d","system_id":"levelo_inurba_marseille","lat":43.25495,"lon":5.37653,"is_reserved":false,"is_disabled":false,"rental_uris":{"android":"levelo://app?vid=151aa6b5-2cbf-440f-8ed3-35942a598b7d","ios":"levelo://app?vid=151aa6b5-2cbf-440f-8ed3-35942a598b7d"},"vehicle_type_id":"4","last_reported":1731510581,"current_range_meters":38800,"station_id":"ce4bhh12rcd13ifvqff0","pricing_plan_id":"cebpf4jnsgd1na2vs0mg"},{"bike_id":"b29317af-2ee1-4290-bf93-844bb779ffd2","system_id":"levelo_inurba_marseille","lat":43.28925,"lon":5.39644,"is_reserved":false,"is_disabled":false,"rental_uris":{"android":"levelo://app?vid=b29317af-2ee1-4290-bf93-844bb779ffd2","ios":"levelo://app?vid=b29317af-2ee1-4290-bf93-844bb779ffd2"},"vehicle_type_id":"4","last_reported":1731510581,"current_range_meters":38800,"station_id":"ce4bgjh2rcd13ifvqbf0","pricing_plan_id":"cebpf4jnsgd1na2vs0mg"},{"bike_id":"59200dd8-c41e-4783-a22d-a6f9853f9721","system_id":"levelo_inurba_marseille","lat":43.30593,"lon":5.37222,"is_reserved":false,"is_disabled":false,"rental_uris":{"android":"levelo://app?vid=59200dd8-c41e-4783-a22d-a6f9853f9721","ios":"levelo://app?vid=59200dd8-c41e-4783-a22d-a6f9853f9721"},"vehicle_type_id":"4","last_reported":1731510581,"current_range_meters":18800,"station_id":"ce4bgqh2rcd13ifvqc4g","pricing_plan_id":"cebpf4jnsgd1na2vs0mg"},{"bike_id":"dfc0383f-2e9f-4797-bbc3-6d953dc26efa","system_id":"levelo_inurba_marseille","lat":43.29908,"lon":5.38152,"is_reserved":false,"is_disabled":false,"rental_uris":{"android":"levelo://app?vid=dfc0383f-2e9f-4797-bbc3-6d953dc26efa","ios":"levelo://app?vid=dfc0383f-2e9f-4797-bbc3-6d953dc26efa"},"vehicle_type_id":"4","last_reported":1731510581,"current_range_meters":16400,"station_id":"ce4bgj12rcd13ifvqbc0","pricing_plan_id":"cebpf4jnsgd1na2vs0mg"},{"bike_id":"3ee5675b-b4a0-4f03-8075-d5004f83396d","system_id":"levelo_inurba_marseille","lat":43.2991,"lon":5.37479,"is_reserved":false,"is_disabled":false,"rental_uris":{"android":"levelo://app?vid=3ee5675b-b4a0-4f03-8075-d5004f83396d","ios":"levelo://app?vid=3ee5675b-b4a0-4f03-8075-d5004f83396d"},"vehicle_type_id":"4","last_reported":1731510581,"current_range_meters":38000,"station_id":"ce4bgjh2rcd13ifvqbg0","pricing_plan_id":"cebpf4jnsgd1na2vs0mg"},{"bike_id":"07f082ae-6c7f-47f5-9611-ab43388346d9","system_id":"levelo_inurba_marseille","lat":43.25584,"lon":5.38229,"is_reserved":false,"is_disabled":false,"rental_uris":{"android":"levelo://app?vid=07f082ae-6c7f-47f5-9611-ab43388346d9","ios":"levelo://app?vid=07f082ae-6c7f-47f5-9611-ab43388346d9"},"vehicle_type_id":"4","last_reported":1731510581,"current_range_meters":28400,"station_id":"ce4bhih2rcd13ifvqfs0","pricing_plan_id":"cebpf4jnsgd1na2vs0mg"},{"bike_id":"a0338363-89e8-430c-a9fd-fe4cb3227f09","system_id":"levelo_inurba_marseille","lat":43.29015,"lon":5.3814,"is_reserved":false,"is_disabled":false,"rental_uris":{"android":"levelo://app?vid=a0338363-89e8-430c-a9fd-fe4cb3227f09","ios":"levelo://app?vid=a0338363-89e8-430c-a9fd-fe4cb3227f09"},"vehicle_type_id":"4","last_reported":1731510581,"current_range_meters":24400,"station_id":"ce4bh4p2rcd13ifvqe1g","pricing_plan_id":"cebpf4jnsgd1na2vs0mg"},{"bike_id":"d09a69b4-a6cd-4352-9b70-237c7ec2c287","system_id":"levelo_inurba_marseille","lat":43.29669,"lon":5.37686,"is_reserved":false,"is_disabled":false,"rental_uris":{"android":"levelo://app?vid=d09a69b4-a6cd-4352-9b70-237c7ec2c287","ios":"levelo://app?vid=d09a69b4-a6cd-4352-9b70-237c7ec2c287"},"vehicle_type_id":"4","last_reported":1731510581,"current_range_meters":25600,"station_id":"ce4bgkh2rcd13ifvqbl0","pricing_plan_id":"cebpf4jnsgd1na2vs0mg"},{"bike_id":"f425f41c-7f1a-4aae-bab9-38fd45f8061b","system_id":"levelo_inurba_marseille","lat":43.26563,"lon":5.3901,"is_reserved":false,"is_disabled":false,"rental_uris":{"android":"levelo://app?vid=f425f41c-7f1a-4aae-bab9-38fd45f8061b","ios":"levelo://app?vid=f425f41c-7f1a-4aae-bab9-38fd45f8061b"},"vehicle_type_id":"4","last_reported":1731510581,"current_range_meters":28000,"station_id":"ce4bhe12rcd13ifvqf30","pricing_plan_id":"cebpf4jnsgd1na2vs0mg"},{"bike_id":"e9670a7f-13bf-44d9-a126-bd9c407dcd3a","system_id":"levelo_inurba_marseille","lat":43.30529,"lon":5.36712,"is_reserved":false,"is_disabled":false,"rental_uris":{"android":"levelo://app?vid=e9670a7f-13bf-44d9-a126-bd9c407dcd3a","ios":"levelo://app?vid=e9670a7f-13bf-44d9-a126-bd9c407dcd3a"},"vehicle_type_id":"4","last_reported":1731510581,"current_range_meters":27200,"station_id":"ce4bgrp2rcd13ifvqc9g","pricing_plan_id":"cebpf4jnsgd1na2vs0mg"},{"bike_id":"2f5e0887-3809-44b9-9a52-265fa42149b4","system_id":"levelo_inurba_marseille","lat":43.28697,"lon":5.37396,"is_reserved":false,"is_disabled":false,"rental_uris":{"android":"levelo://app?vid=2f5e0887-3809-44b9-9a52-265fa42149b4","ios":"levelo://app?vid=2f5e0887-3809-44b9-9a52-265fa42149b4"},"vehicle_type_id":"4","last_reported":1731510581,"current_range_meters":4000,"station_id":"ce4bh3p2rcd13ifvqdq0","pricing_plan_id":"cebpf4jnsgd1na2vs0mg"},{"bike_id":"b5b42c42-c78f-4e52-9843-e4462f8eeef9","system_id":"levelo_inurba_marseille","lat":43.25862,"lon":5.39899,"is_reserved":false,"is_disabled":false,"rental_uris":{"android":"levelo://app?vid=b5b42c42-c78f-4e52-9843-e4462f8eeef9","ios":"levelo://app?vid=b5b42c42-c78f-4e52-9843-e4462f8eeef9"},"vehicle_type_id":"4","last_reported":1731510581,"current_range_meters":39200,"station_id":"ce4bhl92rcd13ifvqghg","pricing_plan_id":"cebpf4jnsgd1na2vs0mg"},{"bike_id":"15b53686-ca95-46a3-bd05-a0ad1be5aa68","system_id":"levelo_inurba_marseille","lat":43.29227,"lon":5.36067,"is_reserved":false,"is_disabled":false,"rental_uris":{"android":"levelo://app?vid=15b53686-ca95-46a3-bd05-a0ad1be5aa68","ios":"levelo://app?vid=15b53686-ca95-46a3-bd05-a0ad1be5aa68"},"vehicle_type_id":"4","last_reported":1731510581,"current_range_meters":36800,"station_id":"ce4bhbh2rcd13ifvqeqg","pricing_plan_id":"cebpf4jnsgd1na2vs0mg"},{"bike_id":"2cf7459a-c21a-40da-a2d5-f53017833356","system_id":"levelo_inurba_marseille","lat":43.3248,"lon":5.36568,"is_reserved":false,"is_disabled":false,"rental_uris":{"android":"levelo://app?vid=2cf7459a-c21a-40da-a2d5-f53017833356","ios":"levelo://app?vid=2cf7459a-c21a-40da-a2d5-f53017833356"},"vehicle_type_id":"4","last_reported":1731510581,"current_range_meters":39200,"station_id":"ce4bhs12rcd13ifvqhvg","pricing_plan_id":"cebpf4jnsgd1na2vs0mg"},{"bike_id":"583da1e4-4a74-4a9a-8ae8-62dee34b0dce","system_id":"levelo_inurba_marseille","lat":43.25502,"lon":5.37652,"is_reserved":false,"is_disabled":false,"rental_uris":{"android":"levelo://app?vid=583da1e4-4a74-4a9a-8ae8-62dee34b0dce","ios":"levelo://app?vid=583da1e4-4a74-4a9a-8ae8-62dee34b0dce"},"vehicle_type_id":"4","last_reported":1731510581,"current_range_meters":30000,"station_id":"ce4bhh12rcd13ifvqff0","pricing_plan_id":"cebpf4jnsgd1na2vs0mg"},{"bike_id":"11d60f15-e5c0-4b16-92c6-486a0637937e","system_id":"levelo_inurba_marseille","lat":43.29634,"lon":5.40595,"is_reserved":false,"is_disabled":false,"rental_uris":{"android":"levelo://app?vid=11d60f15-e5c0-4b16-92c6-486a0637937e","ios":"levelo://app?vid=11d60f15-e5c0-4b16-92c6-486a0637937e"},"vehicle_type_id":"4","last_reported":1731510581,"current_range_meters":22000,"station_id":"ce4bh0h2rcd13ifvqd60","pricing_plan_id":"cebpf4jnsgd1na2vs0mg"},{"bike_id":"e036a783-0b22-4ca9-8271-748458d71e33","system_id":"levelo_inurba_marseille","lat":43.293727,"lon":5.376107,"is_reserved":false,"is_disabled":false,"rental_uris":{"android":"levelo://app?vid=e036a783-0b22-4ca9-8271-748458d71e33","ios":"levelo://app?vid=e036a783-0b22-4ca9-8271-748458d71e33"},"vehicle_type_id":"4","last_reported":1731510581,"current_range_meters":33200,"station_id":"","pricing_plan_id":"cebpf4jnsgd1na2vs0mg"},{"bike_id":"e6878984-a1dd-4992-8913-0fc51d54781e","system_id":"levelo_inurba_marseille","lat":43.30545,"lon":5.37259,"is_reserved":false,"is_disabled":false,"rental_uris":{"android":"levelo://app?vid=e6878984-a1dd-4992-8913-0fc51d54781e","ios":"levelo://app?vid=e6878984-a1dd-4992-8913-0fc51d54781e"},"vehicle_type_id":"4","last_reported":1731510581,"current_range_meters":26800,"station_id":"","pricing_plan_id":"cebpf4jnsgd1na2vs0mg"},{"bike_id":"a7e9865b-c259-49f3-ad42-c770159f46ec","system_id":"levelo_inurba_marseille","lat":43.33785,"lon":5.37431,"is_reserved":false,"is_disabled":false,"rental_uris":{"android":"levelo://app?vid=a7e9865b-c259-49f3-ad42-c770159f46ec","ios":"levelo://app?vid=a7e9865b-c259-49f3-ad42-c770159f46ec"},"vehicle_type_id":"4","last_reported":1731510581,"current_range_meters":36800,"station_id":"","pricing_plan_id":"cebpf4jnsgd1na2vs0mg"},{"bike_id":"8cb8bac4-1d92-40db-a00b-6961da2a0671","system_id":"levelo_inurba_marseille","lat":43.33733,"lon":5.37455,"is_reserved":false,"is_disabled":false,"rental_uris":{"android":"levelo://app?vid=8cb8bac4-1d92-40db-a00b-6961da2a0671","ios":"levelo://app?vid=8cb8bac4-1d92-40db-a00b-6961da2a0671"},"vehicle_type_id":"4","last_reported":1731510581,"current_range_meters":36800,"station_id":"","pricing_plan_id":"cebpf4jnsgd1na2vs0mg"},{"bike_id":"49dbbf88-24fd-48b7-ad15-f06bb362fb93","system_id":"levelo_inurba_marseille","lat":43.23187,"lon":5.39981,"is_reserved":false,"is_disabled":false,"rental_uris":{"android":"levelo://app?vid=49dbbf88-24fd-48b7-ad15-f06bb362fb93","ios":"levelo://app?vid=49dbbf88-24fd-48b7-ad15-f06bb362fb93"},"vehicle_type_id":"4","last_reported":1731510581,"current_range_meters":38800,"station_id":"ce4bhn12rcd13ifvqgqg","pricing_plan_id":"cebpf4jnsgd1na2vs0mg"},{"bike_id":"ae763d96-53a6-40ff-b75a-4f4b350addd6","system_id":"levelo_inurba_marseille","lat":43.25719,"lon":5.41111,"is_reserved":false,"is_disabled":false,"rental_uris":{"android":"levelo://app?vid=ae763d96-53a6-40ff-b75a-4f4b350addd6","ios":"levelo://app?vid=ae763d96-53a6-40ff-b75a-4f4b350addd6"},"vehicle_type_id":"4","last_reported":1731510581,"current_range_meters":18800,"station_id":"ce4bhkp2rcd13ifvqgd0","pricing_plan_id":"cebpf4jnsgd1na2vs0mg"},{"bike_id":"af2fc108-b7c7-4405-a019-443089d49968","system_id":"levelo_inurba_marseille","lat":43.30518,"lon":5.36516,"is_reserved":false,"is_disabled":false,"rental_uris":{"android":"levelo://app?vid=af2fc108-b7c7-4405-a019-443089d49968","ios":"levelo://app?vid=af2fc108-b7c7-4405-a019-443089d49968"},"vehicle_type_id":"4","last_reported":1731510581,"current_range_meters":36000,"station_id":"ce4bgs12rcd13ifvqcag","pricing_plan_id":"cebpf4jnsgd1na2vs0mg"},{"bike_id":"37ab3716-df29-419e-a1cf-c8a651cfc874","system_id":"levelo_inurba_marseille","lat":43.2952,"lon":5.37502,"is_reserved":false,"is_disabled":false,"rental_uris":{"android":"levelo://app?vid=37ab3716-df29-419e-a1cf-c8a651cfc874","ios":"levelo://app?vid=37ab3716-df29-419e-a1cf-c8a651cfc874"},"vehicle_type_id":"4","last_reported":1731510581,"current_range_meters":38800,"station_id":"ce4bgkp2rcd13ifvqbmg","pricing_plan_id":"cebpf4jnsgd1na2vs0mg"},{"bike_id":"fde2aae3-1cdd-48fa-94b5-5edeec6bb810","system_id":"levelo_inurba_marseille","lat":43.29173,"lon":5.37157,"is_reserved":false,"is_disabled":false,"rental_uris":{"android":"levelo://app?vid=fde2aae3-1cdd-48fa-94b5-5edeec6bb810","ios":"levelo://app?vid=fde2aae3-1cdd-48fa-94b5-5edeec6bb810"},"vehicle_type_id":"4","last_reported":1731510581,"current_range_meters":32800,"station_id":"ce4bha92rcd13ifvqeh0","pricing_plan_id":"cebpf4jnsgd1na2vs0mg"},{"bike_id":"4c627485-2e3b-44ad-8893-433a95905ce7","system_id":"levelo_inurba_marseille","lat":43.23183,"lon":5.39991,"is_reserved":false,"is_disabled":false,"rental_uris":{"android":"levelo://app?vid=4c627485-2e3b-44ad-8893-433a95905ce7","ios":"levelo://app?vid=4c627485-2e3b-44ad-8893-433a95905ce7"},"vehicle_type_id":"4","last_reported":1731510581,"current_range_meters":38800,"station_id":"ce4bhn12rcd13ifvqgqg","pricing_plan_id":"cebpf4jnsgd1na2vs0mg"},{"bike_id":"1e7aa046-6167-4d66-a034-85c88bb345b3","system_id":"levelo_inurba_marseille","lat":43.30543,"lon":5.3655,"is_reserved":false,"is_disabled":false,"rental_uris":{"android":"levelo://app?vid=1e7aa046-6167-4d66-a034-85c88bb345b3","ios":"levelo://app?vid=1e7aa046-6167-4d66-a034-85c88bb345b3"},"vehicle_type_id":"4","last_reported":1731510581,"current_range_meters":10800,"station_id":"ce4bgs12rcd13ifvqcag","pricing_plan_id":"cebpf4jnsgd1na2vs0mg"},{"bike_id":"407a8abd-3c3b-4176-9c8e-e36d4ca6d9cb","system_id":"levelo_inurba_marseille","lat":43.2512,"lon":5.40319,"is_reserved":false,"is_disabled":false,"rental_uris":{"android":"levelo://app?vid=407a8abd-3c3b-4176-9c8e-e36d4ca6d9cb","ios":"levelo://app?vid=407a8abd-3c3b-4176-9c8e-e36d4ca6d9cb"},"vehicle_type_id":"4","last_reported":1731510581,"current_range_meters":6800,"station_id":"ce4bhlh2rcd13ifvqgig","pricing_plan_id":"cebpf4jnsgd1na2vs0mg"},{"bike_id":"712adf69-0779-4570-90d8-f7723b163ce3","system_id":"levelo_inurba_marseille","lat":43.28466,"lon":5.35891,"is_reserved":false,"is_disabled":false,"rental_uris":{"android":"levelo://app?vid=712adf69-0779-4570-90d8-f7723b163ce3","ios":"levelo://app?vid=712adf69-0779-4570-90d8-f7723b163ce3"},"vehicle_type_id":"4","last_reported":1731510581,"current_range_meters":6800,"station_id":"ce4bhah2rcd13ifvqei0","pricing_plan_id":"cebpf4jnsgd1na2vs0mg"},{"bike_id":"e4204469-ea44-46bc-8720-3760de9adcb3","system_id":"levelo_inurba_marseille","lat":43.292267,"lon":5.360607,"is_reserved":false,"is_disabled":false,"rental_uris":{"android":"levelo://app?vid=e4204469-ea44-46bc-8720-3760de9adcb3","ios":"levelo://app?vid=e4204469-ea44-46bc-8720-3760de9adcb3"},"vehicle_type_id":"4","last_reported":1731510581,"current_range_meters":32800,"station_id":"ce4bhbh2rcd13ifvqeqg","pricing_plan_id":"cebpf4jnsgd1na2vs0mg"},{"bike_id":"338e27ed-0678-4677-8e8c-dd5a8a8bdc0f","system_id":"levelo_inurba_marseille","lat":43.30777,"lon":5.37653,"is_reserved":false,"is_disabled":false,"rental_uris":{"android":"levelo://app?vid=338e27ed-0678-4677-8e8c-dd5a8a8bdc0f","ios":"levelo://app?vid=338e27ed-0678-4677-8e8c-dd5a8a8bdc0f"},"vehicle_type_id":"4","last_reported":1731510581,"current_range_meters":32800,"station_id":"ce4bgv92rcd13ifvqcq0","pricing_plan_id":"cebpf4jnsgd1na2vs0mg"},{"bike_id":"6a49393b-4579-4a96-9ab8-4b1ef3c36082","system_id":"levelo_inurba_marseille","lat":43.30418,"lon":5.39747,"is_reserved":false,"is_disabled":false,"rental_uris":{"android":"levelo://app?vid=6a49393b-4579-4a96-9ab8-4b1ef3c36082","ios":"levelo://app?vid=6a49393b-4579-4a96-9ab8-4b1ef3c36082"},"vehicle_type_id":"4","last_reported":1731510581,"current_range_meters":15200,"station_id":"ce4bh092rcd13ifvqd20","pricing_plan_id":"cebpf4jnsgd1na2vs0mg"},{"bike_id":"5330f6db-3f6a-4cea-a96b-80b79626ee20","system_id":"levelo_inurba_marseille","lat":43.31755,"lon":5.39022,"is_reserved":false,"is_disabled":false,"rental_uris":{"android":"levelo://app?vid=5330f6db-3f6a-4cea-a96b-80b79626ee20","ios":"levelo://app?vid=5330f6db-3f6a-4cea-a96b-80b79626ee20"},