{"last_updated":1774845363,"ttl":60,"version":"2.2","data":{"bikes":[{"bike_id":"1a9173f5-11b3-4339-8654-fc9daedb702b","system_id":"levelo_inurba_marseille","lat":43.23764,"lon":5.38526,"is_reserved":false,"is_disabled":false,"rental_uris":{"android":"levelo://app?vid=1a9173f5-11b3-4339-8654-fc9daedb702b","ios":"levelo://app?vid=1a9173f5-11b3-4339-8654-fc9daedb702b"},"vehicle_type_id":"4","last_reported":1774845364,"current_range_meters":2800,"station_id":"","pricing_plan_id":"cebpf4jnsgd1na2vs0mg"},{"bike_id":"32d98060-1a52-4fb6-8473-a185179d1ffe","system_id":"levelo_inurba_marseille","lat":43.30959,"lon":5.3903,"is_reserved":false,"is_disabled":true,"rental_uris":{"android":"levelo://app?vid=32d98060-1a52-4fb6-8473-a185179d1ffe","ios":"levelo://app?vid=32d98060-1a52-4fb6-8473-a185179d1ffe"},"vehicle_type_id":"4","last_reported":1774845364,"current_range_meters":2800,"station_id":"ce4bgup2rcd13ifvqco0","pricing_plan_id":"cebpf4jnsgd1na2vs0mg"},{"bike_id":"050c45c0-6fc2-4941-b30a-f5ea461760f4","system_id":"levelo_inurba_marseille","lat":43.23889,"lon":5.3746,"is_reserved":false,"is_disabled":false,"rental_uris":{"android":"levelo://app?vid=050c45c0-6fc2-4941-b30a-f5ea461760f4","ios":"levelo://app?vid=050c45c0-6fc2-4941-b30a-f5ea461760f4"},"vehicle_type_id":"4","last_reported":1774845364,"current_range_meters":2800,"station_id":"st_d6sm7csbq4hs73f8fpjg","pricing_plan_id":"cebpf4jnsgd1na2vs0mg"},{"bike_id":"9e6d015e-65af-493b-bed5-d7eb424e1ac3","system_id":"levelo_inurba_marseille","lat":43.24651,"lon":5.3891,"is_reserved":false,"is_disabled":false,"rental_uris":{"android":"levelo://app?vid=9e6d015e-65af-493b-bed5-d7eb424e1ac3","ios":"levelo://app?vid=9e6d015e-65af-493b-bed5-d7eb424e1ac3"},"vehicle_type_id":"4","last_reported":1774845364,"current_range_meters":2800,"station_id":"ce4bhg12rcd13ifvqf60","pricing_plan_id":"cebpf4jnsgd1na2vs0mg"},{"bike_id":"e08f5f96-a9b5-40b0-bb65-d50885c560ab","system_id":"levelo_inurba_marseille","lat":43.2619,"lon":5.38151,"is_reserved":false,"is_disabled":false,"rental_uris":{"android":"levelo://app?vid=e08f5f96-a9b5-40b0-bb65-d50885c560ab","ios":"levelo://app?vid=e08f5f96-a9b5-40b0-bb65-d50885c560ab"},"vehicle_type_id":"4","last_reported":1774845364,"current_range_meters":2800,"station_id":"","pricing_plan_id":"cebpf4jnsgd1na2vs0mg"},{"bike_id":"fe490f72-878a-4585-9e7a-3d7687bb7baa","system_id":"levelo_inurba_marseille","lat":43.22552,"lon":5.41644,"is_reserved":false,"is_disabled":false,"rental_uris":{"android":"levelo://app?vid=fe490f72-878a-4585-9e7a-3d7687bb7baa","ios":"levelo://app?vid=fe490f72-878a-4585-9e7a-3d7687bb7baa"},"vehicle_type_id":"4","last_reported":1774845364,"current_range_meters":2800,"station_id":"st_d2o4gvlbi1j2169b742g","pricing_plan_id":"cebpf4jnsgd1na2vs0mg"},{"bike_id":"b180d627-dbdf-413b-9e4f-52a4d8c0a7ac","system_id":"levelo_inurba_marseille","lat":43.28521,"lon":5.44111,"is_reserved":false,"is_disabled":false,"rental_uris":{"android":"levelo://app?vid=b180d627-dbdf-413b-9e4f-52a4d8c0a7ac","ios":"levelo://app?vid=b180d627-dbdf-413b-9e4f-52a4d8c0a7ac"},"vehicle_type_id":"4","last_reported":1774845364,"current_range_meters":3200,"station_id":"st_d3j3df2ikq2c7380ej80","pricing_plan_id":"cebpf4jnsgd1na2vs0mg"},{"bike_id":"b3fa6212-0b48-4528-a511-cb2f1886640e","system_id":"levelo_inurba_marseille","lat":43.26057,"lon":5.39415,"is_reserved":false,"is_disabled":false,"rental_uris":{"android":"levelo://app?vid=b3fa6212-0b48-4528-a511-cb2f1886640e","ios":"levelo://app?vid=b3fa6212-0b48-4528-a511-cb2f1886640e"},"vehicle_type_id":"4","last_reported":1774845364,"current_range_meters":3200,"station_id":"ce4bhh92rcd13ifvqfj0","pricing_plan_id":"cebpf4jnsgd1na2vs0mg"},{"bike_id":"5f6a8f16-0a29-4fe1-810c-2dff4279af97","system_id":"levelo_inurba_marseille","lat":43.31164,"lon":5.38737,"is_reserved":false,"is_disabled":false,"rental_uris":{"android":"levelo://app?vid=5f6a8f16-0a29-4fe1-810c-2dff4279af97","ios":"levelo://app?vid=5f6a8f16-0a29-4fe1-810c-2dff4279af97"},"vehicle_type_id":"4","last_reported":1774845364,"current_range_meters":3200,"station_id":"ce4bgv12rcd13ifvqcp0","pricing_plan_id":"cebpf4jnsgd1na2vs0mg"},{"bike_id":"b076a70c-56ac-4d56-ab86-a7e291fc0c84","system_id":"levelo_inurba_marseille","lat":43.25109,"lon":5.40337,"is_reserved":false,"is_disabled":false,"rental_uris":{"android":"levelo://app?vid=b076a70c-56ac-4d56-ab86-a7e291fc0c84","ios":"levelo://app?vid=b076a70c-56ac-4d56-ab86-a7e291fc0c84"},"vehicle_type_id":"4","last_reported":1774845364,"current_range_meters":3200,"station_id":"ce4bhlh2rcd13ifvqgig","pricing_plan_id":"cebpf4jnsgd1na2vs0mg"},{"bike_id":"6ea264c7-d4e9-42e9-a3f1-451a22c14955","system_id":"levelo_inurba_marseille","lat":43.26365,"lon":5.41095,"is_reserved":false,"is_disabled":false,"rental_uris":{"android":"levelo://app?vid=6ea264c7-d4e9-42e9-a3f1-451a22c14955","ios":"levelo://app?vid=6ea264c7-d4e9-42e9-a3f1-451a22c14955"},"vehicle_type_id":"4","last_reported":1774845364,"current_range_meters":3200,"station_id":"st_d4e5ca6na9uc73bfl5fg","pricing_plan_id":"cebpf4jnsgd1na2vs0mg"},{"bike_id":"c6031747-ae98-4d9e-acaf-a1b8d3fd773f","system_id":"levelo_inurba_marseille","lat":43.25339,"lon":5.42175,"is_reserved":false,"is_disabled":false,"rental_uris":{"android":"levelo://app?vid=c6031747-ae98-4d9e-acaf-a1b8d3fd773f","ios":"levelo://app?vid=c6031747-ae98-4d9e-acaf-a1b8d3fd773f"},"vehicle_type_id":"4","last_reported":1774845364,"current_range_meters":3200,"station_id":"st_d2m65c5bi1j21697t3ng","pricing_plan_id":"cebpf4jnsgd1na2vs0mg"},{"bike_id":"e3af55b8-1ec5-4bfe-8aa7-7830f34d6548","system_id":"levelo_inurba_marseille","lat":43.26513,"lon":5.407,"is_reserved":false,"is_disabled":false,"rental_uris":{"android":"levelo://app?vid=e3af55b8-1ec5-4bfe-8aa7-7830f34d6548","ios":"levelo://app?vid=e3af55b8-1ec5-4bfe-8aa7-7830f34d6548"},"vehicle_type_id":"4","last_reported":1774845364,"current_range_meters":3200,"station_id":"","pricing_plan_id":"cebpf4jnsgd1na2vs0mg"},{"bike_id":"0175576e-7df7-4f30-9d1f-e45288c4ad8b","system_id":"levelo_inurba_marseille","lat":43.31246,"lon":5.40202,"is_reserved":false,"is_disabled":false,"rental_uris":{"android":"levelo://app?vid=0175576e-7df7-4f30-9d1f-e45288c4ad8b","ios":"levelo://app?vid=0175576e-7df7-4f30-9d1f-e45288c4ad8b"},"vehicle_type_id":"4","last_reported":1774845364,"current_range_meters":3200,"station_id":"ce4bh092rcd13ifvqd30","pricing_plan_id":"cebpf4jnsgd1na2vs0mg"},{"bike_id":"60816a06-e1ea-4d77-ae6c-b6207a1f8c7e","system_id":"levelo_inurba_marseille","lat":43.21158,"lon":5.35078,"is_reserved":false,"is_disabled":true,"rental_uris":{"android":"levelo://app?vid=60816a06-e1ea-4d77-ae6c-b6207a1f8c7e","ios":"levelo://app?vid=60816a06-e1ea-4d77-ae6c-b6207a1f8c7e"},"vehicle_type_id":"4","last_reported":1774845364,"current_range_meters":3200,"station_id":"st_cvj6sg6p6f1abm77japg","pricing_plan_id":"cebpf4jnsgd1na2vs0mg"},{"bike_id":"b1b36613-1acd-4dcf-a023-aa5499b4c926","system_id":"levelo_inurba_marseille","lat":43.30162,"lon":5.38077,"is_reserved":false,"is_disabled":false,"rental_uris":{"android":"levelo://app?vid=b1b36613-1acd-4dcf-a023-aa5499b4c926","ios":"levelo://app?vid=b1b36613-1acd-4dcf-a023-aa5499b4c926"},"vehicle_type_id":"4","last_reported":1774845364,"current_range_meters":3600,"station_id":"ce4bgjp2rcd13ifvqbh0","pricing_plan_id":"cebpf4jnsgd1na2vs0mg"},{"bike_id":"0166877c-e0b5-42db-a6a9-2d84715f71f7","system_id":"levelo_inurba_marseille","lat":43.33542,"lon":5.37455,"is_reserved":false,"is_disabled":false,"rental_uris":{"android":"levelo://app?vid=0166877c-e0b5-42db-a6a9-2d84715f71f7","ios":"levelo://app?vid=0166877c-e0b5-42db-a6a9-2d84715f71f7"},"vehicle_type_id":"4","last_reported":1774845364,"current_range_meters":3600,"station_id":"st_d46tts09ee8s73dlu43g","pricing_plan_id":"cebpf4jnsgd1na2vs0mg"},{"bike_id":"a4280e67-7d39-4d64-b19b-696e82d601d7","system_id":"levelo_inurba_marseille","lat":43.28522,"lon":5.44118,"is_reserved":false,"is_disabled":false,"rental_uris":{"android":"levelo://app?vid=a4280e67-7d39-4d64-b19b-696e82d601d7","ios":"levelo://app?vid=a4280e67-7d39-4d64-b19b-696e82d601d7"},"vehicle_type_id":"4","last_reported":1774845364,"current_range_meters":3600,"station_id":"st_d3j3df2ikq2c7380ej80","pricing_plan_id":"cebpf4jnsgd1na2vs0mg"},{"bike_id":"e4956c66-fba0-45d5-a7d2-90ca01f34637","system_id":"levelo_inurba_marseille","lat":43.21744,"lon":5.34622,"is_reserved":false,"is_disabled":false,"rental_uris":{"android":"levelo://app?vid=e4956c66-fba0-45d5-a7d2-90ca01f34637","ios":"levelo://app?vid=e4956c66-fba0-45d5-a7d2-90ca01f34637"},"vehicle_type_id":"4","last_reported":1774845364,"current_range_meters":3600,"station_id":"st_cvj6r9ubvosntc0bgbag","pricing_plan_id":"cebpf4jnsgd1na2vs0mg"},{"bike_id":"f39be331-9cf6-4ab3-aeef-3b3cedbcc639","system_id":"levelo_inurba_marseille","lat":43.26676,"lon":5.38269,"is_reserved":false,"is_disabled":false,"rental_uris":{"android":"levelo://app?vid=f39be331-9cf6-4ab3-aeef-3b3cedbcc639","ios":"levelo://app?vid=f39be331-9cf6-4ab3-aeef-3b3cedbcc639"},"vehicle_type_id":"4","last_reported":1774845364,"current_range_meters":3600,"station_id":"ce4bhg92rcd13ifvqf90","pricing_plan_id":"cebpf4jnsgd1na2vs0mg"},{"bike_id":"6b1ae015-1742-4483-a44f-6df0a2aebddc","system_id":"levelo_inurba_marseille","lat":43.28626,"lon":5.39523,"is_reserved":false,"is_disabled":false,"rental_uris":{"android":"levelo://app?vid=6b1ae015-1742-4483-a44f-6df0a2aebddc","ios":"levelo://app?vid=6b1ae015-1742-4483-a44f-6df0a2aebddc"},"vehicle_type_id":"4","last_reported":1774845364,"current_range_meters":3600,"station_id":"","pricing_plan_id":"cebpf4jnsgd1na2vs0mg"},{"bike_id":"4170b102-8a40-4649-9f89-997ec1c2e1c3","system_id":"levelo_inurba_marseille","lat":43.311,"lon":5.38538,"is_reserved":false,"is_disabled":false,"rental_uris":{"android":"levelo://app?vid=4170b102-8a40-4649-9f89-997ec1c2e1c3","ios":"levelo://app?vid=4170b102-8a40-4649-9f89-997ec1c2e1c3"},"vehicle_type_id":"4","last_reported":1774845364,"current_range_meters":3600,"station_id":"","pricing_plan_id":"cebpf4jnsgd1na2vs0mg"},{"bike_id":"78ce74bc-8c9d-4008-acf1-b127bfc6a372","system_id":"levelo_inurba_marseille","lat":43.29758,"lon":5.42783,"is_reserved":false,"is_disabled":false,"rental_uris":{"android":"levelo://app?vid=78ce74bc-8c9d-4008-acf1-b127bfc6a372","ios":"levelo://app?vid=78ce74bc-8c9d-4008-acf1-b127bfc6a372"},"vehicle_type_id":"4","last_reported":1774845364,"current_range_meters":4000,"station_id":"st_d3md5207bmas73dh9klg","pricing_plan_id":"cebpf4jnsgd1na2vs0mg"},{"bike_id":"261ccea0-60fa-4ed1-84b8-9968bb71682c","system_id":"levelo_inurba_marseille","lat":43.24653,"lon":5.38933,"is_reserved":false,"is_disabled":false,"rental_uris":{"android":"levelo://app?vid=261ccea0-60fa-4ed1-84b8-9968bb71682c","ios":"levelo://app?vid=261ccea0-60fa-4ed1-84b8-9968bb71682c"},"vehicle_type_id":"4","last_reported":1774845364,"current_range_meters":4000,"station_id":"ce4bhg12rcd13ifvqf60","pricing_plan_id":"cebpf4jnsgd1na2vs0mg"},{"bike_id":"2d11b629-e1af-45ee-ac34-e7f968e4bac5","system_id":"levelo_inurba_marseille","lat":43.26167,"lon":5.40452,"is_reserved":false,"is_disabled":false,"rental_uris":{"android":"levelo://app?vid=2d11b629-e1af-45ee-ac34-e7f968e4bac5","ios":"levelo://app?vid=2d11b629-e1af-45ee-ac34-e7f968e4bac5"},"vehicle_type_id":"4","last_reported":1774845364,"current_range_meters":4000,"station_id":"ce4bhmh2rcd13ifvqgmg","pricing_plan_id":"cebpf4jnsgd1na2vs0mg"},{"bike_id":"b05e7133-d840-46d0-b4cd-ef4cc0d5281e","system_id":"levelo_inurba_marseille","lat":43.29554,"lon":5.42281,"is_reserved":false,"is_disabled":false,"rental_uris":{"android":"levelo://app?vid=b05e7133-d840-46d0-b4cd-ef4cc0d5281e","ios":"levelo://app?vid=b05e7133-d840-46d0-b4cd-ef4cc0d5281e"},"vehicle_type_id":"4","last_reported":1774845364,"current_range_meters":4000,"station_id":"ce4bhph2rcd13ifvqhdg","pricing_plan_id":"cebpf4jnsgd1na2vs0mg"},{"bike_id":"07859429-a07e-4a2a-b04e-538693cf7e0c","system_id":"levelo_inurba_marseille","lat":43.31266,"lon":5.3782,"is_reserved":false,"is_disabled":false,"rental_uris":{"android":"levelo://app?vid=07859429-a07e-4a2a-b04e-538693cf7e0c","ios":"levelo://app?vid=07859429-a07e-4a2a-b04e-538693cf7e0c"},"vehicle_type_id":"4","last_reported":1774845364,"current_range_meters":4000,"station_id":"","pricing_plan_id":"cebpf4jnsgd1na2vs0mg"},{"bike_id":"1dc13fe4-d778-4641-b3dc-53badbf283e2","system_id":"levelo_inurba_marseille","lat":43.31174,"lon":5.38709,"is_reserved":false,"is_disabled":false,"rental_uris":{"android":"levelo://app?vid=1dc13fe4-d778-4641-b3dc-53badbf283e2","ios":"levelo://app?vid=1dc13fe4-d778-4641-b3dc-53badbf283e2"},"vehicle_type_id":"4","last_reported":1774845364,"current_range_meters":4000,"station_id":"ce4bgv12rcd13ifvqcp0","pricing_plan_id":"cebpf4jnsgd1na2vs0mg"},{"bike_id":"826ba99b-4dd1-40aa-baaa-81646a9b18f1","system_id":"levelo_inurba_marseille","lat":43.30462,"lon":5.37912,"is_reserved":false,"is_disabled":false,"rental_uris":{"android":"levelo://app?vid=826ba99b-4dd1-40aa-baaa-81646a9b18f1","ios":"levelo://app?vid=826ba99b-4dd1-40aa-baaa-81646a9b18f1"},"vehicle_type_id":"4","last_reported":1774845364,"current_range_meters":4000,"station_id":"ce4bgup2rcd13ifvqcn0","pricing_plan_id":"cebpf4jnsgd1na2vs0mg"},{"bike_id":"a71e8aa4-748e-4885-bc6a-7187b068da32","system_id":"levelo_inurba_marseille","lat":43.25724,"lon":5.38727,"is_reserved":false,"is_disabled":false,"rental_uris":{"android":"levelo://app?vid=a71e8aa4-748e-4885-bc6a-7187b068da32","ios":"levelo://app?vid=a71e8aa4-748e-4885-bc6a-7187b068da32"},"vehicle_type_id":"4","last_reported":1774845364,"current_range_meters":4000,"station_id":"","pricing_plan_id":"cebpf4jnsgd1na2vs0mg"},{"bike_id":"66d254d0-51bb-47f4-a5e5-02f7ce5c1b76","system_id":"levelo_inurba_marseille","lat":43.23956,"lon":5.36642,"is_reserved":false,"is_disabled":false,"rental_uris":{"android":"levelo://app?vid=66d254d0-51bb-47f4-a5e5-02f7ce5c1b76","ios":"levelo://app?vid=66d254d0-51bb-47f4-a5e5-02f7ce5c1b76"},"vehicle_type_id":"4","last_reported":1774845364,"current_range_meters":4000,"station_id":"ce4bhi12rcd13ifvqfp0","pricing_plan_id":"cebpf4jnsgd1na2vs0mg"},{"bike_id":"db3a9992-bfef-472a-8794-94f36b394631","system_id":"levelo_inurba_marseille","lat":43.26195,"lon":5.3745,"is_reserved":false,"is_disabled":false,"rental_uris":{"android":"levelo://app?vid=db3a9992-bfef-472a-8794-94f36b394631","ios":"levelo://app?vid=db3a9992-bfef-472a-8794-94f36b394631"},"vehicle_type_id":"4","last_reported":1774845364,"current_range_meters":4000,"station_id":"ce4bhgp2rcd13ifvqfc0","pricing_plan_id":"cebpf4jnsgd1na2vs0mg"},{"bike_id":"3f751f77-71f3-4d1b-af2e-71ef47bf1238","system_id":"levelo_inurba_marseille","lat":43.23814,"lon":5.36649,"is_reserved":false,"is_disabled":false,"rental_uris":{"android":"levelo://app?vid=3f751f77-71f3-4d1b-af2e-71ef47bf1238","ios":"levelo://app?vid=3f751f77-71f3-4d1b-af2e-71ef47bf1238"},"vehicle_type_id":"4","last_reported":1774845364,"current_range_meters":4000,"station_id":"st_d3nk18o9ro0c73en2l3g","pricing_plan_id":"cebpf4jnsgd1na2vs0mg"},{"bike_id":"c828249b-9481-443c-a23e-68bb613b0dfd","system_id":"levelo_inurba_marseille","lat":43.24171,"lon":5.39736,"is_reserved":false,"is_disabled":false,"rental_uris":{"android":"levelo://app?vid=c828249b-9481-443c-a23e-68bb613b0dfd","ios":"levelo://app?vid=c828249b-9481-443c-a23e-68bb613b0dfd"},"vehicle_type_id":"4","last_reported":1774845364,"current_range_meters":4000,"station_id":"ce4bhn12rcd13ifvqgpg","pricing_plan_id":"cebpf4jnsgd1na2vs0mg"},{"bike_id":"f0cdc608-572a-4bce-8bdf-b72600f2d847","system_id":"levelo_inurba_marseille","lat":43.29533,"lon":5.38548,"is_reserved":false,"is_disabled":false,"rental_uris":{"android":"levelo://app?vid=f0cdc608-572a-4bce-8bdf-b72600f2d847","ios":"levelo://app?vid=f0cdc608-572a-4bce-8bdf-b72600f2d847"},"vehicle_type_id":"4","last_reported":1774845364,"current_range_meters":4000,"station_id":"","pricing_plan_id":"cebpf4jnsgd1na2vs0mg"},{"bike_id":"3459e939-3bf6-4530-91d0-30c6caa2e081","system_id":"levelo_inurba_marseille","lat":43.23888,"lon":5.37475,"is_reserved":false,"is_disabled":false,"rental_uris":{"android":"levelo://app?vid=3459e939-3bf6-4530-91d0-30c6caa2e081","ios":"levelo://app?vid=3459e939-3bf6-4530-91d0-30c6caa2e081"},"vehicle_type_id":"4","last_reported":1774845364,"current_range_meters":4400,"station_id":"st_d6sm7csbq4hs73f8fpjg","pricing_plan_id":"cebpf4jnsgd1na2vs0mg"},{"bike_id":"172803f2-09bc-4b50-8460-4442ac3a6063","system_id":"levelo_inurba_marseille","lat":43.29811,"lon":5.44082,"is_reserved":false,"is_disabled":false,"rental_uris":{"android":"levelo://app?vid=172803f2-09bc-4b50-8460-4442ac3a6063","ios":"levelo://app?vid=172803f2-09bc-4b50-8460-4442ac3a6063"},"vehicle_type_id":"4","last_reported":1774845364,"current_range_meters":4400,"station_id":"st_d3jp68qikq2c7381ktn0","pricing_plan_id":"cebpf4jnsgd1na2vs0mg"},{"bike_id":"1fa9873a-d1a0-49f0-af90-1ef5ccbbd7b4","system_id":"levelo_inurba_marseille","lat":43.2468,"lon":5.38139,"is_reserved":false,"is_disabled":false,"rental_uris":{"android":"levelo://app?vid=1fa9873a-d1a0-49f0-af90-1ef5ccbbd7b4","ios":"levelo://app?vid=1fa9873a-d1a0-49f0-af90-1ef5ccbbd7b4"},"vehicle_type_id":"4","last_reported":1774845364,"current_range_meters":4400,"station_id":"ce4bhih2rcd13ifvqfr0","pricing_plan_id":"cebpf4jnsgd1na2vs0mg"},{"bike_id":"3830353f-e06a-4171-811a-43cc5cb9fe5e","system_id":"levelo_inurba_marseille","lat":43.27801,"lon":5.40733,"is_reserved":false,"is_disabled":false,"rental_uris":{"android":"levelo://app?vid=3830353f-e06a-4171-811a-43cc5cb9fe5e","ios":"levelo://app?vid=3830353f-e06a-4171-811a-43cc5cb9fe5e"},"vehicle_type_id":"4","last_reported":1774845364,"current_range_meters":4400,"station_id":"ce4bhnh2rcd13ifvqgtg","pricing_plan_id":"cebpf4jnsgd1na2vs0mg"},{"bike_id":"4e7f29d2-357a-487f-8923-aaf06a756027","system_id":"levelo_inurba_marseille","lat":43.28472,"lon":5.48394,"is_reserved":false,"is_disabled":false,"rental_uris":{"android":"levelo://app?vid=4e7f29d2-357a-487f-8923-aaf06a756027","ios":"levelo://app?vid=4e7f29d2-357a-487f-8923-aaf06a756027"},"vehicle_type_id":"4","last_reported":1774845364,"current_range_meters":4400,"station_id":"","pricing_plan_id":"cebpf4jnsgd1na2vs0mg"},{"bike_id":"5b22f4aa-ee78-4fad-8e5e-5d6f7f7d67ee","system_id":"levelo_inurba_marseille","lat":43.302592,"lon":5.400803,"is_reserved":false,"is_disabled":false,"rental_uris":{"android":"levelo://app?vid=5b22f4aa-ee78-4fad-8e5e-5d6f7f7d67ee","ios":"levelo://app?vid=5b22f4aa-ee78-4fad-8e5e-5d6f7f7d67ee"},"vehicle_type_id":"4","last_reported":1774845364,"current_range_meters":4400,"station_id":"ce4bgt92rcd13ifvqcg0","pricing_plan_id":"cebpf4jnsgd1na2vs0mg"},{"bike_id":"d5d8b5a6-4c71-4feb-ac49-e94e204b862d","system_id":"levelo_inurba_marseille","lat":43.23062,"lon":5.35512,"is_reserved":false,"is_disabled":false,"rental_uris":{"android":"levelo://app?vid=d5d8b5a6-4c71-4feb-ac49-e94e204b862d","ios":"levelo://app?vid=d5d8b5a6-4c71-4feb-ac49-e94e204b862d"},"vehicle_type_id":"4","last_reported":1774845364,"current_range_meters":4400,"station_id":"cpo3342slgdg3j2ifvpg","pricing_plan_id":"cebpf4jnsgd1na2vs0mg"},{"bike_id":"f1aebeeb-2874-4cdc-a17f-f252c2b869b4","system_id":"levelo_inurba_marseille","lat":43.25077,"lon":5.39538,"is_reserved":false,"is_disabled":false,"rental_uris":{"android":"levelo://app?vid=f1aebeeb-2874-4cdc-a17f-f252c2b869b4","ios":"levelo://app?vid=f1aebeeb-2874-4cdc-a17f-f252c2b869b4"},"vehicle_type_id":"4","last_reported":1774845364,"current_range_meters":4400,"station_id":"ce4bhm12rcd13ifvqgkg","pricing_plan_id":"cebpf4jnsgd1na2vs0mg"},{"bike_id":"f6303ccb-bbe7-481e-a58c-d59ed2df406a","system_id":"levelo_inurba_marseille","lat":43.27845,"lon":5.39208,"is_reserved":false,"is_disabled":false,"rental_uris":{"android":"levelo://app?vid=f6303ccb-bbe7-481e-a58c-d59ed2df406a","ios":"levelo://app?vid=f6303ccb-bbe7-481e-a58c-d59ed2df406a"},"vehicle_type_id":"4","last_reported":1774845364,"current_range_meters":4800,"station_id":"ce4bhjp2rcd13ifvqga0","pricing_plan_id":"cebpf4jnsgd1na2vs0mg"},{"bike_id":"84c713b7-0b63-4bb8-a6ee-a50270e8a2cc","system_id":"levelo_inurba_marseille","lat":43.29531,"lon":5.38666,"is_reserved":false,"is_disabled":false,"rental_uris":{"android":"levelo://app?vid=84c713b7-0b63-4bb8-a6ee-a50270e8a2cc","ios":"levelo://app?vid=84c713b7-0b63-4bb8-a6ee-a50270e8a2cc"},"vehicle_type_id":"4","last_reported":1774845364,"current_range_meters":4800,"station_id":"","pricing_plan_id":"cebpf4jnsgd1na2vs0mg"},{"bike_id":"2670e006-59ab-4ccd-b7ec-c10db9dd24a8","system_id":"levelo_inurba_marseille","lat":43.24949,"lon":5.40491,"is_reserved":false,"is_disabled":false,"rental_uris":{"android":"levelo://app?vid=2670e006-59ab-4ccd-b7ec-c10db9dd24a8","ios":"levelo://app?vid=2670e006-59ab-4ccd-b7ec-c10db9dd24a8"},"vehicle_type_id":"4","last_reported":1774845364,"current_range_meters":4800,"station_id":"st_d2ngiaodas8pm72gd1h0","pricing_plan_id":"cebpf4jnsgd1na2vs0mg"},{"bike_id":"596caf79-ed27-4ba3-8aa6-ef47ae734c33","system_id":"levelo_inurba_marseille","lat":43.21203,"lon":5.35083,"is_reserved":false,"is_disabled":false,"rental_uris":{"android":"levelo://app?vid=596caf79-ed27-4ba3-8aa6-ef47ae734c33","ios":"levelo://app?vid=596caf79-ed27-4ba3-8aa6-ef47ae734c33"},"vehicle_type_id":"4","last_reported":1774845364,"current_range_meters":4800,"station_id":"st_cvj6sg6p6f1abm77japg","pricing_plan_id":"cebpf4jnsgd1na2vs0mg"},{"bike_id":"9a1e331d-1d6d-423e-90aa-210c6d33f5be","system_id":"levelo_inurba_marseille","lat":43.33269,"lon":5.37919,"is_reserved":false,"is_disabled":false,"rental_uris":{"android":"levelo://app?vid=9a1e331d-1d6d-423e-90aa-210c6d33f5be","ios":"levelo://app?vid=9a1e331d-1d6d-423e-90aa-210c6d33f5be"},"vehicle_type_id":"4","last_reported":1774845364,"current_range_meters":4800,"station_id":"","pricing_plan_id":"cebpf4jnsgd1na2vs0mg"},{"bike_id":"ca3ba7e3-bfab-4acb-a98b-9a67abde6b86","system_id":"levelo_inurba_marseille","lat":43.24537,"lon":5.39534,"is_reserved":false,"is_disabled":false,"rental_uris":{"android":"levelo://app?vid=ca3ba7e3-bfab-4acb-a98b-9a67abde6b86","ios":"levelo://app?vid=ca3ba7e3-bfab-4acb-a98b-9a67abde6b86"},"vehicle_type_id":"4","last_reported":1774845364,"current_range_meters":4800,"station_id":"ce4bhlp2rcd13ifvqgjg","pricing_plan_id":"cebpf4jnsgd1na2vs0mg"},{"bike_id":"a23fd470-bf8d-4234-bfae-c30d2f6a6b7d","system_id":"levelo_inurba_marseille","lat":43.27995,"lon":5.36931,"is_reserved":false,"is_disabled":false,"rental_uris":{"android":"levelo://app?vid=a23fd470-bf8d-4234-bfae-c30d2f6a6b7d","ios":"levelo://app?vid=a23fd470-bf8d-4234-bfae-c30d2f6a6b7d"},"vehicle_type_id":"4","last_reported":1774845364,"current_range_meters":4800,"station_id":"ce4bha12rcd13ifvqef0","pricing_plan_id":"cebpf4jnsgd1na2vs0mg"},{"bike_id":"500e0bd3-d9be-4236-9db6-98b3b02bd769","system_id":"levelo_inurba_marseille","lat":43.29958,"lon":5.38505,"is_reserved":false,"is_disabled":true,"rental_uris":{"android":"levelo://app?vid=500e0bd3-d9be-4236-9db6-98b3b02bd769","ios":"levelo://app?vid=500e0bd3-d9be-4236-9db6-98b3b02bd769"},"vehicle_type_id":"4","last_reported":1774845364,"current_range_meters":4800,"station_id":"ce4bgj92rcd13ifvqbd0","pricing_plan_id":"cebpf4jnsgd1na2vs0mg"},{"bike_id":"9bd73ab3-d94e-41b6-a4c4-301f19cb0898","system_id":"levelo_inurba_marseille","lat":43.30421,"lon":5.39735,"is_reserved":false,"is_disabled":true,"rental_uris":{"android":"levelo://app?vid=9bd73ab3-d94e-41b6-a4c4-301f19cb0898","ios":"levelo://app?vid=9bd73ab3-d94e-41b6-a4c4-301f19cb0898"},"vehicle_type_id":"4","last_reported":1774845364,"current_range_meters":4800,"station_id":"ce4bh092rcd13ifvqd20","pricing_plan_id":"cebpf4jnsgd1na2vs0mg"},{"bike_id":"3822ed89-8aff-49d3-9d3f-72dc30c6b081","system_id":"levelo_inurba_marseille","lat":43.275,"lon":5.42458,"is_reserved":false,"is_disabled":false,"rental_uris":{"android":"levelo://app?vid=3822ed89-8aff-49d3-9d3f-72dc30c6b081","ios":"levelo://app?vid=3822ed89-8aff-49d3-9d3f-72dc30c6b081"},"vehicle_type_id":"4","last_reported":1774845364,"current_range_meters":4800,"station_id":"ce4bhn92rcd13ifvqgrg","pricing_plan_id":"cebpf4jnsgd1na2vs0mg"},{"bike_id":"c047e11f-efa0-4d1b-800d-8f96fe9b3cc9","system_id":"levelo_inurba_marseille","lat":43.28601,"lon":5.39904,"is_reserved":false,"is_disabled":false,"rental_uris":{"android":"levelo://app?vid=c047e11f-efa0-4d1b-800d-8f96fe9b3cc9","ios":"levelo://app?vid=c047e11f-efa0-4d1b-800d-8f96fe9b3cc9"},"vehicle_type_id":"4","last_reported":1774845364,"current_range_meters":4800,"station_id":"st_d4a7ka997mjs738ck50g","pricing_plan_id":"cebpf4jnsgd1na2vs0mg"},{"bike_id":"28af8d2b-5bac-433a-894a-9e17123ae234","system_id":"levelo_inurba_marseille","lat":43.28543,"lon":5.44096,"is_reserved":false,"is_disabled":false,"rental_uris":{"android":"levelo://app?vid=28af8d2b-5bac-433a-894a-9e17123ae234","ios":"levelo://app?vid=28af8d2b-5bac-433a-894a-9e17123ae234"},"vehicle_type_id":"4","last_reported":1774845364,"current_range_meters":4800,"station_id":"st_d3j3df2ikq2c7380ej80","pricing_plan_id":"cebpf4jnsgd1na2vs0mg"},{"bike_id":"0828e3a5-562e-4f9b-b21c-2997e3be505b","system_id":"levelo_inurba_marseille","lat":43.28412,"lon":5.35002,"is_reserved":false,"is_disabled":false,"rental_uris":{"android":"levelo://app?vid=0828e3a5-562e-4f9b-b21c-2997e3be505b","ios":"levelo://app?vid=0828e3a5-562e-4f9b-b21c-2997e3be505b"},"vehicle_type_id":"4","last_reported":1774845364,"current_range_meters":4800,"station_id":"ce4bhbh2rcd13ifvqepg","pricing_plan_id":"cebpf4jnsgd1na2vs0mg"},{"bike_id":"0c7b749c-be4c-4fcd-bb57-c9b3466e9c42","system_id":"levelo_inurba_marseille","lat":43.30356,"lon":5.41896,"is_reserved":false,"is_disabled":false,"rental_uris":{"android":"levelo://app?vid=0c7b749c-be4c-4fcd-bb57-c9b3466e9c42","ios":"levelo://app?vid=0c7b749c-be4c-4fcd-bb57-c9b3466e9c42"},"vehicle_type_id":"4","last_reported":1774845364,"current_range_meters":4800,"station_id":"ce4bhop2rcd13ifvqh7g","pricing_plan_id":"cebpf4jnsgd1na2vs0mg"},{"bike_id":"41afc273-963e-45e1-a1be-f2a593b52cc3","system_id":"levelo_inurba_marseille","lat":43.32662,"lon":5.4099,"is_reserved":false,"is_disabled":false,"rental_uris":{"android":"levelo://app?vid=41afc273-963e-45e1-a1be-f2a593b52cc3","ios":"levelo://app?vid=41afc273-963e-45e1-a1be-f2a593b52cc3"},"vehicle_type_id":"4","last_reported":1774845364,"current_range_meters":4800,"station_id":"ce4bhpp2rcd13ifvqhgg","pricing_plan_id":"cebpf4jnsgd1na2vs0mg"},{"bike_id":"9b040b50-8e07-483a-bf29-317765646645","system_id":"levelo_inurba_marseille","lat":43.23968,"lon":5.36632,"is_reserved":false,"is_disabled":false,"rental_uris":{"android":"levelo://app?vid=9b040b50-8e07-483a-bf29-317765646645","ios":"levelo://app?vid=9b040b50-8e07-483a-bf29-317765646645"},"vehicle_type_id":"4","last_reported":1774845364,"current_range_meters":4800,"station_id":"ce4bhi12rcd13ifvqfp0","pricing_plan_id":"cebpf4jnsgd1na2vs0mg"},{"bike_id":"340ca0e2-d009-4e4f-9ed1-daa5947a0e52","system_id":"levelo_inurba_marseille","lat":43.28442,"lon":5.35927,"is_reserved":false,"is_disabled":false,"rental_uris":{"android":"levelo://app?vid=340ca0e2-d009-4e4f-9ed1-daa5947a0e52","ios":"levelo://app?vid=340ca0e2-d009-4e4f-9ed1-daa5947a0e52"},"vehicle_type_id":"4","last_reported":1774845364,"current_range_meters":4800,"station_id":"","pricing_plan_id":"cebpf4jnsgd1na2vs0mg"},{"bike_id":"685f86b4-f2d8-418a-a33a-b91fe56061bd","system_id":"levelo_inurba_marseille","lat":43.26543,"lon":5.37255,"is_reserved":false,"is_disabled":false,"rental_uris":{"android":"levelo://app?vid=685f86b4-f2d8-418a-a33a-b91fe56061bd","ios":"levelo://app?vid=685f86b4-f2d8-418a-a33a-b91fe56061bd"},"vehicle_type_id":"4","last_reported":1774845364,"current_range_meters":4800,"station_id":"ce4bhg12rcd13ifvqf70","pricing_plan_id":"cebpf4jnsgd1na2vs0mg"},{"bike_id":"aa1c29f1-4185-4fd6-8ba3-e9194ce43170","system_id":"levelo_inurba_marseille","lat":43.30142,"lon":5.39848,"is_reserved":false,"is_disabled":true,"rental_uris":{"android":"levelo://app?vid=aa1c29f1-4185-4fd6-8ba3-e9194ce43170","ios":"levelo://app?vid=aa1c29f1-4185-4fd6-8ba3-e9194ce43170"},"vehicle_type_id":"4","last_reported":1774845364,"current_range_meters":5600,"station_id":"ce4bh0h2rcd13ifvqd40","pricing_plan_id":"cebpf4jnsgd1na2vs0mg"},{"bike_id":"d238cc42-b9be-417c-8554-da52e4baa848","system_id":"levelo_inurba_marseille","lat":43.2417,"lon":5.36396,"is_reserved":false,"is_disabled":false,"rental_uris":{"android":"levelo://app?vid=d238cc42-b9be-417c-8554-da52e4baa848","ios":"levelo://app?vid=d238cc42-b9be-417c-8554-da52e4baa848"},"vehicle_type_id":"4","last_reported":1774845364,"current_range_meters":5600,"station_id":"cpo36qri1sfpv3e86is0","pricing_plan_id":"cebpf4jnsgd1na2vs0mg"},{"bike_id":"4518d333-ae46-4f3f-82be-3d499b7bb7d5","system_id":"levelo_inurba_marseille","lat":43.23378,"lon":5.41223,"is_reserved":false,"is_disabled":true,"rental_uris":{"android":"levelo://app?vid=4518d333-ae46-4f3f-82be-3d499b7bb7d5","ios":"levelo://app?vid=4518d333-ae46-4f3f-82be-3d499b7bb7d5"},"vehicle_type_id":"4","last_reported":1774845364,"current_range_meters":5600,"station_id":"","pricing_plan_id":"cebpf4jnsgd1na2vs0mg"},{"bike_id":"56aa2b32-e01e-42c0-ac20-7596f8f8c60e","system_id":"levelo_inurba_marseille","lat":43.26543,"lon":5.37287,"is_reserved":false,"is_disabled":true,"rental_uris":{"android":"levelo://app?vid=56aa2b32-e01e-42c0-ac20-7596f8f8c60e","ios":"levelo://app?vid=56aa2b32-e01e-42c0-ac20-7596f8f8c60e"},"vehicle_type_id":"4","last_reported":1774845364,"current_range_meters":5600,"station_id":"ce4bhg12rcd13ifvqf70","pricing_plan_id":"cebpf4jnsgd1na2vs0mg"},{"bike_id":"f98be790-e449-4ac6-a0a2-cfe8bdab84c9","system_id":"levelo_inurba_marseille","lat":43.237879,"lon":5.414489,"is_reserved":false,"is_disabled":false,"rental_uris":{"android":"levelo://app?vid=f98be790-e449-4ac6-a0a2-cfe8bdab84c9","ios":"levelo://app?vid=f98be790-e449-4ac6-a0a2-cfe8bdab84c9"},"vehicle_type_id":"4","last_reported":1774845364,"current_range_meters":5600,"station_id":"","pricing_plan_id":"cebpf4jnsgd1na2vs0mg"},{"bike_id":"b8ec0b9a-6353-4141-ad88-1aae2c10ae31","system_id":"levelo_inurba_marseille","lat":43.29077,"lon":5.43088,"is_reserved":false,"is_disabled":false,"rental_uris":{"android":"levelo://app?vid=b8ec0b9a-6353-4141-ad88-1aae2c10ae31","ios":"levelo://app?vid=b8ec0b9a-6353-4141-ad88-1aae2c10ae31"},"vehicle_type_id":"4","last_reported":1774845364,"current_range_meters":5600,"station_id":"","pricing_plan_id":"cebpf4jnsgd1na2vs0mg"},{"bike_id":"0beeb1a7-3c04-43a2-a7f8-69beb8048854","system_id":"levelo_inurba_marseille","lat":43.2468,"lon":5.38154,"is_reserved":false,"is_disabled":false,"rental_uris":{"android":"levelo://app?vid=0beeb1a7-3c04-43a2-a7f8-69beb8048854","ios":"levelo://app?vid=0beeb1a7-3c04-43a2-a7f8-69beb8048854"},"vehicle_type_id":"4","last_reported":1774845364,"current_range_meters":5600,"station_id":"ce4bhih2rcd13ifvqfr0","pricing_plan_id":"cebpf4jnsgd1na2vs0mg"},{"bike_id":"f3dc6696-e61b-4b66-bcd1-e83bcf1e9bcc","system_id":"levelo_inurba_marseille","lat":43.30601,"lon":5.37142,"is_reserved":false,"is_disabled":true,"rental_uris":{"android":"levelo://app?vid=f3dc6696-e61b-4b66-bcd1-e83bcf1e9bcc","ios":"levelo://app?vid=f3dc6696-e61b-4b66-bcd1-e83bcf1e9bcc"},"vehicle_type_id":"4","last_reported":1774845364,"current_range_meters":5600,"station_id":"","pricing_plan_id":"cebpf4jnsgd1na2vs0mg"},{"bike_id":"c4a42eb8-878c-43b3-abfb-24d01623cc20","system_id":"levelo_inurba_marseille","lat":43.28572,"lon":5.3951,"is_reserved":false,"is_disabled":false,"rental_uris":{"android":"levelo://app?vid=c4a42eb8-878c-43b3-abfb-24d01623cc20","ios":"levelo://app?vid=c4a42eb8-878c-43b3-abfb-24d01623cc20"},"vehicle_type_id":"4","last_reported":1774845364,"current_range_meters":5600,"station_id":"ce4bh292rcd13ifvqdg0","pricing_plan_id":"cebpf4jnsgd1na2vs0mg"},{"bike_id":"d4ac0334-4fd3-41d1-a329-ac68de885b13","system_id":"levelo_inurba_marseille","lat":43.22562,"lon":5.41621,"is_reserved":false,"is_disabled":false,"rental_uris":{"android":"levelo://app?vid=d4ac0334-4fd3-41d1-a329-ac68de885b13","ios":"levelo://app?vid=d4ac0334-4fd3-41d1-a329-ac68de885b13"},"vehicle_type_id":"4","last_reported":1774845364,"current_range_meters":5600,"station_id":"st_d2o4gvlbi1j2169b742g","pricing_plan_id":"cebpf4jnsgd1na2vs0mg"},{"bike_id":"2e2f6f92-a6a4-45c0-97c3-957e3d8f2b5d","system_id":"levelo_inurba_marseille","lat":43.29358,"lon":5.38324,"is_reserved":false,"is_disabled":false,"rental_uris":{"android":"levelo://app?vid=2e2f6f92-a6a4-45c0-97c3-957e3d8f2b5d","ios":"levelo://app?vid=2e2f6f92-a6a4-45c0-97c3-957e3d8f2b5d"},"vehicle_type_id":"4","last_reported":1774845364,"current_range_meters":6000,"station_id":"","pricing_plan_id":"cebpf4jnsgd1na2vs0mg"},{"bike_id":"d1c64fed-7130-47a8-9b17-de78bfda06d9","system_id":"levelo_inurba_marseille","lat":43.23753,"lon":5.36634,"is_reserved":false,"is_disabled":false,"rental_uris":{"android":"levelo://app?vid=d1c64fed-7130-47a8-9b17-de78bfda06d9","ios":"levelo://app?vid=d1c64fed-7130-47a8-9b17-de78bfda06d9"},"vehicle_type_id":"4","last_reported":1774845364,"current_range_meters":6000,"station_id":"st_d3nk18o9ro0c73en2l3g","pricing_plan_id":"cebpf4jnsgd1na2vs0mg"},{"bike_id":"088da119-456d-443e-9875-26e5da35283c","system_id":"levelo_inurba_marseille","lat":43.212,"lon":5.35085,"is_reserved":false,"is_disabled":false,"rental_uris":{"android":"levelo://app?vid=088da119-456d-443e-9875-26e5da35283c","ios":"levelo://app?vid=088da119-456d-443e-9875-26e5da35283c"},"vehicle_type_id":"4","last_reported":1774845364,"current_range_meters":6000,"station_id":"st_cvj6sg6p6f1abm77japg","pricing_plan_id":"cebpf4jnsgd1na2vs0mg"},{"bike_id":"ce7a3b24-907c-4d1b-affa-a23d750b357b","system_id":"levelo_inurba_marseille","lat":43.28475,"lon":5.48394,"is_reserved":false,"is_disabled":false,"rental_uris":{"android":"levelo://app?vid=ce7a3b24-907c-4d1b-affa-a23d750b357b","ios":"levelo://app?vid=ce7a3b24-907c-4d1b-affa-a23d750b357b"},"vehicle_type_id":"4","last_reported":1774845364,"current_range_meters":6000,"station_id":"","pricing_plan_id":"cebpf4jnsgd1na2vs0mg"},{"bike_id":"e8cb18d8-1065-49ec-b1d9-217635f90878","system_id":"levelo_inurba_marseille","lat":43.32563,"lon":5.36552,"is_reserved":false,"is_disabled":true,"rental_uris":{"android":"levelo://app?vid=e8cb18d8-1065-49ec-b1d9-217635f90878","ios":"levelo://app?vid=e8cb18d8-1065-49ec-b1d9-217635f90878"},"vehicle_type_id":"4","last_reported":1774845364,"current_range_meters":6000,"station_id":"","pricing_plan_id":"cebpf4jnsgd1na2vs0mg"},{"bike_id":"44fcd759-9a56-46a2-bd02-832413de512d","system_id":"levelo_inurba_marseille","lat":43.30866,"lon":5.3966,"is_reserved":false,"is_disabled":false,"rental_uris":{"android":"levelo://app?vid=44fcd759-9a56-46a2-bd02-832413de512d","ios":"levelo://app?vid=44fcd759-9a56-46a2-bd02-832413de512d"},"vehicle_type_id":"4","last_reported":1774845364,"current_range_meters":6000,"station_id":"ce4bh012rcd13ifvqcv0","pricing_plan_id":"cebpf4jnsgd1na2vs0mg"},{"bike_id":"5e0f5a9b-6e61-40f8-a65d-d82896d97f13","system_id":"levelo_inurba_marseille","lat":43.28399,"lon":5.34996,"is_reserved":false,"is_disabled":false,"rental_uris":{"android":"levelo://app?vid=5e0f5a9b-6e61-40f8-a65d-d82896d97f13","ios":"levelo://app?vid=5e0f5a9b-6e61-40f8-a65d-d82896d97f13"},"vehicle_type_id":"4","last_reported":1774845364,"current_range_meters":6000,"station_id":"ce4bhbh2rcd13ifvqepg","pricing_plan_id":"cebpf4jnsgd1na2vs0mg"},{"bike_id":"3534d08f-465c-4a90-8e08-626d07bffbf2","system_id":"levelo_inurba_marseille","lat":43.24658,"lon":5.38162,"is_reserved":false,"is_disabled":false,"rental_uris":{"android":"levelo://app?vid=3534d08f-465c-4a90-8e08-626d07bffbf2","ios":"levelo://app?vid=3534d08f-465c-4a90-8e08-626d07bffbf2"},"vehicle_type_id":"4","last_reported":1774845364,"current_range_meters":6000,"station_id":"ce4bhih2rcd13ifvqfr0","pricing_plan_id":"cebpf4jnsgd1na2vs0mg"},{"bike_id":"a64725f4-473a-4192-84f8-9b61128ead78","system_id":"levelo_inurba_marseille","lat":43.21754,"lon":5.34606,"is_reserved":false,"is_disabled":false,"rental_uris":{"android":"levelo://app?vid=a64725f4-473a-4192-84f8-9b61128ead78","ios":"levelo://app?vid=a64725f4-473a-4192-84f8-9b61128ead78"},"vehicle_type_id":"4","last_reported":1774845364,"current_range_meters":6000,"station_id":"st_cvj6r9ubvosntc0bgbag","pricing_plan_id":"cebpf4jnsgd1na2vs0mg"},{"bike_id":"7ff5e948-0e94-496d-8b12-67c7c2774e67","system_id":"levelo_inurba_marseille","lat":43.28541,"lon":5.4409,"is_reserved":false,"is_disabled":false,"rental_uris":{"android":"levelo://app?vid=7ff5e948-0e94-496d-8b12-67c7c2774e67","ios":"levelo://app?vid=7ff5e948-0e94-496d-8b12-67c7c2774e67"},"vehicle_type_id":"4","last_reported":1774845364,"current_range_meters":6400,"station_id":"st_d3j3df2ikq2c7380ej80","pricing_plan_id":"cebpf4jnsgd1na2vs0mg"},{"bike_id":"269e11d0-db63-4c3e-b7cc-be7639015707","system_id":"levelo_inurba_marseille","lat":43.31163,"lon":5.3873,"is_reserved":false,"is_disabled":false,"rental_uris":{"android":"levelo://app?vid=269e11d0-db63-4c3e-b7cc-be7639015707","ios":"levelo://app?vid=269e11d0-db63-4c3e-b7cc-be7639015707"},"vehicle_type_id":"4","last_reported":1774845364,"current_range_meters":6400,"station_id":"ce4bgv12rcd13ifvqcp0","pricing_plan_id":"cebpf4jnsgd1na2vs0mg"},{"bike_id":"e4c64c7e-715d-4133-a954-c0c0ede6043f","system_id":"levelo_inurba_marseille","lat":43.23893,"lon":5.37669,"is_reserved":false,"is_disabled":false,"rental_uris":{"android":"levelo://app?vid=e4c64c7e-715d-4133-a954-c0c0ede6043f","ios":"levelo://app?vid=e4c64c7e-715d-4133-a954-c0c0ede6043f"},"vehicle_type_id":"4","last_reported":1774845364,"current_range_meters":6400,"station_id":"","pricing_plan_id":"cebpf4jnsgd1na2vs0mg"},{"bike_id":"2646a24a-8789-4505-bd9c-a60cb74fd735","system_id":"levelo_inurba_marseille","lat":43.24798,"lon":5.37467,"is_reserved":false,"is_disabled":false,"rental_uris":{"android":"levelo://app?vid=2646a24a-8789-4505-bd9c-a60cb74fd735","ios":"levelo://app?vid=2646a24a-8789-4505-bd9c-a60cb74fd735"},"vehicle_type_id":"4","last_reported":1774845364,"current_range_meters":6400,"station_id":"ce4bhgh2rcd13ifvqfb0","pricing_plan_id":"cebpf4jnsgd1na2vs0mg"},{"bike_id":"02217484-4f32-44c2-b7a8-2ef38d2857a8","system_id":"levelo_inurba_marseille","lat":43.25827,"lon":5.39463,"is_reserved":false,"is_disabled":false,"rental_uris":{"android":"levelo://app?vid=02217484-4f32-44c2-b7a8-2ef38d2857a8","ios":"levelo://app?vid=02217484-4f32-44c2-b7a8-2ef38d2857a8"},"vehicle_type_id":"4","last_reported":1774845364,"current_range_meters":6400,"station_id":"ce4bhip2rcd13ifvqft0","pricing_plan_id":"cebpf4jnsgd1na2vs0mg"},{"bike_id":"90ac62ab-b4be-431f-95a3-55e070159be7","system_id":"levelo_inurba_marseille","lat":43.23392,"lon":5.41254,"is_reserved":false,"is_disabled":false,"rental_uris":{"android":"levelo://app?vid=90ac62ab-b4be-431f-95a3-55e070159be7","ios":"levelo://app?vid=90ac62ab-b4be-431f-95a3-55e070159be7"},"vehicle_type_id":"4","last_reported":1774845364,"current_range_meters":6400,"station_id":"","pricing_plan_id":"cebpf4jnsgd1na2vs0mg"},{"bike_id":"f6894da6-c0c6-48a3-9ef9-ad2ed33d7061","system_id":"levelo_inurba_marseille","lat":43.25076,"lon":5.39526,"is_reserved":false,"is_disabled":false,"rental_uris":{"android":"levelo://app?vid=f6894da6-c0c6-48a3-9ef9-ad2ed33d7061","ios":"levelo://app?vid=f6894da6-c0c6-48a3-9ef9-ad2ed33d7061"},"vehicle_type_id":"4","last_reported":1774845364,"current_range_meters":6400,"station_id":"ce4bhm12rcd13ifvqgkg","pricing_plan_id":"cebpf4jnsgd1na2vs0mg"},{"bike_id":"e4ac35e4-8859-436b-9a81-4c436fcedcff","system_id":"levelo_inurba_marseille","lat":43.28509,"lon":5.44119,"is_reserved":false,"is_disabled":false,"rental_uris":{"android":"levelo://app?vid=e4ac35e4-8859-436b-9a81-4c436fcedcff","ios":"levelo://app?vid=e4ac35e4-8859-436b-9a81-4c436fcedcff"},"vehicle_type_id":"4","last_reported":1774845364,"current_range_meters":6400,"station_id":"st_d3j3df2ikq2c7380ej80","pricing_plan_id":"cebpf4jnsgd1na2vs0mg"},{"bike_id":"710bc4b3-f058-4840-94bd-d40559a26300","system_id":"levelo_inurba_marseille","lat":43.31178,"lon":5.38749,"is_reserved":false,"is_disabled":false,"rental_uris":{"android":"levelo://app?vid=710bc4b3-f058-4840-94bd-d40559a26300","ios":"levelo://app?vid=710bc4b3-f058-4840-94bd-d40559a26300"},"vehicle_type_id":"4","last_reported":1774845364,"current_range_meters":6400,"station_id":"ce4bgv12rcd13ifvqcp0","pricing_plan_id":"cebpf4jnsgd1na2vs0mg"},{"bike_id":"0938e534-478c-4280-9f47-ff70799a655a","system_id":"levelo_inurba_marseille","lat":43.23894,"lon":5.37463,"is_reserved":false,"is_disabled":false,"rental_uris":{"android":"levelo://app?vid=0938e534-478c-4280-9f47-ff70799a655a","ios":"levelo://app?vid=0938e534-478c-4280-9f47-ff70799a655a"},"vehicle_type_id":"4","last_reported":1774845364,"current_range_meters":6400,"station_id":"st_d6sm7csbq4hs73f8fpjg","pricing_plan_id":"cebpf4jnsgd1na2vs0mg"},{"bike_id":"4faad44a-8606-4b83-ac95-f0eb51094fd5","system_id":"levelo_inurba_marseille","lat":43.24068,"lon":5.37765,"is_reserved":false,"is_disabled":false,"rental_uris":{"android":"levelo://app?vid=4faad44a-8606-4b83-ac95-f0eb51094fd5","ios":"levelo://app?vid=4faad44a-8606-4b83-ac95-f0eb51094fd5"},"vehicle_type_id":"4","last_reported":1774845364,"current_range_meters":6400,"station_id":"ce4bhnp2rcd13ifvqgvg","pricing_plan_id":"cebpf4jnsgd1na2vs0mg"},{"bike_id":"ffa89aec-89eb-4989-920b-ef0a8292fd74","system_id":"levelo_inurba_marseille","lat":43.24129,"lon":5.39694,"is_reserved":false,"is_disabled":false,"rental_uris":{"android":"levelo://app?vid=ffa89aec-89eb-4989-920b-ef0a8292fd74","ios":"levelo://app?vid=ffa89aec-89eb-4989-920b-ef0a8292fd74"},"vehicle_type_id":"4","last_reported":1774845364,"current_range_meters":6400,"station_id":"","pricing_plan_id":"cebpf4jnsgd1na2vs0mg"},{"bike_id":"3c6af6b8-93bc-4bab-9da9-cff5b6e5bcba","system_id":"levelo_inurba_marseille","lat":43.30883,"lon":5.39628,"is_reserved":false,"is_disabled":false,"rental_uris":{"android":"levelo://app?vid=3c6af6b8-93bc-4bab-9da9-cff5b6e5bcba","ios":"levelo://app?vid=3c6af6b8-93bc-4bab-9da9-cff5b6e5bcba"},"vehicle_type_id":"4","last_reported":1774845364,"current_range_meters":6800,"station_id":"ce4bh012rcd13ifvqcv0","pricing_plan_id":"cebpf4jnsgd1na2vs0mg"},{"bike_id":"d4f8fd07-c949-49e2-a8c2-7ea985a1dde9","system_id":"levelo_inurba_marseille","lat":43.27801,"lon":5.40715,"is_reserved":false,"is_disabled":false,"rental_uris":{"android":"levelo://app?vid=d4f8fd07-c949-49e2-a8c2-7ea985a1dde9","ios":"levelo://app?vid=d4f8fd07-c949-49e2-a8c2-7ea985a1dde9"},"vehicle_type_id":"4","last_reported":1774845364,"current_range_meters":6800,"station_id":"ce4bhnh2rcd13ifvqgtg","pricing_plan_id":"cebpf4jnsgd1na2vs0mg"},{"bike_id":"49a82a77-f394-42b9-96ce-367ff6c7b517","system_id":"levelo_inurba_marseille","lat":43.30661,"lon":5.40093,"is_reserved":false,"is_disabled":false,"rental_uris":{"android":"levelo://app?vid=49a82a77-f394-42b9-96ce-367ff6c7b517","ios":"levelo://app?vid=49a82a77-f394-42b9-96ce-367ff6c7b517"},"vehicle_type_id":"4","last_reported":1774845364,"current_range_meters":6800,"station_id":"ce4bh112rcd13ifvqda0","pricing_plan_id":"cebpf4jnsgd1na2vs0mg"},{"bike_id":"e027651c-1b58-49be-8465-35e7c80537f6","system_id":"levelo_inurba_marseille","lat":43.28611,"lon":5.35106,"is_reserved":false,"is_disabled":false,"rental_uris":{"android":"levelo://app?vid=e027651c-1b58-49be-8465-35e7c80537f6","ios":"levelo://app?vid=e027651c-1b58-49be-8465-35e7c80537f6"},"vehicle_type_id":"4","last_reported":1774845364,"current_range_meters":6800,"station_id":"ce4bhch2rcd13ifvqeug","pricing_plan_id":"cebpf4jnsgd1na2vs0mg"},{"bike_id":"53663ac0-fb67-4fd6-93fb-505259351e45","system_id":"levelo_inurba_marseille","lat":43.26928,"lon":5.4029,"is_reserved":false,"is_disabled":false,"rental_uris":{"android":"levelo://app?vid=53663ac0-fb67-4fd6-93fb-505259351e45","ios":"levelo://app?vid=53663ac0-fb67-4fd6-93fb-505259351e45"},"vehicle_type_id":"4","last_reported":1774845364,"current_range_meters":6800,"station_id":"cjm6bp8fraef2m0cb0m0","pricing_plan_id":"cebpf4jnsgd1na2vs0mg"},{"bike_id":"215fb887-06ca-4716-9109-47b7d1235915","system_id":"levelo_inurba_marseille","lat":43.29543,"lon":5.39037,"is_reserved":false,"is_disabled":true,"rental_uris":{"android":"levelo://app?vid=215fb887-06ca-4716-9109-47b7d1235915","ios":"levelo://app?vid=215fb887-06ca-4716-9109-47b7d1235915"},"vehicle_type_id":"4","last_reported":1774845364,"current_range_meters":6800,"station_id":"ce4bh3p2rcd13ifvqdp0","pricing_plan_id":"cebpf4jnsgd1na2vs0mg"},{"bike_id":"96b45d31-bef5-4eeb-8979-9268c25a6fe7","system_id":"levelo_inurba_marseille","lat":43.31179,"lon":5.36846,"is_reserved":false,"is_disabled":false,"rental_uris":{"android":"levelo://app?vid=96b45d31-bef5-4eeb-8979-9268c25a6fe7","ios":"levelo://app?vid=96b45d31-bef5-4eeb-8979-9268c25a6fe7"},"vehicle_type_id":"4","last_reported":1774845364,"current_range_meters":6800,"station_id":"","pricing_plan_id":"cebpf4jnsgd1na2vs0mg"},{"bike_id":"1300e63d-fd58-4d12-9c81-8ae805e12074","system_id":"levelo_inurba_marseille","lat":43.28212,"lon":5.39056,"is_reserved":false,"is_disabled":false,"rental_uris":{"android":"levelo://app?vid=1300e63d-fd58-4d12-9c81-8ae805e12074","ios":"levelo://app?vid=1300e63d-fd58-4d12-9c81-8ae805e12074"},"vehicle_type_id":"4","last_reported":1774845364,"current_range_meters":6800,"station_id":"ce4bhn92rcd13ifvqgsg","pricing_plan_id":"cebpf4jnsgd1na2vs0mg"},{"bike_id":"048a6677-1aa6-4015-9e18-3833aa8aea3e","system_id":"levelo_inurba_marseille","lat":43.24662,"lon":5.38135,"is_reserved":false,"is_disabled":false,"rental_uris":{"android":"levelo://app?vid=048a6677-1aa6-4015-9e18-3833aa8aea3e","ios":"levelo://app?vid=048a6677-1aa6-4015-9e18-3833aa8aea3e"},"vehicle_type_id":"4","last_reported":1774845364,"current_range_meters":6800,"station_id":"ce4bhih2rcd13ifvqfr0","pricing_plan_id":"cebpf4jnsgd1na2vs0mg"},{"bike_id":"dc1a1b41-e29e-4a9c-b580-0ecb33f8d6fb","system_id":"levelo_inurba_marseille","lat":43.28955,"lon":5.3664,"is_reserved":false,"is_disabled":false,"rental_uris":{"android":"levelo://app?vid=dc1a1b41-e29e-4a9c-b580-0ecb33f8d6fb","ios":"levelo://app?vid=dc1a1b41-e29e-4a9c-b580-0ecb33f8d6fb"},"vehicle_type_id":"4","last_reported":1774845364,"current_range_meters":6800,"station_id":"ce4bhap2rcd13ifvqek0","pricing_plan_id":"cebpf4jnsgd1na2vs0mg"},{"bike_id":"91eafa08-026f-40c5-b5de-6910a52e733d","system_id":"levelo_inurba_marseille","lat":43.24466,"lon":5.4255,"is_reserved":false,"is_disabled":false,"rental_uris":{"android":"levelo://app?vid=91eafa08-026f-40c5-b5de-6910a52e733d","ios":"levelo://app?vid=91eafa08-026f-40c5-b5de-6910a52e733d"},"vehicle_type_id":"4","last_reported":1774845364,"current_range_meters":6800,"station_id":"st_d4a3vfp97mjs738cd8kg","pricing_plan_id":"cebpf4jnsgd1na2vs0mg"},{"bike_id":"722178ea-9ec4-4a61-a4f3-4a88327f65c6","system_id":"levelo_inurba_marseille","lat":43.32353,"lon":5.36763,"is_reserved":false,"is_disabled":false,"rental_uris":{"android":"levelo://app?vid=722178ea-9ec4-4a61-a4f3-4a88327f65c6","ios":"levelo://app?vid=722178ea-9ec4-4a61-a4f3-4a88327f65c6"},"vehicle_type_id":"4","last_reported":1774845364,"current_range_meters":6800,"station_id":"ce4bhsh2rcd13ifvqi2g","pricing_plan_id":"cebpf4jnsgd1na2vs0mg"},{"bike_id":"97660c46-26b2-45fa-bf6d-c74d45b46c59","system_id":"levelo_inurba_marseille","lat":43.28224,"lon":5.39044,"is_reserved":false,"is_disabled":false,"rental_uris":{"android":"levelo://app?vid=97660c46-26b2-45fa-bf6d-c74d45b46c59","ios":"levelo://app?vid=97660c46-26b2-45fa-bf6d-c74d45b46c59"},"vehicle_type_id":"4","last_reported":1774845364,"current_range_meters":6800,"station_id":"ce4bhn92rcd13ifvqgsg","pricing_plan_id":"cebpf4jnsgd1na2vs0mg"},{"bike_id":"595039b7-ecf6-4cdd-89f8-c3550a1e4524","system_id":"levelo_inurba_marseille","lat":43.25081,"lon":5.39503,"is_reserved":false,"is_disabled":false,"rental_uris":{"android":"levelo://app?vid=595039b7-ecf6-4cdd-89f8-c3550a1e4524","ios":"levelo://app?vid=595039b7-ecf6-4cdd-89f8-c3550a1e4524"},"vehicle_type_id":"4","last_reported":1774845364,"current_range_meters":6800,"station_id":"ce4bhm12rcd13ifvqgkg","pricing_plan_id":"cebpf4jnsgd1na2vs0mg"},{"bike_id":"dc79fefa-d554-4ea7-b0f6-dfb50b76419c","system_id":"levelo_inurba_marseille","lat":43.25815,"lon":5.39446,"is_reserved":false,"is_disabled":false,"rental_uris":{"android":"levelo://app?vid=dc79fefa-d554-4ea7-b0f6-dfb50b76419c","ios":"levelo://app?vid=dc79fefa-d554-4ea7-b0f6-dfb50b76419c"},"vehicle_type_id":"4","last_reported":1774845364,"current_range_meters":6800,"station_id":"ce4bhip2rcd13ifvqft0","pricing_plan_id":"cebpf4jnsgd1na2vs0mg"},{"bike_id":"cee9b460-3960-4431-84b1-f885e5c227d3","system_id":"levelo_inurba_marseille","lat":43.26617,"lon":5.39019,"is_reserved":false,"is_disabled":false,"rental_uris":{"android":"levelo://app?vid=cee9b460-3960-4431-84b1-f885e5c227d3","ios":"levelo://app?vid=cee9b460-3960-4431-84b1-f885e5c227d3"},"vehicle_type_id":"4","last_reported":1774845364,"current_range_meters":7200,"station_id":"","pricing_plan_id":"cebpf4jnsgd1na2vs0mg"},{"bike_id":"88900821-ac79-4ee5-8fc9-e889474b5abd","system_id":"levelo_inurba_marseille","lat":43.28627,"lon":5.3507,"is_reserved":false,"is_disabled":false,"rental_uris":{"android":"levelo://app?vid=88900821-ac79-4ee5-8fc9-e889474b5abd","ios":"levelo://app?vid=88900821-ac79-4ee5-8fc9-e889474b5abd"},"vehicle_type_id":"4","last_reported":1774845364,"current_range_meters":7200,"station_id":"ce4bhch2rcd13ifvqeug","pricing_plan_id":"cebpf4jnsgd1na2vs0mg"},{"bike_id":"31e81b7a-66af-477c-968a-9e76a165a287","system_id":"levelo_inurba_marseille","lat":43.29276,"lon":5.40917,"is_reserved":false,"is_disabled":false,"rental_uris":{"android":"levelo://app?vid=31e81b7a-66af-477c-968a-9e76a165a287","ios":"levelo://app?vid=31e81b7a-66af-477c-968a-9e76a165a287"},"vehicle_type_id":"4","last_reported":1774845364,"current_range_meters":7200,"station_id":"ce4bh192rcd13ifvqdc0","pricing_plan_id":"cebpf4jnsgd1na2vs0mg"},{"bike_id":"9c8c9892-96dc-455e-ba7a-a654d9f0546a","system_id":"levelo_inurba_marseille","lat":43.2871,"lon":5.39975,"is_reserved":false,"is_disabled":false,"rental_uris":{"android":"levelo://app?vid=9c8c9892-96dc-455e-ba7a-a654d9f0546a","ios":"levelo://app?vid=9c8c9892-96dc-455e-ba7a-a654d9f0546a"},"vehicle_type_id":"4","last_reported":1774845364,"current_range_meters":7200,"station_id":"ce4bho92rcd13ifvqh3g","pricing_plan_id":"cebpf4jnsgd1na2vs0mg"},{"bike_id":"8fe266f3-c482-43a4-899c-519358ab6ba4","system_id":"levelo_inurba_marseille","lat":43.31121,"lon":5.37754,"is_reserved":false,"is_disabled":false,"rental_uris":{"android":"levelo://app?vid=8fe266f3-c482-43a4-899c-519358ab6ba4","ios":"levelo://app?vid=8fe266f3-c482-43a4-899c-519358ab6ba4"},"vehicle_type_id":"4","last_reported":1774845364,"current_range_meters":7200,"station_id":"ce4bgt92rcd13ifvqcg0","pricing_plan_id":"cebpf4jnsgd1na2vs0mg"},{"bike_id":"e98a76c4-9afd-4aed-912b-322289668790","system_id":"levelo_inurba_marseille","lat":43.28617,"lon":5.3512,"is_reserved":false,"is_disabled":false,"rental_uris":{"android":"levelo://app?vid=e98a76c4-9afd-4aed-912b-322289668790","ios":"levelo://app?vid=e98a76c4-9afd-4aed-912b-322289668790"},"vehicle_type_id":"4","last_reported":1774845364,"current_range_meters":7200,"station_id":"ce4bhch2rcd13ifvqeug","pricing_plan_id":"cebpf4jnsgd1na2vs0mg"},{"bike_id":"335d056c-bd64-4d09-a2ea-845d7caf9344","system_id":"levelo_inurba_marseille","lat":43.28605,"lon":5.35123,"is_reserved":false,"is_disabled":false,"rental_uris":{"android":"levelo://app?vid=335d056c-bd64-4d09-a2ea-845d7caf9344","ios":"levelo://app?vid=335d056c-bd64-4d09-a2ea-845d7caf9344"},"vehicle_type_id":"4","last_reported":1774845364,"current_range_meters":7200,"station_id":"ce4bhch2rcd13ifvqeug","pricing_plan_id":"cebpf4jnsgd1na2vs0mg"},{"bike_id":"25885b88-a323-45a7-9587-9cd04cb91b9a","system_id":"levelo_inurba_marseille","lat":43.29861,"lon":5.38912,"is_reserved":false,"is_disabled":true,"rental_uris":{"android":"levelo://app?vid=25885b88-a323-45a7-9587-9cd04cb91b9a","ios":"levelo://app?vid=25885b88-a323-45a7-9587-9cd04cb91b9a"},"vehicle_type_id":"4","last_reported":1774845364,"current_range_meters":7200,"station_id":"ce4bh392rcd13ifvqdl0","pricing_plan_id":"cebpf4jnsgd1na2vs0mg"},{"bike_id":"dca0e263-84b7-4dc7-affb-635c293f0879","system_id":"levelo_inurba_marseille","lat":43.2953,"lon":5.42289,"is_reserved":false,"is_disabled":false,"rental_uris":{"android":"levelo://app?vid=dca0e263-84b7-4dc7-affb-635c293f0879","ios":"levelo://app?vid=dca0e263-84b7-4dc7-affb-635c293f0879"},"vehicle_type_id":"4","last_reported":1774845364,"current_range_meters":7200,"station_id":"ce4bhph2rcd13ifvqhdg","pricing_plan_id":"cebpf4jnsgd1na2vs0mg"},{"bike_id":"3aae17fa-7bc6-455a-960a-4ceda4265238","system_id":"levelo_inurba_marseille","lat":43.32348,"lon":5.36723,"is_reserved":false,"is_disabled":false,"rental_uris":{"android":"levelo://app?vid=3aae17fa-7bc6-455a-960a-4ceda4265238","ios":"levelo://app?vid=3aae17fa-7bc6-455a-960a-4ceda4265238"},"vehicle_type_id":"4","last_reported":1774845364,"current_range_meters":7200,"station_id":"ce4bhsh2rcd13ifvqi2g","pricing_plan_id":"cebpf4jnsgd1na2vs0mg"},{"bike_id":"f16b920d-4760-44fd-92f5-b6cf293c8515","system_id":"levelo_inurba_marseille","lat":43.23186,"lon":5.35553,"is_reserved":false,"is_disabled":false,"rental_uris":{"android":"levelo://app?vid=f16b920d-4760-44fd-92f5-b6cf293c8515","ios":"levelo://app?vid=f16b920d-4760-44fd-92f5-b6cf293c8515"},"vehicle_type_id":"4","last_reported":1774845364,"current_range_meters":7200,"station_id":"ce4bhu92rcd13ifvqi70","pricing_plan_id":"cebpf4jnsgd1na2vs0mg"},{"bike_id":"67a5d5c7-3521-4623-a1ce-e8cf1f7867be","system_id":"levelo_inurba_marseille","lat":43.24457,"lon":5.42523,"is_reserved":false,"is_disabled":false,"rental_uris":{"android":"levelo://app?vid=67a5d5c7-3521-4623-a1ce-e8cf1f7867be","ios":"levelo://app?vid=67a5d5c7-3521-4623-a1ce-e8cf1f7867be"},"vehicle_type_id":"4","last_reported":1774845364,"current_range_meters":7200,"station_id":"st_d4a3vfp97mjs738cd8kg","pricing_plan_id":"cebpf4jnsgd1na2vs0mg"},{"bike_id":"f49642d7-0c88-4377-92f6-f3b93aee0876","system_id":"levelo_inurba_marseille","lat":43.2961,"lon":5.38083,"is_reserved":false,"is_disabled":true,"rental_uris":{"android":"levelo://app?vid=f49642d7-0c88-4377-92f6-f3b93aee0876","ios":"levelo://app?vid=f49642d7-0c88-4377-92f6-f3b93aee0876"},"vehicle_type_id":"4","last_reported":1774845364,"current_range_meters":7200,"station_id":"ce4bgl12rcd13ifvqbo0","pricing_plan_id":"cebpf4jnsgd1na2vs0mg"},{"bike_id":"6fc52f75-ef56-4b29-85e0-0f7e3e6230ae","system_id":"levelo_inurba_marseille","lat":43.25868,"lon":5.39897,"is_reserved":false,"is_disabled":false,"rental_uris":{"android":"levelo://app?vid=6fc52f75-ef56-4b29-85e0-0f7e3e6230ae","ios":"levelo://app?vid=6fc52f75-ef56-4b29-85e0-0f7e3e6230ae"},"vehicle_type_id":"4","last_reported":1774845364,"current_range_meters":7200,"station_id":"ce4bhl92rcd13ifvqghg","pricing_plan_id":"cebpf4jnsgd1na2vs0mg"},{"bike_id":"1f7507c0-1d57-4435-a922-7c4f891a00c7","system_id":"levelo_inurba_marseille","lat":43.28792,"lon":5.35994,"is_reserved":false,"is_disabled":false,"rental_uris":{"android":"levelo://app?vid=1f7507c0-1d57-4435-a922-7c4f891a00c7","ios":"levelo://app?vid=1f7507c0-1d57-4435-a922-7c4f891a00c7"},"vehicle_type_id":"4","last_reported":1774845364,"current_range_meters":7200,"station_id":"","pricing_plan_id":"cebpf4jnsgd1na2vs0mg"},{"bike_id":"1689e9ec-e37f-43b2-bbfc-605aa79e9dba","system_id":"levelo_inurba_marseille","lat":43.2843,"lon":5.37528,"is_reserved":false,"is_disabled":false,"rental_uris":{"android":"levelo://app?vid=1689e9ec-e37f-43b2-bbfc-605aa79e9dba","ios":"levelo://app?vid=1689e9ec-e37f-43b2-bbfc-605aa79e9dba"},"vehicle_type_id":"4","last_reported":1774845364,"current_range_meters":8000,"station_id":"ce4bh412rcd13ifvqds0","pricing_plan_id":"cebpf4jnsgd1na2vs0mg"},{"bike_id":"69d56898-e8e0-4706-9319-511bcac95851","system_id":"levelo_inurba_marseille","lat":43.28408,"lon":5.34985,"is_reserved":false,"is_disabled":false,"rental_uris":{"android":"levelo://app?vid=69d56898-e8e0-4706-9319-511bcac95851","ios":"levelo://app?vid=69d56898-e8e0-4706-9319-511bcac95851"},"vehicle_type_id":"4","last_reported":1774845364,"current_range_meters":8000,"station_id":"ce4bhbh2rcd13ifvqepg","pricing_plan_id":"cebpf4jnsgd1na2vs0mg"},{"bike_id":"169c1d4a-c874-4f24-8a56-560e80814a9e","system_id":"levelo_inurba_marseille","lat":43.30959,"lon":5.39024,"is_reserved":false,"is_disabled":false,"rental_uris":{"android":"levelo://app?vid=169c1d4a-c874-4f24-8a56-560e80814a9e","ios":"levelo://app?vid=169c1d4a-c874-4f24-8a56-560e80814a9e"},"vehicle_type_id":"4","last_reported":1774845364,"current_range_meters":8000,"station_id":"ce4bgup2rcd13ifvqco0","pricing_plan_id":"cebpf4jnsgd1na2vs0mg"},{"bike_id":"873fdbd8-4f32-4613-994a-f56819db3e35","system_id":"levelo_inurba_marseille","lat":43.31713,"lon":5.43694,"is_reserved":false,"is_disabled":false,"rental_uris":{"android":"levelo://app?vid=873fdbd8-4f32-4613-994a-f56819db3e35","ios":"levelo://app?vid=873fdbd8-4f32-4613-994a-f56819db3e35"},"vehicle_type_id":"4","last_reported":1774845364,"current_range_meters":8000,"station_id":"ce4bhp92rcd13ifvqhcg","pricing_plan_id":"cebpf4jnsgd1na2vs0mg"},{"bike_id":"53f142a0-3955-4808-b4c6-e1524bc3e079","system_id":"levelo_inurba_marseille","lat":43.21191,"lon":5.35071,"is_reserved":false,"is_disabled":false,"rental_uris":{"android":"levelo://app?vid=53f142a0-3955-4808-b4c6-e1524bc3e079","ios":"levelo://app?vid=53f142a0-3955-4808-b4c6-e1524bc3e079"},"vehicle_type_id":"4","last_reported":1774845364,"current_range_meters":8000,"station_id":"st_cvj6sg6p6f1abm77japg","pricing_plan_id":"cebpf4jnsgd1na2vs0mg"},{"bike_id":"496cdebc-c3e4-41cb-9a9b-c6677bbdd848","system_id":"levelo_inurba_marseille","lat":43.22509,"lon":5.34854,"is_reserved":false,"is_disabled":false,"rental_uris":{"android":"levelo://app?vid=496cdebc-c3e4-41cb-9a9b-c6677bbdd848","ios":"levelo://app?vid=496cdebc-c3e4-41cb-9a9b-c6677bbdd848"},"vehicle_type_id":"4","last_reported":1774845364,"current_range_meters":8000,"station_id":"","pricing_plan_id":"cebpf4jnsgd1na2vs0mg"},{"bike_id":"2e473b1d-39dc-4686-a52e-6eb05e99392b","system_id":"levelo_inurba_marseille","lat":43.28397,"lon":5.34999,"is_reserved":false,"is_disabled":false,"rental_uris":{"android":"levelo://app?vid=2e473b1d-39dc-4686-a52e-6eb05e99392b","ios":"levelo://app?vid=2e473b1d-39dc-4686-a52e-6eb05e99392b"},"vehicle_type_id":"4","last_reported":1774845364,"current_range_meters":8000,"station_id":"ce4bhbh2rcd13ifvqepg","pricing_plan_id":"cebpf4jnsgd1na2vs0mg"},{"bike_id":"c86d845d-a9a1-4000-acdd-408b4f74bb9d","system_id":"levelo_inurba_marseille","lat":43.31361,"lon":5.3668,"is_reserved":false,"is_disabled":false,"rental_uris":{"android":"levelo://app?vid=c86d845d-a9a1-4000-acdd-408b4f74bb9d","ios":"levelo://app?vid=c86d845d-a9a1-4000-acdd-408b4f74bb9d"},"vehicle_type_id":"4","last_reported":1774845364,"current_range_meters":8000,"station_id":"ce4bgr92rcd13ifvqc6g","pricing_plan_id":"cebpf4jnsgd1na2vs0mg"},{"bike_id":"59f02258-c77d-4c49-9c7b-1f67ecd2886b","system_id":"levelo_inurba_marseille","lat":43.24083,"lon":5.37754,"is_reserved":false,"is_disabled":false,"rental_uris":{"android":"levelo://app?vid=59f02258-c77d-4c49-9c7b-1f67ecd2886b","ios":"levelo://app?vid=59f02258-c77d-4c49-9c7b-1f67ecd2886b"},"vehicle_type_id":"4","last_reported":1774845364,"current_range_meters":8000,"station_id":"ce4bhnp2rcd13ifvqgvg","pricing_plan_id":"cebpf4jnsgd1na2vs0mg"},{"bike_id":"4ec776a3-086c-483b-86fe-3dbf174790e8","system_id":"levelo_inurba_marseille","lat":43.31433,"lon":5.39305,"is_reserved":false,"is_disabled":false,"rental_uris":{"android":"levelo://app?vid=4ec776a3-086c-483b-86fe-3dbf174790e8","ios":"levelo://app?vid=4ec776a3-086c-483b-86fe-3dbf174790e8"},"vehicle_type_id":"4","last_reported":1774845364,"current_range_meters":8000,"station_id":"","pricing_plan_id":"cebpf4jnsgd1na2vs0mg"},{"bike_id":"7ea68384-f694-4a28-85a7-1a4829b38dc5","system_id":"levelo_inurba_marseille","lat":43.28496,"lon":5.4412,"is_reserved":false,"is_disabled":false,"rental_uris":{"android":"levelo://app?vid=7ea68384-f694-4a28-85a7-1a4829b38dc5","ios":"levelo://app?vid=7ea68384-f694-4a28-85a7-1a4829b38dc5"},"vehicle_type_id":"4","last_reported":1774845364,"current_range_meters":8000,"station_id":"st_d3j3df2ikq2c7380ej80","pricing_plan_id":"cebpf4jnsgd1na2vs0mg"},{"bike_id":"e20c75fd-a4e5-4c13-b5fa-2be0fca62af4","system_id":"levelo_inurba_marseille","lat":43.21169,"lon":5.35141,"is_reserved":false,"is_disabled":false,"rental_uris":{"android":"levelo://app?vid=e20c75fd-a4e5-4c13-b5fa-2be0fca62af4","ios":"levelo://app?vid=e20c75fd-a4e5-4c13-b5fa-2be0fca62af4"},"vehicle_type_id":"4","last_reported":1774845364,"current_range_meters":8000,"station_id":"st_cvj6sg6p6f1abm77japg","pricing_plan_id":"cebpf4jnsgd1na2vs0mg"},{"bike_id":"3e56278a-47c3-4d27-b2a7-b0223efdc25d","system_id":"levelo_inurba_marseille","lat":43.28404,"lon":5.34969,"is_reserved":false,"is_disabled":false,"rental_uris":{"android":"levelo://app?vid=3e56278a-47c3-4d27-b2a7-b0223efdc25d","ios":"levelo://app?vid=3e56278a-47c3-4d27-b2a7-b0223efdc25d"},"vehicle_type_id":"4","last_reported":1774845364,"current_range_meters":8000,"station_id":"ce4bhbh2rcd13ifvqepg","pricing_plan_id":"cebpf4jnsgd1na2vs0mg"},{"bike_id":"68a97ab0-93e1-4d9e-a570-f39fd30b7766","system_id":"levelo_inurba_marseille","lat":43.32496,"lon":5.38273,"is_reserved":false,"is_disabled":false,"rental_uris":{"android":"levelo://app?vid=68a97ab0-93e1-4d9e-a570-f39fd30b7766","ios":"levelo://app?vid=68a97ab0-93e1-4d9e-a570-f39fd30b7766"},"vehicle_type_id":"4","last_reported":1774845364,"current_range_meters":8000,"station_id":"st_d4asgbiv49dc73anf9m0","pricing_plan_id":"cebpf4jnsgd1na2vs0mg"},{"bike_id":"8489331d-8f95-4b36-a026-08bb56c1991f","system_id":"levelo_inurba_marseille","lat":43.23791,"lon":5.36624,"is_reserved":false,"is_disabled":false,"rental_uris":{"android":"levelo://app?vid=8489331d-8f95-4b36-a026-08bb56c1991f","ios":"levelo://app?vid=8489331d-8f95-4b36-a026-08bb56c1991f"},"vehicle_type_id":"4","last_reported":1774845364,"current_range_meters":8000,"station_id":"st_d3nk18o9ro0c73en2l3g","pricing_plan_id":"cebpf4jnsgd1na2vs0mg"},{"bike_id":"609a3f51-95d7-4bff-9fb9-07e7f142b6aa","system_id":"levelo_inurba_marseille","lat":43.29729,"lon":5.37031,"is_reserved":false,"is_disabled":false,"rental_uris":{"android":"levelo://app?vid=609a3f51-95d7-4bff-9fb9-07e7f142b6aa","ios":"levelo://app?vid=609a3f51-95d7-4bff-9fb9-07e7f142b6aa"},"vehicle_type_id":"4","last_reported":1774845364,"current_range_meters":8000,"station_id":"","pricing_plan_id":"cebpf4jnsgd1na2vs0mg"},{"bike_id":"780ddbf2-446c-4890-8b3e-ffe01a9a6ff9","system_id":"levelo_inurba_marseille","lat":43.2737,"lon":5.36256,"is_reserved":false,"is_disabled":false,"rental_uris":{"android":"levelo://app?vid=780ddbf2-446c-4890-8b3e-ffe01a9a6ff9","ios":"levelo://app?vid=780ddbf2-446c-4890-8b3e-ffe01a9a6ff9"},"vehicle_type_id":"4","last_reported":1774845364,"current_range_meters":8000,"station_id":"ce4bhbh2rcd13ifvqeo0","pricing_plan_id":"cebpf4jnsgd1na2vs0mg"},{"bike_id":"86db0319-41a7-4493-adee-c184becfe762","system_id":"levelo_inurba_marseille","lat":43.28882,"lon":5.45707,"is_reserved":false,"is_disabled":false,"rental_uris":{"android":"levelo://app?vid=86db0319-41a7-4493-adee-c184becfe762","ios":"levelo://app?vid=86db0319-41a7-4493-adee-c184becfe762"},"vehicle_type_id":"4","last_reported":1774845364,"current_range_meters":8000,"station_id":"","pricing_plan_id":"cebpf4jnsgd1na2vs0mg"},{"bike_id":"aba4a31a-18d2-4cad-bb8c-30bd606f5c4c","system_id":"levelo_inurba_marseille","lat":43.24151,"lon":5.36421,"is_reserved":false,"is_disabled":false,"rental_uris":{"android":"levelo://app?vid=aba4a31a-18d2-4cad-bb8c-30bd606f5c4c","ios":"levelo://app?vid=aba4a31a-18d2-4cad-bb8c-30bd606f5c4c"},"vehicle_type_id":"4","last_reported":1774845364,"current_range_meters":8000,"station_id":"cpo36qri1sfpv3e86is0","pricing_plan_id":"cebpf4jnsgd1na2vs0mg"},{"bike_id":"1f632983-5db3-47dd-8d4d-7395c1a9aa86","system_id":"levelo_inurba_marseille","lat":43.24789,"lon":5.37478,"is_reserved":false,"is_disabled":false,"rental_uris":{"android":"levelo://app?vid=1f632983-5db3-47dd-8d4d-7395c1a9aa86","ios":"levelo://app?vid=1f632983-5db3-47dd-8d4d-7395c1a9aa86"},"vehicle_type_id":"4","last_reported":1774845364,"current_range_meters":8400,"station_id":"ce4bhgh2rcd13ifvqfb0","pricing_plan_id":"cebpf4jnsgd1na2vs0mg"},{"bike_id":"8429f855-c4a0-4803-9ce7-0d1fb93dbfe8","system_id":"levelo_inurba_marseille","lat":43.28486,"lon":5.48382,"is_reserved":false,"is_disabled":false,"rental_uris":{"android":"levelo://app?vid=8429f855-c4a0-4803-9ce7-0d1fb93dbfe8","ios":"levelo://app?vid=8429f855-c4a0-4803-9ce7-0d1fb93dbfe8"},"vehicle_type_id":"4","last_reported":1774845364,"current_range_meters":8400,"station_id":"","pricing_plan_id":"cebpf4jnsgd1na2vs0mg"},{"bike_id":"805b1366-a6eb-4fde-a8d5-98af0890737e","system_id":"levelo_inurba_marseille","lat":43.23059,"lon":5.35494,"is_reserved":false,"is_disabled":false,"rental_uris":{"android":"levelo://app?vid=805b1366-a6eb-4fde-a8d5-98af0890737e","ios":"levelo://app?vid=805b1366-a6eb-4fde-a8d5-98af0890737e"},"vehicle_type_id":"4","last_reported":1774845364,"current_range_meters":8400,"station_id":"cpo3342slgdg3j2ifvpg","pricing_plan_id":"cebpf4jnsgd1na2vs0mg"},{"bike_id":"432233ed-5eb3-457f-a1b4-4b2387145c9e","system_id":"levelo_inurba_marseille","lat":43.31157,"lon":5.3873,"is_reserved":false,"is_disabled":false,"rental_uris":{"android":"levelo://app?vid=432233ed-5eb3-457f-a1b4-4b2387145c9e","ios":"levelo://app?vid=432233ed-5eb3-457f-a1b4-4b2387145c9e"},"vehicle_type_id":"4","last_reported":1774845364,"current_range_meters":8400,"station_id":"ce4bgv12rcd13ifvqcp0","pricing_plan_id":"cebpf4jnsgd1na2vs0mg"},{"bike_id":"0dff1657-701a-46a5-aa66-060096e7915a","system_id":"levelo_inurba_marseille","lat":43.2738,"lon":5.36253,"is_reserved":false,"is_disabled":false,"rental_uris":{"android":"levelo://app?vid=0dff1657-701a-46a5-aa66-060096e7915a","ios":"levelo://app?vid=0dff1657-701a-46a5-aa66-060096e7915a"},"vehicle_type_id":"4","last_reported":1774845364,"current_range_meters":8400,"station_id":"ce4bhbh2rcd13ifvqeo0","pricing_plan_id":"cebpf4jnsgd1na2vs0mg"},{"bike_id":"fa2139d7-56b5-4664-870b-94753042ac1d","system_id":"levelo_inurba_marseille","lat":43.21197,"lon":5.35088,"is_reserved":false,"is_disabled":false,"rental_uris":{"android":"levelo://app?vid=fa2139d7-56b5-4664-870b-94753042ac1d","ios":"levelo://app?vid=fa2139d7-56b5-4664-870b-94753042ac1d"},"vehicle_type_id":"4","last_reported":1774845364,"current_range_meters":8400,"station_id":"st_cvj6sg6p6f1abm77japg","pricing_plan_id":"cebpf4jnsgd1na2vs0mg"},{"bike_id":"d04f709c-d702-4a3e-8fe6-e62255574b5f","system_id":"levelo_inurba_marseille","lat":43.30156,"lon":5.3809,"is_reserved":false,"is_disabled":false,"rental_uris":{"android":"levelo://app?vid=d04f709c-d702-4a3e-8fe6-e62255574b5f","ios":"levelo://app?vid=d04f709c-d702-4a3e-8fe6-e62255574b5f"},"vehicle_type_id":"4","last_reported":1774845364,"current_range_meters":8400,"station_id":"ce4bgjp2rcd13ifvqbh0","pricing_plan_id":"cebpf4jnsgd1na2vs0mg"},{"bike_id":"b90caad3-7060-4253-981e-42cd0d5fd64b","system_id":"levelo_inurba_marseille","lat":43.28478,"lon":5.48398,"is_reserved":false,"is_disabled":false,"rental_uris":{"android":"levelo://app?vid=b90caad3-7060-4253-981e-42cd0d5fd64b","ios":"levelo://app?vid=b90caad3-7060-4253-981e-42cd0d5fd64b"},"vehicle_type_id":"4","last_reported":1774845364,"current_range_meters":8400,"station_id":"st_d3svhcjqgbts73a3dn0g","pricing_plan_id":"cebpf4jnsgd1na2vs0mg"},{"bike_id":"14e7a081-448d-429e-8742-53ba000d00ec","system_id":"levelo_inurba_marseille","lat":43.23789,"lon":5.3663,"is_reserved":false,"is_disabled":false,"rental_uris":{"android":"levelo://app?vid=14e7a081-448d-429e-8742-53ba000d00ec","ios":"levelo://app?vid=14e7a081-448d-429e-8742-53ba000d00ec"},"vehicle_type_id":"4","last_reported":1774845364,"current_range_meters":8400,"station_id":"st_d3nk18o9ro0c73en2l3g","pricing_plan_id":"cebpf4jnsgd1na2vs0mg"},{"bike_id":"131a88d5-b5b2-4532-b511-14fa6f230522","system_id":"levelo_inurba_marseille","lat":43.33729,"lon":5.39222,"is_reserved":false,"is_disabled":false,"rental_uris":{"android":"levelo://app?vid=131a88d5-b5b2-4532-b511-14fa6f230522","ios":"levelo://app?vid=131a88d5-b5b2-4532-b511-14fa6f230522"},"vehicle_type_id":"4","last_reported":1774845364,"current_range_meters":8400,"station_id":"ce4bhr92rcd13ifvqhsg","pricing_plan_id":"cebpf4jnsgd1na2vs0mg"},{"bike_id":"1227dc61-c55b-43f3-83a0-014c73aacab8","system_id":"levelo_inurba_marseille","lat":43.23954,"lon":5.36656,"is_reserved":false,"is_disabled":false,"rental_uris":{"android":"levelo://app?vid=1227dc61-c55b-43f3-83a0-014c73aacab8","ios":"levelo://app?vid=1227dc61-c55b-43f3-83a0-014c73aacab8"},"vehicle_type_id":"4","last_reported":1774845364,"current_range_meters":8400,"station_id":"ce4bhi12rcd13ifvqfp0","pricing_plan_id":"cebpf4jnsgd1na2vs0mg"},{"bike_id":"29049f9a-cda2-426d-9e6c-1d886e0b8215","system_id":"levelo_inurba_marseille","lat":43.29174,"lon":5.42755,"is_reserved":false,"is_disabled":false,"rental_uris":{"android":"levelo://app?vid=29049f9a-cda2-426d-9e6c-1d886e0b8215","ios":"levelo://app?vid=29049f9a-cda2-426d-9e6c-1d886e0b8215"},"vehicle_type_id":"4","last_reported":1774845364,"current_range_meters":8400,"station_id":"","pricing_plan_id":"cebpf4jnsgd1na2vs0mg"},{"bike_id":"3ac0129c-9c97-4af6-b6ad-c66c14a5c227","system_id":"levelo_inurba_marseille","lat":43.28477,"lon":5.48391,"is_reserved":false,"is_disabled":false,"rental_uris":{"android":"levelo://app?vid=3ac0129c-9c97-4af6-b6ad-c66c14a5c227","ios":"levelo://app?vid=3ac0129c-9c97-4af6-b6ad-c66c14a5c227"},"vehicle_type_id":"4","last_reported":1774845364,"current_range_meters":8400,"station_id":"","pricing_plan_id":"cebpf4jnsgd1na2vs0mg"},{"bike_id":"e589261b-c8a2-4282-a7a8-0cffe840d18a","system_id":"levelo_inurba_marseille","lat":43.30139,"lon":5.38084,"is_reserved":false,"is_disabled":false,"rental_uris":{"android":"levelo://app?vid=e589261b-c8a2-4282-a7a8-0cffe840d18a","ios":"levelo://app?vid=e589261b-c8a2-4282-a7a8-0cffe840d18a"},"vehicle_type_id":"4","last_reported":1774845364,"current_range_meters":8400,"station_id":"ce4bgjp2rcd13ifvqbh0","pricing_plan_id":"cebpf4jnsgd1na2vs0mg"},{"bike_id":"072e3821-c77f-4817-b92a-bd9075002df6","system_id":"levelo_inurba_marseille","lat":43.2861,"lon":5.3986,"is_reserved":false,"is_disabled":false,"rental_uris":{"android":"levelo://app?vid=072e3821-c77f-4817-b92a-bd9075002df6","ios":"levelo://app?vid=072e3821-c77f-4817-b92a-bd9075002df6"},"vehicle_type_id":"4","last_reported":1774845364,"current_range_meters":8400,"station_id":"st_d4a7ka997mjs738ck50g","pricing_plan_id":"cebpf4jnsgd1na2vs0mg"},{"bike_id":"6ec34bea-26f7-40b0-a43f-af966ce23820","system_id":"levelo_inurba_marseille","lat":43.30168,"lon":5.38064,"is_reserved":false,"is_disabled":false,"rental_uris":{"android":"levelo://app?vid=6ec34bea-26f7-40b0-a43f-af966ce23820","ios":"levelo://app?vid=6ec34bea-26f7-40b0-a43f-af966ce23820"},"vehicle_type_id":"4","last_reported":1774845364,"current_range_meters":8400,"station_id":"ce4bgjp2rcd13ifvqbh0","pricing_plan_id":"cebpf4jnsgd1na2vs0mg"},{"bike_id":"c0d049d2-9884-47fd-b25d-2edd239d3046","system_id":"levelo_inurba_marseille","lat":43.28534,"lon":5.44095,"is_reserved":false,"is_disabled":false,"rental_uris":{"android":"levelo://app?vid=c0d049d2-9884-47fd-b25d-2edd239d3046","ios":"levelo://app?vid=c0d049d2-9884-47fd-b25d-2edd239d3046"},"vehicle_type_id":"4","last_reported":1774845364,"current_range_meters":8400,"station_id":"st_d3j3df2ikq2c7380ej80","pricing_plan_id":"cebpf4jnsgd1na2vs0mg"},{"bike_id":"affdd64d-1281-404d-9a64-082112bcf535","system_id":"levelo_inurba_marseille","lat":43.26362,"lon":5.41078,"is_reserved":false,"is_disabled":false,"rental_uris":{"android":"levelo://app?vid=affdd64d-1281-404d-9a64-082112bcf535","ios":"levelo://app?vid=affdd64d-1281-404d-9a64-082112bcf535"},"vehicle_type_id":"4","last_reported":1774845364,"current_range_meters":8400,"station_id":"st_d4e5ca6na9uc73bfl5fg","pricing_plan_id":"cebpf4jnsgd1na2vs0mg"},{"bike_id":"1f8b06bb-3f91-46ec-ae05-36fb92f0336b","system_id":"levelo_inurba_marseille","lat":43.26421,"lon":5.39864,"is_reserved":false,"is_disabled":false,"rental_uris":{"android":"levelo://app?vid=1f8b06bb-3f91-46ec-ae05-36fb92f0336b","ios":"levelo://app?vid=1f8b06bb-3f91-46ec-ae05-36fb92f0336b"},"vehicle_type_id":"4","last_reported":1774845364,"current_range_meters":8400,"station_id":"","pricing_plan_id":"cebpf4jnsgd1na2vs0mg"},{"bike_id":"de3208ad-e0aa-43cf-b3d0-9b02dc8b1328","system_id":"levelo_inurba_marseille","lat":43.24167,"lon":5.36389,"is_reserved":false,"is_disabled":false,"rental_uris":{"android":"levelo://app?vid=de3208ad-e0aa-43cf-b3d0-9b02dc8b1328","ios":"levelo://app?vid=de3208ad-e0aa-43cf-b3d0-9b02dc8b1328"},"vehicle_type_id":"4","last_reported":1774845364,"current_range_meters":8400,"station_id":"cpo36qri1sfpv3e86is0","pricing_plan_id":"cebpf4jnsgd1na2vs0mg"},{"bike_id":"71983624-569c-45d9-9fb5-891a7993a82a","system_id":"levelo_inurba_marseille","lat":43.284,"lon":5.35004,"is_reserved":false,"is_disabled":false,"rental_uris":{"android":"levelo://app?vid=71983624-569c-45d9-9fb5-891a7993a82a","ios":"levelo://app?vid=71983624-569c-45d9-9fb5-891a7993a82a"},"vehicle_type_id":"4","last_reported":1774845364,"current_range_meters":8400,"station_id":"ce4bhbh2rcd13ifvqepg","pricing_plan_id":"cebpf4jnsgd1na2vs0mg"},{"bike_id":"8b4108a6-c7e2-4043-b547-cb1e59a8963a","system_id":"levelo_inurba_marseille","lat":43.24323,"lon":5.40867,"is_reserved":false,"is_disabled":false,"rental_uris":{"android":"levelo://app?vid=8b4108a6-c7e2-4043-b547-cb1e59a8963a","ios":"levelo://app?vid=8b4108a6-c7e2-4043-b547-cb1e59a8963a"},"vehicle_type_id":"4","last_reported":1774845364,"current_range_meters":8400,"station_id":"","pricing_plan_id":"cebpf4jnsgd1na2vs0mg"},{"bike_id":"db2a5d28-8d41-430d-a50a-3270fbd136e3","system_id":"levelo_inurba_marseille","lat":43.28487,"lon":5.48373,"is_reserved":false,"is_disabled":false,"rental_uris":{"android":"levelo://app?vid=db2a5d28-8d41-430d-a50a-3270fbd136e3","ios":"levelo://app?vid=db2a5d28-8d41-430d-a50a-3270fbd136e3"},"vehicle_type_id":"4","last_reported":1774845364,"current_range_meters":8800,"station_id":"st_d3svhcjqgbts73a3dn0g","pricing_plan_id":"cebpf4jnsgd1na2vs0mg"},{"bike_id":"132e7de0-1c60-4e16-8ba9-01efee9304af","system_id":"levelo_inurba_marseille","lat":43.32346,"lon":5.36741,"is_reserved":false,"is_disabled":false,"rental_uris":{"android":"levelo://app?vid=132e7de0-1c60-4e16-8ba9-01efee9304af","ios":"levelo://app?vid=132e7de0-1c60-4e16-8ba9-01efee9304af"},"vehicle_type_id":"4","last_reported":1774845364,"current_range_meters":8800,"station_id":"ce4bhsh2rcd13ifvqi2g","pricing_plan_id":"cebpf4jnsgd1na2vs0mg"},{"bike_id":"c6f0bfb9-609a-4cc4-9c64-edb005bc49da","system_id":"levelo_inurba_marseille","lat":43.28419,"lon":5.34994,"is_reserved":false,"is_disabled":false,"rental_uris":{"android":"levelo://app?vid=c6f0bfb9-609a-4cc4-9c64-edb005bc49da","ios":"levelo://app?vid=c6f0bfb9-609a-4cc4-9c64-edb005bc49da"},"vehicle_type_id":"4","last_reported":1774845364,"current_range_meters":8800,"station_id":"ce4bhbh2rcd13ifvqepg","pricing_plan_id":"cebpf4jnsgd1na2vs0mg"},{"bike_id":"1f50d665-ad56-4564-8bce-5cff2a4e2b4f","system_id":"levelo_inurba_marseille","lat":43.24181,"lon":5.39743,"is_reserved":false,"is_disabled":false,"rental_uris":{"android":"levelo://app?vid=1f50d665-ad56-4564-8bce-5cff2a4e2b4f","ios":"levelo://app?vid=1f50d665-ad56-4564-8bce-5cff2a4e2b4f"},"vehicle_type_id":"4","last_reported":1774845364,"current_range_meters":8800,"station_id":"ce4bhn12rcd13ifvqgpg","pricing_plan_id":"cebpf4jnsgd1na2vs0mg"},{"bike_id":"a4c6fdaa-8593-4093-973b-2dcd2b267824","system_id":"levelo_inurba_marseille","lat":43.29924,"lon":5.38576,"is_reserved":false,"is_disabled":true,"rental_uris":{"android":"levelo://app?vid=a4c6fdaa-8593-4093-973b-2dcd2b267824","ios":"levelo://app?vid=a4c6fdaa-8593-4093-973b-2dcd2b267824"},"vehicle_type_id":"4","last_reported":1774845364,"current_range_meters":8800,"station_id":"","pricing_plan_id":"cebpf4jnsgd1na2vs0mg"},{"bike_id":"0cd3323f-aa64-4958-a38e-44f580a31023","system_id":"levelo_inurba_marseille","lat":43.28927,"lon":5.36382,"is_reserved":false,"is_disabled":false,"rental_uris":{"android":"levelo://app?vid=0cd3323f-aa64-4958-a38e-44f580a31023","ios":"levelo://app?vid=0cd3323f-aa64-4958-a38e-44f580a31023"},"vehicle_type_id":"4","last_reported":1774845364,"current_range_meters":8800,"station_id":"ce4bhc92rcd13ifvqetg","pricing_plan_id":"cebpf4jnsgd1na2vs0mg"},{"bike_id":"ded1f352-2271-4b3b-bb5d-6818edd936ac","system_id":"levelo_inurba_marseille","lat":43.29527,"lon":5.39049,"is_reserved":false,"is_disabled":true,"rental_uris":{"android":"levelo://app?vid=ded1f352-2271-4b3b-bb5d-6818edd936ac","ios":"levelo://app?vid=ded1f352-2271-4b3b-bb5d-6818edd936ac"},"vehicle_type_id":"4","last_reported":1774845364,"current_range_meters":8800,"station_id":"ce4bh3p2rcd13ifvqdp0","pricing_plan_id":"cebpf4jnsgd1na2vs0mg"},{"bike_id":"8d26c30b-3847-405c-8066-75bf15658130","system_id":"levelo_inurba_marseille","lat":43.29812,"lon":5.36421,"is_reserved":false,"is_disabled":false,"rental_uris":{"android":"levelo://app?vid=8d26c30b-3847-405c-8066-75bf15658130","ios":"levelo://app?vid=8d26c30b-3847-405c-8066-75bf15658130"},"vehicle_type_id":"4","last_reported":1774845364,"current_range_meters":8800,"station_id":"","pricing_plan_id":"cebpf4jnsgd1na2vs0mg"},{"bike_id":"abbbcda3-bb9d-4c1e-8438-081df8f75c24","system_id":"levelo_inurba_marseille","lat":43.23784,"lon":5.36639,"is_reserved":false,"is_disabled":false,"rental_uris":{"android":"levelo://app?vid=abbbcda3-bb9d-4c1e-8438-081df8f75c24","ios":"levelo://app?vid=abbbcda3-bb9d-4c1e-8438-081df8f75c24"},"vehicle_type_id":"4","last_reported":1774845364,"current_range_meters":8800,"station_id":"st_d3nk18o9ro0c73en2l3g","pricing_plan_id":"cebpf4jnsgd1na2vs0mg"},{"bike_id":"97ce69f1-7181-466d-9bc2-d076363b5f27","system_id":"levelo_inurba_marseille","lat":43.24143,"lon":5.36402,"is_reserved":false,"is_disabled":false,"rental_uris":{"android":"levelo://app?vid=97ce69f1-7181-466d-9bc2-d076363b5f27","ios":"levelo://app?vid=97ce69f1-7181-466d-9bc2-d076363b5f27"},"vehicle_type_id":"4","last_reported":1774845364,"current_range_meters":8800,"station_id":"cpo36qri1sfpv3e86is0","pricing_plan_id":"cebpf4jnsgd1na2vs0mg"},{"bike_id":"11f50760-edee-4283-8816-6605d5fc07b9","system_id":"levelo_inurba_marseille","lat":43.28601,"lon":5.3987,"is_reserved":false,"is_disabled":false,"rental_uris":{"android":"levelo://app?vid=11f50760-edee-4283-8816-6605d5fc07b9","ios":"levelo://app?vid=11f50760-edee-4283-8816-6605d5fc07b9"},"vehicle_type_id":"4","last_reported":1774845364,"current_range_meters":8800,"station_id":"st_d4a7ka997mjs738ck50g","pricing_plan_id":"cebpf4jnsgd1na2vs0mg"},{"bike_id":"52593cc8-be01-43c1-82de-8d2841ddeb12","system_id":"levelo_inurba_marseille","lat":43.21196,"lon":5.35077,"is_reserved":false,"is_disabled":false,"rental_uris":{"android":"levelo://app?vid=52593cc8-be01-43c1-82de-8d2841ddeb12","ios":"levelo://app?vid=52593cc8-be01-43c1-82de-8d2841ddeb12"},"vehicle_type_id":"4","last_reported":1774845364,"current_range_meters":8800,"station_id":"st_cvj6sg6p6f1abm77japg","pricing_plan_id":"cebpf4jnsgd1na2vs0mg"},{"bike_id":"90c5083d-61d7-4212-893f-2dfc58168774","system_id":"levelo_inurba_marseille","lat":43.24165,"lon":5.36415,"is_reserved":false,"is_disabled":false,"rental_uris":{"android":"levelo://app?vid=90c5083d-61d7-4212-893f-2dfc58168774","ios":"levelo://app?vid=90c5083d-61d7-4212-893f-2dfc58168774"},"vehicle_type_id":"4","last_reported":1774845364,"current_range_meters":8800,"station_id":"cpo36qri1sfpv3e86is0","pricing_plan_id":"cebpf4jnsgd1na2vs0mg"},{"bike_id":"82ffdcdd-7635-4ad6-b7af-d826108abbd3","system_id":"levelo_inurba_marseille","lat":43.28404,"lon":5.3751,"is_reserved":false,"is_disabled":false,"rental_uris":{"android":"levelo://app?vid=82ffdcdd-7635-4ad6-b7af-d826108abbd3","ios":"levelo://app?vid=82ffdcdd-7635-4ad6-b7af-d826108abbd3"},"vehicle_type_id":"4","last_reported":1774845364,"current_range_meters":8800,"station_id":"ce4bh412rcd13ifvqds0","pricing_plan_id":"cebpf4jnsgd1na2vs0mg"},{"bike_id":"cace6a75-41af-4909-a80a-68d60c5c1a04","system_id":"levelo_inurba_marseille","lat":43.2842,"lon":5.34971,"is_reserved":false,"is_disabled":false,"rental_uris":{"android":"levelo://app?vid=cace6a75-41af-4909-a80a-68d60c5c1a04","ios":"levelo://app?vid=cace6a75-41af-4909-a80a-68d60c5c1a04"},"vehicle_type_id":"4","last_reported":1774845364,"current_range_meters":8800,"station_id":"ce4bhbh2rcd13ifvqepg","pricing_plan_id":"cebpf4jnsgd1na2vs0mg"},{"bike_id":"fbb8d1ee-af97-443e-a94c-eaf376f4d550","system_id":"levelo_inurba_marseille","lat":43.29957,"lon":5.36683,"is_reserved":false,"is_disabled":false,"rental_uris":{"android":"levelo://app?vid=fbb8d1ee-af97-443e-a94c-eaf376f4d550","ios":"levelo://app?vid=fbb8d1ee-af97-443e-a94c-eaf376f4d550"},"vehicle_type_id":"4","last_reported":1774845364,"current_range_meters":8800,"station_id":"","pricing_plan_id":"cebpf4jnsgd1na2vs0mg"},{"bike_id":"46f755e5-3052-4e98-a5ea-871b3fd6d31a","system_id":"levelo_inurba_marseille","lat":43.30431,"lon":5.38884,"is_reserved":false,"is_disabled":true,"rental_uris":{"android":"levelo://app?vid=46f755e5-3052-4e98-a5ea-871b3fd6d31a","ios":"levelo://app?vid=46f755e5-3052-4e98-a5ea-871b3fd6d31a"},"vehicle_type_id":"4","last_reported":1774845364,"current_range_meters":8800,"station_id":"ce4bgk12rcd13ifvqbi0","pricing_plan_id":"cebpf4jnsgd1na2vs0mg"},{"bike_id":"3753dc94-ecb8-48f8-acee-64bd2f0c2e26","system_id":"levelo_inurba_marseille","lat":43.30681,"lon":5.37091,"is_reserved":false,"is_disabled":false,"rental_uris":{"android":"levelo://app?vid=3753dc94-ecb8-48f8-acee-64bd2f0c2e26","ios":"levelo://app?vid=3753dc94-ecb8-48f8-acee-64bd2f0c2e26"},"vehicle_type_id":"4","last_reported":1774845364,"current_range_meters":8800,"station_id":"","pricing_plan_id":"cebpf4jnsgd1na2vs0mg"},{"bike_id":"ff9ed2f3-0da8-47ab-a33d-e594121c791c","system_id":"levelo_inurba_marseille","lat":43.28148,"lon":5.426,"is_reserved":false,"is_disabled":false,"rental_uris":{"android":"levelo://app?vid=ff9ed2f3-0da8-47ab-a33d-e594121c791c","ios":"levelo://app?vid=ff9ed2f3-0da8-47ab-a33d-e594121c791c"},"vehicle_type_id":"4","last_reported":1774845364,"current_range_meters":8800,"station_id":"ce4bhnh2rcd13ifvqgug","pricing_plan_id":"cebpf4jnsgd1na2vs0mg"},{"bike_id":"f54bfc49-c52e-433a-9661-97eeb8e5a586","system_id":"levelo_inurba_marseille","lat":43.23779,"lon":5.36638,"is_reserved":false,"is_disabled":false,"rental_uris":{"android":"levelo://app?vid=f54bfc49-c52e-433a-9661-97eeb8e5a586","ios":"levelo://app?vid=f54bfc49-c52e-433a-9661-97eeb8e5a586"},"vehicle_type_id":"4","last_reported":1774845364,"current_range_meters":8800,"station_id":"st_d3nk18o9ro0c73en2l3g","pricing_plan_id":"cebpf4jnsgd1na2vs0mg"},{"bike_id":"03ec0070-1d93-4ac5-87d3-21d47edad7cd","system_id":"levelo_inurba_marseille","lat":43.23771,"lon":5.36629,"is_reserved":false,"is_disabled":false,"rental_uris":{"android":"levelo://app?vid=03ec0070-1d93-4ac5-87d3-21d47edad7cd","ios":"levelo://app?vid=03ec0070-1d93-4ac5-87d3-21d47edad7cd"},"vehicle_type_id":"4","last_reported":1774845364,"current_range_meters":9200,"station_id":"st_d3nk18o9ro0c73en2l3g","pricing_plan_id":"cebpf4jnsgd1na2vs0mg"},{"bike_id":"8751c790-1f0f-4a63-b698-95c920c8b55e","system_id":"levelo_inurba_marseille","lat":43.23223,"lon":5.3995,"is_reserved":false,"is_disabled":false,"rental_uris":{"android":"levelo://app?vid=8751c790-1f0f-4a63-b698-95c920c8b55e","ios":"levelo://app?vid=8751c790-1f0f-4a63-b698-95c920c8b55e"},"vehicle_type_id":"4","last_reported":1774845364,"current_range_meters":9200,"station_id":"","pricing_plan_id":"cebpf4jnsgd1na2vs0mg"},{"bike_id":"94ebd6be-fb80-4ec3-8693-d1f514f30182","system_id":"levelo_inurba_marseille","lat":43.30546,"lon":5.3671,"is_reserved":false,"is_disabled":false,"rental_uris":{"android":"levelo://app?vid=94ebd6be-fb80-4ec3-8693-d1f514f30182","ios":"levelo://app?vid=94ebd6be-fb80-4ec3-8693-d1f514f30182"},"vehicle_type_id":"4","last_reported":1774845364,"current_range_meters":9200,"station_id":"ce4bgrp2rcd13ifvqc9g","pricing_plan_id":"cebpf4jnsgd1na2vs0mg"},{"bike_id":"0ce71d04-dbdc-4632-aca8-9bf2c1f82c04","system_id":"levelo_inurba_marseille","lat":43.32478,"lon":5.36565,"is_reserved":false,"is_disabled":false,"rental_uris":{"android":"levelo://app?vid=0ce71d04-dbdc-4632-aca8-9bf2c1f82c04","ios":"levelo://app?vid=0ce71d04-dbdc-4632-aca8-9bf2c1f82c04"},"vehicle_type_id":"4","last_reported":1774845364,"current_range_meters":9200,"station_id":"ce4bhs12rcd13ifvqhvg","pricing_plan_id":"cebpf4jnsgd1na2vs0mg"},{"bike_id":"c67c5d5c-6a86-4840-bc88-5726340ce24f","system_id":"levelo_inurba_marseille","lat":43.23897,"lon":5.37473,"is_reserved":false,"is_disabled":false,"rental_uris":{"android":"levelo://app?vid=c67c5d5c-6a86-4840-bc88-5726340ce24f","ios":"levelo://app?vid=c67c5d5c-6a86-4840-bc88-5726340ce24f"},"vehicle_type_id":"4","last_reported":1774845364,"current_range_meters":9200,"station_id":"st_d6sm7csbq4hs73f8fpjg","pricing_plan_id":"cebpf4jnsgd1na2vs0mg"},{"bike_id":"e2491530-7c3b-41df-80e0-1a5c4af36aa4","system_id":"levelo_inurba_marseille","lat":43.23834,"lon":5.3658,"is_reserved":false,"is_disabled":false,"rental_uris":{"android":"levelo://app?vid=e2491530-7c3b-41df-80e0-1a5c4af36aa4","ios":"levelo://app?vid=e2491530-7c3b-41df-80e0-1a5c4af36aa4"},"vehicle_type_id":"4","last_reported":1774845364,"current_range_meters":9200,"station_id":"st_d3nk18o9ro0c73en2l3g","pricing_plan_id":"cebpf4jnsgd1na2vs0mg"},{"bike_id":"5ae1cde3-c020-448f-8cff-83f80611c531","system_id":"levelo_inurba_marseille","lat":43.24468,"lon":5.42547,"is_reserved":false,"is_disabled":false,"rental_uris":{"android":"levelo://app?vid=5ae1cde3-c020-448f-8cff-83f80611c531","ios":"levelo://app?vid=5ae1cde3-c020-448f-8cff-83f80611c531"},"vehicle_type_id":"4","last_reported":1774845364,"current_range_meters":9200,"station_id":"st_d4a3vfp97mjs738cd8kg","pricing_plan_id":"cebpf4jnsgd1na2vs0mg"},{"bike_id":"8e8411d8-90e9-4918-b15e-f20a76516178","system_id":"levelo_inurba_marseille","lat":43.27384,"lon":5.36276,"is_reserved":false,"is_disabled":false,"rental_uris":{"android":"levelo://app?vid=8e8411d8-90e9-4918-b15e-f20a76516178","ios":"levelo://app?vid=8e8411d8-90e9-4918-b15e-f20a76516178"},"vehicle_type_id":"4","last_reported":1774845364,"current_range_meters":9200,"station_id":"ce4bhbh2rcd13ifvqeo0","pricing_plan_id":"cebpf4jnsgd1na2vs0mg"},{"bike_id":"6cb80350-a12f-414d-8a45-edb4d9decdf0","system_id":"levelo_inurba_marseille","lat":43.28538,"lon":5.44105,"is_reserved":false,"is_disabled":false,"rental_uris":{"android":"levelo://app?vid=6cb80350-a12f-414d-8a45-edb4d9decdf0","ios":"levelo://app?vid=6cb80350-a12f-414d-8a45-edb4d9decdf0"},"vehicle_type_id":"4","last_reported":1774845364,"current_range_meters":9200,"station_id":"st_d3j3df2ikq2c7380ej80","pricing_plan_id":"cebpf4jnsgd1na2vs0mg"},{"bike_id":"1b8594e0-48e7-43ca-9fa9-8687339ae8c8","system_id":"levelo_inurba_marseille","lat":43.31166,"lon":5.38718,"is_reserved":false,"is_disabled":false,"rental_uris":{"android":"levelo://app?vid=1b8594e0-48e7-43ca-9fa9-8687339ae8c8","ios":"levelo://app?vid=1b8594e0-48e7-43ca-9fa9-8687339ae8c8"},"vehicle_type_id":"4","last_reported":1774845364,"current_range_meters":9200,"station_id":"ce4bgv12rcd13ifvqcp0","pricing_plan_id":"cebpf4jnsgd1na2vs0mg"},{"bike_id":"53ab5b1d-cae9-45a1-acf9-cea4f7b6ff95","system_id":"levelo_inurba_marseille","lat":43.23067,"lon":5.355,"is_reserved":false,"is_disabled":false,"rental_uris":{"android":"levelo://app?vid=53ab5b1d-cae9-45a1-acf9-cea4f7b6ff95","ios":"levelo://app?vid=53ab5b1d-cae9-45a1-acf9-cea4f7b6ff95"},"vehicle_type_id":"4","last_reported":1774845364,"current_range_meters":9200,"station_id":"cpo3342slgdg3j2ifvpg","pricing_plan_id":"cebpf4jnsgd1na2vs0mg"},{"bike_id":"89b72524-b26d-4a89-877f-562b5461521d","system_id":"levelo_inurba_marseille","lat":43.30803,"lon":5.3816,"is_reserved":false,"is_disabled":false,"rental_uris":{"android":"levelo://app?vid=89b72524-b26d-4a89-877f-562b5461521d","ios":"levelo://app?vid=89b72524-b26d-4a89-877f-562b5461521d"},"vehicle_type_id":"4","last_reported":1774845364,"current_range_meters":9200,"station_id":"ce4bgt12rcd13ifvqce0","pricing_plan_id":"cebpf4jnsgd1na2vs0mg"},{"bike_id":"29914e06-f1d1-4878-b2b6-747c8c11a3ab","system_id":"levelo_inurba_marseille","lat":43.28934,"lon":5.36638,"is_reserved":false,"is_disabled":false,"rental_uris":{"android":"levelo://app?vid=29914e06-f1d1-4878-b2b6-747c8c11a3ab","ios":"levelo://app?vid=29914e06-f1d1-4878-b2b6-747c8c11a3ab"},"vehicle_type_id":"4","last_reported":1774845364,"current_range_meters":9200,"station_id":"ce4bhap2rcd13ifvqek0","pricing_plan_id":"cebpf4jnsgd1na2vs0mg"},{"bike_id":"cb88b7c0-158f-47d6-b62a-c3ee88f004a1","system_id":"levelo_inurba_marseille","lat":43.2447,"lon":5.42553,"is_reserved":false,"is_disabled":false,"rental_uris":{"android":"levelo://app?vid=cb88b7c0-158f-47d6-b62a-c3ee88f004a1","ios":"levelo://app?vid=cb88b7c0-158f-47d6-b62a-c3ee88f004a1"},"vehicle_type_id":"4","last_reported":1774845364,"current_range_meters":9200,"station_id":"st_d4a3vfp97mjs738cd8kg","pricing_plan_id":"cebpf4jnsgd1na2vs0mg"},{"bike_id":"227cc43c-6fb3-476a-abb2-74c924061fb2","system_id":"levelo_inurba_marseille","lat":43.22578,"lon":5.41601,"is_reserved":false,"is_disabled":false,"rental_uris":{"android":"levelo://app?vid=227cc43c-6fb3-476a-abb2-74c924061fb2","ios":"levelo://app?vid=227cc43c-6fb3-476a-abb2-74c924061fb2"},"vehicle_type_id":"4","last_reported":1774845364,"current_range_meters":9200,"station_id":"st_d2o4gvlbi1j2169b742g","pricing_plan_id":"cebpf4jnsgd1na2vs0mg"},{"bike_id":"729af6d1-07cb-4e7c-b209-28d10f2ec0df","system_id":"levelo_inurba_marseille","lat":43.27496,"lon":5.4245,"is_reserved":false,"is_disabled":false,"rental_uris":{"android":"levelo://app?vid=729af6d1-07cb-4e7c-b209-28d10f2ec0df","ios":"levelo://app?vid=729af6d1-07cb-4e7c-b209-28d10f2ec0df"},"vehicle_type_id":"4","last_reported":1774845364,"current_range_meters":9200,"station_id":"ce4bhn92rcd13ifvqgrg","pricing_plan_id":"cebpf4jnsgd1na2vs0mg"},{"bike_id":"aca6641d-7d59-4b6d-aca8-5ef46eb491ec","system_id":"levelo_inurba_marseille","lat":43.23087,"lon":5.35516,"is_reserved":false,"is_disabled":false,"rental_uris":{"android":"levelo://app?vid=aca6641d-7d59-4b6d-aca8-5ef46eb491ec","ios":"levelo://app?vid=aca6641d-7d59-4b6d-aca8-5ef46eb491ec"},"vehicle_type_id":"4","last_reported":1774845364,"current_range_meters":9200,"station_id":"cpo3342slgdg3j2ifvpg","pricing_plan_id":"cebpf4jnsgd1na2vs0mg"},{"bike_id":"d175c754-8563-4b72-ba16-a3e037f90e46","system_id":"levelo_inurba_marseille","lat":43.27132,"lon":5.39235,"is_reserved":false,"is_disabled":false,"rental_uris":{"android":"levelo://app?vid=d175c754-8563-4b72-ba16-a3e037f90e46","ios":"levelo://app?vid=d175c754-8563-4b72-ba16-a3e037f90e46"},"vehicle_type_id":"4","last_reported":1774845364,"current_range_meters":9200,"station_id":"","pricing_plan_id":"cebpf4jnsgd1na2vs0mg"},{"bike_id":"074f0778-d8c1-4218-a90f-5ec773f2af01","system_id":"levelo_inurba_marseille","lat":43.30727,"lon":5.42443,"is_reserved":false,"is_disabled":false,"rental_uris":{"android":"levelo://app?vid=074f0778-d8c1-4218-a90f-5ec773f2af01","ios":"levelo://app?vid=074f0778-d8c1-4218-a90f-5ec773f2af01"},"vehicle_type_id":"4","last_reported":1774845364,"current_range_meters":9200,"station_id":"st_cvj6ca6bvosntc0bfgr0","pricing_plan_id":"cebpf4jnsgd1na2vs0mg"},{"bike_id":"42ed0164-ae8c-4bd0-af7d-a1a8b3b7141e","system_id":"levelo_inurba_marseille","lat":43.30897,"lon":5.39624,"is_reserved":false,"is_disabled":false,"rental_uris":{"android":"levelo://app?vid=42ed0164-ae8c-4bd0-af7d-a1a8b3b7141e","ios":"levelo://app?vid=42ed0164-ae8c-4bd0-af7d-a1a8b3b7141e"},"vehicle_type_id":"4","last_reported":1774845364,"current_range_meters":9600,"station_id":"ce4bh012rcd13ifvqcv0","pricing_plan_id":"cebpf4jnsgd1na2vs0mg"},{"bike_id":"7cefc45d-38f5-45cf-a99c-dfb4be1018fe","system_id":"levelo_inurba_marseille","lat":43.24469,"lon":5.42534,"is_reserved":false,"is_disabled":false,"rental_uris":{"android":"levelo://app?vid=7cefc45d-38f5-45cf-a99c-dfb4be1018fe","ios":"levelo://app?vid=7cefc45d-38f5-45cf-a99c-dfb4be1018fe"},"vehicle_type_id":"4","last_reported":1774845364,"current_range_meters":9600,"station_id":"st_d4a3vfp97mjs738cd8kg","pricing_plan_id":"cebpf4jnsgd1na2vs0mg"},{"bike_id":"933fcab0-1451-457e-89d4-af88ff6b6d5a","system_id":"levelo_inurba_marseille","lat":43.30257,"lon":5.40068,"is_reserved":false,"is_disabled":false,"rental_uris":{"android":"levelo://app?vid=933fcab0-1451-457e-89d4-af88ff6b6d5a","ios":"levelo://app?vid=933fcab0-1451-457e-89d4-af88ff6b6d5a"},"vehicle_type_id":"4","last_reported":1774845364,"current_range_meters":9600,"station_id":"ce4bgvh2rcd13ifvqcs0","pricing_plan_id":"cebpf4jnsgd1na2vs0mg"},{"bike_id":"046881a8-ab16-4490-bda4-767f874d1bc8","system_id":"levelo_inurba_marseille","lat":43.287178,"lon":5.360977,"is_reserved":false,"is_disabled":false,"rental_uris":{"android":"levelo://app?vid=046881a8-ab16-4490-bda4-767f874d1bc8","ios":"levelo://app?vid=046881a8-ab16-4490-bda4-767f874d1bc8"},"vehicle_type_id":"4","last_reported":1774845364,"current_range_meters":9600,"station_id":"","pricing_plan_id":"cebpf4jnsgd1na2vs0mg"},{"bike_id":"2b3538dd-3827-41e9-b333-b01b007339c1","system_id":"levelo_inurba_marseille","lat":43.25868,"lon":5.39901,"is_reserved":false,"is_disabled":false,"rental_uris":{"android":"levelo://app?vid=2b3538dd-3827-41e9-b333-b01b007339c1","ios":"levelo://app?vid=2b3538dd-3827-41e9-b333-b01b007339c1"},"vehicle_type_id":"4","last_reported":1774845364,"current_range_meters":9600,"station_id":"ce4bhl92rcd13ifvqghg","pricing_plan_id":"cebpf4jnsgd1na2vs0mg"},{"bike_id":"bbea286a-6e48-49d8-bcfc-d69bfefa013e","system_id":"levelo_inurba_marseille","lat":43.28616,"lon":5.35101,"is_reserved":false,"is_disabled":false,"rental_uris":{"android":"levelo://app?vid=bbea286a-6e48-49d8-bcfc-d69bfefa013e","ios":"levelo://app?vid=bbea286a-6e48-49d8-bcfc-d69bfefa013e"},"vehicle_type_id":"4","last_reported":1774845364,"current_range_meters":9600,"station_id":"ce4bhch2rcd13ifvqeug","pricing_plan_id":"cebpf4jnsgd1na2vs0mg"},{"bike_id":"2c9a0922-0198-4256-b2ac-2c0d229a41e5","system_id":"levelo_inurba_marseille","lat":43.3133,"lon":5.36756,"is_reserved":false,"is_disabled":false,"rental_uris":{"android":"levelo://app?vid=2c9a0922-0198-4256-b2ac-2c0d229a41e5","ios":"levelo://app?vid=2c9a0922-0198-4256-b2ac-2c0d229a41e5"},"vehicle_type_id":"4","last_reported":1774845364,"current_range_meters":9600,"station_id":"ce4bgr92rcd13ifvqc6g","pricing_plan_id":"cebpf4jnsgd1na2vs0mg"},{"bike_id":"9c1440ce-c955-43db-9800-7794805da744","system_id":"levelo_inurba_marseille","lat":43.23962,"lon":5.36645,"is_reserved":false,"is_disabled":false,"rental_uris":{"android":"levelo://app?vid=9c1440ce-c955-43db-9800-7794805da744","ios":"levelo://app?vid=9c1440ce-c955-43db-9800-7794805da744"},"vehicle_type_id":"4","last_reported":1774845364,"current_range_meters":9600,"station_id":"ce4bhi12rcd13ifvqfp0","pricing_plan_id":"cebpf4jnsgd1na2vs0mg"},{"bike_id":"fe2c2d4e-ad0a-4ad1-b727-7e9a7d4ef824","system_id":"levelo_inurba_marseille","lat":43.28477,"lon":5.48413,"is_reserved":false,"is_disabled":false,"rental_uris":{"android":"levelo://app?vid=fe2c2d4e-ad0a-4ad1-b727-7e9a7d4ef824","ios":"levelo://app?vid=fe2c2d4e-ad0a-4ad1-b727-7e9a7d4ef824"},"vehicle_type_id":"4","last_reported":1774845364,"current_range_meters":9600,"station_id":"","pricing_plan_id":"cebpf4jnsgd1na2vs0mg"},{"bike_id":"29a16c1e-e09b-4ac9-8506-6e4d5ff46c53","system_id":"levelo_inurba_marseille","lat":43.28421,"lon":5.3753,"is_reserved":false,"is_disabled":true,"rental_uris":{"android":"levelo://app?vid=29a16c1e-e09b-4ac9-8506-6e4d5ff46c53","ios":"levelo://app?vid=29a16c1e-e09b-4ac9-8506-6e4d5ff46c53"},"vehicle_type_id":"4","last_reported":1774845364,"current_range_meters":9600,"station_id":"ce4bh412rcd13ifvqds0","pricing_plan_id":"cebpf4jnsgd1na2vs0mg"},{"bike_id":"d653ed05-f213-45fd-84c6-b781deb83672","system_id":"levelo_inurba_marseille","lat":43.22555,"lon":5.41636,"is_reserved":false,"is_disabled":true,"rental_uris":{"android":"levelo://app?vid=d653ed05-f213-45fd-84c6-b781deb83672","ios":"levelo://app?vid=d653ed05-f213-45fd-84c6-b781deb83672"},"vehicle_type_id":"4","last_reported":1774845364,"current_range_meters":9600,"station_id":"st_d2o4gvlbi1j2169b742g","pricing_plan_id":"cebpf4jnsgd1na2vs0mg"},{"bike_id":"e68f3366-4661-41e2-954e-052dff571e84","system_id":"levelo_inurba_marseille","lat":43.27196,"lon":5.39224,"is_reserved":false,"is_disabled":true,"rental_uris":{"android":"levelo://app?vid=e68f3366-4661-41e2-954e-052dff571e84","ios":"levelo://app?vid=e68f3366-4661-41e2-954e-052dff571e84"},"vehicle_type_id":"4","last_reported":1774845364,"current_range_meters":9600,"station_id":"ce4bhhp2rcd13ifvqfm0","pricing_plan_id":"cebpf4jnsgd1na2vs0mg"},{"bike_id":"2487784c-2b2f-47c9-b345-d53a442f6c8b","system_id":"levelo_inurba_marseille","lat":43.30794,"lon":5.38155,"is_reserved":false,"is_disabled":false,"rental_uris":{"android":"levelo://app?vid=2487784c-2b2f-47c9-b345-d53a442f6c8b","ios":"levelo://app?vid=2487784c-2b2f-47c9-b345-d53a442f6c8b"},"vehicle_type_id":"4","last_reported":1774845364,"current_range_meters":9600,"station_id":"ce4bgt12rcd13ifvqce0","pricing_plan_id":"cebpf4jnsgd1na2vs0mg"},{"bike_id":"70d43021-d0d5-46ae-b732-349c735ced01","system_id":"levelo_inurba_marseille","lat":43.28462,"lon":5.38829,"is_reserved":false,"is_disabled":false,"rental_uris":{"android":"levelo://app?vid=70d43021-d0d5-46ae-b732-349c735ced01","ios":"levelo://app?vid=70d43021-d0d5-46ae-b732-349c735ced01"},"vehicle_type_id":"4","last_reported":1774845364,"current_range_meters":9600,"station_id":"","pricing_plan_id":"cebpf4jnsgd1na2vs0mg"},{"bike_id":"57a31671-07ac-494c-895d-e0576641700b","system_id":"levelo_inurba_marseille","lat":43.23993,"lon":5.36594,"is_reserved":false,"is_disabled":false,"rental_uris":{"android":"levelo://app?vid=57a31671-07ac-494c-895d-e0576641700b","ios":"levelo://app?vid=57a31671-07ac-494c-895d-e0576641700b"},"vehicle_type_id":"4","last_reported":1774845364,"current_range_meters":9600,"station_id":"ce4bhi12rcd13ifvqfp0","pricing_plan_id":"cebpf4jnsgd1na2vs0mg"},{"bike_id":"bc805ef9-6090-4c83-9a13-9c43956ef196","system_id":"levelo_inurba_marseille","lat":43.28418,"lon":5.39236,"is_reserved":false,"is_disabled":false,"rental_uris":{"android":"levelo://app?vid=bc805ef9-6090-4c83-9a13-9c43956ef196","ios":"levelo://app?vid=bc805ef9-6090-4c83-9a13-9c43956ef196"},"vehicle_type_id":"4","last_reported":1774845364,"current_range_meters":9600,"station_id":"ce4bhoh2rcd13ifvqh5g","pricing_plan_id":"cebpf4jnsgd1na2vs0mg"},{"bike_id":"ac9e1d4e-d9c5-4797-bb43-e4b3c0124963","system_id":"levelo_inurba_marseille","lat":43.23148,"lon":5.43717,"is_reserved":false,"is_disabled":true,"rental_uris":{"android":"levelo://app?vid=ac9e1d4e-d9c5-4797-bb43-e4b3c0124963","ios":"levelo://app?vid=ac9e1d4e-d9c5-4797-bb43-e4b3c0124963"},"vehicle_type_id":"4","last_reported":1774845364,"current_range_meters":9600,"station_id":"ce4bhmp2rcd13ifvqgog","pricing_plan_id":"cebpf4jnsgd1na2vs0mg"},{"bike_id":"d79c2376-c143-4b77-a689-4401a66eb2b4","system_id":"levelo_inurba_marseille","lat":43.28925,"lon":5.36693,"is_reserved":false,"is_disabled":false,"rental_uris":{"android":"levelo://app?vid=d79c2376-c143-4b77-a689-4401a66eb2b4","ios":"levelo://app?vid=d79c2376-c143-4b77-a689-4401a66eb2b4"},"vehicle_type_id":"4","last_reported":1774845364,"current_range_meters":9600,"station_id":"ce4bhap2rcd13ifvqek0","pricing_plan_id":"cebpf4jnsgd1na2vs0mg"},{"bike_id":"c0f606fe-baa5-492a-85a1-9ee65c00252f","system_id":"levelo_inurba_marseille","lat":43.23184,"lon":5.35576,"is_reserved":false,"is_disabled":false,"rental_uris":{"android":"levelo://app?vid=c0f606fe-baa5-492a-85a1-9ee65c00252f","ios":"levelo://app?vid=c0f606fe-baa5-492a-85a1-9ee65c00252f"},