{"last_updated":1766723193,"ttl":60,"version":"2.2","data":{"bikes":[{"bike_id":"c35eeef7-ce13-4f19-a3fb-e9d835e360b9","system_id":"levelo_inurba_marseille","lat":43.27474,"lon":5.38964,"is_reserved":false,"is_disabled":false,"rental_uris":{"android":"levelo://app?vid=c35eeef7-ce13-4f19-a3fb-e9d835e360b9","ios":"levelo://app?vid=c35eeef7-ce13-4f19-a3fb-e9d835e360b9"},"vehicle_type_id":"4","last_reported":1766723193,"current_range_meters":2800,"station_id":"","pricing_plan_id":"cebpf4jnsgd1na2vs0mg"},{"bike_id":"64a63425-fd9f-4f6a-929d-dc819ebae5e7","system_id":"levelo_inurba_marseille","lat":43.31062,"lon":5.38346,"is_reserved":false,"is_disabled":false,"rental_uris":{"android":"levelo://app?vid=64a63425-fd9f-4f6a-929d-dc819ebae5e7","ios":"levelo://app?vid=64a63425-fd9f-4f6a-929d-dc819ebae5e7"},"vehicle_type_id":"4","last_reported":1766723193,"current_range_meters":2800,"station_id":"ce4bgv92rcd13ifvqcr0","pricing_plan_id":"cebpf4jnsgd1na2vs0mg"},{"bike_id":"cbd70446-dda3-40ff-ba8b-d3dcb1de5d18","system_id":"levelo_inurba_marseille","lat":43.24185,"lon":5.3972,"is_reserved":false,"is_disabled":false,"rental_uris":{"android":"levelo://app?vid=cbd70446-dda3-40ff-ba8b-d3dcb1de5d18","ios":"levelo://app?vid=cbd70446-dda3-40ff-ba8b-d3dcb1de5d18"},"vehicle_type_id":"4","last_reported":1766723193,"current_range_meters":3200,"station_id":"ce4bhn12rcd13ifvqgpg","pricing_plan_id":"cebpf4jnsgd1na2vs0mg"},{"bike_id":"95afbaff-ded0-4a4e-aff2-afd8e7655b73","system_id":"levelo_inurba_marseille","lat":43.3315,"lon":5.41055,"is_reserved":false,"is_disabled":false,"rental_uris":{"android":"levelo://app?vid=95afbaff-ded0-4a4e-aff2-afd8e7655b73","ios":"levelo://app?vid=95afbaff-ded0-4a4e-aff2-afd8e7655b73"},"vehicle_type_id":"4","last_reported":1766723193,"current_range_meters":3600,"station_id":"","pricing_plan_id":"cebpf4jnsgd1na2vs0mg"},{"bike_id":"bb77dbd0-e6fb-4f63-ac26-13e7e8371274","system_id":"levelo_inurba_marseille","lat":43.280334,"lon":5.369446,"is_reserved":false,"is_disabled":false,"rental_uris":{"android":"levelo://app?vid=bb77dbd0-e6fb-4f63-ac26-13e7e8371274","ios":"levelo://app?vid=bb77dbd0-e6fb-4f63-ac26-13e7e8371274"},"vehicle_type_id":"4","last_reported":1766723193,"current_range_meters":4000,"station_id":"ce4bha12rcd13ifvqef0","pricing_plan_id":"cebpf4jnsgd1na2vs0mg"},{"bike_id":"0a4203f5-5882-49d3-9adc-dac28c641913","system_id":"levelo_inurba_marseille","lat":43.2454,"lon":5.3953,"is_reserved":false,"is_disabled":true,"rental_uris":{"android":"levelo://app?vid=0a4203f5-5882-49d3-9adc-dac28c641913","ios":"levelo://app?vid=0a4203f5-5882-49d3-9adc-dac28c641913"},"vehicle_type_id":"4","last_reported":1766723193,"current_range_meters":4000,"station_id":"ce4bhlp2rcd13ifvqgjg","pricing_plan_id":"cebpf4jnsgd1na2vs0mg"},{"bike_id":"f16618b4-39c8-4be6-abcb-d6a559a2f8a8","system_id":"levelo_inurba_marseille","lat":43.33763,"lon":5.374309,"is_reserved":false,"is_disabled":false,"rental_uris":{"android":"levelo://app?vid=f16618b4-39c8-4be6-abcb-d6a559a2f8a8","ios":"levelo://app?vid=f16618b4-39c8-4be6-abcb-d6a559a2f8a8"},"vehicle_type_id":"4","last_reported":1766723193,"current_range_meters":4000,"station_id":"","pricing_plan_id":"cebpf4jnsgd1na2vs0mg"},{"bike_id":"86284fb7-5835-44ae-94b2-d966da387e85","system_id":"levelo_inurba_marseille","lat":43.27207,"lon":5.3918,"is_reserved":false,"is_disabled":false,"rental_uris":{"android":"levelo://app?vid=86284fb7-5835-44ae-94b2-d966da387e85","ios":"levelo://app?vid=86284fb7-5835-44ae-94b2-d966da387e85"},"vehicle_type_id":"4","last_reported":1766723193,"current_range_meters":4400,"station_id":"ce4bhhp2rcd13ifvqfm0","pricing_plan_id":"cebpf4jnsgd1na2vs0mg"},{"bike_id":"8d35fa37-37b3-493d-b2b6-31716da1eca2","system_id":"levelo_inurba_marseille","lat":43.271329,"lon":5.401837,"is_reserved":false,"is_disabled":true,"rental_uris":{"android":"levelo://app?vid=8d35fa37-37b3-493d-b2b6-31716da1eca2","ios":"levelo://app?vid=8d35fa37-37b3-493d-b2b6-31716da1eca2"},"vehicle_type_id":"4","last_reported":1766723193,"current_range_meters":4800,"station_id":"ce4bhk92rcd13ifvqgc0","pricing_plan_id":"cebpf4jnsgd1na2vs0mg"},{"bike_id":"246f8d00-3cb5-45d2-8b0c-53bf44823927","system_id":"levelo_inurba_marseille","lat":43.33757,"lon":5.37424,"is_reserved":false,"is_disabled":false,"rental_uris":{"android":"levelo://app?vid=246f8d00-3cb5-45d2-8b0c-53bf44823927","ios":"levelo://app?vid=246f8d00-3cb5-45d2-8b0c-53bf44823927"},"vehicle_type_id":"4","last_reported":1766723193,"current_range_meters":5600,"station_id":"","pricing_plan_id":"cebpf4jnsgd1na2vs0mg"},{"bike_id":"14a7c2e5-b996-49d9-8af4-0c2749c91c0b","system_id":"levelo_inurba_marseille","lat":43.25412,"lon":5.42441,"is_reserved":false,"is_disabled":false,"rental_uris":{"android":"levelo://app?vid=14a7c2e5-b996-49d9-8af4-0c2749c91c0b","ios":"levelo://app?vid=14a7c2e5-b996-49d9-8af4-0c2749c91c0b"},"vehicle_type_id":"4","last_reported":1766723193,"current_range_meters":5600,"station_id":"","pricing_plan_id":"cebpf4jnsgd1na2vs0mg"},{"bike_id":"04e6a0ca-3fac-40c2-86eb-67963c64e89e","system_id":"levelo_inurba_marseille","lat":43.2364,"lon":5.3794,"is_reserved":false,"is_disabled":false,"rental_uris":{"android":"levelo://app?vid=04e6a0ca-3fac-40c2-86eb-67963c64e89e","ios":"levelo://app?vid=04e6a0ca-3fac-40c2-86eb-67963c64e89e"},"vehicle_type_id":"4","last_reported":1766723193,"current_range_meters":6000,"station_id":"","pricing_plan_id":"cebpf4jnsgd1na2vs0mg"},{"bike_id":"7dfd987d-6296-46e1-8621-37ed96afa95b","system_id":"levelo_inurba_marseille","lat":43.30883,"lon":5.39634,"is_reserved":false,"is_disabled":false,"rental_uris":{"android":"levelo://app?vid=7dfd987d-6296-46e1-8621-37ed96afa95b","ios":"levelo://app?vid=7dfd987d-6296-46e1-8621-37ed96afa95b"},"vehicle_type_id":"4","last_reported":1766723193,"current_range_meters":6400,"station_id":"ce4bh012rcd13ifvqcv0","pricing_plan_id":"cebpf4jnsgd1na2vs0mg"},{"bike_id":"ff1ff454-6737-4273-8295-6ab92ec91f04","system_id":"levelo_inurba_marseille","lat":43.31881,"lon":5.38867,"is_reserved":false,"is_disabled":false,"rental_uris":{"android":"levelo://app?vid=ff1ff454-6737-4273-8295-6ab92ec91f04","ios":"levelo://app?vid=ff1ff454-6737-4273-8295-6ab92ec91f04"},"vehicle_type_id":"4","last_reported":1766723193,"current_range_meters":6400,"station_id":"","pricing_plan_id":"cebpf4jnsgd1na2vs0mg"},{"bike_id":"b25d030b-cb14-4532-a7c0-246eecb7588b","system_id":"levelo_inurba_marseille","lat":43.26847,"lon":5.38528,"is_reserved":false,"is_disabled":false,"rental_uris":{"android":"levelo://app?vid=b25d030b-cb14-4532-a7c0-246eecb7588b","ios":"levelo://app?vid=b25d030b-cb14-4532-a7c0-246eecb7588b"},"vehicle_type_id":"4","last_reported":1766723193,"current_range_meters":6800,"station_id":"","pricing_plan_id":"cebpf4jnsgd1na2vs0mg"},{"bike_id":"0d4b32eb-c45b-4fce-81c1-c3db472d2030","system_id":"levelo_inurba_marseille","lat":43.32345,"lon":5.38502,"is_reserved":false,"is_disabled":false,"rental_uris":{"android":"levelo://app?vid=0d4b32eb-c45b-4fce-81c1-c3db472d2030","ios":"levelo://app?vid=0d4b32eb-c45b-4fce-81c1-c3db472d2030"},"vehicle_type_id":"4","last_reported":1766723193,"current_range_meters":6800,"station_id":"st_d45171o9ee8s73djdqug","pricing_plan_id":"cebpf4jnsgd1na2vs0mg"},{"bike_id":"580155fc-c9ad-4365-86e8-536c105ed327","system_id":"levelo_inurba_marseille","lat":43.299749,"lon":5.371776,"is_reserved":false,"is_disabled":false,"rental_uris":{"android":"levelo://app?vid=580155fc-c9ad-4365-86e8-536c105ed327","ios":"levelo://app?vid=580155fc-c9ad-4365-86e8-536c105ed327"},"vehicle_type_id":"4","last_reported":1766723193,"current_range_meters":6800,"station_id":"ce4bgr92rcd13ifvqc7g","pricing_plan_id":"cebpf4jnsgd1na2vs0mg"},{"bike_id":"3d5c0126-49ce-4be0-a1d2-e685467c6147","system_id":"levelo_inurba_marseille","lat":43.299364,"lon":5.373254,"is_reserved":false,"is_disabled":false,"rental_uris":{"android":"levelo://app?vid=3d5c0126-49ce-4be0-a1d2-e685467c6147","ios":"levelo://app?vid=3d5c0126-49ce-4be0-a1d2-e685467c6147"},"vehicle_type_id":"4","last_reported":1766723193,"current_range_meters":6800,"station_id":"","pricing_plan_id":"cebpf4jnsgd1na2vs0mg"},{"bike_id":"a6757314-cdf1-40d1-9d6d-c9cb4564296d","system_id":"levelo_inurba_marseille","lat":43.30566,"lon":5.36704,"is_reserved":false,"is_disabled":false,"rental_uris":{"android":"levelo://app?vid=a6757314-cdf1-40d1-9d6d-c9cb4564296d","ios":"levelo://app?vid=a6757314-cdf1-40d1-9d6d-c9cb4564296d"},"vehicle_type_id":"4","last_reported":1766723193,"current_range_meters":7200,"station_id":"ce4bgrp2rcd13ifvqc9g","pricing_plan_id":"cebpf4jnsgd1na2vs0mg"},{"bike_id":"fc4a9061-1ff0-484c-9eb3-c7b62988aa13","system_id":"levelo_inurba_marseille","lat":43.309021,"lon":5.370836,"is_reserved":false,"is_disabled":false,"rental_uris":{"android":"levelo://app?vid=fc4a9061-1ff0-484c-9eb3-c7b62988aa13","ios":"levelo://app?vid=fc4a9061-1ff0-484c-9eb3-c7b62988aa13"},"vehicle_type_id":"4","last_reported":1766723193,"current_range_meters":7200,"station_id":"","pricing_plan_id":"cebpf4jnsgd1na2vs0mg"},{"bike_id":"d633d7e4-d81f-40ba-aed4-08940b4408d3","system_id":"levelo_inurba_marseille","lat":43.26036,"lon":5.37542,"is_reserved":false,"is_disabled":false,"rental_uris":{"android":"levelo://app?vid=d633d7e4-d81f-40ba-aed4-08940b4408d3","ios":"levelo://app?vid=d633d7e4-d81f-40ba-aed4-08940b4408d3"},"vehicle_type_id":"4","last_reported":1766723193,"current_range_meters":7200,"station_id":"ce4bhgh2rcd13ifvqfa0","pricing_plan_id":"cebpf4jnsgd1na2vs0mg"},{"bike_id":"2309261d-eca2-4d84-b3da-0560f8589d5e","system_id":"levelo_inurba_marseille","lat":43.32532,"lon":5.40935,"is_reserved":false,"is_disabled":false,"rental_uris":{"android":"levelo://app?vid=2309261d-eca2-4d84-b3da-0560f8589d5e","ios":"levelo://app?vid=2309261d-eca2-4d84-b3da-0560f8589d5e"},"vehicle_type_id":"4","last_reported":1766723193,"current_range_meters":7200,"station_id":"","pricing_plan_id":"cebpf4jnsgd1na2vs0mg"},{"bike_id":"9adb2c79-a004-4223-a715-288d37cd13ba","system_id":"levelo_inurba_marseille","lat":43.28929,"lon":5.384034,"is_reserved":false,"is_disabled":true,"rental_uris":{"android":"levelo://app?vid=9adb2c79-a004-4223-a715-288d37cd13ba","ios":"levelo://app?vid=9adb2c79-a004-4223-a715-288d37cd13ba"},"vehicle_type_id":"4","last_reported":1766723193,"current_range_meters":8000,"station_id":"ce4bh612rcd13ifvqe6g","pricing_plan_id":"cebpf4jnsgd1na2vs0mg"},{"bike_id":"50e085f7-5c28-4ded-9f3d-34a4b73a1742","system_id":"levelo_inurba_marseille","lat":43.27939,"lon":5.38725,"is_reserved":false,"is_disabled":false,"rental_uris":{"android":"levelo://app?vid=50e085f7-5c28-4ded-9f3d-34a4b73a1742","ios":"levelo://app?vid=50e085f7-5c28-4ded-9f3d-34a4b73a1742"},"vehicle_type_id":"4","last_reported":1766723193,"current_range_meters":8000,"station_id":"ce4bhg12rcd13ifvqf80","pricing_plan_id":"cebpf4jnsgd1na2vs0mg"},{"bike_id":"04039739-a1c4-40ab-a021-af97a637b17b","system_id":"levelo_inurba_marseille","lat":43.304461,"lon":5.388961,"is_reserved":false,"is_disabled":false,"rental_uris":{"android":"levelo://app?vid=04039739-a1c4-40ab-a021-af97a637b17b","ios":"levelo://app?vid=04039739-a1c4-40ab-a021-af97a637b17b"},"vehicle_type_id":"4","last_reported":1766723193,"current_range_meters":8000,"station_id":"ce4bgk12rcd13ifvqbi0","pricing_plan_id":"cebpf4jnsgd1na2vs0mg"},{"bike_id":"5370d48f-3300-47cd-ba67-92c976c4d9ca","system_id":"levelo_inurba_marseille","lat":43.32354,"lon":5.38507,"is_reserved":false,"is_disabled":false,"rental_uris":{"android":"levelo://app?vid=5370d48f-3300-47cd-ba67-92c976c4d9ca","ios":"levelo://app?vid=5370d48f-3300-47cd-ba67-92c976c4d9ca"},"vehicle_type_id":"4","last_reported":1766723193,"current_range_meters":8000,"station_id":"st_d45171o9ee8s73djdqug","pricing_plan_id":"cebpf4jnsgd1na2vs0mg"},{"bike_id":"d687cff1-b05f-413c-899e-7dcc2404a58d","system_id":"levelo_inurba_marseille","lat":43.29797,"lon":5.44077,"is_reserved":false,"is_disabled":false,"rental_uris":{"android":"levelo://app?vid=d687cff1-b05f-413c-899e-7dcc2404a58d","ios":"levelo://app?vid=d687cff1-b05f-413c-899e-7dcc2404a58d"},"vehicle_type_id":"4","last_reported":1766723193,"current_range_meters":8000,"station_id":"st_d3jp68qikq2c7381ktn0","pricing_plan_id":"cebpf4jnsgd1na2vs0mg"},{"bike_id":"16972b46-16f7-4636-ba99-c8cf896c9f73","system_id":"levelo_inurba_marseille","lat":43.34697,"lon":5.34551,"is_reserved":false,"is_disabled":false,"rental_uris":{"android":"levelo://app?vid=16972b46-16f7-4636-ba99-c8cf896c9f73","ios":"levelo://app?vid=16972b46-16f7-4636-ba99-c8cf896c9f73"},"vehicle_type_id":"4","last_reported":1766723193,"current_range_meters":8000,"station_id":"","pricing_plan_id":"cebpf4jnsgd1na2vs0mg"},{"bike_id":"25692b7d-0611-4ec6-920b-3dacb7acc75b","system_id":"levelo_inurba_marseille","lat":43.30736,"lon":5.42433,"is_reserved":false,"is_disabled":true,"rental_uris":{"android":"levelo://app?vid=25692b7d-0611-4ec6-920b-3dacb7acc75b","ios":"levelo://app?vid=25692b7d-0611-4ec6-920b-3dacb7acc75b"},"vehicle_type_id":"4","last_reported":1766723193,"current_range_meters":8400,"station_id":"st_cvj6ca6bvosntc0bfgr0","pricing_plan_id":"cebpf4jnsgd1na2vs0mg"},{"bike_id":"be7a9432-6e0b-4312-8b03-b1b0268b17ca","system_id":"levelo_inurba_marseille","lat":43.29651,"lon":5.36838,"is_reserved":false,"is_disabled":false,"rental_uris":{"android":"levelo://app?vid=be7a9432-6e0b-4312-8b03-b1b0268b17ca","ios":"levelo://app?vid=be7a9432-6e0b-4312-8b03-b1b0268b17ca"},"vehicle_type_id":"4","last_reported":1766723193,"current_range_meters":8400,"station_id":"","pricing_plan_id":"cebpf4jnsgd1na2vs0mg"},{"bike_id":"19eb8be4-7144-48a4-b80b-c33bc0879e0f","system_id":"levelo_inurba_marseille","lat":43.31616,"lon":5.36654,"is_reserved":false,"is_disabled":false,"rental_uris":{"android":"levelo://app?vid=19eb8be4-7144-48a4-b80b-c33bc0879e0f","ios":"levelo://app?vid=19eb8be4-7144-48a4-b80b-c33bc0879e0f"},"vehicle_type_id":"4","last_reported":1766723193,"current_range_meters":8400,"station_id":"","pricing_plan_id":"cebpf4jnsgd1na2vs0mg"},{"bike_id":"c7d70985-9946-4223-9b32-aac6dda0710e","system_id":"levelo_inurba_marseille","lat":43.330144,"lon":5.39033,"is_reserved":false,"is_disabled":false,"rental_uris":{"android":"levelo://app?vid=c7d70985-9946-4223-9b32-aac6dda0710e","ios":"levelo://app?vid=c7d70985-9946-4223-9b32-aac6dda0710e"},"vehicle_type_id":"4","last_reported":1766723193,"current_range_meters":8400,"station_id":"ce4bhr92rcd13ifvqhrg","pricing_plan_id":"cebpf4jnsgd1na2vs0mg"},{"bike_id":"a7347589-846f-46d2-a3e4-db98ead956cd","system_id":"levelo_inurba_marseille","lat":43.304657,"lon":5.379172,"is_reserved":false,"is_disabled":false,"rental_uris":{"android":"levelo://app?vid=a7347589-846f-46d2-a3e4-db98ead956cd","ios":"levelo://app?vid=a7347589-846f-46d2-a3e4-db98ead956cd"},"vehicle_type_id":"4","last_reported":1766723193,"current_range_meters":8400,"station_id":"ce4bgup2rcd13ifvqcn0","pricing_plan_id":"cebpf4jnsgd1na2vs0mg"},{"bike_id":"69b325de-dafe-4e22-8c04-6d58cc3c7fbb","system_id":"levelo_inurba_marseille","lat":43.31074,"lon":5.42455,"is_reserved":false,"is_disabled":true,"rental_uris":{"android":"levelo://app?vid=69b325de-dafe-4e22-8c04-6d58cc3c7fbb","ios":"levelo://app?vid=69b325de-dafe-4e22-8c04-6d58cc3c7fbb"},"vehicle_type_id":"4","last_reported":1766723193,"current_range_meters":8400,"station_id":"ce4bhp92rcd13ifvqhag","pricing_plan_id":"cebpf4jnsgd1na2vs0mg"},{"bike_id":"d12f6f1b-4a60-45fc-a139-3aa21aaef7c2","system_id":"levelo_inurba_marseille","lat":43.30089,"lon":5.39122,"is_reserved":false,"is_disabled":false,"rental_uris":{"android":"levelo://app?vid=d12f6f1b-4a60-45fc-a139-3aa21aaef7c2","ios":"levelo://app?vid=d12f6f1b-4a60-45fc-a139-3aa21aaef7c2"},"vehicle_type_id":"4","last_reported":1766723193,"current_range_meters":8400,"station_id":"ce4bh192rcd13ifvqdb0","pricing_plan_id":"cebpf4jnsgd1na2vs0mg"},{"bike_id":"e0706769-8d39-44ec-816a-ad5b1e1b67c4","system_id":"levelo_inurba_marseille","lat":43.31761,"lon":5.39892,"is_reserved":false,"is_disabled":false,"rental_uris":{"android":"levelo://app?vid=e0706769-8d39-44ec-816a-ad5b1e1b67c4","ios":"levelo://app?vid=e0706769-8d39-44ec-816a-ad5b1e1b67c4"},"vehicle_type_id":"4","last_reported":1766723193,"current_range_meters":8400,"station_id":"","pricing_plan_id":"cebpf4jnsgd1na2vs0mg"},{"bike_id":"661e8893-a078-4197-9f2c-d983d74bf89c","system_id":"levelo_inurba_marseille","lat":43.25004,"lon":5.38944,"is_reserved":false,"is_disabled":false,"rental_uris":{"android":"levelo://app?vid=661e8893-a078-4197-9f2c-d983d74bf89c","ios":"levelo://app?vid=661e8893-a078-4197-9f2c-d983d74bf89c"},"vehicle_type_id":"4","last_reported":1766723193,"current_range_meters":8800,"station_id":"ce4bhgp2rcd13ifvqfd0","pricing_plan_id":"cebpf4jnsgd1na2vs0mg"},{"bike_id":"bed00df6-d661-4640-b4e5-5c4df1e0ced4","system_id":"levelo_inurba_marseille","lat":43.302483,"lon":5.400857,"is_reserved":false,"is_disabled":false,"rental_uris":{"android":"levelo://app?vid=bed00df6-d661-4640-b4e5-5c4df1e0ced4","ios":"levelo://app?vid=bed00df6-d661-4640-b4e5-5c4df1e0ced4"},"vehicle_type_id":"4","last_reported":1766723193,"current_range_meters":8800,"station_id":"","pricing_plan_id":"cebpf4jnsgd1na2vs0mg"},{"bike_id":"f565703e-dda0-44f8-b2c2-0e3dca8957eb","system_id":"levelo_inurba_marseille","lat":43.33119,"lon":5.3968,"is_reserved":false,"is_disabled":false,"rental_uris":{"android":"levelo://app?vid=f565703e-dda0-44f8-b2c2-0e3dca8957eb","ios":"levelo://app?vid=f565703e-dda0-44f8-b2c2-0e3dca8957eb"},"vehicle_type_id":"4","last_reported":1766723193,"current_range_meters":8800,"station_id":"","pricing_plan_id":"cebpf4jnsgd1na2vs0mg"},{"bike_id":"1c1c95f3-dcc1-445a-a32a-463d8e5ca225","system_id":"levelo_inurba_marseille","lat":43.305494,"lon":5.384542,"is_reserved":false,"is_disabled":false,"rental_uris":{"android":"levelo://app?vid=1c1c95f3-dcc1-445a-a32a-463d8e5ca225","ios":"levelo://app?vid=1c1c95f3-dcc1-445a-a32a-463d8e5ca225"},"vehicle_type_id":"4","last_reported":1766723193,"current_range_meters":8800,"station_id":"ce4bgg92rcd13ifvqb30","pricing_plan_id":"cebpf4jnsgd1na2vs0mg"},{"bike_id":"503b673f-3dc2-46a9-8c8e-b651d7ed1e36","system_id":"levelo_inurba_marseille","lat":43.280023,"lon":5.416521,"is_reserved":false,"is_disabled":true,"rental_uris":{"android":"levelo://app?vid=503b673f-3dc2-46a9-8c8e-b651d7ed1e36","ios":"levelo://app?vid=503b673f-3dc2-46a9-8c8e-b651d7ed1e36"},"vehicle_type_id":"4","last_reported":1766723193,"current_range_meters":8800,"station_id":"ce4bho12rcd13ifvqh1g","pricing_plan_id":"cebpf4jnsgd1na2vs0mg"},{"bike_id":"7d019b1c-0326-459c-a185-c589f7240f94","system_id":"levelo_inurba_marseille","lat":43.285339,"lon":5.440933,"is_reserved":false,"is_disabled":false,"rental_uris":{"android":"levelo://app?vid=7d019b1c-0326-459c-a185-c589f7240f94","ios":"levelo://app?vid=7d019b1c-0326-459c-a185-c589f7240f94"},"vehicle_type_id":"4","last_reported":1766723193,"current_range_meters":8800,"station_id":"st_d3j3df2ikq2c7380ej80","pricing_plan_id":"cebpf4jnsgd1na2vs0mg"},{"bike_id":"8e7438e5-6e4c-4f10-88a7-6f965b921272","system_id":"levelo_inurba_marseille","lat":43.27968,"lon":5.38719,"is_reserved":false,"is_disabled":false,"rental_uris":{"android":"levelo://app?vid=8e7438e5-6e4c-4f10-88a7-6f965b921272","ios":"levelo://app?vid=8e7438e5-6e4c-4f10-88a7-6f965b921272"},"vehicle_type_id":"4","last_reported":1766723193,"current_range_meters":8800,"station_id":"ce4bhg12rcd13ifvqf80","pricing_plan_id":"cebpf4jnsgd1na2vs0mg"},{"bike_id":"6b1bb24c-5465-40a7-a190-cf7862deee8c","system_id":"levelo_inurba_marseille","lat":43.316539,"lon":5.394572,"is_reserved":false,"is_disabled":false,"rental_uris":{"android":"levelo://app?vid=6b1bb24c-5465-40a7-a190-cf7862deee8c","ios":"levelo://app?vid=6b1bb24c-5465-40a7-a190-cf7862deee8c"},"vehicle_type_id":"4","last_reported":1766723193,"current_range_meters":8800,"station_id":"","pricing_plan_id":"cebpf4jnsgd1na2vs0mg"},{"bike_id":"bc453200-0c72-47a9-b532-9d4911031a96","system_id":"levelo_inurba_marseille","lat":43.299687,"lon":5.385056,"is_reserved":false,"is_disabled":false,"rental_uris":{"android":"levelo://app?vid=bc453200-0c72-47a9-b532-9d4911031a96","ios":"levelo://app?vid=bc453200-0c72-47a9-b532-9d4911031a96"},"vehicle_type_id":"4","last_reported":1766723193,"current_range_meters":8800,"station_id":"ce4bgj92rcd13ifvqbd0","pricing_plan_id":"cebpf4jnsgd1na2vs0mg"},{"bike_id":"1203e470-4d9a-4312-ba6d-447ee46f0a33","system_id":"levelo_inurba_marseille","lat":43.32845,"lon":5.3918,"is_reserved":false,"is_disabled":false,"rental_uris":{"android":"levelo://app?vid=1203e470-4d9a-4312-ba6d-447ee46f0a33","ios":"levelo://app?vid=1203e470-4d9a-4312-ba6d-447ee46f0a33"},"vehicle_type_id":"4","last_reported":1766723193,"current_range_meters":8800,"station_id":"","pricing_plan_id":"cebpf4jnsgd1na2vs0mg"},{"bike_id":"5adb93f4-5835-4880-ac04-efe4431c38ed","system_id":"levelo_inurba_marseille","lat":43.25405,"lon":5.4243,"is_reserved":false,"is_disabled":false,"rental_uris":{"android":"levelo://app?vid=5adb93f4-5835-4880-ac04-efe4431c38ed","ios":"levelo://app?vid=5adb93f4-5835-4880-ac04-efe4431c38ed"},"vehicle_type_id":"4","last_reported":1766723193,"current_range_meters":8800,"station_id":"","pricing_plan_id":"cebpf4jnsgd1na2vs0mg"},{"bike_id":"41dc2477-7b23-413b-8ee6-ec79c378cb3a","system_id":"levelo_inurba_marseille","lat":43.33664,"lon":5.3748,"is_reserved":false,"is_disabled":false,"rental_uris":{"android":"levelo://app?vid=41dc2477-7b23-413b-8ee6-ec79c378cb3a","ios":"levelo://app?vid=41dc2477-7b23-413b-8ee6-ec79c378cb3a"},"vehicle_type_id":"4","last_reported":1766723193,"current_range_meters":9200,"station_id":"","pricing_plan_id":"cebpf4jnsgd1na2vs0mg"},{"bike_id":"83a5edcb-0806-419a-8bb9-90a4cc1f094d","system_id":"levelo_inurba_marseille","lat":43.33704,"lon":5.40947,"is_reserved":false,"is_disabled":false,"rental_uris":{"android":"levelo://app?vid=83a5edcb-0806-419a-8bb9-90a4cc1f094d","ios":"levelo://app?vid=83a5edcb-0806-419a-8bb9-90a4cc1f094d"},"vehicle_type_id":"4","last_reported":1766723193,"current_range_meters":9200,"station_id":"","pricing_plan_id":"cebpf4jnsgd1na2vs0mg"},{"bike_id":"3e346a2c-c4f8-4d56-8dfe-41e7954cb434","system_id":"levelo_inurba_marseille","lat":43.288846,"lon":5.44991,"is_reserved":false,"is_disabled":false,"rental_uris":{"android":"levelo://app?vid=3e346a2c-c4f8-4d56-8dfe-41e7954cb434","ios":"levelo://app?vid=3e346a2c-c4f8-4d56-8dfe-41e7954cb434"},"vehicle_type_id":"4","last_reported":1766723193,"current_range_meters":9200,"station_id":"","pricing_plan_id":"cebpf4jnsgd1na2vs0mg"},{"bike_id":"e0effb5a-e8c9-4234-ae32-e89cc890b254","system_id":"levelo_inurba_marseille","lat":43.28871,"lon":5.4253,"is_reserved":false,"is_disabled":false,"rental_uris":{"android":"levelo://app?vid=e0effb5a-e8c9-4234-ae32-e89cc890b254","ios":"levelo://app?vid=e0effb5a-e8c9-4234-ae32-e89cc890b254"},"vehicle_type_id":"4","last_reported":1766723193,"current_range_meters":9200,"station_id":"st_d3b462108ojc7389ooeg","pricing_plan_id":"cebpf4jnsgd1na2vs0mg"},{"bike_id":"c39e547b-5e76-4ddf-b1c7-8c526646e6d6","system_id":"levelo_inurba_marseille","lat":43.32329,"lon":5.39494,"is_reserved":false,"is_disabled":false,"rental_uris":{"android":"levelo://app?vid=c39e547b-5e76-4ddf-b1c7-8c526646e6d6","ios":"levelo://app?vid=c39e547b-5e76-4ddf-b1c7-8c526646e6d6"},"vehicle_type_id":"4","last_reported":1766723193,"current_range_meters":9200,"station_id":"","pricing_plan_id":"cebpf4jnsgd1na2vs0mg"},{"bike_id":"8e9e5493-4af1-491a-838b-33b492de2d56","system_id":"levelo_inurba_marseille","lat":43.26196,"lon":5.37471,"is_reserved":false,"is_disabled":false,"rental_uris":{"android":"levelo://app?vid=8e9e5493-4af1-491a-838b-33b492de2d56","ios":"levelo://app?vid=8e9e5493-4af1-491a-838b-33b492de2d56"},"vehicle_type_id":"4","last_reported":1766723193,"current_range_meters":9200,"station_id":"ce4bhgp2rcd13ifvqfc0","pricing_plan_id":"cebpf4jnsgd1na2vs0mg"},{"bike_id":"8fcf17e9-6f12-40c5-b477-90499f0bb83c","system_id":"levelo_inurba_marseille","lat":43.337563,"lon":5.374336,"is_reserved":false,"is_disabled":false,"rental_uris":{"android":"levelo://app?vid=8fcf17e9-6f12-40c5-b477-90499f0bb83c","ios":"levelo://app?vid=8fcf17e9-6f12-40c5-b477-90499f0bb83c"},"vehicle_type_id":"4","last_reported":1766723193,"current_range_meters":9600,"station_id":"","pricing_plan_id":"cebpf4jnsgd1na2vs0mg"},{"bike_id":"3d233491-15b1-43bc-8d0f-86291ac326b7","system_id":"levelo_inurba_marseille","lat":43.29058,"lon":5.3757,"is_reserved":false,"is_disabled":false,"rental_uris":{"android":"levelo://app?vid=3d233491-15b1-43bc-8d0f-86291ac326b7","ios":"levelo://app?vid=3d233491-15b1-43bc-8d0f-86291ac326b7"},"vehicle_type_id":"4","last_reported":1766723193,"current_range_meters":9600,"station_id":"ce4bh692rcd13ifvqe90","pricing_plan_id":"cebpf4jnsgd1na2vs0mg"},{"bike_id":"2ef54144-4914-4819-9957-693aacc91a44","system_id":"levelo_inurba_marseille","lat":43.29546,"lon":5.39085,"is_reserved":false,"is_disabled":false,"rental_uris":{"android":"levelo://app?vid=2ef54144-4914-4819-9957-693aacc91a44","ios":"levelo://app?vid=2ef54144-4914-4819-9957-693aacc91a44"},"vehicle_type_id":"4","last_reported":1766723193,"current_range_meters":9600,"station_id":"ce4bh3p2rcd13ifvqdp0","pricing_plan_id":"cebpf4jnsgd1na2vs0mg"},{"bike_id":"810e1fac-3433-4833-8834-39cfdf4fd050","system_id":"levelo_inurba_marseille","lat":43.32537,"lon":5.40478,"is_reserved":false,"is_disabled":false,"rental_uris":{"android":"levelo://app?vid=810e1fac-3433-4833-8834-39cfdf4fd050","ios":"levelo://app?vid=810e1fac-3433-4833-8834-39cfdf4fd050"},"vehicle_type_id":"4","last_reported":1766723193,"current_range_meters":9600,"station_id":"","pricing_plan_id":"cebpf4jnsgd1na2vs0mg"},{"bike_id":"6d373430-813a-4ac6-a484-9f4402e994cc","system_id":"levelo_inurba_marseille","lat":43.217432,"lon":5.346069,"is_reserved":false,"is_disabled":false,"rental_uris":{"android":"levelo://app?vid=6d373430-813a-4ac6-a484-9f4402e994cc","ios":"levelo://app?vid=6d373430-813a-4ac6-a484-9f4402e994cc"},"vehicle_type_id":"4","last_reported":1766723193,"current_range_meters":9600,"station_id":"st_cvj6r9ubvosntc0bgbag","pricing_plan_id":"cebpf4jnsgd1na2vs0mg"},{"bike_id":"0cc07e4e-e52e-4c26-9594-449188a42844","system_id":"levelo_inurba_marseille","lat":43.24646,"lon":5.43139,"is_reserved":false,"is_disabled":false,"rental_uris":{"android":"levelo://app?vid=0cc07e4e-e52e-4c26-9594-449188a42844","ios":"levelo://app?vid=0cc07e4e-e52e-4c26-9594-449188a42844"},"vehicle_type_id":"4","last_reported":1766723193,"current_range_meters":9600,"station_id":"st_d2m6c4gdas8pm72e190g","pricing_plan_id":"cebpf4jnsgd1na2vs0mg"},{"bike_id":"7f01de1e-82c5-4abd-a8a0-bd31c8a992fa","system_id":"levelo_inurba_marseille","lat":43.29965,"lon":5.41334,"is_reserved":false,"is_disabled":true,"rental_uris":{"android":"levelo://app?vid=7f01de1e-82c5-4abd-a8a0-bd31c8a992fa","ios":"levelo://app?vid=7f01de1e-82c5-4abd-a8a0-bd31c8a992fa"},"vehicle_type_id":"4","last_reported":1766723193,"current_range_meters":9600,"station_id":"ce4bhp12rcd13ifvqh9g","pricing_plan_id":"cebpf4jnsgd1na2vs0mg"},{"bike_id":"2fad9db5-aa59-4d67-acc6-8a420e8c641e","system_id":"levelo_inurba_marseille","lat":43.28632,"lon":5.39964,"is_reserved":false,"is_disabled":false,"rental_uris":{"android":"levelo://app?vid=2fad9db5-aa59-4d67-acc6-8a420e8c641e","ios":"levelo://app?vid=2fad9db5-aa59-4d67-acc6-8a420e8c641e"},"vehicle_type_id":"4","last_reported":1766723193,"current_range_meters":9600,"station_id":"","pricing_plan_id":"cebpf4jnsgd1na2vs0mg"},{"bike_id":"d599872b-c0c3-44cd-b358-8d937156a2af","system_id":"levelo_inurba_marseille","lat":43.278109,"lon":5.407078,"is_reserved":false,"is_disabled":false,"rental_uris":{"android":"levelo://app?vid=d599872b-c0c3-44cd-b358-8d937156a2af","ios":"levelo://app?vid=d599872b-c0c3-44cd-b358-8d937156a2af"},"vehicle_type_id":"4","last_reported":1766723193,"current_range_meters":10000,"station_id":"ce4bhnh2rcd13ifvqgtg","pricing_plan_id":"cebpf4jnsgd1na2vs0mg"},{"bike_id":"54521975-972b-411d-b9c4-ce6f16ef3aa4","system_id":"levelo_inurba_marseille","lat":43.2975,"lon":5.38548,"is_reserved":false,"is_disabled":false,"rental_uris":{"android":"levelo://app?vid=54521975-972b-411d-b9c4-ce6f16ef3aa4","ios":"levelo://app?vid=54521975-972b-411d-b9c4-ce6f16ef3aa4"},"vehicle_type_id":"4","last_reported":1766723193,"current_range_meters":10000,"station_id":"","pricing_plan_id":"cebpf4jnsgd1na2vs0mg"},{"bike_id":"2b7d16da-f035-4c02-bb90-d235d35a3d08","system_id":"levelo_inurba_marseille","lat":43.26097,"lon":5.40137,"is_reserved":false,"is_disabled":false,"rental_uris":{"android":"levelo://app?vid=2b7d16da-f035-4c02-bb90-d235d35a3d08","ios":"levelo://app?vid=2b7d16da-f035-4c02-bb90-d235d35a3d08"},"vehicle_type_id":"4","last_reported":1766723193,"current_range_meters":10000,"station_id":"","pricing_plan_id":"cebpf4jnsgd1na2vs0mg"},{"bike_id":"b8ecf1ca-3cae-4c7e-8c1f-d3ba84ca88c6","system_id":"levelo_inurba_marseille","lat":43.30813,"lon":5.38154,"is_reserved":false,"is_disabled":false,"rental_uris":{"android":"levelo://app?vid=b8ecf1ca-3cae-4c7e-8c1f-d3ba84ca88c6","ios":"levelo://app?vid=b8ecf1ca-3cae-4c7e-8c1f-d3ba84ca88c6"},"vehicle_type_id":"4","last_reported":1766723193,"current_range_meters":10000,"station_id":"ce4bgt12rcd13ifvqce0","pricing_plan_id":"cebpf4jnsgd1na2vs0mg"},{"bike_id":"e63d9a65-4cde-4906-9735-3200b2d7a155","system_id":"levelo_inurba_marseille","lat":43.29649,"lon":5.38007,"is_reserved":false,"is_disabled":false,"rental_uris":{"android":"levelo://app?vid=e63d9a65-4cde-4906-9735-3200b2d7a155","ios":"levelo://app?vid=e63d9a65-4cde-4906-9735-3200b2d7a155"},"vehicle_type_id":"4","last_reported":1766723193,"current_range_meters":10000,"station_id":"","pricing_plan_id":"cebpf4jnsgd1na2vs0mg"},{"bike_id":"9c6027c3-45f2-4a55-91a4-91579f7e8b7c","system_id":"levelo_inurba_marseille","lat":43.30151,"lon":5.38076,"is_reserved":false,"is_disabled":false,"rental_uris":{"android":"levelo://app?vid=9c6027c3-45f2-4a55-91a4-91579f7e8b7c","ios":"levelo://app?vid=9c6027c3-45f2-4a55-91a4-91579f7e8b7c"},"vehicle_type_id":"4","last_reported":1766723193,"current_range_meters":10000,"station_id":"ce4bgjp2rcd13ifvqbh0","pricing_plan_id":"cebpf4jnsgd1na2vs0mg"},{"bike_id":"bc5e3544-bda1-4030-aedf-2a64fd688c9d","system_id":"levelo_inurba_marseille","lat":43.32109,"lon":5.36782,"is_reserved":false,"is_disabled":false,"rental_uris":{"android":"levelo://app?vid=bc5e3544-bda1-4030-aedf-2a64fd688c9d","ios":"levelo://app?vid=bc5e3544-bda1-4030-aedf-2a64fd688c9d"},"vehicle_type_id":"4","last_reported":1766723193,"current_range_meters":10000,"station_id":"ce4bhrh2rcd13ifvqhug","pricing_plan_id":"cebpf4jnsgd1na2vs0mg"},{"bike_id":"2bcf6ae4-322c-43d0-9880-65aeda24ed67","system_id":"levelo_inurba_marseille","lat":43.32409,"lon":5.36902,"is_reserved":false,"is_disabled":false,"rental_uris":{"android":"levelo://app?vid=2bcf6ae4-322c-43d0-9880-65aeda24ed67","ios":"levelo://app?vid=2bcf6ae4-322c-43d0-9880-65aeda24ed67"},"vehicle_type_id":"4","last_reported":1766723193,"current_range_meters":10000,"station_id":"","pricing_plan_id":"cebpf4jnsgd1na2vs0mg"},{"bike_id":"c77523a1-9d61-47d4-bde2-33be502221c0","system_id":"levelo_inurba_marseille","lat":43.32416,"lon":5.36559,"is_reserved":false,"is_disabled":true,"rental_uris":{"android":"levelo://app?vid=c77523a1-9d61-47d4-bde2-33be502221c0","ios":"levelo://app?vid=c77523a1-9d61-47d4-bde2-33be502221c0"},"vehicle_type_id":"4","last_reported":1766723193,"current_range_meters":10000,"station_id":"","pricing_plan_id":"cebpf4jnsgd1na2vs0mg"},{"bike_id":"cda3bfc9-4198-417c-9fa3-c09801245bc4","system_id":"levelo_inurba_marseille","lat":43.294907,"lon":5.433084,"is_reserved":false,"is_disabled":false,"rental_uris":{"android":"levelo://app?vid=cda3bfc9-4198-417c-9fa3-c09801245bc4","ios":"levelo://app?vid=cda3bfc9-4198-417c-9fa3-c09801245bc4"},"vehicle_type_id":"4","last_reported":1766723193,"current_range_meters":10000,"station_id":"st_d3j5ugp08ojc73fj9d10","pricing_plan_id":"cebpf4jnsgd1na2vs0mg"},{"bike_id":"1b263ff7-e4c5-4599-95a5-de73baef7de9","system_id":"levelo_inurba_marseille","lat":43.29859,"lon":5.36296,"is_reserved":false,"is_disabled":false,"rental_uris":{"android":"levelo://app?vid=1b263ff7-e4c5-4599-95a5-de73baef7de9","ios":"levelo://app?vid=1b263ff7-e4c5-4599-95a5-de73baef7de9"},"vehicle_type_id":"4","last_reported":1766723193,"current_range_meters":10000,"station_id":"ce4bgpp2rcd13ifvqc3g","pricing_plan_id":"cebpf4jnsgd1na2vs0mg"},{"bike_id":"9c8087b0-4ddf-40a6-bfb6-194f4fbb64bb","system_id":"levelo_inurba_marseille","lat":43.24549,"lon":5.39517,"is_reserved":false,"is_disabled":false,"rental_uris":{"android":"levelo://app?vid=9c8087b0-4ddf-40a6-bfb6-194f4fbb64bb","ios":"levelo://app?vid=9c8087b0-4ddf-40a6-bfb6-194f4fbb64bb"},"vehicle_type_id":"4","last_reported":1766723193,"current_range_meters":10000,"station_id":"ce4bhlp2rcd13ifvqgjg","pricing_plan_id":"cebpf4jnsgd1na2vs0mg"},{"bike_id":"dedff927-854d-4b37-8155-fe307926e983","system_id":"levelo_inurba_marseille","lat":43.30625,"lon":5.3933,"is_reserved":false,"is_disabled":false,"rental_uris":{"android":"levelo://app?vid=dedff927-854d-4b37-8155-fe307926e983","ios":"levelo://app?vid=dedff927-854d-4b37-8155-fe307926e983"},"vehicle_type_id":"4","last_reported":1766723193,"current_range_meters":10000,"station_id":"ce4bh0p2rcd13ifvqd80","pricing_plan_id":"cebpf4jnsgd1na2vs0mg"},{"bike_id":"a3be4a7c-7544-49a9-8048-28fcde31ea3d","system_id":"levelo_inurba_marseille","lat":43.29312,"lon":5.37344,"is_reserved":false,"is_disabled":false,"rental_uris":{"android":"levelo://app?vid=a3be4a7c-7544-49a9-8048-28fcde31ea3d","ios":"levelo://app?vid=a3be4a7c-7544-49a9-8048-28fcde31ea3d"},"vehicle_type_id":"4","last_reported":1766723193,"current_range_meters":10000,"station_id":"ce4bgi12rcd13ifvqb70","pricing_plan_id":"cebpf4jnsgd1na2vs0mg"},{"bike_id":"25b8b740-dc37-4147-8170-d4b89ca78fa6","system_id":"levelo_inurba_marseille","lat":43.26777,"lon":5.39439,"is_reserved":false,"is_disabled":false,"rental_uris":{"android":"levelo://app?vid=25b8b740-dc37-4147-8170-d4b89ca78fa6","ios":"levelo://app?vid=25b8b740-dc37-4147-8170-d4b89ca78fa6"},"vehicle_type_id":"4","last_reported":1766723193,"current_range_meters":10800,"station_id":"ce4bhh12rcd13ifvqfg0","pricing_plan_id":"cebpf4jnsgd1na2vs0mg"},{"bike_id":"a4c0bab3-d4dd-42e5-ac93-568c339842a6","system_id":"levelo_inurba_marseille","lat":43.27949,"lon":5.41044,"is_reserved":false,"is_disabled":false,"rental_uris":{"android":"levelo://app?vid=a4c0bab3-d4dd-42e5-ac93-568c339842a6","ios":"levelo://app?vid=a4c0bab3-d4dd-42e5-ac93-568c339842a6"},"vehicle_type_id":"4","last_reported":1766723193,"current_range_meters":10800,"station_id":"ce4bhnp2rcd13ifvqh0g","pricing_plan_id":"cebpf4jnsgd1na2vs0mg"},{"bike_id":"9ea76d59-d3d3-4e47-be04-afd4bc527ff7","system_id":"levelo_inurba_marseille","lat":43.28613,"lon":5.39879,"is_reserved":false,"is_disabled":false,"rental_uris":{"android":"levelo://app?vid=9ea76d59-d3d3-4e47-be04-afd4bc527ff7","ios":"levelo://app?vid=9ea76d59-d3d3-4e47-be04-afd4bc527ff7"},"vehicle_type_id":"4","last_reported":1766723193,"current_range_meters":10800,"station_id":"st_d4a7ka997mjs738ck50g","pricing_plan_id":"cebpf4jnsgd1na2vs0mg"},{"bike_id":"de0b0d20-140b-4873-8331-b28a1e6dbe5f","system_id":"levelo_inurba_marseille","lat":43.21751,"lon":5.34613,"is_reserved":false,"is_disabled":false,"rental_uris":{"android":"levelo://app?vid=de0b0d20-140b-4873-8331-b28a1e6dbe5f","ios":"levelo://app?vid=de0b0d20-140b-4873-8331-b28a1e6dbe5f"},"vehicle_type_id":"4","last_reported":1766723193,"current_range_meters":10800,"station_id":"st_cvj6r9ubvosntc0bgbag","pricing_plan_id":"cebpf4jnsgd1na2vs0mg"},{"bike_id":"bd470090-7662-499f-881a-312cd56c4128","system_id":"levelo_inurba_marseille","lat":43.31504,"lon":5.37298,"is_reserved":false,"is_disabled":false,"rental_uris":{"android":"levelo://app?vid=bd470090-7662-499f-881a-312cd56c4128","ios":"levelo://app?vid=bd470090-7662-499f-881a-312cd56c4128"},"vehicle_type_id":"4","last_reported":1766723193,"current_range_meters":10800,"station_id":"ce4bgt12rcd13ifvqcd0","pricing_plan_id":"cebpf4jnsgd1na2vs0mg"},{"bike_id":"10e8510f-7212-42b5-a2ff-2ca0280138d2","system_id":"levelo_inurba_marseille","lat":43.24654,"lon":5.38149,"is_reserved":false,"is_disabled":false,"rental_uris":{"android":"levelo://app?vid=10e8510f-7212-42b5-a2ff-2ca0280138d2","ios":"levelo://app?vid=10e8510f-7212-42b5-a2ff-2ca0280138d2"},"vehicle_type_id":"4","last_reported":1766723193,"current_range_meters":10800,"station_id":"ce4bhih2rcd13ifvqfr0","pricing_plan_id":"cebpf4jnsgd1na2vs0mg"},{"bike_id":"45cb4a88-56d0-4ea5-b85d-33b8d4d652ea","system_id":"levelo_inurba_marseille","lat":43.296089,"lon":5.383382,"is_reserved":false,"is_disabled":false,"rental_uris":{"android":"levelo://app?vid=45cb4a88-56d0-4ea5-b85d-33b8d4d652ea","ios":"levelo://app?vid=45cb4a88-56d0-4ea5-b85d-33b8d4d652ea"},"vehicle_type_id":"4","last_reported":1766723193,"current_range_meters":10800,"station_id":"","pricing_plan_id":"cebpf4jnsgd1na2vs0mg"},{"bike_id":"9d98affd-2696-4d90-a59b-f5f872b1b334","system_id":"levelo_inurba_marseille","lat":43.27027,"lon":5.39295,"is_reserved":false,"is_disabled":false,"rental_uris":{"android":"levelo://app?vid=9d98affd-2696-4d90-a59b-f5f872b1b334","ios":"levelo://app?vid=9d98affd-2696-4d90-a59b-f5f872b1b334"},"vehicle_type_id":"4","last_reported":1766723193,"current_range_meters":10800,"station_id":"","pricing_plan_id":"cebpf4jnsgd1na2vs0mg"},{"bike_id":"7ee1c09d-a306-4e72-a256-6549ce7578c9","system_id":"levelo_inurba_marseille","lat":43.29177,"lon":5.37307,"is_reserved":false,"is_disabled":false,"rental_uris":{"android":"levelo://app?vid=7ee1c09d-a306-4e72-a256-6549ce7578c9","ios":"levelo://app?vid=7ee1c09d-a306-4e72-a256-6549ce7578c9"},"vehicle_type_id":"4","last_reported":1766723193,"current_range_meters":10800,"station_id":"","pricing_plan_id":"cebpf4jnsgd1na2vs0mg"},{"bike_id":"100580c3-0829-48ce-8d1e-df45dec6d1bb","system_id":"levelo_inurba_marseille","lat":43.29001,"lon":5.35598,"is_reserved":false,"is_disabled":false,"rental_uris":{"android":"levelo://app?vid=100580c3-0829-48ce-8d1e-df45dec6d1bb","ios":"levelo://app?vid=100580c3-0829-48ce-8d1e-df45dec6d1bb"},"vehicle_type_id":"4","last_reported":1766723193,"current_range_meters":10800,"station_id":"ce4bhb92rcd13ifvqen0","pricing_plan_id":"cebpf4jnsgd1na2vs0mg"},{"bike_id":"3b2ca58f-d8a3-4b2a-8595-b654fc6a5a5c","system_id":"levelo_inurba_marseille","lat":43.29061,"lon":5.37161,"is_reserved":false,"is_disabled":false,"rental_uris":{"android":"levelo://app?vid=3b2ca58f-d8a3-4b2a-8595-b654fc6a5a5c","ios":"levelo://app?vid=3b2ca58f-d8a3-4b2a-8595-b654fc6a5a5c"},"vehicle_type_id":"4","last_reported":1766723193,"current_range_meters":10800,"station_id":"ce4bh5p2rcd13ifvqe4g","pricing_plan_id":"cebpf4jnsgd1na2vs0mg"},{"bike_id":"6fc5db1f-3f5f-4c61-b076-879aa16423ce","system_id":"levelo_inurba_marseille","lat":43.311667,"lon":5.3872,"is_reserved":false,"is_disabled":false,"rental_uris":{"android":"levelo://app?vid=6fc5db1f-3f5f-4c61-b076-879aa16423ce","ios":"levelo://app?vid=6fc5db1f-3f5f-4c61-b076-879aa16423ce"},"vehicle_type_id":"4","last_reported":1766723193,"current_range_meters":10800,"station_id":"ce4bgv12rcd13ifvqcp0","pricing_plan_id":"cebpf4jnsgd1na2vs0mg"},{"bike_id":"cfe405c3-05f8-474f-bc24-91cafe5c1373","system_id":"levelo_inurba_marseille","lat":43.332084,"lon":5.399238,"is_reserved":false,"is_disabled":false,"rental_uris":{"android":"levelo://app?vid=cfe405c3-05f8-474f-bc24-91cafe5c1373","ios":"levelo://app?vid=cfe405c3-05f8-474f-bc24-91cafe5c1373"},"vehicle_type_id":"4","last_reported":1766723193,"current_range_meters":10800,"station_id":"","pricing_plan_id":"cebpf4jnsgd1na2vs0mg"},{"bike_id":"ad8a952e-0a13-48ea-862d-8ac4d7c6749b","system_id":"levelo_inurba_marseille","lat":43.25341,"lon":5.42187,"is_reserved":false,"is_disabled":false,"rental_uris":{"android":"levelo://app?vid=ad8a952e-0a13-48ea-862d-8ac4d7c6749b","ios":"levelo://app?vid=ad8a952e-0a13-48ea-862d-8ac4d7c6749b"},"vehicle_type_id":"4","last_reported":1766723193,"current_range_meters":10800,"station_id":"st_d2m65c5bi1j21697t3ng","pricing_plan_id":"cebpf4jnsgd1na2vs0mg"},{"bike_id":"119a66d3-59c1-4eaa-b656-c62237c2eeae","system_id":"levelo_inurba_marseille","lat":43.30856,"lon":5.38274,"is_reserved":false,"is_disabled":false,"rental_uris":{"android":"levelo://app?vid=119a66d3-59c1-4eaa-b656-c62237c2eeae","ios":"levelo://app?vid=119a66d3-59c1-4eaa-b656-c62237c2eeae"},"vehicle_type_id":"4","last_reported":1766723193,"current_range_meters":10800,"station_id":"","pricing_plan_id":"cebpf4jnsgd1na2vs0mg"},{"bike_id":"c9841a93-0e54-48ff-b80b-cfbaf7a3595d","system_id":"levelo_inurba_marseille","lat":43.28477,"lon":5.38405,"is_reserved":false,"is_disabled":false,"rental_uris":{"android":"levelo://app?vid=c9841a93-0e54-48ff-b80b-cfbaf7a3595d","ios":"levelo://app?vid=c9841a93-0e54-48ff-b80b-cfbaf7a3595d"},"vehicle_type_id":"4","last_reported":1766723193,"current_range_meters":10800,"station_id":"ce4bh512rcd13ifvqe3g","pricing_plan_id":"cebpf4jnsgd1na2vs0mg"},{"bike_id":"3e765c7e-a034-4468-bfa7-970b4189b2cc","system_id":"levelo_inurba_marseille","lat":43.29815,"lon":5.44071,"is_reserved":false,"is_disabled":false,"rental_uris":{"android":"levelo://app?vid=3e765c7e-a034-4468-bfa7-970b4189b2cc","ios":"levelo://app?vid=3e765c7e-a034-4468-bfa7-970b4189b2cc"},"vehicle_type_id":"4","last_reported":1766723193,"current_range_meters":11200,"station_id":"st_d3jp68qikq2c7381ktn0","pricing_plan_id":"cebpf4jnsgd1na2vs0mg"},{"bike_id":"5eb2084b-2a74-44ab-85d1-64adca8ddc38","system_id":"levelo_inurba_marseille","lat":43.26541,"lon":5.37292,"is_reserved":false,"is_disabled":false,"rental_uris":{"android":"levelo://app?vid=5eb2084b-2a74-44ab-85d1-64adca8ddc38","ios":"levelo://app?vid=5eb2084b-2a74-44ab-85d1-64adca8ddc38"},"vehicle_type_id":"4","last_reported":1766723193,"current_range_meters":11200,"station_id":"ce4bhg12rcd13ifvqf70","pricing_plan_id":"cebpf4jnsgd1na2vs0mg"},{"bike_id":"68bc94bc-038e-4036-bdca-d7bc86c8979e","system_id":"levelo_inurba_marseille","lat":43.29779,"lon":5.37084,"is_reserved":false,"is_disabled":false,"rental_uris":{"android":"levelo://app?vid=68bc94bc-038e-4036-bdca-d7bc86c8979e","ios":"levelo://app?vid=68bc94bc-038e-4036-bdca-d7bc86c8979e"},"vehicle_type_id":"4","last_reported":1766723193,"current_range_meters":11200,"station_id":"ce4bgop2rcd13ifvqc1g","pricing_plan_id":"cebpf4jnsgd1na2vs0mg"},{"bike_id":"64721fec-77b8-4807-9667-cec3c8c1fbd0","system_id":"levelo_inurba_marseille","lat":43.24327,"lon":5.39465,"is_reserved":false,"is_disabled":false,"rental_uris":{"android":"levelo://app?vid=64721fec-77b8-4807-9667-cec3c8c1fbd0","ios":"levelo://app?vid=64721fec-77b8-4807-9667-cec3c8c1fbd0"},"vehicle_type_id":"4","last_reported":1766723193,"current_range_meters":11200,"station_id":"","pricing_plan_id":"cebpf4jnsgd1na2vs0mg"},{"bike_id":"4bf1a7e5-b828-483b-9d07-4afaec7bb800","system_id":"levelo_inurba_marseille","lat":43.29794,"lon":5.38197,"is_reserved":false,"is_disabled":false,"rental_uris":{"android":"levelo://app?vid=4bf1a7e5-b828-483b-9d07-4afaec7bb800","ios":"levelo://app?vid=4bf1a7e5-b828-483b-9d07-4afaec7bb800"},"vehicle_type_id":"4","last_reported":1766723193,"current_range_meters":11200,"station_id":"","pricing_plan_id":"cebpf4jnsgd1na2vs0mg"},{"bike_id":"8d525f89-2c11-4a86-bf53-fc834c9a881b","system_id":"levelo_inurba_marseille","lat":43.270553,"lon":5.383103,"is_reserved":false,"is_disabled":false,"rental_uris":{"android":"levelo://app?vid=8d525f89-2c11-4a86-bf53-fc834c9a881b","ios":"levelo://app?vid=8d525f89-2c11-4a86-bf53-fc834c9a881b"},"vehicle_type_id":"4","last_reported":1766723193,"current_range_meters":11200,"station_id":"st_d3n2fo6cfp8s73cte1j0","pricing_plan_id":"cebpf4jnsgd1na2vs0mg"},{"bike_id":"da0c886d-bf9d-46c9-ba41-bfd5ae0eda24","system_id":"levelo_inurba_marseille","lat":43.241661,"lon":5.364016,"is_reserved":false,"is_disabled":false,"rental_uris":{"android":"levelo://app?vid=da0c886d-bf9d-46c9-ba41-bfd5ae0eda24","ios":"levelo://app?vid=da0c886d-bf9d-46c9-ba41-bfd5ae0eda24"},"vehicle_type_id":"4","last_reported":1766723193,"current_range_meters":11200,"station_id":"cpo36qri1sfpv3e86is0","pricing_plan_id":"cebpf4jnsgd1na2vs0mg"},{"bike_id":"930566d2-2f61-46bf-9bf8-db6b000638fd","system_id":"levelo_inurba_marseille","lat":43.31406,"lon":5.39818,"is_reserved":false,"is_disabled":false,"rental_uris":{"android":"levelo://app?vid=930566d2-2f61-46bf-9bf8-db6b000638fd","ios":"levelo://app?vid=930566d2-2f61-46bf-9bf8-db6b000638fd"},"vehicle_type_id":"4","last_reported":1766723193,"current_range_meters":11200,"station_id":"","pricing_plan_id":"cebpf4jnsgd1na2vs0mg"},{"bike_id":"a8516ce3-cac7-495f-8957-420b2002e87b","system_id":"levelo_inurba_marseille","lat":43.246542,"lon":5.388954,"is_reserved":false,"is_disabled":false,"rental_uris":{"android":"levelo://app?vid=a8516ce3-cac7-495f-8957-420b2002e87b","ios":"levelo://app?vid=a8516ce3-cac7-495f-8957-420b2002e87b"},"vehicle_type_id":"4","last_reported":1766723193,"current_range_meters":11200,"station_id":"ce4bhg12rcd13ifvqf60","pricing_plan_id":"cebpf4jnsgd1na2vs0mg"},{"bike_id":"8364b8f0-ee44-4dd4-8145-924316f4d98c","system_id":"levelo_inurba_marseille","lat":43.29646,"lon":5.3817,"is_reserved":false,"is_disabled":false,"rental_uris":{"android":"levelo://app?vid=8364b8f0-ee44-4dd4-8145-924316f4d98c","ios":"levelo://app?vid=8364b8f0-ee44-4dd4-8145-924316f4d98c"},"vehicle_type_id":"4","last_reported":1766723193,"current_range_meters":11200,"station_id":"","pricing_plan_id":"cebpf4jnsgd1na2vs0mg"},{"bike_id":"ff4e46f7-adc1-4649-aa1f-012ca177c8d4","system_id":"levelo_inurba_marseille","lat":43.285258,"lon":5.441042,"is_reserved":false,"is_disabled":false,"rental_uris":{"android":"levelo://app?vid=ff4e46f7-adc1-4649-aa1f-012ca177c8d4","ios":"levelo://app?vid=ff4e46f7-adc1-4649-aa1f-012ca177c8d4"},"vehicle_type_id":"4","last_reported":1766723193,"current_range_meters":11200,"station_id":"st_d3j3df2ikq2c7380ej80","pricing_plan_id":"cebpf4jnsgd1na2vs0mg"},{"bike_id":"1c3c112f-93f9-4327-831e-5332c3a3f969","system_id":"levelo_inurba_marseille","lat":43.29797,"lon":5.38099,"is_reserved":false,"is_disabled":false,"rental_uris":{"android":"levelo://app?vid=1c3c112f-93f9-4327-831e-5332c3a3f969","ios":"levelo://app?vid=1c3c112f-93f9-4327-831e-5332c3a3f969"},"vehicle_type_id":"4","last_reported":1766723193,"current_range_meters":11200,"station_id":"ce4bgip2rcd13ifvqbb0","pricing_plan_id":"cebpf4jnsgd1na2vs0mg"},{"bike_id":"640b5078-0d82-4a2d-be8a-3c9c9992716b","system_id":"levelo_inurba_marseille","lat":43.32715,"lon":5.40567,"is_reserved":false,"is_disabled":false,"rental_uris":{"android":"levelo://app?vid=640b5078-0d82-4a2d-be8a-3c9c9992716b","ios":"levelo://app?vid=640b5078-0d82-4a2d-be8a-3c9c9992716b"},"vehicle_type_id":"4","last_reported":1766723193,"current_range_meters":11200,"station_id":"","pricing_plan_id":"cebpf4jnsgd1na2vs0mg"},{"bike_id":"f9df9632-029c-4669-915b-da73f8d6a65a","system_id":"levelo_inurba_marseille","lat":43.32106,"lon":5.36767,"is_reserved":false,"is_disabled":false,"rental_uris":{"android":"levelo://app?vid=f9df9632-029c-4669-915b-da73f8d6a65a","ios":"levelo://app?vid=f9df9632-029c-4669-915b-da73f8d6a65a"},"vehicle_type_id":"4","last_reported":1766723193,"current_range_meters":11600,"station_id":"ce4bhrh2rcd13ifvqhug","pricing_plan_id":"cebpf4jnsgd1na2vs0mg"},{"bike_id":"9ac5b251-4eea-4bea-826c-0a6aeafed89e","system_id":"levelo_inurba_marseille","lat":43.2974,"lon":5.37658,"is_reserved":false,"is_disabled":false,"rental_uris":{"android":"levelo://app?vid=9ac5b251-4eea-4bea-826c-0a6aeafed89e","ios":"levelo://app?vid=9ac5b251-4eea-4bea-826c-0a6aeafed89e"},"vehicle_type_id":"4","last_reported":1766723193,"current_range_meters":11600,"station_id":"ce4bgkh2rcd13ifvqbl0","pricing_plan_id":"cebpf4jnsgd1na2vs0mg"},{"bike_id":"554a30d4-99ae-4d24-a8b7-3780391e7882","system_id":"levelo_inurba_marseille","lat":43.30099,"lon":5.39083,"is_reserved":false,"is_disabled":false,"rental_uris":{"android":"levelo://app?vid=554a30d4-99ae-4d24-a8b7-3780391e7882","ios":"levelo://app?vid=554a30d4-99ae-4d24-a8b7-3780391e7882"},"vehicle_type_id":"4","last_reported":1766723193,"current_range_meters":11600,"station_id":"ce4bh192rcd13ifvqdb0","pricing_plan_id":"cebpf4jnsgd1na2vs0mg"},{"bike_id":"b885c4c4-d1de-44bb-8839-4339b1b08781","system_id":"levelo_inurba_marseille","lat":43.27829,"lon":5.40705,"is_reserved":false,"is_disabled":false,"rental_uris":{"android":"levelo://app?vid=b885c4c4-d1de-44bb-8839-4339b1b08781","ios":"levelo://app?vid=b885c4c4-d1de-44bb-8839-4339b1b08781"},"vehicle_type_id":"4","last_reported":1766723193,"current_range_meters":11600,"station_id":"ce4bhnh2rcd13ifvqgtg","pricing_plan_id":"cebpf4jnsgd1na2vs0mg"},{"bike_id":"82ee4dcf-e89c-4d74-bfa0-6911f98bb3e9","system_id":"levelo_inurba_marseille","lat":43.31358,"lon":5.36789,"is_reserved":false,"is_disabled":false,"rental_uris":{"android":"levelo://app?vid=82ee4dcf-e89c-4d74-bfa0-6911f98bb3e9","ios":"levelo://app?vid=82ee4dcf-e89c-4d74-bfa0-6911f98bb3e9"},"vehicle_type_id":"4","last_reported":1766723193,"current_range_meters":11600,"station_id":"ce4bgr92rcd13ifvqc6g","pricing_plan_id":"cebpf4jnsgd1na2vs0mg"},{"bike_id":"38a996a3-f8a8-43e6-89ea-de552c896206","system_id":"levelo_inurba_marseille","lat":43.28744,"lon":5.38619,"is_reserved":false,"is_disabled":true,"rental_uris":{"android":"levelo://app?vid=38a996a3-f8a8-43e6-89ea-de552c896206","ios":"levelo://app?vid=38a996a3-f8a8-43e6-89ea-de552c896206"},"vehicle_type_id":"4","last_reported":1766723193,"current_range_meters":11600,"station_id":"ce4bh492rcd13ifvqdug","pricing_plan_id":"cebpf4jnsgd1na2vs0mg"},{"bike_id":"8fad4077-677e-4766-ab5b-939665ae5ce2","system_id":"levelo_inurba_marseille","lat":43.2835,"lon":5.38123,"is_reserved":false,"is_disabled":false,"rental_uris":{"android":"levelo://app?vid=8fad4077-677e-4766-ab5b-939665ae5ce2","ios":"levelo://app?vid=8fad4077-677e-4766-ab5b-939665ae5ce2"},"vehicle_type_id":"4","last_reported":1766723193,"current_range_meters":11600,"station_id":"ce4bh412rcd13ifvqdr0","pricing_plan_id":"cebpf4jnsgd1na2vs0mg"},{"bike_id":"be93ff89-3be6-40ab-b001-59c1fb76fcd8","system_id":"levelo_inurba_marseille","lat":43.2466,"lon":5.38155,"is_reserved":false,"is_disabled":false,"rental_uris":{"android":"levelo://app?vid=be93ff89-3be6-40ab-b001-59c1fb76fcd8","ios":"levelo://app?vid=be93ff89-3be6-40ab-b001-59c1fb76fcd8"},"vehicle_type_id":"4","last_reported":1766723193,"current_range_meters":11600,"station_id":"ce4bhih2rcd13ifvqfr0","pricing_plan_id":"cebpf4jnsgd1na2vs0mg"},{"bike_id":"4308dbe4-de89-4887-b2d7-baa578674e91","system_id":"levelo_inurba_marseille","lat":43.272078,"lon":5.391913,"is_reserved":false,"is_disabled":true,"rental_uris":{"android":"levelo://app?vid=4308dbe4-de89-4887-b2d7-baa578674e91","ios":"levelo://app?vid=4308dbe4-de89-4887-b2d7-baa578674e91"},"vehicle_type_id":"4","last_reported":1766723193,"current_range_meters":11600,"station_id":"ce4bhhp2rcd13ifvqfm0","pricing_plan_id":"cebpf4jnsgd1na2vs0mg"},{"bike_id":"34f1c565-9991-4670-8a70-3a0cd3ddfd49","system_id":"levelo_inurba_marseille","lat":43.29274,"lon":5.37631,"is_reserved":false,"is_disabled":false,"rental_uris":{"android":"levelo://app?vid=34f1c565-9991-4670-8a70-3a0cd3ddfd49","ios":"levelo://app?vid=34f1c565-9991-4670-8a70-3a0cd3ddfd49"},"vehicle_type_id":"4","last_reported":1766723193,"current_range_meters":11600,"station_id":"ce4bgi12rcd13ifvqb80","pricing_plan_id":"cebpf4jnsgd1na2vs0mg"},{"bike_id":"f3c572ee-bcce-4a29-bb87-e3e0fc93a8f5","system_id":"levelo_inurba_marseille","lat":43.23167,"lon":5.43707,"is_reserved":false,"is_disabled":false,"rental_uris":{"android":"levelo://app?vid=f3c572ee-bcce-4a29-bb87-e3e0fc93a8f5","ios":"levelo://app?vid=f3c572ee-bcce-4a29-bb87-e3e0fc93a8f5"},"vehicle_type_id":"4","last_reported":1766723193,"current_range_meters":11600,"station_id":"ce4bhmp2rcd13ifvqgog","pricing_plan_id":"cebpf4jnsgd1na2vs0mg"},{"bike_id":"24886278-f74e-4f06-b1ab-a83b4846ca6e","system_id":"levelo_inurba_marseille","lat":43.27826,"lon":5.39225,"is_reserved":false,"is_disabled":false,"rental_uris":{"android":"levelo://app?vid=24886278-f74e-4f06-b1ab-a83b4846ca6e","ios":"levelo://app?vid=24886278-f74e-4f06-b1ab-a83b4846ca6e"},"vehicle_type_id":"4","last_reported":1766723193,"current_range_meters":11600,"station_id":"ce4bhjp2rcd13ifvqga0","pricing_plan_id":"cebpf4jnsgd1na2vs0mg"},{"bike_id":"7929680a-5436-4b30-979e-eee700b7ec80","system_id":"levelo_inurba_marseille","lat":43.31447,"lon":5.36863,"is_reserved":false,"is_disabled":false,"rental_uris":{"android":"levelo://app?vid=7929680a-5436-4b30-979e-eee700b7ec80","ios":"levelo://app?vid=7929680a-5436-4b30-979e-eee700b7ec80"},"vehicle_type_id":"4","last_reported":1766723193,"current_range_meters":11600,"station_id":"","pricing_plan_id":"cebpf4jnsgd1na2vs0mg"},{"bike_id":"82f7bdae-32a0-4341-a495-2938e1a4ea6b","system_id":"levelo_inurba_marseille","lat":43.21741,"lon":5.34605,"is_reserved":false,"is_disabled":false,"rental_uris":{"android":"levelo://app?vid=82f7bdae-32a0-4341-a495-2938e1a4ea6b","ios":"levelo://app?vid=82f7bdae-32a0-4341-a495-2938e1a4ea6b"},"vehicle_type_id":"4","last_reported":1766723193,"current_range_meters":11600,"station_id":"st_cvj6r9ubvosntc0bgbag","pricing_plan_id":"cebpf4jnsgd1na2vs0mg"},{"bike_id":"012e4dbf-241c-4b02-8202-54184ca6b026","system_id":"levelo_inurba_marseille","lat":43.28872,"lon":5.42514,"is_reserved":false,"is_disabled":false,"rental_uris":{"android":"levelo://app?vid=012e4dbf-241c-4b02-8202-54184ca6b026","ios":"levelo://app?vid=012e4dbf-241c-4b02-8202-54184ca6b026"},"vehicle_type_id":"4","last_reported":1766723193,"current_range_meters":12000,"station_id":"st_d3b462108ojc7389ooeg","pricing_plan_id":"cebpf4jnsgd1na2vs0mg"},{"bike_id":"ef46d490-e8a9-49ab-9cbc-1976dbc7b37b","system_id":"levelo_inurba_marseille","lat":43.30667,"lon":5.4009,"is_reserved":false,"is_disabled":false,"rental_uris":{"android":"levelo://app?vid=ef46d490-e8a9-49ab-9cbc-1976dbc7b37b","ios":"levelo://app?vid=ef46d490-e8a9-49ab-9cbc-1976dbc7b37b"},"vehicle_type_id":"4","last_reported":1766723193,"current_range_meters":12000,"station_id":"ce4bh112rcd13ifvqda0","pricing_plan_id":"cebpf4jnsgd1na2vs0mg"},{"bike_id":"69df7ccb-8db7-432c-a495-d36908b77931","system_id":"levelo_inurba_marseille","lat":43.24176,"lon":5.39734,"is_reserved":false,"is_disabled":false,"rental_uris":{"android":"levelo://app?vid=69df7ccb-8db7-432c-a495-d36908b77931","ios":"levelo://app?vid=69df7ccb-8db7-432c-a495-d36908b77931"},"vehicle_type_id":"4","last_reported":1766723193,"current_range_meters":12000,"station_id":"ce4bhn12rcd13ifvqgpg","pricing_plan_id":"cebpf4jnsgd1na2vs0mg"},{"bike_id":"72d3606b-0147-418c-817a-a9c5d6216dc3","system_id":"levelo_inurba_marseille","lat":43.29621,"lon":5.37737,"is_reserved":false,"is_disabled":false,"rental_uris":{"android":"levelo://app?vid=72d3606b-0147-418c-817a-a9c5d6216dc3","ios":"levelo://app?vid=72d3606b-0147-418c-817a-a9c5d6216dc3"},"vehicle_type_id":"4","last_reported":1766723193,"current_range_meters":12000,"station_id":"ce4bgi92rcd13ifvqb90","pricing_plan_id":"cebpf4jnsgd1na2vs0mg"},{"bike_id":"d18b2ecb-6e3f-4025-b520-8e1d10b67c80","system_id":"levelo_inurba_marseille","lat":43.29964,"lon":5.41333,"is_reserved":false,"is_disabled":false,"rental_uris":{"android":"levelo://app?vid=d18b2ecb-6e3f-4025-b520-8e1d10b67c80","ios":"levelo://app?vid=d18b2ecb-6e3f-4025-b520-8e1d10b67c80"},"vehicle_type_id":"4","last_reported":1766723193,"current_range_meters":12000,"station_id":"ce4bhp12rcd13ifvqh9g","pricing_plan_id":"cebpf4jnsgd1na2vs0mg"},{"bike_id":"1da5d54b-c084-45d8-aa43-f08639a42f81","system_id":"levelo_inurba_marseille","lat":43.31493,"lon":5.37299,"is_reserved":false,"is_disabled":false,"rental_uris":{"android":"levelo://app?vid=1da5d54b-c084-45d8-aa43-f08639a42f81","ios":"levelo://app?vid=1da5d54b-c084-45d8-aa43-f08639a42f81"},"vehicle_type_id":"4","last_reported":1766723193,"current_range_meters":12000,"station_id":"ce4bgt12rcd13ifvqcd0","pricing_plan_id":"cebpf4jnsgd1na2vs0mg"},{"bike_id":"bb0defb7-1d0e-4f38-982e-f749a5b8e1b1","system_id":"levelo_inurba_marseille","lat":43.29108,"lon":5.38166,"is_reserved":false,"is_disabled":false,"rental_uris":{"android":"levelo://app?vid=bb0defb7-1d0e-4f38-982e-f749a5b8e1b1","ios":"levelo://app?vid=bb0defb7-1d0e-4f38-982e-f749a5b8e1b1"},"vehicle_type_id":"4","last_reported":1766723193,"current_range_meters":12000,"station_id":"ce4bh512rcd13ifvqe2g","pricing_plan_id":"cebpf4jnsgd1na2vs0mg"},{"bike_id":"7ca36e65-29f2-4389-9847-4bff73ecf20a","system_id":"levelo_inurba_marseille","lat":43.323641,"lon":5.367358,"is_reserved":false,"is_disabled":false,"rental_uris":{"android":"levelo://app?vid=7ca36e65-29f2-4389-9847-4bff73ecf20a","ios":"levelo://app?vid=7ca36e65-29f2-4389-9847-4bff73ecf20a"},"vehicle_type_id":"4","last_reported":1766723193,"current_range_meters":12000,"station_id":"ce4bhsh2rcd13ifvqi2g","pricing_plan_id":"cebpf4jnsgd1na2vs0mg"},{"bike_id":"39966bc7-f8b9-48ab-b29c-09c78d315320","system_id":"levelo_inurba_marseille","lat":43.315,"lon":5.373,"is_reserved":false,"is_disabled":false,"rental_uris":{"android":"levelo://app?vid=39966bc7-f8b9-48ab-b29c-09c78d315320","ios":"levelo://app?vid=39966bc7-f8b9-48ab-b29c-09c78d315320"},"vehicle_type_id":"4","last_reported":1766723193,"current_range_meters":12000,"station_id":"ce4bgt12rcd13ifvqcd0","pricing_plan_id":"cebpf4jnsgd1na2vs0mg"},{"bike_id":"11b96d95-db94-4ba7-a910-7f426ab31499","system_id":"levelo_inurba_marseille","lat":43.28621,"lon":5.35106,"is_reserved":false,"is_disabled":false,"rental_uris":{"android":"levelo://app?vid=11b96d95-db94-4ba7-a910-7f426ab31499","ios":"levelo://app?vid=11b96d95-db94-4ba7-a910-7f426ab31499"},"vehicle_type_id":"4","last_reported":1766723193,"current_range_meters":12000,"station_id":"ce4bhch2rcd13ifvqeug","pricing_plan_id":"cebpf4jnsgd1na2vs0mg"},{"bike_id":"9c81df94-ad89-4a82-8039-89091e796765","system_id":"levelo_inurba_marseille","lat":43.25563,"lon":5.38245,"is_reserved":false,"is_disabled":false,"rental_uris":{"android":"levelo://app?vid=9c81df94-ad89-4a82-8039-89091e796765","ios":"levelo://app?vid=9c81df94-ad89-4a82-8039-89091e796765"},"vehicle_type_id":"4","last_reported":1766723193,"current_range_meters":12000,"station_id":"ce4bhih2rcd13ifvqfs0","pricing_plan_id":"cebpf4jnsgd1na2vs0mg"},{"bike_id":"87e0eab3-2b64-49f8-95ec-ad91fbb7b57d","system_id":"levelo_inurba_marseille","lat":43.298125,"lon":5.440603,"is_reserved":false,"is_disabled":false,"rental_uris":{"android":"levelo://app?vid=87e0eab3-2b64-49f8-95ec-ad91fbb7b57d","ios":"levelo://app?vid=87e0eab3-2b64-49f8-95ec-ad91fbb7b57d"},"vehicle_type_id":"4","last_reported":1766723193,"current_range_meters":12000,"station_id":"st_d3jp68qikq2c7381ktn0","pricing_plan_id":"cebpf4jnsgd1na2vs0mg"},{"bike_id":"b4f1806c-2979-4775-bc0b-6f76b0bbfa83","system_id":"levelo_inurba_marseille","lat":43.2417,"lon":5.36404,"is_reserved":false,"is_disabled":false,"rental_uris":{"android":"levelo://app?vid=b4f1806c-2979-4775-bc0b-6f76b0bbfa83","ios":"levelo://app?vid=b4f1806c-2979-4775-bc0b-6f76b0bbfa83"},"vehicle_type_id":"4","last_reported":1766723193,"current_range_meters":12000,"station_id":"cpo36qri1sfpv3e86is0","pricing_plan_id":"cebpf4jnsgd1na2vs0mg"},{"bike_id":"09a3182b-d5c4-4432-853e-f33482eab2f6","system_id":"levelo_inurba_marseille","lat":43.29237,"lon":5.36051,"is_reserved":false,"is_disabled":false,"rental_uris":{"android":"levelo://app?vid=09a3182b-d5c4-4432-853e-f33482eab2f6","ios":"levelo://app?vid=09a3182b-d5c4-4432-853e-f33482eab2f6"},"vehicle_type_id":"4","last_reported":1766723193,"current_range_meters":12400,"station_id":"ce4bhbh2rcd13ifvqeqg","pricing_plan_id":"cebpf4jnsgd1na2vs0mg"},{"bike_id":"447434f3-9c25-465b-9306-ce93244239f8","system_id":"levelo_inurba_marseille","lat":43.29288,"lon":5.3744,"is_reserved":false,"is_disabled":false,"rental_uris":{"android":"levelo://app?vid=447434f3-9c25-465b-9306-ce93244239f8","ios":"levelo://app?vid=447434f3-9c25-465b-9306-ce93244239f8"},"vehicle_type_id":"4","last_reported":1766723193,"current_range_meters":12400,"station_id":"ce4bgi12rcd13ifvqb70","pricing_plan_id":"cebpf4jnsgd1na2vs0mg"},{"bike_id":"c50e4fb1-c9c1-4cf4-b2c9-4fe1971d7e6a","system_id":"levelo_inurba_marseille","lat":43.335383,"lon":5.374637,"is_reserved":false,"is_disabled":false,"rental_uris":{"android":"levelo://app?vid=c50e4fb1-c9c1-4cf4-b2c9-4fe1971d7e6a","ios":"levelo://app?vid=c50e4fb1-c9c1-4cf4-b2c9-4fe1971d7e6a"},"vehicle_type_id":"4","last_reported":1766723193,"current_range_meters":12400,"station_id":"st_d46tts09ee8s73dlu43g","pricing_plan_id":"cebpf4jnsgd1na2vs0mg"},{"bike_id":"d50867a0-a974-4546-a28c-eba4c2e0b399","system_id":"levelo_inurba_marseille","lat":43.23181,"lon":5.35566,"is_reserved":false,"is_disabled":false,"rental_uris":{"android":"levelo://app?vid=d50867a0-a974-4546-a28c-eba4c2e0b399","ios":"levelo://app?vid=d50867a0-a974-4546-a28c-eba4c2e0b399"},"vehicle_type_id":"4","last_reported":1766723193,"current_range_meters":12400,"station_id":"ce4bhu92rcd13ifvqi70","pricing_plan_id":"cebpf4jnsgd1na2vs0mg"},{"bike_id":"0d93cac9-2fdd-4dbf-b1ad-1c0d8c9236c4","system_id":"levelo_inurba_marseille","lat":43.266267,"lon":5.393748,"is_reserved":false,"is_disabled":false,"rental_uris":{"android":"levelo://app?vid=0d93cac9-2fdd-4dbf-b1ad-1c0d8c9236c4","ios":"levelo://app?vid=0d93cac9-2fdd-4dbf-b1ad-1c0d8c9236c4"},"vehicle_type_id":"4","last_reported":1766723193,"current_range_meters":12400,"station_id":"","pricing_plan_id":"cebpf4jnsgd1na2vs0mg"},{"bike_id":"c7dab476-fa34-4842-a372-0d1b45eca4dd","system_id":"levelo_inurba_marseille","lat":43.27989,"lon":5.41668,"is_reserved":false,"is_disabled":false,"rental_uris":{"android":"levelo://app?vid=c7dab476-fa34-4842-a372-0d1b45eca4dd","ios":"levelo://app?vid=c7dab476-fa34-4842-a372-0d1b45eca4dd"},"vehicle_type_id":"4","last_reported":1766723193,"current_range_meters":12400,"station_id":"ce4bho12rcd13ifvqh1g","pricing_plan_id":"cebpf4jnsgd1na2vs0mg"},{"bike_id":"1241fb10-6b92-446d-a4fe-d143524bea90","system_id":"levelo_inurba_marseille","lat":43.299695,"lon":5.385467,"is_reserved":false,"is_disabled":false,"rental_uris":{"android":"levelo://app?vid=1241fb10-6b92-446d-a4fe-d143524bea90","ios":"levelo://app?vid=1241fb10-6b92-446d-a4fe-d143524bea90"},"vehicle_type_id":"4","last_reported":1766723193,"current_range_meters":12400,"station_id":"ce4bgj92rcd13ifvqbd0","pricing_plan_id":"cebpf4jnsgd1na2vs0mg"},{"bike_id":"f256ec25-2194-4163-a44e-7edfc0222f9e","system_id":"levelo_inurba_marseille","lat":43.28486,"lon":5.38428,"is_reserved":false,"is_disabled":false,"rental_uris":{"android":"levelo://app?vid=f256ec25-2194-4163-a44e-7edfc0222f9e","ios":"levelo://app?vid=f256ec25-2194-4163-a44e-7edfc0222f9e"},"vehicle_type_id":"4","last_reported":1766723193,"current_range_meters":12400,"station_id":"ce4bh512rcd13ifvqe3g","pricing_plan_id":"cebpf4jnsgd1na2vs0mg"},{"bike_id":"c6710cdf-d341-4fc7-8dff-171343d7aeff","system_id":"levelo_inurba_marseille","lat":43.30155,"lon":5.39285,"is_reserved":false,"is_disabled":false,"rental_uris":{"android":"levelo://app?vid=c6710cdf-d341-4fc7-8dff-171343d7aeff","ios":"levelo://app?vid=c6710cdf-d341-4fc7-8dff-171343d7aeff"},"vehicle_type_id":"4","last_reported":1766723193,"current_range_meters":12400,"station_id":"","pricing_plan_id":"cebpf4jnsgd1na2vs0mg"},{"bike_id":"bb92b29d-07e6-4979-8958-755af28909c5","system_id":"levelo_inurba_marseille","lat":43.27827,"lon":5.40694,"is_reserved":false,"is_disabled":false,"rental_uris":{"android":"levelo://app?vid=bb92b29d-07e6-4979-8958-755af28909c5","ios":"levelo://app?vid=bb92b29d-07e6-4979-8958-755af28909c5"},"vehicle_type_id":"4","last_reported":1766723193,"current_range_meters":12400,"station_id":"ce4bhnh2rcd13ifvqgtg","pricing_plan_id":"cebpf4jnsgd1na2vs0mg"},{"bike_id":"c20fae26-1970-44b4-b66a-6ffb0cf0ac97","system_id":"levelo_inurba_marseille","lat":43.31587,"lon":5.40389,"is_reserved":false,"is_disabled":false,"rental_uris":{"android":"levelo://app?vid=c20fae26-1970-44b4-b66a-6ffb0cf0ac97","ios":"levelo://app?vid=c20fae26-1970-44b4-b66a-6ffb0cf0ac97"},"vehicle_type_id":"4","last_reported":1766723193,"current_range_meters":12400,"station_id":"","pricing_plan_id":"cebpf4jnsgd1na2vs0mg"},{"bike_id":"29da013e-f676-4033-a45f-8d005e13e759","system_id":"levelo_inurba_marseille","lat":43.21186,"lon":5.35072,"is_reserved":false,"is_disabled":false,"rental_uris":{"android":"levelo://app?vid=29da013e-f676-4033-a45f-8d005e13e759","ios":"levelo://app?vid=29da013e-f676-4033-a45f-8d005e13e759"},"vehicle_type_id":"4","last_reported":1766723193,"current_range_meters":12800,"station_id":"st_cvj6sg6p6f1abm77japg","pricing_plan_id":"cebpf4jnsgd1na2vs0mg"},{"bike_id":"300048cd-66a7-4281-97f3-57b101b2fe24","system_id":"levelo_inurba_marseille","lat":43.262077,"lon":5.379181,"is_reserved":false,"is_disabled":false,"rental_uris":{"android":"levelo://app?vid=300048cd-66a7-4281-97f3-57b101b2fe24","ios":"levelo://app?vid=300048cd-66a7-4281-97f3-57b101b2fe24"},"vehicle_type_id":"4","last_reported":1766723193,"current_range_meters":12800,"station_id":"ce4bhjp2rcd13ifvqg90","pricing_plan_id":"cebpf4jnsgd1na2vs0mg"},{"bike_id":"dca06b38-1d5c-45ec-9b7c-7c4249a5e972","system_id":"levelo_inurba_marseille","lat":43.3112,"lon":5.37767,"is_reserved":false,"is_disabled":false,"rental_uris":{"android":"levelo://app?vid=dca06b38-1d5c-45ec-9b7c-7c4249a5e972","ios":"levelo://app?vid=dca06b38-1d5c-45ec-9b7c-7c4249a5e972"},"vehicle_type_id":"4","last_reported":1766723193,"current_range_meters":12800,"station_id":"ce4bgt92rcd13ifvqcg0","pricing_plan_id":"cebpf4jnsgd1na2vs0mg"},{"bike_id":"0d9297ce-f2d0-4d3a-b34b-40c0d18a1dd9","system_id":"levelo_inurba_marseille","lat":43.22929,"lon":5.35373,"is_reserved":false,"is_disabled":true,"rental_uris":{"android":"levelo://app?vid=0d9297ce-f2d0-4d3a-b34b-40c0d18a1dd9","ios":"levelo://app?vid=0d9297ce-f2d0-4d3a-b34b-40c0d18a1dd9"},"vehicle_type_id":"4","last_reported":1766723193,"current_range_meters":12800,"station_id":"cpo3532slgdg3j2ikp40","pricing_plan_id":"cebpf4jnsgd1na2vs0mg"},{"bike_id":"f19865c5-a947-4888-ba03-5ff76ba57faf","system_id":"levelo_inurba_marseille","lat":43.284772,"lon":5.48394,"is_reserved":false,"is_disabled":false,"rental_uris":{"android":"levelo://app?vid=f19865c5-a947-4888-ba03-5ff76ba57faf","ios":"levelo://app?vid=f19865c5-a947-4888-ba03-5ff76ba57faf"},"vehicle_type_id":"4","last_reported":1766723193,"current_range_meters":12800,"station_id":"st_d3svhcjqgbts73a3dn0g","pricing_plan_id":"cebpf4jnsgd1na2vs0mg"},{"bike_id":"08aab02f-4102-499f-a5bb-5d8e2000a0dd","system_id":"levelo_inurba_marseille","lat":43.29804,"lon":5.37091,"is_reserved":false,"is_disabled":false,"rental_uris":{"android":"levelo://app?vid=08aab02f-4102-499f-a5bb-5d8e2000a0dd","ios":"levelo://app?vid=08aab02f-4102-499f-a5bb-5d8e2000a0dd"},"vehicle_type_id":"4","last_reported":1766723193,"current_range_meters":12800,"station_id":"","pricing_plan_id":"cebpf4jnsgd1na2vs0mg"},{"bike_id":"e48135b7-c6b5-4969-b3df-0e90fd7856e0","system_id":"levelo_inurba_marseille","lat":43.31712,"lon":5.40465,"is_reserved":false,"is_disabled":false,"rental_uris":{"android":"levelo://app?vid=e48135b7-c6b5-4969-b3df-0e90fd7856e0","ios":"levelo://app?vid=e48135b7-c6b5-4969-b3df-0e90fd7856e0"},"vehicle_type_id":"4","last_reported":1766723193,"current_range_meters":12800,"station_id":"ce4bh012rcd13ifvqd00","pricing_plan_id":"cebpf4jnsgd1na2vs0mg"},{"bike_id":"8db68d44-c7e3-444d-bb69-b97fc7d58d3a","system_id":"levelo_inurba_marseille","lat":43.27939,"lon":5.41039,"is_reserved":false,"is_disabled":false,"rental_uris":{"android":"levelo://app?vid=8db68d44-c7e3-444d-bb69-b97fc7d58d3a","ios":"levelo://app?vid=8db68d44-c7e3-444d-bb69-b97fc7d58d3a"},"vehicle_type_id":"4","last_reported":1766723193,"current_range_meters":12800,"station_id":"ce4bhnp2rcd13ifvqh0g","pricing_plan_id":"cebpf4jnsgd1na2vs0mg"},{"bike_id":"6232a3d4-c6c0-4862-be09-26e8984f5990","system_id":"levelo_inurba_marseille","lat":43.29517,"lon":5.3904,"is_reserved":false,"is_disabled":false,"rental_uris":{"android":"levelo://app?vid=6232a3d4-c6c0-4862-be09-26e8984f5990","ios":"levelo://app?vid=6232a3d4-c6c0-4862-be09-26e8984f5990"},"vehicle_type_id":"4","last_reported":1766723193,"current_range_meters":13600,"station_id":"ce4bh3p2rcd13ifvqdp0","pricing_plan_id":"cebpf4jnsgd1na2vs0mg"},{"bike_id":"5a0c8a60-285f-47de-9f91-2379b5ccf940","system_id":"levelo_inurba_marseille","lat":43.31091,"lon":5.38364,"is_reserved":false,"is_disabled":false,"rental_uris":{"android":"levelo://app?vid=5a0c8a60-285f-47de-9f91-2379b5ccf940","ios":"levelo://app?vid=5a0c8a60-285f-47de-9f91-2379b5ccf940"},"vehicle_type_id":"4","last_reported":1766723193,"current_range_meters":13600,"station_id":"ce4bgv92rcd13ifvqcr0","pricing_plan_id":"cebpf4jnsgd1na2vs0mg"},{"bike_id":"eb9477b6-c558-420c-8bd0-3c2d1005fc16","system_id":"levelo_inurba_marseille","lat":43.31359,"lon":5.38507,"is_reserved":false,"is_disabled":false,"rental_uris":{"android":"levelo://app?vid=eb9477b6-c558-420c-8bd0-3c2d1005fc16","ios":"levelo://app?vid=eb9477b6-c558-420c-8bd0-3c2d1005fc16"},"vehicle_type_id":"4","last_reported":1766723193,"current_range_meters":13600,"station_id":"ce4bgt92rcd13ifvqcf0","pricing_plan_id":"cebpf4jnsgd1na2vs0mg"},{"bike_id":"e280cdc1-d94f-41da-8c4d-62913f566082","system_id":"levelo_inurba_marseille","lat":43.28082,"lon":5.3966,"is_reserved":false,"is_disabled":false,"rental_uris":{"android":"levelo://app?vid=e280cdc1-d94f-41da-8c4d-62913f566082","ios":"levelo://app?vid=e280cdc1-d94f-41da-8c4d-62913f566082"},"vehicle_type_id":"4","last_reported":1766723193,"current_range_meters":13600,"station_id":"ce4bho12rcd13ifvqh2g","pricing_plan_id":"cebpf4jnsgd1na2vs0mg"},{"bike_id":"ae67a3e8-7c2d-4924-a931-a39dc78184b8","system_id":"levelo_inurba_marseille","lat":43.282749,"lon":5.350721,"is_reserved":false,"is_disabled":false,"rental_uris":{"android":"levelo://app?vid=ae67a3e8-7c2d-4924-a931-a39dc78184b8","ios":"levelo://app?vid=ae67a3e8-7c2d-4924-a931-a39dc78184b8"},"vehicle_type_id":"4","last_reported":1766723193,"current_range_meters":13600,"station_id":"ce4bhbp2rcd13ifvqerg","pricing_plan_id":"cebpf4jnsgd1na2vs0mg"},{"bike_id":"8fd45039-d276-432a-8d29-af3ac0258889","system_id":"levelo_inurba_marseille","lat":43.22936,"lon":5.35399,"is_reserved":false,"is_disabled":false,"rental_uris":{"android":"levelo://app?vid=8fd45039-d276-432a-8d29-af3ac0258889","ios":"levelo://app?vid=8fd45039-d276-432a-8d29-af3ac0258889"},"vehicle_type_id":"4","last_reported":1766723193,"current_range_meters":13600,"station_id":"cpo3532slgdg3j2ikp40","pricing_plan_id":"cebpf4jnsgd1na2vs0mg"},{"bike_id":"13438407-f125-4570-ba26-f250d9aca7ae","system_id":"levelo_inurba_marseille","lat":43.311655,"lon":5.387169,"is_reserved":false,"is_disabled":false,"rental_uris":{"android":"levelo://app?vid=13438407-f125-4570-ba26-f250d9aca7ae","ios":"levelo://app?vid=13438407-f125-4570-ba26-f250d9aca7ae"},"vehicle_type_id":"4","last_reported":1766723193,"current_range_meters":13600,"station_id":"ce4bgv12rcd13ifvqcp0","pricing_plan_id":"cebpf4jnsgd1na2vs0mg"},{"bike_id":"8e2d89ed-5b60-4fe5-b641-726856cb2d1c","system_id":"levelo_inurba_marseille","lat":43.28978,"lon":5.37828,"is_reserved":false,"is_disabled":true,"rental_uris":{"android":"levelo://app?vid=8e2d89ed-5b60-4fe5-b641-726856cb2d1c","ios":"levelo://app?vid=8e2d89ed-5b60-4fe5-b641-726856cb2d1c"},"vehicle_type_id":"4","last_reported":1766723193,"current_range_meters":13600,"station_id":"ce4bh9p2rcd13ifvqed0","pricing_plan_id":"cebpf4jnsgd1na2vs0mg"},{"bike_id":"9daf6700-a4ad-4e15-880a-e9c5f09a8937","system_id":"levelo_inurba_marseille","lat":43.32359,"lon":5.36735,"is_reserved":false,"is_disabled":false,"rental_uris":{"android":"levelo://app?vid=9daf6700-a4ad-4e15-880a-e9c5f09a8937","ios":"levelo://app?vid=9daf6700-a4ad-4e15-880a-e9c5f09a8937"},"vehicle_type_id":"4","last_reported":1766723193,"current_range_meters":13600,"station_id":"ce4bhsh2rcd13ifvqi2g","pricing_plan_id":"cebpf4jnsgd1na2vs0mg"},{"bike_id":"6d05fb38-53b5-44ab-8005-5ff4643a1f3e","system_id":"levelo_inurba_marseille","lat":43.31177,"lon":5.38707,"is_reserved":false,"is_disabled":false,"rental_uris":{"android":"levelo://app?vid=6d05fb38-53b5-44ab-8005-5ff4643a1f3e","ios":"levelo://app?vid=6d05fb38-53b5-44ab-8005-5ff4643a1f3e"},"vehicle_type_id":"4","last_reported":1766723193,"current_range_meters":13600,"station_id":"ce4bgv12rcd13ifvqcp0","pricing_plan_id":"cebpf4jnsgd1na2vs0mg"},{"bike_id":"2c6a7ab1-d70c-4487-979c-2bf22d5ffaa1","system_id":"levelo_inurba_marseille","lat":43.27834,"lon":5.39207,"is_reserved":false,"is_disabled":false,"rental_uris":{"android":"levelo://app?vid=2c6a7ab1-d70c-4487-979c-2bf22d5ffaa1","ios":"levelo://app?vid=2c6a7ab1-d70c-4487-979c-2bf22d5ffaa1"},"vehicle_type_id":"4","last_reported":1766723193,"current_range_meters":13600,"station_id":"ce4bhjp2rcd13ifvqga0","pricing_plan_id":"cebpf4jnsgd1na2vs0mg"},{"bike_id":"b1bb56a6-7468-4af3-bc55-a6894bdbd4b7","system_id":"levelo_inurba_marseille","lat":43.26576,"lon":5.39028,"is_reserved":false,"is_disabled":false,"rental_uris":{"android":"levelo://app?vid=b1bb56a6-7468-4af3-bc55-a6894bdbd4b7","ios":"levelo://app?vid=b1bb56a6-7468-4af3-bc55-a6894bdbd4b7"},"vehicle_type_id":"4","last_reported":1766723193,"current_range_meters":13600,"station_id":"ce4bhe12rcd13ifvqf30","pricing_plan_id":"cebpf4jnsgd1na2vs0mg"},{"bike_id":"dd32b489-b8e8-4390-a551-83cef46fccb1","system_id":"levelo_inurba_marseille","lat":43.309586,"lon":5.390218,"is_reserved":false,"is_disabled":false,"rental_uris":{"android":"levelo://app?vid=dd32b489-b8e8-4390-a551-83cef46fccb1","ios":"levelo://app?vid=dd32b489-b8e8-4390-a551-83cef46fccb1"},"vehicle_type_id":"4","last_reported":1766723193,"current_range_meters":14000,"station_id":"ce4bgup2rcd13ifvqco0","pricing_plan_id":"cebpf4jnsgd1na2vs0mg"},{"bike_id":"26707781-8c4d-45fb-abb8-9784fa4796ac","system_id":"levelo_inurba_marseille","lat":43.32345,"lon":5.36748,"is_reserved":false,"is_disabled":false,"rental_uris":{"android":"levelo://app?vid=26707781-8c4d-45fb-abb8-9784fa4796ac","ios":"levelo://app?vid=26707781-8c4d-45fb-abb8-9784fa4796ac"},"vehicle_type_id":"4","last_reported":1766723193,"current_range_meters":14000,"station_id":"ce4bhsh2rcd13ifvqi2g","pricing_plan_id":"cebpf4jnsgd1na2vs0mg"},{"bike_id":"6af309a2-8f26-4463-a2f8-b68c7d811285","system_id":"levelo_inurba_marseille","lat":43.30905,"lon":5.3745,"is_reserved":false,"is_disabled":false,"rental_uris":{"android":"levelo://app?vid=6af309a2-8f26-4463-a2f8-b68c7d811285","ios":"levelo://app?vid=6af309a2-8f26-4463-a2f8-b68c7d811285"},"vehicle_type_id":"4","last_reported":1766723193,"current_range_meters":14000,"station_id":"","pricing_plan_id":"cebpf4jnsgd1na2vs0mg"},{"bike_id":"4a684cd5-92a5-49be-b5f5-7b92d82a52e2","system_id":"levelo_inurba_marseille","lat":43.31353,"lon":5.38509,"is_reserved":false,"is_disabled":false,"rental_uris":{"android":"levelo://app?vid=4a684cd5-92a5-49be-b5f5-7b92d82a52e2","ios":"levelo://app?vid=4a684cd5-92a5-49be-b5f5-7b92d82a52e2"},"vehicle_type_id":"4","last_reported":1766723193,"current_range_meters":14000,"station_id":"ce4bgt92rcd13ifvqcf0","pricing_plan_id":"cebpf4jnsgd1na2vs0mg"},{"bike_id":"7949dd14-7af0-4592-9cce-8e34ef65c2a8","system_id":"levelo_inurba_marseille","lat":43.297593,"lon":5.427797,"is_reserved":false,"is_disabled":false,"rental_uris":{"android":"levelo://app?vid=7949dd14-7af0-4592-9cce-8e34ef65c2a8","ios":"levelo://app?vid=7949dd14-7af0-4592-9cce-8e34ef65c2a8"},"vehicle_type_id":"4","last_reported":1766723193,"current_range_meters":14000,"station_id":"st_d3md5207bmas73dh9klg","pricing_plan_id":"cebpf4jnsgd1na2vs0mg"},{"bike_id":"ede6190c-f5d2-455d-8e08-a210009cc1c5","system_id":"levelo_inurba_marseille","lat":43.29735,"lon":5.37666,"is_reserved":false,"is_disabled":false,"rental_uris":{"android":"levelo://app?vid=ede6190c-f5d2-455d-8e08-a210009cc1c5","ios":"levelo://app?vid=ede6190c-f5d2-455d-8e08-a210009cc1c5"},"vehicle_type_id":"4","last_reported":1766723193,"current_range_meters":14000,"station_id":"ce4bgkh2rcd13ifvqbl0","pricing_plan_id":"cebpf4jnsgd1na2vs0mg"},{"bike_id":"bdf61926-de40-4a9b-b98a-a989792c537a","system_id":"levelo_inurba_marseille","lat":43.28482,"lon":5.48403,"is_reserved":false,"is_disabled":false,"rental_uris":{"android":"levelo://app?vid=bdf61926-de40-4a9b-b98a-a989792c537a","ios":"levelo://app?vid=bdf61926-de40-4a9b-b98a-a989792c537a"},"vehicle_type_id":"4","last_reported":1766723193,"current_range_meters":14000,"station_id":"st_d3svhcjqgbts73a3dn0g","pricing_plan_id":"cebpf4jnsgd1na2vs0mg"},{"bike_id":"ca48d4ad-26ca-4dea-a200-be3e43176f3f","system_id":"levelo_inurba_marseille","lat":43.33177,"lon":5.41344,"is_reserved":false,"is_disabled":false,"rental_uris":{"android":"levelo://app?vid=ca48d4ad-26ca-4dea-a200-be3e43176f3f","ios":"levelo://app?vid=ca48d4ad-26ca-4dea-a200-be3e43176f3f"},"vehicle_type_id":"4","last_reported":1766723193,"current_range_meters":14000,"station_id":"","pricing_plan_id":"cebpf4jnsgd1na2vs0mg"},{"bike_id":"e803cd97-34ef-43a6-8aff-b0a6592d5d67","system_id":"levelo_inurba_marseille","lat":43.26495,"lon":5.39544,"is_reserved":false,"is_disabled":false,"rental_uris":{"android":"levelo://app?vid=e803cd97-34ef-43a6-8aff-b0a6592d5d67","ios":"levelo://app?vid=e803cd97-34ef-43a6-8aff-b0a6592d5d67"},"vehicle_type_id":"4","last_reported":1766723193,"current_range_meters":14000,"station_id":"ce4bhi12rcd13ifvqfq0","pricing_plan_id":"cebpf4jnsgd1na2vs0mg"},{"bike_id":"1f45b2b1-d2e0-4187-926d-9979c716f8a5","system_id":"levelo_inurba_marseille","lat":43.25057,"lon":5.40454,"is_reserved":false,"is_disabled":false,"rental_uris":{"android":"levelo://app?vid=1f45b2b1-d2e0-4187-926d-9979c716f8a5","ios":"levelo://app?vid=1f45b2b1-d2e0-4187-926d-9979c716f8a5"},"vehicle_type_id":"4","last_reported":1766723193,"current_range_meters":14000,"station_id":"st_d2ngiaodas8pm72gd1h0","pricing_plan_id":"cebpf4jnsgd1na2vs0mg"},{"bike_id":"e3d32b5a-ba62-4be2-9752-ef74e3c64ca7","system_id":"levelo_inurba_marseille","lat":43.28517,"lon":5.48361,"is_reserved":false,"is_disabled":false,"rental_uris":{"android":"levelo://app?vid=e3d32b5a-ba62-4be2-9752-ef74e3c64ca7","ios":"levelo://app?vid=e3d32b5a-ba62-4be2-9752-ef74e3c64ca7"},"vehicle_type_id":"4","last_reported":1766723193,"current_range_meters":14000,"station_id":"st_d3svhcjqgbts73a3dn0g","pricing_plan_id":"cebpf4jnsgd1na2vs0mg"},{"bike_id":"ed0c4dc3-8320-47c9-90d1-5a9b377d8c77","system_id":"levelo_inurba_marseille","lat":43.28566,"lon":5.39499,"is_reserved":false,"is_disabled":false,"rental_uris":{"android":"levelo://app?vid=ed0c4dc3-8320-47c9-90d1-5a9b377d8c77","ios":"levelo://app?vid=ed0c4dc3-8320-47c9-90d1-5a9b377d8c77"},"vehicle_type_id":"4","last_reported":1766723193,"current_range_meters":14000,"station_id":"ce4bh292rcd13ifvqdg0","pricing_plan_id":"cebpf4jnsgd1na2vs0mg"},{"bike_id":"c025d64d-a0e6-447b-adf7-fc8bb4547a1c","system_id":"levelo_inurba_marseille","lat":43.29389,"lon":5.37613,"is_reserved":false,"is_disabled":false,"rental_uris":{"android":"levelo://app?vid=c025d64d-a0e6-447b-adf7-fc8bb4547a1c","ios":"levelo://app?vid=c025d64d-a0e6-447b-adf7-fc8bb4547a1c"},"vehicle_type_id":"4","last_reported":1766723193,"current_range_meters":14000,"station_id":"","pricing_plan_id":"cebpf4jnsgd1na2vs0mg"},{"bike_id":"c8258350-2015-4491-8c5b-40da9e659c5c","system_id":"levelo_inurba_marseille","lat":43.258566,"lon":5.399217,"is_reserved":false,"is_disabled":false,"rental_uris":{"android":"levelo://app?vid=c8258350-2015-4491-8c5b-40da9e659c5c","ios":"levelo://app?vid=c8258350-2015-4491-8c5b-40da9e659c5c"},"vehicle_type_id":"4","last_reported":1766723193,"current_range_meters":14400,"station_id":"ce4bhl92rcd13ifvqghg","pricing_plan_id":"cebpf4jnsgd1na2vs0mg"},{"bike_id":"8f4e96af-1354-40d1-8e19-779dda90a962","system_id":"levelo_inurba_marseille","lat":43.29845,"lon":5.3627,"is_reserved":false,"is_disabled":false,"rental_uris":{"android":"levelo://app?vid=8f4e96af-1354-40d1-8e19-779dda90a962","ios":"levelo://app?vid=8f4e96af-1354-40d1-8e19-779dda90a962"},"vehicle_type_id":"4","last_reported":1766723193,"current_range_meters":14400,"station_id":"ce4bgpp2rcd13ifvqc3g","pricing_plan_id":"cebpf4jnsgd1na2vs0mg"},{"bike_id":"df2b4189-dc97-4375-86ab-91371091cc60","system_id":"levelo_inurba_marseille","lat":43.279468,"lon":5.410518,"is_reserved":false,"is_disabled":false,"rental_uris":{"android":"levelo://app?vid=df2b4189-dc97-4375-86ab-91371091cc60","ios":"levelo://app?vid=df2b4189-dc97-4375-86ab-91371091cc60"},"vehicle_type_id":"4","last_reported":1766723193,"current_range_meters":14400,"station_id":"ce4bhnp2rcd13ifvqh0g","pricing_plan_id":"cebpf4jnsgd1na2vs0mg"},{"bike_id":"14ffe5e2-50b3-4407-ab72-7fbc2057238e","system_id":"levelo_inurba_marseille","lat":43.266891,"lon":5.382753,"is_reserved":false,"is_disabled":false,"rental_uris":{"android":"levelo://app?vid=14ffe5e2-50b3-4407-ab72-7fbc2057238e","ios":"levelo://app?vid=14ffe5e2-50b3-4407-ab72-7fbc2057238e"},"vehicle_type_id":"4","last_reported":1766723193,"current_range_meters":14400,"station_id":"ce4bhg92rcd13ifvqf90","pricing_plan_id":"cebpf4jnsgd1na2vs0mg"},{"bike_id":"92dce28b-8728-4f57-9f40-9fd7bc44cac8","system_id":"levelo_inurba_marseille","lat":43.25515,"lon":5.376568,"is_reserved":false,"is_disabled":true,"rental_uris":{"android":"levelo://app?vid=92dce28b-8728-4f57-9f40-9fd7bc44cac8","ios":"levelo://app?vid=92dce28b-8728-4f57-9f40-9fd7bc44cac8"},"vehicle_type_id":"4","last_reported":1766723193,"current_range_meters":14400,"station_id":"ce4bhh12rcd13ifvqff0","pricing_plan_id":"cebpf4jnsgd1na2vs0mg"},{"bike_id":"a2a1337d-ec9d-4b6b-9079-4ec62e407cf1","system_id":"levelo_inurba_marseille","lat":43.29943,"lon":5.37535,"is_reserved":false,"is_disabled":false,"rental_uris":{"android":"levelo://app?vid=a2a1337d-ec9d-4b6b-9079-4ec62e407cf1","ios":"levelo://app?vid=a2a1337d-ec9d-4b6b-9079-4ec62e407cf1"},"vehicle_type_id":"4","last_reported":1766723193,"current_range_meters":14400,"station_id":"ce4bgjh2rcd13ifvqbg0","pricing_plan_id":"cebpf4jnsgd1na2vs0mg"},{"bike_id":"1498f079-e300-4265-837b-8da7d97aca06","system_id":"levelo_inurba_marseille","lat":43.24172,"lon":5.36438,"is_reserved":false,"is_disabled":false,"rental_uris":{"android":"levelo://app?vid=1498f079-e300-4265-837b-8da7d97aca06","ios":"levelo://app?vid=1498f079-e300-4265-837b-8da7d97aca06"},"vehicle_type_id":"4","last_reported":1766723193,"current_range_meters":14400,"station_id":"cpo36qri1sfpv3e86is0","pricing_plan_id":"cebpf4jnsgd1na2vs0mg"},{"bike_id":"b0a8d43d-7f70-479d-bf79-42c0d0b373ac","system_id":"levelo_inurba_marseille","lat":43.29745,"lon":5.42777,"is_reserved":false,"is_disabled":false,"rental_uris":{"android":"levelo://app?vid=b0a8d43d-7f70-479d-bf79-42c0d0b373ac","ios":"levelo://app?vid=b0a8d43d-7f70-479d-bf79-42c0d0b373ac"},"vehicle_type_id":"4","last_reported":1766723193,"current_range_meters":14400,"station_id":"st_d3md5207bmas73dh9klg","pricing_plan_id":"cebpf4jnsgd1na2vs0mg"},{"bike_id":"487c638e-4b34-412c-a7ab-c82b1eb209db","system_id":"levelo_inurba_marseille","lat":43.31666,"lon":5.39661,"is_reserved":false,"is_disabled":false,"rental_uris":{"android":"levelo://app?vid=487c638e-4b34-412c-a7ab-c82b1eb209db","ios":"levelo://app?vid=487c638e-4b34-412c-a7ab-c82b1eb209db"},"vehicle_type_id":"4","last_reported":1766723193,"current_range_meters":14400,"station_id":"","pricing_plan_id":"cebpf4jnsgd1na2vs0mg"},{"bike_id":"b98c4bb3-e84f-4703-8006-455cb12ed450","system_id":"levelo_inurba_marseille","lat":43.28836,"lon":5.42626,"is_reserved":false,"is_disabled":false,"rental_uris":{"android":"levelo://app?vid=b98c4bb3-e84f-4703-8006-455cb12ed450","ios":"levelo://app?vid=b98c4bb3-e84f-4703-8006-455cb12ed450"},"vehicle_type_id":"4","last_reported":1766723193,"current_range_meters":14400,"station_id":"","pricing_plan_id":"cebpf4jnsgd1na2vs0mg"},{"bike_id":"0d4effb5-b7b9-4b22-b0ef-fcc99085e415","system_id":"levelo_inurba_marseille","lat":43.29492,"lon":5.43312,"is_reserved":false,"is_disabled":false,"rental_uris":{"android":"levelo://app?vid=0d4effb5-b7b9-4b22-b0ef-fcc99085e415","ios":"levelo://app?vid=0d4effb5-b7b9-4b22-b0ef-fcc99085e415"},"vehicle_type_id":"4","last_reported":1766723193,"current_range_meters":14400,"station_id":"st_d3j5ugp08ojc73fj9d10","pricing_plan_id":"cebpf4jnsgd1na2vs0mg"},{"bike_id":"3b7b72b1-efcb-40f5-9767-0740b5192e70","system_id":"levelo_inurba_marseille","lat":43.29791,"lon":5.38085,"is_reserved":false,"is_disabled":false,"rental_uris":{"android":"levelo://app?vid=3b7b72b1-efcb-40f5-9767-0740b5192e70","ios":"levelo://app?vid=3b7b72b1-efcb-40f5-9767-0740b5192e70"},"vehicle_type_id":"4","last_reported":1766723193,"current_range_meters":14800,"station_id":"ce4bgip2rcd13ifvqbb0","pricing_plan_id":"cebpf4jnsgd1na2vs0mg"},{"bike_id":"5bd98b9f-31dd-4bcd-8083-4901f3ead05e","system_id":"levelo_inurba_marseille","lat":43.29491,"lon":5.43296,"is_reserved":false,"is_disabled":false,"rental_uris":{"android":"levelo://app?vid=5bd98b9f-31dd-4bcd-8083-4901f3ead05e","ios":"levelo://app?vid=5bd98b9f-31dd-4bcd-8083-4901f3ead05e"},"vehicle_type_id":"4","last_reported":1766723193,"current_range_meters":14800,"station_id":"st_d3j5ugp08ojc73fj9d10","pricing_plan_id":"cebpf4jnsgd1na2vs0mg"},{"bike_id":"2d860b81-0081-47f0-80fb-7e4c62824916","system_id":"levelo_inurba_marseille","lat":43.30122,"lon":5.43123,"is_reserved":false,"is_disabled":false,"rental_uris":{"android":"levelo://app?vid=2d860b81-0081-47f0-80fb-7e4c62824916","ios":"levelo://app?vid=2d860b81-0081-47f0-80fb-7e4c62824916"},"vehicle_type_id":"4","last_reported":1766723193,"current_range_meters":14800,"station_id":"st_d3js3co5814s73ftftug","pricing_plan_id":"cebpf4jnsgd1na2vs0mg"},{"bike_id":"467517c8-ed87-4e02-bef8-4ed63963538d","system_id":"levelo_inurba_marseille","lat":43.27201,"lon":5.40991,"is_reserved":false,"is_disabled":false,"rental_uris":{"android":"levelo://app?vid=467517c8-ed87-4e02-bef8-4ed63963538d","ios":"levelo://app?vid=467517c8-ed87-4e02-bef8-4ed63963538d"},"vehicle_type_id":"4","last_reported":1766723193,"current_range_meters":14800,"station_id":"ce4bhl12rcd13ifvqgf0","pricing_plan_id":"cebpf4jnsgd1na2vs0mg"},{"bike_id":"5ddb73b6-6e51-4368-b931-2747f5c96c56","system_id":"levelo_inurba_marseille","lat":43.21739,"lon":5.34605,"is_reserved":false,"is_disabled":false,"rental_uris":{"android":"levelo://app?vid=5ddb73b6-6e51-4368-b931-2747f5c96c56","ios":"levelo://app?vid=5ddb73b6-6e51-4368-b931-2747f5c96c56"},"vehicle_type_id":"4","last_reported":1766723193,"current_range_meters":14800,"station_id":"st_cvj6r9ubvosntc0bgbag","pricing_plan_id":"cebpf4jnsgd1na2vs0mg"},{"bike_id":"41cd7ae6-0fe9-47de-8a15-7d3c15e9d561","system_id":"levelo_inurba_marseille","lat":43.26587,"lon":5.39044,"is_reserved":false,"is_disabled":false,"rental_uris":{"android":"levelo://app?vid=41cd7ae6-0fe9-47de-8a15-7d3c15e9d561","ios":"levelo://app?vid=41cd7ae6-0fe9-47de-8a15-7d3c15e9d561"},"vehicle_type_id":"4","last_reported":1766723193,"current_range_meters":14800,"station_id":"ce4bhe12rcd13ifvqf30","pricing_plan_id":"cebpf4jnsgd1na2vs0mg"},{"bike_id":"8521716e-4e10-40b3-ad64-93efa3eb2e75","system_id":"levelo_inurba_marseille","lat":43.23201,"lon":5.35549,"is_reserved":false,"is_disabled":false,"rental_uris":{"android":"levelo://app?vid=8521716e-4e10-40b3-ad64-93efa3eb2e75","ios":"levelo://app?vid=8521716e-4e10-40b3-ad64-93efa3eb2e75"},"vehicle_type_id":"4","last_reported":1766723193,"current_range_meters":14800,"station_id":"ce4bhu92rcd13ifvqi70","pricing_plan_id":"cebpf4jnsgd1na2vs0mg"},{"bike_id":"bfbac5d5-ee1d-4485-851b-815726cd1e57","system_id":"levelo_inurba_marseille","lat":43.32046,"lon":5.41512,"is_reserved":false,"is_disabled":false,"rental_uris":{"android":"levelo://app?vid=bfbac5d5-ee1d-4485-851b-815726cd1e57","ios":"levelo://app?vid=bfbac5d5-ee1d-4485-851b-815726cd1e57"},"vehicle_type_id":"4","last_reported":1766723193,"current_range_meters":14800,"station_id":"ce4bhq92rcd13ifvqhkg","pricing_plan_id":"cebpf4jnsgd1na2vs0mg"},{"bike_id":"652999ae-9f9a-402a-99d5-f3ed10a5e186","system_id":"levelo_inurba_marseille","lat":43.320996,"lon":5.367717,"is_reserved":false,"is_disabled":false,"rental_uris":{"android":"levelo://app?vid=652999ae-9f9a-402a-99d5-f3ed10a5e186","ios":"levelo://app?vid=652999ae-9f9a-402a-99d5-f3ed10a5e186"},"vehicle_type_id":"4","last_reported":1766723193,"current_range_meters":14800,"station_id":"ce4bhrh2rcd13ifvqhug","pricing_plan_id":"cebpf4jnsgd1na2vs0mg"},{"bike_id":"7f2c7147-704a-4c2a-8d1d-b9b95038a8ea","system_id":"levelo_inurba_marseille","lat":43.321234,"lon":5.367699,"is_reserved":false,"is_disabled":false,"rental_uris":{"android":"levelo://app?vid=7f2c7147-704a-4c2a-8d1d-b9b95038a8ea","ios":"levelo://app?vid=7f2c7147-704a-4c2a-8d1d-b9b95038a8ea"},"vehicle_type_id":"4","last_reported":1766723193,"current_range_meters":14800,"station_id":"ce4bhrh2rcd13ifvqhug","pricing_plan_id":"cebpf4jnsgd1na2vs0mg"},{"bike_id":"1f8985bb-771f-47f2-8a22-198eab5159d6","system_id":"levelo_inurba_marseille","lat":43.27309,"lon":5.39118,"is_reserved":false,"is_disabled":false,"rental_uris":{"android":"levelo://app?vid=1f8985bb-771f-47f2-8a22-198eab5159d6","ios":"levelo://app?vid=1f8985bb-771f-47f2-8a22-198eab5159d6"},"vehicle_type_id":"4","last_reported":1766723193,"current_range_meters":14800,"station_id":"ce4bhgp2rcd13ifvqfe0","pricing_plan_id":"cebpf4jnsgd1na2vs0mg"},{"bike_id":"1c86e37a-8481-4da4-bf05-647d86eb8b04","system_id":"levelo_inurba_marseille","lat":43.309103,"lon":5.416336,"is_reserved":false,"is_disabled":false,"rental_uris":{"android":"levelo://app?vid=1c86e37a-8481-4da4-bf05-647d86eb8b04","ios":"levelo://app?vid=1c86e37a-8481-4da4-bf05-647d86eb8b04"},"vehicle_type_id":"4","last_reported":1766723193,"current_range_meters":14800,"station_id":"","pricing_plan_id":"cebpf4jnsgd1na2vs0mg"},{"bike_id":"4d8b3b73-f536-4285-8cbd-381bc549e186","system_id":"levelo_inurba_marseille","lat":43.31213,"lon":5.3691,"is_reserved":false,"is_disabled":false,"rental_uris":{"android":"levelo://app?vid=4d8b3b73-f536-4285-8cbd-381bc549e186","ios":"levelo://app?vid=4d8b3b73-f536-4285-8cbd-381bc549e186"},"vehicle_type_id":"4","last_reported":1766723193,"current_range_meters":14800,"station_id":"ce4bgl92rcd13ifvqbq0","pricing_plan_id":"cebpf4jnsgd1na2vs0mg"},{"bike_id":"28d36d66-e4d6-4e13-a6c5-33e9d81e47d2","system_id":"levelo_inurba_marseille","lat":43.31714,"lon":5.4044,"is_reserved":false,"is_disabled":false,"rental_uris":{"android":"levelo://app?vid=28d36d66-e4d6-4e13-a6c5-33e9d81e47d2","ios":"levelo://app?vid=28d36d66-e4d6-4e13-a6c5-33e9d81e47d2"},"vehicle_type_id":"4","last_reported":1766723193,"current_range_meters":15200,"station_id":"ce4bh012rcd13ifvqd00","pricing_plan_id":"cebpf4jnsgd1na2vs0mg"},{"bike_id":"0e9ec83d-aae8-4867-ba01-a246e4728251","system_id":"levelo_inurba_marseille","lat":43.262164,"lon":5.374386,"is_reserved":false,"is_disabled":false,"rental_uris":{"android":"levelo://app?vid=0e9ec83d-aae8-4867-ba01-a246e4728251","ios":"levelo://app?vid=0e9ec83d-aae8-4867-ba01-a246e4728251"},"vehicle_type_id":"4","last_reported":1766723193,"current_range_meters":15200,"station_id":"ce4bhgp2rcd13ifvqfc0","pricing_plan_id":"cebpf4jnsgd1na2vs0mg"},{"bike_id":"d031320b-e967-449d-99d4-420c8de16ac8","system_id":"levelo_inurba_marseille","lat":43.28946,"lon":5.39636,"is_reserved":false,"is_disabled":false,"rental_uris":{"android":"levelo://app?vid=d031320b-e967-449d-99d4-420c8de16ac8","ios":"levelo://app?vid=d031320b-e967-449d-99d4-420c8de16ac8"},"vehicle_type_id":"4","last_reported":1766723193,"current_range_meters":15200,"station_id":"ce4bh3h2rcd13ifvqdn0","pricing_plan_id":"cebpf4jnsgd1na2vs0mg"},{"bike_id":"92d80675-044b-48fa-9aa3-77b4da84f73c","system_id":"levelo_inurba_marseille","lat":43.29208,"lon":5.40406,"is_reserved":false,"is_disabled":false,"rental_uris":{"android":"levelo://app?vid=92d80675-044b-48fa-9aa3-77b4da84f73c","ios":"levelo://app?vid=92d80675-044b-48fa-9aa3-77b4da84f73c"},"vehicle_type_id":"4","last_reported":1766723193,"current_range_meters":15200,"station_id":"","pricing_plan_id":"cebpf4jnsgd1na2vs0mg"},{"bike_id":"76589e41-488c-40ee-9ecd-c2c6fe69753a","system_id":"levelo_inurba_marseille","lat":43.22943,"lon":5.35418,"is_reserved":false,"is_disabled":false,"rental_uris":{"android":"levelo://app?vid=76589e41-488c-40ee-9ecd-c2c6fe69753a","ios":"levelo://app?vid=76589e41-488c-40ee-9ecd-c2c6fe69753a"},"vehicle_type_id":"4","last_reported":1766723193,"current_range_meters":15200,"station_id":"cpo3532slgdg3j2ikp40","pricing_plan_id":"cebpf4jnsgd1na2vs0mg"},{"bike_id":"26f6d6a5-5821-4875-a164-33d619759de8","system_id":"levelo_inurba_marseille","lat":43.241633,"lon":5.363961,"is_reserved":false,"is_disabled":false,"rental_uris":{"android":"levelo://app?vid=26f6d6a5-5821-4875-a164-33d619759de8","ios":"levelo://app?vid=26f6d6a5-5821-4875-a164-33d619759de8"},"vehicle_type_id":"4","last_reported":1766723193,"current_range_meters":15200,"station_id":"cpo36qri1sfpv3e86is0","pricing_plan_id":"cebpf4jnsgd1na2vs0mg"},{"bike_id":"bf2d09fa-9028-4b47-acbb-cb4f613a7046","system_id":"levelo_inurba_marseille","lat":43.2621,"lon":5.374431,"is_reserved":false,"is_disabled":false,"rental_uris":{"android":"levelo://app?vid=bf2d09fa-9028-4b47-acbb-cb4f613a7046","ios":"levelo://app?vid=bf2d09fa-9028-4b47-acbb-cb4f613a7046"},"vehicle_type_id":"4","last_reported":1766723193,"current_range_meters":15200,"station_id":"ce4bhgp2rcd13ifvqfc0","pricing_plan_id":"cebpf4jnsgd1na2vs0mg"},{"bike_id":"9cad1ab2-6c39-45f1-8adc-a45568b193e7","system_id":"levelo_inurba_marseille","lat":43.21759,"lon":5.34608,"is_reserved":false,"is_disabled":false,"rental_uris":{"android":"levelo://app?vid=9cad1ab2-6c39-45f1-8adc-a45568b193e7","ios":"levelo://app?vid=9cad1ab2-6c39-45f1-8adc-a45568b193e7"},"vehicle_type_id":"4","last_reported":1766723193,"current_range_meters":15200,"station_id":"st_cvj6r9ubvosntc0bgbag","pricing_plan_id":"cebpf4jnsgd1na2vs0mg"},{"bike_id":"7bcb72d6-003c-4a8f-bd5c-ddbf6d27010e","system_id":"levelo_inurba_marseille","lat":43.26568,"lon":5.39029,"is_reserved":false,"is_disabled":false,"rental_uris":{"android":"levelo://app?vid=7bcb72d6-003c-4a8f-bd5c-ddbf6d27010e","ios":"levelo://app?vid=7bcb72d6-003c-4a8f-bd5c-ddbf6d27010e"},"vehicle_type_id":"4","last_reported":1766723193,"current_range_meters":15200,"station_id":"ce4bhe12rcd13ifvqf30","pricing_plan_id":"cebpf4jnsgd1na2vs0mg"},{"bike_id":"6235fc96-9baf-4585-9358-5f963fefeef2","system_id":"levelo_inurba_marseille","lat":43.30603,"lon":5.39359,"is_reserved":false,"is_disabled":false,"rental_uris":{"android":"levelo://app?vid=6235fc96-9baf-4585-9358-5f963fefeef2","ios":"levelo://app?vid=6235fc96-9baf-4585-9358-5f963fefeef2"},"vehicle_type_id":"4","last_reported":1766723193,"current_range_meters":15200,"station_id":"","pricing_plan_id":"cebpf4jnsgd1na2vs0mg"},{"bike_id":"bdee2951-35ba-42d5-8680-92c863c8c439","system_id":"levelo_inurba_marseille","lat":43.217443,"lon":5.346151,"is_reserved":false,"is_disabled":false,"rental_uris":{"android":"levelo://app?vid=bdee2951-35ba-42d5-8680-92c863c8c439","ios":"levelo://app?vid=bdee2951-35ba-42d5-8680-92c863c8c439"},"vehicle_type_id":"4","last_reported":1766723193,"current_range_meters":15200,"station_id":"st_cvj6r9ubvosntc0bgbag","pricing_plan_id":"cebpf4jnsgd1na2vs0mg"},{"bike_id":"97c84c2d-14b1-4de2-9858-fa401d4aa133","system_id":"levelo_inurba_marseille","lat":43.24465,"lon":5.42536,"is_reserved":false,"is_disabled":false,"rental_uris":{"android":"levelo://app?vid=97c84c2d-14b1-4de2-9858-fa401d4aa133","ios":"levelo://app?vid=97c84c2d-14b1-4de2-9858-fa401d4aa133"},"vehicle_type_id":"4","last_reported":1766723193,"current_range_meters":15200,"station_id":"st_d4a3vfp97mjs738cd8kg","pricing_plan_id":"cebpf4jnsgd1na2vs0mg"},{"bike_id":"a7b0ffca-bd19-4593-b42d-f026e5905164","system_id":"levelo_inurba_marseille","lat":43.29304,"lon":5.36937,"is_reserved":false,"is_disabled":false,"rental_uris":{"android":"levelo://app?vid=a7b0ffca-bd19-4593-b42d-f026e5905164","ios":"levelo://app?vid=a7b0ffca-bd19-4593-b42d-f026e5905164"},"vehicle_type_id":"4","last_reported":1766723193,"current_range_meters":15200,"station_id":"","pricing_plan_id":"cebpf4jnsgd1na2vs0mg"},{"bike_id":"9e1cb312-28c0-4fd0-8afc-7945c66fa276","system_id":"levelo_inurba_marseille","lat":43.33165,"lon":5.37686,"is_reserved":false,"is_disabled":false,"rental_uris":{"android":"levelo://app?vid=9e1cb312-28c0-4fd0-8afc-7945c66fa276","ios":"levelo://app?vid=9e1cb312-28c0-4fd0-8afc-7945c66fa276"},"vehicle_type_id":"4","last_reported":1766723193,"current_range_meters":15200,"station_id":"st_d46cu089ee8s73dldbu0","pricing_plan_id":"cebpf4jnsgd1na2vs0mg"},{"bike_id":"c6c751ca-f0d9-4d7d-924c-b26f574b394e","system_id":"levelo_inurba_marseille","lat":43.26748,"lon":5.38456,"is_reserved":false,"is_disabled":false,"rental_uris":{"android":"levelo://app?vid=c6c751ca-f0d9-4d7d-924c-b26f574b394e","ios":"levelo://app?vid=c6c751ca-f0d9-4d7d-924c-b26f574b394e"},"vehicle_type_id":"4","last_reported":1766723193,"current_range_meters":15200,"station_id":"","pricing_plan_id":"cebpf4jnsgd1na2vs0mg"},{"bike_id":"859e49a6-fc42-445b-b1db-54603ecb439d","system_id":"levelo_inurba_marseille","lat":43.303193,"lon":5.368967,"is_reserved":false,"is_disabled":false,"rental_uris":{"android":"levelo://app?vid=859e49a6-fc42-445b-b1db-54603ecb439d","ios":"levelo://app?vid=859e49a6-fc42-445b-b1db-54603ecb439d"},"vehicle_type_id":"4","last_reported":1766723193,"current_range_meters":16000,"station_id":"ce4bgqh2rcd13ifvqc5g","pricing_plan_id":"cebpf4jnsgd1na2vs0mg"},{"bike_id":"1f2b55f6-a8e6-45b9-aa40-fe19fa08bde1","system_id":"levelo_inurba_marseille","lat":43.32108,"lon":5.36777,"is_reserved":false,"is_disabled":false,"rental_uris":{"android":"levelo://app?vid=1f2b55f6-a8e6-45b9-aa40-fe19fa08bde1","ios":"levelo://app?vid=1f2b55f6-a8e6-45b9-aa40-fe19fa08bde1"},"vehicle_type_id":"4","last_reported":1766723193,"current_range_meters":16000,"station_id":"ce4bhrh2rcd13ifvqhug","pricing_plan_id":"cebpf4jnsgd1na2vs0mg"},{"bike_id":"d6cdbaa0-f785-4d1c-9fa9-70d9132ef66a","system_id":"levelo_inurba_marseille","lat":43.26363,"lon":5.41076,"is_reserved":false,"is_disabled":false,"rental_uris":{"android":"levelo://app?vid=d6cdbaa0-f785-4d1c-9fa9-70d9132ef66a","ios":"levelo://app?vid=d6cdbaa0-f785-4d1c-9fa9-70d9132ef66a"},"vehicle_type_id":"4","last_reported":1766723193,"current_range_meters":16000,"station_id":"st_d4e5ca6na9uc73bfl5fg","pricing_plan_id":"cebpf4jnsgd1na2vs0mg"},{"bike_id":"cf7c6d98-9961-45bd-b9a5-0a56126e0ddf","system_id":"levelo_inurba_marseille","lat":43.30142,"lon":5.37391,"is_reserved":false,"is_disabled":false,"rental_uris":{"android":"levelo://app?vid=cf7c6d98-9961-45bd-b9a5-0a56126e0ddf","ios":"levelo://app?vid=cf7c6d98-9961-45bd-b9a5-0a56126e0ddf"},"vehicle_type_id":"4","last_reported":1766723193,"current_range_meters":16000,"station_id":"ce4bgs92rcd13ifvqcc0","pricing_plan_id":"cebpf4jnsgd1na2vs0mg"},{"bike_id":"66de7b9e-1a4f-4d86-98ae-eb4a418a2023","system_id":"levelo_inurba_marseille","lat":43.299094,"lon":5.37468,"is_reserved":false,"is_disabled":false,"rental_uris":{"android":"levelo://app?vid=66de7b9e-1a4f-4d86-98ae-eb4a418a2023","ios":"levelo://app?vid=66de7b9e-1a4f-4d86-98ae-eb4a418a2023"},"vehicle_type_id":"4","last_reported":1766723193,"current_range_meters":16000,"station_id":"ce4bgjh2rcd13ifvqbg0","pricing_plan_id":"cebpf4jnsgd1na2vs0mg"},{"bike_id":"d8495e01-0798-43ca-b8bf-f8bb6f993c97","system_id":"levelo_inurba_marseille","lat":43.27362,"lon":5.36258,"is_reserved":false,"is_disabled":false,"rental_uris":{"android":"levelo://app?vid=d8495e01-0798-43ca-b8bf-f8bb6f993c97","ios":"levelo://app?vid=d8495e01-0798-43ca-b8bf-f8bb6f993c97"},"vehicle_type_id":"4","last_reported":1766723193,"current_range_meters":16000,"station_id":"ce4bhbh2rcd13ifvqeo0","pricing_plan_id":"cebpf4jnsgd1na2vs0mg"},{"bike_id":"596f9f2e-754a-4bff-95d7-fb2758b09a2e","system_id":"levelo_inurba_marseille","lat":43.3242,"lon":5.36728,"is_reserved":false,"is_disabled":false,"rental_uris":{"android":"levelo://app?vid=596f9f2e-754a-4bff-95d7-fb2758b09a2e","ios":"levelo://app?vid=596f9f2e-754a-4bff-95d7-fb2758b09a2e"},"vehicle_type_id":"4","last_reported":1766723193,"current_range_meters":16000,"station_id":"","pricing_plan_id":"cebpf4jnsgd1na2vs0mg"},