{"last_updated":1745658528,"ttl":60,"version":"2.2","data":{"bikes":[{"bike_id":"09241cde-ed23-4a17-8e31-e9cb0f665d3e","system_id":"levelo_inurba_marseille","lat":43.30124,"lon":5.39863,"is_reserved":false,"is_disabled":false,"rental_uris":{"android":"levelo://app?vid=09241cde-ed23-4a17-8e31-e9cb0f665d3e","ios":"levelo://app?vid=09241cde-ed23-4a17-8e31-e9cb0f665d3e"},"vehicle_type_id":"4","last_reported":1745658528,"current_range_meters":2000,"station_id":"ce4bh0h2rcd13ifvqd40","pricing_plan_id":"cebpf4jnsgd1na2vs0mg"},{"bike_id":"a3cb9f4c-2fba-43f2-b914-4967952ccdab","system_id":"levelo_inurba_marseille","lat":43.30144,"lon":5.38796,"is_reserved":false,"is_disabled":false,"rental_uris":{"android":"levelo://app?vid=a3cb9f4c-2fba-43f2-b914-4967952ccdab","ios":"levelo://app?vid=a3cb9f4c-2fba-43f2-b914-4967952ccdab"},"vehicle_type_id":"4","last_reported":1745658528,"current_range_meters":2800,"station_id":"ce4bghh2rcd13ifvqb60","pricing_plan_id":"cebpf4jnsgd1na2vs0mg"},{"bike_id":"261ed139-77cc-4e31-8526-09806692c5d3","system_id":"levelo_inurba_marseille","lat":43.31488,"lon":5.37241,"is_reserved":false,"is_disabled":false,"rental_uris":{"android":"levelo://app?vid=261ed139-77cc-4e31-8526-09806692c5d3","ios":"levelo://app?vid=261ed139-77cc-4e31-8526-09806692c5d3"},"vehicle_type_id":"4","last_reported":1745658528,"current_range_meters":3200,"station_id":"","pricing_plan_id":"cebpf4jnsgd1na2vs0mg"},{"bike_id":"3767ba54-0ee2-464a-8805-d28bad95405b","system_id":"levelo_inurba_marseille","lat":43.259489,"lon":5.375441,"is_reserved":false,"is_disabled":false,"rental_uris":{"android":"levelo://app?vid=3767ba54-0ee2-464a-8805-d28bad95405b","ios":"levelo://app?vid=3767ba54-0ee2-464a-8805-d28bad95405b"},"vehicle_type_id":"4","last_reported":1745658528,"current_range_meters":3200,"station_id":"","pricing_plan_id":"cebpf4jnsgd1na2vs0mg"},{"bike_id":"60fdba7e-e2e5-4e89-a181-b3d0cbe05159","system_id":"levelo_inurba_marseille","lat":43.30408,"lon":5.41277,"is_reserved":false,"is_disabled":false,"rental_uris":{"android":"levelo://app?vid=60fdba7e-e2e5-4e89-a181-b3d0cbe05159","ios":"levelo://app?vid=60fdba7e-e2e5-4e89-a181-b3d0cbe05159"},"vehicle_type_id":"4","last_reported":1745658528,"current_range_meters":3200,"station_id":"ce4bhop2rcd13ifvqh8g","pricing_plan_id":"cebpf4jnsgd1na2vs0mg"},{"bike_id":"ecdd0875-7d56-4cd2-a14a-671f78e26c97","system_id":"levelo_inurba_marseille","lat":43.23059,"lon":5.3549,"is_reserved":false,"is_disabled":true,"rental_uris":{"android":"levelo://app?vid=ecdd0875-7d56-4cd2-a14a-671f78e26c97","ios":"levelo://app?vid=ecdd0875-7d56-4cd2-a14a-671f78e26c97"},"vehicle_type_id":"4","last_reported":1745658528,"current_range_meters":3600,"station_id":"cpo3342slgdg3j2ifvpg","pricing_plan_id":"cebpf4jnsgd1na2vs0mg"},{"bike_id":"46374c49-3adc-4c5a-8966-e00f056c0d57","system_id":"levelo_inurba_marseille","lat":43.27846,"lon":5.35442,"is_reserved":false,"is_disabled":false,"rental_uris":{"android":"levelo://app?vid=46374c49-3adc-4c5a-8966-e00f056c0d57","ios":"levelo://app?vid=46374c49-3adc-4c5a-8966-e00f056c0d57"},"vehicle_type_id":"4","last_reported":1745658528,"current_range_meters":3600,"station_id":"","pricing_plan_id":"cebpf4jnsgd1na2vs0mg"},{"bike_id":"540d7936-8cba-4371-a874-73402d624efd","system_id":"levelo_inurba_marseille","lat":43.287198,"lon":5.379424,"is_reserved":false,"is_disabled":false,"rental_uris":{"android":"levelo://app?vid=540d7936-8cba-4371-a874-73402d624efd","ios":"levelo://app?vid=540d7936-8cba-4371-a874-73402d624efd"},"vehicle_type_id":"4","last_reported":1745658528,"current_range_meters":3600,"station_id":"ce4bh9p2rcd13ifvqec0","pricing_plan_id":"cebpf4jnsgd1na2vs0mg"},{"bike_id":"4fe5eada-8da5-43b9-869a-a6d0d8129875","system_id":"levelo_inurba_marseille","lat":43.27377,"lon":5.36261,"is_reserved":false,"is_disabled":false,"rental_uris":{"android":"levelo://app?vid=4fe5eada-8da5-43b9-869a-a6d0d8129875","ios":"levelo://app?vid=4fe5eada-8da5-43b9-869a-a6d0d8129875"},"vehicle_type_id":"4","last_reported":1745658528,"current_range_meters":3600,"station_id":"ce4bhbh2rcd13ifvqeo0","pricing_plan_id":"cebpf4jnsgd1na2vs0mg"},{"bike_id":"e79cfa09-ef45-40eb-bc76-85d1f10478a1","system_id":"levelo_inurba_marseille","lat":43.21747,"lon":5.34609,"is_reserved":false,"is_disabled":false,"rental_uris":{"android":"levelo://app?vid=e79cfa09-ef45-40eb-bc76-85d1f10478a1","ios":"levelo://app?vid=e79cfa09-ef45-40eb-bc76-85d1f10478a1"},"vehicle_type_id":"4","last_reported":1745658528,"current_range_meters":3600,"station_id":"st_cvj6r9ubvosntc0bgbag","pricing_plan_id":"cebpf4jnsgd1na2vs0mg"},{"bike_id":"4bf0cade-afa0-4731-b40e-ef3f8f4a4fe5","system_id":"levelo_inurba_marseille","lat":43.30095,"lon":5.39061,"is_reserved":false,"is_disabled":true,"rental_uris":{"android":"levelo://app?vid=4bf0cade-afa0-4731-b40e-ef3f8f4a4fe5","ios":"levelo://app?vid=4bf0cade-afa0-4731-b40e-ef3f8f4a4fe5"},"vehicle_type_id":"4","last_reported":1745658528,"current_range_meters":4000,"station_id":"ce4bh192rcd13ifvqdb0","pricing_plan_id":"cebpf4jnsgd1na2vs0mg"},{"bike_id":"4fe7ad69-f4e0-457e-a1fc-90617cbd7663","system_id":"levelo_inurba_marseille","lat":43.21194,"lon":5.35093,"is_reserved":false,"is_disabled":false,"rental_uris":{"android":"levelo://app?vid=4fe7ad69-f4e0-457e-a1fc-90617cbd7663","ios":"levelo://app?vid=4fe7ad69-f4e0-457e-a1fc-90617cbd7663"},"vehicle_type_id":"4","last_reported":1745658528,"current_range_meters":4000,"station_id":"st_cvj6sg6p6f1abm77japg","pricing_plan_id":"cebpf4jnsgd1na2vs0mg"},{"bike_id":"0dac22c9-3b7b-486f-b1ef-8fb51c9357ce","system_id":"levelo_inurba_marseille","lat":43.25001,"lon":5.38919,"is_reserved":false,"is_disabled":false,"rental_uris":{"android":"levelo://app?vid=0dac22c9-3b7b-486f-b1ef-8fb51c9357ce","ios":"levelo://app?vid=0dac22c9-3b7b-486f-b1ef-8fb51c9357ce"},"vehicle_type_id":"4","last_reported":1745658528,"current_range_meters":3600,"station_id":"ce4bhgp2rcd13ifvqfd0","pricing_plan_id":"cebpf4jnsgd1na2vs0mg"},{"bike_id":"7420511d-6dd5-4437-a80f-c1dd2cf2f67d","system_id":"levelo_inurba_marseille","lat":43.26207,"lon":5.37434,"is_reserved":false,"is_disabled":false,"rental_uris":{"android":"levelo://app?vid=7420511d-6dd5-4437-a80f-c1dd2cf2f67d","ios":"levelo://app?vid=7420511d-6dd5-4437-a80f-c1dd2cf2f67d"},"vehicle_type_id":"4","last_reported":1745658528,"current_range_meters":4000,"station_id":"ce4bhgp2rcd13ifvqfc0","pricing_plan_id":"cebpf4jnsgd1na2vs0mg"},{"bike_id":"e615b763-b9b6-4cb5-a1c0-003a03d00de1","system_id":"levelo_inurba_marseille","lat":43.29754,"lon":5.40946,"is_reserved":false,"is_disabled":false,"rental_uris":{"android":"levelo://app?vid=e615b763-b9b6-4cb5-a1c0-003a03d00de1","ios":"levelo://app?vid=e615b763-b9b6-4cb5-a1c0-003a03d00de1"},"vehicle_type_id":"4","last_reported":1745658528,"current_range_meters":4000,"station_id":"","pricing_plan_id":"cebpf4jnsgd1na2vs0mg"},{"bike_id":"70fd40c1-be1b-4dfa-88c6-194d88b07f37","system_id":"levelo_inurba_marseille","lat":43.304626,"lon":5.379073,"is_reserved":false,"is_disabled":false,"rental_uris":{"android":"levelo://app?vid=70fd40c1-be1b-4dfa-88c6-194d88b07f37","ios":"levelo://app?vid=70fd40c1-be1b-4dfa-88c6-194d88b07f37"},"vehicle_type_id":"4","last_reported":1745658528,"current_range_meters":4400,"station_id":"ce4bgup2rcd13ifvqcn0","pricing_plan_id":"cebpf4jnsgd1na2vs0mg"},{"bike_id":"f1a9f5db-d774-4f36-a0be-69b289d14fd1","system_id":"levelo_inurba_marseille","lat":43.21197,"lon":5.35088,"is_reserved":false,"is_disabled":false,"rental_uris":{"android":"levelo://app?vid=f1a9f5db-d774-4f36-a0be-69b289d14fd1","ios":"levelo://app?vid=f1a9f5db-d774-4f36-a0be-69b289d14fd1"},"vehicle_type_id":"4","last_reported":1745658528,"current_range_meters":4400,"station_id":"st_cvj6sg6p6f1abm77japg","pricing_plan_id":"cebpf4jnsgd1na2vs0mg"},{"bike_id":"a4f241e0-aaac-4872-a16e-4e04a72ff58c","system_id":"levelo_inurba_marseille","lat":43.23961,"lon":5.36637,"is_reserved":false,"is_disabled":true,"rental_uris":{"android":"levelo://app?vid=a4f241e0-aaac-4872-a16e-4e04a72ff58c","ios":"levelo://app?vid=a4f241e0-aaac-4872-a16e-4e04a72ff58c"},"vehicle_type_id":"4","last_reported":1745658528,"current_range_meters":4400,"station_id":"ce4bhi12rcd13ifvqfp0","pricing_plan_id":"cebpf4jnsgd1na2vs0mg"},{"bike_id":"3c6ec9d2-638b-497e-a467-1359a6ea46be","system_id":"levelo_inurba_marseille","lat":43.29625,"lon":5.37715,"is_reserved":false,"is_disabled":false,"rental_uris":{"android":"levelo://app?vid=3c6ec9d2-638b-497e-a467-1359a6ea46be","ios":"levelo://app?vid=3c6ec9d2-638b-497e-a467-1359a6ea46be"},"vehicle_type_id":"4","last_reported":1745658528,"current_range_meters":4000,"station_id":"ce4bgi92rcd13ifvqb90","pricing_plan_id":"cebpf4jnsgd1na2vs0mg"},{"bike_id":"49362cd8-0cc1-428e-bd69-89f1745293ce","system_id":"levelo_inurba_marseille","lat":43.25125,"lon":5.40324,"is_reserved":false,"is_disabled":false,"rental_uris":{"android":"levelo://app?vid=49362cd8-0cc1-428e-bd69-89f1745293ce","ios":"levelo://app?vid=49362cd8-0cc1-428e-bd69-89f1745293ce"},"vehicle_type_id":"4","last_reported":1745658528,"current_range_meters":4800,"station_id":"ce4bhlh2rcd13ifvqgig","pricing_plan_id":"cebpf4jnsgd1na2vs0mg"},{"bike_id":"23ac7443-7c47-4449-b28b-bac9ee71b0e3","system_id":"levelo_inurba_marseille","lat":43.29276,"lon":5.37616,"is_reserved":false,"is_disabled":false,"rental_uris":{"android":"levelo://app?vid=23ac7443-7c47-4449-b28b-bac9ee71b0e3","ios":"levelo://app?vid=23ac7443-7c47-4449-b28b-bac9ee71b0e3"},"vehicle_type_id":"4","last_reported":1745658528,"current_range_meters":4800,"station_id":"ce4bgi12rcd13ifvqb80","pricing_plan_id":"cebpf4jnsgd1na2vs0mg"},{"bike_id":"50ba4410-93af-493a-b7fb-1a8ebf58f10c","system_id":"levelo_inurba_marseille","lat":43.29097,"lon":5.38125,"is_reserved":false,"is_disabled":false,"rental_uris":{"android":"levelo://app?vid=50ba4410-93af-493a-b7fb-1a8ebf58f10c","ios":"levelo://app?vid=50ba4410-93af-493a-b7fb-1a8ebf58f10c"},"vehicle_type_id":"4","last_reported":1745658528,"current_range_meters":4800,"station_id":"ce4bh512rcd13ifvqe2g","pricing_plan_id":"cebpf4jnsgd1na2vs0mg"},{"bike_id":"e34f328c-a9b2-4484-b302-58552f89a3c4","system_id":"levelo_inurba_marseille","lat":43.314854,"lon":5.372993,"is_reserved":false,"is_disabled":false,"rental_uris":{"android":"levelo://app?vid=e34f328c-a9b2-4484-b302-58552f89a3c4","ios":"levelo://app?vid=e34f328c-a9b2-4484-b302-58552f89a3c4"},"vehicle_type_id":"4","last_reported":1745658528,"current_range_meters":6000,"station_id":"ce4bgt12rcd13ifvqcd0","pricing_plan_id":"cebpf4jnsgd1na2vs0mg"},{"bike_id":"e9ab448f-ff65-4aac-a5a6-febcb20f7369","system_id":"levelo_inurba_marseille","lat":43.27081,"lon":5.42279,"is_reserved":false,"is_disabled":false,"rental_uris":{"android":"levelo://app?vid=e9ab448f-ff65-4aac-a5a6-febcb20f7369","ios":"levelo://app?vid=e9ab448f-ff65-4aac-a5a6-febcb20f7369"},"vehicle_type_id":"4","last_reported":1745658528,"current_range_meters":6000,"station_id":"ce4bhk92rcd13ifvqgb0","pricing_plan_id":"cebpf4jnsgd1na2vs0mg"},{"bike_id":"1746265e-27ad-4913-8a06-b6dc5372d844","system_id":"levelo_inurba_marseille","lat":43.25989,"lon":5.37476,"is_reserved":false,"is_disabled":false,"rental_uris":{"android":"levelo://app?vid=1746265e-27ad-4913-8a06-b6dc5372d844","ios":"levelo://app?vid=1746265e-27ad-4913-8a06-b6dc5372d844"},"vehicle_type_id":"4","last_reported":1745658528,"current_range_meters":6400,"station_id":"","pricing_plan_id":"cebpf4jnsgd1na2vs0mg"},{"bike_id":"f48a0ff1-54df-4ae6-a0b1-f4231e8f0015","system_id":"levelo_inurba_marseille","lat":43.28354,"lon":5.38103,"is_reserved":false,"is_disabled":false,"rental_uris":{"android":"levelo://app?vid=f48a0ff1-54df-4ae6-a0b1-f4231e8f0015","ios":"levelo://app?vid=f48a0ff1-54df-4ae6-a0b1-f4231e8f0015"},"vehicle_type_id":"4","last_reported":1745658528,"current_range_meters":6400,"station_id":"ce4bh412rcd13ifvqdr0","pricing_plan_id":"cebpf4jnsgd1na2vs0mg"},{"bike_id":"a84dda67-2771-448f-9f2c-69a47019d774","system_id":"levelo_inurba_marseille","lat":43.3361,"lon":5.4101,"is_reserved":false,"is_disabled":true,"rental_uris":{"android":"levelo://app?vid=a84dda67-2771-448f-9f2c-69a47019d774","ios":"levelo://app?vid=a84dda67-2771-448f-9f2c-69a47019d774"},"vehicle_type_id":"4","last_reported":1745658528,"current_range_meters":6400,"station_id":"ce4bhqh2rcd13ifvqhmg","pricing_plan_id":"cebpf4jnsgd1na2vs0mg"},{"bike_id":"50c7b9cb-fd32-4693-a768-b8368f201830","system_id":"levelo_inurba_marseille","lat":43.2315,"lon":5.43719,"is_reserved":false,"is_disabled":false,"rental_uris":{"android":"levelo://app?vid=50c7b9cb-fd32-4693-a768-b8368f201830","ios":"levelo://app?vid=50c7b9cb-fd32-4693-a768-b8368f201830"},"vehicle_type_id":"4","last_reported":1745658528,"current_range_meters":6800,"station_id":"ce4bhmp2rcd13ifvqgog","pricing_plan_id":"cebpf4jnsgd1na2vs0mg"},{"bike_id":"f87fae0d-0072-4c55-b225-5abd633d9e77","system_id":"levelo_inurba_marseille","lat":43.21739,"lon":5.34609,"is_reserved":false,"is_disabled":false,"rental_uris":{"android":"levelo://app?vid=f87fae0d-0072-4c55-b225-5abd633d9e77","ios":"levelo://app?vid=f87fae0d-0072-4c55-b225-5abd633d9e77"},"vehicle_type_id":"4","last_reported":1745658528,"current_range_meters":7200,"station_id":"st_cvj6r9ubvosntc0bgbag","pricing_plan_id":"cebpf4jnsgd1na2vs0mg"},{"bike_id":"80ca7186-6be3-49d7-98b9-518be2f29b22","system_id":"levelo_inurba_marseille","lat":43.33607,"lon":5.41026,"is_reserved":false,"is_disabled":false,"rental_uris":{"android":"levelo://app?vid=80ca7186-6be3-49d7-98b9-518be2f29b22","ios":"levelo://app?vid=80ca7186-6be3-49d7-98b9-518be2f29b22"},"vehicle_type_id":"4","last_reported":1745658528,"current_range_meters":7200,"station_id":"ce4bhqh2rcd13ifvqhmg","pricing_plan_id":"cebpf4jnsgd1na2vs0mg"},{"bike_id":"7410bca4-dc06-4c61-a6c1-1417f60c6640","system_id":"levelo_inurba_marseille","lat":43.31484,"lon":5.37304,"is_reserved":false,"is_disabled":true,"rental_uris":{"android":"levelo://app?vid=7410bca4-dc06-4c61-a6c1-1417f60c6640","ios":"levelo://app?vid=7410bca4-dc06-4c61-a6c1-1417f60c6640"},"vehicle_type_id":"4","last_reported":1745658528,"current_range_meters":8000,"station_id":"ce4bgt12rcd13ifvqcd0","pricing_plan_id":"cebpf4jnsgd1na2vs0mg"},{"bike_id":"2c2e5bcc-b9ff-41a6-be9a-7733528f3bfa","system_id":"levelo_inurba_marseille","lat":43.27495,"lon":5.42445,"is_reserved":false,"is_disabled":false,"rental_uris":{"android":"levelo://app?vid=2c2e5bcc-b9ff-41a6-be9a-7733528f3bfa","ios":"levelo://app?vid=2c2e5bcc-b9ff-41a6-be9a-7733528f3bfa"},"vehicle_type_id":"4","last_reported":1745658528,"current_range_meters":8000,"station_id":"ce4bhn92rcd13ifvqgrg","pricing_plan_id":"cebpf4jnsgd1na2vs0mg"},{"bike_id":"422b5989-c8b6-43aa-b2b9-3bfeb2e1ddc0","system_id":"levelo_inurba_marseille","lat":43.247242,"lon":5.411693,"is_reserved":false,"is_disabled":false,"rental_uris":{"android":"levelo://app?vid=422b5989-c8b6-43aa-b2b9-3bfeb2e1ddc0","ios":"levelo://app?vid=422b5989-c8b6-43aa-b2b9-3bfeb2e1ddc0"},"vehicle_type_id":"4","last_reported":1745658528,"current_range_meters":8400,"station_id":"","pricing_plan_id":"cebpf4jnsgd1na2vs0mg"},{"bike_id":"edbc9bff-8242-42ee-887f-3b5d28f3a582","system_id":"levelo_inurba_marseille","lat":43.29387,"lon":5.37826,"is_reserved":false,"is_disabled":false,"rental_uris":{"android":"levelo://app?vid=edbc9bff-8242-42ee-887f-3b5d28f3a582","ios":"levelo://app?vid=edbc9bff-8242-42ee-887f-3b5d28f3a582"},"vehicle_type_id":"4","last_reported":1745658528,"current_range_meters":8400,"station_id":"ce4bgjh2rcd13ifvqbf0","pricing_plan_id":"cebpf4jnsgd1na2vs0mg"},{"bike_id":"18ae1d78-8d9e-4697-bc48-a39d36035c1d","system_id":"levelo_inurba_marseille","lat":43.23967,"lon":5.36639,"is_reserved":false,"is_disabled":false,"rental_uris":{"android":"levelo://app?vid=18ae1d78-8d9e-4697-bc48-a39d36035c1d","ios":"levelo://app?vid=18ae1d78-8d9e-4697-bc48-a39d36035c1d"},"vehicle_type_id":"4","last_reported":1745658528,"current_range_meters":8400,"station_id":"ce4bhi12rcd13ifvqfp0","pricing_plan_id":"cebpf4jnsgd1na2vs0mg"},{"bike_id":"e8bbf66e-8b2a-4c18-b56f-b383bc297541","system_id":"levelo_inurba_marseille","lat":43.27946,"lon":5.41046,"is_reserved":false,"is_disabled":false,"rental_uris":{"android":"levelo://app?vid=e8bbf66e-8b2a-4c18-b56f-b383bc297541","ios":"levelo://app?vid=e8bbf66e-8b2a-4c18-b56f-b383bc297541"},"vehicle_type_id":"4","last_reported":1745658528,"current_range_meters":8400,"station_id":"ce4bhnp2rcd13ifvqh0g","pricing_plan_id":"cebpf4jnsgd1na2vs0mg"},{"bike_id":"51376682-930e-45ed-90e0-b53d931ddc33","system_id":"levelo_inurba_marseille","lat":43.27495,"lon":5.42454,"is_reserved":false,"is_disabled":false,"rental_uris":{"android":"levelo://app?vid=51376682-930e-45ed-90e0-b53d931ddc33","ios":"levelo://app?vid=51376682-930e-45ed-90e0-b53d931ddc33"},"vehicle_type_id":"4","last_reported":1745658528,"current_range_meters":8800,"station_id":"ce4bhn92rcd13ifvqgrg","pricing_plan_id":"cebpf4jnsgd1na2vs0mg"},{"bike_id":"2caabd85-5cc1-4ca7-a844-64b24181d23e","system_id":"levelo_inurba_marseille","lat":43.26571,"lon":5.39013,"is_reserved":false,"is_disabled":false,"rental_uris":{"android":"levelo://app?vid=2caabd85-5cc1-4ca7-a844-64b24181d23e","ios":"levelo://app?vid=2caabd85-5cc1-4ca7-a844-64b24181d23e"},"vehicle_type_id":"4","last_reported":1745658528,"current_range_meters":8800,"station_id":"ce4bhe12rcd13ifvqf30","pricing_plan_id":"cebpf4jnsgd1na2vs0mg"},{"bike_id":"c3377b8f-007f-40f4-941a-437fea66d7c3","system_id":"levelo_inurba_marseille","lat":43.2719,"lon":5.40972,"is_reserved":false,"is_disabled":false,"rental_uris":{"android":"levelo://app?vid=c3377b8f-007f-40f4-941a-437fea66d7c3","ios":"levelo://app?vid=c3377b8f-007f-40f4-941a-437fea66d7c3"},"vehicle_type_id":"4","last_reported":1745658528,"current_range_meters":8800,"station_id":"ce4bhl12rcd13ifvqgf0","pricing_plan_id":"cebpf4jnsgd1na2vs0mg"},{"bike_id":"f997f3a2-6ef7-4d7a-931e-8083cf2fa70c","system_id":"levelo_inurba_marseille","lat":43.26804,"lon":5.40264,"is_reserved":false,"is_disabled":false,"rental_uris":{"android":"levelo://app?vid=f997f3a2-6ef7-4d7a-931e-8083cf2fa70c","ios":"levelo://app?vid=f997f3a2-6ef7-4d7a-931e-8083cf2fa70c"},"vehicle_type_id":"4","last_reported":1745658528,"current_range_meters":8800,"station_id":"ce501612rcd8frsf0b60","pricing_plan_id":"cebpf4jnsgd1na2vs0mg"},{"bike_id":"18be3b25-7248-451f-8d39-63f6a4960b11","system_id":"levelo_inurba_marseille","lat":43.29613,"lon":5.37732,"is_reserved":false,"is_disabled":true,"rental_uris":{"android":"levelo://app?vid=18be3b25-7248-451f-8d39-63f6a4960b11","ios":"levelo://app?vid=18be3b25-7248-451f-8d39-63f6a4960b11"},"vehicle_type_id":"4","last_reported":1745658528,"current_range_meters":9200,"station_id":"ce4bgi92rcd13ifvqb90","pricing_plan_id":"cebpf4jnsgd1na2vs0mg"},{"bike_id":"e2a28eec-4294-4bc1-877d-de42c2d39530","system_id":"levelo_inurba_marseille","lat":43.2315,"lon":5.43703,"is_reserved":false,"is_disabled":false,"rental_uris":{"android":"levelo://app?vid=e2a28eec-4294-4bc1-877d-de42c2d39530","ios":"levelo://app?vid=e2a28eec-4294-4bc1-877d-de42c2d39530"},"vehicle_type_id":"4","last_reported":1745658528,"current_range_meters":9200,"station_id":"ce4bhmp2rcd13ifvqgog","pricing_plan_id":"cebpf4jnsgd1na2vs0mg"},{"bike_id":"8ee8ddcf-b329-40ae-aad8-a703f60c6f36","system_id":"levelo_inurba_marseille","lat":43.2737,"lon":5.36249,"is_reserved":false,"is_disabled":false,"rental_uris":{"android":"levelo://app?vid=8ee8ddcf-b329-40ae-aad8-a703f60c6f36","ios":"levelo://app?vid=8ee8ddcf-b329-40ae-aad8-a703f60c6f36"},"vehicle_type_id":"4","last_reported":1745658528,"current_range_meters":9200,"station_id":"ce4bhbh2rcd13ifvqeo0","pricing_plan_id":"cebpf4jnsgd1na2vs0mg"},{"bike_id":"7d8d69b2-0147-4031-958f-236ac2917414","system_id":"levelo_inurba_marseille","lat":43.29321,"lon":5.37035,"is_reserved":false,"is_disabled":false,"rental_uris":{"android":"levelo://app?vid=7d8d69b2-0147-4031-958f-236ac2917414","ios":"levelo://app?vid=7d8d69b2-0147-4031-958f-236ac2917414"},"vehicle_type_id":"4","last_reported":1745658528,"current_range_meters":9600,"station_id":"","pricing_plan_id":"cebpf4jnsgd1na2vs0mg"},{"bike_id":"6104de1b-83a6-4912-bfa1-49d35364e6af","system_id":"levelo_inurba_marseille","lat":43.23964,"lon":5.36627,"is_reserved":false,"is_disabled":false,"rental_uris":{"android":"levelo://app?vid=6104de1b-83a6-4912-bfa1-49d35364e6af","ios":"levelo://app?vid=6104de1b-83a6-4912-bfa1-49d35364e6af"},"vehicle_type_id":"4","last_reported":1745658528,"current_range_meters":9600,"station_id":"ce4bhi12rcd13ifvqfp0","pricing_plan_id":"cebpf4jnsgd1na2vs0mg"},{"bike_id":"e2dcabcf-64d8-4394-bb9a-ff877bee611a","system_id":"levelo_inurba_marseille","lat":43.32056,"lon":5.41515,"is_reserved":false,"is_disabled":false,"rental_uris":{"android":"levelo://app?vid=e2dcabcf-64d8-4394-bb9a-ff877bee611a","ios":"levelo://app?vid=e2dcabcf-64d8-4394-bb9a-ff877bee611a"},"vehicle_type_id":"4","last_reported":1745658528,"current_range_meters":9600,"station_id":"ce4bhq92rcd13ifvqhkg","pricing_plan_id":"cebpf4jnsgd1na2vs0mg"},{"bike_id":"170b702c-085c-414e-ab27-3c9c7b035cbc","system_id":"levelo_inurba_marseille","lat":43.27371,"lon":5.36259,"is_reserved":false,"is_disabled":false,"rental_uris":{"android":"levelo://app?vid=170b702c-085c-414e-ab27-3c9c7b035cbc","ios":"levelo://app?vid=170b702c-085c-414e-ab27-3c9c7b035cbc"},"vehicle_type_id":"4","last_reported":1745658528,"current_range_meters":9600,"station_id":"ce4bhbh2rcd13ifvqeo0","pricing_plan_id":"cebpf4jnsgd1na2vs0mg"},{"bike_id":"78a0a8b0-519f-47ad-a7a8-aa518cde87b6","system_id":"levelo_inurba_marseille","lat":43.30467,"lon":5.37893,"is_reserved":false,"is_disabled":false,"rental_uris":{"android":"levelo://app?vid=78a0a8b0-519f-47ad-a7a8-aa518cde87b6","ios":"levelo://app?vid=78a0a8b0-519f-47ad-a7a8-aa518cde87b6"},"vehicle_type_id":"4","last_reported":1745658528,"current_range_meters":9600,"station_id":"ce4bgup2rcd13ifvqcn0","pricing_plan_id":"cebpf4jnsgd1na2vs0mg"},{"bike_id":"4c11ff0f-a579-4f78-9960-a443174b0bdd","system_id":"levelo_inurba_marseille","lat":43.211881,"lon":5.350755,"is_reserved":false,"is_disabled":false,"rental_uris":{"android":"levelo://app?vid=4c11ff0f-a579-4f78-9960-a443174b0bdd","ios":"levelo://app?vid=4c11ff0f-a579-4f78-9960-a443174b0bdd"},"vehicle_type_id":"4","last_reported":1745658528,"current_range_meters":9600,"station_id":"st_cvj6sg6p6f1abm77japg","pricing_plan_id":"cebpf4jnsgd1na2vs0mg"},{"bike_id":"79f93318-f83c-4848-9199-93e143ff2cac","system_id":"levelo_inurba_marseille","lat":43.30555,"lon":5.36558,"is_reserved":false,"is_disabled":false,"rental_uris":{"android":"levelo://app?vid=79f93318-f83c-4848-9199-93e143ff2cac","ios":"levelo://app?vid=79f93318-f83c-4848-9199-93e143ff2cac"},"vehicle_type_id":"4","last_reported":1745658528,"current_range_meters":9600,"station_id":"ce4bgs12rcd13ifvqcag","pricing_plan_id":"cebpf4jnsgd1na2vs0mg"},{"bike_id":"32d97f03-3b37-4683-906a-0180ccdb1eeb","system_id":"levelo_inurba_marseille","lat":43.29932,"lon":5.36555,"is_reserved":false,"is_disabled":false,"rental_uris":{"android":"levelo://app?vid=32d97f03-3b37-4683-906a-0180ccdb1eeb","ios":"levelo://app?vid=32d97f03-3b37-4683-906a-0180ccdb1eeb"},"vehicle_type_id":"4","last_reported":1745658528,"current_range_meters":9600,"station_id":"ce4bgm92rcd13ifvqbr0","pricing_plan_id":"cebpf4jnsgd1na2vs0mg"},{"bike_id":"575b2d3d-742f-4838-a3e6-a6a9e4ccb307","system_id":"levelo_inurba_marseille","lat":43.29846,"lon":5.3628,"is_reserved":false,"is_disabled":false,"rental_uris":{"android":"levelo://app?vid=575b2d3d-742f-4838-a3e6-a6a9e4ccb307","ios":"levelo://app?vid=575b2d3d-742f-4838-a3e6-a6a9e4ccb307"},"vehicle_type_id":"4","last_reported":1745658528,"current_range_meters":10000,"station_id":"ce4bgpp2rcd13ifvqc3g","pricing_plan_id":"cebpf4jnsgd1na2vs0mg"},{"bike_id":"72a2ecab-78ba-4933-8f0e-a1e7d9156f2b","system_id":"levelo_inurba_marseille","lat":43.21185,"lon":5.35072,"is_reserved":false,"is_disabled":false,"rental_uris":{"android":"levelo://app?vid=72a2ecab-78ba-4933-8f0e-a1e7d9156f2b","ios":"levelo://app?vid=72a2ecab-78ba-4933-8f0e-a1e7d9156f2b"},"vehicle_type_id":"4","last_reported":1745658528,"current_range_meters":10000,"station_id":"st_cvj6sg6p6f1abm77japg","pricing_plan_id":"cebpf4jnsgd1na2vs0mg"},{"bike_id":"886f774b-b172-4ee0-8af6-2a328933c394","system_id":"levelo_inurba_marseille","lat":43.24385,"lon":5.37043,"is_reserved":false,"is_disabled":false,"rental_uris":{"android":"levelo://app?vid=886f774b-b172-4ee0-8af6-2a328933c394","ios":"levelo://app?vid=886f774b-b172-4ee0-8af6-2a328933c394"},"vehicle_type_id":"4","last_reported":1745658528,"current_range_meters":10000,"station_id":"ce4bhhh2rcd13ifvqfk0","pricing_plan_id":"cebpf4jnsgd1na2vs0mg"},{"bike_id":"6732bc15-91a3-4a9b-862d-45df844ced2c","system_id":"levelo_inurba_marseille","lat":43.30132,"lon":5.38775,"is_reserved":false,"is_disabled":false,"rental_uris":{"android":"levelo://app?vid=6732bc15-91a3-4a9b-862d-45df844ced2c","ios":"levelo://app?vid=6732bc15-91a3-4a9b-862d-45df844ced2c"},"vehicle_type_id":"4","last_reported":1745658528,"current_range_meters":10000,"station_id":"ce4bghh2rcd13ifvqb60","pricing_plan_id":"cebpf4jnsgd1na2vs0mg"},{"bike_id":"218c94c5-e028-4aa3-81d2-276afc924773","system_id":"levelo_inurba_marseille","lat":43.27372,"lon":5.3625,"is_reserved":false,"is_disabled":false,"rental_uris":{"android":"levelo://app?vid=218c94c5-e028-4aa3-81d2-276afc924773","ios":"levelo://app?vid=218c94c5-e028-4aa3-81d2-276afc924773"},"vehicle_type_id":"4","last_reported":1745658528,"current_range_meters":10000,"station_id":"ce4bhbh2rcd13ifvqeo0","pricing_plan_id":"cebpf4jnsgd1na2vs0mg"},{"bike_id":"1c34b467-aa8f-499c-8094-34a6b8d35e87","system_id":"levelo_inurba_marseille","lat":43.30148,"lon":5.38087,"is_reserved":false,"is_disabled":false,"rental_uris":{"android":"levelo://app?vid=1c34b467-aa8f-499c-8094-34a6b8d35e87","ios":"levelo://app?vid=1c34b467-aa8f-499c-8094-34a6b8d35e87"},"vehicle_type_id":"4","last_reported":1745658528,"current_range_meters":10000,"station_id":"ce4bgjp2rcd13ifvqbh0","pricing_plan_id":"cebpf4jnsgd1na2vs0mg"},{"bike_id":"03a3e930-e2fe-42c4-a993-bd8e729eb225","system_id":"levelo_inurba_marseille","lat":43.2984,"lon":5.36268,"is_reserved":false,"is_disabled":false,"rental_uris":{"android":"levelo://app?vid=03a3e930-e2fe-42c4-a993-bd8e729eb225","ios":"levelo://app?vid=03a3e930-e2fe-42c4-a993-bd8e729eb225"},"vehicle_type_id":"4","last_reported":1745658528,"current_range_meters":10000,"station_id":"ce4bgpp2rcd13ifvqc3g","pricing_plan_id":"cebpf4jnsgd1na2vs0mg"},{"bike_id":"3f9c3cd7-5c19-493a-8404-1db86da8fcc7","system_id":"levelo_inurba_marseille","lat":43.33601,"lon":5.41016,"is_reserved":false,"is_disabled":false,"rental_uris":{"android":"levelo://app?vid=3f9c3cd7-5c19-493a-8404-1db86da8fcc7","ios":"levelo://app?vid=3f9c3cd7-5c19-493a-8404-1db86da8fcc7"},"vehicle_type_id":"4","last_reported":1745658528,"current_range_meters":10800,"station_id":"ce4bhqh2rcd13ifvqhmg","pricing_plan_id":"cebpf4jnsgd1na2vs0mg"},{"bike_id":"30620f58-200e-4f8e-8eed-5278352ba38f","system_id":"levelo_inurba_marseille","lat":43.29851,"lon":5.36289,"is_reserved":false,"is_disabled":false,"rental_uris":{"android":"levelo://app?vid=30620f58-200e-4f8e-8eed-5278352ba38f","ios":"levelo://app?vid=30620f58-200e-4f8e-8eed-5278352ba38f"},"vehicle_type_id":"4","last_reported":1745658528,"current_range_meters":10800,"station_id":"ce4bgpp2rcd13ifvqc3g","pricing_plan_id":"cebpf4jnsgd1na2vs0mg"},{"bike_id":"ee4c36cb-c492-4552-ba80-5494b966c738","system_id":"levelo_inurba_marseille","lat":43.24383,"lon":5.37049,"is_reserved":false,"is_disabled":false,"rental_uris":{"android":"levelo://app?vid=ee4c36cb-c492-4552-ba80-5494b966c738","ios":"levelo://app?vid=ee4c36cb-c492-4552-ba80-5494b966c738"},"vehicle_type_id":"4","last_reported":1745658528,"current_range_meters":10800,"station_id":"ce4bhhh2rcd13ifvqfk0","pricing_plan_id":"cebpf4jnsgd1na2vs0mg"},{"bike_id":"f77a929f-13ce-4ad3-b37b-030e100178ba","system_id":"levelo_inurba_marseille","lat":43.2592,"lon":5.40897,"is_reserved":false,"is_disabled":false,"rental_uris":{"android":"levelo://app?vid=f77a929f-13ce-4ad3-b37b-030e100178ba","ios":"levelo://app?vid=f77a929f-13ce-4ad3-b37b-030e100178ba"},"vehicle_type_id":"4","last_reported":1745658528,"current_range_meters":10800,"station_id":"ce4bhm92rcd13ifvqglg","pricing_plan_id":"cebpf4jnsgd1na2vs0mg"},{"bike_id":"2ed02997-b38f-48c2-879d-5dc8050fb2db","system_id":"levelo_inurba_marseille","lat":43.30797,"lon":5.38147,"is_reserved":false,"is_disabled":false,"rental_uris":{"android":"levelo://app?vid=2ed02997-b38f-48c2-879d-5dc8050fb2db","ios":"levelo://app?vid=2ed02997-b38f-48c2-879d-5dc8050fb2db"},"vehicle_type_id":"4","last_reported":1745658528,"current_range_meters":10800,"station_id":"ce4bgt12rcd13ifvqce0","pricing_plan_id":"cebpf4jnsgd1na2vs0mg"},{"bike_id":"568053e1-9183-4cee-acca-959027493876","system_id":"levelo_inurba_marseille","lat":43.30912,"lon":5.3683,"is_reserved":false,"is_disabled":false,"rental_uris":{"android":"levelo://app?vid=568053e1-9183-4cee-acca-959027493876","ios":"levelo://app?vid=568053e1-9183-4cee-acca-959027493876"},"vehicle_type_id":"4","last_reported":1745658528,"current_range_meters":11200,"station_id":"ce4bgn92rcd13ifvqbvg","pricing_plan_id":"cebpf4jnsgd1na2vs0mg"},{"bike_id":"4938e82e-84ed-4ec5-9e0d-60eedc83ff94","system_id":"levelo_inurba_marseille","lat":43.31082,"lon":5.4243,"is_reserved":false,"is_disabled":false,"rental_uris":{"android":"levelo://app?vid=4938e82e-84ed-4ec5-9e0d-60eedc83ff94","ios":"levelo://app?vid=4938e82e-84ed-4ec5-9e0d-60eedc83ff94"},"vehicle_type_id":"4","last_reported":1745658528,"current_range_meters":11200,"station_id":"ce4bhp92rcd13ifvqhag","pricing_plan_id":"cebpf4jnsgd1na2vs0mg"},{"bike_id":"b337b47e-e0c0-40c3-878a-37e58bb44305","system_id":"levelo_inurba_marseille","lat":43.31193,"lon":5.40806,"is_reserved":false,"is_disabled":false,"rental_uris":{"android":"levelo://app?vid=b337b47e-e0c0-40c3-878a-37e58bb44305","ios":"levelo://app?vid=b337b47e-e0c0-40c3-878a-37e58bb44305"},"vehicle_type_id":"4","last_reported":1745658528,"current_range_meters":11600,"station_id":"","pricing_plan_id":"cebpf4jnsgd1na2vs0mg"},{"bike_id":"c395ad20-1989-4d57-b821-84900169f7cd","system_id":"levelo_inurba_marseille","lat":43.30096,"lon":5.39075,"is_reserved":false,"is_disabled":false,"rental_uris":{"android":"levelo://app?vid=c395ad20-1989-4d57-b821-84900169f7cd","ios":"levelo://app?vid=c395ad20-1989-4d57-b821-84900169f7cd"},"vehicle_type_id":"4","last_reported":1745658528,"current_range_meters":11200,"station_id":"ce4bh192rcd13ifvqdb0","pricing_plan_id":"cebpf4jnsgd1na2vs0mg"},{"bike_id":"1f847a2d-3bbc-49b8-b41d-daa9377c3cd3","system_id":"levelo_inurba_marseille","lat":43.231785,"lon":5.399909,"is_reserved":false,"is_disabled":false,"rental_uris":{"android":"levelo://app?vid=1f847a2d-3bbc-49b8-b41d-daa9377c3cd3","ios":"levelo://app?vid=1f847a2d-3bbc-49b8-b41d-daa9377c3cd3"},"vehicle_type_id":"4","last_reported":1745658528,"current_range_meters":12000,"station_id":"ce4bhn12rcd13ifvqgqg","pricing_plan_id":"cebpf4jnsgd1na2vs0mg"},{"bike_id":"af6af1ea-83a0-4448-a6b9-d143557f7290","system_id":"levelo_inurba_marseille","lat":43.270344,"lon":5.402178,"is_reserved":false,"is_disabled":true,"rental_uris":{"android":"levelo://app?vid=af6af1ea-83a0-4448-a6b9-d143557f7290","ios":"levelo://app?vid=af6af1ea-83a0-4448-a6b9-d143557f7290"},"vehicle_type_id":"4","last_reported":1745658528,"current_range_meters":12000,"station_id":"ce4bhk92rcd13ifvqgc0","pricing_plan_id":"cebpf4jnsgd1na2vs0mg"},{"bike_id":"4b9eee1f-ccee-4e54-9b90-52fd84d49751","system_id":"levelo_inurba_marseille","lat":43.30213,"lon":5.38023,"is_reserved":false,"is_disabled":false,"rental_uris":{"android":"levelo://app?vid=4b9eee1f-ccee-4e54-9b90-52fd84d49751","ios":"levelo://app?vid=4b9eee1f-ccee-4e54-9b90-52fd84d49751"},"vehicle_type_id":"4","last_reported":1745658528,"current_range_meters":12000,"station_id":"","pricing_plan_id":"cebpf4jnsgd1na2vs0mg"},{"bike_id":"7c799cf1-9919-4f59-bde2-ea860bf8d95f","system_id":"levelo_inurba_marseille","lat":43.2319,"lon":5.35567,"is_reserved":false,"is_disabled":true,"rental_uris":{"android":"levelo://app?vid=7c799cf1-9919-4f59-bde2-ea860bf8d95f","ios":"levelo://app?vid=7c799cf1-9919-4f59-bde2-ea860bf8d95f"},"vehicle_type_id":"4","last_reported":1745658528,"current_range_meters":12000,"station_id":"ce4bhu92rcd13ifvqi70","pricing_plan_id":"cebpf4jnsgd1na2vs0mg"},{"bike_id":"13f83d69-19fe-4415-9968-e262ae035ed8","system_id":"levelo_inurba_marseille","lat":43.27996,"lon":5.40013,"is_reserved":false,"is_disabled":false,"rental_uris":{"android":"levelo://app?vid=13f83d69-19fe-4415-9968-e262ae035ed8","ios":"levelo://app?vid=13f83d69-19fe-4415-9968-e262ae035ed8"},"vehicle_type_id":"4","last_reported":1745658528,"current_range_meters":12000,"station_id":"ce4bho92rcd13ifvqh4g","pricing_plan_id":"cebpf4jnsgd1na2vs0mg"},{"bike_id":"b291f16f-cacb-41c1-b70b-9a087305cdda","system_id":"levelo_inurba_marseille","lat":43.304849,"lon":5.36736,"is_reserved":false,"is_disabled":false,"rental_uris":{"android":"levelo://app?vid=b291f16f-cacb-41c1-b70b-9a087305cdda","ios":"levelo://app?vid=b291f16f-cacb-41c1-b70b-9a087305cdda"},"vehicle_type_id":"4","last_reported":1745658528,"current_range_meters":12400,"station_id":"ce4bgs12rcd13ifvqcag","pricing_plan_id":"cebpf4jnsgd1na2vs0mg"},{"bike_id":"3288482b-61dc-4582-b8eb-ca667294471c","system_id":"levelo_inurba_marseille","lat":43.2185,"lon":5.34567,"is_reserved":false,"is_disabled":false,"rental_uris":{"android":"levelo://app?vid=3288482b-61dc-4582-b8eb-ca667294471c","ios":"levelo://app?vid=3288482b-61dc-4582-b8eb-ca667294471c"},"vehicle_type_id":"4","last_reported":1745658528,"current_range_meters":12400,"station_id":"","pricing_plan_id":"cebpf4jnsgd1na2vs0mg"},{"bike_id":"9df9f6ac-6519-42f4-a16d-1e9ef635e1cb","system_id":"levelo_inurba_marseille","lat":43.211864,"lon":5.350768,"is_reserved":false,"is_disabled":false,"rental_uris":{"android":"levelo://app?vid=9df9f6ac-6519-42f4-a16d-1e9ef635e1cb","ios":"levelo://app?vid=9df9f6ac-6519-42f4-a16d-1e9ef635e1cb"},"vehicle_type_id":"4","last_reported":1745658528,"current_range_meters":12400,"station_id":"st_cvj6sg6p6f1abm77japg","pricing_plan_id":"cebpf4jnsgd1na2vs0mg"},{"bike_id":"c5e1f289-6f8a-468b-acc2-22559e17dbff","system_id":"levelo_inurba_marseille","lat":43.30603,"lon":5.37226,"is_reserved":false,"is_disabled":false,"rental_uris":{"android":"levelo://app?vid=c5e1f289-6f8a-468b-acc2-22559e17dbff","ios":"levelo://app?vid=c5e1f289-6f8a-468b-acc2-22559e17dbff"},"vehicle_type_id":"4","last_reported":1745658528,"current_range_meters":12400,"station_id":"ce4bgqh2rcd13ifvqc4g","pricing_plan_id":"cebpf4jnsgd1na2vs0mg"},{"bike_id":"b2511a21-a10e-4a23-a72f-37faa4d8515c","system_id":"levelo_inurba_marseille","lat":43.21739,"lon":5.34602,"is_reserved":false,"is_disabled":false,"rental_uris":{"android":"levelo://app?vid=b2511a21-a10e-4a23-a72f-37faa4d8515c","ios":"levelo://app?vid=b2511a21-a10e-4a23-a72f-37faa4d8515c"},"vehicle_type_id":"4","last_reported":1745658528,"current_range_meters":12400,"station_id":"ce4bhnp2rcd13ifvqgvg","pricing_plan_id":"cebpf4jnsgd1na2vs0mg"},{"bike_id":"c6e1947c-39e1-4976-af29-af53a713b327","system_id":"levelo_inurba_marseille","lat":43.32338,"lon":5.38913,"is_reserved":false,"is_disabled":false,"rental_uris":{"android":"levelo://app?vid=c6e1947c-39e1-4976-af29-af53a713b327","ios":"levelo://app?vid=c6e1947c-39e1-4976-af29-af53a713b327"},"vehicle_type_id":"4","last_reported":1745658528,"current_range_meters":12400,"station_id":"ce4bhqp2rcd13ifvqhog","pricing_plan_id":"cebpf4jnsgd1na2vs0mg"},{"bike_id":"987d7900-bb2a-45cb-bed7-6d69f6fd4fa3","system_id":"levelo_inurba_marseille","lat":43.28506,"lon":5.3846,"is_reserved":false,"is_disabled":false,"rental_uris":{"android":"levelo://app?vid=987d7900-bb2a-45cb-bed7-6d69f6fd4fa3","ios":"levelo://app?vid=987d7900-bb2a-45cb-bed7-6d69f6fd4fa3"},"vehicle_type_id":"4","last_reported":1745658528,"current_range_meters":12400,"station_id":"ce4bh512rcd13ifvqe3g","pricing_plan_id":"cebpf4jnsgd1na2vs0mg"},{"bike_id":"d5e8df83-0984-4138-94a9-e255ad61c35f","system_id":"levelo_inurba_marseille","lat":43.2621,"lon":5.37433,"is_reserved":false,"is_disabled":false,"rental_uris":{"android":"levelo://app?vid=d5e8df83-0984-4138-94a9-e255ad61c35f","ios":"levelo://app?vid=d5e8df83-0984-4138-94a9-e255ad61c35f"},"vehicle_type_id":"4","last_reported":1745658528,"current_range_meters":12400,"station_id":"ce4bhgp2rcd13ifvqfc0","pricing_plan_id":"cebpf4jnsgd1na2vs0mg"},{"bike_id":"f4971394-d077-47ea-a9c6-81f5fe6295b4","system_id":"levelo_inurba_marseille","lat":43.24663,"lon":5.3816,"is_reserved":false,"is_disabled":false,"rental_uris":{"android":"levelo://app?vid=f4971394-d077-47ea-a9c6-81f5fe6295b4","ios":"levelo://app?vid=f4971394-d077-47ea-a9c6-81f5fe6295b4"},"vehicle_type_id":"4","last_reported":1745658528,"current_range_meters":12800,"station_id":"ce4bhih2rcd13ifvqfr0","pricing_plan_id":"cebpf4jnsgd1na2vs0mg"},{"bike_id":"2fd2554d-9ff3-4090-bb6f-f042344c221a","system_id":"levelo_inurba_marseille","lat":43.22927,"lon":5.35373,"is_reserved":false,"is_disabled":false,"rental_uris":{"android":"levelo://app?vid=2fd2554d-9ff3-4090-bb6f-f042344c221a","ios":"levelo://app?vid=2fd2554d-9ff3-4090-bb6f-f042344c221a"},"vehicle_type_id":"4","last_reported":1745658528,"current_range_meters":12800,"station_id":"cpo3532slgdg3j2ikp40","pricing_plan_id":"cebpf4jnsgd1na2vs0mg"},{"bike_id":"8aa5bde6-741b-4e1d-bede-e6106635c2d9","system_id":"levelo_inurba_marseille","lat":43.33603,"lon":5.41024,"is_reserved":false,"is_disabled":false,"rental_uris":{"android":"levelo://app?vid=8aa5bde6-741b-4e1d-bede-e6106635c2d9","ios":"levelo://app?vid=8aa5bde6-741b-4e1d-bede-e6106635c2d9"},"vehicle_type_id":"4","last_reported":1745658528,"current_range_meters":12800,"station_id":"ce4bhqh2rcd13ifvqhmg","pricing_plan_id":"cebpf4jnsgd1na2vs0mg"},{"bike_id":"bf2d55a3-b6fc-4095-adab-1864446c73b1","system_id":"levelo_inurba_marseille","lat":43.290964,"lon":5.38157,"is_reserved":false,"is_disabled":false,"rental_uris":{"android":"levelo://app?vid=bf2d55a3-b6fc-4095-adab-1864446c73b1","ios":"levelo://app?vid=bf2d55a3-b6fc-4095-adab-1864446c73b1"},"vehicle_type_id":"4","last_reported":1745658528,"current_range_meters":12400,"station_id":"ce4bh512rcd13ifvqe2g","pricing_plan_id":"cebpf4jnsgd1na2vs0mg"},{"bike_id":"5c8dde23-03af-4ec7-8c64-b6a7b95cfa5a","system_id":"levelo_inurba_marseille","lat":43.33735,"lon":5.39181,"is_reserved":false,"is_disabled":false,"rental_uris":{"android":"levelo://app?vid=5c8dde23-03af-4ec7-8c64-b6a7b95cfa5a","ios":"levelo://app?vid=5c8dde23-03af-4ec7-8c64-b6a7b95cfa5a"},"vehicle_type_id":"4","last_reported":1745658528,"current_range_meters":12800,"station_id":"ce4bhr92rcd13ifvqhsg","pricing_plan_id":"cebpf4jnsgd1na2vs0mg"},{"bike_id":"53ee7972-7064-4321-8512-ae59c5929bdb","system_id":"levelo_inurba_marseille","lat":43.29575,"lon":5.37525,"is_reserved":false,"is_disabled":false,"rental_uris":{"android":"levelo://app?vid=53ee7972-7064-4321-8512-ae59c5929bdb","ios":"levelo://app?vid=53ee7972-7064-4321-8512-ae59c5929bdb"},"vehicle_type_id":"4","last_reported":1745658528,"current_range_meters":13600,"station_id":"ce4bgh92rcd13ifvqb50","pricing_plan_id":"cebpf4jnsgd1na2vs0mg"},{"bike_id":"86082c5a-74ec-45ee-9bbd-681fdfc8da73","system_id":"levelo_inurba_marseille","lat":43.23956,"lon":5.36652,"is_reserved":false,"is_disabled":false,"rental_uris":{"android":"levelo://app?vid=86082c5a-74ec-45ee-9bbd-681fdfc8da73","ios":"levelo://app?vid=86082c5a-74ec-45ee-9bbd-681fdfc8da73"},"vehicle_type_id":"4","last_reported":1745658528,"current_range_meters":13600,"station_id":"ce4bhi12rcd13ifvqfp0","pricing_plan_id":"cebpf4jnsgd1na2vs0mg"},{"bike_id":"51a4b1f4-4cfb-4b9e-b7e6-50254ee4c796","system_id":"levelo_inurba_marseille","lat":43.28615,"lon":5.37061,"is_reserved":false,"is_disabled":false,"rental_uris":{"android":"levelo://app?vid=51a4b1f4-4cfb-4b9e-b7e6-50254ee4c796","ios":"levelo://app?vid=51a4b1f4-4cfb-4b9e-b7e6-50254ee4c796"},"vehicle_type_id":"4","last_reported":1745658528,"current_range_meters":13600,"station_id":"ce4bht12rcd13ifvqi60","pricing_plan_id":"cebpf4jnsgd1na2vs0mg"},{"bike_id":"3ee52dd6-ee76-4da1-bbf0-da3ef76cb155","system_id":"levelo_inurba_marseille","lat":43.30542,"lon":5.36549,"is_reserved":false,"is_disabled":false,"rental_uris":{"android":"levelo://app?vid=3ee52dd6-ee76-4da1-bbf0-da3ef76cb155","ios":"levelo://app?vid=3ee52dd6-ee76-4da1-bbf0-da3ef76cb155"},"vehicle_type_id":"4","last_reported":1745658528,"current_range_meters":14000,"station_id":"ce4bgs12rcd13ifvqcag","pricing_plan_id":"cebpf4jnsgd1na2vs0mg"},{"bike_id":"8316da29-4a90-4553-961c-93fc40cdc4e1","system_id":"levelo_inurba_marseille","lat":43.30931,"lon":5.40141,"is_reserved":false,"is_disabled":false,"rental_uris":{"android":"levelo://app?vid=8316da29-4a90-4553-961c-93fc40cdc4e1","ios":"levelo://app?vid=8316da29-4a90-4553-961c-93fc40cdc4e1"},"vehicle_type_id":"4","last_reported":1745658528,"current_range_meters":14000,"station_id":"ce4bgvp2rcd13ifvqct0","pricing_plan_id":"cebpf4jnsgd1na2vs0mg"},{"bike_id":"0db145f8-fa17-43e5-af49-e3c2ea77c5f4","system_id":"levelo_inurba_marseille","lat":43.305997,"lon":5.37216,"is_reserved":false,"is_disabled":false,"rental_uris":{"android":"levelo://app?vid=0db145f8-fa17-43e5-af49-e3c2ea77c5f4","ios":"levelo://app?vid=0db145f8-fa17-43e5-af49-e3c2ea77c5f4"},"vehicle_type_id":"4","last_reported":1745658528,"current_range_meters":14400,"station_id":"ce4bgqh2rcd13ifvqc4g","pricing_plan_id":"cebpf4jnsgd1na2vs0mg"},{"bike_id":"e6dd51ac-2075-47cd-ad99-bcf7ffe96cb9","system_id":"levelo_inurba_marseille","lat":43.21187,"lon":5.35076,"is_reserved":false,"is_disabled":false,"rental_uris":{"android":"levelo://app?vid=e6dd51ac-2075-47cd-ad99-bcf7ffe96cb9","ios":"levelo://app?vid=e6dd51ac-2075-47cd-ad99-bcf7ffe96cb9"},"vehicle_type_id":"4","last_reported":1745658528,"current_range_meters":14400,"station_id":"st_cvj6sg6p6f1abm77japg","pricing_plan_id":"cebpf4jnsgd1na2vs0mg"},{"bike_id":"84ea7169-3f8c-4e22-ab17-8117015aa3b2","system_id":"levelo_inurba_marseille","lat":43.29599,"lon":5.36593,"is_reserved":false,"is_disabled":false,"rental_uris":{"android":"levelo://app?vid=84ea7169-3f8c-4e22-ab17-8117015aa3b2","ios":"levelo://app?vid=84ea7169-3f8c-4e22-ab17-8117015aa3b2"},"vehicle_type_id":"4","last_reported":1745658528,"current_range_meters":14000,"station_id":"ce4bgjh2rcd13ifvqbg0","pricing_plan_id":"cebpf4jnsgd1na2vs0mg"},{"bike_id":"96733886-38eb-4a8b-9470-0c4bf645e97a","system_id":"levelo_inurba_marseille","lat":43.27939,"lon":5.41043,"is_reserved":false,"is_disabled":false,"rental_uris":{"android":"levelo://app?vid=96733886-38eb-4a8b-9470-0c4bf645e97a","ios":"levelo://app?vid=96733886-38eb-4a8b-9470-0c4bf645e97a"},"vehicle_type_id":"4","last_reported":1745658528,"current_range_meters":14800,"station_id":"ce4bhnp2rcd13ifvqh0g","pricing_plan_id":"cebpf4jnsgd1na2vs0mg"},{"bike_id":"f0ff19c2-cbf5-4852-bfe8-1207ae67f84f","system_id":"levelo_inurba_marseille","lat":43.24167,"lon":5.36401,"is_reserved":false,"is_disabled":false,"rental_uris":{"android":"levelo://app?vid=f0ff19c2-cbf5-4852-bfe8-1207ae67f84f","ios":"levelo://app?vid=f0ff19c2-cbf5-4852-bfe8-1207ae67f84f"},"vehicle_type_id":"4","last_reported":1745658528,"current_range_meters":14800,"station_id":"cpo36qri1sfpv3e86is0","pricing_plan_id":"cebpf4jnsgd1na2vs0mg"},{"bike_id":"540e73f3-f5fe-4af6-8cf8-7c93cbc816e3","system_id":"levelo_inurba_marseille","lat":43.30075,"lon":5.39042,"is_reserved":false,"is_disabled":true,"rental_uris":{"android":"levelo://app?vid=540e73f3-f5fe-4af6-8cf8-7c93cbc816e3","ios":"levelo://app?vid=540e73f3-f5fe-4af6-8cf8-7c93cbc816e3"},"vehicle_type_id":"4","last_reported":1745658528,"current_range_meters":14800,"station_id":"ce4bh192rcd13ifvqdb0","pricing_plan_id":"cebpf4jnsgd1na2vs0mg"},{"bike_id":"727bc6ee-dfaa-4ba7-a7ba-e9a69f99f509","system_id":"levelo_inurba_marseille","lat":43.30154,"lon":5.3808,"is_reserved":false,"is_disabled":false,"rental_uris":{"android":"levelo://app?vid=727bc6ee-dfaa-4ba7-a7ba-e9a69f99f509","ios":"levelo://app?vid=727bc6ee-dfaa-4ba7-a7ba-e9a69f99f509"},"vehicle_type_id":"4","last_reported":1745658528,"current_range_meters":14800,"station_id":"ce4bgjp2rcd13ifvqbh0","pricing_plan_id":"cebpf4jnsgd1na2vs0mg"},{"bike_id":"ca376395-5bab-49ac-a88b-03ed7986b1fc","system_id":"levelo_inurba_marseille","lat":43.25906,"lon":5.40863,"is_reserved":false,"is_disabled":false,"rental_uris":{"android":"levelo://app?vid=ca376395-5bab-49ac-a88b-03ed7986b1fc","ios":"levelo://app?vid=ca376395-5bab-49ac-a88b-03ed7986b1fc"},"vehicle_type_id":"4","last_reported":1745658528,"current_range_meters":14800,"station_id":"ce4bhm92rcd13ifvqglg","pricing_plan_id":"cebpf4jnsgd1na2vs0mg"},{"bike_id":"b05e6dcf-e4cb-4568-a8db-05dbad9f466d","system_id":"levelo_inurba_marseille","lat":43.2722,"lon":5.39177,"is_reserved":false,"is_disabled":false,"rental_uris":{"android":"levelo://app?vid=b05e6dcf-e4cb-4568-a8db-05dbad9f466d","ios":"levelo://app?vid=b05e6dcf-e4cb-4568-a8db-05dbad9f466d"},"vehicle_type_id":"4","last_reported":1745658528,"current_range_meters":14800,"station_id":"ce4bhhp2rcd13ifvqfm0","pricing_plan_id":"cebpf4jnsgd1na2vs0mg"},{"bike_id":"4046a82f-66e8-4b55-bd0a-356edea772d8","system_id":"levelo_inurba_marseille","lat":43.307795,"lon":5.3739,"is_reserved":false,"is_disabled":false,"rental_uris":{"android":"levelo://app?vid=4046a82f-66e8-4b55-bd0a-356edea772d8","ios":"levelo://app?vid=4046a82f-66e8-4b55-bd0a-356edea772d8"},"vehicle_type_id":"4","last_reported":1745658528,"current_range_meters":15200,"station_id":"","pricing_plan_id":"cebpf4jnsgd1na2vs0mg"},{"bike_id":"c0189c03-036b-4dbe-94b3-03d30c551a45","system_id":"levelo_inurba_marseille","lat":43.217377,"lon":5.345969,"is_reserved":false,"is_disabled":false,"rental_uris":{"android":"levelo://app?vid=c0189c03-036b-4dbe-94b3-03d30c551a45","ios":"levelo://app?vid=c0189c03-036b-4dbe-94b3-03d30c551a45"},"vehicle_type_id":"4","last_reported":1745658528,"current_range_meters":15200,"station_id":"","pricing_plan_id":"cebpf4jnsgd1na2vs0mg"},{"bike_id":"be33aa2d-800c-4b13-b8a0-7befb5713ac3","system_id":"levelo_inurba_marseille","lat":43.26226,"lon":5.40446,"is_reserved":false,"is_disabled":false,"rental_uris":{"android":"levelo://app?vid=be33aa2d-800c-4b13-b8a0-7befb5713ac3","ios":"levelo://app?vid=be33aa2d-800c-4b13-b8a0-7befb5713ac3"},"vehicle_type_id":"4","last_reported":1745658528,"current_range_meters":15200,"station_id":"ce4bhmh2rcd13ifvqgmg","pricing_plan_id":"cebpf4jnsgd1na2vs0mg"},{"bike_id":"dd77bfa6-3505-499e-8b4e-14d0af76e95c","system_id":"levelo_inurba_marseille","lat":43.25109,"lon":5.40317,"is_reserved":false,"is_disabled":false,"rental_uris":{"android":"levelo://app?vid=dd77bfa6-3505-499e-8b4e-14d0af76e95c","ios":"levelo://app?vid=dd77bfa6-3505-499e-8b4e-14d0af76e95c"},"vehicle_type_id":"4","last_reported":1745658528,"current_range_meters":15200,"station_id":"ce4bhlh2rcd13ifvqgig","pricing_plan_id":"cebpf4jnsgd1na2vs0mg"},{"bike_id":"912210e7-e6f6-4049-a925-f1777c1133d0","system_id":"levelo_inurba_marseille","lat":43.27373,"lon":5.36257,"is_reserved":false,"is_disabled":false,"rental_uris":{"android":"levelo://app?vid=912210e7-e6f6-4049-a925-f1777c1133d0","ios":"levelo://app?vid=912210e7-e6f6-4049-a925-f1777c1133d0"},"vehicle_type_id":"4","last_reported":1745658528,"current_range_meters":15200,"station_id":"ce4bhbh2rcd13ifvqeo0","pricing_plan_id":"cebpf4jnsgd1na2vs0mg"},{"bike_id":"08361f15-a042-435d-b65b-7568cb2fed56","system_id":"levelo_inurba_marseille","lat":43.25918,"lon":5.4088,"is_reserved":false,"is_disabled":false,"rental_uris":{"android":"levelo://app?vid=08361f15-a042-435d-b65b-7568cb2fed56","ios":"levelo://app?vid=08361f15-a042-435d-b65b-7568cb2fed56"},"vehicle_type_id":"4","last_reported":1745658528,"current_range_meters":16000,"station_id":"ce4bhm92rcd13ifvqglg","pricing_plan_id":"cebpf4jnsgd1na2vs0mg"},{"bike_id":"a18b32af-837e-4f1b-a9b1-f47fdb463774","system_id":"levelo_inurba_marseille","lat":43.33598,"lon":5.41016,"is_reserved":false,"is_disabled":false,"rental_uris":{"android":"levelo://app?vid=a18b32af-837e-4f1b-a9b1-f47fdb463774","ios":"levelo://app?vid=a18b32af-837e-4f1b-a9b1-f47fdb463774"},"vehicle_type_id":"4","last_reported":1745658528,"current_range_meters":16000,"station_id":"ce4bhqh2rcd13ifvqhmg","pricing_plan_id":"cebpf4jnsgd1na2vs0mg"},{"bike_id":"3e1ad8a3-a958-4d00-9a56-262625ea8d0f","system_id":"levelo_inurba_marseille","lat":43.28041,"lon":5.36916,"is_reserved":false,"is_disabled":false,"rental_uris":{"android":"levelo://app?vid=3e1ad8a3-a958-4d00-9a56-262625ea8d0f","ios":"levelo://app?vid=3e1ad8a3-a958-4d00-9a56-262625ea8d0f"},"vehicle_type_id":"4","last_reported":1745658528,"current_range_meters":16000,"station_id":"ce4bha12rcd13ifvqef0","pricing_plan_id":"cebpf4jnsgd1na2vs0mg"},{"bike_id":"2ba4348b-9691-4c31-9df6-2407088f84e2","system_id":"levelo_inurba_marseille","lat":43.28626,"lon":5.35092,"is_reserved":false,"is_disabled":false,"rental_uris":{"android":"levelo://app?vid=2ba4348b-9691-4c31-9df6-2407088f84e2","ios":"levelo://app?vid=2ba4348b-9691-4c31-9df6-2407088f84e2"},"vehicle_type_id":"4","last_reported":1745658528,"current_range_meters":16000,"station_id":"ce4bhch2rcd13ifvqeug","pricing_plan_id":"cebpf4jnsgd1na2vs0mg"},{"bike_id":"fa849b1f-6d39-4933-ac9a-fe926d88e013","system_id":"levelo_inurba_marseille","lat":43.23962,"lon":5.36623,"is_reserved":false,"is_disabled":false,"rental_uris":{"android":"levelo://app?vid=fa849b1f-6d39-4933-ac9a-fe926d88e013","ios":"levelo://app?vid=fa849b1f-6d39-4933-ac9a-fe926d88e013"},"vehicle_type_id":"4","last_reported":1745658528,"current_range_meters":16000,"station_id":"ce4bhi12rcd13ifvqfp0","pricing_plan_id":"cebpf4jnsgd1na2vs0mg"},{"bike_id":"dddc405f-b2d2-447f-8255-f175193c2de5","system_id":"levelo_inurba_marseille","lat":43.32094,"lon":5.3678,"is_reserved":false,"is_disabled":false,"rental_uris":{"android":"levelo://app?vid=dddc405f-b2d2-447f-8255-f175193c2de5","ios":"levelo://app?vid=dddc405f-b2d2-447f-8255-f175193c2de5"},"vehicle_type_id":"4","last_reported":1745658528,"current_range_meters":16000,"station_id":"ce4bhrh2rcd13ifvqhug","pricing_plan_id":"cebpf4jnsgd1na2vs0mg"},{"bike_id":"5fdc0623-6c76-4064-a69a-27e877e94ecd","system_id":"levelo_inurba_marseille","lat":43.30774,"lon":5.37655,"is_reserved":false,"is_disabled":false,"rental_uris":{"android":"levelo://app?vid=5fdc0623-6c76-4064-a69a-27e877e94ecd","ios":"levelo://app?vid=5fdc0623-6c76-4064-a69a-27e877e94ecd"},"vehicle_type_id":"4","last_reported":1745658528,"current_range_meters":16000,"station_id":"","pricing_plan_id":"cebpf4jnsgd1na2vs0mg"},{"bike_id":"817017a8-06d7-4168-a9c7-63b6ced6925a","system_id":"levelo_inurba_marseille","lat":43.31493,"lon":5.37278,"is_reserved":false,"is_disabled":false,"rental_uris":{"android":"levelo://app?vid=817017a8-06d7-4168-a9c7-63b6ced6925a","ios":"levelo://app?vid=817017a8-06d7-4168-a9c7-63b6ced6925a"},"vehicle_type_id":"4","last_reported":1745658528,"current_range_meters":16400,"station_id":"ce4bgt12rcd13ifvqcd0","pricing_plan_id":"cebpf4jnsgd1na2vs0mg"},{"bike_id":"8696a40d-7fd0-4a0d-9141-fc899f8a571a","system_id":"levelo_inurba_marseille","lat":43.23175,"lon":5.39984,"is_reserved":false,"is_disabled":false,"rental_uris":{"android":"levelo://app?vid=8696a40d-7fd0-4a0d-9141-fc899f8a571a","ios":"levelo://app?vid=8696a40d-7fd0-4a0d-9141-fc899f8a571a"},"vehicle_type_id":"4","last_reported":1745658528,"current_range_meters":16400,"station_id":"ce4bhn12rcd13ifvqgqg","pricing_plan_id":"cebpf4jnsgd1na2vs0mg"},{"bike_id":"5cb5fa24-52ea-420d-ba8f-f3e9de6bfd03","system_id":"levelo_inurba_marseille","lat":43.26682,"lon":5.38273,"is_reserved":false,"is_disabled":false,"rental_uris":{"android":"levelo://app?vid=5cb5fa24-52ea-420d-ba8f-f3e9de6bfd03","ios":"levelo://app?vid=5cb5fa24-52ea-420d-ba8f-f3e9de6bfd03"},"vehicle_type_id":"4","last_reported":1745658528,"current_range_meters":16400,"station_id":"ce4bhg92rcd13ifvqf90","pricing_plan_id":"cebpf4jnsgd1na2vs0mg"},{"bike_id":"bc2652db-32ee-450e-8cc0-005a02c1f054","system_id":"levelo_inurba_marseille","lat":43.21177,"lon":5.35066,"is_reserved":false,"is_disabled":false,"rental_uris":{"android":"levelo://app?vid=bc2652db-32ee-450e-8cc0-005a02c1f054","ios":"levelo://app?vid=bc2652db-32ee-450e-8cc0-005a02c1f054"},"vehicle_type_id":"4","last_reported":1745658528,"current_range_meters":16400,"station_id":"st_cvj6sg6p6f1abm77japg","pricing_plan_id":"cebpf4jnsgd1na2vs0mg"},{"bike_id":"4741e6af-20c0-42f4-b950-4d85a1b8cba0","system_id":"levelo_inurba_marseille","lat":43.30828,"lon":5.37914,"is_reserved":false,"is_disabled":false,"rental_uris":{"android":"levelo://app?vid=4741e6af-20c0-42f4-b950-4d85a1b8cba0","ios":"levelo://app?vid=4741e6af-20c0-42f4-b950-4d85a1b8cba0"},"vehicle_type_id":"4","last_reported":1745658528,"current_range_meters":16400,"station_id":"","pricing_plan_id":"cebpf4jnsgd1na2vs0mg"},{"bike_id":"b1f50532-6b5e-452e-bf90-b5df2c6cdcca","system_id":"levelo_inurba_marseille","lat":43.32291,"lon":5.38271,"is_reserved":false,"is_disabled":false,"rental_uris":{"android":"levelo://app?vid=b1f50532-6b5e-452e-bf90-b5df2c6cdcca","ios":"levelo://app?vid=b1f50532-6b5e-452e-bf90-b5df2c6cdcca"},"vehicle_type_id":"4","last_reported":1745658528,"current_range_meters":16800,"station_id":"ce4bhr12rcd13ifvqhqg","pricing_plan_id":"cebpf4jnsgd1na2vs0mg"},{"bike_id":"4d70b616-d17d-4574-abd2-67bf390981a5","system_id":"levelo_inurba_marseille","lat":43.24068,"lon":5.37749,"is_reserved":false,"is_disabled":false,"rental_uris":{"android":"levelo://app?vid=4d70b616-d17d-4574-abd2-67bf390981a5","ios":"levelo://app?vid=4d70b616-d17d-4574-abd2-67bf390981a5"},"vehicle_type_id":"4","last_reported":1745658528,"current_range_meters":16800,"station_id":"ce4bhnp2rcd13ifvqgvg","pricing_plan_id":"cebpf4jnsgd1na2vs0mg"},{"bike_id":"d98b29d2-fc09-48d0-a25f-ed59d6674717","system_id":"levelo_inurba_marseille","lat":43.23964,"lon":5.36624,"is_reserved":false,"is_disabled":false,"rental_uris":{"android":"levelo://app?vid=d98b29d2-fc09-48d0-a25f-ed59d6674717","ios":"levelo://app?vid=d98b29d2-fc09-48d0-a25f-ed59d6674717"},"vehicle_type_id":"4","last_reported":1745658528,"current_range_meters":16800,"station_id":"ce4bhi12rcd13ifvqfp0","pricing_plan_id":"cebpf4jnsgd1na2vs0mg"},{"bike_id":"1153cc30-939c-4389-a9ca-ceff2d9a97ee","system_id":"levelo_inurba_marseille","lat":43.30136,"lon":5.38085,"is_reserved":false,"is_disabled":false,"rental_uris":{"android":"levelo://app?vid=1153cc30-939c-4389-a9ca-ceff2d9a97ee","ios":"levelo://app?vid=1153cc30-939c-4389-a9ca-ceff2d9a97ee"},"vehicle_type_id":"4","last_reported":1745658528,"current_range_meters":16800,"station_id":"ce4bgjp2rcd13ifvqbh0","pricing_plan_id":"cebpf4jnsgd1na2vs0mg"},{"bike_id":"b1c9db00-e3b6-4644-a6ed-281db3cb6a30","system_id":"levelo_inurba_marseille","lat":43.302,"lon":5.43769,"is_reserved":false,"is_disabled":false,"rental_uris":{"android":"levelo://app?vid=b1c9db00-e3b6-4644-a6ed-281db3cb6a30","ios":"levelo://app?vid=b1c9db00-e3b6-4644-a6ed-281db3cb6a30"},"vehicle_type_id":"4","last_reported":1745658528,"current_range_meters":16800,"station_id":"","pricing_plan_id":"cebpf4jnsgd1na2vs0mg"},{"bike_id":"a532dd2c-fcc6-478c-b327-adc7001484eb","system_id":"levelo_inurba_marseille","lat":43.265567,"lon":5.37283,"is_reserved":false,"is_disabled":false,"rental_uris":{"android":"levelo://app?vid=a532dd2c-fcc6-478c-b327-adc7001484eb","ios":"levelo://app?vid=a532dd2c-fcc6-478c-b327-adc7001484eb"},"vehicle_type_id":"4","last_reported":1745658528,"current_range_meters":16800,"station_id":"ce4bhg12rcd13ifvqf70","pricing_plan_id":"cebpf4jnsgd1na2vs0mg"},{"bike_id":"782a14d2-759f-497d-ae09-8808575eab35","system_id":"levelo_inurba_marseille","lat":43.2985,"lon":5.3628,"is_reserved":false,"is_disabled":false,"rental_uris":{"android":"levelo://app?vid=782a14d2-759f-497d-ae09-8808575eab35","ios":"levelo://app?vid=782a14d2-759f-497d-ae09-8808575eab35"},"vehicle_type_id":"4","last_reported":1745658528,"current_range_meters":16800,"station_id":"ce4bgpp2rcd13ifvqc3g","pricing_plan_id":"cebpf4jnsgd1na2vs0mg"},{"bike_id":"53e0fd33-9903-4f8a-a3a3-f84836cb9f5b","system_id":"levelo_inurba_marseille","lat":43.23957,"lon":5.36639,"is_reserved":false,"is_disabled":false,"rental_uris":{"android":"levelo://app?vid=53e0fd33-9903-4f8a-a3a3-f84836cb9f5b","ios":"levelo://app?vid=53e0fd33-9903-4f8a-a3a3-f84836cb9f5b"},"vehicle_type_id":"4","last_reported":1745658528,"current_range_meters":16800,"station_id":"ce4bhi12rcd13ifvqfp0","pricing_plan_id":"cebpf4jnsgd1na2vs0mg"},{"bike_id":"294d3d1e-392b-4be8-b92c-1e0d2b9bb46a","system_id":"levelo_inurba_marseille","lat":43.29931,"lon":5.36548,"is_reserved":false,"is_disabled":false,"rental_uris":{"android":"levelo://app?vid=294d3d1e-392b-4be8-b92c-1e0d2b9bb46a","ios":"levelo://app?vid=294d3d1e-392b-4be8-b92c-1e0d2b9bb46a"},"vehicle_type_id":"4","last_reported":1745658528,"current_range_meters":16800,"station_id":"ce4bgm92rcd13ifvqbr0","pricing_plan_id":"cebpf4jnsgd1na2vs0mg"},{"bike_id":"f31a57ce-0340-40a5-94bb-aa4e8e281423","system_id":"levelo_inurba_marseille","lat":43.23187,"lon":5.35548,"is_reserved":false,"is_disabled":false,"rental_uris":{"android":"levelo://app?vid=f31a57ce-0340-40a5-94bb-aa4e8e281423","ios":"levelo://app?vid=f31a57ce-0340-40a5-94bb-aa4e8e281423"},"vehicle_type_id":"4","last_reported":1745658528,"current_range_meters":17200,"station_id":"ce4bhu92rcd13ifvqi70","pricing_plan_id":"cebpf4jnsgd1na2vs0mg"},{"bike_id":"0f6bdd66-510a-4555-a1ff-4c957c30c4c2","system_id":"levelo_inurba_marseille","lat":43.29002,"lon":5.35619,"is_reserved":false,"is_disabled":false,"rental_uris":{"android":"levelo://app?vid=0f6bdd66-510a-4555-a1ff-4c957c30c4c2","ios":"levelo://app?vid=0f6bdd66-510a-4555-a1ff-4c957c30c4c2"},"vehicle_type_id":"4","last_reported":1745658528,"current_range_meters":16800,"station_id":"ce4bhb92rcd13ifvqen0","pricing_plan_id":"cebpf4jnsgd1na2vs0mg"},{"bike_id":"1504a7b4-3c2b-41cd-85cd-57aa88641e7e","system_id":"levelo_inurba_marseille","lat":43.2978,"lon":5.37111,"is_reserved":false,"is_disabled":false,"rental_uris":{"android":"levelo://app?vid=1504a7b4-3c2b-41cd-85cd-57aa88641e7e","ios":"levelo://app?vid=1504a7b4-3c2b-41cd-85cd-57aa88641e7e"},"vehicle_type_id":"4","last_reported":1745658528,"current_range_meters":17200,"station_id":"ce4bgop2rcd13ifvqc1g","pricing_plan_id":"cebpf4jnsgd1na2vs0mg"},{"bike_id":"88fa99dd-fd7b-4bb4-b03f-46bf99b7e41b","system_id":"levelo_inurba_marseille","lat":43.29848,"lon":5.36283,"is_reserved":false,"is_disabled":false,"rental_uris":{"android":"levelo://app?vid=88fa99dd-fd7b-4bb4-b03f-46bf99b7e41b","ios":"levelo://app?vid=88fa99dd-fd7b-4bb4-b03f-46bf99b7e41b"},"vehicle_type_id":"4","last_reported":1745658528,"current_range_meters":17200,"station_id":"ce4bgpp2rcd13ifvqc3g","pricing_plan_id":"cebpf4jnsgd1na2vs0mg"},{"bike_id":"d6e41e93-1359-46e8-bfef-ed1fee730adb","system_id":"levelo_inurba_marseille","lat":43.28657,"lon":5.36355,"is_reserved":false,"is_disabled":true,"rental_uris":{"android":"levelo://app?vid=d6e41e93-1359-46e8-bfef-ed1fee730adb","ios":"levelo://app?vid=d6e41e93-1359-46e8-bfef-ed1fee730adb"},"vehicle_type_id":"4","last_reported":1745658528,"current_range_meters":17200,"station_id":"ce4bhah2rcd13ifvqej0","pricing_plan_id":"cebpf4jnsgd1na2vs0mg"},{"bike_id":"d504c5ba-202c-4821-8c4d-169d281a5561","system_id":"levelo_inurba_marseille","lat":43.27311,"lon":5.39076,"is_reserved":false,"is_disabled":false,"rental_uris":{"android":"levelo://app?vid=d504c5ba-202c-4821-8c4d-169d281a5561","ios":"levelo://app?vid=d504c5ba-202c-4821-8c4d-169d281a5561"},"vehicle_type_id":"4","last_reported":1745658528,"current_range_meters":17200,"station_id":"ce4bhgp2rcd13ifvqfe0","pricing_plan_id":"cebpf4jnsgd1na2vs0mg"},{"bike_id":"af6d32d3-6b0c-4068-b990-aecf457131a2","system_id":"levelo_inurba_marseille","lat":43.30318,"lon":5.40441,"is_reserved":false,"is_disabled":false,"rental_uris":{"android":"levelo://app?vid=af6d32d3-6b0c-4068-b990-aecf457131a2","ios":"levelo://app?vid=af6d32d3-6b0c-4068-b990-aecf457131a2"},"vehicle_type_id":"4","last_reported":1745658528,"current_range_meters":17600,"station_id":"ce4bh012rcd13ifvqd10","pricing_plan_id":"cebpf4jnsgd1na2vs0mg"},{"bike_id":"20ea6a76-0cae-4365-a9ed-ae76ff53ff94","system_id":"levelo_inurba_marseille","lat":43.29727,"lon":5.3702,"is_reserved":false,"is_disabled":false,"rental_uris":{"android":"levelo://app?vid=20ea6a76-0cae-4365-a9ed-ae76ff53ff94","ios":"levelo://app?vid=20ea6a76-0cae-4365-a9ed-ae76ff53ff94"},"vehicle_type_id":"4","last_reported":1745658528,"current_range_meters":17600,"station_id":"","pricing_plan_id":"cebpf4jnsgd1na2vs0mg"},{"bike_id":"f338b586-c95c-4003-961b-4ab2c50263be","system_id":"levelo_inurba_marseille","lat":43.315,"lon":5.37282,"is_reserved":false,"is_disabled":false,"rental_uris":{"android":"levelo://app?vid=f338b586-c95c-4003-961b-4ab2c50263be","ios":"levelo://app?vid=f338b586-c95c-4003-961b-4ab2c50263be"},"vehicle_type_id":"4","last_reported":1745658528,"current_range_meters":17600,"station_id":"ce4bgt12rcd13ifvqcd0","pricing_plan_id":"cebpf4jnsgd1na2vs0mg"},{"bike_id":"cb82a70d-1881-4356-8285-428e4c4f1892","system_id":"levelo_inurba_marseille","lat":43.29705,"lon":5.37704,"is_reserved":false,"is_disabled":false,"rental_uris":{"android":"levelo://app?vid=cb82a70d-1881-4356-8285-428e4c4f1892","ios":"levelo://app?vid=cb82a70d-1881-4356-8285-428e4c4f1892"},"vehicle_type_id":"4","last_reported":1745658528,"current_range_meters":17600,"station_id":"ce4bgkh2rcd13ifvqbl0","pricing_plan_id":"cebpf4jnsgd1na2vs0mg"},{"bike_id":"4bc1fa3b-49f9-416e-b09c-8bfe4beac9de","system_id":"levelo_inurba_marseille","lat":43.27432,"lon":5.39406,"is_reserved":false,"is_disabled":false,"rental_uris":{"android":"levelo://app?vid=4bc1fa3b-49f9-416e-b09c-8bfe4beac9de","ios":"levelo://app?vid=4bc1fa3b-49f9-416e-b09c-8bfe4beac9de"},"vehicle_type_id":"4","last_reported":1745658528,"current_range_meters":18000,"station_id":"ce4bhdp2rcd13ifvqf20","pricing_plan_id":"cebpf4jnsgd1na2vs0mg"},{"bike_id":"b2178132-9584-493f-8ef8-d3dc384e9c80","system_id":"levelo_inurba_marseille","lat":43.311223,"lon":5.377519,"is_reserved":false,"is_disabled":false,"rental_uris":{"android":"levelo://app?vid=b2178132-9584-493f-8ef8-d3dc384e9c80","ios":"levelo://app?vid=b2178132-9584-493f-8ef8-d3dc384e9c80"},"vehicle_type_id":"4","last_reported":1745658528,"current_range_meters":18000,"station_id":"ce4bgt92rcd13ifvqcg0","pricing_plan_id":"cebpf4jnsgd1na2vs0mg"},{"bike_id":"59435061-5e1b-4910-b226-2025dd87e457","system_id":"levelo_inurba_marseille","lat":43.24391,"lon":5.3704,"is_reserved":false,"is_disabled":false,"rental_uris":{"android":"levelo://app?vid=59435061-5e1b-4910-b226-2025dd87e457","ios":"levelo://app?vid=59435061-5e1b-4910-b226-2025dd87e457"},"vehicle_type_id":"4","last_reported":1745658528,"current_range_meters":17600,"station_id":"ce4bhhh2rcd13ifvqfk0","pricing_plan_id":"cebpf4jnsgd1na2vs0mg"},{"bike_id":"0d9a728d-872b-4bae-af78-38b6c62cc8db","system_id":"levelo_inurba_marseille","lat":43.3078,"lon":5.37646,"is_reserved":false,"is_disabled":false,"rental_uris":{"android":"levelo://app?vid=0d9a728d-872b-4bae-af78-38b6c62cc8db","ios":"levelo://app?vid=0d9a728d-872b-4bae-af78-38b6c62cc8db"},"vehicle_type_id":"4","last_reported":1745658528,"current_range_meters":18000,"station_id":"ce4bgv92rcd13ifvqcq0","pricing_plan_id":"cebpf4jnsgd1na2vs0mg"},{"bike_id":"0c920c40-b1bd-42f3-9531-87b0d8611c22","system_id":"levelo_inurba_marseille","lat":43.280012,"lon":5.400055,"is_reserved":false,"is_disabled":false,"rental_uris":{"android":"levelo://app?vid=0c920c40-b1bd-42f3-9531-87b0d8611c22","ios":"levelo://app?vid=0c920c40-b1bd-42f3-9531-87b0d8611c22"},"vehicle_type_id":"4","last_reported":1745658528,"current_range_meters":18000,"station_id":"ce4bho92rcd13ifvqh4g","pricing_plan_id":"cebpf4jnsgd1na2vs0mg"},{"bike_id":"e10849ab-f14c-42eb-bf35-8ad4ea47ec28","system_id":"levelo_inurba_marseille","lat":43.30325,"lon":5.40426,"is_reserved":false,"is_disabled":false,"rental_uris":{"android":"levelo://app?vid=e10849ab-f14c-42eb-bf35-8ad4ea47ec28","ios":"levelo://app?vid=e10849ab-f14c-42eb-bf35-8ad4ea47ec28"},"vehicle_type_id":"4","last_reported":1745658528,"current_range_meters":18800,"station_id":"ce4bh012rcd13ifvqd10","pricing_plan_id":"cebpf4jnsgd1na2vs0mg"},{"bike_id":"7a43a9f8-7bce-4bdf-a927-931b7ababb73","system_id":"levelo_inurba_marseille","lat":43.29558,"lon":5.42292,"is_reserved":false,"is_disabled":false,"rental_uris":{"android":"levelo://app?vid=7a43a9f8-7bce-4bdf-a927-931b7ababb73","ios":"levelo://app?vid=7a43a9f8-7bce-4bdf-a927-931b7ababb73"},"vehicle_type_id":"4","last_reported":1745658528,"current_range_meters":18800,"station_id":"ce4bhph2rcd13ifvqhdg","pricing_plan_id":"cebpf4jnsgd1na2vs0mg"},{"bike_id":"1e0ac60b-e244-4f1a-948d-7791c5fa98da","system_id":"levelo_inurba_marseille","lat":43.21182,"lon":5.35082,"is_reserved":false,"is_disabled":true,"rental_uris":{"android":"levelo://app?vid=1e0ac60b-e244-4f1a-948d-7791c5fa98da","ios":"levelo://app?vid=1e0ac60b-e244-4f1a-948d-7791c5fa98da"},"vehicle_type_id":"4","last_reported":1745658528,"current_range_meters":18800,"station_id":"st_cvj6sg6p6f1abm77japg","pricing_plan_id":"cebpf4jnsgd1na2vs0mg"},{"bike_id":"83a81c6e-e77d-46ae-bcb5-222e3e197ed3","system_id":"levelo_inurba_marseille","lat":43.30462,"lon":5.37917,"is_reserved":false,"is_disabled":true,"rental_uris":{"android":"levelo://app?vid=83a81c6e-e77d-46ae-bcb5-222e3e197ed3","ios":"levelo://app?vid=83a81c6e-e77d-46ae-bcb5-222e3e197ed3"},"vehicle_type_id":"4","last_reported":1745658528,"current_range_meters":18800,"station_id":"ce4bgup2rcd13ifvqcn0","pricing_plan_id":"cebpf4jnsgd1na2vs0mg"},{"bike_id":"df6d7828-d3ab-45f4-aecf-3a839d14d8c2","system_id":"levelo_inurba_marseille","lat":43.29095,"lon":5.38134,"is_reserved":false,"is_disabled":false,"rental_uris":{"android":"levelo://app?vid=df6d7828-d3ab-45f4-aecf-3a839d14d8c2","ios":"levelo://app?vid=df6d7828-d3ab-45f4-aecf-3a839d14d8c2"},"vehicle_type_id":"4","last_reported":1745658528,"current_range_meters":18800,"station_id":"ce4bh512rcd13ifvqe2g","pricing_plan_id":"cebpf4jnsgd1na2vs0mg"},{"bike_id":"560f12bb-1614-4d7c-b78e-ccf5bdec9ea6","system_id":"levelo_inurba_marseille","lat":43.28455,"lon":5.35907,"is_reserved":false,"is_disabled":true,"rental_uris":{"android":"levelo://app?vid=560f12bb-1614-4d7c-b78e-ccf5bdec9ea6","ios":"levelo://app?vid=560f12bb-1614-4d7c-b78e-ccf5bdec9ea6"},"vehicle_type_id":"4","last_reported":1745658528,"current_range_meters":18800,"station_id":"ce4bhah2rcd13ifvqei0","pricing_plan_id":"cebpf4jnsgd1na2vs0mg"},{"bike_id":"aa0a0acb-a19a-4569-9f7e-6c492cc43a49","system_id":"levelo_inurba_marseille","lat":43.28472,"lon":5.38418,"is_reserved":false,"is_disabled":true,"rental_uris":{"android":"levelo://app?vid=aa0a0acb-a19a-4569-9f7e-6c492cc43a49","ios":"levelo://app?vid=aa0a0acb-a19a-4569-9f7e-6c492cc43a49"},"vehicle_type_id":"4","last_reported":1745658528,"current_range_meters":18800,"station_id":"ce4bh512rcd13ifvqe3g","pricing_plan_id":"cebpf4jnsgd1na2vs0mg"},{"bike_id":"ac4c4173-35f2-480f-a156-1e96630b45e8","system_id":"levelo_inurba_marseille","lat":43.24069,"lon":5.37765,"is_reserved":false,"is_disabled":false,"rental_uris":{"android":"levelo://app?vid=ac4c4173-35f2-480f-a156-1e96630b45e8","ios":"levelo://app?vid=ac4c4173-35f2-480f-a156-1e96630b45e8"},"vehicle_type_id":"4","last_reported":1745658528,"current_range_meters":19200,"station_id":"ce4bhnp2rcd13ifvqgvg","pricing_plan_id":"cebpf4jnsgd1na2vs0mg"},{"bike_id":"0e96c8db-53ec-48cc-9089-e715927f4e1f","system_id":"levelo_inurba_marseille","lat":43.23959,"lon":5.36628,"is_reserved":false,"is_disabled":false,"rental_uris":{"android":"levelo://app?vid=0e96c8db-53ec-48cc-9089-e715927f4e1f","ios":"levelo://app?vid=0e96c8db-53ec-48cc-9089-e715927f4e1f"},"vehicle_type_id":"4","last_reported":1745658528,"current_range_meters":19200,"station_id":"ce4bhi12rcd13ifvqfp0","pricing_plan_id":"cebpf4jnsgd1na2vs0mg"},{"bike_id":"b0f748b0-52db-431a-bf39-d8045fdc17ac","system_id":"levelo_inurba_marseille","lat":43.31711,"lon":5.4371,"is_reserved":false,"is_disabled":false,"rental_uris":{"android":"levelo://app?vid=b0f748b0-52db-431a-bf39-d8045fdc17ac","ios":"levelo://app?vid=b0f748b0-52db-431a-bf39-d8045fdc17ac"},"vehicle_type_id":"4","last_reported":1745658528,"current_range_meters":19200,"station_id":"ce4bhp92rcd13ifvqhcg","pricing_plan_id":"cebpf4jnsgd1na2vs0mg"},{"bike_id":"53143828-ddf8-4092-aff9-44779cf56402","system_id":"levelo_inurba_marseille","lat":43.26803,"lon":5.4027,"is_reserved":false,"is_disabled":false,"rental_uris":{"android":"levelo://app?vid=53143828-ddf8-4092-aff9-44779cf56402","ios":"levelo://app?vid=53143828-ddf8-4092-aff9-44779cf56402"},"vehicle_type_id":"4","last_reported":1745658528,"current_range_meters":19200,"station_id":"ce501612rcd8frsf0b60","pricing_plan_id":"cebpf4jnsgd1na2vs0mg"},{"bike_id":"e7caf4cd-945d-418c-8941-fe804ba57b84","system_id":"levelo_inurba_marseille","lat":43.27899,"lon":5.40503,"is_reserved":false,"is_disabled":true,"rental_uris":{"android":"levelo://app?vid=e7caf4cd-945d-418c-8941-fe804ba57b84","ios":"levelo://app?vid=e7caf4cd-945d-418c-8941-fe804ba57b84"},"vehicle_type_id":"4","last_reported":1745658528,"current_range_meters":19600,"station_id":"","pricing_plan_id":"cebpf4jnsgd1na2vs0mg"},{"bike_id":"89bd255a-4c99-4347-a446-5521edc07582","system_id":"levelo_inurba_marseille","lat":43.27858,"lon":5.39203,"is_reserved":false,"is_disabled":true,"rental_uris":{"android":"levelo://app?vid=89bd255a-4c99-4347-a446-5521edc07582","ios":"levelo://app?vid=89bd255a-4c99-4347-a446-5521edc07582"},"vehicle_type_id":"4","last_reported":1745658528,"current_range_meters":19600,"station_id":"ce4bhjp2rcd13ifvqga0","pricing_plan_id":"cebpf4jnsgd1na2vs0mg"},{"bike_id":"15ef8d70-14f0-4dc5-869a-954d6f40815d","system_id":"levelo_inurba_marseille","lat":43.30124,"lon":5.38087,"is_reserved":false,"is_disabled":false,"rental_uris":{"android":"levelo://app?vid=15ef8d70-14f0-4dc5-869a-954d6f40815d","ios":"levelo://app?vid=15ef8d70-14f0-4dc5-869a-954d6f40815d"},"vehicle_type_id":"4","last_reported":1745658528,"current_range_meters":19600,"station_id":"ce4bgjp2rcd13ifvqbh0","pricing_plan_id":"cebpf4jnsgd1na2vs0mg"},{"bike_id":"e496d48d-2921-4f0d-9e56-631d47631013","system_id":"levelo_inurba_marseille","lat":43.304754,"lon":5.379153,"is_reserved":false,"is_disabled":false,"rental_uris":{"android":"levelo://app?vid=e496d48d-2921-4f0d-9e56-631d47631013","ios":"levelo://app?vid=e496d48d-2921-4f0d-9e56-631d47631013"},"vehicle_type_id":"4","last_reported":1745658528,"current_range_meters":19600,"station_id":"ce4bgup2rcd13ifvqcn0","pricing_plan_id":"cebpf4jnsgd1na2vs0mg"},{"bike_id":"ceaf7cf9-6b79-40e4-b50b-c0f7cf539812","system_id":"levelo_inurba_marseille","lat":43.298967,"lon":5.375811,"is_reserved":false,"is_disabled":false,"rental_uris":{"android":"levelo://app?vid=ceaf7cf9-6b79-40e4-b50b-c0f7cf539812","ios":"levelo://app?vid=ceaf7cf9-6b79-40e4-b50b-c0f7cf539812"},"vehicle_type_id":"4","last_reported":1745658528,"current_range_meters":19600,"station_id":"","pricing_plan_id":"cebpf4jnsgd1na2vs0mg"},{"bike_id":"93f5cc7b-361a-44a4-bb01-09b55687fccc","system_id":"levelo_inurba_marseille","lat":43.281579,"lon":5.426467,"is_reserved":false,"is_disabled":false,"rental_uris":{"android":"levelo://app?vid=93f5cc7b-361a-44a4-bb01-09b55687fccc","ios":"levelo://app?vid=93f5cc7b-361a-44a4-bb01-09b55687fccc"},"vehicle_type_id":"4","last_reported":1745658528,"current_range_meters":19600,"station_id":"ce4bhkp2rcd13ifvqgd0","pricing_plan_id":"cebpf4jnsgd1na2vs0mg"},{"bike_id":"d97bb0ae-a0a6-4b7c-b011-3e43d9fd9f55","system_id":"levelo_inurba_marseille","lat":43.26558,"lon":5.3729,"is_reserved":false,"is_disabled":false,"rental_uris":{"android":"levelo://app?vid=d97bb0ae-a0a6-4b7c-b011-3e43d9fd9f55","ios":"levelo://app?vid=d97bb0ae-a0a6-4b7c-b011-3e43d9fd9f55"},"vehicle_type_id":"4","last_reported":1745658528,"current_range_meters":20000,"station_id":"ce4bhg12rcd13ifvqf70","pricing_plan_id":"cebpf4jnsgd1na2vs0mg"},{"bike_id":"8a3265c5-a5f2-4243-ad15-b96ec6ab5f1d","system_id":"levelo_inurba_marseille","lat":43.26233,"lon":5.40451,"is_reserved":false,"is_disabled":false,"rental_uris":{"android":"levelo://app?vid=8a3265c5-a5f2-4243-ad15-b96ec6ab5f1d","ios":"levelo://app?vid=8a3265c5-a5f2-4243-ad15-b96ec6ab5f1d"},"vehicle_type_id":"4","last_reported":1745658528,"current_range_meters":20000,"station_id":"ce4bhmh2rcd13ifvqgmg","pricing_plan_id":"cebpf4jnsgd1na2vs0mg"},{"bike_id":"e893f702-7290-45bb-8c7e-8d55e0dcb16e","system_id":"levelo_inurba_marseille","lat":43.30527,"lon":5.39341,"is_reserved":false,"is_disabled":false,"rental_uris":{"android":"levelo://app?vid=e893f702-7290-45bb-8c7e-8d55e0dcb16e","ios":"levelo://app?vid=e893f702-7290-45bb-8c7e-8d55e0dcb16e"},"vehicle_type_id":"4","last_reported":1745658528,"current_range_meters":20000,"station_id":"chh1huq6cuj3fo74tm60","pricing_plan_id":"cebpf4jnsgd1na2vs0mg"},{"bike_id":"c2afd97f-df2b-4bbd-a07b-2b7b9d12cbfb","system_id":"levelo_inurba_marseille","lat":43.294168,"lon":5.386178,"is_reserved":false,"is_disabled":false,"rental_uris":{"android":"levelo://app?vid=c2afd97f-df2b-4bbd-a07b-2b7b9d12cbfb","ios":"levelo://app?vid=c2afd97f-df2b-4bbd-a07b-2b7b9d12cbfb"},"vehicle_type_id":"4","last_reported":1745658528,"current_range_meters":20000,"station_id":"ce4bh0p2rcd13ifvqd80","pricing_plan_id":"cebpf4jnsgd1na2vs0mg"},{"bike_id":"ca226576-a3e0-4b7f-a208-8c8bcdb5874e","system_id":"levelo_inurba_marseille","lat":43.2592,"lon":5.40906,"is_reserved":false,"is_disabled":false,"rental_uris":{"android":"levelo://app?vid=ca226576-a3e0-4b7f-a208-8c8bcdb5874e","ios":"levelo://app?vid=ca226576-a3e0-4b7f-a208-8c8bcdb5874e"},"vehicle_type_id":"4","last_reported":1745658528,"current_range_meters":20000,"station_id":"ce4bhm92rcd13ifvqglg","pricing_plan_id":"cebpf4jnsgd1na2vs0mg"},{"bike_id":"f815ac98-ed77-424b-acb4-2f11680a91cc","system_id":"levelo_inurba_marseille","lat":43.21188,"lon":5.35073,"is_reserved":false,"is_disabled":false,"rental_uris":{"android":"levelo://app?vid=f815ac98-ed77-424b-acb4-2f11680a91cc","ios":"levelo://app?vid=f815ac98-ed77-424b-acb4-2f11680a91cc"},"vehicle_type_id":"4","last_reported":1745658528,"current_range_meters":20400,"station_id":"st_cvj6sg6p6f1abm77japg","pricing_plan_id":"cebpf4jnsgd1na2vs0mg"},{"bike_id":"fb391354-a748-4210-869d-b824cbb2c105","system_id":"levelo_inurba_marseille","lat":43.23178,"lon":5.39987,"is_reserved":false,"is_disabled":false,"rental_uris":{"android":"levelo://app?vid=fb391354-a748-4210-869d-b824cbb2c105","ios":"levelo://app?vid=fb391354-a748-4210-869d-b824cbb2c105"},"vehicle_type_id":"4","last_reported":1745658528,"current_range_meters":20400,"station_id":"ce4bhn12rcd13ifvqgqg","pricing_plan_id":"cebpf4jnsgd1na2vs0mg"},{"bike_id":"0d777af5-4166-475a-a6b9-6a0197032592","system_id":"levelo_inurba_marseille","lat":43.23258,"lon":5.35228,"is_reserved":false,"is_disabled":false,"rental_uris":{"android":"levelo://app?vid=0d777af5-4166-475a-a6b9-6a0197032592","ios":"levelo://app?vid=0d777af5-4166-475a-a6b9-6a0197032592"},"vehicle_type_id":"4","last_reported":1745658528,"current_range_meters":20400,"station_id":"","pricing_plan_id":"cebpf4jnsgd1na2vs0mg"},{"bike_id":"bda21fce-c58a-412a-a029-2dce3a0c8062","system_id":"levelo_inurba_marseille","lat":43.30799,"lon":5.43526,"is_reserved":false,"is_disabled":false,"rental_uris":{"android":"levelo://app?vid=bda21fce-c58a-412a-a029-2dce3a0c8062","ios":"levelo://app?vid=bda21fce-c58a-412a-a029-2dce3a0c8062"},"vehicle_type_id":"4","last_reported":1745658528,"current_range_meters":20400,"station_id":"ce4bhph2rcd13ifvqheg","pricing_plan_id":"cebpf4jnsgd1na2vs0mg"},{"bike_id":"01db406d-6dae-4fd3-96c3-6d0f32cb219f","system_id":"levelo_inurba_marseille","lat":43.321017,"lon":5.367867,"is_reserved":false,"is_disabled":false,"rental_uris":{"android":"levelo://app?vid=01db406d-6dae-4fd3-96c3-6d0f32cb219f","ios":"levelo://app?vid=01db406d-6dae-4fd3-96c3-6d0f32cb219f"},"vehicle_type_id":"4","last_reported":1745658528,"current_range_meters":20400,"station_id":"ce4bhrh2rcd13ifvqhug","pricing_plan_id":"cebpf4jnsgd1na2vs0mg"},{"bike_id":"3ad35c25-d89f-4ea6-848b-393a00786d79","system_id":"levelo_inurba_marseille","lat":43.29894,"lon":5.42054,"is_reserved":false,"is_disabled":false,"rental_uris":{"android":"levelo://app?vid=3ad35c25-d89f-4ea6-848b-393a00786d79","ios":"levelo://app?vid=3ad35c25-d89f-4ea6-848b-393a00786d79"},"vehicle_type_id":"4","last_reported":1745658528,"current_range_meters":20400,"station_id":"","pricing_plan_id":"cebpf4jnsgd1na2vs0mg"},{"bike_id":"354e9f52-8aeb-4fed-868b-3a37b6fd4908","system_id":"levelo_inurba_marseille","lat":43.29691,"lon":5.37296,"is_reserved":false,"is_disabled":false,"rental_uris":{"android":"levelo://app?vid=354e9f52-8aeb-4fed-868b-3a37b6fd4908","ios":"levelo://app?vid=354e9f52-8aeb-4fed-868b-3a37b6fd4908"},"vehicle_type_id":"4","last_reported":1745658528,"current_range_meters":20400,"station_id":"ce4bgk12rcd13ifvqbj0","pricing_plan_id":"cebpf4jnsgd1na2vs0mg"},{"bike_id":"d237e018-4216-47e4-bd34-a1e58d4da64e","system_id":"levelo_inurba_marseille","lat":43.29617,"lon":5.37715,"is_reserved":false,"is_disabled":false,"rental_uris":{"android":"levelo://app?vid=d237e018-4216-47e4-bd34-a1e58d4da64e","ios":"levelo://app?vid=d237e018-4216-47e4-bd34-a1e58d4da64e"},"vehicle_type_id":"4","last_reported":1745658528,"current_range_meters":20400,"station_id":"ce4bgi92rcd13ifvqb90","pricing_plan_id":"cebpf4jnsgd1na2vs0mg"},{"bike_id":"75a02bd3-2105-40e7-8081-5a527f28f0a1","system_id":"levelo_inurba_marseille","lat":43.30938,"lon":5.40148,"is_reserved":false,"is_disabled":false,"rental_uris":{"android":"levelo://app?vid=75a02bd3-2105-40e7-8081-5a527f28f0a1","ios":"levelo://app?vid=75a02bd3-2105-40e7-8081-5a527f28f0a1"},"vehicle_type_id":"4","last_reported":1745658528,"current_range_meters":20400,"station_id":"ce4bgvp2rcd13ifvqct0","pricing_plan_id":"cebpf4jnsgd1na2vs0mg"},{"bike_id":"bc356e07-c6ac-43e7-a3c5-5552446665e5","system_id":"levelo_inurba_marseille","lat":43.30983,"lon":5.41733,"is_reserved":false,"is_disabled":false,"rental_uris":{"android":"levelo://app?vid=bc356e07-c6ac-43e7-a3c5-5552446665e5","ios":"levelo://app?vid=bc356e07-c6ac-43e7-a3c5-5552446665e5"},"vehicle_type_id":"4","last_reported":1745658528,"current_range_meters":20800,"station_id":"","pricing_plan_id":"cebpf4jnsgd1na2vs0mg"},{"bike_id":"09ff1962-124c-4e15-a469-d90f1d77c2e8","system_id":"levelo_inurba_marseille","lat":43.30101,"lon":5.39079,"is_reserved":false,"is_disabled":false,"rental_uris":{"android":"levelo://app?vid=09ff1962-124c-4e15-a469-d90f1d77c2e8","ios":"levelo://app?vid=09ff1962-124c-4e15-a469-d90f1d77c2e8"},"vehicle_type_id":"4","last_reported":1745658528,"current_range_meters":20800,"station_id":"ce4bh192rcd13ifvqdb0","pricing_plan_id":"cebpf4jnsgd1na2vs0mg"},{"bike_id":"429a2824-25d3-4e87-8865-ec398d90ebca","system_id":"levelo_inurba_marseille","lat":43.21221,"lon":5.35058,"is_reserved":false,"is_disabled":false,"rental_uris":{"android":"levelo://app?vid=429a2824-25d3-4e87-8865-ec398d90ebca","ios":"levelo://app?vid=429a2824-25d3-4e87-8865-ec398d90ebca"},"vehicle_type_id":"4","last_reported":1745658528,"current_range_meters":20800,"station_id":"","pricing_plan_id":"cebpf4jnsgd1na2vs0mg"},{"bike_id":"db8df1f5-daae-4a43-888a-2e4bf54259b0","system_id":"levelo_inurba_marseille","lat":43.29934,"lon":5.36552,"is_reserved":false,"is_disabled":false,"rental_uris":{"android":"levelo://app?vid=db8df1f5-daae-4a43-888a-2e4bf54259b0","ios":"levelo://app?vid=db8df1f5-daae-4a43-888a-2e4bf54259b0"},"vehicle_type_id":"4","last_reported":1745658528,"current_range_meters":21600,"station_id":"ce4bgm92rcd13ifvqbr0","pricing_plan_id":"cebpf4jnsgd1na2vs0mg"},{"bike_id":"990fcd7c-4b04-4873-8600-12f1ee8aae4a","system_id":"levelo_inurba_marseille","lat":43.29302,"lon":5.37175,"is_reserved":false,"is_disabled":false,"rental_uris":{"android":"levelo://app?vid=990fcd7c-4b04-4873-8600-12f1ee8aae4a","ios":"levelo://app?vid=990fcd7c-4b04-4873-8600-12f1ee8aae4a"},"vehicle_type_id":"4","last_reported":1745658528,"current_range_meters":21600,"station_id":"ce4bgh92rcd13ifvqb40","pricing_plan_id":"cebpf4jnsgd1na2vs0mg"},{"bike_id":"389fa13e-9fb8-4551-94cc-3437e858ed36","system_id":"levelo_inurba_marseille","lat":43.24179,"lon":5.36385,"is_reserved":false,"is_disabled":false,"rental_uris":{"android":"levelo://app?vid=389fa13e-9fb8-4551-94cc-3437e858ed36","ios":"levelo://app?vid=389fa13e-9fb8-4551-94cc-3437e858ed36"},"vehicle_type_id":"4","last_reported":1745658528,"current_range_meters":21600,"station_id":"cpo36qri1sfpv3e86is0","pricing_plan_id":"cebpf4jnsgd1na2vs0mg"},{"bike_id":"588217eb-80a6-423e-b138-35c0ab521a91","system_id":"levelo_inurba_marseille","lat":43.30203,"lon":5.39464,"is_reserved":false,"is_disabled":true,"rental_uris":{"android":"levelo://app?vid=588217eb-80a6-423e-b138-35c0ab521a91","ios":"levelo://app?vid=588217eb-80a6-423e-b138-35c0ab521a91"},"vehicle_type_id":"4","last_reported":1745658528,"current_range_meters":21600,"station_id":"ce4bh0p2rcd13ifvqd70","pricing_plan_id":"cebpf4jnsgd1na2vs0mg"},{"bike_id":"391ce3f7-4603-4f98-a886-e6955f603498","system_id":"levelo_inurba_marseille","lat":43.26209,"lon":5.37441,"is_reserved":false,"is_disabled":false,"rental_uris":{"android":"levelo://app?vid=391ce3f7-4603-4f98-a886-e6955f603498","ios":"levelo://app?vid=391ce3f7-4603-4f98-a886-e6955f603498"},"vehicle_type_id":"4","last_reported":1745658528,"current_range_meters":21600,"station_id":"ce4bhgp2rcd13ifvqfc0","pricing_plan_id":"cebpf4jnsgd1na2vs0mg"},{"bike_id":"4d69b997-d744-4728-be76-f96d0d03571d","system_id":"levelo_inurba_marseille","lat":43.29931,"lon":5.36545,"is_reserved":false,"is_disabled":false,"rental_uris":{"android":"levelo://app?vid=4d69b997-d744-4728-be76-f96d0d03571d","ios":"levelo://app?vid=4d69b997-d744-4728-be76-f96d0d03571d"},"vehicle_type_id":"4","last_reported":1745658528,"current_range_meters":21600,"station_id":"ce4bgm92rcd13ifvqbr0","pricing_plan_id":"cebpf4jnsgd1na2vs0mg"},{"bike_id":"7a29ab96-e89e-46a6-a1a8-39da203ef91e","system_id":"levelo_inurba_marseille","lat":43.28077,"lon":5.39661,"is_reserved":false,"is_disabled":false,"rental_uris":{"android":"levelo://app?vid=7a29ab96-e89e-46a6-a1a8-39da203ef91e","ios":"levelo://app?vid=7a29ab96-e89e-46a6-a1a8-39da203ef91e"},"vehicle_type_id":"4","last_reported":1745658528,"current_range_meters":20800,"station_id":"ce4bho12rcd13ifvqh2g","pricing_plan_id":"cebpf4jnsgd1na2vs0mg"},{"bike_id":"8877945e-f469-4dd6-85c2-c9c2267e5ca4","system_id":"levelo_inurba_marseille","lat":43.23198,"lon":5.39997,"is_reserved":false,"is_disabled":true,"rental_uris":{"android":"levelo://app?vid=8877945e-f469-4dd6-85c2-c9c2267e5ca4","ios":"levelo://app?vid=8877945e-f469-4dd6-85c2-c9c2267e5ca4"},"vehicle_type_id":"4","last_reported":1745658528,"current_range_meters":22000,"station_id":"ce4bhn12rcd13ifvqgqg","pricing_plan_id":"cebpf4jnsgd1na2vs0mg"},{"bike_id":"9b94fe14-c2cb-4f8e-b6d1-e77b37e69efb","system_id":"levelo_inurba_marseille","lat":43.30242,"lon":5.40067,"is_reserved":false,"is_disabled":true,"rental_uris":{"android":"levelo://app?vid=9b94fe14-c2cb-4f8e-b6d1-e77b37e69efb","ios":"levelo://app?vid=9b94fe14-c2cb-4f8e-b6d1-e77b37e69efb"},"vehicle_type_id":"4","last_reported":1745658528,"current_range_meters":22000,"station_id":"ce4bgvh2rcd13ifvqcs0","pricing_plan_id":"cebpf4jnsgd1na2vs0mg"},{"bike_id":"43333b3b-f6dc-416f-8840-0ab1c02541db","system_id":"levelo_inurba_marseille","lat":43.26687,"lon":5.38261,"is_reserved":false,"is_disabled":false,"rental_uris":{"android":"levelo://app?vid=43333b3b-f6dc-416f-8840-0ab1c02541db","ios":"levelo://app?vid=43333b3b-f6dc-416f-8840-0ab1c02541db"},"vehicle_type_id":"4","last_reported":1745658528,"current_range_meters":22400,"station_id":"ce4bhg92rcd13ifvqf90","pricing_plan_id":"cebpf4jnsgd1na2vs0mg"},{"bike_id":"77fb4511-9eee-4038-a0c9-f8983e04a209","system_id":"levelo_inurba_marseille","lat":43.29974,"lon":5.38487,"is_reserved":false,"is_disabled":false,"rental_uris":{"android":"levelo://app?vid=77fb4511-9eee-4038-a0c9-f8983e04a209","ios":"levelo://app?vid=77fb4511-9eee-4038-a0c9-f8983e04a209"},"vehicle_type_id":"4","last_reported":1745658528,"current_range_meters":22400,"station_id":"ce4bgj92rcd13ifvqbd0","pricing_plan_id":"cebpf4jnsgd1na2vs0mg"},{"bike_id":"df7e488a-7e3e-45bc-bd90-eae468403127","system_id":"levelo_inurba_marseille","lat":43.24671,"lon":5.38168,"is_reserved":false,"is_disabled":false,"rental_uris":{"android":"levelo://app?vid=df7e488a-7e3e-45bc-bd90-eae468403127","ios":"levelo://app?vid=df7e488a-7e3e-45bc-bd90-eae468403127"},"vehicle_type_id":"4","last_reported":1745658528,"current_range_meters":22400,"station_id":"ce4bhih2rcd13ifvqfr0","pricing_plan_id":"cebpf4jnsgd1na2vs0mg"},{"bike_id":"1daf54ce-c414-479a-a0ae-528903b7041d","system_id":"levelo_inurba_marseille","lat":43.26211,"lon":5.37432,"is_reserved":false,"is_disabled":false,"rental_uris":{"android":"levelo://app?vid=1daf54ce-c414-479a-a0ae-528903b7041d","ios":"levelo://app?vid=1daf54ce-c414-479a-a0ae-528903b7041d"},"vehicle_type_id":"4","last_reported":1745658528,"current_range_meters":22400,"station_id":"ce4bhgp2rcd13ifvqfc0","pricing_plan_id":"cebpf4jnsgd1na2vs0mg"},{"bike_id":"441585f6-7513-4f46-9134-df9092ccd08f","system_id":"levelo_inurba_marseille","lat":43.27575,"lon":5.38425,"is_reserved":false,"is_disabled":false,"rental_uris":{"android":"levelo://app?vid=441585f6-7513-4f46-9134-df9092ccd08f","ios":"levelo://app?vid=441585f6-7513-4f46-9134-df9092ccd08f"},"vehicle_type_id":"4","last_reported":1745658528,"current_range_meters":22000,"station_id":"ce4bhh92rcd13ifvqfi0","pricing_plan_id":"cebpf4jnsgd1na2vs0mg"},{"bike_id":"e0111ec3-67ec-4379-af87-b906c109d948","system_id":"levelo_inurba_marseille","lat":43.2958,"lon":5.37518,"is_reserved":false,"is_disabled":false,"rental_uris":{"android":"levelo://app?vid=e0111ec3-67ec-4379-af87-b906c109d948","ios":"levelo://app?vid=e0111ec3-67ec-4379-af87-b906c109d948"},"vehicle_type_id":"4","last_reported":1745658528,"current_range_meters":22800,"station_id":"ce4bgh92rcd13ifvqb50","pricing_plan_id":"cebpf4jnsgd1na2vs0mg"},{"bike_id":"48a0f343-4536-4f9f-9a91-bf3cc17b33cc","system_id":"levelo_inurba_marseille","lat":43.293757,"lon":5.378518,"is_reserved":false,"is_disabled":false,"rental_uris":{"android":"levelo://app?vid=48a0f343-4536-4f9f-9a91-bf3cc17b33cc","ios":"levelo://app?vid=48a0f343-4536-4f9f-9a91-bf3cc17b33cc"},"vehicle_type_id":"4","last_reported":1745658528,"current_range_meters":22800,"station_id":"ce4bgjh2rcd13ifvqbf0","pricing_plan_id":"cebpf4jnsgd1na2vs0mg"},{"bike_id":"3edf4337-5538-4dd7-a8c4-b2e06de67ea6","system_id":"levelo_inurba_marseille","lat":43.29842,"lon":5.36268,"is_reserved":false,"is_disabled":false,"rental_uris":{"android":"levelo://app?vid=3edf4337-5538-4dd7-a8c4-b2e06de67ea6","ios":"levelo://app?vid=3edf4337-5538-4dd7-a8c4-b2e06de67ea6"},"vehicle_type_id":"4","last_reported":1745658528,"current_range_meters":22800,"station_id":"ce4bgpp2rcd13ifvqc3g","pricing_plan_id":"cebpf4jnsgd1na2vs0mg"},{"bike_id":"5b7ec4ef-d423-41c4-96cb-1ca7bceef233","system_id":"levelo_inurba_marseille","lat":43.299297,"lon":5.365363,"is_reserved":false,"is_disabled":false,"rental_uris":{"android":"levelo://app?vid=5b7ec4ef-d423-41c4-96cb-1ca7bceef233","ios":"levelo://app?vid=5b7ec4ef-d423-41c4-96cb-1ca7bceef233"},"vehicle_type_id":"4","last_reported":1745658528,"current_range_meters":22800,"station_id":"ce4bgm92rcd13ifvqbr0","pricing_plan_id":"cebpf4jnsgd1na2vs0mg"},{"bike_id":"a02596ac-1620-4d88-b07c-6dc9ce3db69f","system_id":"levelo_inurba_marseille","lat":43.23185,"lon":5.35547,"is_reserved":false,"is_disabled":false,"rental_uris":{"android":"levelo://app?vid=a02596ac-1620-4d88-b07c-6dc9ce3db69f","ios":"levelo://app?vid=a02596ac-1620-4d88-b07c-6dc9ce3db69f"},"vehicle_type_id":"4","last_reported":1745658528,"current_range_meters":24800,"station_id":"ce4bhu92rcd13ifvqi70","pricing_plan_id":"cebpf4jnsgd1na2vs0mg"},{"bike_id":"9a06afe2-e815-43c0-92a6-7e04dd7ecae3","system_id":"levelo_inurba_marseille","lat":43.24074,"lon":5.37752,"is_reserved":false,"is_disabled":false,"rental_uris":{"android":"levelo://app?vid=9a06afe2-e815-43c0-92a6-7e04dd7ecae3","ios":"levelo://app?vid=9a06afe2-e815-43c0-92a6-7e04dd7ecae3"},"vehicle_type_id":"4","last_reported":1745658528,"current_range_meters":22800,"station_id":"ce4bhnp2rcd13ifvqgvg","pricing_plan_id":"cebpf4jnsgd1na2vs0mg"},{"bike_id":"fd184598-67bf-4996-9e8a-c770935d312d","system_id":"levelo_inurba_marseille","lat":43.3047,"lon":5.37897,"is_reserved":false,"is_disabled":false,"rental_uris":{"android":"levelo://app?vid=fd184598-67bf-4996-9e8a-c770935d312d","ios":"levelo://app?vid=fd184598-67bf-4996-9e8a-c770935d312d"},"vehicle_type_id":"4","last_reported":1745658528,"current_range_meters":22800,"station_id":"ce4bgup2rcd13ifvqcn0","pricing_plan_id":"cebpf4jnsgd1na2vs0mg"},{"bike_id":"0ec53da3-33f7-4ae2-a7ef-673f6338587e","system_id":"levelo_inurba_marseille","lat":43.25582,"lon":5.3823,"is_reserved":false,"is_disabled":false,"rental_uris":{"android":"levelo://app?vid=0ec53da3-33f7-4ae2-a7ef-673f6338587e","ios":"levelo://app?vid=0ec53da3-33f7-4ae2-a7ef-673f6338587e"},"vehicle_type_id":"4","last_reported":1745658528,"current_range_meters":22800,"station_id":"ce4bhih2rcd13ifvqfs0","pricing_plan_id":"cebpf4jnsgd1na2vs0mg"},{"bike_id":"b48fb67c-833d-493f-b1ab-f21c816bfa35","system_id":"levelo_inurba_marseille","lat":43.279167,"lon":5.395727,"is_reserved":false,"is_disabled":false,"rental_uris":{"android":"levelo://app?vid=b48fb67c-833d-493f-b1ab-f21c816bfa35","ios":"levelo://app?vid=b48fb67c-833d-493f-b1ab-f21c816bfa35"},"vehicle_type_id":"4","last_reported":1745658528,"current_range_meters":23200,"station_id":"ce4bhf92rcd13ifvqf40","pricing_plan_id":"cebpf4jnsgd1na2vs0mg"},{"bike_id":"7223f9ed-9d66-4580-a350-ca28c74a1898","system_id":"levelo_inurba_marseille","lat":43.29573,"lon":5.37513,"is_reserved":false,"is_disabled":false,"rental_uris":{"android":"levelo://app?vid=7223f9ed-9d66-4580-a350-ca28c74a1898","ios":"levelo://app?vid=7223f9ed-9d66-4580-a350-ca28c74a1898"},"vehicle_type_id":"4","last_reported":1745658528,"current_range_meters":23200,"station_id":"ce4bgh92rcd13ifvqb50","pricing_plan_id":"cebpf4jnsgd1na2vs0mg"},{"bike_id":"d6999195-178c-4476-a936-af0075db78bc","system_id":"levelo_inurba_marseille","lat":43.21193,"lon":5.3506,"is_reserved":false,"is_disabled":false,"rental_uris":{"android":"levelo://app?vid=d6999195-178c-4476-a936-af0075db78bc","ios":"levelo://app?vid=d6999195-178c-4476-a936-af0075db78bc"},"vehicle_type_id":"4","last_reported":1745658528,"current_range_meters":23200,"station_id":"st_cvj6sg6p6f1abm77japg","pricing_plan_id":"cebpf4jnsgd1na2vs0mg"},{"bike_id":"ab157b9a-f413-4283-9896-461bb1b27942","system_id":"levelo_inurba_marseille","lat":43.3301,"lon":5.39003,"is_reserved":false,"is_disabled":false,"rental_uris":{"android":"levelo://app?vid=ab157b9a-f413-4283-9896-461bb1b27942","ios":"levelo://app?vid=ab157b9a-f413-4283-9896-461bb1b27942"},"vehicle_type_id":"4","last_reported":1745658528,"current_range_meters":23200,"station_id":"ce4bhr92rcd13ifvqhrg","pricing_plan_id":"cebpf4jnsgd1na2vs0mg"},{"bike_id":"d2adc353-fb2b-494f-9764-7cfe4ec6f60c","system_id":"levelo_inurba_marseille","lat":43.24683,"lon":5.38179,"is_reserved":false,"is_disabled":false,"rental_uris":{"android":"levelo://app?vid=d2adc353-fb2b-494f-9764-7cfe4ec6f60c","ios":"levelo://app?vid=d2adc353-fb2b-494f-9764-7cfe4ec6f60c"},"vehicle_type_id":"4","last_reported":1745658528,"current_range_meters":23200,"station_id":"ce4bhih2rcd13ifvqfr0","pricing_plan_id":"cebpf4jnsgd1na2vs0mg"},{"bike_id":"dccf8318-29b6-4fb5-94cb-7502af5aba3d","system_id":"levelo_inurba_marseille","lat":43.21198,"lon":5.35061,"is_reserved":false,"is_disabled":false,"rental_uris":{"android":"levelo://app?vid=dccf8318-29b6-4fb5-94cb-7502af5aba3d","ios":"levelo://app?vid=dccf8318-29b6-4fb5-94cb-7502af5aba3d"},"vehicle_type_id":"4","last_reported":1745658528,"current_range_meters":23200,"station_id":"st_cvj6sg6p6f1abm77japg","pricing_plan_id":"cebpf4jnsgd1na2vs0mg"},{"bike_id":"0af97b8e-3e93-4ce9-af28-6d33bd7516c3","system_id":"levelo_inurba_marseille","lat":43.30928,"lon":5.40144,"is_reserved":false,"is_disabled":false,"rental_uris":{"android":"levelo://app?vid=0af97b8e-3e93-4ce9-af28-6d33bd7516c3","ios":"levelo://app?vid=0af97b8e-3e93-4ce9-af28-6d33bd7516c3"},"vehicle_type_id":"4","last_reported":1745658528,"current_range_meters":23200,"station_id":"ce4bgvp2rcd13ifvqct0","pricing_plan_id":"cebpf4jnsgd1na2vs0mg"},{"bike_id":"350f984d-80bf-4965-931f-7c68f14da2ef","system_id":"levelo_inurba_marseille","lat":43.24073,"lon":5.37759,"is_reserved":false,"is_disabled":false,"rental_uris":{"android":"levelo://app?vid=350f984d-80bf-4965-931f-7c68f14da2ef","ios":"levelo://app?vid=350f984d-80bf-4965-931f-7c68f14da2ef"},"vehicle_type_id":"4","last_reported":1745658528,"current_range_meters":23200,"station_id":"ce4bhnp2rcd13ifvqgvg","pricing_plan_id":"cebpf4jnsgd1na2vs0mg"},{"bike_id":"1402c1de-de06-4a20-9869-46a6e4252a53","system_id":"levelo_inurba_marseille","lat":43.231998,"lon":5.355536,"is_reserved":false,"is_disabled":false,"rental_uris":{"android":"levelo://app?vid=1402c1de-de06-4a20-9869-46a6e4252a53","ios":"levelo://app?vid=1402c1de-de06-4a20-9869-46a6e4252a53"},"vehicle_type_id":"4","last_reported":1745658528,"current_range_meters":23200,"station_id":"ce4bhu92rcd13ifvqi70","pricing_plan_id":"cebpf4jnsgd1na2vs0mg"},{"bike_id":"f2c8f8ca-f80e-42a8-8589-6e61e85da34f","system_id":"levelo_inurba_marseille","lat":43.30927,"lon":5.4014,"is_reserved":false,"is_disabled":false,"rental_uris":{"android":"levelo://app?vid=f2c8f8ca-f80e-42a8-8589-6e61e85da34f","ios":"levelo://app?vid=f2c8f8ca-f80e-42a8-8589-6e61e85da34f"},"vehicle_type_id":"4","last_reported":1745658528,"current_range_meters":22800,"station_id":"ce4bgvp2rcd13ifvqct0","pricing_plan_id":"cebpf4jnsgd1na2vs0mg"},{"bike_id":"116ee51f-5f3b-4bea-ad6f-3169f8e13dea","system_id":"levelo_inurba_marseille","lat":43.24999,"lon":5.38928,"is_reserved":false,"is_disabled":false,"rental_uris":{"android":"levelo://app?vid=116ee51f-5f3b-4bea-ad6f-3169f8e13dea","ios":"levelo://app?vid=116ee51f-5f3b-4bea-ad6f-3169f8e13dea"},"vehicle_type_id":"4","last_reported":1745658528,"current_range_meters":23200,"station_id":"ce4bhgp2rcd13ifvqfd0","pricing_plan_id":"cebpf4jnsgd1na2vs0mg"},{"bike_id":"f39b1890-20e3-42f6-b633-056b8868fd7e","system_id":"levelo_inurba_marseille","lat":43.30455,"lon":5.37889,"is_reserved":false,"is_disabled":false,"rental_uris":{"android":"levelo://app?vid=f39b1890-20e3-42f6-b633-056b8868fd7e","ios":"levelo://app?vid=f39b1890-20e3-42f6-b633-056b8868fd7e"},"vehicle_type_id":"4","last_reported":1745658528,"current_range_meters":24000,"station_id":"ce4bgup2rcd13ifvqcn0","pricing_plan_id":"cebpf4jnsgd1na2vs0mg"},{"bike_id":"32dc0434-8920-40d2-87c0-c86a687c634e","system_id":"levelo_inurba_marseille","lat":43.33579,"lon":5.40985,"is_reserved":false,"is_disabled":false,"rental_uris":{"android":"levelo://app?vid=32dc0434-8920-40d2-87c0-c86a687c634e","ios":"levelo://app?vid=32dc0434-8920-40d2-87c0-c86a687c634e"},"vehicle_type_id":"4","last_reported":1745658528,"current_range_meters":24000,"station_id":"","pricing_plan_id":"cebpf4jnsgd1na2vs0mg"},{"bike_id":"2b90adc1-44b0-48de-9496-d27723c6263e","system_id":"levelo_inurba_marseille","lat":43.21196,"lon":5.35067,"is_reserved":false,"is_disabled":false,"rental_uris":{"android":"levelo://app?vid=2b90adc1-44b0-48de-9496-d27723c6263e","ios":"levelo://app?vid=2b90adc1-44b0-48de-9496-d27723c6263e"},"vehicle_type_id":"4","last_reported":1745658528,"current_range_meters":24000,"station_id":"st_cvj6sg6p6f1abm77japg","pricing_plan_id":"cebpf4jnsgd1na2vs0mg"},{"bike_id":"2d616cde-d1e2-414d-8662-9ae1efbf98e8","system_id":"levelo_inurba_marseille","lat":43.301869,"lon":5.366316,"is_reserved":false,"is_disabled":false,"rental_uris":{"android":"levelo://app?vid=2d616cde-d1e2-414d-8662-9ae1efbf98e8","ios":"levelo://app?vid=2d616cde-d1e2-414d-8662-9ae1efbf98e8"},"vehicle_type_id":"4","last_reported":1745658528,"current_range_meters":24000,"station_id":"ce4bgrh2rcd13ifvqc8g","pricing_plan_id":"cebpf4jnsgd1na2vs0mg"},{"bike_id":"04247211-d7d7-476f-af03-54a75b65a7a2","system_id":"levelo_inurba_marseille","lat":43.28351,"lon":5.38105,"is_reserved":false,"is_disabled":false,"rental_uris":{"android":"levelo://app?vid=04247211-d7d7-476f-af03-54a75b65a7a2","ios":"levelo://app?vid=04247211-d7d7-476f-af03-54a75b65a7a2"},"vehicle_type_id":"4","last_reported":1745658528,"current_range_meters":24000,"station_id":"ce4bh412rcd13ifvqdr0","pricing_plan_id":"cebpf4jnsgd1na2vs0mg"},{"bike_id":"97fd7a4c-36e8-401d-b12d-1b4015a01ebe","system_id":"levelo_inurba_marseille","lat":43.2657,"lon":5.42086,"is_reserved":false,"is_disabled":false,"rental_uris":{"android":"levelo://app?vid=97fd7a4c-36e8-401d-b12d-1b4015a01ebe","ios":"levelo://app?vid=97fd7a4c-36e8-401d-b12d-1b4015a01ebe"},"vehicle_type_id":"4","last_reported":1745658528,"current_range_meters":24000,"station_id":"","pricing_plan_id":"cebpf4jnsgd1na2vs0mg"},{"bike_id":"26d41df7-d000-460f-9c6a-024dc9f7192a","system_id":"levelo_inurba_marseille","lat":43.31481,"lon":5.373,"is_reserved":false,"is_disabled":false,"rental_uris":{"android":"levelo://app?vid=26d41df7-d000-460f-9c6a-024dc9f7192a","ios":"levelo://app?vid=26d41df7-d000-460f-9c6a-024dc9f7192a"},"vehicle_type_id":"4","last_reported":1745658528,"current_range_meters":24400,"station_id":"ce4bgt12rcd13ifvqcd0","pricing_plan_id":"cebpf4jnsgd1na2vs0mg"},{"bike_id":"242b9938-dbe9-4415-90d8-bebad8ab56f1","system_id":"levelo_inurba_marseille","lat":43.34148,"lon":5.40909,"is_reserved":false,"is_disabled":false,"rental_uris":{"android":"levelo://app?vid=242b9938-dbe9-4415-90d8-bebad8ab56f1","ios":"levelo://app?vid=242b9938-dbe9-4415-90d8-bebad8ab56f1"},"vehicle_type_id":"4","last_reported":1745658528,"current_range_meters":24000,"station_id":"ce4bhqh2rcd13ifvqhlg","pricing_plan_id":"cebpf4jnsgd1na2vs0mg"},{"bike_id":"b62776bd-ff80-4d57-a8f1-30ec94d3e581","system_id":"levelo_inurba_marseille","lat":43.286682,"lon":5.386788,"is_reserved":false,"is_disabled":false,"rental_uris":{"android":"levelo://app?vid=b62776bd-ff80-4d57-a8f1-30ec94d3e581","ios":"levelo://app?vid=b62776bd-ff80-4d57-a8f1-30ec94d3e581"},"vehicle_type_id":"4","last_reported":1745658528,"current_range_meters":24000,"station_id":"ce4bh492rcd13ifvqdug","pricing_plan_id":"cebpf4jnsgd1na2vs0mg"},{"bike_id":"29d6e187-1a91-41d0-b4f3-593ee8448e91","system_id":"levelo_inurba_marseille","lat":43.26782,"lon":5.39414,"is_reserved":false,"is_disabled":false,"rental_uris":{"android":"levelo://app?vid=29d6e187-1a91-41d0-b4f3-593ee8448e91","ios":"levelo://app?vid=29d6e187-1a91-41d0-b4f3-593ee8448e91"},"vehicle_type_id":"4","last_reported":1745658528,"current_range_meters":24400,"station_id":"ce4bhh12rcd13ifvqfg0","pricing_plan_id":"cebpf4jnsgd1na2vs0mg"},{"bike_id":"64691eb7-1a04-4bbe-b8ba-1db64894f208","system_id":"levelo_inurba_marseille","lat":43.24648,"lon":5.38898,"is_reserved":false,"is_disabled":false,"rental_uris":{"android":"levelo://app?vid=64691eb7-1a04-4bbe-b8ba-1db64894f208","ios":"levelo://app?vid=64691eb7-1a04-4bbe-b8ba-1db64894f208"},"vehicle_type_id":"4","last_reported":1745658528,"current_range_meters":24400,"station_id":"ce4bhg12rcd13ifvqf60","pricing_plan_id":"cebpf4jnsgd1na2vs0mg"},{"bike_id":"f2ad548a-b885-49f7-802c-6af835d45ebe","system_id":"levelo_inurba_marseille","lat":43.23966,"lon":5.3663,"is_reserved":false,"is_disabled":false,"rental_uris":{"android":"levelo://app?vid=f2ad548a-b885-49f7-802c-6af835d45ebe","ios":"levelo://app?vid=f2ad548a-b885-49f7-802c-6af835d45ebe"},"vehicle_type_id":"4","last_reported":1745658528,"current_range_meters":24400,"station_id":"ce4bhi12rcd13ifvqfp0","pricing_plan_id":"cebpf4jnsgd1na2vs0mg"},{"bike_id":"2df966ad-2ef7-47df-a76e-2dfd5afc735c","system_id":"levelo_inurba_marseille","lat":43.311181,"lon":5.377593,"is_reserved":false,"is_disabled":false,"rental_uris":{"android":"levelo://app?vid=2df966ad-2ef7-47df-a76e-2dfd5afc735c","ios":"levelo://app?vid=2df966ad-2ef7-47df-a76e-2dfd5afc735c"},