{"last_updated":1716728831,"ttl":30,"version":"2.2","data":{"bikes":[{"bike_id":"58caa6cc-1997-40a9-91ab-a36c91b50ffe","system_id":"levelo_inurba_marseille","lat":43.31341,"lon":5.367098,"is_reserved":false,"is_disabled":false,"rental_uris":{"android":"levelo://app?vid=58caa6cc-1997-40a9-91ab-a36c91b50ffe","ios":"levelo://app?vid=58caa6cc-1997-40a9-91ab-a36c91b50ffe"},"vehicle_type_id":"4","last_reported":1716728831,"current_range_meters":21200,"station_id":"ce4bgr92rcd13ifvqc6g","pricing_plan_id":"cebpf4jnsgd1na2vs0mg"},{"bike_id":"8e0f648f-eee9-4719-a93c-9efbb370a5db","system_id":"levelo_inurba_marseille","lat":43.31341,"lon":5.367098,"is_reserved":false,"is_disabled":false,"rental_uris":{"android":"levelo://app?vid=8e0f648f-eee9-4719-a93c-9efbb370a5db","ios":"levelo://app?vid=8e0f648f-eee9-4719-a93c-9efbb370a5db"},"vehicle_type_id":"4","last_reported":1716728831,"current_range_meters":20400,"station_id":"ce4bgr92rcd13ifvqc6g","pricing_plan_id":"cebpf4jnsgd1na2vs0mg"},{"bike_id":"dfe77dfa-8cb6-4e75-9211-9b8039266f5c","system_id":"levelo_inurba_marseille","lat":43.312239,"lon":5.368562,"is_reserved":false,"is_disabled":false,"rental_uris":{"android":"levelo://app?vid=dfe77dfa-8cb6-4e75-9211-9b8039266f5c","ios":"levelo://app?vid=dfe77dfa-8cb6-4e75-9211-9b8039266f5c"},"vehicle_type_id":"4","last_reported":1716728831,"current_range_meters":26800,"station_id":"ce4bgl92rcd13ifvqbq0","pricing_plan_id":"cebpf4jnsgd1na2vs0mg"},{"bike_id":"a5ea7322-8cc0-4080-bb9b-9b973f392def","system_id":"levelo_inurba_marseille","lat":43.312239,"lon":5.368562,"is_reserved":false,"is_disabled":false,"rental_uris":{"android":"levelo://app?vid=a5ea7322-8cc0-4080-bb9b-9b973f392def","ios":"levelo://app?vid=a5ea7322-8cc0-4080-bb9b-9b973f392def"},"vehicle_type_id":"4","last_reported":1716728831,"current_range_meters":22000,"station_id":"ce4bgl92rcd13ifvqbq0","pricing_plan_id":"cebpf4jnsgd1na2vs0mg"},{"bike_id":"3ee20889-3f08-4631-8897-a683971fbab5","system_id":"levelo_inurba_marseille","lat":43.312239,"lon":5.368562,"is_reserved":false,"is_disabled":false,"rental_uris":{"android":"levelo://app?vid=3ee20889-3f08-4631-8897-a683971fbab5","ios":"levelo://app?vid=3ee20889-3f08-4631-8897-a683971fbab5"},"vehicle_type_id":"4","last_reported":1716728831,"current_range_meters":10000,"station_id":"ce4bgl92rcd13ifvqbq0","pricing_plan_id":"cebpf4jnsgd1na2vs0mg"},{"bike_id":"47163bb2-592e-40e8-854f-ddee48868ba6","system_id":"levelo_inurba_marseille","lat":43.312315,"lon":5.368665,"is_reserved":false,"is_disabled":false,"rental_uris":{"android":"levelo://app?vid=47163bb2-592e-40e8-854f-ddee48868ba6","ios":"levelo://app?vid=47163bb2-592e-40e8-854f-ddee48868ba6"},"vehicle_type_id":"4","last_reported":1716728831,"current_range_meters":12400,"station_id":"ce4bgl92rcd13ifvqbq0","pricing_plan_id":"cebpf4jnsgd1na2vs0mg"},{"bike_id":"0d9ac779-4bc4-4f4d-9c9d-c843fac090ab","system_id":"levelo_inurba_marseille","lat":43.312203,"lon":5.368613,"is_reserved":false,"is_disabled":false,"rental_uris":{"android":"levelo://app?vid=0d9ac779-4bc4-4f4d-9c9d-c843fac090ab","ios":"levelo://app?vid=0d9ac779-4bc4-4f4d-9c9d-c843fac090ab"},"vehicle_type_id":"4","last_reported":1716728831,"current_range_meters":19200,"station_id":"ce4bgl92rcd13ifvqbq0","pricing_plan_id":"cebpf4jnsgd1na2vs0mg"},{"bike_id":"adba9d91-ce63-4b8e-b7b6-ba292c8733eb","system_id":"levelo_inurba_marseille","lat":43.312239,"lon":5.368562,"is_reserved":false,"is_disabled":false,"rental_uris":{"android":"levelo://app?vid=adba9d91-ce63-4b8e-b7b6-ba292c8733eb","ios":"levelo://app?vid=adba9d91-ce63-4b8e-b7b6-ba292c8733eb"},"vehicle_type_id":"4","last_reported":1716728831,"current_range_meters":0,"station_id":"ce4bgl92rcd13ifvqbq0","pricing_plan_id":"cebpf4jnsgd1na2vs0mg"},{"bike_id":"47b894d2-c859-41cb-a3b1-4e0f9942e7e0","system_id":"levelo_inurba_marseille","lat":43.314811,"lon":5.373103,"is_reserved":false,"is_disabled":false,"rental_uris":{"android":"levelo://app?vid=47b894d2-c859-41cb-a3b1-4e0f9942e7e0","ios":"levelo://app?vid=47b894d2-c859-41cb-a3b1-4e0f9942e7e0"},"vehicle_type_id":"4","last_reported":1716728831,"current_range_meters":15200,"station_id":"ce4bgt12rcd13ifvqcd0","pricing_plan_id":"cebpf4jnsgd1na2vs0mg"},{"bike_id":"e43c71e9-9097-4195-b6d5-a2ea79bfe5c8","system_id":"levelo_inurba_marseille","lat":43.31501,"lon":5.37303,"is_reserved":false,"is_disabled":false,"rental_uris":{"android":"levelo://app?vid=e43c71e9-9097-4195-b6d5-a2ea79bfe5c8","ios":"levelo://app?vid=e43c71e9-9097-4195-b6d5-a2ea79bfe5c8"},"vehicle_type_id":"4","last_reported":1716728831,"current_range_meters":26400,"station_id":"ce4bgt12rcd13ifvqcd0","pricing_plan_id":"cebpf4jnsgd1na2vs0mg"},{"bike_id":"a909fab4-363a-481c-8a69-45df098ebe7c","system_id":"levelo_inurba_marseille","lat":43.314811,"lon":5.373104,"is_reserved":false,"is_disabled":false,"rental_uris":{"android":"levelo://app?vid=a909fab4-363a-481c-8a69-45df098ebe7c","ios":"levelo://app?vid=a909fab4-363a-481c-8a69-45df098ebe7c"},"vehicle_type_id":"4","last_reported":1716728831,"current_range_meters":6000,"station_id":"ce4bgt12rcd13ifvqcd0","pricing_plan_id":"cebpf4jnsgd1na2vs0mg"},{"bike_id":"e83b75b8-2e5d-42a1-801d-89360f52f08d","system_id":"levelo_inurba_marseille","lat":43.309034,"lon":5.371783,"is_reserved":false,"is_disabled":false,"rental_uris":{"android":"levelo://app?vid=e83b75b8-2e5d-42a1-801d-89360f52f08d","ios":"levelo://app?vid=e83b75b8-2e5d-42a1-801d-89360f52f08d"},"vehicle_type_id":"4","last_reported":1716728831,"current_range_meters":12800,"station_id":"ce4bguh2rcd13ifvqckg","pricing_plan_id":"cebpf4jnsgd1na2vs0mg"},{"bike_id":"828c1858-c71c-43d1-a1c3-9f688b7c40cf","system_id":"levelo_inurba_marseille","lat":43.309034,"lon":5.371783,"is_reserved":false,"is_disabled":false,"rental_uris":{"android":"levelo://app?vid=828c1858-c71c-43d1-a1c3-9f688b7c40cf","ios":"levelo://app?vid=828c1858-c71c-43d1-a1c3-9f688b7c40cf"},"vehicle_type_id":"4","last_reported":1716728831,"current_range_meters":31200,"station_id":"ce4bguh2rcd13ifvqckg","pricing_plan_id":"cebpf4jnsgd1na2vs0mg"},{"bike_id":"79fe80b2-393c-4eeb-bf10-3d4dc08824dd","system_id":"levelo_inurba_marseille","lat":43.309034,"lon":5.371783,"is_reserved":false,"is_disabled":false,"rental_uris":{"android":"levelo://app?vid=79fe80b2-393c-4eeb-bf10-3d4dc08824dd","ios":"levelo://app?vid=79fe80b2-393c-4eeb-bf10-3d4dc08824dd"},"vehicle_type_id":"4","last_reported":1716728831,"current_range_meters":0,"station_id":"ce4bguh2rcd13ifvqckg","pricing_plan_id":"cebpf4jnsgd1na2vs0mg"},{"bike_id":"5ff9eae2-3fba-4d53-8682-80ca02946511","system_id":"levelo_inurba_marseille","lat":43.30537,"lon":5.367345,"is_reserved":false,"is_disabled":false,"rental_uris":{"android":"levelo://app?vid=5ff9eae2-3fba-4d53-8682-80ca02946511","ios":"levelo://app?vid=5ff9eae2-3fba-4d53-8682-80ca02946511"},"vehicle_type_id":"4","last_reported":1716728831,"current_range_meters":2400,"station_id":"ce4bgrp2rcd13ifvqc9g","pricing_plan_id":"cebpf4jnsgd1na2vs0mg"},{"bike_id":"7ec45acd-70b4-4cf9-af4e-5c56e2ddfe10","system_id":"levelo_inurba_marseille","lat":43.3054,"lon":5.36692,"is_reserved":false,"is_disabled":false,"rental_uris":{"android":"levelo://app?vid=7ec45acd-70b4-4cf9-af4e-5c56e2ddfe10","ios":"levelo://app?vid=7ec45acd-70b4-4cf9-af4e-5c56e2ddfe10"},"vehicle_type_id":"4","last_reported":1716728831,"current_range_meters":0,"station_id":"ce4bgrp2rcd13ifvqc9g","pricing_plan_id":"cebpf4jnsgd1na2vs0mg"},{"bike_id":"08ac899d-bdb6-4899-9917-672d34c8db9d","system_id":"levelo_inurba_marseille","lat":43.307945,"lon":5.376487,"is_reserved":false,"is_disabled":false,"rental_uris":{"android":"levelo://app?vid=08ac899d-bdb6-4899-9917-672d34c8db9d","ios":"levelo://app?vid=08ac899d-bdb6-4899-9917-672d34c8db9d"},"vehicle_type_id":"4","last_reported":1716728831,"current_range_meters":1200,"station_id":"ce4bgv92rcd13ifvqcq0","pricing_plan_id":"cebpf4jnsgd1na2vs0mg"},{"bike_id":"87580193-240a-419d-ba05-98212bcbf939","system_id":"levelo_inurba_marseille","lat":43.305706,"lon":5.365654,"is_reserved":false,"is_disabled":false,"rental_uris":{"android":"levelo://app?vid=87580193-240a-419d-ba05-98212bcbf939","ios":"levelo://app?vid=87580193-240a-419d-ba05-98212bcbf939"},"vehicle_type_id":"4","last_reported":1716728831,"current_range_meters":21600,"station_id":"ce4bgs12rcd13ifvqcag","pricing_plan_id":"cebpf4jnsgd1na2vs0mg"},{"bike_id":"b062c8c7-9892-4177-91b2-94f944bb907f","system_id":"levelo_inurba_marseille","lat":43.30523,"lon":5.365308,"is_reserved":false,"is_disabled":false,"rental_uris":{"android":"levelo://app?vid=b062c8c7-9892-4177-91b2-94f944bb907f","ios":"levelo://app?vid=b062c8c7-9892-4177-91b2-94f944bb907f"},"vehicle_type_id":"4","last_reported":1716728831,"current_range_meters":0,"station_id":"","pricing_plan_id":"cebpf4jnsgd1na2vs0mg"},{"bike_id":"282bbbde-25c7-4501-a56e-ef26bf0ef3dc","system_id":"levelo_inurba_marseille","lat":43.307945,"lon":5.376487,"is_reserved":false,"is_disabled":false,"rental_uris":{"android":"levelo://app?vid=282bbbde-25c7-4501-a56e-ef26bf0ef3dc","ios":"levelo://app?vid=282bbbde-25c7-4501-a56e-ef26bf0ef3dc"},"vehicle_type_id":"4","last_reported":1716728831,"current_range_meters":16400,"station_id":"ce4bgv92rcd13ifvqcq0","pricing_plan_id":"cebpf4jnsgd1na2vs0mg"},{"bike_id":"085f8808-1d82-4a31-a42a-8e58df7e3717","system_id":"levelo_inurba_marseille","lat":43.305989,"lon":5.37225,"is_reserved":false,"is_disabled":false,"rental_uris":{"android":"levelo://app?vid=085f8808-1d82-4a31-a42a-8e58df7e3717","ios":"levelo://app?vid=085f8808-1d82-4a31-a42a-8e58df7e3717"},"vehicle_type_id":"4","last_reported":1716728831,"current_range_meters":31200,"station_id":"ce4bgqh2rcd13ifvqc4g","pricing_plan_id":"cebpf4jnsgd1na2vs0mg"},{"bike_id":"2b074f7a-b295-4840-8840-005b64db0ffb","system_id":"levelo_inurba_marseille","lat":43.305706,"lon":5.365654,"is_reserved":false,"is_disabled":false,"rental_uris":{"android":"levelo://app?vid=2b074f7a-b295-4840-8840-005b64db0ffb","ios":"levelo://app?vid=2b074f7a-b295-4840-8840-005b64db0ffb"},"vehicle_type_id":"4","last_reported":1716728831,"current_range_meters":19600,"station_id":"ce4bgs12rcd13ifvqcag","pricing_plan_id":"cebpf4jnsgd1na2vs0mg"},{"bike_id":"63f9a371-f32f-48e0-86f2-fc4bd1f7c60f","system_id":"levelo_inurba_marseille","lat":43.311131,"lon":5.377651,"is_reserved":false,"is_disabled":false,"rental_uris":{"android":"levelo://app?vid=63f9a371-f32f-48e0-86f2-fc4bd1f7c60f","ios":"levelo://app?vid=63f9a371-f32f-48e0-86f2-fc4bd1f7c60f"},"vehicle_type_id":"4","last_reported":1716728831,"current_range_meters":12400,"station_id":"ce4bgt92rcd13ifvqcg0","pricing_plan_id":"cebpf4jnsgd1na2vs0mg"},{"bike_id":"8f83700a-2bea-40c0-967f-e39c8a513ee2","system_id":"levelo_inurba_marseille","lat":43.307945,"lon":5.376487,"is_reserved":false,"is_disabled":false,"rental_uris":{"android":"levelo://app?vid=8f83700a-2bea-40c0-967f-e39c8a513ee2","ios":"levelo://app?vid=8f83700a-2bea-40c0-967f-e39c8a513ee2"},"vehicle_type_id":"4","last_reported":1716728831,"current_range_meters":7600,"station_id":"ce4bgv92rcd13ifvqcq0","pricing_plan_id":"cebpf4jnsgd1na2vs0mg"},{"bike_id":"63521c5c-e07c-412f-9749-0f8af38f9527","system_id":"levelo_inurba_marseille","lat":43.307945,"lon":5.376487,"is_reserved":false,"is_disabled":false,"rental_uris":{"android":"levelo://app?vid=63521c5c-e07c-412f-9749-0f8af38f9527","ios":"levelo://app?vid=63521c5c-e07c-412f-9749-0f8af38f9527"},"vehicle_type_id":"4","last_reported":1716728831,"current_range_meters":10000,"station_id":"ce4bgv92rcd13ifvqcq0","pricing_plan_id":"cebpf4jnsgd1na2vs0mg"},{"bike_id":"30d434e2-5c49-4615-8de3-00b6f766fd16","system_id":"levelo_inurba_marseille","lat":43.307945,"lon":5.376487,"is_reserved":false,"is_disabled":false,"rental_uris":{"android":"levelo://app?vid=30d434e2-5c49-4615-8de3-00b6f766fd16","ios":"levelo://app?vid=30d434e2-5c49-4615-8de3-00b6f766fd16"},"vehicle_type_id":"4","last_reported":1716728831,"current_range_meters":21600,"station_id":"ce4bgv92rcd13ifvqcq0","pricing_plan_id":"cebpf4jnsgd1na2vs0mg"},{"bike_id":"ed08575a-4984-44c8-bed5-31b97e1ac2b7","system_id":"levelo_inurba_marseille","lat":43.30792,"lon":5.3766,"is_reserved":false,"is_disabled":false,"rental_uris":{"android":"levelo://app?vid=ed08575a-4984-44c8-bed5-31b97e1ac2b7","ios":"levelo://app?vid=ed08575a-4984-44c8-bed5-31b97e1ac2b7"},"vehicle_type_id":"4","last_reported":1716728831,"current_range_meters":13200,"station_id":"ce4bgv92rcd13ifvqcq0","pricing_plan_id":"cebpf4jnsgd1na2vs0mg"},{"bike_id":"e185d042-b113-43b0-be4b-ae5eef04871e","system_id":"levelo_inurba_marseille","lat":43.317075,"lon":5.377367,"is_reserved":false,"is_disabled":false,"rental_uris":{"android":"levelo://app?vid=e185d042-b113-43b0-be4b-ae5eef04871e","ios":"levelo://app?vid=e185d042-b113-43b0-be4b-ae5eef04871e"},"vehicle_type_id":"4","last_reported":1716728831,"current_range_meters":21600,"station_id":"ce4bgth2rcd13ifvqch0","pricing_plan_id":"cebpf4jnsgd1na2vs0mg"},{"bike_id":"40a01379-f9cd-490e-93d8-cb4975533772","system_id":"levelo_inurba_marseille","lat":43.317075,"lon":5.377367,"is_reserved":false,"is_disabled":false,"rental_uris":{"android":"levelo://app?vid=40a01379-f9cd-490e-93d8-cb4975533772","ios":"levelo://app?vid=40a01379-f9cd-490e-93d8-cb4975533772"},"vehicle_type_id":"4","last_reported":1716728831,"current_range_meters":14400,"station_id":"ce4bgth2rcd13ifvqch0","pricing_plan_id":"cebpf4jnsgd1na2vs0mg"},{"bike_id":"32ac1c9d-cec3-4495-8ecb-707521002e82","system_id":"levelo_inurba_marseille","lat":43.317075,"lon":5.377367,"is_reserved":false,"is_disabled":false,"rental_uris":{"android":"levelo://app?vid=32ac1c9d-cec3-4495-8ecb-707521002e82","ios":"levelo://app?vid=32ac1c9d-cec3-4495-8ecb-707521002e82"},"vehicle_type_id":"4","last_reported":1716728831,"current_range_meters":1200,"station_id":"ce4bgth2rcd13ifvqch0","pricing_plan_id":"cebpf4jnsgd1na2vs0mg"},{"bike_id":"8dd90826-411d-4f61-8b10-b9145950c518","system_id":"levelo_inurba_marseille","lat":43.317075,"lon":5.377367,"is_reserved":false,"is_disabled":false,"rental_uris":{"android":"levelo://app?vid=8dd90826-411d-4f61-8b10-b9145950c518","ios":"levelo://app?vid=8dd90826-411d-4f61-8b10-b9145950c518"},"vehicle_type_id":"4","last_reported":1716728831,"current_range_meters":28400,"station_id":"ce4bgth2rcd13ifvqch0","pricing_plan_id":"cebpf4jnsgd1na2vs0mg"},{"bike_id":"30a3b1f9-55f8-4903-af95-5ca4784e8933","system_id":"levelo_inurba_marseille","lat":43.317075,"lon":5.377367,"is_reserved":false,"is_disabled":false,"rental_uris":{"android":"levelo://app?vid=30a3b1f9-55f8-4903-af95-5ca4784e8933","ios":"levelo://app?vid=30a3b1f9-55f8-4903-af95-5ca4784e8933"},"vehicle_type_id":"4","last_reported":1716728831,"current_range_meters":25200,"station_id":"ce4bgth2rcd13ifvqch0","pricing_plan_id":"cebpf4jnsgd1na2vs0mg"},{"bike_id":"f4af1975-1a29-4db0-82c1-22393b1e1c8a","system_id":"levelo_inurba_marseille","lat":43.317075,"lon":5.377367,"is_reserved":false,"is_disabled":false,"rental_uris":{"android":"levelo://app?vid=f4af1975-1a29-4db0-82c1-22393b1e1c8a","ios":"levelo://app?vid=f4af1975-1a29-4db0-82c1-22393b1e1c8a"},"vehicle_type_id":"4","last_reported":1716728831,"current_range_meters":31200,"station_id":"ce4bgth2rcd13ifvqch0","pricing_plan_id":"cebpf4jnsgd1na2vs0mg"},{"bike_id":"7633e8ac-af07-442c-b848-ef553250623e","system_id":"levelo_inurba_marseille","lat":43.30304,"lon":5.368987,"is_reserved":false,"is_disabled":false,"rental_uris":{"android":"levelo://app?vid=7633e8ac-af07-442c-b848-ef553250623e","ios":"levelo://app?vid=7633e8ac-af07-442c-b848-ef553250623e"},"vehicle_type_id":"4","last_reported":1716728831,"current_range_meters":15200,"station_id":"ce4bgqh2rcd13ifvqc5g","pricing_plan_id":"cebpf4jnsgd1na2vs0mg"},{"bike_id":"57e3743d-65f0-4e43-a36e-48375f8f1731","system_id":"levelo_inurba_marseille","lat":43.303046,"lon":5.368981,"is_reserved":false,"is_disabled":false,"rental_uris":{"android":"levelo://app?vid=57e3743d-65f0-4e43-a36e-48375f8f1731","ios":"levelo://app?vid=57e3743d-65f0-4e43-a36e-48375f8f1731"},"vehicle_type_id":"4","last_reported":1716728831,"current_range_meters":10000,"station_id":"ce4bgqh2rcd13ifvqc5g","pricing_plan_id":"cebpf4jnsgd1na2vs0mg"},{"bike_id":"bf5e29b9-5677-420d-bfdc-8066e3c43cd5","system_id":"levelo_inurba_marseille","lat":43.315289,"lon":5.380349,"is_reserved":false,"is_disabled":false,"rental_uris":{"android":"levelo://app?vid=bf5e29b9-5677-420d-bfdc-8066e3c43cd5","ios":"levelo://app?vid=bf5e29b9-5677-420d-bfdc-8066e3c43cd5"},"vehicle_type_id":"4","last_reported":1716728831,"current_range_meters":9600,"station_id":"ce4bhsp2rcd13ifvqi50","pricing_plan_id":"cebpf4jnsgd1na2vs0mg"},{"bike_id":"edadceef-508d-4a5d-8edb-39a0d97be142","system_id":"levelo_inurba_marseille","lat":43.315382,"lon":5.380342,"is_reserved":false,"is_disabled":false,"rental_uris":{"android":"levelo://app?vid=edadceef-508d-4a5d-8edb-39a0d97be142","ios":"levelo://app?vid=edadceef-508d-4a5d-8edb-39a0d97be142"},"vehicle_type_id":"4","last_reported":1716728831,"current_range_meters":27200,"station_id":"ce4bhsp2rcd13ifvqi50","pricing_plan_id":"cebpf4jnsgd1na2vs0mg"},{"bike_id":"da82a484-8130-41fe-8f3a-3e786f43f314","system_id":"levelo_inurba_marseille","lat":43.30191,"lon":5.36623,"is_reserved":false,"is_disabled":false,"rental_uris":{"android":"levelo://app?vid=da82a484-8130-41fe-8f3a-3e786f43f314","ios":"levelo://app?vid=da82a484-8130-41fe-8f3a-3e786f43f314"},"vehicle_type_id":"4","last_reported":1716728831,"current_range_meters":18800,"station_id":"","pricing_plan_id":"cebpf4jnsgd1na2vs0mg"},{"bike_id":"ed38837c-dc88-46db-90f8-799b290a007b","system_id":"levelo_inurba_marseille","lat":43.30817,"lon":5.3815,"is_reserved":false,"is_disabled":false,"rental_uris":{"android":"levelo://app?vid=ed38837c-dc88-46db-90f8-799b290a007b","ios":"levelo://app?vid=ed38837c-dc88-46db-90f8-799b290a007b"},"vehicle_type_id":"4","last_reported":1716728831,"current_range_meters":18400,"station_id":"ce4bgt12rcd13ifvqce0","pricing_plan_id":"cebpf4jnsgd1na2vs0mg"},{"bike_id":"5ba57246-381c-42a7-888f-31ff2c231548","system_id":"levelo_inurba_marseille","lat":43.324771,"lon":5.36557,"is_reserved":false,"is_disabled":false,"rental_uris":{"android":"levelo://app?vid=5ba57246-381c-42a7-888f-31ff2c231548","ios":"levelo://app?vid=5ba57246-381c-42a7-888f-31ff2c231548"},"vehicle_type_id":"4","last_reported":1716728831,"current_range_meters":30400,"station_id":"ce4bhs12rcd13ifvqhvg","pricing_plan_id":"cebpf4jnsgd1na2vs0mg"},{"bike_id":"72ba4090-3817-4ac9-a00a-506384b53c7f","system_id":"levelo_inurba_marseille","lat":43.324779,"lon":5.365849,"is_reserved":false,"is_disabled":false,"rental_uris":{"android":"levelo://app?vid=72ba4090-3817-4ac9-a00a-506384b53c7f","ios":"levelo://app?vid=72ba4090-3817-4ac9-a00a-506384b53c7f"},"vehicle_type_id":"4","last_reported":1716728831,"current_range_meters":30800,"station_id":"ce4bhs12rcd13ifvqhvg","pricing_plan_id":"cebpf4jnsgd1na2vs0mg"},{"bike_id":"4b71860f-08ca-44c4-8e6f-d2cf30cc0add","system_id":"levelo_inurba_marseille","lat":43.324771,"lon":5.36557,"is_reserved":false,"is_disabled":false,"rental_uris":{"android":"levelo://app?vid=4b71860f-08ca-44c4-8e6f-d2cf30cc0add","ios":"levelo://app?vid=4b71860f-08ca-44c4-8e6f-d2cf30cc0add"},"vehicle_type_id":"4","last_reported":1716728831,"current_range_meters":20000,"station_id":"ce4bhs12rcd13ifvqhvg","pricing_plan_id":"cebpf4jnsgd1na2vs0mg"},{"bike_id":"0fe1c741-31ef-4c42-ae4f-9fc5e42ec0c2","system_id":"levelo_inurba_marseille","lat":43.324771,"lon":5.36557,"is_reserved":false,"is_disabled":false,"rental_uris":{"android":"levelo://app?vid=0fe1c741-31ef-4c42-ae4f-9fc5e42ec0c2","ios":"levelo://app?vid=0fe1c741-31ef-4c42-ae4f-9fc5e42ec0c2"},"vehicle_type_id":"4","last_reported":1716728831,"current_range_meters":22000,"station_id":"ce4bhs12rcd13ifvqhvg","pricing_plan_id":"cebpf4jnsgd1na2vs0mg"},{"bike_id":"99a35186-da9f-462a-b777-ca5d239a806c","system_id":"levelo_inurba_marseille","lat":43.324771,"lon":5.36557,"is_reserved":false,"is_disabled":false,"rental_uris":{"android":"levelo://app?vid=99a35186-da9f-462a-b777-ca5d239a806c","ios":"levelo://app?vid=99a35186-da9f-462a-b777-ca5d239a806c"},"vehicle_type_id":"4","last_reported":1716728831,"current_range_meters":19200,"station_id":"ce4bhs12rcd13ifvqhvg","pricing_plan_id":"cebpf4jnsgd1na2vs0mg"},{"bike_id":"1e27f010-3bdb-4762-a3d2-70f5517cc08d","system_id":"levelo_inurba_marseille","lat":43.324771,"lon":5.36557,"is_reserved":false,"is_disabled":false,"rental_uris":{"android":"levelo://app?vid=1e27f010-3bdb-4762-a3d2-70f5517cc08d","ios":"levelo://app?vid=1e27f010-3bdb-4762-a3d2-70f5517cc08d"},"vehicle_type_id":"4","last_reported":1716728831,"current_range_meters":28000,"station_id":"ce4bhs12rcd13ifvqhvg","pricing_plan_id":"cebpf4jnsgd1na2vs0mg"},{"bike_id":"71a56a80-db24-465f-af67-8ee54602e2c2","system_id":"levelo_inurba_marseille","lat":43.324771,"lon":5.36557,"is_reserved":false,"is_disabled":false,"rental_uris":{"android":"levelo://app?vid=71a56a80-db24-465f-af67-8ee54602e2c2","ios":"levelo://app?vid=71a56a80-db24-465f-af67-8ee54602e2c2"},"vehicle_type_id":"4","last_reported":1716728831,"current_range_meters":17600,"station_id":"ce4bhs12rcd13ifvqhvg","pricing_plan_id":"cebpf4jnsgd1na2vs0mg"},{"bike_id":"27e218a8-538f-4c3f-9de3-25438fba3434","system_id":"levelo_inurba_marseille","lat":43.324771,"lon":5.36557,"is_reserved":false,"is_disabled":false,"rental_uris":{"android":"levelo://app?vid=27e218a8-538f-4c3f-9de3-25438fba3434","ios":"levelo://app?vid=27e218a8-538f-4c3f-9de3-25438fba3434"},"vehicle_type_id":"4","last_reported":1716728831,"current_range_meters":29200,"station_id":"ce4bhs12rcd13ifvqhvg","pricing_plan_id":"cebpf4jnsgd1na2vs0mg"},{"bike_id":"df9adbed-f2a9-4a89-929f-05e694fcb034","system_id":"levelo_inurba_marseille","lat":43.324771,"lon":5.36557,"is_reserved":false,"is_disabled":false,"rental_uris":{"android":"levelo://app?vid=df9adbed-f2a9-4a89-929f-05e694fcb034","ios":"levelo://app?vid=df9adbed-f2a9-4a89-929f-05e694fcb034"},"vehicle_type_id":"4","last_reported":1716728831,"current_range_meters":7600,"station_id":"ce4bhs12rcd13ifvqhvg","pricing_plan_id":"cebpf4jnsgd1na2vs0mg"},{"bike_id":"c6226c70-7c77-4ee6-b949-fa8a39aa99d8","system_id":"levelo_inurba_marseille","lat":43.324771,"lon":5.36557,"is_reserved":false,"is_disabled":false,"rental_uris":{"android":"levelo://app?vid=c6226c70-7c77-4ee6-b949-fa8a39aa99d8","ios":"levelo://app?vid=c6226c70-7c77-4ee6-b949-fa8a39aa99d8"},"vehicle_type_id":"4","last_reported":1716728831,"current_range_meters":22400,"station_id":"ce4bhs12rcd13ifvqhvg","pricing_plan_id":"cebpf4jnsgd1na2vs0mg"},{"bike_id":"11afafd0-4eff-440f-850c-1e17bea26cdf","system_id":"levelo_inurba_marseille","lat":43.324771,"lon":5.36557,"is_reserved":false,"is_disabled":false,"rental_uris":{"android":"levelo://app?vid=11afafd0-4eff-440f-850c-1e17bea26cdf","ios":"levelo://app?vid=11afafd0-4eff-440f-850c-1e17bea26cdf"},"vehicle_type_id":"4","last_reported":1716728831,"current_range_meters":17600,"station_id":"ce4bhs12rcd13ifvqhvg","pricing_plan_id":"cebpf4jnsgd1na2vs0mg"},{"bike_id":"dfa9439d-0f11-4a7d-b3c7-f7baef6141f9","system_id":"levelo_inurba_marseille","lat":43.310787,"lon":5.383563,"is_reserved":false,"is_disabled":false,"rental_uris":{"android":"levelo://app?vid=dfa9439d-0f11-4a7d-b3c7-f7baef6141f9","ios":"levelo://app?vid=dfa9439d-0f11-4a7d-b3c7-f7baef6141f9"},"vehicle_type_id":"4","last_reported":1716728831,"current_range_meters":0,"station_id":"ce4bgv92rcd13ifvqcr0","pricing_plan_id":"cebpf4jnsgd1na2vs0mg"},{"bike_id":"f8e16074-843a-40a9-93fb-f87d87c3d734","system_id":"levelo_inurba_marseille","lat":43.301429,"lon":5.37413,"is_reserved":false,"is_disabled":false,"rental_uris":{"android":"levelo://app?vid=f8e16074-843a-40a9-93fb-f87d87c3d734","ios":"levelo://app?vid=f8e16074-843a-40a9-93fb-f87d87c3d734"},"vehicle_type_id":"4","last_reported":1716728831,"current_range_meters":4800,"station_id":"ce4bgs92rcd13ifvqcc0","pricing_plan_id":"cebpf4jnsgd1na2vs0mg"},{"bike_id":"36795a9e-ecc4-4924-a949-b651b9b6b564","system_id":"levelo_inurba_marseille","lat":43.313571,"lon":5.384829,"is_reserved":false,"is_disabled":false,"rental_uris":{"android":"levelo://app?vid=36795a9e-ecc4-4924-a949-b651b9b6b564","ios":"levelo://app?vid=36795a9e-ecc4-4924-a949-b651b9b6b564"},"vehicle_type_id":"4","last_reported":1716728831,"current_range_meters":2800,"station_id":"ce4bgt92rcd13ifvqcf0","pricing_plan_id":"cebpf4jnsgd1na2vs0mg"},{"bike_id":"71c0bf64-c068-46c9-b655-2f269fa7e0f2","system_id":"levelo_inurba_marseille","lat":43.313918,"lon":5.384897,"is_reserved":false,"is_disabled":false,"rental_uris":{"android":"levelo://app?vid=71c0bf64-c068-46c9-b655-2f269fa7e0f2","ios":"levelo://app?vid=71c0bf64-c068-46c9-b655-2f269fa7e0f2"},"vehicle_type_id":"4","last_reported":1716728831,"current_range_meters":14800,"station_id":"ce4bgt92rcd13ifvqcf0","pricing_plan_id":"cebpf4jnsgd1na2vs0mg"},{"bike_id":"01f32060-5dfe-4563-a3af-0b33638fa92b","system_id":"levelo_inurba_marseille","lat":43.31356,"lon":5.38494,"is_reserved":false,"is_disabled":false,"rental_uris":{"android":"levelo://app?vid=01f32060-5dfe-4563-a3af-0b33638fa92b","ios":"levelo://app?vid=01f32060-5dfe-4563-a3af-0b33638fa92b"},"vehicle_type_id":"4","last_reported":1716728831,"current_range_meters":28400,"station_id":"ce4bgt92rcd13ifvqcf0","pricing_plan_id":"cebpf4jnsgd1na2vs0mg"},{"bike_id":"bb4c5070-d991-437a-9a16-f670827e9a7f","system_id":"levelo_inurba_marseille","lat":43.31367,"lon":5.38496,"is_reserved":false,"is_disabled":false,"rental_uris":{"android":"levelo://app?vid=bb4c5070-d991-437a-9a16-f670827e9a7f","ios":"levelo://app?vid=bb4c5070-d991-437a-9a16-f670827e9a7f"},"vehicle_type_id":"4","last_reported":1716728831,"current_range_meters":17200,"station_id":"ce4bgt92rcd13ifvqcf0","pricing_plan_id":"cebpf4jnsgd1na2vs0mg"},{"bike_id":"2b14fb2c-2c79-40ed-bd8e-ad70ccec9c28","system_id":"levelo_inurba_marseille","lat":43.313571,"lon":5.384829,"is_reserved":false,"is_disabled":false,"rental_uris":{"android":"levelo://app?vid=2b14fb2c-2c79-40ed-bd8e-ad70ccec9c28","ios":"levelo://app?vid=2b14fb2c-2c79-40ed-bd8e-ad70ccec9c28"},"vehicle_type_id":"4","last_reported":1716728831,"current_range_meters":18400,"station_id":"ce4bgt92rcd13ifvqcf0","pricing_plan_id":"cebpf4jnsgd1na2vs0mg"},{"bike_id":"1b3f0883-8eb7-4aca-a8a8-17646ff29e75","system_id":"levelo_inurba_marseille","lat":43.301429,"lon":5.37413,"is_reserved":false,"is_disabled":false,"rental_uris":{"android":"levelo://app?vid=1b3f0883-8eb7-4aca-a8a8-17646ff29e75","ios":"levelo://app?vid=1b3f0883-8eb7-4aca-a8a8-17646ff29e75"},"vehicle_type_id":"4","last_reported":1716728831,"current_range_meters":23600,"station_id":"ce4bgs92rcd13ifvqcc0","pricing_plan_id":"cebpf4jnsgd1na2vs0mg"},{"bike_id":"ea864d37-c0a4-4414-9373-be3429600f1f","system_id":"levelo_inurba_marseille","lat":43.313606,"lon":5.385068,"is_reserved":false,"is_disabled":false,"rental_uris":{"android":"levelo://app?vid=ea864d37-c0a4-4414-9373-be3429600f1f","ios":"levelo://app?vid=ea864d37-c0a4-4414-9373-be3429600f1f"},"vehicle_type_id":"4","last_reported":1716728831,"current_range_meters":23200,"station_id":"ce4bgt92rcd13ifvqcf0","pricing_plan_id":"cebpf4jnsgd1na2vs0mg"},{"bike_id":"fbf79680-cb97-4e10-947f-9ebd153d0b98","system_id":"levelo_inurba_marseille","lat":43.29936,"lon":5.3655,"is_reserved":false,"is_disabled":false,"rental_uris":{"android":"levelo://app?vid=fbf79680-cb97-4e10-947f-9ebd153d0b98","ios":"levelo://app?vid=fbf79680-cb97-4e10-947f-9ebd153d0b98"},"vehicle_type_id":"4","last_reported":1716728831,"current_range_meters":18800,"station_id":"","pricing_plan_id":"cebpf4jnsgd1na2vs0mg"},{"bike_id":"fc69e182-7e06-48f8-acc4-d35e376d6ba0","system_id":"levelo_inurba_marseille","lat":43.316821,"lon":5.404737,"is_reserved":false,"is_disabled":false,"rental_uris":{"android":"levelo://app?vid=fc69e182-7e06-48f8-acc4-d35e376d6ba0","ios":"levelo://app?vid=fc69e182-7e06-48f8-acc4-d35e376d6ba0"},"vehicle_type_id":"4","last_reported":1716728831,"current_range_meters":4800,"station_id":"ce4bh012rcd13ifvqd00","pricing_plan_id":"cebpf4jnsgd1na2vs0mg"},{"bike_id":"884544cd-a97b-439c-a2a0-3011c5b15d75","system_id":"levelo_inurba_marseille","lat":43.298433,"lon":5.362774,"is_reserved":false,"is_disabled":false,"rental_uris":{"android":"levelo://app?vid=884544cd-a97b-439c-a2a0-3011c5b15d75","ios":"levelo://app?vid=884544cd-a97b-439c-a2a0-3011c5b15d75"},"vehicle_type_id":"4","last_reported":1716728831,"current_range_meters":15600,"station_id":"ce4bgpp2rcd13ifvqc3g","pricing_plan_id":"cebpf4jnsgd1na2vs0mg"},{"bike_id":"6e30025a-956b-4d69-ad69-9bf06c25499c","system_id":"levelo_inurba_marseille","lat":43.298433,"lon":5.362774,"is_reserved":false,"is_disabled":false,"rental_uris":{"android":"levelo://app?vid=6e30025a-956b-4d69-ad69-9bf06c25499c","ios":"levelo://app?vid=6e30025a-956b-4d69-ad69-9bf06c25499c"},"vehicle_type_id":"4","last_reported":1716728831,"current_range_meters":800,"station_id":"ce4bgpp2rcd13ifvqc3g","pricing_plan_id":"cebpf4jnsgd1na2vs0mg"},{"bike_id":"dd745a1a-6de3-4e15-bdcc-652830cfdc28","system_id":"levelo_inurba_marseille","lat":43.298433,"lon":5.362774,"is_reserved":false,"is_disabled":false,"rental_uris":{"android":"levelo://app?vid=dd745a1a-6de3-4e15-bdcc-652830cfdc28","ios":"levelo://app?vid=dd745a1a-6de3-4e15-bdcc-652830cfdc28"},"vehicle_type_id":"4","last_reported":1716728831,"current_range_meters":16800,"station_id":"ce4bgpp2rcd13ifvqc3g","pricing_plan_id":"cebpf4jnsgd1na2vs0mg"},{"bike_id":"7c0279c4-785e-41cc-9875-11b1aa5697b0","system_id":"levelo_inurba_marseille","lat":43.298433,"lon":5.362774,"is_reserved":false,"is_disabled":false,"rental_uris":{"android":"levelo://app?vid=7c0279c4-785e-41cc-9875-11b1aa5697b0","ios":"levelo://app?vid=7c0279c4-785e-41cc-9875-11b1aa5697b0"},"vehicle_type_id":"4","last_reported":1716728831,"current_range_meters":31200,"station_id":"ce4bgpp2rcd13ifvqc3g","pricing_plan_id":"cebpf4jnsgd1na2vs0mg"},{"bike_id":"3b192b41-e3ca-4cd5-95f0-0c71888dc7b2","system_id":"levelo_inurba_marseille","lat":43.305364,"lon":5.384119,"is_reserved":false,"is_disabled":false,"rental_uris":{"android":"levelo://app?vid=3b192b41-e3ca-4cd5-95f0-0c71888dc7b2","ios":"levelo://app?vid=3b192b41-e3ca-4cd5-95f0-0c71888dc7b2"},"vehicle_type_id":"4","last_reported":1716728831,"current_range_meters":28800,"station_id":"ce4bgg92rcd13ifvqb30","pricing_plan_id":"cebpf4jnsgd1na2vs0mg"},{"bike_id":"bab8c62d-142c-423a-b675-d5e2785c6f7b","system_id":"levelo_inurba_marseille","lat":43.298433,"lon":5.362774,"is_reserved":false,"is_disabled":false,"rental_uris":{"android":"levelo://app?vid=bab8c62d-142c-423a-b675-d5e2785c6f7b","ios":"levelo://app?vid=bab8c62d-142c-423a-b675-d5e2785c6f7b"},"vehicle_type_id":"4","last_reported":1716728831,"current_range_meters":1600,"station_id":"ce4bgpp2rcd13ifvqc3g","pricing_plan_id":"cebpf4jnsgd1na2vs0mg"},{"bike_id":"f02c314d-049f-43dd-aa68-3dd7b88a2cf7","system_id":"levelo_inurba_marseille","lat":43.298433,"lon":5.362774,"is_reserved":false,"is_disabled":false,"rental_uris":{"android":"levelo://app?vid=f02c314d-049f-43dd-aa68-3dd7b88a2cf7","ios":"levelo://app?vid=f02c314d-049f-43dd-aa68-3dd7b88a2cf7"},"vehicle_type_id":"4","last_reported":1716728831,"current_range_meters":17200,"station_id":"ce4bgpp2rcd13ifvqc3g","pricing_plan_id":"cebpf4jnsgd1na2vs0mg"},{"bike_id":"ed492a4e-944e-43b3-bd26-4581a8e6f7a8","system_id":"levelo_inurba_marseille","lat":43.297794,"lon":5.370888,"is_reserved":false,"is_disabled":false,"rental_uris":{"android":"levelo://app?vid=ed492a4e-944e-43b3-bd26-4581a8e6f7a8","ios":"levelo://app?vid=ed492a4e-944e-43b3-bd26-4581a8e6f7a8"},"vehicle_type_id":"4","last_reported":1716728831,"current_range_meters":29600,"station_id":"ce4bgop2rcd13ifvqc1g","pricing_plan_id":"cebpf4jnsgd1na2vs0mg"},{"bike_id":"527866fb-40d3-4bb1-9c65-0464d8d76d3c","system_id":"levelo_inurba_marseille","lat":43.322872,"lon":5.382756,"is_reserved":false,"is_disabled":false,"rental_uris":{"android":"levelo://app?vid=527866fb-40d3-4bb1-9c65-0464d8d76d3c","ios":"levelo://app?vid=527866fb-40d3-4bb1-9c65-0464d8d76d3c"},"vehicle_type_id":"4","last_reported":1716728831,"current_range_meters":24800,"station_id":"ce4bhr12rcd13ifvqhqg","pricing_plan_id":"cebpf4jnsgd1na2vs0mg"},{"bike_id":"9642a4b8-0e1b-4030-b7e5-d14102228560","system_id":"levelo_inurba_marseille","lat":43.297163,"lon":5.365866,"is_reserved":false,"is_disabled":false,"rental_uris":{"android":"levelo://app?vid=9642a4b8-0e1b-4030-b7e5-d14102228560","ios":"levelo://app?vid=9642a4b8-0e1b-4030-b7e5-d14102228560"},"vehicle_type_id":"4","last_reported":1716728831,"current_range_meters":2400,"station_id":"ce4bgn12rcd13ifvqbt0","pricing_plan_id":"cebpf4jnsgd1na2vs0mg"},{"bike_id":"80ffe174-cad2-4684-be68-b8926ce6f288","system_id":"levelo_inurba_marseille","lat":43.297163,"lon":5.365866,"is_reserved":false,"is_disabled":false,"rental_uris":{"android":"levelo://app?vid=80ffe174-cad2-4684-be68-b8926ce6f288","ios":"levelo://app?vid=80ffe174-cad2-4684-be68-b8926ce6f288"},"vehicle_type_id":"4","last_reported":1716728831,"current_range_meters":17600,"station_id":"ce4bgn12rcd13ifvqbt0","pricing_plan_id":"cebpf4jnsgd1na2vs0mg"},{"bike_id":"426d3889-a3c2-4bbc-9786-c04941e7261d","system_id":"levelo_inurba_marseille","lat":43.299683,"lon":5.37965,"is_reserved":false,"is_disabled":false,"rental_uris":{"android":"levelo://app?vid=426d3889-a3c2-4bbc-9786-c04941e7261d","ios":"levelo://app?vid=426d3889-a3c2-4bbc-9786-c04941e7261d"},"vehicle_type_id":"4","last_reported":1716728831,"current_range_meters":25200,"station_id":"","pricing_plan_id":"cebpf4jnsgd1na2vs0mg"},{"bike_id":"b0181dbd-d16d-4347-9382-b450da867146","system_id":"levelo_inurba_marseille","lat":43.29657,"lon":5.36162,"is_reserved":false,"is_disabled":false,"rental_uris":{"android":"levelo://app?vid=b0181dbd-d16d-4347-9382-b450da867146","ios":"levelo://app?vid=b0181dbd-d16d-4347-9382-b450da867146"},"vehicle_type_id":"4","last_reported":1716728831,"current_range_meters":4800,"station_id":"","pricing_plan_id":"cebpf4jnsgd1na2vs0mg"},{"bike_id":"0be996ac-8bb0-42f2-a1c5-f53776f6544e","system_id":"levelo_inurba_marseille","lat":43.29573,"lon":5.367355,"is_reserved":false,"is_disabled":false,"rental_uris":{"android":"levelo://app?vid=0be996ac-8bb0-42f2-a1c5-f53776f6544e","ios":"levelo://app?vid=0be996ac-8bb0-42f2-a1c5-f53776f6544e"},"vehicle_type_id":"4","last_reported":1716728831,"current_range_meters":24000,"station_id":"ce4bgph2rcd13ifvqc2g","pricing_plan_id":"cebpf4jnsgd1na2vs0mg"},{"bike_id":"a9bb5316-5d15-4e27-bed2-8ac7912b02a6","system_id":"levelo_inurba_marseille","lat":43.296935,"lon":5.376544,"is_reserved":false,"is_disabled":false,"rental_uris":{"android":"levelo://app?vid=a9bb5316-5d15-4e27-bed2-8ac7912b02a6","ios":"levelo://app?vid=a9bb5316-5d15-4e27-bed2-8ac7912b02a6"},"vehicle_type_id":"4","last_reported":1716728831,"current_range_meters":17600,"station_id":"ce4bgkh2rcd13ifvqbl0","pricing_plan_id":"cebpf4jnsgd1na2vs0mg"},{"bike_id":"20f70a68-f3f6-4264-96d2-bf42d3ce0e41","system_id":"levelo_inurba_marseille","lat":43.296921,"lon":5.376579,"is_reserved":false,"is_disabled":false,"rental_uris":{"android":"levelo://app?vid=20f70a68-f3f6-4264-96d2-bf42d3ce0e41","ios":"levelo://app?vid=20f70a68-f3f6-4264-96d2-bf42d3ce0e41"},"vehicle_type_id":"4","last_reported":1716728831,"current_range_meters":17600,"station_id":"ce4bgkh2rcd13ifvqbl0","pricing_plan_id":"cebpf4jnsgd1na2vs0mg"},{"bike_id":"e2d1cfa8-2b54-4f87-aee5-41defd692730","system_id":"levelo_inurba_marseille","lat":43.317557,"lon":5.390173,"is_reserved":false,"is_disabled":false,"rental_uris":{"android":"levelo://app?vid=e2d1cfa8-2b54-4f87-aee5-41defd692730","ios":"levelo://app?vid=e2d1cfa8-2b54-4f87-aee5-41defd692730"},"vehicle_type_id":"4","last_reported":1716728831,"current_range_meters":0,"station_id":"ce4bhqp2rcd13ifvqhng","pricing_plan_id":"cebpf4jnsgd1na2vs0mg"},{"bike_id":"21c3c783-9809-45c2-8f17-8dc950e24abe","system_id":"levelo_inurba_marseille","lat":43.317557,"lon":5.390173,"is_reserved":false,"is_disabled":false,"rental_uris":{"android":"levelo://app?vid=21c3c783-9809-45c2-8f17-8dc950e24abe","ios":"levelo://app?vid=21c3c783-9809-45c2-8f17-8dc950e24abe"},"vehicle_type_id":"4","last_reported":1716728831,"current_range_meters":28000,"station_id":"ce4bhqp2rcd13ifvqhng","pricing_plan_id":"cebpf4jnsgd1na2vs0mg"},{"bike_id":"a5e23fe4-f90c-46ed-b0c1-dcb5c9122aa1","system_id":"levelo_inurba_marseille","lat":43.298037,"lon":5.381066,"is_reserved":false,"is_disabled":false,"rental_uris":{"android":"levelo://app?vid=a5e23fe4-f90c-46ed-b0c1-dcb5c9122aa1","ios":"levelo://app?vid=a5e23fe4-f90c-46ed-b0c1-dcb5c9122aa1"},"vehicle_type_id":"4","last_reported":1716728831,"current_range_meters":12800,"station_id":"ce4bgip2rcd13ifvqbb0","pricing_plan_id":"cebpf4jnsgd1na2vs0mg"},{"bike_id":"341b5379-6adb-412f-9dc8-21956a3e7313","system_id":"levelo_inurba_marseille","lat":43.295748,"lon":5.37522,"is_reserved":false,"is_disabled":false,"rental_uris":{"android":"levelo://app?vid=341b5379-6adb-412f-9dc8-21956a3e7313","ios":"levelo://app?vid=341b5379-6adb-412f-9dc8-21956a3e7313"},"vehicle_type_id":"4","last_reported":1716728831,"current_range_meters":0,"station_id":"ce4bgh92rcd13ifvqb50","pricing_plan_id":"cebpf4jnsgd1na2vs0mg"},{"bike_id":"01d0abe0-ce17-493c-ad2e-3d21d4f32004","system_id":"levelo_inurba_marseille","lat":43.296277,"lon":5.377108,"is_reserved":false,"is_disabled":false,"rental_uris":{"android":"levelo://app?vid=01d0abe0-ce17-493c-ad2e-3d21d4f32004","ios":"levelo://app?vid=01d0abe0-ce17-493c-ad2e-3d21d4f32004"},"vehicle_type_id":"4","last_reported":1716728831,"current_range_meters":29200,"station_id":"ce4bgi92rcd13ifvqb90","pricing_plan_id":"cebpf4jnsgd1na2vs0mg"},{"bike_id":"f59e1a23-0d4e-4689-a700-120f5990742c","system_id":"levelo_inurba_marseille","lat":43.296263,"lon":5.377094,"is_reserved":false,"is_disabled":false,"rental_uris":{"android":"levelo://app?vid=f59e1a23-0d4e-4689-a700-120f5990742c","ios":"levelo://app?vid=f59e1a23-0d4e-4689-a700-120f5990742c"},"vehicle_type_id":"4","last_reported":1716728831,"current_range_meters":0,"station_id":"ce4bgi92rcd13ifvqb90","pricing_plan_id":"cebpf4jnsgd1na2vs0mg"},{"bike_id":"1a39b9ae-7f74-4666-8077-64c01720a9d4","system_id":"levelo_inurba_marseille","lat":43.296263,"lon":5.377094,"is_reserved":false,"is_disabled":false,"rental_uris":{"android":"levelo://app?vid=1a39b9ae-7f74-4666-8077-64c01720a9d4","ios":"levelo://app?vid=1a39b9ae-7f74-4666-8077-64c01720a9d4"},"vehicle_type_id":"4","last_reported":1716728831,"current_range_meters":400,"station_id":"ce4bgi92rcd13ifvqb90","pricing_plan_id":"cebpf4jnsgd1na2vs0mg"},{"bike_id":"ea5c8d42-c861-4802-a2ac-9f57d3bd183f","system_id":"levelo_inurba_marseille","lat":43.29987,"lon":5.38484,"is_reserved":false,"is_disabled":false,"rental_uris":{"android":"levelo://app?vid=ea5c8d42-c861-4802-a2ac-9f57d3bd183f","ios":"levelo://app?vid=ea5c8d42-c861-4802-a2ac-9f57d3bd183f"},"vehicle_type_id":"4","last_reported":1716728831,"current_range_meters":31600,"station_id":"ce4bgj92rcd13ifvqbd0","pricing_plan_id":"cebpf4jnsgd1na2vs0mg"},{"bike_id":"7cffbe22-7e54-4a61-a216-d08e47776884","system_id":"levelo_inurba_marseille","lat":43.295279,"lon":5.375048,"is_reserved":false,"is_disabled":false,"rental_uris":{"android":"levelo://app?vid=7cffbe22-7e54-4a61-a216-d08e47776884","ios":"levelo://app?vid=7cffbe22-7e54-4a61-a216-d08e47776884"},"vehicle_type_id":"4","last_reported":1716728831,"current_range_meters":5200,"station_id":"ce4bgkp2rcd13ifvqbmg","pricing_plan_id":"cebpf4jnsgd1na2vs0mg"},{"bike_id":"e012fab2-8545-4078-bc02-3487d5ce0f79","system_id":"levelo_inurba_marseille","lat":43.29975,"lon":5.38486,"is_reserved":false,"is_disabled":false,"rental_uris":{"android":"levelo://app?vid=e012fab2-8545-4078-bc02-3487d5ce0f79","ios":"levelo://app?vid=e012fab2-8545-4078-bc02-3487d5ce0f79"},"vehicle_type_id":"4","last_reported":1716728831,"current_range_meters":0,"station_id":"ce4bgj92rcd13ifvqbd0","pricing_plan_id":"cebpf4jnsgd1na2vs0mg"},{"bike_id":"d014cf3e-048b-41f0-8f75-4b7171a47831","system_id":"levelo_inurba_marseille","lat":43.299717,"lon":5.384845,"is_reserved":false,"is_disabled":false,"rental_uris":{"android":"levelo://app?vid=d014cf3e-048b-41f0-8f75-4b7171a47831","ios":"levelo://app?vid=d014cf3e-048b-41f0-8f75-4b7171a47831"},"vehicle_type_id":"4","last_reported":1716728831,"current_range_meters":31200,"station_id":"ce4bgj92rcd13ifvqbd0","pricing_plan_id":"cebpf4jnsgd1na2vs0mg"},{"bike_id":"3a1d34f7-7881-4b75-a393-7061971202fe","system_id":"levelo_inurba_marseille","lat":43.292799,"lon":5.368451,"is_reserved":false,"is_disabled":false,"rental_uris":{"android":"levelo://app?vid=3a1d34f7-7881-4b75-a393-7061971202fe","ios":"levelo://app?vid=3a1d34f7-7881-4b75-a393-7061971202fe"},"vehicle_type_id":"4","last_reported":1716728831,"current_range_meters":0,"station_id":"ce4bhbp2rcd13ifvqesg","pricing_plan_id":"cebpf4jnsgd1na2vs0mg"},{"bike_id":"d7526bc6-839e-44dc-97ae-2b985550ac80","system_id":"levelo_inurba_marseille","lat":43.29278,"lon":5.36844,"is_reserved":false,"is_disabled":false,"rental_uris":{"android":"levelo://app?vid=d7526bc6-839e-44dc-97ae-2b985550ac80","ios":"levelo://app?vid=d7526bc6-839e-44dc-97ae-2b985550ac80"},"vehicle_type_id":"4","last_reported":1716728831,"current_range_meters":26800,"station_id":"ce4bhbp2rcd13ifvqesg","pricing_plan_id":"cebpf4jnsgd1na2vs0mg"},{"bike_id":"e977666e-12af-4c9f-b081-970090f5443a","system_id":"levelo_inurba_marseille","lat":43.29277,"lon":5.36844,"is_reserved":false,"is_disabled":false,"rental_uris":{"android":"levelo://app?vid=e977666e-12af-4c9f-b081-970090f5443a","ios":"levelo://app?vid=e977666e-12af-4c9f-b081-970090f5443a"},"vehicle_type_id":"4","last_reported":1716728831,"current_range_meters":7600,"station_id":"ce4bhbp2rcd13ifvqesg","pricing_plan_id":"cebpf4jnsgd1na2vs0mg"},{"bike_id":"f9dd9810-b822-40e3-8704-dda5106728dc","system_id":"levelo_inurba_marseille","lat":43.29271,"lon":5.36837,"is_reserved":false,"is_disabled":false,"rental_uris":{"android":"levelo://app?vid=f9dd9810-b822-40e3-8704-dda5106728dc","ios":"levelo://app?vid=f9dd9810-b822-40e3-8704-dda5106728dc"},"vehicle_type_id":"4","last_reported":1716728831,"current_range_meters":0,"station_id":"ce4bhbp2rcd13ifvqesg","pricing_plan_id":"cebpf4jnsgd1na2vs0mg"},{"bike_id":"ca1d97e3-4500-4868-8ab3-4c49cfed561d","system_id":"levelo_inurba_marseille","lat":43.292749,"lon":5.368402,"is_reserved":false,"is_disabled":false,"rental_uris":{"android":"levelo://app?vid=ca1d97e3-4500-4868-8ab3-4c49cfed561d","ios":"levelo://app?vid=ca1d97e3-4500-4868-8ab3-4c49cfed561d"},"vehicle_type_id":"4","last_reported":1716728831,"current_range_meters":24000,"station_id":"ce4bhbp2rcd13ifvqesg","pricing_plan_id":"cebpf4jnsgd1na2vs0mg"},{"bike_id":"c9498890-6157-4932-baa9-f43dfb572750","system_id":"levelo_inurba_marseille","lat":43.305994,"lon":5.393687,"is_reserved":false,"is_disabled":false,"rental_uris":{"android":"levelo://app?vid=c9498890-6157-4932-baa9-f43dfb572750","ios":"levelo://app?vid=c9498890-6157-4932-baa9-f43dfb572750"},"vehicle_type_id":"4","last_reported":1716728831,"current_range_meters":2800,"station_id":"ce4bh0p2rcd13ifvqd80","pricing_plan_id":"cebpf4jnsgd1na2vs0mg"},{"bike_id":"932e4234-e33e-4149-9cce-1e3fe3213723","system_id":"levelo_inurba_marseille","lat":43.302992,"lon":5.392136,"is_reserved":false,"is_disabled":false,"rental_uris":{"android":"levelo://app?vid=932e4234-e33e-4149-9cce-1e3fe3213723","ios":"levelo://app?vid=932e4234-e33e-4149-9cce-1e3fe3213723"},"vehicle_type_id":"4","last_reported":1716728831,"current_range_meters":22400,"station_id":"ce4bgkh2rcd13ifvqbk0","pricing_plan_id":"cebpf4jnsgd1na2vs0mg"},{"bike_id":"03b74e99-25cb-4e43-9f75-2cf8a13009e3","system_id":"levelo_inurba_marseille","lat":43.292311,"lon":5.360731,"is_reserved":false,"is_disabled":false,"rental_uris":{"android":"levelo://app?vid=03b74e99-25cb-4e43-9f75-2cf8a13009e3","ios":"levelo://app?vid=03b74e99-25cb-4e43-9f75-2cf8a13009e3"},"vehicle_type_id":"4","last_reported":1716728831,"current_range_meters":24400,"station_id":"ce4bhbh2rcd13ifvqeqg","pricing_plan_id":"cebpf4jnsgd1na2vs0mg"},{"bike_id":"7c603f3a-4693-47bb-9c60-a226e392bb09","system_id":"levelo_inurba_marseille","lat":43.300852,"lon":5.390859,"is_reserved":false,"is_disabled":false,"rental_uris":{"android":"levelo://app?vid=7c603f3a-4693-47bb-9c60-a226e392bb09","ios":"levelo://app?vid=7c603f3a-4693-47bb-9c60-a226e392bb09"},"vehicle_type_id":"4","last_reported":1716728831,"current_range_meters":0,"station_id":"ce4bh192rcd13ifvqdb0","pricing_plan_id":"cebpf4jnsgd1na2vs0mg"},{"bike_id":"f67442c8-98ff-4d2e-86db-8642c1c443fd","system_id":"levelo_inurba_marseille","lat":43.29198,"lon":5.35801,"is_reserved":false,"is_disabled":false,"rental_uris":{"android":"levelo://app?vid=f67442c8-98ff-4d2e-86db-8642c1c443fd","ios":"levelo://app?vid=f67442c8-98ff-4d2e-86db-8642c1c443fd"},"vehicle_type_id":"4","last_reported":1716728831,"current_range_meters":18400,"station_id":"ce4bhb12rcd13ifvqel0","pricing_plan_id":"cebpf4jnsgd1na2vs0mg"},{"bike_id":"18637695-3a7b-4eb1-a82b-73b4873a5ee8","system_id":"levelo_inurba_marseille","lat":43.291994,"lon":5.357886,"is_reserved":false,"is_disabled":false,"rental_uris":{"android":"levelo://app?vid=18637695-3a7b-4eb1-a82b-73b4873a5ee8","ios":"levelo://app?vid=18637695-3a7b-4eb1-a82b-73b4873a5ee8"},"vehicle_type_id":"4","last_reported":1716728831,"current_range_meters":25600,"station_id":"ce4bhb12rcd13ifvqel0","pricing_plan_id":"cebpf4jnsgd1na2vs0mg"},{"bike_id":"beb2e537-4f6b-4889-94da-46725393f39e","system_id":"levelo_inurba_marseille","lat":43.291994,"lon":5.357886,"is_reserved":false,"is_disabled":false,"rental_uris":{"android":"levelo://app?vid=beb2e537-4f6b-4889-94da-46725393f39e","ios":"levelo://app?vid=beb2e537-4f6b-4889-94da-46725393f39e"},"vehicle_type_id":"4","last_reported":1716728831,"current_range_meters":21200,"station_id":"ce4bhb12rcd13ifvqel0","pricing_plan_id":"cebpf4jnsgd1na2vs0mg"},{"bike_id":"a85cba89-5726-44c6-af21-dd89a52b3ca7","system_id":"levelo_inurba_marseille","lat":43.291994,"lon":5.357886,"is_reserved":false,"is_disabled":false,"rental_uris":{"android":"levelo://app?vid=a85cba89-5726-44c6-af21-dd89a52b3ca7","ios":"levelo://app?vid=a85cba89-5726-44c6-af21-dd89a52b3ca7"},"vehicle_type_id":"4","last_reported":1716728831,"current_range_meters":13200,"station_id":"ce4bhb12rcd13ifvqel0","pricing_plan_id":"cebpf4jnsgd1na2vs0mg"},{"bike_id":"768d264c-aa88-455a-b431-d84c4bef094e","system_id":"levelo_inurba_marseille","lat":43.29529,"lon":5.385581,"is_reserved":false,"is_disabled":false,"rental_uris":{"android":"levelo://app?vid=768d264c-aa88-455a-b431-d84c4bef094e","ios":"levelo://app?vid=768d264c-aa88-455a-b431-d84c4bef094e"},"vehicle_type_id":"4","last_reported":1716728831,"current_range_meters":24400,"station_id":"ce4bgih2rcd13ifvqba0","pricing_plan_id":"cebpf4jnsgd1na2vs0mg"},{"bike_id":"1f2ea9cb-08a0-4f7a-962c-51e46890c887","system_id":"levelo_inurba_marseille","lat":43.302008,"lon":5.394694,"is_reserved":false,"is_disabled":false,"rental_uris":{"android":"levelo://app?vid=1f2ea9cb-08a0-4f7a-962c-51e46890c887","ios":"levelo://app?vid=1f2ea9cb-08a0-4f7a-962c-51e46890c887"},"vehicle_type_id":"4","last_reported":1716728831,"current_range_meters":0,"station_id":"ce4bh0p2rcd13ifvqd70","pricing_plan_id":"cebpf4jnsgd1na2vs0mg"},{"bike_id":"bbc67190-f754-4679-b816-f91a5bf9e741","system_id":"levelo_inurba_marseille","lat":43.28969,"lon":5.366645,"is_reserved":false,"is_disabled":false,"rental_uris":{"android":"levelo://app?vid=bbc67190-f754-4679-b816-f91a5bf9e741","ios":"levelo://app?vid=bbc67190-f754-4679-b816-f91a5bf9e741"},"vehicle_type_id":"4","last_reported":1716728831,"current_range_meters":7200,"station_id":"ce4bhap2rcd13ifvqek0","pricing_plan_id":"cebpf4jnsgd1na2vs0mg"},{"bike_id":"0094cad0-1099-44b0-8813-b210964a9359","system_id":"levelo_inurba_marseille","lat":43.290319,"lon":5.375732,"is_reserved":false,"is_disabled":false,"rental_uris":{"android":"levelo://app?vid=0094cad0-1099-44b0-8813-b210964a9359","ios":"levelo://app?vid=0094cad0-1099-44b0-8813-b210964a9359"},"vehicle_type_id":"4","last_reported":1716728831,"current_range_meters":24400,"station_id":"ce4bh692rcd13ifvqe90","pricing_plan_id":"cebpf4jnsgd1na2vs0mg"},{"bike_id":"5598aa7b-81ed-4279-8192-6e38de6abcc0","system_id":"levelo_inurba_marseille","lat":43.290319,"lon":5.375732,"is_reserved":false,"is_disabled":false,"rental_uris":{"android":"levelo://app?vid=5598aa7b-81ed-4279-8192-6e38de6abcc0","ios":"levelo://app?vid=5598aa7b-81ed-4279-8192-6e38de6abcc0"},"vehicle_type_id":"4","last_reported":1716728831,"current_range_meters":6400,"station_id":"ce4bh692rcd13ifvqe90","pricing_plan_id":"cebpf4jnsgd1na2vs0mg"},{"bike_id":"10ea86b1-e247-45ad-88dd-808afbbfaf87","system_id":"levelo_inurba_marseille","lat":43.289402,"lon":5.366398,"is_reserved":false,"is_disabled":false,"rental_uris":{"android":"levelo://app?vid=10ea86b1-e247-45ad-88dd-808afbbfaf87","ios":"levelo://app?vid=10ea86b1-e247-45ad-88dd-808afbbfaf87"},"vehicle_type_id":"4","last_reported":1716728831,"current_range_meters":11600,"station_id":"ce4bhap2rcd13ifvqek0","pricing_plan_id":"cebpf4jnsgd1na2vs0mg"},{"bike_id":"8b34ea19-d9e7-442a-9ed9-b9543ba9aba6","system_id":"levelo_inurba_marseille","lat":43.289184,"lon":5.366408,"is_reserved":false,"is_disabled":false,"rental_uris":{"android":"levelo://app?vid=8b34ea19-d9e7-442a-9ed9-b9543ba9aba6","ios":"levelo://app?vid=8b34ea19-d9e7-442a-9ed9-b9543ba9aba6"},"vehicle_type_id":"4","last_reported":1716728831,"current_range_meters":24400,"station_id":"ce4bhap2rcd13ifvqek0","pricing_plan_id":"cebpf4jnsgd1na2vs0mg"},{"bike_id":"9f74c282-ae22-4264-a8f1-1f0f2b15ea28","system_id":"levelo_inurba_marseille","lat":43.292644,"lon":5.384257,"is_reserved":false,"is_disabled":false,"rental_uris":{"android":"levelo://app?vid=9f74c282-ae22-4264-a8f1-1f0f2b15ea28","ios":"levelo://app?vid=9f74c282-ae22-4264-a8f1-1f0f2b15ea28"},"vehicle_type_id":"4","last_reported":1716728831,"current_range_meters":0,"station_id":"ce4bh692rcd13ifvqea0","pricing_plan_id":"cebpf4jnsgd1na2vs0mg"},{"bike_id":"0f7307f1-4179-4517-9332-2a4abfe68eb5","system_id":"levelo_inurba_marseille","lat":43.292642,"lon":5.384254,"is_reserved":false,"is_disabled":false,"rental_uris":{"android":"levelo://app?vid=0f7307f1-4179-4517-9332-2a4abfe68eb5","ios":"levelo://app?vid=0f7307f1-4179-4517-9332-2a4abfe68eb5"},"vehicle_type_id":"4","last_reported":1716728831,"current_range_meters":5200,"station_id":"ce4bh692rcd13ifvqea0","pricing_plan_id":"cebpf4jnsgd1na2vs0mg"},{"bike_id":"ff10e5ac-1efe-4cd2-bb53-5ca0e86d2762","system_id":"levelo_inurba_marseille","lat":43.292644,"lon":5.384257,"is_reserved":false,"is_disabled":false,"rental_uris":{"android":"levelo://app?vid=ff10e5ac-1efe-4cd2-bb53-5ca0e86d2762","ios":"levelo://app?vid=ff10e5ac-1efe-4cd2-bb53-5ca0e86d2762"},"vehicle_type_id":"4","last_reported":1716728831,"current_range_meters":0,"station_id":"ce4bh692rcd13ifvqea0","pricing_plan_id":"cebpf4jnsgd1na2vs0mg"},{"bike_id":"51a1a3e0-5a9e-4093-8d61-60e882646552","system_id":"levelo_inurba_marseille","lat":43.304296,"lon":5.397513,"is_reserved":false,"is_disabled":false,"rental_uris":{"android":"levelo://app?vid=51a1a3e0-5a9e-4093-8d61-60e882646552","ios":"levelo://app?vid=51a1a3e0-5a9e-4093-8d61-60e882646552"},"vehicle_type_id":"4","last_reported":1716728831,"current_range_meters":2000,"station_id":"ce4bh092rcd13ifvqd20","pricing_plan_id":"cebpf4jnsgd1na2vs0mg"},{"bike_id":"e9cf55ac-dd88-48a3-bea0-56f50889f839","system_id":"levelo_inurba_marseille","lat":43.290103,"lon":5.356114,"is_reserved":false,"is_disabled":false,"rental_uris":{"android":"levelo://app?vid=e9cf55ac-dd88-48a3-bea0-56f50889f839","ios":"levelo://app?vid=e9cf55ac-dd88-48a3-bea0-56f50889f839"},"vehicle_type_id":"4","last_reported":1716728831,"current_range_meters":3600,"station_id":"ce4bhb92rcd13ifvqen0","pricing_plan_id":"cebpf4jnsgd1na2vs0mg"},{"bike_id":"b81d3a00-b724-4ebd-a1aa-d1290d1a3951","system_id":"levelo_inurba_marseille","lat":43.29107,"lon":5.38147,"is_reserved":false,"is_disabled":false,"rental_uris":{"android":"levelo://app?vid=b81d3a00-b724-4ebd-a1aa-d1290d1a3951","ios":"levelo://app?vid=b81d3a00-b724-4ebd-a1aa-d1290d1a3951"},"vehicle_type_id":"4","last_reported":1716728831,"current_range_meters":0,"station_id":"ce4bh512rcd13ifvqe2g","pricing_plan_id":"cebpf4jnsgd1na2vs0mg"},{"bike_id":"49e4bcc4-ca39-49e5-92fe-ce1f29d9ec92","system_id":"levelo_inurba_marseille","lat":43.290995,"lon":5.381361,"is_reserved":false,"is_disabled":false,"rental_uris":{"android":"levelo://app?vid=49e4bcc4-ca39-49e5-92fe-ce1f29d9ec92","ios":"levelo://app?vid=49e4bcc4-ca39-49e5-92fe-ce1f29d9ec92"},"vehicle_type_id":"4","last_reported":1716728831,"current_range_meters":6000,"station_id":"ce4bh512rcd13ifvqe2g","pricing_plan_id":"cebpf4jnsgd1na2vs0mg"},{"bike_id":"8af635fb-7338-4890-90b1-c3c9f2dcb738","system_id":"levelo_inurba_marseille","lat":43.290995,"lon":5.381361,"is_reserved":false,"is_disabled":false,"rental_uris":{"android":"levelo://app?vid=8af635fb-7338-4890-90b1-c3c9f2dcb738","ios":"levelo://app?vid=8af635fb-7338-4890-90b1-c3c9f2dcb738"},"vehicle_type_id":"4","last_reported":1716728831,"current_range_meters":27200,"station_id":"ce4bh512rcd13ifvqe2g","pricing_plan_id":"cebpf4jnsgd1na2vs0mg"},{"bike_id":"c8d58f8a-f829-4dc8-b99d-508138f722bc","system_id":"levelo_inurba_marseille","lat":43.295169,"lon":5.390426,"is_reserved":false,"is_disabled":false,"rental_uris":{"android":"levelo://app?vid=c8d58f8a-f829-4dc8-b99d-508138f722bc","ios":"levelo://app?vid=c8d58f8a-f829-4dc8-b99d-508138f722bc"},"vehicle_type_id":"4","last_reported":1716728831,"current_range_meters":9200,"station_id":"ce4bh3p2rcd13ifvqdp0","pricing_plan_id":"cebpf4jnsgd1na2vs0mg"},{"bike_id":"641cf4b9-cd4c-431e-8e24-739a52ab9c80","system_id":"levelo_inurba_marseille","lat":43.330442,"lon":5.389148,"is_reserved":false,"is_disabled":false,"rental_uris":{"android":"levelo://app?vid=641cf4b9-cd4c-431e-8e24-739a52ab9c80","ios":"levelo://app?vid=641cf4b9-cd4c-431e-8e24-739a52ab9c80"},"vehicle_type_id":"4","last_reported":1716728831,"current_range_meters":28800,"station_id":"ce4bhr92rcd13ifvqhrg","pricing_plan_id":"cebpf4jnsgd1na2vs0mg"},{"bike_id":"3daddc6f-3611-459a-9843-a063d403f743","system_id":"levelo_inurba_marseille","lat":43.295169,"lon":5.390426,"is_reserved":false,"is_disabled":false,"rental_uris":{"android":"levelo://app?vid=3daddc6f-3611-459a-9843-a063d403f743","ios":"levelo://app?vid=3daddc6f-3611-459a-9843-a063d403f743"},"vehicle_type_id":"4","last_reported":1716728831,"current_range_meters":0,"station_id":"ce4bh3p2rcd13ifvqdp0","pricing_plan_id":"cebpf4jnsgd1na2vs0mg"},{"bike_id":"1347f0b7-856d-484b-aeee-737814a4f4c3","system_id":"levelo_inurba_marseille","lat":43.330442,"lon":5.389148,"is_reserved":false,"is_disabled":false,"rental_uris":{"android":"levelo://app?vid=1347f0b7-856d-484b-aeee-737814a4f4c3","ios":"levelo://app?vid=1347f0b7-856d-484b-aeee-737814a4f4c3"},"vehicle_type_id":"4","last_reported":1716728831,"current_range_meters":13200,"station_id":"ce4bhr92rcd13ifvqhrg","pricing_plan_id":"cebpf4jnsgd1na2vs0mg"},{"bike_id":"750bff4e-03c8-425d-bf0a-e11e63e583a0","system_id":"levelo_inurba_marseille","lat":43.330442,"lon":5.389148,"is_reserved":false,"is_disabled":false,"rental_uris":{"android":"levelo://app?vid=750bff4e-03c8-425d-bf0a-e11e63e583a0","ios":"levelo://app?vid=750bff4e-03c8-425d-bf0a-e11e63e583a0"},"vehicle_type_id":"4","last_reported":1716728831,"current_range_meters":5600,"station_id":"ce4bhr92rcd13ifvqhrg","pricing_plan_id":"cebpf4jnsgd1na2vs0mg"},{"bike_id":"ba7bba16-c57b-44f6-9f9c-c9839289854f","system_id":"levelo_inurba_marseille","lat":43.31065,"lon":5.40081,"is_reserved":false,"is_disabled":false,"rental_uris":{"android":"levelo://app?vid=ba7bba16-c57b-44f6-9f9c-c9839289854f","ios":"levelo://app?vid=ba7bba16-c57b-44f6-9f9c-c9839289854f"},"vehicle_type_id":"4","last_reported":1716728831,"current_range_meters":10000,"station_id":"","pricing_plan_id":"cebpf4jnsgd1na2vs0mg"},{"bike_id":"9e6b2623-2d79-45ea-bd2b-c899e39527a3","system_id":"levelo_inurba_marseille","lat":43.28856,"lon":5.358371,"is_reserved":false,"is_disabled":false,"rental_uris":{"android":"levelo://app?vid=9e6b2623-2d79-45ea-bd2b-c899e39527a3","ios":"levelo://app?vid=9e6b2623-2d79-45ea-bd2b-c899e39527a3"},"vehicle_type_id":"4","last_reported":1716728831,"current_range_meters":24000,"station_id":"ce4bhb12rcd13ifvqem0","pricing_plan_id":"cebpf4jnsgd1na2vs0mg"},{"bike_id":"1a1505af-a805-4e97-b6c5-ef86c8ad33ae","system_id":"levelo_inurba_marseille","lat":43.310732,"lon":5.401002,"is_reserved":false,"is_disabled":false,"rental_uris":{"android":"levelo://app?vid=1a1505af-a805-4e97-b6c5-ef86c8ad33ae","ios":"levelo://app?vid=1a1505af-a805-4e97-b6c5-ef86c8ad33ae"},"vehicle_type_id":"4","last_reported":1716728831,"current_range_meters":400,"station_id":"","pricing_plan_id":"cebpf4jnsgd1na2vs0mg"},{"bike_id":"66ab4f19-bd44-4e14-a2c2-e9af5506fbc9","system_id":"levelo_inurba_marseille","lat":43.309371,"lon":5.401449,"is_reserved":false,"is_disabled":false,"rental_uris":{"android":"levelo://app?vid=66ab4f19-bd44-4e14-a2c2-e9af5506fbc9","ios":"levelo://app?vid=66ab4f19-bd44-4e14-a2c2-e9af5506fbc9"},"vehicle_type_id":"4","last_reported":1716728831,"current_range_meters":31600,"station_id":"ce4bgvp2rcd13ifvqct0","pricing_plan_id":"cebpf4jnsgd1na2vs0mg"},{"bike_id":"c817be8a-4d3f-428e-9e83-fb97be659edc","system_id":"levelo_inurba_marseille","lat":43.33739,"lon":5.37443,"is_reserved":false,"is_disabled":false,"rental_uris":{"android":"levelo://app?vid=c817be8a-4d3f-428e-9e83-fb97be659edc","ios":"levelo://app?vid=c817be8a-4d3f-428e-9e83-fb97be659edc"},"vehicle_type_id":"4","last_reported":1716728831,"current_range_meters":20800,"station_id":"","pricing_plan_id":"cebpf4jnsgd1na2vs0mg"},{"bike_id":"8bf8d7f0-7746-4688-8538-2d2f6feab09b","system_id":"levelo_inurba_marseille","lat":43.309371,"lon":5.401449,"is_reserved":false,"is_disabled":false,"rental_uris":{"android":"levelo://app?vid=8bf8d7f0-7746-4688-8538-2d2f6feab09b","ios":"levelo://app?vid=8bf8d7f0-7746-4688-8538-2d2f6feab09b"},"vehicle_type_id":"4","last_reported":1716728831,"current_range_meters":9200,"station_id":"ce4bgvp2rcd13ifvqct0","pricing_plan_id":"cebpf4jnsgd1na2vs0mg"},{"bike_id":"103c2d4c-bb3f-469d-9b53-bbdabd65f5db","system_id":"levelo_inurba_marseille","lat":43.309371,"lon":5.401449,"is_reserved":false,"is_disabled":false,"rental_uris":{"android":"levelo://app?vid=103c2d4c-bb3f-469d-9b53-bbdabd65f5db","ios":"levelo://app?vid=103c2d4c-bb3f-469d-9b53-bbdabd65f5db"},"vehicle_type_id":"4","last_reported":1716728831,"current_range_meters":31200,"station_id":"ce4bgvp2rcd13ifvqct0","pricing_plan_id":"cebpf4jnsgd1na2vs0mg"},{"bike_id":"5e08015a-b315-49d5-b067-121fc243166b","system_id":"levelo_inurba_marseille","lat":43.33752,"lon":5.37436,"is_reserved":false,"is_disabled":false,"rental_uris":{"android":"levelo://app?vid=5e08015a-b315-49d5-b067-121fc243166b","ios":"levelo://app?vid=5e08015a-b315-49d5-b067-121fc243166b"},"vehicle_type_id":"4","last_reported":1716728831,"current_range_meters":15600,"station_id":"","pricing_plan_id":"cebpf4jnsgd1na2vs0mg"},{"bike_id":"4baa171a-6f41-4b4c-bcc1-759d97c52644","system_id":"levelo_inurba_marseille","lat":43.337567,"lon":5.374574,"is_reserved":false,"is_disabled":false,"rental_uris":{"android":"levelo://app?vid=4baa171a-6f41-4b4c-bcc1-759d97c52644","ios":"levelo://app?vid=4baa171a-6f41-4b4c-bcc1-759d97c52644"},"vehicle_type_id":"4","last_reported":1716728831,"current_range_meters":18800,"station_id":"","pricing_plan_id":"cebpf4jnsgd1na2vs0mg"},{"bike_id":"4d476eee-4013-46a3-be70-3fc5198fa0f9","system_id":"levelo_inurba_marseille","lat":43.33763,"lon":5.374318,"is_reserved":false,"is_disabled":false,"rental_uris":{"android":"levelo://app?vid=4d476eee-4013-46a3-be70-3fc5198fa0f9","ios":"levelo://app?vid=4d476eee-4013-46a3-be70-3fc5198fa0f9"},"vehicle_type_id":"4","last_reported":1716728831,"current_range_meters":12400,"station_id":"","pricing_plan_id":"cebpf4jnsgd1na2vs0mg"},{"bike_id":"732798ba-2b9a-45ce-babd-a4bca6a10e63","system_id":"levelo_inurba_marseille","lat":43.337625,"lon":5.374405,"is_reserved":false,"is_disabled":false,"rental_uris":{"android":"levelo://app?vid=732798ba-2b9a-45ce-babd-a4bca6a10e63","ios":"levelo://app?vid=732798ba-2b9a-45ce-babd-a4bca6a10e63"},"vehicle_type_id":"4","last_reported":1716728831,"current_range_meters":12400,"station_id":"","pricing_plan_id":"cebpf4jnsgd1na2vs0mg"},{"bike_id":"de609f3b-f2e7-4b37-96b4-3315c7ebe8bb","system_id":"levelo_inurba_marseille","lat":43.33764,"lon":5.37471,"is_reserved":false,"is_disabled":false,"rental_uris":{"android":"levelo://app?vid=de609f3b-f2e7-4b37-96b4-3315c7ebe8bb","ios":"levelo://app?vid=de609f3b-f2e7-4b37-96b4-3315c7ebe8bb"},"vehicle_type_id":"4","last_reported":1716728831,"current_range_meters":14800,"station_id":"","pricing_plan_id":"cebpf4jnsgd1na2vs0mg"},{"bike_id":"825fa8d8-f677-44ea-959e-e28a76bf9c1f","system_id":"levelo_inurba_marseille","lat":43.33781,"lon":5.37472,"is_reserved":false,"is_disabled":false,"rental_uris":{"android":"levelo://app?vid=825fa8d8-f677-44ea-959e-e28a76bf9c1f","ios":"levelo://app?vid=825fa8d8-f677-44ea-959e-e28a76bf9c1f"},"vehicle_type_id":"4","last_reported":1716728831,"current_range_meters":16000,"station_id":"","pricing_plan_id":"cebpf4jnsgd1na2vs0mg"},{"bike_id":"5cc080d4-b4a1-4832-9169-a3ec79821b39","system_id":"levelo_inurba_marseille","lat":43.301117,"lon":5.398795,"is_reserved":false,"is_disabled":false,"rental_uris":{"android":"levelo://app?vid=5cc080d4-b4a1-4832-9169-a3ec79821b39","ios":"levelo://app?vid=5cc080d4-b4a1-4832-9169-a3ec79821b39"},"vehicle_type_id":"4","last_reported":1716728831,"current_range_meters":1600,"station_id":"ce4bh0h2rcd13ifvqd40","pricing_plan_id":"cebpf4jnsgd1na2vs0mg"},{"bike_id":"4c22b945-d05b-40d1-957b-868a31948c23","system_id":"levelo_inurba_marseille","lat":43.301117,"lon":5.398795,"is_reserved":false,"is_disabled":false,"rental_uris":{"android":"levelo://app?vid=4c22b945-d05b-40d1-957b-868a31948c23","ios":"levelo://app?vid=4c22b945-d05b-40d1-957b-868a31948c23"},"vehicle_type_id":"4","last_reported":1716728831,"current_range_meters":24000,"station_id":"ce4bh0h2rcd13ifvqd40","pricing_plan_id":"cebpf4jnsgd1na2vs0mg"},{"bike_id":"dce4313e-9955-4baf-b62e-3b880bac79a7","system_id":"levelo_inurba_marseille","lat":43.290336,"lon":5.386425,"is_reserved":false,"is_disabled":false,"rental_uris":{"android":"levelo://app?vid=dce4313e-9955-4baf-b62e-3b880bac79a7","ios":"levelo://app?vid=dce4313e-9955-4baf-b62e-3b880bac79a7"},"vehicle_type_id":"4","last_reported":1716728831,"current_range_meters":400,"station_id":"ce4bh4p2rcd13ifvqe0g","pricing_plan_id":"cebpf4jnsgd1na2vs0mg"},{"bike_id":"68244c53-fe65-4105-ac82-cf6a18c957c5","system_id":"levelo_inurba_marseille","lat":43.302759,"lon":5.400793,"is_reserved":false,"is_disabled":false,"rental_uris":{"android":"levelo://app?vid=68244c53-fe65-4105-ac82-cf6a18c957c5","ios":"levelo://app?vid=68244c53-fe65-4105-ac82-cf6a18c957c5"},"vehicle_type_id":"4","last_reported":1716728831,"current_range_meters":27600,"station_id":"ce4bgvh2rcd13ifvqcs0","pricing_plan_id":"cebpf4jnsgd1na2vs0mg"},{"bike_id":"78e051f2-50a9-487f-904d-8ed21d4f7266","system_id":"levelo_inurba_marseille","lat":43.302759,"lon":5.400793,"is_reserved":false,"is_disabled":false,"rental_uris":{"android":"levelo://app?vid=78e051f2-50a9-487f-904d-8ed21d4f7266","ios":"levelo://app?vid=78e051f2-50a9-487f-904d-8ed21d4f7266"},"vehicle_type_id":"4","last_reported":1716728831,"current_range_meters":13600,"station_id":"ce4bgvh2rcd13ifvqcs0","pricing_plan_id":"cebpf4jnsgd1na2vs0mg"},{"bike_id":"1bc2e31c-b9cc-44c6-bc4d-ca3ef7fdabef","system_id":"levelo_inurba_marseille","lat":43.290336,"lon":5.386425,"is_reserved":false,"is_disabled":false,"rental_uris":{"android":"levelo://app?vid=1bc2e31c-b9cc-44c6-bc4d-ca3ef7fdabef","ios":"levelo://app?vid=1bc2e31c-b9cc-44c6-bc4d-ca3ef7fdabef"},"vehicle_type_id":"4","last_reported":1716728831,"current_range_meters":0,"station_id":"ce4bh4p2rcd13ifvqe0g","pricing_plan_id":"cebpf4jnsgd1na2vs0mg"},{"bike_id":"f87e98f3-8bc6-40f9-bd47-247627fb76ff","system_id":"levelo_inurba_marseille","lat":43.302759,"lon":5.400793,"is_reserved":false,"is_disabled":false,"rental_uris":{"android":"levelo://app?vid=f87e98f3-8bc6-40f9-bd47-247627fb76ff","ios":"levelo://app?vid=f87e98f3-8bc6-40f9-bd47-247627fb76ff"},"vehicle_type_id":"4","last_reported":1716728831,"current_range_meters":0,"station_id":"ce4bgvh2rcd13ifvqcs0","pricing_plan_id":"cebpf4jnsgd1na2vs0mg"},{"bike_id":"0fc7211b-63eb-4382-8dee-d13beb6b2b17","system_id":"levelo_inurba_marseille","lat":43.286039,"lon":5.370681,"is_reserved":false,"is_disabled":false,"rental_uris":{"android":"levelo://app?vid=0fc7211b-63eb-4382-8dee-d13beb6b2b17","ios":"levelo://app?vid=0fc7211b-63eb-4382-8dee-d13beb6b2b17"},"vehicle_type_id":"4","last_reported":1716728831,"current_range_meters":14800,"station_id":"ce4bht12rcd13ifvqi60","pricing_plan_id":"cebpf4jnsgd1na2vs0mg"},{"bike_id":"7c0a9d9b-a1a5-4ef0-91c6-7b8b0b59e539","system_id":"levelo_inurba_marseille","lat":43.289307,"lon":5.38406,"is_reserved":false,"is_disabled":false,"rental_uris":{"android":"levelo://app?vid=7c0a9d9b-a1a5-4ef0-91c6-7b8b0b59e539","ios":"levelo://app?vid=7c0a9d9b-a1a5-4ef0-91c6-7b8b0b59e539"},"vehicle_type_id":"4","last_reported":1716728831,"current_range_meters":24000,"station_id":"ce4bh612rcd13ifvqe6g","pricing_plan_id":"cebpf4jnsgd1na2vs0mg"},{"bike_id":"fc5d79a9-980f-4a3d-9e13-156c55858555","system_id":"levelo_inurba_marseille","lat":43.31701,"lon":5.40464,"is_reserved":false,"is_disabled":false,"rental_uris":{"android":"levelo://app?vid=fc5d79a9-980f-4a3d-9e13-156c55858555","ios":"levelo://app?vid=fc5d79a9-980f-4a3d-9e13-156c55858555"},"vehicle_type_id":"4","last_reported":1716728831,"current_range_meters":0,"station_id":"ce4bh012rcd13ifvqd00","pricing_plan_id":"cebpf4jnsgd1na2vs0mg"},{"bike_id":"250a0d28-1ddb-4fc5-827a-47fcebfe7741","system_id":"levelo_inurba_marseille","lat":43.316821,"lon":5.404737,"is_reserved":false,"is_disabled":false,"rental_uris":{"android":"levelo://app?vid=250a0d28-1ddb-4fc5-827a-47fcebfe7741","ios":"levelo://app?vid=250a0d28-1ddb-4fc5-827a-47fcebfe7741"},"vehicle_type_id":"4","last_reported":1716728831,"current_range_meters":23600,"station_id":"ce4bh012rcd13ifvqd00","pricing_plan_id":"cebpf4jnsgd1na2vs0mg"},{"bike_id":"225450e0-aea0-4494-80cf-33b46da3774c","system_id":"levelo_inurba_marseille","lat":43.316828,"lon":5.404723,"is_reserved":false,"is_disabled":false,"rental_uris":{"android":"levelo://app?vid=225450e0-aea0-4494-80cf-33b46da3774c","ios":"levelo://app?vid=225450e0-aea0-4494-80cf-33b46da3774c"},"vehicle_type_id":"4","last_reported":1716728831,"current_range_meters":4400,"station_id":"ce4bh012rcd13ifvqd00","pricing_plan_id":"cebpf4jnsgd1na2vs0mg"},{"bike_id":"6d9ce75a-600c-4699-977a-a2314ec2e4f4","system_id":"levelo_inurba_marseille","lat":43.284538,"lon":5.358657,"is_reserved":false,"is_disabled":false,"rental_uris":{"android":"levelo://app?vid=6d9ce75a-600c-4699-977a-a2314ec2e4f4","ios":"levelo://app?vid=6d9ce75a-600c-4699-977a-a2314ec2e4f4"},"vehicle_type_id":"4","last_reported":1716728831,"current_range_meters":17600,"station_id":"ce4bhah2rcd13ifvqei0","pricing_plan_id":"cebpf4jnsgd1na2vs0mg"},{"bike_id":"e2d3a8f7-437f-4cd1-b285-5401de9cc6cc","system_id":"levelo_inurba_marseille","lat":43.285856,"lon":5.350771,"is_reserved":false,"is_disabled":false,"rental_uris":{"android":"levelo://app?vid=e2d3a8f7-437f-4cd1-b285-5401de9cc6cc","ios":"levelo://app?vid=e2d3a8f7-437f-4cd1-b285-5401de9cc6cc"},"vehicle_type_id":"4","last_reported":1716728831,"current_range_meters":15600,"station_id":"ce4bhch2rcd13ifvqeug","pricing_plan_id":"cebpf4jnsgd1na2vs0mg"},{"bike_id":"7358c03a-2078-4e3e-aac0-133092e57354","system_id":"levelo_inurba_marseille","lat":43.28625,"lon":5.35098,"is_reserved":false,"is_disabled":false,"rental_uris":{"android":"levelo://app?vid=7358c03a-2078-4e3e-aac0-133092e57354","ios":"levelo://app?vid=7358c03a-2078-4e3e-aac0-133092e57354"},"vehicle_type_id":"4","last_reported":1716728831,"current_range_meters":31200,"station_id":"ce4bhch2rcd13ifvqeug","pricing_plan_id":"cebpf4jnsgd1na2vs0mg"},{"bike_id":"a4cba0e1-7626-4d4f-888f-38ff57fc41d1","system_id":"levelo_inurba_marseille","lat":43.285856,"lon":5.350771,"is_reserved":false,"is_disabled":false,"rental_uris":{"android":"levelo://app?vid=a4cba0e1-7626-4d4f-888f-38ff57fc41d1","ios":"levelo://app?vid=a4cba0e1-7626-4d4f-888f-38ff57fc41d1"},"vehicle_type_id":"4","last_reported":1716728831,"current_range_meters":13200,"station_id":"ce4bhch2rcd13ifvqeug","pricing_plan_id":"cebpf4jnsgd1na2vs0mg"},{"bike_id":"1c291e56-10d9-472a-bfc7-e83bb6ff264b","system_id":"levelo_inurba_marseille","lat":43.285856,"lon":5.350771,"is_reserved":false,"is_disabled":false,"rental_uris":{"android":"levelo://app?vid=1c291e56-10d9-472a-bfc7-e83bb6ff264b","ios":"levelo://app?vid=1c291e56-10d9-472a-bfc7-e83bb6ff264b"},"vehicle_type_id":"4","last_reported":1716728831,"current_range_meters":7600,"station_id":"ce4bhch2rcd13ifvqeug","pricing_plan_id":"cebpf4jnsgd1na2vs0mg"},{"bike_id":"0552d5e0-c8cc-4aba-937b-b80775d6e267","system_id":"levelo_inurba_marseille","lat":43.285848,"lon":5.350787,"is_reserved":false,"is_disabled":false,"rental_uris":{"android":"levelo://app?vid=0552d5e0-c8cc-4aba-937b-b80775d6e267","ios":"levelo://app?vid=0552d5e0-c8cc-4aba-937b-b80775d6e267"},"vehicle_type_id":"4","last_reported":1716728831,"current_range_meters":28800,"station_id":"ce4bhch2rcd13ifvqeug","pricing_plan_id":"cebpf4jnsgd1na2vs0mg"},{"bike_id":"9a3dc110-bdf0-46ac-9dc6-90859b9efef5","system_id":"levelo_inurba_marseille","lat":43.28619,"lon":5.35104,"is_reserved":false,"is_disabled":false,"rental_uris":{"android":"levelo://app?vid=9a3dc110-bdf0-46ac-9dc6-90859b9efef5","ios":"levelo://app?vid=9a3dc110-bdf0-46ac-9dc6-90859b9efef5"},"vehicle_type_id":"4","last_reported":1716728831,"current_range_meters":1200,"station_id":"ce4bhch2rcd13ifvqeug","pricing_plan_id":"cebpf4jnsgd1na2vs0mg"},{"bike_id":"666259ca-8cd5-4778-9f2c-93af9c88a8e3","system_id":"levelo_inurba_marseille","lat":43.28619,"lon":5.35103,"is_reserved":false,"is_disabled":false,"rental_uris":{"android":"levelo://app?vid=666259ca-8cd5-4778-9f2c-93af9c88a8e3","ios":"levelo://app?vid=666259ca-8cd5-4778-9f2c-93af9c88a8e3"},"vehicle_type_id":"4","last_reported":1716728831,"current_range_meters":22400,"station_id":"ce4bhch2rcd13ifvqeug","pricing_plan_id":"cebpf4jnsgd1na2vs0mg"},{"bike_id":"614afec8-fae8-49aa-abc9-85fee65ee069","system_id":"levelo_inurba_marseille","lat":43.285856,"lon":5.350771,"is_reserved":false,"is_disabled":false,"rental_uris":{"android":"levelo://app?vid=614afec8-fae8-49aa-abc9-85fee65ee069","ios":"levelo://app?vid=614afec8-fae8-49aa-abc9-85fee65ee069"},"vehicle_type_id":"4","last_reported":1716728831,"current_range_meters":24800,"station_id":"ce4bhch2rcd13ifvqeug","pricing_plan_id":"cebpf4jnsgd1na2vs0mg"},{"bike_id":"8d86c262-2b11-424c-86cb-fa9d69ab86e8","system_id":"levelo_inurba_marseille","lat":43.285856,"lon":5.350771,"is_reserved":false,"is_disabled":false,"rental_uris":{"android":"levelo://app?vid=8d86c262-2b11-424c-86cb-fa9d69ab86e8","ios":"levelo://app?vid=8d86c262-2b11-424c-86cb-fa9d69ab86e8"},"vehicle_type_id":"4","last_reported":1716728831,"current_range_meters":3600,"station_id":"ce4bhch2rcd13ifvqeug","pricing_plan_id":"cebpf4jnsgd1na2vs0mg"},{"bike_id":"9a644746-e872-419d-868d-b3f28a64fc80","system_id":"levelo_inurba_marseille","lat":43.28617,"lon":5.35105,"is_reserved":false,"is_disabled":false,"rental_uris":{"android":"levelo://app?vid=9a644746-e872-419d-868d-b3f28a64fc80","ios":"levelo://app?vid=9a644746-e872-419d-868d-b3f28a64fc80"},"vehicle_type_id":"4","last_reported":1716728831,"current_range_meters":20800,"station_id":"ce4bhch2rcd13ifvqeug","pricing_plan_id":"cebpf4jnsgd1na2vs0mg"},{"bike_id":"0d1fd9da-8a1c-4734-8d9b-110c489aa56f","system_id":"levelo_inurba_marseille","lat":43.285856,"lon":5.350771,"is_reserved":false,"is_disabled":false,"rental_uris":{"android":"levelo://app?vid=0d1fd9da-8a1c-4734-8d9b-110c489aa56f","ios":"levelo://app?vid=0d1fd9da-8a1c-4734-8d9b-110c489aa56f"},"vehicle_type_id":"4","last_reported":1716728831,"current_range_meters":16000,"station_id":"ce4bhch2rcd13ifvqeug","pricing_plan_id":"cebpf4jnsgd1na2vs0mg"},{"bike_id":"656300b1-4f85-44f5-8079-d58cbad3fdf4","system_id":"levelo_inurba_marseille","lat":43.285848,"lon":5.350787,"is_reserved":false,"is_disabled":false,"rental_uris":{"android":"levelo://app?vid=656300b1-4f85-44f5-8079-d58cbad3fdf4","ios":"levelo://app?vid=656300b1-4f85-44f5-8079-d58cbad3fdf4"},"vehicle_type_id":"4","last_reported":1716728831,"current_range_meters":18000,"station_id":"ce4bhch2rcd13ifvqeug","pricing_plan_id":"cebpf4jnsgd1na2vs0mg"},{"bike_id":"78fa18ef-4109-4c14-be4b-dbe183225dfc","system_id":"levelo_inurba_marseille","lat":43.285848,"lon":5.350787,"is_reserved":false,"is_disabled":false,"rental_uris":{"android":"levelo://app?vid=78fa18ef-4109-4c14-be4b-dbe183225dfc","ios":"levelo://app?vid=78fa18ef-4109-4c14-be4b-dbe183225dfc"},"vehicle_type_id":"4","last_reported":1716728831,"current_range_meters":23600,"station_id":"ce4bhch2rcd13ifvqeug","pricing_plan_id":"cebpf4jnsgd1na2vs0mg"},{"bike_id":"6bebd36a-6551-486e-976f-ff557e49e29f","system_id":"levelo_inurba_marseille","lat":43.28615,"lon":5.35103,"is_reserved":false,"is_disabled":false,"rental_uris":{"android":"levelo://app?vid=6bebd36a-6551-486e-976f-ff557e49e29f","ios":"levelo://app?vid=6bebd36a-6551-486e-976f-ff557e49e29f"},"vehicle_type_id":"4","last_reported":1716728831,"current_range_meters":14000,"station_id":"ce4bhch2rcd13ifvqeug","pricing_plan_id":"cebpf4jnsgd1na2vs0mg"},{"bike_id":"269443b2-8c01-46a4-af98-8d859a0b5f97","system_id":"levelo_inurba_marseille","lat":43.285848,"lon":5.350787,"is_reserved":false,"is_disabled":false,"rental_uris":{"android":"levelo://app?vid=269443b2-8c01-46a4-af98-8d859a0b5f97","ios":"levelo://app?vid=269443b2-8c01-46a4-af98-8d859a0b5f97"},"vehicle_type_id":"4","last_reported":1716728831,"current_range_meters":2400,"station_id":"ce4bhch2rcd13ifvqeug","pricing_plan_id":"cebpf4jnsgd1na2vs0mg"},{"bike_id":"f7c5efad-92bb-4c68-8ca8-5d025ff72da7","system_id":"levelo_inurba_marseille","lat":43.28613,"lon":5.35109,"is_reserved":false,"is_disabled":false,"rental_uris":{"android":"levelo://app?vid=f7c5efad-92bb-4c68-8ca8-5d025ff72da7","ios":"levelo://app?vid=f7c5efad-92bb-4c68-8ca8-5d025ff72da7"},"vehicle_type_id":"4","last_reported":1716728831,"current_range_meters":15200,"station_id":"ce4bhch2rcd13ifvqeug","pricing_plan_id":"cebpf4jnsgd1na2vs0mg"},{"bike_id":"28c14d48-9614-4fba-9972-548a4c3b6e4d","system_id":"levelo_inurba_marseille","lat":43.28614,"lon":5.35104,"is_reserved":false,"is_disabled":false,"rental_uris":{"android":"levelo://app?vid=28c14d48-9614-4fba-9972-548a4c3b6e4d","ios":"levelo://app?vid=28c14d48-9614-4fba-9972-548a4c3b6e4d"},"vehicle_type_id":"4","last_reported":1716728831,"current_range_meters":1200,"station_id":"ce4bhch2rcd13ifvqeug","pricing_plan_id":"cebpf4jnsgd1na2vs0mg"},{"bike_id":"83af8d46-c3ac-4766-b158-1c03704238c0","system_id":"levelo_inurba_marseille","lat":43.28614,"lon":5.35103,"is_reserved":false,"is_disabled":false,"rental_uris":{"android":"levelo://app?vid=83af8d46-c3ac-4766-b158-1c03704238c0","ios":"levelo://app?vid=83af8d46-c3ac-4766-b158-1c03704238c0"},"vehicle_type_id":"4","last_reported":1716728831,"current_range_meters":2000,"station_id":"ce4bhch2rcd13ifvqeug","pricing_plan_id":"cebpf4jnsgd1na2vs0mg"},{"bike_id":"10d63305-217c-4f52-97ed-a26a02f0aae7","system_id":"levelo_inurba_marseille","lat":43.28614,"lon":5.35103,"is_reserved":false,"is_disabled":false,"rental_uris":{"android":"levelo://app?vid=10d63305-217c-4f52-97ed-a26a02f0aae7","ios":"levelo://app?vid=10d63305-217c-4f52-97ed-a26a02f0aae7"},"vehicle_type_id":"4","last_reported":1716728831,"current_range_meters":24800,"station_id":"ce4bhch2rcd13ifvqeug","pricing_plan_id":"cebpf4jnsgd1na2vs0mg"},{"bike_id":"915cb0d5-dd89-4d6f-98e4-745590702d24","system_id":"levelo_inurba_marseille","lat":43.28611,"lon":5.3511,"is_reserved":false,"is_disabled":false,"rental_uris":{"android":"levelo://app?vid=915cb0d5-dd89-4d6f-98e4-745590702d24","ios":"levelo://app?vid=915cb0d5-dd89-4d6f-98e4-745590702d24"},"vehicle_type_id":"4","last_reported":1716728831,"current_range_meters":31200,"station_id":"ce4bhch2rcd13ifvqeug","pricing_plan_id":"cebpf4jnsgd1na2vs0mg"},{"bike_id":"5b8d5f61-5572-49a1-b919-38d22904c52d","system_id":"levelo_inurba_marseille","lat":43.28614,"lon":5.35096,"is_reserved":false,"is_disabled":false,"rental_uris":{"android":"levelo://app?vid=5b8d5f61-5572-49a1-b919-38d22904c52d","ios":"levelo://app?vid=5b8d5f61-5572-49a1-b919-38d22904c52d"},"vehicle_type_id":"4","last_reported":1716728831,"current_range_meters":20800,"station_id":"ce4bhch2rcd13ifvqeug","pricing_plan_id":"cebpf4jnsgd1na2vs0mg"},{"bike_id":"fccc4f54-9243-44e9-8965-f31072501ca1","system_id":"levelo_inurba_marseille","lat":43.29984,"lon":5.40274,"is_reserved":false,"is_disabled":false,"rental_uris":{"android":"levelo://app?vid=fccc4f54-9243-44e9-8965-f31072501ca1","ios":"levelo://app?vid=fccc4f54-9243-44e9-8965-f31072501ca1"},"vehicle_type_id":"4","last_reported":1716728831,"current_range_meters":18800,"station_id":"","pricing_plan_id":"cebpf4jnsgd1na2vs0mg"},{"bike_id":"660f09cf-52f4-4063-b765-ab78c2b7336f","system_id":"levelo_inurba_marseille","lat":43.29955,"lon":5.40261,"is_reserved":false,"is_disabled":false,"rental_uris":{"android":"levelo://app?vid=660f09cf-52f4-4063-b765-ab78c2b7336f","ios":"levelo://app?vid=660f09cf-52f4-4063-b765-ab78c2b7336f"},"vehicle_type_id":"4","last_reported":1716728831,"current_range_meters":18800,"station_id":"","pricing_plan_id":"cebpf4jnsgd1na2vs0mg"},{"bike_id":"dc4e8602-0f6f-4e10-b6c5-3a61232cf8a6","system_id":"levelo_inurba_marseille","lat":43.283998,"lon":5.375062,"is_reserved":false,"is_disabled":false,"rental_uris":{"android":"levelo://app?vid=dc4e8602-0f6f-4e10-b6c5-3a61232cf8a6","ios":"levelo://app?vid=dc4e8602-0f6f-4e10-b6c5-3a61232cf8a6"},"vehicle_type_id":"4","last_reported":1716728831,"current_range_meters":4800,"station_id":"ce4bh412rcd13ifvqds0","pricing_plan_id":"cebpf4jnsgd1na2vs0mg"},{"bike_id":"4bcdbeb6-699f-40ca-87d3-9d73a2e1764d","system_id":"levelo_inurba_marseille","lat":43.29957,"lon":5.40293,"is_reserved":false,"is_disabled":false,"rental_uris":{"android":"levelo://app?vid=4bcdbeb6-699f-40ca-87d3-9d73a2e1764d","ios":"levelo://app?vid=4bcdbeb6-699f-40ca-87d3-9d73a2e1764d"},"vehicle_type_id":"4","last_reported":1716728831,"current_range_meters":10400,"station_id":"","pricing_plan_id":"cebpf4jnsgd1na2vs0mg"},{"bike_id":"36fb3490-a76c-4542-9cbf-99d28c86583e","system_id":"levelo_inurba_marseille","lat":43.29945,"lon":5.40293,"is_reserved":false,"is_disabled":false,"rental_uris":{"android":"levelo://app?vid=36fb3490-a76c-4542-9cbf-99d28c86583e","ios":"levelo://app?vid=36fb3490-a76c-4542-9cbf-99d28c86583e"},"vehicle_type_id":"4","last_reported":1716728831,"current_range_meters":10400,"station_id":"","pricing_plan_id":"cebpf4jnsgd1na2vs0mg"},{"bike_id":"26879562-a620-4492-9fea-8aefe63ff97d","system_id":"levelo_inurba_marseille","lat":43.286595,"lon":5.386795,"is_reserved":false,"is_disabled":false,"rental_uris":{"android":"levelo://app?vid=26879562-a620-4492-9fea-8aefe63ff97d","ios":"levelo://app?vid=26879562-a620-4492-9fea-8aefe63ff97d"},"vehicle_type_id":"4","last_reported":1716728831,"current_range_meters":31200,"station_id":"ce4bh492rcd13ifvqdug","pricing_plan_id":"cebpf4jnsgd1na2vs0mg"},{"bike_id":"e4015a55-f30c-4b0f-a183-101e63e5c524","system_id":"levelo_inurba_marseille","lat":43.319179,"lon":5.407725,"is_reserved":false,"is_disabled":false,"rental_uris":{"android":"levelo://app?vid=e4015a55-f30c-4b0f-a183-101e63e5c524","ios":"levelo://app?vid=e4015a55-f30c-4b0f-a183-101e63e5c524"},"vehicle_type_id":"4","last_reported":1716728831,"current_range_meters":31200,"station_id":"ce4bhq12rcd13ifvqhig","pricing_plan_id":"cebpf4jnsgd1na2vs0mg"},{"bike_id":"d8c977a3-4e65-4ec5-b1a0-3e681a0cd54a","system_id":"levelo_inurba_marseille","lat":43.318868,"lon":5.407386,"is_reserved":false,"is_disabled":false,"rental_uris":{"android":"levelo://app?vid=d8c977a3-4e65-4ec5-b1a0-3e681a0cd54a","ios":"levelo://app?vid=d8c977a3-4e65-4ec5-b1a0-3e681a0cd54a"},"vehicle_type_id":"4","last_reported":1716728831,"current_range_meters":25600,"station_id":"","pricing_plan_id":"cebpf4jnsgd1na2vs0mg"},{"bike_id":"1c055f58-a10d-4995-8bb9-18b745e36a7f","system_id":"levelo_inurba_marseille","lat":43.31893,"lon":5.40739,"is_reserved":false,"is_disabled":false,"rental_uris":{"android":"levelo://app?vid=1c055f58-a10d-4995-8bb9-18b745e36a7f","ios":"levelo://app?vid=1c055f58-a10d-4995-8bb9-18b745e36a7f"},"vehicle_type_id":"4","last_reported":1716728831,"current_range_meters":6800,"station_id":"ce4bhq12rcd13ifvqhig","pricing_plan_id":"cebpf4jnsgd1na2vs0mg"},{"bike_id":"5df5652e-a340-413b-a1f2-7a466147657a","system_id":"levelo_inurba_marseille","lat":43.33723,"lon":5.39175,"is_reserved":false,"is_disabled":false,"rental_uris":{"android":"levelo://app?vid=5df5652e-a340-413b-a1f2-7a466147657a","ios":"levelo://app?vid=5df5652e-a340-413b-a1f2-7a466147657a"},"vehicle_type_id":"4","last_reported":1716728831,"current_range_meters":19600,"station_id":"ce4bhr92rcd13ifvqhsg","pricing_plan_id":"cebpf4jnsgd1na2vs0mg"},{"bike_id":"98412d5e-893d-434c-805f-a2f3356fb4d6","system_id":"levelo_inurba_marseille","lat":43.32289,"lon":5.406353,"is_reserved":false,"is_disabled":false,"rental_uris":{"android":"levelo://app?vid=98412d5e-893d-434c-805f-a2f3356fb4d6","ios":"levelo://app?vid=98412d5e-893d-434c-805f-a2f3356fb4d6"},"vehicle_type_id":"4","last_reported":1716728831,"current_range_meters":10000,"station_id":"","pricing_plan_id":"cebpf4jnsgd1na2vs0mg"},{"bike_id":"9e3d90df-154c-4031-8848-21bd05867b54","system_id":"levelo_inurba_marseille","lat":43.32339,"lon":5.40612,"is_reserved":false,"is_disabled":false,"rental_uris":{"android":"levelo://app?vid=9e3d90df-154c-4031-8848-21bd05867b54","ios":"levelo://app?vid=9e3d90df-154c-4031-8848-21bd05867b54"},"vehicle_type_id":"4","last_reported":1716728831,"current_range_meters":6400,"station_id":"ce4bhq92rcd13ifvqhjg","pricing_plan_id":"cebpf4jnsgd1na2vs0mg"},{"bike_id":"f98e1806-7000-4877-836b-8d9e2d5e1d4f","system_id":"levelo_inurba_marseille","lat":43.337193,"lon":5.391847,"is_reserved":false,"is_disabled":false,"rental_uris":{"android":"levelo://app?vid=f98e1806-7000-4877-836b-8d9e2d5e1d4f","ios":"levelo://app?vid=f98e1806-7000-4877-836b-8d9e2d5e1d4f"},"vehicle_type_id":"4","last_reported":1716728831,"current_range_meters":800,"station_id":"ce4bhr92rcd13ifvqhsg","pricing_plan_id":"cebpf4jnsgd1na2vs0mg"},{"bike_id":"d29c87be-c1ed-47ba-a406-0ea460677331","system_id":"levelo_inurba_marseille","lat":43.33717,"lon":5.391857,"is_reserved":false,"is_disabled":false,"rental_uris":{"android":"levelo://app?vid=d29c87be-c1ed-47ba-a406-0ea460677331","ios":"levelo://app?vid=d29c87be-c1ed-47ba-a406-0ea460677331"},"vehicle_type_id":"4","last_reported":1716728831,"current_range_meters":24000,"station_id":"ce4bhr92rcd13ifvqhsg","pricing_plan_id":"cebpf4jnsgd1na2vs0mg"},{"bike_id":"322e67d1-3149-4d83-9990-e371e22cc699","system_id":"levelo_inurba_marseille","lat":43.337168,"lon":5.391825,"is_reserved":false,"is_disabled":false,"rental_uris":{"android":"levelo://app?vid=322e67d1-3149-4d83-9990-e371e22cc699","ios":"levelo://app?vid=322e67d1-3149-4d83-9990-e371e22cc699"},"vehicle_type_id":"4","last_reported":1716728831,"current_range_meters":7200,"station_id":"ce4bhr92rcd13ifvqhsg","pricing_plan_id":"cebpf4jnsgd1na2vs0mg"},{"bike_id":"f0fc7b35-1f13-4177-a483-7e36733dfa33","system_id":"levelo_inurba_marseille","lat":43.33717,"lon":5.391857,"is_reserved":false,"is_disabled":false,"rental_uris":{"android":"levelo://app?vid=f0fc7b35-1f13-4177-a483-7e36733dfa33","ios":"levelo://app?vid=f0fc7b35-1f13-4177-a483-7e36733dfa33"},"vehicle_type_id":"4","last_reported":1716728831,"current_range_meters":15600,"station_id":"ce4bhr92rcd13ifvqhsg","pricing_plan_id":"cebpf4jnsgd1na2vs0mg"},{"bike_id":"997be7fd-890e-414a-9f0b-64cc2a79c08c","system_id":"levelo_inurba_marseille","lat":43.323464,"lon":5.406297,"is_reserved":false,"is_disabled":false,"rental_uris":{"android":"levelo://app?vid=997be7fd-890e-414a-9f0b-64cc2a79c08c","ios":"levelo://app?vid=997be7fd-890e-414a-9f0b-64cc2a79c08c"},"vehicle_type_id":"4","last_reported":1716728831,"current_range_meters":29600,"station_id":"ce4bhq92rcd13ifvqhjg","pricing_plan_id":"cebpf4jnsgd1na2vs0mg"},{"bike_id":"24bc7d7a-f23c-49ae-b854-e8496ec48fa2","system_id":"levelo_inurba_marseille","lat":43.323464,"lon":5.406297,"is_reserved":false,"is_disabled":false,"rental_uris":{"android":"levelo://app?vid=24bc7d7a-f23c-49ae-b854-e8496ec48fa2","ios":"levelo://app?vid=24bc7d7a-f23c-49ae-b854-e8496ec48fa2"},"vehicle_type_id":"4","last_reported":1716728831,"current_range_meters":11600,"station_id":"ce4bhq92rcd13ifvqhjg","pricing_plan_id":"cebpf4jnsgd1na2vs0mg"},{"bike_id":"5259c563-1ba0-479b-b297-6f89840c0244","system_id":"levelo_inurba_marseille","lat":43.323464,"lon":5.406297,"is_reserved":false,"is_disabled":false,"rental_uris":{"android":"levelo://app?vid=5259c563-1ba0-479b-b297-6f89840c0244","ios":"levelo://app?vid=5259c563-1ba0-479b-b297-6f89840c0244"},"vehicle_type_id":"4","last_reported":1716728831,"current_range_meters":28000,"station_id":"ce4bhq92rcd13ifvqhjg","pricing_plan_id":"cebpf4jnsgd1na2vs0mg"},{"bike_id":"4dde6174-5f7b-49c4-9d04-2eb6efc7d0ed","system_id":"levelo_inurba_marseille","lat":43.323464,"lon":5.406297,"is_reserved":false,"is_disabled":false,"rental_uris":{"android":"levelo://app?vid=4dde6174-5f7b-49c4-9d04-2eb6efc7d0ed","ios":"levelo://app?vid=4dde6174-5f7b-49c4-9d04-2eb6efc7d0ed"},"vehicle_type_id":"4","last_reported":1716728831,"current_range_meters":0,"station_id":"ce4bhq92rcd13ifvqhjg","pricing_plan_id":"cebpf4jnsgd1na2vs0mg"},{"bike_id":"7c55e56a-57b1-4530-a5f7-47b638aac826","system_id":"levelo_inurba_marseille","lat":43.284219,"lon":5.3497,"is_reserved":false,"is_disabled":false,"rental_uris":{"android":"levelo://app?vid=7c55e56a-57b1-4530-a5f7-47b638aac826","ios":"levelo://app?vid=7c55e56a-57b1-4530-a5f7-47b638aac826"},"vehicle_type_id":"4","last_reported":1716728831,"current_range_meters":7200,"station_id":"ce4bhbh2rcd13ifvqepg","pricing_plan_id":"cebpf4jnsgd1na2vs0mg"},{"bike_id":"b2c8bdef-e089-4cbf-816c-55c16464fc30","system_id":"levelo_inurba_marseille","lat":43.28776,"lon":5.39147,"is_reserved":false,"is_disabled":false,"rental_uris":{"android":"levelo://app?vid=b2c8bdef-e089-4cbf-816c-55c16464fc30","ios":"levelo://app?vid=b2c8bdef-e089-4cbf-816c-55c16464fc30"},"vehicle_type_id":"4","last_reported":1716728831,"current_range_meters":0,"station_id":"","pricing_plan_id":"cebpf4jnsgd1na2vs0mg"},{"bike_id":"2328de4c-df7d-442e-8858-b1b8124956ea","system_id":"levelo_inurba_marseille","lat":43.283498,"lon":5.380948,"is_reserved":false,"is_disabled":false,"rental_uris":{"android":"levelo://app?vid=2328de4c-df7d-442e-8858-b1b8124956ea","ios":"levelo://app?vid=2328de4c-df7d-442e-8858-b1b8124956ea"},"vehicle_type_id":"4","last_reported":1716728831,"current_range_meters":0,"station_id":"ce4bh412rcd13ifvqdr0","pricing_plan_id":"cebpf4jnsgd1na2vs0mg"},{"bike_id":"63d8ff0d-a264-499e-b3b7-564ce112c361","system_id":"levelo_inurba_marseille","lat":43.284219,"lon":5.3497,"is_reserved":false,"is_disabled":false,"rental_uris":{"android":"levelo://app?vid=63d8ff0d-a264-499e-b3b7-564ce112c361","ios":"levelo://app?vid=63d8ff0d-a264-499e-b3b7-564ce112c361"},"vehicle_type_id":"4","last_reported":1716728831,"current_range_meters":12400,"station_id":"ce4bhbh2rcd13ifvqepg","pricing_plan_id":"cebpf4jnsgd1na2vs0mg"},{"bike_id":"b269eb4e-30e0-4b6e-8390-a6e9c98ed217","system_id":"levelo_inurba_marseille","lat":43.284214,"lon":5.349706,"is_reserved":false,"is_disabled":false,"rental_uris":{"android":"levelo://app?vid=b269eb4e-30e0-4b6e-8390-a6e9c98ed217","ios":"levelo://app?vid=b269eb4e-30e0-4b6e-8390-a6e9c98ed217"},"vehicle_type_id":"4","last_reported":1716728831,"current_range_meters":16800,"station_id":"ce4bhbh2rcd13ifvqepg","pricing_plan_id":"cebpf4jnsgd1na2vs0mg"},{"bike_id":"bfb96d80-73aa-4876-bb24-33faf8086fd6","system_id":"levelo_inurba_marseille","lat":43.28426,"lon":5.34994,"is_reserved":false,"is_disabled":false,"rental_uris":{"android":"levelo://app?vid=bfb96d80-73aa-4876-bb24-33faf8086fd6","ios":"levelo://app?vid=bfb96d80-73aa-4876-bb24-33faf8086fd6"},"vehicle_type_id":"4","last_reported":1716728831,"current_range_meters":30400,"station_id":"ce4bhbh2rcd13ifvqepg","pricing_plan_id":"cebpf4jnsgd1na2vs0mg"},{"bike_id":"76e6cc0f-a02c-417f-a7da-ab0ab8b9236c","system_id":"levelo_inurba_marseille","lat":43.284214,"lon":5.349706,"is_reserved":false,"is_disabled":false,"rental_uris":{"android":"levelo://app?vid=76e6cc0f-a02c-417f-a7da-ab0ab8b9236c","ios":"levelo://app?vid=76e6cc0f-a02c-417f-a7da-ab0ab8b9236c"},"vehicle_type_id":"4","last_reported":1716728831,"current_range_meters":22000,"station_id":"ce4bhbh2rcd13ifvqepg","pricing_plan_id":"cebpf4jnsgd1na2vs0mg"},{"bike_id":"62f06ef0-f780-472e-9fe1-3f432bc3969c","system_id":"levelo_inurba_marseille","lat":43.284219,"lon":5.3497,"is_reserved":false,"is_disabled":false,"rental_uris":{"android":"levelo://app?vid=62f06ef0-f780-472e-9fe1-3f432bc3969c","ios":"levelo://app?vid=62f06ef0-f780-472e-9fe1-3f432bc3969c"},"vehicle_type_id":"4","last_reported":1716728831,"current_range_meters":5600,"station_id":"ce4bhbh2rcd13ifvqepg","pricing_plan_id":"cebpf4jnsgd1na2vs0mg"},{"bike_id":"513ba04b-c305-40f0-a89d-d43ec9b9e341","system_id":"levelo_inurba_marseille","lat":43.284219,"lon":5.3497,"is_reserved":false,"is_disabled":false,"rental_uris":{"android":"levelo://app?vid=513ba04b-c305-40f0-a89d-d43ec9b9e341","ios":"levelo://app?vid=513ba04b-c305-40f0-a89d-d43ec9b9e341"},"vehicle_type_id":"4","last_reported":1716728831,"current_range_meters":8800,"station_id":"ce4bhbh2rcd13ifvqepg","pricing_plan_id":"cebpf4jnsgd1na2vs0mg"},{"bike_id":"47afeaa0-99de-4000-bcad-6bd3d4b5d859","system_id":"levelo_inurba_marseille","lat":43.284214,"lon":5.349706,"is_reserved":false,"is_disabled":false,"rental_uris":{"android":"levelo://app?vid=47afeaa0-99de-4000-bcad-6bd3d4b5d859","ios":"levelo://app?vid=47afeaa0-99de-4000-bcad-6bd3d4b5d859"},"vehicle_type_id":"4","last_reported":1716728831,"current_range_meters":30400,"station_id":"ce4bhbh2rcd13ifvqepg","pricing_plan_id":"cebpf4jnsgd1na2vs0mg"},{"bike_id":"fefcf908-596f-4145-a992-6637d851e6f0","system_id":"levelo_inurba_marseille","lat":43.28423,"lon":5.3499,"is_reserved":false,"is_disabled":false,"rental_uris":{"android":"levelo://app?vid=fefcf908-596f-4145-a992-6637d851e6f0","ios":"levelo://app?vid=fefcf908-596f-4145-a992-6637d851e6f0"},"vehicle_type_id":"4","last_reported":1716728831,"current_range_meters":18000,"station_id":"ce4bhbh2rcd13ifvqepg","pricing_plan_id":"cebpf4jnsgd1na2vs0mg"},{"bike_id":"ebae7cce-c222-4a13-972c-5f3abf2c8b4e","system_id":"levelo_inurba_marseille","lat":43.284219,"lon":5.3497,"is_reserved":false,"is_disabled":false,"rental_uris":{"android":"levelo://app?vid=ebae7cce-c222-4a13-972c-5f3abf2c8b4e","ios":"levelo://app?vid=ebae7cce-c222-4a13-972c-5f3abf2c8b4e"},"vehicle_type_id":"4","last_reported":1716728831,"current_range_meters":31200,"station_id":"ce4bhbh2rcd13ifvqepg","pricing_plan_id":"cebpf4jnsgd1na2vs0mg"},{"bike_id":"3b34952f-ed2f-4533-8558-6a3472d268c0","system_id":"levelo_inurba_marseille","lat":43.284219,"lon":5.3497,"is_reserved":false,"is_disabled":false,"rental_uris":{"android":"levelo://app?vid=3b34952f-ed2f-4533-8558-6a3472d268c0","ios":"levelo://app?vid=3b34952f-ed2f-4533-8558-6a3472d268c0"},"vehicle_type_id":"4","last_reported":1716728831,"current_range_meters":15600,"station_id":"ce4bhbh2rcd13ifvqepg","pricing_plan_id":"cebpf4jnsgd1na2vs0mg"},{"bike_id":"7fd42170-d4f7-47bd-8d4e-4026fa9adfdc","system_id":"levelo_inurba_marseille","lat":43.284219,"lon":5.3497,"is_reserved":false,"is_disabled":false,"rental_uris":{"android":"levelo://app?vid=7fd42170-d4f7-47bd-8d4e-4026fa9adfdc","ios":"levelo://app?vid=7fd42170-d4f7-47bd-8d4e-4026fa9adfdc"},"vehicle_type_id":"4","last_reported":1716728831,"current_range_meters":7600,"station_id":"ce4bhbh2rcd13ifvqepg","pricing_plan_id":"cebpf4jnsgd1na2vs0mg"},{"bike_id":"a27a8566-003d-4a02-9bb2-4ab6e7a45b6c","system_id":"levelo_inurba_marseille","lat":43.28419,"lon":5.34997,"is_reserved":false,"is_disabled":false,"rental_uris":{"android":"levelo://app?vid=a27a8566-003d-4a02-9bb2-4ab6e7a45b6c","ios":"levelo://app?vid=a27a8566-003d-4a02-9bb2-4ab6e7a45b6c"},"vehicle_type_id":"4","last_reported":1716728831,"current_range_meters":19600,"station_id":"ce4bhbh2rcd13ifvqepg","pricing_plan_id":"cebpf4jnsgd1na2vs0mg"},{"bike_id":"e68a0d8e-7644-4921-936c-721aabaef914","system_id":"levelo_inurba_marseille","lat":43.284219,"lon":5.3497,"is_reserved":false,"is_disabled":false,"rental_uris":{"android":"levelo://app?vid=e68a0d8e-7644-4921-936c-721aabaef914","ios":"levelo://app?vid=e68a0d8e-7644-4921-936c-721aabaef914"},"vehicle_type_id":"4","last_reported":1716728831,"current_range_meters":12400,"station_id":"ce4bhbh2rcd13ifvqepg","pricing_plan_id":"cebpf4jnsgd1na2vs0mg"},{"bike_id":"e57ff1e8-ea5f-4d48-a5c3-cb4644014357","system_id":"levelo_inurba_marseille","lat":43.284219,"lon":5.3497,"is_reserved":false,"is_disabled":false,"rental_uris":{"android":"levelo://app?vid=e57ff1e8-ea5f-4d48-a5c3-cb4644014357","ios":"levelo://app?vid=e57ff1e8-ea5f-4d48-a5c3-cb4644014357"},"vehicle_type_id":"4","last_reported":1716728831,"current_range_meters":26800,"station_id":"ce4bhbh2rcd13ifvqepg","pricing_plan_id":"cebpf4jnsgd1na2vs0mg"},{"bike_id":"49a3eda2-9069-4d03-987b-6e0c5b23a7e7","system_id":"levelo_inurba_marseille","lat":43.284219,"lon":5.3497,"is_reserved":false,"is_disabled":false,"rental_uris":{"android":"levelo://app?vid=49a3eda2-9069-4d03-987b-6e0c5b23a7e7","ios":"levelo://app?vid=49a3eda2-9069-4d03-987b-6e0c5b23a7e7"},"vehicle_type_id":"4","last_reported":1716728831,"current_range_meters":6800,"station_id":"ce4bhbh2rcd13ifvqepg","pricing_plan_id":"cebpf4jnsgd1na2vs0mg"},{"bike_id":"7b9c2377-f376-4f82-9079-c7aa4f523288","system_id":"levelo_inurba_marseille","lat":43.284219,"lon":5.3497,"is_reserved":false,"is_disabled":false,"rental_uris":{"android":"levelo://app?vid=7b9c2377-f376-4f82-9079-c7aa4f523288","ios":"levelo://app?vid=7b9c2377-f376-4f82-9079-c7aa4f523288"},"vehicle_type_id":"4","last_reported":1716728831,"current_range_meters":27600,"station_id":"ce4bhbh2rcd13ifvqepg","pricing_plan_id":"cebpf4jnsgd1na2vs0mg"},{"bike_id":"7590c274-d145-4748-a0de-2b6a13924199","system_id":"levelo_inurba_marseille","lat":43.284214,"lon":5.349706,"is_reserved":false,"is_disabled":false,"rental_uris":{"android":"levelo://app?vid=7590c274-d145-4748-a0de-2b6a13924199","ios":"levelo://app?vid=7590c274-d145-4748-a0de-2b6a13924199"},"vehicle_type_id":"4","last_reported":1716728831,"current_range_meters":10000,"station_id":"ce4bhbh2rcd13ifvqepg","pricing_plan_id":"cebpf4jnsgd1na2vs0mg"},{"bike_id":"aabb32e4-beef-410b-801a-ae1e6a802cde","system_id":"levelo_inurba_marseille","lat":43.284219,"lon":5.3497,"is_reserved":false,"is_disabled":false,"rental_uris":{"android":"levelo://app?vid=aabb32e4-beef-410b-801a-ae1e6a802cde","ios":"levelo://app?vid=aabb32e4-beef-410b-801a-ae1e6a802cde"},"vehicle_type_id":"4","last_reported":1716728831,"current_range_meters":22400,"station_id":"ce4bhbh2rcd13ifvqepg","pricing_plan_id":"cebpf4jnsgd1na2vs0mg"},{"bike_id":"dca364f8-6b5b-4a18-86d0-c180131df755","system_id":"levelo_inurba_marseille","lat":43.28421,"lon":5.34983,"is_reserved":false,"is_disabled":false,"rental_uris":{"android":"levelo://app?vid=dca364f8-6b5b-4a18-86d0-c180131df755","ios":"levelo://app?vid=dca364f8-6b5b-4a18-86d0-c180131df755"},"vehicle_type_id":"4","last_reported":1716728831,"current_range_meters":11200,"station_id":"ce4bhbh2rcd13ifvqepg","pricing_plan_id":"cebpf4jnsgd1na2vs0mg"},{"bike_id":"30c4ec97-8e3d-4b08-aa2b-a78721cdd752","system_id":"levelo_inurba_marseille","lat":43.284197,"lon":5.349871,"is_reserved":false,"is_disabled":false,"rental_uris":{"android":"levelo://app?vid=30c4ec97-8e3d-4b08-aa2b-a78721cdd752","ios":"levelo://app?vid=30c4ec97-8e3d-4b08-aa2b-a78721cdd752"},"vehicle_type_id":"4","last_reported":1716728831,"current_range_meters":5200,"station_id":"ce4bhbh2rcd13ifvqepg","pricing_plan_id":"cebpf4jnsgd1na2vs0mg"},{"bike_id":"2b8c3848-6959-4bcb-9d50-05ee88f19c8a","system_id":"levelo_inurba_marseille","lat":43.284214,"lon":5.349706,"is_reserved":false,"is_disabled":false,"rental_uris":{"android":"levelo://app?vid=2b8c3848-6959-4bcb-9d50-05ee88f19c8a","ios":"levelo://app?vid=2b8c3848-6959-4bcb-9d50-05ee88f19c8a"},"vehicle_type_id":"4","last_reported":1716728831,"current_range_meters":28400,"station_id":"ce4bhbh2rcd13ifvqepg","pricing_plan_id":"cebpf4jnsgd1na2vs0mg"},{"bike_id":"60420a63-0810-4ff5-b8b7-f17762f75fa8","system_id":"levelo_inurba_marseille","lat":43.28418,"lon":5.3499,"is_reserved":false,"is_disabled":false,"rental_uris":{"android":"levelo://app?vid=60420a63-0810-4ff5-b8b7-f17762f75fa8","ios":"levelo://app?vid=60420a63-0810-4ff5-b8b7-f17762f75fa8"},"vehicle_type_id":"4","last_reported":1716728831,"current_range_meters":16800,"station_id":"ce4bhbh2rcd13ifvqepg","pricing_plan_id":"cebpf4jnsgd1na2vs0mg"},{"bike_id":"b87c422d-1f77-4cc2-b883-529e5844bdf8","system_id":"levelo_inurba_marseille","lat":43.28418,"lon":5.34989,"is_reserved":false,"is_disabled":false,"rental_uris":{"android":"levelo://app?vid=b87c422d-1f77-4cc2-b883-529e5844bdf8","ios":"levelo://app?vid=b87c422d-1f77-4cc2-b883-529e5844bdf8"},"vehicle_type_id":"4","last_reported":1716728831,"current_range_meters":26800,"station_id":"ce4bhbh2rcd13ifvqepg","pricing_plan_id":"cebpf4jnsgd1na2vs0mg"},{"bike_id":"8120279e-4661-4929-b849-0be72037f6db","system_id":"levelo_inurba_marseille","lat":43.284219,"lon":5.3497,"is_reserved":false,"is_disabled":false,"rental_uris":{"android":"levelo://app?vid=8120279e-4661-4929-b849-0be72037f6db","ios":"levelo://app?vid=8120279e-4661-4929-b849-0be72037f6db"},"vehicle_type_id":"4","last_reported":1716728831,"current_range_meters":20800,"station_id":"ce4bhbh2rcd13ifvqepg","pricing_plan_id":"cebpf4jnsgd1na2vs0mg"},{"bike_id":"9a22781a-1892-4768-8caf-e6382667a7de","system_id":"levelo_inurba_marseille","lat":43.284219,"lon":5.3497,"is_reserved":false,"is_disabled":false,"rental_uris":{"android":"levelo://app?vid=9a22781a-1892-4768-8caf-e6382667a7de","ios":"levelo://app?vid=9a22781a-1892-4768-8caf-e6382667a7de"},"vehicle_type_id":"4","last_reported":1716728831,"current_range_meters":15200,"station_id":"ce4bhbh2rcd13ifvqepg","pricing_plan_id":"cebpf4jnsgd1na2vs0mg"},{"bike_id":"693bcb21-ba41-452e-9e46-25aae1cbc4ad","system_id":"levelo_inurba_marseille","lat":43.284214,"lon":5.349706,"is_reserved":false,"is_disabled":false,"rental_uris":{"android":"levelo://app?vid=693bcb21-ba41-452e-9e46-25aae1cbc4ad","ios":"levelo://app?vid=693bcb21-ba41-452e-9e46-25aae1cbc4ad"},"vehicle_type_id":"4","last_reported":1716728831,"current_range_meters":28000,"station_id":"ce4bhbh2rcd13ifvqepg","pricing_plan_id":"cebpf4jnsgd1na2vs0mg"},{"bike_id":"11d028d9-c30b-4b33-a7e1-bf83864ffb60","system_id":"levelo_inurba_marseille","lat":43.28418,"lon":5.34986,"is_reserved":false,"is_disabled":false,"rental_uris":{"android":"levelo://app?vid=11d028d9-c30b-4b33-a7e1-bf83864ffb60","ios":"levelo://app?vid=11d028d9-c30b-4b33-a7e1-bf83864ffb60"},"vehicle_type_id":"4","last_reported":1716728831,"current_range_meters":5200,"station_id":"ce4bhbh2rcd13ifvqepg","pricing_plan_id":"cebpf4jnsgd1na2vs0mg"},{"bike_id":"5864ffae-6678-4fba-9787-3f3d2f6fbf35","system_id":"levelo_inurba_marseille","lat":43.28418,"lon":5.34986,"is_reserved":false,"is_disabled":false,"rental_uris":{"android":"levelo://app?vid=5864ffae-6678-4fba-9787-3f3d2f6fbf35","ios":"levelo://app?vid=5864ffae-6678-4fba-9787-3f3d2f6fbf35"},"vehicle_type_id":"4","last_reported":1716728831,"current_range_meters":9600,"station_id":"ce4bhbh2rcd13ifvqepg","pricing_plan_id":"cebpf4jnsgd1na2vs0mg"},