{"last_updated":1727424752,"ttl":60,"version":"2.2","data":{"bikes":[{"bike_id":"64ca71dd-5904-415d-92d5-f660e650c5a5","system_id":"levelo_inurba_marseille","lat":43.29537,"lon":5.37507,"is_reserved":false,"is_disabled":false,"rental_uris":{"android":"levelo://app?vid=64ca71dd-5904-415d-92d5-f660e650c5a5","ios":"levelo://app?vid=64ca71dd-5904-415d-92d5-f660e650c5a5"},"vehicle_type_id":"4","last_reported":1727424752,"current_range_meters":32400,"station_id":"ce4bgkp2rcd13ifvqbmg","pricing_plan_id":"cebpf4jnsgd1na2vs0mg"},{"bike_id":"8a0b0af0-3d83-43c5-9153-c1889f30991c","system_id":"levelo_inurba_marseille","lat":43.28482,"lon":5.38423,"is_reserved":false,"is_disabled":false,"rental_uris":{"android":"levelo://app?vid=8a0b0af0-3d83-43c5-9153-c1889f30991c","ios":"levelo://app?vid=8a0b0af0-3d83-43c5-9153-c1889f30991c"},"vehicle_type_id":"4","last_reported":1727424752,"current_range_meters":14400,"station_id":"ce4bh512rcd13ifvqe3g","pricing_plan_id":"cebpf4jnsgd1na2vs0mg"},{"bike_id":"211f5ab7-43e6-4c63-98db-170f7b913bc3","system_id":"levelo_inurba_marseille","lat":43.30486,"lon":5.37927,"is_reserved":false,"is_disabled":false,"rental_uris":{"android":"levelo://app?vid=211f5ab7-43e6-4c63-98db-170f7b913bc3","ios":"levelo://app?vid=211f5ab7-43e6-4c63-98db-170f7b913bc3"},"vehicle_type_id":"4","last_reported":1727424752,"current_range_meters":19200,"station_id":"ce4bgup2rcd13ifvqcn0","pricing_plan_id":"cebpf4jnsgd1na2vs0mg"},{"bike_id":"9cc3f55e-f15a-4c6e-9aad-7382ccb1af3f","system_id":"levelo_inurba_marseille","lat":43.30155,"lon":5.38077,"is_reserved":false,"is_disabled":false,"rental_uris":{"android":"levelo://app?vid=9cc3f55e-f15a-4c6e-9aad-7382ccb1af3f","ios":"levelo://app?vid=9cc3f55e-f15a-4c6e-9aad-7382ccb1af3f"},"vehicle_type_id":"4","last_reported":1727424752,"current_range_meters":8800,"station_id":"ce4bgjp2rcd13ifvqbh0","pricing_plan_id":"cebpf4jnsgd1na2vs0mg"},{"bike_id":"80a2ea79-d147-4a5b-9067-688cf10a1e59","system_id":"levelo_inurba_marseille","lat":43.30475,"lon":5.37913,"is_reserved":false,"is_disabled":false,"rental_uris":{"android":"levelo://app?vid=80a2ea79-d147-4a5b-9067-688cf10a1e59","ios":"levelo://app?vid=80a2ea79-d147-4a5b-9067-688cf10a1e59"},"vehicle_type_id":"4","last_reported":1727424752,"current_range_meters":25200,"station_id":"ce4bgup2rcd13ifvqcn0","pricing_plan_id":"cebpf4jnsgd1na2vs0mg"},{"bike_id":"b7d4c31a-d244-4726-a6c8-7797d4822f89","system_id":"levelo_inurba_marseille","lat":43.25933,"lon":5.40898,"is_reserved":false,"is_disabled":false,"rental_uris":{"android":"levelo://app?vid=b7d4c31a-d244-4726-a6c8-7797d4822f89","ios":"levelo://app?vid=b7d4c31a-d244-4726-a6c8-7797d4822f89"},"vehicle_type_id":"4","last_reported":1727424752,"current_range_meters":34800,"station_id":"ce4bhm92rcd13ifvqglg","pricing_plan_id":"cebpf4jnsgd1na2vs0mg"},{"bike_id":"2fb200d7-7ff2-47e1-ab61-4c1a5539af3e","system_id":"levelo_inurba_marseille","lat":43.33607,"lon":5.41037,"is_reserved":false,"is_disabled":false,"rental_uris":{"android":"levelo://app?vid=2fb200d7-7ff2-47e1-ab61-4c1a5539af3e","ios":"levelo://app?vid=2fb200d7-7ff2-47e1-ab61-4c1a5539af3e"},"vehicle_type_id":"4","last_reported":1727424752,"current_range_meters":38000,"station_id":"ce4bhqh2rcd13ifvqhmg","pricing_plan_id":"cebpf4jnsgd1na2vs0mg"},{"bike_id":"319a95fd-4cb6-4140-b1df-59a1aab23798","system_id":"levelo_inurba_marseille","lat":43.23136,"lon":5.43731,"is_reserved":false,"is_disabled":false,"rental_uris":{"android":"levelo://app?vid=319a95fd-4cb6-4140-b1df-59a1aab23798","ios":"levelo://app?vid=319a95fd-4cb6-4140-b1df-59a1aab23798"},"vehicle_type_id":"4","last_reported":1727424752,"current_range_meters":14800,"station_id":"ce4bhmp2rcd13ifvqgog","pricing_plan_id":"cebpf4jnsgd1na2vs0mg"},{"bike_id":"5f5467ca-0486-444e-85fa-d152fd5f6569","system_id":"levelo_inurba_marseille","lat":43.30129,"lon":5.37424,"is_reserved":false,"is_disabled":false,"rental_uris":{"android":"levelo://app?vid=5f5467ca-0486-444e-85fa-d152fd5f6569","ios":"levelo://app?vid=5f5467ca-0486-444e-85fa-d152fd5f6569"},"vehicle_type_id":"4","last_reported":1727424752,"current_range_meters":6800,"station_id":"ce4bgs92rcd13ifvqcc0","pricing_plan_id":"cebpf4jnsgd1na2vs0mg"},{"bike_id":"9498b4e3-b6e6-4adc-8cd9-8261832b8ae6","system_id":"levelo_inurba_marseille","lat":43.274267,"lon":5.394,"is_reserved":false,"is_disabled":false,"rental_uris":{"android":"levelo://app?vid=9498b4e3-b6e6-4adc-8cd9-8261832b8ae6","ios":"levelo://app?vid=9498b4e3-b6e6-4adc-8cd9-8261832b8ae6"},"vehicle_type_id":"4","last_reported":1727424752,"current_range_meters":40000,"station_id":"ce4bhdp2rcd13ifvqf20","pricing_plan_id":"cebpf4jnsgd1na2vs0mg"},{"bike_id":"00482625-2a1f-4d9c-b0de-68a86c151684","system_id":"levelo_inurba_marseille","lat":43.2594,"lon":5.40903,"is_reserved":false,"is_disabled":false,"rental_uris":{"android":"levelo://app?vid=00482625-2a1f-4d9c-b0de-68a86c151684","ios":"levelo://app?vid=00482625-2a1f-4d9c-b0de-68a86c151684"},"vehicle_type_id":"4","last_reported":1727424752,"current_range_meters":27600,"station_id":"ce4bhm92rcd13ifvqglg","pricing_plan_id":"cebpf4jnsgd1na2vs0mg"},{"bike_id":"466fdbed-b984-43c4-ae45-c4a7044e07f8","system_id":"levelo_inurba_marseille","lat":43.2979,"lon":5.38112,"is_reserved":false,"is_disabled":false,"rental_uris":{"android":"levelo://app?vid=466fdbed-b984-43c4-ae45-c4a7044e07f8","ios":"levelo://app?vid=466fdbed-b984-43c4-ae45-c4a7044e07f8"},"vehicle_type_id":"4","last_reported":1727424752,"current_range_meters":11200,"station_id":"ce4bgip2rcd13ifvqbb0","pricing_plan_id":"cebpf4jnsgd1na2vs0mg"},{"bike_id":"bb8211e6-c6e0-41ff-8327-d38f15faa4ac","system_id":"levelo_inurba_marseille","lat":43.28703,"lon":5.37944,"is_reserved":false,"is_disabled":false,"rental_uris":{"android":"levelo://app?vid=bb8211e6-c6e0-41ff-8327-d38f15faa4ac","ios":"levelo://app?vid=bb8211e6-c6e0-41ff-8327-d38f15faa4ac"},"vehicle_type_id":"4","last_reported":1727424752,"current_range_meters":36800,"station_id":"ce4bh9p2rcd13ifvqec0","pricing_plan_id":"cebpf4jnsgd1na2vs0mg"},{"bike_id":"a9669d3a-c989-4bbf-988b-b787f6909497","system_id":"levelo_inurba_marseille","lat":43.32661,"lon":5.40982,"is_reserved":false,"is_disabled":false,"rental_uris":{"android":"levelo://app?vid=a9669d3a-c989-4bbf-988b-b787f6909497","ios":"levelo://app?vid=a9669d3a-c989-4bbf-988b-b787f6909497"},"vehicle_type_id":"4","last_reported":1727424752,"current_range_meters":36400,"station_id":"ce4bhpp2rcd13ifvqhgg","pricing_plan_id":"cebpf4jnsgd1na2vs0mg"},{"bike_id":"5934b7ec-6fce-4b40-aeb2-d3d0e41e7a53","system_id":"levelo_inurba_marseille","lat":43.2815,"lon":5.42635,"is_reserved":false,"is_disabled":false,"rental_uris":{"android":"levelo://app?vid=5934b7ec-6fce-4b40-aeb2-d3d0e41e7a53","ios":"levelo://app?vid=5934b7ec-6fce-4b40-aeb2-d3d0e41e7a53"},"vehicle_type_id":"4","last_reported":1727424752,"current_range_meters":11200,"station_id":"ce4bhnh2rcd13ifvqgug","pricing_plan_id":"cebpf4jnsgd1na2vs0mg"},{"bike_id":"4cb89408-6a8d-4d4a-8246-f85449cf6db0","system_id":"levelo_inurba_marseille","lat":43.30949,"lon":5.39031,"is_reserved":false,"is_disabled":false,"rental_uris":{"android":"levelo://app?vid=4cb89408-6a8d-4d4a-8246-f85449cf6db0","ios":"levelo://app?vid=4cb89408-6a8d-4d4a-8246-f85449cf6db0"},"vehicle_type_id":"4","last_reported":1727424752,"current_range_meters":28800,"station_id":"ce4bgup2rcd13ifvqco0","pricing_plan_id":"cebpf4jnsgd1na2vs0mg"},{"bike_id":"68106f84-feb1-43cf-bcaf-9df11ef76cd7","system_id":"levelo_inurba_marseille","lat":43.315283,"lon":5.386767,"is_reserved":false,"is_disabled":false,"rental_uris":{"android":"levelo://app?vid=68106f84-feb1-43cf-bcaf-9df11ef76cd7","ios":"levelo://app?vid=68106f84-feb1-43cf-bcaf-9df11ef76cd7"},"vehicle_type_id":"4","last_reported":1727424752,"current_range_meters":24400,"station_id":"ce4bhqp2rcd13ifvqhng","pricing_plan_id":"cebpf4jnsgd1na2vs0mg"},{"bike_id":"49823430-c97a-48c2-90b3-fe5819646df5","system_id":"levelo_inurba_marseille","lat":43.29164,"lon":5.37157,"is_reserved":false,"is_disabled":false,"rental_uris":{"android":"levelo://app?vid=49823430-c97a-48c2-90b3-fe5819646df5","ios":"levelo://app?vid=49823430-c97a-48c2-90b3-fe5819646df5"},"vehicle_type_id":"4","last_reported":1727424752,"current_range_meters":22000,"station_id":"ce4bha92rcd13ifvqeh0","pricing_plan_id":"cebpf4jnsgd1na2vs0mg"},{"bike_id":"088562bc-64d4-46a5-8f3e-99abf39bc338","system_id":"levelo_inurba_marseille","lat":43.30547,"lon":5.36546,"is_reserved":false,"is_disabled":false,"rental_uris":{"android":"levelo://app?vid=088562bc-64d4-46a5-8f3e-99abf39bc338","ios":"levelo://app?vid=088562bc-64d4-46a5-8f3e-99abf39bc338"},"vehicle_type_id":"4","last_reported":1727424752,"current_range_meters":29600,"station_id":"ce4bgs12rcd13ifvqcag","pricing_plan_id":"cebpf4jnsgd1na2vs0mg"},{"bike_id":"55f4f50b-d6dd-4e12-86b3-1486da4af7d9","system_id":"levelo_inurba_marseille","lat":43.22929,"lon":5.35377,"is_reserved":false,"is_disabled":false,"rental_uris":{"android":"levelo://app?vid=55f4f50b-d6dd-4e12-86b3-1486da4af7d9","ios":"levelo://app?vid=55f4f50b-d6dd-4e12-86b3-1486da4af7d9"},"vehicle_type_id":"4","last_reported":1727424752,"current_range_meters":36400,"station_id":"cpo3532slgdg3j2ikp40","pricing_plan_id":"cebpf4jnsgd1na2vs0mg"},{"bike_id":"abea2d8e-e083-4cba-85dd-1f990cc17f7c","system_id":"levelo_inurba_marseille","lat":43.29268,"lon":5.40133,"is_reserved":false,"is_disabled":false,"rental_uris":{"android":"levelo://app?vid=abea2d8e-e083-4cba-85dd-1f990cc17f7c","ios":"levelo://app?vid=abea2d8e-e083-4cba-85dd-1f990cc17f7c"},"vehicle_type_id":"4","last_reported":1727424752,"current_range_meters":38800,"station_id":"ce4bh312rcd13ifvqdk0","pricing_plan_id":"cebpf4jnsgd1na2vs0mg"},{"bike_id":"8375139e-18f8-4cf4-90b3-f619b755fe59","system_id":"levelo_inurba_marseille","lat":43.24136,"lon":5.37875,"is_reserved":false,"is_disabled":false,"rental_uris":{"android":"levelo://app?vid=8375139e-18f8-4cf4-90b3-f619b755fe59","ios":"levelo://app?vid=8375139e-18f8-4cf4-90b3-f619b755fe59"},"vehicle_type_id":"4","last_reported":1727424752,"current_range_meters":38000,"station_id":"","pricing_plan_id":"cebpf4jnsgd1na2vs0mg"},{"bike_id":"81a5270a-cf36-45fe-9c97-762af75a36fe","system_id":"levelo_inurba_marseille","lat":43.30465,"lon":5.37908,"is_reserved":false,"is_disabled":false,"rental_uris":{"android":"levelo://app?vid=81a5270a-cf36-45fe-9c97-762af75a36fe","ios":"levelo://app?vid=81a5270a-cf36-45fe-9c97-762af75a36fe"},"vehicle_type_id":"4","last_reported":1727424752,"current_range_meters":27600,"station_id":"ce4bgup2rcd13ifvqcn0","pricing_plan_id":"cebpf4jnsgd1na2vs0mg"},{"bike_id":"2ec89ad2-7474-452f-89f5-c89440d8e308","system_id":"levelo_inurba_marseille","lat":43.23967,"lon":5.36636,"is_reserved":false,"is_disabled":false,"rental_uris":{"android":"levelo://app?vid=2ec89ad2-7474-452f-89f5-c89440d8e308","ios":"levelo://app?vid=2ec89ad2-7474-452f-89f5-c89440d8e308"},"vehicle_type_id":"4","last_reported":1727424752,"current_range_meters":9200,"station_id":"ce4bhi12rcd13ifvqfp0","pricing_plan_id":"cebpf4jnsgd1na2vs0mg"},{"bike_id":"579b21fa-9797-415c-b609-3cc9efa04ab3","system_id":"levelo_inurba_marseille","lat":43.29597,"lon":5.38103,"is_reserved":false,"is_disabled":false,"rental_uris":{"android":"levelo://app?vid=579b21fa-9797-415c-b609-3cc9efa04ab3","ios":"levelo://app?vid=579b21fa-9797-415c-b609-3cc9efa04ab3"},"vehicle_type_id":"4","last_reported":1727424752,"current_range_meters":28000,"station_id":"ce4bgl12rcd13ifvqbo0","pricing_plan_id":"cebpf4jnsgd1na2vs0mg"},{"bike_id":"1cd054ce-a4b1-44d8-afb0-3c23668c603a","system_id":"levelo_inurba_marseille","lat":43.30146,"lon":5.38097,"is_reserved":false,"is_disabled":false,"rental_uris":{"android":"levelo://app?vid=1cd054ce-a4b1-44d8-afb0-3c23668c603a","ios":"levelo://app?vid=1cd054ce-a4b1-44d8-afb0-3c23668c603a"},"vehicle_type_id":"4","last_reported":1727424752,"current_range_meters":20000,"station_id":"ce4bgjp2rcd13ifvqbh0","pricing_plan_id":"cebpf4jnsgd1na2vs0mg"},{"bike_id":"cd4c3ea5-3df9-4ccb-a55d-0c3b17cecce3","system_id":"levelo_inurba_marseille","lat":43.25738,"lon":5.39139,"is_reserved":false,"is_disabled":false,"rental_uris":{"android":"levelo://app?vid=cd4c3ea5-3df9-4ccb-a55d-0c3b17cecce3","ios":"levelo://app?vid=cd4c3ea5-3df9-4ccb-a55d-0c3b17cecce3"},"vehicle_type_id":"4","last_reported":1727424752,"current_range_meters":31200,"station_id":"","pricing_plan_id":"cebpf4jnsgd1na2vs0mg"},{"bike_id":"c9774585-325d-438e-b752-4816a5230f74","system_id":"levelo_inurba_marseille","lat":43.26206,"lon":5.37923,"is_reserved":false,"is_disabled":false,"rental_uris":{"android":"levelo://app?vid=c9774585-325d-438e-b752-4816a5230f74","ios":"levelo://app?vid=c9774585-325d-438e-b752-4816a5230f74"},"vehicle_type_id":"4","last_reported":1727424752,"current_range_meters":36800,"station_id":"ce4bhjp2rcd13ifvqg90","pricing_plan_id":"cebpf4jnsgd1na2vs0mg"},{"bike_id":"97a119a1-3338-4df7-8b8c-6726d849545c","system_id":"levelo_inurba_marseille","lat":43.33606,"lon":5.4103,"is_reserved":false,"is_disabled":false,"rental_uris":{"android":"levelo://app?vid=97a119a1-3338-4df7-8b8c-6726d849545c","ios":"levelo://app?vid=97a119a1-3338-4df7-8b8c-6726d849545c"},"vehicle_type_id":"4","last_reported":1727424752,"current_range_meters":12400,"station_id":"ce4bhqh2rcd13ifvqhmg","pricing_plan_id":"cebpf4jnsgd1na2vs0mg"},{"bike_id":"c7d67e41-8aa9-4823-aee2-38b5ec20b2b6","system_id":"levelo_inurba_marseille","lat":43.30295,"lon":5.37061,"is_reserved":false,"is_disabled":false,"rental_uris":{"android":"levelo://app?vid=c7d67e41-8aa9-4823-aee2-38b5ec20b2b6","ios":"levelo://app?vid=c7d67e41-8aa9-4823-aee2-38b5ec20b2b6"},"vehicle_type_id":"4","last_reported":1727424752,"current_range_meters":30800,"station_id":"","pricing_plan_id":"cebpf4jnsgd1na2vs0mg"},{"bike_id":"fef73e6a-dce8-4dc9-a256-d86170d529f3","system_id":"levelo_inurba_marseille","lat":43.28354,"lon":5.38627,"is_reserved":false,"is_disabled":false,"rental_uris":{"android":"levelo://app?vid=fef73e6a-dce8-4dc9-a256-d86170d529f3","ios":"levelo://app?vid=fef73e6a-dce8-4dc9-a256-d86170d529f3"},"vehicle_type_id":"4","last_reported":1727424752,"current_range_meters":37600,"station_id":"ce4bh492rcd13ifvqdvg","pricing_plan_id":"cebpf4jnsgd1na2vs0mg"},{"bike_id":"e604a65e-fbc4-4d53-b939-365cb95993f2","system_id":"levelo_inurba_marseille","lat":43.29712,"lon":5.3662,"is_reserved":false,"is_disabled":false,"rental_uris":{"android":"levelo://app?vid=e604a65e-fbc4-4d53-b939-365cb95993f2","ios":"levelo://app?vid=e604a65e-fbc4-4d53-b939-365cb95993f2"},"vehicle_type_id":"4","last_reported":1727424752,"current_range_meters":21600,"station_id":"ce4bgn12rcd13ifvqbt0","pricing_plan_id":"cebpf4jnsgd1na2vs0mg"},{"bike_id":"e71b2228-487e-43d3-aaad-9eadfa97ebeb","system_id":"levelo_inurba_marseille","lat":43.30154,"lon":5.38081,"is_reserved":false,"is_disabled":false,"rental_uris":{"android":"levelo://app?vid=e71b2228-487e-43d3-aaad-9eadfa97ebeb","ios":"levelo://app?vid=e71b2228-487e-43d3-aaad-9eadfa97ebeb"},"vehicle_type_id":"4","last_reported":1727424752,"current_range_meters":3200,"station_id":"ce4bgjp2rcd13ifvqbh0","pricing_plan_id":"cebpf4jnsgd1na2vs0mg"},{"bike_id":"eac94fcf-7009-4925-86ac-1508f5bed8e7","system_id":"levelo_inurba_marseille","lat":43.26206,"lon":5.37926,"is_reserved":false,"is_disabled":false,"rental_uris":{"android":"levelo://app?vid=eac94fcf-7009-4925-86ac-1508f5bed8e7","ios":"levelo://app?vid=eac94fcf-7009-4925-86ac-1508f5bed8e7"},"vehicle_type_id":"4","last_reported":1727424752,"current_range_meters":32000,"station_id":"ce4bhjp2rcd13ifvqg90","pricing_plan_id":"cebpf4jnsgd1na2vs0mg"},{"bike_id":"c3d6b5b8-f8fe-43d7-918a-2b3abbd580c8","system_id":"levelo_inurba_marseille","lat":43.30478,"lon":5.37916,"is_reserved":false,"is_disabled":false,"rental_uris":{"android":"levelo://app?vid=c3d6b5b8-f8fe-43d7-918a-2b3abbd580c8","ios":"levelo://app?vid=c3d6b5b8-f8fe-43d7-918a-2b3abbd580c8"},"vehicle_type_id":"4","last_reported":1727424752,"current_range_meters":6800,"station_id":"ce4bgup2rcd13ifvqcn0","pricing_plan_id":"cebpf4jnsgd1na2vs0mg"},{"bike_id":"6393bbb4-aef5-4c70-9f04-509010897e52","system_id":"levelo_inurba_marseille","lat":43.31484,"lon":5.37299,"is_reserved":false,"is_disabled":false,"rental_uris":{"android":"levelo://app?vid=6393bbb4-aef5-4c70-9f04-509010897e52","ios":"levelo://app?vid=6393bbb4-aef5-4c70-9f04-509010897e52"},"vehicle_type_id":"4","last_reported":1727424752,"current_range_meters":38800,"station_id":"ce4bgt12rcd13ifvqcd0","pricing_plan_id":"cebpf4jnsgd1na2vs0mg"},{"bike_id":"7c86993b-611b-4fca-a3eb-d554f19d3105","system_id":"levelo_inurba_marseille","lat":43.2454,"lon":5.39527,"is_reserved":false,"is_disabled":false,"rental_uris":{"android":"levelo://app?vid=7c86993b-611b-4fca-a3eb-d554f19d3105","ios":"levelo://app?vid=7c86993b-611b-4fca-a3eb-d554f19d3105"},"vehicle_type_id":"4","last_reported":1727424752,"current_range_meters":3600,"station_id":"ce4bhlp2rcd13ifvqgjg","pricing_plan_id":"cebpf4jnsgd1na2vs0mg"},{"bike_id":"fd853eee-26ff-4978-9ba1-09c929d15e16","system_id":"levelo_inurba_marseille","lat":43.305417,"lon":5.38431,"is_reserved":false,"is_disabled":false,"rental_uris":{"android":"levelo://app?vid=fd853eee-26ff-4978-9ba1-09c929d15e16","ios":"levelo://app?vid=fd853eee-26ff-4978-9ba1-09c929d15e16"},"vehicle_type_id":"4","last_reported":1727424752,"current_range_meters":17600,"station_id":"ce4bhp12rcd13ifvqh9g","pricing_plan_id":"cebpf4jnsgd1na2vs0mg"},{"bike_id":"69abde98-4227-4071-99c0-b60926b0a40b","system_id":"levelo_inurba_marseille","lat":43.33615,"lon":5.41032,"is_reserved":false,"is_disabled":false,"rental_uris":{"android":"levelo://app?vid=69abde98-4227-4071-99c0-b60926b0a40b","ios":"levelo://app?vid=69abde98-4227-4071-99c0-b60926b0a40b"},"vehicle_type_id":"4","last_reported":1727424752,"current_range_meters":30400,"station_id":"ce4bhqh2rcd13ifvqhmg","pricing_plan_id":"cebpf4jnsgd1na2vs0mg"},{"bike_id":"13d1fa7f-3172-46d6-b8a5-774106f12ce3","system_id":"levelo_inurba_marseille","lat":43.27486,"lon":5.42458,"is_reserved":false,"is_disabled":false,"rental_uris":{"android":"levelo://app?vid=13d1fa7f-3172-46d6-b8a5-774106f12ce3","ios":"levelo://app?vid=13d1fa7f-3172-46d6-b8a5-774106f12ce3"},"vehicle_type_id":"4","last_reported":1727424752,"current_range_meters":30000,"station_id":"ce4bhn92rcd13ifvqgrg","pricing_plan_id":"cebpf4jnsgd1na2vs0mg"},{"bike_id":"9145a769-947f-4ef7-b971-08c191f83f09","system_id":"levelo_inurba_marseille","lat":43.32532,"lon":5.41448,"is_reserved":false,"is_disabled":false,"rental_uris":{"android":"levelo://app?vid=9145a769-947f-4ef7-b971-08c191f83f09","ios":"levelo://app?vid=9145a769-947f-4ef7-b971-08c191f83f09"},"vehicle_type_id":"4","last_reported":1727424752,"current_range_meters":38400,"station_id":"ce4bhq12rcd13ifvqhhg","pricing_plan_id":"cebpf4jnsgd1na2vs0mg"},{"bike_id":"b6daf4df-7c90-4c5e-b397-06a87d15013f","system_id":"levelo_inurba_marseille","lat":43.33752,"lon":5.37361,"is_reserved":false,"is_disabled":false,"rental_uris":{"android":"levelo://app?vid=b6daf4df-7c90-4c5e-b397-06a87d15013f","ios":"levelo://app?vid=b6daf4df-7c90-4c5e-b397-06a87d15013f"},"vehicle_type_id":"4","last_reported":1727424752,"current_range_meters":28000,"station_id":"","pricing_plan_id":"cebpf4jnsgd1na2vs0mg"},{"bike_id":"c7907116-f085-4574-b89a-1d87589b1c6f","system_id":"levelo_inurba_marseille","lat":43.26948,"lon":5.38641,"is_reserved":false,"is_disabled":false,"rental_uris":{"android":"levelo://app?vid=c7907116-f085-4574-b89a-1d87589b1c6f","ios":"levelo://app?vid=c7907116-f085-4574-b89a-1d87589b1c6f"},"vehicle_type_id":"4","last_reported":1727424752,"current_range_meters":38800,"station_id":"ce4bhh92rcd13ifvqfh0","pricing_plan_id":"cebpf4jnsgd1na2vs0mg"},{"bike_id":"c6a8f01e-009f-4613-948c-2dd4d8bd2d71","system_id":"levelo_inurba_marseille","lat":43.30152,"lon":5.38084,"is_reserved":false,"is_disabled":false,"rental_uris":{"android":"levelo://app?vid=c6a8f01e-009f-4613-948c-2dd4d8bd2d71","ios":"levelo://app?vid=c6a8f01e-009f-4613-948c-2dd4d8bd2d71"},"vehicle_type_id":"4","last_reported":1727424752,"current_range_meters":37600,"station_id":"ce4bgjp2rcd13ifvqbh0","pricing_plan_id":"cebpf4jnsgd1na2vs0mg"},{"bike_id":"1b3d53d0-1658-4efe-ab78-5a4e9acbd7ae","system_id":"levelo_inurba_marseille","lat":43.29904,"lon":5.3814,"is_reserved":false,"is_disabled":false,"rental_uris":{"android":"levelo://app?vid=1b3d53d0-1658-4efe-ab78-5a4e9acbd7ae","ios":"levelo://app?vid=1b3d53d0-1658-4efe-ab78-5a4e9acbd7ae"},"vehicle_type_id":"4","last_reported":1727424752,"current_range_meters":32000,"station_id":"ce4bgj12rcd13ifvqbc0","pricing_plan_id":"cebpf4jnsgd1na2vs0mg"},{"bike_id":"01958bcc-1114-44e7-a1de-ed0825d11990","system_id":"levelo_inurba_marseille","lat":43.33601,"lon":5.41025,"is_reserved":false,"is_disabled":false,"rental_uris":{"android":"levelo://app?vid=01958bcc-1114-44e7-a1de-ed0825d11990","ios":"levelo://app?vid=01958bcc-1114-44e7-a1de-ed0825d11990"},"vehicle_type_id":"4","last_reported":1727424752,"current_range_meters":39200,"station_id":"ce4bhqh2rcd13ifvqhmg","pricing_plan_id":"cebpf4jnsgd1na2vs0mg"},{"bike_id":"9f25d9d7-84b3-465e-a9bc-0ca14c1b9917","system_id":"levelo_inurba_marseille","lat":43.2604,"lon":5.38718,"is_reserved":false,"is_disabled":false,"rental_uris":{"android":"levelo://app?vid=9f25d9d7-84b3-465e-a9bc-0ca14c1b9917","ios":"levelo://app?vid=9f25d9d7-84b3-465e-a9bc-0ca14c1b9917"},"vehicle_type_id":"4","last_reported":1727424752,"current_range_meters":23200,"station_id":"","pricing_plan_id":"cebpf4jnsgd1na2vs0mg"},{"bike_id":"9fc77628-c6da-4931-9676-5cf4001f1b92","system_id":"levelo_inurba_marseille","lat":43.272034,"lon":5.391806,"is_reserved":false,"is_disabled":false,"rental_uris":{"android":"levelo://app?vid=9fc77628-c6da-4931-9676-5cf4001f1b92","ios":"levelo://app?vid=9fc77628-c6da-4931-9676-5cf4001f1b92"},"vehicle_type_id":"4","last_reported":1727424752,"current_range_meters":6800,"station_id":"ce4bhmp2rcd13ifvqgog","pricing_plan_id":"cebpf4jnsgd1na2vs0mg"},{"bike_id":"5f6b143b-648b-4da2-ba26-a03ddafe1f72","system_id":"levelo_inurba_marseille","lat":43.29614,"lon":5.37716,"is_reserved":false,"is_disabled":false,"rental_uris":{"android":"levelo://app?vid=5f6b143b-648b-4da2-ba26-a03ddafe1f72","ios":"levelo://app?vid=5f6b143b-648b-4da2-ba26-a03ddafe1f72"},"vehicle_type_id":"4","last_reported":1727424752,"current_range_meters":27600,"station_id":"ce4bgi92rcd13ifvqb90","pricing_plan_id":"cebpf4jnsgd1na2vs0mg"},{"bike_id":"57bc1e84-e83e-4198-85b5-3e7f9c3f0b0b","system_id":"levelo_inurba_marseille","lat":43.241663,"lon":5.363945,"is_reserved":false,"is_disabled":false,"rental_uris":{"android":"levelo://app?vid=57bc1e84-e83e-4198-85b5-3e7f9c3f0b0b","ios":"levelo://app?vid=57bc1e84-e83e-4198-85b5-3e7f9c3f0b0b"},"vehicle_type_id":"4","last_reported":1727424752,"current_range_meters":24000,"station_id":"cpo36qri1sfpv3e86is0","pricing_plan_id":"cebpf4jnsgd1na2vs0mg"},{"bike_id":"7a8458d5-44ac-4f2e-abef-3f01eb31f7ca","system_id":"levelo_inurba_marseille","lat":43.337444,"lon":5.374475,"is_reserved":false,"is_disabled":false,"rental_uris":{"android":"levelo://app?vid=7a8458d5-44ac-4f2e-abef-3f01eb31f7ca","ios":"levelo://app?vid=7a8458d5-44ac-4f2e-abef-3f01eb31f7ca"},"vehicle_type_id":"4","last_reported":1727424752,"current_range_meters":17200,"station_id":"","pricing_plan_id":"cebpf4jnsgd1na2vs0mg"},{"bike_id":"245322ad-98ce-4a03-920e-f8861ea4255a","system_id":"levelo_inurba_marseille","lat":43.23053,"lon":5.3549,"is_reserved":false,"is_disabled":false,"rental_uris":{"android":"levelo://app?vid=245322ad-98ce-4a03-920e-f8861ea4255a","ios":"levelo://app?vid=245322ad-98ce-4a03-920e-f8861ea4255a"},"vehicle_type_id":"4","last_reported":1727424752,"current_range_meters":37600,"station_id":"cpo3342slgdg3j2ifvpg","pricing_plan_id":"cebpf4jnsgd1na2vs0mg"},{"bike_id":"59e43e8d-defc-4294-95ee-3c529091abe0","system_id":"levelo_inurba_marseille","lat":43.30141,"lon":5.37434,"is_reserved":false,"is_disabled":false,"rental_uris":{"android":"levelo://app?vid=59e43e8d-defc-4294-95ee-3c529091abe0","ios":"levelo://app?vid=59e43e8d-defc-4294-95ee-3c529091abe0"},"vehicle_type_id":"4","last_reported":1727424752,"current_range_meters":26800,"station_id":"ce4bgs92rcd13ifvqcc0","pricing_plan_id":"cebpf4jnsgd1na2vs0mg"},{"bike_id":"59bb7336-e84a-4f03-8b91-d9ff683dde39","system_id":"levelo_inurba_marseille","lat":43.301583,"lon":5.380777,"is_reserved":false,"is_disabled":false,"rental_uris":{"android":"levelo://app?vid=59bb7336-e84a-4f03-8b91-d9ff683dde39","ios":"levelo://app?vid=59bb7336-e84a-4f03-8b91-d9ff683dde39"},"vehicle_type_id":"4","last_reported":1727424752,"current_range_meters":30800,"station_id":"ce4bgjp2rcd13ifvqbh0","pricing_plan_id":"cebpf4jnsgd1na2vs0mg"},{"bike_id":"c8538eb6-2902-42ff-904b-ec3bc339e508","system_id":"levelo_inurba_marseille","lat":43.30952,"lon":5.3903,"is_reserved":false,"is_disabled":false,"rental_uris":{"android":"levelo://app?vid=c8538eb6-2902-42ff-904b-ec3bc339e508","ios":"levelo://app?vid=c8538eb6-2902-42ff-904b-ec3bc339e508"},"vehicle_type_id":"4","last_reported":1727424752,"current_range_meters":37600,"station_id":"ce4bgup2rcd13ifvqco0","pricing_plan_id":"cebpf4jnsgd1na2vs0mg"},{"bike_id":"b7b92fbd-cffd-4a1f-9948-3e7f9639c013","system_id":"levelo_inurba_marseille","lat":43.30296,"lon":5.36899,"is_reserved":false,"is_disabled":false,"rental_uris":{"android":"levelo://app?vid=b7b92fbd-cffd-4a1f-9948-3e7f9639c013","ios":"levelo://app?vid=b7b92fbd-cffd-4a1f-9948-3e7f9639c013"},"vehicle_type_id":"4","last_reported":1727424752,"current_range_meters":28400,"station_id":"ce4bgqh2rcd13ifvqc5g","pricing_plan_id":"cebpf4jnsgd1na2vs0mg"},{"bike_id":"b478bdab-ddff-4645-a824-4bd76b643799","system_id":"levelo_inurba_marseille","lat":43.30419,"lon":5.3779,"is_reserved":false,"is_disabled":false,"rental_uris":{"android":"levelo://app?vid=b478bdab-ddff-4645-a824-4bd76b643799","ios":"levelo://app?vid=b478bdab-ddff-4645-a824-4bd76b643799"},"vehicle_type_id":"4","last_reported":1727424752,"current_range_meters":24400,"station_id":"","pricing_plan_id":"cebpf4jnsgd1na2vs0mg"},{"bike_id":"0a4f9adf-3015-4d90-98fb-6812acaa9106","system_id":"levelo_inurba_marseille","lat":43.24073,"lon":5.37765,"is_reserved":false,"is_disabled":false,"rental_uris":{"android":"levelo://app?vid=0a4f9adf-3015-4d90-98fb-6812acaa9106","ios":"levelo://app?vid=0a4f9adf-3015-4d90-98fb-6812acaa9106"},"vehicle_type_id":"4","last_reported":1727424752,"current_range_meters":23200,"station_id":"ce4bhnp2rcd13ifvqgvg","pricing_plan_id":"cebpf4jnsgd1na2vs0mg"},{"bike_id":"c1352122-1815-4887-a727-30dc7964e958","system_id":"levelo_inurba_marseille","lat":43.26676,"lon":5.38265,"is_reserved":false,"is_disabled":false,"rental_uris":{"android":"levelo://app?vid=c1352122-1815-4887-a727-30dc7964e958","ios":"levelo://app?vid=c1352122-1815-4887-a727-30dc7964e958"},"vehicle_type_id":"4","last_reported":1727424752,"current_range_meters":30400,"station_id":"ce4bhg92rcd13ifvqf90","pricing_plan_id":"cebpf4jnsgd1na2vs0mg"},{"bike_id":"f2bc0ed8-26c3-478a-b8ec-55292632b42b","system_id":"levelo_inurba_marseille","lat":43.3377,"lon":5.37432,"is_reserved":false,"is_disabled":false,"rental_uris":{"android":"levelo://app?vid=f2bc0ed8-26c3-478a-b8ec-55292632b42b","ios":"levelo://app?vid=f2bc0ed8-26c3-478a-b8ec-55292632b42b"},"vehicle_type_id":"4","last_reported":1727424752,"current_range_meters":34000,"station_id":"","pricing_plan_id":"cebpf4jnsgd1na2vs0mg"},{"bike_id":"09a2f264-31ac-4fcc-a70d-94073a1fa563","system_id":"levelo_inurba_marseille","lat":43.302693,"lon":5.376948,"is_reserved":false,"is_disabled":false,"rental_uris":{"android":"levelo://app?vid=09a2f264-31ac-4fcc-a70d-94073a1fa563","ios":"levelo://app?vid=09a2f264-31ac-4fcc-a70d-94073a1fa563"},"vehicle_type_id":"4","last_reported":1727424752,"current_range_meters":32800,"station_id":"ce4bguh2rcd13ifvqcj0","pricing_plan_id":"cebpf4jnsgd1na2vs0mg"},{"bike_id":"82b21071-e460-4d63-ba05-208aa886756d","system_id":"levelo_inurba_marseille","lat":43.30548,"lon":5.36532,"is_reserved":false,"is_disabled":false,"rental_uris":{"android":"levelo://app?vid=82b21071-e460-4d63-ba05-208aa886756d","ios":"levelo://app?vid=82b21071-e460-4d63-ba05-208aa886756d"},"vehicle_type_id":"4","last_reported":1727424752,"current_range_meters":28400,"station_id":"ce4bgs12rcd13ifvqcag","pricing_plan_id":"cebpf4jnsgd1na2vs0mg"},{"bike_id":"1a4cedbe-7250-4281-b554-36d31b68031a","system_id":"levelo_inurba_marseille","lat":43.3135,"lon":5.36721,"is_reserved":false,"is_disabled":false,"rental_uris":{"android":"levelo://app?vid=1a4cedbe-7250-4281-b554-36d31b68031a","ios":"levelo://app?vid=1a4cedbe-7250-4281-b554-36d31b68031a"},"vehicle_type_id":"4","last_reported":1727424752,"current_range_meters":25600,"station_id":"ce4bgr92rcd13ifvqc6g","pricing_plan_id":"cebpf4jnsgd1na2vs0mg"},{"bike_id":"d69c4e96-06b8-47c0-b384-736b98acbf55","system_id":"levelo_inurba_marseille","lat":43.262,"lon":5.37926,"is_reserved":false,"is_disabled":false,"rental_uris":{"android":"levelo://app?vid=d69c4e96-06b8-47c0-b384-736b98acbf55","ios":"levelo://app?vid=d69c4e96-06b8-47c0-b384-736b98acbf55"},"vehicle_type_id":"4","last_reported":1727424752,"current_range_meters":16400,"station_id":"ce4bhjp2rcd13ifvqg90","pricing_plan_id":"cebpf4jnsgd1na2vs0mg"},{"bike_id":"7d022498-65f9-4fd1-90ba-7b83d725622d","system_id":"levelo_inurba_marseille","lat":43.2749,"lon":5.42444,"is_reserved":false,"is_disabled":false,"rental_uris":{"android":"levelo://app?vid=7d022498-65f9-4fd1-90ba-7b83d725622d","ios":"levelo://app?vid=7d022498-65f9-4fd1-90ba-7b83d725622d"},"vehicle_type_id":"4","last_reported":1727424752,"current_range_meters":39200,"station_id":"ce4bhn92rcd13ifvqgrg","pricing_plan_id":"cebpf4jnsgd1na2vs0mg"},{"bike_id":"55c46dca-e7be-41e8-a69d-9f094ff0f9f1","system_id":"levelo_inurba_marseille","lat":43.26689,"lon":5.38272,"is_reserved":false,"is_disabled":false,"rental_uris":{"android":"levelo://app?vid=55c46dca-e7be-41e8-a69d-9f094ff0f9f1","ios":"levelo://app?vid=55c46dca-e7be-41e8-a69d-9f094ff0f9f1"},"vehicle_type_id":"4","last_reported":1727424752,"current_range_meters":35600,"station_id":"ce4bhg92rcd13ifvqf90","pricing_plan_id":"cebpf4jnsgd1na2vs0mg"},{"bike_id":"ef333548-5b42-4805-a9c0-dab49a7bfdc3","system_id":"levelo_inurba_marseille","lat":43.32469,"lon":5.36539,"is_reserved":false,"is_disabled":false,"rental_uris":{"android":"levelo://app?vid=ef333548-5b42-4805-a9c0-dab49a7bfdc3","ios":"levelo://app?vid=ef333548-5b42-4805-a9c0-dab49a7bfdc3"},"vehicle_type_id":"4","last_reported":1727424752,"current_range_meters":39200,"station_id":"ce4bhs12rcd13ifvqhvg","pricing_plan_id":"cebpf4jnsgd1na2vs0mg"},{"bike_id":"f0105a4a-4e5b-4f6f-a0a5-01e0d2554e22","system_id":"levelo_inurba_marseille","lat":43.30139,"lon":5.37426,"is_reserved":false,"is_disabled":false,"rental_uris":{"android":"levelo://app?vid=f0105a4a-4e5b-4f6f-a0a5-01e0d2554e22","ios":"levelo://app?vid=f0105a4a-4e5b-4f6f-a0a5-01e0d2554e22"},"vehicle_type_id":"4","last_reported":1727424752,"current_range_meters":16000,"station_id":"ce4bgs92rcd13ifvqcc0","pricing_plan_id":"cebpf4jnsgd1na2vs0mg"},{"bike_id":"0968ebbe-bb82-4446-8d24-0ab8271c7a4b","system_id":"levelo_inurba_marseille","lat":43.23147,"lon":5.43719,"is_reserved":false,"is_disabled":false,"rental_uris":{"android":"levelo://app?vid=0968ebbe-bb82-4446-8d24-0ab8271c7a4b","ios":"levelo://app?vid=0968ebbe-bb82-4446-8d24-0ab8271c7a4b"},"vehicle_type_id":"4","last_reported":1727424752,"current_range_meters":24000,"station_id":"ce4bhmp2rcd13ifvqgog","pricing_plan_id":"cebpf4jnsgd1na2vs0mg"},{"bike_id":"23d05b63-3c61-47a3-94e6-76c025f39445","system_id":"levelo_inurba_marseille","lat":43.28039,"lon":5.369374,"is_reserved":false,"is_disabled":false,"rental_uris":{"android":"levelo://app?vid=23d05b63-3c61-47a3-94e6-76c025f39445","ios":"levelo://app?vid=23d05b63-3c61-47a3-94e6-76c025f39445"},"vehicle_type_id":"4","last_reported":1727424752,"current_range_meters":24800,"station_id":"ce4bha12rcd13ifvqef0","pricing_plan_id":"cebpf4jnsgd1na2vs0mg"},{"bike_id":"701ef5b0-588a-437b-99c6-a00baddfc677","system_id":"levelo_inurba_marseille","lat":43.325463,"lon":5.414415,"is_reserved":false,"is_disabled":false,"rental_uris":{"android":"levelo://app?vid=701ef5b0-588a-437b-99c6-a00baddfc677","ios":"levelo://app?vid=701ef5b0-588a-437b-99c6-a00baddfc677"},"vehicle_type_id":"4","last_reported":1727424752,"current_range_meters":38800,"station_id":"ce4bhq12rcd13ifvqhhg","pricing_plan_id":"cebpf4jnsgd1na2vs0mg"},{"bike_id":"d5bbef54-0e76-4d64-bc8a-a1819238d1a7","system_id":"levelo_inurba_marseille","lat":43.23953,"lon":5.36637,"is_reserved":false,"is_disabled":false,"rental_uris":{"android":"levelo://app?vid=d5bbef54-0e76-4d64-bc8a-a1819238d1a7","ios":"levelo://app?vid=d5bbef54-0e76-4d64-bc8a-a1819238d1a7"},"vehicle_type_id":"4","last_reported":1727424752,"current_range_meters":37600,"station_id":"ce4bhi12rcd13ifvqfp0","pricing_plan_id":"cebpf4jnsgd1na2vs0mg"},{"bike_id":"aadb9b46-4125-42b2-8420-e8327b4def86","system_id":"levelo_inurba_marseille","lat":43.27484,"lon":5.42453,"is_reserved":false,"is_disabled":false,"rental_uris":{"android":"levelo://app?vid=aadb9b46-4125-42b2-8420-e8327b4def86","ios":"levelo://app?vid=aadb9b46-4125-42b2-8420-e8327b4def86"},"vehicle_type_id":"4","last_reported":1727424752,"current_range_meters":13600,"station_id":"ce4bhn92rcd13ifvqgrg","pricing_plan_id":"cebpf4jnsgd1na2vs0mg"},{"bike_id":"a713fe86-464d-418e-80a3-dc4c31660520","system_id":"levelo_inurba_marseille","lat":43.30154,"lon":5.38082,"is_reserved":false,"is_disabled":false,"rental_uris":{"android":"levelo://app?vid=a713fe86-464d-418e-80a3-dc4c31660520","ios":"levelo://app?vid=a713fe86-464d-418e-80a3-dc4c31660520"},"vehicle_type_id":"4","last_reported":1727424752,"current_range_meters":31200,"station_id":"ce4bgjp2rcd13ifvqbh0","pricing_plan_id":"cebpf4jnsgd1na2vs0mg"},{"bike_id":"591039d5-67c5-43df-ae6f-f1c141c3a597","system_id":"levelo_inurba_marseille","lat":43.25938,"lon":5.40898,"is_reserved":false,"is_disabled":false,"rental_uris":{"android":"levelo://app?vid=591039d5-67c5-43df-ae6f-f1c141c3a597","ios":"levelo://app?vid=591039d5-67c5-43df-ae6f-f1c141c3a597"},"vehicle_type_id":"4","last_reported":1727424752,"current_range_meters":23200,"station_id":"ce4bhm92rcd13ifvqglg","pricing_plan_id":"cebpf4jnsgd1na2vs0mg"},{"bike_id":"46c7f826-6870-4085-9903-dd105da81d2b","system_id":"levelo_inurba_marseille","lat":43.24537,"lon":5.39523,"is_reserved":false,"is_disabled":false,"rental_uris":{"android":"levelo://app?vid=46c7f826-6870-4085-9903-dd105da81d2b","ios":"levelo://app?vid=46c7f826-6870-4085-9903-dd105da81d2b"},"vehicle_type_id":"4","last_reported":1727424752,"current_range_meters":12800,"station_id":"ce4bhlp2rcd13ifvqgjg","pricing_plan_id":"cebpf4jnsgd1na2vs0mg"},{"bike_id":"408c97d1-21e6-4935-996c-105fdea2968d","system_id":"levelo_inurba_marseille","lat":43.30472,"lon":5.37904,"is_reserved":false,"is_disabled":false,"rental_uris":{"android":"levelo://app?vid=408c97d1-21e6-4935-996c-105fdea2968d","ios":"levelo://app?vid=408c97d1-21e6-4935-996c-105fdea2968d"},"vehicle_type_id":"4","last_reported":1727424752,"current_range_meters":18800,"station_id":"ce4bgup2rcd13ifvqcn0","pricing_plan_id":"cebpf4jnsgd1na2vs0mg"},{"bike_id":"276b5cca-2bd9-402d-840f-e0ea7e9f1ba6","system_id":"levelo_inurba_marseille","lat":43.27309,"lon":5.39081,"is_reserved":false,"is_disabled":false,"rental_uris":{"android":"levelo://app?vid=276b5cca-2bd9-402d-840f-e0ea7e9f1ba6","ios":"levelo://app?vid=276b5cca-2bd9-402d-840f-e0ea7e9f1ba6"},"vehicle_type_id":"4","last_reported":1727424752,"current_range_meters":37600,"station_id":"ce4bhgp2rcd13ifvqfe0","pricing_plan_id":"cebpf4jnsgd1na2vs0mg"},{"bike_id":"bba7de10-169e-4f05-8c77-3ae54a142318","system_id":"levelo_inurba_marseille","lat":43.3014,"lon":5.38099,"is_reserved":false,"is_disabled":false,"rental_uris":{"android":"levelo://app?vid=bba7de10-169e-4f05-8c77-3ae54a142318","ios":"levelo://app?vid=bba7de10-169e-4f05-8c77-3ae54a142318"},"vehicle_type_id":"4","last_reported":1727424752,"current_range_meters":30000,"station_id":"ce4bgjp2rcd13ifvqbh0","pricing_plan_id":"cebpf4jnsgd1na2vs0mg"},{"bike_id":"fcae820f-ad7b-46d5-8a08-fc4e44c653aa","system_id":"levelo_inurba_marseille","lat":43.30467,"lon":5.37909,"is_reserved":false,"is_disabled":false,"rental_uris":{"android":"levelo://app?vid=fcae820f-ad7b-46d5-8a08-fc4e44c653aa","ios":"levelo://app?vid=fcae820f-ad7b-46d5-8a08-fc4e44c653aa"},"vehicle_type_id":"4","last_reported":1727424752,"current_range_meters":34000,"station_id":"ce4bgup2rcd13ifvqcn0","pricing_plan_id":"cebpf4jnsgd1na2vs0mg"},{"bike_id":"887a89df-ad82-4e63-836b-438539d6155f","system_id":"levelo_inurba_marseille","lat":43.30133,"lon":5.37423,"is_reserved":false,"is_disabled":false,"rental_uris":{"android":"levelo://app?vid=887a89df-ad82-4e63-836b-438539d6155f","ios":"levelo://app?vid=887a89df-ad82-4e63-836b-438539d6155f"},"vehicle_type_id":"4","last_reported":1727424752,"current_range_meters":30800,"station_id":"ce4bgs92rcd13ifvqcc0","pricing_plan_id":"cebpf4jnsgd1na2vs0mg"},{"bike_id":"61176cf3-9a8f-4cd2-9048-ae1d9683f6f8","system_id":"levelo_inurba_marseille","lat":43.2407,"lon":5.37754,"is_reserved":false,"is_disabled":false,"rental_uris":{"android":"levelo://app?vid=61176cf3-9a8f-4cd2-9048-ae1d9683f6f8","ios":"levelo://app?vid=61176cf3-9a8f-4cd2-9048-ae1d9683f6f8"},"vehicle_type_id":"4","last_reported":1727424752,"current_range_meters":34000,"station_id":"ce4bhnp2rcd13ifvqgvg","pricing_plan_id":"cebpf4jnsgd1na2vs0mg"},{"bike_id":"8bdc4029-cf2a-470b-876b-fa5b10fdbb91","system_id":"levelo_inurba_marseille","lat":43.23152,"lon":5.43723,"is_reserved":false,"is_disabled":false,"rental_uris":{"android":"levelo://app?vid=8bdc4029-cf2a-470b-876b-fa5b10fdbb91","ios":"levelo://app?vid=8bdc4029-cf2a-470b-876b-fa5b10fdbb91"},"vehicle_type_id":"4","last_reported":1727424752,"current_range_meters":13600,"station_id":"ce4bhmp2rcd13ifvqgog","pricing_plan_id":"cebpf4jnsgd1na2vs0mg"},{"bike_id":"79cd18bf-24f6-49cc-8c03-e741c1a271a4","system_id":"levelo_inurba_marseille","lat":43.30463,"lon":5.37912,"is_reserved":false,"is_disabled":false,"rental_uris":{"android":"levelo://app?vid=79cd18bf-24f6-49cc-8c03-e741c1a271a4","ios":"levelo://app?vid=79cd18bf-24f6-49cc-8c03-e741c1a271a4"},"vehicle_type_id":"4","last_reported":1727424752,"current_range_meters":31200,"station_id":"ce4bgup2rcd13ifvqcn0","pricing_plan_id":"cebpf4jnsgd1na2vs0mg"},{"bike_id":"b704a124-9ce0-4303-b3c7-96ad008130a9","system_id":"levelo_inurba_marseille","lat":43.33614,"lon":5.41031,"is_reserved":false,"is_disabled":false,"rental_uris":{"android":"levelo://app?vid=b704a124-9ce0-4303-b3c7-96ad008130a9","ios":"levelo://app?vid=b704a124-9ce0-4303-b3c7-96ad008130a9"},"vehicle_type_id":"4","last_reported":1727424752,"current_range_meters":37600,"station_id":"ce4bhqh2rcd13ifvqhmg","pricing_plan_id":"cebpf4jnsgd1na2vs0mg"},{"bike_id":"467cead5-f316-42e3-a8c1-400a19d7507e","system_id":"levelo_inurba_marseille","lat":43.32539,"lon":5.41436,"is_reserved":false,"is_disabled":false,"rental_uris":{"android":"levelo://app?vid=467cead5-f316-42e3-a8c1-400a19d7507e","ios":"levelo://app?vid=467cead5-f316-42e3-a8c1-400a19d7507e"},"vehicle_type_id":"4","last_reported":1727424752,"current_range_meters":22400,"station_id":"ce4bhq12rcd13ifvqhhg","pricing_plan_id":"cebpf4jnsgd1na2vs0mg"},{"bike_id":"b42f0039-49a8-4ebe-ad7d-4acfba7e1754","system_id":"levelo_inurba_marseille","lat":43.2931,"lon":5.37466,"is_reserved":false,"is_disabled":false,"rental_uris":{"android":"levelo://app?vid=b42f0039-49a8-4ebe-ad7d-4acfba7e1754","ios":"levelo://app?vid=b42f0039-49a8-4ebe-ad7d-4acfba7e1754"},"vehicle_type_id":"4","last_reported":1727424752,"current_range_meters":16400,"station_id":"ce4bgi12rcd13ifvqb70","pricing_plan_id":"cebpf4jnsgd1na2vs0mg"},{"bike_id":"102483dd-b4e9-43b9-85c9-f8208b777957","system_id":"levelo_inurba_marseille","lat":43.32471,"lon":5.36551,"is_reserved":false,"is_disabled":false,"rental_uris":{"android":"levelo://app?vid=102483dd-b4e9-43b9-85c9-f8208b777957","ios":"levelo://app?vid=102483dd-b4e9-43b9-85c9-f8208b777957"},"vehicle_type_id":"4","last_reported":1727424752,"current_range_meters":27200,"station_id":"ce4bhs12rcd13ifvqhvg","pricing_plan_id":"cebpf4jnsgd1na2vs0mg"},{"bike_id":"0b83833d-442a-4b0b-a9ea-e4a4476e019c","system_id":"levelo_inurba_marseille","lat":43.23187,"lon":5.43721,"is_reserved":false,"is_disabled":false,"rental_uris":{"android":"levelo://app?vid=0b83833d-442a-4b0b-a9ea-e4a4476e019c","ios":"levelo://app?vid=0b83833d-442a-4b0b-a9ea-e4a4476e019c"},"vehicle_type_id":"4","last_reported":1727424752,"current_range_meters":36000,"station_id":"ce4bhmp2rcd13ifvqgog","pricing_plan_id":"cebpf4jnsgd1na2vs0mg"},{"bike_id":"57915f32-d649-40b7-b4d1-2dbe157d9f0c","system_id":"levelo_inurba_marseille","lat":43.30531,"lon":5.36542,"is_reserved":false,"is_disabled":false,"rental_uris":{"android":"levelo://app?vid=57915f32-d649-40b7-b4d1-2dbe157d9f0c","ios":"levelo://app?vid=57915f32-d649-40b7-b4d1-2dbe157d9f0c"},"vehicle_type_id":"4","last_reported":1727424752,"current_range_meters":40000,"station_id":"ce4bgs12rcd13ifvqcag","pricing_plan_id":"cebpf4jnsgd1na2vs0mg"},{"bike_id":"d5e906e1-2c02-4cbd-813f-e28a93f83005","system_id":"levelo_inurba_marseille","lat":43.32533,"lon":5.41441,"is_reserved":false,"is_disabled":false,"rental_uris":{"android":"levelo://app?vid=d5e906e1-2c02-4cbd-813f-e28a93f83005","ios":"levelo://app?vid=d5e906e1-2c02-4cbd-813f-e28a93f83005"},"vehicle_type_id":"4","last_reported":1727424752,"current_range_meters":38800,"station_id":"ce4bhq12rcd13ifvqhhg","pricing_plan_id":"cebpf4jnsgd1na2vs0mg"},{"bike_id":"9a28858b-7a06-4410-bf21-847d87f705d9","system_id":"levelo_inurba_marseille","lat":43.24086,"lon":5.37734,"is_reserved":false,"is_disabled":false,"rental_uris":{"android":"levelo://app?vid=9a28858b-7a06-4410-bf21-847d87f705d9","ios":"levelo://app?vid=9a28858b-7a06-4410-bf21-847d87f705d9"},"vehicle_type_id":"4","last_reported":1727424752,"current_range_meters":19200,"station_id":"ce4bhnp2rcd13ifvqgvg","pricing_plan_id":"cebpf4jnsgd1na2vs0mg"},{"bike_id":"db925dc4-c970-4c1d-9ddf-87c17bd52d69","system_id":"levelo_inurba_marseille","lat":43.27485,"lon":5.42459,"is_reserved":false,"is_disabled":false,"rental_uris":{"android":"levelo://app?vid=db925dc4-c970-4c1d-9ddf-87c17bd52d69","ios":"levelo://app?vid=db925dc4-c970-4c1d-9ddf-87c17bd52d69"},"vehicle_type_id":"4","last_reported":1727424752,"current_range_meters":26800,"station_id":"ce4bhn92rcd13ifvqgrg","pricing_plan_id":"cebpf4jnsgd1na2vs0mg"},{"bike_id":"a07a27d3-b324-46fb-8cdd-a645a65e682f","system_id":"levelo_inurba_marseille","lat":43.23948,"lon":5.36656,"is_reserved":false,"is_disabled":false,"rental_uris":{"android":"levelo://app?vid=a07a27d3-b324-46fb-8cdd-a645a65e682f","ios":"levelo://app?vid=a07a27d3-b324-46fb-8cdd-a645a65e682f"},"vehicle_type_id":"4","last_reported":1727424752,"current_range_meters":39200,"station_id":"ce4bhi12rcd13ifvqfp0","pricing_plan_id":"cebpf4jnsgd1na2vs0mg"},{"bike_id":"5c39281c-d4de-4fe9-ac13-de702a1fded1","system_id":"levelo_inurba_marseille","lat":43.27485,"lon":5.42456,"is_reserved":false,"is_disabled":false,"rental_uris":{"android":"levelo://app?vid=5c39281c-d4de-4fe9-ac13-de702a1fded1","ios":"levelo://app?vid=5c39281c-d4de-4fe9-ac13-de702a1fded1"},"vehicle_type_id":"4","last_reported":1727424752,"current_range_meters":23200,"station_id":"ce4bhn92rcd13ifvqgrg","pricing_plan_id":"cebpf4jnsgd1na2vs0mg"},{"bike_id":"325a4adc-750a-441a-9c4c-84f833d0187a","system_id":"levelo_inurba_marseille","lat":43.29193,"lon":5.39319,"is_reserved":false,"is_disabled":false,"rental_uris":{"android":"levelo://app?vid=325a4adc-750a-441a-9c4c-84f833d0187a","ios":"levelo://app?vid=325a4adc-750a-441a-9c4c-84f833d0187a"},"vehicle_type_id":"4","last_reported":1727424752,"current_range_meters":24000,"station_id":"ce4bh192rcd13ifvqdd0","pricing_plan_id":"cebpf4jnsgd1na2vs0mg"},{"bike_id":"a6cbb9ab-09cc-4a47-b45d-7c998d78f96c","system_id":"levelo_inurba_marseille","lat":43.29841,"lon":5.36262,"is_reserved":false,"is_disabled":false,"rental_uris":{"android":"levelo://app?vid=a6cbb9ab-09cc-4a47-b45d-7c998d78f96c","ios":"levelo://app?vid=a6cbb9ab-09cc-4a47-b45d-7c998d78f96c"},"vehicle_type_id":"4","last_reported":1727424752,"current_range_meters":37600,"station_id":"ce4bgpp2rcd13ifvqc3g","pricing_plan_id":"cebpf4jnsgd1na2vs0mg"},{"bike_id":"e170871d-ceda-4bb9-8c13-351413279bce","system_id":"levelo_inurba_marseille","lat":43.24073,"lon":5.37754,"is_reserved":false,"is_disabled":false,"rental_uris":{"android":"levelo://app?vid=e170871d-ceda-4bb9-8c13-351413279bce","ios":"levelo://app?vid=e170871d-ceda-4bb9-8c13-351413279bce"},"vehicle_type_id":"4","last_reported":1727424752,"current_range_meters":34800,"station_id":"ce4bhnp2rcd13ifvqgvg","pricing_plan_id":"cebpf4jnsgd1na2vs0mg"},{"bike_id":"932c7b30-012b-4098-90b0-32794be8681f","system_id":"levelo_inurba_marseille","lat":43.33605,"lon":5.41021,"is_reserved":false,"is_disabled":false,"rental_uris":{"android":"levelo://app?vid=932c7b30-012b-4098-90b0-32794be8681f","ios":"levelo://app?vid=932c7b30-012b-4098-90b0-32794be8681f"},"vehicle_type_id":"4","last_reported":1727424752,"current_range_meters":28000,"station_id":"ce4bhqh2rcd13ifvqhmg","pricing_plan_id":"cebpf4jnsgd1na2vs0mg"},{"bike_id":"caa4c81f-46cb-4f1d-ad9b-cd20bf4c5669","system_id":"levelo_inurba_marseille","lat":43.26678,"lon":5.38264,"is_reserved":false,"is_disabled":false,"rental_uris":{"android":"levelo://app?vid=caa4c81f-46cb-4f1d-ad9b-cd20bf4c5669","ios":"levelo://app?vid=caa4c81f-46cb-4f1d-ad9b-cd20bf4c5669"},"vehicle_type_id":"4","last_reported":1727424752,"current_range_meters":2800,"station_id":"ce4bhg92rcd13ifvqf90","pricing_plan_id":"cebpf4jnsgd1na2vs0mg"},{"bike_id":"35f9aa62-58c3-42bd-8570-c0f6053c26a2","system_id":"levelo_inurba_marseille","lat":43.33601,"lon":5.41035,"is_reserved":false,"is_disabled":false,"rental_uris":{"android":"levelo://app?vid=35f9aa62-58c3-42bd-8570-c0f6053c26a2","ios":"levelo://app?vid=35f9aa62-58c3-42bd-8570-c0f6053c26a2"},"vehicle_type_id":"4","last_reported":1727424752,"current_range_meters":35200,"station_id":"ce4bhqh2rcd13ifvqhmg","pricing_plan_id":"cebpf4jnsgd1na2vs0mg"},{"bike_id":"687324a5-4fd0-4c56-8ca5-96cd2ff3a48b","system_id":"levelo_inurba_marseille","lat":43.30905,"lon":5.36854,"is_reserved":false,"is_disabled":false,"rental_uris":{"android":"levelo://app?vid=687324a5-4fd0-4c56-8ca5-96cd2ff3a48b","ios":"levelo://app?vid=687324a5-4fd0-4c56-8ca5-96cd2ff3a48b"},"vehicle_type_id":"4","last_reported":1727424752,"current_range_meters":38800,"station_id":"ce4bgn92rcd13ifvqbvg","pricing_plan_id":"cebpf4jnsgd1na2vs0mg"},{"bike_id":"d8c48252-4588-4704-86ec-4f5a0439137e","system_id":"levelo_inurba_marseille","lat":43.2955,"lon":5.42276,"is_reserved":false,"is_disabled":false,"rental_uris":{"android":"levelo://app?vid=d8c48252-4588-4704-86ec-4f5a0439137e","ios":"levelo://app?vid=d8c48252-4588-4704-86ec-4f5a0439137e"},"vehicle_type_id":"4","last_reported":1727424752,"current_range_meters":38800,"station_id":"ce4bhph2rcd13ifvqhdg","pricing_plan_id":"cebpf4jnsgd1na2vs0mg"},{"bike_id":"923b6583-27f6-48f9-a414-760497e91c1d","system_id":"levelo_inurba_marseille","lat":43.29303,"lon":5.37167,"is_reserved":false,"is_disabled":false,"rental_uris":{"android":"levelo://app?vid=923b6583-27f6-48f9-a414-760497e91c1d","ios":"levelo://app?vid=923b6583-27f6-48f9-a414-760497e91c1d"},"vehicle_type_id":"4","last_reported":1727424752,"current_range_meters":27200,"station_id":"ce4bgh92rcd13ifvqb40","pricing_plan_id":"cebpf4jnsgd1na2vs0mg"},{"bike_id":"ad826039-da61-4ac3-b5dc-7a5d9300aa12","system_id":"levelo_inurba_marseille","lat":43.30467,"lon":5.37904,"is_reserved":false,"is_disabled":false,"rental_uris":{"android":"levelo://app?vid=ad826039-da61-4ac3-b5dc-7a5d9300aa12","ios":"levelo://app?vid=ad826039-da61-4ac3-b5dc-7a5d9300aa12"},"vehicle_type_id":"4","last_reported":1727424752,"current_range_meters":20400,"station_id":"ce4bgup2rcd13ifvqcn0","pricing_plan_id":"cebpf4jnsgd1na2vs0mg"},{"bike_id":"720aa0e6-1e56-4dba-825d-68ab81240074","system_id":"levelo_inurba_marseille","lat":43.33608,"lon":5.4103,"is_reserved":false,"is_disabled":false,"rental_uris":{"android":"levelo://app?vid=720aa0e6-1e56-4dba-825d-68ab81240074","ios":"levelo://app?vid=720aa0e6-1e56-4dba-825d-68ab81240074"},"vehicle_type_id":"4","last_reported":1727424752,"current_range_meters":14400,"station_id":"ce4bhqh2rcd13ifvqhmg","pricing_plan_id":"cebpf4jnsgd1na2vs0mg"},{"bike_id":"98b5eb15-c07e-424e-9e47-b9763061a944","system_id":"levelo_inurba_marseille","lat":43.24643,"lon":5.38903,"is_reserved":false,"is_disabled":false,"rental_uris":{"android":"levelo://app?vid=98b5eb15-c07e-424e-9e47-b9763061a944","ios":"levelo://app?vid=98b5eb15-c07e-424e-9e47-b9763061a944"},"vehicle_type_id":"4","last_reported":1727424752,"current_range_meters":38800,"station_id":"ce4bhg12rcd13ifvqf60","pricing_plan_id":"cebpf4jnsgd1na2vs0mg"},{"bike_id":"4c3961a4-8a54-4949-9475-600d26661596","system_id":"levelo_inurba_marseille","lat":43.25933,"lon":5.40903,"is_reserved":false,"is_disabled":false,"rental_uris":{"android":"levelo://app?vid=4c3961a4-8a54-4949-9475-600d26661596","ios":"levelo://app?vid=4c3961a4-8a54-4949-9475-600d26661596"},"vehicle_type_id":"4","last_reported":1727424752,"current_range_meters":27600,"station_id":"ce4bhm92rcd13ifvqglg","pricing_plan_id":"cebpf4jnsgd1na2vs0mg"},{"bike_id":"4674fcea-2e76-46b6-acc4-19efb6b88b54","system_id":"levelo_inurba_marseille","lat":43.29842,"lon":5.36273,"is_reserved":false,"is_disabled":false,"rental_uris":{"android":"levelo://app?vid=4674fcea-2e76-46b6-acc4-19efb6b88b54","ios":"levelo://app?vid=4674fcea-2e76-46b6-acc4-19efb6b88b54"},"vehicle_type_id":"4","last_reported":1727424752,"current_range_meters":30800,"station_id":"ce4bgpp2rcd13ifvqc3g","pricing_plan_id":"cebpf4jnsgd1na2vs0mg"},{"bike_id":"17f08afc-009a-4a6e-a3d7-2b9f68f4e878","system_id":"levelo_inurba_marseille","lat":43.23153,"lon":5.43708,"is_reserved":false,"is_disabled":false,"rental_uris":{"android":"levelo://app?vid=17f08afc-009a-4a6e-a3d7-2b9f68f4e878","ios":"levelo://app?vid=17f08afc-009a-4a6e-a3d7-2b9f68f4e878"},"vehicle_type_id":"4","last_reported":1727424752,"current_range_meters":36400,"station_id":"ce4bhmp2rcd13ifvqgog","pricing_plan_id":"cebpf4jnsgd1na2vs0mg"},{"bike_id":"65008af4-1387-461c-82c6-af80c4c34de9","system_id":"levelo_inurba_marseille","lat":43.27937,"lon":5.41049,"is_reserved":false,"is_disabled":false,"rental_uris":{"android":"levelo://app?vid=65008af4-1387-461c-82c6-af80c4c34de9","ios":"levelo://app?vid=65008af4-1387-461c-82c6-af80c4c34de9"},"vehicle_type_id":"4","last_reported":1727424752,"current_range_meters":38000,"station_id":"ce4bhnp2rcd13ifvqh0g","pricing_plan_id":"cebpf4jnsgd1na2vs0mg"},{"bike_id":"1fd32617-43b4-4304-a809-38236a77bb4a","system_id":"levelo_inurba_marseille","lat":43.27205,"lon":5.39187,"is_reserved":false,"is_disabled":false,"rental_uris":{"android":"levelo://app?vid=1fd32617-43b4-4304-a809-38236a77bb4a","ios":"levelo://app?vid=1fd32617-43b4-4304-a809-38236a77bb4a"},"vehicle_type_id":"4","last_reported":1727424752,"current_range_meters":22800,"station_id":"ce4bhhp2rcd13ifvqfm0","pricing_plan_id":"cebpf4jnsgd1na2vs0mg"},{"bike_id":"49ae1e59-08b3-4859-a392-0191fe810cd9","system_id":"levelo_inurba_marseille","lat":43.25936,"lon":5.40898,"is_reserved":false,"is_disabled":false,"rental_uris":{"android":"levelo://app?vid=49ae1e59-08b3-4859-a392-0191fe810cd9","ios":"levelo://app?vid=49ae1e59-08b3-4859-a392-0191fe810cd9"},"vehicle_type_id":"4","last_reported":1727424752,"current_range_meters":7200,"station_id":"ce4bhm92rcd13ifvqglg","pricing_plan_id":"cebpf4jnsgd1na2vs0mg"},{"bike_id":"3dabe597-7bed-42ce-b402-93f36374a299","system_id":"levelo_inurba_marseille","lat":43.336,"lon":5.41019,"is_reserved":false,"is_disabled":false,"rental_uris":{"android":"levelo://app?vid=3dabe597-7bed-42ce-b402-93f36374a299","ios":"levelo://app?vid=3dabe597-7bed-42ce-b402-93f36374a299"},"vehicle_type_id":"4","last_reported":1727424752,"current_range_meters":26000,"station_id":"ce4bhqh2rcd13ifvqhmg","pricing_plan_id":"cebpf4jnsgd1na2vs0mg"},{"bike_id":"b4ae0804-26b1-4a71-8845-4e49df2cd494","system_id":"levelo_inurba_marseille","lat":43.30906,"lon":5.36843,"is_reserved":false,"is_disabled":false,"rental_uris":{"android":"levelo://app?vid=b4ae0804-26b1-4a71-8845-4e49df2cd494","ios":"levelo://app?vid=b4ae0804-26b1-4a71-8845-4e49df2cd494"},"vehicle_type_id":"4","last_reported":1727424752,"current_range_meters":38800,"station_id":"ce4bgn92rcd13ifvqbvg","pricing_plan_id":"cebpf4jnsgd1na2vs0mg"},{"bike_id":"47df3ffd-83c8-4a91-aabb-3eecf8a5a06b","system_id":"levelo_inurba_marseille","lat":43.23151,"lon":5.35526,"is_reserved":false,"is_disabled":false,"rental_uris":{"android":"levelo://app?vid=47df3ffd-83c8-4a91-aabb-3eecf8a5a06b","ios":"levelo://app?vid=47df3ffd-83c8-4a91-aabb-3eecf8a5a06b"},"vehicle_type_id":"4","last_reported":1727424752,"current_range_meters":10800,"station_id":"ce4bhu92rcd13ifvqi70","pricing_plan_id":"cebpf4jnsgd1na2vs0mg"},{"bike_id":"bc9873de-6a8d-467b-b427-ddae496ac02d","system_id":"levelo_inurba_marseille","lat":43.34144,"lon":5.40904,"is_reserved":false,"is_disabled":false,"rental_uris":{"android":"levelo://app?vid=bc9873de-6a8d-467b-b427-ddae496ac02d","ios":"levelo://app?vid=bc9873de-6a8d-467b-b427-ddae496ac02d"},"vehicle_type_id":"4","last_reported":1727424752,"current_range_meters":4800,"station_id":"ce4bhqh2rcd13ifvqhlg","pricing_plan_id":"cebpf4jnsgd1na2vs0mg"},{"bike_id":"adccf302-384c-4534-b367-635066cab155","system_id":"levelo_inurba_marseille","lat":43.28251,"lon":5.4304,"is_reserved":false,"is_disabled":false,"rental_uris":{"android":"levelo://app?vid=adccf302-384c-4534-b367-635066cab155","ios":"levelo://app?vid=adccf302-384c-4534-b367-635066cab155"},"vehicle_type_id":"4","last_reported":1727424752,"current_range_meters":12800,"station_id":"","pricing_plan_id":"cebpf4jnsgd1na2vs0mg"},{"bike_id":"8c8816db-27d9-4d49-b9bf-515cf4a62f34","system_id":"levelo_inurba_marseille","lat":43.26947,"lon":5.38635,"is_reserved":false,"is_disabled":false,"rental_uris":{"android":"levelo://app?vid=8c8816db-27d9-4d49-b9bf-515cf4a62f34","ios":"levelo://app?vid=8c8816db-27d9-4d49-b9bf-515cf4a62f34"},"vehicle_type_id":"4","last_reported":1727424752,"current_range_meters":37600,"station_id":"ce4bhh92rcd13ifvqfh0","pricing_plan_id":"cebpf4jnsgd1na2vs0mg"},{"bike_id":"a4fa5c55-37de-4c61-bf1b-a1f770b6199f","system_id":"levelo_inurba_marseille","lat":43.30471,"lon":5.3788,"is_reserved":false,"is_disabled":false,"rental_uris":{"android":"levelo://app?vid=a4fa5c55-37de-4c61-bf1b-a1f770b6199f","ios":"levelo://app?vid=a4fa5c55-37de-4c61-bf1b-a1f770b6199f"},"vehicle_type_id":"4","last_reported":1727424752,"current_range_meters":11200,"station_id":"ce4bgup2rcd13ifvqcn0","pricing_plan_id":"cebpf4jnsgd1na2vs0mg"},{"bike_id":"80e09071-95ff-454d-9076-2a605ea174e0","system_id":"levelo_inurba_marseille","lat":43.29842,"lon":5.36267,"is_reserved":false,"is_disabled":false,"rental_uris":{"android":"levelo://app?vid=80e09071-95ff-454d-9076-2a605ea174e0","ios":"levelo://app?vid=80e09071-95ff-454d-9076-2a605ea174e0"},"vehicle_type_id":"4","last_reported":1727424752,"current_range_meters":28800,"station_id":"ce4bgpp2rcd13ifvqc3g","pricing_plan_id":"cebpf4jnsgd1na2vs0mg"},{"bike_id":"faac7bac-c105-4d21-a51e-e0bbb12612dc","system_id":"levelo_inurba_marseille","lat":43.290924,"lon":5.381324,"is_reserved":false,"is_disabled":false,"rental_uris":{"android":"levelo://app?vid=faac7bac-c105-4d21-a51e-e0bbb12612dc","ios":"levelo://app?vid=faac7bac-c105-4d21-a51e-e0bbb12612dc"},"vehicle_type_id":"4","last_reported":1727424752,"current_range_meters":10000,"station_id":"ce4bh512rcd13ifvqe2g","pricing_plan_id":"cebpf4jnsgd1na2vs0mg"},{"bike_id":"6146c8b0-578d-44c3-a5bc-f18239fe77e8","system_id":"levelo_inurba_marseille","lat":43.32659,"lon":5.40995,"is_reserved":false,"is_disabled":false,"rental_uris":{"android":"levelo://app?vid=6146c8b0-578d-44c3-a5bc-f18239fe77e8","ios":"levelo://app?vid=6146c8b0-578d-44c3-a5bc-f18239fe77e8"},"vehicle_type_id":"4","last_reported":1727424752,"current_range_meters":38000,"station_id":"ce4bhpp2rcd13ifvqhgg","pricing_plan_id":"cebpf4jnsgd1na2vs0mg"},{"bike_id":"c4ca87ec-ca03-48c7-a6e0-fd9d603562ae","system_id":"levelo_inurba_marseille","lat":43.29251,"lon":5.39356,"is_reserved":false,"is_disabled":false,"rental_uris":{"android":"levelo://app?vid=c4ca87ec-ca03-48c7-a6e0-fd9d603562ae","ios":"levelo://app?vid=c4ca87ec-ca03-48c7-a6e0-fd9d603562ae"},"vehicle_type_id":"4","last_reported":1727424752,"current_range_meters":36400,"station_id":"ce4bh192rcd13ifvqdd0","pricing_plan_id":"cebpf4jnsgd1na2vs0mg"},{"bike_id":"6db5ec70-5ad5-488c-a7c9-64ab85ff683f","system_id":"levelo_inurba_marseille","lat":43.31532,"lon":5.38043,"is_reserved":false,"is_disabled":false,"rental_uris":{"android":"levelo://app?vid=6db5ec70-5ad5-488c-a7c9-64ab85ff683f","ios":"levelo://app?vid=6db5ec70-5ad5-488c-a7c9-64ab85ff683f"},"vehicle_type_id":"4","last_reported":1727424752,"current_range_meters":28800,"station_id":"ce4bhsp2rcd13ifvqi50","pricing_plan_id":"cebpf4jnsgd1na2vs0mg"},{"bike_id":"7dcc681e-687a-4c9a-9ee2-bdf8919d45e7","system_id":"levelo_inurba_marseille","lat":43.3015,"lon":5.38078,"is_reserved":false,"is_disabled":false,"rental_uris":{"android":"levelo://app?vid=7dcc681e-687a-4c9a-9ee2-bdf8919d45e7","ios":"levelo://app?vid=7dcc681e-687a-4c9a-9ee2-bdf8919d45e7"},"vehicle_type_id":"4","last_reported":1727424752,"current_range_meters":36800,"station_id":"ce4bgjp2rcd13ifvqbh0","pricing_plan_id":"cebpf4jnsgd1na2vs0mg"},{"bike_id":"12bb2fa0-def4-44f9-9009-061dd94ed221","system_id":"levelo_inurba_marseille","lat":43.24158,"lon":5.36399,"is_reserved":false,"is_disabled":false,"rental_uris":{"android":"levelo://app?vid=12bb2fa0-def4-44f9-9009-061dd94ed221","ios":"levelo://app?vid=12bb2fa0-def4-44f9-9009-061dd94ed221"},"vehicle_type_id":"4","last_reported":1727424752,"current_range_meters":3600,"station_id":"cpo36qri1sfpv3e86is0","pricing_plan_id":"cebpf4jnsgd1na2vs0mg"},{"bike_id":"caac2220-f204-42a6-8944-b690878e20a4","system_id":"levelo_inurba_marseille","lat":43.26199,"lon":5.37933,"is_reserved":false,"is_disabled":false,"rental_uris":{"android":"levelo://app?vid=caac2220-f204-42a6-8944-b690878e20a4","ios":"levelo://app?vid=caac2220-f204-42a6-8944-b690878e20a4"},"vehicle_type_id":"4","last_reported":1727424752,"current_range_meters":28400,"station_id":"ce4bhjp2rcd13ifvqg90","pricing_plan_id":"cebpf4jnsgd1na2vs0mg"},{"bike_id":"f916f4ea-109f-491c-b317-68616a4e1aaf","system_id":"levelo_inurba_marseille","lat":43.30468,"lon":5.37896,"is_reserved":false,"is_disabled":false,"rental_uris":{"android":"levelo://app?vid=f916f4ea-109f-491c-b317-68616a4e1aaf","ios":"levelo://app?vid=f916f4ea-109f-491c-b317-68616a4e1aaf"},"vehicle_type_id":"4","last_reported":1727424752,"current_range_meters":18000,"station_id":"ce4bgup2rcd13ifvqcn0","pricing_plan_id":"cebpf4jnsgd1na2vs0mg"},{"bike_id":"a7d6286e-71cc-401f-bbc3-7abf3526c60b","system_id":"levelo_inurba_marseille","lat":43.304339,"lon":5.397559,"is_reserved":false,"is_disabled":false,"rental_uris":{"android":"levelo://app?vid=a7d6286e-71cc-401f-bbc3-7abf3526c60b","ios":"levelo://app?vid=a7d6286e-71cc-401f-bbc3-7abf3526c60b"},"vehicle_type_id":"4","last_reported":1727424752,"current_range_meters":25600,"station_id":"ce4bh092rcd13ifvqd20","pricing_plan_id":"cebpf4jnsgd1na2vs0mg"},{"bike_id":"e5092f53-69db-4841-b3fd-6e5ec40e5450","system_id":"levelo_inurba_marseille","lat":43.26204,"lon":5.3793,"is_reserved":false,"is_disabled":false,"rental_uris":{"android":"levelo://app?vid=e5092f53-69db-4841-b3fd-6e5ec40e5450","ios":"levelo://app?vid=e5092f53-69db-4841-b3fd-6e5ec40e5450"},"vehicle_type_id":"4","last_reported":1727424752,"current_range_meters":24400,"station_id":"ce4bhjp2rcd13ifvqg90","pricing_plan_id":"cebpf4jnsgd1na2vs0mg"},{"bike_id":"2d21a934-5452-4cd4-9fa3-fb6b2a437943","system_id":"levelo_inurba_marseille","lat":43.23194,"lon":5.35558,"is_reserved":false,"is_disabled":false,"rental_uris":{"android":"levelo://app?vid=2d21a934-5452-4cd4-9fa3-fb6b2a437943","ios":"levelo://app?vid=2d21a934-5452-4cd4-9fa3-fb6b2a437943"},"vehicle_type_id":"4","last_reported":1727424752,"current_range_meters":28800,"station_id":"ce4bhu92rcd13ifvqi70","pricing_plan_id":"cebpf4jnsgd1na2vs0mg"},{"bike_id":"648788cc-0d21-4929-b174-2be41f5d6e22","system_id":"levelo_inurba_marseille","lat":43.28927,"lon":5.36645,"is_reserved":false,"is_disabled":false,"rental_uris":{"android":"levelo://app?vid=648788cc-0d21-4929-b174-2be41f5d6e22","ios":"levelo://app?vid=648788cc-0d21-4929-b174-2be41f5d6e22"},"vehicle_type_id":"4","last_reported":1727424752,"current_range_meters":2800,"station_id":"ce4bhap2rcd13ifvqek0","pricing_plan_id":"cebpf4jnsgd1na2vs0mg"},{"bike_id":"d961c983-af25-4137-beb0-8f8d41394de3","system_id":"levelo_inurba_marseille","lat":43.2315,"lon":5.43714,"is_reserved":false,"is_disabled":false,"rental_uris":{"android":"levelo://app?vid=d961c983-af25-4137-beb0-8f8d41394de3","ios":"levelo://app?vid=d961c983-af25-4137-beb0-8f8d41394de3"},"vehicle_type_id":"4","last_reported":1727424752,"current_range_meters":8400,"station_id":"ce4bhmp2rcd13ifvqgog","pricing_plan_id":"cebpf4jnsgd1na2vs0mg"},{"bike_id":"2033226c-ad5e-4558-a007-08be72b3c458","system_id":"levelo_inurba_marseille","lat":43.31997,"lon":5.38158,"is_reserved":false,"is_disabled":false,"rental_uris":{"android":"levelo://app?vid=2033226c-ad5e-4558-a007-08be72b3c458","ios":"levelo://app?vid=2033226c-ad5e-4558-a007-08be72b3c458"},"vehicle_type_id":"4","last_reported":1727424752,"current_range_meters":30800,"station_id":"ce4bhr12rcd13ifvqhpg","pricing_plan_id":"cebpf4jnsgd1na2vs0mg"},{"bike_id":"47b52101-5c5d-4cee-9208-786821a1b453","system_id":"levelo_inurba_marseille","lat":43.29366,"lon":5.37584,"is_reserved":false,"is_disabled":false,"rental_uris":{"android":"levelo://app?vid=47b52101-5c5d-4cee-9208-786821a1b453","ios":"levelo://app?vid=47b52101-5c5d-4cee-9208-786821a1b453"},"vehicle_type_id":"4","last_reported":1727424752,"current_range_meters":22800,"station_id":"ce4bgkp2rcd13ifvqbmg","pricing_plan_id":"cebpf4jnsgd1na2vs0mg"},{"bike_id":"53d6e06f-e76e-4a45-9d89-86bbf7739dee","system_id":"levelo_inurba_marseille","lat":43.3047,"lon":5.37912,"is_reserved":false,"is_disabled":false,"rental_uris":{"android":"levelo://app?vid=53d6e06f-e76e-4a45-9d89-86bbf7739dee","ios":"levelo://app?vid=53d6e06f-e76e-4a45-9d89-86bbf7739dee"},"vehicle_type_id":"4","last_reported":1727424752,"current_range_meters":28800,"station_id":"ce4bgup2rcd13ifvqcn0","pricing_plan_id":"cebpf4jnsgd1na2vs0mg"},{"bike_id":"613a85bc-56a8-4a74-a2e0-ad1521f8f60e","system_id":"levelo_inurba_marseille","lat":43.29903,"lon":5.37468,"is_reserved":false,"is_disabled":false,"rental_uris":{"android":"levelo://app?vid=613a85bc-56a8-4a74-a2e0-ad1521f8f60e","ios":"levelo://app?vid=613a85bc-56a8-4a74-a2e0-ad1521f8f60e"},"vehicle_type_id":"4","last_reported":1727424752,"current_range_meters":4400,"station_id":"ce4bgjh2rcd13ifvqbg0","pricing_plan_id":"cebpf4jnsgd1na2vs0mg"},{"bike_id":"2d7a9fb7-df81-4f65-9229-4f5ebff4a082","system_id":"levelo_inurba_marseille","lat":43.29551,"lon":5.42272,"is_reserved":false,"is_disabled":false,"rental_uris":{"android":"levelo://app?vid=2d7a9fb7-df81-4f65-9229-4f5ebff4a082","ios":"levelo://app?vid=2d7a9fb7-df81-4f65-9229-4f5ebff4a082"},"vehicle_type_id":"4","last_reported":1727424752,"current_range_meters":32800,"station_id":"ce4bhph2rcd13ifvqhdg","pricing_plan_id":"cebpf4jnsgd1na2vs0mg"},{"bike_id":"1a40a0dd-7e5d-4eee-b946-4d3154a96682","system_id":"levelo_inurba_marseille","lat":43.30274,"lon":5.377,"is_reserved":false,"is_disabled":false,"rental_uris":{"android":"levelo://app?vid=1a40a0dd-7e5d-4eee-b946-4d3154a96682","ios":"levelo://app?vid=1a40a0dd-7e5d-4eee-b946-4d3154a96682"},"vehicle_type_id":"4","last_reported":1727424752,"current_range_meters":19200,"station_id":"ce4bguh2rcd13ifvqcj0","pricing_plan_id":"cebpf4jnsgd1na2vs0mg"},{"bike_id":"51cd0e26-68b5-4158-9a80-d3445331b8f5","system_id":"levelo_inurba_marseille","lat":43.23155,"lon":5.43704,"is_reserved":false,"is_disabled":false,"rental_uris":{"android":"levelo://app?vid=51cd0e26-68b5-4158-9a80-d3445331b8f5","ios":"levelo://app?vid=51cd0e26-68b5-4158-9a80-d3445331b8f5"},"vehicle_type_id":"4","last_reported":1727424752,"current_range_meters":11600,"station_id":"ce4bhmp2rcd13ifvqgog","pricing_plan_id":"cebpf4jnsgd1na2vs0mg"},{"bike_id":"9fd094bc-8ed2-43ca-ba76-524b06869e7b","system_id":"levelo_inurba_marseille","lat":43.27492,"lon":5.42456,"is_reserved":false,"is_disabled":false,"rental_uris":{"android":"levelo://app?vid=9fd094bc-8ed2-43ca-ba76-524b06869e7b","ios":"levelo://app?vid=9fd094bc-8ed2-43ca-ba76-524b06869e7b"},"vehicle_type_id":"4","last_reported":1727424752,"current_range_meters":9600,"station_id":"ce4bhn92rcd13ifvqgrg","pricing_plan_id":"cebpf4jnsgd1na2vs0mg"},{"bike_id":"1b4b0178-3a24-4b33-98ef-05aef8dad5fc","system_id":"levelo_inurba_marseille","lat":43.26202,"lon":5.3793,"is_reserved":false,"is_disabled":false,"rental_uris":{"android":"levelo://app?vid=1b4b0178-3a24-4b33-98ef-05aef8dad5fc","ios":"levelo://app?vid=1b4b0178-3a24-4b33-98ef-05aef8dad5fc"},"vehicle_type_id":"4","last_reported":1727424752,"current_range_meters":40000,"station_id":"ce4bhjp2rcd13ifvqg90","pricing_plan_id":"cebpf4jnsgd1na2vs0mg"},{"bike_id":"840816d8-06e8-4fbc-9617-5f6d82065a83","system_id":"levelo_inurba_marseille","lat":43.27485,"lon":5.42468,"is_reserved":false,"is_disabled":false,"rental_uris":{"android":"levelo://app?vid=840816d8-06e8-4fbc-9617-5f6d82065a83","ios":"levelo://app?vid=840816d8-06e8-4fbc-9617-5f6d82065a83"},"vehicle_type_id":"4","last_reported":1727424752,"current_range_meters":36800,"station_id":"ce4bhn92rcd13ifvqgrg","pricing_plan_id":"cebpf4jnsgd1na2vs0mg"},{"bike_id":"fd862933-d712-4813-8866-a7ed5682df20","system_id":"levelo_inurba_marseille","lat":43.2315,"lon":5.43701,"is_reserved":false,"is_disabled":false,"rental_uris":{"android":"levelo://app?vid=fd862933-d712-4813-8866-a7ed5682df20","ios":"levelo://app?vid=fd862933-d712-4813-8866-a7ed5682df20"},"vehicle_type_id":"4","last_reported":1727424752,"current_range_meters":7200,"station_id":"ce4bhmp2rcd13ifvqgog","pricing_plan_id":"cebpf4jnsgd1na2vs0mg"},{"bike_id":"ed7156a3-4d59-4c34-9584-38e6409a7960","system_id":"levelo_inurba_marseille","lat":43.337444,"lon":5.374475,"is_reserved":false,"is_disabled":false,"rental_uris":{"android":"levelo://app?vid=ed7156a3-4d59-4c34-9584-38e6409a7960","ios":"levelo://app?vid=ed7156a3-4d59-4c34-9584-38e6409a7960"},"vehicle_type_id":"4","last_reported":1727424752,"current_range_meters":26800,"station_id":"ce4bh192rcd13ifvqdd0","pricing_plan_id":"cebpf4jnsgd1na2vs0mg"},{"bike_id":"fdeab252-3058-4111-add0-775c267b7e58","system_id":"levelo_inurba_marseille","lat":43.33606,"lon":5.41034,"is_reserved":false,"is_disabled":false,"rental_uris":{"android":"levelo://app?vid=fdeab252-3058-4111-add0-775c267b7e58","ios":"levelo://app?vid=fdeab252-3058-4111-add0-775c267b7e58"},"vehicle_type_id":"4","last_reported":1727424752,"current_range_meters":19200,"station_id":"ce4bhqh2rcd13ifvqhmg","pricing_plan_id":"cebpf4jnsgd1na2vs0mg"},{"bike_id":"8f819655-e95e-4e88-8138-732aff70eb6f","system_id":"levelo_inurba_marseille","lat":43.2408,"lon":5.37754,"is_reserved":false,"is_disabled":false,"rental_uris":{"android":"levelo://app?vid=8f819655-e95e-4e88-8138-732aff70eb6f","ios":"levelo://app?vid=8f819655-e95e-4e88-8138-732aff70eb6f"},"vehicle_type_id":"4","last_reported":1727424752,"current_range_meters":18800,"station_id":"ce4bhnp2rcd13ifvqgvg","pricing_plan_id":"cebpf4jnsgd1na2vs0mg"},{"bike_id":"a6cf5349-8cd6-4a2c-8eaa-db24af81f4f1","system_id":"levelo_inurba_marseille","lat":43.30185,"lon":5.36626,"is_reserved":false,"is_disabled":false,"rental_uris":{"android":"levelo://app?vid=a6cf5349-8cd6-4a2c-8eaa-db24af81f4f1","ios":"levelo://app?vid=a6cf5349-8cd6-4a2c-8eaa-db24af81f4f1"},"vehicle_type_id":"4","last_reported":1727424752,"current_range_meters":38000,"station_id":"ce4bgrh2rcd13ifvqc8g","pricing_plan_id":"cebpf4jnsgd1na2vs0mg"},{"bike_id":"7c9785a3-c8c3-45d1-92af-3131f5028d01","system_id":"levelo_inurba_marseille","lat":43.29274,"lon":5.36845,"is_reserved":false,"is_disabled":false,"rental_uris":{"android":"levelo://app?vid=7c9785a3-c8c3-45d1-92af-3131f5028d01","ios":"levelo://app?vid=7c9785a3-c8c3-45d1-92af-3131f5028d01"},"vehicle_type_id":"4","last_reported":1727424752,"current_range_meters":35200,"station_id":"ce4bhbp2rcd13ifvqesg","pricing_plan_id":"cebpf4jnsgd1na2vs0mg"},{"bike_id":"571115be-4f92-4f3c-be12-44639ba9602a","system_id":"levelo_inurba_marseille","lat":43.32528,"lon":5.41439,"is_reserved":false,"is_disabled":false,"rental_uris":{"android":"levelo://app?vid=571115be-4f92-4f3c-be12-44639ba9602a","ios":"levelo://app?vid=571115be-4f92-4f3c-be12-44639ba9602a"},"vehicle_type_id":"4","last_reported":1727424752,"current_range_meters":26000,"station_id":"ce4bhq12rcd13ifvqhhg","pricing_plan_id":"cebpf4jnsgd1na2vs0mg"},{"bike_id":"e7a340e5-9566-47cb-8d22-ce80ecf21c73","system_id":"levelo_inurba_marseille","lat":43.26942,"lon":5.38644,"is_reserved":false,"is_disabled":false,"rental_uris":{"android":"levelo://app?vid=e7a340e5-9566-47cb-8d22-ce80ecf21c73","ios":"levelo://app?vid=e7a340e5-9566-47cb-8d22-ce80ecf21c73"},"vehicle_type_id":"4","last_reported":1727424752,"current_range_meters":3600,"station_id":"ce4bhh92rcd13ifvqfh0","pricing_plan_id":"cebpf4jnsgd1na2vs0mg"},{"bike_id":"23436dae-b3bf-4339-b7bb-645a0d1e950e","system_id":"levelo_inurba_marseille","lat":43.29906,"lon":5.37472,"is_reserved":false,"is_disabled":false,"rental_uris":{"android":"levelo://app?vid=23436dae-b3bf-4339-b7bb-645a0d1e950e","ios":"levelo://app?vid=23436dae-b3bf-4339-b7bb-645a0d1e950e"},"vehicle_type_id":"4","last_reported":1727424752,"current_range_meters":37600,"station_id":"ce4bgjh2rcd13ifvqbg0","pricing_plan_id":"cebpf4jnsgd1na2vs0mg"},{"bike_id":"6a16c326-8092-4ffb-a663-abcc1e6fa22f","system_id":"levelo_inurba_marseille","lat":43.29978,"lon":5.38492,"is_reserved":false,"is_disabled":false,"rental_uris":{"android":"levelo://app?vid=6a16c326-8092-4ffb-a663-abcc1e6fa22f","ios":"levelo://app?vid=6a16c326-8092-4ffb-a663-abcc1e6fa22f"},"vehicle_type_id":"4","last_reported":1727424752,"current_range_meters":28000,"station_id":"ce4bgj92rcd13ifvqbd0","pricing_plan_id":"cebpf4jnsgd1na2vs0mg"},{"bike_id":"4174e0c9-ea8a-45cf-832b-944eca7da095","system_id":"levelo_inurba_marseille","lat":43.26553,"lon":5.39006,"is_reserved":false,"is_disabled":false,"rental_uris":{"android":"levelo://app?vid=4174e0c9-ea8a-45cf-832b-944eca7da095","ios":"levelo://app?vid=4174e0c9-ea8a-45cf-832b-944eca7da095"},"vehicle_type_id":"4","last_reported":1727424752,"current_range_meters":19600,"station_id":"ce4bhe12rcd13ifvqf30","pricing_plan_id":"cebpf4jnsgd1na2vs0mg"},{"bike_id":"cccc981f-8aae-4d65-914d-13b5a7912fee","system_id":"levelo_inurba_marseille","lat":43.269537,"lon":5.402627,"is_reserved":false,"is_disabled":false,"rental_uris":{"android":"levelo://app?vid=cccc981f-8aae-4d65-914d-13b5a7912fee","ios":"levelo://app?vid=cccc981f-8aae-4d65-914d-13b5a7912fee"},"vehicle_type_id":"4","last_reported":1727424752,"current_range_meters":4000,"station_id":"cjm6bp8fraef2m0cb0m0","pricing_plan_id":"cebpf4jnsgd1na2vs0mg"},{"bike_id":"ef3b1768-3128-4f90-82ef-cc8335211ff1","system_id":"levelo_inurba_marseille","lat":43.29568,"lon":5.42287,"is_reserved":false,"is_disabled":false,"rental_uris":{"android":"levelo://app?vid=ef3b1768-3128-4f90-82ef-cc8335211ff1","ios":"levelo://app?vid=ef3b1768-3128-4f90-82ef-cc8335211ff1"},"vehicle_type_id":"4","last_reported":1727424752,"current_range_meters":38800,"station_id":"ce4bhph2rcd13ifvqhdg","pricing_plan_id":"cebpf4jnsgd1na2vs0mg"},{"bike_id":"c8b40ef1-0000-4246-9a0f-38f6bb288127","system_id":"levelo_inurba_marseille","lat":43.29302,"lon":5.3717,"is_reserved":false,"is_disabled":false,"rental_uris":{"android":"levelo://app?vid=c8b40ef1-0000-4246-9a0f-38f6bb288127","ios":"levelo://app?vid=c8b40ef1-0000-4246-9a0f-38f6bb288127"},"vehicle_type_id":"4","last_reported":1727424752,"current_range_meters":30800,"station_id":"ce4bgh92rcd13ifvqb40","pricing_plan_id":"cebpf4jnsgd1na2vs0mg"},{"bike_id":"85002f6e-ebfd-48de-af43-367fbe507e10","system_id":"levelo_inurba_marseille","lat":43.29039,"lon":5.37564,"is_reserved":false,"is_disabled":false,"rental_uris":{"android":"levelo://app?vid=85002f6e-ebfd-48de-af43-367fbe507e10","ios":"levelo://app?vid=85002f6e-ebfd-48de-af43-367fbe507e10"},"vehicle_type_id":"4","last_reported":1727424752,"current_range_meters":20000,"station_id":"ce4bh692rcd13ifvqe90","pricing_plan_id":"cebpf4jnsgd1na2vs0mg"},{"bike_id":"d03856c3-8a24-43aa-a48a-8787bc340424","system_id":"levelo_inurba_marseille","lat":43.30898,"lon":5.36847,"is_reserved":false,"is_disabled":false,"rental_uris":{"android":"levelo://app?vid=d03856c3-8a24-43aa-a48a-8787bc340424","ios":"levelo://app?vid=d03856c3-8a24-43aa-a48a-8787bc340424"},"vehicle_type_id":"4","last_reported":1727424752,"current_range_meters":30800,"station_id":"ce4bgn92rcd13ifvqbvg","pricing_plan_id":"cebpf4jnsgd1na2vs0mg"},{"bike_id":"9c802d72-a3ef-463a-ad77-5644542a6e53","system_id":"levelo_inurba_marseille","lat":43.30466,"lon":5.37908,"is_reserved":false,"is_disabled":false,"rental_uris":{"android":"levelo://app?vid=9c802d72-a3ef-463a-ad77-5644542a6e53","ios":"levelo://app?vid=9c802d72-a3ef-463a-ad77-5644542a6e53"},"vehicle_type_id":"4","last_reported":1727424752,"current_range_meters":24000,"station_id":"ce4bgup2rcd13ifvqcn0","pricing_plan_id":"cebpf4jnsgd1na2vs0mg"},{"bike_id":"fd512eb4-5978-476b-856d-3199680a82b6","system_id":"levelo_inurba_marseille","lat":43.23153,"lon":5.43702,"is_reserved":false,"is_disabled":false,"rental_uris":{"android":"levelo://app?vid=fd512eb4-5978-476b-856d-3199680a82b6","ios":"levelo://app?vid=fd512eb4-5978-476b-856d-3199680a82b6"},"vehicle_type_id":"4","last_reported":1727424752,"current_range_meters":17200,"station_id":"ce4bhmp2rcd13ifvqgog","pricing_plan_id":"cebpf4jnsgd1na2vs0mg"},{"bike_id":"cff557bc-e136-4fde-af6c-83c740466e77","system_id":"levelo_inurba_marseille","lat":43.26947,"lon":5.38643,"is_reserved":false,"is_disabled":false,"rental_uris":{"android":"levelo://app?vid=cff557bc-e136-4fde-af6c-83c740466e77","ios":"levelo://app?vid=cff557bc-e136-4fde-af6c-83c740466e77"},"vehicle_type_id":"4","last_reported":1727424752,"current_range_meters":38800,"station_id":"ce4bhh92rcd13ifvqfh0","pricing_plan_id":"cebpf4jnsgd1na2vs0mg"},{"bike_id":"21f4556e-14f8-4816-8bb2-303815a7881f","system_id":"levelo_inurba_marseille","lat":43.30153,"lon":5.38074,"is_reserved":false,"is_disabled":false,"rental_uris":{"android":"levelo://app?vid=21f4556e-14f8-4816-8bb2-303815a7881f","ios":"levelo://app?vid=21f4556e-14f8-4816-8bb2-303815a7881f"},"vehicle_type_id":"4","last_reported":1727424752,"current_range_meters":26800,"station_id":"ce4bgjp2rcd13ifvqbh0","pricing_plan_id":"cebpf4jnsgd1na2vs0mg"},{"bike_id":"ed136965-bc37-4098-bca7-abb44cd97833","system_id":"levelo_inurba_marseille","lat":43.29576,"lon":5.37517,"is_reserved":false,"is_disabled":false,"rental_uris":{"android":"levelo://app?vid=ed136965-bc37-4098-bca7-abb44cd97833","ios":"levelo://app?vid=ed136965-bc37-4098-bca7-abb44cd97833"},"vehicle_type_id":"4","last_reported":1727424752,"current_range_meters":33200,"station_id":"ce4bh392rcd13ifvqdl0","pricing_plan_id":"cebpf4jnsgd1na2vs0mg"},{"bike_id":"54349784-eb4a-488f-a187-17d76f2f8837","system_id":"levelo_inurba_marseille","lat":43.34137,"lon":5.40897,"is_reserved":false,"is_disabled":false,"rental_uris":{"android":"levelo://app?vid=54349784-eb4a-488f-a187-17d76f2f8837","ios":"levelo://app?vid=54349784-eb4a-488f-a187-17d76f2f8837"},"vehicle_type_id":"4","last_reported":1727424752,"current_range_meters":16800,"station_id":"ce4bhqh2rcd13ifvqhlg","pricing_plan_id":"cebpf4jnsgd1na2vs0mg"},{"bike_id":"b30630bd-0d81-41fb-a742-99c7da265c18","system_id":"levelo_inurba_marseille","lat":43.30471,"lon":5.37906,"is_reserved":false,"is_disabled":false,"rental_uris":{"android":"levelo://app?vid=b30630bd-0d81-41fb-a742-99c7da265c18","ios":"levelo://app?vid=b30630bd-0d81-41fb-a742-99c7da265c18"},"vehicle_type_id":"4","last_reported":1727424752,"current_range_meters":17600,"station_id":"ce4bgup2rcd13ifvqcn0","pricing_plan_id":"cebpf4jnsgd1na2vs0mg"},{"bike_id":"8128138c-b64b-4d51-850e-87c3fb47d7ba","system_id":"levelo_inurba_marseille","lat":43.29369,"lon":5.37857,"is_reserved":false,"is_disabled":false,"rental_uris":{"android":"levelo://app?vid=8128138c-b64b-4d51-850e-87c3fb47d7ba","ios":"levelo://app?vid=8128138c-b64b-4d51-850e-87c3fb47d7ba"},"vehicle_type_id":"4","last_reported":1727424752,"current_range_meters":21600,"station_id":"ce4bgjh2rcd13ifvqbf0","pricing_plan_id":"cebpf4jnsgd1na2vs0mg"},{"bike_id":"12829535-76c0-47ae-b127-397b0ae7ad80","system_id":"levelo_inurba_marseille","lat":43.2407,"lon":5.37762,"is_reserved":false,"is_disabled":false,"rental_uris":{"android":"levelo://app?vid=12829535-76c0-47ae-b127-397b0ae7ad80","ios":"levelo://app?vid=12829535-76c0-47ae-b127-397b0ae7ad80"},"vehicle_type_id":"4","last_reported":1727424752,"current_range_meters":17200,"station_id":"ce4bhnp2rcd13ifvqgvg","pricing_plan_id":"cebpf4jnsgd1na2vs0mg"},{"bike_id":"3b996386-af24-442d-b5d1-9b0df8dac085","system_id":"levelo_inurba_marseille","lat":43.30531,"lon":5.36713,"is_reserved":false,"is_disabled":false,"rental_uris":{"android":"levelo://app?vid=3b996386-af24-442d-b5d1-9b0df8dac085","ios":"levelo://app?vid=3b996386-af24-442d-b5d1-9b0df8dac085"},"vehicle_type_id":"4","last_reported":1727424752,"current_range_meters":38000,"station_id":"ce4bgrp2rcd13ifvqc9g","pricing_plan_id":"cebpf4jnsgd1na2vs0mg"},{"bike_id":"70d2ff83-6cec-4dab-92d8-8add58eb97f8","system_id":"levelo_inurba_marseille","lat":43.29934,"lon":5.36542,"is_reserved":false,"is_disabled":false,"rental_uris":{"android":"levelo://app?vid=70d2ff83-6cec-4dab-92d8-8add58eb97f8","ios":"levelo://app?vid=70d2ff83-6cec-4dab-92d8-8add58eb97f8"},"vehicle_type_id":"4","last_reported":1727424752,"current_range_meters":20000,"station_id":"ce4bgm92rcd13ifvqbr0","pricing_plan_id":"cebpf4jnsgd1na2vs0mg"},{"bike_id":"3ff16481-7fce-4c3d-b060-208821605cd2","system_id":"levelo_inurba_marseille","lat":43.30812,"lon":5.38142,"is_reserved":false,"is_disabled":false,"rental_uris":{"android":"levelo://app?vid=3ff16481-7fce-4c3d-b060-208821605cd2","ios":"levelo://app?vid=3ff16481-7fce-4c3d-b060-208821605cd2"},"vehicle_type_id":"4","last_reported":1727424752,"current_range_meters":22400,"station_id":"ce4bgpp2rcd13ifvqc3g","pricing_plan_id":"cebpf4jnsgd1na2vs0mg"},{"bike_id":"9b2d5773-f24d-4318-9e8b-780dd6137f58","system_id":"levelo_inurba_marseille","lat":43.31491,"lon":5.37307,"is_reserved":false,"is_disabled":false,"rental_uris":{"android":"levelo://app?vid=9b2d5773-f24d-4318-9e8b-780dd6137f58","ios":"levelo://app?vid=9b2d5773-f24d-4318-9e8b-780dd6137f58"},"vehicle_type_id":"4","last_reported":1727424752,"current_range_meters":10000,"station_id":"ce4bgt12rcd13ifvqcd0","pricing_plan_id":"cebpf4jnsgd1na2vs0mg"},{"bike_id":"1ce8ddc6-2e1b-4da8-9bb5-9a26bfb16654","system_id":"levelo_inurba_marseille","lat":43.29571,"lon":5.37508,"is_reserved":false,"is_disabled":false,"rental_uris":{"android":"levelo://app?vid=1ce8ddc6-2e1b-4da8-9bb5-9a26bfb16654","ios":"levelo://app?vid=1ce8ddc6-2e1b-4da8-9bb5-9a26bfb16654"},"vehicle_type_id":"4","last_reported":1727424752,"current_range_meters":21600,"station_id":"ce4bgh92rcd13ifvqb50","pricing_plan_id":"cebpf4jnsgd1na2vs0mg"},{"bike_id":"477326bf-5dd0-4efc-b0be-ab0cc8d7b060","system_id":"levelo_inurba_marseille","lat":43.29167,"lon":5.37144,"is_reserved":false,"is_disabled":false,"rental_uris":{"android":"levelo://app?vid=477326bf-5dd0-4efc-b0be-ab0cc8d7b060","ios":"levelo://app?vid=477326bf-5dd0-4efc-b0be-ab0cc8d7b060"},"vehicle_type_id":"4","last_reported":1727424752,"current_range_meters":35600,"station_id":"ce4bha92rcd13ifvqeh0","pricing_plan_id":"cebpf4jnsgd1na2vs0mg"},{"bike_id":"5e348244-43b9-4459-a1d4-b6bf9309ac6b","system_id":"levelo_inurba_marseille","lat":43.24082,"lon":5.3775,"is_reserved":false,"is_disabled":false,"rental_uris":{"android":"levelo://app?vid=5e348244-43b9-4459-a1d4-b6bf9309ac6b","ios":"levelo://app?vid=5e348244-43b9-4459-a1d4-b6bf9309ac6b"},"vehicle_type_id":"4","last_reported":1727424752,"current_range_meters":30000,"station_id":"ce4bhnp2rcd13ifvqgvg","pricing_plan_id":"cebpf4jnsgd1na2vs0mg"},{"bike_id":"9eca55a4-3562-46d3-a1ac-b1517e256ebe","system_id":"levelo_inurba_marseille","lat":43.2707,"lon":5.42282,"is_reserved":false,"is_disabled":false,"rental_uris":{"android":"levelo://app?vid=9eca55a4-3562-46d3-a1ac-b1517e256ebe","ios":"levelo://app?vid=9eca55a4-3562-46d3-a1ac-b1517e256ebe"},"vehicle_type_id":"4","last_reported":1727424752,"current_range_meters":23200,"station_id":"ce4bhk92rcd13ifvqgb0","pricing_plan_id":"cebpf4jnsgd1na2vs0mg"},{"bike_id":"380629cf-c9a7-40ac-a210-4ba5fc8ced3b","system_id":"levelo_inurba_marseille","lat":43.28152,"lon":5.4264,"is_reserved":false,"is_disabled":false,"rental_uris":{"android":"levelo://app?vid=380629cf-c9a7-40ac-a210-4ba5fc8ced3b","ios":"levelo://app?vid=380629cf-c9a7-40ac-a210-4ba5fc8ced3b"},"vehicle_type_id":"4","last_reported":1727424752,"current_range_meters":33200,"station_id":"ce4bhnh2rcd13ifvqgug","pricing_plan_id":"cebpf4jnsgd1na2vs0mg"},{"bike_id":"b7ae5eed-8594-44cc-a597-36d96f60e81d","system_id":"levelo_inurba_marseille","lat":43.26558,"lon":5.39024,"is_reserved":false,"is_disabled":false,"rental_uris":{"android":"levelo://app?vid=b7ae5eed-8594-44cc-a597-36d96f60e81d","ios":"levelo://app?vid=b7ae5eed-8594-44cc-a597-36d96f60e81d"},"vehicle_type_id":"4","last_reported":1727424752,"current_range_meters":38800,"station_id":"ce4bhe12rcd13ifvqf30","pricing_plan_id":"cebpf4jnsgd1na2vs0mg"},{"bike_id":"f4261619-f054-436d-84de-9759d6a8d43b","system_id":"levelo_inurba_marseille","lat":43.30459,"lon":5.379,"is_reserved":false,"is_disabled":false,"rental_uris":{"android":"levelo://app?vid=f4261619-f054-436d-84de-9759d6a8d43b","ios":"levelo://app?vid=f4261619-f054-436d-84de-9759d6a8d43b"},"vehicle_type_id":"4","last_reported":1727424752,"current_range_meters":39200,"station_id":"ce4bgup2rcd13ifvqcn0","pricing_plan_id":"cebpf4jnsgd1na2vs0mg"},{"bike_id":"a1f3bc21-74a8-4344-973c-f106054265a0","system_id":"levelo_inurba_marseille","lat":43.29576,"lon":5.37529,"is_reserved":false,"is_disabled":false,"rental_uris":{"android":"levelo://app?vid=a1f3bc21-74a8-4344-973c-f106054265a0","ios":"levelo://app?vid=a1f3bc21-74a8-4344-973c-f106054265a0"},"vehicle_type_id":"4","last_reported":1727424752,"current_range_meters":24800,"station_id":"ce4bgh92rcd13ifvqb50","pricing_plan_id":"cebpf4jnsgd1na2vs0mg"},{"bike_id":"4890be44-2548-4506-a18c-f4530b7881e2","system_id":"levelo_inurba_marseille","lat":43.29976,"lon":5.37175,"is_reserved":false,"is_disabled":false,"rental_uris":{"android":"levelo://app?vid=4890be44-2548-4506-a18c-f4530b7881e2","ios":"levelo://app?vid=4890be44-2548-4506-a18c-f4530b7881e2"},"vehicle_type_id":"4","last_reported":1727424752,"current_range_meters":31200,"station_id":"ce4bgr92rcd13ifvqc7g","pricing_plan_id":"cebpf4jnsgd1na2vs0mg"},{"bike_id":"7b33f41d-0200-4116-a58f-1c3c2b5721c2","system_id":"levelo_inurba_marseille","lat":43.28461,"lon":5.3841,"is_reserved":false,"is_disabled":false,"rental_uris":{"android":"levelo://app?vid=7b33f41d-0200-4116-a58f-1c3c2b5721c2","ios":"levelo://app?vid=7b33f41d-0200-4116-a58f-1c3c2b5721c2"},"vehicle_type_id":"4","last_reported":1727424752,"current_range_meters":39200,"station_id":"ce4bh512rcd13ifvqe3g","pricing_plan_id":"cebpf4jnsgd1na2vs0mg"},{"bike_id":"c82d3bcb-c4a6-4d9e-8d43-663bba088090","system_id":"levelo_inurba_marseille","lat":43.24085,"lon":5.37748,"is_reserved":false,"is_disabled":false,"rental_uris":{"android":"levelo://app?vid=c82d3bcb-c4a6-4d9e-8d43-663bba088090","ios":"levelo://app?vid=c82d3bcb-c4a6-4d9e-8d43-663bba088090"},"vehicle_type_id":"4","last_reported":1727424752,"current_range_meters":38000,"station_id":"ce4bhnp2rcd13ifvqgvg","pricing_plan_id":"cebpf4jnsgd1na2vs0mg"},{"bike_id":"7a221aff-a308-4e51-bd6c-3606a6928c42","system_id":"levelo_inurba_marseille","lat":43.28482,"lon":5.38964,"is_reserved":false,"is_disabled":false,"rental_uris":{"android":"levelo://app?vid=7a221aff-a308-4e51-bd6c-3606a6928c42","ios":"levelo://app?vid=7a221aff-a308-4e51-bd6c-3606a6928c42"},"vehicle_type_id":"4","last_reported":1727424752,"current_range_meters":37600,"station_id":"","pricing_plan_id":"cebpf4jnsgd1na2vs0mg"},{"bike_id":"999ca916-32e1-4e3d-aa5e-4b3870970076","system_id":"levelo_inurba_marseille","lat":43.31482,"lon":5.37305,"is_reserved":false,"is_disabled":false,"rental_uris":{"android":"levelo://app?vid=999ca916-32e1-4e3d-aa5e-4b3870970076","ios":"levelo://app?vid=999ca916-32e1-4e3d-aa5e-4b3870970076"},"vehicle_type_id":"4","last_reported":1727424752,"current_range_meters":4800,"station_id":"ce4bgt12rcd13ifvqcd0","pricing_plan_id":"cebpf4jnsgd1na2vs0mg"},{"bike_id":"e17e3ba9-1bd3-4f83-adbc-5dc83a153375","system_id":"levelo_inurba_marseille","lat":43.32001,"lon":5.3816,"is_reserved":false,"is_disabled":false,"rental_uris":{"android":"levelo://app?vid=e17e3ba9-1bd3-4f83-adbc-5dc83a153375","ios":"levelo://app?vid=e17e3ba9-1bd3-4f83-adbc-5dc83a153375"},"vehicle_type_id":"4","last_reported":1727424752,"current_range_meters":6400,"station_id":"ce4bhr12rcd13ifvqhpg","pricing_plan_id":"cebpf4jnsgd1na2vs0mg"},{"bike_id":"48f7a04a-3fbf-4d5e-b75a-14118265808f","system_id":"levelo_inurba_marseille","lat":43.26062,"lon":5.394,"is_reserved":false,"is_disabled":false,"rental_uris":{"android":"levelo://app?vid=48f7a04a-3fbf-4d5e-b75a-14118265808f","ios":"levelo://app?vid=48f7a04a-3fbf-4d5e-b75a-14118265808f"},"vehicle_type_id":"4","last_reported":1727424752,"current_range_meters":4800,"station_id":"ce4bhh92rcd13ifvqfj0","pricing_plan_id":"cebpf4jnsgd1na2vs0mg"},{"bike_id":"07e39731-448f-40d5-9d06-91facf9fcb8e","system_id":"levelo_inurba_marseille","lat":43.31986,"lon":5.38139,"is_reserved":false,"is_disabled":false,"rental_uris":{"android":"levelo://app?vid=07e39731-448f-40d5-9d06-91facf9fcb8e","ios":"levelo://app?vid=07e39731-448f-40d5-9d06-91facf9fcb8e"},"vehicle_type_id":"4","last_reported":1727424752,"current_range_meters":28000,"station_id":"ce4bhr12rcd13ifvqhpg","pricing_plan_id":"cebpf4jnsgd1na2vs0mg"},{"bike_id":"901fcd21-840d-4db9-aafd-424f091b9c64","system_id":"levelo_inurba_marseille","lat":43.29265,"lon":5.36848,"is_reserved":false,"is_disabled":false,"rental_uris":{"android":"levelo://app?vid=901fcd21-840d-4db9-aafd-424f091b9c64","ios":"levelo://app?vid=901fcd21-840d-4db9-aafd-424f091b9c64"},"vehicle_type_id":"4","last_reported":1727424752,"current_range_meters":25200,"station_id":"ce4bhbp2rcd13ifvqesg","pricing_plan_id":"cebpf4jnsgd1na2vs0mg"},{"bike_id":"8a5475e3-6fbf-4e9b-b650-accf3a939b49","system_id":"levelo_inurba_marseille","lat":43.32468,"lon":5.36568,"is_reserved":false,"is_disabled":false,"rental_uris":{"android":"levelo://app?vid=8a5475e3-6fbf-4e9b-b650-accf3a939b49","ios":"levelo://app?vid=8a5475e3-6fbf-4e9b-b650-accf3a939b49"},"vehicle_type_id":"4","last_reported":1727424752,"current_range_meters":38800,"station_id":"ce4bhs12rcd13ifvqhvg","pricing_plan_id":"cebpf4jnsgd1na2vs0mg"},{"bike_id":"027699da-6e1a-43b1-ae68-183b1e03550f","system_id":"levelo_inurba_marseille","lat":43.289917,"lon":5.37582,"is_reserved":false,"is_disabled":false,"rental_uris":{"android":"levelo://app?vid=027699da-6e1a-43b1-ae68-183b1e03550f","ios":"levelo://app?vid=027699da-6e1a-43b1-ae68-183b1e03550f"},"vehicle_type_id":"4","last_reported":1727424752,"current_range_meters":34800,"station_id":"ce4bh692rcd13ifvqe90","pricing_plan_id":"cebpf4jnsgd1na2vs0mg"},{"bike_id":"1b881491-242d-4bc1-907d-bfa3d24d2b8e","system_id":"levelo_inurba_marseille","lat":43.29586,"lon":5.38117,"is_reserved":false,"is_disabled":false,"rental_uris":{"android":"levelo://app?vid=1b881491-242d-4bc1-907d-bfa3d24d2b8e","ios":"levelo://app?vid=1b881491-242d-4bc1-907d-bfa3d24d2b8e"},"vehicle_type_id":"4","last_reported":1727424752,"current_range_meters":16400,"station_id":"ce4bgl12rcd13ifvqbo0","pricing_plan_id":"cebpf4jnsgd1na2vs0mg"},{"bike_id":"cf517e91-9fba-4889-840d-85b4c7dbf3fd","system_id":"levelo_inurba_marseille","lat":43.24072,"lon":5.37757,"is_reserved":false,"is_disabled":false,"rental_uris":{"android":"levelo://app?vid=cf517e91-9fba-4889-840d-85b4c7dbf3fd","ios":"levelo://app?vid=cf517e91-9fba-4889-840d-85b4c7dbf3fd"},"vehicle_type_id":"4","last_reported":1727424752,"current_range_meters":8400,"station_id":"ce4bhnp2rcd13ifvqgvg","pricing_plan_id":"cebpf4jnsgd1na2vs0mg"},{"bike_id":"9b7f8241-2de5-4ff2-b79a-e6d6397561d3","system_id":"levelo_inurba_marseille","lat":43.29196,"lon":5.39326,"is_reserved":false,"is_disabled":false,"rental_uris":{"android":"levelo://app?vid=9b7f8241-2de5-4ff2-b79a-e6d6397561d3","ios":"levelo://app?vid=9b7f8241-2de5-4ff2-b79a-e6d6397561d3"},"vehicle_type_id":"4","last_reported":1727424752,"current_range_meters":34000,"station_id":"ce4bh192rcd13ifvqdd0","pricing_plan_id":"cebpf4jnsgd1na2vs0mg"},{"bike_id":"b26ce165-a271-40fa-a533-6b6c74fce2f1","system_id":"levelo_inurba_marseille","lat":43.32467,"lon":5.36577,"is_reserved":false,"is_disabled":false,"rental_uris":{"android":"levelo://app?vid=b26ce165-a271-40fa-a533-6b6c74fce2f1","ios":"levelo://app?vid=b26ce165-a271-40fa-a533-6b6c74fce2f1"},"vehicle_type_id":"4","last_reported":1727424752,"current_range_meters":28000,"station_id":"ce4bhs12rcd13ifvqhvg","pricing_plan_id":"cebpf4jnsgd1na2vs0mg"},{"bike_id":"079eae73-c155-4655-a2a6-6306ceb09a5a","system_id":"levelo_inurba_marseille","lat":43.29842,"lon":5.36278,"is_reserved":false,"is_disabled":false,"rental_uris":{"android":"levelo://app?vid=079eae73-c155-4655-a2a6-6306ceb09a5a","ios":"levelo://app?vid=079eae73-c155-4655-a2a6-6306ceb09a5a"},"vehicle_type_id":"4","last_reported":1727424752,"current_range_meters":3200,"station_id":"ce4bgpp2rcd13ifvqc3g","pricing_plan_id":"cebpf4jnsgd1na2vs0mg"},{"bike_id":"5286976f-f107-4345-82c5-6d43a90a2a15","system_id":"levelo_inurba_marseille","lat":43.29266,"lon":5.36845,"is_reserved":false,"is_disabled":false,"rental_uris":{"android":"levelo://app?vid=5286976f-f107-4345-82c5-6d43a90a2a15","ios":"levelo://app?vid=5286976f-f107-4345-82c5-6d43a90a2a15"},"vehicle_type_id":"4","last_reported":1727424752,"current_range_meters":20000,"station_id":"ce4bhbp2rcd13ifvqesg","pricing_plan_id":"cebpf4jnsgd1na2vs0mg"},{"bike_id":"7cc0438d-889c-458a-86fc-daa6eb95b88a","system_id":"levelo_inurba_marseille","lat":43.32478,"lon":5.36556,"is_reserved":false,"is_disabled":false,"rental_uris":{"android":"levelo://app?vid=7cc0438d-889c-458a-86fc-daa6eb95b88a","ios":"levelo://app?vid=7cc0438d-889c-458a-86fc-daa6eb95b88a"},"vehicle_type_id":"4","last_reported":1727424752,"current_range_meters":33600,"station_id":"ce4bhs12rcd13ifvqhvg","pricing_plan_id":"cebpf4jnsgd1na2vs0mg"},{"bike_id":"c1ec21c7-2165-4e89-8e4a-1434d40ccc11","system_id":"levelo_inurba_marseille","lat":43.26956,"lon":5.38627,"is_reserved":false,"is_disabled":false,"rental_uris":{"android":"levelo://app?vid=c1ec21c7-2165-4e89-8e4a-1434d40ccc11","ios":"levelo://app?vid=c1ec21c7-2165-4e89-8e4a-1434d40ccc11"},"vehicle_type_id":"4","last_reported":1727424752,"current_range_meters":9600,"station_id":"ce4bhh92rcd13ifvqfh0","pricing_plan_id":"cebpf4jnsgd1na2vs0mg"},{"bike_id":"5e7fb892-defd-484c-b933-53fc33349ac0","system_id":"levelo_inurba_marseille","lat":43.29027,"lon":5.39959,"is_reserved":false,"is_disabled":false,"rental_uris":{"android":"levelo://app?vid=5e7fb892-defd-484c-b933-53fc33349ac0","ios":"levelo://app?vid=5e7fb892-defd-484c-b933-53fc33349ac0"},"vehicle_type_id":"4","last_reported":1727424752,"current_range_meters":6800,"station_id":"ce4bh392rcd13ifvqdm0","pricing_plan_id":"cebpf4jnsgd1na2vs0mg"},{"bike_id":"0835e188-889f-4f0d-95c4-441c1442dcd7","system_id":"levelo_inurba_marseille","lat":43.2586,"lon":5.39901,"is_reserved":false,"is_disabled":false,"rental_uris":{"android":"levelo://app?vid=0835e188-889f-4f0d-95c4-441c1442dcd7","ios":"levelo://app?vid=0835e188-889f-4f0d-95c4-441c1442dcd7"},"vehicle_type_id":"4","last_reported":1727424752,"current_range_meters":10000,"station_id":"ce4bhl92rcd13ifvqghg","pricing_plan_id":"cebpf4jnsgd1na2vs0mg"},{"bike_id":"b721e921-074f-403a-bad1-46bc383cd1ce","system_id":"levelo_inurba_marseille","lat":43.30476,"lon":5.37909,"is_reserved":false,"is_disabled":false,"rental_uris":{"android":"levelo://app?vid=b721e921-074f-403a-bad1-46bc383cd1ce","ios":"levelo://app?vid=b721e921-074f-403a-bad1-46bc383cd1ce"},"vehicle_type_id":"4","last_reported":1727424752,"current_range_meters":27600,"station_id":"ce4bgup2rcd13ifvqcn0","pricing_plan_id":"cebpf4jnsgd1na2vs0mg"},{"bike_id":"4ba50d48-7005-4c86-b12b-c44e38bd7220","system_id":"levelo_inurba_marseille","lat":43.28154,"lon":5.4265,"is_reserved":false,"is_disabled":false,"rental_uris":{"android":"levelo://app?vid=4ba50d48-7005-4c86-b12b-c44e38bd7220","ios":"levelo://app?vid=4ba50d48-7005-4c86-b12b-c44e38bd7220"},"vehicle_type_id":"4","last_reported":1727424752,"current_range_meters":10000,"station_id":"ce4bhnh2rcd13ifvqgug","pricing_plan_id":"cebpf4jnsgd1na2vs0mg"},{"bike_id":"057127d7-4f70-4a63-bb08-dac72ac1d77e","system_id":"levelo_inurba_marseille","lat":43.26675,"lon":5.38261,"is_reserved":false,"is_disabled":false,"rental_uris":{"android":"levelo://app?vid=057127d7-4f70-4a63-bb08-dac72ac1d77e","ios":"levelo://app?vid=057127d7-4f70-4a63-bb08-dac72ac1d77e"},"vehicle_type_id":"4","last_reported":1727424752,"current_range_meters":30000,"station_id":"ce4bhg92rcd13ifvqf90","pricing_plan_id":"cebpf4jnsgd1na2vs0mg"},{"bike_id":"19d95d56-80d5-4269-9a88-39fdaf7c673c","system_id":"levelo_inurba_marseille","lat":43.24082,"lon":5.37748,"is_reserved":false,"is_disabled":false,"rental_uris":{"android":"levelo://app?vid=19d95d56-80d5-4269-9a88-39fdaf7c673c","ios":"levelo://app?vid=19d95d56-80d5-4269-9a88-39fdaf7c673c"},"vehicle_type_id":"4","last_reported":1727424752,"current_range_meters":28400,"station_id":"ce4bhnp2rcd13ifvqgvg","pricing_plan_id":"cebpf4jnsgd1na2vs0mg"},{"bike_id":"f1d92654-a61e-4fd5-8bb4-68057c810351","system_id":"levelo_inurba_marseille","lat":43.29781,"lon":5.37111,"is_reserved":false,"is_disabled":false,"rental_uris":{"android":"levelo://app?vid=f1d92654-a61e-4fd5-8bb4-68057c810351","ios":"levelo://app?vid=f1d92654-a61e-4fd5-8bb4-68057c810351"},"vehicle_type_id":"4","last_reported":1727424752,"current_range_meters":32000,"station_id":"ce4bgop2rcd13ifvqc1g","pricing_plan_id":"cebpf4jnsgd1na2vs0mg"},{"bike_id":"37a3adab-d5a4-40be-963c-64b75fb764aa","system_id":"levelo_inurba_marseille","lat":43.30146,"lon":5.38081,"is_reserved":false,"is_disabled":false,"rental_uris":{"android":"levelo://app?vid=37a3adab-d5a4-40be-963c-64b75fb764aa","ios":"levelo://app?vid=37a3adab-d5a4-40be-963c-64b75fb764aa"},"vehicle_type_id":"4","last_reported":1727424752,"current_range_meters":28000,"station_id":"ce4bgjp2rcd13ifvqbh0","pricing_plan_id":"cebpf4jnsgd1na2vs0mg"},{"bike_id":"246a6eac-f816-4324-a4c5-3ecddf6b45fb","system_id":"levelo_inurba_marseille","lat":43.32536,"lon":5.41437,"is_reserved":false,"is_disabled":false,"rental_uris":{"android":"levelo://app?vid=246a6eac-f816-4324-a4c5-3ecddf6b45fb","ios":"levelo://app?vid=246a6eac-f816-4324-a4c5-3ecddf6b45fb"},"vehicle_type_id":"4","last_reported":1727424752,"current_range_meters":22400,"station_id":"ce4bhq12rcd13ifvqhhg","pricing_plan_id":"cebpf4jnsgd1na2vs0mg"},{"bike_id":"f244f90b-399e-4afd-a4ad-c99eb858a55e","system_id":"levelo_inurba_marseille","lat":43.30463,"lon":5.37913,"is_reserved":false,"is_disabled":false,"rental_uris":{"android":"levelo://app?vid=f244f90b-399e-4afd-a4ad-c99eb858a55e","ios":"levelo://app?vid=f244f90b-399e-4afd-a4ad-c99eb858a55e"},"vehicle_type_id":"4","last_reported":1727424752,"current_range_meters":34800,"station_id":"ce4bgup2rcd13ifvqcn0","pricing_plan_id":"cebpf4jnsgd1na2vs0mg"},{"bike_id":"b8142d3f-f75b-447a-9d50-583179b0ec51","system_id":"levelo_inurba_marseille","lat":43.30473,"lon":5.37914,"is_reserved":false,"is_disabled":false,"rental_uris":{"android":"levelo://app?vid=b8142d3f-f75b-447a-9d50-583179b0ec51","ios":"levelo://app?vid=b8142d3f-f75b-447a-9d50-583179b0ec51"},"vehicle_type_id":"4","last_reported":1727424752,"current_range_meters":31200,"station_id":"ce4bgup2rcd13ifvqcn0","pricing_plan_id":"cebpf4jnsgd1na2vs0mg"},{"bike_id":"a31903f5-cb6f-4186-aeba-167b96a30b56","system_id":"levelo_inurba_marseille","lat":43.246555,"lon":5.388956,"is_reserved":false,"is_disabled":false,"rental_uris":{"android":"levelo://app?vid=a31903f5-cb6f-4186-aeba-167b96a30b56","ios":"levelo://app?vid=a31903f5-cb6f-4186-aeba-167b96a30b56"},"vehicle_type_id":"4","last_reported":1727424752,"current_range_meters":35600,"station_id":"ce4bhhh2rcd13ifvqfl0","pricing_plan_id":"cebpf4jnsgd1na2vs0mg"},{"bike_id":"a7bca3df-0344-4204-86d7-b742d4769839","system_id":"levelo_inurba_marseille","lat":43.30863,"lon":5.3685,"is_reserved":false,"is_disabled":false,"rental_uris":{"android":"levelo://app?vid=a7bca3df-0344-4204-86d7-b742d4769839","ios":"levelo://app?vid=a7bca3df-0344-4204-86d7-b742d4769839"},"vehicle_type_id":"4","last_reported":1727424752,"current_range_meters":17200,"station_id":"ce4bgn92rcd13ifvqbvg","pricing_plan_id":"cebpf4jnsgd1na2vs0mg"},{"bike_id":"59562d14-07be-4307-84a6-cd5c5d2a9187","system_id":"levelo_inurba_marseille","lat":43.32537,"lon":5.4145,"is_reserved":false,"is_disabled":false,"rental_uris":{"android":"levelo://app?vid=59562d14-07be-4307-84a6-cd5c5d2a9187","ios":"levelo://app?vid=59562d14-07be-4307-84a6-cd5c5d2a9187"},"vehicle_type_id":"4","last_reported":1727424752,"current_range_meters":36400,"station_id":"ce4bhq12rcd13ifvqhhg","pricing_plan_id":"cebpf4jnsgd1na2vs0mg"},{"bike_id":"ef97f50c-0244-4b30-8758-2d807c7ad384","system_id":"levelo_inurba_marseille","lat":43.25937,"lon":5.40905,"is_reserved":false,"is_disabled":false,"rental_uris":{"android":"levelo://app?vid=ef97f50c-0244-4b30-8758-2d807c7ad384","ios":"levelo://app?vid=ef97f50c-0244-4b30-8758-2d807c7ad384"},"vehicle_type_id":"4","last_reported":1727424752,"current_range_meters":2000,"station_id":"ce4bhm92rcd13ifvqglg","pricing_plan_id":"cebpf4jnsgd1na2vs0mg"},{"bike_id":"546a1bb6-ec80-485c-8b1e-bb866a56741e","system_id":"levelo_inurba_marseille","lat":43.33605,"lon":5.41026,"is_reserved":false,"is_disabled":false,"rental_uris":{"android":"levelo://app?vid=546a1bb6-ec80-485c-8b1e-bb866a56741e","ios":"levelo://app?vid=546a1bb6-ec80-485c-8b1e-bb866a56741e"},"vehicle_type_id":"4","last_reported":1727424752,"current_range_meters":21600,"station_id":"ce4bhqh2rcd13ifvqhmg","pricing_plan_id":"cebpf4jnsgd1na2vs0mg"},{"bike_id":"a6addce0-6b53-4ddf-bf9c-d50a96dd9e51","system_id":"levelo_inurba_marseille","lat":43.22934,"lon":5.35378,"is_reserved":false,"is_disabled":false,"rental_uris":{"android":"levelo://app?vid=a6addce0-6b53-4ddf-bf9c-d50a96dd9e51","ios":"levelo://app?vid=a6addce0-6b53-4ddf-bf9c-d50a96dd9e51"},"vehicle_type_id":"4","last_reported":1727424752,"current_range_meters":2800,"station_id":"cpo3532slgdg3j2ikp40","pricing_plan_id":"cebpf4jnsgd1na2vs0mg"},{"bike_id":"f86e58ca-2eab-4c36-9203-cab642a140fc","system_id":"levelo_inurba_marseille","lat":43.30468,"lon":5.37906,"is_reserved":false,"is_disabled":false,"rental_uris":{"android":"levelo://app?vid=f86e58ca-2eab-4c36-9203-cab642a140fc","ios":"levelo://app?vid=f86e58ca-2eab-4c36-9203-cab642a140fc"},"vehicle_type_id":"4","last_reported":1727424752,"current_range_meters":39200,"station_id":"ce4bgup2rcd13ifvqcn0","pricing_plan_id":"cebpf4jnsgd1na2vs0mg"},{"bike_id":"c33c0e72-207a-4feb-bf77-0019b71c56cf","system_id":"levelo_inurba_marseille","lat":43.3054,"lon":5.36532,"is_reserved":false,"is_disabled":false,"rental_uris":{"android":"levelo://app?vid=c33c0e72-207a-4feb-bf77-0019b71c56cf","ios":"levelo://app?vid=c33c0e72-207a-4feb-bf77-0019b71c56cf"},"vehicle_type_id":"4","last_reported":1727424752,"current_range_meters":36400,"station_id":"ce4bgs12rcd13ifvqcag","pricing_plan_id":"cebpf4jnsgd1na2vs0mg"},