{"last_updated":1729253828,"ttl":60,"version":"2.2","data":{"bikes":[{"bike_id":"4d050f5b-9f4a-4f9a-9364-d3758294a1a3","system_id":"levelo_inurba_marseille","lat":43.28726,"lon":5.37961,"is_reserved":false,"is_disabled":false,"rental_uris":{"android":"levelo://app?vid=4d050f5b-9f4a-4f9a-9364-d3758294a1a3","ios":"levelo://app?vid=4d050f5b-9f4a-4f9a-9364-d3758294a1a3"},"vehicle_type_id":"4","last_reported":1729253828,"current_range_meters":40000,"station_id":"ce4bh9p2rcd13ifvqec0","pricing_plan_id":"cebpf4jnsgd1na2vs0mg"},{"bike_id":"c78eb1c7-a71f-4aa0-94cc-54a22882aecd","system_id":"levelo_inurba_marseille","lat":43.29795,"lon":5.38101,"is_reserved":false,"is_disabled":false,"rental_uris":{"android":"levelo://app?vid=c78eb1c7-a71f-4aa0-94cc-54a22882aecd","ios":"levelo://app?vid=c78eb1c7-a71f-4aa0-94cc-54a22882aecd"},"vehicle_type_id":"4","last_reported":1729253828,"current_range_meters":24000,"station_id":"ce4bgip2rcd13ifvqbb0","pricing_plan_id":"cebpf4jnsgd1na2vs0mg"},{"bike_id":"7c215bb1-a727-4569-986d-c8f6cf1e676e","system_id":"levelo_inurba_marseille","lat":43.31715,"lon":5.43706,"is_reserved":false,"is_disabled":false,"rental_uris":{"android":"levelo://app?vid=7c215bb1-a727-4569-986d-c8f6cf1e676e","ios":"levelo://app?vid=7c215bb1-a727-4569-986d-c8f6cf1e676e"},"vehicle_type_id":"4","last_reported":1729253828,"current_range_meters":30400,"station_id":"ce4bhp92rcd13ifvqhcg","pricing_plan_id":"cebpf4jnsgd1na2vs0mg"},{"bike_id":"0bd29515-40d3-4b3d-a1be-6c5884ab24e6","system_id":"levelo_inurba_marseille","lat":43.32273,"lon":5.38292,"is_reserved":false,"is_disabled":false,"rental_uris":{"android":"levelo://app?vid=0bd29515-40d3-4b3d-a1be-6c5884ab24e6","ios":"levelo://app?vid=0bd29515-40d3-4b3d-a1be-6c5884ab24e6"},"vehicle_type_id":"4","last_reported":1729253828,"current_range_meters":22800,"station_id":"ce4bhr12rcd13ifvqhqg","pricing_plan_id":"cebpf4jnsgd1na2vs0mg"},{"bike_id":"676ec6c4-6b42-43e0-81fe-327782965da5","system_id":"levelo_inurba_marseille","lat":43.33765,"lon":5.37484,"is_reserved":false,"is_disabled":false,"rental_uris":{"android":"levelo://app?vid=676ec6c4-6b42-43e0-81fe-327782965da5","ios":"levelo://app?vid=676ec6c4-6b42-43e0-81fe-327782965da5"},"vehicle_type_id":"4","last_reported":1729253828,"current_range_meters":18000,"station_id":"","pricing_plan_id":"cebpf4jnsgd1na2vs0mg"},{"bike_id":"1e99ca36-aa3c-4057-b491-7fa97fb15693","system_id":"levelo_inurba_marseille","lat":43.29056,"lon":5.35915,"is_reserved":false,"is_disabled":false,"rental_uris":{"android":"levelo://app?vid=1e99ca36-aa3c-4057-b491-7fa97fb15693","ios":"levelo://app?vid=1e99ca36-aa3c-4057-b491-7fa97fb15693"},"vehicle_type_id":"4","last_reported":1729253828,"current_range_meters":39200,"station_id":"ce4bha92rcd13ifvqeg0","pricing_plan_id":"cebpf4jnsgd1na2vs0mg"},{"bike_id":"43b266be-e426-4814-9b55-5efef5c2a12c","system_id":"levelo_inurba_marseille","lat":43.290143,"lon":5.381286,"is_reserved":false,"is_disabled":false,"rental_uris":{"android":"levelo://app?vid=43b266be-e426-4814-9b55-5efef5c2a12c","ios":"levelo://app?vid=43b266be-e426-4814-9b55-5efef5c2a12c"},"vehicle_type_id":"4","last_reported":1729253828,"current_range_meters":33200,"station_id":"ce4bh4p2rcd13ifvqe1g","pricing_plan_id":"cebpf4jnsgd1na2vs0mg"},{"bike_id":"c27cf383-7e73-4c9d-bbe8-221b8bc0a31c","system_id":"levelo_inurba_marseille","lat":43.27062,"lon":5.40255,"is_reserved":false,"is_disabled":false,"rental_uris":{"android":"levelo://app?vid=c27cf383-7e73-4c9d-bbe8-221b8bc0a31c","ios":"levelo://app?vid=c27cf383-7e73-4c9d-bbe8-221b8bc0a31c"},"vehicle_type_id":"4","last_reported":1729253828,"current_range_meters":16000,"station_id":"ce4bhk92rcd13ifvqgc0","pricing_plan_id":"cebpf4jnsgd1na2vs0mg"},{"bike_id":"9a98fbfb-8e11-4972-8eda-d48a189b8699","system_id":"levelo_inurba_marseille","lat":43.3091,"lon":5.36845,"is_reserved":false,"is_disabled":false,"rental_uris":{"android":"levelo://app?vid=9a98fbfb-8e11-4972-8eda-d48a189b8699","ios":"levelo://app?vid=9a98fbfb-8e11-4972-8eda-d48a189b8699"},"vehicle_type_id":"4","last_reported":1729253828,"current_range_meters":16400,"station_id":"ce4bgn92rcd13ifvqbvg","pricing_plan_id":"cebpf4jnsgd1na2vs0mg"},{"bike_id":"60511756-1e81-4687-933b-ab4aa4e97ab5","system_id":"levelo_inurba_marseille","lat":43.2904,"lon":5.38657,"is_reserved":false,"is_disabled":false,"rental_uris":{"android":"levelo://app?vid=60511756-1e81-4687-933b-ab4aa4e97ab5","ios":"levelo://app?vid=60511756-1e81-4687-933b-ab4aa4e97ab5"},"vehicle_type_id":"4","last_reported":1729253828,"current_range_meters":38800,"station_id":"ce4bh4p2rcd13ifvqe0g","pricing_plan_id":"cebpf4jnsgd1na2vs0mg"},{"bike_id":"5d6110e9-03ab-4d11-ba92-acc0e091e564","system_id":"levelo_inurba_marseille","lat":43.23961,"lon":5.36629,"is_reserved":false,"is_disabled":false,"rental_uris":{"android":"levelo://app?vid=5d6110e9-03ab-4d11-ba92-acc0e091e564","ios":"levelo://app?vid=5d6110e9-03ab-4d11-ba92-acc0e091e564"},"vehicle_type_id":"4","last_reported":1729253828,"current_range_meters":18000,"station_id":"ce4bhi12rcd13ifvqfp0","pricing_plan_id":"cebpf4jnsgd1na2vs0mg"},{"bike_id":"25668d1a-6b94-4045-a721-d94eb38e1ae7","system_id":"levelo_inurba_marseille","lat":43.27362,"lon":5.362162,"is_reserved":false,"is_disabled":false,"rental_uris":{"android":"levelo://app?vid=25668d1a-6b94-4045-a721-d94eb38e1ae7","ios":"levelo://app?vid=25668d1a-6b94-4045-a721-d94eb38e1ae7"},"vehicle_type_id":"4","last_reported":1729253828,"current_range_meters":39200,"station_id":"ce4bhbh2rcd13ifvqeo0","pricing_plan_id":"cebpf4jnsgd1na2vs0mg"},{"bike_id":"dccf0f04-4e67-4c53-a7b2-6636b5a9de32","system_id":"levelo_inurba_marseille","lat":43.28137,"lon":5.42635,"is_reserved":false,"is_disabled":false,"rental_uris":{"android":"levelo://app?vid=dccf0f04-4e67-4c53-a7b2-6636b5a9de32","ios":"levelo://app?vid=dccf0f04-4e67-4c53-a7b2-6636b5a9de32"},"vehicle_type_id":"4","last_reported":1729253828,"current_range_meters":12400,"station_id":"ce4bhnh2rcd13ifvqgug","pricing_plan_id":"cebpf4jnsgd1na2vs0mg"},{"bike_id":"0e9ad9af-e89b-412e-a7df-344fe8f113f7","system_id":"levelo_inurba_marseille","lat":43.25006,"lon":5.38925,"is_reserved":false,"is_disabled":false,"rental_uris":{"android":"levelo://app?vid=0e9ad9af-e89b-412e-a7df-344fe8f113f7","ios":"levelo://app?vid=0e9ad9af-e89b-412e-a7df-344fe8f113f7"},"vehicle_type_id":"4","last_reported":1729253828,"current_range_meters":40000,"station_id":"ce4bhgp2rcd13ifvqfd0","pricing_plan_id":"cebpf4jnsgd1na2vs0mg"},{"bike_id":"cddfe295-f3f0-4925-8929-140a3d3b0bde","system_id":"levelo_inurba_marseille","lat":43.23151,"lon":5.43715,"is_reserved":false,"is_disabled":false,"rental_uris":{"android":"levelo://app?vid=cddfe295-f3f0-4925-8929-140a3d3b0bde","ios":"levelo://app?vid=cddfe295-f3f0-4925-8929-140a3d3b0bde"},"vehicle_type_id":"4","last_reported":1729253828,"current_range_meters":17600,"station_id":"ce4bhmp2rcd13ifvqgog","pricing_plan_id":"cebpf4jnsgd1na2vs0mg"},{"bike_id":"bbeef4cf-9741-4498-80de-973f2058af97","system_id":"levelo_inurba_marseille","lat":43.29619,"lon":5.37735,"is_reserved":false,"is_disabled":false,"rental_uris":{"android":"levelo://app?vid=bbeef4cf-9741-4498-80de-973f2058af97","ios":"levelo://app?vid=bbeef4cf-9741-4498-80de-973f2058af97"},"vehicle_type_id":"4","last_reported":1729253828,"current_range_meters":22400,"station_id":"ce4bgi92rcd13ifvqb90","pricing_plan_id":"cebpf4jnsgd1na2vs0mg"},{"bike_id":"ef00c94a-e76e-4e00-bfec-e40b8a260288","system_id":"levelo_inurba_marseille","lat":43.25498,"lon":5.37644,"is_reserved":false,"is_disabled":false,"rental_uris":{"android":"levelo://app?vid=ef00c94a-e76e-4e00-bfec-e40b8a260288","ios":"levelo://app?vid=ef00c94a-e76e-4e00-bfec-e40b8a260288"},"vehicle_type_id":"4","last_reported":1729253828,"current_range_meters":40000,"station_id":"ce4bhh12rcd13ifvqff0","pricing_plan_id":"cebpf4jnsgd1na2vs0mg"},{"bike_id":"23411cb7-af3b-47d8-b152-f3ff908904ca","system_id":"levelo_inurba_marseille","lat":43.2841,"lon":5.3498,"is_reserved":false,"is_disabled":false,"rental_uris":{"android":"levelo://app?vid=23411cb7-af3b-47d8-b152-f3ff908904ca","ios":"levelo://app?vid=23411cb7-af3b-47d8-b152-f3ff908904ca"},"vehicle_type_id":"4","last_reported":1729253828,"current_range_meters":38800,"station_id":"ce4bhbh2rcd13ifvqepg","pricing_plan_id":"cebpf4jnsgd1na2vs0mg"},{"bike_id":"b68db7eb-3f6e-47b8-8f8f-039c933dde7d","system_id":"levelo_inurba_marseille","lat":43.2559,"lon":5.3824,"is_reserved":false,"is_disabled":false,"rental_uris":{"android":"levelo://app?vid=b68db7eb-3f6e-47b8-8f8f-039c933dde7d","ios":"levelo://app?vid=b68db7eb-3f6e-47b8-8f8f-039c933dde7d"},"vehicle_type_id":"4","last_reported":1729253828,"current_range_meters":19200,"station_id":"ce4bhih2rcd13ifvqfs0","pricing_plan_id":"cebpf4jnsgd1na2vs0mg"},{"bike_id":"88ed0f9f-e90c-4cb7-aed8-4122cf81bf11","system_id":"levelo_inurba_marseille","lat":43.26036,"lon":5.37542,"is_reserved":false,"is_disabled":false,"rental_uris":{"android":"levelo://app?vid=88ed0f9f-e90c-4cb7-aed8-4122cf81bf11","ios":"levelo://app?vid=88ed0f9f-e90c-4cb7-aed8-4122cf81bf11"},"vehicle_type_id":"4","last_reported":1729253828,"current_range_meters":39200,"station_id":"ce4bhgh2rcd13ifvqfa0","pricing_plan_id":"cebpf4jnsgd1na2vs0mg"},{"bike_id":"4ae2c184-8c50-452d-87fb-8f7bf4f540f3","system_id":"levelo_inurba_marseille","lat":43.24656,"lon":5.38887,"is_reserved":false,"is_disabled":false,"rental_uris":{"android":"levelo://app?vid=4ae2c184-8c50-452d-87fb-8f7bf4f540f3","ios":"levelo://app?vid=4ae2c184-8c50-452d-87fb-8f7bf4f540f3"},"vehicle_type_id":"4","last_reported":1729253828,"current_range_meters":39200,"station_id":"ce4bhg12rcd13ifvqf60","pricing_plan_id":"cebpf4jnsgd1na2vs0mg"},{"bike_id":"af6180ca-7aad-4dcd-911c-0410c6202a84","system_id":"levelo_inurba_marseille","lat":43.30134,"lon":5.39847,"is_reserved":false,"is_disabled":false,"rental_uris":{"android":"levelo://app?vid=af6180ca-7aad-4dcd-911c-0410c6202a84","ios":"levelo://app?vid=af6180ca-7aad-4dcd-911c-0410c6202a84"},"vehicle_type_id":"4","last_reported":1729253828,"current_range_meters":38400,"station_id":"ce4bh0h2rcd13ifvqd40","pricing_plan_id":"cebpf4jnsgd1na2vs0mg"},{"bike_id":"84d79697-83f2-4213-9067-896c4f7c69e1","system_id":"levelo_inurba_marseille","lat":43.299645,"lon":5.371818,"is_reserved":false,"is_disabled":false,"rental_uris":{"android":"levelo://app?vid=84d79697-83f2-4213-9067-896c4f7c69e1","ios":"levelo://app?vid=84d79697-83f2-4213-9067-896c4f7c69e1"},"vehicle_type_id":"4","last_reported":1729253828,"current_range_meters":34000,"station_id":"ce4bgi12rcd13ifvqb70","pricing_plan_id":"cebpf4jnsgd1na2vs0mg"},{"bike_id":"d0fae496-82f2-4fb9-80de-d49c86b5fd33","system_id":"levelo_inurba_marseille","lat":43.24549,"lon":5.39526,"is_reserved":false,"is_disabled":false,"rental_uris":{"android":"levelo://app?vid=d0fae496-82f2-4fb9-80de-d49c86b5fd33","ios":"levelo://app?vid=d0fae496-82f2-4fb9-80de-d49c86b5fd33"},"vehicle_type_id":"4","last_reported":1729253828,"current_range_meters":32800,"station_id":"ce4bhlp2rcd13ifvqgjg","pricing_plan_id":"cebpf4jnsgd1na2vs0mg"},{"bike_id":"876fcfe1-2b2c-4406-ad2e-1aaf09655655","system_id":"levelo_inurba_marseille","lat":43.25114,"lon":5.40323,"is_reserved":false,"is_disabled":false,"rental_uris":{"android":"levelo://app?vid=876fcfe1-2b2c-4406-ad2e-1aaf09655655","ios":"levelo://app?vid=876fcfe1-2b2c-4406-ad2e-1aaf09655655"},"vehicle_type_id":"4","last_reported":1729253828,"current_range_meters":30800,"station_id":"ce4bhlh2rcd13ifvqgig","pricing_plan_id":"cebpf4jnsgd1na2vs0mg"},{"bike_id":"d6e9062e-24c3-4647-92d5-d7b826f82dfc","system_id":"levelo_inurba_marseille","lat":43.29927,"lon":5.36533,"is_reserved":false,"is_disabled":false,"rental_uris":{"android":"levelo://app?vid=d6e9062e-24c3-4647-92d5-d7b826f82dfc","ios":"levelo://app?vid=d6e9062e-24c3-4647-92d5-d7b826f82dfc"},"vehicle_type_id":"4","last_reported":1729253828,"current_range_meters":35600,"station_id":"ce4bgm92rcd13ifvqbr0","pricing_plan_id":"cebpf4jnsgd1na2vs0mg"},{"bike_id":"2f4d40f2-8a71-42ab-b06b-27e39fde1509","system_id":"levelo_inurba_marseille","lat":43.25583,"lon":5.38243,"is_reserved":false,"is_disabled":false,"rental_uris":{"android":"levelo://app?vid=2f4d40f2-8a71-42ab-b06b-27e39fde1509","ios":"levelo://app?vid=2f4d40f2-8a71-42ab-b06b-27e39fde1509"},"vehicle_type_id":"4","last_reported":1729253828,"current_range_meters":8000,"station_id":"ce4bhih2rcd13ifvqfs0","pricing_plan_id":"cebpf4jnsgd1na2vs0mg"},{"bike_id":"5bdd134b-7ea6-40ee-aae3-e29fd0f285d7","system_id":"levelo_inurba_marseille","lat":43.24393,"lon":5.37055,"is_reserved":false,"is_disabled":false,"rental_uris":{"android":"levelo://app?vid=5bdd134b-7ea6-40ee-aae3-e29fd0f285d7","ios":"levelo://app?vid=5bdd134b-7ea6-40ee-aae3-e29fd0f285d7"},"vehicle_type_id":"4","last_reported":1729253828,"current_range_meters":32800,"station_id":"ce4bhhh2rcd13ifvqfk0","pricing_plan_id":"cebpf4jnsgd1na2vs0mg"},{"bike_id":"8a852c4a-76a6-45cb-ba8f-5f4f5c23071a","system_id":"levelo_inurba_marseille","lat":43.2846,"lon":5.35885,"is_reserved":false,"is_disabled":false,"rental_uris":{"android":"levelo://app?vid=8a852c4a-76a6-45cb-ba8f-5f4f5c23071a","ios":"levelo://app?vid=8a852c4a-76a6-45cb-ba8f-5f4f5c23071a"},"vehicle_type_id":"4","last_reported":1729253828,"current_range_meters":10000,"station_id":"ce4bhah2rcd13ifvqei0","pricing_plan_id":"cebpf4jnsgd1na2vs0mg"},{"bike_id":"d5d87b96-496a-454b-9e81-b0e5a09c72cf","system_id":"levelo_inurba_marseille","lat":43.28613,"lon":5.37061,"is_reserved":false,"is_disabled":false,"rental_uris":{"android":"levelo://app?vid=d5d87b96-496a-454b-9e81-b0e5a09c72cf","ios":"levelo://app?vid=d5d87b96-496a-454b-9e81-b0e5a09c72cf"},"vehicle_type_id":"4","last_reported":1729253828,"current_range_meters":37600,"station_id":"ce4bht12rcd13ifvqi60","pricing_plan_id":"cebpf4jnsgd1na2vs0mg"},{"bike_id":"c664c061-e4f3-4e88-a3b3-53b8afa76dc4","system_id":"levelo_inurba_marseille","lat":43.32487,"lon":5.36557,"is_reserved":false,"is_disabled":false,"rental_uris":{"android":"levelo://app?vid=c664c061-e4f3-4e88-a3b3-53b8afa76dc4","ios":"levelo://app?vid=c664c061-e4f3-4e88-a3b3-53b8afa76dc4"},"vehicle_type_id":"4","last_reported":1729253828,"current_range_meters":11600,"station_id":"ce4bhs12rcd13ifvqhvg","pricing_plan_id":"cebpf4jnsgd1na2vs0mg"},{"bike_id":"e29e5976-0ff6-439e-a818-3950c47e0f15","system_id":"levelo_inurba_marseille","lat":43.25585,"lon":5.38232,"is_reserved":false,"is_disabled":false,"rental_uris":{"android":"levelo://app?vid=e29e5976-0ff6-439e-a818-3950c47e0f15","ios":"levelo://app?vid=e29e5976-0ff6-439e-a818-3950c47e0f15"},"vehicle_type_id":"4","last_reported":1729253828,"current_range_meters":34000,"station_id":"ce4bhih2rcd13ifvqfs0","pricing_plan_id":"cebpf4jnsgd1na2vs0mg"},{"bike_id":"c746da30-0175-4c63-8cc4-f4d0284e8127","system_id":"levelo_inurba_marseille","lat":43.2397,"lon":5.36631,"is_reserved":false,"is_disabled":false,"rental_uris":{"android":"levelo://app?vid=c746da30-0175-4c63-8cc4-f4d0284e8127","ios":"levelo://app?vid=c746da30-0175-4c63-8cc4-f4d0284e8127"},"vehicle_type_id":"4","last_reported":1729253828,"current_range_meters":22800,"station_id":"ce4bhi12rcd13ifvqfp0","pricing_plan_id":"cebpf4jnsgd1na2vs0mg"},{"bike_id":"c0dbf1a3-a16b-47cc-b294-315090b8ba5b","system_id":"levelo_inurba_marseille","lat":43.255,"lon":5.37649,"is_reserved":false,"is_disabled":false,"rental_uris":{"android":"levelo://app?vid=c0dbf1a3-a16b-47cc-b294-315090b8ba5b","ios":"levelo://app?vid=c0dbf1a3-a16b-47cc-b294-315090b8ba5b"},"vehicle_type_id":"4","last_reported":1729253828,"current_range_meters":30800,"station_id":"ce4bhh12rcd13ifvqff0","pricing_plan_id":"cebpf4jnsgd1na2vs0mg"},{"bike_id":"ef8fbe4f-a46c-4088-b2b1-54e0e48540f5","system_id":"levelo_inurba_marseille","lat":43.26201,"lon":5.37911,"is_reserved":false,"is_disabled":false,"rental_uris":{"android":"levelo://app?vid=ef8fbe4f-a46c-4088-b2b1-54e0e48540f5","ios":"levelo://app?vid=ef8fbe4f-a46c-4088-b2b1-54e0e48540f5"},"vehicle_type_id":"4","last_reported":1729253828,"current_range_meters":20000,"station_id":"ce4bhjp2rcd13ifvqg90","pricing_plan_id":"cebpf4jnsgd1na2vs0mg"},{"bike_id":"1712a362-627b-49d8-bd49-0f9aed207009","system_id":"levelo_inurba_marseille","lat":43.319611,"lon":5.368297,"is_reserved":false,"is_disabled":false,"rental_uris":{"android":"levelo://app?vid=1712a362-627b-49d8-bd49-0f9aed207009","ios":"levelo://app?vid=1712a362-627b-49d8-bd49-0f9aed207009"},"vehicle_type_id":"4","last_reported":1729253828,"current_range_meters":4000,"station_id":"ce4bhs12rcd13ifvqhvg","pricing_plan_id":"cebpf4jnsgd1na2vs0mg"},{"bike_id":"0b0719e6-c919-4c9d-ae90-bec7ea479140","system_id":"levelo_inurba_marseille","lat":43.28625,"lon":5.37318,"is_reserved":false,"is_disabled":false,"rental_uris":{"android":"levelo://app?vid=0b0719e6-c919-4c9d-ae90-bec7ea479140","ios":"levelo://app?vid=0b0719e6-c919-4c9d-ae90-bec7ea479140"},"vehicle_type_id":"4","last_reported":1729253828,"current_range_meters":18800,"station_id":"ce4bhb92rcd13ifvqen0","pricing_plan_id":"cebpf4jnsgd1na2vs0mg"},{"bike_id":"889b9bb3-8963-4f08-8cc0-fd064c95f10f","system_id":"levelo_inurba_marseille","lat":43.27818,"lon":5.40715,"is_reserved":false,"is_disabled":false,"rental_uris":{"android":"levelo://app?vid=889b9bb3-8963-4f08-8cc0-fd064c95f10f","ios":"levelo://app?vid=889b9bb3-8963-4f08-8cc0-fd064c95f10f"},"vehicle_type_id":"4","last_reported":1729253828,"current_range_meters":9600,"station_id":"ce4bhnh2rcd13ifvqgtg","pricing_plan_id":"cebpf4jnsgd1na2vs0mg"},{"bike_id":"ce76862b-01d5-4ece-9cb6-58bdcd930245","system_id":"levelo_inurba_marseille","lat":43.3089,"lon":5.372,"is_reserved":false,"is_disabled":false,"rental_uris":{"android":"levelo://app?vid=ce76862b-01d5-4ece-9cb6-58bdcd930245","ios":"levelo://app?vid=ce76862b-01d5-4ece-9cb6-58bdcd930245"},"vehicle_type_id":"4","last_reported":1729253828,"current_range_meters":38800,"station_id":"ce4bguh2rcd13ifvqckg","pricing_plan_id":"cebpf4jnsgd1na2vs0mg"},{"bike_id":"01dec81f-c775-4c10-a2f3-ad987891192a","system_id":"levelo_inurba_marseille","lat":43.244598,"lon":5.380216,"is_reserved":false,"is_disabled":false,"rental_uris":{"android":"levelo://app?vid=01dec81f-c775-4c10-a2f3-ad987891192a","ios":"levelo://app?vid=01dec81f-c775-4c10-a2f3-ad987891192a"},"vehicle_type_id":"4","last_reported":1729253828,"current_range_meters":32400,"station_id":"ce4bhih2rcd13ifvqfr0","pricing_plan_id":"cebpf4jnsgd1na2vs0mg"},{"bike_id":"76a6622f-b423-4943-b6c6-74b8422a82ad","system_id":"levelo_inurba_marseille","lat":43.30221,"lon":5.40031,"is_reserved":false,"is_disabled":false,"rental_uris":{"android":"levelo://app?vid=76a6622f-b423-4943-b6c6-74b8422a82ad","ios":"levelo://app?vid=76a6622f-b423-4943-b6c6-74b8422a82ad"},"vehicle_type_id":"4","last_reported":1729253828,"current_range_meters":26800,"station_id":"ce4bgvh2rcd13ifvqcs0","pricing_plan_id":"cebpf4jnsgd1na2vs0mg"},{"bike_id":"4ed384b9-937c-47d5-b95e-f3d50cfe9780","system_id":"levelo_inurba_marseille","lat":43.24077,"lon":5.37756,"is_reserved":false,"is_disabled":false,"rental_uris":{"android":"levelo://app?vid=4ed384b9-937c-47d5-b95e-f3d50cfe9780","ios":"levelo://app?vid=4ed384b9-937c-47d5-b95e-f3d50cfe9780"},"vehicle_type_id":"4","last_reported":1729253828,"current_range_meters":30800,"station_id":"ce4bhnp2rcd13ifvqgvg","pricing_plan_id":"cebpf4jnsgd1na2vs0mg"},{"bike_id":"d0636283-c232-4ca4-914b-cd147f7b67d9","system_id":"levelo_inurba_marseille","lat":43.28936,"lon":5.38386,"is_reserved":false,"is_disabled":false,"rental_uris":{"android":"levelo://app?vid=d0636283-c232-4ca4-914b-cd147f7b67d9","ios":"levelo://app?vid=d0636283-c232-4ca4-914b-cd147f7b67d9"},"vehicle_type_id":"4","last_reported":1729253828,"current_range_meters":19200,"station_id":"ce4bh612rcd13ifvqe6g","pricing_plan_id":"cebpf4jnsgd1na2vs0mg"},{"bike_id":"ae0af125-a7b0-413f-a909-a205c0f465ce","system_id":"levelo_inurba_marseille","lat":43.31216,"lon":5.36848,"is_reserved":false,"is_disabled":false,"rental_uris":{"android":"levelo://app?vid=ae0af125-a7b0-413f-a909-a205c0f465ce","ios":"levelo://app?vid=ae0af125-a7b0-413f-a909-a205c0f465ce"},"vehicle_type_id":"4","last_reported":1729253828,"current_range_meters":19200,"station_id":"ce4bgl92rcd13ifvqbq0","pricing_plan_id":"cebpf4jnsgd1na2vs0mg"},{"bike_id":"3cc9ca15-d23c-4891-9216-c134fa816eb8","system_id":"levelo_inurba_marseille","lat":43.2418,"lon":5.39721,"is_reserved":false,"is_disabled":false,"rental_uris":{"android":"levelo://app?vid=3cc9ca15-d23c-4891-9216-c134fa816eb8","ios":"levelo://app?vid=3cc9ca15-d23c-4891-9216-c134fa816eb8"},"vehicle_type_id":"4","last_reported":1729253828,"current_range_meters":28000,"station_id":"ce4bhn12rcd13ifvqgpg","pricing_plan_id":"cebpf4jnsgd1na2vs0mg"},{"bike_id":"299dfc52-ccaa-46a8-85e5-ed1f38c31e59","system_id":"levelo_inurba_marseille","lat":43.2418,"lon":5.39728,"is_reserved":false,"is_disabled":false,"rental_uris":{"android":"levelo://app?vid=299dfc52-ccaa-46a8-85e5-ed1f38c31e59","ios":"levelo://app?vid=299dfc52-ccaa-46a8-85e5-ed1f38c31e59"},"vehicle_type_id":"4","last_reported":1729253828,"current_range_meters":18800,"station_id":"ce4bhn12rcd13ifvqgpg","pricing_plan_id":"cebpf4jnsgd1na2vs0mg"},{"bike_id":"7c689c56-82d8-47b3-ba74-c3ccfab205bc","system_id":"levelo_inurba_marseille","lat":43.337444,"lon":5.374475,"is_reserved":false,"is_disabled":false,"rental_uris":{"android":"levelo://app?vid=7c689c56-82d8-47b3-ba74-c3ccfab205bc","ios":"levelo://app?vid=7c689c56-82d8-47b3-ba74-c3ccfab205bc"},"vehicle_type_id":"4","last_reported":1729253828,"current_range_meters":19600,"station_id":"ce4bgk12rcd13ifvqbi0","pricing_plan_id":"cebpf4jnsgd1na2vs0mg"},{"bike_id":"82dca5b2-7d47-4d72-8d05-5e6233538b57","system_id":"levelo_inurba_marseille","lat":43.268402,"lon":5.402827,"is_reserved":false,"is_disabled":false,"rental_uris":{"android":"levelo://app?vid=82dca5b2-7d47-4d72-8d05-5e6233538b57","ios":"levelo://app?vid=82dca5b2-7d47-4d72-8d05-5e6233538b57"},"vehicle_type_id":"4","last_reported":1729253828,"current_range_meters":9600,"station_id":"ce501612rcd8frsf0b60","pricing_plan_id":"cebpf4jnsgd1na2vs0mg"},{"bike_id":"4e470822-c79b-4a6c-a286-6c1cf0bb6035","system_id":"levelo_inurba_marseille","lat":43.28696,"lon":5.37391,"is_reserved":false,"is_disabled":false,"rental_uris":{"android":"levelo://app?vid=4e470822-c79b-4a6c-a286-6c1cf0bb6035","ios":"levelo://app?vid=4e470822-c79b-4a6c-a286-6c1cf0bb6035"},"vehicle_type_id":"4","last_reported":1729253828,"current_range_meters":39200,"station_id":"ce4bh3p2rcd13ifvqdq0","pricing_plan_id":"cebpf4jnsgd1na2vs0mg"},{"bike_id":"ae7c7382-ad5a-449a-9e09-6030875bb9c8","system_id":"levelo_inurba_marseille","lat":43.27808,"lon":5.40719,"is_reserved":false,"is_disabled":false,"rental_uris":{"android":"levelo://app?vid=ae7c7382-ad5a-449a-9e09-6030875bb9c8","ios":"levelo://app?vid=ae7c7382-ad5a-449a-9e09-6030875bb9c8"},"vehicle_type_id":"4","last_reported":1729253828,"current_range_meters":23200,"station_id":"ce4bhnh2rcd13ifvqgtg","pricing_plan_id":"cebpf4jnsgd1na2vs0mg"},{"bike_id":"a511c85c-d29a-454c-86ea-a85c295c955b","system_id":"levelo_inurba_marseille","lat":43.27997,"lon":5.40008,"is_reserved":false,"is_disabled":false,"rental_uris":{"android":"levelo://app?vid=a511c85c-d29a-454c-86ea-a85c295c955b","ios":"levelo://app?vid=a511c85c-d29a-454c-86ea-a85c295c955b"},"vehicle_type_id":"4","last_reported":1729253828,"current_range_meters":22000,"station_id":"ce4bho92rcd13ifvqh4g","pricing_plan_id":"cebpf4jnsgd1na2vs0mg"},{"bike_id":"3d7546d0-4dba-4212-88c9-dfe9a2032237","system_id":"levelo_inurba_marseille","lat":43.24169,"lon":5.36388,"is_reserved":false,"is_disabled":false,"rental_uris":{"android":"levelo://app?vid=3d7546d0-4dba-4212-88c9-dfe9a2032237","ios":"levelo://app?vid=3d7546d0-4dba-4212-88c9-dfe9a2032237"},"vehicle_type_id":"4","last_reported":1729253828,"current_range_meters":38000,"station_id":"cpo36qri1sfpv3e86is0","pricing_plan_id":"cebpf4jnsgd1na2vs0mg"},{"bike_id":"007f1dfd-0d2c-426c-a157-0f8331696688","system_id":"levelo_inurba_marseille","lat":43.23192,"lon":5.35547,"is_reserved":false,"is_disabled":false,"rental_uris":{"android":"levelo://app?vid=007f1dfd-0d2c-426c-a157-0f8331696688","ios":"levelo://app?vid=007f1dfd-0d2c-426c-a157-0f8331696688"},"vehicle_type_id":"4","last_reported":1729253828,"current_range_meters":8000,"station_id":"ce4bhu92rcd13ifvqi70","pricing_plan_id":"cebpf4jnsgd1na2vs0mg"},{"bike_id":"0100988e-9dde-4281-81e7-8007b45ad689","system_id":"levelo_inurba_marseille","lat":43.30196,"lon":5.36618,"is_reserved":false,"is_disabled":false,"rental_uris":{"android":"levelo://app?vid=0100988e-9dde-4281-81e7-8007b45ad689","ios":"levelo://app?vid=0100988e-9dde-4281-81e7-8007b45ad689"},"vehicle_type_id":"4","last_reported":1729253828,"current_range_meters":20800,"station_id":"ce4bgrh2rcd13ifvqc8g","pricing_plan_id":"cebpf4jnsgd1na2vs0mg"},{"bike_id":"25573e2f-a445-4919-a85f-8daef7637352","system_id":"levelo_inurba_marseille","lat":43.30801,"lon":5.43512,"is_reserved":false,"is_disabled":false,"rental_uris":{"android":"levelo://app?vid=25573e2f-a445-4919-a85f-8daef7637352","ios":"levelo://app?vid=25573e2f-a445-4919-a85f-8daef7637352"},"vehicle_type_id":"4","last_reported":1729253828,"current_range_meters":33600,"station_id":"ce4bhph2rcd13ifvqheg","pricing_plan_id":"cebpf4jnsgd1na2vs0mg"},{"bike_id":"ceba77e4-817d-4911-8717-9b4015e9cd05","system_id":"levelo_inurba_marseille","lat":43.23146,"lon":5.43723,"is_reserved":false,"is_disabled":false,"rental_uris":{"android":"levelo://app?vid=ceba77e4-817d-4911-8717-9b4015e9cd05","ios":"levelo://app?vid=ceba77e4-817d-4911-8717-9b4015e9cd05"},"vehicle_type_id":"4","last_reported":1729253828,"current_range_meters":24800,"station_id":"ce4bhmp2rcd13ifvqgog","pricing_plan_id":"cebpf4jnsgd1na2vs0mg"},{"bike_id":"d6b6782c-7e62-4f08-9672-0887f2841853","system_id":"levelo_inurba_marseille","lat":43.3298,"lon":5.41385,"is_reserved":false,"is_disabled":false,"rental_uris":{"android":"levelo://app?vid=d6b6782c-7e62-4f08-9672-0887f2841853","ios":"levelo://app?vid=d6b6782c-7e62-4f08-9672-0887f2841853"},"vehicle_type_id":"4","last_reported":1729253828,"current_range_meters":2800,"station_id":"","pricing_plan_id":"cebpf4jnsgd1na2vs0mg"},{"bike_id":"90b7df2b-2805-4913-a745-07d80216980c","system_id":"levelo_inurba_marseille","lat":43.30801,"lon":5.43519,"is_reserved":false,"is_disabled":false,"rental_uris":{"android":"levelo://app?vid=90b7df2b-2805-4913-a745-07d80216980c","ios":"levelo://app?vid=90b7df2b-2805-4913-a745-07d80216980c"},"vehicle_type_id":"4","last_reported":1729253828,"current_range_meters":11600,"station_id":"ce4bhph2rcd13ifvqheg","pricing_plan_id":"cebpf4jnsgd1na2vs0mg"},{"bike_id":"32ce68a3-3fc7-4257-974f-ab657619c295","system_id":"levelo_inurba_marseille","lat":43.33753,"lon":5.3746,"is_reserved":false,"is_disabled":false,"rental_uris":{"android":"levelo://app?vid=32ce68a3-3fc7-4257-974f-ab657619c295","ios":"levelo://app?vid=32ce68a3-3fc7-4257-974f-ab657619c295"},"vehicle_type_id":"4","last_reported":1729253828,"current_range_meters":10000,"station_id":"","pricing_plan_id":"cebpf4jnsgd1na2vs0mg"},{"bike_id":"345a628b-5c62-4610-a4b1-ae9b62ec4166","system_id":"levelo_inurba_marseille","lat":43.27617,"lon":5.36105,"is_reserved":false,"is_disabled":false,"rental_uris":{"android":"levelo://app?vid=345a628b-5c62-4610-a4b1-ae9b62ec4166","ios":"levelo://app?vid=345a628b-5c62-4610-a4b1-ae9b62ec4166"},"vehicle_type_id":"4","last_reported":1729253828,"current_range_meters":4400,"station_id":"ce4bgj92rcd13ifvqbe0","pricing_plan_id":"cebpf4jnsgd1na2vs0mg"},{"bike_id":"e16104e8-1c66-49d2-85a0-75e556dae417","system_id":"levelo_inurba_marseille","lat":43.25497,"lon":5.37645,"is_reserved":false,"is_disabled":false,"rental_uris":{"android":"levelo://app?vid=e16104e8-1c66-49d2-85a0-75e556dae417","ios":"levelo://app?vid=e16104e8-1c66-49d2-85a0-75e556dae417"},"vehicle_type_id":"4","last_reported":1729253828,"current_range_meters":30000,"station_id":"ce4bhh12rcd13ifvqff0","pricing_plan_id":"cebpf4jnsgd1na2vs0mg"},{"bike_id":"bc6c2d12-b56b-4643-89f5-c1d52fde06c6","system_id":"levelo_inurba_marseille","lat":43.28722,"lon":5.37931,"is_reserved":false,"is_disabled":false,"rental_uris":{"android":"levelo://app?vid=bc6c2d12-b56b-4643-89f5-c1d52fde06c6","ios":"levelo://app?vid=bc6c2d12-b56b-4643-89f5-c1d52fde06c6"},"vehicle_type_id":"4","last_reported":1729253828,"current_range_meters":8000,"station_id":"ce4bh9p2rcd13ifvqec0","pricing_plan_id":"cebpf4jnsgd1na2vs0mg"},{"bike_id":"a764c7d3-f9cd-4154-8c33-11d933eadc08","system_id":"levelo_inurba_marseille","lat":43.27376,"lon":5.36256,"is_reserved":false,"is_disabled":false,"rental_uris":{"android":"levelo://app?vid=a764c7d3-f9cd-4154-8c33-11d933eadc08","ios":"levelo://app?vid=a764c7d3-f9cd-4154-8c33-11d933eadc08"},"vehicle_type_id":"4","last_reported":1729253828,"current_range_meters":4800,"station_id":"ce4bhbh2rcd13ifvqeo0","pricing_plan_id":"cebpf4jnsgd1na2vs0mg"},{"bike_id":"555ff3cf-777b-4ff4-b149-9575fc002950","system_id":"levelo_inurba_marseille","lat":43.24182,"lon":5.39721,"is_reserved":false,"is_disabled":false,"rental_uris":{"android":"levelo://app?vid=555ff3cf-777b-4ff4-b149-9575fc002950","ios":"levelo://app?vid=555ff3cf-777b-4ff4-b149-9575fc002950"},"vehicle_type_id":"4","last_reported":1729253828,"current_range_meters":32400,"station_id":"ce4bhn12rcd13ifvqgpg","pricing_plan_id":"cebpf4jnsgd1na2vs0mg"},{"bike_id":"b64362e2-b043-4f67-8e42-f68524e828ed","system_id":"levelo_inurba_marseille","lat":43.24176,"lon":5.39708,"is_reserved":false,"is_disabled":false,"rental_uris":{"android":"levelo://app?vid=b64362e2-b043-4f67-8e42-f68524e828ed","ios":"levelo://app?vid=b64362e2-b043-4f67-8e42-f68524e828ed"},"vehicle_type_id":"4","last_reported":1729253828,"current_range_meters":25200,"station_id":"ce4bhn12rcd13ifvqgpg","pricing_plan_id":"cebpf4jnsgd1na2vs0mg"},{"bike_id":"fa7bbdc9-afbe-404d-8676-647037cc76a9","system_id":"levelo_inurba_marseille","lat":43.23198,"lon":5.35549,"is_reserved":false,"is_disabled":false,"rental_uris":{"android":"levelo://app?vid=fa7bbdc9-afbe-404d-8676-647037cc76a9","ios":"levelo://app?vid=fa7bbdc9-afbe-404d-8676-647037cc76a9"},"vehicle_type_id":"4","last_reported":1729253828,"current_range_meters":29600,"station_id":"ce4bhu92rcd13ifvqi70","pricing_plan_id":"cebpf4jnsgd1na2vs0mg"},{"bike_id":"176430c3-9030-4522-855c-c88b57777ba6","system_id":"levelo_inurba_marseille","lat":43.24071,"lon":5.37754,"is_reserved":false,"is_disabled":false,"rental_uris":{"android":"levelo://app?vid=176430c3-9030-4522-855c-c88b57777ba6","ios":"levelo://app?vid=176430c3-9030-4522-855c-c88b57777ba6"},"vehicle_type_id":"4","last_reported":1729253828,"current_range_meters":12800,"station_id":"ce4bhnp2rcd13ifvqgvg","pricing_plan_id":"cebpf4jnsgd1na2vs0mg"},{"bike_id":"f8d2e239-573b-4f9d-8955-e6720aa9663e","system_id":"levelo_inurba_marseille","lat":43.24649,"lon":5.38885,"is_reserved":false,"is_disabled":false,"rental_uris":{"android":"levelo://app?vid=f8d2e239-573b-4f9d-8955-e6720aa9663e","ios":"levelo://app?vid=f8d2e239-573b-4f9d-8955-e6720aa9663e"},"vehicle_type_id":"4","last_reported":1729253828,"current_range_meters":32000,"station_id":"ce4bhg12rcd13ifvqf60","pricing_plan_id":"cebpf4jnsgd1na2vs0mg"},{"bike_id":"75308ed0-fe6c-46d3-8999-da4a71c9f261","system_id":"levelo_inurba_marseille","lat":43.29703,"lon":5.3661,"is_reserved":false,"is_disabled":false,"rental_uris":{"android":"levelo://app?vid=75308ed0-fe6c-46d3-8999-da4a71c9f261","ios":"levelo://app?vid=75308ed0-fe6c-46d3-8999-da4a71c9f261"},"vehicle_type_id":"4","last_reported":1729253828,"current_range_meters":34800,"station_id":"ce4bgn12rcd13ifvqbt0","pricing_plan_id":"cebpf4jnsgd1na2vs0mg"},{"bike_id":"fc313f80-38a7-4268-b07c-da5eadaa1444","system_id":"levelo_inurba_marseille","lat":43.29711,"lon":5.37697,"is_reserved":false,"is_disabled":false,"rental_uris":{"android":"levelo://app?vid=fc313f80-38a7-4268-b07c-da5eadaa1444","ios":"levelo://app?vid=fc313f80-38a7-4268-b07c-da5eadaa1444"},"vehicle_type_id":"4","last_reported":1729253828,"current_range_meters":26000,"station_id":"ce4bgkh2rcd13ifvqbl0","pricing_plan_id":"cebpf4jnsgd1na2vs0mg"},{"bike_id":"8c1ec6cb-2291-4814-837b-be8625c706f3","system_id":"levelo_inurba_marseille","lat":43.23196,"lon":5.35543,"is_reserved":false,"is_disabled":false,"rental_uris":{"android":"levelo://app?vid=8c1ec6cb-2291-4814-837b-be8625c706f3","ios":"levelo://app?vid=8c1ec6cb-2291-4814-837b-be8625c706f3"},"vehicle_type_id":"4","last_reported":1729253828,"current_range_meters":32800,"station_id":"ce4bhu92rcd13ifvqi70","pricing_plan_id":"cebpf4jnsgd1na2vs0mg"},{"bike_id":"e05a8545-65f7-4cf3-8739-ba534517b4f3","system_id":"levelo_inurba_marseille","lat":43.27365,"lon":5.36248,"is_reserved":false,"is_disabled":false,"rental_uris":{"android":"levelo://app?vid=e05a8545-65f7-4cf3-8739-ba534517b4f3","ios":"levelo://app?vid=e05a8545-65f7-4cf3-8739-ba534517b4f3"},"vehicle_type_id":"4","last_reported":1729253828,"current_range_meters":29600,"station_id":"","pricing_plan_id":"cebpf4jnsgd1na2vs0mg"},{"bike_id":"c86d1537-d527-4f2d-bdcd-410c5541f1da","system_id":"levelo_inurba_marseille","lat":43.25007,"lon":5.38938,"is_reserved":false,"is_disabled":false,"rental_uris":{"android":"levelo://app?vid=c86d1537-d527-4f2d-bdcd-410c5541f1da","ios":"levelo://app?vid=c86d1537-d527-4f2d-bdcd-410c5541f1da"},"vehicle_type_id":"4","last_reported":1729253828,"current_range_meters":5600,"station_id":"ce4bhgp2rcd13ifvqfd0","pricing_plan_id":"cebpf4jnsgd1na2vs0mg"},{"bike_id":"e828a4fb-5838-48f2-b979-4f6f6d3eb5dc","system_id":"levelo_inurba_marseille","lat":43.32029,"lon":5.41552,"is_reserved":false,"is_disabled":false,"rental_uris":{"android":"levelo://app?vid=e828a4fb-5838-48f2-b979-4f6f6d3eb5dc","ios":"levelo://app?vid=e828a4fb-5838-48f2-b979-4f6f6d3eb5dc"},"vehicle_type_id":"4","last_reported":1729253828,"current_range_meters":23200,"station_id":"ce4bhq92rcd13ifvqhkg","pricing_plan_id":"cebpf4jnsgd1na2vs0mg"},{"bike_id":"7b0bd6b6-fbcc-4b92-8a6e-5fc2ad745a06","system_id":"levelo_inurba_marseille","lat":43.28463,"lon":5.38426,"is_reserved":false,"is_disabled":false,"rental_uris":{"android":"levelo://app?vid=7b0bd6b6-fbcc-4b92-8a6e-5fc2ad745a06","ios":"levelo://app?vid=7b0bd6b6-fbcc-4b92-8a6e-5fc2ad745a06"},"vehicle_type_id":"4","last_reported":1729253828,"current_range_meters":37600,"station_id":"ce4bh512rcd13ifvqe3g","pricing_plan_id":"cebpf4jnsgd1na2vs0mg"},{"bike_id":"c89c2319-61a9-47ef-9229-e31c9eaab143","system_id":"levelo_inurba_marseille","lat":43.23201,"lon":5.35544,"is_reserved":false,"is_disabled":false,"rental_uris":{"android":"levelo://app?vid=c89c2319-61a9-47ef-9229-e31c9eaab143","ios":"levelo://app?vid=c89c2319-61a9-47ef-9229-e31c9eaab143"},"vehicle_type_id":"4","last_reported":1729253828,"current_range_meters":36800,"station_id":"ce4bhu92rcd13ifvqi70","pricing_plan_id":"cebpf4jnsgd1na2vs0mg"},{"bike_id":"ba9bd7c4-d1e3-4f57-8f18-78d353422ae9","system_id":"levelo_inurba_marseille","lat":43.23069,"lon":5.35486,"is_reserved":false,"is_disabled":false,"rental_uris":{"android":"levelo://app?vid=ba9bd7c4-d1e3-4f57-8f18-78d353422ae9","ios":"levelo://app?vid=ba9bd7c4-d1e3-4f57-8f18-78d353422ae9"},"vehicle_type_id":"4","last_reported":1729253828,"current_range_meters":32000,"station_id":"cpo3342slgdg3j2ifvpg","pricing_plan_id":"cebpf4jnsgd1na2vs0mg"},{"bike_id":"1e5a3fc9-b5ba-4b71-9354-94db9ff82c69","system_id":"levelo_inurba_marseille","lat":43.24077,"lon":5.37757,"is_reserved":false,"is_disabled":false,"rental_uris":{"android":"levelo://app?vid=1e5a3fc9-b5ba-4b71-9354-94db9ff82c69","ios":"levelo://app?vid=1e5a3fc9-b5ba-4b71-9354-94db9ff82c69"},"vehicle_type_id":"4","last_reported":1729253828,"current_range_meters":15200,"station_id":"ce4bhnp2rcd13ifvqgvg","pricing_plan_id":"cebpf4jnsgd1na2vs0mg"},{"bike_id":"47896433-1caa-406d-b0b0-0fef88a016af","system_id":"levelo_inurba_marseille","lat":43.2407,"lon":5.37748,"is_reserved":false,"is_disabled":false,"rental_uris":{"android":"levelo://app?vid=47896433-1caa-406d-b0b0-0fef88a016af","ios":"levelo://app?vid=47896433-1caa-406d-b0b0-0fef88a016af"},"vehicle_type_id":"4","last_reported":1729253828,"current_range_meters":5600,"station_id":"ce4bhnp2rcd13ifvqgvg","pricing_plan_id":"cebpf4jnsgd1na2vs0mg"},{"bike_id":"a14cfc8d-fbbd-40b0-aa99-e624d97946a6","system_id":"levelo_inurba_marseille","lat":43.308,"lon":5.4352,"is_reserved":false,"is_disabled":false,"rental_uris":{"android":"levelo://app?vid=a14cfc8d-fbbd-40b0-aa99-e624d97946a6","ios":"levelo://app?vid=a14cfc8d-fbbd-40b0-aa99-e624d97946a6"},"vehicle_type_id":"4","last_reported":1729253828,"current_range_meters":28400,"station_id":"ce4bhph2rcd13ifvqheg","pricing_plan_id":"cebpf4jnsgd1na2vs0mg"},{"bike_id":"3e8f42b7-31d3-4207-8673-f0bc6da74361","system_id":"levelo_inurba_marseille","lat":43.29792,"lon":5.39344,"is_reserved":false,"is_disabled":false,"rental_uris":{"android":"levelo://app?vid=3e8f42b7-31d3-4207-8673-f0bc6da74361","ios":"levelo://app?vid=3e8f42b7-31d3-4207-8673-f0bc6da74361"},"vehicle_type_id":"4","last_reported":1729253828,"current_range_meters":14000,"station_id":"chh1huq6cuj3fo74tm60","pricing_plan_id":"cebpf4jnsgd1na2vs0mg"},{"bike_id":"874494de-7452-4f47-9fec-c5ec79478035","system_id":"levelo_inurba_marseille","lat":43.23971,"lon":5.36621,"is_reserved":false,"is_disabled":false,"rental_uris":{"android":"levelo://app?vid=874494de-7452-4f47-9fec-c5ec79478035","ios":"levelo://app?vid=874494de-7452-4f47-9fec-c5ec79478035"},"vehicle_type_id":"4","last_reported":1729253828,"current_range_meters":24800,"station_id":"ce4bhi12rcd13ifvqfp0","pricing_plan_id":"cebpf4jnsgd1na2vs0mg"},{"bike_id":"8b33911e-5d42-46bd-b00d-c1d5ce72f577","system_id":"levelo_inurba_marseille","lat":43.2319,"lon":5.39977,"is_reserved":false,"is_disabled":false,"rental_uris":{"android":"levelo://app?vid=8b33911e-5d42-46bd-b00d-c1d5ce72f577","ios":"levelo://app?vid=8b33911e-5d42-46bd-b00d-c1d5ce72f577"},"vehicle_type_id":"4","last_reported":1729253828,"current_range_meters":39200,"station_id":"ce4bhn12rcd13ifvqgqg","pricing_plan_id":"cebpf4jnsgd1na2vs0mg"},{"bike_id":"e461230f-f7a1-4a86-9f21-e15c5e22ad45","system_id":"levelo_inurba_marseille","lat":43.24083,"lon":5.37748,"is_reserved":false,"is_disabled":false,"rental_uris":{"android":"levelo://app?vid=e461230f-f7a1-4a86-9f21-e15c5e22ad45","ios":"levelo://app?vid=e461230f-f7a1-4a86-9f21-e15c5e22ad45"},"vehicle_type_id":"4","last_reported":1729253828,"current_range_meters":14800,"station_id":"ce4bhnp2rcd13ifvqgvg","pricing_plan_id":"cebpf4jnsgd1na2vs0mg"},{"bike_id":"f0feda81-88dd-4130-b2e7-c86c13e1a893","system_id":"levelo_inurba_marseille","lat":43.28857,"lon":5.35852,"is_reserved":false,"is_disabled":false,"rental_uris":{"android":"levelo://app?vid=f0feda81-88dd-4130-b2e7-c86c13e1a893","ios":"levelo://app?vid=f0feda81-88dd-4130-b2e7-c86c13e1a893"},"vehicle_type_id":"4","last_reported":1729253828,"current_range_meters":33600,"station_id":"ce4bhb12rcd13ifvqem0","pricing_plan_id":"cebpf4jnsgd1na2vs0mg"},{"bike_id":"ada48ea6-7358-42e2-b6bc-85b3fe2e6c87","system_id":"levelo_inurba_marseille","lat":43.30423,"lon":5.41274,"is_reserved":false,"is_disabled":false,"rental_uris":{"android":"levelo://app?vid=ada48ea6-7358-42e2-b6bc-85b3fe2e6c87","ios":"levelo://app?vid=ada48ea6-7358-42e2-b6bc-85b3fe2e6c87"},"vehicle_type_id":"4","last_reported":1729253828,"current_range_meters":20000,"station_id":"ce4bhop2rcd13ifvqh8g","pricing_plan_id":"cebpf4jnsgd1na2vs0mg"},{"bike_id":"f9b5a435-82c5-4a94-bbfd-e7432ad9f450","system_id":"levelo_inurba_marseille","lat":43.29803,"lon":5.38087,"is_reserved":false,"is_disabled":false,"rental_uris":{"android":"levelo://app?vid=f9b5a435-82c5-4a94-bbfd-e7432ad9f450","ios":"levelo://app?vid=f9b5a435-82c5-4a94-bbfd-e7432ad9f450"},"vehicle_type_id":"4","last_reported":1729253828,"current_range_meters":35200,"station_id":"ce4bgip2rcd13ifvqbb0","pricing_plan_id":"cebpf4jnsgd1na2vs0mg"},{"bike_id":"0994d7f0-fa2e-480f-b967-2b1e1b476b78","system_id":"levelo_inurba_marseille","lat":43.23194,"lon":5.35544,"is_reserved":false,"is_disabled":false,"rental_uris":{"android":"levelo://app?vid=0994d7f0-fa2e-480f-b967-2b1e1b476b78","ios":"levelo://app?vid=0994d7f0-fa2e-480f-b967-2b1e1b476b78"},"vehicle_type_id":"4","last_reported":1729253828,"current_range_meters":8800,"station_id":"ce4bhu92rcd13ifvqi70","pricing_plan_id":"cebpf4jnsgd1na2vs0mg"},{"bike_id":"669b90da-5ebb-4038-b040-981e1f70258b","system_id":"levelo_inurba_marseille","lat":43.23157,"lon":5.43701,"is_reserved":false,"is_disabled":false,"rental_uris":{"android":"levelo://app?vid=669b90da-5ebb-4038-b040-981e1f70258b","ios":"levelo://app?vid=669b90da-5ebb-4038-b040-981e1f70258b"},"vehicle_type_id":"4","last_reported":1729253828,"current_range_meters":8000,"station_id":"ce4bhmp2rcd13ifvqgog","pricing_plan_id":"cebpf4jnsgd1na2vs0mg"},{"bike_id":"ddaa709f-74c5-424c-b47b-2aee7e551944","system_id":"levelo_inurba_marseille","lat":43.28724,"lon":5.37931,"is_reserved":false,"is_disabled":false,"rental_uris":{"android":"levelo://app?vid=ddaa709f-74c5-424c-b47b-2aee7e551944","ios":"levelo://app?vid=ddaa709f-74c5-424c-b47b-2aee7e551944"},"vehicle_type_id":"4","last_reported":1729253828,"current_range_meters":22800,"station_id":"ce4bh9p2rcd13ifvqec0","pricing_plan_id":"cebpf4jnsgd1na2vs0mg"},{"bike_id":"66ccc46d-618e-4760-b09c-27382152bdab","system_id":"levelo_inurba_marseille","lat":43.23195,"lon":5.35537,"is_reserved":false,"is_disabled":false,"rental_uris":{"android":"levelo://app?vid=66ccc46d-618e-4760-b09c-27382152bdab","ios":"levelo://app?vid=66ccc46d-618e-4760-b09c-27382152bdab"},"vehicle_type_id":"4","last_reported":1729253828,"current_range_meters":28400,"station_id":"ce4bhu92rcd13ifvqi70","pricing_plan_id":"cebpf4jnsgd1na2vs0mg"},{"bike_id":"aeb6ef8e-cab2-4479-b567-0b2741ce6261","system_id":"levelo_inurba_marseille","lat":43.28414,"lon":5.3498,"is_reserved":false,"is_disabled":false,"rental_uris":{"android":"levelo://app?vid=aeb6ef8e-cab2-4479-b567-0b2741ce6261","ios":"levelo://app?vid=aeb6ef8e-cab2-4479-b567-0b2741ce6261"},"vehicle_type_id":"4","last_reported":1729253828,"current_range_meters":14400,"station_id":"ce4bhbh2rcd13ifvqepg","pricing_plan_id":"cebpf4jnsgd1na2vs0mg"},{"bike_id":"4cdab489-d618-49e4-9ea7-6e690d49bf03","system_id":"levelo_inurba_marseille","lat":43.27055,"lon":5.40263,"is_reserved":false,"is_disabled":false,"rental_uris":{"android":"levelo://app?vid=4cdab489-d618-49e4-9ea7-6e690d49bf03","ios":"levelo://app?vid=4cdab489-d618-49e4-9ea7-6e690d49bf03"},"vehicle_type_id":"4","last_reported":1729253828,"current_range_meters":22000,"station_id":"ce4bhk92rcd13ifvqgc0","pricing_plan_id":"cebpf4jnsgd1na2vs0mg"},{"bike_id":"fc262b45-2b88-4d3d-8020-e7c946d1fec3","system_id":"levelo_inurba_marseille","lat":43.32111,"lon":5.36778,"is_reserved":false,"is_disabled":false,"rental_uris":{"android":"levelo://app?vid=fc262b45-2b88-4d3d-8020-e7c946d1fec3","ios":"levelo://app?vid=fc262b45-2b88-4d3d-8020-e7c946d1fec3"},"vehicle_type_id":"4","last_reported":1729253828,"current_range_meters":38000,"station_id":"ce4bhrh2rcd13ifvqhug","pricing_plan_id":"cebpf4jnsgd1na2vs0mg"},{"bike_id":"9e859611-47ca-4117-adfb-4d4f3dae9457","system_id":"levelo_inurba_marseille","lat":43.29796,"lon":5.36588,"is_reserved":false,"is_disabled":false,"rental_uris":{"android":"levelo://app?vid=9e859611-47ca-4117-adfb-4d4f3dae9457","ios":"levelo://app?vid=9e859611-47ca-4117-adfb-4d4f3dae9457"},"vehicle_type_id":"4","last_reported":1729253828,"current_range_meters":30400,"station_id":"","pricing_plan_id":"cebpf4jnsgd1na2vs0mg"},{"bike_id":"2a8d8e0d-09f4-4ada-9e2b-a6718972e982","system_id":"levelo_inurba_marseille","lat":43.2315,"lon":5.43705,"is_reserved":false,"is_disabled":false,"rental_uris":{"android":"levelo://app?vid=2a8d8e0d-09f4-4ada-9e2b-a6718972e982","ios":"levelo://app?vid=2a8d8e0d-09f4-4ada-9e2b-a6718972e982"},"vehicle_type_id":"4","last_reported":1729253828,"current_range_meters":19600,"station_id":"ce4bhmp2rcd13ifvqgog","pricing_plan_id":"cebpf4jnsgd1na2vs0mg"},{"bike_id":"6837b9b7-a283-4c2e-bc61-b23c3279a909","system_id":"levelo_inurba_marseille","lat":43.28573,"lon":5.39493,"is_reserved":false,"is_disabled":false,"rental_uris":{"android":"levelo://app?vid=6837b9b7-a283-4c2e-bc61-b23c3279a909","ios":"levelo://app?vid=6837b9b7-a283-4c2e-bc61-b23c3279a909"},"vehicle_type_id":"4","last_reported":1729253828,"current_range_meters":33200,"station_id":"ce4bh292rcd13ifvqdg0","pricing_plan_id":"cebpf4jnsgd1na2vs0mg"},{"bike_id":"907d90e2-7e08-4846-bbc2-01977b54a9bd","system_id":"levelo_inurba_marseille","lat":43.24168,"lon":5.36379,"is_reserved":false,"is_disabled":false,"rental_uris":{"android":"levelo://app?vid=907d90e2-7e08-4846-bbc2-01977b54a9bd","ios":"levelo://app?vid=907d90e2-7e08-4846-bbc2-01977b54a9bd"},"vehicle_type_id":"4","last_reported":1729253828,"current_range_meters":17600,"station_id":"cpo36qri1sfpv3e86is0","pricing_plan_id":"cebpf4jnsgd1na2vs0mg"},{"bike_id":"46b9d997-f8a2-4011-9958-a986ffb43361","system_id":"levelo_inurba_marseille","lat":43.3211,"lon":5.36764,"is_reserved":false,"is_disabled":false,"rental_uris":{"android":"levelo://app?vid=46b9d997-f8a2-4011-9958-a986ffb43361","ios":"levelo://app?vid=46b9d997-f8a2-4011-9958-a986ffb43361"},"vehicle_type_id":"4","last_reported":1729253828,"current_range_meters":30800,"station_id":"ce4bhrh2rcd13ifvqhug","pricing_plan_id":"cebpf4jnsgd1na2vs0mg"},{"bike_id":"41d6a4ea-9ef3-46c9-ba38-0e62ab1fd1d1","system_id":"levelo_inurba_marseille","lat":43.24076,"lon":5.37756,"is_reserved":false,"is_disabled":false,"rental_uris":{"android":"levelo://app?vid=41d6a4ea-9ef3-46c9-ba38-0e62ab1fd1d1","ios":"levelo://app?vid=41d6a4ea-9ef3-46c9-ba38-0e62ab1fd1d1"},"vehicle_type_id":"4","last_reported":1729253828,"current_range_meters":9200,"station_id":"ce4bhnp2rcd13ifvqgvg","pricing_plan_id":"cebpf4jnsgd1na2vs0mg"},{"bike_id":"d5453104-4e26-49cc-8e26-384ccaaff964","system_id":"levelo_inurba_marseille","lat":43.26564,"lon":5.37284,"is_reserved":false,"is_disabled":false,"rental_uris":{"android":"levelo://app?vid=d5453104-4e26-49cc-8e26-384ccaaff964","ios":"levelo://app?vid=d5453104-4e26-49cc-8e26-384ccaaff964"},"vehicle_type_id":"4","last_reported":1729253828,"current_range_meters":30400,"station_id":"ce4bhg12rcd13ifvqf70","pricing_plan_id":"cebpf4jnsgd1na2vs0mg"},{"bike_id":"f3fac2c5-addf-4349-b409-0ef674a29c7e","system_id":"levelo_inurba_marseille","lat":43.2841,"lon":5.37506,"is_reserved":false,"is_disabled":false,"rental_uris":{"android":"levelo://app?vid=f3fac2c5-addf-4349-b409-0ef674a29c7e","ios":"levelo://app?vid=f3fac2c5-addf-4349-b409-0ef674a29c7e"},"vehicle_type_id":"4","last_reported":1729253828,"current_range_meters":24000,"station_id":"ce4bh412rcd13ifvqds0","pricing_plan_id":"cebpf4jnsgd1na2vs0mg"},{"bike_id":"3bb7d4bb-4ddf-4b0f-a2de-cd18c430d3ef","system_id":"levelo_inurba_marseille","lat":43.30804,"lon":5.38158,"is_reserved":false,"is_disabled":false,"rental_uris":{"android":"levelo://app?vid=3bb7d4bb-4ddf-4b0f-a2de-cd18c430d3ef","ios":"levelo://app?vid=3bb7d4bb-4ddf-4b0f-a2de-cd18c430d3ef"},"vehicle_type_id":"4","last_reported":1729253828,"current_range_meters":16800,"station_id":"ce4bgt12rcd13ifvqce0","pricing_plan_id":"cebpf4jnsgd1na2vs0mg"},{"bike_id":"646e2cf2-8282-4589-a194-12e4d373c2b1","system_id":"levelo_inurba_marseille","lat":43.23192,"lon":5.35551,"is_reserved":false,"is_disabled":false,"rental_uris":{"android":"levelo://app?vid=646e2cf2-8282-4589-a194-12e4d373c2b1","ios":"levelo://app?vid=646e2cf2-8282-4589-a194-12e4d373c2b1"},"vehicle_type_id":"4","last_reported":1729253828,"current_range_meters":38800,"station_id":"ce4bhu92rcd13ifvqi70","pricing_plan_id":"cebpf4jnsgd1na2vs0mg"},{"bike_id":"94dad7f8-6585-4b37-b691-74420d23ef13","system_id":"levelo_inurba_marseille","lat":43.30799,"lon":5.43522,"is_reserved":false,"is_disabled":false,"rental_uris":{"android":"levelo://app?vid=94dad7f8-6585-4b37-b691-74420d23ef13","ios":"levelo://app?vid=94dad7f8-6585-4b37-b691-74420d23ef13"},"vehicle_type_id":"4","last_reported":1729253828,"current_range_meters":36400,"station_id":"ce4bhph2rcd13ifvqheg","pricing_plan_id":"cebpf4jnsgd1na2vs0mg"},{"bike_id":"b5d4c69d-6d44-49a5-943a-595d61804931","system_id":"levelo_inurba_marseille","lat":43.30287,"lon":5.37694,"is_reserved":false,"is_disabled":false,"rental_uris":{"android":"levelo://app?vid=b5d4c69d-6d44-49a5-943a-595d61804931","ios":"levelo://app?vid=b5d4c69d-6d44-49a5-943a-595d61804931"},"vehicle_type_id":"4","last_reported":1729253828,"current_range_meters":24400,"station_id":"ce4bguh2rcd13ifvqcj0","pricing_plan_id":"cebpf4jnsgd1na2vs0mg"},{"bike_id":"65791c7c-1a47-4111-a7bd-2e7d9c94b923","system_id":"levelo_inurba_marseille","lat":43.2872,"lon":5.37934,"is_reserved":false,"is_disabled":false,"rental_uris":{"android":"levelo://app?vid=65791c7c-1a47-4111-a7bd-2e7d9c94b923","ios":"levelo://app?vid=65791c7c-1a47-4111-a7bd-2e7d9c94b923"},"vehicle_type_id":"4","last_reported":1729253828,"current_range_meters":38800,"station_id":"ce4bh9p2rcd13ifvqec0","pricing_plan_id":"cebpf4jnsgd1na2vs0mg"},{"bike_id":"4562e9bb-7c1e-4e0e-95e1-858d0f8d86d1","system_id":"levelo_inurba_marseille","lat":43.23194,"lon":5.35551,"is_reserved":false,"is_disabled":false,"rental_uris":{"android":"levelo://app?vid=4562e9bb-7c1e-4e0e-95e1-858d0f8d86d1","ios":"levelo://app?vid=4562e9bb-7c1e-4e0e-95e1-858d0f8d86d1"},"vehicle_type_id":"4","last_reported":1729253828,"current_range_meters":34800,"station_id":"ce4bhu92rcd13ifvqi70","pricing_plan_id":"cebpf4jnsgd1na2vs0mg"},{"bike_id":"3bfa9c42-4152-4ec6-99d3-f1112205c95d","system_id":"levelo_inurba_marseille","lat":43.3188,"lon":5.40728,"is_reserved":false,"is_disabled":false,"rental_uris":{"android":"levelo://app?vid=3bfa9c42-4152-4ec6-99d3-f1112205c95d","ios":"levelo://app?vid=3bfa9c42-4152-4ec6-99d3-f1112205c95d"},"vehicle_type_id":"4","last_reported":1729253828,"current_range_meters":15200,"station_id":"ce4bhq12rcd13ifvqhig","pricing_plan_id":"cebpf4jnsgd1na2vs0mg"},{"bike_id":"72cfce98-d1b0-47ed-a4fc-34fd3a5f0fb1","system_id":"levelo_inurba_marseille","lat":43.2706,"lon":5.40261,"is_reserved":false,"is_disabled":false,"rental_uris":{"android":"levelo://app?vid=72cfce98-d1b0-47ed-a4fc-34fd3a5f0fb1","ios":"levelo://app?vid=72cfce98-d1b0-47ed-a4fc-34fd3a5f0fb1"},"vehicle_type_id":"4","last_reported":1729253828,"current_range_meters":11600,"station_id":"ce4bhk92rcd13ifvqgc0","pricing_plan_id":"cebpf4jnsgd1na2vs0mg"},{"bike_id":"6837ac97-30a8-4145-8047-b6d6df61ac48","system_id":"levelo_inurba_marseille","lat":43.23185,"lon":5.39993,"is_reserved":false,"is_disabled":false,"rental_uris":{"android":"levelo://app?vid=6837ac97-30a8-4145-8047-b6d6df61ac48","ios":"levelo://app?vid=6837ac97-30a8-4145-8047-b6d6df61ac48"},"vehicle_type_id":"4","last_reported":1729253828,"current_range_meters":38400,"station_id":"ce4bhn12rcd13ifvqgqg","pricing_plan_id":"cebpf4jnsgd1na2vs0mg"},{"bike_id":"2140b6a3-5118-4150-823e-9225aeb56201","system_id":"levelo_inurba_marseille","lat":43.23198,"lon":5.35547,"is_reserved":false,"is_disabled":false,"rental_uris":{"android":"levelo://app?vid=2140b6a3-5118-4150-823e-9225aeb56201","ios":"levelo://app?vid=2140b6a3-5118-4150-823e-9225aeb56201"},"vehicle_type_id":"4","last_reported":1729253828,"current_range_meters":32400,"station_id":"ce4bhu92rcd13ifvqi70","pricing_plan_id":"cebpf4jnsgd1na2vs0mg"},{"bike_id":"2d26828d-d90f-4409-8e3f-2bdaa5ca0cb2","system_id":"levelo_inurba_marseille","lat":43.23186,"lon":5.39979,"is_reserved":false,"is_disabled":false,"rental_uris":{"android":"levelo://app?vid=2d26828d-d90f-4409-8e3f-2bdaa5ca0cb2","ios":"levelo://app?vid=2d26828d-d90f-4409-8e3f-2bdaa5ca0cb2"},"vehicle_type_id":"4","last_reported":1729253828,"current_range_meters":32800,"station_id":"ce4bhn12rcd13ifvqgqg","pricing_plan_id":"cebpf4jnsgd1na2vs0mg"},{"bike_id":"c2be6559-daaf-4410-a6c1-e64885bbd8d7","system_id":"levelo_inurba_marseille","lat":43.29035,"lon":5.3863,"is_reserved":false,"is_disabled":false,"rental_uris":{"android":"levelo://app?vid=c2be6559-daaf-4410-a6c1-e64885bbd8d7","ios":"levelo://app?vid=c2be6559-daaf-4410-a6c1-e64885bbd8d7"},"vehicle_type_id":"4","last_reported":1729253828,"current_range_meters":39200,"station_id":"ce4bh4p2rcd13ifvqe0g","pricing_plan_id":"cebpf4jnsgd1na2vs0mg"},{"bike_id":"6a3239c0-9bc9-4107-aa85-e2344e17a102","system_id":"levelo_inurba_marseille","lat":43.26569,"lon":5.38993,"is_reserved":false,"is_disabled":false,"rental_uris":{"android":"levelo://app?vid=6a3239c0-9bc9-4107-aa85-e2344e17a102","ios":"levelo://app?vid=6a3239c0-9bc9-4107-aa85-e2344e17a102"},"vehicle_type_id":"4","last_reported":1729253828,"current_range_meters":20400,"station_id":"ce4bhe12rcd13ifvqf30","pricing_plan_id":"cebpf4jnsgd1na2vs0mg"},{"bike_id":"9c8ee1e1-f5c1-4ad6-adec-24b3e97967a5","system_id":"levelo_inurba_marseille","lat":43.24075,"lon":5.37763,"is_reserved":false,"is_disabled":false,"rental_uris":{"android":"levelo://app?vid=9c8ee1e1-f5c1-4ad6-adec-24b3e97967a5","ios":"levelo://app?vid=9c8ee1e1-f5c1-4ad6-adec-24b3e97967a5"},"vehicle_type_id":"4","last_reported":1729253828,"current_range_meters":26800,"station_id":"ce4bhnp2rcd13ifvqgvg","pricing_plan_id":"cebpf4jnsgd1na2vs0mg"},{"bike_id":"d83d5fc0-4009-4887-a519-1850400a786b","system_id":"levelo_inurba_marseille","lat":43.2383,"lon":5.43569,"is_reserved":false,"is_disabled":false,"rental_uris":{"android":"levelo://app?vid=d83d5fc0-4009-4887-a519-1850400a786b","ios":"levelo://app?vid=d83d5fc0-4009-4887-a519-1850400a786b"},"vehicle_type_id":"4","last_reported":1729253828,"current_range_meters":3200,"station_id":"ce4bhmp2rcd13ifvqgog","pricing_plan_id":"cebpf4jnsgd1na2vs0mg"},{"bike_id":"73571360-6624-497e-ae84-61a3fbd766b0","system_id":"levelo_inurba_marseille","lat":43.255,"lon":5.37653,"is_reserved":false,"is_disabled":false,"rental_uris":{"android":"levelo://app?vid=73571360-6624-497e-ae84-61a3fbd766b0","ios":"levelo://app?vid=73571360-6624-497e-ae84-61a3fbd766b0"},"vehicle_type_id":"4","last_reported":1729253828,"current_range_meters":40000,"station_id":"ce4bhh12rcd13ifvqff0","pricing_plan_id":"cebpf4jnsgd1na2vs0mg"},{"bike_id":"fa9433b4-083f-47af-bd7b-c30153b643c4","system_id":"levelo_inurba_marseille","lat":43.28076,"lon":5.39651,"is_reserved":false,"is_disabled":false,"rental_uris":{"android":"levelo://app?vid=fa9433b4-083f-47af-bd7b-c30153b643c4","ios":"levelo://app?vid=fa9433b4-083f-47af-bd7b-c30153b643c4"},"vehicle_type_id":"4","last_reported":1729253828,"current_range_meters":25200,"station_id":"ce4bho12rcd13ifvqh2g","pricing_plan_id":"cebpf4jnsgd1na2vs0mg"},{"bike_id":"729216d7-b815-4bd9-8996-3140c6b12421","system_id":"levelo_inurba_marseille","lat":43.29783,"lon":5.3934,"is_reserved":false,"is_disabled":false,"rental_uris":{"android":"levelo://app?vid=729216d7-b815-4bd9-8996-3140c6b12421","ios":"levelo://app?vid=729216d7-b815-4bd9-8996-3140c6b12421"},"vehicle_type_id":"4","last_reported":1729253828,"current_range_meters":34000,"station_id":"chh1huq6cuj3fo74tm60","pricing_plan_id":"cebpf4jnsgd1na2vs0mg"},{"bike_id":"63dc8cff-2e64-456e-9aa0-64dd8b34cf0d","system_id":"levelo_inurba_marseille","lat":43.29972,"lon":5.37171,"is_reserved":false,"is_disabled":false,"rental_uris":{"android":"levelo://app?vid=63dc8cff-2e64-456e-9aa0-64dd8b34cf0d","ios":"levelo://app?vid=63dc8cff-2e64-456e-9aa0-64dd8b34cf0d"},"vehicle_type_id":"4","last_reported":1729253828,"current_range_meters":24800,"station_id":"ce4bgr92rcd13ifvqc7g","pricing_plan_id":"cebpf4jnsgd1na2vs0mg"},{"bike_id":"175755d7-0c67-48b4-8af6-3d11fd590c37","system_id":"levelo_inurba_marseille","lat":43.23964,"lon":5.36619,"is_reserved":false,"is_disabled":false,"rental_uris":{"android":"levelo://app?vid=175755d7-0c67-48b4-8af6-3d11fd590c37","ios":"levelo://app?vid=175755d7-0c67-48b4-8af6-3d11fd590c37"},"vehicle_type_id":"4","last_reported":1729253828,"current_range_meters":33200,"station_id":"ce4bhi12rcd13ifvqfp0","pricing_plan_id":"cebpf4jnsgd1na2vs0mg"},{"bike_id":"4f3965b2-0ba1-4837-b609-e9ca7dacf1ad","system_id":"levelo_inurba_marseille","lat":43.33018,"lon":5.39041,"is_reserved":false,"is_disabled":false,"rental_uris":{"android":"levelo://app?vid=4f3965b2-0ba1-4837-b609-e9ca7dacf1ad","ios":"levelo://app?vid=4f3965b2-0ba1-4837-b609-e9ca7dacf1ad"},"vehicle_type_id":"4","last_reported":1729253828,"current_range_meters":30400,"station_id":"ce4bhr92rcd13ifvqhrg","pricing_plan_id":"cebpf4jnsgd1na2vs0mg"},{"bike_id":"7772d39f-5e28-445c-af91-069b0cf63793","system_id":"levelo_inurba_marseille","lat":43.33765,"lon":5.37438,"is_reserved":false,"is_disabled":false,"rental_uris":{"android":"levelo://app?vid=7772d39f-5e28-445c-af91-069b0cf63793","ios":"levelo://app?vid=7772d39f-5e28-445c-af91-069b0cf63793"},"vehicle_type_id":"4","last_reported":1729253828,"current_range_meters":13600,"station_id":"","pricing_plan_id":"cebpf4jnsgd1na2vs0mg"},{"bike_id":"e0ab6bb6-c6b9-4385-b41c-27bea5d9c0cb","system_id":"levelo_inurba_marseille","lat":43.33034,"lon":5.39036,"is_reserved":false,"is_disabled":false,"rental_uris":{"android":"levelo://app?vid=e0ab6bb6-c6b9-4385-b41c-27bea5d9c0cb","ios":"levelo://app?vid=e0ab6bb6-c6b9-4385-b41c-27bea5d9c0cb"},"vehicle_type_id":"4","last_reported":1729253828,"current_range_meters":23200,"station_id":"ce4bhr92rcd13ifvqhrg","pricing_plan_id":"cebpf4jnsgd1na2vs0mg"},{"bike_id":"4ef6f5b0-7cd1-44d6-be09-65327a7c29ac","system_id":"levelo_inurba_marseille","lat":43.34144,"lon":5.40898,"is_reserved":false,"is_disabled":false,"rental_uris":{"android":"levelo://app?vid=4ef6f5b0-7cd1-44d6-be09-65327a7c29ac","ios":"levelo://app?vid=4ef6f5b0-7cd1-44d6-be09-65327a7c29ac"},"vehicle_type_id":"4","last_reported":1729253828,"current_range_meters":36800,"station_id":"ce4bhqh2rcd13ifvqhlg","pricing_plan_id":"cebpf4jnsgd1na2vs0mg"},{"bike_id":"3213665e-989c-4d22-9f5a-31c8522597dd","system_id":"levelo_inurba_marseille","lat":43.296,"lon":5.36142,"is_reserved":false,"is_disabled":false,"rental_uris":{"android":"levelo://app?vid=3213665e-989c-4d22-9f5a-31c8522597dd","ios":"levelo://app?vid=3213665e-989c-4d22-9f5a-31c8522597dd"},"vehicle_type_id":"4","last_reported":1729253828,"current_range_meters":24400,"station_id":"","pricing_plan_id":"cebpf4jnsgd1na2vs0mg"},{"bike_id":"a7bd1bab-a7fd-4704-98ba-60c81423fa8f","system_id":"levelo_inurba_marseille","lat":43.25586,"lon":5.38234,"is_reserved":false,"is_disabled":false,"rental_uris":{"android":"levelo://app?vid=a7bd1bab-a7fd-4704-98ba-60c81423fa8f","ios":"levelo://app?vid=a7bd1bab-a7fd-4704-98ba-60c81423fa8f"},"vehicle_type_id":"4","last_reported":1729253828,"current_range_meters":30800,"station_id":"ce4bhih2rcd13ifvqfs0","pricing_plan_id":"cebpf4jnsgd1na2vs0mg"},{"bike_id":"cddb2538-acdb-46a5-bc95-6e0a8d74ef0c","system_id":"levelo_inurba_marseille","lat":43.30799,"lon":5.43514,"is_reserved":false,"is_disabled":false,"rental_uris":{"android":"levelo://app?vid=cddb2538-acdb-46a5-bc95-6e0a8d74ef0c","ios":"levelo://app?vid=cddb2538-acdb-46a5-bc95-6e0a8d74ef0c"},"vehicle_type_id":"4","last_reported":1729253828,"current_range_meters":31200,"station_id":"ce4bhph2rcd13ifvqheg","pricing_plan_id":"cebpf4jnsgd1na2vs0mg"},{"bike_id":"70dce366-f9c7-40a3-ae14-89a345e4870f","system_id":"levelo_inurba_marseille","lat":43.28343,"lon":5.38102,"is_reserved":false,"is_disabled":false,"rental_uris":{"android":"levelo://app?vid=70dce366-f9c7-40a3-ae14-89a345e4870f","ios":"levelo://app?vid=70dce366-f9c7-40a3-ae14-89a345e4870f"},"vehicle_type_id":"4","last_reported":1729253828,"current_range_meters":38800,"station_id":"ce4bh412rcd13ifvqdr0","pricing_plan_id":"cebpf4jnsgd1na2vs0mg"},{"bike_id":"5f50933a-822a-4388-8612-62a3f233b7b7","system_id":"levelo_inurba_marseille","lat":43.23157,"lon":5.43705,"is_reserved":false,"is_disabled":false,"rental_uris":{"android":"levelo://app?vid=5f50933a-822a-4388-8612-62a3f233b7b7","ios":"levelo://app?vid=5f50933a-822a-4388-8612-62a3f233b7b7"},"vehicle_type_id":"4","last_reported":1729253828,"current_range_meters":27600,"station_id":"ce4bhmp2rcd13ifvqgog","pricing_plan_id":"cebpf4jnsgd1na2vs0mg"},{"bike_id":"fdffb8c5-c532-4d82-87d4-025ce6028625","system_id":"levelo_inurba_marseille","lat":43.24077,"lon":5.37757,"is_reserved":false,"is_disabled":false,"rental_uris":{"android":"levelo://app?vid=fdffb8c5-c532-4d82-87d4-025ce6028625","ios":"levelo://app?vid=fdffb8c5-c532-4d82-87d4-025ce6028625"},"vehicle_type_id":"4","last_reported":1729253828,"current_range_meters":30000,"station_id":"ce4bhnp2rcd13ifvqgvg","pricing_plan_id":"cebpf4jnsgd1na2vs0mg"},{"bike_id":"1641b826-604a-4181-8231-dca386f637a6","system_id":"levelo_inurba_marseille","lat":43.23194,"lon":5.35549,"is_reserved":false,"is_disabled":false,"rental_uris":{"android":"levelo://app?vid=1641b826-604a-4181-8231-dca386f637a6","ios":"levelo://app?vid=1641b826-604a-4181-8231-dca386f637a6"},"vehicle_type_id":"4","last_reported":1729253828,"current_range_meters":29600,"station_id":"ce4bhu92rcd13ifvqi70","pricing_plan_id":"cebpf4jnsgd1na2vs0mg"},{"bike_id":"89211ee2-076f-4df3-92bd-cd8885f2e76d","system_id":"levelo_inurba_marseille","lat":43.23194,"lon":5.35556,"is_reserved":false,"is_disabled":false,"rental_uris":{"android":"levelo://app?vid=89211ee2-076f-4df3-92bd-cd8885f2e76d","ios":"levelo://app?vid=89211ee2-076f-4df3-92bd-cd8885f2e76d"},"vehicle_type_id":"4","last_reported":1729253828,"current_range_meters":28400,"station_id":"ce4bhu92rcd13ifvqi70","pricing_plan_id":"cebpf4jnsgd1na2vs0mg"},{"bike_id":"ad7b4d6b-0664-4d0e-891e-2962f31c57b3","system_id":"levelo_inurba_marseille","lat":43.23149,"lon":5.43706,"is_reserved":false,"is_disabled":false,"rental_uris":{"android":"levelo://app?vid=ad7b4d6b-0664-4d0e-891e-2962f31c57b3","ios":"levelo://app?vid=ad7b4d6b-0664-4d0e-891e-2962f31c57b3"},"vehicle_type_id":"4","last_reported":1729253828,"current_range_meters":24400,"station_id":"ce4bhmp2rcd13ifvqgog","pricing_plan_id":"cebpf4jnsgd1na2vs0mg"},{"bike_id":"4a51facb-fdb2-4b51-98e7-63743d7f3960","system_id":"levelo_inurba_marseille","lat":43.24075,"lon":5.37759,"is_reserved":false,"is_disabled":false,"rental_uris":{"android":"levelo://app?vid=4a51facb-fdb2-4b51-98e7-63743d7f3960","ios":"levelo://app?vid=4a51facb-fdb2-4b51-98e7-63743d7f3960"},"vehicle_type_id":"4","last_reported":1729253828,"current_range_meters":22000,"station_id":"ce4bhnp2rcd13ifvqgvg","pricing_plan_id":"cebpf4jnsgd1na2vs0mg"},{"bike_id":"be1e7819-405e-4896-9104-aec4a30ad2bd","system_id":"levelo_inurba_marseille","lat":43.28948,"lon":5.36624,"is_reserved":false,"is_disabled":false,"rental_uris":{"android":"levelo://app?vid=be1e7819-405e-4896-9104-aec4a30ad2bd","ios":"levelo://app?vid=be1e7819-405e-4896-9104-aec4a30ad2bd"},"vehicle_type_id":"4","last_reported":1729253828,"current_range_meters":8400,"station_id":"ce4bhap2rcd13ifvqek0","pricing_plan_id":"cebpf4jnsgd1na2vs0mg"},{"bike_id":"5e71651e-3f89-45a8-aa11-bf64ca86ed10","system_id":"levelo_inurba_marseille","lat":43.24388,"lon":5.3706,"is_reserved":false,"is_disabled":false,"rental_uris":{"android":"levelo://app?vid=5e71651e-3f89-45a8-aa11-bf64ca86ed10","ios":"levelo://app?vid=5e71651e-3f89-45a8-aa11-bf64ca86ed10"},"vehicle_type_id":"4","last_reported":1729253828,"current_range_meters":12800,"station_id":"ce4bhhh2rcd13ifvqfk0","pricing_plan_id":"cebpf4jnsgd1na2vs0mg"},{"bike_id":"b8fe03b7-66d6-4b1d-b182-30121416b669","system_id":"levelo_inurba_marseille","lat":43.30795,"lon":5.38159,"is_reserved":false,"is_disabled":false,"rental_uris":{"android":"levelo://app?vid=b8fe03b7-66d6-4b1d-b182-30121416b669","ios":"levelo://app?vid=b8fe03b7-66d6-4b1d-b182-30121416b669"},"vehicle_type_id":"4","last_reported":1729253828,"current_range_meters":34800,"station_id":"ce4bgt12rcd13ifvqce0","pricing_plan_id":"cebpf4jnsgd1na2vs0mg"},{"bike_id":"9bdb5919-d96d-4b16-9f22-31bf96471670","system_id":"levelo_inurba_marseille","lat":43.26678,"lon":5.38271,"is_reserved":false,"is_disabled":false,"rental_uris":{"android":"levelo://app?vid=9bdb5919-d96d-4b16-9f22-31bf96471670","ios":"levelo://app?vid=9bdb5919-d96d-4b16-9f22-31bf96471670"},"vehicle_type_id":"4","last_reported":1729253828,"current_range_meters":23200,"station_id":"ce4bhg92rcd13ifvqf90","pricing_plan_id":"cebpf4jnsgd1na2vs0mg"},{"bike_id":"422d485a-ee3c-4fc3-b2c4-fc8dab31d119","system_id":"levelo_inurba_marseille","lat":43.23962,"lon":5.36631,"is_reserved":false,"is_disabled":false,"rental_uris":{"android":"levelo://app?vid=422d485a-ee3c-4fc3-b2c4-fc8dab31d119","ios":"levelo://app?vid=422d485a-ee3c-4fc3-b2c4-fc8dab31d119"},"vehicle_type_id":"4","last_reported":1729253828,"current_range_meters":15200,"station_id":"ce4bhi12rcd13ifvqfp0","pricing_plan_id":"cebpf4jnsgd1na2vs0mg"},{"bike_id":"7cbf0900-fede-46b6-8a08-83430904a0c0","system_id":"levelo_inurba_marseille","lat":43.25821,"lon":5.39441,"is_reserved":false,"is_disabled":false,"rental_uris":{"android":"levelo://app?vid=7cbf0900-fede-46b6-8a08-83430904a0c0","ios":"levelo://app?vid=7cbf0900-fede-46b6-8a08-83430904a0c0"},"vehicle_type_id":"4","last_reported":1729253828,"current_range_meters":38000,"station_id":"ce4bhip2rcd13ifvqft0","pricing_plan_id":"cebpf4jnsgd1na2vs0mg"},{"bike_id":"87440bd7-4730-412f-b52f-03b263c3d6ba","system_id":"levelo_inurba_marseille","lat":43.23191,"lon":5.35551,"is_reserved":false,"is_disabled":false,"rental_uris":{"android":"levelo://app?vid=87440bd7-4730-412f-b52f-03b263c3d6ba","ios":"levelo://app?vid=87440bd7-4730-412f-b52f-03b263c3d6ba"},"vehicle_type_id":"4","last_reported":1729253828,"current_range_meters":12800,"station_id":"ce4bhu92rcd13ifvqi70","pricing_plan_id":"cebpf4jnsgd1na2vs0mg"},{"bike_id":"5c491128-d2de-4b00-8c90-6abc31a462e1","system_id":"levelo_inurba_marseille","lat":43.22938,"lon":5.35376,"is_reserved":false,"is_disabled":false,"rental_uris":{"android":"levelo://app?vid=5c491128-d2de-4b00-8c90-6abc31a462e1","ios":"levelo://app?vid=5c491128-d2de-4b00-8c90-6abc31a462e1"},"vehicle_type_id":"4","last_reported":1729253828,"current_range_meters":12400,"station_id":"cpo3532slgdg3j2ikp40","pricing_plan_id":"cebpf4jnsgd1na2vs0mg"},{"bike_id":"0553333f-4c4c-40f7-ab35-5948c087e54f","system_id":"levelo_inurba_marseille","lat":43.31222,"lon":5.36855,"is_reserved":false,"is_disabled":false,"rental_uris":{"android":"levelo://app?vid=0553333f-4c4c-40f7-ab35-5948c087e54f","ios":"levelo://app?vid=0553333f-4c4c-40f7-ab35-5948c087e54f"},"vehicle_type_id":"4","last_reported":1729253828,"current_range_meters":39200,"station_id":"ce4bgl92rcd13ifvqbq0","pricing_plan_id":"cebpf4jnsgd1na2vs0mg"},{"bike_id":"760b2352-6cee-42a3-9fdd-e0789b02a76a","system_id":"levelo_inurba_marseille","lat":43.26561,"lon":5.38992,"is_reserved":false,"is_disabled":false,"rental_uris":{"android":"levelo://app?vid=760b2352-6cee-42a3-9fdd-e0789b02a76a","ios":"levelo://app?vid=760b2352-6cee-42a3-9fdd-e0789b02a76a"},"vehicle_type_id":"4","last_reported":1729253828,"current_range_meters":16400,"station_id":"ce4bhe12rcd13ifvqf30","pricing_plan_id":"cebpf4jnsgd1na2vs0mg"},{"bike_id":"3255e232-42e7-4865-85ba-fde280e1de43","system_id":"levelo_inurba_marseille","lat":43.29372,"lon":5.37854,"is_reserved":false,"is_disabled":false,"rental_uris":{"android":"levelo://app?vid=3255e232-42e7-4865-85ba-fde280e1de43","ios":"levelo://app?vid=3255e232-42e7-4865-85ba-fde280e1de43"},"vehicle_type_id":"4","last_reported":1729253828,"current_range_meters":28000,"station_id":"ce4bgjh2rcd13ifvqbf0","pricing_plan_id":"cebpf4jnsgd1na2vs0mg"},{"bike_id":"4c8dca80-8b42-4428-a771-8ffe7b6dee59","system_id":"levelo_inurba_marseille","lat":43.28937,"lon":5.38397,"is_reserved":false,"is_disabled":false,"rental_uris":{"android":"levelo://app?vid=4c8dca80-8b42-4428-a771-8ffe7b6dee59","ios":"levelo://app?vid=4c8dca80-8b42-4428-a771-8ffe7b6dee59"},"vehicle_type_id":"4","last_reported":1729253828,"current_range_meters":11200,"station_id":"ce4bh612rcd13ifvqe6g","pricing_plan_id":"cebpf4jnsgd1na2vs0mg"},{"bike_id":"2bf66d3a-ab30-4574-9570-fa08453d5ab0","system_id":"levelo_inurba_marseille","lat":43.2408,"lon":5.3775,"is_reserved":false,"is_disabled":false,"rental_uris":{"android":"levelo://app?vid=2bf66d3a-ab30-4574-9570-fa08453d5ab0","ios":"levelo://app?vid=2bf66d3a-ab30-4574-9570-fa08453d5ab0"},"vehicle_type_id":"4","last_reported":1729253828,"current_range_meters":16400,"station_id":"ce4bhnp2rcd13ifvqgvg","pricing_plan_id":"cebpf4jnsgd1na2vs0mg"},{"bike_id":"c4897df7-25bc-4937-a915-4bb3ffa381a4","system_id":"levelo_inurba_marseille","lat":43.2872,"lon":5.37934,"is_reserved":false,"is_disabled":false,"rental_uris":{"android":"levelo://app?vid=c4897df7-25bc-4937-a915-4bb3ffa381a4","ios":"levelo://app?vid=c4897df7-25bc-4937-a915-4bb3ffa381a4"},"vehicle_type_id":"4","last_reported":1729253828,"current_range_meters":25200,"station_id":"ce4bh9p2rcd13ifvqec0","pricing_plan_id":"cebpf4jnsgd1na2vs0mg"},{"bike_id":"d025cc5d-dade-480a-953a-798f91c87fb2","system_id":"levelo_inurba_marseille","lat":43.29974,"lon":5.38503,"is_reserved":false,"is_disabled":false,"rental_uris":{"android":"levelo://app?vid=d025cc5d-dade-480a-953a-798f91c87fb2","ios":"levelo://app?vid=d025cc5d-dade-480a-953a-798f91c87fb2"},"vehicle_type_id":"4","last_reported":1729253828,"current_range_meters":36000,"station_id":"ce4bgj92rcd13ifvqbd0","pricing_plan_id":"cebpf4jnsgd1na2vs0mg"},{"bike_id":"5dea50a4-1d92-4427-a32b-1890395130ff","system_id":"levelo_inurba_marseille","lat":43.27365,"lon":5.3625,"is_reserved":false,"is_disabled":false,"rental_uris":{"android":"levelo://app?vid=5dea50a4-1d92-4427-a32b-1890395130ff","ios":"levelo://app?vid=5dea50a4-1d92-4427-a32b-1890395130ff"},"vehicle_type_id":"4","last_reported":1729253828,"current_range_meters":38400,"station_id":"ce4bhbh2rcd13ifvqeo0","pricing_plan_id":"cebpf4jnsgd1na2vs0mg"},{"bike_id":"c23403d1-a246-4cd7-93d3-bac0d8d33665","system_id":"levelo_inurba_marseille","lat":43.26681,"lon":5.38271,"is_reserved":false,"is_disabled":false,"rental_uris":{"android":"levelo://app?vid=c23403d1-a246-4cd7-93d3-bac0d8d33665","ios":"levelo://app?vid=c23403d1-a246-4cd7-93d3-bac0d8d33665"},"vehicle_type_id":"4","last_reported":1729253828,"current_range_meters":30000,"station_id":"ce4bhg92rcd13ifvqf90","pricing_plan_id":"cebpf4jnsgd1na2vs0mg"},{"bike_id":"12eb7c25-2837-4428-9baf-9b5273dc9452","system_id":"levelo_inurba_marseille","lat":43.22932,"lon":5.35375,"is_reserved":false,"is_disabled":false,"rental_uris":{"android":"levelo://app?vid=12eb7c25-2837-4428-9baf-9b5273dc9452","ios":"levelo://app?vid=12eb7c25-2837-4428-9baf-9b5273dc9452"},"vehicle_type_id":"4","last_reported":1729253828,"current_range_meters":30800,"station_id":"cpo3532slgdg3j2ikp40","pricing_plan_id":"cebpf4jnsgd1na2vs0mg"},{"bike_id":"742aeb4e-a66a-4913-aa39-930ad4f417e1","system_id":"levelo_inurba_marseille","lat":43.28606,"lon":5.37065,"is_reserved":false,"is_disabled":false,"rental_uris":{"android":"levelo://app?vid=742aeb4e-a66a-4913-aa39-930ad4f417e1","ios":"levelo://app?vid=742aeb4e-a66a-4913-aa39-930ad4f417e1"},"vehicle_type_id":"4","last_reported":1729253828,"current_range_meters":26000,"station_id":"ce4bht12rcd13ifvqi60","pricing_plan_id":"cebpf4jnsgd1na2vs0mg"},{"bike_id":"447b70f6-8c9a-492e-bd55-772c1a112572","system_id":"levelo_inurba_marseille","lat":43.2993,"lon":5.36549,"is_reserved":false,"is_disabled":false,"rental_uris":{"android":"levelo://app?vid=447b70f6-8c9a-492e-bd55-772c1a112572","ios":"levelo://app?vid=447b70f6-8c9a-492e-bd55-772c1a112572"},"vehicle_type_id":"4","last_reported":1729253828,"current_range_meters":21600,"station_id":"ce4bgm92rcd13ifvqbr0","pricing_plan_id":"cebpf4jnsgd1na2vs0mg"},{"bike_id":"4adabd71-f780-4edb-91a0-f61837913067","system_id":"levelo_inurba_marseille","lat":43.31273,"lon":5.40162,"is_reserved":false,"is_disabled":false,"rental_uris":{"android":"levelo://app?vid=4adabd71-f780-4edb-91a0-f61837913067","ios":"levelo://app?vid=4adabd71-f780-4edb-91a0-f61837913067"},"vehicle_type_id":"4","last_reported":1729253828,"current_range_meters":30800,"station_id":"ce4bh092rcd13ifvqd30","pricing_plan_id":"cebpf4jnsgd1na2vs0mg"},{"bike_id":"16d207ce-9e3c-4178-9c62-1e57e228dd1a","system_id":"levelo_inurba_marseille","lat":43.29706,"lon":5.38236,"is_reserved":false,"is_disabled":false,"rental_uris":{"android":"levelo://app?vid=16d207ce-9e3c-4178-9c62-1e57e228dd1a","ios":"levelo://app?vid=16d207ce-9e3c-4178-9c62-1e57e228dd1a"},"vehicle_type_id":"4","last_reported":1729253828,"current_range_meters":28000,"station_id":"","pricing_plan_id":"cebpf4jnsgd1na2vs0mg"},{"bike_id":"38e46808-5ff9-43c9-bbe8-fefe6ece3407","system_id":"levelo_inurba_marseille","lat":43.28409,"lon":5.34983,"is_reserved":false,"is_disabled":false,"rental_uris":{"android":"levelo://app?vid=38e46808-5ff9-43c9-bbe8-fefe6ece3407","ios":"levelo://app?vid=38e46808-5ff9-43c9-bbe8-fefe6ece3407"},"vehicle_type_id":"4","last_reported":1729253828,"current_range_meters":20400,"station_id":"ce4bhbh2rcd13ifvqepg","pricing_plan_id":"cebpf4jnsgd1na2vs0mg"},{"bike_id":"a0d1f48f-4d8d-4385-8400-04795ef1f250","system_id":"levelo_inurba_marseille","lat":43.26559,"lon":5.37285,"is_reserved":false,"is_disabled":false,"rental_uris":{"android":"levelo://app?vid=a0d1f48f-4d8d-4385-8400-04795ef1f250","ios":"levelo://app?vid=a0d1f48f-4d8d-4385-8400-04795ef1f250"},"vehicle_type_id":"4","last_reported":1729253828,"current_range_meters":38400,"station_id":"ce4bhg12rcd13ifvqf70","pricing_plan_id":"cebpf4jnsgd1na2vs0mg"},{"bike_id":"18c1be77-695d-4d71-9581-9cc1a7376ff7","system_id":"levelo_inurba_marseille","lat":43.26778,"lon":5.39419,"is_reserved":false,"is_disabled":false,"rental_uris":{"android":"levelo://app?vid=18c1be77-695d-4d71-9581-9cc1a7376ff7","ios":"levelo://app?vid=18c1be77-695d-4d71-9581-9cc1a7376ff7"},"vehicle_type_id":"4","last_reported":1729253828,"current_range_meters":39200,"station_id":"ce4bhh12rcd13ifvqfg0","pricing_plan_id":"cebpf4jnsgd1na2vs0mg"},{"bike_id":"3df78c44-b433-40c6-a55c-4d4438d87c9a","system_id":"levelo_inurba_marseille","lat":43.25581,"lon":5.38235,"is_reserved":false,"is_disabled":false,"rental_uris":{"android":"levelo://app?vid=3df78c44-b433-40c6-a55c-4d4438d87c9a","ios":"levelo://app?vid=3df78c44-b433-40c6-a55c-4d4438d87c9a"},"vehicle_type_id":"4","last_reported":1729253828,"current_range_meters":36800,"station_id":"ce4bhih2rcd13ifvqfs0","pricing_plan_id":"cebpf4jnsgd1na2vs0mg"},{"bike_id":"a9295dde-ceb4-4ca6-940b-7dd28fc752be","system_id":"levelo_inurba_marseille","lat":43.32491,"lon":5.36559,"is_reserved":false,"is_disabled":false,"rental_uris":{"android":"levelo://app?vid=a9295dde-ceb4-4ca6-940b-7dd28fc752be","ios":"levelo://app?vid=a9295dde-ceb4-4ca6-940b-7dd28fc752be"},"vehicle_type_id":"4","last_reported":1729253828,"current_range_meters":24000,"station_id":"ce4bhs12rcd13ifvqhvg","pricing_plan_id":"cebpf4jnsgd1na2vs0mg"},{"bike_id":"9217c477-c508-4527-8d8d-f4b42982126a","system_id":"levelo_inurba_marseille","lat":43.2315,"lon":5.43701,"is_reserved":false,"is_disabled":false,"rental_uris":{"android":"levelo://app?vid=9217c477-c508-4527-8d8d-f4b42982126a","ios":"levelo://app?vid=9217c477-c508-4527-8d8d-f4b42982126a"},"vehicle_type_id":"4","last_reported":1729253828,"current_range_meters":8800,"station_id":"ce4bhmp2rcd13ifvqgog","pricing_plan_id":"cebpf4jnsgd1na2vs0mg"},{"bike_id":"6805634c-6374-41b6-b2d6-4225901e051c","system_id":"levelo_inurba_marseille","lat":43.25494,"lon":5.37648,"is_reserved":false,"is_disabled":false,"rental_uris":{"android":"levelo://app?vid=6805634c-6374-41b6-b2d6-4225901e051c","ios":"levelo://app?vid=6805634c-6374-41b6-b2d6-4225901e051c"},"vehicle_type_id":"4","last_reported":1729253828,"current_range_meters":19600,"station_id":"ce4bhh12rcd13ifvqff0","pricing_plan_id":"cebpf4jnsgd1na2vs0mg"},{"bike_id":"292b9425-1372-40d4-bf0a-fe57aa779a41","system_id":"levelo_inurba_marseille","lat":43.23058,"lon":5.35496,"is_reserved":false,"is_disabled":false,"rental_uris":{"android":"levelo://app?vid=292b9425-1372-40d4-bf0a-fe57aa779a41","ios":"levelo://app?vid=292b9425-1372-40d4-bf0a-fe57aa779a41"},"vehicle_type_id":"4","last_reported":1729253828,"current_range_meters":18000,"station_id":"cpo3342slgdg3j2ifvpg","pricing_plan_id":"cebpf4jnsgd1na2vs0mg"},{"bike_id":"29ef89ec-7576-46ed-a356-27362de2ae52","system_id":"levelo_inurba_marseille","lat":43.31363,"lon":5.38487,"is_reserved":false,"is_disabled":false,"rental_uris":{"android":"levelo://app?vid=29ef89ec-7576-46ed-a356-27362de2ae52","ios":"levelo://app?vid=29ef89ec-7576-46ed-a356-27362de2ae52"},"vehicle_type_id":"4","last_reported":1729253828,"current_range_meters":24800,"station_id":"ce4bgt92rcd13ifvqcf0","pricing_plan_id":"cebpf4jnsgd1na2vs0mg"},{"bike_id":"3ed38786-470d-411a-80d4-a7d4d45bb2a0","system_id":"levelo_inurba_marseille","lat":43.26562,"lon":5.37277,"is_reserved":false,"is_disabled":false,"rental_uris":{"android":"levelo://app?vid=3ed38786-470d-411a-80d4-a7d4d45bb2a0","ios":"levelo://app?vid=3ed38786-470d-411a-80d4-a7d4d45bb2a0"},"vehicle_type_id":"4","last_reported":1729253828,"current_range_meters":34000,"station_id":"ce4bhg12rcd13ifvqf70","pricing_plan_id":"cebpf4jnsgd1na2vs0mg"},{"bike_id":"617d683d-7d80-4786-aab8-f99923b06857","system_id":"levelo_inurba_marseille","lat":43.30904,"lon":5.36849,"is_reserved":false,"is_disabled":false,"rental_uris":{"android":"levelo://app?vid=617d683d-7d80-4786-aab8-f99923b06857","ios":"levelo://app?vid=617d683d-7d80-4786-aab8-f99923b06857"},"vehicle_type_id":"4","last_reported":1729253828,"current_range_meters":18000,"station_id":"ce4bgn92rcd13ifvqbvg","pricing_plan_id":"cebpf4jnsgd1na2vs0mg"},{"bike_id":"a5c9600e-0f0c-45f8-9425-80e04d71cbec","system_id":"levelo_inurba_marseille","lat":43.23153,"lon":5.43703,"is_reserved":false,"is_disabled":false,"rental_uris":{"android":"levelo://app?vid=a5c9600e-0f0c-45f8-9425-80e04d71cbec","ios":"levelo://app?vid=a5c9600e-0f0c-45f8-9425-80e04d71cbec"},"vehicle_type_id":"4","last_reported":1729253828,"current_range_meters":38000,"station_id":"ce4bhmp2rcd13ifvqgog","pricing_plan_id":"cebpf4jnsgd1na2vs0mg"},{"bike_id":"fa4c4d87-30bb-4422-8b6c-113a6f574bcb","system_id":"levelo_inurba_marseille","lat":43.29686,"lon":5.37284,"is_reserved":false,"is_disabled":false,"rental_uris":{"android":"levelo://app?vid=fa4c4d87-30bb-4422-8b6c-113a6f574bcb","ios":"levelo://app?vid=fa4c4d87-30bb-4422-8b6c-113a6f574bcb"},"vehicle_type_id":"4","last_reported":1729253828,"current_range_meters":36400,"station_id":"ce4bgk12rcd13ifvqbj0","pricing_plan_id":"cebpf4jnsgd1na2vs0mg"},{"bike_id":"ce69f5a3-381f-4fe0-85a4-5e734388eafa","system_id":"levelo_inurba_marseille","lat":43.27812,"lon":5.40705,"is_reserved":false,"is_disabled":false,"rental_uris":{"android":"levelo://app?vid=ce69f5a3-381f-4fe0-85a4-5e734388eafa","ios":"levelo://app?vid=ce69f5a3-381f-4fe0-85a4-5e734388eafa"},"vehicle_type_id":"4","last_reported":1729253828,"current_range_meters":30000,"station_id":"ce4bhnh2rcd13ifvqgtg","pricing_plan_id":"cebpf4jnsgd1na2vs0mg"},{"bike_id":"7f90a848-4efc-4218-8da2-ff5a4fe85586","system_id":"levelo_inurba_marseille","lat":43.30272,"lon":5.37711,"is_reserved":false,"is_disabled":false,"rental_uris":{"android":"levelo://app?vid=7f90a848-4efc-4218-8da2-ff5a4fe85586","ios":"levelo://app?vid=7f90a848-4efc-4218-8da2-ff5a4fe85586"},"vehicle_type_id":"4","last_reported":1729253828,"current_range_meters":37600,"station_id":"ce4bguh2rcd13ifvqcj0","pricing_plan_id":"cebpf4jnsgd1na2vs0mg"},{"bike_id":"4a61fe41-c276-419f-a6a9-aa68b23608ff","system_id":"levelo_inurba_marseille","lat":43.27375,"lon":5.36258,"is_reserved":false,"is_disabled":false,"rental_uris":{"android":"levelo://app?vid=4a61fe41-c276-419f-a6a9-aa68b23608ff","ios":"levelo://app?vid=4a61fe41-c276-419f-a6a9-aa68b23608ff"},"vehicle_type_id":"4","last_reported":1729253828,"current_range_meters":36000,"station_id":"ce4bhbh2rcd13ifvqeo0","pricing_plan_id":"cebpf4jnsgd1na2vs0mg"},{"bike_id":"303a8d5b-00d2-48e0-8a26-0292c985d1a8","system_id":"levelo_inurba_marseille","lat":43.28727,"lon":5.3793,"is_reserved":false,"is_disabled":false,"rental_uris":{"android":"levelo://app?vid=303a8d5b-00d2-48e0-8a26-0292c985d1a8","ios":"levelo://app?vid=303a8d5b-00d2-48e0-8a26-0292c985d1a8"},"vehicle_type_id":"4","last_reported":1729253828,"current_range_meters":34000,"station_id":"ce4bh9p2rcd13ifvqec0","pricing_plan_id":"cebpf4jnsgd1na2vs0mg"},{"bike_id":"b930c546-2181-4082-b616-72daa0962436","system_id":"levelo_inurba_marseille","lat":43.23153,"lon":5.43702,"is_reserved":false,"is_disabled":false,"rental_uris":{"android":"levelo://app?vid=b930c546-2181-4082-b616-72daa0962436","ios":"levelo://app?vid=b930c546-2181-4082-b616-72daa0962436"},"vehicle_type_id":"4","last_reported":1729253828,"current_range_meters":8800,"station_id":"ce4bhmp2rcd13ifvqgog","pricing_plan_id":"cebpf4jnsgd1na2vs0mg"},{"bike_id":"9f78eb85-a0ca-4c34-a831-3353f945a5c8","system_id":"levelo_inurba_marseille","lat":43.23062,"lon":5.35488,"is_reserved":false,"is_disabled":false,"rental_uris":{"android":"levelo://app?vid=9f78eb85-a0ca-4c34-a831-3353f945a5c8","ios":"levelo://app?vid=9f78eb85-a0ca-4c34-a831-3353f945a5c8"},"vehicle_type_id":"4","last_reported":1729253828,"current_range_meters":28800,"station_id":"cpo3342slgdg3j2ifvpg","pricing_plan_id":"cebpf4jnsgd1na2vs0mg"},{"bike_id":"c0873e4a-4832-4e0e-99e7-f5c10f7a06a9","system_id":"levelo_inurba_marseille","lat":43.28669,"lon":5.36336,"is_reserved":false,"is_disabled":false,"rental_uris":{"android":"levelo://app?vid=c0873e4a-4832-4e0e-99e7-f5c10f7a06a9","ios":"levelo://app?vid=c0873e4a-4832-4e0e-99e7-f5c10f7a06a9"},"vehicle_type_id":"4","last_reported":1729253828,"current_range_meters":18000,"station_id":"ce4bhah2rcd13ifvqej0","pricing_plan_id":"cebpf4jnsgd1na2vs0mg"},{"bike_id":"8b95870b-796a-4962-9150-cea28d6bc2d7","system_id":"levelo_inurba_marseille","lat":43.29274,"lon":5.36832,"is_reserved":false,"is_disabled":false,"rental_uris":{"android":"levelo://app?vid=8b95870b-796a-4962-9150-cea28d6bc2d7","ios":"levelo://app?vid=8b95870b-796a-4962-9150-cea28d6bc2d7"},"vehicle_type_id":"4","last_reported":1729253828,"current_range_meters":38800,"station_id":"ce4bhbp2rcd13ifvqesg","pricing_plan_id":"cebpf4jnsgd1na2vs0mg"},{"bike_id":"8468bfd4-f98a-4356-abed-0419722fa035","system_id":"levelo_inurba_marseille","lat":43.32287,"lon":5.38286,"is_reserved":false,"is_disabled":false,"rental_uris":{"android":"levelo://app?vid=8468bfd4-f98a-4356-abed-0419722fa035","ios":"levelo://app?vid=8468bfd4-f98a-4356-abed-0419722fa035"},"vehicle_type_id":"4","last_reported":1729253828,"current_range_meters":23200,"station_id":"ce4bhr12rcd13ifvqhqg","pricing_plan_id":"cebpf4jnsgd1na2vs0mg"},{"bike_id":"8c2f18a4-dd8b-46ad-8579-8112b1ad4a03","system_id":"levelo_inurba_marseille","lat":43.26565,"lon":5.38996,"is_reserved":false,"is_disabled":false,"rental_uris":{"android":"levelo://app?vid=8c2f18a4-dd8b-46ad-8579-8112b1ad4a03","ios":"levelo://app?vid=8c2f18a4-dd8b-46ad-8579-8112b1ad4a03"},"vehicle_type_id":"4","last_reported":1729253828,"current_range_meters":18800,"station_id":"ce4bhe12rcd13ifvqf30","pricing_plan_id":"cebpf4jnsgd1na2vs0mg"},{"bike_id":"6918e7a3-bcc2-4d7e-8058-b84481151f26","system_id":"levelo_inurba_marseille","lat":43.29585,"lon":5.38112,"is_reserved":false,"is_disabled":false,"rental_uris":{"android":"levelo://app?vid=6918e7a3-bcc2-4d7e-8058-b84481151f26","ios":"levelo://app?vid=6918e7a3-bcc2-4d7e-8058-b84481151f26"},"vehicle_type_id":"4","last_reported":1729253828,"current_range_meters":10000,"station_id":"ce4bgl12rcd13ifvqbo0","pricing_plan_id":"cebpf4jnsgd1na2vs0mg"},{"bike_id":"e3ca7803-aaa7-4ddf-8937-86afb5d1cee8","system_id":"levelo_inurba_marseille","lat":43.3171,"lon":5.437,"is_reserved":false,"is_disabled":false,"rental_uris":{"android":"levelo://app?vid=e3ca7803-aaa7-4ddf-8937-86afb5d1cee8","ios":"levelo://app?vid=e3ca7803-aaa7-4ddf-8937-86afb5d1cee8"},"vehicle_type_id":"4","last_reported":1729253828,"current_range_meters":39200,"station_id":"ce4bhp92rcd13ifvqhcg","pricing_plan_id":"cebpf4jnsgd1na2vs0mg"},{"bike_id":"c3d341cb-b075-4a76-8ce6-a19c6a141e8c","system_id":"levelo_inurba_marseille","lat":43.23149,"lon":5.43707,"is_reserved":false,"is_disabled":false,"rental_uris":{"android":"levelo://app?vid=c3d341cb-b075-4a76-8ce6-a19c6a141e8c","ios":"levelo://app?vid=c3d341cb-b075-4a76-8ce6-a19c6a141e8c"},"vehicle_type_id":"4","last_reported":1729253828,"current_range_meters":38800,"station_id":"ce4bhmp2rcd13ifvqgog","pricing_plan_id":"cebpf4jnsgd1na2vs0mg"},{"bike_id":"c16e903c-fc46-4f61-85df-8813be6861dc","system_id":"levelo_inurba_marseille","lat":43.25121,"lon":5.40315,"is_reserved":false,"is_disabled":false,"rental_uris":{"android":"levelo://app?vid=c16e903c-fc46-4f61-85df-8813be6861dc","ios":"levelo://app?vid=c16e903c-fc46-4f61-85df-8813be6861dc"},"vehicle_type_id":"4","last_reported":1729253828,"current_range_meters":4000,"station_id":"ce4bhlh2rcd13ifvqgig","pricing_plan_id":"cebpf4jnsgd1na2vs0mg"},{"bike_id":"19389fe6-838b-410a-886d-e2d15f6134b7","system_id":"levelo_inurba_marseille","lat":43.27371,"lon":5.36249,"is_reserved":false,"is_disabled":false,"rental_uris":{"android":"levelo://app?vid=19389fe6-838b-410a-886d-e2d15f6134b7","ios":"levelo://app?vid=19389fe6-838b-410a-886d-e2d15f6134b7"},"vehicle_type_id":"4","last_reported":1729253828,"current_range_meters":11200,"station_id":"","pricing_plan_id":"cebpf4jnsgd1na2vs0mg"},{"bike_id":"3664398f-378f-46f2-bd12-30042ad8db9d","system_id":"levelo_inurba_marseille","lat":43.23192,"lon":5.39968,"is_reserved":false,"is_disabled":false,"rental_uris":{"android":"levelo://app?vid=3664398f-378f-46f2-bd12-30042ad8db9d","ios":"levelo://app?vid=3664398f-378f-46f2-bd12-30042ad8db9d"},"vehicle_type_id":"4","last_reported":1729253828,"current_range_meters":30000,"station_id":"ce4bhn12rcd13ifvqgqg","pricing_plan_id":"cebpf4jnsgd1na2vs0mg"},{"bike_id":"80c0b070-9191-4cd0-887d-a062b896c55e","system_id":"levelo_inurba_marseille","lat":43.27969,"lon":5.38728,"is_reserved":false,"is_disabled":false,"rental_uris":{"android":"levelo://app?vid=80c0b070-9191-4cd0-887d-a062b896c55e","ios":"levelo://app?vid=80c0b070-9191-4cd0-887d-a062b896c55e"},"vehicle_type_id":"4","last_reported":1729253828,"current_range_meters":9200,"station_id":"ce4bhg12rcd13ifvqf80","pricing_plan_id":"cebpf4jnsgd1na2vs0mg"},{"bike_id":"a9d80141-cb04-4f88-bcc5-9763572e3517","system_id":"levelo_inurba_marseille","lat":43.23194,"lon":5.35546,"is_reserved":false,"is_disabled":false,"rental_uris":{"android":"levelo://app?vid=a9d80141-cb04-4f88-bcc5-9763572e3517","ios":"levelo://app?vid=a9d80141-cb04-4f88-bcc5-9763572e3517"},"vehicle_type_id":"4","last_reported":1729253828,"current_range_meters":28800,"station_id":"ce4bhu92rcd13ifvqi70","pricing_plan_id":"cebpf4jnsgd1na2vs0mg"},{"bike_id":"43228083-33f7-42c2-9935-f60afdfd7427","system_id":"levelo_inurba_marseille","lat":43.31223,"lon":5.36848,"is_reserved":false,"is_disabled":false,"rental_uris":{"android":"levelo://app?vid=43228083-33f7-42c2-9935-f60afdfd7427","ios":"levelo://app?vid=43228083-33f7-42c2-9935-f60afdfd7427"},"vehicle_type_id":"4","last_reported":1729253828,"current_range_meters":24400,"station_id":"ce4bgl92rcd13ifvqbq0","pricing_plan_id":"cebpf4jnsgd1na2vs0mg"},{"bike_id":"0f0d9630-9e92-4457-bec2-f1d36470ac55","system_id":"levelo_inurba_marseille","lat":43.29981,"lon":5.37168,"is_reserved":false,"is_disabled":false,"rental_uris":{"android":"levelo://app?vid=0f0d9630-9e92-4457-bec2-f1d36470ac55","ios":"levelo://app?vid=0f0d9630-9e92-4457-bec2-f1d36470ac55"},"vehicle_type_id":"4","last_reported":1729253828,"current_range_meters":30400,"station_id":"ce4bgr92rcd13ifvqc7g","pricing_plan_id":"cebpf4jnsgd1na2vs0mg"},{"bike_id":"3ab31a18-af13-40ac-ae62-308000937349","system_id":"levelo_inurba_marseille","lat":43.25493,"lon":5.37643,"is_reserved":false,"is_disabled":false,"rental_uris":{"android":"levelo://app?vid=3ab31a18-af13-40ac-ae62-308000937349","ios":"levelo://app?vid=3ab31a18-af13-40ac-ae62-308000937349"},"vehicle_type_id":"4","last_reported":1729253828,"current_range_meters":32400,"station_id":"ce4bhh12rcd13ifvqff0","pricing_plan_id":"cebpf4jnsgd1na2vs0mg"},{"bike_id":"4f566022-334e-4b59-88b1-ae6774e0ab47","system_id":"levelo_inurba_marseille","lat":43.26204,"lon":5.3793,"is_reserved":false,"is_disabled":false,"rental_uris":{"android":"levelo://app?vid=4f566022-334e-4b59-88b1-ae6774e0ab47","ios":"levelo://app?vid=4f566022-334e-4b59-88b1-ae6774e0ab47"},"vehicle_type_id":"4","last_reported":1729253828,"current_range_meters":17200,"station_id":"ce4bhjp2rcd13ifvqg90","pricing_plan_id":"cebpf4jnsgd1na2vs0mg"},{"bike_id":"d7e2a574-d234-4ea8-a4ee-fe4b60b7ca12","system_id":"levelo_inurba_marseille","lat":43.26199,"lon":5.37933,"is_reserved":false,"is_disabled":false,"rental_uris":{"android":"levelo://app?vid=d7e2a574-d234-4ea8-a4ee-fe4b60b7ca12","ios":"levelo://app?vid=d7e2a574-d234-4ea8-a4ee-fe4b60b7ca12"},"vehicle_type_id":"4","last_reported":1729253828,"current_range_meters":34800,"station_id":"ce4bhjp2rcd13ifvqg90","pricing_plan_id":"cebpf4jnsgd1na2vs0mg"},{"bike_id":"af52aa78-d0b5-4bff-b51e-229383967bb3","system_id":"levelo_inurba_marseille","lat":43.23151,"lon":5.43715,"is_reserved":false,"is_disabled":false,"rental_uris":{"android":"levelo://app?vid=af52aa78-d0b5-4bff-b51e-229383967bb3","ios":"levelo://app?vid=af52aa78-d0b5-4bff-b51e-229383967bb3"},"vehicle_type_id":"4","last_reported":1729253828,"current_range_meters":19600,"station_id":"ce4bhmp2rcd13ifvqgog","pricing_plan_id":"cebpf4jnsgd1na2vs0mg"},{"bike_id":"605ac023-f8f1-42b9-ae83-287e68cd9668","system_id":"levelo_inurba_marseille","lat":43.29357,"lon":5.37826,"is_reserved":false,"is_disabled":false,"rental_uris":{"android":"levelo://app?vid=605ac023-f8f1-42b9-ae83-287e68cd9668","ios":"levelo://app?vid=605ac023-f8f1-42b9-ae83-287e68cd9668"},"vehicle_type_id":"4","last_reported":1729253828,"current_range_meters":9600,"station_id":"ce4bh512rcd13ifvqe2g","pricing_plan_id":"cebpf4jnsgd1na2vs0mg"},{"bike_id":"fd495570-0604-40fb-9f36-3e2dfe8010cf","system_id":"levelo_inurba_marseille","lat":43.25498,"lon":5.3765,"is_reserved":false,"is_disabled":false,"rental_uris":{"android":"levelo://app?vid=fd495570-0604-40fb-9f36-3e2dfe8010cf","ios":"levelo://app?vid=fd495570-0604-40fb-9f36-3e2dfe8010cf"},"vehicle_type_id":"4","last_reported":1729253828,"current_range_meters":40000,"station_id":"ce4bhh12rcd13ifvqff0","pricing_plan_id":"cebpf4jnsgd1na2vs0mg"},{"bike_id":"e1916600-1dda-44c7-abf7-3196d56e1393","system_id":"levelo_inurba_marseille","lat":43.28941,"lon":5.36634,"is_reserved":false,"is_disabled":false,"rental_uris":{"android":"levelo://app?vid=e1916600-1dda-44c7-abf7-3196d56e1393","ios":"levelo://app?vid=e1916600-1dda-44c7-abf7-3196d56e1393"},"vehicle_type_id":"4","last_reported":1729253828,"current_range_meters":28800,"station_id":"ce4bhap2rcd13ifvqek0","pricing_plan_id":"cebpf4jnsgd1na2vs0mg"},{"bike_id":"f5bad1df-68a4-42a0-8ba4-f8bd0211eb2d","system_id":"levelo_inurba_marseille","lat":43.33726,"lon":5.39176,"is_reserved":false,"is_disabled":false,"rental_uris":{"android":"levelo://app?vid=f5bad1df-68a4-42a0-8ba4-f8bd0211eb2d","ios":"levelo://app?vid=f5bad1df-68a4-42a0-8ba4-f8bd0211eb2d"},"vehicle_type_id":"4","last_reported":1729253828,"current_range_meters":20400,"station_id":"ce4bhr92rcd13ifvqhsg","pricing_plan_id":"cebpf4jnsgd1na2vs0mg"},{"bike_id":"be1fe035-6bd5-4573-b09a-3cf590588e60","system_id":"levelo_inurba_marseille","lat":43.26935,"lon":5.38924,"is_reserved":false,"is_disabled":false,"rental_uris":{"android":"levelo://app?vid=be1fe035-6bd5-4573-b09a-3cf590588e60","ios":"levelo://app?vid=be1fe035-6bd5-4573-b09a-3cf590588e60"},"vehicle_type_id":"4","last_reported":1729253828,"current_range_meters":2800,"station_id":"ce4bhhh2rcd13ifvqfl0","pricing_plan_id":"cebpf4jnsgd1na2vs0mg"},{"bike_id":"d41309ab-1a1f-4395-acaa-455483c3f8e1","system_id":"levelo_inurba_marseille","lat":43.23199,"lon":5.35558,"is_reserved":false,"is_disabled":false,"rental_uris":{"android":"levelo://app?vid=d41309ab-1a1f-4395-acaa-455483c3f8e1","ios":"levelo://app?vid=d41309ab-1a1f-4395-acaa-455483c3f8e1"},"vehicle_type_id":"4","last_reported":1729253828,"current_range_meters":31200,"station_id":"ce4bhu92rcd13ifvqi70","pricing_plan_id":"cebpf4jnsgd1na2vs0mg"},{"bike_id":"72912f4e-90a4-45b1-8be7-7c2852396c94","system_id":"levelo_inurba_marseille","lat":43.24078,"lon":5.37757,"is_reserved":false,"is_disabled":false,"rental_uris":{"android":"levelo://app?vid=72912f4e-90a4-45b1-8be7-7c2852396c94","ios":"levelo://app?vid=72912f4e-90a4-45b1-8be7-7c2852396c94"},"vehicle_type_id":"4","last_reported":1729253828,"current_range_meters":28800,"station_id":"ce4bhnp2rcd13ifvqgvg","pricing_plan_id":"cebpf4jnsgd1na2vs0mg"},{"bike_id":"b5aff8d7-ba3a-4f86-93cd-a66ab415c01a","system_id":"levelo_inurba_marseille","lat":43.31708,"lon":5.40469,"is_reserved":false,"is_disabled":false,"rental_uris":{"android":"levelo://app?vid=b5aff8d7-ba3a-4f86-93cd-a66ab415c01a","ios":"levelo://app?vid=b5aff8d7-ba3a-4f86-93cd-a66ab415c01a"},"vehicle_type_id":"4","last_reported":1729253828,"current_range_meters":36800,"station_id":"ce4bh012rcd13ifvqd00","pricing_plan_id":"cebpf4jnsgd1na2vs0mg"},{"bike_id":"0bd1fde8-ec48-47a1-9f1f-3e68b8c187f8","system_id":"levelo_inurba_marseille","lat":43.32533,"lon":5.4143,"is_reserved":false,"is_disabled":false,"rental_uris":{"android":"levelo://app?vid=0bd1fde8-ec48-47a1-9f1f-3e68b8c187f8","ios":"levelo://app?vid=0bd1fde8-ec48-47a1-9f1f-3e68b8c187f8"},"vehicle_type_id":"4","last_reported":1729253828,"current_range_meters":12800,"station_id":"ce4bhq12rcd13ifvqhhg","pricing_plan_id":"cebpf4jnsgd1na2vs0mg"},{"bike_id":"1e80b5e8-39e5-4ce2-85ab-9c118e374bfd","system_id":"levelo_inurba_marseille","lat":43.29977,"lon":5.37185,"is_reserved":false,"is_disabled":false,"rental_uris":{"android":"levelo://app?vid=1e80b5e8-39e5-4ce2-85ab-9c118e374bfd","ios":"levelo://app?vid=1e80b5e8-39e5-4ce2-85ab-9c118e374bfd"},"vehicle_type_id":"4","last_reported":1729253828,"current_range_meters":8000,"station_id":"ce4bgr92rcd13ifvqc7g","pricing_plan_id":"cebpf4jnsgd1na2vs0mg"},{"bike_id":"f5cdf0f6-61bc-431e-a647-790f61d8dab4","system_id":"levelo_inurba_marseille","lat":43.31341,"lon":5.36738,"is_reserved":false,"is_disabled":false,"rental_uris":{"android":"levelo://app?vid=f5cdf0f6-61bc-431e-a647-790f61d8dab4","ios":"levelo://app?vid=f5cdf0f6-61bc-431e-a647-790f61d8dab4"},"vehicle_type_id":"4","last_reported":1729253828,"current_range_meters":24400,"station_id":"ce4bgr92rcd13ifvqc6g","pricing_plan_id":"cebpf4jnsgd1na2vs0mg"},{"bike_id":"34b33da9-cbb5-428b-84d8-cf962d47390a","system_id":"levelo_inurba_marseille","lat":43.29896,"lon":5.43668,"is_reserved":false,"is_disabled":false,"rental_uris":{"android":"levelo://app?vid=34b33da9-cbb5-428b-84d8-cf962d47390a","ios":"levelo://app?vid=34b33da9-cbb5-428b-84d8-cf962d47390a"},"vehicle_type_id":"4","last_reported":1729253828,"current_range_meters":14000,"station_id":"ce4bhpp2rcd13ifvqhfg","pricing_plan_id":"cebpf4jnsgd1na2vs0mg"},{"bike_id":"77ce44e9-c1ae-4068-800d-299c8cf59d8f","system_id":"levelo_inurba_marseille","lat":43.23147,"lon":5.43713,"is_reserved":false,"is_disabled":false,"rental_uris":{"android":"levelo://app?vid=77ce44e9-c1ae-4068-800d-299c8cf59d8f","ios":"levelo://app?vid=77ce44e9-c1ae-4068-800d-299c8cf59d8f"},"vehicle_type_id":"4","last_reported":1729253828,"current_range_meters":24000,"station_id":"ce4bhmp2rcd13ifvqgog","pricing_plan_id":"cebpf4jnsgd1na2vs0mg"},{"bike_id":"6b7843fa-bf41-4dc0-9da0-7de75a948130","system_id":"levelo_inurba_marseille","lat":43.28723,"lon":5.36089,"is_reserved":false,"is_disabled":false,"rental_uris":{"android":"levelo://app?vid=6b7843fa-bf41-4dc0-9da0-7de75a948130","ios":"levelo://app?vid=6b7843fa-bf41-4dc0-9da0-7de75a948130"},"vehicle_type_id":"4","last_reported":1729253828,"current_range_meters":35600,"station_id":"cki0cbj6b192h4jlfktg","pricing_plan_id":"cebpf4jnsgd1na2vs0mg"},{"bike_id":"b0a3ba2e-0340-4197-9f07-f1dfc745f1c5","system_id":"levelo_inurba_marseille","lat":43.2396,"lon":5.36627,"is_reserved":false,"is_disabled":false,"rental_uris":{"android":"levelo://app?vid=b0a3ba2e-0340-4197-9f07-f1dfc745f1c5","ios":"levelo://app?vid=b0a3ba2e-0340-4197-9f07-f1dfc745f1c5"},"vehicle_type_id":"4","last_reported":1729253828,"current_range_meters":23200,"station_id":"ce4bhi12rcd13ifvqfp0","pricing_plan_id":"cebpf4jnsgd1na2vs0mg"},{"bike_id":"77d7377d-ef6f-44a6-91fa-808bf79a8c0e","system_id":"levelo_inurba_marseille","lat":43.30207,"lon":5.39456,"is_reserved":false,"is_disabled":false,"rental_uris":{"android":"levelo://app?vid=77d7377d-ef6f-44a6-91fa-808bf79a8c0e","ios":"levelo://app?vid=77d7377d-ef6f-44a6-91fa-808bf79a8c0e"},"vehicle_type_id":"4","last_reported":1729253828,"current_range_meters":28800,"station_id":"ce4bh0p2rcd13ifvqd70","pricing_plan_id":"cebpf4jnsgd1na2vs0mg"},{"bike_id":"a08e0b6c-2b85-4d6b-b0f5-a948fa4286de","system_id":"levelo_inurba_marseille","lat":43.23153,"lon":5.43704,"is_reserved":false,"is_disabled":false,"rental_uris":{"android":"levelo://app?vid=a08e0b6c-2b85-4d6b-b0f5-a948fa4286de","ios":"levelo://app?vid=a08e0b6c-2b85-4d6b-b0f5-a948fa4286de"},"vehicle_type_id":"4","last_reported":1729253828,"current_range_meters":7200,"station_id":"ce4bhmp2rcd13ifvqgog","pricing_plan_id":"cebpf4jnsgd1na2vs0mg"},{"bike_id":"04e61d15-d72b-4bbb-a45b-3cd677c5756c","system_id":"levelo_inurba_marseille","lat":43.25004,"lon":5.38937,"is_reserved":false,"is_disabled":false,"rental_uris":{"android":"levelo://app?vid=04e61d15-d72b-4bbb-a45b-3cd677c5756c","ios":"levelo://app?vid=04e61d15-d72b-4bbb-a45b-3cd677c5756c"},"vehicle_type_id":"4","last_reported":1729253828,"current_range_meters":22400,"station_id":"ce4bhgp2rcd13ifvqfd0","pricing_plan_id":"cebpf4jnsgd1na2vs0mg"},{"bike_id":"f93454e1-a669-4c63-a4ca-b572042c7971","system_id":"levelo_inurba_marseille","lat":43.23194,"lon":5.35554,"is_reserved":false,"is_disabled":false,"rental_uris":{"android":"levelo://app?vid=f93454e1-a669-4c63-a4ca-b572042c7971","ios":"levelo://app?vid=f93454e1-a669-4c63-a4ca-b572042c7971"},"vehicle_type_id":"4","last_reported":1729253828,"current_range_meters":8800,"station_id":"ce4bhu92rcd13ifvqi70","pricing_plan_id":"cebpf4jnsgd1na2vs0mg"},{"bike_id":"9feebf6a-cf06-4283-9475-cface9a88761","system_id":"levelo_inurba_marseille","lat":43.30801,"lon":5.43519,"is_reserved":false,"is_disabled":false,"rental_uris":{"android":"levelo://app?vid=9feebf6a-cf06-4283-9475-cface9a88761","ios":"levelo://app?vid=9feebf6a-cf06-4283-9475-cface9a88761"},"vehicle_type_id":"4","last_reported":1729253828,"current_range_meters":33600,"station_id":"ce4bhph2rcd13ifvqheg","pricing_plan_id":"cebpf4jnsgd1na2vs0mg"},{"bike_id":"b1e38fa3-bc04-46dc-9334-d58520cc8bec","system_id":"levelo_inurba_marseille","lat":43.25493,"lon":5.37639,"is_reserved":false,"is_disabled":false,"rental_uris":{"android":"levelo://app?vid=b1e38fa3-bc04-46dc-9334-d58520cc8bec","ios":"levelo://app?vid=b1e38fa3-bc04-46dc-9334-d58520cc8bec"},"vehicle_type_id":"4","last_reported":1729253828,"current_range_meters":32000,"station_id":"","pricing_plan_id":"cebpf4jnsgd1na2vs0mg"},{"bike_id":"928b3123-9eff-4f16-a901-8a9e822f8874","system_id":"levelo_inurba_marseille","lat":43.30884,"lon":5.37205,"is_reserved":false,"is_disabled":false,"rental_uris":{"android":"levelo://app?vid=928b3123-9eff-4f16-a901-8a9e822f8874","ios":"levelo://app?vid=928b3123-9eff-4f16-a901-8a9e822f8874"},"vehicle_type_id":"4","last_reported":1729253828,"current_range_meters":30800,"station_id":"ce4bguh2rcd13ifvqckg","pricing_plan_id":"cebpf4jnsgd1na2vs0mg"},{"bike_id":"22b37876-70ac-4ba0-9001-79de88a5c4f9","system_id":"levelo_inurba_marseille","lat":43.3377,"lon":5.37439,"is_reserved":false,"is_disabled":false,"rental_uris":{"android":"levelo://app?vid=22b37876-70ac-4ba0-9001-79de88a5c4f9","ios":"levelo://app?vid=22b37876-70ac-4ba0-9001-79de88a5c4f9"},"vehicle_type_id":"4","last_reported":1729253828,"current_range_meters":35200,"station_id":"","pricing_plan_id":"cebpf4jnsgd1na2vs0mg"},{"bike_id":"6d5fbda5-dd8a-49d7-8a44-0c07b2fc8fc4","system_id":"levelo_inurba_marseille","lat":43.29842,"lon":5.36261,"is_reserved":false,"is_disabled":false,"rental_uris":{"android":"levelo://app?vid=6d5fbda5-dd8a-49d7-8a44-0c07b2fc8fc4","ios":"levelo://app?vid=6d5fbda5-dd8a-49d7-8a44-0c07b2fc8fc4"},"vehicle_type_id":"4","last_reported":1729253828,"current_range_meters":39200,"station_id":"ce4bgpp2rcd13ifvqc3g","pricing_plan_id":"cebpf4jnsgd1na2vs0mg"},