{"last_updated":1701659278,"ttl":30,"version":"2.2","data":{"bikes":[{"bike_id":"3a8c00f5-4f23-4198-8de8-215a87b0ae64","system_id":"levelo_inurba_marseille","lat":43.314811,"lon":5.373103,"is_reserved":false,"is_disabled":false,"rental_uris":{"android":"levelo://app?vid=3a8c00f5-4f23-4198-8de8-215a87b0ae64","ios":"levelo://app?vid=3a8c00f5-4f23-4198-8de8-215a87b0ae64"},"vehicle_type_id":"4","last_reported":1701659278,"current_range_meters":10400,"station_id":"ce4bgt12rcd13ifvqcd0","pricing_plan_id":"free"},{"bike_id":"d55f2791-008f-4d93-ba5c-16c693b4e3f0","system_id":"levelo_inurba_marseille","lat":43.314811,"lon":5.373103,"is_reserved":false,"is_disabled":false,"rental_uris":{"android":"levelo://app?vid=d55f2791-008f-4d93-ba5c-16c693b4e3f0","ios":"levelo://app?vid=d55f2791-008f-4d93-ba5c-16c693b4e3f0"},"vehicle_type_id":"4","last_reported":1701659278,"current_range_meters":31200,"station_id":"ce4bgt12rcd13ifvqcd0","pricing_plan_id":"free"},{"bike_id":"2eecbf30-c481-4cea-810f-1e8bdc5b0b12","system_id":"levelo_inurba_marseille","lat":43.309039,"lon":5.371797,"is_reserved":false,"is_disabled":false,"rental_uris":{"android":"levelo://app?vid=2eecbf30-c481-4cea-810f-1e8bdc5b0b12","ios":"levelo://app?vid=2eecbf30-c481-4cea-810f-1e8bdc5b0b12"},"vehicle_type_id":"4","last_reported":1701659278,"current_range_meters":30400,"station_id":"ce4bguh2rcd13ifvqckg","pricing_plan_id":"free"},{"bike_id":"5c26bdfb-7b7c-43fb-8a01-250128a1a6f8","system_id":"levelo_inurba_marseille","lat":43.307564,"lon":5.370246,"is_reserved":false,"is_disabled":false,"rental_uris":{"android":"levelo://app?vid=5c26bdfb-7b7c-43fb-8a01-250128a1a6f8","ios":"levelo://app?vid=5c26bdfb-7b7c-43fb-8a01-250128a1a6f8"},"vehicle_type_id":"4","last_reported":1701659278,"current_range_meters":20800,"station_id":"","pricing_plan_id":"free"},{"bike_id":"33727508-4333-4697-9c02-0d328479fdb3","system_id":"levelo_inurba_marseille","lat":43.311131,"lon":5.377651,"is_reserved":false,"is_disabled":false,"rental_uris":{"android":"levelo://app?vid=33727508-4333-4697-9c02-0d328479fdb3","ios":"levelo://app?vid=33727508-4333-4697-9c02-0d328479fdb3"},"vehicle_type_id":"4","last_reported":1701659278,"current_range_meters":1600,"station_id":"ce4bgt92rcd13ifvqcg0","pricing_plan_id":"free"},{"bike_id":"e913f328-1e31-4c22-bd87-f809ea246de4","system_id":"levelo_inurba_marseille","lat":43.317168,"lon":5.376883,"is_reserved":false,"is_disabled":false,"rental_uris":{"android":"levelo://app?vid=e913f328-1e31-4c22-bd87-f809ea246de4","ios":"levelo://app?vid=e913f328-1e31-4c22-bd87-f809ea246de4"},"vehicle_type_id":"4","last_reported":1701659278,"current_range_meters":0,"station_id":"","pricing_plan_id":"free"},{"bike_id":"1c04753e-6979-4f1e-af31-3b4feaef49b4","system_id":"levelo_inurba_marseille","lat":43.317075,"lon":5.377367,"is_reserved":false,"is_disabled":false,"rental_uris":{"android":"levelo://app?vid=1c04753e-6979-4f1e-af31-3b4feaef49b4","ios":"levelo://app?vid=1c04753e-6979-4f1e-af31-3b4feaef49b4"},"vehicle_type_id":"4","last_reported":1701659278,"current_range_meters":29200,"station_id":"ce4bgth2rcd13ifvqch0","pricing_plan_id":"free"},{"bike_id":"fb6fd937-527b-4585-9058-0dfdc6436ac8","system_id":"levelo_inurba_marseille","lat":43.31351,"lon":5.37909,"is_reserved":false,"is_disabled":false,"rental_uris":{"android":"levelo://app?vid=fb6fd937-527b-4585-9058-0dfdc6436ac8","ios":"levelo://app?vid=fb6fd937-527b-4585-9058-0dfdc6436ac8"},"vehicle_type_id":"4","last_reported":1701659278,"current_range_meters":15600,"station_id":"","pricing_plan_id":"free"},{"bike_id":"ea5ba3a1-d0c2-4df3-b919-992e8076c933","system_id":"levelo_inurba_marseille","lat":43.304606,"lon":5.379026,"is_reserved":false,"is_disabled":false,"rental_uris":{"android":"levelo://app?vid=ea5ba3a1-d0c2-4df3-b919-992e8076c933","ios":"levelo://app?vid=ea5ba3a1-d0c2-4df3-b919-992e8076c933"},"vehicle_type_id":"4","last_reported":1701659278,"current_range_meters":13200,"station_id":"ce4bgup2rcd13ifvqcn0","pricing_plan_id":"free"},{"bike_id":"314358a6-5e12-4b23-8671-4f3ab346b915","system_id":"levelo_inurba_marseille","lat":43.304606,"lon":5.379026,"is_reserved":false,"is_disabled":false,"rental_uris":{"android":"levelo://app?vid=314358a6-5e12-4b23-8671-4f3ab346b915","ios":"levelo://app?vid=314358a6-5e12-4b23-8671-4f3ab346b915"},"vehicle_type_id":"4","last_reported":1701659278,"current_range_meters":25200,"station_id":"ce4bgup2rcd13ifvqcn0","pricing_plan_id":"free"},{"bike_id":"88244732-d0e5-4dd6-9c90-514571f2dbd8","system_id":"levelo_inurba_marseille","lat":43.304606,"lon":5.379026,"is_reserved":false,"is_disabled":false,"rental_uris":{"android":"levelo://app?vid=88244732-d0e5-4dd6-9c90-514571f2dbd8","ios":"levelo://app?vid=88244732-d0e5-4dd6-9c90-514571f2dbd8"},"vehicle_type_id":"4","last_reported":1701659278,"current_range_meters":9600,"station_id":"ce4bgup2rcd13ifvqcn0","pricing_plan_id":"free"},{"bike_id":"1b836397-024f-4ce5-8ba8-e625623686d0","system_id":"levelo_inurba_marseille","lat":43.319935,"lon":5.381699,"is_reserved":false,"is_disabled":false,"rental_uris":{"android":"levelo://app?vid=1b836397-024f-4ce5-8ba8-e625623686d0","ios":"levelo://app?vid=1b836397-024f-4ce5-8ba8-e625623686d0"},"vehicle_type_id":"4","last_reported":1701659278,"current_range_meters":6400,"station_id":"ce4bhr12rcd13ifvqhpg","pricing_plan_id":"free"},{"bike_id":"c32b4a1c-8be5-4f93-a794-fd809cd16078","system_id":"levelo_inurba_marseille","lat":43.319935,"lon":5.381699,"is_reserved":false,"is_disabled":false,"rental_uris":{"android":"levelo://app?vid=c32b4a1c-8be5-4f93-a794-fd809cd16078","ios":"levelo://app?vid=c32b4a1c-8be5-4f93-a794-fd809cd16078"},"vehicle_type_id":"4","last_reported":1701659278,"current_range_meters":8800,"station_id":"ce4bhr12rcd13ifvqhpg","pricing_plan_id":"free"},{"bike_id":"2275aca5-3158-4c2c-8022-ca5d2714bc86","system_id":"levelo_inurba_marseille","lat":43.319997,"lon":5.381594,"is_reserved":false,"is_disabled":false,"rental_uris":{"android":"levelo://app?vid=2275aca5-3158-4c2c-8022-ca5d2714bc86","ios":"levelo://app?vid=2275aca5-3158-4c2c-8022-ca5d2714bc86"},"vehicle_type_id":"4","last_reported":1701659278,"current_range_meters":9200,"station_id":"ce4bhr12rcd13ifvqhpg","pricing_plan_id":"free"},{"bike_id":"aaa26a12-246b-4d79-95da-dfbdfaf67518","system_id":"levelo_inurba_marseille","lat":43.313611,"lon":5.384905,"is_reserved":false,"is_disabled":false,"rental_uris":{"android":"levelo://app?vid=aaa26a12-246b-4d79-95da-dfbdfaf67518","ios":"levelo://app?vid=aaa26a12-246b-4d79-95da-dfbdfaf67518"},"vehicle_type_id":"4","last_reported":1701659278,"current_range_meters":28400,"station_id":"ce4bgt92rcd13ifvqcf0","pricing_plan_id":"free"},{"bike_id":"ff6e4030-1cc9-48b6-ade9-660e13444a51","system_id":"levelo_inurba_marseille","lat":43.313571,"lon":5.384829,"is_reserved":false,"is_disabled":false,"rental_uris":{"android":"levelo://app?vid=ff6e4030-1cc9-48b6-ade9-660e13444a51","ios":"levelo://app?vid=ff6e4030-1cc9-48b6-ade9-660e13444a51"},"vehicle_type_id":"4","last_reported":1701659278,"current_range_meters":31200,"station_id":"ce4bgt92rcd13ifvqcf0","pricing_plan_id":"free"},{"bike_id":"9fdb7f97-586d-42d2-befd-15216ba2e422","system_id":"levelo_inurba_marseille","lat":43.31183,"lon":5.38523,"is_reserved":false,"is_disabled":false,"rental_uris":{"android":"levelo://app?vid=9fdb7f97-586d-42d2-befd-15216ba2e422","ios":"levelo://app?vid=9fdb7f97-586d-42d2-befd-15216ba2e422"},"vehicle_type_id":"4","last_reported":1701659278,"current_range_meters":0,"station_id":"","pricing_plan_id":"free"},{"bike_id":"748d12ab-8e09-4ecd-b2d2-cbe0ea9624f6","system_id":"levelo_inurba_marseille","lat":43.298964,"lon":5.367309,"is_reserved":false,"is_disabled":false,"rental_uris":{"android":"levelo://app?vid=748d12ab-8e09-4ecd-b2d2-cbe0ea9624f6","ios":"levelo://app?vid=748d12ab-8e09-4ecd-b2d2-cbe0ea9624f6"},"vehicle_type_id":"4","last_reported":1701659278,"current_range_meters":0,"station_id":"","pricing_plan_id":"free"},{"bike_id":"8f471969-8e2d-4ef5-8d2e-654dab26d28a","system_id":"levelo_inurba_marseille","lat":43.31226,"lon":5.38654,"is_reserved":false,"is_disabled":false,"rental_uris":{"android":"levelo://app?vid=8f471969-8e2d-4ef5-8d2e-654dab26d28a","ios":"levelo://app?vid=8f471969-8e2d-4ef5-8d2e-654dab26d28a"},"vehicle_type_id":"4","last_reported":1701659278,"current_range_meters":18800,"station_id":"","pricing_plan_id":"free"},{"bike_id":"631c0f0a-c87a-4ac2-8c86-a55effd3d60b","system_id":"levelo_inurba_marseille","lat":43.298433,"lon":5.362774,"is_reserved":false,"is_disabled":false,"rental_uris":{"android":"levelo://app?vid=631c0f0a-c87a-4ac2-8c86-a55effd3d60b","ios":"levelo://app?vid=631c0f0a-c87a-4ac2-8c86-a55effd3d60b"},"vehicle_type_id":"4","last_reported":1701659278,"current_range_meters":28000,"station_id":"ce4bgpp2rcd13ifvqc3g","pricing_plan_id":"free"},{"bike_id":"19d4d1e9-7fa6-4328-88ab-473f7d883c6f","system_id":"levelo_inurba_marseille","lat":43.311722,"lon":5.387247,"is_reserved":false,"is_disabled":false,"rental_uris":{"android":"levelo://app?vid=19d4d1e9-7fa6-4328-88ab-473f7d883c6f","ios":"levelo://app?vid=19d4d1e9-7fa6-4328-88ab-473f7d883c6f"},"vehicle_type_id":"4","last_reported":1701659278,"current_range_meters":31200,"station_id":"ce4bgv12rcd13ifvqcp0","pricing_plan_id":"free"},{"bike_id":"46972470-f2b1-49f2-84a3-effe379b050c","system_id":"levelo_inurba_marseille","lat":43.311722,"lon":5.387247,"is_reserved":false,"is_disabled":false,"rental_uris":{"android":"levelo://app?vid=46972470-f2b1-49f2-84a3-effe379b050c","ios":"levelo://app?vid=46972470-f2b1-49f2-84a3-effe379b050c"},"vehicle_type_id":"4","last_reported":1701659278,"current_range_meters":20400,"station_id":"ce4bgv12rcd13ifvqcp0","pricing_plan_id":"free"},{"bike_id":"10a8c54c-4f01-46b5-a081-7d07eab5f5e2","system_id":"levelo_inurba_marseille","lat":43.311722,"lon":5.387247,"is_reserved":false,"is_disabled":false,"rental_uris":{"android":"levelo://app?vid=10a8c54c-4f01-46b5-a081-7d07eab5f5e2","ios":"levelo://app?vid=10a8c54c-4f01-46b5-a081-7d07eab5f5e2"},"vehicle_type_id":"4","last_reported":1701659278,"current_range_meters":17600,"station_id":"ce4bgv12rcd13ifvqcp0","pricing_plan_id":"free"},{"bike_id":"bf5eb96b-135f-4b1b-99db-873403575c86","system_id":"levelo_inurba_marseille","lat":43.311722,"lon":5.387247,"is_reserved":false,"is_disabled":false,"rental_uris":{"android":"levelo://app?vid=bf5eb96b-135f-4b1b-99db-873403575c86","ios":"levelo://app?vid=bf5eb96b-135f-4b1b-99db-873403575c86"},"vehicle_type_id":"4","last_reported":1701659278,"current_range_meters":31200,"station_id":"ce4bgv12rcd13ifvqcp0","pricing_plan_id":"free"},{"bike_id":"0a39dd03-261e-42e4-8565-1ecf12f7bfae","system_id":"levelo_inurba_marseille","lat":43.322872,"lon":5.382756,"is_reserved":false,"is_disabled":false,"rental_uris":{"android":"levelo://app?vid=0a39dd03-261e-42e4-8565-1ecf12f7bfae","ios":"levelo://app?vid=0a39dd03-261e-42e4-8565-1ecf12f7bfae"},"vehicle_type_id":"4","last_reported":1701659278,"current_range_meters":21200,"station_id":"ce4bhr12rcd13ifvqhqg","pricing_plan_id":"free"},{"bike_id":"08a721db-bf5d-46b3-9ba3-2a9c6c13bcf6","system_id":"levelo_inurba_marseille","lat":43.328256,"lon":5.366905,"is_reserved":false,"is_disabled":false,"rental_uris":{"android":"levelo://app?vid=08a721db-bf5d-46b3-9ba3-2a9c6c13bcf6","ios":"levelo://app?vid=08a721db-bf5d-46b3-9ba3-2a9c6c13bcf6"},"vehicle_type_id":"4","last_reported":1701659278,"current_range_meters":22800,"station_id":"","pricing_plan_id":"free"},{"bike_id":"65a9133c-c61d-4979-8e7b-24fafb96941b","system_id":"levelo_inurba_marseille","lat":43.328371,"lon":5.366909,"is_reserved":false,"is_disabled":false,"rental_uris":{"android":"levelo://app?vid=65a9133c-c61d-4979-8e7b-24fafb96941b","ios":"levelo://app?vid=65a9133c-c61d-4979-8e7b-24fafb96941b"},"vehicle_type_id":"4","last_reported":1701659278,"current_range_meters":8800,"station_id":"ce4bhs92rcd13ifvqi0g","pricing_plan_id":"free"},{"bike_id":"8874ef37-d11b-4860-b7df-daab8952a737","system_id":"levelo_inurba_marseille","lat":43.328371,"lon":5.366909,"is_reserved":false,"is_disabled":false,"rental_uris":{"android":"levelo://app?vid=8874ef37-d11b-4860-b7df-daab8952a737","ios":"levelo://app?vid=8874ef37-d11b-4860-b7df-daab8952a737"},"vehicle_type_id":"4","last_reported":1701659278,"current_range_meters":21200,"station_id":"ce4bhs92rcd13ifvqi0g","pricing_plan_id":"free"},{"bike_id":"eaa0e7e7-2390-47fa-909b-7b240952cbef","system_id":"levelo_inurba_marseille","lat":43.316538,"lon":5.38954,"is_reserved":false,"is_disabled":false,"rental_uris":{"android":"levelo://app?vid=eaa0e7e7-2390-47fa-909b-7b240952cbef","ios":"levelo://app?vid=eaa0e7e7-2390-47fa-909b-7b240952cbef"},"vehicle_type_id":"4","last_reported":1701659278,"current_range_meters":18800,"station_id":"","pricing_plan_id":"free"},{"bike_id":"50451858-4fd4-406d-badc-776a2e8a63c3","system_id":"levelo_inurba_marseille","lat":43.32973,"lon":5.36732,"is_reserved":false,"is_disabled":false,"rental_uris":{"android":"levelo://app?vid=50451858-4fd4-406d-badc-776a2e8a63c3","ios":"levelo://app?vid=50451858-4fd4-406d-badc-776a2e8a63c3"},"vehicle_type_id":"4","last_reported":1701659278,"current_range_meters":18800,"station_id":"","pricing_plan_id":"free"},{"bike_id":"a7d6993c-889b-472d-8005-f6e35e313883","system_id":"levelo_inurba_marseille","lat":43.309589,"lon":5.390258,"is_reserved":false,"is_disabled":false,"rental_uris":{"android":"levelo://app?vid=a7d6993c-889b-472d-8005-f6e35e313883","ios":"levelo://app?vid=a7d6993c-889b-472d-8005-f6e35e313883"},"vehicle_type_id":"4","last_reported":1701659278,"current_range_meters":24400,"station_id":"ce4bgup2rcd13ifvqco0","pricing_plan_id":"free"},{"bike_id":"f4daf710-bed7-47b5-9cbf-34beff69fe75","system_id":"levelo_inurba_marseille","lat":43.309589,"lon":5.390258,"is_reserved":false,"is_disabled":false,"rental_uris":{"android":"levelo://app?vid=f4daf710-bed7-47b5-9cbf-34beff69fe75","ios":"levelo://app?vid=f4daf710-bed7-47b5-9cbf-34beff69fe75"},"vehicle_type_id":"4","last_reported":1701659278,"current_range_meters":27200,"station_id":"ce4bgup2rcd13ifvqco0","pricing_plan_id":"free"},{"bike_id":"84f56163-afd8-4681-b642-d75744562185","system_id":"levelo_inurba_marseille","lat":43.304274,"lon":5.388873,"is_reserved":false,"is_disabled":false,"rental_uris":{"android":"levelo://app?vid=84f56163-afd8-4681-b642-d75744562185","ios":"levelo://app?vid=84f56163-afd8-4681-b642-d75744562185"},"vehicle_type_id":"4","last_reported":1701659278,"current_range_meters":28400,"station_id":"ce4bgk12rcd13ifvqbi0","pricing_plan_id":"free"},{"bike_id":"29afa83c-4bd7-4ecf-8c8a-6f1436c8ade0","system_id":"levelo_inurba_marseille","lat":43.309038,"lon":5.396546,"is_reserved":false,"is_disabled":false,"rental_uris":{"android":"levelo://app?vid=29afa83c-4bd7-4ecf-8c8a-6f1436c8ade0","ios":"levelo://app?vid=29afa83c-4bd7-4ecf-8c8a-6f1436c8ade0"},"vehicle_type_id":"4","last_reported":1701659278,"current_range_meters":30000,"station_id":"ce4bh012rcd13ifvqcv0","pricing_plan_id":"free"},{"bike_id":"7233bf92-8e9d-4e2e-8572-43cda1791189","system_id":"levelo_inurba_marseille","lat":43.309038,"lon":5.396546,"is_reserved":false,"is_disabled":false,"rental_uris":{"android":"levelo://app?vid=7233bf92-8e9d-4e2e-8572-43cda1791189","ios":"levelo://app?vid=7233bf92-8e9d-4e2e-8572-43cda1791189"},"vehicle_type_id":"4","last_reported":1701659278,"current_range_meters":31200,"station_id":"ce4bh012rcd13ifvqcv0","pricing_plan_id":"free"},{"bike_id":"e61f74f4-4454-4f65-98ed-b35b1802a0ba","system_id":"levelo_inurba_marseille","lat":43.309038,"lon":5.396546,"is_reserved":false,"is_disabled":false,"rental_uris":{"android":"levelo://app?vid=e61f74f4-4454-4f65-98ed-b35b1802a0ba","ios":"levelo://app?vid=e61f74f4-4454-4f65-98ed-b35b1802a0ba"},"vehicle_type_id":"4","last_reported":1701659278,"current_range_meters":27200,"station_id":"ce4bh012rcd13ifvqcv0","pricing_plan_id":"free"},{"bike_id":"b9d03ecb-d668-480f-a5ef-4fcc1aa6b303","system_id":"levelo_inurba_marseille","lat":43.29529,"lon":5.385581,"is_reserved":false,"is_disabled":false,"rental_uris":{"android":"levelo://app?vid=b9d03ecb-d668-480f-a5ef-4fcc1aa6b303","ios":"levelo://app?vid=b9d03ecb-d668-480f-a5ef-4fcc1aa6b303"},"vehicle_type_id":"4","last_reported":1701659278,"current_range_meters":27200,"station_id":"ce4bgih2rcd13ifvqba0","pricing_plan_id":"free"},{"bike_id":"96fbd5d1-f3dd-479e-a32a-ec262acec379","system_id":"levelo_inurba_marseille","lat":43.290624,"lon":5.359245,"is_reserved":false,"is_disabled":false,"rental_uris":{"android":"levelo://app?vid=96fbd5d1-f3dd-479e-a32a-ec262acec379","ios":"levelo://app?vid=96fbd5d1-f3dd-479e-a32a-ec262acec379"},"vehicle_type_id":"4","last_reported":1701659278,"current_range_meters":29200,"station_id":"ce4bha92rcd13ifvqeg0","pricing_plan_id":"free"},{"bike_id":"a12b24bc-cddd-4e90-80fa-0aeb2fb7de8e","system_id":"levelo_inurba_marseille","lat":43.28931,"lon":5.36628,"is_reserved":false,"is_disabled":false,"rental_uris":{"android":"levelo://app?vid=a12b24bc-cddd-4e90-80fa-0aeb2fb7de8e","ios":"levelo://app?vid=a12b24bc-cddd-4e90-80fa-0aeb2fb7de8e"},"vehicle_type_id":"4","last_reported":1701659278,"current_range_meters":31200,"station_id":"ce4bhap2rcd13ifvqek0","pricing_plan_id":"free"},{"bike_id":"8992b905-d17b-44f0-b9b1-ed23aea04030","system_id":"levelo_inurba_marseille","lat":43.289468,"lon":5.363719,"is_reserved":false,"is_disabled":false,"rental_uris":{"android":"levelo://app?vid=8992b905-d17b-44f0-b9b1-ed23aea04030","ios":"levelo://app?vid=8992b905-d17b-44f0-b9b1-ed23aea04030"},"vehicle_type_id":"4","last_reported":1701659278,"current_range_meters":31200,"station_id":"ce4bhc92rcd13ifvqetg","pricing_plan_id":"free"},{"bike_id":"56010b17-f426-4375-84f5-6bb1ba478236","system_id":"levelo_inurba_marseille","lat":43.33043,"lon":5.38924,"is_reserved":false,"is_disabled":false,"rental_uris":{"android":"levelo://app?vid=56010b17-f426-4375-84f5-6bb1ba478236","ios":"levelo://app?vid=56010b17-f426-4375-84f5-6bb1ba478236"},"vehicle_type_id":"4","last_reported":1701659278,"current_range_meters":24800,"station_id":"ce4bhr92rcd13ifvqhrg","pricing_plan_id":"free"},{"bike_id":"2b6a70a5-e2a6-4a63-83c9-af34b8e0e7eb","system_id":"levelo_inurba_marseille","lat":43.290104,"lon":5.356111,"is_reserved":false,"is_disabled":false,"rental_uris":{"android":"levelo://app?vid=2b6a70a5-e2a6-4a63-83c9-af34b8e0e7eb","ios":"levelo://app?vid=2b6a70a5-e2a6-4a63-83c9-af34b8e0e7eb"},"vehicle_type_id":"4","last_reported":1701659278,"current_range_meters":26800,"station_id":"ce4bhb92rcd13ifvqen0","pricing_plan_id":"free"},{"bike_id":"52efce49-5662-4bcd-8032-bb9f7fa74a93","system_id":"levelo_inurba_marseille","lat":43.297815,"lon":5.393548,"is_reserved":false,"is_disabled":false,"rental_uris":{"android":"levelo://app?vid=52efce49-5662-4bcd-8032-bb9f7fa74a93","ios":"levelo://app?vid=52efce49-5662-4bcd-8032-bb9f7fa74a93"},"vehicle_type_id":"4","last_reported":1701659278,"current_range_meters":30000,"station_id":"chh1huq6cuj3fo74tm60","pricing_plan_id":"free"},{"bike_id":"2b5e35e6-55a6-4fe6-9e15-2f35ad8bebed","system_id":"levelo_inurba_marseille","lat":43.28856,"lon":5.358371,"is_reserved":false,"is_disabled":false,"rental_uris":{"android":"levelo://app?vid=2b5e35e6-55a6-4fe6-9e15-2f35ad8bebed","ios":"levelo://app?vid=2b5e35e6-55a6-4fe6-9e15-2f35ad8bebed"},"vehicle_type_id":"4","last_reported":1701659278,"current_range_meters":17600,"station_id":"ce4bhb12rcd13ifvqem0","pricing_plan_id":"free"},{"bike_id":"6d800be1-8e68-447e-b119-097096888ce5","system_id":"levelo_inurba_marseille","lat":43.30923,"lon":5.40137,"is_reserved":false,"is_disabled":false,"rental_uris":{"android":"levelo://app?vid=6d800be1-8e68-447e-b119-097096888ce5","ios":"levelo://app?vid=6d800be1-8e68-447e-b119-097096888ce5"},"vehicle_type_id":"4","last_reported":1701659278,"current_range_meters":9600,"station_id":"ce4bgvp2rcd13ifvqct0","pricing_plan_id":"free"},{"bike_id":"c2920d2a-41a8-45fa-8bf8-58ef40b1983f","system_id":"levelo_inurba_marseille","lat":43.309285,"lon":5.401414,"is_reserved":false,"is_disabled":false,"rental_uris":{"android":"levelo://app?vid=c2920d2a-41a8-45fa-8bf8-58ef40b1983f","ios":"levelo://app?vid=c2920d2a-41a8-45fa-8bf8-58ef40b1983f"},"vehicle_type_id":"4","last_reported":1701659278,"current_range_meters":16800,"station_id":"ce4bgvp2rcd13ifvqct0","pricing_plan_id":"free"},{"bike_id":"008e61b1-150d-480e-9475-1843ed340590","system_id":"levelo_inurba_marseille","lat":43.309371,"lon":5.401449,"is_reserved":false,"is_disabled":false,"rental_uris":{"android":"levelo://app?vid=008e61b1-150d-480e-9475-1843ed340590","ios":"levelo://app?vid=008e61b1-150d-480e-9475-1843ed340590"},"vehicle_type_id":"4","last_reported":1701659278,"current_range_meters":21600,"station_id":"ce4bgvp2rcd13ifvqct0","pricing_plan_id":"free"},{"bike_id":"67adf6ce-d26e-49cc-83ed-1e33f1ed2da0","system_id":"levelo_inurba_marseille","lat":43.30642,"lon":5.401031,"is_reserved":false,"is_disabled":false,"rental_uris":{"android":"levelo://app?vid=67adf6ce-d26e-49cc-83ed-1e33f1ed2da0","ios":"levelo://app?vid=67adf6ce-d26e-49cc-83ed-1e33f1ed2da0"},"vehicle_type_id":"4","last_reported":1701659278,"current_range_meters":14800,"station_id":"ce4bh112rcd13ifvqda0","pricing_plan_id":"free"},{"bike_id":"fb8048c0-3990-48ee-b312-b516815b0d88","system_id":"levelo_inurba_marseille","lat":43.301117,"lon":5.398795,"is_reserved":false,"is_disabled":false,"rental_uris":{"android":"levelo://app?vid=fb8048c0-3990-48ee-b312-b516815b0d88","ios":"levelo://app?vid=fb8048c0-3990-48ee-b312-b516815b0d88"},"vehicle_type_id":"4","last_reported":1701659278,"current_range_meters":23600,"station_id":"ce4bh0h2rcd13ifvqd40","pricing_plan_id":"free"},{"bike_id":"0d80984f-884c-486f-afff-73b2c72742a7","system_id":"levelo_inurba_marseille","lat":43.28727,"lon":5.36078,"is_reserved":false,"is_disabled":false,"rental_uris":{"android":"levelo://app?vid=0d80984f-884c-486f-afff-73b2c72742a7","ios":"levelo://app?vid=0d80984f-884c-486f-afff-73b2c72742a7"},"vehicle_type_id":"4","last_reported":1701659278,"current_range_meters":25600,"station_id":"cki0cbj6b192h4jlfktg","pricing_plan_id":"free"},{"bike_id":"f1ad633b-82f0-402a-afe0-6b248b30593e","system_id":"levelo_inurba_marseille","lat":43.298681,"lon":5.397225,"is_reserved":false,"is_disabled":false,"rental_uris":{"android":"levelo://app?vid=f1ad633b-82f0-402a-afe0-6b248b30593e","ios":"levelo://app?vid=f1ad633b-82f0-402a-afe0-6b248b30593e"},"vehicle_type_id":"4","last_reported":1701659278,"current_range_meters":26000,"station_id":"ce4bh0h2rcd13ifvqd50","pricing_plan_id":"free"},{"bike_id":"865bbc53-bebb-43ff-9dea-6d76b83b72a1","system_id":"levelo_inurba_marseille","lat":43.286961,"lon":5.373785,"is_reserved":false,"is_disabled":false,"rental_uris":{"android":"levelo://app?vid=865bbc53-bebb-43ff-9dea-6d76b83b72a1","ios":"levelo://app?vid=865bbc53-bebb-43ff-9dea-6d76b83b72a1"},"vehicle_type_id":"4","last_reported":1701659278,"current_range_meters":31200,"station_id":"ce4bh3p2rcd13ifvqdq0","pricing_plan_id":"free"},{"bike_id":"ef4467be-1185-4d36-9646-db7f2b4c0dc7","system_id":"levelo_inurba_marseille","lat":43.302759,"lon":5.400793,"is_reserved":false,"is_disabled":false,"rental_uris":{"android":"levelo://app?vid=ef4467be-1185-4d36-9646-db7f2b4c0dc7","ios":"levelo://app?vid=ef4467be-1185-4d36-9646-db7f2b4c0dc7"},"vehicle_type_id":"4","last_reported":1701659278,"current_range_meters":19600,"station_id":"ce4bgvh2rcd13ifvqcs0","pricing_plan_id":"free"},{"bike_id":"4c4dd060-cc2c-4063-a880-d6406b50b97f","system_id":"levelo_inurba_marseille","lat":43.302759,"lon":5.400793,"is_reserved":false,"is_disabled":false,"rental_uris":{"android":"levelo://app?vid=4c4dd060-cc2c-4063-a880-d6406b50b97f","ios":"levelo://app?vid=4c4dd060-cc2c-4063-a880-d6406b50b97f"},"vehicle_type_id":"4","last_reported":1701659278,"current_range_meters":30000,"station_id":"ce4bgvh2rcd13ifvqcs0","pricing_plan_id":"free"},{"bike_id":"2391f2f5-4916-4a72-978f-d121de153032","system_id":"levelo_inurba_marseille","lat":43.287185,"lon":5.379373,"is_reserved":false,"is_disabled":false,"rental_uris":{"android":"levelo://app?vid=2391f2f5-4916-4a72-978f-d121de153032","ios":"levelo://app?vid=2391f2f5-4916-4a72-978f-d121de153032"},"vehicle_type_id":"4","last_reported":1701659278,"current_range_meters":28400,"station_id":"ce4bh9p2rcd13ifvqec0","pricing_plan_id":"free"},{"bike_id":"0d604e16-f3a5-4d04-9185-fe8967ed334b","system_id":"levelo_inurba_marseille","lat":43.291994,"lon":5.392907,"is_reserved":false,"is_disabled":false,"rental_uris":{"android":"levelo://app?vid=0d604e16-f3a5-4d04-9185-fe8967ed334b","ios":"levelo://app?vid=0d604e16-f3a5-4d04-9185-fe8967ed334b"},"vehicle_type_id":"4","last_reported":1701659278,"current_range_meters":24400,"station_id":"ce4bh192rcd13ifvqdd0","pricing_plan_id":"free"},{"bike_id":"f8d35465-5138-48ac-8c93-08de0d00d41b","system_id":"levelo_inurba_marseille","lat":43.330945,"lon":5.39713,"is_reserved":false,"is_disabled":false,"rental_uris":{"android":"levelo://app?vid=f8d35465-5138-48ac-8c93-08de0d00d41b","ios":"levelo://app?vid=f8d35465-5138-48ac-8c93-08de0d00d41b"},"vehicle_type_id":"4","last_reported":1701659278,"current_range_meters":0,"station_id":"","pricing_plan_id":"free"},{"bike_id":"47e7ac63-2632-4ae8-9f67-dc575c2b67f4","system_id":"levelo_inurba_marseille","lat":43.284538,"lon":5.358657,"is_reserved":false,"is_disabled":false,"rental_uris":{"android":"levelo://app?vid=47e7ac63-2632-4ae8-9f67-dc575c2b67f4","ios":"levelo://app?vid=47e7ac63-2632-4ae8-9f67-dc575c2b67f4"},"vehicle_type_id":"4","last_reported":1701659278,"current_range_meters":28400,"station_id":"ce4bhah2rcd13ifvqei0","pricing_plan_id":"free"},{"bike_id":"104ab63b-334e-45c3-9308-421bb28d97e8","system_id":"levelo_inurba_marseille","lat":43.284555,"lon":5.358922,"is_reserved":false,"is_disabled":false,"rental_uris":{"android":"levelo://app?vid=104ab63b-334e-45c3-9308-421bb28d97e8","ios":"levelo://app?vid=104ab63b-334e-45c3-9308-421bb28d97e8"},"vehicle_type_id":"4","last_reported":1701659278,"current_range_meters":27200,"station_id":"ce4bhah2rcd13ifvqei0","pricing_plan_id":"free"},{"bike_id":"0a9171ae-d19b-4f95-9a43-7c63ce3e268b","system_id":"levelo_inurba_marseille","lat":43.284538,"lon":5.358657,"is_reserved":false,"is_disabled":false,"rental_uris":{"android":"levelo://app?vid=0a9171ae-d19b-4f95-9a43-7c63ce3e268b","ios":"levelo://app?vid=0a9171ae-d19b-4f95-9a43-7c63ce3e268b"},"vehicle_type_id":"4","last_reported":1701659278,"current_range_meters":28800,"station_id":"ce4bhah2rcd13ifvqei0","pricing_plan_id":"free"},{"bike_id":"4f16a13c-1bcc-4bf1-a7c2-20a6ff94aa57","system_id":"levelo_inurba_marseille","lat":43.294314,"lon":5.397498,"is_reserved":false,"is_disabled":false,"rental_uris":{"android":"levelo://app?vid=4f16a13c-1bcc-4bf1-a7c2-20a6ff94aa57","ios":"levelo://app?vid=4f16a13c-1bcc-4bf1-a7c2-20a6ff94aa57"},"vehicle_type_id":"4","last_reported":1701659278,"current_range_meters":30000,"station_id":"ce4bh3h2rcd13ifvqdo0","pricing_plan_id":"free"},{"bike_id":"9c882144-906d-4d93-bab0-256b4f3edaff","system_id":"levelo_inurba_marseille","lat":43.294314,"lon":5.397498,"is_reserved":false,"is_disabled":false,"rental_uris":{"android":"levelo://app?vid=9c882144-906d-4d93-bab0-256b4f3edaff","ios":"levelo://app?vid=9c882144-906d-4d93-bab0-256b4f3edaff"},"vehicle_type_id":"4","last_reported":1701659278,"current_range_meters":26000,"station_id":"ce4bh3h2rcd13ifvqdo0","pricing_plan_id":"free"},{"bike_id":"f02f3243-ea83-483a-8af1-4c8628210ea2","system_id":"levelo_inurba_marseille","lat":43.285856,"lon":5.350771,"is_reserved":false,"is_disabled":false,"rental_uris":{"android":"levelo://app?vid=f02f3243-ea83-483a-8af1-4c8628210ea2","ios":"levelo://app?vid=f02f3243-ea83-483a-8af1-4c8628210ea2"},"vehicle_type_id":"4","last_reported":1701659278,"current_range_meters":14000,"station_id":"ce4bhch2rcd13ifvqeug","pricing_plan_id":"free"},{"bike_id":"5a6d5c80-a7a9-47e6-85e0-6875bc9e2103","system_id":"levelo_inurba_marseille","lat":43.283998,"lon":5.375062,"is_reserved":false,"is_disabled":false,"rental_uris":{"android":"levelo://app?vid=5a6d5c80-a7a9-47e6-85e0-6875bc9e2103","ios":"levelo://app?vid=5a6d5c80-a7a9-47e6-85e0-6875bc9e2103"},"vehicle_type_id":"4","last_reported":1701659278,"current_range_meters":30400,"station_id":"ce4bh412rcd13ifvqds0","pricing_plan_id":"free"},{"bike_id":"542cba11-0c0b-4e6c-a765-4bb47c919542","system_id":"levelo_inurba_marseille","lat":43.304606,"lon":5.379026,"is_reserved":false,"is_disabled":false,"rental_uris":{"android":"levelo://app?vid=542cba11-0c0b-4e6c-a765-4bb47c919542","ios":"levelo://app?vid=542cba11-0c0b-4e6c-a765-4bb47c919542"},"vehicle_type_id":"4","last_reported":1701659278,"current_range_meters":24800,"station_id":"ce4bgup2rcd13ifvqcn0","pricing_plan_id":"free"},{"bike_id":"b5c02b46-3ab9-4994-93bc-b2f92d9d432d","system_id":"levelo_inurba_marseille","lat":43.295713,"lon":5.399639,"is_reserved":false,"is_disabled":false,"rental_uris":{"android":"levelo://app?vid=b5c02b46-3ab9-4994-93bc-b2f92d9d432d","ios":"levelo://app?vid=b5c02b46-3ab9-4994-93bc-b2f92d9d432d"},"vehicle_type_id":"4","last_reported":1701659278,"current_range_meters":26400,"station_id":"ce4bh312rcd13ifvqdj0","pricing_plan_id":"free"},{"bike_id":"9f2d8c5b-bdeb-42f8-b0e0-c9f775444842","system_id":"levelo_inurba_marseille","lat":43.286595,"lon":5.386795,"is_reserved":false,"is_disabled":false,"rental_uris":{"android":"levelo://app?vid=9f2d8c5b-bdeb-42f8-b0e0-c9f775444842","ios":"levelo://app?vid=9f2d8c5b-bdeb-42f8-b0e0-c9f775444842"},"vehicle_type_id":"4","last_reported":1701659278,"current_range_meters":24000,"station_id":"ce4bh492rcd13ifvqdug","pricing_plan_id":"free"},{"bike_id":"23a6e18e-5ad6-40cf-b6fb-7a4b1a6034c9","system_id":"levelo_inurba_marseille","lat":43.33745,"lon":5.39116,"is_reserved":false,"is_disabled":false,"rental_uris":{"android":"levelo://app?vid=23a6e18e-5ad6-40cf-b6fb-7a4b1a6034c9","ios":"levelo://app?vid=23a6e18e-5ad6-40cf-b6fb-7a4b1a6034c9"},"vehicle_type_id":"4","last_reported":1701659278,"current_range_meters":26000,"station_id":"","pricing_plan_id":"free"},{"bike_id":"4b021143-be23-4d8d-ac72-086548831286","system_id":"levelo_inurba_marseille","lat":43.33717,"lon":5.391857,"is_reserved":false,"is_disabled":false,"rental_uris":{"android":"levelo://app?vid=4b021143-be23-4d8d-ac72-086548831286","ios":"levelo://app?vid=4b021143-be23-4d8d-ac72-086548831286"},"vehicle_type_id":"4","last_reported":1701659278,"current_range_meters":31200,"station_id":"ce4bhr92rcd13ifvqhsg","pricing_plan_id":"free"},{"bike_id":"2f73a9c6-ea7c-45de-beee-438befc58a7b","system_id":"levelo_inurba_marseille","lat":43.33717,"lon":5.391857,"is_reserved":false,"is_disabled":false,"rental_uris":{"android":"levelo://app?vid=2f73a9c6-ea7c-45de-beee-438befc58a7b","ios":"levelo://app?vid=2f73a9c6-ea7c-45de-beee-438befc58a7b"},"vehicle_type_id":"4","last_reported":1701659278,"current_range_meters":17200,"station_id":"ce4bhr92rcd13ifvqhsg","pricing_plan_id":"free"},{"bike_id":"30ef6f7d-f741-4d29-a9b9-1a0a7d4d295b","system_id":"levelo_inurba_marseille","lat":43.323464,"lon":5.406297,"is_reserved":false,"is_disabled":false,"rental_uris":{"android":"levelo://app?vid=30ef6f7d-f741-4d29-a9b9-1a0a7d4d295b","ios":"levelo://app?vid=30ef6f7d-f741-4d29-a9b9-1a0a7d4d295b"},"vehicle_type_id":"4","last_reported":1701659278,"current_range_meters":28400,"station_id":"ce4bhq92rcd13ifvqhjg","pricing_plan_id":"free"},{"bike_id":"73851b35-806c-423c-a848-91cb62f77226","system_id":"levelo_inurba_marseille","lat":43.298057,"lon":5.404021,"is_reserved":false,"is_disabled":false,"rental_uris":{"android":"levelo://app?vid=73851b35-806c-423c-a848-91cb62f77226","ios":"levelo://app?vid=73851b35-806c-423c-a848-91cb62f77226"},"vehicle_type_id":"4","last_reported":1701659278,"current_range_meters":1600,"station_id":"ce4bh112rcd13ifvqd90","pricing_plan_id":"free"},{"bike_id":"80bffc9e-71c8-4bd9-8fc0-4b132071db62","system_id":"levelo_inurba_marseille","lat":43.29795,"lon":5.404086,"is_reserved":false,"is_disabled":false,"rental_uris":{"android":"levelo://app?vid=80bffc9e-71c8-4bd9-8fc0-4b132071db62","ios":"levelo://app?vid=80bffc9e-71c8-4bd9-8fc0-4b132071db62"},"vehicle_type_id":"4","last_reported":1701659278,"current_range_meters":23600,"station_id":"ce4bh112rcd13ifvqd90","pricing_plan_id":"free"},{"bike_id":"68a76a1a-3048-45e0-af52-9eb8e1d0b701","system_id":"levelo_inurba_marseille","lat":43.282754,"lon":5.350519,"is_reserved":false,"is_disabled":false,"rental_uris":{"android":"levelo://app?vid=68a76a1a-3048-45e0-af52-9eb8e1d0b701","ios":"levelo://app?vid=68a76a1a-3048-45e0-af52-9eb8e1d0b701"},"vehicle_type_id":"4","last_reported":1701659278,"current_range_meters":27600,"station_id":"ce4bhbp2rcd13ifvqerg","pricing_plan_id":"free"},{"bike_id":"ffd0f445-c315-47d0-bd2e-08562e20ea25","system_id":"levelo_inurba_marseille","lat":43.282744,"lon":5.350533,"is_reserved":false,"is_disabled":false,"rental_uris":{"android":"levelo://app?vid=ffd0f445-c315-47d0-bd2e-08562e20ea25","ios":"levelo://app?vid=ffd0f445-c315-47d0-bd2e-08562e20ea25"},"vehicle_type_id":"4","last_reported":1701659278,"current_range_meters":27600,"station_id":"ce4bhbp2rcd13ifvqerg","pricing_plan_id":"free"},{"bike_id":"a9cec647-2fa3-4d82-a42f-4dd28accb0c0","system_id":"levelo_inurba_marseille","lat":43.28039,"lon":5.369297,"is_reserved":false,"is_disabled":false,"rental_uris":{"android":"levelo://app?vid=a9cec647-2fa3-4d82-a42f-4dd28accb0c0","ios":"levelo://app?vid=a9cec647-2fa3-4d82-a42f-4dd28accb0c0"},"vehicle_type_id":"4","last_reported":1701659278,"current_range_meters":30000,"station_id":"ce4bha12rcd13ifvqef0","pricing_plan_id":"free"},{"bike_id":"2bc3ede3-14be-4629-9ad4-5b4ae198650f","system_id":"levelo_inurba_marseille","lat":43.28039,"lon":5.369297,"is_reserved":false,"is_disabled":false,"rental_uris":{"android":"levelo://app?vid=2bc3ede3-14be-4629-9ad4-5b4ae198650f","ios":"levelo://app?vid=2bc3ede3-14be-4629-9ad4-5b4ae198650f"},"vehicle_type_id":"4","last_reported":1701659278,"current_range_meters":28400,"station_id":"ce4bha12rcd13ifvqef0","pricing_plan_id":"free"},{"bike_id":"1e60cd7c-2ea1-4794-9aca-b05cbb6cc2c6","system_id":"levelo_inurba_marseille","lat":43.28032,"lon":5.36929,"is_reserved":false,"is_disabled":false,"rental_uris":{"android":"levelo://app?vid=1e60cd7c-2ea1-4794-9aca-b05cbb6cc2c6","ios":"levelo://app?vid=1e60cd7c-2ea1-4794-9aca-b05cbb6cc2c6"},"vehicle_type_id":"4","last_reported":1701659278,"current_range_meters":31200,"station_id":"ce4bha12rcd13ifvqef0","pricing_plan_id":"free"},{"bike_id":"7bc46e26-33f0-43fd-a689-12fb5df1b67c","system_id":"levelo_inurba_marseille","lat":43.29041,"lon":5.39951,"is_reserved":false,"is_disabled":false,"rental_uris":{"android":"levelo://app?vid=7bc46e26-33f0-43fd-a689-12fb5df1b67c","ios":"levelo://app?vid=7bc46e26-33f0-43fd-a689-12fb5df1b67c"},"vehicle_type_id":"4","last_reported":1701659278,"current_range_meters":29600,"station_id":"ce4bh392rcd13ifvqdm0","pricing_plan_id":"free"},{"bike_id":"570f6efa-fb40-4e1b-af98-52b2809cbf59","system_id":"levelo_inurba_marseille","lat":43.290383,"lon":5.399499,"is_reserved":false,"is_disabled":false,"rental_uris":{"android":"levelo://app?vid=570f6efa-fb40-4e1b-af98-52b2809cbf59","ios":"levelo://app?vid=570f6efa-fb40-4e1b-af98-52b2809cbf59"},"vehicle_type_id":"4","last_reported":1701659278,"current_range_meters":25600,"station_id":"ce4bh392rcd13ifvqdm0","pricing_plan_id":"free"},{"bike_id":"96559383-a678-4cf5-9a80-ec586428b8ff","system_id":"levelo_inurba_marseille","lat":43.290407,"lon":5.39956,"is_reserved":false,"is_disabled":false,"rental_uris":{"android":"levelo://app?vid=96559383-a678-4cf5-9a80-ec586428b8ff","ios":"levelo://app?vid=96559383-a678-4cf5-9a80-ec586428b8ff"},"vehicle_type_id":"4","last_reported":1701659278,"current_range_meters":26800,"station_id":"ce4bh392rcd13ifvqdm0","pricing_plan_id":"free"},{"bike_id":"22e16aa0-943e-4392-baa8-d7779108c3f6","system_id":"levelo_inurba_marseille","lat":43.290403,"lon":5.399628,"is_reserved":false,"is_disabled":false,"rental_uris":{"android":"levelo://app?vid=22e16aa0-943e-4392-baa8-d7779108c3f6","ios":"levelo://app?vid=22e16aa0-943e-4392-baa8-d7779108c3f6"},"vehicle_type_id":"4","last_reported":1701659278,"current_range_meters":25600,"station_id":"ce4bh392rcd13ifvqdm0","pricing_plan_id":"free"},{"bike_id":"d34773e4-53de-42ff-b5e5-b94ea94ea31f","system_id":"levelo_inurba_marseille","lat":43.290419,"lon":5.39965,"is_reserved":false,"is_disabled":false,"rental_uris":{"android":"levelo://app?vid=d34773e4-53de-42ff-b5e5-b94ea94ea31f","ios":"levelo://app?vid=d34773e4-53de-42ff-b5e5-b94ea94ea31f"},"vehicle_type_id":"4","last_reported":1701659278,"current_range_meters":29200,"station_id":"ce4bh392rcd13ifvqdm0","pricing_plan_id":"free"},{"bike_id":"71d699ef-34cb-4fb5-b790-9187a787ae0c","system_id":"levelo_inurba_marseille","lat":43.290352,"lon":5.399595,"is_reserved":false,"is_disabled":false,"rental_uris":{"android":"levelo://app?vid=71d699ef-34cb-4fb5-b790-9187a787ae0c","ios":"levelo://app?vid=71d699ef-34cb-4fb5-b790-9187a787ae0c"},"vehicle_type_id":"4","last_reported":1701659278,"current_range_meters":25200,"station_id":"ce4bh392rcd13ifvqdm0","pricing_plan_id":"free"},{"bike_id":"c2e7ec07-25a3-4392-b6e1-4106c5c3194d","system_id":"levelo_inurba_marseille","lat":43.290377,"lon":5.399641,"is_reserved":false,"is_disabled":false,"rental_uris":{"android":"levelo://app?vid=c2e7ec07-25a3-4392-b6e1-4106c5c3194d","ios":"levelo://app?vid=c2e7ec07-25a3-4392-b6e1-4106c5c3194d"},"vehicle_type_id":"4","last_reported":1701659278,"current_range_meters":18000,"station_id":"ce4bh392rcd13ifvqdm0","pricing_plan_id":"free"},{"bike_id":"24c3c60d-c67e-4865-81ff-736fa4ff165d","system_id":"levelo_inurba_marseille","lat":43.290357,"lon":5.399637,"is_reserved":false,"is_disabled":false,"rental_uris":{"android":"levelo://app?vid=24c3c60d-c67e-4865-81ff-736fa4ff165d","ios":"levelo://app?vid=24c3c60d-c67e-4865-81ff-736fa4ff165d"},"vehicle_type_id":"4","last_reported":1701659278,"current_range_meters":19200,"station_id":"ce4bh392rcd13ifvqdm0","pricing_plan_id":"free"},{"bike_id":"e5233931-1b72-4a0d-a95d-e0549c9dbf7b","system_id":"levelo_inurba_marseille","lat":43.290351,"lon":5.399631,"is_reserved":false,"is_disabled":false,"rental_uris":{"android":"levelo://app?vid=e5233931-1b72-4a0d-a95d-e0549c9dbf7b","ios":"levelo://app?vid=e5233931-1b72-4a0d-a95d-e0549c9dbf7b"},"vehicle_type_id":"4","last_reported":1701659278,"current_range_meters":28000,"station_id":"ce4bh392rcd13ifvqdm0","pricing_plan_id":"free"},{"bike_id":"96207197-1a09-412a-9210-4cb5a4ecfae4","system_id":"levelo_inurba_marseille","lat":43.290327,"lon":5.399605,"is_reserved":false,"is_disabled":false,"rental_uris":{"android":"levelo://app?vid=96207197-1a09-412a-9210-4cb5a4ecfae4","ios":"levelo://app?vid=96207197-1a09-412a-9210-4cb5a4ecfae4"},"vehicle_type_id":"4","last_reported":1701659278,"current_range_meters":18000,"station_id":"ce4bh392rcd13ifvqdm0","pricing_plan_id":"free"},{"bike_id":"dbcbf86b-13a4-4678-8bd9-66eca4d1e0c7","system_id":"levelo_inurba_marseille","lat":43.290358,"lon":5.399673,"is_reserved":false,"is_disabled":false,"rental_uris":{"android":"levelo://app?vid=dbcbf86b-13a4-4678-8bd9-66eca4d1e0c7","ios":"levelo://app?vid=dbcbf86b-13a4-4678-8bd9-66eca4d1e0c7"},"vehicle_type_id":"4","last_reported":1701659278,"current_range_meters":28400,"station_id":"ce4bh392rcd13ifvqdm0","pricing_plan_id":"free"},{"bike_id":"ec072393-b678-4914-979e-97b206813db4","system_id":"levelo_inurba_marseille","lat":43.29037,"lon":5.39972,"is_reserved":false,"is_disabled":false,"rental_uris":{"android":"levelo://app?vid=ec072393-b678-4914-979e-97b206813db4","ios":"levelo://app?vid=ec072393-b678-4914-979e-97b206813db4"},"vehicle_type_id":"4","last_reported":1701659278,"current_range_meters":27200,"station_id":"ce4bh392rcd13ifvqdm0","pricing_plan_id":"free"},{"bike_id":"889da68a-4ee9-4663-a628-b18a37e19ac1","system_id":"levelo_inurba_marseille","lat":43.290327,"lon":5.39968,"is_reserved":false,"is_disabled":false,"rental_uris":{"android":"levelo://app?vid=889da68a-4ee9-4663-a628-b18a37e19ac1","ios":"levelo://app?vid=889da68a-4ee9-4663-a628-b18a37e19ac1"},"vehicle_type_id":"4","last_reported":1701659278,"current_range_meters":29600,"station_id":"ce4bh392rcd13ifvqdm0","pricing_plan_id":"free"},{"bike_id":"07bd320c-b9b7-4461-8508-59483082678d","system_id":"levelo_inurba_marseille","lat":43.279094,"lon":5.380156,"is_reserved":false,"is_disabled":false,"rental_uris":{"android":"levelo://app?vid=07bd320c-b9b7-4461-8508-59483082678d","ios":"levelo://app?vid=07bd320c-b9b7-4461-8508-59483082678d"},"vehicle_type_id":"4","last_reported":1701659278,"current_range_meters":27600,"station_id":"ce4bhf92rcd13ifvqf50","pricing_plan_id":"free"},{"bike_id":"674d4941-f9e1-4164-92ff-02f29480e319","system_id":"levelo_inurba_marseille","lat":43.287154,"lon":5.399979,"is_reserved":false,"is_disabled":false,"rental_uris":{"android":"levelo://app?vid=674d4941-f9e1-4164-92ff-02f29480e319","ios":"levelo://app?vid=674d4941-f9e1-4164-92ff-02f29480e319"},"vehicle_type_id":"4","last_reported":1701659278,"current_range_meters":26800,"station_id":"ce4bho92rcd13ifvqh3g","pricing_plan_id":"free"},{"bike_id":"2bb6c6e3-3605-48ff-aa4a-063f9b7b33fd","system_id":"levelo_inurba_marseille","lat":43.279087,"lon":5.380114,"is_reserved":false,"is_disabled":false,"rental_uris":{"android":"levelo://app?vid=2bb6c6e3-3605-48ff-aa4a-063f9b7b33fd","ios":"levelo://app?vid=2bb6c6e3-3605-48ff-aa4a-063f9b7b33fd"},"vehicle_type_id":"4","last_reported":1701659278,"current_range_meters":27600,"station_id":"ce4bhf92rcd13ifvqf50","pricing_plan_id":"free"},{"bike_id":"8e0b97f3-3b4c-4f83-bf69-3018bda8bee3","system_id":"levelo_inurba_marseille","lat":43.287154,"lon":5.399979,"is_reserved":false,"is_disabled":false,"rental_uris":{"android":"levelo://app?vid=8e0b97f3-3b4c-4f83-bf69-3018bda8bee3","ios":"levelo://app?vid=8e0b97f3-3b4c-4f83-bf69-3018bda8bee3"},"vehicle_type_id":"4","last_reported":1701659278,"current_range_meters":30800,"station_id":"ce4bho92rcd13ifvqh3g","pricing_plan_id":"free"},{"bike_id":"0b8b2403-4635-45fb-aad3-aee385f55dff","system_id":"levelo_inurba_marseille","lat":43.287154,"lon":5.399979,"is_reserved":false,"is_disabled":false,"rental_uris":{"android":"levelo://app?vid=0b8b2403-4635-45fb-aad3-aee385f55dff","ios":"levelo://app?vid=0b8b2403-4635-45fb-aad3-aee385f55dff"},"vehicle_type_id":"4","last_reported":1701659278,"current_range_meters":1600,"station_id":"ce4bho92rcd13ifvqh3g","pricing_plan_id":"free"},{"bike_id":"4c0219a3-e337-4fb9-b2e0-487a2c4ba86d","system_id":"levelo_inurba_marseille","lat":43.287154,"lon":5.399979,"is_reserved":false,"is_disabled":false,"rental_uris":{"android":"levelo://app?vid=4c0219a3-e337-4fb9-b2e0-487a2c4ba86d","ios":"levelo://app?vid=4c0219a3-e337-4fb9-b2e0-487a2c4ba86d"},"vehicle_type_id":"4","last_reported":1701659278,"current_range_meters":31200,"station_id":"ce4bho92rcd13ifvqh3g","pricing_plan_id":"free"},{"bike_id":"596a10dd-4ed5-4e09-b61d-66b163227f65","system_id":"levelo_inurba_marseille","lat":43.279087,"lon":5.380114,"is_reserved":false,"is_disabled":false,"rental_uris":{"android":"levelo://app?vid=596a10dd-4ed5-4e09-b61d-66b163227f65","ios":"levelo://app?vid=596a10dd-4ed5-4e09-b61d-66b163227f65"},"vehicle_type_id":"4","last_reported":1701659278,"current_range_meters":21600,"station_id":"ce4bhf92rcd13ifvqf50","pricing_plan_id":"free"},{"bike_id":"37819522-0ccb-47a2-8669-6f088deff27d","system_id":"levelo_inurba_marseille","lat":43.287154,"lon":5.399979,"is_reserved":false,"is_disabled":false,"rental_uris":{"android":"levelo://app?vid=37819522-0ccb-47a2-8669-6f088deff27d","ios":"levelo://app?vid=37819522-0ccb-47a2-8669-6f088deff27d"},"vehicle_type_id":"4","last_reported":1701659278,"current_range_meters":15200,"station_id":"ce4bho92rcd13ifvqh3g","pricing_plan_id":"free"},{"bike_id":"58bb1f55-d991-4e2a-8111-73fb3c89f284","system_id":"levelo_inurba_marseille","lat":43.292571,"lon":5.409107,"is_reserved":false,"is_disabled":false,"rental_uris":{"android":"levelo://app?vid=58bb1f55-d991-4e2a-8111-73fb3c89f284","ios":"levelo://app?vid=58bb1f55-d991-4e2a-8111-73fb3c89f284"},"vehicle_type_id":"4","last_reported":1701659278,"current_range_meters":30800,"station_id":"ce4bh192rcd13ifvqdc0","pricing_plan_id":"free"},{"bike_id":"097c96f8-84ee-41ee-b796-e491ace19258","system_id":"levelo_inurba_marseille","lat":43.292569,"lon":5.409107,"is_reserved":false,"is_disabled":false,"rental_uris":{"android":"levelo://app?vid=097c96f8-84ee-41ee-b796-e491ace19258","ios":"levelo://app?vid=097c96f8-84ee-41ee-b796-e491ace19258"},"vehicle_type_id":"4","last_reported":1701659278,"current_range_meters":30000,"station_id":"ce4bh192rcd13ifvqdc0","pricing_plan_id":"free"},{"bike_id":"6c428628-bf3e-400d-a630-e37f1e84bd7a","system_id":"levelo_inurba_marseille","lat":43.292569,"lon":5.409107,"is_reserved":false,"is_disabled":false,"rental_uris":{"android":"levelo://app?vid=6c428628-bf3e-400d-a630-e37f1e84bd7a","ios":"levelo://app?vid=6c428628-bf3e-400d-a630-e37f1e84bd7a"},"vehicle_type_id":"4","last_reported":1701659278,"current_range_meters":6000,"station_id":"ce4bh192rcd13ifvqdc0","pricing_plan_id":"free"},{"bike_id":"28f16f48-1bc0-49c3-85a2-e30ededa2bb6","system_id":"levelo_inurba_marseille","lat":43.292569,"lon":5.409107,"is_reserved":false,"is_disabled":false,"rental_uris":{"android":"levelo://app?vid=28f16f48-1bc0-49c3-85a2-e30ededa2bb6","ios":"levelo://app?vid=28f16f48-1bc0-49c3-85a2-e30ededa2bb6"},"vehicle_type_id":"4","last_reported":1701659278,"current_range_meters":29200,"station_id":"ce4bh192rcd13ifvqdc0","pricing_plan_id":"free"},{"bike_id":"fcde8037-1a32-47bf-885f-fe33945d1809","system_id":"levelo_inurba_marseille","lat":43.292569,"lon":5.409107,"is_reserved":false,"is_disabled":false,"rental_uris":{"android":"levelo://app?vid=fcde8037-1a32-47bf-885f-fe33945d1809","ios":"levelo://app?vid=fcde8037-1a32-47bf-885f-fe33945d1809"},"vehicle_type_id":"4","last_reported":1701659278,"current_range_meters":20400,"station_id":"ce4bh192rcd13ifvqdc0","pricing_plan_id":"free"},{"bike_id":"5a25bf69-6178-4680-ba62-eb181662b01d","system_id":"levelo_inurba_marseille","lat":43.325243,"lon":5.414326,"is_reserved":false,"is_disabled":false,"rental_uris":{"android":"levelo://app?vid=5a25bf69-6178-4680-ba62-eb181662b01d","ios":"levelo://app?vid=5a25bf69-6178-4680-ba62-eb181662b01d"},"vehicle_type_id":"4","last_reported":1701659278,"current_range_meters":26800,"station_id":"ce4bhq12rcd13ifvqhhg","pricing_plan_id":"free"},{"bike_id":"f0182450-728b-4ecf-baf9-a54a0d0960e7","system_id":"levelo_inurba_marseille","lat":43.280784,"lon":5.396622,"is_reserved":false,"is_disabled":false,"rental_uris":{"android":"levelo://app?vid=f0182450-728b-4ecf-baf9-a54a0d0960e7","ios":"levelo://app?vid=f0182450-728b-4ecf-baf9-a54a0d0960e7"},"vehicle_type_id":"4","last_reported":1701659278,"current_range_meters":26800,"station_id":"ce4bho12rcd13ifvqh2g","pricing_plan_id":"free"},{"bike_id":"82055c14-bffe-447e-8bce-741f81c4ad72","system_id":"levelo_inurba_marseille","lat":43.273613,"lon":5.362705,"is_reserved":false,"is_disabled":false,"rental_uris":{"android":"levelo://app?vid=82055c14-bffe-447e-8bce-741f81c4ad72","ios":"levelo://app?vid=82055c14-bffe-447e-8bce-741f81c4ad72"},"vehicle_type_id":"4","last_reported":1701659278,"current_range_meters":19600,"station_id":"ce4bhbh2rcd13ifvqeo0","pricing_plan_id":"free"},{"bike_id":"728fbd19-ef99-4e0a-ab51-ca3bb2c3f515","system_id":"levelo_inurba_marseille","lat":43.273609,"lon":5.362708,"is_reserved":false,"is_disabled":false,"rental_uris":{"android":"levelo://app?vid=728fbd19-ef99-4e0a-ab51-ca3bb2c3f515","ios":"levelo://app?vid=728fbd19-ef99-4e0a-ab51-ca3bb2c3f515"},"vehicle_type_id":"4","last_reported":1701659278,"current_range_meters":31200,"station_id":"ce4bhbh2rcd13ifvqeo0","pricing_plan_id":"free"},{"bike_id":"8a0e7938-1d64-4254-a270-22f5c0986632","system_id":"levelo_inurba_marseille","lat":43.273609,"lon":5.362708,"is_reserved":false,"is_disabled":false,"rental_uris":{"android":"levelo://app?vid=8a0e7938-1d64-4254-a270-22f5c0986632","ios":"levelo://app?vid=8a0e7938-1d64-4254-a270-22f5c0986632"},"vehicle_type_id":"4","last_reported":1701659278,"current_range_meters":19600,"station_id":"ce4bhbh2rcd13ifvqeo0","pricing_plan_id":"free"},{"bike_id":"f536eeb4-cc05-40fa-b8ef-2dc48313eddb","system_id":"levelo_inurba_marseille","lat":43.273613,"lon":5.362705,"is_reserved":false,"is_disabled":false,"rental_uris":{"android":"levelo://app?vid=f536eeb4-cc05-40fa-b8ef-2dc48313eddb","ios":"levelo://app?vid=f536eeb4-cc05-40fa-b8ef-2dc48313eddb"},"vehicle_type_id":"4","last_reported":1701659278,"current_range_meters":31200,"station_id":"ce4bhbh2rcd13ifvqeo0","pricing_plan_id":"free"},{"bike_id":"b6e6a6da-66e0-4775-8fca-cdd55e40c427","system_id":"levelo_inurba_marseille","lat":43.273613,"lon":5.362705,"is_reserved":false,"is_disabled":false,"rental_uris":{"android":"levelo://app?vid=b6e6a6da-66e0-4775-8fca-cdd55e40c427","ios":"levelo://app?vid=b6e6a6da-66e0-4775-8fca-cdd55e40c427"},"vehicle_type_id":"4","last_reported":1701659278,"current_range_meters":22000,"station_id":"ce4bhbh2rcd13ifvqeo0","pricing_plan_id":"free"},{"bike_id":"65b985ec-9b0b-4cc2-b49c-1b93f61295be","system_id":"levelo_inurba_marseille","lat":43.273609,"lon":5.362708,"is_reserved":false,"is_disabled":false,"rental_uris":{"android":"levelo://app?vid=65b985ec-9b0b-4cc2-b49c-1b93f61295be","ios":"levelo://app?vid=65b985ec-9b0b-4cc2-b49c-1b93f61295be"},"vehicle_type_id":"4","last_reported":1701659278,"current_range_meters":31200,"station_id":"ce4bhbh2rcd13ifvqeo0","pricing_plan_id":"free"},{"bike_id":"583542c5-23c7-402a-a75e-774d530474ba","system_id":"levelo_inurba_marseille","lat":43.33612,"lon":5.410321,"is_reserved":false,"is_disabled":false,"rental_uris":{"android":"levelo://app?vid=583542c5-23c7-402a-a75e-774d530474ba","ios":"levelo://app?vid=583542c5-23c7-402a-a75e-774d530474ba"},"vehicle_type_id":"4","last_reported":1701659278,"current_range_meters":31600,"station_id":"ce4bhqh2rcd13ifvqhmg","pricing_plan_id":"free"},{"bike_id":"1b0343ba-8c6a-452a-99ff-56ba12d6c2e5","system_id":"levelo_inurba_marseille","lat":43.33612,"lon":5.410321,"is_reserved":false,"is_disabled":false,"rental_uris":{"android":"levelo://app?vid=1b0343ba-8c6a-452a-99ff-56ba12d6c2e5","ios":"levelo://app?vid=1b0343ba-8c6a-452a-99ff-56ba12d6c2e5"},"vehicle_type_id":"4","last_reported":1701659278,"current_range_meters":31600,"station_id":"ce4bhqh2rcd13ifvqhmg","pricing_plan_id":"free"},{"bike_id":"009bf07d-22e4-4b53-a9d0-cef8aea5fc81","system_id":"levelo_inurba_marseille","lat":43.33612,"lon":5.410321,"is_reserved":false,"is_disabled":false,"rental_uris":{"android":"levelo://app?vid=009bf07d-22e4-4b53-a9d0-cef8aea5fc81","ios":"levelo://app?vid=009bf07d-22e4-4b53-a9d0-cef8aea5fc81"},"vehicle_type_id":"4","last_reported":1701659278,"current_range_meters":18000,"station_id":"ce4bhqh2rcd13ifvqhmg","pricing_plan_id":"free"},{"bike_id":"ae9af643-001e-42d9-8c47-cb12ff606b64","system_id":"levelo_inurba_marseille","lat":43.317252,"lon":5.423968,"is_reserved":false,"is_disabled":false,"rental_uris":{"android":"levelo://app?vid=ae9af643-001e-42d9-8c47-cb12ff606b64","ios":"levelo://app?vid=ae9af643-001e-42d9-8c47-cb12ff606b64"},"vehicle_type_id":"4","last_reported":1701659278,"current_range_meters":16400,"station_id":"ce4bhp92rcd13ifvqhbg","pricing_plan_id":"free"},{"bike_id":"cb1010f4-fa9f-4bbc-b283-d588277e480a","system_id":"levelo_inurba_marseille","lat":43.31723,"lon":5.42399,"is_reserved":false,"is_disabled":false,"rental_uris":{"android":"levelo://app?vid=cb1010f4-fa9f-4bbc-b283-d588277e480a","ios":"levelo://app?vid=cb1010f4-fa9f-4bbc-b283-d588277e480a"},"vehicle_type_id":"4","last_reported":1701659278,"current_range_meters":23600,"station_id":"ce4bhp92rcd13ifvqhbg","pricing_plan_id":"free"},{"bike_id":"4c266738-4562-4ce1-aca7-b04f03b275b5","system_id":"levelo_inurba_marseille","lat":43.317121,"lon":5.423936,"is_reserved":false,"is_disabled":false,"rental_uris":{"android":"levelo://app?vid=4c266738-4562-4ce1-aca7-b04f03b275b5","ios":"levelo://app?vid=4c266738-4562-4ce1-aca7-b04f03b275b5"},"vehicle_type_id":"4","last_reported":1701659278,"current_range_meters":29600,"station_id":"ce4bhp92rcd13ifvqhbg","pricing_plan_id":"free"},{"bike_id":"ba2cdc49-316c-4fb7-ae87-5812c3ece311","system_id":"levelo_inurba_marseille","lat":43.317224,"lon":5.424058,"is_reserved":false,"is_disabled":false,"rental_uris":{"android":"levelo://app?vid=ba2cdc49-316c-4fb7-ae87-5812c3ece311","ios":"levelo://app?vid=ba2cdc49-316c-4fb7-ae87-5812c3ece311"},"vehicle_type_id":"4","last_reported":1701659278,"current_range_meters":31200,"station_id":"ce4bhp92rcd13ifvqhbg","pricing_plan_id":"free"},{"bike_id":"910fd3aa-d2e0-4553-894a-6161d41c7fcd","system_id":"levelo_inurba_marseille","lat":43.27609,"lon":5.39475,"is_reserved":false,"is_disabled":false,"rental_uris":{"android":"levelo://app?vid=910fd3aa-d2e0-4553-894a-6161d41c7fcd","ios":"levelo://app?vid=910fd3aa-d2e0-4553-894a-6161d41c7fcd"},"vehicle_type_id":"4","last_reported":1701659278,"current_range_meters":12800,"station_id":"","pricing_plan_id":"free"},{"bike_id":"fb1e7928-1de9-4c43-97dc-e729ab674c6a","system_id":"levelo_inurba_marseille","lat":43.31723,"lon":5.42417,"is_reserved":false,"is_disabled":false,"rental_uris":{"android":"levelo://app?vid=fb1e7928-1de9-4c43-97dc-e729ab674c6a","ios":"levelo://app?vid=fb1e7928-1de9-4c43-97dc-e729ab674c6a"},"vehicle_type_id":"4","last_reported":1701659278,"current_range_meters":25600,"station_id":"ce4bhp92rcd13ifvqhbg","pricing_plan_id":"free"},{"bike_id":"8583a456-009f-4ce4-99a2-cd24342591d6","system_id":"levelo_inurba_marseille","lat":43.340804,"lon":5.410219,"is_reserved":false,"is_disabled":false,"rental_uris":{"android":"levelo://app?vid=8583a456-009f-4ce4-99a2-cd24342591d6","ios":"levelo://app?vid=8583a456-009f-4ce4-99a2-cd24342591d6"},"vehicle_type_id":"4","last_reported":1701659278,"current_range_meters":28800,"station_id":"ce4bhqh2rcd13ifvqhlg","pricing_plan_id":"free"},{"bike_id":"68a6da79-fcec-47bb-ba2a-4d818fc0e4f8","system_id":"levelo_inurba_marseille","lat":43.340804,"lon":5.410219,"is_reserved":false,"is_disabled":false,"rental_uris":{"android":"levelo://app?vid=68a6da79-fcec-47bb-ba2a-4d818fc0e4f8","ios":"levelo://app?vid=68a6da79-fcec-47bb-ba2a-4d818fc0e4f8"},"vehicle_type_id":"4","last_reported":1701659278,"current_range_meters":25200,"station_id":"ce4bhqh2rcd13ifvqhlg","pricing_plan_id":"free"},{"bike_id":"b2446fcf-def7-4922-8af2-a226dcbb9876","system_id":"levelo_inurba_marseille","lat":43.273215,"lon":5.391105,"is_reserved":false,"is_disabled":false,"rental_uris":{"android":"levelo://app?vid=b2446fcf-def7-4922-8af2-a226dcbb9876","ios":"levelo://app?vid=b2446fcf-def7-4922-8af2-a226dcbb9876"},"vehicle_type_id":"4","last_reported":1701659278,"current_range_meters":28400,"station_id":"ce4bhgp2rcd13ifvqfe0","pricing_plan_id":"free"},{"bike_id":"5d665a19-1fda-4c75-b513-92c4fde0a0f2","system_id":"levelo_inurba_marseille","lat":43.304096,"lon":5.425385,"is_reserved":false,"is_disabled":false,"rental_uris":{"android":"levelo://app?vid=5d665a19-1fda-4c75-b513-92c4fde0a0f2","ios":"levelo://app?vid=5d665a19-1fda-4c75-b513-92c4fde0a0f2"},"vehicle_type_id":"4","last_reported":1701659278,"current_range_meters":23600,"station_id":"ce4bhoh2rcd13ifvqh6g","pricing_plan_id":"free"},{"bike_id":"16ed0702-3beb-465e-8f72-aa4e21e2a2dc","system_id":"levelo_inurba_marseille","lat":43.295511,"lon":5.422926,"is_reserved":false,"is_disabled":false,"rental_uris":{"android":"levelo://app?vid=16ed0702-3beb-465e-8f72-aa4e21e2a2dc","ios":"levelo://app?vid=16ed0702-3beb-465e-8f72-aa4e21e2a2dc"},"vehicle_type_id":"4","last_reported":1701659278,"current_range_meters":31200,"station_id":"ce4bhph2rcd13ifvqhdg","pricing_plan_id":"free"},{"bike_id":"6b1af463-319c-4ec7-900e-4c248fc9af9e","system_id":"levelo_inurba_marseille","lat":43.278128,"lon":5.407195,"is_reserved":false,"is_disabled":false,"rental_uris":{"android":"levelo://app?vid=6b1af463-319c-4ec7-900e-4c248fc9af9e","ios":"levelo://app?vid=6b1af463-319c-4ec7-900e-4c248fc9af9e"},"vehicle_type_id":"4","last_reported":1701659278,"current_range_meters":31200,"station_id":"ce4bhnh2rcd13ifvqgtg","pricing_plan_id":"free"},{"bike_id":"33dafeae-6400-4a6a-ad6a-3e25da0d2a79","system_id":"levelo_inurba_marseille","lat":43.278128,"lon":5.407195,"is_reserved":false,"is_disabled":false,"rental_uris":{"android":"levelo://app?vid=33dafeae-6400-4a6a-ad6a-3e25da0d2a79","ios":"levelo://app?vid=33dafeae-6400-4a6a-ad6a-3e25da0d2a79"},"vehicle_type_id":"4","last_reported":1701659278,"current_range_meters":27600,"station_id":"ce4bhnh2rcd13ifvqgtg","pricing_plan_id":"free"},{"bike_id":"d6bd0d5c-ab30-485f-8ce1-cf2a2d8b99aa","system_id":"levelo_inurba_marseille","lat":43.279465,"lon":5.410561,"is_reserved":false,"is_disabled":false,"rental_uris":{"android":"levelo://app?vid=d6bd0d5c-ab30-485f-8ce1-cf2a2d8b99aa","ios":"levelo://app?vid=d6bd0d5c-ab30-485f-8ce1-cf2a2d8b99aa"},"vehicle_type_id":"4","last_reported":1701659278,"current_range_meters":12400,"station_id":"ce4bhnp2rcd13ifvqh0g","pricing_plan_id":"free"},{"bike_id":"0ce340ee-4cc5-455c-8ef2-e149b03f6229","system_id":"levelo_inurba_marseille","lat":43.279451,"lon":5.410447,"is_reserved":false,"is_disabled":false,"rental_uris":{"android":"levelo://app?vid=0ce340ee-4cc5-455c-8ef2-e149b03f6229","ios":"levelo://app?vid=0ce340ee-4cc5-455c-8ef2-e149b03f6229"},"vehicle_type_id":"4","last_reported":1701659278,"current_range_meters":9600,"station_id":"ce4bhnp2rcd13ifvqh0g","pricing_plan_id":"free"},{"bike_id":"421533bc-c949-4c2a-8ac6-a101403800d4","system_id":"levelo_inurba_marseille","lat":43.26558,"lon":5.37282,"is_reserved":false,"is_disabled":false,"rental_uris":{"android":"levelo://app?vid=421533bc-c949-4c2a-8ac6-a101403800d4","ios":"levelo://app?vid=421533bc-c949-4c2a-8ac6-a101403800d4"},"vehicle_type_id":"4","last_reported":1701659278,"current_range_meters":31200,"station_id":"ce4bhg12rcd13ifvqf70","pricing_plan_id":"free"},{"bike_id":"3a085ded-79fe-4229-ba36-720621cc3c5b","system_id":"levelo_inurba_marseille","lat":43.27994,"lon":5.41664,"is_reserved":false,"is_disabled":false,"rental_uris":{"android":"levelo://app?vid=3a085ded-79fe-4229-ba36-720621cc3c5b","ios":"levelo://app?vid=3a085ded-79fe-4229-ba36-720621cc3c5b"},"vehicle_type_id":"4","last_reported":1701659278,"current_range_meters":26400,"station_id":"ce4bho12rcd13ifvqh1g","pricing_plan_id":"free"},{"bike_id":"cba086ce-2e3e-44ca-8159-8c49eaee25e6","system_id":"levelo_inurba_marseille","lat":43.27996,"lon":5.416624,"is_reserved":false,"is_disabled":false,"rental_uris":{"android":"levelo://app?vid=cba086ce-2e3e-44ca-8159-8c49eaee25e6","ios":"levelo://app?vid=cba086ce-2e3e-44ca-8159-8c49eaee25e6"},"vehicle_type_id":"4","last_reported":1701659278,"current_range_meters":28800,"station_id":"ce4bho12rcd13ifvqh1g","pricing_plan_id":"free"},{"bike_id":"dc1148e6-327f-4b57-8e91-cc724d9ac120","system_id":"levelo_inurba_marseille","lat":43.27987,"lon":5.41659,"is_reserved":false,"is_disabled":false,"rental_uris":{"android":"levelo://app?vid=dc1148e6-327f-4b57-8e91-cc724d9ac120","ios":"levelo://app?vid=dc1148e6-327f-4b57-8e91-cc724d9ac120"},"vehicle_type_id":"4","last_reported":1701659278,"current_range_meters":18000,"station_id":"ce4bho12rcd13ifvqh1g","pricing_plan_id":"free"},{"bike_id":"ab1261d9-d8e9-4c1b-b14d-57a40a679a18","system_id":"levelo_inurba_marseille","lat":43.27988,"lon":5.41664,"is_reserved":false,"is_disabled":false,"rental_uris":{"android":"levelo://app?vid=ab1261d9-d8e9-4c1b-b14d-57a40a679a18","ios":"levelo://app?vid=ab1261d9-d8e9-4c1b-b14d-57a40a679a18"},"vehicle_type_id":"4","last_reported":1701659278,"current_range_meters":27200,"station_id":"ce4bho12rcd13ifvqh1g","pricing_plan_id":"free"},{"bike_id":"b9264cd9-61af-4b7a-b487-31f5e133b5d7","system_id":"levelo_inurba_marseille","lat":43.267842,"lon":5.394244,"is_reserved":false,"is_disabled":false,"rental_uris":{"android":"levelo://app?vid=b9264cd9-61af-4b7a-b487-31f5e133b5d7","ios":"levelo://app?vid=b9264cd9-61af-4b7a-b487-31f5e133b5d7"},"vehicle_type_id":"4","last_reported":1701659278,"current_range_meters":13200,"station_id":"ce4bhh12rcd13ifvqfg0","pricing_plan_id":"free"},{"bike_id":"b4474592-0bfd-4522-9c7c-3a54f63bd9ca","system_id":"levelo_inurba_marseille","lat":43.26949,"lon":5.40248,"is_reserved":false,"is_disabled":false,"rental_uris":{"android":"levelo://app?vid=b4474592-0bfd-4522-9c7c-3a54f63bd9ca","ios":"levelo://app?vid=b4474592-0bfd-4522-9c7c-3a54f63bd9ca"},"vehicle_type_id":"4","last_reported":1701659278,"current_range_meters":27600,"station_id":"cjm6bp8fraef2m0cb0m0","pricing_plan_id":"free"},{"bike_id":"08c0ebf9-bf3e-4259-9641-66f2fdb4dde0","system_id":"levelo_inurba_marseille","lat":43.317104,"lon":5.436818,"is_reserved":false,"is_disabled":false,"rental_uris":{"android":"levelo://app?vid=08c0ebf9-bf3e-4259-9641-66f2fdb4dde0","ios":"levelo://app?vid=08c0ebf9-bf3e-4259-9641-66f2fdb4dde0"},"vehicle_type_id":"4","last_reported":1701659278,"current_range_meters":29600,"station_id":"ce4bhp92rcd13ifvqhcg","pricing_plan_id":"free"},{"bike_id":"b3a4a88c-d155-447c-ad55-fd92c25575ce","system_id":"levelo_inurba_marseille","lat":43.262012,"lon":5.379307,"is_reserved":false,"is_disabled":false,"rental_uris":{"android":"levelo://app?vid=b3a4a88c-d155-447c-ad55-fd92c25575ce","ios":"levelo://app?vid=b3a4a88c-d155-447c-ad55-fd92c25575ce"},"vehicle_type_id":"4","last_reported":1701659278,"current_range_meters":29200,"station_id":"ce4bhjp2rcd13ifvqg90","pricing_plan_id":"free"},{"bike_id":"3bb6943d-b5fe-4de5-88be-a93b0167c81b","system_id":"levelo_inurba_marseille","lat":43.281548,"lon":5.42643,"is_reserved":false,"is_disabled":false,"rental_uris":{"android":"levelo://app?vid=3bb6943d-b5fe-4de5-88be-a93b0167c81b","ios":"levelo://app?vid=3bb6943d-b5fe-4de5-88be-a93b0167c81b"},"vehicle_type_id":"4","last_reported":1701659278,"current_range_meters":27600,"station_id":"ce4bhnh2rcd13ifvqgug","pricing_plan_id":"free"},{"bike_id":"7a96db8f-5eb4-405b-8773-67506ad37afb","system_id":"levelo_inurba_marseille","lat":43.28153,"lon":5.42644,"is_reserved":false,"is_disabled":false,"rental_uris":{"android":"levelo://app?vid=7a96db8f-5eb4-405b-8773-67506ad37afb","ios":"levelo://app?vid=7a96db8f-5eb4-405b-8773-67506ad37afb"},"vehicle_type_id":"4","last_reported":1701659278,"current_range_meters":10800,"station_id":"ce4bhnh2rcd13ifvqgug","pricing_plan_id":"free"},{"bike_id":"0fd8254e-a95a-4dc5-963d-03782d038304","system_id":"levelo_inurba_marseille","lat":43.2815,"lon":5.42647,"is_reserved":false,"is_disabled":false,"rental_uris":{"android":"levelo://app?vid=0fd8254e-a95a-4dc5-963d-03782d038304","ios":"levelo://app?vid=0fd8254e-a95a-4dc5-963d-03782d038304"},"vehicle_type_id":"4","last_reported":1701659278,"current_range_meters":21200,"station_id":"ce4bhnh2rcd13ifvqgug","pricing_plan_id":"free"},{"bike_id":"63ddc37c-e512-4caa-8ae9-10712b82c20b","system_id":"levelo_inurba_marseille","lat":43.281526,"lon":5.426497,"is_reserved":false,"is_disabled":false,"rental_uris":{"android":"levelo://app?vid=63ddc37c-e512-4caa-8ae9-10712b82c20b","ios":"levelo://app?vid=63ddc37c-e512-4caa-8ae9-10712b82c20b"},"vehicle_type_id":"4","last_reported":1701659278,"current_range_meters":8800,"station_id":"ce4bhnh2rcd13ifvqgug","pricing_plan_id":"free"},{"bike_id":"5b3e0566-b00a-45ce-bada-6ddf6f7727ce","system_id":"levelo_inurba_marseille","lat":43.2815,"lon":5.42649,"is_reserved":false,"is_disabled":false,"rental_uris":{"android":"levelo://app?vid=5b3e0566-b00a-45ce-bada-6ddf6f7727ce","ios":"levelo://app?vid=5b3e0566-b00a-45ce-bada-6ddf6f7727ce"},"vehicle_type_id":"4","last_reported":1701659278,"current_range_meters":17600,"station_id":"ce4bhnh2rcd13ifvqgug","pricing_plan_id":"free"},{"bike_id":"17f35e7a-e54c-4208-a0bd-45b6b8360203","system_id":"levelo_inurba_marseille","lat":43.27504,"lon":5.42451,"is_reserved":false,"is_disabled":false,"rental_uris":{"android":"levelo://app?vid=17f35e7a-e54c-4208-a0bd-45b6b8360203","ios":"levelo://app?vid=17f35e7a-e54c-4208-a0bd-45b6b8360203"},"vehicle_type_id":"4","last_reported":1701659278,"current_range_meters":22000,"station_id":"ce4bhn92rcd13ifvqgrg","pricing_plan_id":"free"},{"bike_id":"2896d740-c829-4769-ab23-e2aa604b10cd","system_id":"levelo_inurba_marseille","lat":43.274936,"lon":5.424518,"is_reserved":false,"is_disabled":false,"rental_uris":{"android":"levelo://app?vid=2896d740-c829-4769-ab23-e2aa604b10cd","ios":"levelo://app?vid=2896d740-c829-4769-ab23-e2aa604b10cd"},"vehicle_type_id":"4","last_reported":1701659278,"current_range_meters":29600,"station_id":"ce4bhn92rcd13ifvqgrg","pricing_plan_id":"free"},{"bike_id":"b84c7cf6-2ad8-4347-b6e8-77b2394a0e95","system_id":"levelo_inurba_marseille","lat":43.255763,"lon":5.382366,"is_reserved":false,"is_disabled":false,"rental_uris":{"android":"levelo://app?vid=b84c7cf6-2ad8-4347-b6e8-77b2394a0e95","ios":"levelo://app?vid=b84c7cf6-2ad8-4347-b6e8-77b2394a0e95"},"vehicle_type_id":"4","last_reported":1701659278,"current_range_meters":24800,"station_id":"ce4bhih2rcd13ifvqfs0","pricing_plan_id":"free"},{"bike_id":"bdea206e-1802-42c9-a0bc-64f175e8b92f","system_id":"levelo_inurba_marseille","lat":43.270721,"lon":5.422764,"is_reserved":false,"is_disabled":false,"rental_uris":{"android":"levelo://app?vid=bdea206e-1802-42c9-a0bc-64f175e8b92f","ios":"levelo://app?vid=bdea206e-1802-42c9-a0bc-64f175e8b92f"},"vehicle_type_id":"4","last_reported":1701659278,"current_range_meters":9600,"station_id":"ce4bhk92rcd13ifvqgb0","pricing_plan_id":"free"},{"bike_id":"91e9a8ab-02bf-4fcc-b8f1-587cd6d6e2d5","system_id":"levelo_inurba_marseille","lat":43.270721,"lon":5.422764,"is_reserved":false,"is_disabled":false,"rental_uris":{"android":"levelo://app?vid=91e9a8ab-02bf-4fcc-b8f1-587cd6d6e2d5","ios":"levelo://app?vid=91e9a8ab-02bf-4fcc-b8f1-587cd6d6e2d5"},"vehicle_type_id":"4","last_reported":1701659278,"current_range_meters":30800,"station_id":"ce4bhk92rcd13ifvqgb0","pricing_plan_id":"free"},{"bike_id":"e6fee166-d8ae-4019-abb3-6c4f3b176b93","system_id":"levelo_inurba_marseille","lat":43.270721,"lon":5.422764,"is_reserved":false,"is_disabled":false,"rental_uris":{"android":"levelo://app?vid=e6fee166-d8ae-4019-abb3-6c4f3b176b93","ios":"levelo://app?vid=e6fee166-d8ae-4019-abb3-6c4f3b176b93"},"vehicle_type_id":"4","last_reported":1701659278,"current_range_meters":31200,"station_id":"ce4bhk92rcd13ifvqgb0","pricing_plan_id":"free"},{"bike_id":"c5dda8c0-469f-496a-a8f7-bbd1aa160ecf","system_id":"levelo_inurba_marseille","lat":43.270721,"lon":5.422764,"is_reserved":false,"is_disabled":false,"rental_uris":{"android":"levelo://app?vid=c5dda8c0-469f-496a-a8f7-bbd1aa160ecf","ios":"levelo://app?vid=c5dda8c0-469f-496a-a8f7-bbd1aa160ecf"},"vehicle_type_id":"4","last_reported":1701659278,"current_range_meters":14000,"station_id":"ce4bhk92rcd13ifvqgb0","pricing_plan_id":"free"},{"bike_id":"fc9aece4-475e-42e6-9aa9-4b31f99f89e4","system_id":"levelo_inurba_marseille","lat":43.258658,"lon":5.398935,"is_reserved":false,"is_disabled":false,"rental_uris":{"android":"levelo://app?vid=fc9aece4-475e-42e6-9aa9-4b31f99f89e4","ios":"levelo://app?vid=fc9aece4-475e-42e6-9aa9-4b31f99f89e4"},"vehicle_type_id":"4","last_reported":1701659278,"current_range_meters":30400,"station_id":"ce4bhl92rcd13ifvqghg","pricing_plan_id":"free"},{"bike_id":"ca9d0f5d-2933-436c-b221-f85ad9761023","system_id":"levelo_inurba_marseille","lat":43.257079,"lon":5.411051,"is_reserved":false,"is_disabled":false,"rental_uris":{"android":"levelo://app?vid=ca9d0f5d-2933-436c-b221-f85ad9761023","ios":"levelo://app?vid=ca9d0f5d-2933-436c-b221-f85ad9761023"},"vehicle_type_id":"4","last_reported":1701659278,"current_range_meters":30800,"station_id":"ce4bhkp2rcd13ifvqgd0","pricing_plan_id":"free"},{"bike_id":"88b6a1e0-be91-4dd6-8383-ad17e0115ed3","system_id":"levelo_inurba_marseille","lat":43.250009,"lon":5.389195,"is_reserved":false,"is_disabled":false,"rental_uris":{"android":"levelo://app?vid=88b6a1e0-be91-4dd6-8383-ad17e0115ed3","ios":"levelo://app?vid=88b6a1e0-be91-4dd6-8383-ad17e0115ed3"},"vehicle_type_id":"4","last_reported":1701659278,"current_range_meters":30000,"station_id":"ce4bhgp2rcd13ifvqfd0","pricing_plan_id":"free"},{"bike_id":"d10a0046-453f-46e2-bcb4-5558cad0a0ca","system_id":"levelo_inurba_marseille","lat":43.250009,"lon":5.389195,"is_reserved":false,"is_disabled":false,"rental_uris":{"android":"levelo://app?vid=d10a0046-453f-46e2-bcb4-5558cad0a0ca","ios":"levelo://app?vid=d10a0046-453f-46e2-bcb4-5558cad0a0ca"},"vehicle_type_id":"4","last_reported":1701659278,"current_range_meters":29600,"station_id":"ce4bhgp2rcd13ifvqfd0","pricing_plan_id":"free"},{"bike_id":"a57c4884-a0db-43bb-9463-71f3c6989248","system_id":"levelo_inurba_marseille","lat":43.250023,"lon":5.38919,"is_reserved":false,"is_disabled":false,"rental_uris":{"android":"levelo://app?vid=a57c4884-a0db-43bb-9463-71f3c6989248","ios":"levelo://app?vid=a57c4884-a0db-43bb-9463-71f3c6989248"},"vehicle_type_id":"4","last_reported":1701659278,"current_range_meters":30400,"station_id":"ce4bhgp2rcd13ifvqfd0","pricing_plan_id":"free"},{"bike_id":"f3031a93-c812-47f9-befb-cee3e4d878fb","system_id":"levelo_inurba_marseille","lat":43.2479,"lon":5.374457,"is_reserved":false,"is_disabled":false,"rental_uris":{"android":"levelo://app?vid=f3031a93-c812-47f9-befb-cee3e4d878fb","ios":"levelo://app?vid=f3031a93-c812-47f9-befb-cee3e4d878fb"},"vehicle_type_id":"4","last_reported":1701659278,"current_range_meters":30400,"station_id":"ce4bhgh2rcd13ifvqfb0","pricing_plan_id":"free"},{"bike_id":"95315ee5-452e-4237-9ab9-136307729c49","system_id":"levelo_inurba_marseille","lat":43.2479,"lon":5.374457,"is_reserved":false,"is_disabled":false,"rental_uris":{"android":"levelo://app?vid=95315ee5-452e-4237-9ab9-136307729c49","ios":"levelo://app?vid=95315ee5-452e-4237-9ab9-136307729c49"},"vehicle_type_id":"4","last_reported":1701659278,"current_range_meters":23600,"station_id":"ce4bhgh2rcd13ifvqfb0","pricing_plan_id":"free"},{"bike_id":"c44bfe06-236e-4b9f-aab8-9a279bba123a","system_id":"levelo_inurba_marseille","lat":43.2479,"lon":5.374457,"is_reserved":false,"is_disabled":false,"rental_uris":{"android":"levelo://app?vid=c44bfe06-236e-4b9f-aab8-9a279bba123a","ios":"levelo://app?vid=c44bfe06-236e-4b9f-aab8-9a279bba123a"},"vehicle_type_id":"4","last_reported":1701659278,"current_range_meters":22800,"station_id":"ce4bhgh2rcd13ifvqfb0","pricing_plan_id":"free"},{"bike_id":"2991e689-649d-4f95-9ad5-1f501c09a58e","system_id":"levelo_inurba_marseille","lat":43.2479,"lon":5.374457,"is_reserved":false,"is_disabled":false,"rental_uris":{"android":"levelo://app?vid=2991e689-649d-4f95-9ad5-1f501c09a58e","ios":"levelo://app?vid=2991e689-649d-4f95-9ad5-1f501c09a58e"},"vehicle_type_id":"4","last_reported":1701659278,"current_range_meters":14000,"station_id":"ce4bhgh2rcd13ifvqfb0","pricing_plan_id":"free"},{"bike_id":"76aa2603-6a07-4909-b974-d1d2d0a62340","system_id":"levelo_inurba_marseille","lat":43.2479,"lon":5.374457,"is_reserved":false,"is_disabled":false,"rental_uris":{"android":"levelo://app?vid=76aa2603-6a07-4909-b974-d1d2d0a62340","ios":"levelo://app?vid=76aa2603-6a07-4909-b974-d1d2d0a62340"},"vehicle_type_id":"4","last_reported":1701659278,"current_range_meters":15600,"station_id":"ce4bhgh2rcd13ifvqfb0","pricing_plan_id":"free"},{"bike_id":"ab651f20-342c-401a-ba35-80bb8d257ab6","system_id":"levelo_inurba_marseille","lat":43.2479,"lon":5.374457,"is_reserved":false,"is_disabled":false,"rental_uris":{"android":"levelo://app?vid=ab651f20-342c-401a-ba35-80bb8d257ab6","ios":"levelo://app?vid=ab651f20-342c-401a-ba35-80bb8d257ab6"},"vehicle_type_id":"4","last_reported":1701659278,"current_range_meters":30000,"station_id":"ce4bhgh2rcd13ifvqfb0","pricing_plan_id":"free"},{"bike_id":"3ce492b4-56c5-4765-8b5b-9b637cfa3a78","system_id":"levelo_inurba_marseille","lat":43.24668,"lon":5.38165,"is_reserved":false,"is_disabled":false,"rental_uris":{"android":"levelo://app?vid=3ce492b4-56c5-4765-8b5b-9b637cfa3a78","ios":"levelo://app?vid=3ce492b4-56c5-4765-8b5b-9b637cfa3a78"},"vehicle_type_id":"4","last_reported":1701659278,"current_range_meters":18800,"station_id":"ce4bhih2rcd13ifvqfr0","pricing_plan_id":"free"},{"bike_id":"2b3584ea-ff18-4cbc-96e7-77f923d9f451","system_id":"levelo_inurba_marseille","lat":43.24693,"lon":5.382096,"is_reserved":false,"is_disabled":false,"rental_uris":{"android":"levelo://app?vid=2b3584ea-ff18-4cbc-96e7-77f923d9f451","ios":"levelo://app?vid=2b3584ea-ff18-4cbc-96e7-77f923d9f451"},"vehicle_type_id":"4","last_reported":1701659278,"current_range_meters":22800,"station_id":"ce4bhih2rcd13ifvqfr0","pricing_plan_id":"free"},{"bike_id":"2f185611-03fb-401c-be92-79ce82267c3e","system_id":"levelo_inurba_marseille","lat":43.24658,"lon":5.38161,"is_reserved":false,"is_disabled":false,"rental_uris":{"android":"levelo://app?vid=2f185611-03fb-401c-be92-79ce82267c3e","ios":"levelo://app?vid=2f185611-03fb-401c-be92-79ce82267c3e"},"vehicle_type_id":"4","last_reported":1701659278,"current_range_meters":14800,"station_id":"ce4bhih2rcd13ifvqfr0","pricing_plan_id":"free"},{"bike_id":"75d46db8-3715-440c-b22a-71065c63321a","system_id":"levelo_inurba_marseille","lat":43.25102,"lon":5.403214,"is_reserved":false,"is_disabled":false,"rental_uris":{"android":"levelo://app?vid=75d46db8-3715-440c-b22a-71065c63321a","ios":"levelo://app?vid=75d46db8-3715-440c-b22a-71065c63321a"},"vehicle_type_id":"4","last_reported":1701659278,"current_range_meters":28800,"station_id":"ce4bhlh2rcd13ifvqgig","pricing_plan_id":"free"},{"bike_id":"0b4d43f8-4b31-4b54-8b03-c02db7df8d78","system_id":"levelo_inurba_marseille","lat":43.251106,"lon":5.403232,"is_reserved":false,"is_disabled":false,"rental_uris":{"android":"levelo://app?vid=0b4d43f8-4b31-4b54-8b03-c02db7df8d78","ios":"levelo://app?vid=0b4d43f8-4b31-4b54-8b03-c02db7df8d78"},"vehicle_type_id":"4","last_reported":1701659278,"current_range_meters":14000,"station_id":"ce4bhlh2rcd13ifvqgig","pricing_plan_id":"free"},{"bike_id":"47218376-6c80-47cd-991a-4badc7584f1a","system_id":"levelo_inurba_marseille","lat":43.25102,"lon":5.403214,"is_reserved":false,"is_disabled":false,"rental_uris":{"android":"levelo://app?vid=47218376-6c80-47cd-991a-4badc7584f1a","ios":"levelo://app?vid=47218376-6c80-47cd-991a-4badc7584f1a"},"vehicle_type_id":"4","last_reported":1701659278,"current_range_meters":27200,"station_id":"ce4bhlh2rcd13ifvqgig","pricing_plan_id":"free"},{"bike_id":"01d38d9d-a050-4ebb-b588-d2d5ba062212","system_id":"levelo_inurba_marseille","lat":43.246467,"lon":5.388984,"is_reserved":false,"is_disabled":false,"rental_uris":{"android":"levelo://app?vid=01d38d9d-a050-4ebb-b588-d2d5ba062212","ios":"levelo://app?vid=01d38d9d-a050-4ebb-b588-d2d5ba062212"},"vehicle_type_id":"4","last_reported":1701659278,"current_range_meters":26800,"station_id":"ce4bhg12rcd13ifvqf60","pricing_plan_id":"free"},{"bike_id":"b147e189-f8d6-4f19-b83d-273cd9dabf73","system_id":"levelo_inurba_marseille","lat":43.240623,"lon":5.377642,"is_reserved":false,"is_disabled":false,"rental_uris":{"android":"levelo://app?vid=b147e189-f8d6-4f19-b83d-273cd9dabf73","ios":"levelo://app?vid=b147e189-f8d6-4f19-b83d-273cd9dabf73"},"vehicle_type_id":"4","last_reported":1701659278,"current_range_meters":11600,"station_id":"ce4bhnp2rcd13ifvqgvg","pricing_plan_id":"free"},{"bike_id":"c75b2ba4-b197-45b4-91b3-d622061740e4","system_id":"levelo_inurba_marseille","lat":43.240623,"lon":5.377642,"is_reserved":false,"is_disabled":false,"rental_uris":{"android":"levelo://app?vid=c75b2ba4-b197-45b4-91b3-d622061740e4","ios":"levelo://app?vid=c75b2ba4-b197-45b4-91b3-d622061740e4"},"vehicle_type_id":"4","last_reported":1701659278,"current_range_meters":31600,"station_id":"ce4bhnp2rcd13ifvqgvg","pricing_plan_id":"free"},{"bike_id":"66d07158-1c05-469e-a266-b66692f04cb5","system_id":"levelo_inurba_marseille","lat":43.239588,"lon":5.366238,"is_reserved":false,"is_disabled":false,"rental_uris":{"android":"levelo://app?vid=66d07158-1c05-469e-a266-b66692f04cb5","ios":"levelo://app?vid=66d07158-1c05-469e-a266-b66692f04cb5"},"vehicle_type_id":"4","last_reported":1701659278,"current_range_meters":31200,"station_id":"ce4bhi12rcd13ifvqfp0","pricing_plan_id":"free"},{"bike_id":"f2d1c53e-c9ac-415e-8fd6-e07b040e3303","system_id":"levelo_inurba_marseille","lat":43.2396,"lon":5.36628,"is_reserved":false,"is_disabled":false,"rental_uris":{"android":"levelo://app?vid=f2d1c53e-c9ac-415e-8fd6-e07b040e3303","ios":"levelo://app?vid=f2d1c53e-c9ac-415e-8fd6-e07b040e3303"},"vehicle_type_id":"4","last_reported":1701659278,"current_range_meters":21200,"station_id":"ce4bhi12rcd13ifvqfp0","pricing_plan_id":"free"},{"bike_id":"a3aad75b-64ef-4634-9f77-a5b976c8f7fb","system_id":"levelo_inurba_marseille","lat":43.241746,"lon":5.397156,"is_reserved":false,"is_disabled":false,"rental_uris":{"android":"levelo://app?vid=a3aad75b-64ef-4634-9f77-a5b976c8f7fb","ios":"levelo://app?vid=a3aad75b-64ef-4634-9f77-a5b976c8f7fb"},"vehicle_type_id":"4","last_reported":1701659278,"current_range_meters":31200,"station_id":"ce4bhn12rcd13ifvqgpg","pricing_plan_id":"free"},{"bike_id":"87815193-0a9e-4a5a-8f22-63817bf9d429","system_id":"levelo_inurba_marseille","lat":43.23194,"lon":5.3555,"is_reserved":false,"is_disabled":false,"rental_uris":{"android":"levelo://app?vid=87815193-0a9e-4a5a-8f22-63817bf9d429","ios":"levelo://app?vid=87815193-0a9e-4a5a-8f22-63817bf9d429"},"vehicle_type_id":"4","last_reported":1701659278,"current_range_meters":27600,"station_id":"ce4bhu92rcd13ifvqi70","pricing_plan_id":"free"},{"bike_id":"58d4edcd-4441-486c-8457-28ebda4ac431","system_id":"levelo_inurba_marseille","lat":43.23194,"lon":5.35545,"is_reserved":false,"is_disabled":false,"rental_uris":{"android":"levelo://app?vid=58d4edcd-4441-486c-8457-28ebda4ac431","ios":"levelo://app?vid=58d4edcd-4441-486c-8457-28ebda4ac431"},"vehicle_type_id":"4","last_reported":1701659278,"current_range_meters":17600,"station_id":"ce4bhu92rcd13ifvqi70","pricing_plan_id":"free"},{"bike_id":"2b04708e-eed8-4471-916a-9fdeea01eec7","system_id":"levelo_inurba_marseille","lat":43.231923,"lon":5.355545,"is_reserved":false,"is_disabled":false,"rental_uris":{"android":"levelo://app?vid=2b04708e-eed8-4471-916a-9fdeea01eec7","ios":"levelo://app?vid=2b04708e-eed8-4471-916a-9fdeea01eec7"},"vehicle_type_id":"4","last_reported":1701659278,"current_range_meters":29600,"station_id":"ce4bhu92rcd13ifvqi70","pricing_plan_id":"free"},{"bike_id":"cf3102c4-88e0-4a41-86b7-69a76932d3e6","system_id":"levelo_inurba_marseille","lat":43.231923,"lon":5.355545,"is_reserved":false,"is_disabled":false,"rental_uris":{"android":"levelo://app?vid=cf3102c4-88e0-4a41-86b7-69a76932d3e6","ios":"levelo://app?vid=cf3102c4-88e0-4a41-86b7-69a76932d3e6"},"vehicle_type_id":"4","last_reported":1701659278,"current_range_meters":31200,"station_id":"ce4bhu92rcd13ifvqi70","pricing_plan_id":"free"},{"bike_id":"9e01ee59-41e6-425c-ae1f-3e33312fefcd","system_id":"levelo_inurba_marseille","lat":43.231923,"lon":5.355545,"is_reserved":false,"is_disabled":false,"rental_uris":{"android":"levelo://app?vid=9e01ee59-41e6-425c-ae1f-3e33312fefcd","ios":"levelo://app?vid=9e01ee59-41e6-425c-ae1f-3e33312fefcd"},"vehicle_type_id":"4","last_reported":1701659278,"current_range_meters":13600,"station_id":"ce4bhu92rcd13ifvqi70","pricing_plan_id":"free"},{"bike_id":"6041d620-664b-4836-b597-a0e62593a032","system_id":"levelo_inurba_marseille","lat":43.231923,"lon":5.355545,"is_reserved":false,"is_disabled":false,"rental_uris":{"android":"levelo://app?vid=6041d620-664b-4836-b597-a0e62593a032","ios":"levelo://app?vid=6041d620-664b-4836-b597-a0e62593a032"},"vehicle_type_id":"4","last_reported":1701659278,"current_range_meters":26000,"station_id":"ce4bhu92rcd13ifvqi70","pricing_plan_id":"free"},{"bike_id":"a2778a75-2f32-457d-810c-ad5c32010803","system_id":"levelo_inurba_marseille","lat":43.2319,"lon":5.35557,"is_reserved":false,"is_disabled":false,"rental_uris":{"android":"levelo://app?vid=a2778a75-2f32-457d-810c-ad5c32010803","ios":"levelo://app?vid=a2778a75-2f32-457d-810c-ad5c32010803"},"vehicle_type_id":"4","last_reported":1701659278,"current_range_meters":17600,"station_id":"ce4bhu92rcd13ifvqi70","pricing_plan_id":"free"},{"bike_id":"8f0fb87f-53e2-432d-b05f-ab1e816b61dc","system_id":"levelo_inurba_marseille","lat":43.231794,"lon":5.400052,"is_reserved":false,"is_disabled":false,"rental_uris":{"android":"levelo://app?vid=8f0fb87f-53e2-432d-b05f-ab1e816b61dc","ios":"levelo://app?vid=8f0fb87f-53e2-432d-b05f-ab1e816b61dc"},"vehicle_type_id":"4","last_reported":1701659278,"current_range_meters":31200,"station_id":"ce4bhn12rcd13ifvqgqg","pricing_plan_id":"free"},{"bike_id":"6bd9f065-50d9-4657-9ca0-a006f413d305","system_id":"levelo_inurba_marseille","lat":43.231794,"lon":5.400052,"is_reserved":false,"is_disabled":false,"rental_uris":{"android":"levelo://app?vid=6bd9f065-50d9-4657-9ca0-a006f413d305","ios":"levelo://app?vid=6bd9f065-50d9-4657-9ca0-a006f413d305"},"vehicle_type_id":"4","last_reported":1701659278,"current_range_meters":31200,"station_id":"ce4bhn12rcd13ifvqgqg","pricing_plan_id":"free"},{"bike_id":"88cf855f-bb31-40e0-8afc-686df3c193ab","system_id":"levelo_inurba_marseille","lat":43.231794,"lon":5.400052,"is_reserved":false,"is_disabled":false,"rental_uris":{"android":"levelo://app?vid=88cf855f-bb31-40e0-8afc-686df3c193ab","ios":"levelo://app?vid=88cf855f-bb31-40e0-8afc-686df3c193ab"},"vehicle_type_id":"4","last_reported":1701659278,"current_range_meters":28800,"station_id":"ce4bhn12rcd13ifvqgqg","pricing_plan_id":"free"},{"bike_id":"118d4a35-86b4-49cc-8abc-987caa7ffe62","system_id":"levelo_inurba_marseille","lat":43.231904,"lon":5.399866,"is_reserved":false,"is_disabled":false,"rental_uris":{"android":"levelo://app?vid=118d4a35-86b4-49cc-8abc-987caa7ffe62","ios":"levelo://app?vid=118d4a35-86b4-49cc-8abc-987caa7ffe62"},"vehicle_type_id":"4","last_reported":1701659278,"current_range_meters":30000,"station_id":"ce4bhn12rcd13ifvqgqg","pricing_plan_id":"free"},{"bike_id":"554e18bc-f6bd-448a-9d3a-a49810d0b6de","system_id":"levelo_inurba_marseille","lat":43.231794,"lon":5.400052,"is_reserved":false,"is_disabled":false,"rental_uris":{"android":"levelo://app?vid=554e18bc-f6bd-448a-9d3a-a49810d0b6de","ios":"levelo://app?vid=554e18bc-f6bd-448a-9d3a-a49810d0b6de"},"vehicle_type_id":"4","last_reported":1701659278,"current_range_meters":16000,"station_id":"ce4bhn12rcd13ifvqgqg","pricing_plan_id":"free"},{"bike_id":"d7955d6f-88ae-4e83-97c1-4a0668d076f6","system_id":"levelo_inurba_marseille","lat":43.231794,"lon":5.400052,"is_reserved":false,"is_disabled":false,"rental_uris":{"android":"levelo://app?vid=d7955d6f-88ae-4e83-97c1-4a0668d076f6","ios":"levelo://app?vid=d7955d6f-88ae-4e83-97c1-4a0668d076f6"},"vehicle_type_id":"4","last_reported":1701659278,"current_range_meters":16400,"station_id":"ce4bhn12rcd13ifvqgqg","pricing_plan_id":"free"},{"bike_id":"22bd98e3-c33f-4c44-ae2b-f96729d36f4f","system_id":"levelo_inurba_marseille","lat":43.231793,"lon":5.400044,"is_reserved":false,"is_disabled":false,"rental_uris":{"android":"levelo://app?vid=22bd98e3-c33f-4c44-ae2b-f96729d36f4f","ios":"levelo://app?vid=22bd98e3-c33f-4c44-ae2b-f96729d36f4f"},"vehicle_type_id":"4","last_reported":1701659278,"current_range_meters":31200,"station_id":"ce4bhn12rcd13ifvqgqg","pricing_plan_id":"free"},{"bike_id":"3fdd6789-d52a-4c7f-96f4-f754cbf436d6","system_id":"levelo_inurba_marseille","lat":43.23188,"lon":5.39984,"is_reserved":false,"is_disabled":false,"rental_uris":{"android":"levelo://app?vid=3fdd6789-d52a-4c7f-96f4-f754cbf436d6","ios":"levelo://app?vid=3fdd6789-d52a-4c7f-96f4-f754cbf436d6"},"vehicle_type_id":"4","last_reported":1701659278,"current_range_meters":30000,"station_id":"ce4bhn12rcd13ifvqgqg","pricing_plan_id":"free"},{"bike_id":"e44db449-6914-4cfb-bde0-4c3cbeca97c3","system_id":"levelo_inurba_marseille","lat":43.231794,"lon":5.400052,"is_reserved":false,"is_disabled":false,"rental_uris":{"android":"levelo://app?vid=e44db449-6914-4cfb-bde0-4c3cbeca97c3","ios":"levelo://app?vid=e44db449-6914-4cfb-bde0-4c3cbeca97c3"},"vehicle_type_id":"4","last_reported":1701659278,"current_range_meters":31200,"station_id":"ce4bhn12rcd13ifvqgqg","pricing_plan_id":"free"},{"bike_id":"8bb4a4e8-9672-4d13-b6c9-9d0eb28673b3","system_id":"levelo_inurba_marseille","lat":43.231793,"lon":5.400044,"is_reserved":false,"is_disabled":false,"rental_uris":{"android":"levelo://app?vid=8bb4a4e8-9672-4d13-b6c9-9d0eb28673b3","ios":"levelo://app?vid=8bb4a4e8-9672-4d13-b6c9-9d0eb28673b3"},"vehicle_type_id":"4","last_reported":1701659278,"current_range_meters":30000,"station_id":"ce4bhn12rcd13ifvqgqg","pricing_plan_id":"free"},{"bike_id":"ab5eae98-96ca-4718-91b7-353de917f40d","system_id":"levelo_inurba_marseille","lat":43.231793,"lon":5.400044,"is_reserved":false,"is_disabled":false,"rental_uris":{"android":"levelo://app?vid=ab5eae98-96ca-4718-91b7-353de917f40d","ios":"levelo://app?vid=ab5eae98-96ca-4718-91b7-353de917f40d"},"vehicle_type_id":"4","last_reported":1701659278,"current_range_meters":31200,"station_id":"ce4bhn12rcd13ifvqgqg","pricing_plan_id":"free"},{"bike_id":"e47e98e0-4256-4c41-ae86-e531a41b9213","system_id":"levelo_inurba_marseille","lat":43.231794,"lon":5.400052,"is_reserved":false,"is_disabled":false,"rental_uris":{"android":"levelo://app?vid=e47e98e0-4256-4c41-ae86-e531a41b9213","ios":"levelo://app?vid=e47e98e0-4256-4c41-ae86-e531a41b9213"},"vehicle_type_id":"4","last_reported":1701659278,"current_range_meters":31200,"station_id":"ce4bhn12rcd13ifvqgqg","pricing_plan_id":"free"},{"bike_id":"4ee99995-f63f-4ddb-ac4b-88a5ee23324c","system_id":"levelo_inurba_marseille","lat":43.231794,"lon":5.400052,"is_reserved":false,"is_disabled":false,"rental_uris":{"android":"levelo://app?vid=4ee99995-f63f-4ddb-ac4b-88a5ee23324c","ios":"levelo://app?vid=4ee99995-f63f-4ddb-ac4b-88a5ee23324c"},"vehicle_type_id":"4","last_reported":1701659278,"current_range_meters":30400,"station_id":"ce4bhn12rcd13ifvqgqg","pricing_plan_id":"free"},{"bike_id":"457c552c-8af5-4b7b-9f6b-8c901265a623","system_id":"levelo_inurba_marseille","lat":43.231868,"lon":5.399874,"is_reserved":false,"is_disabled":false,"rental_uris":{"android":"levelo://app?vid=457c552c-8af5-4b7b-9f6b-8c901265a623","ios":"levelo://app?vid=457c552c-8af5-4b7b-9f6b-8c901265a623"},"vehicle_type_id":"4","last_reported":1701659278,"current_range_meters":25600,"station_id":"ce4bhn12rcd13ifvqgqg","pricing_plan_id":"free"},{"bike_id":"0cf73e26-cfe4-495a-8675-6603ab968aec","system_id":"levelo_inurba_marseille","lat":43.231794,"lon":5.400052,"is_reserved":false,"is_disabled":false,"rental_uris":{"android":"levelo://app?vid=0cf73e26-cfe4-495a-8675-6603ab968aec","ios":"levelo://app?vid=0cf73e26-cfe4-495a-8675-6603ab968aec"},"vehicle_type_id":"4","last_reported":1701659278,"current_range_meters":30400,"station_id":"ce4bhn12rcd13ifvqgqg","pricing_plan_id":"free"},{"bike_id":"4c8d669a-b5bc-4cf0-b8bd-219da83f4ef3","system_id":"levelo_inurba_marseille","lat":43.231866,"lon":5.39994,"is_reserved":false,"is_disabled":false,"rental_uris":{"android":"levelo://app?vid=4c8d669a-b5bc-4cf0-b8bd-219da83f4ef3","ios":"levelo://app?vid=4c8d669a-b5bc-4cf0-b8bd-219da83f4ef3"},"vehicle_type_id":"4","last_reported":1701659278,"current_range_meters":15600,"station_id":"ce4bhn12rcd13ifvqgqg","pricing_plan_id":"free"},{"bike_id":"5d9be6d5-2985-432d-ac4f-8e0798b2a0ac","system_id":"levelo_inurba_marseille","lat":43.231793,"lon":5.400044,"is_reserved":false,"is_disabled":false,"rental_uris":{"android":"levelo://app?vid=5d9be6d5-2985-432d-ac4f-8e0798b2a0ac","ios":"levelo://app?vid=5d9be6d5-2985-432d-ac4f-8e0798b2a0ac"},"vehicle_type_id":"4","last_reported":1701659278,"current_range_meters":30400,"station_id":"ce4bhn12rcd13ifvqgqg","pricing_plan_id":"free"},{"bike_id":"77b1a551-da7f-429a-980e-bfc6767a5958","system_id":"levelo_inurba_marseille","lat":43.231794,"lon":5.400052,"is_reserved":false,"is_disabled":false,"rental_uris":{"android":"levelo://app?vid=77b1a551-da7f-429a-980e-bfc6767a5958","ios":"levelo://app?vid=77b1a551-da7f-429a-980e-bfc6767a5958"},"vehicle_type_id":"4","last_reported":1701659278,"current_range_meters":31200,"station_id":"ce4bhn12rcd13ifvqgqg","pricing_plan_id":"free"},{"bike_id":"7119d2ec-3a1f-47f1-97aa-a12f1d72912d","system_id":"levelo_inurba_marseille","lat":43.231814,"lon":5.399928,"is_reserved":false,"is_disabled":false,"rental_uris":{"android":"levelo://app?vid=7119d2ec-3a1f-47f1-97aa-a12f1d72912d","ios":"levelo://app?vid=7119d2ec-3a1f-47f1-97aa-a12f1d72912d"},"vehicle_type_id":"4","last_reported":1701659278,"current_range_meters":29600,"station_id":"ce4bhn12rcd13ifvqgqg","pricing_plan_id":"free"},{"bike_id":"9a101203-a4c3-4653-b04e-23d858664d35","system_id":"levelo_inurba_marseille","lat":43.231562,"lon":5.436933,"is_reserved":false,"is_disabled":false,"rental_uris":{"android":"levelo://app?vid=9a101203-a4c3-4653-b04e-23d858664d35","ios":"levelo://app?vid=9a101203-a4c3-4653-b04e-23d858664d35"},"vehicle_type_id":"4","last_reported":1701659278,"current_range_meters":27600,"station_id":"ce4bhmp2rcd13ifvqgog","pricing_plan_id":"free"},{"bike_id":"818b7971-a62f-4d0c-b4d6-ebcff5688a44","system_id":"levelo_inurba_marseille","lat":43.231562,"lon":5.436933,"is_reserved":false,"is_disabled":false,"rental_uris":{"android":"levelo://app?vid=818b7971-a62f-4d0c-b4d6-ebcff5688a44","ios":"levelo://app?vid=818b7971-a62f-4d0c-b4d6-ebcff5688a44"},"vehicle_type_id":"4","last_reported":1701659278,"current_range_meters":26400,"station_id":"ce4bhmp2rcd13ifvqgog","pricing_plan_id":"free"},{"bike_id":"2e1f4911-ec15-4212-aa8f-8ade17ab151d","system_id":"levelo_inurba_marseille","lat":43.23151,"lon":5.4372,"is_reserved":false,"is_disabled":false,"rental_uris":{"android":"levelo://app?vid=2e1f4911-ec15-4212-aa8f-8ade17ab151d","ios":"levelo://app?vid=2e1f4911-ec15-4212-aa8f-8ade17ab151d"},"vehicle_type_id":"4","last_reported":1701659278,"current_range_meters":10000,"station_id":"ce4bhmp2rcd13ifvqgog","pricing_plan_id":"free"},{"bike_id":"b718cec7-5e66-4216-830b-20c4cb80c1f6","system_id":"levelo_inurba_marseille","lat":43.231562,"lon":5.436933,"is_reserved":false,"is_disabled":false,"rental_uris":{"android":"levelo://app?vid=b718cec7-5e66-4216-830b-20c4cb80c1f6","ios":"levelo://app?vid=b718cec7-5e66-4216-830b-20c4cb80c1f6"},"vehicle_type_id":"4","last_reported":1701659278,"current_range_meters":26400,"station_id":"ce4bhmp2rcd13ifvqgog","pricing_plan_id":"free"},{"bike_id":"31d0811f-403f-42aa-9ea6-b138ed5aedee","system_id":"levelo_inurba_marseille","lat":43.231562,"lon":5.436933,"is_reserved":false,"is_disabled":false,"rental_uris":{"android":"levelo://app?vid=31d0811f-403f-42aa-9ea6-b138ed5aedee","ios":"levelo://app?vid=31d0811f-403f-42aa-9ea6-b138ed5aedee"},"vehicle_type_id":"4","last_reported":1701659278,"current_range_meters":31200,"station_id":"ce4bhmp2rcd13ifvqgog","pricing_plan_id":"free"}]}}