{"last_updated":1726412881,"ttl":30,"version":"2.2","data":{"bikes":[{"bike_id":"056313ad-8265-4df1-b42f-640ec0ab3367","system_id":"levelo_inurba_marseille","lat":43.28432,"lon":5.34966,"is_reserved":false,"is_disabled":false,"rental_uris":{"android":"levelo://app?vid=056313ad-8265-4df1-b42f-640ec0ab3367","ios":"levelo://app?vid=056313ad-8265-4df1-b42f-640ec0ab3367"},"vehicle_type_id":"4","last_reported":1726412882,"current_range_meters":30400,"station_id":"ce4bhbh2rcd13ifvqepg","pricing_plan_id":"cebpf4jnsgd1na2vs0mg"},{"bike_id":"09dda8b5-f06a-49c3-b8cb-a9c62f9773be","system_id":"levelo_inurba_marseille","lat":43.28935,"lon":5.39622,"is_reserved":false,"is_disabled":false,"rental_uris":{"android":"levelo://app?vid=09dda8b5-f06a-49c3-b8cb-a9c62f9773be","ios":"levelo://app?vid=09dda8b5-f06a-49c3-b8cb-a9c62f9773be"},"vehicle_type_id":"4","last_reported":1726412882,"current_range_meters":16000,"station_id":"ce4bh3h2rcd13ifvqdn0","pricing_plan_id":"cebpf4jnsgd1na2vs0mg"},{"bike_id":"41907fca-a52e-41d5-98d7-71f277307927","system_id":"levelo_inurba_marseille","lat":43.31294,"lon":5.37812,"is_reserved":false,"is_disabled":false,"rental_uris":{"android":"levelo://app?vid=41907fca-a52e-41d5-98d7-71f277307927","ios":"levelo://app?vid=41907fca-a52e-41d5-98d7-71f277307927"},"vehicle_type_id":"4","last_reported":1726412882,"current_range_meters":33200,"station_id":"","pricing_plan_id":"cebpf4jnsgd1na2vs0mg"},{"bike_id":"259c1082-ea70-4a9f-bd06-8385f36a05f6","system_id":"levelo_inurba_marseille","lat":43.28402,"lon":5.3497,"is_reserved":false,"is_disabled":false,"rental_uris":{"android":"levelo://app?vid=259c1082-ea70-4a9f-bd06-8385f36a05f6","ios":"levelo://app?vid=259c1082-ea70-4a9f-bd06-8385f36a05f6"},"vehicle_type_id":"4","last_reported":1726412882,"current_range_meters":34000,"station_id":"ce4bhbh2rcd13ifvqepg","pricing_plan_id":"cebpf4jnsgd1na2vs0mg"},{"bike_id":"491f625c-672a-429b-adf2-44db696ce223","system_id":"levelo_inurba_marseille","lat":43.24811,"lon":5.37454,"is_reserved":false,"is_disabled":false,"rental_uris":{"android":"levelo://app?vid=491f625c-672a-429b-adf2-44db696ce223","ios":"levelo://app?vid=491f625c-672a-429b-adf2-44db696ce223"},"vehicle_type_id":"4","last_reported":1726412882,"current_range_meters":9600,"station_id":"ce4bhgh2rcd13ifvqfb0","pricing_plan_id":"cebpf4jnsgd1na2vs0mg"},{"bike_id":"ce3dc406-963f-4951-a515-a8d7cff6914c","system_id":"levelo_inurba_marseille","lat":43.24167,"lon":5.36388,"is_reserved":false,"is_disabled":false,"rental_uris":{"android":"levelo://app?vid=ce3dc406-963f-4951-a515-a8d7cff6914c","ios":"levelo://app?vid=ce3dc406-963f-4951-a515-a8d7cff6914c"},"vehicle_type_id":"4","last_reported":1726412882,"current_range_meters":24400,"station_id":"cpo36qri1sfpv3e86is0","pricing_plan_id":"cebpf4jnsgd1na2vs0mg"},{"bike_id":"7c475990-5c91-40de-8e97-2ed5070be005","system_id":"levelo_inurba_marseille","lat":43.23032,"lon":5.401,"is_reserved":false,"is_disabled":false,"rental_uris":{"android":"levelo://app?vid=7c475990-5c91-40de-8e97-2ed5070be005","ios":"levelo://app?vid=7c475990-5c91-40de-8e97-2ed5070be005"},"vehicle_type_id":"4","last_reported":1726412882,"current_range_meters":38000,"station_id":"","pricing_plan_id":"cebpf4jnsgd1na2vs0mg"},{"bike_id":"13ec4916-f0ea-4897-8afc-596425b42c42","system_id":"levelo_inurba_marseille","lat":43.23191,"lon":5.35553,"is_reserved":false,"is_disabled":false,"rental_uris":{"android":"levelo://app?vid=13ec4916-f0ea-4897-8afc-596425b42c42","ios":"levelo://app?vid=13ec4916-f0ea-4897-8afc-596425b42c42"},"vehicle_type_id":"4","last_reported":1726412882,"current_range_meters":22400,"station_id":"ce4bhu92rcd13ifvqi70","pricing_plan_id":"cebpf4jnsgd1na2vs0mg"},{"bike_id":"e8549387-9deb-4f66-b733-a7cdaa0db866","system_id":"levelo_inurba_marseille","lat":43.33027,"lon":5.3903,"is_reserved":false,"is_disabled":false,"rental_uris":{"android":"levelo://app?vid=e8549387-9deb-4f66-b733-a7cdaa0db866","ios":"levelo://app?vid=e8549387-9deb-4f66-b733-a7cdaa0db866"},"vehicle_type_id":"4","last_reported":1726412882,"current_range_meters":16000,"station_id":"ce4bhr92rcd13ifvqhrg","pricing_plan_id":"cebpf4jnsgd1na2vs0mg"},{"bike_id":"b8543e59-e45f-4aa1-bf94-b0b37d15e7ab","system_id":"levelo_inurba_marseille","lat":43.28484,"lon":5.38573,"is_reserved":false,"is_disabled":false,"rental_uris":{"android":"levelo://app?vid=b8543e59-e45f-4aa1-bf94-b0b37d15e7ab","ios":"levelo://app?vid=b8543e59-e45f-4aa1-bf94-b0b37d15e7ab"},"vehicle_type_id":"4","last_reported":1726412882,"current_range_meters":8400,"station_id":"ce4bh8p2rcd13ifvqeb0","pricing_plan_id":"cebpf4jnsgd1na2vs0mg"},{"bike_id":"3d64c255-1660-41db-ac56-60cbee1ac9b2","system_id":"levelo_inurba_marseille","lat":43.28467,"lon":5.3854,"is_reserved":false,"is_disabled":false,"rental_uris":{"android":"levelo://app?vid=3d64c255-1660-41db-ac56-60cbee1ac9b2","ios":"levelo://app?vid=3d64c255-1660-41db-ac56-60cbee1ac9b2"},"vehicle_type_id":"4","last_reported":1726412882,"current_range_meters":37600,"station_id":"ce4bh8p2rcd13ifvqeb0","pricing_plan_id":"cebpf4jnsgd1na2vs0mg"},{"bike_id":"1b69e28d-b657-4802-b5dd-aa17fb5a768b","system_id":"levelo_inurba_marseille","lat":43.27162,"lon":5.42787,"is_reserved":false,"is_disabled":false,"rental_uris":{"android":"levelo://app?vid=1b69e28d-b657-4802-b5dd-aa17fb5a768b","ios":"levelo://app?vid=1b69e28d-b657-4802-b5dd-aa17fb5a768b"},"vehicle_type_id":"4","last_reported":1726412882,"current_range_meters":21600,"station_id":"","pricing_plan_id":"cebpf4jnsgd1na2vs0mg"},{"bike_id":"22103816-4927-4e66-ad57-2b52f35aa0e2","system_id":"levelo_inurba_marseille","lat":43.27385,"lon":5.36258,"is_reserved":false,"is_disabled":false,"rental_uris":{"android":"levelo://app?vid=22103816-4927-4e66-ad57-2b52f35aa0e2","ios":"levelo://app?vid=22103816-4927-4e66-ad57-2b52f35aa0e2"},"vehicle_type_id":"4","last_reported":1726412882,"current_range_meters":8400,"station_id":"ce4bhbh2rcd13ifvqeo0","pricing_plan_id":"cebpf4jnsgd1na2vs0mg"},{"bike_id":"45159ba8-6e9e-4da6-930e-310d7b3f2e06","system_id":"levelo_inurba_marseille","lat":43.26552,"lon":5.37282,"is_reserved":false,"is_disabled":false,"rental_uris":{"android":"levelo://app?vid=45159ba8-6e9e-4da6-930e-310d7b3f2e06","ios":"levelo://app?vid=45159ba8-6e9e-4da6-930e-310d7b3f2e06"},"vehicle_type_id":"4","last_reported":1726412882,"current_range_meters":24000,"station_id":"ce4bhg12rcd13ifvqf70","pricing_plan_id":"cebpf4jnsgd1na2vs0mg"},{"bike_id":"995d3a7e-289e-4ebd-b785-9d2da426ad57","system_id":"levelo_inurba_marseille","lat":43.2319,"lon":5.35546,"is_reserved":false,"is_disabled":false,"rental_uris":{"android":"levelo://app?vid=995d3a7e-289e-4ebd-b785-9d2da426ad57","ios":"levelo://app?vid=995d3a7e-289e-4ebd-b785-9d2da426ad57"},"vehicle_type_id":"4","last_reported":1726412882,"current_range_meters":12400,"station_id":"ce4bhu92rcd13ifvqi70","pricing_plan_id":"cebpf4jnsgd1na2vs0mg"},{"bike_id":"74c67d55-8a5f-40c9-8066-d68354718f8c","system_id":"levelo_inurba_marseille","lat":43.23194,"lon":5.35544,"is_reserved":false,"is_disabled":false,"rental_uris":{"android":"levelo://app?vid=74c67d55-8a5f-40c9-8066-d68354718f8c","ios":"levelo://app?vid=74c67d55-8a5f-40c9-8066-d68354718f8c"},"vehicle_type_id":"4","last_reported":1726412882,"current_range_meters":18800,"station_id":"ce4bhu92rcd13ifvqi70","pricing_plan_id":"cebpf4jnsgd1na2vs0mg"},{"bike_id":"2348432a-2e1b-4480-8221-dc0ae33b40e8","system_id":"levelo_inurba_marseille","lat":43.24396,"lon":5.37064,"is_reserved":false,"is_disabled":false,"rental_uris":{"android":"levelo://app?vid=2348432a-2e1b-4480-8221-dc0ae33b40e8","ios":"levelo://app?vid=2348432a-2e1b-4480-8221-dc0ae33b40e8"},"vehicle_type_id":"4","last_reported":1726412882,"current_range_meters":18800,"station_id":"ce4bhhh2rcd13ifvqfk0","pricing_plan_id":"cebpf4jnsgd1na2vs0mg"},{"bike_id":"d0698402-85d8-4942-960d-db4ee8bd1c46","system_id":"levelo_inurba_marseille","lat":43.32491,"lon":5.36554,"is_reserved":false,"is_disabled":false,"rental_uris":{"android":"levelo://app?vid=d0698402-85d8-4942-960d-db4ee8bd1c46","ios":"levelo://app?vid=d0698402-85d8-4942-960d-db4ee8bd1c46"},"vehicle_type_id":"4","last_reported":1726412882,"current_range_meters":4400,"station_id":"ce4bhs12rcd13ifvqhvg","pricing_plan_id":"cebpf4jnsgd1na2vs0mg"},{"bike_id":"e7cd2dd3-5044-4054-887e-8d99b4566ce5","system_id":"levelo_inurba_marseille","lat":43.32378,"lon":5.3835,"is_reserved":false,"is_disabled":false,"rental_uris":{"android":"levelo://app?vid=e7cd2dd3-5044-4054-887e-8d99b4566ce5","ios":"levelo://app?vid=e7cd2dd3-5044-4054-887e-8d99b4566ce5"},"vehicle_type_id":"4","last_reported":1726412882,"current_range_meters":4000,"station_id":"","pricing_plan_id":"cebpf4jnsgd1na2vs0mg"},{"bike_id":"dfb89513-f211-47bc-95b2-ffac780f14a8","system_id":"levelo_inurba_marseille","lat":43.2319,"lon":5.35543,"is_reserved":false,"is_disabled":false,"rental_uris":{"android":"levelo://app?vid=dfb89513-f211-47bc-95b2-ffac780f14a8","ios":"levelo://app?vid=dfb89513-f211-47bc-95b2-ffac780f14a8"},"vehicle_type_id":"4","last_reported":1726412882,"current_range_meters":8400,"station_id":"ce4bhu92rcd13ifvqi70","pricing_plan_id":"cebpf4jnsgd1na2vs0mg"},{"bike_id":"23227e85-2d77-4a13-9a44-e62f25ed3e11","system_id":"levelo_inurba_marseille","lat":43.32291,"lon":5.38263,"is_reserved":false,"is_disabled":false,"rental_uris":{"android":"levelo://app?vid=23227e85-2d77-4a13-9a44-e62f25ed3e11","ios":"levelo://app?vid=23227e85-2d77-4a13-9a44-e62f25ed3e11"},"vehicle_type_id":"4","last_reported":1726412882,"current_range_meters":28400,"station_id":"ce4bhr12rcd13ifvqhqg","pricing_plan_id":"cebpf4jnsgd1na2vs0mg"},{"bike_id":"fd33670f-48a6-4b72-95d3-253af4d6fd58","system_id":"levelo_inurba_marseille","lat":43.26786,"lon":5.39408,"is_reserved":false,"is_disabled":false,"rental_uris":{"android":"levelo://app?vid=fd33670f-48a6-4b72-95d3-253af4d6fd58","ios":"levelo://app?vid=fd33670f-48a6-4b72-95d3-253af4d6fd58"},"vehicle_type_id":"4","last_reported":1726412882,"current_range_meters":32000,"station_id":"ce4bhh12rcd13ifvqfg0","pricing_plan_id":"cebpf4jnsgd1na2vs0mg"},{"bike_id":"dc716c57-1dcc-400e-abd7-9c9cc9531cd2","system_id":"levelo_inurba_marseille","lat":43.28159,"lon":5.42638,"is_reserved":false,"is_disabled":false,"rental_uris":{"android":"levelo://app?vid=dc716c57-1dcc-400e-abd7-9c9cc9531cd2","ios":"levelo://app?vid=dc716c57-1dcc-400e-abd7-9c9cc9531cd2"},"vehicle_type_id":"4","last_reported":1726412882,"current_range_meters":7200,"station_id":"ce4bhnh2rcd13ifvqgug","pricing_plan_id":"cebpf4jnsgd1na2vs0mg"},{"bike_id":"cbf8ec92-6478-4ce2-ad10-f8dfa58edf7f","system_id":"levelo_inurba_marseille","lat":43.29285,"lon":5.40111,"is_reserved":false,"is_disabled":false,"rental_uris":{"android":"levelo://app?vid=cbf8ec92-6478-4ce2-ad10-f8dfa58edf7f","ios":"levelo://app?vid=cbf8ec92-6478-4ce2-ad10-f8dfa58edf7f"},"vehicle_type_id":"4","last_reported":1726412882,"current_range_meters":38000,"station_id":"ce4bh312rcd13ifvqdk0","pricing_plan_id":"cebpf4jnsgd1na2vs0mg"},{"bike_id":"8f7d2222-b8b1-4df4-8f4e-3209ab742980","system_id":"levelo_inurba_marseille","lat":43.3089,"lon":5.39638,"is_reserved":false,"is_disabled":false,"rental_uris":{"android":"levelo://app?vid=8f7d2222-b8b1-4df4-8f4e-3209ab742980","ios":"levelo://app?vid=8f7d2222-b8b1-4df4-8f4e-3209ab742980"},"vehicle_type_id":"4","last_reported":1726412882,"current_range_meters":24000,"station_id":"ce4bh012rcd13ifvqcv0","pricing_plan_id":"cebpf4jnsgd1na2vs0mg"},{"bike_id":"2b18f1bd-8719-4cce-9e38-74df85f7fbb7","system_id":"levelo_inurba_marseille","lat":43.309328,"lon":5.401355,"is_reserved":false,"is_disabled":false,"rental_uris":{"android":"levelo://app?vid=2b18f1bd-8719-4cce-9e38-74df85f7fbb7","ios":"levelo://app?vid=2b18f1bd-8719-4cce-9e38-74df85f7fbb7"},"vehicle_type_id":"4","last_reported":1726412882,"current_range_meters":36000,"station_id":"ce4bgvp2rcd13ifvqct0","pricing_plan_id":"cebpf4jnsgd1na2vs0mg"},{"bike_id":"33e3b5af-e6bf-4a19-9a11-ee1b8b29314e","system_id":"levelo_inurba_marseille","lat":43.319565,"lon":5.409008,"is_reserved":false,"is_disabled":false,"rental_uris":{"android":"levelo://app?vid=33e3b5af-e6bf-4a19-9a11-ee1b8b29314e","ios":"levelo://app?vid=33e3b5af-e6bf-4a19-9a11-ee1b8b29314e"},"vehicle_type_id":"4","last_reported":1726412882,"current_range_meters":7200,"station_id":"ce4bhq92rcd13ifvqhjg","pricing_plan_id":"cebpf4jnsgd1na2vs0mg"},{"bike_id":"30fc1f51-20b6-4e13-8f56-75175e166910","system_id":"levelo_inurba_marseille","lat":43.23056,"lon":5.35496,"is_reserved":false,"is_disabled":false,"rental_uris":{"android":"levelo://app?vid=30fc1f51-20b6-4e13-8f56-75175e166910","ios":"levelo://app?vid=30fc1f51-20b6-4e13-8f56-75175e166910"},"vehicle_type_id":"4","last_reported":1726412882,"current_range_meters":35600,"station_id":"cpo3342slgdg3j2ifvpg","pricing_plan_id":"cebpf4jnsgd1na2vs0mg"},{"bike_id":"8b578db3-5434-4421-bc67-5cf5109b3cbd","system_id":"levelo_inurba_marseille","lat":43.254939,"lon":5.376498,"is_reserved":false,"is_disabled":false,"rental_uris":{"android":"levelo://app?vid=8b578db3-5434-4421-bc67-5cf5109b3cbd","ios":"levelo://app?vid=8b578db3-5434-4421-bc67-5cf5109b3cbd"},"vehicle_type_id":"4","last_reported":1726412882,"current_range_meters":24000,"station_id":"ce4bhh12rcd13ifvqff0","pricing_plan_id":"cebpf4jnsgd1na2vs0mg"},{"bike_id":"ec9006f1-9246-40db-9584-a79270db200a","system_id":"levelo_inurba_marseille","lat":43.3172,"lon":5.42395,"is_reserved":false,"is_disabled":false,"rental_uris":{"android":"levelo://app?vid=ec9006f1-9246-40db-9584-a79270db200a","ios":"levelo://app?vid=ec9006f1-9246-40db-9584-a79270db200a"},"vehicle_type_id":"4","last_reported":1726412882,"current_range_meters":40000,"station_id":"ce4bhp92rcd13ifvqhbg","pricing_plan_id":"cebpf4jnsgd1na2vs0mg"},{"bike_id":"1e1820d1-0b32-4319-84db-087b38b8be17","system_id":"levelo_inurba_marseille","lat":43.28416,"lon":5.34974,"is_reserved":false,"is_disabled":false,"rental_uris":{"android":"levelo://app?vid=1e1820d1-0b32-4319-84db-087b38b8be17","ios":"levelo://app?vid=1e1820d1-0b32-4319-84db-087b38b8be17"},"vehicle_type_id":"4","last_reported":1726412882,"current_range_meters":16400,"station_id":"ce4bhbh2rcd13ifvqepg","pricing_plan_id":"cebpf4jnsgd1na2vs0mg"},{"bike_id":"064b60ef-35da-403f-89ae-8739e7307ce5","system_id":"levelo_inurba_marseille","lat":43.28612,"lon":5.35097,"is_reserved":false,"is_disabled":false,"rental_uris":{"android":"levelo://app?vid=064b60ef-35da-403f-89ae-8739e7307ce5","ios":"levelo://app?vid=064b60ef-35da-403f-89ae-8739e7307ce5"},"vehicle_type_id":"4","last_reported":1726412882,"current_range_meters":38800,"station_id":"ce4bhch2rcd13ifvqeug","pricing_plan_id":"cebpf4jnsgd1na2vs0mg"},{"bike_id":"98a4b60e-81b1-4813-9ba6-7e2da093199e","system_id":"levelo_inurba_marseille","lat":43.2737,"lon":5.36258,"is_reserved":false,"is_disabled":false,"rental_uris":{"android":"levelo://app?vid=98a4b60e-81b1-4813-9ba6-7e2da093199e","ios":"levelo://app?vid=98a4b60e-81b1-4813-9ba6-7e2da093199e"},"vehicle_type_id":"4","last_reported":1726412882,"current_range_meters":11200,"station_id":"ce4bhbh2rcd13ifvqeo0","pricing_plan_id":"cebpf4jnsgd1na2vs0mg"},{"bike_id":"d665b4d7-14de-47f4-852d-b658ce7089b3","system_id":"levelo_inurba_marseille","lat":43.27713,"lon":5.361716,"is_reserved":false,"is_disabled":false,"rental_uris":{"android":"levelo://app?vid=d665b4d7-14de-47f4-852d-b658ce7089b3","ios":"levelo://app?vid=d665b4d7-14de-47f4-852d-b658ce7089b3"},"vehicle_type_id":"4","last_reported":1726412882,"current_range_meters":9200,"station_id":"ce4bgj92rcd13ifvqbe0","pricing_plan_id":"cebpf4jnsgd1na2vs0mg"},{"bike_id":"71057266-d256-4b32-871d-c423db1e71db","system_id":"levelo_inurba_marseille","lat":43.29616,"lon":5.37714,"is_reserved":false,"is_disabled":false,"rental_uris":{"android":"levelo://app?vid=71057266-d256-4b32-871d-c423db1e71db","ios":"levelo://app?vid=71057266-d256-4b32-871d-c423db1e71db"},"vehicle_type_id":"4","last_reported":1726412882,"current_range_meters":38800,"station_id":"ce4bgi92rcd13ifvqb90","pricing_plan_id":"cebpf4jnsgd1na2vs0mg"},{"bike_id":"1c368809-31eb-4437-af42-99aba69bd73a","system_id":"levelo_inurba_marseille","lat":43.29198,"lon":5.35808,"is_reserved":false,"is_disabled":false,"rental_uris":{"android":"levelo://app?vid=1c368809-31eb-4437-af42-99aba69bd73a","ios":"levelo://app?vid=1c368809-31eb-4437-af42-99aba69bd73a"},"vehicle_type_id":"4","last_reported":1726412882,"current_range_meters":2800,"station_id":"ce4bhb12rcd13ifvqel0","pricing_plan_id":"cebpf4jnsgd1na2vs0mg"},{"bike_id":"a741b363-269f-459a-9552-9e6e69beb997","system_id":"levelo_inurba_marseille","lat":43.297911,"lon":5.380963,"is_reserved":false,"is_disabled":false,"rental_uris":{"android":"levelo://app?vid=a741b363-269f-459a-9552-9e6e69beb997","ios":"levelo://app?vid=a741b363-269f-459a-9552-9e6e69beb997"},"vehicle_type_id":"4","last_reported":1726412882,"current_range_meters":12800,"station_id":"ce4bgs12rcd13ifvqcag","pricing_plan_id":"cebpf4jnsgd1na2vs0mg"},{"bike_id":"2df00e03-fab2-427b-a669-b69ee3a0c364","system_id":"levelo_inurba_marseille","lat":43.29841,"lon":5.36272,"is_reserved":false,"is_disabled":false,"rental_uris":{"android":"levelo://app?vid=2df00e03-fab2-427b-a669-b69ee3a0c364","ios":"levelo://app?vid=2df00e03-fab2-427b-a669-b69ee3a0c364"},"vehicle_type_id":"4","last_reported":1726412882,"current_range_meters":14400,"station_id":"ce4bgpp2rcd13ifvqc3g","pricing_plan_id":"cebpf4jnsgd1na2vs0mg"},{"bike_id":"f79ff168-7c1f-43a6-9a48-819ae1e3b151","system_id":"levelo_inurba_marseille","lat":43.24071,"lon":5.37756,"is_reserved":false,"is_disabled":false,"rental_uris":{"android":"levelo://app?vid=f79ff168-7c1f-43a6-9a48-819ae1e3b151","ios":"levelo://app?vid=f79ff168-7c1f-43a6-9a48-819ae1e3b151"},"vehicle_type_id":"4","last_reported":1726412882,"current_range_meters":12000,"station_id":"ce4bhnp2rcd13ifvqgvg","pricing_plan_id":"cebpf4jnsgd1na2vs0mg"},{"bike_id":"6d5614e0-2e6f-4d24-9d4a-5c6cca74e3e5","system_id":"levelo_inurba_marseille","lat":43.23202,"lon":5.35547,"is_reserved":false,"is_disabled":false,"rental_uris":{"android":"levelo://app?vid=6d5614e0-2e6f-4d24-9d4a-5c6cca74e3e5","ios":"levelo://app?vid=6d5614e0-2e6f-4d24-9d4a-5c6cca74e3e5"},"vehicle_type_id":"4","last_reported":1726412882,"current_range_meters":10000,"station_id":"ce4bhu92rcd13ifvqi70","pricing_plan_id":"cebpf4jnsgd1na2vs0mg"},{"bike_id":"2bd6d586-7a39-4193-b931-436964993ed9","system_id":"levelo_inurba_marseille","lat":43.28268,"lon":5.35062,"is_reserved":false,"is_disabled":false,"rental_uris":{"android":"levelo://app?vid=2bd6d586-7a39-4193-b931-436964993ed9","ios":"levelo://app?vid=2bd6d586-7a39-4193-b931-436964993ed9"},"vehicle_type_id":"4","last_reported":1726412882,"current_range_meters":38800,"station_id":"ce4bhbp2rcd13ifvqerg","pricing_plan_id":"cebpf4jnsgd1na2vs0mg"},{"bike_id":"53dac4fb-47bd-417e-a59c-ba5f0f863b70","system_id":"levelo_inurba_marseille","lat":43.29604,"lon":5.38098,"is_reserved":false,"is_disabled":false,"rental_uris":{"android":"levelo://app?vid=53dac4fb-47bd-417e-a59c-ba5f0f863b70","ios":"levelo://app?vid=53dac4fb-47bd-417e-a59c-ba5f0f863b70"},"vehicle_type_id":"4","last_reported":1726412882,"current_range_meters":38800,"station_id":"ce4bgl12rcd13ifvqbo0","pricing_plan_id":"cebpf4jnsgd1na2vs0mg"},{"bike_id":"472398ca-7be6-45c1-a57c-fce088f97183","system_id":"levelo_inurba_marseille","lat":43.28412,"lon":5.34978,"is_reserved":false,"is_disabled":false,"rental_uris":{"android":"levelo://app?vid=472398ca-7be6-45c1-a57c-fce088f97183","ios":"levelo://app?vid=472398ca-7be6-45c1-a57c-fce088f97183"},"vehicle_type_id":"4","last_reported":1726412882,"current_range_meters":26800,"station_id":"ce4bhbh2rcd13ifvqepg","pricing_plan_id":"cebpf4jnsgd1na2vs0mg"},{"bike_id":"90521811-f8fd-48e1-ade7-4d07ddb065bb","system_id":"levelo_inurba_marseille","lat":43.23195,"lon":5.35553,"is_reserved":false,"is_disabled":false,"rental_uris":{"android":"levelo://app?vid=90521811-f8fd-48e1-ade7-4d07ddb065bb","ios":"levelo://app?vid=90521811-f8fd-48e1-ade7-4d07ddb065bb"},"vehicle_type_id":"4","last_reported":1726412882,"current_range_meters":12000,"station_id":"ce4bhu92rcd13ifvqi70","pricing_plan_id":"cebpf4jnsgd1na2vs0mg"},{"bike_id":"1a60e3d6-372e-4cf8-95a8-0f219789c8d5","system_id":"levelo_inurba_marseille","lat":43.248108,"lon":5.374555,"is_reserved":false,"is_disabled":false,"rental_uris":{"android":"levelo://app?vid=1a60e3d6-372e-4cf8-95a8-0f219789c8d5","ios":"levelo://app?vid=1a60e3d6-372e-4cf8-95a8-0f219789c8d5"},"vehicle_type_id":"4","last_reported":1726412882,"current_range_meters":36800,"station_id":"ce4bgh92rcd13ifvqb40","pricing_plan_id":"cebpf4jnsgd1na2vs0mg"},{"bike_id":"a62ff6dd-3626-49a8-82f0-4d65e7b497ba","system_id":"levelo_inurba_marseille","lat":43.23192,"lon":5.35549,"is_reserved":false,"is_disabled":false,"rental_uris":{"android":"levelo://app?vid=a62ff6dd-3626-49a8-82f0-4d65e7b497ba","ios":"levelo://app?vid=a62ff6dd-3626-49a8-82f0-4d65e7b497ba"},"vehicle_type_id":"4","last_reported":1726412882,"current_range_meters":10000,"station_id":"ce4bhu92rcd13ifvqi70","pricing_plan_id":"cebpf4jnsgd1na2vs0mg"},{"bike_id":"307f00e1-5118-4dbb-91ff-774e8c26f339","system_id":"levelo_inurba_marseille","lat":43.2826,"lon":5.35059,"is_reserved":false,"is_disabled":false,"rental_uris":{"android":"levelo://app?vid=307f00e1-5118-4dbb-91ff-774e8c26f339","ios":"levelo://app?vid=307f00e1-5118-4dbb-91ff-774e8c26f339"},"vehicle_type_id":"4","last_reported":1726412882,"current_range_meters":33600,"station_id":"ce4bhbp2rcd13ifvqerg","pricing_plan_id":"cebpf4jnsgd1na2vs0mg"},{"bike_id":"5cbd62cb-1488-4ecb-90b5-73e0b48a0e01","system_id":"levelo_inurba_marseille","lat":43.24805,"lon":5.37453,"is_reserved":false,"is_disabled":false,"rental_uris":{"android":"levelo://app?vid=5cbd62cb-1488-4ecb-90b5-73e0b48a0e01","ios":"levelo://app?vid=5cbd62cb-1488-4ecb-90b5-73e0b48a0e01"},"vehicle_type_id":"4","last_reported":1726412882,"current_range_meters":24800,"station_id":"ce4bhgh2rcd13ifvqfb0","pricing_plan_id":"cebpf4jnsgd1na2vs0mg"},{"bike_id":"ecab2b07-b455-4c0a-a787-affa632df0b6","system_id":"levelo_inurba_marseille","lat":43.29554,"lon":5.42285,"is_reserved":false,"is_disabled":false,"rental_uris":{"android":"levelo://app?vid=ecab2b07-b455-4c0a-a787-affa632df0b6","ios":"levelo://app?vid=ecab2b07-b455-4c0a-a787-affa632df0b6"},"vehicle_type_id":"4","last_reported":1726412882,"current_range_meters":22000,"station_id":"ce4bhph2rcd13ifvqhdg","pricing_plan_id":"cebpf4jnsgd1na2vs0mg"},{"bike_id":"8bc26ad7-0c0a-4ca0-9168-6db0a1bdf797","system_id":"levelo_inurba_marseille","lat":43.284141,"lon":5.37498,"is_reserved":false,"is_disabled":false,"rental_uris":{"android":"levelo://app?vid=8bc26ad7-0c0a-4ca0-9168-6db0a1bdf797","ios":"levelo://app?vid=8bc26ad7-0c0a-4ca0-9168-6db0a1bdf797"},"vehicle_type_id":"4","last_reported":1726412882,"current_range_meters":23200,"station_id":"ce4bgj92rcd13ifvqbd0","pricing_plan_id":"cebpf4jnsgd1na2vs0mg"},{"bike_id":"26db0265-0a91-4c66-8aa8-67a94f7eef0d","system_id":"levelo_inurba_marseille","lat":43.26943,"lon":5.40055,"is_reserved":false,"is_disabled":false,"rental_uris":{"android":"levelo://app?vid=26db0265-0a91-4c66-8aa8-67a94f7eef0d","ios":"levelo://app?vid=26db0265-0a91-4c66-8aa8-67a94f7eef0d"},"vehicle_type_id":"4","last_reported":1726412882,"current_range_meters":9600,"station_id":"","pricing_plan_id":"cebpf4jnsgd1na2vs0mg"},{"bike_id":"9b49fc06-69dc-4375-9bc8-2ab31283d424","system_id":"levelo_inurba_marseille","lat":43.29903,"lon":5.43661,"is_reserved":false,"is_disabled":false,"rental_uris":{"android":"levelo://app?vid=9b49fc06-69dc-4375-9bc8-2ab31283d424","ios":"levelo://app?vid=9b49fc06-69dc-4375-9bc8-2ab31283d424"},"vehicle_type_id":"4","last_reported":1726412882,"current_range_meters":27200,"station_id":"ce4bhpp2rcd13ifvqhfg","pricing_plan_id":"cebpf4jnsgd1na2vs0mg"},{"bike_id":"332e7158-8ad6-4ff8-a711-56e21947b7b5","system_id":"levelo_inurba_marseille","lat":43.28418,"lon":5.34981,"is_reserved":false,"is_disabled":false,"rental_uris":{"android":"levelo://app?vid=332e7158-8ad6-4ff8-a711-56e21947b7b5","ios":"levelo://app?vid=332e7158-8ad6-4ff8-a711-56e21947b7b5"},"vehicle_type_id":"4","last_reported":1726412882,"current_range_meters":38400,"station_id":"ce4bhbh2rcd13ifvqepg","pricing_plan_id":"cebpf4jnsgd1na2vs0mg"},{"bike_id":"7cb86f02-015f-4218-848c-60a0be8facd1","system_id":"levelo_inurba_marseille","lat":43.25725,"lon":5.41098,"is_reserved":false,"is_disabled":false,"rental_uris":{"android":"levelo://app?vid=7cb86f02-015f-4218-848c-60a0be8facd1","ios":"levelo://app?vid=7cb86f02-015f-4218-848c-60a0be8facd1"},"vehicle_type_id":"4","last_reported":1726412882,"current_range_meters":14800,"station_id":"ce4bhkp2rcd13ifvqgd0","pricing_plan_id":"cebpf4jnsgd1na2vs0mg"},{"bike_id":"fa0bba81-ae28-438c-aaa0-a2a0c9d69ac5","system_id":"levelo_inurba_marseille","lat":43.29557,"lon":5.42283,"is_reserved":false,"is_disabled":false,"rental_uris":{"android":"levelo://app?vid=fa0bba81-ae28-438c-aaa0-a2a0c9d69ac5","ios":"levelo://app?vid=fa0bba81-ae28-438c-aaa0-a2a0c9d69ac5"},"vehicle_type_id":"4","last_reported":1726412882,"current_range_meters":32800,"station_id":"ce4bhph2rcd13ifvqhdg","pricing_plan_id":"cebpf4jnsgd1na2vs0mg"},{"bike_id":"e00d038a-00c7-4258-ab4b-259bdb081cfd","system_id":"levelo_inurba_marseille","lat":43.23193,"lon":5.35544,"is_reserved":false,"is_disabled":false,"rental_uris":{"android":"levelo://app?vid=e00d038a-00c7-4258-ab4b-259bdb081cfd","ios":"levelo://app?vid=e00d038a-00c7-4258-ab4b-259bdb081cfd"},"vehicle_type_id":"4","last_reported":1726412882,"current_range_meters":27600,"station_id":"ce4bhu92rcd13ifvqi70","pricing_plan_id":"cebpf4jnsgd1na2vs0mg"},{"bike_id":"734a1eb0-98b3-4572-a20c-18f40b30db79","system_id":"levelo_inurba_marseille","lat":43.28153,"lon":5.42636,"is_reserved":false,"is_disabled":false,"rental_uris":{"android":"levelo://app?vid=734a1eb0-98b3-4572-a20c-18f40b30db79","ios":"levelo://app?vid=734a1eb0-98b3-4572-a20c-18f40b30db79"},"vehicle_type_id":"4","last_reported":1726412882,"current_range_meters":8400,"station_id":"ce4bhnh2rcd13ifvqgug","pricing_plan_id":"cebpf4jnsgd1na2vs0mg"},{"bike_id":"459ca2fe-304d-47b2-a604-8dea281edb0c","system_id":"levelo_inurba_marseille","lat":43.31083,"lon":5.42434,"is_reserved":false,"is_disabled":false,"rental_uris":{"android":"levelo://app?vid=459ca2fe-304d-47b2-a604-8dea281edb0c","ios":"levelo://app?vid=459ca2fe-304d-47b2-a604-8dea281edb0c"},"vehicle_type_id":"4","last_reported":1726412882,"current_range_meters":32000,"station_id":"ce4bhp92rcd13ifvqhag","pricing_plan_id":"cebpf4jnsgd1na2vs0mg"},{"bike_id":"49984add-9d4f-4311-9278-ee5b6d7f2b40","system_id":"levelo_inurba_marseille","lat":43.30949,"lon":5.39029,"is_reserved":false,"is_disabled":false,"rental_uris":{"android":"levelo://app?vid=49984add-9d4f-4311-9278-ee5b6d7f2b40","ios":"levelo://app?vid=49984add-9d4f-4311-9278-ee5b6d7f2b40"},"vehicle_type_id":"4","last_reported":1726412882,"current_range_meters":19200,"station_id":"ce4bgup2rcd13ifvqco0","pricing_plan_id":"cebpf4jnsgd1na2vs0mg"},{"bike_id":"f6443f76-e4b5-4132-8842-f1542eeafb2c","system_id":"levelo_inurba_marseille","lat":43.31694,"lon":5.40494,"is_reserved":false,"is_disabled":false,"rental_uris":{"android":"levelo://app?vid=f6443f76-e4b5-4132-8842-f1542eeafb2c","ios":"levelo://app?vid=f6443f76-e4b5-4132-8842-f1542eeafb2c"},"vehicle_type_id":"4","last_reported":1726412882,"current_range_meters":38800,"station_id":"ce4bh012rcd13ifvqd00","pricing_plan_id":"cebpf4jnsgd1na2vs0mg"},{"bike_id":"9ddf06d0-3b83-46d3-8c7d-a38a764ae8ac","system_id":"levelo_inurba_marseille","lat":43.29913,"lon":5.3814,"is_reserved":false,"is_disabled":false,"rental_uris":{"android":"levelo://app?vid=9ddf06d0-3b83-46d3-8c7d-a38a764ae8ac","ios":"levelo://app?vid=9ddf06d0-3b83-46d3-8c7d-a38a764ae8ac"},"vehicle_type_id":"4","last_reported":1726412882,"current_range_meters":38000,"station_id":"ce4bgj12rcd13ifvqbc0","pricing_plan_id":"cebpf4jnsgd1na2vs0mg"},{"bike_id":"ec19b6e1-4ec0-4e39-b98f-e4b7c23ca064","system_id":"levelo_inurba_marseille","lat":43.2738,"lon":5.36248,"is_reserved":false,"is_disabled":false,"rental_uris":{"android":"levelo://app?vid=ec19b6e1-4ec0-4e39-b98f-e4b7c23ca064","ios":"levelo://app?vid=ec19b6e1-4ec0-4e39-b98f-e4b7c23ca064"},"vehicle_type_id":"4","last_reported":1726412882,"current_range_meters":6800,"station_id":"ce4bhbh2rcd13ifvqeo0","pricing_plan_id":"cebpf4jnsgd1na2vs0mg"},{"bike_id":"b1db6496-7d7b-4acc-a88c-e5406d38e100","system_id":"levelo_inurba_marseille","lat":43.23197,"lon":5.35554,"is_reserved":false,"is_disabled":false,"rental_uris":{"android":"levelo://app?vid=b1db6496-7d7b-4acc-a88c-e5406d38e100","ios":"levelo://app?vid=b1db6496-7d7b-4acc-a88c-e5406d38e100"},"vehicle_type_id":"4","last_reported":1726412882,"current_range_meters":36800,"station_id":"ce4bhu92rcd13ifvqi70","pricing_plan_id":"cebpf4jnsgd1na2vs0mg"},{"bike_id":"ee721f16-71d0-49c8-9da4-858f78b55bcb","system_id":"levelo_inurba_marseille","lat":43.25938,"lon":5.40902,"is_reserved":false,"is_disabled":false,"rental_uris":{"android":"levelo://app?vid=ee721f16-71d0-49c8-9da4-858f78b55bcb","ios":"levelo://app?vid=ee721f16-71d0-49c8-9da4-858f78b55bcb"},"vehicle_type_id":"4","last_reported":1726412882,"current_range_meters":25200,"station_id":"ce4bhm92rcd13ifvqglg","pricing_plan_id":"cebpf4jnsgd1na2vs0mg"},{"bike_id":"826f4136-a005-4203-8c5f-7808e18dcf00","system_id":"levelo_inurba_marseille","lat":43.29557,"lon":5.42285,"is_reserved":false,"is_disabled":false,"rental_uris":{"android":"levelo://app?vid=826f4136-a005-4203-8c5f-7808e18dcf00","ios":"levelo://app?vid=826f4136-a005-4203-8c5f-7808e18dcf00"},"vehicle_type_id":"4","last_reported":1726412882,"current_range_meters":8400,"station_id":"ce4bhph2rcd13ifvqhdg","pricing_plan_id":"cebpf4jnsgd1na2vs0mg"},{"bike_id":"4b06523d-eac1-458a-b1ed-f2d3d8c74cc9","system_id":"levelo_inurba_marseille","lat":43.28617,"lon":5.35097,"is_reserved":false,"is_disabled":false,"rental_uris":{"android":"levelo://app?vid=4b06523d-eac1-458a-b1ed-f2d3d8c74cc9","ios":"levelo://app?vid=4b06523d-eac1-458a-b1ed-f2d3d8c74cc9"},"vehicle_type_id":"4","last_reported":1726412882,"current_range_meters":39200,"station_id":"ce4bhch2rcd13ifvqeug","pricing_plan_id":"cebpf4jnsgd1na2vs0mg"},{"bike_id":"5cf4c2f1-f092-4550-b8cf-369099ebc3bc","system_id":"levelo_inurba_marseille","lat":43.2456,"lon":5.4155,"is_reserved":false,"is_disabled":false,"rental_uris":{"android":"levelo://app?vid=5cf4c2f1-f092-4550-b8cf-369099ebc3bc","ios":"levelo://app?vid=5cf4c2f1-f092-4550-b8cf-369099ebc3bc"},"vehicle_type_id":"4","last_reported":1726412882,"current_range_meters":14000,"station_id":"ce4bhlh2rcd13ifvqgig","pricing_plan_id":"cebpf4jnsgd1na2vs0mg"},{"bike_id":"599631dd-2287-4c71-80cc-ee1416fd0a3c","system_id":"levelo_inurba_marseille","lat":43.32485,"lon":5.36571,"is_reserved":false,"is_disabled":false,"rental_uris":{"android":"levelo://app?vid=599631dd-2287-4c71-80cc-ee1416fd0a3c","ios":"levelo://app?vid=599631dd-2287-4c71-80cc-ee1416fd0a3c"},"vehicle_type_id":"4","last_reported":1726412882,"current_range_meters":4800,"station_id":"ce4bhs12rcd13ifvqhvg","pricing_plan_id":"cebpf4jnsgd1na2vs0mg"},{"bike_id":"3d03ff5c-a520-4d3d-8371-588efa4cfb00","system_id":"levelo_inurba_marseille","lat":43.30148,"lon":5.37417,"is_reserved":false,"is_disabled":false,"rental_uris":{"android":"levelo://app?vid=3d03ff5c-a520-4d3d-8371-588efa4cfb00","ios":"levelo://app?vid=3d03ff5c-a520-4d3d-8371-588efa4cfb00"},"vehicle_type_id":"4","last_reported":1726412882,"current_range_meters":9600,"station_id":"ce4bgs92rcd13ifvqcc0","pricing_plan_id":"cebpf4jnsgd1na2vs0mg"},{"bike_id":"dfc7e944-178a-43bd-85e8-0abf1cafc416","system_id":"levelo_inurba_marseille","lat":43.22929,"lon":5.35372,"is_reserved":false,"is_disabled":false,"rental_uris":{"android":"levelo://app?vid=dfc7e944-178a-43bd-85e8-0abf1cafc416","ios":"levelo://app?vid=dfc7e944-178a-43bd-85e8-0abf1cafc416"},"vehicle_type_id":"4","last_reported":1726412882,"current_range_meters":22000,"station_id":"cpo3532slgdg3j2ikp40","pricing_plan_id":"cebpf4jnsgd1na2vs0mg"},{"bike_id":"354f931f-0632-45e1-8742-ec6ddc3feef8","system_id":"levelo_inurba_marseille","lat":43.28412,"lon":5.34982,"is_reserved":false,"is_disabled":false,"rental_uris":{"android":"levelo://app?vid=354f931f-0632-45e1-8742-ec6ddc3feef8","ios":"levelo://app?vid=354f931f-0632-45e1-8742-ec6ddc3feef8"},"vehicle_type_id":"4","last_reported":1726412882,"current_range_meters":33600,"station_id":"ce4bhbh2rcd13ifvqepg","pricing_plan_id":"cebpf4jnsgd1na2vs0mg"},{"bike_id":"acd02986-fb22-43bc-88f1-d76510ab4603","system_id":"levelo_inurba_marseille","lat":43.33289,"lon":5.39443,"is_reserved":false,"is_disabled":false,"rental_uris":{"android":"levelo://app?vid=acd02986-fb22-43bc-88f1-d76510ab4603","ios":"levelo://app?vid=acd02986-fb22-43bc-88f1-d76510ab4603"},"vehicle_type_id":"4","last_reported":1726412882,"current_range_meters":27200,"station_id":"","pricing_plan_id":"cebpf4jnsgd1na2vs0mg"},{"bike_id":"7bc14114-e12c-41c1-ab2a-a4f019a17326","system_id":"levelo_inurba_marseille","lat":43.23061,"lon":5.35497,"is_reserved":false,"is_disabled":false,"rental_uris":{"android":"levelo://app?vid=7bc14114-e12c-41c1-ab2a-a4f019a17326","ios":"levelo://app?vid=7bc14114-e12c-41c1-ab2a-a4f019a17326"},"vehicle_type_id":"4","last_reported":1726412882,"current_range_meters":26000,"station_id":"cpo3342slgdg3j2ifvpg","pricing_plan_id":"cebpf4jnsgd1na2vs0mg"},{"bike_id":"b645ac77-0d58-4fa9-8ad3-947af8bdb1d9","system_id":"levelo_inurba_marseille","lat":43.299,"lon":5.43665,"is_reserved":false,"is_disabled":false,"rental_uris":{"android":"levelo://app?vid=b645ac77-0d58-4fa9-8ad3-947af8bdb1d9","ios":"levelo://app?vid=b645ac77-0d58-4fa9-8ad3-947af8bdb1d9"},"vehicle_type_id":"4","last_reported":1726412882,"current_range_meters":33600,"station_id":"ce4bhpp2rcd13ifvqhfg","pricing_plan_id":"cebpf4jnsgd1na2vs0mg"},{"bike_id":"03515e55-0de8-4f6d-953a-abbf71a9cce4","system_id":"levelo_inurba_marseille","lat":43.24071,"lon":5.37759,"is_reserved":false,"is_disabled":false,"rental_uris":{"android":"levelo://app?vid=03515e55-0de8-4f6d-953a-abbf71a9cce4","ios":"levelo://app?vid=03515e55-0de8-4f6d-953a-abbf71a9cce4"},"vehicle_type_id":"4","last_reported":1726412882,"current_range_meters":16800,"station_id":"ce4bhnp2rcd13ifvqgvg","pricing_plan_id":"cebpf4jnsgd1na2vs0mg"},{"bike_id":"91d155a1-0e95-42f4-9cf2-24e586735a13","system_id":"levelo_inurba_marseille","lat":43.33728,"lon":5.39182,"is_reserved":false,"is_disabled":false,"rental_uris":{"android":"levelo://app?vid=91d155a1-0e95-42f4-9cf2-24e586735a13","ios":"levelo://app?vid=91d155a1-0e95-42f4-9cf2-24e586735a13"},"vehicle_type_id":"4","last_reported":1726412882,"current_range_meters":39200,"station_id":"ce4bhr92rcd13ifvqhsg","pricing_plan_id":"cebpf4jnsgd1na2vs0mg"},{"bike_id":"c4442831-5b8d-47f9-a6db-f0ce6de3c34c","system_id":"levelo_inurba_marseille","lat":43.28272,"lon":5.35069,"is_reserved":false,"is_disabled":false,"rental_uris":{"android":"levelo://app?vid=c4442831-5b8d-47f9-a6db-f0ce6de3c34c","ios":"levelo://app?vid=c4442831-5b8d-47f9-a6db-f0ce6de3c34c"},"vehicle_type_id":"4","last_reported":1726412882,"current_range_meters":17600,"station_id":"ce4bhbp2rcd13ifvqerg","pricing_plan_id":"cebpf4jnsgd1na2vs0mg"},{"bike_id":"1f44ea84-cd59-4839-b4e9-4dc793b909a9","system_id":"levelo_inurba_marseille","lat":43.27428,"lon":5.39399,"is_reserved":false,"is_disabled":false,"rental_uris":{"android":"levelo://app?vid=1f44ea84-cd59-4839-b4e9-4dc793b909a9","ios":"levelo://app?vid=1f44ea84-cd59-4839-b4e9-4dc793b909a9"},"vehicle_type_id":"4","last_reported":1726412882,"current_range_meters":16000,"station_id":"ce4bhdp2rcd13ifvqf20","pricing_plan_id":"cebpf4jnsgd1na2vs0mg"},{"bike_id":"7abc2a25-404a-4f70-a7c0-c89315b5c4bc","system_id":"levelo_inurba_marseille","lat":43.29803,"lon":5.38194,"is_reserved":false,"is_disabled":false,"rental_uris":{"android":"levelo://app?vid=7abc2a25-404a-4f70-a7c0-c89315b5c4bc","ios":"levelo://app?vid=7abc2a25-404a-4f70-a7c0-c89315b5c4bc"},"vehicle_type_id":"4","last_reported":1726412882,"current_range_meters":28400,"station_id":"","pricing_plan_id":"cebpf4jnsgd1na2vs0mg"},{"bike_id":"1c711286-60eb-4179-8087-2dc4f94065c7","system_id":"levelo_inurba_marseille","lat":43.27619,"lon":5.36102,"is_reserved":false,"is_disabled":false,"rental_uris":{"android":"levelo://app?vid=1c711286-60eb-4179-8087-2dc4f94065c7","ios":"levelo://app?vid=1c711286-60eb-4179-8087-2dc4f94065c7"},"vehicle_type_id":"4","last_reported":1726412882,"current_range_meters":2800,"station_id":"ce4bgj92rcd13ifvqbe0","pricing_plan_id":"cebpf4jnsgd1na2vs0mg"},{"bike_id":"680b296f-8a9e-4ce9-90dd-5edf4faa61c1","system_id":"levelo_inurba_marseille","lat":43.31769,"lon":5.39029,"is_reserved":false,"is_disabled":false,"rental_uris":{"android":"levelo://app?vid=680b296f-8a9e-4ce9-90dd-5edf4faa61c1","ios":"levelo://app?vid=680b296f-8a9e-4ce9-90dd-5edf4faa61c1"},"vehicle_type_id":"4","last_reported":1726412882,"current_range_meters":37600,"station_id":"ce4bhqp2rcd13ifvqhng","pricing_plan_id":"cebpf4jnsgd1na2vs0mg"},{"bike_id":"bbd2450a-84a7-42e1-bc94-af6bf7be8eb5","system_id":"levelo_inurba_marseille","lat":43.33023,"lon":5.39039,"is_reserved":false,"is_disabled":false,"rental_uris":{"android":"levelo://app?vid=bbd2450a-84a7-42e1-bc94-af6bf7be8eb5","ios":"levelo://app?vid=bbd2450a-84a7-42e1-bc94-af6bf7be8eb5"},"vehicle_type_id":"4","last_reported":1726412882,"current_range_meters":32400,"station_id":"ce4bhr92rcd13ifvqhrg","pricing_plan_id":"cebpf4jnsgd1na2vs0mg"},{"bike_id":"9c3fac55-b7f0-4921-9c7a-c49fce590536","system_id":"levelo_inurba_marseille","lat":43.31331,"lon":5.3969,"is_reserved":false,"is_disabled":false,"rental_uris":{"android":"levelo://app?vid=9c3fac55-b7f0-4921-9c7a-c49fce590536","ios":"levelo://app?vid=9c3fac55-b7f0-4921-9c7a-c49fce590536"},"vehicle_type_id":"4","last_reported":1726412882,"current_range_meters":40000,"station_id":"ce4bgvp2rcd13ifvqcu0","pricing_plan_id":"cebpf4jnsgd1na2vs0mg"},{"bike_id":"9d259fa5-f74b-4215-b955-63172ff0ad49","system_id":"levelo_inurba_marseille","lat":43.30947,"lon":5.39018,"is_reserved":false,"is_disabled":false,"rental_uris":{"android":"levelo://app?vid=9d259fa5-f74b-4215-b955-63172ff0ad49","ios":"levelo://app?vid=9d259fa5-f74b-4215-b955-63172ff0ad49"},"vehicle_type_id":"4","last_reported":1726412882,"current_range_meters":21600,"station_id":"ce4bgup2rcd13ifvqco0","pricing_plan_id":"cebpf4jnsgd1na2vs0mg"},{"bike_id":"ac2f8b18-c4e8-4836-947b-b533a20a9549","system_id":"levelo_inurba_marseille","lat":43.29041,"lon":5.35916,"is_reserved":false,"is_disabled":false,"rental_uris":{"android":"levelo://app?vid=ac2f8b18-c4e8-4836-947b-b533a20a9549","ios":"levelo://app?vid=ac2f8b18-c4e8-4836-947b-b533a20a9549"},"vehicle_type_id":"4","last_reported":1726412882,"current_range_meters":33600,"station_id":"ce4bha92rcd13ifvqeg0","pricing_plan_id":"cebpf4jnsgd1na2vs0mg"},{"bike_id":"552ccea4-a0ab-4fa2-9015-1ea8da64cd61","system_id":"levelo_inurba_marseille","lat":43.25574,"lon":5.38242,"is_reserved":false,"is_disabled":false,"rental_uris":{"android":"levelo://app?vid=552ccea4-a0ab-4fa2-9015-1ea8da64cd61","ios":"levelo://app?vid=552ccea4-a0ab-4fa2-9015-1ea8da64cd61"},"vehicle_type_id":"4","last_reported":1726412882,"current_range_meters":3200,"station_id":"ce4bhih2rcd13ifvqfs0","pricing_plan_id":"cebpf4jnsgd1na2vs0mg"},{"bike_id":"c979dfc3-35c3-4581-bddc-204d4a80487c","system_id":"levelo_inurba_marseille","lat":43.2827,"lon":5.35061,"is_reserved":false,"is_disabled":false,"rental_uris":{"android":"levelo://app?vid=c979dfc3-35c3-4581-bddc-204d4a80487c","ios":"levelo://app?vid=c979dfc3-35c3-4581-bddc-204d4a80487c"},"vehicle_type_id":"4","last_reported":1726412882,"current_range_meters":38800,"station_id":"ce4bhbp2rcd13ifvqerg","pricing_plan_id":"cebpf4jnsgd1na2vs0mg"},{"bike_id":"95372436-e81c-4599-a63e-423cfb4f9e52","system_id":"levelo_inurba_marseille","lat":43.29003,"lon":5.35607,"is_reserved":false,"is_disabled":false,"rental_uris":{"android":"levelo://app?vid=95372436-e81c-4599-a63e-423cfb4f9e52","ios":"levelo://app?vid=95372436-e81c-4599-a63e-423cfb4f9e52"},"vehicle_type_id":"4","last_reported":1726412882,"current_range_meters":36000,"station_id":"ce4bhb92rcd13ifvqen0","pricing_plan_id":"cebpf4jnsgd1na2vs0mg"},{"bike_id":"17f54d56-3851-4b09-b787-dd98ac7e4c7e","system_id":"levelo_inurba_marseille","lat":43.24665,"lon":5.38163,"is_reserved":false,"is_disabled":false,"rental_uris":{"android":"levelo://app?vid=17f54d56-3851-4b09-b787-dd98ac7e4c7e","ios":"levelo://app?vid=17f54d56-3851-4b09-b787-dd98ac7e4c7e"},"vehicle_type_id":"4","last_reported":1726412882,"current_range_meters":39200,"station_id":"ce4bhih2rcd13ifvqfr0","pricing_plan_id":"cebpf4jnsgd1na2vs0mg"},{"bike_id":"7251d55d-befd-400d-90d9-ab0b68ba8caa","system_id":"levelo_inurba_marseille","lat":43.24805,"lon":5.37447,"is_reserved":false,"is_disabled":false,"rental_uris":{"android":"levelo://app?vid=7251d55d-befd-400d-90d9-ab0b68ba8caa","ios":"levelo://app?vid=7251d55d-befd-400d-90d9-ab0b68ba8caa"},"vehicle_type_id":"4","last_reported":1726412882,"current_range_meters":38000,"station_id":"ce4bhgh2rcd13ifvqfb0","pricing_plan_id":"cebpf4jnsgd1na2vs0mg"},{"bike_id":"53a2d874-293d-47cc-bdbd-a03b3468623b","system_id":"levelo_inurba_marseille","lat":43.29904,"lon":5.43667,"is_reserved":false,"is_disabled":false,"rental_uris":{"android":"levelo://app?vid=53a2d874-293d-47cc-bdbd-a03b3468623b","ios":"levelo://app?vid=53a2d874-293d-47cc-bdbd-a03b3468623b"},"vehicle_type_id":"4","last_reported":1726412882,"current_range_meters":3200,"station_id":"ce4bhpp2rcd13ifvqhfg","pricing_plan_id":"cebpf4jnsgd1na2vs0mg"},{"bike_id":"bb7acf50-b6bc-4b2d-adf4-833abc23b24c","system_id":"levelo_inurba_marseille","lat":43.2319,"lon":5.35538,"is_reserved":false,"is_disabled":false,"rental_uris":{"android":"levelo://app?vid=bb7acf50-b6bc-4b2d-adf4-833abc23b24c","ios":"levelo://app?vid=bb7acf50-b6bc-4b2d-adf4-833abc23b24c"},"vehicle_type_id":"4","last_reported":1726412882,"current_range_meters":39200,"station_id":"ce4bhu92rcd13ifvqi70","pricing_plan_id":"cebpf4jnsgd1na2vs0mg"},{"bike_id":"c869d57e-193b-4880-b483-c50ca378b67c","system_id":"levelo_inurba_marseille","lat":43.28267,"lon":5.35055,"is_reserved":false,"is_disabled":false,"rental_uris":{"android":"levelo://app?vid=c869d57e-193b-4880-b483-c50ca378b67c","ios":"levelo://app?vid=c869d57e-193b-4880-b483-c50ca378b67c"},"vehicle_type_id":"4","last_reported":1726412882,"current_range_meters":36400,"station_id":"ce4bhbp2rcd13ifvqerg","pricing_plan_id":"cebpf4jnsgd1na2vs0mg"},{"bike_id":"4c1ecf41-3292-4a63-a103-401c0bb6cad5","system_id":"levelo_inurba_marseille","lat":43.23966,"lon":5.36618,"is_reserved":false,"is_disabled":false,"rental_uris":{"android":"levelo://app?vid=4c1ecf41-3292-4a63-a103-401c0bb6cad5","ios":"levelo://app?vid=4c1ecf41-3292-4a63-a103-401c0bb6cad5"},"vehicle_type_id":"4","last_reported":1726412882,"current_range_meters":23200,"station_id":"ce4bhi12rcd13ifvqfp0","pricing_plan_id":"cebpf4jnsgd1na2vs0mg"},{"bike_id":"603236c7-9ef3-4f7d-bbbc-9b3b71c3d386","system_id":"levelo_inurba_marseille","lat":43.27682,"lon":5.38872,"is_reserved":false,"is_disabled":false,"rental_uris":{"android":"levelo://app?vid=603236c7-9ef3-4f7d-bbbc-9b3b71c3d386","ios":"levelo://app?vid=603236c7-9ef3-4f7d-bbbc-9b3b71c3d386"},"vehicle_type_id":"4","last_reported":1726412882,"current_range_meters":24400,"station_id":"ce4bhi12rcd13ifvqfo0","pricing_plan_id":"cebpf4jnsgd1na2vs0mg"},{"bike_id":"32d0c597-1844-4063-8b8b-02724571adbc","system_id":"levelo_inurba_marseille","lat":43.31722,"lon":5.4239,"is_reserved":false,"is_disabled":false,"rental_uris":{"android":"levelo://app?vid=32d0c597-1844-4063-8b8b-02724571adbc","ios":"levelo://app?vid=32d0c597-1844-4063-8b8b-02724571adbc"},"vehicle_type_id":"4","last_reported":1726412882,"current_range_meters":38800,"station_id":"ce4bhp92rcd13ifvqhbg","pricing_plan_id":"cebpf4jnsgd1na2vs0mg"},{"bike_id":"1a84fd45-e004-4ad4-8212-f91794702782","system_id":"levelo_inurba_marseille","lat":43.31488,"lon":5.373097,"is_reserved":false,"is_disabled":false,"rental_uris":{"android":"levelo://app?vid=1a84fd45-e004-4ad4-8212-f91794702782","ios":"levelo://app?vid=1a84fd45-e004-4ad4-8212-f91794702782"},"vehicle_type_id":"4","last_reported":1726412882,"current_range_meters":26800,"station_id":"ce4bgt12rcd13ifvqcd0","pricing_plan_id":"cebpf4jnsgd1na2vs0mg"},{"bike_id":"37776167-08cf-4620-b3d3-e3f67752e124","system_id":"levelo_inurba_marseille","lat":43.27066,"lon":5.422815,"is_reserved":false,"is_disabled":false,"rental_uris":{"android":"levelo://app?vid=37776167-08cf-4620-b3d3-e3f67752e124","ios":"levelo://app?vid=37776167-08cf-4620-b3d3-e3f67752e124"},"vehicle_type_id":"4","last_reported":1726412882,"current_range_meters":10800,"station_id":"ce4bhk92rcd13ifvqgb0","pricing_plan_id":"cebpf4jnsgd1na2vs0mg"},{"bike_id":"a789d6eb-6e8d-43a6-bfb6-47fe1114fad7","system_id":"levelo_inurba_marseille","lat":43.301605,"lon":5.388757,"is_reserved":false,"is_disabled":false,"rental_uris":{"android":"levelo://app?vid=a789d6eb-6e8d-43a6-bfb6-47fe1114fad7","ios":"levelo://app?vid=a789d6eb-6e8d-43a6-bfb6-47fe1114fad7"},"vehicle_type_id":"4","last_reported":1726412882,"current_range_meters":16800,"station_id":"ce4bghh2rcd13ifvqb60","pricing_plan_id":"cebpf4jnsgd1na2vs0mg"},{"bike_id":"bb046787-1b6f-4a52-9f6c-67f38be48f9e","system_id":"levelo_inurba_marseille","lat":43.24542,"lon":5.39523,"is_reserved":false,"is_disabled":false,"rental_uris":{"android":"levelo://app?vid=bb046787-1b6f-4a52-9f6c-67f38be48f9e","ios":"levelo://app?vid=bb046787-1b6f-4a52-9f6c-67f38be48f9e"},"vehicle_type_id":"4","last_reported":1726412882,"current_range_meters":30800,"station_id":"ce4bhlp2rcd13ifvqgjg","pricing_plan_id":"cebpf4jnsgd1na2vs0mg"},{"bike_id":"9c35e989-3ce7-4f76-9917-8edce8e4f51f","system_id":"levelo_inurba_marseille","lat":43.30947,"lon":5.39016,"is_reserved":false,"is_disabled":false,"rental_uris":{"android":"levelo://app?vid=9c35e989-3ce7-4f76-9917-8edce8e4f51f","ios":"levelo://app?vid=9c35e989-3ce7-4f76-9917-8edce8e4f51f"},"vehicle_type_id":"4","last_reported":1726412882,"current_range_meters":16400,"station_id":"ce4bgup2rcd13ifvqco0","pricing_plan_id":"cebpf4jnsgd1na2vs0mg"},{"bike_id":"b50c6414-87ff-4b18-ac48-91ad87e96b1f","system_id":"levelo_inurba_marseille","lat":43.31887,"lon":5.4073,"is_reserved":false,"is_disabled":false,"rental_uris":{"android":"levelo://app?vid=b50c6414-87ff-4b18-ac48-91ad87e96b1f","ios":"levelo://app?vid=b50c6414-87ff-4b18-ac48-91ad87e96b1f"},"vehicle_type_id":"4","last_reported":1726412882,"current_range_meters":8000,"station_id":"ce4bhq12rcd13ifvqhig","pricing_plan_id":"cebpf4jnsgd1na2vs0mg"},{"bike_id":"d991af3c-c878-453b-a229-cd57e669278e","system_id":"levelo_inurba_marseille","lat":43.26552,"lon":5.3729,"is_reserved":false,"is_disabled":false,"rental_uris":{"android":"levelo://app?vid=d991af3c-c878-453b-a229-cd57e669278e","ios":"levelo://app?vid=d991af3c-c878-453b-a229-cd57e669278e"},"vehicle_type_id":"4","last_reported":1726412882,"current_range_meters":38800,"station_id":"ce4bhg12rcd13ifvqf70","pricing_plan_id":"cebpf4jnsgd1na2vs0mg"},{"bike_id":"790e2d09-81b8-45d0-acef-64bbe2778152","system_id":"levelo_inurba_marseille","lat":43.296234,"lon":5.381613,"is_reserved":false,"is_disabled":false,"rental_uris":{"android":"levelo://app?vid=790e2d09-81b8-45d0-acef-64bbe2778152","ios":"levelo://app?vid=790e2d09-81b8-45d0-acef-64bbe2778152"},"vehicle_type_id":"4","last_reported":1726412882,"current_range_meters":6000,"station_id":"ce4bgip2rcd13ifvqbb0","pricing_plan_id":"cebpf4jnsgd1na2vs0mg"},{"bike_id":"6bcc742b-48ce-4914-8d02-15bb6fc592ab","system_id":"levelo_inurba_marseille","lat":43.25572,"lon":5.38228,"is_reserved":false,"is_disabled":false,"rental_uris":{"android":"levelo://app?vid=6bcc742b-48ce-4914-8d02-15bb6fc592ab","ios":"levelo://app?vid=6bcc742b-48ce-4914-8d02-15bb6fc592ab"},"vehicle_type_id":"4","last_reported":1726412882,"current_range_meters":6400,"station_id":"ce4bhih2rcd13ifvqfs0","pricing_plan_id":"cebpf4jnsgd1na2vs0mg"},{"bike_id":"88da6985-12f5-4849-8bd3-bd412b033b29","system_id":"levelo_inurba_marseille","lat":43.23063,"lon":5.35486,"is_reserved":false,"is_disabled":false,"rental_uris":{"android":"levelo://app?vid=88da6985-12f5-4849-8bd3-bd412b033b29","ios":"levelo://app?vid=88da6985-12f5-4849-8bd3-bd412b033b29"},"vehicle_type_id":"4","last_reported":1726412882,"current_range_meters":11200,"station_id":"cpo3342slgdg3j2ifvpg","pricing_plan_id":"cebpf4jnsgd1na2vs0mg"},{"bike_id":"ccc81115-c769-40cb-a420-a414e3f0cc3b","system_id":"levelo_inurba_marseille","lat":43.24389,"lon":5.37061,"is_reserved":false,"is_disabled":false,"rental_uris":{"android":"levelo://app?vid=ccc81115-c769-40cb-a420-a414e3f0cc3b","ios":"levelo://app?vid=ccc81115-c769-40cb-a420-a414e3f0cc3b"},"vehicle_type_id":"4","last_reported":1726412882,"current_range_meters":37600,"station_id":"ce4bhhh2rcd13ifvqfk0","pricing_plan_id":"cebpf4jnsgd1na2vs0mg"},{"bike_id":"b22abdb7-5888-4764-9726-27d0a4be05b3","system_id":"levelo_inurba_marseille","lat":43.25092,"lon":5.37536,"is_reserved":false,"is_disabled":false,"rental_uris":{"android":"levelo://app?vid=b22abdb7-5888-4764-9726-27d0a4be05b3","ios":"levelo://app?vid=b22abdb7-5888-4764-9726-27d0a4be05b3"},"vehicle_type_id":"4","last_reported":1726412882,"current_range_meters":3600,"station_id":"ce4bhh12rcd13ifvqff0","pricing_plan_id":"cebpf4jnsgd1na2vs0mg"},{"bike_id":"268a122d-ca48-457f-8e7e-7cea63da1a09","system_id":"levelo_inurba_marseille","lat":43.29853,"lon":5.36286,"is_reserved":false,"is_disabled":false,"rental_uris":{"android":"levelo://app?vid=268a122d-ca48-457f-8e7e-7cea63da1a09","ios":"levelo://app?vid=268a122d-ca48-457f-8e7e-7cea63da1a09"},"vehicle_type_id":"4","last_reported":1726412882,"current_range_meters":27600,"station_id":"ce4bgpp2rcd13ifvqc3g","pricing_plan_id":"cebpf4jnsgd1na2vs0mg"},{"bike_id":"e4abd7d9-e03a-4765-9f5b-243fd134ce03","system_id":"levelo_inurba_marseille","lat":43.27566,"lon":5.3841,"is_reserved":false,"is_disabled":false,"rental_uris":{"android":"levelo://app?vid=e4abd7d9-e03a-4765-9f5b-243fd134ce03","ios":"levelo://app?vid=e4abd7d9-e03a-4765-9f5b-243fd134ce03"},"vehicle_type_id":"4","last_reported":1726412882,"current_range_meters":11600,"station_id":"ce4bhh92rcd13ifvqfi0","pricing_plan_id":"cebpf4jnsgd1na2vs0mg"},{"bike_id":"66d6a6c4-1b75-45b3-ad93-39fe417b228d","system_id":"levelo_inurba_marseille","lat":43.28264,"lon":5.35056,"is_reserved":false,"is_disabled":false,"rental_uris":{"android":"levelo://app?vid=66d6a6c4-1b75-45b3-ad93-39fe417b228d","ios":"levelo://app?vid=66d6a6c4-1b75-45b3-ad93-39fe417b228d"},"vehicle_type_id":"4","last_reported":1726412882,"current_range_meters":24400,"station_id":"ce4bhbp2rcd13ifvqerg","pricing_plan_id":"cebpf4jnsgd1na2vs0mg"},{"bike_id":"e958c2af-3726-40fa-ab79-5db8e8f185d2","system_id":"levelo_inurba_marseille","lat":43.28447,"lon":5.39202,"is_reserved":false,"is_disabled":false,"rental_uris":{"android":"levelo://app?vid=e958c2af-3726-40fa-ab79-5db8e8f185d2","ios":"levelo://app?vid=e958c2af-3726-40fa-ab79-5db8e8f185d2"},"vehicle_type_id":"4","last_reported":1726412882,"current_range_meters":8000,"station_id":"ce4bhoh2rcd13ifvqh5g","pricing_plan_id":"cebpf4jnsgd1na2vs0mg"},{"bike_id":"31cbbe97-5b2e-462d-8604-ccb3360db57a","system_id":"levelo_inurba_marseille","lat":43.27609,"lon":5.36109,"is_reserved":false,"is_disabled":false,"rental_uris":{"android":"levelo://app?vid=31cbbe97-5b2e-462d-8604-ccb3360db57a","ios":"levelo://app?vid=31cbbe97-5b2e-462d-8604-ccb3360db57a"},"vehicle_type_id":"4","last_reported":1726412882,"current_range_meters":3600,"station_id":"ce4bgj92rcd13ifvqbe0","pricing_plan_id":"cebpf4jnsgd1na2vs0mg"},{"bike_id":"2a29b635-860d-4fcf-b9ef-7b9429843b40","system_id":"levelo_inurba_marseille","lat":43.31724,"lon":5.42394,"is_reserved":false,"is_disabled":false,"rental_uris":{"android":"levelo://app?vid=2a29b635-860d-4fcf-b9ef-7b9429843b40","ios":"levelo://app?vid=2a29b635-860d-4fcf-b9ef-7b9429843b40"},"vehicle_type_id":"4","last_reported":1726412882,"current_range_meters":36800,"station_id":"ce4bhp92rcd13ifvqhbg","pricing_plan_id":"cebpf4jnsgd1na2vs0mg"},{"bike_id":"5fb80b9c-4c90-47a0-bb0f-a0abc69b22ef","system_id":"levelo_inurba_marseille","lat":43.28924,"lon":5.36641,"is_reserved":false,"is_disabled":false,"rental_uris":{"android":"levelo://app?vid=5fb80b9c-4c90-47a0-bb0f-a0abc69b22ef","ios":"levelo://app?vid=5fb80b9c-4c90-47a0-bb0f-a0abc69b22ef"},"vehicle_type_id":"4","last_reported":1726412882,"current_range_meters":6400,"station_id":"ce4bhap2rcd13ifvqek0","pricing_plan_id":"cebpf4jnsgd1na2vs0mg"},{"bike_id":"7bbe25e9-0dca-4944-9f23-fbbd6caa1c90","system_id":"levelo_inurba_marseille","lat":43.33022,"lon":5.39034,"is_reserved":false,"is_disabled":false,"rental_uris":{"android":"levelo://app?vid=7bbe25e9-0dca-4944-9f23-fbbd6caa1c90","ios":"levelo://app?vid=7bbe25e9-0dca-4944-9f23-fbbd6caa1c90"},"vehicle_type_id":"4","last_reported":1726412882,"current_range_meters":30800,"station_id":"ce4bhr92rcd13ifvqhrg","pricing_plan_id":"cebpf4jnsgd1na2vs0mg"},{"bike_id":"8f0fc759-db34-435a-b1fc-2a4b3e7e475f","system_id":"levelo_inurba_marseille","lat":43.28153,"lon":5.42635,"is_reserved":false,"is_disabled":false,"rental_uris":{"android":"levelo://app?vid=8f0fc759-db34-435a-b1fc-2a4b3e7e475f","ios":"levelo://app?vid=8f0fc759-db34-435a-b1fc-2a4b3e7e475f"},"vehicle_type_id":"4","last_reported":1726412882,"current_range_meters":12400,"station_id":"ce4bhnh2rcd13ifvqgug","pricing_plan_id":"cebpf4jnsgd1na2vs0mg"},{"bike_id":"9847f9c4-8a28-4e9e-94c2-73fa602be9ca","system_id":"levelo_inurba_marseille","lat":43.30924,"lon":5.40137,"is_reserved":false,"is_disabled":false,"rental_uris":{"android":"levelo://app?vid=9847f9c4-8a28-4e9e-94c2-73fa602be9ca","ios":"levelo://app?vid=9847f9c4-8a28-4e9e-94c2-73fa602be9ca"},"vehicle_type_id":"4","last_reported":1726412882,"current_range_meters":3200,"station_id":"ce4bgvp2rcd13ifvqct0","pricing_plan_id":"cebpf4jnsgd1na2vs0mg"},{"bike_id":"61e00977-be43-400f-99ea-3c33330f7657","system_id":"levelo_inurba_marseille","lat":43.25007,"lon":5.38914,"is_reserved":false,"is_disabled":false,"rental_uris":{"android":"levelo://app?vid=61e00977-be43-400f-99ea-3c33330f7657","ios":"levelo://app?vid=61e00977-be43-400f-99ea-3c33330f7657"},"vehicle_type_id":"4","last_reported":1726412882,"current_range_meters":13600,"station_id":"ce4bhgp2rcd13ifvqfd0","pricing_plan_id":"cebpf4jnsgd1na2vs0mg"},{"bike_id":"d1f38fcd-be46-4877-a9ac-34b365272c30","system_id":"levelo_inurba_marseille","lat":43.27102,"lon":5.43322,"is_reserved":false,"is_disabled":false,"rental_uris":{"android":"levelo://app?vid=d1f38fcd-be46-4877-a9ac-34b365272c30","ios":"levelo://app?vid=d1f38fcd-be46-4877-a9ac-34b365272c30"},"vehicle_type_id":"4","last_reported":1726412882,"current_range_meters":14800,"station_id":"","pricing_plan_id":"cebpf4jnsgd1na2vs0mg"},{"bike_id":"d99b1afe-8a34-47ef-a6f7-a4860e2db901","system_id":"levelo_inurba_marseille","lat":43.304306,"lon":5.397387,"is_reserved":false,"is_disabled":false,"rental_uris":{"android":"levelo://app?vid=d99b1afe-8a34-47ef-a6f7-a4860e2db901","ios":"levelo://app?vid=d99b1afe-8a34-47ef-a6f7-a4860e2db901"},"vehicle_type_id":"4","last_reported":1726412882,"current_range_meters":10000,"station_id":"ce4bh092rcd13ifvqd20","pricing_plan_id":"cebpf4jnsgd1na2vs0mg"},{"bike_id":"2c36f173-7fe7-45a3-b0b4-69fddd6ecd2c","system_id":"levelo_inurba_marseille","lat":43.2762,"lon":5.36105,"is_reserved":false,"is_disabled":false,"rental_uris":{"android":"levelo://app?vid=2c36f173-7fe7-45a3-b0b4-69fddd6ecd2c","ios":"levelo://app?vid=2c36f173-7fe7-45a3-b0b4-69fddd6ecd2c"},"vehicle_type_id":"4","last_reported":1726412882,"current_range_meters":18800,"station_id":"ce4bgj92rcd13ifvqbe0","pricing_plan_id":"cebpf4jnsgd1na2vs0mg"},{"bike_id":"72ca95f3-7a18-4205-afdd-0ed8bae334a5","system_id":"levelo_inurba_marseille","lat":43.284058,"lon":5.349751,"is_reserved":false,"is_disabled":false,"rental_uris":{"android":"levelo://app?vid=72ca95f3-7a18-4205-afdd-0ed8bae334a5","ios":"levelo://app?vid=72ca95f3-7a18-4205-afdd-0ed8bae334a5"},"vehicle_type_id":"4","last_reported":1726412882,"current_range_meters":38800,"station_id":"ce4bhbh2rcd13ifvqepg","pricing_plan_id":"cebpf4jnsgd1na2vs0mg"},{"bike_id":"9dc208a1-24b4-47c3-b006-6024153b4bc4","system_id":"levelo_inurba_marseille","lat":43.26199,"lon":5.37454,"is_reserved":false,"is_disabled":false,"rental_uris":{"android":"levelo://app?vid=9dc208a1-24b4-47c3-b006-6024153b4bc4","ios":"levelo://app?vid=9dc208a1-24b4-47c3-b006-6024153b4bc4"},"vehicle_type_id":"4","last_reported":1726412882,"current_range_meters":38800,"station_id":"ce4bhgp2rcd13ifvqfc0","pricing_plan_id":"cebpf4jnsgd1na2vs0mg"},{"bike_id":"46492db6-e15b-4d8b-8244-fe4f6cfe1a7f","system_id":"levelo_inurba_marseille","lat":43.28411,"lon":5.34982,"is_reserved":false,"is_disabled":false,"rental_uris":{"android":"levelo://app?vid=46492db6-e15b-4d8b-8244-fe4f6cfe1a7f","ios":"levelo://app?vid=46492db6-e15b-4d8b-8244-fe4f6cfe1a7f"},"vehicle_type_id":"4","last_reported":1726412882,"current_range_meters":38800,"station_id":"ce4bhbh2rcd13ifvqepg","pricing_plan_id":"cebpf4jnsgd1na2vs0mg"},{"bike_id":"f9076aec-56e7-4b2e-a7b1-575337aca9d5","system_id":"levelo_inurba_marseille","lat":43.24173,"lon":5.36395,"is_reserved":false,"is_disabled":false,"rental_uris":{"android":"levelo://app?vid=f9076aec-56e7-4b2e-a7b1-575337aca9d5","ios":"levelo://app?vid=f9076aec-56e7-4b2e-a7b1-575337aca9d5"},"vehicle_type_id":"4","last_reported":1726412882,"current_range_meters":27600,"station_id":"cpo36qri1sfpv3e86is0","pricing_plan_id":"cebpf4jnsgd1na2vs0mg"},{"bike_id":"91f7e9e5-076e-4e3a-8acf-289dc20e3d9f","system_id":"levelo_inurba_marseille","lat":43.31724,"lon":5.42399,"is_reserved":false,"is_disabled":false,"rental_uris":{"android":"levelo://app?vid=91f7e9e5-076e-4e3a-8acf-289dc20e3d9f","ios":"levelo://app?vid=91f7e9e5-076e-4e3a-8acf-289dc20e3d9f"},"vehicle_type_id":"4","last_reported":1726412882,"current_range_meters":36800,"station_id":"ce4bhp92rcd13ifvqhbg","pricing_plan_id":"cebpf4jnsgd1na2vs0mg"},{"bike_id":"3a83f741-3d2c-4d73-a9d9-a8e0fd306978","system_id":"levelo_inurba_marseille","lat":43.2549,"lon":5.37646,"is_reserved":false,"is_disabled":false,"rental_uris":{"android":"levelo://app?vid=3a83f741-3d2c-4d73-a9d9-a8e0fd306978","ios":"levelo://app?vid=3a83f741-3d2c-4d73-a9d9-a8e0fd306978"},"vehicle_type_id":"4","last_reported":1726412882,"current_range_meters":36400,"station_id":"ce4bhh12rcd13ifvqff0","pricing_plan_id":"cebpf4jnsgd1na2vs0mg"},{"bike_id":"d4dcec5a-b0b6-4319-8584-aaf3103d153c","system_id":"levelo_inurba_marseille","lat":43.29562,"lon":5.42276,"is_reserved":false,"is_disabled":false,"rental_uris":{"android":"levelo://app?vid=d4dcec5a-b0b6-4319-8584-aaf3103d153c","ios":"levelo://app?vid=d4dcec5a-b0b6-4319-8584-aaf3103d153c"},"vehicle_type_id":"4","last_reported":1726412882,"current_range_meters":35600,"station_id":"ce4bhph2rcd13ifvqhdg","pricing_plan_id":"cebpf4jnsgd1na2vs0mg"},{"bike_id":"98daa725-35ed-41ee-af7d-b7cd152deb01","system_id":"levelo_inurba_marseille","lat":43.24556,"lon":5.39526,"is_reserved":false,"is_disabled":false,"rental_uris":{"android":"levelo://app?vid=98daa725-35ed-41ee-af7d-b7cd152deb01","ios":"levelo://app?vid=98daa725-35ed-41ee-af7d-b7cd152deb01"},"vehicle_type_id":"4","last_reported":1726412882,"current_range_meters":9600,"station_id":"ce4bhlp2rcd13ifvqgjg","pricing_plan_id":"cebpf4jnsgd1na2vs0mg"},{"bike_id":"8bb439f1-a9fe-4af6-a0a1-3aeb42b34c02","system_id":"levelo_inurba_marseille","lat":43.27075,"lon":5.42276,"is_reserved":false,"is_disabled":false,"rental_uris":{"android":"levelo://app?vid=8bb439f1-a9fe-4af6-a0a1-3aeb42b34c02","ios":"levelo://app?vid=8bb439f1-a9fe-4af6-a0a1-3aeb42b34c02"},"vehicle_type_id":"4","last_reported":1726412882,"current_range_meters":16000,"station_id":"ce4bhk92rcd13ifvqgb0","pricing_plan_id":"cebpf4jnsgd1na2vs0mg"},{"bike_id":"5263c75a-b0ca-4e1c-9976-2df708ba914c","system_id":"levelo_inurba_marseille","lat":43.29561,"lon":5.42287,"is_reserved":false,"is_disabled":false,"rental_uris":{"android":"levelo://app?vid=5263c75a-b0ca-4e1c-9976-2df708ba914c","ios":"levelo://app?vid=5263c75a-b0ca-4e1c-9976-2df708ba914c"},"vehicle_type_id":"4","last_reported":1726412882,"current_range_meters":10800,"station_id":"ce4bhph2rcd13ifvqhdg","pricing_plan_id":"cebpf4jnsgd1na2vs0mg"},{"bike_id":"d69d20b8-02d1-4827-bee1-232b4c104ae1","system_id":"levelo_inurba_marseille","lat":43.28159,"lon":5.4264,"is_reserved":false,"is_disabled":false,"rental_uris":{"android":"levelo://app?vid=d69d20b8-02d1-4827-bee1-232b4c104ae1","ios":"levelo://app?vid=d69d20b8-02d1-4827-bee1-232b4c104ae1"},"vehicle_type_id":"4","last_reported":1726412882,"current_range_meters":4400,"station_id":"ce4bhnh2rcd13ifvqgug","pricing_plan_id":"cebpf4jnsgd1na2vs0mg"},{"bike_id":"a28db5e5-4c3c-4bdf-92cd-7352593cc204","system_id":"levelo_inurba_marseille","lat":43.28707,"lon":5.39987,"is_reserved":false,"is_disabled":false,"rental_uris":{"android":"levelo://app?vid=a28db5e5-4c3c-4bdf-92cd-7352593cc204","ios":"levelo://app?vid=a28db5e5-4c3c-4bdf-92cd-7352593cc204"},"vehicle_type_id":"4","last_reported":1726412882,"current_range_meters":38800,"station_id":"ce4bho92rcd13ifvqh3g","pricing_plan_id":"cebpf4jnsgd1na2vs0mg"},{"bike_id":"c074f56f-b838-47df-bfb9-7a54c5713547","system_id":"levelo_inurba_marseille","lat":43.2439,"lon":5.37067,"is_reserved":false,"is_disabled":false,"rental_uris":{"android":"levelo://app?vid=c074f56f-b838-47df-bfb9-7a54c5713547","ios":"levelo://app?vid=c074f56f-b838-47df-bfb9-7a54c5713547"},"vehicle_type_id":"4","last_reported":1726412882,"current_range_meters":36000,"station_id":"ce4bhhh2rcd13ifvqfk0","pricing_plan_id":"cebpf4jnsgd1na2vs0mg"},{"bike_id":"79735827-ec70-48e2-9a42-285c19fb0c93","system_id":"levelo_inurba_marseille","lat":43.24077,"lon":5.37743,"is_reserved":false,"is_disabled":false,"rental_uris":{"android":"levelo://app?vid=79735827-ec70-48e2-9a42-285c19fb0c93","ios":"levelo://app?vid=79735827-ec70-48e2-9a42-285c19fb0c93"},"vehicle_type_id":"4","last_reported":1726412882,"current_range_meters":26000,"station_id":"ce4bhnp2rcd13ifvqgvg","pricing_plan_id":"cebpf4jnsgd1na2vs0mg"},{"bike_id":"1533e0c0-d971-4c19-9628-27f98e4c32da","system_id":"levelo_inurba_marseille","lat":43.2803,"lon":5.36935,"is_reserved":false,"is_disabled":false,"rental_uris":{"android":"levelo://app?vid=1533e0c0-d971-4c19-9628-27f98e4c32da","ios":"levelo://app?vid=1533e0c0-d971-4c19-9628-27f98e4c32da"},"vehicle_type_id":"4","last_reported":1726412882,"current_range_meters":27600,"station_id":"ce4bha12rcd13ifvqef0","pricing_plan_id":"cebpf4jnsgd1na2vs0mg"},{"bike_id":"93678763-4333-4af4-a349-b34d9f12786d","system_id":"levelo_inurba_marseille","lat":43.2293,"lon":5.35376,"is_reserved":false,"is_disabled":false,"rental_uris":{"android":"levelo://app?vid=93678763-4333-4af4-a349-b34d9f12786d","ios":"levelo://app?vid=93678763-4333-4af4-a349-b34d9f12786d"},"vehicle_type_id":"4","last_reported":1726412882,"current_range_meters":31200,"station_id":"cpo3532slgdg3j2ikp40","pricing_plan_id":"cebpf4jnsgd1na2vs0mg"},{"bike_id":"a384aa56-2dd2-4c8f-9043-785608a6d780","system_id":"levelo_inurba_marseille","lat":43.24081,"lon":5.3775,"is_reserved":false,"is_disabled":false,"rental_uris":{"android":"levelo://app?vid=a384aa56-2dd2-4c8f-9043-785608a6d780","ios":"levelo://app?vid=a384aa56-2dd2-4c8f-9043-785608a6d780"},"vehicle_type_id":"4","last_reported":1726412882,"current_range_meters":12000,"station_id":"ce4bhnp2rcd13ifvqgvg","pricing_plan_id":"cebpf4jnsgd1na2vs0mg"},{"bike_id":"ad6f2a99-5e7d-421c-91df-6e2b2cbbd548","system_id":"levelo_inurba_marseille","lat":43.29558,"lon":5.42276,"is_reserved":false,"is_disabled":false,"rental_uris":{"android":"levelo://app?vid=ad6f2a99-5e7d-421c-91df-6e2b2cbbd548","ios":"levelo://app?vid=ad6f2a99-5e7d-421c-91df-6e2b2cbbd548"},"vehicle_type_id":"4","last_reported":1726412882,"current_range_meters":26800,"station_id":"ce4bhph2rcd13ifvqhdg","pricing_plan_id":"cebpf4jnsgd1na2vs0mg"},{"bike_id":"e697fa6c-66d7-4881-86f5-3551b834ed7c","system_id":"levelo_inurba_marseille","lat":43.28619,"lon":5.35103,"is_reserved":false,"is_disabled":false,"rental_uris":{"android":"levelo://app?vid=e697fa6c-66d7-4881-86f5-3551b834ed7c","ios":"levelo://app?vid=e697fa6c-66d7-4881-86f5-3551b834ed7c"},"vehicle_type_id":"4","last_reported":1726412882,"current_range_meters":26000,"station_id":"ce4bhch2rcd13ifvqeug","pricing_plan_id":"cebpf4jnsgd1na2vs0mg"},{"bike_id":"76e13533-bcb4-42c5-8789-13c5ac811b18","system_id":"levelo_inurba_marseille","lat":43.286594,"lon":5.363434,"is_reserved":false,"is_disabled":false,"rental_uris":{"android":"levelo://app?vid=76e13533-bcb4-42c5-8789-13c5ac811b18","ios":"levelo://app?vid=76e13533-bcb4-42c5-8789-13c5ac811b18"},"vehicle_type_id":"4","last_reported":1726412882,"current_range_meters":38000,"station_id":"ce4bhah2rcd13ifvqej0","pricing_plan_id":"cebpf4jnsgd1na2vs0mg"},{"bike_id":"c840fd26-2b17-45a9-aac9-92d3f1ce47b3","system_id":"levelo_inurba_marseille","lat":43.23194,"lon":5.35546,"is_reserved":false,"is_disabled":false,"rental_uris":{"android":"levelo://app?vid=c840fd26-2b17-45a9-aac9-92d3f1ce47b3","ios":"levelo://app?vid=c840fd26-2b17-45a9-aac9-92d3f1ce47b3"},"vehicle_type_id":"4","last_reported":1726412882,"current_range_meters":22800,"station_id":"ce4bhu92rcd13ifvqi70","pricing_plan_id":"cebpf4jnsgd1na2vs0mg"},{"bike_id":"4db921f2-bc23-49f4-8a24-f619c1eace61","system_id":"levelo_inurba_marseille","lat":43.2319,"lon":5.35533,"is_reserved":false,"is_disabled":false,"rental_uris":{"android":"levelo://app?vid=4db921f2-bc23-49f4-8a24-f619c1eace61","ios":"levelo://app?vid=4db921f2-bc23-49f4-8a24-f619c1eace61"},"vehicle_type_id":"4","last_reported":1726412882,"current_range_meters":22400,"station_id":"ce4bhu92rcd13ifvqi70","pricing_plan_id":"cebpf4jnsgd1na2vs0mg"},{"bike_id":"7185ed72-0f90-4a55-97ce-d4341163a2af","system_id":"levelo_inurba_marseille","lat":43.29555,"lon":5.42288,"is_reserved":false,"is_disabled":false,"rental_uris":{"android":"levelo://app?vid=7185ed72-0f90-4a55-97ce-d4341163a2af","ios":"levelo://app?vid=7185ed72-0f90-4a55-97ce-d4341163a2af"},"vehicle_type_id":"4","last_reported":1726412882,"current_range_meters":12400,"station_id":"ce4bhph2rcd13ifvqhdg","pricing_plan_id":"cebpf4jnsgd1na2vs0mg"},{"bike_id":"4e745550-1760-4cb8-973a-5e885eb87988","system_id":"levelo_inurba_marseille","lat":43.252655,"lon":5.394668,"is_reserved":false,"is_disabled":false,"rental_uris":{"android":"levelo://app?vid=4e745550-1760-4cb8-973a-5e885eb87988","ios":"levelo://app?vid=4e745550-1760-4cb8-973a-5e885eb87988"},"vehicle_type_id":"4","last_reported":1726412882,"current_range_meters":36800,"station_id":"","pricing_plan_id":"cebpf4jnsgd1na2vs0mg"},{"bike_id":"ef047a4a-31d4-4e0c-93e5-b79c7ae349ea","system_id":"levelo_inurba_marseille","lat":43.286139,"lon":5.351001,"is_reserved":false,"is_disabled":false,"rental_uris":{"android":"levelo://app?vid=ef047a4a-31d4-4e0c-93e5-b79c7ae349ea","ios":"levelo://app?vid=ef047a4a-31d4-4e0c-93e5-b79c7ae349ea"},"vehicle_type_id":"4","last_reported":1726412882,"current_range_meters":16800,"station_id":"ce4bhch2rcd13ifvqeug","pricing_plan_id":"cebpf4jnsgd1na2vs0mg"},{"bike_id":"328d45f9-980e-4811-97c0-47d761861509","system_id":"levelo_inurba_marseille","lat":43.29847,"lon":5.37836,"is_reserved":false,"is_disabled":false,"rental_uris":{"android":"levelo://app?vid=328d45f9-980e-4811-97c0-47d761861509","ios":"levelo://app?vid=328d45f9-980e-4811-97c0-47d761861509"},"vehicle_type_id":"4","last_reported":1726412882,"current_range_meters":28000,"station_id":"ce4bgkh2rcd13ifvqbl0","pricing_plan_id":"cebpf4jnsgd1na2vs0mg"},{"bike_id":"3b51f764-c75e-47b9-9ce2-0fdae7022f59","system_id":"levelo_inurba_marseille","lat":43.24824,"lon":5.39216,"is_reserved":false,"is_disabled":false,"rental_uris":{"android":"levelo://app?vid=3b51f764-c75e-47b9-9ce2-0fdae7022f59","ios":"levelo://app?vid=3b51f764-c75e-47b9-9ce2-0fdae7022f59"},"vehicle_type_id":"4","last_reported":1726412882,"current_range_meters":3200,"station_id":"","pricing_plan_id":"cebpf4jnsgd1na2vs0mg"},{"bike_id":"d3d6aa2e-8456-4dc1-93c0-97578724dfa4","system_id":"levelo_inurba_marseille","lat":43.26931,"lon":5.38914,"is_reserved":false,"is_disabled":false,"rental_uris":{"android":"levelo://app?vid=d3d6aa2e-8456-4dc1-93c0-97578724dfa4","ios":"levelo://app?vid=d3d6aa2e-8456-4dc1-93c0-97578724dfa4"},"vehicle_type_id":"4","last_reported":1726412882,"current_range_meters":16800,"station_id":"ce4bhhh2rcd13ifvqfl0","pricing_plan_id":"cebpf4jnsgd1na2vs0mg"},{"bike_id":"faf816e6-4e87-4e93-88d4-5861eae33b5c","system_id":"levelo_inurba_marseille","lat":43.24078,"lon":5.3775,"is_reserved":false,"is_disabled":false,"rental_uris":{"android":"levelo://app?vid=faf816e6-4e87-4e93-88d4-5861eae33b5c","ios":"levelo://app?vid=faf816e6-4e87-4e93-88d4-5861eae33b5c"},"vehicle_type_id":"4","last_reported":1726412882,"current_range_meters":25600,"station_id":"ce4bhnp2rcd13ifvqgvg","pricing_plan_id":"cebpf4jnsgd1na2vs0mg"},{"bike_id":"9b622166-609b-42e3-a193-9f9652982890","system_id":"levelo_inurba_marseille","lat":43.31715,"lon":5.43698,"is_reserved":false,"is_disabled":false,"rental_uris":{"android":"levelo://app?vid=9b622166-609b-42e3-a193-9f9652982890","ios":"levelo://app?vid=9b622166-609b-42e3-a193-9f9652982890"},"vehicle_type_id":"4","last_reported":1726412882,"current_range_meters":38000,"station_id":"ce4bhp92rcd13ifvqhcg","pricing_plan_id":"cebpf4jnsgd1na2vs0mg"},{"bike_id":"2e4af3a0-e4cf-4238-b460-343d9fb7e051","system_id":"levelo_inurba_marseille","lat":43.32488,"lon":5.36581,"is_reserved":false,"is_disabled":false,"rental_uris":{"android":"levelo://app?vid=2e4af3a0-e4cf-4238-b460-343d9fb7e051","ios":"levelo://app?vid=2e4af3a0-e4cf-4238-b460-343d9fb7e051"},"vehicle_type_id":"4","last_reported":1726412882,"current_range_meters":2800,"station_id":"ce4bhs12rcd13ifvqhvg","pricing_plan_id":"cebpf4jnsgd1na2vs0mg"},{"bike_id":"7e512072-6c2f-4e40-a9d3-1a66b836f80e","system_id":"levelo_inurba_marseille","lat":43.28268,"lon":5.35052,"is_reserved":false,"is_disabled":false,"rental_uris":{"android":"levelo://app?vid=7e512072-6c2f-4e40-a9d3-1a66b836f80e","ios":"levelo://app?vid=7e512072-6c2f-4e40-a9d3-1a66b836f80e"},"vehicle_type_id":"4","last_reported":1726412882,"current_range_meters":38800,"station_id":"ce4bhbp2rcd13ifvqerg","pricing_plan_id":"cebpf4jnsgd1na2vs0mg"},{"bike_id":"953311f4-6441-4122-b1a3-fb37a68c6973","system_id":"levelo_inurba_marseille","lat":43.29445,"lon":5.3974,"is_reserved":false,"is_disabled":false,"rental_uris":{"android":"levelo://app?vid=953311f4-6441-4122-b1a3-fb37a68c6973","ios":"levelo://app?vid=953311f4-6441-4122-b1a3-fb37a68c6973"},"vehicle_type_id":"4","last_reported":1726412882,"current_range_meters":3200,"station_id":"ce4bh3h2rcd13ifvqdo0","pricing_plan_id":"cebpf4jnsgd1na2vs0mg"},{"bike_id":"8b608b96-fedf-4511-8d4b-09bad2606e1a","system_id":"levelo_inurba_marseille","lat":43.27725,"lon":5.41127,"is_reserved":false,"is_disabled":false,"rental_uris":{"android":"levelo://app?vid=8b608b96-fedf-4511-8d4b-09bad2606e1a","ios":"levelo://app?vid=8b608b96-fedf-4511-8d4b-09bad2606e1a"},"vehicle_type_id":"4","last_reported":1726412882,"current_range_meters":20800,"station_id":"","pricing_plan_id":"cebpf4jnsgd1na2vs0mg"},{"bike_id":"ca7c1f41-bd6a-4c13-949f-4ef0a14fd781","system_id":"levelo_inurba_marseille","lat":43.28157,"lon":5.42638,"is_reserved":false,"is_disabled":false,"rental_uris":{"android":"levelo://app?vid=ca7c1f41-bd6a-4c13-949f-4ef0a14fd781","ios":"levelo://app?vid=ca7c1f41-bd6a-4c13-949f-4ef0a14fd781"},"vehicle_type_id":"4","last_reported":1726412882,"current_range_meters":26000,"station_id":"ce4bhnh2rcd13ifvqgug","pricing_plan_id":"cebpf4jnsgd1na2vs0mg"},{"bike_id":"d6149948-cc69-48c8-b75f-51b423ee5546","system_id":"levelo_inurba_marseille","lat":43.3116,"lon":5.39347,"is_reserved":false,"is_disabled":false,"rental_uris":{"android":"levelo://app?vid=d6149948-cc69-48c8-b75f-51b423ee5546","ios":"levelo://app?vid=d6149948-cc69-48c8-b75f-51b423ee5546"},"vehicle_type_id":"4","last_reported":1726412882,"current_range_meters":27200,"station_id":"","pricing_plan_id":"cebpf4jnsgd1na2vs0mg"},{"bike_id":"1485276f-f276-4cc1-a31f-bd75a4191f36","system_id":"levelo_inurba_marseille","lat":43.27376,"lon":5.36241,"is_reserved":false,"is_disabled":false,"rental_uris":{"android":"levelo://app?vid=1485276f-f276-4cc1-a31f-bd75a4191f36","ios":"levelo://app?vid=1485276f-f276-4cc1-a31f-bd75a4191f36"},"vehicle_type_id":"4","last_reported":1726412882,"current_range_meters":38800,"station_id":"ce4bhbh2rcd13ifvqeo0","pricing_plan_id":"cebpf4jnsgd1na2vs0mg"},{"bike_id":"fa2b0a9f-66ad-4cd1-b7bb-93b9cffdc904","system_id":"levelo_inurba_marseille","lat":43.25931,"lon":5.40906,"is_reserved":false,"is_disabled":false,"rental_uris":{"android":"levelo://app?vid=fa2b0a9f-66ad-4cd1-b7bb-93b9cffdc904","ios":"levelo://app?vid=fa2b0a9f-66ad-4cd1-b7bb-93b9cffdc904"},"vehicle_type_id":"4","last_reported":1726412882,"current_range_meters":32400,"station_id":"ce4bhm92rcd13ifvqglg","pricing_plan_id":"cebpf4jnsgd1na2vs0mg"},{"bike_id":"3061447c-705e-4f16-8e7d-80842a4d1ff5","system_id":"levelo_inurba_marseille","lat":43.27462,"lon":5.39447,"is_reserved":false,"is_disabled":false,"rental_uris":{"android":"levelo://app?vid=3061447c-705e-4f16-8e7d-80842a4d1ff5","ios":"levelo://app?vid=3061447c-705e-4f16-8e7d-80842a4d1ff5"},"vehicle_type_id":"4","last_reported":1726412882,"current_range_meters":38800,"station_id":"ce4bhdp2rcd13ifvqf20","pricing_plan_id":"cebpf4jnsgd1na2vs0mg"},{"bike_id":"d2ca61ed-07b0-4f91-990e-b98a38e76d1b","system_id":"levelo_inurba_marseille","lat":43.24069,"lon":5.37748,"is_reserved":false,"is_disabled":false,"rental_uris":{"android":"levelo://app?vid=d2ca61ed-07b0-4f91-990e-b98a38e76d1b","ios":"levelo://app?vid=d2ca61ed-07b0-4f91-990e-b98a38e76d1b"},"vehicle_type_id":"4","last_reported":1726412882,"current_range_meters":11600,"station_id":"ce4bhnp2rcd13ifvqgvg","pricing_plan_id":"cebpf4jnsgd1na2vs0mg"},{"bike_id":"be3580cc-5597-48ff-bbfe-6a25fd4800e2","system_id":"levelo_inurba_marseille","lat":43.31728,"lon":5.4239,"is_reserved":false,"is_disabled":false,"rental_uris":{"android":"levelo://app?vid=be3580cc-5597-48ff-bbfe-6a25fd4800e2","ios":"levelo://app?vid=be3580cc-5597-48ff-bbfe-6a25fd4800e2"},"vehicle_type_id":"4","last_reported":1726412882,"current_range_meters":38800,"station_id":"ce4bhp92rcd13ifvqhbg","pricing_plan_id":"cebpf4jnsgd1na2vs0mg"},{"bike_id":"03dd0fcd-c413-43d9-9706-698be86ebf1a","system_id":"levelo_inurba_marseille","lat":43.23965,"lon":5.36634,"is_reserved":false,"is_disabled":false,"rental_uris":{"android":"levelo://app?vid=03dd0fcd-c413-43d9-9706-698be86ebf1a","ios":"levelo://app?vid=03dd0fcd-c413-43d9-9706-698be86ebf1a"},"vehicle_type_id":"4","last_reported":1726412882,"current_range_meters":14000,"station_id":"ce4bhi12rcd13ifvqfp0","pricing_plan_id":"cebpf4jnsgd1na2vs0mg"},{"bike_id":"cfb37c60-7852-4366-88b0-595370ea00e3","system_id":"levelo_inurba_marseille","lat":43.30877,"lon":5.39626,"is_reserved":false,"is_disabled":false,"rental_uris":{"android":"levelo://app?vid=cfb37c60-7852-4366-88b0-595370ea00e3","ios":"levelo://app?vid=cfb37c60-7852-4366-88b0-595370ea00e3"},"vehicle_type_id":"4","last_reported":1726412882,"current_range_meters":22800,"station_id":"ce4bhc92rcd13ifvqetg","pricing_plan_id":"cebpf4jnsgd1na2vs0mg"},{"bike_id":"dd0ef3e3-509a-463c-9acb-5f05f83c9125","system_id":"levelo_inurba_marseille","lat":43.28405,"lon":5.34977,"is_reserved":false,"is_disabled":false,"rental_uris":{"android":"levelo://app?vid=dd0ef3e3-509a-463c-9acb-5f05f83c9125","ios":"levelo://app?vid=dd0ef3e3-509a-463c-9acb-5f05f83c9125"},"vehicle_type_id":"4","last_reported":1726412882,"current_range_meters":12800,"station_id":"ce4bhbh2rcd13ifvqepg","pricing_plan_id":"cebpf4jnsgd1na2vs0mg"},{"bike_id":"369f4b3c-77ce-4b0c-98e9-a6ca210b2917","system_id":"levelo_inurba_marseille","lat":43.27072,"lon":5.42269,"is_reserved":false,"is_disabled":false,"rental_uris":{"android":"levelo://app?vid=369f4b3c-77ce-4b0c-98e9-a6ca210b2917","ios":"levelo://app?vid=369f4b3c-77ce-4b0c-98e9-a6ca210b2917"},"vehicle_type_id":"4","last_reported":1726412882,"current_range_meters":38800,"station_id":"ce4bhk92rcd13ifvqgb0","pricing_plan_id":"cebpf4jnsgd1na2vs0mg"},{"bike_id":"f1e8ceee-9573-4b77-ab79-482d0d3b70cc","system_id":"levelo_inurba_marseille","lat":43.2417,"lon":5.36401,"is_reserved":false,"is_disabled":false,"rental_uris":{"android":"levelo://app?vid=f1e8ceee-9573-4b77-ab79-482d0d3b70cc","ios":"levelo://app?vid=f1e8ceee-9573-4b77-ab79-482d0d3b70cc"},"vehicle_type_id":"4","last_reported":1726412882,"current_range_meters":35600,"station_id":"cpo36qri1sfpv3e86is0","pricing_plan_id":"cebpf4jnsgd1na2vs0mg"},{"bike_id":"eadb56fa-79db-4b74-8bb9-a52c01426fe3","system_id":"levelo_inurba_marseille","lat":43.27418,"lon":5.39403,"is_reserved":false,"is_disabled":false,"rental_uris":{"android":"levelo://app?vid=eadb56fa-79db-4b74-8bb9-a52c01426fe3","ios":"levelo://app?vid=eadb56fa-79db-4b74-8bb9-a52c01426fe3"},"vehicle_type_id":"4","last_reported":1726412882,"current_range_meters":23200,"station_id":"ce4bhdp2rcd13ifvqf20","pricing_plan_id":"cebpf4jnsgd1na2vs0mg"},{"bike_id":"f504723b-d33b-404f-894d-663133f5aa8f","system_id":"levelo_inurba_marseille","lat":43.29265,"lon":5.38426,"is_reserved":false,"is_disabled":false,"rental_uris":{"android":"levelo://app?vid=f504723b-d33b-404f-894d-663133f5aa8f","ios":"levelo://app?vid=f504723b-d33b-404f-894d-663133f5aa8f"},"vehicle_type_id":"4","last_reported":1726412882,"current_range_meters":31200,"station_id":"ce4bh692rcd13ifvqea0","pricing_plan_id":"cebpf4jnsgd1na2vs0mg"},{"bike_id":"7bbb1d12-2f23-47b9-9dd8-7c9b5fe5c505","system_id":"levelo_inurba_marseille","lat":43.243921,"lon":5.370674,"is_reserved":false,"is_disabled":false,"rental_uris":{"android":"levelo://app?vid=7bbb1d12-2f23-47b9-9dd8-7c9b5fe5c505","ios":"levelo://app?vid=7bbb1d12-2f23-47b9-9dd8-7c9b5fe5c505"},"vehicle_type_id":"4","last_reported":1726412882,"current_range_meters":3600,"station_id":"ce4bhhh2rcd13ifvqfk0","pricing_plan_id":"cebpf4jnsgd1na2vs0mg"},{"bike_id":"0f647097-c17c-4062-a9e5-1deba499f0d0","system_id":"levelo_inurba_marseille","lat":43.24816,"lon":5.37457,"is_reserved":false,"is_disabled":false,"rental_uris":{"android":"levelo://app?vid=0f647097-c17c-4062-a9e5-1deba499f0d0","ios":"levelo://app?vid=0f647097-c17c-4062-a9e5-1deba499f0d0"},"vehicle_type_id":"4","last_reported":1726412882,"current_range_meters":37600,"station_id":"ce4bhgh2rcd13ifvqfb0","pricing_plan_id":"cebpf4jnsgd1na2vs0mg"},{"bike_id":"42697fbd-f736-4094-a7ac-5c78a5478024","system_id":"levelo_inurba_marseille","lat":43.23055,"lon":5.3549,"is_reserved":false,"is_disabled":false,"rental_uris":{"android":"levelo://app?vid=42697fbd-f736-4094-a7ac-5c78a5478024","ios":"levelo://app?vid=42697fbd-f736-4094-a7ac-5c78a5478024"},"vehicle_type_id":"4","last_reported":1726412882,"current_range_meters":30400,"station_id":"cpo3342slgdg3j2ifvpg","pricing_plan_id":"cebpf4jnsgd1na2vs0mg"},{"bike_id":"0e5a3bf8-e7be-4e70-aca4-d97d6e03c7dd","system_id":"levelo_inurba_marseille","lat":43.33023,"lon":5.39046,"is_reserved":false,"is_disabled":false,"rental_uris":{"android":"levelo://app?vid=0e5a3bf8-e7be-4e70-aca4-d97d6e03c7dd","ios":"levelo://app?vid=0e5a3bf8-e7be-4e70-aca4-d97d6e03c7dd"},"vehicle_type_id":"4","last_reported":1726412882,"current_range_meters":22400,"station_id":"ce4bhr92rcd13ifvqhrg","pricing_plan_id":"cebpf4jnsgd1na2vs0mg"},{"bike_id":"d9b6a4ab-cc21-4f3a-b9fb-e76e8bfef99d","system_id":"levelo_inurba_marseille","lat":43.28411,"lon":5.34975,"is_reserved":false,"is_disabled":false,"rental_uris":{"android":"levelo://app?vid=d9b6a4ab-cc21-4f3a-b9fb-e76e8bfef99d","ios":"levelo://app?vid=d9b6a4ab-cc21-4f3a-b9fb-e76e8bfef99d"},"vehicle_type_id":"4","last_reported":1726412882,"current_range_meters":18800,"station_id":"ce4bhbh2rcd13ifvqepg","pricing_plan_id":"cebpf4jnsgd1na2vs0mg"},{"bike_id":"ee6f3785-02f7-4fd3-bfaf-9f1e29598352","system_id":"levelo_inurba_marseille","lat":43.26213,"lon":5.37439,"is_reserved":false,"is_disabled":false,"rental_uris":{"android":"levelo://app?vid=ee6f3785-02f7-4fd3-bfaf-9f1e29598352","ios":"levelo://app?vid=ee6f3785-02f7-4fd3-bfaf-9f1e29598352"},"vehicle_type_id":"4","last_reported":1726412882,"current_range_meters":38800,"station_id":"ce4bhgp2rcd13ifvqfc0","pricing_plan_id":"cebpf4jnsgd1na2vs0mg"},{"bike_id":"4ff53948-25b2-4c76-a047-483831de2e60","system_id":"levelo_inurba_marseille","lat":43.286133,"lon":5.350981,"is_reserved":false,"is_disabled":false,"rental_uris":{"android":"levelo://app?vid=4ff53948-25b2-4c76-a047-483831de2e60","ios":"levelo://app?vid=4ff53948-25b2-4c76-a047-483831de2e60"},"vehicle_type_id":"4","last_reported":1726412882,"current_range_meters":35600,"station_id":"ce4bhch2rcd13ifvqeug","pricing_plan_id":"cebpf4jnsgd1na2vs0mg"},{"bike_id":"29ebb04d-440e-4da8-a528-1d37b597e08a","system_id":"levelo_inurba_marseille","lat":43.24814,"lon":5.37456,"is_reserved":false,"is_disabled":false,"rental_uris":{"android":"levelo://app?vid=29ebb04d-440e-4da8-a528-1d37b597e08a","ios":"levelo://app?vid=29ebb04d-440e-4da8-a528-1d37b597e08a"},"vehicle_type_id":"4","last_reported":1726412882,"current_range_meters":37600,"station_id":"ce4bhgh2rcd13ifvqfb0","pricing_plan_id":"cebpf4jnsgd1na2vs0mg"},{"bike_id":"cf17a031-288f-4384-836a-2bebfc40fbb6","system_id":"levelo_inurba_marseille","lat":43.23956,"lon":5.36653,"is_reserved":false,"is_disabled":false,"rental_uris":{"android":"levelo://app?vid=cf17a031-288f-4384-836a-2bebfc40fbb6","ios":"levelo://app?vid=cf17a031-288f-4384-836a-2bebfc40fbb6"},"vehicle_type_id":"4","last_reported":1726412882,"current_range_meters":39200,"station_id":"ce4bhi12rcd13ifvqfp0","pricing_plan_id":"cebpf4jnsgd1na2vs0mg"},{"bike_id":"012525c8-d863-400b-a802-0ef1a483fc5c","system_id":"levelo_inurba_marseille","lat":43.29554,"lon":5.42272,"is_reserved":false,"is_disabled":false,"rental_uris":{"android":"levelo://app?vid=012525c8-d863-400b-a802-0ef1a483fc5c","ios":"levelo://app?vid=012525c8-d863-400b-a802-0ef1a483fc5c"},"vehicle_type_id":"4","last_reported":1726412882,"current_range_meters":11600,"station_id":"ce4bhph2rcd13ifvqhdg","pricing_plan_id":"cebpf4jnsgd1na2vs0mg"},{"bike_id":"6f387a41-1a28-4619-ac86-26875678b81b","system_id":"levelo_inurba_marseille","lat":43.29899,"lon":5.4366,"is_reserved":false,"is_disabled":false,"rental_uris":{"android":"levelo://app?vid=6f387a41-1a28-4619-ac86-26875678b81b","ios":"levelo://app?vid=6f387a41-1a28-4619-ac86-26875678b81b"},"vehicle_type_id":"4","last_reported":1726412882,"current_range_meters":30800,"station_id":"ce4bhpp2rcd13ifvqhfg","pricing_plan_id":"cebpf4jnsgd1na2vs0mg"},{"bike_id":"18989387-4154-4d2e-8cf1-998f2bd3a8b9","system_id":"levelo_inurba_marseille","lat":43.23195,"lon":5.35551,"is_reserved":false,"is_disabled":false,"rental_uris":{"android":"levelo://app?vid=18989387-4154-4d2e-8cf1-998f2bd3a8b9","ios":"levelo://app?vid=18989387-4154-4d2e-8cf1-998f2bd3a8b9"},"vehicle_type_id":"4","last_reported":1726412882,"current_range_meters":16000,"station_id":"ce4bhu92rcd13ifvqi70","pricing_plan_id":"cebpf4jnsgd1na2vs0mg"},{"bike_id":"9ca166f7-dfa2-4149-8807-cbe97a3e92f1","system_id":"levelo_inurba_marseille","lat":43.26219,"lon":5.37439,"is_reserved":false,"is_disabled":false,"rental_uris":{"android":"levelo://app?vid=9ca166f7-dfa2-4149-8807-cbe97a3e92f1","ios":"levelo://app?vid=9ca166f7-dfa2-4149-8807-cbe97a3e92f1"},"vehicle_type_id":"4","last_reported":1726412882,"current_range_meters":38800,"station_id":"ce4bhgp2rcd13ifvqfc0","pricing_plan_id":"cebpf4jnsgd1na2vs0mg"},{"bike_id":"f4fff3c2-18ec-40fe-a4ee-0202ff4eb541","system_id":"levelo_inurba_marseille","lat":43.27377,"lon":5.36239,"is_reserved":false,"is_disabled":false,"rental_uris":{"android":"levelo://app?vid=f4fff3c2-18ec-40fe-a4ee-0202ff4eb541","ios":"levelo://app?vid=f4fff3c2-18ec-40fe-a4ee-0202ff4eb541"},"vehicle_type_id":"4","last_reported":1726412882,"current_range_meters":18000,"station_id":"ce4bhbh2rcd13ifvqeo0","pricing_plan_id":"cebpf4jnsgd1na2vs0mg"},{"bike_id":"a68b5c09-8581-4ab6-8cad-ec40127aba23","system_id":"levelo_inurba_marseille","lat":43.28625,"lon":5.3509,"is_reserved":false,"is_disabled":false,"rental_uris":{"android":"levelo://app?vid=a68b5c09-8581-4ab6-8cad-ec40127aba23","ios":"levelo://app?vid=a68b5c09-8581-4ab6-8cad-ec40127aba23"},"vehicle_type_id":"4","last_reported":1726412882,"current_range_meters":19600,"station_id":"ce4bhch2rcd13ifvqeug","pricing_plan_id":"cebpf4jnsgd1na2vs0mg"},{"bike_id":"5e5a3dda-47e9-452e-87c1-e2fd3841abf3","system_id":"levelo_inurba_marseille","lat":43.29575,"lon":5.37511,"is_reserved":false,"is_disabled":false,"rental_uris":{"android":"levelo://app?vid=5e5a3dda-47e9-452e-87c1-e2fd3841abf3","ios":"levelo://app?vid=5e5a3dda-47e9-452e-87c1-e2fd3841abf3"},"vehicle_type_id":"4","last_reported":1726412882,"current_range_meters":23200,"station_id":"ce4bgh92rcd13ifvqb50","pricing_plan_id":"cebpf4jnsgd1na2vs0mg"},{"bike_id":"ee41233d-7057-4ec4-b3c6-63f582836de8","system_id":"levelo_inurba_marseille","lat":43.22934,"lon":5.35378,"is_reserved":false,"is_disabled":false,"rental_uris":{"android":"levelo://app?vid=ee41233d-7057-4ec4-b3c6-63f582836de8","ios":"levelo://app?vid=ee41233d-7057-4ec4-b3c6-63f582836de8"},"vehicle_type_id":"4","last_reported":1726412882,"current_range_meters":18000,"station_id":"cpo3532slgdg3j2ikp40","pricing_plan_id":"cebpf4jnsgd1na2vs0mg"},{"bike_id":"2d1266c2-9ce3-42e8-884a-791e9f774e16","system_id":"levelo_inurba_marseille","lat":43.297241,"lon":5.36716,"is_reserved":false,"is_disabled":false,"rental_uris":{"android":"levelo://app?vid=2d1266c2-9ce3-42e8-884a-791e9f774e16","ios":"levelo://app?vid=2d1266c2-9ce3-42e8-884a-791e9f774e16"},"vehicle_type_id":"4","last_reported":1726412882,"current_range_meters":4800,"station_id":"ce4bgop2rcd13ifvqc1g","pricing_plan_id":"cebpf4jnsgd1na2vs0mg"},{"bike_id":"0d8d5029-7360-4733-8e6c-98827c91f7db","system_id":"levelo_inurba_marseille","lat":43.292892,"lon":5.371842,"is_reserved":false,"is_disabled":false,"rental_uris":{"android":"levelo://app?vid=0d8d5029-7360-4733-8e6c-98827c91f7db","ios":"levelo://app?vid=0d8d5029-7360-4733-8e6c-98827c91f7db"},"vehicle_type_id":"4","last_reported":1726412882,"current_range_meters":25200,"station_id":"ce4bgh92rcd13ifvqb40","pricing_plan_id":"cebpf4jnsgd1na2vs0mg"},{"bike_id":"aa95c661-1107-4bd0-b9af-c8a4ebe70138","system_id":"levelo_inurba_marseille","lat":43.33024,"lon":5.39024,"is_reserved":false,"is_disabled":false,"rental_uris":{"android":"levelo://app?vid=aa95c661-1107-4bd0-b9af-c8a4ebe70138","ios":"levelo://app?vid=aa95c661-1107-4bd0-b9af-c8a4ebe70138"},"vehicle_type_id":"4","last_reported":1726412882,"current_range_meters":36400,"station_id":"ce4bhr92rcd13ifvqhrg","pricing_plan_id":"cebpf4jnsgd1na2vs0mg"},{"bike_id":"c4148733-d340-4184-9add-27aa76062a46","system_id":"levelo_inurba_marseille","lat":43.25011,"lon":5.38912,"is_reserved":false,"is_disabled":false,"rental_uris":{"android":"levelo://app?vid=c4148733-d340-4184-9add-27aa76062a46","ios":"levelo://app?vid=c4148733-d340-4184-9add-27aa76062a46"},"vehicle_type_id":"4","last_reported":1726412882,"current_range_meters":34800,"station_id":"ce4bhgp2rcd13ifvqfd0","pricing_plan_id":"cebpf4jnsgd1na2vs0mg"},{"bike_id":"8a68135b-10f0-4a18-8450-e7829f00cf0e","system_id":"levelo_inurba_marseille","lat":43.28615,"lon":5.35094,"is_reserved":false,"is_disabled":false,"rental_uris":{"android":"levelo://app?vid=8a68135b-10f0-4a18-8450-e7829f00cf0e","ios":"levelo://app?vid=8a68135b-10f0-4a18-8450-e7829f00cf0e"},"vehicle_type_id":"4","last_reported":1726412882,"current_range_meters":26000,"station_id":"ce4bhch2rcd13ifvqeug","pricing_plan_id":"cebpf4jnsgd1na2vs0mg"},{"bike_id":"7159d953-26bb-45a5-b6f5-d822a79710c7","system_id":"levelo_inurba_marseille","lat":43.3133,"lon":5.39686,"is_reserved":false,"is_disabled":false,"rental_uris":{"android":"levelo://app?vid=7159d953-26bb-45a5-b6f5-d822a79710c7","ios":"levelo://app?vid=7159d953-26bb-45a5-b6f5-d822a79710c7"},"vehicle_type_id":"4","last_reported":1726412882,"current_range_meters":8400,"station_id":"ce4bgvp2rcd13ifvqcu0","pricing_plan_id":"cebpf4jnsgd1na2vs0mg"},{"bike_id":"8ef128ad-1fbd-4493-ab2c-c05b568361bb","system_id":"levelo_inurba_marseille","lat":43.287,"lon":5.37385,"is_reserved":false,"is_disabled":false,"rental_uris":{"android":"levelo://app?vid=8ef128ad-1fbd-4493-ab2c-c05b568361bb","ios":"levelo://app?vid=8ef128ad-1fbd-4493-ab2c-c05b568361bb"},"vehicle_type_id":"4","last_reported":1726412882,"current_range_meters":5600,"station_id":"ce4bh3p2rcd13ifvqdq0","pricing_plan_id":"cebpf4jnsgd1na2vs0mg"},{"bike_id":"349d9ac4-642a-438f-a490-46173d58584f","system_id":"levelo_inurba_marseille","lat":43.23973,"lon":5.3663,"is_reserved":false,"is_disabled":false,"rental_uris":{"android":"levelo://app?vid=349d9ac4-642a-438f-a490-46173d58584f","ios":"levelo://app?vid=349d9ac4-642a-438f-a490-46173d58584f"},"vehicle_type_id":"4","last_reported":1726412882,"current_range_meters":39200,"station_id":"ce4bhi12rcd13ifvqfp0","pricing_plan_id":"cebpf4jnsgd1na2vs0mg"},{"bike_id":"809bb8b2-0eb2-4390-a3ce-3d5d1cf11962","system_id":"levelo_inurba_marseille","lat":43.2826,"lon":5.35063,"is_reserved":false,"is_disabled":false,"rental_uris":{"android":"levelo://app?vid=809bb8b2-0eb2-4390-a3ce-3d5d1cf11962","ios":"levelo://app?vid=809bb8b2-0eb2-4390-a3ce-3d5d1cf11962"},"vehicle_type_id":"4","last_reported":1726412882,"current_range_meters":18000,"station_id":"ce4bhbp2rcd13ifvqerg","pricing_plan_id":"cebpf4jnsgd1na2vs0mg"},{"bike_id":"c19732ba-31ba-4b3e-b19b-2ae4ffbf4729","system_id":"levelo_inurba_marseille","lat":43.25728,"lon":5.41111,"is_reserved":false,"is_disabled":false,"rental_uris":{"android":"levelo://app?vid=c19732ba-31ba-4b3e-b19b-2ae4ffbf4729","ios":"levelo://app?vid=c19732ba-31ba-4b3e-b19b-2ae4ffbf4729"},"vehicle_type_id":"4","last_reported":1726412882,"current_range_meters":5600,"station_id":"ce4bhkp2rcd13ifvqgd0","pricing_plan_id":"cebpf4jnsgd1na2vs0mg"},{"bike_id":"c59178dd-d77c-42bd-ba16-4e6f4db0709c","system_id":"levelo_inurba_marseille","lat":43.24811,"lon":5.37451,"is_reserved":false,"is_disabled":false,"rental_uris":{"android":"levelo://app?vid=c59178dd-d77c-42bd-ba16-4e6f4db0709c","ios":"levelo://app?vid=c59178dd-d77c-42bd-ba16-4e6f4db0709c"},"vehicle_type_id":"4","last_reported":1726412882,"current_range_meters":28000,"station_id":"ce4bhgh2rcd13ifvqfb0","pricing_plan_id":"cebpf4jnsgd1na2vs0mg"},{"bike_id":"38555a40-8090-4017-8c13-63cfb0365a46","system_id":"levelo_inurba_marseille","lat":43.26558,"lon":5.37279,"is_reserved":false,"is_disabled":false,"rental_uris":{"android":"levelo://app?vid=38555a40-8090-4017-8c13-63cfb0365a46","ios":"levelo://app?vid=38555a40-8090-4017-8c13-63cfb0365a46"},"vehicle_type_id":"4","last_reported":1726412882,"current_range_meters":30000,"station_id":"ce4bhg12rcd13ifvqf70","pricing_plan_id":"cebpf4jnsgd1na2vs0mg"},{"bike_id":"6e2a29d2-a64e-4ce8-b726-efa5e1ac7920","system_id":"levelo_inurba_marseille","lat":43.29575,"lon":5.39978,"is_reserved":false,"is_disabled":false,"rental_uris":{"android":"levelo://app?vid=6e2a29d2-a64e-4ce8-b726-efa5e1ac7920","ios":"levelo://app?vid=6e2a29d2-a64e-4ce8-b726-efa5e1ac7920"},"vehicle_type_id":"4","last_reported":1726412882,"current_range_meters":36000,"station_id":"ce4bh312rcd13ifvqdj0","pricing_plan_id":"cebpf4jnsgd1na2vs0mg"},{"bike_id":"a79a6abd-c18a-4875-a84e-15a749ef72c8","system_id":"levelo_inurba_marseille","lat":43.28473,"lon":5.38557,"is_reserved":false,"is_disabled":false,"rental_uris":{"android":"levelo://app?vid=a79a6abd-c18a-4875-a84e-15a749ef72c8","ios":"levelo://app?vid=a79a6abd-c18a-4875-a84e-15a749ef72c8"},"vehicle_type_id":"4","last_reported":1726412882,"current_range_meters":35200,"station_id":"ce4bh8p2rcd13ifvqeb0","pricing_plan_id":"cebpf4jnsgd1na2vs0mg"},{"bike_id":"bf8db25e-de16-4bf7-a14a-5fe591699e19","system_id":"levelo_inurba_marseille","lat":43.2827,"lon":5.35062,"is_reserved":false,"is_disabled":false,"rental_uris":{"android":"levelo://app?vid=bf8db25e-de16-4bf7-a14a-5fe591699e19","ios":"levelo://app?vid=bf8db25e-de16-4bf7-a14a-5fe591699e19"},"vehicle_type_id":"4","last_reported":1726412882,"current_range_meters":39200,"station_id":"ce4bhbp2rcd13ifvqerg","pricing_plan_id":"cebpf4jnsgd1na2vs0mg"},{"bike_id":"765e3f8c-4c5d-4343-896d-b249523c16b4","system_id":"levelo_inurba_marseille","lat":43.31762,"lon":5.3901,"is_reserved":false,"is_disabled":false,"rental_uris":{"android":"levelo://app?vid=765e3f8c-4c5d-4343-896d-b249523c16b4","ios":"levelo://app?vid=765e3f8c-4c5d-4343-896d-b249523c16b4"},"vehicle_type_id":"4","last_reported":1726412882,"current_range_meters":38800,"station_id":"ce4bhqp2rcd13ifvqhng","pricing_plan_id":"cebpf4jnsgd1na2vs0mg"},{"bike_id":"dbc14a3e-2170-45ce-89c7-0a79f0324863","system_id":"levelo_inurba_marseille","lat":43.27416,"lon":5.39404,"is_reserved":false,"is_disabled":false,"rental_uris":{"android":"levelo://app?vid=dbc14a3e-2170-45ce-89c7-0a79f0324863","ios":"levelo://app?vid=dbc14a3e-2170-45ce-89c7-0a79f0324863"},"vehicle_type_id":"4","last_reported":1726412882,"current_range_meters":16000,"station_id":"ce4bhdp2rcd13ifvqf20","pricing_plan_id":"cebpf4jnsgd1na2vs0mg"},{"bike_id":"10478f15-9c96-43bd-b577-e1c7e1382b58","system_id":"levelo_inurba_marseille","lat":43.28082,"lon":5.39638,"is_reserved":false,"is_disabled":false,"rental_uris":{"android":"levelo://app?vid=10478f15-9c96-43bd-b577-e1c7e1382b58","ios":"levelo://app?vid=10478f15-9c96-43bd-b577-e1c7e1382b58"},"vehicle_type_id":"4","last_reported":1726412882,"current_range_meters":5600,"station_id":"ce4bho12rcd13ifvqh2g","pricing_plan_id":"cebpf4jnsgd1na2vs0mg"},{"bike_id":"b5976d29-4e9d-4138-af37-b813ab1fb183","system_id":"levelo_inurba_marseille","lat":43.24392,"lon":5.37068,"is_reserved":false,"is_disabled":false,"rental_uris":{"android":"levelo://app?vid=b5976d29-4e9d-4138-af37-b813ab1fb183","ios":"levelo://app?vid=b5976d29-4e9d-4138-af37-b813ab1fb183"},"vehicle_type_id":"4","last_reported":1726412882,"current_range_meters":26000,"station_id":"ce4bhhh2rcd13ifvqfk0","pricing_plan_id":"cebpf4jnsgd1na2vs0mg"},{"bike_id":"980605ee-6a3e-4702-a32d-29a77cec7941","system_id":"levelo_inurba_marseille","lat":43.28254,"lon":5.35058,"is_reserved":false,"is_disabled":false,"rental_uris":{"android":"levelo://app?vid=980605ee-6a3e-4702-a32d-29a77cec7941","ios":"levelo://app?vid=980605ee-6a3e-4702-a32d-29a77cec7941"},"vehicle_type_id":"4","last_reported":1726412882,"current_range_meters":39200,"station_id":"ce4bhbp2rcd13ifvqerg","pricing_plan_id":"cebpf4jnsgd1na2vs0mg"},{"bike_id":"b97a7743-2e7e-4c69-a003-9cc01c170b29","system_id":"levelo_inurba_marseille","lat":43.2651,"lon":5.40878,"is_reserved":false,"is_disabled":false,"rental_uris":{"android":"levelo://app?vid=b97a7743-2e7e-4c69-a003-9cc01c170b29","ios":"levelo://app?vid=b97a7743-2e7e-4c69-a003-9cc01c170b29"},"vehicle_type_id":"4","last_reported":1726412882,"current_range_meters":8800,"station_id":"","pricing_plan_id":"cebpf4jnsgd1na2vs0mg"},{"bike_id":"b743a9c7-bff2-4e35-9357-5b891b452147","system_id":"levelo_inurba_marseille","lat":43.29896,"lon":5.43654,"is_reserved":false,"is_disabled":false,"rental_uris":{"android":"levelo://app?vid=b743a9c7-bff2-4e35-9357-5b891b452147","ios":"levelo://app?vid=b743a9c7-bff2-4e35-9357-5b891b452147"},"vehicle_type_id":"4","last_reported":1726412882,"current_range_meters":20000,"station_id":"ce4bhpp2rcd13ifvqhfg","pricing_plan_id":"cebpf4jnsgd1na2vs0mg"},{"bike_id":"a33824a0-a1cc-4147-916d-cc71548eaa38","system_id":"levelo_inurba_marseille","lat":43.2955,"lon":5.42279,"is_reserved":false,"is_disabled":false,"rental_uris":{"android":"levelo://app?vid=a33824a0-a1cc-4147-916d-cc71548eaa38","ios":"levelo://app?vid=a33824a0-a1cc-4147-916d-cc71548eaa38"},"vehicle_type_id":"4","last_reported":1726412882,"current_range_meters":38000,"station_id":"ce4bhph2rcd13ifvqhdg","pricing_plan_id":"cebpf4jnsgd1na2vs0mg"},{"bike_id":"fc6a3df7-ffff-45ed-93f9-8f11062c742d","system_id":"levelo_inurba_marseille","lat":43.28406,"lon":5.34977,"is_reserved":false,"is_disabled":false,"rental_uris":{"android":"levelo://app?vid=fc6a3df7-ffff-45ed-93f9-8f11062c742d","ios":"levelo://app?vid=fc6a3df7-ffff-45ed-93f9-8f11062c742d"},"vehicle_type_id":"4","last_reported":1726412882,"current_range_meters":25200,"station_id":"ce4bhbh2rcd13ifvqepg","pricing_plan_id":"cebpf4jnsgd1na2vs0mg"},{"bike_id":"fe726e49-182a-44af-8413-18f6b0fc30db","system_id":"levelo_inurba_marseille","lat":43.29938,"lon":5.36541,"is_reserved":false,"is_disabled":false,"rental_uris":{"android":"levelo://app?vid=fe726e49-182a-44af-8413-18f6b0fc30db","ios":"levelo://app?vid=fe726e49-182a-44af-8413-18f6b0fc30db"},"vehicle_type_id":"4","last_reported":1726412882,"current_range_meters":20400,"station_id":"ce4bgm92rcd13ifvqbr0","pricing_plan_id":"cebpf4jnsgd1na2vs0mg"},{"bike_id":"86141fec-5eef-44a7-af74-c77a6a78bfc6","system_id":"levelo_inurba_marseille","lat":43.23191,"lon":5.35538,"is_reserved":false,"is_disabled":false,"rental_uris":{"android":"levelo://app?vid=86141fec-5eef-44a7-af74-c77a6a78bfc6","ios":"levelo://app?vid=86141fec-5eef-44a7-af74-c77a6a78bfc6"},"vehicle_type_id":"4","last_reported":1726412882,"current_range_meters":39200,"station_id":"ce4bhu92rcd13ifvqi70","pricing_plan_id":"cebpf4jnsgd1na2vs0mg"},{"bike_id":"8d0d6ceb-d20c-4c82-86b9-f62a7ce678df","system_id":"levelo_inurba_marseille","lat":43.30456,"lon":5.36538,"is_reserved":false,"is_disabled":false,"rental_uris":{"android":"levelo://app?vid=8d0d6ceb-d20c-4c82-86b9-f62a7ce678df","ios":"levelo://app?vid=8d0d6ceb-d20c-4c82-86b9-f62a7ce678df"},"vehicle_type_id":"4","last_reported":1726412882,"current_range_meters":8000,"station_id":"","pricing_plan_id":"cebpf4jnsgd1na2vs0mg"},{"bike_id":"bc95269c-c8df-4705-89e3-3b35f42842a4","system_id":"levelo_inurba_marseille","lat":43.24393,"lon":5.37052,"is_reserved":false,"is_disabled":false,"rental_uris":{"android":"levelo://app?vid=bc95269c-c8df-4705-89e3-3b35f42842a4","ios":"levelo://app?vid=bc95269c-c8df-4705-89e3-3b35f42842a4"},"vehicle_type_id":"4","last_reported":1726412882,"current_range_meters":34000,"station_id":"ce4bhhh2rcd13ifvqfk0","pricing_plan_id":"cebpf4jnsgd1na2vs0mg"},{"bike_id":"79565173-297f-4d7b-ac47-65a8e637c413","system_id":"levelo_inurba_marseille","lat":43.27073,"lon":5.42273,"is_reserved":false,"is_disabled":false,"rental_uris":{"android":"levelo://app?vid=79565173-297f-4d7b-ac47-65a8e637c413","ios":"levelo://app?vid=79565173-297f-4d7b-ac47-65a8e637c413"},"vehicle_type_id":"4","last_reported":1726412882,"current_range_meters":38800,"station_id":"ce4bhk92rcd13ifvqgb0","pricing_plan_id":"cebpf4jnsgd1na2vs0mg"},{"bike_id":"581788f3-75cf-4bb7-868a-64bde562274e","system_id":"levelo_inurba_marseille","lat":43.25932,"lon":5.40906,"is_reserved":false,"is_disabled":false,"rental_uris":{"android":"levelo://app?vid=581788f3-75cf-4bb7-868a-64bde562274e","ios":"levelo://app?vid=581788f3-75cf-4bb7-868a-64bde562274e"},"vehicle_type_id":"4","last_reported":1726412882,"current_range_meters":8000,"station_id":"ce4bhm92rcd13ifvqglg","pricing_plan_id":"cebpf4jnsgd1na2vs0mg"},{"bike_id":"fe4a23eb-2da5-41ee-a1cb-f076c9967976","system_id":"levelo_inurba_marseille","lat":43.23192,"lon":5.35551,"is_reserved":false,"is_disabled":false,"rental_uris":{"android":"levelo://app?vid=fe4a23eb-2da5-41ee-a1cb-f076c9967976","ios":"levelo://app?vid=fe4a23eb-2da5-41ee-a1cb-f076c9967976"},"vehicle_type_id":"4","last_reported":1726412882,"current_range_meters":36400,"station_id":"ce4bhu92rcd13ifvqi70","pricing_plan_id":"cebpf4jnsgd1na2vs0mg"},{"bike_id":"a84aba34-4400-4eaa-910c-cdc70af0590b","system_id":"levelo_inurba_marseille","lat":43.29559,"lon":5.42279,"is_reserved":false,"is_disabled":false,"rental_uris":{"android":"levelo://app?vid=a84aba34-4400-4eaa-910c-cdc70af0590b","ios":"levelo://app?vid=a84aba34-4400-4eaa-910c-cdc70af0590b"},"vehicle_type_id":"4","last_reported":1726412882,"current_range_meters":25600,"station_id":"ce4bhph2rcd13ifvqhdg","pricing_plan_id":"cebpf4jnsgd1na2vs0mg"},