{"last_updated":1745348900,"ttl":60,"version":"2.2","data":{"bikes":[{"bike_id":"b39d4e75-eaf1-4645-aee4-5d5511421db3","system_id":"levelo_inurba_marseille","lat":43.28155,"lon":5.42646,"is_reserved":false,"is_disabled":false,"rental_uris":{"android":"levelo://app?vid=b39d4e75-eaf1-4645-aee4-5d5511421db3","ios":"levelo://app?vid=b39d4e75-eaf1-4645-aee4-5d5511421db3"},"vehicle_type_id":"4","last_reported":1745348900,"current_range_meters":2800,"station_id":"ce4bhnh2rcd13ifvqgug","pricing_plan_id":"cebpf4jnsgd1na2vs0mg"},{"bike_id":"93d665ca-9932-412d-a853-761def024f51","system_id":"levelo_inurba_marseille","lat":43.28682,"lon":5.36333,"is_reserved":false,"is_disabled":false,"rental_uris":{"android":"levelo://app?vid=93d665ca-9932-412d-a853-761def024f51","ios":"levelo://app?vid=93d665ca-9932-412d-a853-761def024f51"},"vehicle_type_id":"4","last_reported":1745348900,"current_range_meters":3200,"station_id":"ce4bhah2rcd13ifvqej0","pricing_plan_id":"cebpf4jnsgd1na2vs0mg"},{"bike_id":"5411c9c0-eb3a-475d-9e43-a89c6557a708","system_id":"levelo_inurba_marseille","lat":43.27997,"lon":5.41663,"is_reserved":false,"is_disabled":false,"rental_uris":{"android":"levelo://app?vid=5411c9c0-eb3a-475d-9e43-a89c6557a708","ios":"levelo://app?vid=5411c9c0-eb3a-475d-9e43-a89c6557a708"},"vehicle_type_id":"4","last_reported":1745348900,"current_range_meters":800,"station_id":"ce4bho12rcd13ifvqh1g","pricing_plan_id":"cebpf4jnsgd1na2vs0mg"},{"bike_id":"5977fb24-213f-4b3a-8467-0ab4942650ce","system_id":"levelo_inurba_marseille","lat":43.28409,"lon":5.37517,"is_reserved":false,"is_disabled":true,"rental_uris":{"android":"levelo://app?vid=5977fb24-213f-4b3a-8467-0ab4942650ce","ios":"levelo://app?vid=5977fb24-213f-4b3a-8467-0ab4942650ce"},"vehicle_type_id":"4","last_reported":1745348900,"current_range_meters":2800,"station_id":"ce4bh412rcd13ifvqds0","pricing_plan_id":"cebpf4jnsgd1na2vs0mg"},{"bike_id":"b6e66b51-4cf3-41df-ba02-044bb1d13403","system_id":"levelo_inurba_marseille","lat":43.28347,"lon":5.38116,"is_reserved":false,"is_disabled":true,"rental_uris":{"android":"levelo://app?vid=b6e66b51-4cf3-41df-ba02-044bb1d13403","ios":"levelo://app?vid=b6e66b51-4cf3-41df-ba02-044bb1d13403"},"vehicle_type_id":"4","last_reported":1745348900,"current_range_meters":2800,"station_id":"ce4bh412rcd13ifvqdr0","pricing_plan_id":"cebpf4jnsgd1na2vs0mg"},{"bike_id":"365a3d37-dda1-4d7f-bae0-8b4fc78d2c98","system_id":"levelo_inurba_marseille","lat":43.29599,"lon":5.381,"is_reserved":false,"is_disabled":false,"rental_uris":{"android":"levelo://app?vid=365a3d37-dda1-4d7f-bae0-8b4fc78d2c98","ios":"levelo://app?vid=365a3d37-dda1-4d7f-bae0-8b4fc78d2c98"},"vehicle_type_id":"4","last_reported":1745348900,"current_range_meters":3200,"station_id":"ce4bgl12rcd13ifvqbo0","pricing_plan_id":"cebpf4jnsgd1na2vs0mg"},{"bike_id":"199ca947-1f84-416c-b8c8-da032bcbcefb","system_id":"levelo_inurba_marseille","lat":43.27998,"lon":5.40017,"is_reserved":false,"is_disabled":false,"rental_uris":{"android":"levelo://app?vid=199ca947-1f84-416c-b8c8-da032bcbcefb","ios":"levelo://app?vid=199ca947-1f84-416c-b8c8-da032bcbcefb"},"vehicle_type_id":"4","last_reported":1745348900,"current_range_meters":3200,"station_id":"ce4bho92rcd13ifvqh4g","pricing_plan_id":"cebpf4jnsgd1na2vs0mg"},{"bike_id":"08adba7b-eac3-4cfc-9923-2ccf0cc4ffef","system_id":"levelo_inurba_marseille","lat":43.24539,"lon":5.41307,"is_reserved":false,"is_disabled":false,"rental_uris":{"android":"levelo://app?vid=08adba7b-eac3-4cfc-9923-2ccf0cc4ffef","ios":"levelo://app?vid=08adba7b-eac3-4cfc-9923-2ccf0cc4ffef"},"vehicle_type_id":"4","last_reported":1745348900,"current_range_meters":3200,"station_id":"","pricing_plan_id":"cebpf4jnsgd1na2vs0mg"},{"bike_id":"fb1a42b4-e29c-4575-8610-ecb0098bbbb0","system_id":"levelo_inurba_marseille","lat":43.29092,"lon":5.38117,"is_reserved":false,"is_disabled":false,"rental_uris":{"android":"levelo://app?vid=fb1a42b4-e29c-4575-8610-ecb0098bbbb0","ios":"levelo://app?vid=fb1a42b4-e29c-4575-8610-ecb0098bbbb0"},"vehicle_type_id":"4","last_reported":1745348900,"current_range_meters":3200,"station_id":"ce4bh512rcd13ifvqe2g","pricing_plan_id":"cebpf4jnsgd1na2vs0mg"},{"bike_id":"c712a562-aa83-4b6a-a7b0-67fb4d6a7319","system_id":"levelo_inurba_marseille","lat":43.21217,"lon":5.35064,"is_reserved":false,"is_disabled":false,"rental_uris":{"android":"levelo://app?vid=c712a562-aa83-4b6a-a7b0-67fb4d6a7319","ios":"levelo://app?vid=c712a562-aa83-4b6a-a7b0-67fb4d6a7319"},"vehicle_type_id":"4","last_reported":1745348900,"current_range_meters":3200,"station_id":"st_cvj6sg6p6f1abm77japg","pricing_plan_id":"cebpf4jnsgd1na2vs0mg"},{"bike_id":"c36a857f-b0f6-4a7f-a063-7e9d99c17e1d","system_id":"levelo_inurba_marseille","lat":43.29776,"lon":5.39341,"is_reserved":false,"is_disabled":false,"rental_uris":{"android":"levelo://app?vid=c36a857f-b0f6-4a7f-a063-7e9d99c17e1d","ios":"levelo://app?vid=c36a857f-b0f6-4a7f-a063-7e9d99c17e1d"},"vehicle_type_id":"4","last_reported":1745348900,"current_range_meters":3600,"station_id":"chh1huq6cuj3fo74tm60","pricing_plan_id":"cebpf4jnsgd1na2vs0mg"},{"bike_id":"0ef23631-dbd2-4c68-adc1-77243fd0c5dd","system_id":"levelo_inurba_marseille","lat":43.29258,"lon":5.38547,"is_reserved":false,"is_disabled":false,"rental_uris":{"android":"levelo://app?vid=0ef23631-dbd2-4c68-adc1-77243fd0c5dd","ios":"levelo://app?vid=0ef23631-dbd2-4c68-adc1-77243fd0c5dd"},"vehicle_type_id":"4","last_reported":1745348900,"current_range_meters":3600,"station_id":"","pricing_plan_id":"cebpf4jnsgd1na2vs0mg"},{"bike_id":"ba8f2d3f-6e1a-48ef-9227-dd15238d9a7c","system_id":"levelo_inurba_marseille","lat":43.25358,"lon":5.375098,"is_reserved":false,"is_disabled":false,"rental_uris":{"android":"levelo://app?vid=ba8f2d3f-6e1a-48ef-9227-dd15238d9a7c","ios":"levelo://app?vid=ba8f2d3f-6e1a-48ef-9227-dd15238d9a7c"},"vehicle_type_id":"4","last_reported":1745348900,"current_range_meters":3600,"station_id":"ce4bhlp2rcd13ifvqgjg","pricing_plan_id":"cebpf4jnsgd1na2vs0mg"},{"bike_id":"cb33acc2-5eea-45c0-9b15-8f533d6ae3df","system_id":"levelo_inurba_marseille","lat":43.28546,"lon":5.38764,"is_reserved":false,"is_disabled":false,"rental_uris":{"android":"levelo://app?vid=cb33acc2-5eea-45c0-9b15-8f533d6ae3df","ios":"levelo://app?vid=cb33acc2-5eea-45c0-9b15-8f533d6ae3df"},"vehicle_type_id":"4","last_reported":1745348900,"current_range_meters":3600,"station_id":"","pricing_plan_id":"cebpf4jnsgd1na2vs0mg"},{"bike_id":"b50eec15-fbd8-49bc-9fd0-ad93c5e5ca2d","system_id":"levelo_inurba_marseille","lat":43.2897,"lon":5.37841,"is_reserved":false,"is_disabled":false,"rental_uris":{"android":"levelo://app?vid=b50eec15-fbd8-49bc-9fd0-ad93c5e5ca2d","ios":"levelo://app?vid=b50eec15-fbd8-49bc-9fd0-ad93c5e5ca2d"},"vehicle_type_id":"4","last_reported":1745348900,"current_range_meters":4000,"station_id":"ce4bh9p2rcd13ifvqed0","pricing_plan_id":"cebpf4jnsgd1na2vs0mg"},{"bike_id":"c084153a-d378-4bc7-b059-665ff2008ae1","system_id":"levelo_inurba_marseille","lat":43.25077,"lon":5.39496,"is_reserved":false,"is_disabled":false,"rental_uris":{"android":"levelo://app?vid=c084153a-d378-4bc7-b059-665ff2008ae1","ios":"levelo://app?vid=c084153a-d378-4bc7-b059-665ff2008ae1"},"vehicle_type_id":"4","last_reported":1745348900,"current_range_meters":3600,"station_id":"ce4bhm12rcd13ifvqgkg","pricing_plan_id":"cebpf4jnsgd1na2vs0mg"},{"bike_id":"f0416828-e382-4830-98d2-7add45cdda50","system_id":"levelo_inurba_marseille","lat":43.27906,"lon":5.38017,"is_reserved":false,"is_disabled":false,"rental_uris":{"android":"levelo://app?vid=f0416828-e382-4830-98d2-7add45cdda50","ios":"levelo://app?vid=f0416828-e382-4830-98d2-7add45cdda50"},"vehicle_type_id":"4","last_reported":1745348900,"current_range_meters":4400,"station_id":"ce4bhf92rcd13ifvqf50","pricing_plan_id":"cebpf4jnsgd1na2vs0mg"},{"bike_id":"39b7ee85-9cbf-4904-a10a-75042515f95d","system_id":"levelo_inurba_marseille","lat":43.36244,"lon":5.34761,"is_reserved":false,"is_disabled":false,"rental_uris":{"android":"levelo://app?vid=39b7ee85-9cbf-4904-a10a-75042515f95d","ios":"levelo://app?vid=39b7ee85-9cbf-4904-a10a-75042515f95d"},"vehicle_type_id":"4","last_reported":1745348900,"current_range_meters":4400,"station_id":"","pricing_plan_id":"cebpf4jnsgd1na2vs0mg"},{"bike_id":"412c8200-3791-4688-8a64-2b8c184c5f37","system_id":"levelo_inurba_marseille","lat":43.24646,"lon":5.38917,"is_reserved":false,"is_disabled":false,"rental_uris":{"android":"levelo://app?vid=412c8200-3791-4688-8a64-2b8c184c5f37","ios":"levelo://app?vid=412c8200-3791-4688-8a64-2b8c184c5f37"},"vehicle_type_id":"4","last_reported":1745348900,"current_range_meters":4400,"station_id":"ce4bhg12rcd13ifvqf60","pricing_plan_id":"cebpf4jnsgd1na2vs0mg"},{"bike_id":"8632b50e-d5f3-46de-b72a-1b5228935a86","system_id":"levelo_inurba_marseille","lat":43.28723,"lon":5.37955,"is_reserved":false,"is_disabled":false,"rental_uris":{"android":"levelo://app?vid=8632b50e-d5f3-46de-b72a-1b5228935a86","ios":"levelo://app?vid=8632b50e-d5f3-46de-b72a-1b5228935a86"},"vehicle_type_id":"4","last_reported":1745348900,"current_range_meters":4400,"station_id":"ce4bh9p2rcd13ifvqec0","pricing_plan_id":"cebpf4jnsgd1na2vs0mg"},{"bike_id":"5c95df75-31c2-4d21-9ed6-9c031c0d52fe","system_id":"levelo_inurba_marseille","lat":43.26953,"lon":5.38634,"is_reserved":false,"is_disabled":false,"rental_uris":{"android":"levelo://app?vid=5c95df75-31c2-4d21-9ed6-9c031c0d52fe","ios":"levelo://app?vid=5c95df75-31c2-4d21-9ed6-9c031c0d52fe"},"vehicle_type_id":"4","last_reported":1745348900,"current_range_meters":4800,"station_id":"ce4bhh92rcd13ifvqfh0","pricing_plan_id":"cebpf4jnsgd1na2vs0mg"},{"bike_id":"6f0ff3df-91b5-4299-98e0-3c49587cb61d","system_id":"levelo_inurba_marseille","lat":43.22929,"lon":5.35381,"is_reserved":false,"is_disabled":false,"rental_uris":{"android":"levelo://app?vid=6f0ff3df-91b5-4299-98e0-3c49587cb61d","ios":"levelo://app?vid=6f0ff3df-91b5-4299-98e0-3c49587cb61d"},"vehicle_type_id":"4","last_reported":1745348900,"current_range_meters":4800,"station_id":"cpo3532slgdg3j2ikp40","pricing_plan_id":"cebpf4jnsgd1na2vs0mg"},{"bike_id":"26209032-e588-4976-b7bb-f7447413b63f","system_id":"levelo_inurba_marseille","lat":43.29419,"lon":5.38622,"is_reserved":false,"is_disabled":false,"rental_uris":{"android":"levelo://app?vid=26209032-e588-4976-b7bb-f7447413b63f","ios":"levelo://app?vid=26209032-e588-4976-b7bb-f7447413b63f"},"vehicle_type_id":"4","last_reported":1745348900,"current_range_meters":4800,"station_id":"ce4bh2h2rcd13ifvqdh0","pricing_plan_id":"cebpf4jnsgd1na2vs0mg"},{"bike_id":"b95f2460-3f56-4bc0-8f04-9a0187be96f6","system_id":"levelo_inurba_marseille","lat":43.24655,"lon":5.38886,"is_reserved":false,"is_disabled":false,"rental_uris":{"android":"levelo://app?vid=b95f2460-3f56-4bc0-8f04-9a0187be96f6","ios":"levelo://app?vid=b95f2460-3f56-4bc0-8f04-9a0187be96f6"},"vehicle_type_id":"4","last_reported":1745348900,"current_range_meters":4800,"station_id":"ce4bhg12rcd13ifvqf60","pricing_plan_id":"cebpf4jnsgd1na2vs0mg"},{"bike_id":"a9d64663-aad1-4815-9c17-e40df3e71f7b","system_id":"levelo_inurba_marseille","lat":43.28843,"lon":5.39297,"is_reserved":false,"is_disabled":false,"rental_uris":{"android":"levelo://app?vid=a9d64663-aad1-4815-9c17-e40df3e71f7b","ios":"levelo://app?vid=a9d64663-aad1-4815-9c17-e40df3e71f7b"},"vehicle_type_id":"4","last_reported":1745348900,"current_range_meters":4800,"station_id":"ce4bh2p2rcd13ifvqdi0","pricing_plan_id":"cebpf4jnsgd1na2vs0mg"},{"bike_id":"445a1bdc-4dfd-4295-bfab-e5a7bb81d22f","system_id":"levelo_inurba_marseille","lat":43.29524,"lon":5.39041,"is_reserved":false,"is_disabled":false,"rental_uris":{"android":"levelo://app?vid=445a1bdc-4dfd-4295-bfab-e5a7bb81d22f","ios":"levelo://app?vid=445a1bdc-4dfd-4295-bfab-e5a7bb81d22f"},"vehicle_type_id":"4","last_reported":1745348900,"current_range_meters":4800,"station_id":"ce4bh3p2rcd13ifvqdp0","pricing_plan_id":"cebpf4jnsgd1na2vs0mg"},{"bike_id":"c6b9caaf-85ad-42fe-a85b-41a4e6f02d6e","system_id":"levelo_inurba_marseille","lat":43.28419,"lon":5.34982,"is_reserved":false,"is_disabled":false,"rental_uris":{"android":"levelo://app?vid=c6b9caaf-85ad-42fe-a85b-41a4e6f02d6e","ios":"levelo://app?vid=c6b9caaf-85ad-42fe-a85b-41a4e6f02d6e"},"vehicle_type_id":"4","last_reported":1745348900,"current_range_meters":5600,"station_id":"ce4bhbh2rcd13ifvqepg","pricing_plan_id":"cebpf4jnsgd1na2vs0mg"},{"bike_id":"5f14430f-5186-4094-825f-173d1124cb23","system_id":"levelo_inurba_marseille","lat":43.28152,"lon":5.42647,"is_reserved":false,"is_disabled":false,"rental_uris":{"android":"levelo://app?vid=5f14430f-5186-4094-825f-173d1124cb23","ios":"levelo://app?vid=5f14430f-5186-4094-825f-173d1124cb23"},"vehicle_type_id":"4","last_reported":1745348900,"current_range_meters":5600,"station_id":"ce4bhnh2rcd13ifvqgug","pricing_plan_id":"cebpf4jnsgd1na2vs0mg"},{"bike_id":"189892d5-6682-45fb-a8c1-fe0939832067","system_id":"levelo_inurba_marseille","lat":43.25111,"lon":5.40318,"is_reserved":false,"is_disabled":false,"rental_uris":{"android":"levelo://app?vid=189892d5-6682-45fb-a8c1-fe0939832067","ios":"levelo://app?vid=189892d5-6682-45fb-a8c1-fe0939832067"},"vehicle_type_id":"4","last_reported":1745348900,"current_range_meters":5600,"station_id":"ce4bhlh2rcd13ifvqgig","pricing_plan_id":"cebpf4jnsgd1na2vs0mg"},{"bike_id":"59540ae1-2eee-4577-bdf6-2562ccc8d946","system_id":"levelo_inurba_marseille","lat":43.27911,"lon":5.39629,"is_reserved":false,"is_disabled":false,"rental_uris":{"android":"levelo://app?vid=59540ae1-2eee-4577-bdf6-2562ccc8d946","ios":"levelo://app?vid=59540ae1-2eee-4577-bdf6-2562ccc8d946"},"vehicle_type_id":"4","last_reported":1745348900,"current_range_meters":5600,"station_id":"ce4bhf92rcd13ifvqf40","pricing_plan_id":"cebpf4jnsgd1na2vs0mg"},{"bike_id":"da24ae5e-6744-4ba9-8a6c-c375426f57b5","system_id":"levelo_inurba_marseille","lat":43.25109,"lon":5.40343,"is_reserved":false,"is_disabled":false,"rental_uris":{"android":"levelo://app?vid=da24ae5e-6744-4ba9-8a6c-c375426f57b5","ios":"levelo://app?vid=da24ae5e-6744-4ba9-8a6c-c375426f57b5"},"vehicle_type_id":"4","last_reported":1745348900,"current_range_meters":6000,"station_id":"ce4bhlh2rcd13ifvqgig","pricing_plan_id":"cebpf4jnsgd1na2vs0mg"},{"bike_id":"8de2a2fb-ea01-4e10-840e-7c2898dc50c6","system_id":"levelo_inurba_marseille","lat":43.27319,"lon":5.39072,"is_reserved":false,"is_disabled":false,"rental_uris":{"android":"levelo://app?vid=8de2a2fb-ea01-4e10-840e-7c2898dc50c6","ios":"levelo://app?vid=8de2a2fb-ea01-4e10-840e-7c2898dc50c6"},"vehicle_type_id":"4","last_reported":1745348900,"current_range_meters":6000,"station_id":"ce4bhgp2rcd13ifvqfe0","pricing_plan_id":"cebpf4jnsgd1na2vs0mg"},{"bike_id":"abbd8ff1-eea0-4330-ba48-aa9e4a582dc4","system_id":"levelo_inurba_marseille","lat":43.27374,"lon":5.3625,"is_reserved":false,"is_disabled":false,"rental_uris":{"android":"levelo://app?vid=abbd8ff1-eea0-4330-ba48-aa9e4a582dc4","ios":"levelo://app?vid=abbd8ff1-eea0-4330-ba48-aa9e4a582dc4"},"vehicle_type_id":"4","last_reported":1745348900,"current_range_meters":4800,"station_id":"ce4bhbh2rcd13ifvqeo0","pricing_plan_id":"cebpf4jnsgd1na2vs0mg"},{"bike_id":"b4d998c8-d498-4f00-b0c3-55efa14351ff","system_id":"levelo_inurba_marseille","lat":43.30716,"lon":5.42437,"is_reserved":false,"is_disabled":false,"rental_uris":{"android":"levelo://app?vid=b4d998c8-d498-4f00-b0c3-55efa14351ff","ios":"levelo://app?vid=b4d998c8-d498-4f00-b0c3-55efa14351ff"},"vehicle_type_id":"4","last_reported":1745348900,"current_range_meters":6400,"station_id":"st_cvj6ca6bvosntc0bfgr0","pricing_plan_id":"cebpf4jnsgd1na2vs0mg"},{"bike_id":"2e1c5760-848a-4fed-a1b2-fe0318e32e5e","system_id":"levelo_inurba_marseille","lat":43.30641,"lon":5.40099,"is_reserved":false,"is_disabled":false,"rental_uris":{"android":"levelo://app?vid=2e1c5760-848a-4fed-a1b2-fe0318e32e5e","ios":"levelo://app?vid=2e1c5760-848a-4fed-a1b2-fe0318e32e5e"},"vehicle_type_id":"4","last_reported":1745348900,"current_range_meters":6400,"station_id":"ce4bh112rcd13ifvqda0","pricing_plan_id":"cebpf4jnsgd1na2vs0mg"},{"bike_id":"00954a60-da00-4dec-be7b-f482f20a76ad","system_id":"levelo_inurba_marseille","lat":43.287231,"lon":5.379348,"is_reserved":false,"is_disabled":false,"rental_uris":{"android":"levelo://app?vid=00954a60-da00-4dec-be7b-f482f20a76ad","ios":"levelo://app?vid=00954a60-da00-4dec-be7b-f482f20a76ad"},"vehicle_type_id":"4","last_reported":1745348900,"current_range_meters":7200,"station_id":"ce4bh9p2rcd13ifvqec0","pricing_plan_id":"cebpf4jnsgd1na2vs0mg"},{"bike_id":"f232544d-a366-4720-8200-0fbeee56940d","system_id":"levelo_inurba_marseille","lat":43.26228,"lon":5.40455,"is_reserved":false,"is_disabled":false,"rental_uris":{"android":"levelo://app?vid=f232544d-a366-4720-8200-0fbeee56940d","ios":"levelo://app?vid=f232544d-a366-4720-8200-0fbeee56940d"},"vehicle_type_id":"4","last_reported":1745348900,"current_range_meters":6400,"station_id":"ce4bhmh2rcd13ifvqgmg","pricing_plan_id":"cebpf4jnsgd1na2vs0mg"},{"bike_id":"836132af-88f8-4d8d-ad3f-77433414cc82","system_id":"levelo_inurba_marseille","lat":43.29495,"lon":5.38539,"is_reserved":false,"is_disabled":false,"rental_uris":{"android":"levelo://app?vid=836132af-88f8-4d8d-ad3f-77433414cc82","ios":"levelo://app?vid=836132af-88f8-4d8d-ad3f-77433414cc82"},"vehicle_type_id":"4","last_reported":1745348900,"current_range_meters":6400,"station_id":"ce4bgih2rcd13ifvqba0","pricing_plan_id":"cebpf4jnsgd1na2vs0mg"},{"bike_id":"e2982993-e5bd-4ee0-afbb-632d597c951a","system_id":"levelo_inurba_marseille","lat":43.28356,"lon":5.3811,"is_reserved":false,"is_disabled":false,"rental_uris":{"android":"levelo://app?vid=e2982993-e5bd-4ee0-afbb-632d597c951a","ios":"levelo://app?vid=e2982993-e5bd-4ee0-afbb-632d597c951a"},"vehicle_type_id":"4","last_reported":1745348900,"current_range_meters":6800,"station_id":"ce4bh412rcd13ifvqdr0","pricing_plan_id":"cebpf4jnsgd1na2vs0mg"},{"bike_id":"bd3c1754-f5f3-4d87-8dc7-96dd2b03d4d2","system_id":"levelo_inurba_marseille","lat":43.33394,"lon":5.40067,"is_reserved":false,"is_disabled":false,"rental_uris":{"android":"levelo://app?vid=bd3c1754-f5f3-4d87-8dc7-96dd2b03d4d2","ios":"levelo://app?vid=bd3c1754-f5f3-4d87-8dc7-96dd2b03d4d2"},"vehicle_type_id":"4","last_reported":1745348900,"current_range_meters":6400,"station_id":"","pricing_plan_id":"cebpf4jnsgd1na2vs0mg"},{"bike_id":"319b73cf-ced5-4016-a621-739a21526b94","system_id":"levelo_inurba_marseille","lat":43.318739,"lon":5.379097,"is_reserved":false,"is_disabled":false,"rental_uris":{"android":"levelo://app?vid=319b73cf-ced5-4016-a621-739a21526b94","ios":"levelo://app?vid=319b73cf-ced5-4016-a621-739a21526b94"},"vehicle_type_id":"4","last_reported":1745348900,"current_range_meters":6800,"station_id":"ce4bhr12rcd13ifvqhqg","pricing_plan_id":"cebpf4jnsgd1na2vs0mg"},{"bike_id":"3d130e26-859c-4f1b-92c6-e24751f8fc6e","system_id":"levelo_inurba_marseille","lat":43.29418,"lon":5.3861,"is_reserved":false,"is_disabled":false,"rental_uris":{"android":"levelo://app?vid=3d130e26-859c-4f1b-92c6-e24751f8fc6e","ios":"levelo://app?vid=3d130e26-859c-4f1b-92c6-e24751f8fc6e"},"vehicle_type_id":"4","last_reported":1745348900,"current_range_meters":6800,"station_id":"ce4bh2h2rcd13ifvqdh0","pricing_plan_id":"cebpf4jnsgd1na2vs0mg"},{"bike_id":"6b87ccdc-66bd-42a1-bad7-6615d0405689","system_id":"levelo_inurba_marseille","lat":43.23966,"lon":5.3663,"is_reserved":false,"is_disabled":false,"rental_uris":{"android":"levelo://app?vid=6b87ccdc-66bd-42a1-bad7-6615d0405689","ios":"levelo://app?vid=6b87ccdc-66bd-42a1-bad7-6615d0405689"},"vehicle_type_id":"4","last_reported":1745348900,"current_range_meters":6800,"station_id":"ce4bhi12rcd13ifvqfp0","pricing_plan_id":"cebpf4jnsgd1na2vs0mg"},{"bike_id":"eb613738-fcdb-4c92-a9d3-e5b2de692e33","system_id":"levelo_inurba_marseille","lat":43.22923,"lon":5.35381,"is_reserved":false,"is_disabled":false,"rental_uris":{"android":"levelo://app?vid=eb613738-fcdb-4c92-a9d3-e5b2de692e33","ios":"levelo://app?vid=eb613738-fcdb-4c92-a9d3-e5b2de692e33"},"vehicle_type_id":"4","last_reported":1745348900,"current_range_meters":6800,"station_id":"cpo3532slgdg3j2ikp40","pricing_plan_id":"cebpf4jnsgd1na2vs0mg"},{"bike_id":"fc8ef1ff-f659-438d-be93-700b2d7a2d54","system_id":"levelo_inurba_marseille","lat":43.29373,"lon":5.37848,"is_reserved":false,"is_disabled":false,"rental_uris":{"android":"levelo://app?vid=fc8ef1ff-f659-438d-be93-700b2d7a2d54","ios":"levelo://app?vid=fc8ef1ff-f659-438d-be93-700b2d7a2d54"},"vehicle_type_id":"4","last_reported":1745348900,"current_range_meters":6400,"station_id":"ce4bgjh2rcd13ifvqbf0","pricing_plan_id":"cebpf4jnsgd1na2vs0mg"},{"bike_id":"c7a6aebe-1226-4b98-bfe6-877a88d0542a","system_id":"levelo_inurba_marseille","lat":43.30139,"lon":5.39869,"is_reserved":false,"is_disabled":false,"rental_uris":{"android":"levelo://app?vid=c7a6aebe-1226-4b98-bfe6-877a88d0542a","ios":"levelo://app?vid=c7a6aebe-1226-4b98-bfe6-877a88d0542a"},"vehicle_type_id":"4","last_reported":1745348900,"current_range_meters":6800,"station_id":"ce4bh0h2rcd13ifvqd40","pricing_plan_id":"cebpf4jnsgd1na2vs0mg"},{"bike_id":"20a79b79-5512-4b0c-9aa8-676ddbc216c5","system_id":"levelo_inurba_marseille","lat":43.298802,"lon":5.389024,"is_reserved":false,"is_disabled":false,"rental_uris":{"android":"levelo://app?vid=20a79b79-5512-4b0c-9aa8-676ddbc216c5","ios":"levelo://app?vid=20a79b79-5512-4b0c-9aa8-676ddbc216c5"},"vehicle_type_id":"4","last_reported":1745348900,"current_range_meters":6800,"station_id":"ce4bh3h2rcd13ifvqdo0","pricing_plan_id":"cebpf4jnsgd1na2vs0mg"},{"bike_id":"7b38592a-7c73-4e26-b1ce-62027288dba9","system_id":"levelo_inurba_marseille","lat":43.28032,"lon":5.36946,"is_reserved":false,"is_disabled":false,"rental_uris":{"android":"levelo://app?vid=7b38592a-7c73-4e26-b1ce-62027288dba9","ios":"levelo://app?vid=7b38592a-7c73-4e26-b1ce-62027288dba9"},"vehicle_type_id":"4","last_reported":1745348900,"current_range_meters":7200,"station_id":"ce4bha12rcd13ifvqef0","pricing_plan_id":"cebpf4jnsgd1na2vs0mg"},{"bike_id":"d42da8b3-5312-4608-a60b-fef54c0c16d1","system_id":"levelo_inurba_marseille","lat":43.28079,"lon":5.39641,"is_reserved":false,"is_disabled":false,"rental_uris":{"android":"levelo://app?vid=d42da8b3-5312-4608-a60b-fef54c0c16d1","ios":"levelo://app?vid=d42da8b3-5312-4608-a60b-fef54c0c16d1"},"vehicle_type_id":"4","last_reported":1745348900,"current_range_meters":7200,"station_id":"ce4bho12rcd13ifvqh2g","pricing_plan_id":"cebpf4jnsgd1na2vs0mg"},{"bike_id":"1c755526-7610-4241-9257-348acde561d3","system_id":"levelo_inurba_marseille","lat":43.24852,"lon":5.38212,"is_reserved":false,"is_disabled":false,"rental_uris":{"android":"levelo://app?vid=1c755526-7610-4241-9257-348acde561d3","ios":"levelo://app?vid=1c755526-7610-4241-9257-348acde561d3"},"vehicle_type_id":"4","last_reported":1745348900,"current_range_meters":7200,"station_id":"","pricing_plan_id":"cebpf4jnsgd1na2vs0mg"},{"bike_id":"226ae36a-e0b3-4296-8a28-e5f7867bfa61","system_id":"levelo_inurba_marseille","lat":43.28974,"lon":5.37839,"is_reserved":false,"is_disabled":false,"rental_uris":{"android":"levelo://app?vid=226ae36a-e0b3-4296-8a28-e5f7867bfa61","ios":"levelo://app?vid=226ae36a-e0b3-4296-8a28-e5f7867bfa61"},"vehicle_type_id":"4","last_reported":1745348900,"current_range_meters":7200,"station_id":"ce4bh9p2rcd13ifvqed0","pricing_plan_id":"cebpf4jnsgd1na2vs0mg"},{"bike_id":"23c0ddec-f3c2-4792-ab9c-fde4c1d5a48e","system_id":"levelo_inurba_marseille","lat":43.2984,"lon":5.36259,"is_reserved":false,"is_disabled":false,"rental_uris":{"android":"levelo://app?vid=23c0ddec-f3c2-4792-ab9c-fde4c1d5a48e","ios":"levelo://app?vid=23c0ddec-f3c2-4792-ab9c-fde4c1d5a48e"},"vehicle_type_id":"4","last_reported":1745348900,"current_range_meters":7200,"station_id":"ce4bgpp2rcd13ifvqc3g","pricing_plan_id":"cebpf4jnsgd1na2vs0mg"},{"bike_id":"927ebabc-1cd7-4390-b5bd-5646fe25ec01","system_id":"levelo_inurba_marseille","lat":43.2999,"lon":5.37225,"is_reserved":false,"is_disabled":false,"rental_uris":{"android":"levelo://app?vid=927ebabc-1cd7-4390-b5bd-5646fe25ec01","ios":"levelo://app?vid=927ebabc-1cd7-4390-b5bd-5646fe25ec01"},"vehicle_type_id":"4","last_reported":1745348900,"current_range_meters":7200,"station_id":"ce4bgr92rcd13ifvqc7g","pricing_plan_id":"cebpf4jnsgd1na2vs0mg"},{"bike_id":"28dbeddd-838b-456e-82ff-c5881d62245f","system_id":"levelo_inurba_marseille","lat":43.22927,"lon":5.35387,"is_reserved":false,"is_disabled":false,"rental_uris":{"android":"levelo://app?vid=28dbeddd-838b-456e-82ff-c5881d62245f","ios":"levelo://app?vid=28dbeddd-838b-456e-82ff-c5881d62245f"},"vehicle_type_id":"4","last_reported":1745348900,"current_range_meters":8000,"station_id":"cpo3532slgdg3j2ikp40","pricing_plan_id":"cebpf4jnsgd1na2vs0mg"},{"bike_id":"397df0b0-0972-438a-90da-9b4e4d5196ef","system_id":"levelo_inurba_marseille","lat":43.24074,"lon":5.37757,"is_reserved":false,"is_disabled":false,"rental_uris":{"android":"levelo://app?vid=397df0b0-0972-438a-90da-9b4e4d5196ef","ios":"levelo://app?vid=397df0b0-0972-438a-90da-9b4e4d5196ef"},"vehicle_type_id":"4","last_reported":1745348900,"current_range_meters":8000,"station_id":"ce4bhnp2rcd13ifvqgvg","pricing_plan_id":"cebpf4jnsgd1na2vs0mg"},{"bike_id":"286b2274-6b8f-4877-aedc-9a95f504f806","system_id":"levelo_inurba_marseille","lat":43.29776,"lon":5.37079,"is_reserved":false,"is_disabled":false,"rental_uris":{"android":"levelo://app?vid=286b2274-6b8f-4877-aedc-9a95f504f806","ios":"levelo://app?vid=286b2274-6b8f-4877-aedc-9a95f504f806"},"vehicle_type_id":"4","last_reported":1745348900,"current_range_meters":8000,"station_id":"ce4bgop2rcd13ifvqc1g","pricing_plan_id":"cebpf4jnsgd1na2vs0mg"},{"bike_id":"49454987-63e1-48fb-8366-812d15a5c496","system_id":"levelo_inurba_marseille","lat":43.24066,"lon":5.37767,"is_reserved":false,"is_disabled":false,"rental_uris":{"android":"levelo://app?vid=49454987-63e1-48fb-8366-812d15a5c496","ios":"levelo://app?vid=49454987-63e1-48fb-8366-812d15a5c496"},"vehicle_type_id":"4","last_reported":1745348900,"current_range_meters":8000,"station_id":"ce4bhnp2rcd13ifvqgvg","pricing_plan_id":"cebpf4jnsgd1na2vs0mg"},{"bike_id":"6da9da5c-9297-4da1-bbaf-0f124523da2c","system_id":"levelo_inurba_marseille","lat":43.295288,"lon":5.385453,"is_reserved":false,"is_disabled":false,"rental_uris":{"android":"levelo://app?vid=6da9da5c-9297-4da1-bbaf-0f124523da2c","ios":"levelo://app?vid=6da9da5c-9297-4da1-bbaf-0f124523da2c"},"vehicle_type_id":"4","last_reported":1745348900,"current_range_meters":8000,"station_id":"ce4bgih2rcd13ifvqba0","pricing_plan_id":"cebpf4jnsgd1na2vs0mg"},{"bike_id":"c542ea12-8121-49cc-97f6-20faa529896c","system_id":"levelo_inurba_marseille","lat":43.28023,"lon":5.36944,"is_reserved":false,"is_disabled":false,"rental_uris":{"android":"levelo://app?vid=c542ea12-8121-49cc-97f6-20faa529896c","ios":"levelo://app?vid=c542ea12-8121-49cc-97f6-20faa529896c"},"vehicle_type_id":"4","last_reported":1745348900,"current_range_meters":8000,"station_id":"ce4bha12rcd13ifvqef0","pricing_plan_id":"cebpf4jnsgd1na2vs0mg"},{"bike_id":"98f13822-d65c-4001-b7da-4d02f2a5142e","system_id":"levelo_inurba_marseille","lat":43.2928,"lon":5.40119,"is_reserved":false,"is_disabled":false,"rental_uris":{"android":"levelo://app?vid=98f13822-d65c-4001-b7da-4d02f2a5142e","ios":"levelo://app?vid=98f13822-d65c-4001-b7da-4d02f2a5142e"},"vehicle_type_id":"4","last_reported":1745348900,"current_range_meters":8000,"station_id":"ce4bh312rcd13ifvqdk0","pricing_plan_id":"cebpf4jnsgd1na2vs0mg"},{"bike_id":"604e1570-d782-4c72-a5c9-25055630dc26","system_id":"levelo_inurba_marseille","lat":43.29428,"lon":5.38612,"is_reserved":false,"is_disabled":false,"rental_uris":{"android":"levelo://app?vid=604e1570-d782-4c72-a5c9-25055630dc26","ios":"levelo://app?vid=604e1570-d782-4c72-a5c9-25055630dc26"},"vehicle_type_id":"4","last_reported":1745348900,"current_range_meters":8000,"station_id":"ce4bh2h2rcd13ifvqdh0","pricing_plan_id":"cebpf4jnsgd1na2vs0mg"},{"bike_id":"5bbf78c3-9ff4-43fd-addb-7db8c52f9edd","system_id":"levelo_inurba_marseille","lat":43.32366,"lon":5.38882,"is_reserved":false,"is_disabled":false,"rental_uris":{"android":"levelo://app?vid=5bbf78c3-9ff4-43fd-addb-7db8c52f9edd","ios":"levelo://app?vid=5bbf78c3-9ff4-43fd-addb-7db8c52f9edd"},"vehicle_type_id":"4","last_reported":1745348900,"current_range_meters":8400,"station_id":"ce4bhqp2rcd13ifvqhog","pricing_plan_id":"cebpf4jnsgd1na2vs0mg"},{"bike_id":"4d5e0647-8546-4c45-9174-2f4266c95ca8","system_id":"levelo_inurba_marseille","lat":43.24388,"lon":5.37056,"is_reserved":false,"is_disabled":false,"rental_uris":{"android":"levelo://app?vid=4d5e0647-8546-4c45-9174-2f4266c95ca8","ios":"levelo://app?vid=4d5e0647-8546-4c45-9174-2f4266c95ca8"},"vehicle_type_id":"4","last_reported":1745348900,"current_range_meters":8400,"station_id":"ce4bhhh2rcd13ifvqfk0","pricing_plan_id":"cebpf4jnsgd1na2vs0mg"},{"bike_id":"99f50a97-fcb7-4d42-b6f5-4d52ab29c28d","system_id":"levelo_inurba_marseille","lat":43.27912,"lon":5.3959,"is_reserved":false,"is_disabled":false,"rental_uris":{"android":"levelo://app?vid=99f50a97-fcb7-4d42-b6f5-4d52ab29c28d","ios":"levelo://app?vid=99f50a97-fcb7-4d42-b6f5-4d52ab29c28d"},"vehicle_type_id":"4","last_reported":1745348900,"current_range_meters":8400,"station_id":"ce4bhf92rcd13ifvqf40","pricing_plan_id":"cebpf4jnsgd1na2vs0mg"},{"bike_id":"b9253550-4207-48ae-921e-bf46a82e83c7","system_id":"levelo_inurba_marseille","lat":43.29416,"lon":5.38626,"is_reserved":false,"is_disabled":false,"rental_uris":{"android":"levelo://app?vid=b9253550-4207-48ae-921e-bf46a82e83c7","ios":"levelo://app?vid=b9253550-4207-48ae-921e-bf46a82e83c7"},"vehicle_type_id":"4","last_reported":1745348900,"current_range_meters":8400,"station_id":"ce4bh2h2rcd13ifvqdh0","pricing_plan_id":"cebpf4jnsgd1na2vs0mg"},{"bike_id":"f882010f-ebbf-4f14-a8a8-858fc3192343","system_id":"levelo_inurba_marseille","lat":43.26217,"lon":5.40443,"is_reserved":false,"is_disabled":false,"rental_uris":{"android":"levelo://app?vid=f882010f-ebbf-4f14-a8a8-858fc3192343","ios":"levelo://app?vid=f882010f-ebbf-4f14-a8a8-858fc3192343"},"vehicle_type_id":"4","last_reported":1745348900,"current_range_meters":8400,"station_id":"ce4bhmh2rcd13ifvqgmg","pricing_plan_id":"cebpf4jnsgd1na2vs0mg"},{"bike_id":"06344de5-5570-4bfd-bbbc-2682f2456e82","system_id":"levelo_inurba_marseille","lat":43.29247,"lon":5.37637,"is_reserved":false,"is_disabled":false,"rental_uris":{"android":"levelo://app?vid=06344de5-5570-4bfd-bbbc-2682f2456e82","ios":"levelo://app?vid=06344de5-5570-4bfd-bbbc-2682f2456e82"},"vehicle_type_id":"4","last_reported":1745348900,"current_range_meters":8400,"station_id":"ce4bgi12rcd13ifvqb80","pricing_plan_id":"cebpf4jnsgd1na2vs0mg"},{"bike_id":"3a978624-d3a6-4f0e-b9f7-3879a24f998c","system_id":"levelo_inurba_marseille","lat":43.2808,"lon":5.3966,"is_reserved":false,"is_disabled":false,"rental_uris":{"android":"levelo://app?vid=3a978624-d3a6-4f0e-b9f7-3879a24f998c","ios":"levelo://app?vid=3a978624-d3a6-4f0e-b9f7-3879a24f998c"},"vehicle_type_id":"4","last_reported":1745348900,"current_range_meters":8400,"station_id":"ce4bho12rcd13ifvqh2g","pricing_plan_id":"cebpf4jnsgd1na2vs0mg"},{"bike_id":"5998d8fc-5a1e-406c-9371-48ef06c26faf","system_id":"levelo_inurba_marseille","lat":43.295258,"lon":5.38543,"is_reserved":false,"is_disabled":false,"rental_uris":{"android":"levelo://app?vid=5998d8fc-5a1e-406c-9371-48ef06c26faf","ios":"levelo://app?vid=5998d8fc-5a1e-406c-9371-48ef06c26faf"},"vehicle_type_id":"4","last_reported":1745348900,"current_range_meters":8400,"station_id":"ce4bgih2rcd13ifvqba0","pricing_plan_id":"cebpf4jnsgd1na2vs0mg"},{"bike_id":"361779da-3167-49f7-9d78-a81c5631a636","system_id":"levelo_inurba_marseille","lat":43.30357,"lon":5.41869,"is_reserved":false,"is_disabled":false,"rental_uris":{"android":"levelo://app?vid=361779da-3167-49f7-9d78-a81c5631a636","ios":"levelo://app?vid=361779da-3167-49f7-9d78-a81c5631a636"},"vehicle_type_id":"4","last_reported":1745348900,"current_range_meters":8400,"station_id":"ce4bhop2rcd13ifvqh7g","pricing_plan_id":"cebpf4jnsgd1na2vs0mg"},{"bike_id":"c8298497-1a74-4e58-8d35-3d0b9a42165f","system_id":"levelo_inurba_marseille","lat":43.30406,"lon":5.41268,"is_reserved":false,"is_disabled":false,"rental_uris":{"android":"levelo://app?vid=c8298497-1a74-4e58-8d35-3d0b9a42165f","ios":"levelo://app?vid=c8298497-1a74-4e58-8d35-3d0b9a42165f"},"vehicle_type_id":"4","last_reported":1745348900,"current_range_meters":8800,"station_id":"ce4bhop2rcd13ifvqh8g","pricing_plan_id":"cebpf4jnsgd1na2vs0mg"},{"bike_id":"22e3ed21-936d-4292-a78f-e871a8bbc15e","system_id":"levelo_inurba_marseille","lat":43.32048,"lon":5.41565,"is_reserved":false,"is_disabled":false,"rental_uris":{"android":"levelo://app?vid=22e3ed21-936d-4292-a78f-e871a8bbc15e","ios":"levelo://app?vid=22e3ed21-936d-4292-a78f-e871a8bbc15e"},"vehicle_type_id":"4","last_reported":1745348900,"current_range_meters":8800,"station_id":"ce4bhq92rcd13ifvqhkg","pricing_plan_id":"cebpf4jnsgd1na2vs0mg"},{"bike_id":"e00ed27b-27b2-4066-9015-ffb24b9fbf28","system_id":"levelo_inurba_marseille","lat":43.308807,"lon":5.396551,"is_reserved":false,"is_disabled":false,"rental_uris":{"android":"levelo://app?vid=e00ed27b-27b2-4066-9015-ffb24b9fbf28","ios":"levelo://app?vid=e00ed27b-27b2-4066-9015-ffb24b9fbf28"},"vehicle_type_id":"4","last_reported":1745348900,"current_range_meters":6000,"station_id":"ce4bgl12rcd13ifvqbo0","pricing_plan_id":"cebpf4jnsgd1na2vs0mg"},{"bike_id":"1d3a0460-6bc0-448a-b462-36cefb251332","system_id":"levelo_inurba_marseille","lat":43.28147,"lon":5.42638,"is_reserved":false,"is_disabled":false,"rental_uris":{"android":"levelo://app?vid=1d3a0460-6bc0-448a-b462-36cefb251332","ios":"levelo://app?vid=1d3a0460-6bc0-448a-b462-36cefb251332"},"vehicle_type_id":"4","last_reported":1745348900,"current_range_meters":8800,"station_id":"ce4bhnh2rcd13ifvqgug","pricing_plan_id":"cebpf4jnsgd1na2vs0mg"},{"bike_id":"4e187655-ea25-4a18-8297-af3e6c0e8273","system_id":"levelo_inurba_marseille","lat":43.24547,"lon":5.39525,"is_reserved":false,"is_disabled":false,"rental_uris":{"android":"levelo://app?vid=4e187655-ea25-4a18-8297-af3e6c0e8273","ios":"levelo://app?vid=4e187655-ea25-4a18-8297-af3e6c0e8273"},"vehicle_type_id":"4","last_reported":1745348900,"current_range_meters":8800,"station_id":"ce4bhlp2rcd13ifvqgjg","pricing_plan_id":"cebpf4jnsgd1na2vs0mg"},{"bike_id":"d3dc6679-84d8-4660-abde-a2d4b914d56d","system_id":"levelo_inurba_marseille","lat":43.28576,"lon":5.39502,"is_reserved":false,"is_disabled":false,"rental_uris":{"android":"levelo://app?vid=d3dc6679-84d8-4660-abde-a2d4b914d56d","ios":"levelo://app?vid=d3dc6679-84d8-4660-abde-a2d4b914d56d"},"vehicle_type_id":"4","last_reported":1745348900,"current_range_meters":8400,"station_id":"ce4bh292rcd13ifvqdg0","pricing_plan_id":"cebpf4jnsgd1na2vs0mg"},{"bike_id":"729a2a6f-b27e-4b84-bd4d-5c7d76d41db6","system_id":"levelo_inurba_marseille","lat":43.31073,"lon":5.38349,"is_reserved":false,"is_disabled":false,"rental_uris":{"android":"levelo://app?vid=729a2a6f-b27e-4b84-bd4d-5c7d76d41db6","ios":"levelo://app?vid=729a2a6f-b27e-4b84-bd4d-5c7d76d41db6"},"vehicle_type_id":"4","last_reported":1745348900,"current_range_meters":8800,"station_id":"ce4bgv92rcd13ifvqcr0","pricing_plan_id":"cebpf4jnsgd1na2vs0mg"},{"bike_id":"bd93f3ae-653e-4aeb-b312-0399f42d6360","system_id":"levelo_inurba_marseille","lat":43.29883,"lon":5.38899,"is_reserved":false,"is_disabled":false,"rental_uris":{"android":"levelo://app?vid=bd93f3ae-653e-4aeb-b312-0399f42d6360","ios":"levelo://app?vid=bd93f3ae-653e-4aeb-b312-0399f42d6360"},"vehicle_type_id":"4","last_reported":1745348900,"current_range_meters":8800,"station_id":"ce4bh392rcd13ifvqdl0","pricing_plan_id":"cebpf4jnsgd1na2vs0mg"},{"bike_id":"febbc2fd-718a-491b-ad0a-b134be334ec1","system_id":"levelo_inurba_marseille","lat":43.28941,"lon":5.3664,"is_reserved":false,"is_disabled":false,"rental_uris":{"android":"levelo://app?vid=febbc2fd-718a-491b-ad0a-b134be334ec1","ios":"levelo://app?vid=febbc2fd-718a-491b-ad0a-b134be334ec1"},"vehicle_type_id":"4","last_reported":1745348900,"current_range_meters":8800,"station_id":"ce4bhap2rcd13ifvqek0","pricing_plan_id":"cebpf4jnsgd1na2vs0mg"},{"bike_id":"192e5b58-fdd0-4d69-8650-e31ffe281e6a","system_id":"levelo_inurba_marseille","lat":43.29533,"lon":5.38533,"is_reserved":false,"is_disabled":false,"rental_uris":{"android":"levelo://app?vid=192e5b58-fdd0-4d69-8650-e31ffe281e6a","ios":"levelo://app?vid=192e5b58-fdd0-4d69-8650-e31ffe281e6a"},"vehicle_type_id":"4","last_reported":1745348900,"current_range_meters":8800,"station_id":"ce4bgih2rcd13ifvqba0","pricing_plan_id":"cebpf4jnsgd1na2vs0mg"},{"bike_id":"2b002472-4b55-477f-b939-2b20d8d3b49c","system_id":"levelo_inurba_marseille","lat":43.28661,"lon":5.36347,"is_reserved":false,"is_disabled":false,"rental_uris":{"android":"levelo://app?vid=2b002472-4b55-477f-b939-2b20d8d3b49c","ios":"levelo://app?vid=2b002472-4b55-477f-b939-2b20d8d3b49c"},"vehicle_type_id":"4","last_reported":1745348900,"current_range_meters":9200,"station_id":"ce4bhah2rcd13ifvqej0","pricing_plan_id":"cebpf4jnsgd1na2vs0mg"},{"bike_id":"c10f08af-18b7-447a-8b67-bff77e4a8080","system_id":"levelo_inurba_marseille","lat":43.32359,"lon":5.36761,"is_reserved":false,"is_disabled":false,"rental_uris":{"android":"levelo://app?vid=c10f08af-18b7-447a-8b67-bff77e4a8080","ios":"levelo://app?vid=c10f08af-18b7-447a-8b67-bff77e4a8080"},"vehicle_type_id":"4","last_reported":1745348900,"current_range_meters":9200,"station_id":"ce4bhsh2rcd13ifvqi2g","pricing_plan_id":"cebpf4jnsgd1na2vs0mg"},{"bike_id":"2dc4e79a-33a8-48b0-bf03-f6328f1dc1f6","system_id":"levelo_inurba_marseille","lat":43.32362,"lon":5.38894,"is_reserved":false,"is_disabled":true,"rental_uris":{"android":"levelo://app?vid=2dc4e79a-33a8-48b0-bf03-f6328f1dc1f6","ios":"levelo://app?vid=2dc4e79a-33a8-48b0-bf03-f6328f1dc1f6"},"vehicle_type_id":"4","last_reported":1745348900,"current_range_meters":9200,"station_id":"ce4bhqp2rcd13ifvqhog","pricing_plan_id":"cebpf4jnsgd1na2vs0mg"},{"bike_id":"c1d6e6a7-33c5-4405-a4a7-39a5701a1992","system_id":"levelo_inurba_marseille","lat":43.29352,"lon":5.37157,"is_reserved":false,"is_disabled":true,"rental_uris":{"android":"levelo://app?vid=c1d6e6a7-33c5-4405-a4a7-39a5701a1992","ios":"levelo://app?vid=c1d6e6a7-33c5-4405-a4a7-39a5701a1992"},"vehicle_type_id":"4","last_reported":1745348900,"current_range_meters":9200,"station_id":"","pricing_plan_id":"cebpf4jnsgd1na2vs0mg"},{"bike_id":"ae1e9572-0b7c-47af-909f-0f04d1aa399c","system_id":"levelo_inurba_marseille","lat":43.2885,"lon":5.39303,"is_reserved":false,"is_disabled":false,"rental_uris":{"android":"levelo://app?vid=ae1e9572-0b7c-47af-909f-0f04d1aa399c","ios":"levelo://app?vid=ae1e9572-0b7c-47af-909f-0f04d1aa399c"},"vehicle_type_id":"4","last_reported":1745348900,"current_range_meters":9200,"station_id":"ce4bh2p2rcd13ifvqdi0","pricing_plan_id":"cebpf4jnsgd1na2vs0mg"},{"bike_id":"d8d27387-fb66-4c0a-90dc-eef7a69dc87d","system_id":"levelo_inurba_marseille","lat":43.212022,"lon":5.350688,"is_reserved":false,"is_disabled":false,"rental_uris":{"android":"levelo://app?vid=d8d27387-fb66-4c0a-90dc-eef7a69dc87d","ios":"levelo://app?vid=d8d27387-fb66-4c0a-90dc-eef7a69dc87d"},"vehicle_type_id":"4","last_reported":1745348900,"current_range_meters":9200,"station_id":"ce4bgh92rcd13ifvqb40","pricing_plan_id":"cebpf4jnsgd1na2vs0mg"},{"bike_id":"09ae223a-994b-439c-971f-33f9527e88b3","system_id":"levelo_inurba_marseille","lat":43.28936,"lon":5.36641,"is_reserved":false,"is_disabled":false,"rental_uris":{"android":"levelo://app?vid=09ae223a-994b-439c-971f-33f9527e88b3","ios":"levelo://app?vid=09ae223a-994b-439c-971f-33f9527e88b3"},"vehicle_type_id":"4","last_reported":1745348900,"current_range_meters":9200,"station_id":"ce4bhap2rcd13ifvqek0","pricing_plan_id":"cebpf4jnsgd1na2vs0mg"},{"bike_id":"a45ae1a9-c8cc-4065-9f5d-cdcd6714c67f","system_id":"levelo_inurba_marseille","lat":43.33804,"lon":5.39187,"is_reserved":false,"is_disabled":false,"rental_uris":{"android":"levelo://app?vid=a45ae1a9-c8cc-4065-9f5d-cdcd6714c67f","ios":"levelo://app?vid=a45ae1a9-c8cc-4065-9f5d-cdcd6714c67f"},"vehicle_type_id":"4","last_reported":1745348900,"current_range_meters":9600,"station_id":"","pricing_plan_id":"cebpf4jnsgd1na2vs0mg"},{"bike_id":"81d77fcb-8f24-4079-9c51-181359394190","system_id":"levelo_inurba_marseille","lat":43.2862,"lon":5.35097,"is_reserved":false,"is_disabled":false,"rental_uris":{"android":"levelo://app?vid=81d77fcb-8f24-4079-9c51-181359394190","ios":"levelo://app?vid=81d77fcb-8f24-4079-9c51-181359394190"},"vehicle_type_id":"4","last_reported":1745348900,"current_range_meters":9600,"station_id":"ce4bhch2rcd13ifvqeug","pricing_plan_id":"cebpf4jnsgd1na2vs0mg"},{"bike_id":"cee1878f-b1bd-451c-9225-a51e25740ce4","system_id":"levelo_inurba_marseille","lat":43.29051,"lon":5.35921,"is_reserved":false,"is_disabled":false,"rental_uris":{"android":"levelo://app?vid=cee1878f-b1bd-451c-9225-a51e25740ce4","ios":"levelo://app?vid=cee1878f-b1bd-451c-9225-a51e25740ce4"},"vehicle_type_id":"4","last_reported":1745348900,"current_range_meters":9600,"station_id":"ce4bha92rcd13ifvqeg0","pricing_plan_id":"cebpf4jnsgd1na2vs0mg"},{"bike_id":"31d2cca3-350f-4c8c-81c6-164749e6f45c","system_id":"levelo_inurba_marseille","lat":43.30795,"lon":5.38165,"is_reserved":false,"is_disabled":false,"rental_uris":{"android":"levelo://app?vid=31d2cca3-350f-4c8c-81c6-164749e6f45c","ios":"levelo://app?vid=31d2cca3-350f-4c8c-81c6-164749e6f45c"},"vehicle_type_id":"4","last_reported":1745348900,"current_range_meters":9600,"station_id":"ce4bgt12rcd13ifvqce0","pricing_plan_id":"cebpf4jnsgd1na2vs0mg"},{"bike_id":"ecbdb4d8-c80c-4a11-b50b-aff98695a59d","system_id":"levelo_inurba_marseille","lat":43.27915,"lon":5.39581,"is_reserved":false,"is_disabled":false,"rental_uris":{"android":"levelo://app?vid=ecbdb4d8-c80c-4a11-b50b-aff98695a59d","ios":"levelo://app?vid=ecbdb4d8-c80c-4a11-b50b-aff98695a59d"},"vehicle_type_id":"4","last_reported":1745348900,"current_range_meters":9600,"station_id":"ce4bhf92rcd13ifvqf40","pricing_plan_id":"cebpf4jnsgd1na2vs0mg"},{"bike_id":"d7d9ed36-8181-458f-8b13-5c9b72246f04","system_id":"levelo_inurba_marseille","lat":43.24389,"lon":5.37056,"is_reserved":false,"is_disabled":false,"rental_uris":{"android":"levelo://app?vid=d7d9ed36-8181-458f-8b13-5c9b72246f04","ios":"levelo://app?vid=d7d9ed36-8181-458f-8b13-5c9b72246f04"},"vehicle_type_id":"4","last_reported":1745348900,"current_range_meters":9600,"station_id":"ce4bhhh2rcd13ifvqfk0","pricing_plan_id":"cebpf4jnsgd1na2vs0mg"},{"bike_id":"9955afde-6d4b-4dfb-9249-7e1b507b3c52","system_id":"levelo_inurba_marseille","lat":43.2507,"lon":5.39517,"is_reserved":false,"is_disabled":false,"rental_uris":{"android":"levelo://app?vid=9955afde-6d4b-4dfb-9249-7e1b507b3c52","ios":"levelo://app?vid=9955afde-6d4b-4dfb-9249-7e1b507b3c52"},"vehicle_type_id":"4","last_reported":1745348900,"current_range_meters":10000,"station_id":"ce4bhm12rcd13ifvqgkg","pricing_plan_id":"cebpf4jnsgd1na2vs0mg"},{"bike_id":"9397a6bb-7010-489e-bda6-146bdeb4d6d1","system_id":"levelo_inurba_marseille","lat":43.28109,"lon":5.37828,"is_reserved":false,"is_disabled":false,"rental_uris":{"android":"levelo://app?vid=9397a6bb-7010-489e-bda6-146bdeb4d6d1","ios":"levelo://app?vid=9397a6bb-7010-489e-bda6-146bdeb4d6d1"},"vehicle_type_id":"4","last_reported":1745348900,"current_range_meters":10000,"station_id":"ce4bha12rcd13ifvqee0","pricing_plan_id":"cebpf4jnsgd1na2vs0mg"},{"bike_id":"5c22fbe7-643d-4d2d-a351-a7dd88249eea","system_id":"levelo_inurba_marseille","lat":43.2695,"lon":5.38626,"is_reserved":false,"is_disabled":false,"rental_uris":{"android":"levelo://app?vid=5c22fbe7-643d-4d2d-a351-a7dd88249eea","ios":"levelo://app?vid=5c22fbe7-643d-4d2d-a351-a7dd88249eea"},"vehicle_type_id":"4","last_reported":1745348900,"current_range_meters":10000,"station_id":"ce4bhh92rcd13ifvqfh0","pricing_plan_id":"cebpf4jnsgd1na2vs0mg"},{"bike_id":"e75ddb1f-863d-4bb9-bad5-4d11635986bd","system_id":"levelo_inurba_marseille","lat":43.29605,"lon":5.38111,"is_reserved":false,"is_disabled":false,"rental_uris":{"android":"levelo://app?vid=e75ddb1f-863d-4bb9-bad5-4d11635986bd","ios":"levelo://app?vid=e75ddb1f-863d-4bb9-bad5-4d11635986bd"},"vehicle_type_id":"4","last_reported":1745348900,"current_range_meters":10000,"station_id":"ce4bgl12rcd13ifvqbo0","pricing_plan_id":"cebpf4jnsgd1na2vs0mg"},{"bike_id":"e398c7f5-3587-459f-99fe-8a326e7304d0","system_id":"levelo_inurba_marseille","lat":43.23181,"lon":5.39992,"is_reserved":false,"is_disabled":false,"rental_uris":{"android":"levelo://app?vid=e398c7f5-3587-459f-99fe-8a326e7304d0","ios":"levelo://app?vid=e398c7f5-3587-459f-99fe-8a326e7304d0"},"vehicle_type_id":"4","last_reported":1745348900,"current_range_meters":10000,"station_id":"ce4bhn12rcd13ifvqgqg","pricing_plan_id":"cebpf4jnsgd1na2vs0mg"},{"bike_id":"56fba475-46d0-45ce-b405-5aff9d21f413","system_id":"levelo_inurba_marseille","lat":43.28614,"lon":5.35103,"is_reserved":false,"is_disabled":false,"rental_uris":{"android":"levelo://app?vid=56fba475-46d0-45ce-b405-5aff9d21f413","ios":"levelo://app?vid=56fba475-46d0-45ce-b405-5aff9d21f413"},"vehicle_type_id":"4","last_reported":1745348900,"current_range_meters":10000,"station_id":"ce4bhch2rcd13ifvqeug","pricing_plan_id":"cebpf4jnsgd1na2vs0mg"},{"bike_id":"04e7ef20-6f3c-45c7-abbf-bbc81edf1116","system_id":"levelo_inurba_marseille","lat":43.2866,"lon":5.36355,"is_reserved":false,"is_disabled":false,"rental_uris":{"android":"levelo://app?vid=04e7ef20-6f3c-45c7-abbf-bbc81edf1116","ios":"levelo://app?vid=04e7ef20-6f3c-45c7-abbf-bbc81edf1116"},"vehicle_type_id":"4","last_reported":1745348900,"current_range_meters":10800,"station_id":"ce4bhah2rcd13ifvqej0","pricing_plan_id":"cebpf4jnsgd1na2vs0mg"},{"bike_id":"18689aa6-e31f-468e-ba1e-39ceac80efb4","system_id":"levelo_inurba_marseille","lat":43.29567,"lon":5.37528,"is_reserved":false,"is_disabled":false,"rental_uris":{"android":"levelo://app?vid=18689aa6-e31f-468e-ba1e-39ceac80efb4","ios":"levelo://app?vid=18689aa6-e31f-468e-ba1e-39ceac80efb4"},"vehicle_type_id":"4","last_reported":1745348900,"current_range_meters":10800,"station_id":"ce4bgh92rcd13ifvqb50","pricing_plan_id":"cebpf4jnsgd1na2vs0mg"},{"bike_id":"c2e6c72b-8970-4f1b-8d45-b5609a50a1bb","system_id":"levelo_inurba_marseille","lat":43.27905,"lon":5.38015,"is_reserved":false,"is_disabled":false,"rental_uris":{"android":"levelo://app?vid=c2e6c72b-8970-4f1b-8d45-b5609a50a1bb","ios":"levelo://app?vid=c2e6c72b-8970-4f1b-8d45-b5609a50a1bb"},"vehicle_type_id":"4","last_reported":1745348900,"current_range_meters":10800,"station_id":"ce4bhf92rcd13ifvqf50","pricing_plan_id":"cebpf4jnsgd1na2vs0mg"},{"bike_id":"abd9d77e-ee42-4d20-8577-dc884e31f0dc","system_id":"levelo_inurba_marseille","lat":43.30648,"lon":5.40102,"is_reserved":false,"is_disabled":false,"rental_uris":{"android":"levelo://app?vid=abd9d77e-ee42-4d20-8577-dc884e31f0dc","ios":"levelo://app?vid=abd9d77e-ee42-4d20-8577-dc884e31f0dc"},"vehicle_type_id":"4","last_reported":1745348900,"current_range_meters":10800,"station_id":"ce4bh112rcd13ifvqda0","pricing_plan_id":"cebpf4jnsgd1na2vs0mg"},{"bike_id":"3d8ef3de-b93e-4224-a6a0-d6e4aaac200c","system_id":"levelo_inurba_marseille","lat":43.30329,"lon":5.40436,"is_reserved":false,"is_disabled":false,"rental_uris":{"android":"levelo://app?vid=3d8ef3de-b93e-4224-a6a0-d6e4aaac200c","ios":"levelo://app?vid=3d8ef3de-b93e-4224-a6a0-d6e4aaac200c"},"vehicle_type_id":"4","last_reported":1745348900,"current_range_meters":10800,"station_id":"ce4bh012rcd13ifvqd10","pricing_plan_id":"cebpf4jnsgd1na2vs0mg"},{"bike_id":"7feed048-446b-4184-86b1-00f6eb29920f","system_id":"levelo_inurba_marseille","lat":43.24391,"lon":5.37036,"is_reserved":false,"is_disabled":false,"rental_uris":{"android":"levelo://app?vid=7feed048-446b-4184-86b1-00f6eb29920f","ios":"levelo://app?vid=7feed048-446b-4184-86b1-00f6eb29920f"},"vehicle_type_id":"4","last_reported":1745348900,"current_range_meters":10800,"station_id":"ce4bhhh2rcd13ifvqfk0","pricing_plan_id":"cebpf4jnsgd1na2vs0mg"},{"bike_id":"aa875735-2ce2-4021-9932-9fc5197d4ba4","system_id":"levelo_inurba_marseille","lat":43.27906,"lon":5.38013,"is_reserved":false,"is_disabled":false,"rental_uris":{"android":"levelo://app?vid=aa875735-2ce2-4021-9932-9fc5197d4ba4","ios":"levelo://app?vid=aa875735-2ce2-4021-9932-9fc5197d4ba4"},"vehicle_type_id":"4","last_reported":1745348900,"current_range_meters":10800,"station_id":"ce4bhf92rcd13ifvqf50","pricing_plan_id":"cebpf4jnsgd1na2vs0mg"},{"bike_id":"1bdc1f25-e665-430e-bcfa-cbd051309fba","system_id":"levelo_inurba_marseille","lat":43.28102,"lon":5.37836,"is_reserved":false,"is_disabled":false,"rental_uris":{"android":"levelo://app?vid=1bdc1f25-e665-430e-bcfa-cbd051309fba","ios":"levelo://app?vid=1bdc1f25-e665-430e-bcfa-cbd051309fba"},"vehicle_type_id":"4","last_reported":1745348900,"current_range_meters":10800,"station_id":"ce4bha12rcd13ifvqee0","pricing_plan_id":"cebpf4jnsgd1na2vs0mg"},{"bike_id":"65032b87-27fe-4c5b-be08-b3e32350bbe0","system_id":"levelo_inurba_marseille","lat":43.241797,"lon":5.39749,"is_reserved":false,"is_disabled":false,"rental_uris":{"android":"levelo://app?vid=65032b87-27fe-4c5b-be08-b3e32350bbe0","ios":"levelo://app?vid=65032b87-27fe-4c5b-be08-b3e32350bbe0"},"vehicle_type_id":"4","last_reported":1745348900,"current_range_meters":11200,"station_id":"ce4bhn12rcd13ifvqgpg","pricing_plan_id":"cebpf4jnsgd1na2vs0mg"},{"bike_id":"0d1ebedd-3512-4ce4-87fe-745c17edfd96","system_id":"levelo_inurba_marseille","lat":43.2787,"lon":5.35442,"is_reserved":false,"is_disabled":true,"rental_uris":{"android":"levelo://app?vid=0d1ebedd-3512-4ce4-87fe-745c17edfd96","ios":"levelo://app?vid=0d1ebedd-3512-4ce4-87fe-745c17edfd96"},"vehicle_type_id":"4","last_reported":1745348900,"current_range_meters":11200,"station_id":"","pricing_plan_id":"cebpf4jnsgd1na2vs0mg"},{"bike_id":"f1300840-291d-4ece-a09c-172514b0678c","system_id":"levelo_inurba_marseille","lat":43.2943,"lon":5.39739,"is_reserved":false,"is_disabled":true,"rental_uris":{"android":"levelo://app?vid=f1300840-291d-4ece-a09c-172514b0678c","ios":"levelo://app?vid=f1300840-291d-4ece-a09c-172514b0678c"},"vehicle_type_id":"4","last_reported":1745348900,"current_range_meters":11200,"station_id":"ce4bh3h2rcd13ifvqdo0","pricing_plan_id":"cebpf4jnsgd1na2vs0mg"},{"bike_id":"35e3ad11-7ff7-4bb4-8589-092412f76bd9","system_id":"levelo_inurba_marseille","lat":43.27184,"lon":5.40982,"is_reserved":false,"is_disabled":false,"rental_uris":{"android":"levelo://app?vid=35e3ad11-7ff7-4bb4-8589-092412f76bd9","ios":"levelo://app?vid=35e3ad11-7ff7-4bb4-8589-092412f76bd9"},"vehicle_type_id":"4","last_reported":1745348900,"current_range_meters":11200,"station_id":"ce4bhl12rcd13ifvqgf0","pricing_plan_id":"cebpf4jnsgd1na2vs0mg"},{"bike_id":"af66a236-21f6-4dac-9f5b-1a08e21d4696","system_id":"levelo_inurba_marseille","lat":43.29519,"lon":5.39037,"is_reserved":false,"is_disabled":false,"rental_uris":{"android":"levelo://app?vid=af66a236-21f6-4dac-9f5b-1a08e21d4696","ios":"levelo://app?vid=af66a236-21f6-4dac-9f5b-1a08e21d4696"},"vehicle_type_id":"4","last_reported":1745348900,"current_range_meters":11200,"station_id":"ce4bh3p2rcd13ifvqdp0","pricing_plan_id":"cebpf4jnsgd1na2vs0mg"},{"bike_id":"cde58abb-e471-49a0-b5b1-fcfce4e67920","system_id":"levelo_inurba_marseille","lat":43.31993,"lon":5.38146,"is_reserved":false,"is_disabled":false,"rental_uris":{"android":"levelo://app?vid=cde58abb-e471-49a0-b5b1-fcfce4e67920","ios":"levelo://app?vid=cde58abb-e471-49a0-b5b1-fcfce4e67920"},"vehicle_type_id":"4","last_reported":1745348900,"current_range_meters":11200,"station_id":"ce4bhr12rcd13ifvqhpg","pricing_plan_id":"cebpf4jnsgd1na2vs0mg"},{"bike_id":"47768a28-4fff-4fc1-b4c4-b5ec8d452deb","system_id":"levelo_inurba_marseille","lat":43.29595,"lon":5.38094,"is_reserved":false,"is_disabled":true,"rental_uris":{"android":"levelo://app?vid=47768a28-4fff-4fc1-b4c4-b5ec8d452deb","ios":"levelo://app?vid=47768a28-4fff-4fc1-b4c4-b5ec8d452deb"},"vehicle_type_id":"4","last_reported":1745348900,"current_range_meters":11200,"station_id":"ce4bgl12rcd13ifvqbo0","pricing_plan_id":"cebpf4jnsgd1na2vs0mg"},{"bike_id":"66a2a2c4-0158-4f03-8055-1d70c652fc79","system_id":"levelo_inurba_marseille","lat":43.25079,"lon":5.39531,"is_reserved":false,"is_disabled":false,"rental_uris":{"android":"levelo://app?vid=66a2a2c4-0158-4f03-8055-1d70c652fc79","ios":"levelo://app?vid=66a2a2c4-0158-4f03-8055-1d70c652fc79"},"vehicle_type_id":"4","last_reported":1745348900,"current_range_meters":11200,"station_id":"ce4bhm12rcd13ifvqgkg","pricing_plan_id":"cebpf4jnsgd1na2vs0mg"},{"bike_id":"4ffb491f-099a-46f4-b062-324b1005b615","system_id":"levelo_inurba_marseille","lat":43.31072,"lon":5.38349,"is_reserved":false,"is_disabled":false,"rental_uris":{"android":"levelo://app?vid=4ffb491f-099a-46f4-b062-324b1005b615","ios":"levelo://app?vid=4ffb491f-099a-46f4-b062-324b1005b615"},"vehicle_type_id":"4","last_reported":1745348900,"current_range_meters":11200,"station_id":"ce4bgv92rcd13ifvqcr0","pricing_plan_id":"cebpf4jnsgd1na2vs0mg"},{"bike_id":"d3963676-9f43-4852-8656-d198da150ad0","system_id":"levelo_inurba_marseille","lat":43.29912,"lon":5.38147,"is_reserved":false,"is_disabled":false,"rental_uris":{"android":"levelo://app?vid=d3963676-9f43-4852-8656-d198da150ad0","ios":"levelo://app?vid=d3963676-9f43-4852-8656-d198da150ad0"},"vehicle_type_id":"4","last_reported":1745348900,"current_range_meters":11600,"station_id":"ce4bgj12rcd13ifvqbc0","pricing_plan_id":"cebpf4jnsgd1na2vs0mg"},{"bike_id":"c10256a6-8742-4a70-8e64-f2c56713d90b","system_id":"levelo_inurba_marseille","lat":43.28393,"lon":5.37525,"is_reserved":false,"is_disabled":false,"rental_uris":{"android":"levelo://app?vid=c10256a6-8742-4a70-8e64-f2c56713d90b","ios":"levelo://app?vid=c10256a6-8742-4a70-8e64-f2c56713d90b"},"vehicle_type_id":"4","last_reported":1745348900,"current_range_meters":11600,"station_id":"ce4bh412rcd13ifvqds0","pricing_plan_id":"cebpf4jnsgd1na2vs0mg"},{"bike_id":"d5fa6a7e-ae6f-48cd-8dc8-6ec1473fc099","system_id":"levelo_inurba_marseille","lat":43.31409,"lon":5.36665,"is_reserved":false,"is_disabled":true,"rental_uris":{"android":"levelo://app?vid=d5fa6a7e-ae6f-48cd-8dc8-6ec1473fc099","ios":"levelo://app?vid=d5fa6a7e-ae6f-48cd-8dc8-6ec1473fc099"},"vehicle_type_id":"4","last_reported":1745348900,"current_range_meters":11600,"station_id":"ce4bgr92rcd13ifvqc6g","pricing_plan_id":"cebpf4jnsgd1na2vs0mg"},{"bike_id":"ecd9c509-3120-4166-8927-f60518d66aaa","system_id":"levelo_inurba_marseille","lat":43.29529,"lon":5.3942,"is_reserved":false,"is_disabled":true,"rental_uris":{"android":"levelo://app?vid=ecd9c509-3120-4166-8927-f60518d66aaa","ios":"levelo://app?vid=ecd9c509-3120-4166-8927-f60518d66aaa"},"vehicle_type_id":"4","last_reported":1745348900,"current_range_meters":11600,"station_id":"ce4bh292rcd13ifvqdf0","pricing_plan_id":"cebpf4jnsgd1na2vs0mg"},{"bike_id":"a756bae3-49c1-4d6c-89e8-fcb7b0e7d2e2","system_id":"levelo_inurba_marseille","lat":43.29036,"lon":5.35918,"is_reserved":false,"is_disabled":true,"rental_uris":{"android":"levelo://app?vid=a756bae3-49c1-4d6c-89e8-fcb7b0e7d2e2","ios":"levelo://app?vid=a756bae3-49c1-4d6c-89e8-fcb7b0e7d2e2"},"vehicle_type_id":"4","last_reported":1745348900,"current_range_meters":12000,"station_id":"ce4bha92rcd13ifvqeg0","pricing_plan_id":"cebpf4jnsgd1na2vs0mg"},{"bike_id":"54c182cf-df32-4b6f-a83b-78ff346ff221","system_id":"levelo_inurba_marseille","lat":43.29278,"lon":5.375087,"is_reserved":false,"is_disabled":false,"rental_uris":{"android":"levelo://app?vid=54c182cf-df32-4b6f-a83b-78ff346ff221","ios":"levelo://app?vid=54c182cf-df32-4b6f-a83b-78ff346ff221"},"vehicle_type_id":"4","last_reported":1745348900,"current_range_meters":14800,"station_id":"cki0cbj6b192h4jlfktg","pricing_plan_id":"cebpf4jnsgd1na2vs0mg"},{"bike_id":"8c0d14bb-4242-4f4f-8a62-e312c5b2bf57","system_id":"levelo_inurba_marseille","lat":43.29427,"lon":5.38618,"is_reserved":false,"is_disabled":false,"rental_uris":{"android":"levelo://app?vid=8c0d14bb-4242-4f4f-8a62-e312c5b2bf57","ios":"levelo://app?vid=8c0d14bb-4242-4f4f-8a62-e312c5b2bf57"},"vehicle_type_id":"4","last_reported":1745348900,"current_range_meters":12000,"station_id":"ce4bh2h2rcd13ifvqdh0","pricing_plan_id":"cebpf4jnsgd1na2vs0mg"},{"bike_id":"6ea1c678-c1ac-47b3-938d-3529262ed0b6","system_id":"levelo_inurba_marseille","lat":43.27993,"lon":5.40006,"is_reserved":false,"is_disabled":false,"rental_uris":{"android":"levelo://app?vid=6ea1c678-c1ac-47b3-938d-3529262ed0b6","ios":"levelo://app?vid=6ea1c678-c1ac-47b3-938d-3529262ed0b6"},"vehicle_type_id":"4","last_reported":1745348900,"current_range_meters":12000,"station_id":"ce4bho92rcd13ifvqh4g","pricing_plan_id":"cebpf4jnsgd1na2vs0mg"},{"bike_id":"98c556ec-53ed-4e53-9580-cfdb1618e905","system_id":"levelo_inurba_marseille","lat":43.3093,"lon":5.40141,"is_reserved":false,"is_disabled":false,"rental_uris":{"android":"levelo://app?vid=98c556ec-53ed-4e53-9580-cfdb1618e905","ios":"levelo://app?vid=98c556ec-53ed-4e53-9580-cfdb1618e905"},"vehicle_type_id":"4","last_reported":1745348900,"current_range_meters":12000,"station_id":"ce4bgvp2rcd13ifvqct0","pricing_plan_id":"cebpf4jnsgd1na2vs0mg"},{"bike_id":"bcf59123-c0ca-4689-b22c-166c9c055995","system_id":"levelo_inurba_marseille","lat":43.32036,"lon":5.415727,"is_reserved":false,"is_disabled":false,"rental_uris":{"android":"levelo://app?vid=bcf59123-c0ca-4689-b22c-166c9c055995","ios":"levelo://app?vid=bcf59123-c0ca-4689-b22c-166c9c055995"},"vehicle_type_id":"4","last_reported":1745348900,"current_range_meters":12000,"station_id":"ce4bhq92rcd13ifvqhkg","pricing_plan_id":"cebpf4jnsgd1na2vs0mg"},{"bike_id":"faac2c48-4e9b-4767-bd18-01c47c9ea8e4","system_id":"levelo_inurba_marseille","lat":43.2695,"lon":5.38628,"is_reserved":false,"is_disabled":false,"rental_uris":{"android":"levelo://app?vid=faac2c48-4e9b-4767-bd18-01c47c9ea8e4","ios":"levelo://app?vid=faac2c48-4e9b-4767-bd18-01c47c9ea8e4"},"vehicle_type_id":"4","last_reported":1745348900,"current_range_meters":12400,"station_id":"ce4bhh92rcd13ifvqfh0","pricing_plan_id":"cebpf4jnsgd1na2vs0mg"},{"bike_id":"87d559ff-4f71-4677-b138-1cd076d06e68","system_id":"levelo_inurba_marseille","lat":43.30888,"lon":5.39661,"is_reserved":false,"is_disabled":false,"rental_uris":{"android":"levelo://app?vid=87d559ff-4f71-4677-b138-1cd076d06e68","ios":"levelo://app?vid=87d559ff-4f71-4677-b138-1cd076d06e68"},"vehicle_type_id":"4","last_reported":1745348900,"current_range_meters":12400,"station_id":"ce4bh012rcd13ifvqcv0","pricing_plan_id":"cebpf4jnsgd1na2vs0mg"},{"bike_id":"dfa00e81-f24d-4799-a072-5c5b4e571bc5","system_id":"levelo_inurba_marseille","lat":43.28659,"lon":5.36351,"is_reserved":false,"is_disabled":false,"rental_uris":{"android":"levelo://app?vid=dfa00e81-f24d-4799-a072-5c5b4e571bc5","ios":"levelo://app?vid=dfa00e81-f24d-4799-a072-5c5b4e571bc5"},"vehicle_type_id":"4","last_reported":1745348900,"current_range_meters":12400,"station_id":"ce4bhah2rcd13ifvqej0","pricing_plan_id":"cebpf4jnsgd1na2vs0mg"},{"bike_id":"757f29f7-6afe-4e70-bdd9-6f8cb0c63be5","system_id":"levelo_inurba_marseille","lat":43.300079,"lon":5.379969,"is_reserved":false,"is_disabled":false,"rental_uris":{"android":"levelo://app?vid=757f29f7-6afe-4e70-bdd9-6f8cb0c63be5","ios":"levelo://app?vid=757f29f7-6afe-4e70-bdd9-6f8cb0c63be5"},"vehicle_type_id":"4","last_reported":1745348900,"current_range_meters":15200,"station_id":"ce4bhg12rcd13ifvqf80","pricing_plan_id":"cebpf4jnsgd1na2vs0mg"},{"bike_id":"e9e21459-0141-43a3-9f99-2d720b6a2b30","system_id":"levelo_inurba_marseille","lat":43.2863,"lon":5.35086,"is_reserved":false,"is_disabled":false,"rental_uris":{"android":"levelo://app?vid=e9e21459-0141-43a3-9f99-2d720b6a2b30","ios":"levelo://app?vid=e9e21459-0141-43a3-9f99-2d720b6a2b30"},"vehicle_type_id":"4","last_reported":1745348900,"current_range_meters":12400,"station_id":"ce4bhch2rcd13ifvqeug","pricing_plan_id":"cebpf4jnsgd1na2vs0mg"},{"bike_id":"be218f89-8917-4041-9488-f81416c926e3","system_id":"levelo_inurba_marseille","lat":43.28671,"lon":5.36361,"is_reserved":false,"is_disabled":false,"rental_uris":{"android":"levelo://app?vid=be218f89-8917-4041-9488-f81416c926e3","ios":"levelo://app?vid=be218f89-8917-4041-9488-f81416c926e3"},"vehicle_type_id":"4","last_reported":1745348900,"current_range_meters":12400,"station_id":"ce4bhah2rcd13ifvqej0","pricing_plan_id":"cebpf4jnsgd1na2vs0mg"},{"bike_id":"ae2462e3-d741-44b9-8175-77a134aeac56","system_id":"levelo_inurba_marseille","lat":43.27933,"lon":5.38737,"is_reserved":false,"is_disabled":true,"rental_uris":{"android":"levelo://app?vid=ae2462e3-d741-44b9-8175-77a134aeac56","ios":"levelo://app?vid=ae2462e3-d741-44b9-8175-77a134aeac56"},"vehicle_type_id":"4","last_reported":1745348900,"current_range_meters":12800,"station_id":"ce4bhg12rcd13ifvqf80","pricing_plan_id":"cebpf4jnsgd1na2vs0mg"},{"bike_id":"720d5b74-4e2b-42a2-b808-4a63d6065b2f","system_id":"levelo_inurba_marseille","lat":43.28848,"lon":5.39326,"is_reserved":false,"is_disabled":false,"rental_uris":{"android":"levelo://app?vid=720d5b74-4e2b-42a2-b808-4a63d6065b2f","ios":"levelo://app?vid=720d5b74-4e2b-42a2-b808-4a63d6065b2f"},"vehicle_type_id":"4","last_reported":1745348900,"current_range_meters":12800,"station_id":"ce4bh2p2rcd13ifvqdi0","pricing_plan_id":"cebpf4jnsgd1na2vs0mg"},{"bike_id":"8d7533b3-5585-4b66-b684-60807f9907c2","system_id":"levelo_inurba_marseille","lat":43.2884,"lon":5.35859,"is_reserved":false,"is_disabled":false,"rental_uris":{"android":"levelo://app?vid=8d7533b3-5585-4b66-b684-60807f9907c2","ios":"levelo://app?vid=8d7533b3-5585-4b66-b684-60807f9907c2"},"vehicle_type_id":"4","last_reported":1745348900,"current_range_meters":12800,"station_id":"ce4bhb12rcd13ifvqem0","pricing_plan_id":"cebpf4jnsgd1na2vs0mg"},{"bike_id":"924b41d3-76fb-4c5f-999f-4c0e5cb99faf","system_id":"levelo_inurba_marseille","lat":43.27216,"lon":5.39178,"is_reserved":false,"is_disabled":false,"rental_uris":{"android":"levelo://app?vid=924b41d3-76fb-4c5f-999f-4c0e5cb99faf","ios":"levelo://app?vid=924b41d3-76fb-4c5f-999f-4c0e5cb99faf"},"vehicle_type_id":"4","last_reported":1745348900,"current_range_meters":12800,"station_id":"ce4bhhp2rcd13ifvqfm0","pricing_plan_id":"cebpf4jnsgd1na2vs0mg"},{"bike_id":"aaaec5c9-e6f0-4969-aff7-c2a82130515d","system_id":"levelo_inurba_marseille","lat":43.28849,"lon":5.393,"is_reserved":false,"is_disabled":false,"rental_uris":{"android":"levelo://app?vid=aaaec5c9-e6f0-4969-aff7-c2a82130515d","ios":"levelo://app?vid=aaaec5c9-e6f0-4969-aff7-c2a82130515d"},"vehicle_type_id":"4","last_reported":1745348900,"current_range_meters":12800,"station_id":"ce4bh2p2rcd13ifvqdi0","pricing_plan_id":"cebpf4jnsgd1na2vs0mg"},{"bike_id":"b95554b9-8292-4c24-80f8-8ff298af665b","system_id":"levelo_inurba_marseille","lat":43.28354,"lon":5.38108,"is_reserved":false,"is_disabled":false,"rental_uris":{"android":"levelo://app?vid=b95554b9-8292-4c24-80f8-8ff298af665b","ios":"levelo://app?vid=b95554b9-8292-4c24-80f8-8ff298af665b"},"vehicle_type_id":"4","last_reported":1745348900,"current_range_meters":12400,"station_id":"ce4bh412rcd13ifvqdr0","pricing_plan_id":"cebpf4jnsgd1na2vs0mg"},{"bike_id":"2edc8615-adb9-4764-bba8-80b8c3bc3223","system_id":"levelo_inurba_marseille","lat":43.27146,"lon":5.41008,"is_reserved":false,"is_disabled":false,"rental_uris":{"android":"levelo://app?vid=2edc8615-adb9-4764-bba8-80b8c3bc3223","ios":"levelo://app?vid=2edc8615-adb9-4764-bba8-80b8c3bc3223"},"vehicle_type_id":"4","last_reported":1745348900,"current_range_meters":12800,"station_id":"ce4bhl12rcd13ifvqgf0","pricing_plan_id":"cebpf4jnsgd1na2vs0mg"},{"bike_id":"afc1a72d-f3cd-4039-8f8e-8907957e6ee0","system_id":"levelo_inurba_marseille","lat":43.284199,"lon":5.375088,"is_reserved":false,"is_disabled":false,"rental_uris":{"android":"levelo://app?vid=afc1a72d-f3cd-4039-8f8e-8907957e6ee0","ios":"levelo://app?vid=afc1a72d-f3cd-4039-8f8e-8907957e6ee0"},"vehicle_type_id":"4","last_reported":1745348900,"current_range_meters":13600,"station_id":"ce4bh412rcd13ifvqds0","pricing_plan_id":"cebpf4jnsgd1na2vs0mg"},{"bike_id":"476a9fe5-6154-4202-b562-28b0995b6b4c","system_id":"levelo_inurba_marseille","lat":43.2319,"lon":5.40002,"is_reserved":false,"is_disabled":false,"rental_uris":{"android":"levelo://app?vid=476a9fe5-6154-4202-b562-28b0995b6b4c","ios":"levelo://app?vid=476a9fe5-6154-4202-b562-28b0995b6b4c"},"vehicle_type_id":"4","last_reported":1745348900,"current_range_meters":13600,"station_id":"ce4bhn12rcd13ifvqgqg","pricing_plan_id":"cebpf4jnsgd1na2vs0mg"},{"bike_id":"a1d2c54b-b333-496c-a72c-10a072c70acc","system_id":"levelo_inurba_marseille","lat":43.28613,"lon":5.35099,"is_reserved":false,"is_disabled":false,"rental_uris":{"android":"levelo://app?vid=a1d2c54b-b333-496c-a72c-10a072c70acc","ios":"levelo://app?vid=a1d2c54b-b333-496c-a72c-10a072c70acc"},"vehicle_type_id":"4","last_reported":1745348900,"current_range_meters":14000,"station_id":"ce4bhch2rcd13ifvqeug","pricing_plan_id":"cebpf4jnsgd1na2vs0mg"},{"bike_id":"1be6a0eb-e7bb-4f1b-8976-c00356d99362","system_id":"levelo_inurba_marseille","lat":43.28277,"lon":5.3506,"is_reserved":false,"is_disabled":true,"rental_uris":{"android":"levelo://app?vid=1be6a0eb-e7bb-4f1b-8976-c00356d99362","ios":"levelo://app?vid=1be6a0eb-e7bb-4f1b-8976-c00356d99362"},"vehicle_type_id":"4","last_reported":1745348900,"current_range_meters":14000,"station_id":"ce4bhbp2rcd13ifvqerg","pricing_plan_id":"cebpf4jnsgd1na2vs0mg"},{"bike_id":"36dd4ffc-e94a-43bb-85ff-d12e135fa5af","system_id":"levelo_inurba_marseille","lat":43.28857,"lon":5.39306,"is_reserved":false,"is_disabled":false,"rental_uris":{"android":"levelo://app?vid=36dd4ffc-e94a-43bb-85ff-d12e135fa5af","ios":"levelo://app?vid=36dd4ffc-e94a-43bb-85ff-d12e135fa5af"},"vehicle_type_id":"4","last_reported":1745348900,"current_range_meters":14000,"station_id":"ce4bh2p2rcd13ifvqdi0","pricing_plan_id":"cebpf4jnsgd1na2vs0mg"},{"bike_id":"678d1ff2-b92f-437a-a478-0a2f054c08e9","system_id":"levelo_inurba_marseille","lat":43.3034,"lon":5.36874,"is_reserved":false,"is_disabled":false,"rental_uris":{"android":"levelo://app?vid=678d1ff2-b92f-437a-a478-0a2f054c08e9","ios":"levelo://app?vid=678d1ff2-b92f-437a-a478-0a2f054c08e9"},"vehicle_type_id":"4","last_reported":1745348900,"current_range_meters":14000,"station_id":"ce4bgqh2rcd13ifvqc5g","pricing_plan_id":"cebpf4jnsgd1na2vs0mg"},{"bike_id":"0e305fa8-3959-4c79-9975-6c9754330520","system_id":"levelo_inurba_marseille","lat":43.31178,"lon":5.38714,"is_reserved":false,"is_disabled":false,"rental_uris":{"android":"levelo://app?vid=0e305fa8-3959-4c79-9975-6c9754330520","ios":"levelo://app?vid=0e305fa8-3959-4c79-9975-6c9754330520"},"vehicle_type_id":"4","last_reported":1745348900,"current_range_meters":14000,"station_id":"ce4bgv12rcd13ifvqcp0","pricing_plan_id":"cebpf4jnsgd1na2vs0mg"},{"bike_id":"239a6419-3e2e-4895-abf7-a4328d11319e","system_id":"levelo_inurba_marseille","lat":43.30782,"lon":5.37649,"is_reserved":false,"is_disabled":false,"rental_uris":{"android":"levelo://app?vid=239a6419-3e2e-4895-abf7-a4328d11319e","ios":"levelo://app?vid=239a6419-3e2e-4895-abf7-a4328d11319e"},"vehicle_type_id":"4","last_reported":1745348900,"current_range_meters":14000,"station_id":"ce4bgv92rcd13ifvqcq0","pricing_plan_id":"cebpf4jnsgd1na2vs0mg"},{"bike_id":"9c8c25cf-c1bc-4288-a272-369045f948c0","system_id":"levelo_inurba_marseille","lat":43.240664,"lon":5.377638,"is_reserved":false,"is_disabled":false,"rental_uris":{"android":"levelo://app?vid=9c8c25cf-c1bc-4288-a272-369045f948c0","ios":"levelo://app?vid=9c8c25cf-c1bc-4288-a272-369045f948c0"},"vehicle_type_id":"4","last_reported":1745348900,"current_range_meters":14000,"station_id":"ce4bhnp2rcd13ifvqgvg","pricing_plan_id":"cebpf4jnsgd1na2vs0mg"},{"bike_id":"48939965-4329-495f-a3f1-b5cf562d2ecf","system_id":"levelo_inurba_marseille","lat":43.30672,"lon":5.40072,"is_reserved":false,"is_disabled":true,"rental_uris":{"android":"levelo://app?vid=48939965-4329-495f-a3f1-b5cf562d2ecf","ios":"levelo://app?vid=48939965-4329-495f-a3f1-b5cf562d2ecf"},"vehicle_type_id":"4","last_reported":1745348900,"current_range_meters":14000,"station_id":"ce4bh112rcd13ifvqda0","pricing_plan_id":"cebpf4jnsgd1na2vs0mg"},{"bike_id":"c8cb1f60-d25a-4ee9-92f8-9e294b1dbd84","system_id":"levelo_inurba_marseille","lat":43.24545,"lon":5.39521,"is_reserved":false,"is_disabled":false,"rental_uris":{"android":"levelo://app?vid=c8cb1f60-d25a-4ee9-92f8-9e294b1dbd84","ios":"levelo://app?vid=c8cb1f60-d25a-4ee9-92f8-9e294b1dbd84"},"vehicle_type_id":"4","last_reported":1745348900,"current_range_meters":14000,"station_id":"ce4bhlp2rcd13ifvqgjg","pricing_plan_id":"cebpf4jnsgd1na2vs0mg"},{"bike_id":"95bef4ac-68d4-4c4b-a48a-cdb1941757c0","system_id":"levelo_inurba_marseille","lat":43.28703,"lon":5.39981,"is_reserved":false,"is_disabled":false,"rental_uris":{"android":"levelo://app?vid=95bef4ac-68d4-4c4b-a48a-cdb1941757c0","ios":"levelo://app?vid=95bef4ac-68d4-4c4b-a48a-cdb1941757c0"},"vehicle_type_id":"4","last_reported":1745348900,"current_range_meters":14000,"station_id":"ce4bho92rcd13ifvqh3g","pricing_plan_id":"cebpf4jnsgd1na2vs0mg"},{"bike_id":"caccf6b1-eff9-41fc-9278-5e6f421f5468","system_id":"levelo_inurba_marseille","lat":43.28401,"lon":5.34999,"is_reserved":false,"is_disabled":false,"rental_uris":{"android":"levelo://app?vid=caccf6b1-eff9-41fc-9278-5e6f421f5468","ios":"levelo://app?vid=caccf6b1-eff9-41fc-9278-5e6f421f5468"},"vehicle_type_id":"4","last_reported":1745348900,"current_range_meters":14400,"station_id":"ce4bhbh2rcd13ifvqepg","pricing_plan_id":"cebpf4jnsgd1na2vs0mg"},{"bike_id":"de48a635-da88-4fcc-8749-c56c951dd46b","system_id":"levelo_inurba_marseille","lat":43.28472,"lon":5.35875,"is_reserved":false,"is_disabled":false,"rental_uris":{"android":"levelo://app?vid=de48a635-da88-4fcc-8749-c56c951dd46b","ios":"levelo://app?vid=de48a635-da88-4fcc-8749-c56c951dd46b"},"vehicle_type_id":"4","last_reported":1745348900,"current_range_meters":14400,"station_id":"ce4bhah2rcd13ifvqei0","pricing_plan_id":"cebpf4jnsgd1na2vs0mg"},{"bike_id":"2916e270-bcdc-480d-90f7-f95230dc696a","system_id":"levelo_inurba_marseille","lat":43.272374,"lon":5.421071,"is_reserved":false,"is_disabled":false,"rental_uris":{"android":"levelo://app?vid=2916e270-bcdc-480d-90f7-f95230dc696a","ios":"levelo://app?vid=2916e270-bcdc-480d-90f7-f95230dc696a"},"vehicle_type_id":"4","last_reported":1745348900,"current_range_meters":14400,"station_id":"ce4bhk92rcd13ifvqgb0","pricing_plan_id":"cebpf4jnsgd1na2vs0mg"},{"bike_id":"0bdef86d-4cc0-4665-b33f-78ac691156eb","system_id":"levelo_inurba_marseille","lat":43.28426,"lon":5.34999,"is_reserved":false,"is_disabled":false,"rental_uris":{"android":"levelo://app?vid=0bdef86d-4cc0-4665-b33f-78ac691156eb","ios":"levelo://app?vid=0bdef86d-4cc0-4665-b33f-78ac691156eb"},"vehicle_type_id":"4","last_reported":1745348900,"current_range_meters":14800,"station_id":"ce4bhbh2rcd13ifvqepg","pricing_plan_id":"cebpf4jnsgd1na2vs0mg"},{"bike_id":"f99a5ab2-5b8c-442c-a148-f1ce6b214dc9","system_id":"levelo_inurba_marseille","lat":43.28426,"lon":5.37509,"is_reserved":false,"is_disabled":false,"rental_uris":{"android":"levelo://app?vid=f99a5ab2-5b8c-442c-a148-f1ce6b214dc9","ios":"levelo://app?vid=f99a5ab2-5b8c-442c-a148-f1ce6b214dc9"},"vehicle_type_id":"4","last_reported":1745348900,"current_range_meters":14800,"station_id":"ce4bh412rcd13ifvqds0","pricing_plan_id":"cebpf4jnsgd1na2vs0mg"},{"bike_id":"fff8421f-1be9-4530-b6dc-ade24ab09bb2","system_id":"levelo_inurba_marseille","lat":43.28723,"lon":5.3608,"is_reserved":false,"is_disabled":false,"rental_uris":{"android":"levelo://app?vid=fff8421f-1be9-4530-b6dc-ade24ab09bb2","ios":"levelo://app?vid=fff8421f-1be9-4530-b6dc-ade24ab09bb2"},"vehicle_type_id":"4","last_reported":1745348900,"current_range_meters":14800,"station_id":"cki0cbj6b192h4jlfktg","pricing_plan_id":"cebpf4jnsgd1na2vs0mg"},{"bike_id":"cace8b88-5995-42d7-86e6-580b6388102d","system_id":"levelo_inurba_marseille","lat":43.30132,"lon":5.39876,"is_reserved":false,"is_disabled":false,"rental_uris":{"android":"levelo://app?vid=cace8b88-5995-42d7-86e6-580b6388102d","ios":"levelo://app?vid=cace8b88-5995-42d7-86e6-580b6388102d"},"vehicle_type_id":"4","last_reported":1745348900,"current_range_meters":14800,"station_id":"ce4bh0h2rcd13ifvqd40","pricing_plan_id":"cebpf4jnsgd1na2vs0mg"},{"bike_id":"ba55d6c1-d5d8-4036-84ce-8dd0962c2cfa","system_id":"levelo_inurba_marseille","lat":43.28936,"lon":5.36398,"is_reserved":false,"is_disabled":false,"rental_uris":{"android":"levelo://app?vid=ba55d6c1-d5d8-4036-84ce-8dd0962c2cfa","ios":"levelo://app?vid=ba55d6c1-d5d8-4036-84ce-8dd0962c2cfa"},"vehicle_type_id":"4","last_reported":1745348900,"current_range_meters":14800,"station_id":"ce4bhc92rcd13ifvqetg","pricing_plan_id":"cebpf4jnsgd1na2vs0mg"},{"bike_id":"9328a5dc-25f0-4bf2-a026-b22c4535927f","system_id":"levelo_inurba_marseille","lat":43.3133,"lon":5.39683,"is_reserved":false,"is_disabled":false,"rental_uris":{"android":"levelo://app?vid=9328a5dc-25f0-4bf2-a026-b22c4535927f","ios":"levelo://app?vid=9328a5dc-25f0-4bf2-a026-b22c4535927f"},"vehicle_type_id":"4","last_reported":1745348900,"current_range_meters":15200,"station_id":"ce4bgvp2rcd13ifvqcu0","pricing_plan_id":"cebpf4jnsgd1na2vs0mg"},{"bike_id":"ceca6f79-5899-4d1a-92cb-193745ebc9ff","system_id":"levelo_inurba_marseille","lat":43.3089,"lon":5.37206,"is_reserved":false,"is_disabled":false,"rental_uris":{"android":"levelo://app?vid=ceca6f79-5899-4d1a-92cb-193745ebc9ff","ios":"levelo://app?vid=ceca6f79-5899-4d1a-92cb-193745ebc9ff"},"vehicle_type_id":"4","last_reported":1745348900,"current_range_meters":14800,"station_id":"ce4bguh2rcd13ifvqckg","pricing_plan_id":"cebpf4jnsgd1na2vs0mg"},{"bike_id":"17fcc26c-1b0e-4619-af61-a43999c9f6b6","system_id":"levelo_inurba_marseille","lat":43.31753,"lon":5.39022,"is_reserved":false,"is_disabled":false,"rental_uris":{"android":"levelo://app?vid=17fcc26c-1b0e-4619-af61-a43999c9f6b6","ios":"levelo://app?vid=17fcc26c-1b0e-4619-af61-a43999c9f6b6"},"vehicle_type_id":"4","last_reported":1745348900,"current_range_meters":15200,"station_id":"ce4bhqp2rcd13ifvqhng","pricing_plan_id":"cebpf4jnsgd1na2vs0mg"},{"bike_id":"2d215268-935d-4396-92a5-015b2ccf78c9","system_id":"levelo_inurba_marseille","lat":43.22935,"lon":5.35381,"is_reserved":false,"is_disabled":false,"rental_uris":{"android":"levelo://app?vid=2d215268-935d-4396-92a5-015b2ccf78c9","ios":"levelo://app?vid=2d215268-935d-4396-92a5-015b2ccf78c9"},"vehicle_type_id":"4","last_reported":1745348900,"current_range_meters":15200,"station_id":"cpo3532slgdg3j2ikp40","pricing_plan_id":"cebpf4jnsgd1na2vs0mg"},{"bike_id":"720e7c55-81ee-4df3-85dd-e0a8bd052c42","system_id":"levelo_inurba_marseille","lat":43.29526,"lon":5.39031,"is_reserved":false,"is_disabled":false,"rental_uris":{"android":"levelo://app?vid=720e7c55-81ee-4df3-85dd-e0a8bd052c42","ios":"levelo://app?vid=720e7c55-81ee-4df3-85dd-e0a8bd052c42"},"vehicle_type_id":"4","last_reported":1745348900,"current_range_meters":15200,"station_id":"ce4bh3p2rcd13ifvqdp0","pricing_plan_id":"cebpf4jnsgd1na2vs0mg"},{"bike_id":"5b2a268a-61f7-4771-8e04-d26f66abbacf","system_id":"levelo_inurba_marseille","lat":43.29515,"lon":5.39035,"is_reserved":false,"is_disabled":false,"rental_uris":{"android":"levelo://app?vid=5b2a268a-61f7-4771-8e04-d26f66abbacf","ios":"levelo://app?vid=5b2a268a-61f7-4771-8e04-d26f66abbacf"},"vehicle_type_id":"4","last_reported":1745348900,"current_range_meters":16000,"station_id":"ce4bh3p2rcd13ifvqdp0","pricing_plan_id":"cebpf4jnsgd1na2vs0mg"},{"bike_id":"9cf12d6e-01f3-49cc-8671-0c79800914d3","system_id":"levelo_inurba_marseille","lat":43.243845,"lon":5.370518,"is_reserved":false,"is_disabled":false,"rental_uris":{"android":"levelo://app?vid=9cf12d6e-01f3-49cc-8671-0c79800914d3","ios":"levelo://app?vid=9cf12d6e-01f3-49cc-8671-0c79800914d3"},"vehicle_type_id":"4","last_reported":1745348900,"current_range_meters":16000,"station_id":"ce4bhhh2rcd13ifvqfk0","pricing_plan_id":"cebpf4jnsgd1na2vs0mg"},{"bike_id":"9bd24143-7046-472c-b30c-fa7808af552e","system_id":"levelo_inurba_marseille","lat":43.28734,"lon":5.3607,"is_reserved":false,"is_disabled":false,"rental_uris":{"android":"levelo://app?vid=9bd24143-7046-472c-b30c-fa7808af552e","ios":"levelo://app?vid=9bd24143-7046-472c-b30c-fa7808af552e"},"vehicle_type_id":"4","last_reported":1745348900,"current_range_meters":16000,"station_id":"cki0cbj6b192h4jlfktg","pricing_plan_id":"cebpf4jnsgd1na2vs0mg"},{"bike_id":"124af0dd-823f-43c9-8cc9-da7763d54398","system_id":"levelo_inurba_marseille","lat":43.30798,"lon":5.3816,"is_reserved":false,"is_disabled":false,"rental_uris":{"android":"levelo://app?vid=124af0dd-823f-43c9-8cc9-da7763d54398","ios":"levelo://app?vid=124af0dd-823f-43c9-8cc9-da7763d54398"},"vehicle_type_id":"4","last_reported":1745348900,"current_range_meters":16000,"station_id":"ce4bgt12rcd13ifvqce0","pricing_plan_id":"cebpf4jnsgd1na2vs0mg"},{"bike_id":"df6ffc41-ed4d-4c2c-af47-12b33fc50735","system_id":"levelo_inurba_marseille","lat":43.25111,"lon":5.4033,"is_reserved":false,"is_disabled":false,"rental_uris":{"android":"levelo://app?vid=df6ffc41-ed4d-4c2c-af47-12b33fc50735","ios":"levelo://app?vid=df6ffc41-ed4d-4c2c-af47-12b33fc50735"},"vehicle_type_id":"4","last_reported":1745348900,"current_range_meters":16000,"station_id":"ce4bhlh2rcd13ifvqgig","pricing_plan_id":"cebpf4jnsgd1na2vs0mg"},{"bike_id":"0131409a-fb7f-4ebd-9b72-c221ba076253","system_id":"levelo_inurba_marseille","lat":43.29884,"lon":5.38905,"is_reserved":false,"is_disabled":false,"rental_uris":{"android":"levelo://app?vid=0131409a-fb7f-4ebd-9b72-c221ba076253","ios":"levelo://app?vid=0131409a-fb7f-4ebd-9b72-c221ba076253"},"vehicle_type_id":"4","last_reported":1745348900,"current_range_meters":15200,"station_id":"ce4bh392rcd13ifvqdl0","pricing_plan_id":"cebpf4jnsgd1na2vs0mg"},{"bike_id":"2dec9cfb-711f-491c-9925-bbeb0f290b29","system_id":"levelo_inurba_marseille","lat":43.29198,"lon":5.35792,"is_reserved":false,"is_disabled":false,"rental_uris":{"android":"levelo://app?vid=2dec9cfb-711f-491c-9925-bbeb0f290b29","ios":"levelo://app?vid=2dec9cfb-711f-491c-9925-bbeb0f290b29"},"vehicle_type_id":"4","last_reported":1745348900,"current_range_meters":16000,"station_id":"ce4bhb12rcd13ifvqel0","pricing_plan_id":"cebpf4jnsgd1na2vs0mg"},{"bike_id":"602b5f96-6a4b-4aa5-bb1e-7ed29f4a890c","system_id":"levelo_inurba_marseille","lat":43.28659,"lon":5.3635,"is_reserved":false,"is_disabled":false,"rental_uris":{"android":"levelo://app?vid=602b5f96-6a4b-4aa5-bb1e-7ed29f4a890c","ios":"levelo://app?vid=602b5f96-6a4b-4aa5-bb1e-7ed29f4a890c"},"vehicle_type_id":"4","last_reported":1745348900,"current_range_meters":13600,"station_id":"ce4bhah2rcd13ifvqej0","pricing_plan_id":"cebpf4jnsgd1na2vs0mg"},{"bike_id":"9c5758bf-33b5-4a52-afd2-c8734b4dca48","system_id":"levelo_inurba_marseille","lat":43.31073,"lon":5.38365,"is_reserved":false,"is_disabled":false,"rental_uris":{"android":"levelo://app?vid=9c5758bf-33b5-4a52-afd2-c8734b4dca48","ios":"levelo://app?vid=9c5758bf-33b5-4a52-afd2-c8734b4dca48"},"vehicle_type_id":"4","last_reported":1745348900,"current_range_meters":16400,"station_id":"ce4bgv92rcd13ifvqcr0","pricing_plan_id":"cebpf4jnsgd1na2vs0mg"},{"bike_id":"a4b89487-b794-4667-bd52-b0acc2845e42","system_id":"levelo_inurba_marseille","lat":43.29418,"lon":5.38623,"is_reserved":false,"is_disabled":false,"rental_uris":{"android":"levelo://app?vid=a4b89487-b794-4667-bd52-b0acc2845e42","ios":"levelo://app?vid=a4b89487-b794-4667-bd52-b0acc2845e42"},"vehicle_type_id":"4","last_reported":1745348900,"current_range_meters":16400,"station_id":"ce4bh2h2rcd13ifvqdh0","pricing_plan_id":"cebpf4jnsgd1na2vs0mg"},{"bike_id":"8e20898e-f4a5-4e7c-b50a-4ab43a31e9df","system_id":"levelo_inurba_marseille","lat":43.29454,"lon":5.38598,"is_reserved":false,"is_disabled":false,"rental_uris":{"android":"levelo://app?vid=8e20898e-f4a5-4e7c-b50a-4ab43a31e9df","ios":"levelo://app?vid=8e20898e-f4a5-4e7c-b50a-4ab43a31e9df"},"vehicle_type_id":"4","last_reported":1745348900,"current_range_meters":16400,"station_id":"ce4bh2h2rcd13ifvqdh0","pricing_plan_id":"cebpf4jnsgd1na2vs0mg"},{"bike_id":"57c18b31-1a76-47b3-829d-392bb9d9db11","system_id":"levelo_inurba_marseille","lat":43.27827,"lon":5.40725,"is_reserved":false,"is_disabled":false,"rental_uris":{"android":"levelo://app?vid=57c18b31-1a76-47b3-829d-392bb9d9db11","ios":"levelo://app?vid=57c18b31-1a76-47b3-829d-392bb9d9db11"},"vehicle_type_id":"4","last_reported":1745348900,"current_range_meters":16400,"station_id":"ce4bhnh2rcd13ifvqgtg","pricing_plan_id":"cebpf4jnsgd1na2vs0mg"},{"bike_id":"abd226a8-d003-4133-b9d2-b7c952b7ead1","system_id":"levelo_inurba_marseille","lat":43.230659,"lon":5.354864,"is_reserved":false,"is_disabled":false,"rental_uris":{"android":"levelo://app?vid=abd226a8-d003-4133-b9d2-b7c952b7ead1","ios":"levelo://app?vid=abd226a8-d003-4133-b9d2-b7c952b7ead1"},"vehicle_type_id":"4","last_reported":1745348900,"current_range_meters":16400,"station_id":"cpo3342slgdg3j2ifvpg","pricing_plan_id":"cebpf4jnsgd1na2vs0mg"},{"bike_id":"f97f0ed7-0afa-487c-bacf-2d5aae60fa25","system_id":"levelo_inurba_marseille","lat":43.31884,"lon":5.40733,"is_reserved":false,"is_disabled":false,"rental_uris":{"android":"levelo://app?vid=f97f0ed7-0afa-487c-bacf-2d5aae60fa25","ios":"levelo://app?vid=f97f0ed7-0afa-487c-bacf-2d5aae60fa25"},"vehicle_type_id":"4","last_reported":1745348900,"current_range_meters":16400,"station_id":"ce4bhq12rcd13ifvqhig","pricing_plan_id":"cebpf4jnsgd1na2vs0mg"},{"bike_id":"4058f62d-ca8f-492f-8fca-74ec3189f044","system_id":"levelo_inurba_marseille","lat":43.29878,"lon":5.39739,"is_reserved":false,"is_disabled":false,"rental_uris":{"android":"levelo://app?vid=4058f62d-ca8f-492f-8fca-74ec3189f044","ios":"levelo://app?vid=4058f62d-ca8f-492f-8fca-74ec3189f044"},"vehicle_type_id":"4","last_reported":1745348900,"current_range_meters":16800,"station_id":"ce4bh0h2rcd13ifvqd50","pricing_plan_id":"cebpf4jnsgd1na2vs0mg"},{"bike_id":"2b103e93-da3d-4a1c-9285-cbd1b85b954b","system_id":"levelo_inurba_marseille","lat":43.30137,"lon":5.37424,"is_reserved":false,"is_disabled":false,"rental_uris":{"android":"levelo://app?vid=2b103e93-da3d-4a1c-9285-cbd1b85b954b","ios":"levelo://app?vid=2b103e93-da3d-4a1c-9285-cbd1b85b954b"},"vehicle_type_id":"4","last_reported":1745348900,"current_range_meters":16800,"station_id":"ce4bgs92rcd13ifvqcc0","pricing_plan_id":"cebpf4jnsgd1na2vs0mg"},{"bike_id":"b3a8fcab-2cbb-4241-8df1-178d0e212912","system_id":"levelo_inurba_marseille","lat":43.2539,"lon":5.41852,"is_reserved":false,"is_disabled":false,"rental_uris":{"android":"levelo://app?vid=b3a8fcab-2cbb-4241-8df1-178d0e212912","ios":"levelo://app?vid=b3a8fcab-2cbb-4241-8df1-178d0e212912"},"vehicle_type_id":"4","last_reported":1745348900,"current_range_meters":16800,"station_id":"","pricing_plan_id":"cebpf4jnsgd1na2vs0mg"},{"bike_id":"1b903b38-38de-4714-9a2c-59836acfa168","system_id":"levelo_inurba_marseille","lat":43.31723,"lon":5.43686,"is_reserved":false,"is_disabled":true,"rental_uris":{"android":"levelo://app?vid=1b903b38-38de-4714-9a2c-59836acfa168","ios":"levelo://app?vid=1b903b38-38de-4714-9a2c-59836acfa168"},"vehicle_type_id":"4","last_reported":1745348900,"current_range_meters":16800,"station_id":"ce4bhp92rcd13ifvqhcg","pricing_plan_id":"cebpf4jnsgd1na2vs0mg"},{"bike_id":"2b35a811-c93e-44b6-ab30-775a6c8d12f9","system_id":"levelo_inurba_marseille","lat":43.31707,"lon":5.43696,"is_reserved":false,"is_disabled":false,"rental_uris":{"android":"levelo://app?vid=2b35a811-c93e-44b6-ab30-775a6c8d12f9","ios":"levelo://app?vid=2b35a811-c93e-44b6-ab30-775a6c8d12f9"},"vehicle_type_id":"4","last_reported":1745348900,"current_range_meters":16800,"station_id":"ce4bhp92rcd13ifvqhcg","pricing_plan_id":"cebpf4jnsgd1na2vs0mg"},{"bike_id":"4067c386-be2f-47f4-b03c-e532d6330e7b","system_id":"levelo_inurba_marseille","lat":43.28612,"lon":5.35101,"is_reserved":false,"is_disabled":false,"rental_uris":{"android":"levelo://app?vid=4067c386-be2f-47f4-b03c-e532d6330e7b","ios":"levelo://app?vid=4067c386-be2f-47f4-b03c-e532d6330e7b"},"vehicle_type_id":"4","last_reported":1745348900,"current_range_meters":17200,"station_id":"ce4bhch2rcd13ifvqeug","pricing_plan_id":"cebpf4jnsgd1na2vs0mg"},{"bike_id":"a7baac64-36f5-472b-a889-7cf163f7a45a","system_id":"levelo_inurba_marseille","lat":43.27909,"lon":5.38019,"is_reserved":false,"is_disabled":false,"rental_uris":{"android":"levelo://app?vid=a7baac64-36f5-472b-a889-7cf163f7a45a","ios":"levelo://app?vid=a7baac64-36f5-472b-a889-7cf163f7a45a"},"vehicle_type_id":"4","last_reported":1745348900,"current_range_meters":17200,"station_id":"ce4bhf92rcd13ifvqf50","pricing_plan_id":"cebpf4jnsgd1na2vs0mg"},{"bike_id":"9f1e349e-7f44-420f-95ec-c319dae210f6","system_id":"levelo_inurba_marseille","lat":43.292113,"lon":5.383859,"is_reserved":false,"is_disabled":true,"rental_uris":{"android":"levelo://app?vid=9f1e349e-7f44-420f-95ec-c319dae210f6","ios":"levelo://app?vid=9f1e349e-7f44-420f-95ec-c319dae210f6"},"vehicle_type_id":"4","last_reported":1745348900,"current_range_meters":17200,"station_id":"","pricing_plan_id":"cebpf4jnsgd1na2vs0mg"},{"bike_id":"b96d48d5-fc65-423b-9a30-5d2c864e8939","system_id":"levelo_inurba_marseille","lat":43.22499,"lon":5.34778,"is_reserved":false,"is_disabled":false,"rental_uris":{"android":"levelo://app?vid=b96d48d5-fc65-423b-9a30-5d2c864e8939","ios":"levelo://app?vid=b96d48d5-fc65-423b-9a30-5d2c864e8939"},"vehicle_type_id":"4","last_reported":1745348900,"current_range_meters":17200,"station_id":"st_cvj5dfep6f1abm77gieg","pricing_plan_id":"cebpf4jnsgd1na2vs0mg"},{"bike_id":"d962937d-a2c0-4f7f-9d5f-d2025eec3422","system_id":"levelo_inurba_marseille","lat":43.25411,"lon":5.41852,"is_reserved":false,"is_disabled":false,"rental_uris":{"android":"levelo://app?vid=d962937d-a2c0-4f7f-9d5f-d2025eec3422","ios":"levelo://app?vid=d962937d-a2c0-4f7f-9d5f-d2025eec3422"},"vehicle_type_id":"4","last_reported":1745348900,"current_range_meters":17200,"station_id":"","pricing_plan_id":"cebpf4jnsgd1na2vs0mg"},{"bike_id":"78641c2d-1496-4c3c-a447-f10fcfd9eb2f","system_id":"levelo_inurba_marseille","lat":43.23964,"lon":5.36631,"is_reserved":false,"is_disabled":false,"rental_uris":{"android":"levelo://app?vid=78641c2d-1496-4c3c-a447-f10fcfd9eb2f","ios":"levelo://app?vid=78641c2d-1496-4c3c-a447-f10fcfd9eb2f"},"vehicle_type_id":"4","last_reported":1745348900,"current_range_meters":17200,"station_id":"ce4bhi12rcd13ifvqfp0","pricing_plan_id":"cebpf4jnsgd1na2vs0mg"},{"bike_id":"26ed3e3f-af0a-4afb-89f0-d0765ec918bf","system_id":"levelo_inurba_marseille","lat":43.24387,"lon":5.37061,"is_reserved":false,"is_disabled":false,"rental_uris":{"android":"levelo://app?vid=26ed3e3f-af0a-4afb-89f0-d0765ec918bf","ios":"levelo://app?vid=26ed3e3f-af0a-4afb-89f0-d0765ec918bf"},"vehicle_type_id":"4","last_reported":1745348900,"current_range_meters":17200,"station_id":"ce4bhhh2rcd13ifvqfk0","pricing_plan_id":"cebpf4jnsgd1na2vs0mg"},{"bike_id":"5fd9e109-a922-4dc6-8ff5-1de706d9d97b","system_id":"levelo_inurba_marseille","lat":43.29061,"lon":5.35904,"is_reserved":false,"is_disabled":false,"rental_uris":{"android":"levelo://app?vid=5fd9e109-a922-4dc6-8ff5-1de706d9d97b","ios":"levelo://app?vid=5fd9e109-a922-4dc6-8ff5-1de706d9d97b"},"vehicle_type_id":"4","last_reported":1745348900,"current_range_meters":17200,"station_id":"ce4bha92rcd13ifvqeg0","pricing_plan_id":"cebpf4jnsgd1na2vs0mg"},{"bike_id":"34f9db44-45b9-4488-abf2-e54f268186bd","system_id":"levelo_inurba_marseille","lat":43.2317,"lon":5.39989,"is_reserved":false,"is_disabled":false,"rental_uris":{"android":"levelo://app?vid=34f9db44-45b9-4488-abf2-e54f268186bd","ios":"levelo://app?vid=34f9db44-45b9-4488-abf2-e54f268186bd"},"vehicle_type_id":"4","last_reported":1745348900,"current_range_meters":17600,"station_id":"ce4bhn12rcd13ifvqgqg","pricing_plan_id":"cebpf4jnsgd1na2vs0mg"},{"bike_id":"43d92176-6a38-47a9-b1c4-32f2237d301d","system_id":"levelo_inurba_marseille","lat":43.29262,"lon":5.37625,"is_reserved":false,"is_disabled":false,"rental_uris":{"android":"levelo://app?vid=43d92176-6a38-47a9-b1c4-32f2237d301d","ios":"levelo://app?vid=43d92176-6a38-47a9-b1c4-32f2237d301d"},"vehicle_type_id":"4","last_reported":1745348900,"current_range_meters":17600,"station_id":"ce4bgi12rcd13ifvqb80","pricing_plan_id":"cebpf4jnsgd1na2vs0mg"},{"bike_id":"2958702b-6f60-4c23-88d4-37649b2b931b","system_id":"levelo_inurba_marseille","lat":43.29878,"lon":5.39753,"is_reserved":false,"is_disabled":false,"rental_uris":{"android":"levelo://app?vid=2958702b-6f60-4c23-88d4-37649b2b931b","ios":"levelo://app?vid=2958702b-6f60-4c23-88d4-37649b2b931b"},"vehicle_type_id":"4","last_reported":1745348900,"current_range_meters":17600,"station_id":"ce4bh0h2rcd13ifvqd50","pricing_plan_id":"cebpf4jnsgd1na2vs0mg"},{"bike_id":"28f9679b-5446-4e9f-8695-826cc626e04c","system_id":"levelo_inurba_marseille","lat":43.28003,"lon":5.4001,"is_reserved":false,"is_disabled":false,"rental_uris":{"android":"levelo://app?vid=28f9679b-5446-4e9f-8695-826cc626e04c","ios":"levelo://app?vid=28f9679b-5446-4e9f-8695-826cc626e04c"},"vehicle_type_id":"4","last_reported":1745348900,"current_range_meters":17600,"station_id":"ce4bho92rcd13ifvqh4g","pricing_plan_id":"cebpf4jnsgd1na2vs0mg"},{"bike_id":"5a8c9fcf-492d-4b31-82e3-1ecab095ed89","system_id":"levelo_inurba_marseille","lat":43.31177,"lon":5.38717,"is_reserved":false,"is_disabled":false,"rental_uris":{"android":"levelo://app?vid=5a8c9fcf-492d-4b31-82e3-1ecab095ed89","ios":"levelo://app?vid=5a8c9fcf-492d-4b31-82e3-1ecab095ed89"},"vehicle_type_id":"4","last_reported":1745348900,"current_range_meters":17600,"station_id":"ce4bgv12rcd13ifvqcp0","pricing_plan_id":"cebpf4jnsgd1na2vs0mg"},{"bike_id":"e043aa13-534a-4ab9-93d1-260abf824d74","system_id":"levelo_inurba_marseille","lat":43.29419,"lon":5.38633,"is_reserved":false,"is_disabled":false,"rental_uris":{"android":"levelo://app?vid=e043aa13-534a-4ab9-93d1-260abf824d74","ios":"levelo://app?vid=e043aa13-534a-4ab9-93d1-260abf824d74"},"vehicle_type_id":"4","last_reported":1745348900,"current_range_meters":17600,"station_id":"ce4bh2h2rcd13ifvqdh0","pricing_plan_id":"cebpf4jnsgd1na2vs0mg"},{"bike_id":"84cc6382-570a-48e1-95cf-2056bb88a115","system_id":"levelo_inurba_marseille","lat":43.327565,"lon":5.392191,"is_reserved":false,"is_disabled":false,"rental_uris":{"android":"levelo://app?vid=84cc6382-570a-48e1-95cf-2056bb88a115","ios":"levelo://app?vid=84cc6382-570a-48e1-95cf-2056bb88a115"},"vehicle_type_id":"4","last_reported":1745348900,"current_range_meters":17600,"station_id":"","pricing_plan_id":"cebpf4jnsgd1na2vs0mg"},{"bike_id":"d4740572-81fc-4a45-b7ed-160bd1098baa","system_id":"levelo_inurba_marseille","lat":43.29,"lon":5.35604,"is_reserved":false,"is_disabled":false,"rental_uris":{"android":"levelo://app?vid=d4740572-81fc-4a45-b7ed-160bd1098baa","ios":"levelo://app?vid=d4740572-81fc-4a45-b7ed-160bd1098baa"},"vehicle_type_id":"4","last_reported":1745348900,"current_range_meters":17600,"station_id":"ce4bhb92rcd13ifvqen0","pricing_plan_id":"cebpf4jnsgd1na2vs0mg"},{"bike_id":"a1835b16-9e05-4b53-baf5-10eeb04320bb","system_id":"levelo_inurba_marseille","lat":43.28713,"lon":5.37392,"is_reserved":false,"is_disabled":true,"rental_uris":{"android":"levelo://app?vid=a1835b16-9e05-4b53-baf5-10eeb04320bb","ios":"levelo://app?vid=a1835b16-9e05-4b53-baf5-10eeb04320bb"},"vehicle_type_id":"4","last_reported":1745348900,"current_range_meters":18000,"station_id":"ce4bh3p2rcd13ifvqdq0","pricing_plan_id":"cebpf4jnsgd1na2vs0mg"},{"bike_id":"0529d891-2d9b-4d93-af79-27336fdd5c7e","system_id":"levelo_inurba_marseille","lat":43.27995,"lon":5.36904,"is_reserved":false,"is_disabled":false,"rental_uris":{"android":"levelo://app?vid=0529d891-2d9b-4d93-af79-27336fdd5c7e","ios":"levelo://app?vid=0529d891-2d9b-4d93-af79-27336fdd5c7e"},"vehicle_type_id":"4","last_reported":1745348900,"current_range_meters":18000,"station_id":"","pricing_plan_id":"cebpf4jnsgd1na2vs0mg"},{"bike_id":"410cd2ed-cb87-41e3-9b34-edd4d4348483","system_id":"levelo_inurba_marseille","lat":43.27435,"lon":5.39417,"is_reserved":false,"is_disabled":false,"rental_uris":{"android":"levelo://app?vid=410cd2ed-cb87-41e3-9b34-edd4d4348483","ios":"levelo://app?vid=410cd2ed-cb87-41e3-9b34-edd4d4348483"},"vehicle_type_id":"4","last_reported":1745348900,"current_range_meters":18000,"station_id":"ce4bhdp2rcd13ifvqf20","pricing_plan_id":"cebpf4jnsgd1na2vs0mg"},{"bike_id":"e954e2cd-48db-49d5-b8c3-76c1dae8719a","system_id":"levelo_inurba_marseille","lat":43.31318,"lon":5.39712,"is_reserved":false,"is_disabled":false,"rental_uris":{"android":"levelo://app?vid=e954e2cd-48db-49d5-b8c3-76c1dae8719a","ios":"levelo://app?vid=e954e2cd-48db-49d5-b8c3-76c1dae8719a"},"vehicle_type_id":"4","last_reported":1745348900,"current_range_meters":18000,"station_id":"ce4bgvp2rcd13ifvqcu0","pricing_plan_id":"cebpf4jnsgd1na2vs0mg"},{"bike_id":"601f51a2-26f2-4128-9e8e-c630a77d295b","system_id":"levelo_inurba_marseille","lat":43.28455,"lon":5.35889,"is_reserved":false,"is_disabled":false,"rental_uris":{"android":"levelo://app?vid=601f51a2-26f2-4128-9e8e-c630a77d295b","ios":"levelo://app?vid=601f51a2-26f2-4128-9e8e-c630a77d295b"},"vehicle_type_id":"4","last_reported":1745348900,"current_range_meters":18000,"station_id":"ce4bhah2rcd13ifvqei0","pricing_plan_id":"cebpf4jnsgd1na2vs0mg"},{"bike_id":"9f2e2972-dc86-4c24-8a83-22c0ee111c3e","system_id":"levelo_inurba_marseille","lat":43.31214,"lon":5.36893,"is_reserved":false,"is_disabled":true,"rental_uris":{"android":"levelo://app?vid=9f2e2972-dc86-4c24-8a83-22c0ee111c3e","ios":"levelo://app?vid=9f2e2972-dc86-4c24-8a83-22c0ee111c3e"},"vehicle_type_id":"4","last_reported":1745348900,"current_range_meters":18800,"station_id":"ce4bgl92rcd13ifvqbq0","pricing_plan_id":"cebpf4jnsgd1na2vs0mg"},{"bike_id":"52bf6fcb-f2fd-4886-896a-eef5683d542f","system_id":"levelo_inurba_marseille","lat":43.28614,"lon":5.35097,"is_reserved":false,"is_disabled":false,"rental_uris":{"android":"levelo://app?vid=52bf6fcb-f2fd-4886-896a-eef5683d542f","ios":"levelo://app?vid=52bf6fcb-f2fd-4886-896a-eef5683d542f"},"vehicle_type_id":"4","last_reported":1745348900,"current_range_meters":18800,"station_id":"ce4bhch2rcd13ifvqeug","pricing_plan_id":"cebpf4jnsgd1na2vs0mg"},{"bike_id":"6dc2900b-a56b-45d4-9a3b-23f89e1e89b6","system_id":"levelo_inurba_marseille","lat":43.29197,"lon":5.35794,"is_reserved":false,"is_disabled":false,"rental_uris":{"android":"levelo://app?vid=6dc2900b-a56b-45d4-9a3b-23f89e1e89b6","ios":"levelo://app?vid=6dc2900b-a56b-45d4-9a3b-23f89e1e89b6"},"vehicle_type_id":"4","last_reported":1745348900,"current_range_meters":18800,"station_id":"ce4bhb12rcd13ifvqel0","pricing_plan_id":"cebpf4jnsgd1na2vs0mg"},{"bike_id":"bcf1f20e-a59a-4840-a4cc-df5d8f81f41c","system_id":"levelo_inurba_marseille","lat":43.284138,"lon":5.349898,"is_reserved":false,"is_disabled":false,"rental_uris":{"android":"levelo://app?vid=bcf1f20e-a59a-4840-a4cc-df5d8f81f41c","ios":"levelo://app?vid=bcf1f20e-a59a-4840-a4cc-df5d8f81f41c"},"vehicle_type_id":"4","last_reported":1745348900,"current_range_meters":16800,"station_id":"ce4bh312rcd13ifvqdj0","pricing_plan_id":"cebpf4jnsgd1na2vs0mg"},{"bike_id":"7b2dc864-a4e9-468c-9cee-f3075a20977d","system_id":"levelo_inurba_marseille","lat":43.31435,"lon":5.37377,"is_reserved":false,"is_disabled":false,"rental_uris":{"android":"levelo://app?vid=7b2dc864-a4e9-468c-9cee-f3075a20977d","ios":"levelo://app?vid=7b2dc864-a4e9-468c-9cee-f3075a20977d"},"vehicle_type_id":"4","last_reported":1745348900,"current_range_meters":18800,"station_id":"","pricing_plan_id":"cebpf4jnsgd1na2vs0mg"},{"bike_id":"fa5c1889-173e-4666-aa4b-8eb1847250ee","system_id":"levelo_inurba_marseille","lat":43.29537,"lon":5.38528,"is_reserved":false,"is_disabled":false,"rental_uris":{"android":"levelo://app?vid=fa5c1889-173e-4666-aa4b-8eb1847250ee","ios":"levelo://app?vid=fa5c1889-173e-4666-aa4b-8eb1847250ee"},"vehicle_type_id":"4","last_reported":1745348900,"current_range_meters":18800,"station_id":"ce4bgih2rcd13ifvqba0","pricing_plan_id":"cebpf4jnsgd1na2vs0mg"},{"bike_id":"31f5a335-2884-4f35-9868-5afd0ef13454","system_id":"levelo_inurba_marseille","lat":43.29052,"lon":5.37573,"is_reserved":false,"is_disabled":false,"rental_uris":{"android":"levelo://app?vid=31f5a335-2884-4f35-9868-5afd0ef13454","ios":"levelo://app?vid=31f5a335-2884-4f35-9868-5afd0ef13454"},"vehicle_type_id":"4","last_reported":1745348900,"current_range_meters":18000,"station_id":"ce4bh692rcd13ifvqe90","pricing_plan_id":"cebpf4jnsgd1na2vs0mg"},{"bike_id":"2f20e822-0a70-4928-9aa6-4b3727afe02f","system_id":"levelo_inurba_marseille","lat":43.29713,"lon":5.36626,"is_reserved":false,"is_disabled":true,"rental_uris":{"android":"levelo://app?vid=2f20e822-0a70-4928-9aa6-4b3727afe02f","ios":"levelo://app?vid=2f20e822-0a70-4928-9aa6-4b3727afe02f"},"vehicle_type_id":"4","last_reported":1745348900,"current_range_meters":18800,"station_id":"ce4bgn12rcd13ifvqbt0","pricing_plan_id":"cebpf4jnsgd1na2vs0mg"},{"bike_id":"9c5c5425-75e9-4e29-91bb-75079da60ab4","system_id":"levelo_inurba_marseille","lat":43.30326,"lon":5.40435,"is_reserved":false,"is_disabled":false,"rental_uris":{"android":"levelo://app?vid=9c5c5425-75e9-4e29-91bb-75079da60ab4","ios":"levelo://app?vid=9c5c5425-75e9-4e29-91bb-75079da60ab4"},"vehicle_type_id":"4","last_reported":1745348900,"current_range_meters":18800,"station_id":"ce4bh012rcd13ifvqd10","pricing_plan_id":"cebpf4jnsgd1na2vs0mg"},{"bike_id":"1d590b49-7e7e-4e41-bd7b-0544ecef71b4","system_id":"levelo_inurba_marseille","lat":43.27923,"lon":5.39573,"is_reserved":false,"is_disabled":false,"rental_uris":{"android":"levelo://app?vid=1d590b49-7e7e-4e41-bd7b-0544ecef71b4","ios":"levelo://app?vid=1d590b49-7e7e-4e41-bd7b-0544ecef71b4"},"vehicle_type_id":"4","last_reported":1745348900,"current_range_meters":18800,"station_id":"ce4bhf92rcd13ifvqf40","pricing_plan_id":"cebpf4jnsgd1na2vs0mg"},{"bike_id":"d20e929c-75aa-460a-a593-efd1da3a752a","system_id":"levelo_inurba_marseille","lat":43.28057,"lon":5.39631,"is_reserved":false,"is_disabled":false,"rental_uris":{"android":"levelo://app?vid=d20e929c-75aa-460a-a593-efd1da3a752a","ios":"levelo://app?vid=d20e929c-75aa-460a-a593-efd1da3a752a"},"vehicle_type_id":"4","last_reported":1745348900,"current_range_meters":18800,"station_id":"ce4bho12rcd13ifvqh2g","pricing_plan_id":"cebpf4jnsgd1na2vs0mg"},{"bike_id":"28c2fdef-2396-4838-b09c-7335f1ddbcbe","system_id":"levelo_inurba_marseille","lat":43.25823,"lon":5.3944,"is_reserved":false,"is_disabled":false,"rental_uris":{"android":"levelo://app?vid=28c2fdef-2396-4838-b09c-7335f1ddbcbe","ios":"levelo://app?vid=28c2fdef-2396-4838-b09c-7335f1ddbcbe"},"vehicle_type_id":"4","last_reported":1745348900,"current_range_meters":18000,"station_id":"ce4bhip2rcd13ifvqft0","pricing_plan_id":"cebpf4jnsgd1na2vs0mg"},{"bike_id":"a24962a5-f455-4c13-91da-db4f79c4f155","system_id":"levelo_inurba_marseille","lat":43.29501,"lon":5.39031,"is_reserved":false,"is_disabled":false,"rental_uris":{"android":"levelo://app?vid=a24962a5-f455-4c13-91da-db4f79c4f155","ios":"levelo://app?vid=a24962a5-f455-4c13-91da-db4f79c4f155"},"vehicle_type_id":"4","last_reported":1745348900,"current_range_meters":18800,"station_id":"ce4bh3p2rcd13ifvqdp0","pricing_plan_id":"cebpf4jnsgd1na2vs0mg"},{"bike_id":"d3cb31b6-3dd7-42b5-85f6-426fd02f883c","system_id":"levelo_inurba_marseille","lat":43.311719,"lon":5.387199,"is_reserved":false,"is_disabled":false,"rental_uris":{"android":"levelo://app?vid=d3cb31b6-3dd7-42b5-85f6-426fd02f883c","ios":"levelo://app?vid=d3cb31b6-3dd7-42b5-85f6-426fd02f883c"},"vehicle_type_id":"4","last_reported":1745348900,"current_range_meters":19200,"station_id":"ce4bgv12rcd13ifvqcp0","pricing_plan_id":"cebpf4jnsgd1na2vs0mg"},{"bike_id":"b5d609bf-0c9b-49e3-9426-ce02cb8383b8","system_id":"levelo_inurba_marseille","lat":43.34142,"lon":5.40911,"is_reserved":false,"is_disabled":true,"rental_uris":{"android":"levelo://app?vid=b5d609bf-0c9b-49e3-9426-ce02cb8383b8","ios":"levelo://app?vid=b5d609bf-0c9b-49e3-9426-ce02cb8383b8"},"vehicle_type_id":"4","last_reported":1745348900,"current_range_meters":19200,"station_id":"ce4bhqh2rcd13ifvqhlg","pricing_plan_id":"cebpf4jnsgd1na2vs0mg"},