{"last_updated":1718381361,"ttl":30,"version":"2.2","data":{"bikes":[{"bike_id":"4b5dc18b-8a97-44b9-b00f-d25aa5a383c6","system_id":"levelo_inurba_marseille","lat":43.31341,"lon":5.367098,"is_reserved":false,"is_disabled":false,"rental_uris":{"android":"levelo://app?vid=4b5dc18b-8a97-44b9-b00f-d25aa5a383c6","ios":"levelo://app?vid=4b5dc18b-8a97-44b9-b00f-d25aa5a383c6"},"vehicle_type_id":"4","last_reported":1718381361,"current_range_meters":29600,"station_id":"ce4bgr92rcd13ifvqc6g","pricing_plan_id":"cebpf4jnsgd1na2vs0mg"},{"bike_id":"d513b8d7-e13c-491f-a4e6-f8b24f1bb7cb","system_id":"levelo_inurba_marseille","lat":43.312239,"lon":5.368562,"is_reserved":false,"is_disabled":false,"rental_uris":{"android":"levelo://app?vid=d513b8d7-e13c-491f-a4e6-f8b24f1bb7cb","ios":"levelo://app?vid=d513b8d7-e13c-491f-a4e6-f8b24f1bb7cb"},"vehicle_type_id":"4","last_reported":1718381361,"current_range_meters":1200,"station_id":"ce4bgl92rcd13ifvqbq0","pricing_plan_id":"cebpf4jnsgd1na2vs0mg"},{"bike_id":"fdc0232f-9930-4700-b577-cad4c20d7a98","system_id":"levelo_inurba_marseille","lat":43.31151,"lon":5.37089,"is_reserved":false,"is_disabled":false,"rental_uris":{"android":"levelo://app?vid=fdc0232f-9930-4700-b577-cad4c20d7a98","ios":"levelo://app?vid=fdc0232f-9930-4700-b577-cad4c20d7a98"},"vehicle_type_id":"4","last_reported":1718381361,"current_range_meters":800,"station_id":"","pricing_plan_id":"cebpf4jnsgd1na2vs0mg"},{"bike_id":"a129f6d1-88ae-4369-9496-ae7e40238fc8","system_id":"levelo_inurba_marseille","lat":43.30907,"lon":5.36852,"is_reserved":false,"is_disabled":false,"rental_uris":{"android":"levelo://app?vid=a129f6d1-88ae-4369-9496-ae7e40238fc8","ios":"levelo://app?vid=a129f6d1-88ae-4369-9496-ae7e40238fc8"},"vehicle_type_id":"4","last_reported":1718381361,"current_range_meters":0,"station_id":"ce4bgn92rcd13ifvqbvg","pricing_plan_id":"cebpf4jnsgd1na2vs0mg"},{"bike_id":"2d35d2b5-01d9-4d9b-9061-96b8ae6b1124","system_id":"levelo_inurba_marseille","lat":43.31568,"lon":5.37197,"is_reserved":false,"is_disabled":false,"rental_uris":{"android":"levelo://app?vid=2d35d2b5-01d9-4d9b-9061-96b8ae6b1124","ios":"levelo://app?vid=2d35d2b5-01d9-4d9b-9061-96b8ae6b1124"},"vehicle_type_id":"4","last_reported":1718381361,"current_range_meters":0,"station_id":"","pricing_plan_id":"cebpf4jnsgd1na2vs0mg"},{"bike_id":"3920e52b-87b5-4639-a577-ffb847e18c4f","system_id":"levelo_inurba_marseille","lat":43.31486,"lon":5.37306,"is_reserved":false,"is_disabled":false,"rental_uris":{"android":"levelo://app?vid=3920e52b-87b5-4639-a577-ffb847e18c4f","ios":"levelo://app?vid=3920e52b-87b5-4639-a577-ffb847e18c4f"},"vehicle_type_id":"4","last_reported":1718381361,"current_range_meters":28400,"station_id":"ce4bgt12rcd13ifvqcd0","pricing_plan_id":"cebpf4jnsgd1na2vs0mg"},{"bike_id":"cc0c4671-c760-4f53-87e3-83ff87c40781","system_id":"levelo_inurba_marseille","lat":43.314811,"lon":5.373104,"is_reserved":false,"is_disabled":false,"rental_uris":{"android":"levelo://app?vid=cc0c4671-c760-4f53-87e3-83ff87c40781","ios":"levelo://app?vid=cc0c4671-c760-4f53-87e3-83ff87c40781"},"vehicle_type_id":"4","last_reported":1718381361,"current_range_meters":5600,"station_id":"ce4bgt12rcd13ifvqcd0","pricing_plan_id":"cebpf4jnsgd1na2vs0mg"},{"bike_id":"2c07e4cc-035d-4c4b-b240-57c6a7b261d4","system_id":"levelo_inurba_marseille","lat":43.314811,"lon":5.373104,"is_reserved":false,"is_disabled":false,"rental_uris":{"android":"levelo://app?vid=2c07e4cc-035d-4c4b-b240-57c6a7b261d4","ios":"levelo://app?vid=2c07e4cc-035d-4c4b-b240-57c6a7b261d4"},"vehicle_type_id":"4","last_reported":1718381361,"current_range_meters":14000,"station_id":"ce4bgt12rcd13ifvqcd0","pricing_plan_id":"cebpf4jnsgd1na2vs0mg"},{"bike_id":"b54cbf55-1902-4a8e-a89c-9101421251c1","system_id":"levelo_inurba_marseille","lat":43.30537,"lon":5.367345,"is_reserved":false,"is_disabled":false,"rental_uris":{"android":"levelo://app?vid=b54cbf55-1902-4a8e-a89c-9101421251c1","ios":"levelo://app?vid=b54cbf55-1902-4a8e-a89c-9101421251c1"},"vehicle_type_id":"4","last_reported":1718381361,"current_range_meters":12400,"station_id":"ce4bgrp2rcd13ifvqc9g","pricing_plan_id":"cebpf4jnsgd1na2vs0mg"},{"bike_id":"6b653378-871a-41a5-b125-f09bc072728a","system_id":"levelo_inurba_marseille","lat":43.305989,"lon":5.37225,"is_reserved":false,"is_disabled":false,"rental_uris":{"android":"levelo://app?vid=6b653378-871a-41a5-b125-f09bc072728a","ios":"levelo://app?vid=6b653378-871a-41a5-b125-f09bc072728a"},"vehicle_type_id":"4","last_reported":1718381361,"current_range_meters":1600,"station_id":"ce4bgqh2rcd13ifvqc4g","pricing_plan_id":"cebpf4jnsgd1na2vs0mg"},{"bike_id":"67303963-f547-476a-84a4-245824662653","system_id":"levelo_inurba_marseille","lat":43.30602,"lon":5.37232,"is_reserved":false,"is_disabled":false,"rental_uris":{"android":"levelo://app?vid=67303963-f547-476a-84a4-245824662653","ios":"levelo://app?vid=67303963-f547-476a-84a4-245824662653"},"vehicle_type_id":"4","last_reported":1718381361,"current_range_meters":15200,"station_id":"ce4bgqh2rcd13ifvqc4g","pricing_plan_id":"cebpf4jnsgd1na2vs0mg"},{"bike_id":"60585ad4-e0d8-4214-a63c-2fb51b79f22c","system_id":"levelo_inurba_marseille","lat":43.305989,"lon":5.37225,"is_reserved":false,"is_disabled":false,"rental_uris":{"android":"levelo://app?vid=60585ad4-e0d8-4214-a63c-2fb51b79f22c","ios":"levelo://app?vid=60585ad4-e0d8-4214-a63c-2fb51b79f22c"},"vehicle_type_id":"4","last_reported":1718381361,"current_range_meters":12000,"station_id":"ce4bgqh2rcd13ifvqc4g","pricing_plan_id":"cebpf4jnsgd1na2vs0mg"},{"bike_id":"edc61285-0b94-45fe-850a-480948701081","system_id":"levelo_inurba_marseille","lat":43.311125,"lon":5.377624,"is_reserved":false,"is_disabled":false,"rental_uris":{"android":"levelo://app?vid=edc61285-0b94-45fe-850a-480948701081","ios":"levelo://app?vid=edc61285-0b94-45fe-850a-480948701081"},"vehicle_type_id":"4","last_reported":1718381361,"current_range_meters":14400,"station_id":"ce4bgt92rcd13ifvqcg0","pricing_plan_id":"cebpf4jnsgd1na2vs0mg"},{"bike_id":"7cc8c654-8262-48ed-b9d9-4963bf85becf","system_id":"levelo_inurba_marseille","lat":43.311131,"lon":5.377651,"is_reserved":false,"is_disabled":false,"rental_uris":{"android":"levelo://app?vid=7cc8c654-8262-48ed-b9d9-4963bf85becf","ios":"levelo://app?vid=7cc8c654-8262-48ed-b9d9-4963bf85becf"},"vehicle_type_id":"4","last_reported":1718381361,"current_range_meters":0,"station_id":"ce4bgt92rcd13ifvqcg0","pricing_plan_id":"cebpf4jnsgd1na2vs0mg"},{"bike_id":"a3c2342b-ed24-45fb-a6d9-f5503a6fa839","system_id":"levelo_inurba_marseille","lat":43.311131,"lon":5.377651,"is_reserved":false,"is_disabled":false,"rental_uris":{"android":"levelo://app?vid=a3c2342b-ed24-45fb-a6d9-f5503a6fa839","ios":"levelo://app?vid=a3c2342b-ed24-45fb-a6d9-f5503a6fa839"},"vehicle_type_id":"4","last_reported":1718381361,"current_range_meters":8800,"station_id":"ce4bgt92rcd13ifvqcg0","pricing_plan_id":"cebpf4jnsgd1na2vs0mg"},{"bike_id":"7093b036-8223-4576-8cad-1cea0ff2d104","system_id":"levelo_inurba_marseille","lat":43.30983,"lon":5.37746,"is_reserved":false,"is_disabled":false,"rental_uris":{"android":"levelo://app?vid=7093b036-8223-4576-8cad-1cea0ff2d104","ios":"levelo://app?vid=7093b036-8223-4576-8cad-1cea0ff2d104"},"vehicle_type_id":"4","last_reported":1718381361,"current_range_meters":14000,"station_id":"","pricing_plan_id":"cebpf4jnsgd1na2vs0mg"},{"bike_id":"1da25c4c-49ea-4a28-b8db-b1ee41964050","system_id":"levelo_inurba_marseille","lat":43.307945,"lon":5.376487,"is_reserved":false,"is_disabled":false,"rental_uris":{"android":"levelo://app?vid=1da25c4c-49ea-4a28-b8db-b1ee41964050","ios":"levelo://app?vid=1da25c4c-49ea-4a28-b8db-b1ee41964050"},"vehicle_type_id":"4","last_reported":1718381361,"current_range_meters":17600,"station_id":"ce4bgv92rcd13ifvqcq0","pricing_plan_id":"cebpf4jnsgd1na2vs0mg"},{"bike_id":"6651c019-140b-4618-b1cc-f12798b6f52a","system_id":"levelo_inurba_marseille","lat":43.31707,"lon":5.3776,"is_reserved":false,"is_disabled":false,"rental_uris":{"android":"levelo://app?vid=6651c019-140b-4618-b1cc-f12798b6f52a","ios":"levelo://app?vid=6651c019-140b-4618-b1cc-f12798b6f52a"},"vehicle_type_id":"4","last_reported":1718381361,"current_range_meters":19200,"station_id":"ce4bgth2rcd13ifvqch0","pricing_plan_id":"cebpf4jnsgd1na2vs0mg"},{"bike_id":"25f0778b-9fb8-4cca-9678-03bc41dd9f35","system_id":"levelo_inurba_marseille","lat":43.3171,"lon":5.37759,"is_reserved":false,"is_disabled":false,"rental_uris":{"android":"levelo://app?vid=25f0778b-9fb8-4cca-9678-03bc41dd9f35","ios":"levelo://app?vid=25f0778b-9fb8-4cca-9678-03bc41dd9f35"},"vehicle_type_id":"4","last_reported":1718381361,"current_range_meters":31200,"station_id":"ce4bgth2rcd13ifvqch0","pricing_plan_id":"cebpf4jnsgd1na2vs0mg"},{"bike_id":"529c2c8c-7324-4394-8566-6da2ce4f54d0","system_id":"levelo_inurba_marseille","lat":43.317075,"lon":5.377367,"is_reserved":false,"is_disabled":false,"rental_uris":{"android":"levelo://app?vid=529c2c8c-7324-4394-8566-6da2ce4f54d0","ios":"levelo://app?vid=529c2c8c-7324-4394-8566-6da2ce4f54d0"},"vehicle_type_id":"4","last_reported":1718381361,"current_range_meters":2000,"station_id":"ce4bgth2rcd13ifvqch0","pricing_plan_id":"cebpf4jnsgd1na2vs0mg"},{"bike_id":"a59019b9-7b27-4cf9-95d2-0d70177b6a16","system_id":"levelo_inurba_marseille","lat":43.31712,"lon":5.37763,"is_reserved":false,"is_disabled":false,"rental_uris":{"android":"levelo://app?vid=a59019b9-7b27-4cf9-95d2-0d70177b6a16","ios":"levelo://app?vid=a59019b9-7b27-4cf9-95d2-0d70177b6a16"},"vehicle_type_id":"4","last_reported":1718381361,"current_range_meters":0,"station_id":"ce4bgth2rcd13ifvqch0","pricing_plan_id":"cebpf4jnsgd1na2vs0mg"},{"bike_id":"91a05153-20d7-44de-87a4-95918bfbdf49","system_id":"levelo_inurba_marseille","lat":43.30304,"lon":5.368987,"is_reserved":false,"is_disabled":false,"rental_uris":{"android":"levelo://app?vid=91a05153-20d7-44de-87a4-95918bfbdf49","ios":"levelo://app?vid=91a05153-20d7-44de-87a4-95918bfbdf49"},"vehicle_type_id":"4","last_reported":1718381361,"current_range_meters":12000,"station_id":"ce4bgqh2rcd13ifvqc5g","pricing_plan_id":"cebpf4jnsgd1na2vs0mg"},{"bike_id":"2cb7c48e-c139-4f16-b174-0722cefbfa42","system_id":"levelo_inurba_marseille","lat":43.315289,"lon":5.380349,"is_reserved":false,"is_disabled":false,"rental_uris":{"android":"levelo://app?vid=2cb7c48e-c139-4f16-b174-0722cefbfa42","ios":"levelo://app?vid=2cb7c48e-c139-4f16-b174-0722cefbfa42"},"vehicle_type_id":"4","last_reported":1718381361,"current_range_meters":11200,"station_id":"ce4bhsp2rcd13ifvqi50","pricing_plan_id":"cebpf4jnsgd1na2vs0mg"},{"bike_id":"5a32ed30-1bf0-4fcf-ad3f-3b2c685e149a","system_id":"levelo_inurba_marseille","lat":43.301939,"lon":5.366286,"is_reserved":false,"is_disabled":false,"rental_uris":{"android":"levelo://app?vid=5a32ed30-1bf0-4fcf-ad3f-3b2c685e149a","ios":"levelo://app?vid=5a32ed30-1bf0-4fcf-ad3f-3b2c685e149a"},"vehicle_type_id":"4","last_reported":1718381361,"current_range_meters":10400,"station_id":"ce4bgrh2rcd13ifvqc8g","pricing_plan_id":"cebpf4jnsgd1na2vs0mg"},{"bike_id":"304c94de-43b9-422d-933b-2b7b4add58ee","system_id":"levelo_inurba_marseille","lat":43.301939,"lon":5.366286,"is_reserved":false,"is_disabled":false,"rental_uris":{"android":"levelo://app?vid=304c94de-43b9-422d-933b-2b7b4add58ee","ios":"levelo://app?vid=304c94de-43b9-422d-933b-2b7b4add58ee"},"vehicle_type_id":"4","last_reported":1718381361,"current_range_meters":24400,"station_id":"ce4bgrh2rcd13ifvqc8g","pricing_plan_id":"cebpf4jnsgd1na2vs0mg"},{"bike_id":"e5ba88ba-2473-4cd8-9598-1aa128377384","system_id":"levelo_inurba_marseille","lat":43.30802,"lon":5.38157,"is_reserved":false,"is_disabled":false,"rental_uris":{"android":"levelo://app?vid=e5ba88ba-2473-4cd8-9598-1aa128377384","ios":"levelo://app?vid=e5ba88ba-2473-4cd8-9598-1aa128377384"},"vehicle_type_id":"4","last_reported":1718381361,"current_range_meters":0,"station_id":"ce4bgt12rcd13ifvqce0","pricing_plan_id":"cebpf4jnsgd1na2vs0mg"},{"bike_id":"a79912b5-dbcf-4a68-93ef-536599fcf83f","system_id":"levelo_inurba_marseille","lat":43.30797,"lon":5.38156,"is_reserved":false,"is_disabled":false,"rental_uris":{"android":"levelo://app?vid=a79912b5-dbcf-4a68-93ef-536599fcf83f","ios":"levelo://app?vid=a79912b5-dbcf-4a68-93ef-536599fcf83f"},"vehicle_type_id":"4","last_reported":1718381361,"current_range_meters":0,"station_id":"ce4bgt12rcd13ifvqce0","pricing_plan_id":"cebpf4jnsgd1na2vs0mg"},{"bike_id":"373d7e45-eecc-4d3d-a13d-e4e13f068dfb","system_id":"levelo_inurba_marseille","lat":43.304606,"lon":5.379026,"is_reserved":false,"is_disabled":false,"rental_uris":{"android":"levelo://app?vid=373d7e45-eecc-4d3d-a13d-e4e13f068dfb","ios":"levelo://app?vid=373d7e45-eecc-4d3d-a13d-e4e13f068dfb"},"vehicle_type_id":"4","last_reported":1718381361,"current_range_meters":6000,"station_id":"ce4bgup2rcd13ifvqcn0","pricing_plan_id":"cebpf4jnsgd1na2vs0mg"},{"bike_id":"db8ea8f2-a5de-463c-8553-95ad6842dab3","system_id":"levelo_inurba_marseille","lat":43.304606,"lon":5.379026,"is_reserved":false,"is_disabled":false,"rental_uris":{"android":"levelo://app?vid=db8ea8f2-a5de-463c-8553-95ad6842dab3","ios":"levelo://app?vid=db8ea8f2-a5de-463c-8553-95ad6842dab3"},"vehicle_type_id":"4","last_reported":1718381361,"current_range_meters":11600,"station_id":"ce4bgup2rcd13ifvqcn0","pricing_plan_id":"cebpf4jnsgd1na2vs0mg"},{"bike_id":"50248a65-9eb9-48e0-b19f-73419bb0707b","system_id":"levelo_inurba_marseille","lat":43.304606,"lon":5.379026,"is_reserved":false,"is_disabled":false,"rental_uris":{"android":"levelo://app?vid=50248a65-9eb9-48e0-b19f-73419bb0707b","ios":"levelo://app?vid=50248a65-9eb9-48e0-b19f-73419bb0707b"},"vehicle_type_id":"4","last_reported":1718381361,"current_range_meters":0,"station_id":"ce4bgup2rcd13ifvqcn0","pricing_plan_id":"cebpf4jnsgd1na2vs0mg"},{"bike_id":"e880637d-9598-4c9d-9ac3-1dbc400fee53","system_id":"levelo_inurba_marseille","lat":43.324771,"lon":5.36557,"is_reserved":false,"is_disabled":false,"rental_uris":{"android":"levelo://app?vid=e880637d-9598-4c9d-9ac3-1dbc400fee53","ios":"levelo://app?vid=e880637d-9598-4c9d-9ac3-1dbc400fee53"},"vehicle_type_id":"4","last_reported":1718381361,"current_range_meters":12000,"station_id":"ce4bhs12rcd13ifvqhvg","pricing_plan_id":"cebpf4jnsgd1na2vs0mg"},{"bike_id":"e716aefd-c62b-4c19-ab42-7adb803b7b11","system_id":"levelo_inurba_marseille","lat":43.31994,"lon":5.38044,"is_reserved":false,"is_disabled":false,"rental_uris":{"android":"levelo://app?vid=e716aefd-c62b-4c19-ab42-7adb803b7b11","ios":"levelo://app?vid=e716aefd-c62b-4c19-ab42-7adb803b7b11"},"vehicle_type_id":"4","last_reported":1718381361,"current_range_meters":20400,"station_id":"","pricing_plan_id":"cebpf4jnsgd1na2vs0mg"},{"bike_id":"407aaaca-616f-44f2-8be9-87c680f6df6d","system_id":"levelo_inurba_marseille","lat":43.30143,"lon":5.37413,"is_reserved":false,"is_disabled":false,"rental_uris":{"android":"levelo://app?vid=407aaaca-616f-44f2-8be9-87c680f6df6d","ios":"levelo://app?vid=407aaaca-616f-44f2-8be9-87c680f6df6d"},"vehicle_type_id":"4","last_reported":1718381361,"current_range_meters":3200,"station_id":"ce4bgs92rcd13ifvqcc0","pricing_plan_id":"cebpf4jnsgd1na2vs0mg"},{"bike_id":"15145046-38bb-4f4e-896f-a25d2b1948c8","system_id":"levelo_inurba_marseille","lat":43.30143,"lon":5.37413,"is_reserved":false,"is_disabled":false,"rental_uris":{"android":"levelo://app?vid=15145046-38bb-4f4e-896f-a25d2b1948c8","ios":"levelo://app?vid=15145046-38bb-4f4e-896f-a25d2b1948c8"},"vehicle_type_id":"4","last_reported":1718381361,"current_range_meters":25600,"station_id":"ce4bgs92rcd13ifvqcc0","pricing_plan_id":"cebpf4jnsgd1na2vs0mg"},{"bike_id":"e33aef5d-9c70-446c-9343-8207acc27ee7","system_id":"levelo_inurba_marseille","lat":43.313571,"lon":5.384829,"is_reserved":false,"is_disabled":false,"rental_uris":{"android":"levelo://app?vid=e33aef5d-9c70-446c-9343-8207acc27ee7","ios":"levelo://app?vid=e33aef5d-9c70-446c-9343-8207acc27ee7"},"vehicle_type_id":"4","last_reported":1718381361,"current_range_meters":6800,"station_id":"ce4bgt92rcd13ifvqcf0","pricing_plan_id":"cebpf4jnsgd1na2vs0mg"},{"bike_id":"09a7850d-dd87-4520-8d95-b67d041f6c67","system_id":"levelo_inurba_marseille","lat":43.313571,"lon":5.384829,"is_reserved":false,"is_disabled":false,"rental_uris":{"android":"levelo://app?vid=09a7850d-dd87-4520-8d95-b67d041f6c67","ios":"levelo://app?vid=09a7850d-dd87-4520-8d95-b67d041f6c67"},"vehicle_type_id":"4","last_reported":1718381361,"current_range_meters":5600,"station_id":"ce4bgt92rcd13ifvqcf0","pricing_plan_id":"cebpf4jnsgd1na2vs0mg"},{"bike_id":"0916234b-e219-4097-8073-a779f0ace0da","system_id":"levelo_inurba_marseille","lat":43.313571,"lon":5.384829,"is_reserved":false,"is_disabled":false,"rental_uris":{"android":"levelo://app?vid=0916234b-e219-4097-8073-a779f0ace0da","ios":"levelo://app?vid=0916234b-e219-4097-8073-a779f0ace0da"},"vehicle_type_id":"4","last_reported":1718381361,"current_range_meters":9200,"station_id":"ce4bgt92rcd13ifvqcf0","pricing_plan_id":"cebpf4jnsgd1na2vs0mg"},{"bike_id":"9c807eee-ee04-405e-a038-1a6654a9114b","system_id":"levelo_inurba_marseille","lat":43.299724,"lon":5.371829,"is_reserved":false,"is_disabled":false,"rental_uris":{"android":"levelo://app?vid=9c807eee-ee04-405e-a038-1a6654a9114b","ios":"levelo://app?vid=9c807eee-ee04-405e-a038-1a6654a9114b"},"vehicle_type_id":"4","last_reported":1718381361,"current_range_meters":8800,"station_id":"ce4bgr92rcd13ifvqc7g","pricing_plan_id":"cebpf4jnsgd1na2vs0mg"},{"bike_id":"f7df11dd-30bb-43c7-850b-ce89f1e78f1d","system_id":"levelo_inurba_marseille","lat":43.299222,"lon":5.365554,"is_reserved":false,"is_disabled":false,"rental_uris":{"android":"levelo://app?vid=f7df11dd-30bb-43c7-850b-ce89f1e78f1d","ios":"levelo://app?vid=f7df11dd-30bb-43c7-850b-ce89f1e78f1d"},"vehicle_type_id":"4","last_reported":1718381361,"current_range_meters":25200,"station_id":"ce4bgm92rcd13ifvqbr0","pricing_plan_id":"cebpf4jnsgd1na2vs0mg"},{"bike_id":"8cffe6f0-9287-43c8-bbf8-696f68e32225","system_id":"levelo_inurba_marseille","lat":43.299724,"lon":5.371829,"is_reserved":false,"is_disabled":false,"rental_uris":{"android":"levelo://app?vid=8cffe6f0-9287-43c8-bbf8-696f68e32225","ios":"levelo://app?vid=8cffe6f0-9287-43c8-bbf8-696f68e32225"},"vehicle_type_id":"4","last_reported":1718381361,"current_range_meters":2000,"station_id":"ce4bgr92rcd13ifvqc7g","pricing_plan_id":"cebpf4jnsgd1na2vs0mg"},{"bike_id":"e253c1ad-bd3f-4bf9-beba-68f795678040","system_id":"levelo_inurba_marseille","lat":43.29975,"lon":5.37177,"is_reserved":false,"is_disabled":false,"rental_uris":{"android":"levelo://app?vid=e253c1ad-bd3f-4bf9-beba-68f795678040","ios":"levelo://app?vid=e253c1ad-bd3f-4bf9-beba-68f795678040"},"vehicle_type_id":"4","last_reported":1718381361,"current_range_meters":29600,"station_id":"ce4bgr92rcd13ifvqc7g","pricing_plan_id":"cebpf4jnsgd1na2vs0mg"},{"bike_id":"bfd9fd3f-b970-4756-a67d-269f2c7239c4","system_id":"levelo_inurba_marseille","lat":43.299724,"lon":5.371829,"is_reserved":false,"is_disabled":false,"rental_uris":{"android":"levelo://app?vid=bfd9fd3f-b970-4756-a67d-269f2c7239c4","ios":"levelo://app?vid=bfd9fd3f-b970-4756-a67d-269f2c7239c4"},"vehicle_type_id":"4","last_reported":1718381361,"current_range_meters":10800,"station_id":"ce4bgr92rcd13ifvqc7g","pricing_plan_id":"cebpf4jnsgd1na2vs0mg"},{"bike_id":"848fdc53-d61b-48a9-8878-a1f84ddaf4dc","system_id":"levelo_inurba_marseille","lat":43.299222,"lon":5.365554,"is_reserved":false,"is_disabled":false,"rental_uris":{"android":"levelo://app?vid=848fdc53-d61b-48a9-8878-a1f84ddaf4dc","ios":"levelo://app?vid=848fdc53-d61b-48a9-8878-a1f84ddaf4dc"},"vehicle_type_id":"4","last_reported":1718381361,"current_range_meters":5200,"station_id":"ce4bgm92rcd13ifvqbr0","pricing_plan_id":"cebpf4jnsgd1na2vs0mg"},{"bike_id":"06ea6bd2-85e1-4c82-9b56-3dc8971e178f","system_id":"levelo_inurba_marseille","lat":43.299222,"lon":5.365554,"is_reserved":false,"is_disabled":false,"rental_uris":{"android":"levelo://app?vid=06ea6bd2-85e1-4c82-9b56-3dc8971e178f","ios":"levelo://app?vid=06ea6bd2-85e1-4c82-9b56-3dc8971e178f"},"vehicle_type_id":"4","last_reported":1718381361,"current_range_meters":18800,"station_id":"ce4bgm92rcd13ifvqbr0","pricing_plan_id":"cebpf4jnsgd1na2vs0mg"},{"bike_id":"2ef1d3f7-da3d-4193-b4f6-a62cb5caf2fd","system_id":"levelo_inurba_marseille","lat":43.299222,"lon":5.365554,"is_reserved":false,"is_disabled":false,"rental_uris":{"android":"levelo://app?vid=2ef1d3f7-da3d-4193-b4f6-a62cb5caf2fd","ios":"levelo://app?vid=2ef1d3f7-da3d-4193-b4f6-a62cb5caf2fd"},"vehicle_type_id":"4","last_reported":1718381361,"current_range_meters":6000,"station_id":"ce4bgm92rcd13ifvqbr0","pricing_plan_id":"cebpf4jnsgd1na2vs0mg"},{"bike_id":"9311ed0a-230f-46ac-a5a1-651a89c14cf9","system_id":"levelo_inurba_marseille","lat":43.298433,"lon":5.362774,"is_reserved":false,"is_disabled":false,"rental_uris":{"android":"levelo://app?vid=9311ed0a-230f-46ac-a5a1-651a89c14cf9","ios":"levelo://app?vid=9311ed0a-230f-46ac-a5a1-651a89c14cf9"},"vehicle_type_id":"4","last_reported":1718381361,"current_range_meters":2000,"station_id":"ce4bgpp2rcd13ifvqc3g","pricing_plan_id":"cebpf4jnsgd1na2vs0mg"},{"bike_id":"eb84c2db-6590-4b53-9c74-b8f327a8adc8","system_id":"levelo_inurba_marseille","lat":43.298433,"lon":5.362774,"is_reserved":false,"is_disabled":false,"rental_uris":{"android":"levelo://app?vid=eb84c2db-6590-4b53-9c74-b8f327a8adc8","ios":"levelo://app?vid=eb84c2db-6590-4b53-9c74-b8f327a8adc8"},"vehicle_type_id":"4","last_reported":1718381361,"current_range_meters":0,"station_id":"ce4bgpp2rcd13ifvqc3g","pricing_plan_id":"cebpf4jnsgd1na2vs0mg"},{"bike_id":"f7cd9d15-3090-4540-9dc4-7bbb7c89f0d7","system_id":"levelo_inurba_marseille","lat":43.305364,"lon":5.384119,"is_reserved":false,"is_disabled":false,"rental_uris":{"android":"levelo://app?vid=f7cd9d15-3090-4540-9dc4-7bbb7c89f0d7","ios":"levelo://app?vid=f7cd9d15-3090-4540-9dc4-7bbb7c89f0d7"},"vehicle_type_id":"4","last_reported":1718381361,"current_range_meters":22400,"station_id":"ce4bgg92rcd13ifvqb30","pricing_plan_id":"cebpf4jnsgd1na2vs0mg"},{"bike_id":"6999ecb4-f34e-4feb-a8de-7eb44e1a2082","system_id":"levelo_inurba_marseille","lat":43.298433,"lon":5.362774,"is_reserved":false,"is_disabled":false,"rental_uris":{"android":"levelo://app?vid=6999ecb4-f34e-4feb-a8de-7eb44e1a2082","ios":"levelo://app?vid=6999ecb4-f34e-4feb-a8de-7eb44e1a2082"},"vehicle_type_id":"4","last_reported":1718381361,"current_range_meters":22000,"station_id":"ce4bgpp2rcd13ifvqc3g","pricing_plan_id":"cebpf4jnsgd1na2vs0mg"},{"bike_id":"3227236f-ee54-4078-9adf-a2ac073a88ae","system_id":"levelo_inurba_marseille","lat":43.298433,"lon":5.362774,"is_reserved":false,"is_disabled":false,"rental_uris":{"android":"levelo://app?vid=3227236f-ee54-4078-9adf-a2ac073a88ae","ios":"levelo://app?vid=3227236f-ee54-4078-9adf-a2ac073a88ae"},"vehicle_type_id":"4","last_reported":1718381361,"current_range_meters":25200,"station_id":"ce4bgpp2rcd13ifvqc3g","pricing_plan_id":"cebpf4jnsgd1na2vs0mg"},{"bike_id":"9905b506-7363-4b88-9f8e-8f4c273246a8","system_id":"levelo_inurba_marseille","lat":43.297163,"lon":5.365866,"is_reserved":false,"is_disabled":false,"rental_uris":{"android":"levelo://app?vid=9905b506-7363-4b88-9f8e-8f4c273246a8","ios":"levelo://app?vid=9905b506-7363-4b88-9f8e-8f4c273246a8"},"vehicle_type_id":"4","last_reported":1718381361,"current_range_meters":12000,"station_id":"ce4bgn12rcd13ifvqbt0","pricing_plan_id":"cebpf4jnsgd1na2vs0mg"},{"bike_id":"fef00aa6-c7c1-4581-b35f-63cc69d1b120","system_id":"levelo_inurba_marseille","lat":43.29785,"lon":5.37105,"is_reserved":false,"is_disabled":false,"rental_uris":{"android":"levelo://app?vid=fef00aa6-c7c1-4581-b35f-63cc69d1b120","ios":"levelo://app?vid=fef00aa6-c7c1-4581-b35f-63cc69d1b120"},"vehicle_type_id":"4","last_reported":1718381361,"current_range_meters":3600,"station_id":"ce4bgop2rcd13ifvqc1g","pricing_plan_id":"cebpf4jnsgd1na2vs0mg"},{"bike_id":"7bc84741-76f2-4129-ba4d-45a46adf834d","system_id":"levelo_inurba_marseille","lat":43.297794,"lon":5.370888,"is_reserved":false,"is_disabled":false,"rental_uris":{"android":"levelo://app?vid=7bc84741-76f2-4129-ba4d-45a46adf834d","ios":"levelo://app?vid=7bc84741-76f2-4129-ba4d-45a46adf834d"},"vehicle_type_id":"4","last_reported":1718381361,"current_range_meters":6000,"station_id":"ce4bgop2rcd13ifvqc1g","pricing_plan_id":"cebpf4jnsgd1na2vs0mg"},{"bike_id":"f629f8df-2fa0-4067-b585-ecd9f37324e6","system_id":"levelo_inurba_marseille","lat":43.297794,"lon":5.370888,"is_reserved":false,"is_disabled":false,"rental_uris":{"android":"levelo://app?vid=f629f8df-2fa0-4067-b585-ecd9f37324e6","ios":"levelo://app?vid=f629f8df-2fa0-4067-b585-ecd9f37324e6"},"vehicle_type_id":"4","last_reported":1718381361,"current_range_meters":26400,"station_id":"ce4bgop2rcd13ifvqc1g","pricing_plan_id":"cebpf4jnsgd1na2vs0mg"},{"bike_id":"f8a1de62-b0e9-4f2a-aeee-f61b230d9707","system_id":"levelo_inurba_marseille","lat":43.297774,"lon":5.370875,"is_reserved":false,"is_disabled":false,"rental_uris":{"android":"levelo://app?vid=f8a1de62-b0e9-4f2a-aeee-f61b230d9707","ios":"levelo://app?vid=f8a1de62-b0e9-4f2a-aeee-f61b230d9707"},"vehicle_type_id":"4","last_reported":1718381361,"current_range_meters":27600,"station_id":"ce4bgop2rcd13ifvqc1g","pricing_plan_id":"cebpf4jnsgd1na2vs0mg"},{"bike_id":"cdbe0385-5e19-4731-898e-97653549b9a1","system_id":"levelo_inurba_marseille","lat":43.297163,"lon":5.365866,"is_reserved":false,"is_disabled":false,"rental_uris":{"android":"levelo://app?vid=cdbe0385-5e19-4731-898e-97653549b9a1","ios":"levelo://app?vid=cdbe0385-5e19-4731-898e-97653549b9a1"},"vehicle_type_id":"4","last_reported":1718381361,"current_range_meters":2000,"station_id":"ce4bgn12rcd13ifvqbt0","pricing_plan_id":"cebpf4jnsgd1na2vs0mg"},{"bike_id":"f661542a-cd33-4525-8eff-d978aee89cdd","system_id":"levelo_inurba_marseille","lat":43.297163,"lon":5.365866,"is_reserved":false,"is_disabled":false,"rental_uris":{"android":"levelo://app?vid=f661542a-cd33-4525-8eff-d978aee89cdd","ios":"levelo://app?vid=f661542a-cd33-4525-8eff-d978aee89cdd"},"vehicle_type_id":"4","last_reported":1718381361,"current_range_meters":9600,"station_id":"ce4bgn12rcd13ifvqbt0","pricing_plan_id":"cebpf4jnsgd1na2vs0mg"},{"bike_id":"7b1e8ad2-3d78-4df8-8c83-50be9e8095a5","system_id":"levelo_inurba_marseille","lat":43.297163,"lon":5.365866,"is_reserved":false,"is_disabled":false,"rental_uris":{"android":"levelo://app?vid=7b1e8ad2-3d78-4df8-8c83-50be9e8095a5","ios":"levelo://app?vid=7b1e8ad2-3d78-4df8-8c83-50be9e8095a5"},"vehicle_type_id":"4","last_reported":1718381361,"current_range_meters":14000,"station_id":"ce4bgn12rcd13ifvqbt0","pricing_plan_id":"cebpf4jnsgd1na2vs0mg"},{"bike_id":"e9684d58-b10a-469e-a02c-43cd1e02c7d6","system_id":"levelo_inurba_marseille","lat":43.297163,"lon":5.365866,"is_reserved":false,"is_disabled":false,"rental_uris":{"android":"levelo://app?vid=e9684d58-b10a-469e-a02c-43cd1e02c7d6","ios":"levelo://app?vid=e9684d58-b10a-469e-a02c-43cd1e02c7d6"},"vehicle_type_id":"4","last_reported":1718381361,"current_range_meters":15600,"station_id":"ce4bgn12rcd13ifvqbt0","pricing_plan_id":"cebpf4jnsgd1na2vs0mg"},{"bike_id":"a78fce40-39b3-47a3-9f62-07729dc0911c","system_id":"levelo_inurba_marseille","lat":43.29706,"lon":5.36604,"is_reserved":false,"is_disabled":false,"rental_uris":{"android":"levelo://app?vid=a78fce40-39b3-47a3-9f62-07729dc0911c","ios":"levelo://app?vid=a78fce40-39b3-47a3-9f62-07729dc0911c"},"vehicle_type_id":"4","last_reported":1718381361,"current_range_meters":1200,"station_id":"ce4bgn12rcd13ifvqbt0","pricing_plan_id":"cebpf4jnsgd1na2vs0mg"},{"bike_id":"0070df20-4c22-4500-81b9-958ef84c563a","system_id":"levelo_inurba_marseille","lat":43.296595,"lon":5.370098,"is_reserved":false,"is_disabled":false,"rental_uris":{"android":"levelo://app?vid=0070df20-4c22-4500-81b9-958ef84c563a","ios":"levelo://app?vid=0070df20-4c22-4500-81b9-958ef84c563a"},"vehicle_type_id":"4","last_reported":1718381361,"current_range_meters":6000,"station_id":"","pricing_plan_id":"cebpf4jnsgd1na2vs0mg"},{"bike_id":"6d0e0ec4-6dd3-422e-93b9-451bcf80c0c1","system_id":"levelo_inurba_marseille","lat":43.29643,"lon":5.36122,"is_reserved":false,"is_disabled":false,"rental_uris":{"android":"levelo://app?vid=6d0e0ec4-6dd3-422e-93b9-451bcf80c0c1","ios":"levelo://app?vid=6d0e0ec4-6dd3-422e-93b9-451bcf80c0c1"},"vehicle_type_id":"4","last_reported":1718381361,"current_range_meters":13200,"station_id":"","pricing_plan_id":"cebpf4jnsgd1na2vs0mg"},{"bike_id":"1cdaccf3-b7d9-4af3-896e-32b7a619cae6","system_id":"levelo_inurba_marseille","lat":43.296131,"lon":5.370791,"is_reserved":false,"is_disabled":false,"rental_uris":{"android":"levelo://app?vid=1cdaccf3-b7d9-4af3-896e-32b7a619cae6","ios":"levelo://app?vid=1cdaccf3-b7d9-4af3-896e-32b7a619cae6"},"vehicle_type_id":"4","last_reported":1718381361,"current_range_meters":15600,"station_id":"ce4bgnh2rcd13ifvqc0g","pricing_plan_id":"cebpf4jnsgd1na2vs0mg"},{"bike_id":"b0ddcfd2-2967-473d-b3fd-9d6d2b1604ec","system_id":"levelo_inurba_marseille","lat":43.29573,"lon":5.367355,"is_reserved":false,"is_disabled":false,"rental_uris":{"android":"levelo://app?vid=b0ddcfd2-2967-473d-b3fd-9d6d2b1604ec","ios":"levelo://app?vid=b0ddcfd2-2967-473d-b3fd-9d6d2b1604ec"},"vehicle_type_id":"4","last_reported":1718381361,"current_range_meters":16000,"station_id":"ce4bgph2rcd13ifvqc2g","pricing_plan_id":"cebpf4jnsgd1na2vs0mg"},{"bike_id":"c908ca09-dec1-4644-baec-228e8f333f25","system_id":"levelo_inurba_marseille","lat":43.296131,"lon":5.370773,"is_reserved":false,"is_disabled":false,"rental_uris":{"android":"levelo://app?vid=c908ca09-dec1-4644-baec-228e8f333f25","ios":"levelo://app?vid=c908ca09-dec1-4644-baec-228e8f333f25"},"vehicle_type_id":"4","last_reported":1718381361,"current_range_meters":31200,"station_id":"ce4bgnh2rcd13ifvqc0g","pricing_plan_id":"cebpf4jnsgd1na2vs0mg"},{"bike_id":"e1150f9e-65af-404b-8959-a587ade0ed01","system_id":"levelo_inurba_marseille","lat":43.296131,"lon":5.370773,"is_reserved":false,"is_disabled":false,"rental_uris":{"android":"levelo://app?vid=e1150f9e-65af-404b-8959-a587ade0ed01","ios":"levelo://app?vid=e1150f9e-65af-404b-8959-a587ade0ed01"},"vehicle_type_id":"4","last_reported":1718381361,"current_range_meters":31200,"station_id":"ce4bgnh2rcd13ifvqc0g","pricing_plan_id":"cebpf4jnsgd1na2vs0mg"},{"bike_id":"6fa9b6a9-807d-417e-ae10-64fb4ec92316","system_id":"levelo_inurba_marseille","lat":43.29573,"lon":5.367355,"is_reserved":false,"is_disabled":false,"rental_uris":{"android":"levelo://app?vid=6fa9b6a9-807d-417e-ae10-64fb4ec92316","ios":"levelo://app?vid=6fa9b6a9-807d-417e-ae10-64fb4ec92316"},"vehicle_type_id":"4","last_reported":1718381361,"current_range_meters":0,"station_id":"ce4bgph2rcd13ifvqc2g","pricing_plan_id":"cebpf4jnsgd1na2vs0mg"},{"bike_id":"b556adec-2378-4763-b8b9-db594bcdda23","system_id":"levelo_inurba_marseille","lat":43.29573,"lon":5.367355,"is_reserved":false,"is_disabled":false,"rental_uris":{"android":"levelo://app?vid=b556adec-2378-4763-b8b9-db594bcdda23","ios":"levelo://app?vid=b556adec-2378-4763-b8b9-db594bcdda23"},"vehicle_type_id":"4","last_reported":1718381361,"current_range_meters":2800,"station_id":"ce4bgph2rcd13ifvqc2g","pricing_plan_id":"cebpf4jnsgd1na2vs0mg"},{"bike_id":"b7f1b88e-d1a3-457c-ab9e-3b1af615215b","system_id":"levelo_inurba_marseille","lat":43.29579,"lon":5.36433,"is_reserved":false,"is_disabled":false,"rental_uris":{"android":"levelo://app?vid=b7f1b88e-d1a3-457c-ab9e-3b1af615215b","ios":"levelo://app?vid=b7f1b88e-d1a3-457c-ab9e-3b1af615215b"},"vehicle_type_id":"4","last_reported":1718381361,"current_range_meters":5600,"station_id":"","pricing_plan_id":"cebpf4jnsgd1na2vs0mg"},{"bike_id":"c268b7c2-d533-4d0b-a714-7ef9a5db89b3","system_id":"levelo_inurba_marseille","lat":43.29726,"lon":5.37689,"is_reserved":false,"is_disabled":false,"rental_uris":{"android":"levelo://app?vid=c268b7c2-d533-4d0b-a714-7ef9a5db89b3","ios":"levelo://app?vid=c268b7c2-d533-4d0b-a714-7ef9a5db89b3"},"vehicle_type_id":"4","last_reported":1718381361,"current_range_meters":31200,"station_id":"ce4bgkh2rcd13ifvqbl0","pricing_plan_id":"cebpf4jnsgd1na2vs0mg"},{"bike_id":"4fefd2b8-e03d-4123-9c56-dd477de6c69d","system_id":"levelo_inurba_marseille","lat":43.30953,"lon":5.39035,"is_reserved":false,"is_disabled":false,"rental_uris":{"android":"levelo://app?vid=4fefd2b8-e03d-4123-9c56-dd477de6c69d","ios":"levelo://app?vid=4fefd2b8-e03d-4123-9c56-dd477de6c69d"},"vehicle_type_id":"4","last_reported":1718381361,"current_range_meters":0,"station_id":"ce4bgup2rcd13ifvqco0","pricing_plan_id":"cebpf4jnsgd1na2vs0mg"},{"bike_id":"1c7a493b-203d-4fc8-8429-2e8159389b69","system_id":"levelo_inurba_marseille","lat":43.317557,"lon":5.390173,"is_reserved":false,"is_disabled":false,"rental_uris":{"android":"levelo://app?vid=1c7a493b-203d-4fc8-8429-2e8159389b69","ios":"levelo://app?vid=1c7a493b-203d-4fc8-8429-2e8159389b69"},"vehicle_type_id":"4","last_reported":1718381361,"current_range_meters":0,"station_id":"ce4bhqp2rcd13ifvqhng","pricing_plan_id":"cebpf4jnsgd1na2vs0mg"},{"bike_id":"d51789ea-eb04-4e0b-b0d1-a567aa1af80c","system_id":"levelo_inurba_marseille","lat":43.304606,"lon":5.379026,"is_reserved":false,"is_disabled":false,"rental_uris":{"android":"levelo://app?vid=d51789ea-eb04-4e0b-b0d1-a567aa1af80c","ios":"levelo://app?vid=d51789ea-eb04-4e0b-b0d1-a567aa1af80c"},"vehicle_type_id":"4","last_reported":1718381361,"current_range_meters":1200,"station_id":"ce4bgup2rcd13ifvqcn0","pricing_plan_id":"cebpf4jnsgd1na2vs0mg"},{"bike_id":"3f47ef62-e2dd-4707-a413-fbe2e69e4b79","system_id":"levelo_inurba_marseille","lat":43.298037,"lon":5.381066,"is_reserved":false,"is_disabled":false,"rental_uris":{"android":"levelo://app?vid=3f47ef62-e2dd-4707-a413-fbe2e69e4b79","ios":"levelo://app?vid=3f47ef62-e2dd-4707-a413-fbe2e69e4b79"},"vehicle_type_id":"4","last_reported":1718381361,"current_range_meters":0,"station_id":"ce4bgip2rcd13ifvqbb0","pricing_plan_id":"cebpf4jnsgd1na2vs0mg"},{"bike_id":"7430ebde-6ce0-47ad-881c-fb8864d953bb","system_id":"levelo_inurba_marseille","lat":43.29793,"lon":5.38113,"is_reserved":false,"is_disabled":false,"rental_uris":{"android":"levelo://app?vid=7430ebde-6ce0-47ad-881c-fb8864d953bb","ios":"levelo://app?vid=7430ebde-6ce0-47ad-881c-fb8864d953bb"},"vehicle_type_id":"4","last_reported":1718381361,"current_range_meters":0,"station_id":"ce4bgip2rcd13ifvqbb0","pricing_plan_id":"cebpf4jnsgd1na2vs0mg"},{"bike_id":"0670b788-379e-4892-acdb-5ab2ca173f71","system_id":"levelo_inurba_marseille","lat":43.304274,"lon":5.388873,"is_reserved":false,"is_disabled":false,"rental_uris":{"android":"levelo://app?vid=0670b788-379e-4892-acdb-5ab2ca173f71","ios":"levelo://app?vid=0670b788-379e-4892-acdb-5ab2ca173f71"},"vehicle_type_id":"4","last_reported":1718381361,"current_range_meters":22800,"station_id":"ce4bgk12rcd13ifvqbi0","pricing_plan_id":"cebpf4jnsgd1na2vs0mg"},{"bike_id":"262d33e1-fabf-413e-befb-a656aae63652","system_id":"levelo_inurba_marseille","lat":43.304274,"lon":5.388873,"is_reserved":false,"is_disabled":false,"rental_uris":{"android":"levelo://app?vid=262d33e1-fabf-413e-befb-a656aae63652","ios":"levelo://app?vid=262d33e1-fabf-413e-befb-a656aae63652"},"vehicle_type_id":"4","last_reported":1718381361,"current_range_meters":0,"station_id":"ce4bgk12rcd13ifvqbi0","pricing_plan_id":"cebpf4jnsgd1na2vs0mg"},{"bike_id":"db313bed-90b0-44d1-b43a-a787636540f0","system_id":"levelo_inurba_marseille","lat":43.296263,"lon":5.377094,"is_reserved":false,"is_disabled":false,"rental_uris":{"android":"levelo://app?vid=db313bed-90b0-44d1-b43a-a787636540f0","ios":"levelo://app?vid=db313bed-90b0-44d1-b43a-a787636540f0"},"vehicle_type_id":"4","last_reported":1718381361,"current_range_meters":20800,"station_id":"ce4bgi92rcd13ifvqb90","pricing_plan_id":"cebpf4jnsgd1na2vs0mg"},{"bike_id":"d0885f83-20bc-4b03-94a6-e34639b8ef1f","system_id":"levelo_inurba_marseille","lat":43.299707,"lon":5.384859,"is_reserved":false,"is_disabled":false,"rental_uris":{"android":"levelo://app?vid=d0885f83-20bc-4b03-94a6-e34639b8ef1f","ios":"levelo://app?vid=d0885f83-20bc-4b03-94a6-e34639b8ef1f"},"vehicle_type_id":"4","last_reported":1718381361,"current_range_meters":6800,"station_id":"ce4bgj92rcd13ifvqbd0","pricing_plan_id":"cebpf4jnsgd1na2vs0mg"},{"bike_id":"25215695-08ab-456c-be55-a3a4d5683893","system_id":"levelo_inurba_marseille","lat":43.295279,"lon":5.375048,"is_reserved":false,"is_disabled":false,"rental_uris":{"android":"levelo://app?vid=25215695-08ab-456c-be55-a3a4d5683893","ios":"levelo://app?vid=25215695-08ab-456c-be55-a3a4d5683893"},"vehicle_type_id":"4","last_reported":1718381361,"current_range_meters":19600,"station_id":"ce4bgkp2rcd13ifvqbmg","pricing_plan_id":"cebpf4jnsgd1na2vs0mg"},{"bike_id":"75827afe-210f-492d-8985-5614c25179e2","system_id":"levelo_inurba_marseille","lat":43.299717,"lon":5.384845,"is_reserved":false,"is_disabled":false,"rental_uris":{"android":"levelo://app?vid=75827afe-210f-492d-8985-5614c25179e2","ios":"levelo://app?vid=75827afe-210f-492d-8985-5614c25179e2"},"vehicle_type_id":"4","last_reported":1718381361,"current_range_meters":3200,"station_id":"ce4bgj92rcd13ifvqbd0","pricing_plan_id":"cebpf4jnsgd1na2vs0mg"},{"bike_id":"65aecb61-662b-4321-8026-c52cd0135c03","system_id":"levelo_inurba_marseille","lat":43.295279,"lon":5.375048,"is_reserved":false,"is_disabled":false,"rental_uris":{"android":"levelo://app?vid=65aecb61-662b-4321-8026-c52cd0135c03","ios":"levelo://app?vid=65aecb61-662b-4321-8026-c52cd0135c03"},"vehicle_type_id":"4","last_reported":1718381361,"current_range_meters":24400,"station_id":"ce4bgkp2rcd13ifvqbmg","pricing_plan_id":"cebpf4jnsgd1na2vs0mg"},{"bike_id":"d129ced0-6c12-494a-96ba-fb83a528beb3","system_id":"levelo_inurba_marseille","lat":43.32367,"lon":5.388836,"is_reserved":false,"is_disabled":false,"rental_uris":{"android":"levelo://app?vid=d129ced0-6c12-494a-96ba-fb83a528beb3","ios":"levelo://app?vid=d129ced0-6c12-494a-96ba-fb83a528beb3"},"vehicle_type_id":"4","last_reported":1718381361,"current_range_meters":1200,"station_id":"ce4bhqp2rcd13ifvqhog","pricing_plan_id":"cebpf4jnsgd1na2vs0mg"},{"bike_id":"4615b97b-780b-445f-a198-b838f382ec3c","system_id":"levelo_inurba_marseille","lat":43.32367,"lon":5.388836,"is_reserved":false,"is_disabled":false,"rental_uris":{"android":"levelo://app?vid=4615b97b-780b-445f-a198-b838f382ec3c","ios":"levelo://app?vid=4615b97b-780b-445f-a198-b838f382ec3c"},"vehicle_type_id":"4","last_reported":1718381361,"current_range_meters":16400,"station_id":"ce4bhqp2rcd13ifvqhog","pricing_plan_id":"cebpf4jnsgd1na2vs0mg"},{"bike_id":"37471f4c-741d-4423-ad28-3beb8104ff11","system_id":"levelo_inurba_marseille","lat":43.29408,"lon":5.37415,"is_reserved":false,"is_disabled":false,"rental_uris":{"android":"levelo://app?vid=37471f4c-741d-4423-ad28-3beb8104ff11","ios":"levelo://app?vid=37471f4c-741d-4423-ad28-3beb8104ff11"},"vehicle_type_id":"4","last_reported":1718381361,"current_range_meters":13200,"station_id":"","pricing_plan_id":"cebpf4jnsgd1na2vs0mg"},{"bike_id":"e8f91f21-24e1-4e4f-9075-c241a560e533","system_id":"levelo_inurba_marseille","lat":43.29601,"lon":5.381084,"is_reserved":false,"is_disabled":false,"rental_uris":{"android":"levelo://app?vid=e8f91f21-24e1-4e4f-9075-c241a560e533","ios":"levelo://app?vid=e8f91f21-24e1-4e4f-9075-c241a560e533"},"vehicle_type_id":"4","last_reported":1718381361,"current_range_meters":26800,"station_id":"ce4bgl12rcd13ifvqbo0","pricing_plan_id":"cebpf4jnsgd1na2vs0mg"},{"bike_id":"2b33fafa-1a29-4252-87bf-89ef4198a553","system_id":"levelo_inurba_marseille","lat":43.29601,"lon":5.381084,"is_reserved":false,"is_disabled":false,"rental_uris":{"android":"levelo://app?vid=2b33fafa-1a29-4252-87bf-89ef4198a553","ios":"levelo://app?vid=2b33fafa-1a29-4252-87bf-89ef4198a553"},"vehicle_type_id":"4","last_reported":1718381361,"current_range_meters":2000,"station_id":"ce4bgl12rcd13ifvqbo0","pricing_plan_id":"cebpf4jnsgd1na2vs0mg"},{"bike_id":"8b673c1c-56d0-451f-8740-48f1f5f928c2","system_id":"levelo_inurba_marseille","lat":43.29602,"lon":5.381084,"is_reserved":false,"is_disabled":false,"rental_uris":{"android":"levelo://app?vid=8b673c1c-56d0-451f-8740-48f1f5f928c2","ios":"levelo://app?vid=8b673c1c-56d0-451f-8740-48f1f5f928c2"},"vehicle_type_id":"4","last_reported":1718381361,"current_range_meters":23600,"station_id":"ce4bgl12rcd13ifvqbo0","pricing_plan_id":"cebpf4jnsgd1na2vs0mg"},{"bike_id":"19b3e43d-1636-4d7f-8c2f-a51d02425d6a","system_id":"levelo_inurba_marseille","lat":43.29304,"lon":5.37173,"is_reserved":false,"is_disabled":false,"rental_uris":{"android":"levelo://app?vid=19b3e43d-1636-4d7f-8c2f-a51d02425d6a","ios":"levelo://app?vid=19b3e43d-1636-4d7f-8c2f-a51d02425d6a"},"vehicle_type_id":"4","last_reported":1718381361,"current_range_meters":3600,"station_id":"ce4bgh92rcd13ifvqb40","pricing_plan_id":"cebpf4jnsgd1na2vs0mg"},{"bike_id":"73c4c5c6-b95a-4e50-b22e-c8e6220fa6bd","system_id":"levelo_inurba_marseille","lat":43.29301,"lon":5.37179,"is_reserved":false,"is_disabled":false,"rental_uris":{"android":"levelo://app?vid=73c4c5c6-b95a-4e50-b22e-c8e6220fa6bd","ios":"levelo://app?vid=73c4c5c6-b95a-4e50-b22e-c8e6220fa6bd"},"vehicle_type_id":"4","last_reported":1718381361,"current_range_meters":29200,"station_id":"ce4bgh92rcd13ifvqb40","pricing_plan_id":"cebpf4jnsgd1na2vs0mg"},{"bike_id":"ad709e75-4467-47b1-a231-6c05ce7f4f37","system_id":"levelo_inurba_marseille","lat":43.292749,"lon":5.368402,"is_reserved":false,"is_disabled":false,"rental_uris":{"android":"levelo://app?vid=ad709e75-4467-47b1-a231-6c05ce7f4f37","ios":"levelo://app?vid=ad709e75-4467-47b1-a231-6c05ce7f4f37"},"vehicle_type_id":"4","last_reported":1718381361,"current_range_meters":6800,"station_id":"ce4bhbp2rcd13ifvqesg","pricing_plan_id":"cebpf4jnsgd1na2vs0mg"},{"bike_id":"a85e9d4f-27d6-4bbf-b589-f2fd464ab9e1","system_id":"levelo_inurba_marseille","lat":43.29267,"lon":5.3685,"is_reserved":false,"is_disabled":false,"rental_uris":{"android":"levelo://app?vid=a85e9d4f-27d6-4bbf-b589-f2fd464ab9e1","ios":"levelo://app?vid=a85e9d4f-27d6-4bbf-b589-f2fd464ab9e1"},"vehicle_type_id":"4","last_reported":1718381361,"current_range_meters":3600,"station_id":"ce4bhbp2rcd13ifvqesg","pricing_plan_id":"cebpf4jnsgd1na2vs0mg"},{"bike_id":"62e1e8f8-7bef-4872-94cd-b38ef6444df3","system_id":"levelo_inurba_marseille","lat":43.292749,"lon":5.368402,"is_reserved":false,"is_disabled":false,"rental_uris":{"android":"levelo://app?vid=62e1e8f8-7bef-4872-94cd-b38ef6444df3","ios":"levelo://app?vid=62e1e8f8-7bef-4872-94cd-b38ef6444df3"},"vehicle_type_id":"4","last_reported":1718381361,"current_range_meters":1200,"station_id":"ce4bhbp2rcd13ifvqesg","pricing_plan_id":"cebpf4jnsgd1na2vs0mg"},{"bike_id":"b5470125-c4df-4be7-9ef0-5de6c90c4630","system_id":"levelo_inurba_marseille","lat":43.293009,"lon":5.374584,"is_reserved":false,"is_disabled":false,"rental_uris":{"android":"levelo://app?vid=b5470125-c4df-4be7-9ef0-5de6c90c4630","ios":"levelo://app?vid=b5470125-c4df-4be7-9ef0-5de6c90c4630"},"vehicle_type_id":"4","last_reported":1718381361,"current_range_meters":9600,"station_id":"ce4bgi12rcd13ifvqb70","pricing_plan_id":"cebpf4jnsgd1na2vs0mg"},{"bike_id":"862dcc36-424f-4438-9972-3df3d16907f3","system_id":"levelo_inurba_marseille","lat":43.293009,"lon":5.374584,"is_reserved":false,"is_disabled":false,"rental_uris":{"android":"levelo://app?vid=862dcc36-424f-4438-9972-3df3d16907f3","ios":"levelo://app?vid=862dcc36-424f-4438-9972-3df3d16907f3"},"vehicle_type_id":"4","last_reported":1718381361,"current_range_meters":28000,"station_id":"ce4bgi12rcd13ifvqb70","pricing_plan_id":"cebpf4jnsgd1na2vs0mg"},{"bike_id":"b6c1268c-a7ff-4aa5-aaf3-52187293dc93","system_id":"levelo_inurba_marseille","lat":43.292336,"lon":5.363919,"is_reserved":false,"is_disabled":false,"rental_uris":{"android":"levelo://app?vid=b6c1268c-a7ff-4aa5-aaf3-52187293dc93","ios":"levelo://app?vid=b6c1268c-a7ff-4aa5-aaf3-52187293dc93"},"vehicle_type_id":"4","last_reported":1718381361,"current_range_meters":20000,"station_id":"","pricing_plan_id":"cebpf4jnsgd1na2vs0mg"},{"bike_id":"664f1ed7-8913-4bb2-bf37-26cfdc2a98cf","system_id":"levelo_inurba_marseille","lat":43.292319,"lon":5.363876,"is_reserved":false,"is_disabled":false,"rental_uris":{"android":"levelo://app?vid=664f1ed7-8913-4bb2-bf37-26cfdc2a98cf","ios":"levelo://app?vid=664f1ed7-8913-4bb2-bf37-26cfdc2a98cf"},"vehicle_type_id":"4","last_reported":1718381361,"current_range_meters":17600,"station_id":"","pricing_plan_id":"cebpf4jnsgd1na2vs0mg"},{"bike_id":"2f3858b1-198b-4ba2-b1cb-5b9c08962c0e","system_id":"levelo_inurba_marseille","lat":43.29299,"lon":5.35871,"is_reserved":false,"is_disabled":false,"rental_uris":{"android":"levelo://app?vid=2f3858b1-198b-4ba2-b1cb-5b9c08962c0e","ios":"levelo://app?vid=2f3858b1-198b-4ba2-b1cb-5b9c08962c0e"},"vehicle_type_id":"4","last_reported":1718381361,"current_range_meters":11600,"station_id":"","pricing_plan_id":"cebpf4jnsgd1na2vs0mg"},{"bike_id":"48ff483f-24e3-4d76-96d5-d4f99e449f77","system_id":"levelo_inurba_marseille","lat":43.303002,"lon":5.392142,"is_reserved":false,"is_disabled":false,"rental_uris":{"android":"levelo://app?vid=48ff483f-24e3-4d76-96d5-d4f99e449f77","ios":"levelo://app?vid=48ff483f-24e3-4d76-96d5-d4f99e449f77"},"vehicle_type_id":"4","last_reported":1718381361,"current_range_meters":800,"station_id":"ce4bgkh2rcd13ifvqbk0","pricing_plan_id":"cebpf4jnsgd1na2vs0mg"},{"bike_id":"1df8a193-9eb0-4846-a23a-d8cd1e53754e","system_id":"levelo_inurba_marseille","lat":43.303,"lon":5.39222,"is_reserved":false,"is_disabled":false,"rental_uris":{"android":"levelo://app?vid=1df8a193-9eb0-4846-a23a-d8cd1e53754e","ios":"levelo://app?vid=1df8a193-9eb0-4846-a23a-d8cd1e53754e"},"vehicle_type_id":"4","last_reported":1718381361,"current_range_meters":0,"station_id":"ce4bgkh2rcd13ifvqbk0","pricing_plan_id":"cebpf4jnsgd1na2vs0mg"},{"bike_id":"ed0b45f9-2d9b-4009-a093-5c297017aa54","system_id":"levelo_inurba_marseille","lat":43.2936,"lon":5.37835,"is_reserved":false,"is_disabled":false,"rental_uris":{"android":"levelo://app?vid=ed0b45f9-2d9b-4009-a093-5c297017aa54","ios":"levelo://app?vid=ed0b45f9-2d9b-4009-a093-5c297017aa54"},"vehicle_type_id":"4","last_reported":1718381361,"current_range_meters":25200,"station_id":"ce4bgjh2rcd13ifvqbf0","pricing_plan_id":"cebpf4jnsgd1na2vs0mg"},{"bike_id":"44035c4a-c5ca-4d35-bfce-17f65d959831","system_id":"levelo_inurba_marseille","lat":43.30085,"lon":5.390856,"is_reserved":false,"is_disabled":false,"rental_uris":{"android":"levelo://app?vid=44035c4a-c5ca-4d35-bfce-17f65d959831","ios":"levelo://app?vid=44035c4a-c5ca-4d35-bfce-17f65d959831"},"vehicle_type_id":"4","last_reported":1718381361,"current_range_meters":25600,"station_id":"ce4bh192rcd13ifvqdb0","pricing_plan_id":"cebpf4jnsgd1na2vs0mg"},{"bike_id":"6981c19c-d01f-4218-ad9f-7f9d246687ad","system_id":"levelo_inurba_marseille","lat":43.29271,"lon":5.37618,"is_reserved":false,"is_disabled":false,"rental_uris":{"android":"levelo://app?vid=6981c19c-d01f-4218-ad9f-7f9d246687ad","ios":"levelo://app?vid=6981c19c-d01f-4218-ad9f-7f9d246687ad"},"vehicle_type_id":"4","last_reported":1718381361,"current_range_meters":14800,"station_id":"","pricing_plan_id":"cebpf4jnsgd1na2vs0mg"},{"bike_id":"eeddc5c5-aa27-47e1-8be3-3acb68491867","system_id":"levelo_inurba_marseille","lat":43.292005,"lon":5.357875,"is_reserved":false,"is_disabled":false,"rental_uris":{"android":"levelo://app?vid=eeddc5c5-aa27-47e1-8be3-3acb68491867","ios":"levelo://app?vid=eeddc5c5-aa27-47e1-8be3-3acb68491867"},"vehicle_type_id":"4","last_reported":1718381361,"current_range_meters":26400,"station_id":"ce4bhb12rcd13ifvqel0","pricing_plan_id":"cebpf4jnsgd1na2vs0mg"},{"bike_id":"45584d98-fdec-4c3e-987f-2e3e1a6030d2","system_id":"levelo_inurba_marseille","lat":43.293009,"lon":5.374584,"is_reserved":false,"is_disabled":false,"rental_uris":{"android":"levelo://app?vid=45584d98-fdec-4c3e-987f-2e3e1a6030d2","ios":"levelo://app?vid=45584d98-fdec-4c3e-987f-2e3e1a6030d2"},"vehicle_type_id":"4","last_reported":1718381361,"current_range_meters":18800,"station_id":"ce4bgi12rcd13ifvqb70","pricing_plan_id":"cebpf4jnsgd1na2vs0mg"},{"bike_id":"d50f1020-499b-42f3-90dc-0e6bbc4ad0c9","system_id":"levelo_inurba_marseille","lat":43.293009,"lon":5.374584,"is_reserved":false,"is_disabled":false,"rental_uris":{"android":"levelo://app?vid=d50f1020-499b-42f3-90dc-0e6bbc4ad0c9","ios":"levelo://app?vid=d50f1020-499b-42f3-90dc-0e6bbc4ad0c9"},"vehicle_type_id":"4","last_reported":1718381361,"current_range_meters":7200,"station_id":"ce4bgi12rcd13ifvqb70","pricing_plan_id":"cebpf4jnsgd1na2vs0mg"},{"bike_id":"7abebace-cb6c-4148-82d2-bcedb525a987","system_id":"levelo_inurba_marseille","lat":43.298764,"lon":5.388973,"is_reserved":false,"is_disabled":false,"rental_uris":{"android":"levelo://app?vid=7abebace-cb6c-4148-82d2-bcedb525a987","ios":"levelo://app?vid=7abebace-cb6c-4148-82d2-bcedb525a987"},"vehicle_type_id":"4","last_reported":1718381361,"current_range_meters":28000,"station_id":"ce4bh392rcd13ifvqdl0","pricing_plan_id":"cebpf4jnsgd1na2vs0mg"},{"bike_id":"d29f93ba-7cf3-4624-97c5-17187348bd6f","system_id":"levelo_inurba_marseille","lat":43.29644,"lon":5.385706,"is_reserved":false,"is_disabled":false,"rental_uris":{"android":"levelo://app?vid=d29f93ba-7cf3-4624-97c5-17187348bd6f","ios":"levelo://app?vid=d29f93ba-7cf3-4624-97c5-17187348bd6f"},"vehicle_type_id":"4","last_reported":1718381361,"current_range_meters":0,"station_id":"","pricing_plan_id":"cebpf4jnsgd1na2vs0mg"},{"bike_id":"4dd286a8-a4b5-4112-b1bc-8f7eb881f7c0","system_id":"levelo_inurba_marseille","lat":43.298764,"lon":5.388973,"is_reserved":false,"is_disabled":false,"rental_uris":{"android":"levelo://app?vid=4dd286a8-a4b5-4112-b1bc-8f7eb881f7c0","ios":"levelo://app?vid=4dd286a8-a4b5-4112-b1bc-8f7eb881f7c0"},"vehicle_type_id":"4","last_reported":1718381361,"current_range_meters":20400,"station_id":"ce4bh392rcd13ifvqdl0","pricing_plan_id":"cebpf4jnsgd1na2vs0mg"},{"bike_id":"53eb2333-27f7-4bda-82c3-569b2e992c1c","system_id":"levelo_inurba_marseille","lat":43.298764,"lon":5.388973,"is_reserved":false,"is_disabled":false,"rental_uris":{"android":"levelo://app?vid=53eb2333-27f7-4bda-82c3-569b2e992c1c","ios":"levelo://app?vid=53eb2333-27f7-4bda-82c3-569b2e992c1c"},"vehicle_type_id":"4","last_reported":1718381361,"current_range_meters":27200,"station_id":"ce4bh392rcd13ifvqdl0","pricing_plan_id":"cebpf4jnsgd1na2vs0mg"},{"bike_id":"e17bc37a-3249-4715-b9eb-3e62253892c3","system_id":"levelo_inurba_marseille","lat":43.29342,"lon":5.37964,"is_reserved":false,"is_disabled":false,"rental_uris":{"android":"levelo://app?vid=e17bc37a-3249-4715-b9eb-3e62253892c3","ios":"levelo://app?vid=e17bc37a-3249-4715-b9eb-3e62253892c3"},"vehicle_type_id":"4","last_reported":1718381361,"current_range_meters":27600,"station_id":"","pricing_plan_id":"cebpf4jnsgd1na2vs0mg"},{"bike_id":"9825c882-094b-449f-8bf3-751164520c20","system_id":"levelo_inurba_marseille","lat":43.291671,"lon":5.371575,"is_reserved":false,"is_disabled":false,"rental_uris":{"android":"levelo://app?vid=9825c882-094b-449f-8bf3-751164520c20","ios":"levelo://app?vid=9825c882-094b-449f-8bf3-751164520c20"},"vehicle_type_id":"4","last_reported":1718381361,"current_range_meters":15200,"station_id":"ce4bha92rcd13ifvqeh0","pricing_plan_id":"cebpf4jnsgd1na2vs0mg"},{"bike_id":"3e428852-5262-4e56-adea-fb972bd97afe","system_id":"levelo_inurba_marseille","lat":43.291671,"lon":5.371575,"is_reserved":false,"is_disabled":false,"rental_uris":{"android":"levelo://app?vid=3e428852-5262-4e56-adea-fb972bd97afe","ios":"levelo://app?vid=3e428852-5262-4e56-adea-fb972bd97afe"},"vehicle_type_id":"4","last_reported":1718381361,"current_range_meters":27200,"station_id":"ce4bha92rcd13ifvqeh0","pricing_plan_id":"cebpf4jnsgd1na2vs0mg"},{"bike_id":"786f41d3-18dc-4450-a140-318967f05a54","system_id":"levelo_inurba_marseille","lat":43.286961,"lon":5.373785,"is_reserved":false,"is_disabled":false,"rental_uris":{"android":"levelo://app?vid=786f41d3-18dc-4450-a140-318967f05a54","ios":"levelo://app?vid=786f41d3-18dc-4450-a140-318967f05a54"},"vehicle_type_id":"4","last_reported":1718381361,"current_range_meters":16800,"station_id":"ce4bh3p2rcd13ifvqdq0","pricing_plan_id":"cebpf4jnsgd1na2vs0mg"},{"bike_id":"d1779537-fed8-47dc-bed4-ce983d04c442","system_id":"levelo_inurba_marseille","lat":43.313291,"lon":5.396838,"is_reserved":false,"is_disabled":false,"rental_uris":{"android":"levelo://app?vid=d1779537-fed8-47dc-bed4-ce983d04c442","ios":"levelo://app?vid=d1779537-fed8-47dc-bed4-ce983d04c442"},"vehicle_type_id":"4","last_reported":1718381361,"current_range_meters":22800,"station_id":"ce4bgvp2rcd13ifvqcu0","pricing_plan_id":"cebpf4jnsgd1na2vs0mg"},{"bike_id":"d6e39d05-d02d-4817-82e5-211cd3d866b8","system_id":"levelo_inurba_marseille","lat":43.292005,"lon":5.357875,"is_reserved":false,"is_disabled":false,"rental_uris":{"android":"levelo://app?vid=d6e39d05-d02d-4817-82e5-211cd3d866b8","ios":"levelo://app?vid=d6e39d05-d02d-4817-82e5-211cd3d866b8"},"vehicle_type_id":"4","last_reported":1718381361,"current_range_meters":0,"station_id":"ce4bhb12rcd13ifvqel0","pricing_plan_id":"cebpf4jnsgd1na2vs0mg"},{"bike_id":"d896e8af-d005-44cf-b0d7-3a242ede4043","system_id":"levelo_inurba_marseille","lat":43.291994,"lon":5.357886,"is_reserved":false,"is_disabled":false,"rental_uris":{"android":"levelo://app?vid=d896e8af-d005-44cf-b0d7-3a242ede4043","ios":"levelo://app?vid=d896e8af-d005-44cf-b0d7-3a242ede4043"},"vehicle_type_id":"4","last_reported":1718381361,"current_range_meters":28400,"station_id":"ce4bhb12rcd13ifvqel0","pricing_plan_id":"cebpf4jnsgd1na2vs0mg"},{"bike_id":"f3b6c68e-f540-40aa-b64e-0dd098972392","system_id":"levelo_inurba_marseille","lat":43.292005,"lon":5.357875,"is_reserved":false,"is_disabled":false,"rental_uris":{"android":"levelo://app?vid=f3b6c68e-f540-40aa-b64e-0dd098972392","ios":"levelo://app?vid=f3b6c68e-f540-40aa-b64e-0dd098972392"},"vehicle_type_id":"4","last_reported":1718381361,"current_range_meters":5600,"station_id":"ce4bhb12rcd13ifvqel0","pricing_plan_id":"cebpf4jnsgd1na2vs0mg"},{"bike_id":"72180abb-06d9-44b1-b45d-0d7c339cce9d","system_id":"levelo_inurba_marseille","lat":43.292005,"lon":5.357875,"is_reserved":false,"is_disabled":false,"rental_uris":{"android":"levelo://app?vid=72180abb-06d9-44b1-b45d-0d7c339cce9d","ios":"levelo://app?vid=72180abb-06d9-44b1-b45d-0d7c339cce9d"},"vehicle_type_id":"4","last_reported":1718381361,"current_range_meters":17200,"station_id":"ce4bhb12rcd13ifvqel0","pricing_plan_id":"cebpf4jnsgd1na2vs0mg"},{"bike_id":"ada25056-660c-479c-8051-6042fec1cbd7","system_id":"levelo_inurba_marseille","lat":43.292005,"lon":5.357875,"is_reserved":false,"is_disabled":false,"rental_uris":{"android":"levelo://app?vid=ada25056-660c-479c-8051-6042fec1cbd7","ios":"levelo://app?vid=ada25056-660c-479c-8051-6042fec1cbd7"},"vehicle_type_id":"4","last_reported":1718381361,"current_range_meters":0,"station_id":"ce4bhb12rcd13ifvqel0","pricing_plan_id":"cebpf4jnsgd1na2vs0mg"},{"bike_id":"b5f1a1eb-4706-4591-b6c9-4f66b4dd63de","system_id":"levelo_inurba_marseille","lat":43.292005,"lon":5.357875,"is_reserved":false,"is_disabled":false,"rental_uris":{"android":"levelo://app?vid=b5f1a1eb-4706-4591-b6c9-4f66b4dd63de","ios":"levelo://app?vid=b5f1a1eb-4706-4591-b6c9-4f66b4dd63de"},"vehicle_type_id":"4","last_reported":1718381361,"current_range_meters":11600,"station_id":"ce4bhb12rcd13ifvqel0","pricing_plan_id":"cebpf4jnsgd1na2vs0mg"},{"bike_id":"90f0b0e5-0d01-4198-8002-f8c128a2eb0a","system_id":"levelo_inurba_marseille","lat":43.313291,"lon":5.396838,"is_reserved":false,"is_disabled":false,"rental_uris":{"android":"levelo://app?vid=90f0b0e5-0d01-4198-8002-f8c128a2eb0a","ios":"levelo://app?vid=90f0b0e5-0d01-4198-8002-f8c128a2eb0a"},"vehicle_type_id":"4","last_reported":1718381361,"current_range_meters":1600,"station_id":"ce4bgvp2rcd13ifvqcu0","pricing_plan_id":"cebpf4jnsgd1na2vs0mg"},{"bike_id":"a5eaee9d-530a-4dfe-9db5-cdef74d9b246","system_id":"levelo_inurba_marseille","lat":43.31327,"lon":5.397,"is_reserved":false,"is_disabled":false,"rental_uris":{"android":"levelo://app?vid=a5eaee9d-530a-4dfe-9db5-cdef74d9b246","ios":"levelo://app?vid=a5eaee9d-530a-4dfe-9db5-cdef74d9b246"},"vehicle_type_id":"4","last_reported":1718381361,"current_range_meters":2800,"station_id":"ce4bgvp2rcd13ifvqcu0","pricing_plan_id":"cebpf4jnsgd1na2vs0mg"},{"bike_id":"7a4624f6-cb30-40d9-a272-8d8274017c5e","system_id":"levelo_inurba_marseille","lat":43.29529,"lon":5.385581,"is_reserved":false,"is_disabled":false,"rental_uris":{"android":"levelo://app?vid=7a4624f6-cb30-40d9-a272-8d8274017c5e","ios":"levelo://app?vid=7a4624f6-cb30-40d9-a272-8d8274017c5e"},"vehicle_type_id":"4","last_reported":1718381361,"current_range_meters":13200,"station_id":"ce4bgih2rcd13ifvqba0","pricing_plan_id":"cebpf4jnsgd1na2vs0mg"},{"bike_id":"7a26be0e-9e85-4cc1-a4cb-e5f13d83dd45","system_id":"levelo_inurba_marseille","lat":43.29529,"lon":5.385581,"is_reserved":false,"is_disabled":false,"rental_uris":{"android":"levelo://app?vid=7a26be0e-9e85-4cc1-a4cb-e5f13d83dd45","ios":"levelo://app?vid=7a26be0e-9e85-4cc1-a4cb-e5f13d83dd45"},"vehicle_type_id":"4","last_reported":1718381361,"current_range_meters":20000,"station_id":"ce4bgih2rcd13ifvqba0","pricing_plan_id":"cebpf4jnsgd1na2vs0mg"},{"bike_id":"a77b5d4d-a055-4531-96dc-17470d136879","system_id":"levelo_inurba_marseille","lat":43.29529,"lon":5.385581,"is_reserved":false,"is_disabled":false,"rental_uris":{"android":"levelo://app?vid=a77b5d4d-a055-4531-96dc-17470d136879","ios":"levelo://app?vid=a77b5d4d-a055-4531-96dc-17470d136879"},"vehicle_type_id":"4","last_reported":1718381361,"current_range_meters":6800,"station_id":"ce4bgih2rcd13ifvqba0","pricing_plan_id":"cebpf4jnsgd1na2vs0mg"},{"bike_id":"7228b273-df1e-4d1d-a079-5ba9931bcd6b","system_id":"levelo_inurba_marseille","lat":43.29529,"lon":5.385581,"is_reserved":false,"is_disabled":false,"rental_uris":{"android":"levelo://app?vid=7228b273-df1e-4d1d-a079-5ba9931bcd6b","ios":"levelo://app?vid=7228b273-df1e-4d1d-a079-5ba9931bcd6b"},"vehicle_type_id":"4","last_reported":1718381361,"current_range_meters":3200,"station_id":"ce4bgih2rcd13ifvqba0","pricing_plan_id":"cebpf4jnsgd1na2vs0mg"},{"bike_id":"e5299928-7834-4bf9-87e4-c4c3a5f457e7","system_id":"levelo_inurba_marseille","lat":43.290779,"lon":5.371482,"is_reserved":false,"is_disabled":false,"rental_uris":{"android":"levelo://app?vid=e5299928-7834-4bf9-87e4-c4c3a5f457e7","ios":"levelo://app?vid=e5299928-7834-4bf9-87e4-c4c3a5f457e7"},"vehicle_type_id":"4","last_reported":1718381361,"current_range_meters":1600,"station_id":"ce4bh5p2rcd13ifvqe4g","pricing_plan_id":"cebpf4jnsgd1na2vs0mg"},{"bike_id":"0d8700f6-38b0-4fcc-8959-a326b9d9780e","system_id":"levelo_inurba_marseille","lat":43.290779,"lon":5.371482,"is_reserved":false,"is_disabled":false,"rental_uris":{"android":"levelo://app?vid=0d8700f6-38b0-4fcc-8959-a326b9d9780e","ios":"levelo://app?vid=0d8700f6-38b0-4fcc-8959-a326b9d9780e"},"vehicle_type_id":"4","last_reported":1718381361,"current_range_meters":8400,"station_id":"ce4bh5p2rcd13ifvqe4g","pricing_plan_id":"cebpf4jnsgd1na2vs0mg"},{"bike_id":"3a502d67-d8fa-4b20-bcd7-7d5af8c97351","system_id":"levelo_inurba_marseille","lat":43.30208,"lon":5.39467,"is_reserved":false,"is_disabled":false,"rental_uris":{"android":"levelo://app?vid=3a502d67-d8fa-4b20-bcd7-7d5af8c97351","ios":"levelo://app?vid=3a502d67-d8fa-4b20-bcd7-7d5af8c97351"},"vehicle_type_id":"4","last_reported":1718381361,"current_range_meters":0,"station_id":"ce4bh0p2rcd13ifvqd70","pricing_plan_id":"cebpf4jnsgd1na2vs0mg"},{"bike_id":"4f8c6b4d-d72b-41ea-a585-97d1133a1365","system_id":"levelo_inurba_marseille","lat":43.302008,"lon":5.394694,"is_reserved":false,"is_disabled":false,"rental_uris":{"android":"levelo://app?vid=4f8c6b4d-d72b-41ea-a585-97d1133a1365","ios":"levelo://app?vid=4f8c6b4d-d72b-41ea-a585-97d1133a1365"},"vehicle_type_id":"4","last_reported":1718381361,"current_range_meters":14800,"station_id":"ce4bh0p2rcd13ifvqd70","pricing_plan_id":"cebpf4jnsgd1na2vs0mg"},{"bike_id":"718f52e2-1503-48ac-862e-1c6a86364ffd","system_id":"levelo_inurba_marseille","lat":43.30213,"lon":5.39481,"is_reserved":false,"is_disabled":false,"rental_uris":{"android":"levelo://app?vid=718f52e2-1503-48ac-862e-1c6a86364ffd","ios":"levelo://app?vid=718f52e2-1503-48ac-862e-1c6a86364ffd"},"vehicle_type_id":"4","last_reported":1718381361,"current_range_meters":0,"station_id":"ce4bh0p2rcd13ifvqd70","pricing_plan_id":"cebpf4jnsgd1na2vs0mg"},{"bike_id":"a391dc6d-358c-4c32-abd7-47d1d04a41fb","system_id":"levelo_inurba_marseille","lat":43.29423,"lon":5.38607,"is_reserved":false,"is_disabled":false,"rental_uris":{"android":"levelo://app?vid=a391dc6d-358c-4c32-abd7-47d1d04a41fb","ios":"levelo://app?vid=a391dc6d-358c-4c32-abd7-47d1d04a41fb"},"vehicle_type_id":"4","last_reported":1718381361,"current_range_meters":28400,"station_id":"ce4bh2h2rcd13ifvqdh0","pricing_plan_id":"cebpf4jnsgd1na2vs0mg"},{"bike_id":"47482abb-fc55-42a2-9151-b2efed2541aa","system_id":"levelo_inurba_marseille","lat":43.29422,"lon":5.3862,"is_reserved":false,"is_disabled":false,"rental_uris":{"android":"levelo://app?vid=47482abb-fc55-42a2-9151-b2efed2541aa","ios":"levelo://app?vid=47482abb-fc55-42a2-9151-b2efed2541aa"},"vehicle_type_id":"4","last_reported":1718381361,"current_range_meters":7200,"station_id":"ce4bh2h2rcd13ifvqdh0","pricing_plan_id":"cebpf4jnsgd1na2vs0mg"},{"bike_id":"b995bbd4-ac49-4361-b82d-dcce70594736","system_id":"levelo_inurba_marseille","lat":43.294153,"lon":5.386305,"is_reserved":false,"is_disabled":false,"rental_uris":{"android":"levelo://app?vid=b995bbd4-ac49-4361-b82d-dcce70594736","ios":"levelo://app?vid=b995bbd4-ac49-4361-b82d-dcce70594736"},"vehicle_type_id":"4","last_reported":1718381361,"current_range_meters":24000,"station_id":"ce4bh2h2rcd13ifvqdh0","pricing_plan_id":"cebpf4jnsgd1na2vs0mg"},{"bike_id":"a29ba53b-948f-4def-8cd8-bc9e8c696c1e","system_id":"levelo_inurba_marseille","lat":43.29418,"lon":5.38623,"is_reserved":false,"is_disabled":false,"rental_uris":{"android":"levelo://app?vid=a29ba53b-948f-4def-8cd8-bc9e8c696c1e","ios":"levelo://app?vid=a29ba53b-948f-4def-8cd8-bc9e8c696c1e"},"vehicle_type_id":"4","last_reported":1718381361,"current_range_meters":1600,"station_id":"ce4bh2h2rcd13ifvqdh0","pricing_plan_id":"cebpf4jnsgd1na2vs0mg"},{"bike_id":"a6651b50-3d3a-4b62-aca4-d1da87d3d482","system_id":"levelo_inurba_marseille","lat":43.29416,"lon":5.38622,"is_reserved":false,"is_disabled":false,"rental_uris":{"android":"levelo://app?vid=a6651b50-3d3a-4b62-aca4-d1da87d3d482","ios":"levelo://app?vid=a6651b50-3d3a-4b62-aca4-d1da87d3d482"},"vehicle_type_id":"4","last_reported":1718381361,"current_range_meters":15200,"station_id":"ce4bh2h2rcd13ifvqdh0","pricing_plan_id":"cebpf4jnsgd1na2vs0mg"},{"bike_id":"1820bca6-7982-45c4-9391-97a708d3365b","system_id":"levelo_inurba_marseille","lat":43.29416,"lon":5.38627,"is_reserved":false,"is_disabled":false,"rental_uris":{"android":"levelo://app?vid=1820bca6-7982-45c4-9391-97a708d3365b","ios":"levelo://app?vid=1820bca6-7982-45c4-9391-97a708d3365b"},"vehicle_type_id":"4","last_reported":1718381361,"current_range_meters":28000,"station_id":"ce4bh2h2rcd13ifvqdh0","pricing_plan_id":"cebpf4jnsgd1na2vs0mg"},{"bike_id":"570fa72c-4570-49d5-9b84-76df6b0c7cbf","system_id":"levelo_inurba_marseille","lat":43.29418,"lon":5.38632,"is_reserved":false,"is_disabled":false,"rental_uris":{"android":"levelo://app?vid=570fa72c-4570-49d5-9b84-76df6b0c7cbf","ios":"levelo://app?vid=570fa72c-4570-49d5-9b84-76df6b0c7cbf"},"vehicle_type_id":"4","last_reported":1718381361,"current_range_meters":22400,"station_id":"ce4bh2h2rcd13ifvqdh0","pricing_plan_id":"cebpf4jnsgd1na2vs0mg"},{"bike_id":"290ba59b-3dec-4d40-a048-57ee339c3a2e","system_id":"levelo_inurba_marseille","lat":43.29416,"lon":5.3863,"is_reserved":false,"is_disabled":false,"rental_uris":{"android":"levelo://app?vid=290ba59b-3dec-4d40-a048-57ee339c3a2e","ios":"levelo://app?vid=290ba59b-3dec-4d40-a048-57ee339c3a2e"},"vehicle_type_id":"4","last_reported":1718381361,"current_range_meters":14800,"station_id":"ce4bh2h2rcd13ifvqdh0","pricing_plan_id":"cebpf4jnsgd1na2vs0mg"},{"bike_id":"24744361-8097-40ee-bf11-82b760e7e4fe","system_id":"levelo_inurba_marseille","lat":43.29415,"lon":5.38629,"is_reserved":false,"is_disabled":false,"rental_uris":{"android":"levelo://app?vid=24744361-8097-40ee-bf11-82b760e7e4fe","ios":"levelo://app?vid=24744361-8097-40ee-bf11-82b760e7e4fe"},"vehicle_type_id":"4","last_reported":1718381361,"current_range_meters":27200,"station_id":"ce4bh2h2rcd13ifvqdh0","pricing_plan_id":"cebpf4jnsgd1na2vs0mg"},{"bike_id":"11b8f28c-c222-48ec-81a5-d70fbb591286","system_id":"levelo_inurba_marseille","lat":43.294162,"lon":5.386292,"is_reserved":false,"is_disabled":false,"rental_uris":{"android":"levelo://app?vid=11b8f28c-c222-48ec-81a5-d70fbb591286","ios":"levelo://app?vid=11b8f28c-c222-48ec-81a5-d70fbb591286"},"vehicle_type_id":"4","last_reported":1718381361,"current_range_meters":13200,"station_id":"ce4bh2h2rcd13ifvqdh0","pricing_plan_id":"cebpf4jnsgd1na2vs0mg"},{"bike_id":"b2159172-9025-4c76-94ae-6c012450aae6","system_id":"levelo_inurba_marseille","lat":43.289184,"lon":5.366408,"is_reserved":false,"is_disabled":false,"rental_uris":{"android":"levelo://app?vid=b2159172-9025-4c76-94ae-6c012450aae6","ios":"levelo://app?vid=b2159172-9025-4c76-94ae-6c012450aae6"},"vehicle_type_id":"4","last_reported":1718381361,"current_range_meters":4800,"station_id":"ce4bhap2rcd13ifvqek0","pricing_plan_id":"cebpf4jnsgd1na2vs0mg"},{"bike_id":"7e421e47-946f-46de-a1c6-69975d84e284","system_id":"levelo_inurba_marseille","lat":43.29026,"lon":5.37559,"is_reserved":false,"is_disabled":false,"rental_uris":{"android":"levelo://app?vid=7e421e47-946f-46de-a1c6-69975d84e284","ios":"levelo://app?vid=7e421e47-946f-46de-a1c6-69975d84e284"},"vehicle_type_id":"4","last_reported":1718381361,"current_range_meters":0,"station_id":"ce4bh692rcd13ifvqe90","pricing_plan_id":"cebpf4jnsgd1na2vs0mg"},{"bike_id":"60b4fd0e-a4a7-4134-ace6-3056ce7fe86b","system_id":"levelo_inurba_marseille","lat":43.289184,"lon":5.366408,"is_reserved":false,"is_disabled":false,"rental_uris":{"android":"levelo://app?vid=60b4fd0e-a4a7-4134-ace6-3056ce7fe86b","ios":"levelo://app?vid=60b4fd0e-a4a7-4134-ace6-3056ce7fe86b"},"vehicle_type_id":"4","last_reported":1718381361,"current_range_meters":27200,"station_id":"ce4bhap2rcd13ifvqek0","pricing_plan_id":"cebpf4jnsgd1na2vs0mg"},{"bike_id":"c500e6ec-41d8-4112-9f85-5d5543c2f7f5","system_id":"levelo_inurba_marseille","lat":43.290319,"lon":5.375732,"is_reserved":false,"is_disabled":false,"rental_uris":{"android":"levelo://app?vid=c500e6ec-41d8-4112-9f85-5d5543c2f7f5","ios":"levelo://app?vid=c500e6ec-41d8-4112-9f85-5d5543c2f7f5"},"vehicle_type_id":"4","last_reported":1718381361,"current_range_meters":0,"station_id":"ce4bh692rcd13ifvqe90","pricing_plan_id":"cebpf4jnsgd1na2vs0mg"},{"bike_id":"83af51a4-5a95-4692-8431-60dbb8fcc725","system_id":"levelo_inurba_marseille","lat":43.289184,"lon":5.366408,"is_reserved":false,"is_disabled":false,"rental_uris":{"android":"levelo://app?vid=83af51a4-5a95-4692-8431-60dbb8fcc725","ios":"levelo://app?vid=83af51a4-5a95-4692-8431-60dbb8fcc725"},"vehicle_type_id":"4","last_reported":1718381361,"current_range_meters":4400,"station_id":"ce4bhap2rcd13ifvqek0","pricing_plan_id":"cebpf4jnsgd1na2vs0mg"},{"bike_id":"34a3f852-1564-4181-b436-a13b6c175103","system_id":"levelo_inurba_marseille","lat":43.289468,"lon":5.363719,"is_reserved":false,"is_disabled":false,"rental_uris":{"android":"levelo://app?vid=34a3f852-1564-4181-b436-a13b6c175103","ios":"levelo://app?vid=34a3f852-1564-4181-b436-a13b6c175103"},"vehicle_type_id":"4","last_reported":1718381361,"current_range_meters":1200,"station_id":"ce4bhc92rcd13ifvqetg","pricing_plan_id":"cebpf4jnsgd1na2vs0mg"},{"bike_id":"9db0fd3c-f537-462b-ad39-7647dfa0401c","system_id":"levelo_inurba_marseille","lat":43.289184,"lon":5.366408,"is_reserved":false,"is_disabled":false,"rental_uris":{"android":"levelo://app?vid=9db0fd3c-f537-462b-ad39-7647dfa0401c","ios":"levelo://app?vid=9db0fd3c-f537-462b-ad39-7647dfa0401c"},"vehicle_type_id":"4","last_reported":1718381361,"current_range_meters":19600,"station_id":"ce4bhap2rcd13ifvqek0","pricing_plan_id":"cebpf4jnsgd1na2vs0mg"},{"bike_id":"fb1c36ea-4266-4aae-8784-510a6af693e3","system_id":"levelo_inurba_marseille","lat":43.289184,"lon":5.366408,"is_reserved":false,"is_disabled":false,"rental_uris":{"android":"levelo://app?vid=fb1c36ea-4266-4aae-8784-510a6af693e3","ios":"levelo://app?vid=fb1c36ea-4266-4aae-8784-510a6af693e3"},"vehicle_type_id":"4","last_reported":1718381361,"current_range_meters":2400,"station_id":"ce4bhap2rcd13ifvqek0","pricing_plan_id":"cebpf4jnsgd1na2vs0mg"},{"bike_id":"3393e4e6-d788-4a5f-a426-ea43c6b91e51","system_id":"levelo_inurba_marseille","lat":43.289184,"lon":5.366408,"is_reserved":false,"is_disabled":false,"rental_uris":{"android":"levelo://app?vid=3393e4e6-d788-4a5f-a426-ea43c6b91e51","ios":"levelo://app?vid=3393e4e6-d788-4a5f-a426-ea43c6b91e51"},"vehicle_type_id":"4","last_reported":1718381361,"current_range_meters":5200,"station_id":"ce4bhap2rcd13ifvqek0","pricing_plan_id":"cebpf4jnsgd1na2vs0mg"},{"bike_id":"c76fe07a-2c31-48bd-82b1-d0c0533aefc3","system_id":"levelo_inurba_marseille","lat":43.304296,"lon":5.397513,"is_reserved":false,"is_disabled":false,"rental_uris":{"android":"levelo://app?vid=c76fe07a-2c31-48bd-82b1-d0c0533aefc3","ios":"levelo://app?vid=c76fe07a-2c31-48bd-82b1-d0c0533aefc3"},"vehicle_type_id":"4","last_reported":1718381361,"current_range_meters":2400,"station_id":"ce4bh092rcd13ifvqd20","pricing_plan_id":"cebpf4jnsgd1na2vs0mg"},{"bike_id":"4d7e8cdd-3c6d-43b4-9646-f8d2e2d5b7b6","system_id":"levelo_inurba_marseille","lat":43.289468,"lon":5.363719,"is_reserved":false,"is_disabled":false,"rental_uris":{"android":"levelo://app?vid=4d7e8cdd-3c6d-43b4-9646-f8d2e2d5b7b6","ios":"levelo://app?vid=4d7e8cdd-3c6d-43b4-9646-f8d2e2d5b7b6"},"vehicle_type_id":"4","last_reported":1718381361,"current_range_meters":5200,"station_id":"ce4bhc92rcd13ifvqetg","pricing_plan_id":"cebpf4jnsgd1na2vs0mg"},{"bike_id":"e58f4e10-d994-4dda-8aa7-7087ea932407","system_id":"levelo_inurba_marseille","lat":43.304274,"lon":5.397513,"is_reserved":false,"is_disabled":false,"rental_uris":{"android":"levelo://app?vid=e58f4e10-d994-4dda-8aa7-7087ea932407","ios":"levelo://app?vid=e58f4e10-d994-4dda-8aa7-7087ea932407"},"vehicle_type_id":"4","last_reported":1718381361,"current_range_meters":0,"station_id":"ce4bh092rcd13ifvqd20","pricing_plan_id":"cebpf4jnsgd1na2vs0mg"},{"bike_id":"e28fbd37-691c-4b5a-ba6b-2f18fe245c22","system_id":"levelo_inurba_marseille","lat":43.292642,"lon":5.384254,"is_reserved":false,"is_disabled":false,"rental_uris":{"android":"levelo://app?vid=e28fbd37-691c-4b5a-ba6b-2f18fe245c22","ios":"levelo://app?vid=e28fbd37-691c-4b5a-ba6b-2f18fe245c22"},"vehicle_type_id":"4","last_reported":1718381361,"current_range_meters":27200,"station_id":"ce4bh692rcd13ifvqea0","pricing_plan_id":"cebpf4jnsgd1na2vs0mg"},{"bike_id":"9581aa82-d726-4317-8091-f38e0fe95446","system_id":"levelo_inurba_marseille","lat":43.29262,"lon":5.38443,"is_reserved":false,"is_disabled":false,"rental_uris":{"android":"levelo://app?vid=9581aa82-d726-4317-8091-f38e0fe95446","ios":"levelo://app?vid=9581aa82-d726-4317-8091-f38e0fe95446"},"vehicle_type_id":"4","last_reported":1718381361,"current_range_meters":0,"station_id":"ce4bh692rcd13ifvqea0","pricing_plan_id":"cebpf4jnsgd1na2vs0mg"},{"bike_id":"6e3e88b1-299f-4cc8-9aab-4824ae7ad947","system_id":"levelo_inurba_marseille","lat":43.292642,"lon":5.384254,"is_reserved":false,"is_disabled":false,"rental_uris":{"android":"levelo://app?vid=6e3e88b1-299f-4cc8-9aab-4824ae7ad947","ios":"levelo://app?vid=6e3e88b1-299f-4cc8-9aab-4824ae7ad947"},"vehicle_type_id":"4","last_reported":1718381361,"current_range_meters":29600,"station_id":"ce4bh692rcd13ifvqea0","pricing_plan_id":"cebpf4jnsgd1na2vs0mg"},{"bike_id":"c66a106e-ecc4-43c4-9956-04f32ab4aaa1","system_id":"levelo_inurba_marseille","lat":43.292644,"lon":5.384257,"is_reserved":false,"is_disabled":false,"rental_uris":{"android":"levelo://app?vid=c66a106e-ecc4-43c4-9956-04f32ab4aaa1","ios":"levelo://app?vid=c66a106e-ecc4-43c4-9956-04f32ab4aaa1"},"vehicle_type_id":"4","last_reported":1718381361,"current_range_meters":800,"station_id":"ce4bh692rcd13ifvqea0","pricing_plan_id":"cebpf4jnsgd1na2vs0mg"},{"bike_id":"eef6bebc-a8b4-490f-9282-5cc5ec96caa9","system_id":"levelo_inurba_marseille","lat":43.292642,"lon":5.384254,"is_reserved":false,"is_disabled":false,"rental_uris":{"android":"levelo://app?vid=eef6bebc-a8b4-490f-9282-5cc5ec96caa9","ios":"levelo://app?vid=eef6bebc-a8b4-490f-9282-5cc5ec96caa9"},"vehicle_type_id":"4","last_reported":1718381361,"current_range_meters":400,"station_id":"ce4bh692rcd13ifvqea0","pricing_plan_id":"cebpf4jnsgd1na2vs0mg"},{"bike_id":"d636b69c-2e7a-46bd-a32c-5c3dcd3b3217","system_id":"levelo_inurba_marseille","lat":43.290103,"lon":5.356114,"is_reserved":false,"is_disabled":false,"rental_uris":{"android":"levelo://app?vid=d636b69c-2e7a-46bd-a32c-5c3dcd3b3217","ios":"levelo://app?vid=d636b69c-2e7a-46bd-a32c-5c3dcd3b3217"},"vehicle_type_id":"4","last_reported":1718381361,"current_range_meters":30000,"station_id":"ce4bhb92rcd13ifvqen0","pricing_plan_id":"cebpf4jnsgd1na2vs0mg"},{"bike_id":"73fe7a16-5e49-4888-b54a-bec623f3c6c8","system_id":"levelo_inurba_marseille","lat":43.290103,"lon":5.356114,"is_reserved":false,"is_disabled":false,"rental_uris":{"android":"levelo://app?vid=73fe7a16-5e49-4888-b54a-bec623f3c6c8","ios":"levelo://app?vid=73fe7a16-5e49-4888-b54a-bec623f3c6c8"},"vehicle_type_id":"4","last_reported":1718381361,"current_range_meters":20400,"station_id":"ce4bhb92rcd13ifvqen0","pricing_plan_id":"cebpf4jnsgd1na2vs0mg"},{"bike_id":"fc42cd7f-edce-4cde-b203-b2662bcb21bb","system_id":"levelo_inurba_marseille","lat":43.290103,"lon":5.356114,"is_reserved":false,"is_disabled":false,"rental_uris":{"android":"levelo://app?vid=fc42cd7f-edce-4cde-b203-b2662bcb21bb","ios":"levelo://app?vid=fc42cd7f-edce-4cde-b203-b2662bcb21bb"},"vehicle_type_id":"4","last_reported":1718381361,"current_range_meters":26800,"station_id":"ce4bhb92rcd13ifvqen0","pricing_plan_id":"cebpf4jnsgd1na2vs0mg"},{"bike_id":"cb95b07c-de28-4abe-bdbf-042ea6a164fb","system_id":"levelo_inurba_marseille","lat":43.290995,"lon":5.381361,"is_reserved":false,"is_disabled":false,"rental_uris":{"android":"levelo://app?vid=cb95b07c-de28-4abe-bdbf-042ea6a164fb","ios":"levelo://app?vid=cb95b07c-de28-4abe-bdbf-042ea6a164fb"},"vehicle_type_id":"4","last_reported":1718381361,"current_range_meters":28800,"station_id":"ce4bh512rcd13ifvqe2g","pricing_plan_id":"cebpf4jnsgd1na2vs0mg"},{"bike_id":"6207e33e-2307-456f-89fc-3e6d8f46cf5d","system_id":"levelo_inurba_marseille","lat":43.290995,"lon":5.381361,"is_reserved":false,"is_disabled":false,"rental_uris":{"android":"levelo://app?vid=6207e33e-2307-456f-89fc-3e6d8f46cf5d","ios":"levelo://app?vid=6207e33e-2307-456f-89fc-3e6d8f46cf5d"},"vehicle_type_id":"4","last_reported":1718381361,"current_range_meters":0,"station_id":"ce4bh512rcd13ifvqe2g","pricing_plan_id":"cebpf4jnsgd1na2vs0mg"},{"bike_id":"791b683c-d0be-4b8b-b60a-6e65ea16dad5","system_id":"levelo_inurba_marseille","lat":43.33021,"lon":5.39025,"is_reserved":false,"is_disabled":false,"rental_uris":{"android":"levelo://app?vid=791b683c-d0be-4b8b-b60a-6e65ea16dad5","ios":"levelo://app?vid=791b683c-d0be-4b8b-b60a-6e65ea16dad5"},"vehicle_type_id":"4","last_reported":1718381361,"current_range_meters":30400,"station_id":"ce4bhr92rcd13ifvqhrg","pricing_plan_id":"cebpf4jnsgd1na2vs0mg"},{"bike_id":"6530e595-2df2-4d2a-9c08-de33a38d2945","system_id":"levelo_inurba_marseille","lat":43.295169,"lon":5.390426,"is_reserved":false,"is_disabled":false,"rental_uris":{"android":"levelo://app?vid=6530e595-2df2-4d2a-9c08-de33a38d2945","ios":"levelo://app?vid=6530e595-2df2-4d2a-9c08-de33a38d2945"},"vehicle_type_id":"4","last_reported":1718381361,"current_range_meters":0,"station_id":"ce4bh3p2rcd13ifvqdp0","pricing_plan_id":"cebpf4jnsgd1na2vs0mg"},{"bike_id":"70ff4d6d-8bb3-4a9f-8564-6feb6c5edabf","system_id":"levelo_inurba_marseille","lat":43.330442,"lon":5.389148,"is_reserved":false,"is_disabled":false,"rental_uris":{"android":"levelo://app?vid=70ff4d6d-8bb3-4a9f-8564-6feb6c5edabf","ios":"levelo://app?vid=70ff4d6d-8bb3-4a9f-8564-6feb6c5edabf"},"vehicle_type_id":"4","last_reported":1718381361,"current_range_meters":29600,"station_id":"ce4bhr92rcd13ifvqhrg","pricing_plan_id":"cebpf4jnsgd1na2vs0mg"},{"bike_id":"7e0195ab-c38c-47e6-a2ea-36d52bb042cd","system_id":"levelo_inurba_marseille","lat":43.33025,"lon":5.39039,"is_reserved":false,"is_disabled":false,"rental_uris":{"android":"levelo://app?vid=7e0195ab-c38c-47e6-a2ea-36d52bb042cd","ios":"levelo://app?vid=7e0195ab-c38c-47e6-a2ea-36d52bb042cd"},"vehicle_type_id":"4","last_reported":1718381361,"current_range_meters":4800,"station_id":"ce4bhr92rcd13ifvqhrg","pricing_plan_id":"cebpf4jnsgd1na2vs0mg"},{"bike_id":"a0f4e943-9fa7-498e-b9eb-db235fa45f3f","system_id":"levelo_inurba_marseille","lat":43.330442,"lon":5.389148,"is_reserved":false,"is_disabled":false,"rental_uris":{"android":"levelo://app?vid=a0f4e943-9fa7-498e-b9eb-db235fa45f3f","ios":"levelo://app?vid=a0f4e943-9fa7-498e-b9eb-db235fa45f3f"},"vehicle_type_id":"4","last_reported":1718381361,"current_range_meters":31200,"station_id":"ce4bhr92rcd13ifvqhrg","pricing_plan_id":"cebpf4jnsgd1na2vs0mg"},{"bike_id":"7edfcf89-2f07-4a15-97e7-8e193c9b4d46","system_id":"levelo_inurba_marseille","lat":43.33026,"lon":5.39043,"is_reserved":false,"is_disabled":false,"rental_uris":{"android":"levelo://app?vid=7edfcf89-2f07-4a15-97e7-8e193c9b4d46","ios":"levelo://app?vid=7edfcf89-2f07-4a15-97e7-8e193c9b4d46"},"vehicle_type_id":"4","last_reported":1718381361,"current_range_meters":31200,"station_id":"ce4bhr92rcd13ifvqhrg","pricing_plan_id":"cebpf4jnsgd1na2vs0mg"},{"bike_id":"1f9c0157-b48a-441a-acfe-d869bb050b1e","system_id":"levelo_inurba_marseille","lat":43.330442,"lon":5.389148,"is_reserved":false,"is_disabled":false,"rental_uris":{"android":"levelo://app?vid=1f9c0157-b48a-441a-acfe-d869bb050b1e","ios":"levelo://app?vid=1f9c0157-b48a-441a-acfe-d869bb050b1e"},"vehicle_type_id":"4","last_reported":1718381361,"current_range_meters":9600,"station_id":"ce4bhr92rcd13ifvqhrg","pricing_plan_id":"cebpf4jnsgd1na2vs0mg"},{"bike_id":"c5e9ab4a-e926-4a8b-9cb8-2325b67d094b","system_id":"levelo_inurba_marseille","lat":43.330442,"lon":5.389148,"is_reserved":false,"is_disabled":false,"rental_uris":{"android":"levelo://app?vid=c5e9ab4a-e926-4a8b-9cb8-2325b67d094b","ios":"levelo://app?vid=c5e9ab4a-e926-4a8b-9cb8-2325b67d094b"},"vehicle_type_id":"4","last_reported":1718381361,"current_range_meters":30400,"station_id":"ce4bhr92rcd13ifvqhrg","pricing_plan_id":"cebpf4jnsgd1na2vs0mg"},{"bike_id":"ef7233ad-3dd5-4e4f-b43c-17c7b3985931","system_id":"levelo_inurba_marseille","lat":43.33025,"lon":5.39048,"is_reserved":false,"is_disabled":false,"rental_uris":{"android":"levelo://app?vid=ef7233ad-3dd5-4e4f-b43c-17c7b3985931","ios":"levelo://app?vid=ef7233ad-3dd5-4e4f-b43c-17c7b3985931"},"vehicle_type_id":"4","last_reported":1718381361,"current_range_meters":28800,"station_id":"ce4bhr92rcd13ifvqhrg","pricing_plan_id":"cebpf4jnsgd1na2vs0mg"},{"bike_id":"b264ddfa-bf63-40fc-be07-bbde3f5e9e89","system_id":"levelo_inurba_marseille","lat":43.33023,"lon":5.39051,"is_reserved":false,"is_disabled":false,"rental_uris":{"android":"levelo://app?vid=b264ddfa-bf63-40fc-be07-bbde3f5e9e89","ios":"levelo://app?vid=b264ddfa-bf63-40fc-be07-bbde3f5e9e89"},"vehicle_type_id":"4","last_reported":1718381361,"current_range_meters":22800,"station_id":"ce4bhr92rcd13ifvqhrg","pricing_plan_id":"cebpf4jnsgd1na2vs0mg"},{"bike_id":"710d31fc-672f-4cac-b05d-5b550a507ba2","system_id":"levelo_inurba_marseille","lat":43.33029,"lon":5.39043,"is_reserved":false,"is_disabled":false,"rental_uris":{"android":"levelo://app?vid=710d31fc-672f-4cac-b05d-5b550a507ba2","ios":"levelo://app?vid=710d31fc-672f-4cac-b05d-5b550a507ba2"},"vehicle_type_id":"4","last_reported":1718381361,"current_range_meters":24000,"station_id":"ce4bhr92rcd13ifvqhrg","pricing_plan_id":"cebpf4jnsgd1na2vs0mg"},{"bike_id":"26091965-4ab2-47ed-a155-68e432590dbd","system_id":"levelo_inurba_marseille","lat":43.33023,"lon":5.39052,"is_reserved":false,"is_disabled":false,"rental_uris":{"android":"levelo://app?vid=26091965-4ab2-47ed-a155-68e432590dbd","ios":"levelo://app?vid=26091965-4ab2-47ed-a155-68e432590dbd"},"vehicle_type_id":"4","last_reported":1718381361,"current_range_meters":17600,"station_id":"ce4bhr92rcd13ifvqhrg","pricing_plan_id":"cebpf4jnsgd1na2vs0mg"},{"bike_id":"85952132-cd6b-4482-8c6d-92b54171ff4f","system_id":"levelo_inurba_marseille","lat":43.33027,"lon":5.39048,"is_reserved":false,"is_disabled":false,"rental_uris":{"android":"levelo://app?vid=85952132-cd6b-4482-8c6d-92b54171ff4f","ios":"levelo://app?vid=85952132-cd6b-4482-8c6d-92b54171ff4f"},"vehicle_type_id":"4","last_reported":1718381361,"current_range_meters":5600,"station_id":"ce4bhr92rcd13ifvqhrg","pricing_plan_id":"cebpf4jnsgd1na2vs0mg"},{"bike_id":"390fa063-28f9-4b6d-a561-19983b390097","system_id":"levelo_inurba_marseille","lat":43.330442,"lon":5.389148,"is_reserved":false,"is_disabled":false,"rental_uris":{"android":"levelo://app?vid=390fa063-28f9-4b6d-a561-19983b390097","ios":"levelo://app?vid=390fa063-28f9-4b6d-a561-19983b390097"},"vehicle_type_id":"4","last_reported":1718381361,"current_range_meters":26000,"station_id":"ce4bhr92rcd13ifvqhrg","pricing_plan_id":"cebpf4jnsgd1na2vs0mg"},{"bike_id":"6f104827-f182-4bd9-908a-497e3d50a92d","system_id":"levelo_inurba_marseille","lat":43.330442,"lon":5.389148,"is_reserved":false,"is_disabled":false,"rental_uris":{"android":"levelo://app?vid=6f104827-f182-4bd9-908a-497e3d50a92d","ios":"levelo://app?vid=6f104827-f182-4bd9-908a-497e3d50a92d"},"vehicle_type_id":"4","last_reported":1718381361,"current_range_meters":30000,"station_id":"ce4bhr92rcd13ifvqhrg","pricing_plan_id":"cebpf4jnsgd1na2vs0mg"},{"bike_id":"2eaf9167-c7a9-410e-bc14-514124819766","system_id":"levelo_inurba_marseille","lat":43.295169,"lon":5.390426,"is_reserved":false,"is_disabled":false,"rental_uris":{"android":"levelo://app?vid=2eaf9167-c7a9-410e-bc14-514124819766","ios":"levelo://app?vid=2eaf9167-c7a9-410e-bc14-514124819766"},"vehicle_type_id":"4","last_reported":1718381361,"current_range_meters":2400,"station_id":"ce4bh3p2rcd13ifvqdp0","pricing_plan_id":"cebpf4jnsgd1na2vs0mg"},{"bike_id":"48654ab6-7cd6-4dc2-8a26-d930a007c3a2","system_id":"levelo_inurba_marseille","lat":43.28856,"lon":5.358371,"is_reserved":false,"is_disabled":false,"rental_uris":{"android":"levelo://app?vid=48654ab6-7cd6-4dc2-8a26-d930a007c3a2","ios":"levelo://app?vid=48654ab6-7cd6-4dc2-8a26-d930a007c3a2"},"vehicle_type_id":"4","last_reported":1718381361,"current_range_meters":4000,"station_id":"ce4bhb12rcd13ifvqem0","pricing_plan_id":"cebpf4jnsgd1na2vs0mg"},{"bike_id":"65fe7b6b-452d-4ab6-9251-cafae4400ac9","system_id":"levelo_inurba_marseille","lat":43.28856,"lon":5.358371,"is_reserved":false,"is_disabled":false,"rental_uris":{"android":"levelo://app?vid=65fe7b6b-452d-4ab6-9251-cafae4400ac9","ios":"levelo://app?vid=65fe7b6b-452d-4ab6-9251-cafae4400ac9"},"vehicle_type_id":"4","last_reported":1718381361,"current_range_meters":20800,"station_id":"ce4bhb12rcd13ifvqem0","pricing_plan_id":"cebpf4jnsgd1na2vs0mg"},{"bike_id":"2828a4b5-2a91-42ec-866e-c52862721764","system_id":"levelo_inurba_marseille","lat":43.28856,"lon":5.358371,"is_reserved":false,"is_disabled":false,"rental_uris":{"android":"levelo://app?vid=2828a4b5-2a91-42ec-866e-c52862721764","ios":"levelo://app?vid=2828a4b5-2a91-42ec-866e-c52862721764"},"vehicle_type_id":"4","last_reported":1718381361,"current_range_meters":6000,"station_id":"ce4bhb12rcd13ifvqem0","pricing_plan_id":"cebpf4jnsgd1na2vs0mg"},{"bike_id":"9a469ff5-df1e-49bc-a00c-d72a35460103","system_id":"levelo_inurba_marseille","lat":43.28856,"lon":5.358371,"is_reserved":false,"is_disabled":false,"rental_uris":{"android":"levelo://app?vid=9a469ff5-df1e-49bc-a00c-d72a35460103","ios":"levelo://app?vid=9a469ff5-df1e-49bc-a00c-d72a35460103"},"vehicle_type_id":"4","last_reported":1718381361,"current_range_meters":8800,"station_id":"ce4bhb12rcd13ifvqem0","pricing_plan_id":"cebpf4jnsgd1na2vs0mg"},{"bike_id":"85606331-ba60-45ce-ab42-7ace0b75ca39","system_id":"levelo_inurba_marseille","lat":43.28856,"lon":5.358371,"is_reserved":false,"is_disabled":false,"rental_uris":{"android":"levelo://app?vid=85606331-ba60-45ce-ab42-7ace0b75ca39","ios":"levelo://app?vid=85606331-ba60-45ce-ab42-7ace0b75ca39"},"vehicle_type_id":"4","last_reported":1718381361,"current_range_meters":1200,"station_id":"ce4bhb12rcd13ifvqem0","pricing_plan_id":"cebpf4jnsgd1na2vs0mg"},{"bike_id":"21261ed1-53d4-4935-b7c2-a1109571bf79","system_id":"levelo_inurba_marseille","lat":43.312609,"lon":5.401662,"is_reserved":false,"is_disabled":false,"rental_uris":{"android":"levelo://app?vid=21261ed1-53d4-4935-b7c2-a1109571bf79","ios":"levelo://app?vid=21261ed1-53d4-4935-b7c2-a1109571bf79"},"vehicle_type_id":"4","last_reported":1718381361,"current_range_meters":16000,"station_id":"ce4bh092rcd13ifvqd30","pricing_plan_id":"cebpf4jnsgd1na2vs0mg"},{"bike_id":"a189c089-3bc1-4f62-96df-37428266031f","system_id":"levelo_inurba_marseille","lat":43.309371,"lon":5.401449,"is_reserved":false,"is_disabled":false,"rental_uris":{"android":"levelo://app?vid=a189c089-3bc1-4f62-96df-37428266031f","ios":"levelo://app?vid=a189c089-3bc1-4f62-96df-37428266031f"},"vehicle_type_id":"4","last_reported":1718381361,"current_range_meters":18000,"station_id":"ce4bgvp2rcd13ifvqct0","pricing_plan_id":"cebpf4jnsgd1na2vs0mg"},{"bike_id":"ddaa8e50-4724-4d0b-85fd-bacc2fcbacf3","system_id":"levelo_inurba_marseille","lat":43.30929,"lon":5.4014,"is_reserved":false,"is_disabled":false,"rental_uris":{"android":"levelo://app?vid=ddaa8e50-4724-4d0b-85fd-bacc2fcbacf3","ios":"levelo://app?vid=ddaa8e50-4724-4d0b-85fd-bacc2fcbacf3"},"vehicle_type_id":"4","last_reported":1718381361,"current_range_meters":0,"station_id":"ce4bgvp2rcd13ifvqct0","pricing_plan_id":"cebpf4jnsgd1na2vs0mg"},{"bike_id":"e2a0d6a1-4965-464e-90d7-2a8aafac0c98","system_id":"levelo_inurba_marseille","lat":43.309371,"lon":5.401449,"is_reserved":false,"is_disabled":false,"rental_uris":{"android":"levelo://app?vid=e2a0d6a1-4965-464e-90d7-2a8aafac0c98","ios":"levelo://app?vid=e2a0d6a1-4965-464e-90d7-2a8aafac0c98"},"vehicle_type_id":"4","last_reported":1718381361,"current_range_meters":21600,"station_id":"ce4bgvp2rcd13ifvqct0","pricing_plan_id":"cebpf4jnsgd1na2vs0mg"},{"bike_id":"1ede11a9-2d11-4836-81aa-77f46c59c058","system_id":"levelo_inurba_marseille","lat":43.312609,"lon":5.401662,"is_reserved":false,"is_disabled":false,"rental_uris":{"android":"levelo://app?vid=1ede11a9-2d11-4836-81aa-77f46c59c058","ios":"levelo://app?vid=1ede11a9-2d11-4836-81aa-77f46c59c058"},"vehicle_type_id":"4","last_reported":1718381361,"current_range_meters":4000,"station_id":"ce4bh092rcd13ifvqd30","pricing_plan_id":"cebpf4jnsgd1na2vs0mg"},{"bike_id":"18ad8024-1ea1-4a9f-bc70-3db51b1c6666","system_id":"levelo_inurba_marseille","lat":43.31267,"lon":5.40174,"is_reserved":false,"is_disabled":false,"rental_uris":{"android":"levelo://app?vid=18ad8024-1ea1-4a9f-bc70-3db51b1c6666","ios":"levelo://app?vid=18ad8024-1ea1-4a9f-bc70-3db51b1c6666"},"vehicle_type_id":"4","last_reported":1718381361,"current_range_meters":1200,"station_id":"ce4bh092rcd13ifvqd30","pricing_plan_id":"cebpf4jnsgd1na2vs0mg"},{"bike_id":"b0cb5be7-cf0e-48f1-a187-89b035ead7bb","system_id":"levelo_inurba_marseille","lat":43.309371,"lon":5.401449,"is_reserved":false,"is_disabled":false,"rental_uris":{"android":"levelo://app?vid=b0cb5be7-cf0e-48f1-a187-89b035ead7bb","ios":"levelo://app?vid=b0cb5be7-cf0e-48f1-a187-89b035ead7bb"},"vehicle_type_id":"4","last_reported":1718381361,"current_range_meters":18800,"station_id":"ce4bgvp2rcd13ifvqct0","pricing_plan_id":"cebpf4jnsgd1na2vs0mg"},{"bike_id":"c28bb64e-7f28-4d4d-ae6f-9810ce6610b0","system_id":"levelo_inurba_marseille","lat":43.30932,"lon":5.40147,"is_reserved":false,"is_disabled":false,"rental_uris":{"android":"levelo://app?vid=c28bb64e-7f28-4d4d-ae6f-9810ce6610b0","ios":"levelo://app?vid=c28bb64e-7f28-4d4d-ae6f-9810ce6610b0"},"vehicle_type_id":"4","last_reported":1718381361,"current_range_meters":1200,"station_id":"ce4bgvp2rcd13ifvqct0","pricing_plan_id":"cebpf4jnsgd1na2vs0mg"},{"bike_id":"ab0af1ce-af92-4b4c-90aa-4acd5ca8b570","system_id":"levelo_inurba_marseille","lat":43.33752,"lon":5.37455,"is_reserved":false,"is_disabled":false,"rental_uris":{"android":"levelo://app?vid=ab0af1ce-af92-4b4c-90aa-4acd5ca8b570","ios":"levelo://app?vid=ab0af1ce-af92-4b4c-90aa-4acd5ca8b570"},"vehicle_type_id":"4","last_reported":1718381361,"current_range_meters":10000,"station_id":"","pricing_plan_id":"cebpf4jnsgd1na2vs0mg"},{"bike_id":"3ab4e3ec-07f5-4c5f-8645-e3937796c552","system_id":"levelo_inurba_marseille","lat":43.337562,"lon":5.3745,"is_reserved":false,"is_disabled":false,"rental_uris":{"android":"levelo://app?vid=3ab4e3ec-07f5-4c5f-8645-e3937796c552","ios":"levelo://app?vid=3ab4e3ec-07f5-4c5f-8645-e3937796c552"},"vehicle_type_id":"4","last_reported":1718381361,"current_range_meters":14000,"station_id":"","pricing_plan_id":"cebpf4jnsgd1na2vs0mg"},{"bike_id":"4606f127-24f6-49ab-9db3-cf76bf609f2b","system_id":"levelo_inurba_marseille","lat":43.33766,"lon":5.37423,"is_reserved":false,"is_disabled":false,"rental_uris":{"android":"levelo://app?vid=4606f127-24f6-49ab-9db3-cf76bf609f2b","ios":"levelo://app?vid=4606f127-24f6-49ab-9db3-cf76bf609f2b"},"vehicle_type_id":"4","last_reported":1718381361,"current_range_meters":13600,"station_id":"","pricing_plan_id":"cebpf4jnsgd1na2vs0mg"},{"bike_id":"f22dfcd2-9cfe-4940-ae7f-e06f361fcb5e","system_id":"levelo_inurba_marseille","lat":43.306412,"lon":5.401035,"is_reserved":false,"is_disabled":false,"rental_uris":{"android":"levelo://app?vid=f22dfcd2-9cfe-4940-ae7f-e06f361fcb5e","ios":"levelo://app?vid=f22dfcd2-9cfe-4940-ae7f-e06f361fcb5e"},"vehicle_type_id":"4","last_reported":1718381361,"current_range_meters":8400,"station_id":"ce4bh112rcd13ifvqda0","pricing_plan_id":"cebpf4jnsgd1na2vs0mg"},{"bike_id":"0a4d6e2c-34c1-4912-862b-8dcc1e319f4c","system_id":"levelo_inurba_marseille","lat":43.30642,"lon":5.401031,"is_reserved":false,"is_disabled":false,"rental_uris":{"android":"levelo://app?vid=0a4d6e2c-34c1-4912-862b-8dcc1e319f4c","ios":"levelo://app?vid=0a4d6e2c-34c1-4912-862b-8dcc1e319f4c"},"vehicle_type_id":"4","last_reported":1718381361,"current_range_meters":400,"station_id":"ce4bh112rcd13ifvqda0","pricing_plan_id":"cebpf4jnsgd1na2vs0mg"},{"bike_id":"d74283dd-eaed-41a8-b210-46a785f6eaa5","system_id":"levelo_inurba_marseille","lat":43.30642,"lon":5.401031,"is_reserved":false,"is_disabled":false,"rental_uris":{"android":"levelo://app?vid=d74283dd-eaed-41a8-b210-46a785f6eaa5","ios":"levelo://app?vid=d74283dd-eaed-41a8-b210-46a785f6eaa5"},"vehicle_type_id":"4","last_reported":1718381361,"current_range_meters":17600,"station_id":"ce4bh112rcd13ifvqda0","pricing_plan_id":"cebpf4jnsgd1na2vs0mg"},{"bike_id":"c998b751-a62d-4f53-940b-c56d105da9a1","system_id":"levelo_inurba_marseille","lat":43.30642,"lon":5.401031,"is_reserved":false,"is_disabled":false,"rental_uris":{"android":"levelo://app?vid=c998b751-a62d-4f53-940b-c56d105da9a1","ios":"levelo://app?vid=c998b751-a62d-4f53-940b-c56d105da9a1"},"vehicle_type_id":"4","last_reported":1718381361,"current_range_meters":6800,"station_id":"ce4bh112rcd13ifvqda0","pricing_plan_id":"cebpf4jnsgd1na2vs0mg"},{"bike_id":"de7a5acd-c3df-419c-98e5-54ca49c61d9b","system_id":"levelo_inurba_marseille","lat":43.306412,"lon":5.401035,"is_reserved":false,"is_disabled":false,"rental_uris":{"android":"levelo://app?vid=de7a5acd-c3df-419c-98e5-54ca49c61d9b","ios":"levelo://app?vid=de7a5acd-c3df-419c-98e5-54ca49c61d9b"},"vehicle_type_id":"4","last_reported":1718381361,"current_range_meters":15600,"station_id":"ce4bh112rcd13ifvqda0","pricing_plan_id":"cebpf4jnsgd1na2vs0mg"},{"bike_id":"84954a40-a201-4ff0-85d0-65a0782c65eb","system_id":"levelo_inurba_marseille","lat":43.301117,"lon":5.398795,"is_reserved":false,"is_disabled":false,"rental_uris":{"android":"levelo://app?vid=84954a40-a201-4ff0-85d0-65a0782c65eb","ios":"levelo://app?vid=84954a40-a201-4ff0-85d0-65a0782c65eb"},"vehicle_type_id":"4","last_reported":1718381361,"current_range_meters":26000,"station_id":"ce4bh0h2rcd13ifvqd40","pricing_plan_id":"cebpf4jnsgd1na2vs0mg"},{"bike_id":"0a14c763-2156-4c83-9d75-e4760ab0e387","system_id":"levelo_inurba_marseille","lat":43.301117,"lon":5.398795,"is_reserved":false,"is_disabled":false,"rental_uris":{"android":"levelo://app?vid=0a14c763-2156-4c83-9d75-e4760ab0e387","ios":"levelo://app?vid=0a14c763-2156-4c83-9d75-e4760ab0e387"},"vehicle_type_id":"4","last_reported":1718381361,"current_range_meters":8400,"station_id":"ce4bh0h2rcd13ifvqd40","pricing_plan_id":"cebpf4jnsgd1na2vs0mg"},{"bike_id":"29aa315b-c884-462d-9985-5354769f43a1","system_id":"levelo_inurba_marseille","lat":43.28727,"lon":5.36078,"is_reserved":false,"is_disabled":false,"rental_uris":{"android":"levelo://app?vid=29aa315b-c884-462d-9985-5354769f43a1","ios":"levelo://app?vid=29aa315b-c884-462d-9985-5354769f43a1"},"vehicle_type_id":"4","last_reported":1718381361,"current_range_meters":2000,"station_id":"cki0cbj6b192h4jlfktg","pricing_plan_id":"cebpf4jnsgd1na2vs0mg"},{"bike_id":"3524e4ef-d297-4600-a277-f5c2e7a85327","system_id":"levelo_inurba_marseille","lat":43.33802,"lon":5.374381,"is_reserved":false,"is_disabled":false,"rental_uris":{"android":"levelo://app?vid=3524e4ef-d297-4600-a277-f5c2e7a85327","ios":"levelo://app?vid=3524e4ef-d297-4600-a277-f5c2e7a85327"},"vehicle_type_id":"4","last_reported":1718381361,"current_range_meters":30400,"station_id":"","pricing_plan_id":"cebpf4jnsgd1na2vs0mg"},{"bike_id":"b686e0cb-453c-421f-bd25-b400a1002ee4","system_id":"levelo_inurba_marseille","lat":43.30128,"lon":5.39878,"is_reserved":false,"is_disabled":false,"rental_uris":{"android":"levelo://app?vid=b686e0cb-453c-421f-bd25-b400a1002ee4","ios":"levelo://app?vid=b686e0cb-453c-421f-bd25-b400a1002ee4"},"vehicle_type_id":"4","last_reported":1718381361,"current_range_meters":0,"station_id":"ce4bh0h2rcd13ifvqd40","pricing_plan_id":"cebpf4jnsgd1na2vs0mg"},{"bike_id":"2bc9da8a-aee6-4a32-81e9-13982749442c","system_id":"levelo_inurba_marseille","lat":43.30134,"lon":5.39887,"is_reserved":false,"is_disabled":false,"rental_uris":{"android":"levelo://app?vid=2bc9da8a-aee6-4a32-81e9-13982749442c","ios":"levelo://app?vid=2bc9da8a-aee6-4a32-81e9-13982749442c"},"vehicle_type_id":"4","last_reported":1718381361,"current_range_meters":31200,"station_id":"ce4bh0h2rcd13ifvqd40","pricing_plan_id":"cebpf4jnsgd1na2vs0mg"},{"bike_id":"38372b94-345a-4170-9a96-8a1edba40c8c","system_id":"levelo_inurba_marseille","lat":43.286961,"lon":5.373785,"is_reserved":false,"is_disabled":false,"rental_uris":{"android":"levelo://app?vid=38372b94-345a-4170-9a96-8a1edba40c8c","ios":"levelo://app?vid=38372b94-345a-4170-9a96-8a1edba40c8c"},"vehicle_type_id":"4","last_reported":1718381361,"current_range_meters":29600,"station_id":"ce4bh3p2rcd13ifvqdq0","pricing_plan_id":"cebpf4jnsgd1na2vs0mg"},{"bike_id":"c2051601-7ab0-46f1-b7a5-bdf7a4eefcca","system_id":"levelo_inurba_marseille","lat":43.286591,"lon":5.363346,"is_reserved":false,"is_disabled":false,"rental_uris":{"android":"levelo://app?vid=c2051601-7ab0-46f1-b7a5-bdf7a4eefcca","ios":"levelo://app?vid=c2051601-7ab0-46f1-b7a5-bdf7a4eefcca"},"vehicle_type_id":"4","last_reported":1718381361,"current_range_meters":16400,"station_id":"ce4bhah2rcd13ifvqej0","pricing_plan_id":"cebpf4jnsgd1na2vs0mg"},{"bike_id":"a7734b05-690b-440a-a2e1-b6a0999faa7c","system_id":"levelo_inurba_marseille","lat":43.298681,"lon":5.397225,"is_reserved":false,"is_disabled":false,"rental_uris":{"android":"levelo://app?vid=a7734b05-690b-440a-a2e1-b6a0999faa7c","ios":"levelo://app?vid=a7734b05-690b-440a-a2e1-b6a0999faa7c"},"vehicle_type_id":"4","last_reported":1718381361,"current_range_meters":9600,"station_id":"ce4bh0h2rcd13ifvqd50","pricing_plan_id":"cebpf4jnsgd1na2vs0mg"},{"bike_id":"8a93981a-5979-4165-a7da-a0da5c345924","system_id":"levelo_inurba_marseille","lat":43.28662,"lon":5.36349,"is_reserved":false,"is_disabled":false,"rental_uris":{"android":"levelo://app?vid=8a93981a-5979-4165-a7da-a0da5c345924","ios":"levelo://app?vid=8a93981a-5979-4165-a7da-a0da5c345924"},"vehicle_type_id":"4","last_reported":1718381361,"current_range_meters":0,"station_id":"ce4bhah2rcd13ifvqej0","pricing_plan_id":"cebpf4jnsgd1na2vs0mg"},{"bike_id":"1a1a81b8-fb77-462e-b699-f157157c0b10","system_id":"levelo_inurba_marseille","lat":43.29862,"lon":5.39739,"is_reserved":false,"is_disabled":false,"rental_uris":{"android":"levelo://app?vid=1a1a81b8-fb77-462e-b699-f157157c0b10","ios":"levelo://app?vid=1a1a81b8-fb77-462e-b699-f157157c0b10"},"vehicle_type_id":"4","last_reported":1718381361,"current_range_meters":4800,"station_id":"ce4bh0h2rcd13ifvqd50","pricing_plan_id":"cebpf4jnsgd1na2vs0mg"},{"bike_id":"2300f9f1-80a3-4c96-988d-706659e9df8e","system_id":"levelo_inurba_marseille","lat":43.295194,"lon":5.39397,"is_reserved":false,"is_disabled":false,"rental_uris":{"android":"levelo://app?vid=2300f9f1-80a3-4c96-988d-706659e9df8e","ios":"levelo://app?vid=2300f9f1-80a3-4c96-988d-706659e9df8e"},"vehicle_type_id":"4","last_reported":1718381361,"current_range_meters":20400,"station_id":"ce4bh292rcd13ifvqdf0","pricing_plan_id":"cebpf4jnsgd1na2vs0mg"},{"bike_id":"757ee7c1-ee87-4cad-8bfb-87f40a603d92","system_id":"levelo_inurba_marseille","lat":43.295194,"lon":5.39397,"is_reserved":false,"is_disabled":false,"rental_uris":{"android":"levelo://app?vid=757ee7c1-ee87-4cad-8bfb-87f40a603d92","ios":"levelo://app?vid=757ee7c1-ee87-4cad-8bfb-87f40a603d92"},"vehicle_type_id":"4","last_reported":1718381361,"current_range_meters":9200,"station_id":"ce4bh292rcd13ifvqdf0","pricing_plan_id":"cebpf4jnsgd1na2vs0mg"},{"bike_id":"f88acc3e-1a88-48cf-bf1d-a11d27f722b5","system_id":"levelo_inurba_marseille","lat":43.29516,"lon":5.394,"is_reserved":false,"is_disabled":false,"rental_uris":{"android":"levelo://app?vid=f88acc3e-1a88-48cf-bf1d-a11d27f722b5","ios":"levelo://app?vid=f88acc3e-1a88-48cf-bf1d-a11d27f722b5"},"vehicle_type_id":"4","last_reported":1718381361,"current_range_meters":0,"station_id":"ce4bh292rcd13ifvqdf0","pricing_plan_id":"cebpf4jnsgd1na2vs0mg"},{"bike_id":"a6cd7662-dfec-4a5c-bc0f-42368eca5094","system_id":"levelo_inurba_marseille","lat":43.289307,"lon":5.38406,"is_reserved":false,"is_disabled":false,"rental_uris":{"android":"levelo://app?vid=a6cd7662-dfec-4a5c-bc0f-42368eca5094","ios":"levelo://app?vid=a6cd7662-dfec-4a5c-bc0f-42368eca5094"},"vehicle_type_id":"4","last_reported":1718381361,"current_range_meters":14400,"station_id":"ce4bh612rcd13ifvqe6g","pricing_plan_id":"cebpf4jnsgd1na2vs0mg"},{"bike_id":"c85704ed-6ae6-4ba1-b28e-944f61c87c65","system_id":"levelo_inurba_marseille","lat":43.30259,"lon":5.40058,"is_reserved":false,"is_disabled":false,"rental_uris":{"android":"levelo://app?vid=c85704ed-6ae6-4ba1-b28e-944f61c87c65","ios":"levelo://app?vid=c85704ed-6ae6-4ba1-b28e-944f61c87c65"},"vehicle_type_id":"4","last_reported":1718381361,"current_range_meters":1200,"station_id":"ce4bgvh2rcd13ifvqcs0","pricing_plan_id":"cebpf4jnsgd1na2vs0mg"},{"bike_id":"c9aa5ac5-0a21-42e2-b959-2a38c893ae44","system_id":"levelo_inurba_marseille","lat":43.30245,"lon":5.4005,"is_reserved":false,"is_disabled":false,"rental_uris":{"android":"levelo://app?vid=c9aa5ac5-0a21-42e2-b959-2a38c893ae44","ios":"levelo://app?vid=c9aa5ac5-0a21-42e2-b959-2a38c893ae44"},"vehicle_type_id":"4","last_reported":1718381361,"current_range_meters":0,"station_id":"ce4bgvh2rcd13ifvqcs0","pricing_plan_id":"cebpf4jnsgd1na2vs0mg"},{"bike_id":"0adf5c9c-81e0-453d-a9a4-40d77359c63a","system_id":"levelo_inurba_marseille","lat":43.302759,"lon":5.400793,"is_reserved":false,"is_disabled":false,"rental_uris":{"android":"levelo://app?vid=0adf5c9c-81e0-453d-a9a4-40d77359c63a","ios":"levelo://app?vid=0adf5c9c-81e0-453d-a9a4-40d77359c63a"},"vehicle_type_id":"4","last_reported":1718381361,"current_range_meters":8000,"station_id":"ce4bgvh2rcd13ifvqcs0","pricing_plan_id":"cebpf4jnsgd1na2vs0mg"},