{"last_updated":1729717695,"ttl":60,"version":"2.2","data":{"bikes":[{"bike_id":"110f1db6-ca70-41be-a751-07cccf1503d0","system_id":"levelo_inurba_marseille","lat":43.27623,"lon":5.36107,"is_reserved":false,"is_disabled":false,"rental_uris":{"android":"levelo://app?vid=110f1db6-ca70-41be-a751-07cccf1503d0","ios":"levelo://app?vid=110f1db6-ca70-41be-a751-07cccf1503d0"},"vehicle_type_id":"4","last_reported":1729717695,"current_range_meters":7200,"station_id":"ce4bgj92rcd13ifvqbe0","pricing_plan_id":"cebpf4jnsgd1na2vs0mg"},{"bike_id":"5f4c504f-64d7-447b-9c63-fa627168ec7b","system_id":"levelo_inurba_marseille","lat":43.28456,"lon":5.35891,"is_reserved":false,"is_disabled":false,"rental_uris":{"android":"levelo://app?vid=5f4c504f-64d7-447b-9c63-fa627168ec7b","ios":"levelo://app?vid=5f4c504f-64d7-447b-9c63-fa627168ec7b"},"vehicle_type_id":"4","last_reported":1729717695,"current_range_meters":38800,"station_id":"ce4bhah2rcd13ifvqei0","pricing_plan_id":"cebpf4jnsgd1na2vs0mg"},{"bike_id":"a6e10b48-b0ab-459c-9552-1ec94b59e851","system_id":"levelo_inurba_marseille","lat":43.30909,"lon":5.36851,"is_reserved":false,"is_disabled":false,"rental_uris":{"android":"levelo://app?vid=a6e10b48-b0ab-459c-9552-1ec94b59e851","ios":"levelo://app?vid=a6e10b48-b0ab-459c-9552-1ec94b59e851"},"vehicle_type_id":"4","last_reported":1729717695,"current_range_meters":24800,"station_id":"ce4bgn92rcd13ifvqbvg","pricing_plan_id":"cebpf4jnsgd1na2vs0mg"},{"bike_id":"4e718520-217c-4986-8e4a-4dbcae9b7210","system_id":"levelo_inurba_marseille","lat":43.27996,"lon":5.4166,"is_reserved":false,"is_disabled":false,"rental_uris":{"android":"levelo://app?vid=4e718520-217c-4986-8e4a-4dbcae9b7210","ios":"levelo://app?vid=4e718520-217c-4986-8e4a-4dbcae9b7210"},"vehicle_type_id":"4","last_reported":1729717695,"current_range_meters":12000,"station_id":"ce4bho12rcd13ifvqh1g","pricing_plan_id":"cebpf4jnsgd1na2vs0mg"},{"bike_id":"eb62f15f-97c3-4b13-a764-82af1135db7e","system_id":"levelo_inurba_marseille","lat":43.2963,"lon":5.40597,"is_reserved":false,"is_disabled":false,"rental_uris":{"android":"levelo://app?vid=eb62f15f-97c3-4b13-a764-82af1135db7e","ios":"levelo://app?vid=eb62f15f-97c3-4b13-a764-82af1135db7e"},"vehicle_type_id":"4","last_reported":1729717695,"current_range_meters":38000,"station_id":"ce4bh0h2rcd13ifvqd60","pricing_plan_id":"cebpf4jnsgd1na2vs0mg"},{"bike_id":"ad149999-cdab-442e-abeb-f4ceecd45694","system_id":"levelo_inurba_marseille","lat":43.3093,"lon":5.40136,"is_reserved":false,"is_disabled":false,"rental_uris":{"android":"levelo://app?vid=ad149999-cdab-442e-abeb-f4ceecd45694","ios":"levelo://app?vid=ad149999-cdab-442e-abeb-f4ceecd45694"},"vehicle_type_id":"4","last_reported":1729717695,"current_range_meters":23200,"station_id":"ce4bgvp2rcd13ifvqct0","pricing_plan_id":"cebpf4jnsgd1na2vs0mg"},{"bike_id":"a79f1cea-7a6e-4255-b863-51df698c594f","system_id":"levelo_inurba_marseille","lat":43.29933,"lon":5.36526,"is_reserved":false,"is_disabled":false,"rental_uris":{"android":"levelo://app?vid=a79f1cea-7a6e-4255-b863-51df698c594f","ios":"levelo://app?vid=a79f1cea-7a6e-4255-b863-51df698c594f"},"vehicle_type_id":"4","last_reported":1729717695,"current_range_meters":31200,"station_id":"ce4bgm92rcd13ifvqbr0","pricing_plan_id":"cebpf4jnsgd1na2vs0mg"},{"bike_id":"438e2e5b-05a2-48cc-9635-59f37e741a33","system_id":"levelo_inurba_marseille","lat":43.30325,"lon":5.40439,"is_reserved":false,"is_disabled":false,"rental_uris":{"android":"levelo://app?vid=438e2e5b-05a2-48cc-9635-59f37e741a33","ios":"levelo://app?vid=438e2e5b-05a2-48cc-9635-59f37e741a33"},"vehicle_type_id":"4","last_reported":1729717695,"current_range_meters":38800,"station_id":"ce4bh012rcd13ifvqd10","pricing_plan_id":"cebpf4jnsgd1na2vs0mg"},{"bike_id":"e014cbd1-09d3-45bc-9c4f-8e4d79c8e32d","system_id":"levelo_inurba_marseille","lat":43.28482,"lon":5.38561,"is_reserved":false,"is_disabled":false,"rental_uris":{"android":"levelo://app?vid=e014cbd1-09d3-45bc-9c4f-8e4d79c8e32d","ios":"levelo://app?vid=e014cbd1-09d3-45bc-9c4f-8e4d79c8e32d"},"vehicle_type_id":"4","last_reported":1729717695,"current_range_meters":30400,"station_id":"ce4bh8p2rcd13ifvqeb0","pricing_plan_id":"cebpf4jnsgd1na2vs0mg"},{"bike_id":"4eb2585b-e0a0-4fa6-b510-c5248c4af062","system_id":"levelo_inurba_marseille","lat":43.29872,"lon":5.39733,"is_reserved":false,"is_disabled":false,"rental_uris":{"android":"levelo://app?vid=4eb2585b-e0a0-4fa6-b510-c5248c4af062","ios":"levelo://app?vid=4eb2585b-e0a0-4fa6-b510-c5248c4af062"},"vehicle_type_id":"4","last_reported":1729717695,"current_range_meters":38800,"station_id":"ce4bh0h2rcd13ifvqd50","pricing_plan_id":"cebpf4jnsgd1na2vs0mg"},{"bike_id":"9f074ccd-7b5d-4615-a0de-1df1963b28b4","system_id":"levelo_inurba_marseille","lat":43.31484,"lon":5.37299,"is_reserved":false,"is_disabled":false,"rental_uris":{"android":"levelo://app?vid=9f074ccd-7b5d-4615-a0de-1df1963b28b4","ios":"levelo://app?vid=9f074ccd-7b5d-4615-a0de-1df1963b28b4"},"vehicle_type_id":"4","last_reported":1729717695,"current_range_meters":38800,"station_id":"ce4bgt12rcd13ifvqcd0","pricing_plan_id":"cebpf4jnsgd1na2vs0mg"},{"bike_id":"8fe5ab61-a0f3-4f2f-aa4e-06ffc441e2d1","system_id":"levelo_inurba_marseille","lat":43.29249,"lon":5.38429,"is_reserved":false,"is_disabled":false,"rental_uris":{"android":"levelo://app?vid=8fe5ab61-a0f3-4f2f-aa4e-06ffc441e2d1","ios":"levelo://app?vid=8fe5ab61-a0f3-4f2f-aa4e-06ffc441e2d1"},"vehicle_type_id":"4","last_reported":1729717695,"current_range_meters":22800,"station_id":"ce4bh692rcd13ifvqea0","pricing_plan_id":"cebpf4jnsgd1na2vs0mg"},{"bike_id":"a93517ff-5a1d-4565-bd61-fa3438f9dc6e","system_id":"levelo_inurba_marseille","lat":43.30889,"lon":5.39637,"is_reserved":false,"is_disabled":false,"rental_uris":{"android":"levelo://app?vid=a93517ff-5a1d-4565-bd61-fa3438f9dc6e","ios":"levelo://app?vid=a93517ff-5a1d-4565-bd61-fa3438f9dc6e"},"vehicle_type_id":"4","last_reported":1729717695,"current_range_meters":7200,"station_id":"ce4bh012rcd13ifvqcv0","pricing_plan_id":"cebpf4jnsgd1na2vs0mg"},{"bike_id":"694679e3-89bc-474b-88d4-72f2607e9aa9","system_id":"levelo_inurba_marseille","lat":43.27816,"lon":5.40721,"is_reserved":false,"is_disabled":false,"rental_uris":{"android":"levelo://app?vid=694679e3-89bc-474b-88d4-72f2607e9aa9","ios":"levelo://app?vid=694679e3-89bc-474b-88d4-72f2607e9aa9"},"vehicle_type_id":"4","last_reported":1729717695,"current_range_meters":8400,"station_id":"ce4bhnh2rcd13ifvqgtg","pricing_plan_id":"cebpf4jnsgd1na2vs0mg"},{"bike_id":"470ea6cb-6af8-433d-b7a4-e3237e0847df","system_id":"levelo_inurba_marseille","lat":43.24664,"lon":5.38169,"is_reserved":false,"is_disabled":false,"rental_uris":{"android":"levelo://app?vid=470ea6cb-6af8-433d-b7a4-e3237e0847df","ios":"levelo://app?vid=470ea6cb-6af8-433d-b7a4-e3237e0847df"},"vehicle_type_id":"4","last_reported":1729717695,"current_range_meters":20000,"station_id":"ce4bhih2rcd13ifvqfr0","pricing_plan_id":"cebpf4jnsgd1na2vs0mg"},{"bike_id":"3fae2daf-e8cc-4081-9de2-3cc0469166a7","system_id":"levelo_inurba_marseille","lat":43.30927,"lon":5.40139,"is_reserved":false,"is_disabled":false,"rental_uris":{"android":"levelo://app?vid=3fae2daf-e8cc-4081-9de2-3cc0469166a7","ios":"levelo://app?vid=3fae2daf-e8cc-4081-9de2-3cc0469166a7"},"vehicle_type_id":"4","last_reported":1729717695,"current_range_meters":20000,"station_id":"ce4bgvp2rcd13ifvqct0","pricing_plan_id":"cebpf4jnsgd1na2vs0mg"},{"bike_id":"843ed1a6-cfd1-4433-a122-a3cc666cecf6","system_id":"levelo_inurba_marseille","lat":43.24806,"lon":5.37457,"is_reserved":false,"is_disabled":false,"rental_uris":{"android":"levelo://app?vid=843ed1a6-cfd1-4433-a122-a3cc666cecf6","ios":"levelo://app?vid=843ed1a6-cfd1-4433-a122-a3cc666cecf6"},"vehicle_type_id":"4","last_reported":1729717695,"current_range_meters":25200,"station_id":"ce4bhgh2rcd13ifvqfb0","pricing_plan_id":"cebpf4jnsgd1na2vs0mg"},{"bike_id":"c01c1194-ac53-462e-9347-ce12b16cd22d","system_id":"levelo_inurba_marseille","lat":43.29421,"lon":5.38613,"is_reserved":false,"is_disabled":false,"rental_uris":{"android":"levelo://app?vid=c01c1194-ac53-462e-9347-ce12b16cd22d","ios":"levelo://app?vid=c01c1194-ac53-462e-9347-ce12b16cd22d"},"vehicle_type_id":"4","last_reported":1729717695,"current_range_meters":10800,"station_id":"ce4bh2h2rcd13ifvqdh0","pricing_plan_id":"cebpf4jnsgd1na2vs0mg"},{"bike_id":"17e1dd15-51f4-44f0-957c-e330c998a014","system_id":"levelo_inurba_marseille","lat":43.30952,"lon":5.39019,"is_reserved":false,"is_disabled":false,"rental_uris":{"android":"levelo://app?vid=17e1dd15-51f4-44f0-957c-e330c998a014","ios":"levelo://app?vid=17e1dd15-51f4-44f0-957c-e330c998a014"},"vehicle_type_id":"4","last_reported":1729717695,"current_range_meters":28400,"station_id":"ce4bgup2rcd13ifvqco0","pricing_plan_id":"cebpf4jnsgd1na2vs0mg"},{"bike_id":"6abf3a03-af67-4859-8e11-a67b93278e15","system_id":"levelo_inurba_marseille","lat":43.31991,"lon":5.3815,"is_reserved":false,"is_disabled":false,"rental_uris":{"android":"levelo://app?vid=6abf3a03-af67-4859-8e11-a67b93278e15","ios":"levelo://app?vid=6abf3a03-af67-4859-8e11-a67b93278e15"},"vehicle_type_id":"4","last_reported":1729717695,"current_range_meters":9200,"station_id":"ce4bhr12rcd13ifvqhpg","pricing_plan_id":"cebpf4jnsgd1na2vs0mg"},{"bike_id":"03dd22fb-5c79-41d9-9a45-aa97b9b6fd1f","system_id":"levelo_inurba_marseille","lat":43.28462,"lon":5.35879,"is_reserved":false,"is_disabled":false,"rental_uris":{"android":"levelo://app?vid=03dd22fb-5c79-41d9-9a45-aa97b9b6fd1f","ios":"levelo://app?vid=03dd22fb-5c79-41d9-9a45-aa97b9b6fd1f"},"vehicle_type_id":"4","last_reported":1729717695,"current_range_meters":38800,"station_id":"ce4bhah2rcd13ifvqei0","pricing_plan_id":"cebpf4jnsgd1na2vs0mg"},{"bike_id":"7feef174-7f21-4b1b-8196-65756f073ed8","system_id":"levelo_inurba_marseille","lat":43.295289,"lon":5.385501,"is_reserved":false,"is_disabled":false,"rental_uris":{"android":"levelo://app?vid=7feef174-7f21-4b1b-8196-65756f073ed8","ios":"levelo://app?vid=7feef174-7f21-4b1b-8196-65756f073ed8"},"vehicle_type_id":"4","last_reported":1729717695,"current_range_meters":15200,"station_id":"ce4bgih2rcd13ifvqba0","pricing_plan_id":"cebpf4jnsgd1na2vs0mg"},{"bike_id":"cea9d1db-f57d-46d9-b5ea-3e72aa1fb49e","system_id":"levelo_inurba_marseille","lat":43.28462,"lon":5.35884,"is_reserved":false,"is_disabled":false,"rental_uris":{"android":"levelo://app?vid=cea9d1db-f57d-46d9-b5ea-3e72aa1fb49e","ios":"levelo://app?vid=cea9d1db-f57d-46d9-b5ea-3e72aa1fb49e"},"vehicle_type_id":"4","last_reported":1729717695,"current_range_meters":16000,"station_id":"ce4bhah2rcd13ifvqei0","pricing_plan_id":"cebpf4jnsgd1na2vs0mg"},{"bike_id":"7eead119-e1ce-477f-964d-d184789920a9","system_id":"levelo_inurba_marseille","lat":43.31482,"lon":5.37302,"is_reserved":false,"is_disabled":false,"rental_uris":{"android":"levelo://app?vid=7eead119-e1ce-477f-964d-d184789920a9","ios":"levelo://app?vid=7eead119-e1ce-477f-964d-d184789920a9"},"vehicle_type_id":"4","last_reported":1729717695,"current_range_meters":33600,"station_id":"ce4bgt12rcd13ifvqcd0","pricing_plan_id":"cebpf4jnsgd1na2vs0mg"},{"bike_id":"36ec8878-8122-4313-9a7f-14a8878dc458","system_id":"levelo_inurba_marseille","lat":43.33737,"lon":5.37458,"is_reserved":false,"is_disabled":false,"rental_uris":{"android":"levelo://app?vid=36ec8878-8122-4313-9a7f-14a8878dc458","ios":"levelo://app?vid=36ec8878-8122-4313-9a7f-14a8878dc458"},"vehicle_type_id":"4","last_reported":1729717695,"current_range_meters":28000,"station_id":"","pricing_plan_id":"cebpf4jnsgd1na2vs0mg"},{"bike_id":"12804ec7-d14c-4cf4-832f-21faed56ead3","system_id":"levelo_inurba_marseille","lat":43.29535,"lon":5.38548,"is_reserved":false,"is_disabled":false,"rental_uris":{"android":"levelo://app?vid=12804ec7-d14c-4cf4-832f-21faed56ead3","ios":"levelo://app?vid=12804ec7-d14c-4cf4-832f-21faed56ead3"},"vehicle_type_id":"4","last_reported":1729717695,"current_range_meters":36800,"station_id":"ce4bgih2rcd13ifvqba0","pricing_plan_id":"cebpf4jnsgd1na2vs0mg"},{"bike_id":"4017d040-794a-4b56-90e3-0fbd99cbd4db","system_id":"levelo_inurba_marseille","lat":43.26813,"lon":5.41641,"is_reserved":false,"is_disabled":false,"rental_uris":{"android":"levelo://app?vid=4017d040-794a-4b56-90e3-0fbd99cbd4db","ios":"levelo://app?vid=4017d040-794a-4b56-90e3-0fbd99cbd4db"},"vehicle_type_id":"4","last_reported":1729717695,"current_range_meters":29600,"station_id":"","pricing_plan_id":"cebpf4jnsgd1na2vs0mg"},{"bike_id":"0579dd22-0eb8-44db-9f4f-c442859c98c5","system_id":"levelo_inurba_marseille","lat":43.30419,"lon":5.397448,"is_reserved":false,"is_disabled":false,"rental_uris":{"android":"levelo://app?vid=0579dd22-0eb8-44db-9f4f-c442859c98c5","ios":"levelo://app?vid=0579dd22-0eb8-44db-9f4f-c442859c98c5"},"vehicle_type_id":"4","last_reported":1729717695,"current_range_meters":38400,"station_id":"ce4bh092rcd13ifvqd20","pricing_plan_id":"cebpf4jnsgd1na2vs0mg"},{"bike_id":"dde139f2-b139-4ae9-8090-676609dd739d","system_id":"levelo_inurba_marseille","lat":43.24543,"lon":5.39525,"is_reserved":false,"is_disabled":false,"rental_uris":{"android":"levelo://app?vid=dde139f2-b139-4ae9-8090-676609dd739d","ios":"levelo://app?vid=dde139f2-b139-4ae9-8090-676609dd739d"},"vehicle_type_id":"4","last_reported":1729717695,"current_range_meters":32000,"station_id":"ce4bhlp2rcd13ifvqgjg","pricing_plan_id":"cebpf4jnsgd1na2vs0mg"},{"bike_id":"aae855c6-31ee-4e2f-816a-bd80c9f37e5e","system_id":"levelo_inurba_marseille","lat":43.291963,"lon":5.39319,"is_reserved":false,"is_disabled":false,"rental_uris":{"android":"levelo://app?vid=aae855c6-31ee-4e2f-816a-bd80c9f37e5e","ios":"levelo://app?vid=aae855c6-31ee-4e2f-816a-bd80c9f37e5e"},"vehicle_type_id":"4","last_reported":1729717695,"current_range_meters":38800,"station_id":"ce4bh192rcd13ifvqdd0","pricing_plan_id":"cebpf4jnsgd1na2vs0mg"},{"bike_id":"0f78dea4-15d6-4bdb-84d2-f9a7915f61fa","system_id":"levelo_inurba_marseille","lat":43.28457,"lon":5.35877,"is_reserved":false,"is_disabled":false,"rental_uris":{"android":"levelo://app?vid=0f78dea4-15d6-4bdb-84d2-f9a7915f61fa","ios":"levelo://app?vid=0f78dea4-15d6-4bdb-84d2-f9a7915f61fa"},"vehicle_type_id":"4","last_reported":1729717695,"current_range_meters":7200,"station_id":"ce4bhah2rcd13ifvqei0","pricing_plan_id":"cebpf4jnsgd1na2vs0mg"},{"bike_id":"b8c9a954-8a45-4a7c-9122-e43683fb8fcc","system_id":"levelo_inurba_marseille","lat":43.24646,"lon":5.38885,"is_reserved":false,"is_disabled":false,"rental_uris":{"android":"levelo://app?vid=b8c9a954-8a45-4a7c-9122-e43683fb8fcc","ios":"levelo://app?vid=b8c9a954-8a45-4a7c-9122-e43683fb8fcc"},"vehicle_type_id":"4","last_reported":1729717695,"current_range_meters":38800,"station_id":"ce4bhg12rcd13ifvqf60","pricing_plan_id":"cebpf4jnsgd1na2vs0mg"},{"bike_id":"97ce6431-cdfe-4c86-8575-534875aed7f5","system_id":"levelo_inurba_marseille","lat":43.3053,"lon":5.36659,"is_reserved":false,"is_disabled":false,"rental_uris":{"android":"levelo://app?vid=97ce6431-cdfe-4c86-8575-534875aed7f5","ios":"levelo://app?vid=97ce6431-cdfe-4c86-8575-534875aed7f5"},"vehicle_type_id":"4","last_reported":1729717695,"current_range_meters":10000,"station_id":"","pricing_plan_id":"cebpf4jnsgd1na2vs0mg"},{"bike_id":"bc8c5f05-14d5-4aff-bd18-3ffa8d394552","system_id":"levelo_inurba_marseille","lat":43.30602,"lon":5.37231,"is_reserved":false,"is_disabled":false,"rental_uris":{"android":"levelo://app?vid=bc8c5f05-14d5-4aff-bd18-3ffa8d394552","ios":"levelo://app?vid=bc8c5f05-14d5-4aff-bd18-3ffa8d394552"},"vehicle_type_id":"4","last_reported":1729717695,"current_range_meters":28000,"station_id":"ce4bgqh2rcd13ifvqc4g","pricing_plan_id":"cebpf4jnsgd1na2vs0mg"},{"bike_id":"4e6761e9-7a62-4e39-b016-0258a469d9f7","system_id":"levelo_inurba_marseille","lat":43.25822,"lon":5.3942,"is_reserved":false,"is_disabled":false,"rental_uris":{"android":"levelo://app?vid=4e6761e9-7a62-4e39-b016-0258a469d9f7","ios":"levelo://app?vid=4e6761e9-7a62-4e39-b016-0258a469d9f7"},"vehicle_type_id":"4","last_reported":1729717695,"current_range_meters":34000,"station_id":"ce4bhip2rcd13ifvqft0","pricing_plan_id":"cebpf4jnsgd1na2vs0mg"},{"bike_id":"66b05623-5668-42d4-96b3-2489f31ac472","system_id":"levelo_inurba_marseille","lat":43.26942,"lon":5.40251,"is_reserved":false,"is_disabled":false,"rental_uris":{"android":"levelo://app?vid=66b05623-5668-42d4-96b3-2489f31ac472","ios":"levelo://app?vid=66b05623-5668-42d4-96b3-2489f31ac472"},"vehicle_type_id":"4","last_reported":1729717695,"current_range_meters":36000,"station_id":"cjm6bp8fraef2m0cb0m0","pricing_plan_id":"cebpf4jnsgd1na2vs0mg"},{"bike_id":"3fb32c75-8a7c-4c0b-8282-912b6ac23920","system_id":"levelo_inurba_marseille","lat":43.29194,"lon":5.35804,"is_reserved":false,"is_disabled":false,"rental_uris":{"android":"levelo://app?vid=3fb32c75-8a7c-4c0b-8282-912b6ac23920","ios":"levelo://app?vid=3fb32c75-8a7c-4c0b-8282-912b6ac23920"},"vehicle_type_id":"4","last_reported":1729717695,"current_range_meters":37600,"station_id":"ce4bhb12rcd13ifvqel0","pricing_plan_id":"cebpf4jnsgd1na2vs0mg"},{"bike_id":"9119640f-be31-4c54-a6c3-c9532b895405","system_id":"levelo_inurba_marseille","lat":43.28458,"lon":5.35886,"is_reserved":false,"is_disabled":false,"rental_uris":{"android":"levelo://app?vid=9119640f-be31-4c54-a6c3-c9532b895405","ios":"levelo://app?vid=9119640f-be31-4c54-a6c3-c9532b895405"},"vehicle_type_id":"4","last_reported":1729717695,"current_range_meters":38800,"station_id":"ce4bhah2rcd13ifvqei0","pricing_plan_id":"cebpf4jnsgd1na2vs0mg"},{"bike_id":"dcedd991-0854-41d1-a5e7-524db2653321","system_id":"levelo_inurba_marseille","lat":43.29294,"lon":5.37457,"is_reserved":false,"is_disabled":false,"rental_uris":{"android":"levelo://app?vid=dcedd991-0854-41d1-a5e7-524db2653321","ios":"levelo://app?vid=dcedd991-0854-41d1-a5e7-524db2653321"},"vehicle_type_id":"4","last_reported":1729717695,"current_range_meters":6000,"station_id":"","pricing_plan_id":"cebpf4jnsgd1na2vs0mg"},{"bike_id":"31d75526-8d4c-4268-8141-97ef3ba88f89","system_id":"levelo_inurba_marseille","lat":43.30263,"lon":5.40075,"is_reserved":false,"is_disabled":false,"rental_uris":{"android":"levelo://app?vid=31d75526-8d4c-4268-8141-97ef3ba88f89","ios":"levelo://app?vid=31d75526-8d4c-4268-8141-97ef3ba88f89"},"vehicle_type_id":"4","last_reported":1729717695,"current_range_meters":12800,"station_id":"ce4bgvh2rcd13ifvqcs0","pricing_plan_id":"cebpf4jnsgd1na2vs0mg"},{"bike_id":"cb0297b0-99f8-4559-9715-b34b0bc76314","system_id":"levelo_inurba_marseille","lat":43.29533,"lon":5.38538,"is_reserved":false,"is_disabled":false,"rental_uris":{"android":"levelo://app?vid=cb0297b0-99f8-4559-9715-b34b0bc76314","ios":"levelo://app?vid=cb0297b0-99f8-4559-9715-b34b0bc76314"},"vehicle_type_id":"4","last_reported":1729717695,"current_range_meters":14800,"station_id":"ce4bgih2rcd13ifvqba0","pricing_plan_id":"cebpf4jnsgd1na2vs0mg"},{"bike_id":"1d731c4f-aeec-4764-a0cb-ee5c6f2253ec","system_id":"levelo_inurba_marseille","lat":43.3093,"lon":5.40133,"is_reserved":false,"is_disabled":false,"rental_uris":{"android":"levelo://app?vid=1d731c4f-aeec-4764-a0cb-ee5c6f2253ec","ios":"levelo://app?vid=1d731c4f-aeec-4764-a0cb-ee5c6f2253ec"},"vehicle_type_id":"4","last_reported":1729717695,"current_range_meters":35600,"station_id":"ce4bgvp2rcd13ifvqct0","pricing_plan_id":"cebpf4jnsgd1na2vs0mg"},{"bike_id":"b3e7a7d1-421f-4dbc-bb54-1b11448fc6bc","system_id":"levelo_inurba_marseille","lat":43.30927,"lon":5.4013,"is_reserved":false,"is_disabled":false,"rental_uris":{"android":"levelo://app?vid=b3e7a7d1-421f-4dbc-bb54-1b11448fc6bc","ios":"levelo://app?vid=b3e7a7d1-421f-4dbc-bb54-1b11448fc6bc"},"vehicle_type_id":"4","last_reported":1729717695,"current_range_meters":38800,"station_id":"ce4bgvp2rcd13ifvqct0","pricing_plan_id":"cebpf4jnsgd1na2vs0mg"},{"bike_id":"dbf67b96-3489-478a-8e06-51cc69242e6d","system_id":"levelo_inurba_marseille","lat":43.2558,"lon":5.38228,"is_reserved":false,"is_disabled":false,"rental_uris":{"android":"levelo://app?vid=dbf67b96-3489-478a-8e06-51cc69242e6d","ios":"levelo://app?vid=dbf67b96-3489-478a-8e06-51cc69242e6d"},"vehicle_type_id":"4","last_reported":1729717695,"current_range_meters":28000,"station_id":"ce4bhih2rcd13ifvqfs0","pricing_plan_id":"cebpf4jnsgd1na2vs0mg"},{"bike_id":"24c20e40-d0c4-4e46-9a0f-866947a231d3","system_id":"levelo_inurba_marseille","lat":43.28706,"lon":5.37389,"is_reserved":false,"is_disabled":false,"rental_uris":{"android":"levelo://app?vid=24c20e40-d0c4-4e46-9a0f-866947a231d3","ios":"levelo://app?vid=24c20e40-d0c4-4e46-9a0f-866947a231d3"},"vehicle_type_id":"4","last_reported":1729717695,"current_range_meters":10000,"station_id":"ce4bh3p2rcd13ifvqdq0","pricing_plan_id":"cebpf4jnsgd1na2vs0mg"},{"bike_id":"d361a102-5430-49aa-91e6-1ae69104b5a7","system_id":"levelo_inurba_marseille","lat":43.29265,"lon":5.38432,"is_reserved":false,"is_disabled":false,"rental_uris":{"android":"levelo://app?vid=d361a102-5430-49aa-91e6-1ae69104b5a7","ios":"levelo://app?vid=d361a102-5430-49aa-91e6-1ae69104b5a7"},"vehicle_type_id":"4","last_reported":1729717695,"current_range_meters":8000,"station_id":"ce4bh692rcd13ifvqea0","pricing_plan_id":"cebpf4jnsgd1na2vs0mg"},{"bike_id":"aa99f811-363e-46a8-aef9-b5e22fccd73b","system_id":"levelo_inurba_marseille","lat":43.27898,"lon":5.38001,"is_reserved":false,"is_disabled":false,"rental_uris":{"android":"levelo://app?vid=aa99f811-363e-46a8-aef9-b5e22fccd73b","ios":"levelo://app?vid=aa99f811-363e-46a8-aef9-b5e22fccd73b"},"vehicle_type_id":"4","last_reported":1729717695,"current_range_meters":38800,"station_id":"ce4bhf92rcd13ifvqf50","pricing_plan_id":"cebpf4jnsgd1na2vs0mg"},{"bike_id":"e2296e9b-eed6-4fd1-ac02-4223589e07f6","system_id":"levelo_inurba_marseille","lat":43.30606,"lon":5.37233,"is_reserved":false,"is_disabled":false,"rental_uris":{"android":"levelo://app?vid=e2296e9b-eed6-4fd1-ac02-4223589e07f6","ios":"levelo://app?vid=e2296e9b-eed6-4fd1-ac02-4223589e07f6"},"vehicle_type_id":"4","last_reported":1729717695,"current_range_meters":22000,"station_id":"ce4bgqh2rcd13ifvqc4g","pricing_plan_id":"cebpf4jnsgd1na2vs0mg"},{"bike_id":"689e7444-ce9e-4557-9428-673fa97cdc5c","system_id":"levelo_inurba_marseille","lat":43.2512,"lon":5.40314,"is_reserved":false,"is_disabled":false,"rental_uris":{"android":"levelo://app?vid=689e7444-ce9e-4557-9428-673fa97cdc5c","ios":"levelo://app?vid=689e7444-ce9e-4557-9428-673fa97cdc5c"},"vehicle_type_id":"4","last_reported":1729717695,"current_range_meters":5600,"station_id":"ce4bhlh2rcd13ifvqgig","pricing_plan_id":"cebpf4jnsgd1na2vs0mg"},{"bike_id":"6191b399-d26c-4121-8f5d-fc3f7e15c59d","system_id":"levelo_inurba_marseille","lat":43.2957,"lon":5.39971,"is_reserved":false,"is_disabled":false,"rental_uris":{"android":"levelo://app?vid=6191b399-d26c-4121-8f5d-fc3f7e15c59d","ios":"levelo://app?vid=6191b399-d26c-4121-8f5d-fc3f7e15c59d"},"vehicle_type_id":"4","last_reported":1729717695,"current_range_meters":24800,"station_id":"ce4bh312rcd13ifvqdj0","pricing_plan_id":"cebpf4jnsgd1na2vs0mg"},{"bike_id":"2763fb51-5aeb-45c6-9c3a-23eb0832edec","system_id":"levelo_inurba_marseille","lat":43.29259,"lon":5.40916,"is_reserved":false,"is_disabled":false,"rental_uris":{"android":"levelo://app?vid=2763fb51-5aeb-45c6-9c3a-23eb0832edec","ios":"levelo://app?vid=2763fb51-5aeb-45c6-9c3a-23eb0832edec"},"vehicle_type_id":"4","last_reported":1729717695,"current_range_meters":38800,"station_id":"ce4bh192rcd13ifvqdc0","pricing_plan_id":"cebpf4jnsgd1na2vs0mg"},{"bike_id":"96d40975-7092-47a9-98a5-5115382e751f","system_id":"levelo_inurba_marseille","lat":43.29254,"lon":5.40908,"is_reserved":false,"is_disabled":false,"rental_uris":{"android":"levelo://app?vid=96d40975-7092-47a9-98a5-5115382e751f","ios":"levelo://app?vid=96d40975-7092-47a9-98a5-5115382e751f"},"vehicle_type_id":"4","last_reported":1729717695,"current_range_meters":26800,"station_id":"ce4bh192rcd13ifvqdc0","pricing_plan_id":"cebpf4jnsgd1na2vs0mg"},{"bike_id":"380cebd2-629c-405c-b64b-401aabe3bd03","system_id":"levelo_inurba_marseille","lat":43.28845,"lon":5.35852,"is_reserved":false,"is_disabled":false,"rental_uris":{"android":"levelo://app?vid=380cebd2-629c-405c-b64b-401aabe3bd03","ios":"levelo://app?vid=380cebd2-629c-405c-b64b-401aabe3bd03"},"vehicle_type_id":"4","last_reported":1729717695,"current_range_meters":37600,"station_id":"ce4bhb12rcd13ifvqem0","pricing_plan_id":"cebpf4jnsgd1na2vs0mg"},{"bike_id":"1c82aeea-9f07-4544-af99-b27eace84f2b","system_id":"levelo_inurba_marseille","lat":43.29511,"lon":5.39032,"is_reserved":false,"is_disabled":false,"rental_uris":{"android":"levelo://app?vid=1c82aeea-9f07-4544-af99-b27eace84f2b","ios":"levelo://app?vid=1c82aeea-9f07-4544-af99-b27eace84f2b"},"vehicle_type_id":"4","last_reported":1729717695,"current_range_meters":16000,"station_id":"ce4bh3p2rcd13ifvqdp0","pricing_plan_id":"cebpf4jnsgd1na2vs0mg"},{"bike_id":"fc98b86f-6f66-4864-96d0-5dffffb9adc6","system_id":"levelo_inurba_marseille","lat":43.33755,"lon":5.37432,"is_reserved":false,"is_disabled":false,"rental_uris":{"android":"levelo://app?vid=fc98b86f-6f66-4864-96d0-5dffffb9adc6","ios":"levelo://app?vid=fc98b86f-6f66-4864-96d0-5dffffb9adc6"},"vehicle_type_id":"4","last_reported":1729717695,"current_range_meters":32400,"station_id":"","pricing_plan_id":"cebpf4jnsgd1na2vs0mg"},{"bike_id":"9dfaa351-ad75-4aff-9e9a-7e244dbeff4d","system_id":"levelo_inurba_marseille","lat":43.28344,"lon":5.38107,"is_reserved":false,"is_disabled":false,"rental_uris":{"android":"levelo://app?vid=9dfaa351-ad75-4aff-9e9a-7e244dbeff4d","ios":"levelo://app?vid=9dfaa351-ad75-4aff-9e9a-7e244dbeff4d"},"vehicle_type_id":"4","last_reported":1729717695,"current_range_meters":38800,"station_id":"ce4bh412rcd13ifvqdr0","pricing_plan_id":"cebpf4jnsgd1na2vs0mg"},{"bike_id":"a0867b31-14ba-4b04-b603-d6d8cc117eb0","system_id":"levelo_inurba_marseille","lat":43.32658,"lon":5.40995,"is_reserved":false,"is_disabled":false,"rental_uris":{"android":"levelo://app?vid=a0867b31-14ba-4b04-b603-d6d8cc117eb0","ios":"levelo://app?vid=a0867b31-14ba-4b04-b603-d6d8cc117eb0"},"vehicle_type_id":"4","last_reported":1729717695,"current_range_meters":37600,"station_id":"ce4bhpp2rcd13ifvqhgg","pricing_plan_id":"cebpf4jnsgd1na2vs0mg"},{"bike_id":"b0a71160-4dba-4146-bb1d-3741c34398e9","system_id":"levelo_inurba_marseille","lat":43.30932,"lon":5.40145,"is_reserved":false,"is_disabled":false,"rental_uris":{"android":"levelo://app?vid=b0a71160-4dba-4146-bb1d-3741c34398e9","ios":"levelo://app?vid=b0a71160-4dba-4146-bb1d-3741c34398e9"},"vehicle_type_id":"4","last_reported":1729717695,"current_range_meters":39200,"station_id":"ce4bgvp2rcd13ifvqct0","pricing_plan_id":"cebpf4jnsgd1na2vs0mg"},{"bike_id":"190ab3f4-0dd0-4288-849a-ab444ee4de87","system_id":"levelo_inurba_marseille","lat":43.2857,"lon":5.3949,"is_reserved":false,"is_disabled":false,"rental_uris":{"android":"levelo://app?vid=190ab3f4-0dd0-4288-849a-ab444ee4de87","ios":"levelo://app?vid=190ab3f4-0dd0-4288-849a-ab444ee4de87"},"vehicle_type_id":"4","last_reported":1729717695,"current_range_meters":38800,"station_id":"ce4bh292rcd13ifvqdg0","pricing_plan_id":"cebpf4jnsgd1na2vs0mg"},{"bike_id":"1d7b4cb1-bb5d-4639-90ab-0698f0df36c1","system_id":"levelo_inurba_marseille","lat":43.26555,"lon":5.37284,"is_reserved":false,"is_disabled":false,"rental_uris":{"android":"levelo://app?vid=1d7b4cb1-bb5d-4639-90ab-0698f0df36c1","ios":"levelo://app?vid=1d7b4cb1-bb5d-4639-90ab-0698f0df36c1"},"vehicle_type_id":"4","last_reported":1729717695,"current_range_meters":3600,"station_id":"ce4bhg12rcd13ifvqf70","pricing_plan_id":"cebpf4jnsgd1na2vs0mg"},{"bike_id":"7aa910a1-32e6-41bf-bc9d-1ee459afbc77","system_id":"levelo_inurba_marseille","lat":43.28422,"lon":5.3751,"is_reserved":false,"is_disabled":false,"rental_uris":{"android":"levelo://app?vid=7aa910a1-32e6-41bf-bc9d-1ee459afbc77","ios":"levelo://app?vid=7aa910a1-32e6-41bf-bc9d-1ee459afbc77"},"vehicle_type_id":"4","last_reported":1729717695,"current_range_meters":20000,"station_id":"ce4bh412rcd13ifvqds0","pricing_plan_id":"cebpf4jnsgd1na2vs0mg"},{"bike_id":"d4e73e0f-35c1-478b-8630-1c59c3f1caea","system_id":"levelo_inurba_marseille","lat":43.31078,"lon":5.38355,"is_reserved":false,"is_disabled":false,"rental_uris":{"android":"levelo://app?vid=d4e73e0f-35c1-478b-8630-1c59c3f1caea","ios":"levelo://app?vid=d4e73e0f-35c1-478b-8630-1c59c3f1caea"},"vehicle_type_id":"4","last_reported":1729717695,"current_range_meters":16000,"station_id":"ce4bgv92rcd13ifvqcr0","pricing_plan_id":"cebpf4jnsgd1na2vs0mg"},{"bike_id":"5933de8d-7245-4fc6-9cfe-72a4f51f3340","system_id":"levelo_inurba_marseille","lat":43.31337,"lon":5.39697,"is_reserved":false,"is_disabled":false,"rental_uris":{"android":"levelo://app?vid=5933de8d-7245-4fc6-9cfe-72a4f51f3340","ios":"levelo://app?vid=5933de8d-7245-4fc6-9cfe-72a4f51f3340"},"vehicle_type_id":"4","last_reported":1729717695,"current_range_meters":27200,"station_id":"ce4bgvp2rcd13ifvqcu0","pricing_plan_id":"cebpf4jnsgd1na2vs0mg"},{"bike_id":"08a41d86-bf74-42d1-b350-4800246eef64","system_id":"levelo_inurba_marseille","lat":43.24184,"lon":5.38802,"is_reserved":false,"is_disabled":false,"rental_uris":{"android":"levelo://app?vid=08a41d86-bf74-42d1-b350-4800246eef64","ios":"levelo://app?vid=08a41d86-bf74-42d1-b350-4800246eef64"},"vehicle_type_id":"4","last_reported":1729717695,"current_range_meters":34000,"station_id":"","pricing_plan_id":"cebpf4jnsgd1na2vs0mg"},{"bike_id":"db69ea4c-1c7d-43a0-b7f1-e0da5b76f2ea","system_id":"levelo_inurba_marseille","lat":43.2842,"lon":5.45943,"is_reserved":false,"is_disabled":false,"rental_uris":{"android":"levelo://app?vid=db69ea4c-1c7d-43a0-b7f1-e0da5b76f2ea","ios":"levelo://app?vid=db69ea4c-1c7d-43a0-b7f1-e0da5b76f2ea"},"vehicle_type_id":"4","last_reported":1729717695,"current_range_meters":12400,"station_id":"","pricing_plan_id":"cebpf4jnsgd1na2vs0mg"},{"bike_id":"d3438caa-62a2-49c4-ac73-4c5ed5b399cd","system_id":"levelo_inurba_marseille","lat":43.30654,"lon":5.40082,"is_reserved":false,"is_disabled":false,"rental_uris":{"android":"levelo://app?vid=d3438caa-62a2-49c4-ac73-4c5ed5b399cd","ios":"levelo://app?vid=d3438caa-62a2-49c4-ac73-4c5ed5b399cd"},"vehicle_type_id":"4","last_reported":1729717695,"current_range_meters":30800,"station_id":"ce4bh112rcd13ifvqda0","pricing_plan_id":"cebpf4jnsgd1na2vs0mg"},{"bike_id":"1cd8084c-ce68-4d27-914c-ee4521a0ba66","system_id":"levelo_inurba_marseille","lat":43.28393,"lon":5.37494,"is_reserved":false,"is_disabled":false,"rental_uris":{"android":"levelo://app?vid=1cd8084c-ce68-4d27-914c-ee4521a0ba66","ios":"levelo://app?vid=1cd8084c-ce68-4d27-914c-ee4521a0ba66"},"vehicle_type_id":"4","last_reported":1729717695,"current_range_meters":6000,"station_id":"ce4bh412rcd13ifvqds0","pricing_plan_id":"cebpf4jnsgd1na2vs0mg"},{"bike_id":"0ae1663c-5bb3-40eb-aebe-2e4d249f3588","system_id":"levelo_inurba_marseille","lat":43.31329,"lon":5.397,"is_reserved":false,"is_disabled":false,"rental_uris":{"android":"levelo://app?vid=0ae1663c-5bb3-40eb-aebe-2e4d249f3588","ios":"levelo://app?vid=0ae1663c-5bb3-40eb-aebe-2e4d249f3588"},"vehicle_type_id":"4","last_reported":1729717695,"current_range_meters":35200,"station_id":"ce4bgvp2rcd13ifvqcu0","pricing_plan_id":"cebpf4jnsgd1na2vs0mg"},{"bike_id":"86869bbe-711e-4293-b1ec-b076c7845480","system_id":"levelo_inurba_marseille","lat":43.2318,"lon":5.39991,"is_reserved":false,"is_disabled":false,"rental_uris":{"android":"levelo://app?vid=86869bbe-711e-4293-b1ec-b076c7845480","ios":"levelo://app?vid=86869bbe-711e-4293-b1ec-b076c7845480"},"vehicle_type_id":"4","last_reported":1729717695,"current_range_meters":39200,"station_id":"ce4bhn12rcd13ifvqgqg","pricing_plan_id":"cebpf4jnsgd1na2vs0mg"},{"bike_id":"09a8a35a-3707-4554-a620-97c1b455b439","system_id":"levelo_inurba_marseille","lat":43.28703,"lon":5.37381,"is_reserved":false,"is_disabled":false,"rental_uris":{"android":"levelo://app?vid=09a8a35a-3707-4554-a620-97c1b455b439","ios":"levelo://app?vid=09a8a35a-3707-4554-a620-97c1b455b439"},"vehicle_type_id":"4","last_reported":1729717695,"current_range_meters":22800,"station_id":"ce4bh3p2rcd13ifvqdq0","pricing_plan_id":"cebpf4jnsgd1na2vs0mg"},{"bike_id":"836a0c9e-0e3f-4bf9-b947-1a2704522280","system_id":"levelo_inurba_marseille","lat":43.28722,"lon":5.37937,"is_reserved":false,"is_disabled":false,"rental_uris":{"android":"levelo://app?vid=836a0c9e-0e3f-4bf9-b947-1a2704522280","ios":"levelo://app?vid=836a0c9e-0e3f-4bf9-b947-1a2704522280"},"vehicle_type_id":"4","last_reported":1729717695,"current_range_meters":39200,"station_id":"ce4bh9p2rcd13ifvqec0","pricing_plan_id":"cebpf4jnsgd1na2vs0mg"},{"bike_id":"4406e307-9d5f-4386-ad06-420a84fafa9c","system_id":"levelo_inurba_marseille","lat":43.2872,"lon":5.37923,"is_reserved":false,"is_disabled":false,"rental_uris":{"android":"levelo://app?vid=4406e307-9d5f-4386-ad06-420a84fafa9c","ios":"levelo://app?vid=4406e307-9d5f-4386-ad06-420a84fafa9c"},"vehicle_type_id":"4","last_reported":1729717695,"current_range_meters":30400,"station_id":"ce4bh9p2rcd13ifvqec0","pricing_plan_id":"cebpf4jnsgd1na2vs0mg"},{"bike_id":"e20330d7-de73-4dd9-93da-c6a470481942","system_id":"levelo_inurba_marseille","lat":43.31076,"lon":5.38355,"is_reserved":false,"is_disabled":false,"rental_uris":{"android":"levelo://app?vid=e20330d7-de73-4dd9-93da-c6a470481942","ios":"levelo://app?vid=e20330d7-de73-4dd9-93da-c6a470481942"},"vehicle_type_id":"4","last_reported":1729717695,"current_range_meters":37600,"station_id":"ce4bgv92rcd13ifvqcr0","pricing_plan_id":"cebpf4jnsgd1na2vs0mg"},{"bike_id":"0525aa25-f88e-48e5-be8a-69e26059c15f","system_id":"levelo_inurba_marseille","lat":43.27946,"lon":5.4104,"is_reserved":false,"is_disabled":false,"rental_uris":{"android":"levelo://app?vid=0525aa25-f88e-48e5-be8a-69e26059c15f","ios":"levelo://app?vid=0525aa25-f88e-48e5-be8a-69e26059c15f"},"vehicle_type_id":"4","last_reported":1729717695,"current_range_meters":16000,"station_id":"ce4bhnp2rcd13ifvqh0g","pricing_plan_id":"cebpf4jnsgd1na2vs0mg"},{"bike_id":"00ed294b-c734-4ae7-b088-6fc597b17c69","system_id":"levelo_inurba_marseille","lat":43.27991,"lon":5.41652,"is_reserved":false,"is_disabled":false,"rental_uris":{"android":"levelo://app?vid=00ed294b-c734-4ae7-b088-6fc597b17c69","ios":"levelo://app?vid=00ed294b-c734-4ae7-b088-6fc597b17c69"},"vehicle_type_id":"4","last_reported":1729717695,"current_range_meters":28000,"station_id":"ce4bho12rcd13ifvqh1g","pricing_plan_id":"cebpf4jnsgd1na2vs0mg"},{"bike_id":"48553ff6-4ace-4377-87b3-a61b29396212","system_id":"levelo_inurba_marseille","lat":43.30313,"lon":5.40433,"is_reserved":false,"is_disabled":false,"rental_uris":{"android":"levelo://app?vid=48553ff6-4ace-4377-87b3-a61b29396212","ios":"levelo://app?vid=48553ff6-4ace-4377-87b3-a61b29396212"},"vehicle_type_id":"4","last_reported":1729717695,"current_range_meters":34000,"station_id":"ce4bgl12rcd13ifvqbo0","pricing_plan_id":"cebpf4jnsgd1na2vs0mg"},{"bike_id":"ed276a18-a5c7-4620-a1f8-0091082a7c07","system_id":"levelo_inurba_marseille","lat":43.28943,"lon":5.36399,"is_reserved":false,"is_disabled":false,"rental_uris":{"android":"levelo://app?vid=ed276a18-a5c7-4620-a1f8-0091082a7c07","ios":"levelo://app?vid=ed276a18-a5c7-4620-a1f8-0091082a7c07"},"vehicle_type_id":"4","last_reported":1729717695,"current_range_meters":6800,"station_id":"ce4bhc92rcd13ifvqetg","pricing_plan_id":"cebpf4jnsgd1na2vs0mg"},{"bike_id":"ee56864d-0289-4ab0-b1d9-4e118a6c50f5","system_id":"levelo_inurba_marseille","lat":43.34131,"lon":5.40897,"is_reserved":false,"is_disabled":false,"rental_uris":{"android":"levelo://app?vid=ee56864d-0289-4ab0-b1d9-4e118a6c50f5","ios":"levelo://app?vid=ee56864d-0289-4ab0-b1d9-4e118a6c50f5"},"vehicle_type_id":"4","last_reported":1729717695,"current_range_meters":38800,"station_id":"ce4bhqh2rcd13ifvqhlg","pricing_plan_id":"cebpf4jnsgd1na2vs0mg"},{"bike_id":"7485068c-a88f-4a63-93f1-c517b3ac24fe","system_id":"levelo_inurba_marseille","lat":43.28567,"lon":5.3949,"is_reserved":false,"is_disabled":false,"rental_uris":{"android":"levelo://app?vid=7485068c-a88f-4a63-93f1-c517b3ac24fe","ios":"levelo://app?vid=7485068c-a88f-4a63-93f1-c517b3ac24fe"},"vehicle_type_id":"4","last_reported":1729717695,"current_range_meters":7200,"station_id":"ce4bh292rcd13ifvqdg0","pricing_plan_id":"cebpf4jnsgd1na2vs0mg"},{"bike_id":"b21f0da6-475f-4ddc-a2c2-379706b157d4","system_id":"levelo_inurba_marseille","lat":43.25576,"lon":5.38226,"is_reserved":false,"is_disabled":false,"rental_uris":{"android":"levelo://app?vid=b21f0da6-475f-4ddc-a2c2-379706b157d4","ios":"levelo://app?vid=b21f0da6-475f-4ddc-a2c2-379706b157d4"},"vehicle_type_id":"4","last_reported":1729717695,"current_range_meters":4800,"station_id":"ce4bhih2rcd13ifvqfs0","pricing_plan_id":"cebpf4jnsgd1na2vs0mg"},{"bike_id":"8851e641-2a34-4df4-9c62-4bc8ce7ebb4a","system_id":"levelo_inurba_marseille","lat":43.28694,"lon":5.37384,"is_reserved":false,"is_disabled":false,"rental_uris":{"android":"levelo://app?vid=8851e641-2a34-4df4-9c62-4bc8ce7ebb4a","ios":"levelo://app?vid=8851e641-2a34-4df4-9c62-4bc8ce7ebb4a"},"vehicle_type_id":"4","last_reported":1729717695,"current_range_meters":38800,"station_id":"ce4bh3p2rcd13ifvqdq0","pricing_plan_id":"cebpf4jnsgd1na2vs0mg"},{"bike_id":"ffcd6786-c380-4f4e-bd4c-8a397e665814","system_id":"levelo_inurba_marseille","lat":43.29419,"lon":5.38616,"is_reserved":false,"is_disabled":false,"rental_uris":{"android":"levelo://app?vid=ffcd6786-c380-4f4e-bd4c-8a397e665814","ios":"levelo://app?vid=ffcd6786-c380-4f4e-bd4c-8a397e665814"},"vehicle_type_id":"4","last_reported":1729717695,"current_range_meters":38800,"station_id":"ce4bh2h2rcd13ifvqdh0","pricing_plan_id":"cebpf4jnsgd1na2vs0mg"},{"bike_id":"606ae9a4-e252-4838-9386-7e52ddadecec","system_id":"levelo_inurba_marseille","lat":43.28566,"lon":5.3949,"is_reserved":false,"is_disabled":false,"rental_uris":{"android":"levelo://app?vid=606ae9a4-e252-4838-9386-7e52ddadecec","ios":"levelo://app?vid=606ae9a4-e252-4838-9386-7e52ddadecec"},"vehicle_type_id":"4","last_reported":1729717695,"current_range_meters":22400,"station_id":"ce4bh292rcd13ifvqdg0","pricing_plan_id":"cebpf4jnsgd1na2vs0mg"},{"bike_id":"53100c54-a4e3-45a7-9427-b292d95b6c16","system_id":"levelo_inurba_marseille","lat":43.30885,"lon":5.37189,"is_reserved":false,"is_disabled":false,"rental_uris":{"android":"levelo://app?vid=53100c54-a4e3-45a7-9427-b292d95b6c16","ios":"levelo://app?vid=53100c54-a4e3-45a7-9427-b292d95b6c16"},"vehicle_type_id":"4","last_reported":1729717695,"current_range_meters":39200,"station_id":"ce4bguh2rcd13ifvqckg","pricing_plan_id":"cebpf4jnsgd1na2vs0mg"},{"bike_id":"ee8aca3a-e9b8-4db2-b237-7fbf12308fde","system_id":"levelo_inurba_marseille","lat":43.30882,"lon":5.39632,"is_reserved":false,"is_disabled":false,"rental_uris":{"android":"levelo://app?vid=ee8aca3a-e9b8-4db2-b237-7fbf12308fde","ios":"levelo://app?vid=ee8aca3a-e9b8-4db2-b237-7fbf12308fde"},"vehicle_type_id":"4","last_reported":1729717695,"current_range_meters":4400,"station_id":"ce4bh012rcd13ifvqcv0","pricing_plan_id":"cebpf4jnsgd1na2vs0mg"},{"bike_id":"60b5ad38-328b-49d2-ab74-b91edfe19bd7","system_id":"levelo_inurba_marseille","lat":43.30887,"lon":5.39631,"is_reserved":false,"is_disabled":false,"rental_uris":{"android":"levelo://app?vid=60b5ad38-328b-49d2-ab74-b91edfe19bd7","ios":"levelo://app?vid=60b5ad38-328b-49d2-ab74-b91edfe19bd7"},"vehicle_type_id":"4","last_reported":1729717695,"current_range_meters":26800,"station_id":"ce4bh012rcd13ifvqcv0","pricing_plan_id":"cebpf4jnsgd1na2vs0mg"},{"bike_id":"0983bc58-22e1-4ca6-b4f3-de68f85708d6","system_id":"levelo_inurba_marseille","lat":43.2979,"lon":5.39355,"is_reserved":false,"is_disabled":false,"rental_uris":{"android":"levelo://app?vid=0983bc58-22e1-4ca6-b4f3-de68f85708d6","ios":"levelo://app?vid=0983bc58-22e1-4ca6-b4f3-de68f85708d6"},"vehicle_type_id":"4","last_reported":1729717695,"current_range_meters":10000,"station_id":"chh1huq6cuj3fo74tm60","pricing_plan_id":"cebpf4jnsgd1na2vs0mg"},{"bike_id":"399a9b33-7aba-4d13-9ed9-b18fa087368d","system_id":"levelo_inurba_marseille","lat":43.28727,"lon":5.36084,"is_reserved":false,"is_disabled":false,"rental_uris":{"android":"levelo://app?vid=399a9b33-7aba-4d13-9ed9-b18fa087368d","ios":"levelo://app?vid=399a9b33-7aba-4d13-9ed9-b18fa087368d"},"vehicle_type_id":"4","last_reported":1729717695,"current_range_meters":26000,"station_id":"cki0cbj6b192h4jlfktg","pricing_plan_id":"cebpf4jnsgd1na2vs0mg"},{"bike_id":"9f3419a5-e416-4d01-bb58-3846b114f310","system_id":"levelo_inurba_marseille","lat":43.29896,"lon":5.38148,"is_reserved":false,"is_disabled":false,"rental_uris":{"android":"levelo://app?vid=9f3419a5-e416-4d01-bb58-3846b114f310","ios":"levelo://app?vid=9f3419a5-e416-4d01-bb58-3846b114f310"},"vehicle_type_id":"4","last_reported":1729717695,"current_range_meters":38800,"station_id":"ce4bgj12rcd13ifvqbc0","pricing_plan_id":"cebpf4jnsgd1na2vs0mg"},{"bike_id":"bdfe3f09-f107-424c-91cd-795259fdc3bf","system_id":"levelo_inurba_marseille","lat":43.28931,"lon":5.36625,"is_reserved":false,"is_disabled":false,"rental_uris":{"android":"levelo://app?vid=bdfe3f09-f107-424c-91cd-795259fdc3bf","ios":"levelo://app?vid=bdfe3f09-f107-424c-91cd-795259fdc3bf"},"vehicle_type_id":"4","last_reported":1729717695,"current_range_meters":38800,"station_id":"ce4bhap2rcd13ifvqek0","pricing_plan_id":"cebpf4jnsgd1na2vs0mg"},{"bike_id":"f7ab3229-80dc-46d8-a1fd-220034cb7183","system_id":"levelo_inurba_marseille","lat":43.24176,"lon":5.39722,"is_reserved":false,"is_disabled":false,"rental_uris":{"android":"levelo://app?vid=f7ab3229-80dc-46d8-a1fd-220034cb7183","ios":"levelo://app?vid=f7ab3229-80dc-46d8-a1fd-220034cb7183"},"vehicle_type_id":"4","last_reported":1729717695,"current_range_meters":8800,"station_id":"ce4bhn12rcd13ifvqgpg","pricing_plan_id":"cebpf4jnsgd1na2vs0mg"},{"bike_id":"cbd67fc7-6897-4929-bddc-6bb781249d6c","system_id":"levelo_inurba_marseille","lat":43.28454,"lon":5.35882,"is_reserved":false,"is_disabled":false,"rental_uris":{"android":"levelo://app?vid=cbd67fc7-6897-4929-bddc-6bb781249d6c","ios":"levelo://app?vid=cbd67fc7-6897-4929-bddc-6bb781249d6c"},"vehicle_type_id":"4","last_reported":1729717695,"current_range_meters":20400,"station_id":"ce4bhah2rcd13ifvqei0","pricing_plan_id":"cebpf4jnsgd1na2vs0mg"},{"bike_id":"b9fc9121-a79e-4a89-8a2c-e5f27124b9b0","system_id":"levelo_inurba_marseille","lat":43.28268,"lon":5.35056,"is_reserved":false,"is_disabled":false,"rental_uris":{"android":"levelo://app?vid=b9fc9121-a79e-4a89-8a2c-e5f27124b9b0","ios":"levelo://app?vid=b9fc9121-a79e-4a89-8a2c-e5f27124b9b0"},"vehicle_type_id":"4","last_reported":1729717695,"current_range_meters":38800,"station_id":"ce4bhbp2rcd13ifvqerg","pricing_plan_id":"cebpf4jnsgd1na2vs0mg"},{"bike_id":"2a9cc6bb-377e-489d-b291-74ebc4a4402e","system_id":"levelo_inurba_marseille","lat":43.29192,"lon":5.39333,"is_reserved":false,"is_disabled":false,"rental_uris":{"android":"levelo://app?vid=2a9cc6bb-377e-489d-b291-74ebc4a4402e","ios":"levelo://app?vid=2a9cc6bb-377e-489d-b291-74ebc4a4402e"},"vehicle_type_id":"4","last_reported":1729717695,"current_range_meters":4000,"station_id":"ce4bh192rcd13ifvqdd0","pricing_plan_id":"cebpf4jnsgd1na2vs0mg"},{"bike_id":"22516433-e256-400e-ba52-60772187b394","system_id":"levelo_inurba_marseille","lat":43.309321,"lon":5.40139,"is_reserved":false,"is_disabled":false,"rental_uris":{"android":"levelo://app?vid=22516433-e256-400e-ba52-60772187b394","ios":"levelo://app?vid=22516433-e256-400e-ba52-60772187b394"},"vehicle_type_id":"4","last_reported":1729717695,"current_range_meters":32400,"station_id":"ce4bgvp2rcd13ifvqct0","pricing_plan_id":"cebpf4jnsgd1na2vs0mg"},{"bike_id":"a8164c38-3196-4168-923b-22859127c624","system_id":"levelo_inurba_marseille","lat":43.30539,"lon":5.38431,"is_reserved":false,"is_disabled":false,"rental_uris":{"android":"levelo://app?vid=a8164c38-3196-4168-923b-22859127c624","ios":"levelo://app?vid=a8164c38-3196-4168-923b-22859127c624"},"vehicle_type_id":"4","last_reported":1729717695,"current_range_meters":38400,"station_id":"ce4bgg92rcd13ifvqb30","pricing_plan_id":"cebpf4jnsgd1na2vs0mg"},{"bike_id":"5de75eff-f5e0-497d-811c-ccdce777ef54","system_id":"levelo_inurba_marseille","lat":43.23149,"lon":5.43715,"is_reserved":false,"is_disabled":false,"rental_uris":{"android":"levelo://app?vid=5de75eff-f5e0-497d-811c-ccdce777ef54","ios":"levelo://app?vid=5de75eff-f5e0-497d-811c-ccdce777ef54"},"vehicle_type_id":"4","last_reported":1729717695,"current_range_meters":18800,"station_id":"ce4bhmp2rcd13ifvqgog","pricing_plan_id":"cebpf4jnsgd1na2vs0mg"},{"bike_id":"4ec90e5e-9420-4da7-b975-f9fa611c02c5","system_id":"levelo_inurba_marseille","lat":43.29265,"lon":5.3844,"is_reserved":false,"is_disabled":false,"rental_uris":{"android":"levelo://app?vid=4ec90e5e-9420-4da7-b975-f9fa611c02c5","ios":"levelo://app?vid=4ec90e5e-9420-4da7-b975-f9fa611c02c5"},"vehicle_type_id":"4","last_reported":1729717695,"current_range_meters":38800,"station_id":"ce4bh692rcd13ifvqea0","pricing_plan_id":"cebpf4jnsgd1na2vs0mg"},{"bike_id":"65706055-e32c-47c7-b9fd-60d87f8774f1","system_id":"levelo_inurba_marseille","lat":43.28937,"lon":5.36634,"is_reserved":false,"is_disabled":false,"rental_uris":{"android":"levelo://app?vid=65706055-e32c-47c7-b9fd-60d87f8774f1","ios":"levelo://app?vid=65706055-e32c-47c7-b9fd-60d87f8774f1"},"vehicle_type_id":"4","last_reported":1729717695,"current_range_meters":36400,"station_id":"ce4bhap2rcd13ifvqek0","pricing_plan_id":"cebpf4jnsgd1na2vs0mg"},{"bike_id":"513e9df3-7590-42dd-a419-2e9e62f66b47","system_id":"levelo_inurba_marseille","lat":43.31332,"lon":5.3969,"is_reserved":false,"is_disabled":false,"rental_uris":{"android":"levelo://app?vid=513e9df3-7590-42dd-a419-2e9e62f66b47","ios":"levelo://app?vid=513e9df3-7590-42dd-a419-2e9e62f66b47"},"vehicle_type_id":"4","last_reported":1729717695,"current_range_meters":9600,"station_id":"ce4bgvp2rcd13ifvqcu0","pricing_plan_id":"cebpf4jnsgd1na2vs0mg"},{"bike_id":"9c980766-3696-42be-8e1a-d22fb6edb5c5","system_id":"levelo_inurba_marseille","lat":43.30652,"lon":5.3817,"is_reserved":false,"is_disabled":false,"rental_uris":{"android":"levelo://app?vid=9c980766-3696-42be-8e1a-d22fb6edb5c5","ios":"levelo://app?vid=9c980766-3696-42be-8e1a-d22fb6edb5c5"},"vehicle_type_id":"4","last_reported":1729717695,"current_range_meters":31200,"station_id":"","pricing_plan_id":"cebpf4jnsgd1na2vs0mg"},{"bike_id":"e6a052aa-fae1-4391-87df-f08113c0dc77","system_id":"levelo_inurba_marseille","lat":43.28351,"lon":5.38103,"is_reserved":false,"is_disabled":false,"rental_uris":{"android":"levelo://app?vid=e6a052aa-fae1-4391-87df-f08113c0dc77","ios":"levelo://app?vid=e6a052aa-fae1-4391-87df-f08113c0dc77"},"vehicle_type_id":"4","last_reported":1729717695,"current_range_meters":29600,"station_id":"ce4bh412rcd13ifvqdr0","pricing_plan_id":"cebpf4jnsgd1na2vs0mg"},{"bike_id":"2ac4ea33-3cf3-4d4d-b0e0-6342959c8f82","system_id":"levelo_inurba_marseille","lat":43.2992,"lon":5.37467,"is_reserved":false,"is_disabled":false,"rental_uris":{"android":"levelo://app?vid=2ac4ea33-3cf3-4d4d-b0e0-6342959c8f82","ios":"levelo://app?vid=2ac4ea33-3cf3-4d4d-b0e0-6342959c8f82"},"vehicle_type_id":"4","last_reported":1729717695,"current_range_meters":38000,"station_id":"ce4bgjh2rcd13ifvqbg0","pricing_plan_id":"cebpf4jnsgd1na2vs0mg"},{"bike_id":"c795749b-6514-4187-b84f-9dd949a143e0","system_id":"levelo_inurba_marseille","lat":43.32661,"lon":5.40988,"is_reserved":false,"is_disabled":false,"rental_uris":{"android":"levelo://app?vid=c795749b-6514-4187-b84f-9dd949a143e0","ios":"levelo://app?vid=c795749b-6514-4187-b84f-9dd949a143e0"},"vehicle_type_id":"4","last_reported":1729717695,"current_range_meters":38800,"station_id":"ce4bhpp2rcd13ifvqhgg","pricing_plan_id":"cebpf4jnsgd1na2vs0mg"},{"bike_id":"580656df-3830-4c81-bc34-c502f76a985d","system_id":"levelo_inurba_marseille","lat":43.31713,"lon":5.37731,"is_reserved":false,"is_disabled":false,"rental_uris":{"android":"levelo://app?vid=580656df-3830-4c81-bc34-c502f76a985d","ios":"levelo://app?vid=580656df-3830-4c81-bc34-c502f76a985d"},"vehicle_type_id":"4","last_reported":1729717695,"current_range_meters":34000,"station_id":"ce4bgth2rcd13ifvqch0","pricing_plan_id":"cebpf4jnsgd1na2vs0mg"},{"bike_id":"c3150cf2-eed0-4559-b458-4d78d65ddaa9","system_id":"levelo_inurba_marseille","lat":43.2834,"lon":5.39744,"is_reserved":false,"is_disabled":false,"rental_uris":{"android":"levelo://app?vid=c3150cf2-eed0-4559-b458-4d78d65ddaa9","ios":"levelo://app?vid=c3150cf2-eed0-4559-b458-4d78d65ddaa9"},"vehicle_type_id":"4","last_reported":1729717695,"current_range_meters":29600,"station_id":"ce4bh3p2rcd13ifvqdp0","pricing_plan_id":"cebpf4jnsgd1na2vs0mg"},{"bike_id":"1cc96fa8-d98d-455c-8d2b-94b443812498","system_id":"levelo_inurba_marseille","lat":43.29235,"lon":5.40886,"is_reserved":false,"is_disabled":false,"rental_uris":{"android":"levelo://app?vid=1cc96fa8-d98d-455c-8d2b-94b443812498","ios":"levelo://app?vid=1cc96fa8-d98d-455c-8d2b-94b443812498"},"vehicle_type_id":"4","last_reported":1729717695,"current_range_meters":38800,"station_id":"ce4bh192rcd13ifvqdc0","pricing_plan_id":"cebpf4jnsgd1na2vs0mg"},{"bike_id":"77a90b94-015d-4dcb-8c15-a02bee9f2768","system_id":"levelo_inurba_marseille","lat":43.26561,"lon":5.38096,"is_reserved":false,"is_disabled":false,"rental_uris":{"android":"levelo://app?vid=77a90b94-015d-4dcb-8c15-a02bee9f2768","ios":"levelo://app?vid=77a90b94-015d-4dcb-8c15-a02bee9f2768"},"vehicle_type_id":"4","last_reported":1729717695,"current_range_meters":18800,"station_id":"ce4bhg92rcd13ifvqf90","pricing_plan_id":"cebpf4jnsgd1na2vs0mg"},{"bike_id":"a94eba6d-f4bd-4abd-85df-dff0a7d34198","system_id":"levelo_inurba_marseille","lat":43.30435,"lon":5.38888,"is_reserved":false,"is_disabled":false,"rental_uris":{"android":"levelo://app?vid=a94eba6d-f4bd-4abd-85df-dff0a7d34198","ios":"levelo://app?vid=a94eba6d-f4bd-4abd-85df-dff0a7d34198"},"vehicle_type_id":"4","last_reported":1729717695,"current_range_meters":34800,"station_id":"ce4bgk12rcd13ifvqbi0","pricing_plan_id":"cebpf4jnsgd1na2vs0mg"},{"bike_id":"af500fd8-cd03-4d32-ae0f-7af64811c2fd","system_id":"levelo_inurba_marseille","lat":43.29795,"lon":5.39352,"is_reserved":false,"is_disabled":false,"rental_uris":{"android":"levelo://app?vid=af500fd8-cd03-4d32-ae0f-7af64811c2fd","ios":"levelo://app?vid=af500fd8-cd03-4d32-ae0f-7af64811c2fd"},"vehicle_type_id":"4","last_reported":1729717695,"current_range_meters":38000,"station_id":"chh1huq6cuj3fo74tm60","pricing_plan_id":"cebpf4jnsgd1na2vs0mg"},{"bike_id":"90c3a3ae-e1f9-49f9-8230-c82dc265a457","system_id":"levelo_inurba_marseille","lat":43.31991,"lon":5.38146,"is_reserved":false,"is_disabled":false,"rental_uris":{"android":"levelo://app?vid=90c3a3ae-e1f9-49f9-8230-c82dc265a457","ios":"levelo://app?vid=90c3a3ae-e1f9-49f9-8230-c82dc265a457"},"vehicle_type_id":"4","last_reported":1729717695,"current_range_meters":9200,"station_id":"ce4bhr12rcd13ifvqhpg","pricing_plan_id":"cebpf4jnsgd1na2vs0mg"},{"bike_id":"d43610d4-6ab3-4063-97de-1a3507b8b43a","system_id":"levelo_inurba_marseille","lat":43.26802,"lon":5.40263,"is_reserved":false,"is_disabled":false,"rental_uris":{"android":"levelo://app?vid=d43610d4-6ab3-4063-97de-1a3507b8b43a","ios":"levelo://app?vid=d43610d4-6ab3-4063-97de-1a3507b8b43a"},"vehicle_type_id":"4","last_reported":1729717695,"current_range_meters":30800,"station_id":"ce501612rcd8frsf0b60","pricing_plan_id":"cebpf4jnsgd1na2vs0mg"},{"bike_id":"e6b310af-d763-4708-a97e-f6f2e27c7b8b","system_id":"levelo_inurba_marseille","lat":43.27168,"lon":5.40989,"is_reserved":false,"is_disabled":false,"rental_uris":{"android":"levelo://app?vid=e6b310af-d763-4708-a97e-f6f2e27c7b8b","ios":"levelo://app?vid=e6b310af-d763-4708-a97e-f6f2e27c7b8b"},"vehicle_type_id":"4","last_reported":1729717695,"current_range_meters":9200,"station_id":"ce4bhl12rcd13ifvqgf0","pricing_plan_id":"cebpf4jnsgd1na2vs0mg"},{"bike_id":"29307b0a-20bd-4b38-88dd-bf6801123e99","system_id":"levelo_inurba_marseille","lat":43.24184,"lon":5.39711,"is_reserved":false,"is_disabled":false,"rental_uris":{"android":"levelo://app?vid=29307b0a-20bd-4b38-88dd-bf6801123e99","ios":"levelo://app?vid=29307b0a-20bd-4b38-88dd-bf6801123e99"},"vehicle_type_id":"4","last_reported":1729717695,"current_range_meters":38800,"station_id":"ce4bhn12rcd13ifvqgpg","pricing_plan_id":"cebpf4jnsgd1na2vs0mg"},{"bike_id":"8326934f-a7f4-48b3-a231-d6c67cc4ec03","system_id":"levelo_inurba_marseille","lat":43.29864,"lon":5.39732,"is_reserved":false,"is_disabled":false,"rental_uris":{"android":"levelo://app?vid=8326934f-a7f4-48b3-a231-d6c67cc4ec03","ios":"levelo://app?vid=8326934f-a7f4-48b3-a231-d6c67cc4ec03"},"vehicle_type_id":"4","last_reported":1729717695,"current_range_meters":38800,"station_id":"ce4bh0h2rcd13ifvqd50","pricing_plan_id":"cebpf4jnsgd1na2vs0mg"},{"bike_id":"a3771840-68bd-4f15-8030-f207a396d59b","system_id":"levelo_inurba_marseille","lat":43.29028,"lon":5.38649,"is_reserved":false,"is_disabled":false,"rental_uris":{"android":"levelo://app?vid=a3771840-68bd-4f15-8030-f207a396d59b","ios":"levelo://app?vid=a3771840-68bd-4f15-8030-f207a396d59b"},"vehicle_type_id":"4","last_reported":1729717695,"current_range_meters":24000,"station_id":"ce4bh4p2rcd13ifvqe0g","pricing_plan_id":"cebpf4jnsgd1na2vs0mg"},{"bike_id":"b5fa4979-ca3f-4635-9b7e-5639a58abb96","system_id":"levelo_inurba_marseille","lat":43.29524,"lon":5.38539,"is_reserved":false,"is_disabled":false,"rental_uris":{"android":"levelo://app?vid=b5fa4979-ca3f-4635-9b7e-5639a58abb96","ios":"levelo://app?vid=b5fa4979-ca3f-4635-9b7e-5639a58abb96"},"vehicle_type_id":"4","last_reported":1729717695,"current_range_meters":38400,"station_id":"ce4bgih2rcd13ifvqba0","pricing_plan_id":"cebpf4jnsgd1na2vs0mg"},{"bike_id":"8dad1b3c-e58e-464e-96d9-81826bf13853","system_id":"levelo_inurba_marseille","lat":43.3015,"lon":5.3743,"is_reserved":false,"is_disabled":false,"rental_uris":{"android":"levelo://app?vid=8dad1b3c-e58e-464e-96d9-81826bf13853","ios":"levelo://app?vid=8dad1b3c-e58e-464e-96d9-81826bf13853"},"vehicle_type_id":"4","last_reported":1729717695,"current_range_meters":28000,"station_id":"ce4bgs92rcd13ifvqcc0","pricing_plan_id":"cebpf4jnsgd1na2vs0mg"},{"bike_id":"53643c73-ebff-4438-9bbc-d1455671aa2b","system_id":"levelo_inurba_marseille","lat":43.31992,"lon":5.38151,"is_reserved":false,"is_disabled":false,"rental_uris":{"android":"levelo://app?vid=53643c73-ebff-4438-9bbc-d1455671aa2b","ios":"levelo://app?vid=53643c73-ebff-4438-9bbc-d1455671aa2b"},"vehicle_type_id":"4","last_reported":1729717695,"current_range_meters":32400,"station_id":"ce4bhr12rcd13ifvqhpg","pricing_plan_id":"cebpf4jnsgd1na2vs0mg"},{"bike_id":"30f7e039-7faa-4395-ab5e-4fd14e59dc48","system_id":"levelo_inurba_marseille","lat":43.28345,"lon":5.38109,"is_reserved":false,"is_disabled":false,"rental_uris":{"android":"levelo://app?vid=30f7e039-7faa-4395-ab5e-4fd14e59dc48","ios":"levelo://app?vid=30f7e039-7faa-4395-ab5e-4fd14e59dc48"},"vehicle_type_id":"4","last_reported":1729717695,"current_range_meters":39200,"station_id":"ce4bh412rcd13ifvqdr0","pricing_plan_id":"cebpf4jnsgd1na2vs0mg"},{"bike_id":"83c1c1bf-7f3e-40f7-8901-caa547648f75","system_id":"levelo_inurba_marseille","lat":43.292593,"lon":5.409083,"is_reserved":false,"is_disabled":false,"rental_uris":{"android":"levelo://app?vid=83c1c1bf-7f3e-40f7-8901-caa547648f75","ios":"levelo://app?vid=83c1c1bf-7f3e-40f7-8901-caa547648f75"},"vehicle_type_id":"4","last_reported":1729717695,"current_range_meters":8400,"station_id":"ce4bh192rcd13ifvqdc0","pricing_plan_id":"cebpf4jnsgd1na2vs0mg"},{"bike_id":"407d5ace-b68e-45e5-8307-2fb1d021f6b6","system_id":"levelo_inurba_marseille","lat":43.30896,"lon":5.37199,"is_reserved":false,"is_disabled":false,"rental_uris":{"android":"levelo://app?vid=407d5ace-b68e-45e5-8307-2fb1d021f6b6","ios":"levelo://app?vid=407d5ace-b68e-45e5-8307-2fb1d021f6b6"},"vehicle_type_id":"4","last_reported":1729717695,"current_range_meters":22800,"station_id":"ce4bguh2rcd13ifvqckg","pricing_plan_id":"cebpf4jnsgd1na2vs0mg"},{"bike_id":"16c623cf-ab3f-4890-b15b-3153fd350014","system_id":"levelo_inurba_marseille","lat":43.24649,"lon":5.38881,"is_reserved":false,"is_disabled":false,"rental_uris":{"android":"levelo://app?vid=16c623cf-ab3f-4890-b15b-3153fd350014","ios":"levelo://app?vid=16c623cf-ab3f-4890-b15b-3153fd350014"},"vehicle_type_id":"4","last_reported":1729717695,"current_range_meters":30000,"station_id":"ce4bhg12rcd13ifvqf60","pricing_plan_id":"cebpf4jnsgd1na2vs0mg"},{"bike_id":"84bdd819-4ab1-4f82-9b18-7a085349e454","system_id":"levelo_inurba_marseille","lat":43.2558,"lon":5.38228,"is_reserved":false,"is_disabled":false,"rental_uris":{"android":"levelo://app?vid=84bdd819-4ab1-4f82-9b18-7a085349e454","ios":"levelo://app?vid=84bdd819-4ab1-4f82-9b18-7a085349e454"},"vehicle_type_id":"4","last_reported":1729717695,"current_range_meters":27200,"station_id":"ce4bhih2rcd13ifvqfs0","pricing_plan_id":"cebpf4jnsgd1na2vs0mg"},{"bike_id":"f57afd03-c92f-4ffa-9b51-edefd10dccaf","system_id":"levelo_inurba_marseille","lat":43.2871,"lon":5.39985,"is_reserved":false,"is_disabled":false,"rental_uris":{"android":"levelo://app?vid=f57afd03-c92f-4ffa-9b51-edefd10dccaf","ios":"levelo://app?vid=f57afd03-c92f-4ffa-9b51-edefd10dccaf"},"vehicle_type_id":"4","last_reported":1729717695,"current_range_meters":5600,"station_id":"ce4bho92rcd13ifvqh3g","pricing_plan_id":"cebpf4jnsgd1na2vs0mg"},{"bike_id":"78f4e775-2fb1-4532-9f95-72455c77c8bc","system_id":"levelo_inurba_marseille","lat":43.29278,"lon":5.38433,"is_reserved":false,"is_disabled":false,"rental_uris":{"android":"levelo://app?vid=78f4e775-2fb1-4532-9f95-72455c77c8bc","ios":"levelo://app?vid=78f4e775-2fb1-4532-9f95-72455c77c8bc"},"vehicle_type_id":"4","last_reported":1729717695,"current_range_meters":38800,"station_id":"ce4bh692rcd13ifvqea0","pricing_plan_id":"cebpf4jnsgd1na2vs0mg"},{"bike_id":"b048e3b9-ef54-4400-a75d-4efbd1ad7384","system_id":"levelo_inurba_marseille","lat":43.28036,"lon":5.3694,"is_reserved":false,"is_disabled":false,"rental_uris":{"android":"levelo://app?vid=b048e3b9-ef54-4400-a75d-4efbd1ad7384","ios":"levelo://app?vid=b048e3b9-ef54-4400-a75d-4efbd1ad7384"},"vehicle_type_id":"4","last_reported":1729717695,"current_range_meters":32000,"station_id":"ce4bha12rcd13ifvqef0","pricing_plan_id":"cebpf4jnsgd1na2vs0mg"},{"bike_id":"4fd2f565-ace7-4302-8010-18516f6fa357","system_id":"levelo_inurba_marseille","lat":43.32653,"lon":5.40983,"is_reserved":false,"is_disabled":false,"rental_uris":{"android":"levelo://app?vid=4fd2f565-ace7-4302-8010-18516f6fa357","ios":"levelo://app?vid=4fd2f565-ace7-4302-8010-18516f6fa357"},"vehicle_type_id":"4","last_reported":1729717695,"current_range_meters":38800,"station_id":"ce4bhpp2rcd13ifvqhgg","pricing_plan_id":"cebpf4jnsgd1na2vs0mg"},{"bike_id":"9a5500e7-910d-435f-a360-a01008478b62","system_id":"levelo_inurba_marseille","lat":43.27906,"lon":5.38014,"is_reserved":false,"is_disabled":false,"rental_uris":{"android":"levelo://app?vid=9a5500e7-910d-435f-a360-a01008478b62","ios":"levelo://app?vid=9a5500e7-910d-435f-a360-a01008478b62"},"vehicle_type_id":"4","last_reported":1729717695,"current_range_meters":9200,"station_id":"ce4bhf92rcd13ifvqf50","pricing_plan_id":"cebpf4jnsgd1na2vs0mg"},{"bike_id":"7ea0b9f7-4a6d-47fb-92a8-978540e4b15a","system_id":"levelo_inurba_marseille","lat":43.26947,"lon":5.4025,"is_reserved":false,"is_disabled":false,"rental_uris":{"android":"levelo://app?vid=7ea0b9f7-4a6d-47fb-92a8-978540e4b15a","ios":"levelo://app?vid=7ea0b9f7-4a6d-47fb-92a8-978540e4b15a"},"vehicle_type_id":"4","last_reported":1729717695,"current_range_meters":38800,"station_id":"cjm6bp8fraef2m0cb0m0","pricing_plan_id":"cebpf4jnsgd1na2vs0mg"},{"bike_id":"0528bf61-5371-480d-9a73-5195363c7bd0","system_id":"levelo_inurba_marseille","lat":43.29522,"lon":5.38541,"is_reserved":false,"is_disabled":false,"rental_uris":{"android":"levelo://app?vid=0528bf61-5371-480d-9a73-5195363c7bd0","ios":"levelo://app?vid=0528bf61-5371-480d-9a73-5195363c7bd0"},"vehicle_type_id":"4","last_reported":1729717695,"current_range_meters":37600,"station_id":"ce4bgih2rcd13ifvqba0","pricing_plan_id":"cebpf4jnsgd1na2vs0mg"},{"bike_id":"f94a562f-59f2-4ba1-a457-b8508034886e","system_id":"levelo_inurba_marseille","lat":43.27377,"lon":5.36257,"is_reserved":false,"is_disabled":false,"rental_uris":{"android":"levelo://app?vid=f94a562f-59f2-4ba1-a457-b8508034886e","ios":"levelo://app?vid=f94a562f-59f2-4ba1-a457-b8508034886e"},"vehicle_type_id":"4","last_reported":1729717695,"current_range_meters":25600,"station_id":"ce4bhbh2rcd13ifvqeo0","pricing_plan_id":"cebpf4jnsgd1na2vs0mg"},{"bike_id":"4ec25af9-2c50-4187-b3b7-1dc66bf6c68a","system_id":"levelo_inurba_marseille","lat":43.28287,"lon":5.40847,"is_reserved":false,"is_disabled":false,"rental_uris":{"android":"levelo://app?vid=4ec25af9-2c50-4187-b3b7-1dc66bf6c68a","ios":"levelo://app?vid=4ec25af9-2c50-4187-b3b7-1dc66bf6c68a"},"vehicle_type_id":"4","last_reported":1729717695,"current_range_meters":10000,"station_id":"","pricing_plan_id":"cebpf4jnsgd1na2vs0mg"},{"bike_id":"f9f93f00-63c7-44b2-8d54-5c8d2f10aa6b","system_id":"levelo_inurba_marseille","lat":43.29537,"lon":5.38536,"is_reserved":false,"is_disabled":false,"rental_uris":{"android":"levelo://app?vid=f9f93f00-63c7-44b2-8d54-5c8d2f10aa6b","ios":"levelo://app?vid=f9f93f00-63c7-44b2-8d54-5c8d2f10aa6b"},"vehicle_type_id":"4","last_reported":1729717695,"current_range_meters":24800,"station_id":"ce4bgih2rcd13ifvqba0","pricing_plan_id":"cebpf4jnsgd1na2vs0mg"},{"bike_id":"b044e76e-bdb4-4de5-a8b7-5b97500a2735","system_id":"levelo_inurba_marseille","lat":43.29531,"lon":5.38537,"is_reserved":false,"is_disabled":false,"rental_uris":{"android":"levelo://app?vid=b044e76e-bdb4-4de5-a8b7-5b97500a2735","ios":"levelo://app?vid=b044e76e-bdb4-4de5-a8b7-5b97500a2735"},"vehicle_type_id":"4","last_reported":1729717695,"current_range_meters":18800,"station_id":"ce4bgih2rcd13ifvqba0","pricing_plan_id":"cebpf4jnsgd1na2vs0mg"},{"bike_id":"f0f5f771-0921-4273-8b0e-ee6f2c5bfffa","system_id":"levelo_inurba_marseille","lat":43.29524,"lon":5.3854,"is_reserved":false,"is_disabled":false,"rental_uris":{"android":"levelo://app?vid=f0f5f771-0921-4273-8b0e-ee6f2c5bfffa","ios":"levelo://app?vid=f0f5f771-0921-4273-8b0e-ee6f2c5bfffa"},"vehicle_type_id":"4","last_reported":1729717695,"current_range_meters":24400,"station_id":"ce4bgih2rcd13ifvqba0","pricing_plan_id":"cebpf4jnsgd1na2vs0mg"},{"bike_id":"04b318d4-f43b-46bf-9dbd-94c5e363f1ab","system_id":"levelo_inurba_marseille","lat":43.3094,"lon":5.40136,"is_reserved":false,"is_disabled":false,"rental_uris":{"android":"levelo://app?vid=04b318d4-f43b-46bf-9dbd-94c5e363f1ab","ios":"levelo://app?vid=04b318d4-f43b-46bf-9dbd-94c5e363f1ab"},"vehicle_type_id":"4","last_reported":1729717695,"current_range_meters":9200,"station_id":"ce4bgvp2rcd13ifvqct0","pricing_plan_id":"cebpf4jnsgd1na2vs0mg"},{"bike_id":"103ed008-6f4b-4142-8ae0-e6b210d9a427","system_id":"levelo_inurba_marseille","lat":43.22932,"lon":5.35376,"is_reserved":false,"is_disabled":false,"rental_uris":{"android":"levelo://app?vid=103ed008-6f4b-4142-8ae0-e6b210d9a427","ios":"levelo://app?vid=103ed008-6f4b-4142-8ae0-e6b210d9a427"},"vehicle_type_id":"4","last_reported":1729717695,"current_range_meters":15200,"station_id":"cpo3532slgdg3j2ikp40","pricing_plan_id":"cebpf4jnsgd1na2vs0mg"},{"bike_id":"510370c0-a532-4d54-9b36-2c953fdaf8f3","system_id":"levelo_inurba_marseille","lat":43.29026,"lon":5.38643,"is_reserved":false,"is_disabled":false,"rental_uris":{"android":"levelo://app?vid=510370c0-a532-4d54-9b36-2c953fdaf8f3","ios":"levelo://app?vid=510370c0-a532-4d54-9b36-2c953fdaf8f3"},"vehicle_type_id":"4","last_reported":1729717695,"current_range_meters":38800,"station_id":"ce4bh4p2rcd13ifvqe0g","pricing_plan_id":"cebpf4jnsgd1na2vs0mg"},{"bike_id":"fa8da294-671e-4e9a-ad17-e5263743ae7c","system_id":"levelo_inurba_marseille","lat":43.24543,"lon":5.39527,"is_reserved":false,"is_disabled":false,"rental_uris":{"android":"levelo://app?vid=fa8da294-671e-4e9a-ad17-e5263743ae7c","ios":"levelo://app?vid=fa8da294-671e-4e9a-ad17-e5263743ae7c"},"vehicle_type_id":"4","last_reported":1729717695,"current_range_meters":24800,"station_id":"ce4bhlp2rcd13ifvqgjg","pricing_plan_id":"cebpf4jnsgd1na2vs0mg"},{"bike_id":"534d1db3-5c04-4d3e-aefb-da803638f9f8","system_id":"levelo_inurba_marseille","lat":43.28669,"lon":5.36353,"is_reserved":false,"is_disabled":false,"rental_uris":{"android":"levelo://app?vid=534d1db3-5c04-4d3e-aefb-da803638f9f8","ios":"levelo://app?vid=534d1db3-5c04-4d3e-aefb-da803638f9f8"},"vehicle_type_id":"4","last_reported":1729717695,"current_range_meters":17600,"station_id":"ce4bhah2rcd13ifvqej0","pricing_plan_id":"cebpf4jnsgd1na2vs0mg"},{"bike_id":"c1abb136-52d3-40e1-a0d0-22a01236923a","system_id":"levelo_inurba_marseille","lat":43.30255,"lon":5.40068,"is_reserved":false,"is_disabled":false,"rental_uris":{"android":"levelo://app?vid=c1abb136-52d3-40e1-a0d0-22a01236923a","ios":"levelo://app?vid=c1abb136-52d3-40e1-a0d0-22a01236923a"},"vehicle_type_id":"4","last_reported":1729717695,"current_range_meters":37600,"station_id":"ce4bgvh2rcd13ifvqcs0","pricing_plan_id":"cebpf4jnsgd1na2vs0mg"},{"bike_id":"efabcb8c-ee14-4cdc-be9a-ea85da1c61a6","system_id":"levelo_inurba_marseille","lat":43.32367,"lon":5.38881,"is_reserved":false,"is_disabled":false,"rental_uris":{"android":"levelo://app?vid=efabcb8c-ee14-4cdc-be9a-ea85da1c61a6","ios":"levelo://app?vid=efabcb8c-ee14-4cdc-be9a-ea85da1c61a6"},"vehicle_type_id":"4","last_reported":1729717695,"current_range_meters":36800,"station_id":"ce4bhqp2rcd13ifvqhog","pricing_plan_id":"cebpf4jnsgd1na2vs0mg"},{"bike_id":"ea86be19-4354-4299-8ffb-9b0930336d68","system_id":"levelo_inurba_marseille","lat":43.28419,"lon":5.37517,"is_reserved":false,"is_disabled":false,"rental_uris":{"android":"levelo://app?vid=ea86be19-4354-4299-8ffb-9b0930336d68","ios":"levelo://app?vid=ea86be19-4354-4299-8ffb-9b0930336d68"},"vehicle_type_id":"4","last_reported":1729717695,"current_range_meters":4800,"station_id":"ce4bh412rcd13ifvqds0","pricing_plan_id":"cebpf4jnsgd1na2vs0mg"},{"bike_id":"e93d0849-6889-4c3b-b756-5d2c77aee686","system_id":"levelo_inurba_marseille","lat":43.27996,"lon":5.41659,"is_reserved":false,"is_disabled":false,"rental_uris":{"android":"levelo://app?vid=e93d0849-6889-4c3b-b756-5d2c77aee686","ios":"levelo://app?vid=e93d0849-6889-4c3b-b756-5d2c77aee686"},"vehicle_type_id":"4","last_reported":1729717695,"current_range_meters":38800,"station_id":"ce4bho12rcd13ifvqh1g","pricing_plan_id":"cebpf4jnsgd1na2vs0mg"},{"bike_id":"3a23f1af-30a4-4557-accf-46d9aacc6d5a","system_id":"levelo_inurba_marseille","lat":43.28454,"lon":5.35887,"is_reserved":false,"is_disabled":false,"rental_uris":{"android":"levelo://app?vid=3a23f1af-30a4-4557-accf-46d9aacc6d5a","ios":"levelo://app?vid=3a23f1af-30a4-4557-accf-46d9aacc6d5a"},"vehicle_type_id":"4","last_reported":1729717695,"current_range_meters":32000,"station_id":"ce4bhah2rcd13ifvqei0","pricing_plan_id":"cebpf4jnsgd1na2vs0mg"},{"bike_id":"38468d00-a2f7-4592-8ce7-c025caf18437","system_id":"levelo_inurba_marseille","lat":43.28155,"lon":5.4264,"is_reserved":false,"is_disabled":false,"rental_uris":{"android":"levelo://app?vid=38468d00-a2f7-4592-8ce7-c025caf18437","ios":"levelo://app?vid=38468d00-a2f7-4592-8ce7-c025caf18437"},"vehicle_type_id":"4","last_reported":1729717695,"current_range_meters":36000,"station_id":"ce4bhnh2rcd13ifvqgug","pricing_plan_id":"cebpf4jnsgd1na2vs0mg"},{"bike_id":"4be36c39-1f06-41ce-8e81-2889cde6b1c6","system_id":"levelo_inurba_marseille","lat":43.29422,"lon":5.38613,"is_reserved":false,"is_disabled":false,"rental_uris":{"android":"levelo://app?vid=4be36c39-1f06-41ce-8e81-2889cde6b1c6","ios":"levelo://app?vid=4be36c39-1f06-41ce-8e81-2889cde6b1c6"},"vehicle_type_id":"4","last_reported":1729717695,"current_range_meters":36800,"station_id":"ce4bh2h2rcd13ifvqdh0","pricing_plan_id":"cebpf4jnsgd1na2vs0mg"},{"bike_id":"10ef942d-e564-4c77-a954-c43e0e015bbc","system_id":"levelo_inurba_marseille","lat":43.23177,"lon":5.3999,"is_reserved":false,"is_disabled":false,"rental_uris":{"android":"levelo://app?vid=10ef942d-e564-4c77-a954-c43e0e015bbc","ios":"levelo://app?vid=10ef942d-e564-4c77-a954-c43e0e015bbc"},"vehicle_type_id":"4","last_reported":1729717695,"current_range_meters":16000,"station_id":"ce4bhn12rcd13ifvqgqg","pricing_plan_id":"cebpf4jnsgd1na2vs0mg"},{"bike_id":"4439b8bb-2263-4fec-b135-4b051f3ea948","system_id":"levelo_inurba_marseille","lat":43.30596,"lon":5.37227,"is_reserved":false,"is_disabled":false,"rental_uris":{"android":"levelo://app?vid=4439b8bb-2263-4fec-b135-4b051f3ea948","ios":"levelo://app?vid=4439b8bb-2263-4fec-b135-4b051f3ea948"},"vehicle_type_id":"4","last_reported":1729717695,"current_range_meters":21600,"station_id":"ce4bgqh2rcd13ifvqc4g","pricing_plan_id":"cebpf4jnsgd1na2vs0mg"},{"bike_id":"0bc90dc2-cf8c-457e-a6aa-9b91de95f992","system_id":"levelo_inurba_marseille","lat":43.22784,"lon":5.41564,"is_reserved":false,"is_disabled":false,"rental_uris":{"android":"levelo://app?vid=0bc90dc2-cf8c-457e-a6aa-9b91de95f992","ios":"levelo://app?vid=0bc90dc2-cf8c-457e-a6aa-9b91de95f992"},"vehicle_type_id":"4","last_reported":1729717695,"current_range_meters":35200,"station_id":"","pricing_plan_id":"cebpf4jnsgd1na2vs0mg"},{"bike_id":"f3631442-88e4-4b99-802a-caff4044a5fa","system_id":"levelo_inurba_marseille","lat":43.25584,"lon":5.38238,"is_reserved":false,"is_disabled":false,"rental_uris":{"android":"levelo://app?vid=f3631442-88e4-4b99-802a-caff4044a5fa","ios":"levelo://app?vid=f3631442-88e4-4b99-802a-caff4044a5fa"},"vehicle_type_id":"4","last_reported":1729717695,"current_range_meters":12800,"station_id":"ce4bhih2rcd13ifvqfs0","pricing_plan_id":"cebpf4jnsgd1na2vs0mg"},{"bike_id":"67bf2a4e-b0b8-45b5-8898-2db548cfe92d","system_id":"levelo_inurba_marseille","lat":43.31328,"lon":5.3969,"is_reserved":false,"is_disabled":false,"rental_uris":{"android":"levelo://app?vid=67bf2a4e-b0b8-45b5-8898-2db548cfe92d","ios":"levelo://app?vid=67bf2a4e-b0b8-45b5-8898-2db548cfe92d"},"vehicle_type_id":"4","last_reported":1729717695,"current_range_meters":36000,"station_id":"ce4bgvp2rcd13ifvqcu0","pricing_plan_id":"cebpf4jnsgd1na2vs0mg"},{"bike_id":"7b2491ac-7bfc-43d1-9609-b41f70cd1036","system_id":"levelo_inurba_marseille","lat":43.30432,"lon":5.39744,"is_reserved":false,"is_disabled":false,"rental_uris":{"android":"levelo://app?vid=7b2491ac-7bfc-43d1-9609-b41f70cd1036","ios":"levelo://app?vid=7b2491ac-7bfc-43d1-9609-b41f70cd1036"},"vehicle_type_id":"4","last_reported":1729717695,"current_range_meters":24800,"station_id":"ce4bh092rcd13ifvqd20","pricing_plan_id":"cebpf4jnsgd1na2vs0mg"},{"bike_id":"77f4b066-aec9-4c35-96ec-732b3f9a5964","system_id":"levelo_inurba_marseille","lat":43.27905,"lon":5.38001,"is_reserved":false,"is_disabled":false,"rental_uris":{"android":"levelo://app?vid=77f4b066-aec9-4c35-96ec-732b3f9a5964","ios":"levelo://app?vid=77f4b066-aec9-4c35-96ec-732b3f9a5964"},"vehicle_type_id":"4","last_reported":1729717695,"current_range_meters":36400,"station_id":"ce4bhf92rcd13ifvqf50","pricing_plan_id":"cebpf4jnsgd1na2vs0mg"},{"bike_id":"4246efd7-6801-4b7b-b007-6178b971f023","system_id":"levelo_inurba_marseille","lat":43.28442,"lon":5.39202,"is_reserved":false,"is_disabled":false,"rental_uris":{"android":"levelo://app?vid=4246efd7-6801-4b7b-b007-6178b971f023","ios":"levelo://app?vid=4246efd7-6801-4b7b-b007-6178b971f023"},"vehicle_type_id":"4","last_reported":1729717695,"current_range_meters":8000,"station_id":"ce4bhoh2rcd13ifvqh5g","pricing_plan_id":"cebpf4jnsgd1na2vs0mg"},{"bike_id":"0973d286-3365-4f42-9824-07a3c56e8613","system_id":"levelo_inurba_marseille","lat":43.29002,"lon":5.36825,"is_reserved":false,"is_disabled":false,"rental_uris":{"android":"levelo://app?vid=0973d286-3365-4f42-9824-07a3c56e8613","ios":"levelo://app?vid=0973d286-3365-4f42-9824-07a3c56e8613"},"vehicle_type_id":"4","last_reported":1729717695,"current_range_meters":38400,"station_id":"","pricing_plan_id":"cebpf4jnsgd1na2vs0mg"},{"bike_id":"e41e09fb-c3cd-4ea0-b6f3-e7e0f9c1776e","system_id":"levelo_inurba_marseille","lat":43.32682,"lon":5.38841,"is_reserved":false,"is_disabled":false,"rental_uris":{"android":"levelo://app?vid=e41e09fb-c3cd-4ea0-b6f3-e7e0f9c1776e","ios":"levelo://app?vid=e41e09fb-c3cd-4ea0-b6f3-e7e0f9c1776e"},"vehicle_type_id":"4","last_reported":1729717695,"current_range_meters":30400,"station_id":"","pricing_plan_id":"cebpf4jnsgd1na2vs0mg"},{"bike_id":"a0bfcec4-1019-4422-bc30-2e46cb48cb4e","system_id":"levelo_inurba_marseille","lat":43.33759,"lon":5.37455,"is_reserved":false,"is_disabled":false,"rental_uris":{"android":"levelo://app?vid=a0bfcec4-1019-4422-bc30-2e46cb48cb4e","ios":"levelo://app?vid=a0bfcec4-1019-4422-bc30-2e46cb48cb4e"},"vehicle_type_id":"4","last_reported":1729717695,"current_range_meters":25600,"station_id":"","pricing_plan_id":"cebpf4jnsgd1na2vs0mg"},{"bike_id":"f50c9b5e-9690-4045-8f28-3865372c75dd","system_id":"levelo_inurba_marseille","lat":43.25579,"lon":5.38241,"is_reserved":false,"is_disabled":false,"rental_uris":{"android":"levelo://app?vid=f50c9b5e-9690-4045-8f28-3865372c75dd","ios":"levelo://app?vid=f50c9b5e-9690-4045-8f28-3865372c75dd"},"vehicle_type_id":"4","last_reported":1729717695,"current_range_meters":26800,"station_id":"ce4bhih2rcd13ifvqfs0","pricing_plan_id":"cebpf4jnsgd1na2vs0mg"},{"bike_id":"a8d6c914-eb01-4b6d-887b-aafdfbfd4dec","system_id":"levelo_inurba_marseille","lat":43.28415,"lon":5.37513,"is_reserved":false,"is_disabled":false,"rental_uris":{"android":"levelo://app?vid=a8d6c914-eb01-4b6d-887b-aafdfbfd4dec","ios":"levelo://app?vid=a8d6c914-eb01-4b6d-887b-aafdfbfd4dec"},"vehicle_type_id":"4","last_reported":1729717695,"current_range_meters":3200,"station_id":"ce4bh412rcd13ifvqds0","pricing_plan_id":"cebpf4jnsgd1na2vs0mg"},{"bike_id":"2162cca5-5c9a-45e7-bd48-25da8c194653","system_id":"levelo_inurba_marseille","lat":43.28103,"lon":5.37845,"is_reserved":false,"is_disabled":false,"rental_uris":{"android":"levelo://app?vid=2162cca5-5c9a-45e7-bd48-25da8c194653","ios":"levelo://app?vid=2162cca5-5c9a-45e7-bd48-25da8c194653"},"vehicle_type_id":"4","last_reported":1729717695,"current_range_meters":34000,"station_id":"ce4bha12rcd13ifvqee0","pricing_plan_id":"cebpf4jnsgd1na2vs0mg"},{"bike_id":"9cc86360-5eab-45ae-a458-952e8a91e43e","system_id":"levelo_inurba_marseille","lat":43.22936,"lon":5.3538,"is_reserved":false,"is_disabled":false,"rental_uris":{"android":"levelo://app?vid=9cc86360-5eab-45ae-a458-952e8a91e43e","ios":"levelo://app?vid=9cc86360-5eab-45ae-a458-952e8a91e43e"},"vehicle_type_id":"4","last_reported":1729717695,"current_range_meters":20000,"station_id":"cpo3532slgdg3j2ikp40","pricing_plan_id":"cebpf4jnsgd1na2vs0mg"},{"bike_id":"1b392ac2-bee0-4d7c-800b-d85f29208344","system_id":"levelo_inurba_marseille","lat":43.29368,"lon":5.37822,"is_reserved":false,"is_disabled":false,"rental_uris":{"android":"levelo://app?vid=1b392ac2-bee0-4d7c-800b-d85f29208344","ios":"levelo://app?vid=1b392ac2-bee0-4d7c-800b-d85f29208344"},"vehicle_type_id":"4","last_reported":1729717695,"current_range_meters":38800,"station_id":"ce4bgjh2rcd13ifvqbf0","pricing_plan_id":"cebpf4jnsgd1na2vs0mg"},{"bike_id":"5057ea2e-3503-41f5-84f1-9dd61758f2f6","system_id":"levelo_inurba_marseille","lat":43.28352,"lon":5.38101,"is_reserved":false,"is_disabled":false,"rental_uris":{"android":"levelo://app?vid=5057ea2e-3503-41f5-84f1-9dd61758f2f6","ios":"levelo://app?vid=5057ea2e-3503-41f5-84f1-9dd61758f2f6"},"vehicle_type_id":"4","last_reported":1729717695,"current_range_meters":7200,"station_id":"ce4bh412rcd13ifvqdr0","pricing_plan_id":"cebpf4jnsgd1na2vs0mg"},{"bike_id":"d4178fde-d9f1-489b-bf7f-8a98157127e4","system_id":"levelo_inurba_marseille","lat":43.29427,"lon":5.3974,"is_reserved":false,"is_disabled":false,"rental_uris":{"android":"levelo://app?vid=d4178fde-d9f1-489b-bf7f-8a98157127e4","ios":"levelo://app?vid=d4178fde-d9f1-489b-bf7f-8a98157127e4"},"vehicle_type_id":"4","last_reported":1729717695,"current_range_meters":28800,"station_id":"ce4bh3h2rcd13ifvqdo0","pricing_plan_id":"cebpf4jnsgd1na2vs0mg"},{"bike_id":"2791bec2-772a-458f-a57f-284af3c571b9","system_id":"levelo_inurba_marseille","lat":43.27614,"lon":5.3611,"is_reserved":false,"is_disabled":false,"rental_uris":{"android":"levelo://app?vid=2791bec2-772a-458f-a57f-284af3c571b9","ios":"levelo://app?vid=2791bec2-772a-458f-a57f-284af3c571b9"},"vehicle_type_id":"4","last_reported":1729717695,"current_range_meters":3600,"station_id":"ce4bgj92rcd13ifvqbe0","pricing_plan_id":"cebpf4jnsgd1na2vs0mg"},{"bike_id":"4a0e8360-a05c-4109-81a9-fc615adb8a72","system_id":"levelo_inurba_marseille","lat":43.30886,"lon":5.39656,"is_reserved":false,"is_disabled":false,"rental_uris":{"android":"levelo://app?vid=4a0e8360-a05c-4109-81a9-fc615adb8a72","ios":"levelo://app?vid=4a0e8360-a05c-4109-81a9-fc615adb8a72"},"vehicle_type_id":"4","last_reported":1729717695,"current_range_meters":23200,"station_id":"ce4bh012rcd13ifvqcv0","pricing_plan_id":"cebpf4jnsgd1na2vs0mg"},{"bike_id":"597bcd77-c4db-432f-bcad-f30ed17ce82d","system_id":"levelo_inurba_marseille","lat":43.28038,"lon":5.3694,"is_reserved":false,"is_disabled":false,"rental_uris":{"android":"levelo://app?vid=597bcd77-c4db-432f-bcad-f30ed17ce82d","ios":"levelo://app?vid=597bcd77-c4db-432f-bcad-f30ed17ce82d"},"vehicle_type_id":"4","last_reported":1729717695,"current_range_meters":28000,"station_id":"ce4bha12rcd13ifvqef0","pricing_plan_id":"cebpf4jnsgd1na2vs0mg"},{"bike_id":"bbb4600c-9366-419c-8bcb-c3c1c4bc5806","system_id":"levelo_inurba_marseille","lat":43.2749,"lon":5.42449,"is_reserved":false,"is_disabled":false,"rental_uris":{"android":"levelo://app?vid=bbb4600c-9366-419c-8bcb-c3c1c4bc5806","ios":"levelo://app?vid=bbb4600c-9366-419c-8bcb-c3c1c4bc5806"},"vehicle_type_id":"4","last_reported":1729717695,"current_range_meters":38800,"station_id":"ce4bhn92rcd13ifvqgrg","pricing_plan_id":"cebpf4jnsgd1na2vs0mg"},{"bike_id":"0e0eaaaf-c9fb-4522-ab66-bc72b5dcd618","system_id":"levelo_inurba_marseille","lat":43.2953,"lon":5.38545,"is_reserved":false,"is_disabled":false,"rental_uris":{"android":"levelo://app?vid=0e0eaaaf-c9fb-4522-ab66-bc72b5dcd618","ios":"levelo://app?vid=0e0eaaaf-c9fb-4522-ab66-bc72b5dcd618"},"vehicle_type_id":"4","last_reported":1729717695,"current_range_meters":30400,"station_id":"ce4bgih2rcd13ifvqba0","pricing_plan_id":"cebpf4jnsgd1na2vs0mg"},{"bike_id":"cfcebfa7-3f59-4d32-a8f1-45e59f6e2f26","system_id":"levelo_inurba_marseille","lat":43.22936,"lon":5.35381,"is_reserved":false,"is_disabled":false,"rental_uris":{"android":"levelo://app?vid=cfcebfa7-3f59-4d32-a8f1-45e59f6e2f26","ios":"levelo://app?vid=cfcebfa7-3f59-4d32-a8f1-45e59f6e2f26"},"vehicle_type_id":"4","last_reported":1729717695,"current_range_meters":35200,"station_id":"cpo3532slgdg3j2ikp40","pricing_plan_id":"cebpf4jnsgd1na2vs0mg"},{"bike_id":"3e381e9b-65a4-436a-a571-b4ba1ee13663","system_id":"levelo_inurba_marseille","lat":43.32481,"lon":5.36556,"is_reserved":false,"is_disabled":false,"rental_uris":{"android":"levelo://app?vid=3e381e9b-65a4-436a-a571-b4ba1ee13663","ios":"levelo://app?vid=3e381e9b-65a4-436a-a571-b4ba1ee13663"},"vehicle_type_id":"4","last_reported":1729717695,"current_range_meters":22800,"station_id":"ce4bhs12rcd13ifvqhvg","pricing_plan_id":"cebpf4jnsgd1na2vs0mg"},{"bike_id":"a3dcf7ee-59f1-4f53-936b-77f32b59962d","system_id":"levelo_inurba_marseille","lat":43.2749,"lon":5.42443,"is_reserved":false,"is_disabled":false,"rental_uris":{"android":"levelo://app?vid=a3dcf7ee-59f1-4f53-936b-77f32b59962d","ios":"levelo://app?vid=a3dcf7ee-59f1-4f53-936b-77f32b59962d"},"vehicle_type_id":"4","last_reported":1729717695,"current_range_meters":12800,"station_id":"ce4bhn92rcd13ifvqgrg","pricing_plan_id":"cebpf4jnsgd1na2vs0mg"},{"bike_id":"3a526fc6-5f14-429c-8829-287dc38ef285","system_id":"levelo_inurba_marseille","lat":43.22932,"lon":5.35373,"is_reserved":false,"is_disabled":false,"rental_uris":{"android":"levelo://app?vid=3a526fc6-5f14-429c-8829-287dc38ef285","ios":"levelo://app?vid=3a526fc6-5f14-429c-8829-287dc38ef285"},"vehicle_type_id":"4","last_reported":1729717695,"current_range_meters":35600,"station_id":"cpo3532slgdg3j2ikp40","pricing_plan_id":"cebpf4jnsgd1na2vs0mg"},{"bike_id":"e8ca6d47-6df2-47de-8243-f99a42d70c57","system_id":"levelo_inurba_marseille","lat":43.23963,"lon":5.36618,"is_reserved":false,"is_disabled":false,"rental_uris":{"android":"levelo://app?vid=e8ca6d47-6df2-47de-8243-f99a42d70c57","ios":"levelo://app?vid=e8ca6d47-6df2-47de-8243-f99a42d70c57"},"vehicle_type_id":"4","last_reported":1729717695,"current_range_meters":18000,"station_id":"ce4bhi12rcd13ifvqfp0","pricing_plan_id":"cebpf4jnsgd1na2vs0mg"},{"bike_id":"14e9ce92-3985-4e72-be93-f0cc1916080d","system_id":"levelo_inurba_marseille","lat":43.29415,"lon":5.38626,"is_reserved":false,"is_disabled":false,"rental_uris":{"android":"levelo://app?vid=14e9ce92-3985-4e72-be93-f0cc1916080d","ios":"levelo://app?vid=14e9ce92-3985-4e72-be93-f0cc1916080d"},"vehicle_type_id":"4","last_reported":1729717695,"current_range_meters":38800,"station_id":"ce4bh2h2rcd13ifvqdh0","pricing_plan_id":"cebpf4jnsgd1na2vs0mg"},{"bike_id":"7262f382-d7e7-464d-933d-3222561c9d4f","system_id":"levelo_inurba_marseille","lat":43.28459,"lon":5.35883,"is_reserved":false,"is_disabled":false,"rental_uris":{"android":"levelo://app?vid=7262f382-d7e7-464d-933d-3222561c9d4f","ios":"levelo://app?vid=7262f382-d7e7-464d-933d-3222561c9d4f"},"vehicle_type_id":"4","last_reported":1729717695,"current_range_meters":28400,"station_id":"ce4bhah2rcd13ifvqei0","pricing_plan_id":"cebpf4jnsgd1na2vs0mg"},{"bike_id":"07a0475d-cb4c-43b4-bfde-5371b2e6c2f2","system_id":"levelo_inurba_marseille","lat":43.23148,"lon":5.43684,"is_reserved":false,"is_disabled":false,"rental_uris":{"android":"levelo://app?vid=07a0475d-cb4c-43b4-bfde-5371b2e6c2f2","ios":"levelo://app?vid=07a0475d-cb4c-43b4-bfde-5371b2e6c2f2"},"vehicle_type_id":"4","last_reported":1729717695,"current_range_meters":17600,"station_id":"ce4bhmp2rcd13ifvqgog","pricing_plan_id":"cebpf4jnsgd1na2vs0mg"},{"bike_id":"0e1dd2a7-bac5-4170-9336-28ee76270cd1","system_id":"levelo_inurba_marseille","lat":43.30798,"lon":5.38143,"is_reserved":false,"is_disabled":false,"rental_uris":{"android":"levelo://app?vid=0e1dd2a7-bac5-4170-9336-28ee76270cd1","ios":"levelo://app?vid=0e1dd2a7-bac5-4170-9336-28ee76270cd1"},"vehicle_type_id":"4","last_reported":1729717695,"current_range_meters":38800,"station_id":"ce4bgt12rcd13ifvqce0","pricing_plan_id":"cebpf4jnsgd1na2vs0mg"},{"bike_id":"8bf69a92-042a-4712-8a29-0cde33f4f33d","system_id":"levelo_inurba_marseille","lat":43.272125,"lon":5.391745,"is_reserved":false,"is_disabled":false,"rental_uris":{"android":"levelo://app?vid=8bf69a92-042a-4712-8a29-0cde33f4f33d","ios":"levelo://app?vid=8bf69a92-042a-4712-8a29-0cde33f4f33d"},"vehicle_type_id":"4","last_reported":1729717695,"current_range_meters":22000,"station_id":"ce4bhhp2rcd13ifvqfm0","pricing_plan_id":"cebpf4jnsgd1na2vs0mg"},{"bike_id":"365a5e76-e012-4983-b8a9-1a07480bde83","system_id":"levelo_inurba_marseille","lat":43.23196,"lon":5.35544,"is_reserved":false,"is_disabled":false,"rental_uris":{"android":"levelo://app?vid=365a5e76-e012-4983-b8a9-1a07480bde83","ios":"levelo://app?vid=365a5e76-e012-4983-b8a9-1a07480bde83"},"vehicle_type_id":"4","last_reported":1729717695,"current_range_meters":38800,"station_id":"ce4bhu92rcd13ifvqi70","pricing_plan_id":"cebpf4jnsgd1na2vs0mg"},{"bike_id":"5a7f4f3c-e25b-4b1b-990b-6321e3db6a88","system_id":"levelo_inurba_marseille","lat":43.30886,"lon":5.39654,"is_reserved":false,"is_disabled":false,"rental_uris":{"android":"levelo://app?vid=5a7f4f3c-e25b-4b1b-990b-6321e3db6a88","ios":"levelo://app?vid=5a7f4f3c-e25b-4b1b-990b-6321e3db6a88"},"vehicle_type_id":"4","last_reported":1729717695,"current_range_meters":38800,"station_id":"ce4bh012rcd13ifvqcv0","pricing_plan_id":"cebpf4jnsgd1na2vs0mg"},{"bike_id":"4d224e59-2c94-4f96-8bb6-62bf9b83a809","system_id":"levelo_inurba_marseille","lat":43.26744,"lon":5.39284,"is_reserved":false,"is_disabled":false,"rental_uris":{"android":"levelo://app?vid=4d224e59-2c94-4f96-8bb6-62bf9b83a809","ios":"levelo://app?vid=4d224e59-2c94-4f96-8bb6-62bf9b83a809"},"vehicle_type_id":"4","last_reported":1729717695,"current_range_meters":4800,"station_id":"","pricing_plan_id":"cebpf4jnsgd1na2vs0mg"},{"bike_id":"35ac2a40-91b5-4d88-8ecc-86db02402171","system_id":"levelo_inurba_marseille","lat":43.310772,"lon":5.383451,"is_reserved":false,"is_disabled":false,"rental_uris":{"android":"levelo://app?vid=35ac2a40-91b5-4d88-8ecc-86db02402171","ios":"levelo://app?vid=35ac2a40-91b5-4d88-8ecc-86db02402171"},"vehicle_type_id":"4","last_reported":1729717695,"current_range_meters":38800,"station_id":"ce4bgv92rcd13ifvqcr0","pricing_plan_id":"cebpf4jnsgd1na2vs0mg"},{"bike_id":"2e0f81c7-c1d3-4b05-b54d-69aaabab3c84","system_id":"levelo_inurba_marseille","lat":43.29775,"lon":5.3712,"is_reserved":false,"is_disabled":false,"rental_uris":{"android":"levelo://app?vid=2e0f81c7-c1d3-4b05-b54d-69aaabab3c84","ios":"levelo://app?vid=2e0f81c7-c1d3-4b05-b54d-69aaabab3c84"},"vehicle_type_id":"4","last_reported":1729717695,"current_range_meters":38000,"station_id":"ce4bgop2rcd13ifvqc1g","pricing_plan_id":"cebpf4jnsgd1na2vs0mg"},{"bike_id":"283d6ac2-1959-4296-ad7e-c104085266a0","system_id":"levelo_inurba_marseille","lat":43.29533,"lon":5.38551,"is_reserved":false,"is_disabled":false,"rental_uris":{"android":"levelo://app?vid=283d6ac2-1959-4296-ad7e-c104085266a0","ios":"levelo://app?vid=283d6ac2-1959-4296-ad7e-c104085266a0"},"vehicle_type_id":"4","last_reported":1729717695,"current_range_meters":12800,"station_id":"ce4bgih2rcd13ifvqba0","pricing_plan_id":"cebpf4jnsgd1na2vs0mg"},{"bike_id":"8fe62bce-b87b-4c8f-9b20-51e157e8aae4","system_id":"levelo_inurba_marseille","lat":43.30802,"lon":5.38157,"is_reserved":false,"is_disabled":false,"rental_uris":{"android":"levelo://app?vid=8fe62bce-b87b-4c8f-9b20-51e157e8aae4","ios":"levelo://app?vid=8fe62bce-b87b-4c8f-9b20-51e157e8aae4"},"vehicle_type_id":"4","last_reported":1729717695,"current_range_meters":32000,"station_id":"ce4bgt12rcd13ifvqce0","pricing_plan_id":"cebpf4jnsgd1na2vs0mg"},{"bike_id":"ee44d175-69d2-4d16-8c11-f16b7eb9ac46","system_id":"levelo_inurba_marseille","lat":43.29961,"lon":5.39185,"is_reserved":false,"is_disabled":false,"rental_uris":{"android":"levelo://app?vid=ee44d175-69d2-4d16-8c11-f16b7eb9ac46","ios":"levelo://app?vid=ee44d175-69d2-4d16-8c11-f16b7eb9ac46"},"vehicle_type_id":"4","last_reported":1729717695,"current_range_meters":10000,"station_id":"ce4bghh2rcd13ifvqb60","pricing_plan_id":"cebpf4jnsgd1na2vs0mg"},{"bike_id":"4a638cf6-defc-408e-b127-366c1f15f3fd","system_id":"levelo_inurba_marseille","lat":43.31076,"lon":5.38335,"is_reserved":false,"is_disabled":false,"rental_uris":{"android":"levelo://app?vid=4a638cf6-defc-408e-b127-366c1f15f3fd","ios":"levelo://app?vid=4a638cf6-defc-408e-b127-366c1f15f3fd"},"vehicle_type_id":"4","last_reported":1729717695,"current_range_meters":29600,"station_id":"ce4bgv92rcd13ifvqcr0","pricing_plan_id":"cebpf4jnsgd1na2vs0mg"},{"bike_id":"4ee096dc-b069-4284-9989-4d30a7b72a91","system_id":"levelo_inurba_marseille","lat":43.267853,"lon":5.394061,"is_reserved":false,"is_disabled":false,"rental_uris":{"android":"levelo://app?vid=4ee096dc-b069-4284-9989-4d30a7b72a91","ios":"levelo://app?vid=4ee096dc-b069-4284-9989-4d30a7b72a91"},"vehicle_type_id":"4","last_reported":1729717695,"current_range_meters":36400,"station_id":"ce4bhh12rcd13ifvqfg0","pricing_plan_id":"cebpf4jnsgd1na2vs0mg"},{"bike_id":"43ec4c82-9232-4402-b0d4-b281c69d707f","system_id":"levelo_inurba_marseille","lat":43.28867,"lon":5.38204,"is_reserved":false,"is_disabled":false,"rental_uris":{"android":"levelo://app?vid=43ec4c82-9232-4402-b0d4-b281c69d707f","ios":"levelo://app?vid=43ec4c82-9232-4402-b0d4-b281c69d707f"},"vehicle_type_id":"4","last_reported":1729717695,"current_range_meters":35600,"station_id":"","pricing_plan_id":"cebpf4jnsgd1na2vs0mg"},{"bike_id":"7b5d7b8c-ac34-47cf-abb2-045e1f42a71f","system_id":"levelo_inurba_marseille","lat":43.29028,"lon":5.3864,"is_reserved":false,"is_disabled":false,"rental_uris":{"android":"levelo://app?vid=7b5d7b8c-ac34-47cf-abb2-045e1f42a71f","ios":"levelo://app?vid=7b5d7b8c-ac34-47cf-abb2-045e1f42a71f"},"vehicle_type_id":"4","last_reported":1729717695,"current_range_meters":12000,"station_id":"ce4bh4p2rcd13ifvqe0g","pricing_plan_id":"cebpf4jnsgd1na2vs0mg"},{"bike_id":"d2b2da75-3fcb-4cbd-a600-381e167d61a5","system_id":"levelo_inurba_marseille","lat":43.3229,"lon":5.38269,"is_reserved":false,"is_disabled":false,"rental_uris":{"android":"levelo://app?vid=d2b2da75-3fcb-4cbd-a600-381e167d61a5","ios":"levelo://app?vid=d2b2da75-3fcb-4cbd-a600-381e167d61a5"},"vehicle_type_id":"4","last_reported":1729717695,"current_range_meters":24400,"station_id":"ce4bhr12rcd13ifvqhqg","pricing_plan_id":"cebpf4jnsgd1na2vs0mg"},{"bike_id":"1938f8d0-bf23-441c-800e-8cacbc8363c4","system_id":"levelo_inurba_marseille","lat":43.29277,"lon":5.40109,"is_reserved":false,"is_disabled":false,"rental_uris":{"android":"levelo://app?vid=1938f8d0-bf23-441c-800e-8cacbc8363c4","ios":"levelo://app?vid=1938f8d0-bf23-441c-800e-8cacbc8363c4"},"vehicle_type_id":"4","last_reported":1729717695,"current_range_meters":19200,"station_id":"ce4bh312rcd13ifvqdk0","pricing_plan_id":"cebpf4jnsgd1na2vs0mg"},{"bike_id":"9e75b1a8-a957-4cf4-9a4a-1c0eb38882c6","system_id":"levelo_inurba_marseille","lat":43.29935,"lon":5.36544,"is_reserved":false,"is_disabled":false,"rental_uris":{"android":"levelo://app?vid=9e75b1a8-a957-4cf4-9a4a-1c0eb38882c6","ios":"levelo://app?vid=9e75b1a8-a957-4cf4-9a4a-1c0eb38882c6"},"vehicle_type_id":"4","last_reported":1729717695,"current_range_meters":38800,"station_id":"ce4bgm92rcd13ifvqbr0","pricing_plan_id":"cebpf4jnsgd1na2vs0mg"},{"bike_id":"7fd439b1-8f3d-4b90-b970-db03fe7aa878","system_id":"levelo_inurba_marseille","lat":43.28446,"lon":5.39203,"is_reserved":false,"is_disabled":false,"rental_uris":{"android":"levelo://app?vid=7fd439b1-8f3d-4b90-b970-db03fe7aa878","ios":"levelo://app?vid=7fd439b1-8f3d-4b90-b970-db03fe7aa878"},"vehicle_type_id":"4","last_reported":1729717695,"current_range_meters":11600,"station_id":"ce4bhoh2rcd13ifvqh5g","pricing_plan_id":"cebpf4jnsgd1na2vs0mg"},{"bike_id":"8263fc50-3720-4bb6-8f52-2b0a5a10fb27","system_id":"levelo_inurba_marseille","lat":43.24648,"lon":5.38891,"is_reserved":false,"is_disabled":false,"rental_uris":{"android":"levelo://app?vid=8263fc50-3720-4bb6-8f52-2b0a5a10fb27","ios":"levelo://app?vid=8263fc50-3720-4bb6-8f52-2b0a5a10fb27"},"vehicle_type_id":"4","last_reported":1729717695,"current_range_meters":33200,"station_id":"ce4bhg12rcd13ifvqf60","pricing_plan_id":"cebpf4jnsgd1na2vs0mg"},{"bike_id":"778aa052-4a0c-4325-8cbb-e9ecfbd020ce","system_id":"levelo_inurba_marseille","lat":43.30641,"lon":5.40079,"is_reserved":false,"is_disabled":false,"rental_uris":{"android":"levelo://app?vid=778aa052-4a0c-4325-8cbb-e9ecfbd020ce","ios":"levelo://app?vid=778aa052-4a0c-4325-8cbb-e9ecfbd020ce"},"vehicle_type_id":"4","last_reported":1729717695,"current_range_meters":37600,"station_id":"ce4bh112rcd13ifvqda0","pricing_plan_id":"cebpf4jnsgd1na2vs0mg"},{"bike_id":"35a1828d-1c89-467d-9d2a-949a8a36a8c2","system_id":"levelo_inurba_marseille","lat":43.31336,"lon":5.39701,"is_reserved":false,"is_disabled":false,"rental_uris":{"android":"levelo://app?vid=35a1828d-1c89-467d-9d2a-949a8a36a8c2","ios":"levelo://app?vid=35a1828d-1c89-467d-9d2a-949a8a36a8c2"},"vehicle_type_id":"4","last_reported":1729717695,"current_range_meters":16000,"station_id":"ce4bgvp2rcd13ifvqcu0","pricing_plan_id":"cebpf4jnsgd1na2vs0mg"},{"bike_id":"8ef9ceeb-7ccd-40f3-b807-8ee0abdcaedb","system_id":"levelo_inurba_marseille","lat":43.25818,"lon":5.39424,"is_reserved":false,"is_disabled":false,"rental_uris":{"android":"levelo://app?vid=8ef9ceeb-7ccd-40f3-b807-8ee0abdcaedb","ios":"levelo://app?vid=8ef9ceeb-7ccd-40f3-b807-8ee0abdcaedb"},"vehicle_type_id":"4","last_reported":1729717695,"current_range_meters":24000,"station_id":"ce4bhip2rcd13ifvqft0","pricing_plan_id":"cebpf4jnsgd1na2vs0mg"},{"bike_id":"46990154-f243-4bc1-87ac-4e7330893637","system_id":"levelo_inurba_marseille","lat":43.31085,"lon":5.42433,"is_reserved":false,"is_disabled":false,"rental_uris":{"android":"levelo://app?vid=46990154-f243-4bc1-87ac-4e7330893637","ios":"levelo://app?vid=46990154-f243-4bc1-87ac-4e7330893637"},"vehicle_type_id":"4","last_reported":1729717695,"current_range_meters":35600,"station_id":"ce4bhp92rcd13ifvqhag","pricing_plan_id":"cebpf4jnsgd1na2vs0mg"},{"bike_id":"9ee9f5ba-384e-4730-95f3-d2b928c8f35c","system_id":"levelo_inurba_marseille","lat":43.30801,"lon":5.3765,"is_reserved":false,"is_disabled":false,"rental_uris":{"android":"levelo://app?vid=9ee9f5ba-384e-4730-95f3-d2b928c8f35c","ios":"levelo://app?vid=9ee9f5ba-384e-4730-95f3-d2b928c8f35c"},"vehicle_type_id":"4","last_reported":1729717695,"current_range_meters":30400,"station_id":"ce4bgv92rcd13ifvqcq0","pricing_plan_id":"cebpf4jnsgd1na2vs0mg"},{"bike_id":"50e3d4c4-e18b-44f6-8aeb-19a26b24a116","system_id":"levelo_inurba_marseille","lat":43.29174,"lon":5.37144,"is_reserved":false,"is_disabled":false,"rental_uris":{"android":"levelo://app?vid=50e3d4c4-e18b-44f6-8aeb-19a26b24a116","ios":"levelo://app?vid=50e3d4c4-e18b-44f6-8aeb-19a26b24a116"},"vehicle_type_id":"4","last_reported":1729717695,"current_range_meters":18000,"station_id":"ce4bha92rcd13ifvqeh0","pricing_plan_id":"cebpf4jnsgd1na2vs0mg"},{"bike_id":"005a63b9-8e05-48ee-9a51-b640d17d7161","system_id":"levelo_inurba_marseille","lat":43.28342,"lon":5.38105,"is_reserved":false,"is_disabled":false,"rental_uris":{"android":"levelo://app?vid=005a63b9-8e05-48ee-9a51-b640d17d7161","ios":"levelo://app?vid=005a63b9-8e05-48ee-9a51-b640d17d7161"},"vehicle_type_id":"4","last_reported":1729717695,"current_range_meters":39200,"station_id":"ce4bh412rcd13ifvqdr0","pricing_plan_id":"cebpf4jnsgd1na2vs0mg"},{"bike_id":"4f409860-e0f7-4877-99ee-a24fed7f0e97","system_id":"levelo_inurba_marseille","lat":43.278124,"lon":5.407074,"is_reserved":false,"is_disabled":false,"rental_uris":{"android":"levelo://app?vid=4f409860-e0f7-4877-99ee-a24fed7f0e97","ios":"levelo://app?vid=4f409860-e0f7-4877-99ee-a24fed7f0e97"},"vehicle_type_id":"4","last_reported":1729717695,"current_range_meters":38800,"station_id":"ce4bhnh2rcd13ifvqgtg","pricing_plan_id":"cebpf4jnsgd1na2vs0mg"},{"bike_id":"b1552b54-816c-4ae9-b9df-b5f6a6879883","system_id":"levelo_inurba_marseille","lat":43.29532,"lon":5.38538,"is_reserved":false,"is_disabled":false,"rental_uris":{"android":"levelo://app?vid=b1552b54-816c-4ae9-b9df-b5f6a6879883","ios":"levelo://app?vid=b1552b54-816c-4ae9-b9df-b5f6a6879883"},"vehicle_type_id":"4","last_reported":1729717695,"current_range_meters":8000,"station_id":"ce4bgih2rcd13ifvqba0","pricing_plan_id":"cebpf4jnsgd1na2vs0mg"},{"bike_id":"7e8120a9-7f3c-4a83-8095-32d3f0e47958","system_id":"levelo_inurba_marseille","lat":43.30928,"lon":5.40139,"is_reserved":false,"is_disabled":false,"rental_uris":{"android":"levelo://app?vid=7e8120a9-7f3c-4a83-8095-32d3f0e47958","ios":"levelo://app?vid=7e8120a9-7f3c-4a83-8095-32d3f0e47958"},"vehicle_type_id":"4","last_reported":1729717695,"current_range_meters":34000,"station_id":"ce4bgvp2rcd13ifvqct0","pricing_plan_id":"cebpf4jnsgd1na2vs0mg"},{"bike_id":"51e47bd9-2134-4048-9e2a-4e0d66e44f3b","system_id":"levelo_inurba_marseille","lat":43.27899,"lon":5.38012,"is_reserved":false,"is_disabled":false,"rental_uris":{"android":"levelo://app?vid=51e47bd9-2134-4048-9e2a-4e0d66e44f3b","ios":"levelo://app?vid=51e47bd9-2134-4048-9e2a-4e0d66e44f3b"},"vehicle_type_id":"4","last_reported":1729717695,"current_range_meters":30400,"station_id":"ce4bhf92rcd13ifvqf50","pricing_plan_id":"cebpf4jnsgd1na2vs0mg"},{"bike_id":"6cb438f9-c716-4f0b-bdca-2d63813f0dd3","system_id":"levelo_inurba_marseille","lat":43.29092,"lon":5.38118,"is_reserved":false,"is_disabled":false,"rental_uris":{"android":"levelo://app?vid=6cb438f9-c716-4f0b-bdca-2d63813f0dd3","ios":"levelo://app?vid=6cb438f9-c716-4f0b-bdca-2d63813f0dd3"},"vehicle_type_id":"4","last_reported":1729717695,"current_range_meters":16400,"station_id":"ce4bh512rcd13ifvqe2g","pricing_plan_id":"cebpf4jnsgd1na2vs0mg"},{"bike_id":"ca4bbc1c-3893-4de4-a6cd-05bfb84c926a","system_id":"levelo_inurba_marseille","lat":43.2866,"lon":5.36337,"is_reserved":false,"is_disabled":false,"rental_uris":{"android":"levelo://app?vid=ca4bbc1c-3893-4de4-a6cd-05bfb84c926a","ios":"levelo://app?vid=ca4bbc1c-3893-4de4-a6cd-05bfb84c926a"},"vehicle_type_id":"4","last_reported":1729717695,"current_range_meters":39200,"station_id":"ce4bhah2rcd13ifvqej0","pricing_plan_id":"cebpf4jnsgd1na2vs0mg"},{"bike_id":"30338b85-7f1d-4f9d-87ef-a8594b72663e","system_id":"levelo_inurba_marseille","lat":43.27496,"lon":5.42444,"is_reserved":false,"is_disabled":false,"rental_uris":{"android":"levelo://app?vid=30338b85-7f1d-4f9d-87ef-a8594b72663e","ios":"levelo://app?vid=30338b85-7f1d-4f9d-87ef-a8594b72663e"},"vehicle_type_id":"4","last_reported":1729717695,"current_range_meters":38800,"station_id":"ce4bhn92rcd13ifvqgrg","pricing_plan_id":"cebpf4jnsgd1na2vs0mg"},{"bike_id":"a87f071d-4da7-439c-aee0-aa6592c746e7","system_id":"levelo_inurba_marseille","lat":43.280775,"lon":5.39654,"is_reserved":false,"is_disabled":false,"rental_uris":{"android":"levelo://app?vid=a87f071d-4da7-439c-aee0-aa6592c746e7","ios":"levelo://app?vid=a87f071d-4da7-439c-aee0-aa6592c746e7"},"vehicle_type_id":"4","last_reported":1729717695,"current_range_meters":400,"station_id":"ce4bho12rcd13ifvqh2g","pricing_plan_id":"cebpf4jnsgd1na2vs0mg"},{"bike_id":"df0b2337-1e1e-4e0f-9040-1ed35b3fd2a0","system_id":"levelo_inurba_marseille","lat":43.28412,"lon":5.37514,"is_reserved":false,"is_disabled":false,"rental_uris":{"android":"levelo://app?vid=df0b2337-1e1e-4e0f-9040-1ed35b3fd2a0","ios":"levelo://app?vid=df0b2337-1e1e-4e0f-9040-1ed35b3fd2a0"},"vehicle_type_id":"4","last_reported":1729717695,"current_range_meters":10000,"station_id":"ce4bh412rcd13ifvqds0","pricing_plan_id":"cebpf4jnsgd1na2vs0mg"},{"bike_id":"62ffa3f4-9d42-434c-a2ce-0d53c352b7c8","system_id":"levelo_inurba_marseille","lat":43.27367,"lon":5.36245,"is_reserved":false,"is_disabled":false,"rental_uris":{"android":"levelo://app?vid=62ffa3f4-9d42-434c-a2ce-0d53c352b7c8","ios":"levelo://app?vid=62ffa3f4-9d42-434c-a2ce-0d53c352b7c8"},"vehicle_type_id":"4","last_reported":1729717695,"current_range_meters":27200,"station_id":"ce4bhbh2rcd13ifvqeo0","pricing_plan_id":"cebpf4jnsgd1na2vs0mg"},{"bike_id":"3d94fec5-828e-465b-811e-6d6f6df1662b","system_id":"levelo_inurba_marseille","lat":43.30554,"lon":5.36697,"is_reserved":false,"is_disabled":false,"rental_uris":{"android":"levelo://app?vid=3d94fec5-828e-465b-811e-6d6f6df1662b","ios":"levelo://app?vid=3d94fec5-828e-465b-811e-6d6f6df1662b"},"vehicle_type_id":"4","last_reported":1729717695,"current_range_meters":38800,"station_id":"ce4bgrp2rcd13ifvqc9g","pricing_plan_id":"cebpf4jnsgd1na2vs0mg"},{"bike_id":"1a70df60-9552-446a-91ac-54d0f774b949","system_id":"levelo_inurba_marseille","lat":43.30419,"lon":5.39748,"is_reserved":false,"is_disabled":false,"rental_uris":{"android":"levelo://app?vid=1a70df60-9552-446a-91ac-54d0f774b949","ios":"levelo://app?vid=1a70df60-9552-446a-91ac-54d0f774b949"},"vehicle_type_id":"4","last_reported":1729717695,"current_range_meters":38800,"station_id":"ce4bh092rcd13ifvqd20","pricing_plan_id":"cebpf4jnsgd1na2vs0mg"},{"bike_id":"276cbf8d-31a1-4080-9f96-9e12cb4b0f4b","system_id":"levelo_inurba_marseille","lat":43.30248,"lon":5.40068,"is_reserved":false,"is_disabled":false,"rental_uris":{"android":"levelo://app?vid=276cbf8d-31a1-4080-9f96-9e12cb4b0f4b","ios":"levelo://app?vid=276cbf8d-31a1-4080-9f96-9e12cb4b0f4b"},"vehicle_type_id":"4","last_reported":1729717695,"current_range_meters":39200,"station_id":"ce4bgvh2rcd13ifvqcs0","pricing_plan_id":"cebpf4jnsgd1na2vs0mg"},{"bike_id":"b4e6ddf4-e94c-4cf2-9931-296d9ca0f55e","system_id":"levelo_inurba_marseille","lat":43.25923,"lon":5.40896,"is_reserved":false,"is_disabled":false,"rental_uris":{"android":"levelo://app?vid=b4e6ddf4-e94c-4cf2-9931-296d9ca0f55e","ios":"levelo://app?vid=b4e6ddf4-e94c-4cf2-9931-296d9ca0f55e"},"vehicle_type_id":"4","last_reported":1729717695,"current_range_meters":16400,"station_id":"ce4bhm92rcd13ifvqglg","pricing_plan_id":"cebpf4jnsgd1na2vs0mg"},