{"last_updated":1686474365,"ttl":30,"version":"2.2","data":{"bikes":[{"bike_id":"6f4817b3-1085-4b2e-9ca3-cb67081e15dc","system_id":"levelo_inurba_marseille","lat":43.31349,"lon":5.36715,"is_reserved":false,"is_disabled":false,"rental_uris":{"android":"levelo://app?vid=6f4817b3-1085-4b2e-9ca3-cb67081e15dc","ios":"levelo://app?vid=6f4817b3-1085-4b2e-9ca3-cb67081e15dc"},"vehicle_type_id":"4","last_reported":1686474366,"current_range_meters":31200,"station_id":"ce4bgr92rcd13ifvqc6g","pricing_plan_id":"free"},{"bike_id":"faf52a07-2d71-4163-80c3-c28e6498363a","system_id":"levelo_inurba_marseille","lat":43.313391,"lon":5.36706,"is_reserved":false,"is_disabled":false,"rental_uris":{"android":"levelo://app?vid=faf52a07-2d71-4163-80c3-c28e6498363a","ios":"levelo://app?vid=faf52a07-2d71-4163-80c3-c28e6498363a"},"vehicle_type_id":"4","last_reported":1686474366,"current_range_meters":29200,"station_id":"ce4bgr92rcd13ifvqc6g","pricing_plan_id":"free"},{"bike_id":"f56dfca6-884d-40e5-bb12-c7bceb2732cd","system_id":"levelo_inurba_marseille","lat":43.31341,"lon":5.367098,"is_reserved":false,"is_disabled":false,"rental_uris":{"android":"levelo://app?vid=f56dfca6-884d-40e5-bb12-c7bceb2732cd","ios":"levelo://app?vid=f56dfca6-884d-40e5-bb12-c7bceb2732cd"},"vehicle_type_id":"4","last_reported":1686474366,"current_range_meters":31200,"station_id":"ce4bgr92rcd13ifvqc6g","pricing_plan_id":"free"},{"bike_id":"22e29d24-6e7b-47cf-9026-08bfc9b9adbb","system_id":"levelo_inurba_marseille","lat":43.31352,"lon":5.36719,"is_reserved":false,"is_disabled":false,"rental_uris":{"android":"levelo://app?vid=22e29d24-6e7b-47cf-9026-08bfc9b9adbb","ios":"levelo://app?vid=22e29d24-6e7b-47cf-9026-08bfc9b9adbb"},"vehicle_type_id":"4","last_reported":1686474366,"current_range_meters":28400,"station_id":"ce4bgr92rcd13ifvqc6g","pricing_plan_id":"free"},{"bike_id":"6261a109-6ac2-4cee-b1f8-fab3ec3c0864","system_id":"levelo_inurba_marseille","lat":43.312239,"lon":5.368562,"is_reserved":false,"is_disabled":false,"rental_uris":{"android":"levelo://app?vid=6261a109-6ac2-4cee-b1f8-fab3ec3c0864","ios":"levelo://app?vid=6261a109-6ac2-4cee-b1f8-fab3ec3c0864"},"vehicle_type_id":"4","last_reported":1686474366,"current_range_meters":22400,"station_id":"ce4bgl92rcd13ifvqbq0","pricing_plan_id":"free"},{"bike_id":"e215e44b-264e-4626-ae88-2d3a12aefe09","system_id":"levelo_inurba_marseille","lat":43.309076,"lon":5.368465,"is_reserved":false,"is_disabled":false,"rental_uris":{"android":"levelo://app?vid=e215e44b-264e-4626-ae88-2d3a12aefe09","ios":"levelo://app?vid=e215e44b-264e-4626-ae88-2d3a12aefe09"},"vehicle_type_id":"4","last_reported":1686474366,"current_range_meters":10400,"station_id":"ce4bgn92rcd13ifvqbvg","pricing_plan_id":"free"},{"bike_id":"2f52f955-f715-49a3-a8be-70b54913ac1d","system_id":"levelo_inurba_marseille","lat":43.309076,"lon":5.368465,"is_reserved":false,"is_disabled":false,"rental_uris":{"android":"levelo://app?vid=2f52f955-f715-49a3-a8be-70b54913ac1d","ios":"levelo://app?vid=2f52f955-f715-49a3-a8be-70b54913ac1d"},"vehicle_type_id":"4","last_reported":1686474366,"current_range_meters":26400,"station_id":"ce4bgn92rcd13ifvqbvg","pricing_plan_id":"free"},{"bike_id":"cf73bcc5-4994-4734-a057-81e83f7e7998","system_id":"levelo_inurba_marseille","lat":43.309076,"lon":5.368465,"is_reserved":false,"is_disabled":false,"rental_uris":{"android":"levelo://app?vid=cf73bcc5-4994-4734-a057-81e83f7e7998","ios":"levelo://app?vid=cf73bcc5-4994-4734-a057-81e83f7e7998"},"vehicle_type_id":"4","last_reported":1686474366,"current_range_meters":29200,"station_id":"ce4bgn92rcd13ifvqbvg","pricing_plan_id":"free"},{"bike_id":"5d4420b5-d8e0-4366-b2b5-42c41845f817","system_id":"levelo_inurba_marseille","lat":43.314811,"lon":5.373103,"is_reserved":false,"is_disabled":false,"rental_uris":{"android":"levelo://app?vid=5d4420b5-d8e0-4366-b2b5-42c41845f817","ios":"levelo://app?vid=5d4420b5-d8e0-4366-b2b5-42c41845f817"},"vehicle_type_id":"4","last_reported":1686474366,"current_range_meters":30800,"station_id":"ce4bgt12rcd13ifvqcd0","pricing_plan_id":"free"},{"bike_id":"613423e2-1bc5-492f-b17b-06f0a8a477cb","system_id":"levelo_inurba_marseille","lat":43.314811,"lon":5.373103,"is_reserved":false,"is_disabled":false,"rental_uris":{"android":"levelo://app?vid=613423e2-1bc5-492f-b17b-06f0a8a477cb","ios":"levelo://app?vid=613423e2-1bc5-492f-b17b-06f0a8a477cb"},"vehicle_type_id":"4","last_reported":1686474366,"current_range_meters":31200,"station_id":"ce4bgt12rcd13ifvqcd0","pricing_plan_id":"free"},{"bike_id":"45c34702-1c1a-49dc-8c15-84796b537b9a","system_id":"levelo_inurba_marseille","lat":43.314811,"lon":5.373103,"is_reserved":false,"is_disabled":false,"rental_uris":{"android":"levelo://app?vid=45c34702-1c1a-49dc-8c15-84796b537b9a","ios":"levelo://app?vid=45c34702-1c1a-49dc-8c15-84796b537b9a"},"vehicle_type_id":"4","last_reported":1686474366,"current_range_meters":29600,"station_id":"ce4bgt12rcd13ifvqcd0","pricing_plan_id":"free"},{"bike_id":"febbd7eb-33ed-449d-b2a9-5bf98a8f91e5","system_id":"levelo_inurba_marseille","lat":43.314811,"lon":5.373103,"is_reserved":false,"is_disabled":false,"rental_uris":{"android":"levelo://app?vid=febbd7eb-33ed-449d-b2a9-5bf98a8f91e5","ios":"levelo://app?vid=febbd7eb-33ed-449d-b2a9-5bf98a8f91e5"},"vehicle_type_id":"4","last_reported":1686474366,"current_range_meters":31200,"station_id":"ce4bgt12rcd13ifvqcd0","pricing_plan_id":"free"},{"bike_id":"8c9ddf23-33e2-41f5-82c7-ddc191677abb","system_id":"levelo_inurba_marseille","lat":43.31501,"lon":5.37294,"is_reserved":false,"is_disabled":false,"rental_uris":{"android":"levelo://app?vid=8c9ddf23-33e2-41f5-82c7-ddc191677abb","ios":"levelo://app?vid=8c9ddf23-33e2-41f5-82c7-ddc191677abb"},"vehicle_type_id":"4","last_reported":1686474366,"current_range_meters":26400,"station_id":"ce4bgt12rcd13ifvqcd0","pricing_plan_id":"free"},{"bike_id":"bccdd6a5-4acd-4f36-84fe-dbfde9070eea","system_id":"levelo_inurba_marseille","lat":43.314811,"lon":5.373104,"is_reserved":false,"is_disabled":false,"rental_uris":{"android":"levelo://app?vid=bccdd6a5-4acd-4f36-84fe-dbfde9070eea","ios":"levelo://app?vid=bccdd6a5-4acd-4f36-84fe-dbfde9070eea"},"vehicle_type_id":"4","last_reported":1686474366,"current_range_meters":30800,"station_id":"ce4bgt12rcd13ifvqcd0","pricing_plan_id":"free"},{"bike_id":"676b4da4-9221-4ea8-8988-e45b423244b4","system_id":"levelo_inurba_marseille","lat":43.314811,"lon":5.373104,"is_reserved":false,"is_disabled":false,"rental_uris":{"android":"levelo://app?vid=676b4da4-9221-4ea8-8988-e45b423244b4","ios":"levelo://app?vid=676b4da4-9221-4ea8-8988-e45b423244b4"},"vehicle_type_id":"4","last_reported":1686474366,"current_range_meters":31200,"station_id":"ce4bgt12rcd13ifvqcd0","pricing_plan_id":"free"},{"bike_id":"012e93f1-006d-472c-8506-53e3765960b4","system_id":"levelo_inurba_marseille","lat":43.314811,"lon":5.373104,"is_reserved":false,"is_disabled":false,"rental_uris":{"android":"levelo://app?vid=012e93f1-006d-472c-8506-53e3765960b4","ios":"levelo://app?vid=012e93f1-006d-472c-8506-53e3765960b4"},"vehicle_type_id":"4","last_reported":1686474366,"current_range_meters":18800,"station_id":"ce4bgt12rcd13ifvqcd0","pricing_plan_id":"free"},{"bike_id":"cd983996-745d-470e-bd4d-24d8e9793c78","system_id":"levelo_inurba_marseille","lat":43.314811,"lon":5.373103,"is_reserved":false,"is_disabled":false,"rental_uris":{"android":"levelo://app?vid=cd983996-745d-470e-bd4d-24d8e9793c78","ios":"levelo://app?vid=cd983996-745d-470e-bd4d-24d8e9793c78"},"vehicle_type_id":"4","last_reported":1686474366,"current_range_meters":15600,"station_id":"ce4bgt12rcd13ifvqcd0","pricing_plan_id":"free"},{"bike_id":"8d92bc27-d33c-47cf-9315-19c384c34864","system_id":"levelo_inurba_marseille","lat":43.314811,"lon":5.373104,"is_reserved":false,"is_disabled":false,"rental_uris":{"android":"levelo://app?vid=8d92bc27-d33c-47cf-9315-19c384c34864","ios":"levelo://app?vid=8d92bc27-d33c-47cf-9315-19c384c34864"},"vehicle_type_id":"4","last_reported":1686474366,"current_range_meters":31200,"station_id":"ce4bgt12rcd13ifvqcd0","pricing_plan_id":"free"},{"bike_id":"89a58938-98df-4e28-865c-9d518e77aa51","system_id":"levelo_inurba_marseille","lat":43.314811,"lon":5.373103,"is_reserved":false,"is_disabled":false,"rental_uris":{"android":"levelo://app?vid=89a58938-98df-4e28-865c-9d518e77aa51","ios":"levelo://app?vid=89a58938-98df-4e28-865c-9d518e77aa51"},"vehicle_type_id":"4","last_reported":1686474366,"current_range_meters":31200,"station_id":"ce4bgt12rcd13ifvqcd0","pricing_plan_id":"free"},{"bike_id":"8d3b9dd9-ad47-43a6-a2c2-0df64025aa90","system_id":"levelo_inurba_marseille","lat":43.314811,"lon":5.373103,"is_reserved":false,"is_disabled":false,"rental_uris":{"android":"levelo://app?vid=8d3b9dd9-ad47-43a6-a2c2-0df64025aa90","ios":"levelo://app?vid=8d3b9dd9-ad47-43a6-a2c2-0df64025aa90"},"vehicle_type_id":"4","last_reported":1686474366,"current_range_meters":30000,"station_id":"ce4bgt12rcd13ifvqcd0","pricing_plan_id":"free"},{"bike_id":"1d085679-090f-4adf-aa1b-c37759d5f71d","system_id":"levelo_inurba_marseille","lat":43.314811,"lon":5.373103,"is_reserved":false,"is_disabled":false,"rental_uris":{"android":"levelo://app?vid=1d085679-090f-4adf-aa1b-c37759d5f71d","ios":"levelo://app?vid=1d085679-090f-4adf-aa1b-c37759d5f71d"},"vehicle_type_id":"4","last_reported":1686474366,"current_range_meters":24800,"station_id":"ce4bgt12rcd13ifvqcd0","pricing_plan_id":"free"},{"bike_id":"df8b1660-030c-46ee-8d0e-8a881c8aa03f","system_id":"levelo_inurba_marseille","lat":43.314811,"lon":5.373103,"is_reserved":false,"is_disabled":false,"rental_uris":{"android":"levelo://app?vid=df8b1660-030c-46ee-8d0e-8a881c8aa03f","ios":"levelo://app?vid=df8b1660-030c-46ee-8d0e-8a881c8aa03f"},"vehicle_type_id":"4","last_reported":1686474366,"current_range_meters":31200,"station_id":"ce4bgt12rcd13ifvqcd0","pricing_plan_id":"free"},{"bike_id":"e598d538-4e24-454f-9af1-accef85a432d","system_id":"levelo_inurba_marseille","lat":43.314811,"lon":5.373103,"is_reserved":false,"is_disabled":false,"rental_uris":{"android":"levelo://app?vid=e598d538-4e24-454f-9af1-accef85a432d","ios":"levelo://app?vid=e598d538-4e24-454f-9af1-accef85a432d"},"vehicle_type_id":"4","last_reported":1686474366,"current_range_meters":30400,"station_id":"ce4bgt12rcd13ifvqcd0","pricing_plan_id":"free"},{"bike_id":"5e0d79c1-5ae2-4890-9ee1-6354b8ca19d6","system_id":"levelo_inurba_marseille","lat":43.314811,"lon":5.373103,"is_reserved":false,"is_disabled":false,"rental_uris":{"android":"levelo://app?vid=5e0d79c1-5ae2-4890-9ee1-6354b8ca19d6","ios":"levelo://app?vid=5e0d79c1-5ae2-4890-9ee1-6354b8ca19d6"},"vehicle_type_id":"4","last_reported":1686474366,"current_range_meters":18400,"station_id":"ce4bgt12rcd13ifvqcd0","pricing_plan_id":"free"},{"bike_id":"da618baa-ae4b-4b53-86e6-403d2a626948","system_id":"levelo_inurba_marseille","lat":43.314811,"lon":5.373104,"is_reserved":false,"is_disabled":false,"rental_uris":{"android":"levelo://app?vid=da618baa-ae4b-4b53-86e6-403d2a626948","ios":"levelo://app?vid=da618baa-ae4b-4b53-86e6-403d2a626948"},"vehicle_type_id":"4","last_reported":1686474366,"current_range_meters":24000,"station_id":"ce4bgt12rcd13ifvqcd0","pricing_plan_id":"free"},{"bike_id":"39619218-f396-4815-ac3b-ddfcb146cdec","system_id":"levelo_inurba_marseille","lat":43.308606,"lon":5.372099,"is_reserved":false,"is_disabled":false,"rental_uris":{"android":"levelo://app?vid=39619218-f396-4815-ac3b-ddfcb146cdec","ios":"levelo://app?vid=39619218-f396-4815-ac3b-ddfcb146cdec"},"vehicle_type_id":"4","last_reported":1686474366,"current_range_meters":20000,"station_id":"ce4bguh2rcd13ifvqckg","pricing_plan_id":"free"},{"bike_id":"726e69fe-0789-44cc-8872-aafade0684ce","system_id":"levelo_inurba_marseille","lat":43.306,"lon":5.36574,"is_reserved":false,"is_disabled":false,"rental_uris":{"android":"levelo://app?vid=726e69fe-0789-44cc-8872-aafade0684ce","ios":"levelo://app?vid=726e69fe-0789-44cc-8872-aafade0684ce"},"vehicle_type_id":"4","last_reported":1686474366,"current_range_meters":5600,"station_id":"","pricing_plan_id":"free"},{"bike_id":"27586825-e145-45b9-a2d4-4e858edd4da7","system_id":"levelo_inurba_marseille","lat":43.30545,"lon":5.36698,"is_reserved":false,"is_disabled":false,"rental_uris":{"android":"levelo://app?vid=27586825-e145-45b9-a2d4-4e858edd4da7","ios":"levelo://app?vid=27586825-e145-45b9-a2d4-4e858edd4da7"},"vehicle_type_id":"4","last_reported":1686474366,"current_range_meters":22800,"station_id":"ce4bgrp2rcd13ifvqc9g","pricing_plan_id":"free"},{"bike_id":"d39bba50-fbce-4980-9728-d45c3af7b345","system_id":"levelo_inurba_marseille","lat":43.305706,"lon":5.365654,"is_reserved":false,"is_disabled":false,"rental_uris":{"android":"levelo://app?vid=d39bba50-fbce-4980-9728-d45c3af7b345","ios":"levelo://app?vid=d39bba50-fbce-4980-9728-d45c3af7b345"},"vehicle_type_id":"4","last_reported":1686474366,"current_range_meters":24800,"station_id":"ce4bgs12rcd13ifvqcag","pricing_plan_id":"free"},{"bike_id":"853ee4e4-a970-4523-b328-7e1dd900378e","system_id":"levelo_inurba_marseille","lat":43.305706,"lon":5.365654,"is_reserved":false,"is_disabled":false,"rental_uris":{"android":"levelo://app?vid=853ee4e4-a970-4523-b328-7e1dd900378e","ios":"levelo://app?vid=853ee4e4-a970-4523-b328-7e1dd900378e"},"vehicle_type_id":"4","last_reported":1686474366,"current_range_meters":11200,"station_id":"ce4bgs12rcd13ifvqcag","pricing_plan_id":"free"},{"bike_id":"ea7d983e-e264-4d60-a963-4b051e9ad6d0","system_id":"levelo_inurba_marseille","lat":43.305706,"lon":5.365654,"is_reserved":false,"is_disabled":false,"rental_uris":{"android":"levelo://app?vid=ea7d983e-e264-4d60-a963-4b051e9ad6d0","ios":"levelo://app?vid=ea7d983e-e264-4d60-a963-4b051e9ad6d0"},"vehicle_type_id":"4","last_reported":1686474366,"current_range_meters":30000,"station_id":"ce4bgs12rcd13ifvqcag","pricing_plan_id":"free"},{"bike_id":"186952f1-df31-44d9-af01-c024a5fff464","system_id":"levelo_inurba_marseille","lat":43.311125,"lon":5.377624,"is_reserved":false,"is_disabled":false,"rental_uris":{"android":"levelo://app?vid=186952f1-df31-44d9-af01-c024a5fff464","ios":"levelo://app?vid=186952f1-df31-44d9-af01-c024a5fff464"},"vehicle_type_id":"4","last_reported":1686474366,"current_range_meters":31200,"station_id":"ce4bgt92rcd13ifvqcg0","pricing_plan_id":"free"},{"bike_id":"cd18ccbf-25e0-4270-90e3-3ed6654d38d0","system_id":"levelo_inurba_marseille","lat":43.31553,"lon":5.38023,"is_reserved":false,"is_disabled":false,"rental_uris":{"android":"levelo://app?vid=cd18ccbf-25e0-4270-90e3-3ed6654d38d0","ios":"levelo://app?vid=cd18ccbf-25e0-4270-90e3-3ed6654d38d0"},"vehicle_type_id":"4","last_reported":1686474366,"current_range_meters":1200,"station_id":"","pricing_plan_id":"free"},{"bike_id":"dc48ea1e-35ad-4ad4-bcc8-21c2dad746ea","system_id":"levelo_inurba_marseille","lat":43.315289,"lon":5.380349,"is_reserved":false,"is_disabled":false,"rental_uris":{"android":"levelo://app?vid=dc48ea1e-35ad-4ad4-bcc8-21c2dad746ea","ios":"levelo://app?vid=dc48ea1e-35ad-4ad4-bcc8-21c2dad746ea"},"vehicle_type_id":"4","last_reported":1686474366,"current_range_meters":13600,"station_id":"ce4bhsp2rcd13ifvqi50","pricing_plan_id":"free"},{"bike_id":"f37067c7-21f1-4d17-b844-08322cccd038","system_id":"levelo_inurba_marseille","lat":43.30897,"lon":5.38059,"is_reserved":false,"is_disabled":false,"rental_uris":{"android":"levelo://app?vid=f37067c7-21f1-4d17-b844-08322cccd038","ios":"levelo://app?vid=f37067c7-21f1-4d17-b844-08322cccd038"},"vehicle_type_id":"4","last_reported":1686474366,"current_range_meters":17200,"station_id":"","pricing_plan_id":"free"},{"bike_id":"7c61829a-c497-4147-a99b-fcdf7d274fda","system_id":"levelo_inurba_marseille","lat":43.30798,"lon":5.38153,"is_reserved":false,"is_disabled":false,"rental_uris":{"android":"levelo://app?vid=7c61829a-c497-4147-a99b-fcdf7d274fda","ios":"levelo://app?vid=7c61829a-c497-4147-a99b-fcdf7d274fda"},"vehicle_type_id":"4","last_reported":1686474366,"current_range_meters":21200,"station_id":"ce4bgt12rcd13ifvqce0","pricing_plan_id":"free"},{"bike_id":"c17a306f-861a-4b15-ab4c-4dc7ee59fd2e","system_id":"levelo_inurba_marseille","lat":43.304606,"lon":5.379026,"is_reserved":false,"is_disabled":false,"rental_uris":{"android":"levelo://app?vid=c17a306f-861a-4b15-ab4c-4dc7ee59fd2e","ios":"levelo://app?vid=c17a306f-861a-4b15-ab4c-4dc7ee59fd2e"},"vehicle_type_id":"4","last_reported":1686474366,"current_range_meters":28000,"station_id":"ce4bgup2rcd13ifvqcn0","pricing_plan_id":"free"},{"bike_id":"8dc456e2-0ab1-4d8c-8b84-be44dc0031e6","system_id":"levelo_inurba_marseille","lat":43.304606,"lon":5.379026,"is_reserved":false,"is_disabled":false,"rental_uris":{"android":"levelo://app?vid=8dc456e2-0ab1-4d8c-8b84-be44dc0031e6","ios":"levelo://app?vid=8dc456e2-0ab1-4d8c-8b84-be44dc0031e6"},"vehicle_type_id":"4","last_reported":1686474366,"current_range_meters":2400,"station_id":"ce4bgup2rcd13ifvqcn0","pricing_plan_id":"free"},{"bike_id":"3980596b-28f8-499d-bf6b-03c5055768e1","system_id":"levelo_inurba_marseille","lat":43.304606,"lon":5.379026,"is_reserved":false,"is_disabled":false,"rental_uris":{"android":"levelo://app?vid=3980596b-28f8-499d-bf6b-03c5055768e1","ios":"levelo://app?vid=3980596b-28f8-499d-bf6b-03c5055768e1"},"vehicle_type_id":"4","last_reported":1686474366,"current_range_meters":29600,"station_id":"ce4bgup2rcd13ifvqcn0","pricing_plan_id":"free"},{"bike_id":"5d2a241b-a31e-4c98-9d76-e06beb420f4f","system_id":"levelo_inurba_marseille","lat":43.30283,"lon":5.37692,"is_reserved":false,"is_disabled":false,"rental_uris":{"android":"levelo://app?vid=5d2a241b-a31e-4c98-9d76-e06beb420f4f","ios":"levelo://app?vid=5d2a241b-a31e-4c98-9d76-e06beb420f4f"},"vehicle_type_id":"4","last_reported":1686474366,"current_range_meters":0,"station_id":"ce4bguh2rcd13ifvqcj0","pricing_plan_id":"free"},{"bike_id":"48adf0b2-7b59-47da-b264-1f4146b42a36","system_id":"levelo_inurba_marseille","lat":43.302784,"lon":5.377158,"is_reserved":false,"is_disabled":false,"rental_uris":{"android":"levelo://app?vid=48adf0b2-7b59-47da-b264-1f4146b42a36","ios":"levelo://app?vid=48adf0b2-7b59-47da-b264-1f4146b42a36"},"vehicle_type_id":"4","last_reported":1686474366,"current_range_meters":26000,"station_id":"ce4bguh2rcd13ifvqcj0","pricing_plan_id":"free"},{"bike_id":"cb36f428-1d2f-49dc-a6e0-fe1c51473002","system_id":"levelo_inurba_marseille","lat":43.30143,"lon":5.37413,"is_reserved":false,"is_disabled":false,"rental_uris":{"android":"levelo://app?vid=cb36f428-1d2f-49dc-a6e0-fe1c51473002","ios":"levelo://app?vid=cb36f428-1d2f-49dc-a6e0-fe1c51473002"},"vehicle_type_id":"4","last_reported":1686474366,"current_range_meters":22400,"station_id":"ce4bgs92rcd13ifvqcc0","pricing_plan_id":"free"},{"bike_id":"b90cd9c0-0318-4bf3-8f04-a45bf783a99f","system_id":"levelo_inurba_marseille","lat":43.30136,"lon":5.37419,"is_reserved":false,"is_disabled":false,"rental_uris":{"android":"levelo://app?vid=b90cd9c0-0318-4bf3-8f04-a45bf783a99f","ios":"levelo://app?vid=b90cd9c0-0318-4bf3-8f04-a45bf783a99f"},"vehicle_type_id":"4","last_reported":1686474366,"current_range_meters":30400,"station_id":"ce4bgs92rcd13ifvqcc0","pricing_plan_id":"free"},{"bike_id":"11df4a94-deb8-4f6b-b538-b100724356dc","system_id":"levelo_inurba_marseille","lat":43.31983,"lon":5.38145,"is_reserved":false,"is_disabled":false,"rental_uris":{"android":"levelo://app?vid=11df4a94-deb8-4f6b-b538-b100724356dc","ios":"levelo://app?vid=11df4a94-deb8-4f6b-b538-b100724356dc"},"vehicle_type_id":"4","last_reported":1686474366,"current_range_meters":22000,"station_id":"ce4bhr12rcd13ifvqhpg","pricing_plan_id":"free"},{"bike_id":"80d85964-9da1-4ec1-b127-b73eae36a036","system_id":"levelo_inurba_marseille","lat":43.30347,"lon":5.37918,"is_reserved":false,"is_disabled":false,"rental_uris":{"android":"levelo://app?vid=80d85964-9da1-4ec1-b127-b73eae36a036","ios":"levelo://app?vid=80d85964-9da1-4ec1-b127-b73eae36a036"},"vehicle_type_id":"4","last_reported":1686474366,"current_range_meters":28800,"station_id":"","pricing_plan_id":"free"},{"bike_id":"efe44cc0-474e-4f47-997d-8962c4aa48b3","system_id":"levelo_inurba_marseille","lat":43.299222,"lon":5.365554,"is_reserved":false,"is_disabled":false,"rental_uris":{"android":"levelo://app?vid=efe44cc0-474e-4f47-997d-8962c4aa48b3","ios":"levelo://app?vid=efe44cc0-474e-4f47-997d-8962c4aa48b3"},"vehicle_type_id":"4","last_reported":1686474366,"current_range_meters":24400,"station_id":"ce4bgm92rcd13ifvqbr0","pricing_plan_id":"free"},{"bike_id":"214aa8c6-4252-46ff-bbfe-a1c56f8b7c23","system_id":"levelo_inurba_marseille","lat":43.299222,"lon":5.365554,"is_reserved":false,"is_disabled":false,"rental_uris":{"android":"levelo://app?vid=214aa8c6-4252-46ff-bbfe-a1c56f8b7c23","ios":"levelo://app?vid=214aa8c6-4252-46ff-bbfe-a1c56f8b7c23"},"vehicle_type_id":"4","last_reported":1686474366,"current_range_meters":27600,"station_id":"ce4bgm92rcd13ifvqbr0","pricing_plan_id":"free"},{"bike_id":"63788aa7-bab9-4f14-aa37-097c8a4f14d5","system_id":"levelo_inurba_marseille","lat":43.298433,"lon":5.362774,"is_reserved":false,"is_disabled":false,"rental_uris":{"android":"levelo://app?vid=63788aa7-bab9-4f14-aa37-097c8a4f14d5","ios":"levelo://app?vid=63788aa7-bab9-4f14-aa37-097c8a4f14d5"},"vehicle_type_id":"4","last_reported":1686474366,"current_range_meters":29600,"station_id":"ce4bgpp2rcd13ifvqc3g","pricing_plan_id":"free"},{"bike_id":"75466fa2-5010-4915-96a5-a44ee2438a3e","system_id":"levelo_inurba_marseille","lat":43.298455,"lon":5.362982,"is_reserved":false,"is_disabled":false,"rental_uris":{"android":"levelo://app?vid=75466fa2-5010-4915-96a5-a44ee2438a3e","ios":"levelo://app?vid=75466fa2-5010-4915-96a5-a44ee2438a3e"},"vehicle_type_id":"4","last_reported":1686474366,"current_range_meters":27200,"station_id":"ce4bgpp2rcd13ifvqc3g","pricing_plan_id":"free"},{"bike_id":"813c30a6-3fa2-46f4-b4e3-80d8e62c35c7","system_id":"levelo_inurba_marseille","lat":43.30535,"lon":5.38427,"is_reserved":false,"is_disabled":false,"rental_uris":{"android":"levelo://app?vid=813c30a6-3fa2-46f4-b4e3-80d8e62c35c7","ios":"levelo://app?vid=813c30a6-3fa2-46f4-b4e3-80d8e62c35c7"},"vehicle_type_id":"4","last_reported":1686474366,"current_range_meters":24000,"station_id":"ce4bgg92rcd13ifvqb30","pricing_plan_id":"free"},{"bike_id":"e8e06874-2610-4599-9de9-2987337c725a","system_id":"levelo_inurba_marseille","lat":43.298405,"lon":5.362686,"is_reserved":false,"is_disabled":false,"rental_uris":{"android":"levelo://app?vid=e8e06874-2610-4599-9de9-2987337c725a","ios":"levelo://app?vid=e8e06874-2610-4599-9de9-2987337c725a"},"vehicle_type_id":"4","last_reported":1686474366,"current_range_meters":16800,"station_id":"ce4bgi92rcd13ifvqb90","pricing_plan_id":"free"},{"bike_id":"46498ed4-2a59-4917-8f5e-0606588fd2bf","system_id":"levelo_inurba_marseille","lat":43.297794,"lon":5.370888,"is_reserved":false,"is_disabled":false,"rental_uris":{"android":"levelo://app?vid=46498ed4-2a59-4917-8f5e-0606588fd2bf","ios":"levelo://app?vid=46498ed4-2a59-4917-8f5e-0606588fd2bf"},"vehicle_type_id":"4","last_reported":1686474366,"current_range_meters":22400,"station_id":"ce4bgop2rcd13ifvqc1g","pricing_plan_id":"free"},{"bike_id":"d96dcc96-ce3c-432f-8f37-1733de830b5a","system_id":"levelo_inurba_marseille","lat":43.328371,"lon":5.366909,"is_reserved":false,"is_disabled":false,"rental_uris":{"android":"levelo://app?vid=d96dcc96-ce3c-432f-8f37-1733de830b5a","ios":"levelo://app?vid=d96dcc96-ce3c-432f-8f37-1733de830b5a"},"vehicle_type_id":"4","last_reported":1686474366,"current_range_meters":27600,"station_id":"ce4bhs92rcd13ifvqi0g","pricing_plan_id":"free"},{"bike_id":"80522d63-c38b-48ba-b0a6-33b6f69e774e","system_id":"levelo_inurba_marseille","lat":43.328371,"lon":5.366909,"is_reserved":false,"is_disabled":false,"rental_uris":{"android":"levelo://app?vid=80522d63-c38b-48ba-b0a6-33b6f69e774e","ios":"levelo://app?vid=80522d63-c38b-48ba-b0a6-33b6f69e774e"},"vehicle_type_id":"4","last_reported":1686474366,"current_range_meters":22000,"station_id":"ce4bhs92rcd13ifvqi0g","pricing_plan_id":"free"},{"bike_id":"d2ee4f47-c99d-4207-bf1f-965db1bb1561","system_id":"levelo_inurba_marseille","lat":43.328371,"lon":5.366909,"is_reserved":false,"is_disabled":false,"rental_uris":{"android":"levelo://app?vid=d2ee4f47-c99d-4207-bf1f-965db1bb1561","ios":"levelo://app?vid=d2ee4f47-c99d-4207-bf1f-965db1bb1561"},"vehicle_type_id":"4","last_reported":1686474366,"current_range_meters":2000,"station_id":"ce4bhs92rcd13ifvqi0g","pricing_plan_id":"free"},{"bike_id":"dd203080-4a12-4979-9edf-56b304f55353","system_id":"levelo_inurba_marseille","lat":43.328371,"lon":5.366909,"is_reserved":false,"is_disabled":false,"rental_uris":{"android":"levelo://app?vid=dd203080-4a12-4979-9edf-56b304f55353","ios":"levelo://app?vid=dd203080-4a12-4979-9edf-56b304f55353"},"vehicle_type_id":"4","last_reported":1686474366,"current_range_meters":27600,"station_id":"ce4bhs92rcd13ifvqi0g","pricing_plan_id":"free"},{"bike_id":"39bca1d9-db32-4c90-bbf1-f7fc9b84f8f5","system_id":"levelo_inurba_marseille","lat":43.328371,"lon":5.366909,"is_reserved":false,"is_disabled":false,"rental_uris":{"android":"levelo://app?vid=39bca1d9-db32-4c90-bbf1-f7fc9b84f8f5","ios":"levelo://app?vid=39bca1d9-db32-4c90-bbf1-f7fc9b84f8f5"},"vehicle_type_id":"4","last_reported":1686474366,"current_range_meters":5200,"station_id":"ce4bhs92rcd13ifvqi0g","pricing_plan_id":"free"},{"bike_id":"e19f567c-0672-4765-92f5-675a90b790ab","system_id":"levelo_inurba_marseille","lat":43.328371,"lon":5.366909,"is_reserved":false,"is_disabled":false,"rental_uris":{"android":"levelo://app?vid=e19f567c-0672-4765-92f5-675a90b790ab","ios":"levelo://app?vid=e19f567c-0672-4765-92f5-675a90b790ab"},"vehicle_type_id":"4","last_reported":1686474366,"current_range_meters":26800,"station_id":"ce4bhs92rcd13ifvqi0g","pricing_plan_id":"free"},{"bike_id":"a0565906-42fe-436f-8a68-dac07fb0f6a4","system_id":"levelo_inurba_marseille","lat":43.328371,"lon":5.366912,"is_reserved":false,"is_disabled":false,"rental_uris":{"android":"levelo://app?vid=a0565906-42fe-436f-8a68-dac07fb0f6a4","ios":"levelo://app?vid=a0565906-42fe-436f-8a68-dac07fb0f6a4"},"vehicle_type_id":"4","last_reported":1686474366,"current_range_meters":25200,"station_id":"ce4bhs92rcd13ifvqi0g","pricing_plan_id":"free"},{"bike_id":"a4e710b9-5582-4414-ab20-57b598a360c9","system_id":"levelo_inurba_marseille","lat":43.328371,"lon":5.366909,"is_reserved":false,"is_disabled":false,"rental_uris":{"android":"levelo://app?vid=a4e710b9-5582-4414-ab20-57b598a360c9","ios":"levelo://app?vid=a4e710b9-5582-4414-ab20-57b598a360c9"},"vehicle_type_id":"4","last_reported":1686474366,"current_range_meters":31200,"station_id":"ce4bhs92rcd13ifvqi0g","pricing_plan_id":"free"},{"bike_id":"a171b683-f844-4b6f-8205-0c579bd8e9e8","system_id":"levelo_inurba_marseille","lat":43.328371,"lon":5.366909,"is_reserved":false,"is_disabled":false,"rental_uris":{"android":"levelo://app?vid=a171b683-f844-4b6f-8205-0c579bd8e9e8","ios":"levelo://app?vid=a171b683-f844-4b6f-8205-0c579bd8e9e8"},"vehicle_type_id":"4","last_reported":1686474366,"current_range_meters":28000,"station_id":"ce4bhs92rcd13ifvqi0g","pricing_plan_id":"free"},{"bike_id":"bc0a8fa1-6bdb-4f3b-b131-832d38741f48","system_id":"levelo_inurba_marseille","lat":43.328371,"lon":5.366909,"is_reserved":false,"is_disabled":false,"rental_uris":{"android":"levelo://app?vid=bc0a8fa1-6bdb-4f3b-b131-832d38741f48","ios":"levelo://app?vid=bc0a8fa1-6bdb-4f3b-b131-832d38741f48"},"vehicle_type_id":"4","last_reported":1686474366,"current_range_meters":21200,"station_id":"ce4bhs92rcd13ifvqi0g","pricing_plan_id":"free"},{"bike_id":"646e9ad8-7b91-4157-a6bc-9b5f2ad20d49","system_id":"levelo_inurba_marseille","lat":43.328371,"lon":5.366912,"is_reserved":false,"is_disabled":false,"rental_uris":{"android":"levelo://app?vid=646e9ad8-7b91-4157-a6bc-9b5f2ad20d49","ios":"levelo://app?vid=646e9ad8-7b91-4157-a6bc-9b5f2ad20d49"},"vehicle_type_id":"4","last_reported":1686474366,"current_range_meters":4000,"station_id":"ce4bhs92rcd13ifvqi0g","pricing_plan_id":"free"},{"bike_id":"dee03795-f60d-4df9-9650-97b4e1a1eb05","system_id":"levelo_inurba_marseille","lat":43.29618,"lon":5.37161,"is_reserved":false,"is_disabled":false,"rental_uris":{"android":"levelo://app?vid=dee03795-f60d-4df9-9650-97b4e1a1eb05","ios":"levelo://app?vid=dee03795-f60d-4df9-9650-97b4e1a1eb05"},"vehicle_type_id":"4","last_reported":1686474366,"current_range_meters":31200,"station_id":"","pricing_plan_id":"free"},{"bike_id":"32d2f635-a4d6-4192-a23e-2e4f88a6985d","system_id":"levelo_inurba_marseille","lat":43.29616,"lon":5.3715,"is_reserved":false,"is_disabled":false,"rental_uris":{"android":"levelo://app?vid=32d2f635-a4d6-4192-a23e-2e4f88a6985d","ios":"levelo://app?vid=32d2f635-a4d6-4192-a23e-2e4f88a6985d"},"vehicle_type_id":"4","last_reported":1686474366,"current_range_meters":28400,"station_id":"","pricing_plan_id":"free"},{"bike_id":"72e1b41b-d6d0-487c-9380-01d668825c43","system_id":"levelo_inurba_marseille","lat":43.299028,"lon":5.381509,"is_reserved":false,"is_disabled":false,"rental_uris":{"android":"levelo://app?vid=72e1b41b-d6d0-487c-9380-01d668825c43","ios":"levelo://app?vid=72e1b41b-d6d0-487c-9380-01d668825c43"},"vehicle_type_id":"4","last_reported":1686474366,"current_range_meters":24800,"station_id":"ce4bgj12rcd13ifvqbc0","pricing_plan_id":"free"},{"bike_id":"9c5df88d-d7db-4282-9b1d-d342ab72adf6","system_id":"levelo_inurba_marseille","lat":43.299028,"lon":5.381509,"is_reserved":false,"is_disabled":false,"rental_uris":{"android":"levelo://app?vid=9c5df88d-d7db-4282-9b1d-d342ab72adf6","ios":"levelo://app?vid=9c5df88d-d7db-4282-9b1d-d342ab72adf6"},"vehicle_type_id":"4","last_reported":1686474366,"current_range_meters":28000,"station_id":"ce4bgj12rcd13ifvqbc0","pricing_plan_id":"free"},{"bike_id":"f0141f36-01ee-48ca-8fd7-2e28de396aeb","system_id":"levelo_inurba_marseille","lat":43.309589,"lon":5.390258,"is_reserved":false,"is_disabled":false,"rental_uris":{"android":"levelo://app?vid=f0141f36-01ee-48ca-8fd7-2e28de396aeb","ios":"levelo://app?vid=f0141f36-01ee-48ca-8fd7-2e28de396aeb"},"vehicle_type_id":"4","last_reported":1686474366,"current_range_meters":17600,"station_id":"ce4bgup2rcd13ifvqco0","pricing_plan_id":"free"},{"bike_id":"e68e55aa-808e-44a1-91e2-2933a439766a","system_id":"levelo_inurba_marseille","lat":43.309589,"lon":5.390258,"is_reserved":false,"is_disabled":false,"rental_uris":{"android":"levelo://app?vid=e68e55aa-808e-44a1-91e2-2933a439766a","ios":"levelo://app?vid=e68e55aa-808e-44a1-91e2-2933a439766a"},"vehicle_type_id":"4","last_reported":1686474366,"current_range_meters":28800,"station_id":"ce4bgup2rcd13ifvqco0","pricing_plan_id":"free"},{"bike_id":"7a5bd187-edbf-403c-a1ac-cc1b9928575c","system_id":"levelo_inurba_marseille","lat":43.309589,"lon":5.390258,"is_reserved":false,"is_disabled":false,"rental_uris":{"android":"levelo://app?vid=7a5bd187-edbf-403c-a1ac-cc1b9928575c","ios":"levelo://app?vid=7a5bd187-edbf-403c-a1ac-cc1b9928575c"},"vehicle_type_id":"4","last_reported":1686474366,"current_range_meters":12400,"station_id":"ce4bgup2rcd13ifvqco0","pricing_plan_id":"free"},{"bike_id":"063c72de-f480-48ea-bdad-eb5b984515ca","system_id":"levelo_inurba_marseille","lat":43.317557,"lon":5.390173,"is_reserved":false,"is_disabled":false,"rental_uris":{"android":"levelo://app?vid=063c72de-f480-48ea-bdad-eb5b984515ca","ios":"levelo://app?vid=063c72de-f480-48ea-bdad-eb5b984515ca"},"vehicle_type_id":"4","last_reported":1686474366,"current_range_meters":27200,"station_id":"ce4bhqp2rcd13ifvqhng","pricing_plan_id":"free"},{"bike_id":"48f8f783-ce02-4bf9-b6cb-03c032db2c14","system_id":"levelo_inurba_marseille","lat":43.317557,"lon":5.390173,"is_reserved":false,"is_disabled":false,"rental_uris":{"android":"levelo://app?vid=48f8f783-ce02-4bf9-b6cb-03c032db2c14","ios":"levelo://app?vid=48f8f783-ce02-4bf9-b6cb-03c032db2c14"},"vehicle_type_id":"4","last_reported":1686474366,"current_range_meters":29200,"station_id":"ce4bhqp2rcd13ifvqhng","pricing_plan_id":"free"},{"bike_id":"0d911742-edc3-420a-b348-5480af135b21","system_id":"levelo_inurba_marseille","lat":43.295748,"lon":5.37522,"is_reserved":false,"is_disabled":false,"rental_uris":{"android":"levelo://app?vid=0d911742-edc3-420a-b348-5480af135b21","ios":"levelo://app?vid=0d911742-edc3-420a-b348-5480af135b21"},"vehicle_type_id":"4","last_reported":1686474366,"current_range_meters":30800,"station_id":"ce4bgh92rcd13ifvqb50","pricing_plan_id":"free"},{"bike_id":"016bd8f7-da4a-4288-9a4b-dee95df1ad08","system_id":"levelo_inurba_marseille","lat":43.298037,"lon":5.381066,"is_reserved":false,"is_disabled":false,"rental_uris":{"android":"levelo://app?vid=016bd8f7-da4a-4288-9a4b-dee95df1ad08","ios":"levelo://app?vid=016bd8f7-da4a-4288-9a4b-dee95df1ad08"},"vehicle_type_id":"4","last_reported":1686474366,"current_range_meters":31200,"station_id":"ce4bgip2rcd13ifvqbb0","pricing_plan_id":"free"},{"bike_id":"92e9b1fc-afb8-4d5c-85fd-67a1dd82651c","system_id":"levelo_inurba_marseille","lat":43.299707,"lon":5.384859,"is_reserved":false,"is_disabled":false,"rental_uris":{"android":"levelo://app?vid=92e9b1fc-afb8-4d5c-85fd-67a1dd82651c","ios":"levelo://app?vid=92e9b1fc-afb8-4d5c-85fd-67a1dd82651c"},"vehicle_type_id":"4","last_reported":1686474366,"current_range_meters":22800,"station_id":"ce4bgj92rcd13ifvqbd0","pricing_plan_id":"free"},{"bike_id":"d8d44e5e-5906-44e6-8bc8-0d263f9f2b38","system_id":"levelo_inurba_marseille","lat":43.299717,"lon":5.384845,"is_reserved":false,"is_disabled":false,"rental_uris":{"android":"levelo://app?vid=d8d44e5e-5906-44e6-8bc8-0d263f9f2b38","ios":"levelo://app?vid=d8d44e5e-5906-44e6-8bc8-0d263f9f2b38"},"vehicle_type_id":"4","last_reported":1686474366,"current_range_meters":20000,"station_id":"ce4bgj92rcd13ifvqbd0","pricing_plan_id":"free"},{"bike_id":"8408b753-736f-440b-9b54-5e5b4137b257","system_id":"levelo_inurba_marseille","lat":43.32366,"lon":5.38885,"is_reserved":false,"is_disabled":false,"rental_uris":{"android":"levelo://app?vid=8408b753-736f-440b-9b54-5e5b4137b257","ios":"levelo://app?vid=8408b753-736f-440b-9b54-5e5b4137b257"},"vehicle_type_id":"4","last_reported":1686474366,"current_range_meters":16400,"station_id":"ce4bhqp2rcd13ifvqhog","pricing_plan_id":"free"},{"bike_id":"dd66a00a-ae87-4f13-8320-0f02c4972732","system_id":"levelo_inurba_marseille","lat":43.323667,"lon":5.388847,"is_reserved":false,"is_disabled":false,"rental_uris":{"android":"levelo://app?vid=dd66a00a-ae87-4f13-8320-0f02c4972732","ios":"levelo://app?vid=dd66a00a-ae87-4f13-8320-0f02c4972732"},"vehicle_type_id":"4","last_reported":1686474366,"current_range_meters":13200,"station_id":"ce4bhqp2rcd13ifvqhog","pricing_plan_id":"free"},{"bike_id":"3db23c4d-fe21-4d65-9801-7c9ca9abb154","system_id":"levelo_inurba_marseille","lat":43.32367,"lon":5.388836,"is_reserved":false,"is_disabled":false,"rental_uris":{"android":"levelo://app?vid=3db23c4d-fe21-4d65-9801-7c9ca9abb154","ios":"levelo://app?vid=3db23c4d-fe21-4d65-9801-7c9ca9abb154"},"vehicle_type_id":"4","last_reported":1686474366,"current_range_meters":12800,"station_id":"ce4bhqp2rcd13ifvqhog","pricing_plan_id":"free"},{"bike_id":"83902bec-13db-440e-968a-7c78d30b3690","system_id":"levelo_inurba_marseille","lat":43.29602,"lon":5.381084,"is_reserved":false,"is_disabled":false,"rental_uris":{"android":"levelo://app?vid=83902bec-13db-440e-968a-7c78d30b3690","ios":"levelo://app?vid=83902bec-13db-440e-968a-7c78d30b3690"},"vehicle_type_id":"4","last_reported":1686474366,"current_range_meters":30000,"station_id":"ce4bgl12rcd13ifvqbo0","pricing_plan_id":"free"},{"bike_id":"fabab991-2601-491a-89d7-135910144c5a","system_id":"levelo_inurba_marseille","lat":43.292749,"lon":5.368398,"is_reserved":false,"is_disabled":false,"rental_uris":{"android":"levelo://app?vid=fabab991-2601-491a-89d7-135910144c5a","ios":"levelo://app?vid=fabab991-2601-491a-89d7-135910144c5a"},"vehicle_type_id":"4","last_reported":1686474366,"current_range_meters":30000,"station_id":"ce4bhbp2rcd13ifvqesg","pricing_plan_id":"free"},{"bike_id":"741db0f9-2088-4db0-ab8a-c3806e570a6b","system_id":"levelo_inurba_marseille","lat":43.292749,"lon":5.368398,"is_reserved":false,"is_disabled":false,"rental_uris":{"android":"levelo://app?vid=741db0f9-2088-4db0-ab8a-c3806e570a6b","ios":"levelo://app?vid=741db0f9-2088-4db0-ab8a-c3806e570a6b"},"vehicle_type_id":"4","last_reported":1686474366,"current_range_meters":30000,"station_id":"ce4bhbp2rcd13ifvqesg","pricing_plan_id":"free"},{"bike_id":"328fba44-d9f9-43bc-80dd-c98681088656","system_id":"levelo_inurba_marseille","lat":43.303002,"lon":5.392142,"is_reserved":false,"is_disabled":false,"rental_uris":{"android":"levelo://app?vid=328fba44-d9f9-43bc-80dd-c98681088656","ios":"levelo://app?vid=328fba44-d9f9-43bc-80dd-c98681088656"},"vehicle_type_id":"4","last_reported":1686474366,"current_range_meters":0,"station_id":"ce4bgkh2rcd13ifvqbk0","pricing_plan_id":"free"},{"bike_id":"61e4ccfd-dc98-4837-8123-2dfa5e087f42","system_id":"levelo_inurba_marseille","lat":43.293723,"lon":5.378443,"is_reserved":false,"is_disabled":false,"rental_uris":{"android":"levelo://app?vid=61e4ccfd-dc98-4837-8123-2dfa5e087f42","ios":"levelo://app?vid=61e4ccfd-dc98-4837-8123-2dfa5e087f42"},"vehicle_type_id":"4","last_reported":1686474366,"current_range_meters":400,"station_id":"","pricing_plan_id":"free"},{"bike_id":"409a3fc2-40a4-420f-83ad-b6c735f889fc","system_id":"levelo_inurba_marseille","lat":43.292311,"lon":5.360731,"is_reserved":false,"is_disabled":false,"rental_uris":{"android":"levelo://app?vid=409a3fc2-40a4-420f-83ad-b6c735f889fc","ios":"levelo://app?vid=409a3fc2-40a4-420f-83ad-b6c735f889fc"},"vehicle_type_id":"4","last_reported":1686474366,"current_range_meters":31200,"station_id":"ce4bhbh2rcd13ifvqeqg","pricing_plan_id":"free"},{"bike_id":"3e288b2e-ff2f-41a5-98fc-9f59565a2fc6","system_id":"levelo_inurba_marseille","lat":43.292311,"lon":5.360731,"is_reserved":false,"is_disabled":false,"rental_uris":{"android":"levelo://app?vid=3e288b2e-ff2f-41a5-98fc-9f59565a2fc6","ios":"levelo://app?vid=3e288b2e-ff2f-41a5-98fc-9f59565a2fc6"},"vehicle_type_id":"4","last_reported":1686474366,"current_range_meters":26800,"station_id":"ce4bhbh2rcd13ifvqeqg","pricing_plan_id":"free"},{"bike_id":"e3fef815-b6f4-453c-a08e-1ae2ee808bf4","system_id":"levelo_inurba_marseille","lat":43.300852,"lon":5.390859,"is_reserved":false,"is_disabled":false,"rental_uris":{"android":"levelo://app?vid=e3fef815-b6f4-453c-a08e-1ae2ee808bf4","ios":"levelo://app?vid=e3fef815-b6f4-453c-a08e-1ae2ee808bf4"},"vehicle_type_id":"4","last_reported":1686474366,"current_range_meters":28000,"station_id":"ce4bh192rcd13ifvqdb0","pricing_plan_id":"free"},{"bike_id":"7c572c72-c083-407d-8ed1-750761a4a28e","system_id":"levelo_inurba_marseille","lat":43.29223,"lon":5.36047,"is_reserved":false,"is_disabled":false,"rental_uris":{"android":"levelo://app?vid=7c572c72-c083-407d-8ed1-750761a4a28e","ios":"levelo://app?vid=7c572c72-c083-407d-8ed1-750761a4a28e"},"vehicle_type_id":"4","last_reported":1686474366,"current_range_meters":29200,"station_id":"ce4bhbh2rcd13ifvqeqg","pricing_plan_id":"free"},{"bike_id":"2b86088e-cd02-4db5-9695-34815a4c9c17","system_id":"levelo_inurba_marseille","lat":43.292311,"lon":5.360731,"is_reserved":false,"is_disabled":false,"rental_uris":{"android":"levelo://app?vid=2b86088e-cd02-4db5-9695-34815a4c9c17","ios":"levelo://app?vid=2b86088e-cd02-4db5-9695-34815a4c9c17"},"vehicle_type_id":"4","last_reported":1686474366,"current_range_meters":24400,"station_id":"ce4bhbh2rcd13ifvqeqg","pricing_plan_id":"free"},{"bike_id":"43e30009-91c5-4e34-b68a-f7c6517206b0","system_id":"levelo_inurba_marseille","lat":43.2922,"lon":5.36049,"is_reserved":false,"is_disabled":false,"rental_uris":{"android":"levelo://app?vid=43e30009-91c5-4e34-b68a-f7c6517206b0","ios":"levelo://app?vid=43e30009-91c5-4e34-b68a-f7c6517206b0"},"vehicle_type_id":"4","last_reported":1686474366,"current_range_meters":12400,"station_id":"","pricing_plan_id":"free"},{"bike_id":"e669850b-ca3b-4764-bf1e-3755bdde9a9d","system_id":"levelo_inurba_marseille","lat":43.298764,"lon":5.388973,"is_reserved":false,"is_disabled":false,"rental_uris":{"android":"levelo://app?vid=e669850b-ca3b-4764-bf1e-3755bdde9a9d","ios":"levelo://app?vid=e669850b-ca3b-4764-bf1e-3755bdde9a9d"},"vehicle_type_id":"4","last_reported":1686474366,"current_range_meters":23600,"station_id":"ce4bh392rcd13ifvqdl0","pricing_plan_id":"free"},{"bike_id":"0b61fa0a-15f6-42a5-b47e-cdabd8c7997d","system_id":"levelo_inurba_marseille","lat":43.29878,"lon":5.38909,"is_reserved":false,"is_disabled":false,"rental_uris":{"android":"levelo://app?vid=0b61fa0a-15f6-42a5-b47e-cdabd8c7997d","ios":"levelo://app?vid=0b61fa0a-15f6-42a5-b47e-cdabd8c7997d"},"vehicle_type_id":"4","last_reported":1686474366,"current_range_meters":24000,"station_id":"ce4bh392rcd13ifvqdl0","pricing_plan_id":"free"},{"bike_id":"a864968a-9942-4890-9cb4-8e7ba88e8c9e","system_id":"levelo_inurba_marseille","lat":43.291992,"lon":5.357988,"is_reserved":false,"is_disabled":false,"rental_uris":{"android":"levelo://app?vid=a864968a-9942-4890-9cb4-8e7ba88e8c9e","ios":"levelo://app?vid=a864968a-9942-4890-9cb4-8e7ba88e8c9e"},"vehicle_type_id":"4","last_reported":1686474366,"current_range_meters":27200,"station_id":"","pricing_plan_id":"free"},{"bike_id":"4477fcde-dec1-4846-875b-e879f14109f9","system_id":"levelo_inurba_marseille","lat":43.291994,"lon":5.357886,"is_reserved":false,"is_disabled":false,"rental_uris":{"android":"levelo://app?vid=4477fcde-dec1-4846-875b-e879f14109f9","ios":"levelo://app?vid=4477fcde-dec1-4846-875b-e879f14109f9"},"vehicle_type_id":"4","last_reported":1686474366,"current_range_meters":24800,"station_id":"ce4bhb12rcd13ifvqel0","pricing_plan_id":"free"},{"bike_id":"bf0b38a2-b1b0-4b80-9526-395e1a40f9a6","system_id":"levelo_inurba_marseille","lat":43.291994,"lon":5.357886,"is_reserved":false,"is_disabled":false,"rental_uris":{"android":"levelo://app?vid=bf0b38a2-b1b0-4b80-9526-395e1a40f9a6","ios":"levelo://app?vid=bf0b38a2-b1b0-4b80-9526-395e1a40f9a6"},"vehicle_type_id":"4","last_reported":1686474366,"current_range_meters":18400,"station_id":"ce4bhb12rcd13ifvqel0","pricing_plan_id":"free"},{"bike_id":"319421d1-0a77-46da-b134-bba23cabe2b6","system_id":"levelo_inurba_marseille","lat":43.31361,"lon":5.39693,"is_reserved":false,"is_disabled":false,"rental_uris":{"android":"levelo://app?vid=319421d1-0a77-46da-b134-bba23cabe2b6","ios":"levelo://app?vid=319421d1-0a77-46da-b134-bba23cabe2b6"},"vehicle_type_id":"4","last_reported":1686474366,"current_range_meters":0,"station_id":"","pricing_plan_id":"free"},{"bike_id":"a922a9f5-fea5-49ff-ac01-d12f16622f4e","system_id":"levelo_inurba_marseille","lat":43.31405,"lon":5.39712,"is_reserved":false,"is_disabled":false,"rental_uris":{"android":"levelo://app?vid=a922a9f5-fea5-49ff-ac01-d12f16622f4e","ios":"levelo://app?vid=a922a9f5-fea5-49ff-ac01-d12f16622f4e"},"vehicle_type_id":"4","last_reported":1686474366,"current_range_meters":18000,"station_id":"","pricing_plan_id":"free"},{"bike_id":"f09eecd5-7485-424d-94af-ee1d02ba8f8e","system_id":"levelo_inurba_marseille","lat":43.290755,"lon":5.371621,"is_reserved":false,"is_disabled":false,"rental_uris":{"android":"levelo://app?vid=f09eecd5-7485-424d-94af-ee1d02ba8f8e","ios":"levelo://app?vid=f09eecd5-7485-424d-94af-ee1d02ba8f8e"},"vehicle_type_id":"4","last_reported":1686474366,"current_range_meters":21600,"station_id":"","pricing_plan_id":"free"},{"bike_id":"05e838b2-000c-4017-b04c-14b6f38996b9","system_id":"levelo_inurba_marseille","lat":43.290624,"lon":5.359245,"is_reserved":false,"is_disabled":false,"rental_uris":{"android":"levelo://app?vid=05e838b2-000c-4017-b04c-14b6f38996b9","ios":"levelo://app?vid=05e838b2-000c-4017-b04c-14b6f38996b9"},"vehicle_type_id":"4","last_reported":1686474366,"current_range_meters":20000,"station_id":"ce4bha92rcd13ifvqeg0","pricing_plan_id":"free"},{"bike_id":"b53dd95a-0659-4b94-b495-3d83f652ee12","system_id":"levelo_inurba_marseille","lat":43.290327,"lon":5.375711,"is_reserved":false,"is_disabled":false,"rental_uris":{"android":"levelo://app?vid=b53dd95a-0659-4b94-b495-3d83f652ee12","ios":"levelo://app?vid=b53dd95a-0659-4b94-b495-3d83f652ee12"},"vehicle_type_id":"4","last_reported":1686474366,"current_range_meters":0,"station_id":"ce4bh692rcd13ifvqe90","pricing_plan_id":"free"},{"bike_id":"c9ed2382-d98c-4db1-a85f-1e095076b8a6","system_id":"levelo_inurba_marseille","lat":43.294032,"lon":5.386342,"is_reserved":false,"is_disabled":false,"rental_uris":{"android":"levelo://app?vid=c9ed2382-d98c-4db1-a85f-1e095076b8a6","ios":"levelo://app?vid=c9ed2382-d98c-4db1-a85f-1e095076b8a6"},"vehicle_type_id":"4","last_reported":1686474366,"current_range_meters":20400,"station_id":"","pricing_plan_id":"free"},{"bike_id":"187dc77f-9757-44ee-b554-bc81851f27ba","system_id":"levelo_inurba_marseille","lat":43.289468,"lon":5.363719,"is_reserved":false,"is_disabled":false,"rental_uris":{"android":"levelo://app?vid=187dc77f-9757-44ee-b554-bc81851f27ba","ios":"levelo://app?vid=187dc77f-9757-44ee-b554-bc81851f27ba"},"vehicle_type_id":"4","last_reported":1686474366,"current_range_meters":9200,"station_id":"ce4bhc92rcd13ifvqetg","pricing_plan_id":"free"},{"bike_id":"74d5c880-1d0c-4ceb-aabd-f9161095274f","system_id":"levelo_inurba_marseille","lat":43.29271,"lon":5.38444,"is_reserved":false,"is_disabled":false,"rental_uris":{"android":"levelo://app?vid=74d5c880-1d0c-4ceb-aabd-f9161095274f","ios":"levelo://app?vid=74d5c880-1d0c-4ceb-aabd-f9161095274f"},"vehicle_type_id":"4","last_reported":1686474366,"current_range_meters":30800,"station_id":"ce4bh692rcd13ifvqea0","pricing_plan_id":"free"},{"bike_id":"64f81127-7584-4d13-8c2b-ddb58f27fb4c","system_id":"levelo_inurba_marseille","lat":43.33042,"lon":5.38913,"is_reserved":false,"is_disabled":false,"rental_uris":{"android":"levelo://app?vid=64f81127-7584-4d13-8c2b-ddb58f27fb4c","ios":"levelo://app?vid=64f81127-7584-4d13-8c2b-ddb58f27fb4c"},"vehicle_type_id":"4","last_reported":1686474366,"current_range_meters":26000,"station_id":"ce4bhr92rcd13ifvqhrg","pricing_plan_id":"free"},{"bike_id":"791edcab-44f2-4826-bf51-ee66af80f2ec","system_id":"levelo_inurba_marseille","lat":43.33042,"lon":5.38916,"is_reserved":false,"is_disabled":false,"rental_uris":{"android":"levelo://app?vid=791edcab-44f2-4826-bf51-ee66af80f2ec","ios":"levelo://app?vid=791edcab-44f2-4826-bf51-ee66af80f2ec"},"vehicle_type_id":"4","last_reported":1686474366,"current_range_meters":25200,"station_id":"ce4bhr92rcd13ifvqhrg","pricing_plan_id":"free"},{"bike_id":"e755ba23-13d5-41c5-9d80-c4e436cc644d","system_id":"levelo_inurba_marseille","lat":43.290104,"lon":5.356111,"is_reserved":false,"is_disabled":false,"rental_uris":{"android":"levelo://app?vid=e755ba23-13d5-41c5-9d80-c4e436cc644d","ios":"levelo://app?vid=e755ba23-13d5-41c5-9d80-c4e436cc644d"},"vehicle_type_id":"4","last_reported":1686474366,"current_range_meters":28800,"station_id":"ce4bhb92rcd13ifvqen0","pricing_plan_id":"free"},{"bike_id":"8a74edc7-c27c-4999-bd0e-863e43bae0f7","system_id":"levelo_inurba_marseille","lat":43.3304,"lon":5.38921,"is_reserved":false,"is_disabled":false,"rental_uris":{"android":"levelo://app?vid=8a74edc7-c27c-4999-bd0e-863e43bae0f7","ios":"levelo://app?vid=8a74edc7-c27c-4999-bd0e-863e43bae0f7"},"vehicle_type_id":"4","last_reported":1686474366,"current_range_meters":24400,"station_id":"ce4bhr92rcd13ifvqhrg","pricing_plan_id":"free"},{"bike_id":"2d1a57aa-7bca-4d8a-947e-f687abaa2adc","system_id":"levelo_inurba_marseille","lat":43.290104,"lon":5.356111,"is_reserved":false,"is_disabled":false,"rental_uris":{"android":"levelo://app?vid=2d1a57aa-7bca-4d8a-947e-f687abaa2adc","ios":"levelo://app?vid=2d1a57aa-7bca-4d8a-947e-f687abaa2adc"},"vehicle_type_id":"4","last_reported":1686474366,"current_range_meters":24400,"station_id":"ce4bhb92rcd13ifvqen0","pricing_plan_id":"free"},{"bike_id":"9c5e6858-421f-4e0e-8152-986ab4399106","system_id":"levelo_inurba_marseille","lat":43.33041,"lon":5.3892,"is_reserved":false,"is_disabled":false,"rental_uris":{"android":"levelo://app?vid=9c5e6858-421f-4e0e-8152-986ab4399106","ios":"levelo://app?vid=9c5e6858-421f-4e0e-8152-986ab4399106"},"vehicle_type_id":"4","last_reported":1686474366,"current_range_meters":24000,"station_id":"ce4bhr92rcd13ifvqhrg","pricing_plan_id":"free"},{"bike_id":"2d8fb9c1-7822-4ad1-b610-5d59dd91fa34","system_id":"levelo_inurba_marseille","lat":43.29008,"lon":5.35615,"is_reserved":false,"is_disabled":false,"rental_uris":{"android":"levelo://app?vid=2d8fb9c1-7822-4ad1-b610-5d59dd91fa34","ios":"levelo://app?vid=2d8fb9c1-7822-4ad1-b610-5d59dd91fa34"},"vehicle_type_id":"4","last_reported":1686474366,"current_range_meters":28000,"station_id":"ce4bhb92rcd13ifvqen0","pricing_plan_id":"free"},{"bike_id":"58ff06f7-dc8b-43c6-a149-d6ca7b26677d","system_id":"levelo_inurba_marseille","lat":43.33045,"lon":5.38915,"is_reserved":false,"is_disabled":false,"rental_uris":{"android":"levelo://app?vid=58ff06f7-dc8b-43c6-a149-d6ca7b26677d","ios":"levelo://app?vid=58ff06f7-dc8b-43c6-a149-d6ca7b26677d"},"vehicle_type_id":"4","last_reported":1686474366,"current_range_meters":26400,"station_id":"ce4bhr92rcd13ifvqhrg","pricing_plan_id":"free"},{"bike_id":"e9170bf1-c1d4-4557-956e-3de979f19338","system_id":"levelo_inurba_marseille","lat":43.290057,"lon":5.356213,"is_reserved":false,"is_disabled":false,"rental_uris":{"android":"levelo://app?vid=e9170bf1-c1d4-4557-956e-3de979f19338","ios":"levelo://app?vid=e9170bf1-c1d4-4557-956e-3de979f19338"},"vehicle_type_id":"4","last_reported":1686474366,"current_range_meters":9200,"station_id":"","pricing_plan_id":"free"},{"bike_id":"f5ce4ece-64a0-44e8-b195-d07a1364e948","system_id":"levelo_inurba_marseille","lat":43.33046,"lon":5.38917,"is_reserved":false,"is_disabled":false,"rental_uris":{"android":"levelo://app?vid=f5ce4ece-64a0-44e8-b195-d07a1364e948","ios":"levelo://app?vid=f5ce4ece-64a0-44e8-b195-d07a1364e948"},"vehicle_type_id":"4","last_reported":1686474366,"current_range_meters":22800,"station_id":"ce4bhr92rcd13ifvqhrg","pricing_plan_id":"free"},{"bike_id":"c4a70924-50ca-48f6-be6f-388b7cf78ab7","system_id":"levelo_inurba_marseille","lat":43.33043,"lon":5.38923,"is_reserved":false,"is_disabled":false,"rental_uris":{"android":"levelo://app?vid=c4a70924-50ca-48f6-be6f-388b7cf78ab7","ios":"levelo://app?vid=c4a70924-50ca-48f6-be6f-388b7cf78ab7"},"vehicle_type_id":"4","last_reported":1686474366,"current_range_meters":25600,"station_id":"ce4bhr92rcd13ifvqhrg","pricing_plan_id":"free"},{"bike_id":"04bf548d-fbde-4fd0-8951-4981764fbf55","system_id":"levelo_inurba_marseille","lat":43.33044,"lon":5.38922,"is_reserved":false,"is_disabled":false,"rental_uris":{"android":"levelo://app?vid=04bf548d-fbde-4fd0-8951-4981764fbf55","ios":"levelo://app?vid=04bf548d-fbde-4fd0-8951-4981764fbf55"},"vehicle_type_id":"4","last_reported":1686474366,"current_range_meters":19200,"station_id":"ce4bhr92rcd13ifvqhrg","pricing_plan_id":"free"},{"bike_id":"351acd09-36d9-4e99-8767-cd2ed7ad612e","system_id":"levelo_inurba_marseille","lat":43.29002,"lon":5.35616,"is_reserved":false,"is_disabled":false,"rental_uris":{"android":"levelo://app?vid=351acd09-36d9-4e99-8767-cd2ed7ad612e","ios":"levelo://app?vid=351acd09-36d9-4e99-8767-cd2ed7ad612e"},"vehicle_type_id":"4","last_reported":1686474366,"current_range_meters":26800,"station_id":"ce4bhb92rcd13ifvqen0","pricing_plan_id":"free"},{"bike_id":"0f098529-e4b4-4a20-a65b-f55958f209f6","system_id":"levelo_inurba_marseille","lat":43.290103,"lon":5.356114,"is_reserved":false,"is_disabled":false,"rental_uris":{"android":"levelo://app?vid=0f098529-e4b4-4a20-a65b-f55958f209f6","ios":"levelo://app?vid=0f098529-e4b4-4a20-a65b-f55958f209f6"},"vehicle_type_id":"4","last_reported":1686474366,"current_range_meters":6400,"station_id":"ce4bhb92rcd13ifvqen0","pricing_plan_id":"free"},{"bike_id":"4377dcd6-98ee-4ec2-afb7-10b1e3a18b38","system_id":"levelo_inurba_marseille","lat":43.33045,"lon":5.38927,"is_reserved":false,"is_disabled":false,"rental_uris":{"android":"levelo://app?vid=4377dcd6-98ee-4ec2-afb7-10b1e3a18b38","ios":"levelo://app?vid=4377dcd6-98ee-4ec2-afb7-10b1e3a18b38"},"vehicle_type_id":"4","last_reported":1686474366,"current_range_meters":20800,"station_id":"ce4bhr92rcd13ifvqhrg","pricing_plan_id":"free"},{"bike_id":"2df36ed5-2a58-4efc-b6ff-1538047b376b","system_id":"levelo_inurba_marseille","lat":43.29002,"lon":5.35613,"is_reserved":false,"is_disabled":false,"rental_uris":{"android":"levelo://app?vid=2df36ed5-2a58-4efc-b6ff-1538047b376b","ios":"levelo://app?vid=2df36ed5-2a58-4efc-b6ff-1538047b376b"},"vehicle_type_id":"4","last_reported":1686474366,"current_range_meters":22800,"station_id":"ce4bhb92rcd13ifvqen0","pricing_plan_id":"free"},{"bike_id":"7a6a69da-7868-43db-9ab1-31450cf72ec3","system_id":"levelo_inurba_marseille","lat":43.28997,"lon":5.35609,"is_reserved":false,"is_disabled":false,"rental_uris":{"android":"levelo://app?vid=7a6a69da-7868-43db-9ab1-31450cf72ec3","ios":"levelo://app?vid=7a6a69da-7868-43db-9ab1-31450cf72ec3"},"vehicle_type_id":"4","last_reported":1686474366,"current_range_meters":31200,"station_id":"ce4bhb92rcd13ifvqen0","pricing_plan_id":"free"},{"bike_id":"efe90070-734d-407d-8880-a4782a94f9d3","system_id":"levelo_inurba_marseille","lat":43.290995,"lon":5.381361,"is_reserved":false,"is_disabled":false,"rental_uris":{"android":"levelo://app?vid=efe90070-734d-407d-8880-a4782a94f9d3","ios":"levelo://app?vid=efe90070-734d-407d-8880-a4782a94f9d3"},"vehicle_type_id":"4","last_reported":1686474366,"current_range_meters":28800,"station_id":"ce4bh512rcd13ifvqe2g","pricing_plan_id":"free"},{"bike_id":"e7f9b0b1-8f9f-402c-a77e-eefbb4a26fd4","system_id":"levelo_inurba_marseille","lat":43.289741,"lon":5.378306,"is_reserved":false,"is_disabled":false,"rental_uris":{"android":"levelo://app?vid=e7f9b0b1-8f9f-402c-a77e-eefbb4a26fd4","ios":"levelo://app?vid=e7f9b0b1-8f9f-402c-a77e-eefbb4a26fd4"},"vehicle_type_id":"4","last_reported":1686474366,"current_range_meters":22800,"station_id":"ce4bh9p2rcd13ifvqed0","pricing_plan_id":"free"},{"bike_id":"42c1de33-6185-4344-8c22-3126c1134e4c","system_id":"levelo_inurba_marseille","lat":43.28795,"lon":5.3622,"is_reserved":false,"is_disabled":false,"rental_uris":{"android":"levelo://app?vid=42c1de33-6185-4344-8c22-3126c1134e4c","ios":"levelo://app?vid=42c1de33-6185-4344-8c22-3126c1134e4c"},"vehicle_type_id":"4","last_reported":1686474366,"current_range_meters":16000,"station_id":"","pricing_plan_id":"free"},{"bike_id":"6004c700-bada-40c2-af6e-60e5c2bd8d5a","system_id":"levelo_inurba_marseille","lat":43.309371,"lon":5.401449,"is_reserved":false,"is_disabled":false,"rental_uris":{"android":"levelo://app?vid=6004c700-bada-40c2-af6e-60e5c2bd8d5a","ios":"levelo://app?vid=6004c700-bada-40c2-af6e-60e5c2bd8d5a"},"vehicle_type_id":"4","last_reported":1686474366,"current_range_meters":31200,"station_id":"ce4bgvp2rcd13ifvqct0","pricing_plan_id":"free"},{"bike_id":"41dc07ab-a6f4-4ddf-b71e-eb145564ea17","system_id":"levelo_inurba_marseille","lat":43.33756,"lon":5.37439,"is_reserved":false,"is_disabled":false,"rental_uris":{"android":"levelo://app?vid=41dc07ab-a6f4-4ddf-b71e-eb145564ea17","ios":"levelo://app?vid=41dc07ab-a6f4-4ddf-b71e-eb145564ea17"},"vehicle_type_id":"4","last_reported":1686474366,"current_range_meters":30000,"station_id":"","pricing_plan_id":"free"},{"bike_id":"265c0905-166c-408b-8d33-95a8e86424e1","system_id":"levelo_inurba_marseille","lat":43.337582,"lon":5.374483,"is_reserved":false,"is_disabled":false,"rental_uris":{"android":"levelo://app?vid=265c0905-166c-408b-8d33-95a8e86424e1","ios":"levelo://app?vid=265c0905-166c-408b-8d33-95a8e86424e1"},"vehicle_type_id":"4","last_reported":1686474366,"current_range_meters":13200,"station_id":"","pricing_plan_id":"free"},{"bike_id":"7b92bb4e-c37f-408a-b8c5-8d9651549545","system_id":"levelo_inurba_marseille","lat":43.33753,"lon":5.3748,"is_reserved":false,"is_disabled":false,"rental_uris":{"android":"levelo://app?vid=7b92bb4e-c37f-408a-b8c5-8d9651549545","ios":"levelo://app?vid=7b92bb4e-c37f-408a-b8c5-8d9651549545"},"vehicle_type_id":"4","last_reported":1686474366,"current_range_meters":19200,"station_id":"","pricing_plan_id":"free"},{"bike_id":"dc03ba51-5d22-4ed9-b3ed-9499a80f6bd0","system_id":"levelo_inurba_marseille","lat":43.3376,"lon":5.37454,"is_reserved":false,"is_disabled":false,"rental_uris":{"android":"levelo://app?vid=dc03ba51-5d22-4ed9-b3ed-9499a80f6bd0","ios":"levelo://app?vid=dc03ba51-5d22-4ed9-b3ed-9499a80f6bd0"},"vehicle_type_id":"4","last_reported":1686474366,"current_range_meters":31200,"station_id":"","pricing_plan_id":"free"},{"bike_id":"fb041ec1-b611-46eb-9d8b-3229cfb3396a","system_id":"levelo_inurba_marseille","lat":43.33768,"lon":5.37459,"is_reserved":false,"is_disabled":false,"rental_uris":{"android":"levelo://app?vid=fb041ec1-b611-46eb-9d8b-3229cfb3396a","ios":"levelo://app?vid=fb041ec1-b611-46eb-9d8b-3229cfb3396a"},"vehicle_type_id":"4","last_reported":1686474366,"current_range_meters":20400,"station_id":"","pricing_plan_id":"free"},{"bike_id":"bb625c4b-61ad-40c3-94fb-294210a77f58","system_id":"levelo_inurba_marseille","lat":43.30138,"lon":5.39858,"is_reserved":false,"is_disabled":false,"rental_uris":{"android":"levelo://app?vid=bb625c4b-61ad-40c3-94fb-294210a77f58","ios":"levelo://app?vid=bb625c4b-61ad-40c3-94fb-294210a77f58"},"vehicle_type_id":"4","last_reported":1686474366,"current_range_meters":16400,"station_id":"","pricing_plan_id":"free"},{"bike_id":"04097b23-81f0-46b5-a799-79383d754edc","system_id":"levelo_inurba_marseille","lat":43.298681,"lon":5.397225,"is_reserved":false,"is_disabled":false,"rental_uris":{"android":"levelo://app?vid=04097b23-81f0-46b5-a799-79383d754edc","ios":"levelo://app?vid=04097b23-81f0-46b5-a799-79383d754edc"},"vehicle_type_id":"4","last_reported":1686474366,"current_range_meters":14800,"station_id":"ce4bh0h2rcd13ifvqd50","pricing_plan_id":"free"},{"bike_id":"b1a8ad8e-e907-49cc-992a-77b4caa1fb26","system_id":"levelo_inurba_marseille","lat":43.290336,"lon":5.386425,"is_reserved":false,"is_disabled":false,"rental_uris":{"android":"levelo://app?vid=b1a8ad8e-e907-49cc-992a-77b4caa1fb26","ios":"levelo://app?vid=b1a8ad8e-e907-49cc-992a-77b4caa1fb26"},"vehicle_type_id":"4","last_reported":1686474366,"current_range_meters":28000,"station_id":"ce4bh4p2rcd13ifvqe0g","pricing_plan_id":"free"},{"bike_id":"815b724d-2b84-4ba1-b906-cb890829f287","system_id":"levelo_inurba_marseille","lat":43.316517,"lon":5.404375,"is_reserved":false,"is_disabled":false,"rental_uris":{"android":"levelo://app?vid=815b724d-2b84-4ba1-b906-cb890829f287","ios":"levelo://app?vid=815b724d-2b84-4ba1-b906-cb890829f287"},"vehicle_type_id":"4","last_reported":1686474366,"current_range_meters":28400,"station_id":"ce4bh012rcd13ifvqd00","pricing_plan_id":"free"},{"bike_id":"57495e2d-ba09-41f9-a17b-a36636913101","system_id":"levelo_inurba_marseille","lat":43.31652,"lon":5.40441,"is_reserved":false,"is_disabled":false,"rental_uris":{"android":"levelo://app?vid=57495e2d-ba09-41f9-a17b-a36636913101","ios":"levelo://app?vid=57495e2d-ba09-41f9-a17b-a36636913101"},"vehicle_type_id":"4","last_reported":1686474366,"current_range_meters":7200,"station_id":"ce4bh012rcd13ifvqd00","pricing_plan_id":"free"},{"bike_id":"4e83b573-c0e7-488c-82c6-411f9e0be026","system_id":"levelo_inurba_marseille","lat":43.316517,"lon":5.404375,"is_reserved":false,"is_disabled":false,"rental_uris":{"android":"levelo://app?vid=4e83b573-c0e7-488c-82c6-411f9e0be026","ios":"levelo://app?vid=4e83b573-c0e7-488c-82c6-411f9e0be026"},"vehicle_type_id":"4","last_reported":1686474366,"current_range_meters":30800,"station_id":"ce4bh012rcd13ifvqd00","pricing_plan_id":"free"},{"bike_id":"3fc29017-99ba-48ab-bcaf-76617656610a","system_id":"levelo_inurba_marseille","lat":43.316517,"lon":5.404375,"is_reserved":false,"is_disabled":false,"rental_uris":{"android":"levelo://app?vid=3fc29017-99ba-48ab-bcaf-76617656610a","ios":"levelo://app?vid=3fc29017-99ba-48ab-bcaf-76617656610a"},"vehicle_type_id":"4","last_reported":1686474366,"current_range_meters":21600,"station_id":"ce4bh012rcd13ifvqd00","pricing_plan_id":"free"},{"bike_id":"e2fb51f8-e440-4a47-beb3-dc250ccf216f","system_id":"levelo_inurba_marseille","lat":43.2846,"lon":5.35886,"is_reserved":false,"is_disabled":false,"rental_uris":{"android":"levelo://app?vid=e2fb51f8-e440-4a47-beb3-dc250ccf216f","ios":"levelo://app?vid=e2fb51f8-e440-4a47-beb3-dc250ccf216f"},"vehicle_type_id":"4","last_reported":1686474366,"current_range_meters":8000,"station_id":"ce4bhah2rcd13ifvqei0","pricing_plan_id":"free"},{"bike_id":"402893d0-a075-4ca0-a398-5f9c77d60401","system_id":"levelo_inurba_marseille","lat":43.28455,"lon":5.35896,"is_reserved":false,"is_disabled":false,"rental_uris":{"android":"levelo://app?vid=402893d0-a075-4ca0-a398-5f9c77d60401","ios":"levelo://app?vid=402893d0-a075-4ca0-a398-5f9c77d60401"},"vehicle_type_id":"4","last_reported":1686474366,"current_range_meters":31200,"station_id":"ce4bhah2rcd13ifvqei0","pricing_plan_id":"free"},{"bike_id":"72ae0919-5ef9-4dce-ac1c-8e97ad627e7d","system_id":"levelo_inurba_marseille","lat":43.28617,"lon":5.35106,"is_reserved":false,"is_disabled":false,"rental_uris":{"android":"levelo://app?vid=72ae0919-5ef9-4dce-ac1c-8e97ad627e7d","ios":"levelo://app?vid=72ae0919-5ef9-4dce-ac1c-8e97ad627e7d"},"vehicle_type_id":"4","last_reported":1686474366,"current_range_meters":24400,"station_id":"","pricing_plan_id":"free"},{"bike_id":"e78eef98-1750-4e3f-81fb-7885eed04a88","system_id":"levelo_inurba_marseille","lat":43.285856,"lon":5.350771,"is_reserved":false,"is_disabled":false,"rental_uris":{"android":"levelo://app?vid=e78eef98-1750-4e3f-81fb-7885eed04a88","ios":"levelo://app?vid=e78eef98-1750-4e3f-81fb-7885eed04a88"},"vehicle_type_id":"4","last_reported":1686474366,"current_range_meters":29200,"station_id":"ce4bhch2rcd13ifvqeug","pricing_plan_id":"free"},{"bike_id":"c685d88e-fb0b-46b3-b92d-cdf2c2e9d9ac","system_id":"levelo_inurba_marseille","lat":43.28613,"lon":5.35105,"is_reserved":false,"is_disabled":false,"rental_uris":{"android":"levelo://app?vid=c685d88e-fb0b-46b3-b92d-cdf2c2e9d9ac","ios":"levelo://app?vid=c685d88e-fb0b-46b3-b92d-cdf2c2e9d9ac"},"vehicle_type_id":"4","last_reported":1686474366,"current_range_meters":23600,"station_id":"","pricing_plan_id":"free"},{"bike_id":"f6868008-59fd-4239-b954-4fd99ab6f80b","system_id":"levelo_inurba_marseille","lat":43.285856,"lon":5.350771,"is_reserved":false,"is_disabled":false,"rental_uris":{"android":"levelo://app?vid=f6868008-59fd-4239-b954-4fd99ab6f80b","ios":"levelo://app?vid=f6868008-59fd-4239-b954-4fd99ab6f80b"},"vehicle_type_id":"4","last_reported":1686474366,"current_range_meters":27200,"station_id":"ce4bhch2rcd13ifvqeug","pricing_plan_id":"free"},{"bike_id":"d1801f73-bada-4994-8062-7c32df385dbe","system_id":"levelo_inurba_marseille","lat":43.296263,"lon":5.40601,"is_reserved":false,"is_disabled":false,"rental_uris":{"android":"levelo://app?vid=d1801f73-bada-4994-8062-7c32df385dbe","ios":"levelo://app?vid=d1801f73-bada-4994-8062-7c32df385dbe"},"vehicle_type_id":"4","last_reported":1686474366,"current_range_meters":21600,"station_id":"ce4bh0h2rcd13ifvqd60","pricing_plan_id":"free"},{"bike_id":"78ca5992-3ff1-4217-9e01-a0de993bee81","system_id":"levelo_inurba_marseille","lat":43.28671,"lon":5.38659,"is_reserved":false,"is_disabled":false,"rental_uris":{"android":"levelo://app?vid=78ca5992-3ff1-4217-9e01-a0de993bee81","ios":"levelo://app?vid=78ca5992-3ff1-4217-9e01-a0de993bee81"},"vehicle_type_id":"4","last_reported":1686474366,"current_range_meters":0,"station_id":"ce4bh492rcd13ifvqdug","pricing_plan_id":"free"},{"bike_id":"94783ff9-d63f-4314-a42f-617e764a1b17","system_id":"levelo_inurba_marseille","lat":43.28543,"lon":5.35017,"is_reserved":false,"is_disabled":false,"rental_uris":{"android":"levelo://app?vid=94783ff9-d63f-4314-a42f-617e764a1b17","ios":"levelo://app?vid=94783ff9-d63f-4314-a42f-617e764a1b17"},"vehicle_type_id":"4","last_reported":1686474366,"current_range_meters":10800,"station_id":"ce4bhbh2rcd13ifvqepg","pricing_plan_id":"free"},{"bike_id":"06cff570-236d-434b-b41a-bcb364e7356f","system_id":"levelo_inurba_marseille","lat":43.323464,"lon":5.406297,"is_reserved":false,"is_disabled":false,"rental_uris":{"android":"levelo://app?vid=06cff570-236d-434b-b41a-bcb364e7356f","ios":"levelo://app?vid=06cff570-236d-434b-b41a-bcb364e7356f"},"vehicle_type_id":"4","last_reported":1686474366,"current_range_meters":31600,"station_id":"ce4bhq92rcd13ifvqhjg","pricing_plan_id":"free"},{"bike_id":"8e35b5e3-44e6-4423-8b1c-0697ca4f063c","system_id":"levelo_inurba_marseille","lat":43.323464,"lon":5.406297,"is_reserved":false,"is_disabled":false,"rental_uris":{"android":"levelo://app?vid=8e35b5e3-44e6-4423-8b1c-0697ca4f063c","ios":"levelo://app?vid=8e35b5e3-44e6-4423-8b1c-0697ca4f063c"},"vehicle_type_id":"4","last_reported":1686474366,"current_range_meters":22800,"station_id":"ce4bhq92rcd13ifvqhjg","pricing_plan_id":"free"},{"bike_id":"7d89e3b5-958d-47f6-80fa-adc2175a1ff9","system_id":"levelo_inurba_marseille","lat":43.323464,"lon":5.406297,"is_reserved":false,"is_disabled":false,"rental_uris":{"android":"levelo://app?vid=7d89e3b5-958d-47f6-80fa-adc2175a1ff9","ios":"levelo://app?vid=7d89e3b5-958d-47f6-80fa-adc2175a1ff9"},"vehicle_type_id":"4","last_reported":1686474366,"current_range_meters":28000,"station_id":"ce4bhq92rcd13ifvqhjg","pricing_plan_id":"free"},{"bike_id":"ae232d39-b160-410f-a53c-e104a0631f2e","system_id":"levelo_inurba_marseille","lat":43.323464,"lon":5.406297,"is_reserved":false,"is_disabled":false,"rental_uris":{"android":"levelo://app?vid=ae232d39-b160-410f-a53c-e104a0631f2e","ios":"levelo://app?vid=ae232d39-b160-410f-a53c-e104a0631f2e"},"vehicle_type_id":"4","last_reported":1686474366,"current_range_meters":30800,"station_id":"ce4bhq92rcd13ifvqhjg","pricing_plan_id":"free"},{"bike_id":"157945e7-a5e7-46d6-81e0-3c4112c26dd6","system_id":"levelo_inurba_marseille","lat":43.323464,"lon":5.406297,"is_reserved":false,"is_disabled":false,"rental_uris":{"android":"levelo://app?vid=157945e7-a5e7-46d6-81e0-3c4112c26dd6","ios":"levelo://app?vid=157945e7-a5e7-46d6-81e0-3c4112c26dd6"},"vehicle_type_id":"4","last_reported":1686474366,"current_range_meters":30000,"station_id":"ce4bhq92rcd13ifvqhjg","pricing_plan_id":"free"},{"bike_id":"f74e5191-5771-4c20-82f9-b577ae627053","system_id":"levelo_inurba_marseille","lat":43.323464,"lon":5.406297,"is_reserved":false,"is_disabled":false,"rental_uris":{"android":"levelo://app?vid=f74e5191-5771-4c20-82f9-b577ae627053","ios":"levelo://app?vid=f74e5191-5771-4c20-82f9-b577ae627053"},"vehicle_type_id":"4","last_reported":1686474366,"current_range_meters":31600,"station_id":"ce4bhq92rcd13ifvqhjg","pricing_plan_id":"free"},{"bike_id":"e3110171-1aa1-49f4-9236-ff0a6b2fdbe2","system_id":"levelo_inurba_marseille","lat":43.323464,"lon":5.406297,"is_reserved":false,"is_disabled":false,"rental_uris":{"android":"levelo://app?vid=e3110171-1aa1-49f4-9236-ff0a6b2fdbe2","ios":"levelo://app?vid=e3110171-1aa1-49f4-9236-ff0a6b2fdbe2"},"vehicle_type_id":"4","last_reported":1686474366,"current_range_meters":27200,"station_id":"ce4bhq92rcd13ifvqhjg","pricing_plan_id":"free"},{"bike_id":"30333e77-7cc7-4ad5-b030-c99c7af00601","system_id":"levelo_inurba_marseille","lat":43.323464,"lon":5.406297,"is_reserved":false,"is_disabled":false,"rental_uris":{"android":"levelo://app?vid=30333e77-7cc7-4ad5-b030-c99c7af00601","ios":"levelo://app?vid=30333e77-7cc7-4ad5-b030-c99c7af00601"},"vehicle_type_id":"4","last_reported":1686474366,"current_range_meters":28400,"station_id":"ce4bhq92rcd13ifvqhjg","pricing_plan_id":"free"},{"bike_id":"f0a3ad06-f877-4848-a800-e3e1b3371c24","system_id":"levelo_inurba_marseille","lat":43.323464,"lon":5.406297,"is_reserved":false,"is_disabled":false,"rental_uris":{"android":"levelo://app?vid=f0a3ad06-f877-4848-a800-e3e1b3371c24","ios":"levelo://app?vid=f0a3ad06-f877-4848-a800-e3e1b3371c24"},"vehicle_type_id":"4","last_reported":1686474366,"current_range_meters":31600,"station_id":"ce4bhq92rcd13ifvqhjg","pricing_plan_id":"free"},{"bike_id":"fe6a5d1a-ec3e-4133-832d-09f5dd126a81","system_id":"levelo_inurba_marseille","lat":43.284787,"lon":5.384116,"is_reserved":false,"is_disabled":false,"rental_uris":{"android":"levelo://app?vid=fe6a5d1a-ec3e-4133-832d-09f5dd126a81","ios":"levelo://app?vid=fe6a5d1a-ec3e-4133-832d-09f5dd126a81"},"vehicle_type_id":"4","last_reported":1686474366,"current_range_meters":400,"station_id":"ce4bh512rcd13ifvqe3g","pricing_plan_id":"free"},{"bike_id":"a46278ce-f913-4b6d-b5f0-aeec2261373f","system_id":"levelo_inurba_marseille","lat":43.288501,"lon":5.393087,"is_reserved":false,"is_disabled":false,"rental_uris":{"android":"levelo://app?vid=a46278ce-f913-4b6d-b5f0-aeec2261373f","ios":"levelo://app?vid=a46278ce-f913-4b6d-b5f0-aeec2261373f"},"vehicle_type_id":"4","last_reported":1686474366,"current_range_meters":10800,"station_id":"ce4bh2p2rcd13ifvqdi0","pricing_plan_id":"free"},{"bike_id":"419f52d0-c0f1-430a-8655-fe99dbb4ee6f","system_id":"levelo_inurba_marseille","lat":43.288501,"lon":5.393087,"is_reserved":false,"is_disabled":false,"rental_uris":{"android":"levelo://app?vid=419f52d0-c0f1-430a-8655-fe99dbb4ee6f","ios":"levelo://app?vid=419f52d0-c0f1-430a-8655-fe99dbb4ee6f"},"vehicle_type_id":"4","last_reported":1686474366,"current_range_meters":31200,"station_id":"ce4bh2p2rcd13ifvqdi0","pricing_plan_id":"free"},{"bike_id":"df58a676-d613-4f66-a51a-4bdf0dbd248d","system_id":"levelo_inurba_marseille","lat":43.288497,"lon":5.393089,"is_reserved":false,"is_disabled":false,"rental_uris":{"android":"levelo://app?vid=df58a676-d613-4f66-a51a-4bdf0dbd248d","ios":"levelo://app?vid=df58a676-d613-4f66-a51a-4bdf0dbd248d"},"vehicle_type_id":"4","last_reported":1686474366,"current_range_meters":31200,"station_id":"ce4bh2p2rcd13ifvqdi0","pricing_plan_id":"free"},{"bike_id":"96156bfa-b580-4896-8e53-432b02a2fc27","system_id":"levelo_inurba_marseille","lat":43.284217,"lon":5.349697,"is_reserved":false,"is_disabled":false,"rental_uris":{"android":"levelo://app?vid=96156bfa-b580-4896-8e53-432b02a2fc27","ios":"levelo://app?vid=96156bfa-b580-4896-8e53-432b02a2fc27"},"vehicle_type_id":"4","last_reported":1686474366,"current_range_meters":31200,"station_id":"ce4bhbh2rcd13ifvqepg","pricing_plan_id":"free"},{"bike_id":"d0d94f85-211b-41f7-800a-38606db94269","system_id":"levelo_inurba_marseille","lat":43.284217,"lon":5.349697,"is_reserved":false,"is_disabled":false,"rental_uris":{"android":"levelo://app?vid=d0d94f85-211b-41f7-800a-38606db94269","ios":"levelo://app?vid=d0d94f85-211b-41f7-800a-38606db94269"},"vehicle_type_id":"4","last_reported":1686474366,"current_range_meters":12400,"station_id":"ce4bhbh2rcd13ifvqepg","pricing_plan_id":"free"},{"bike_id":"1b316864-cf9f-43df-bde1-318be9e988ed","system_id":"levelo_inurba_marseille","lat":43.284219,"lon":5.3497,"is_reserved":false,"is_disabled":false,"rental_uris":{"android":"levelo://app?vid=1b316864-cf9f-43df-bde1-318be9e988ed","ios":"levelo://app?vid=1b316864-cf9f-43df-bde1-318be9e988ed"},"vehicle_type_id":"4","last_reported":1686474366,"current_range_meters":24400,"station_id":"ce4bhbh2rcd13ifvqepg","pricing_plan_id":"free"},{"bike_id":"f6561311-63ae-4d47-996e-47d73e01bb93","system_id":"levelo_inurba_marseille","lat":43.284219,"lon":5.3497,"is_reserved":false,"is_disabled":false,"rental_uris":{"android":"levelo://app?vid=f6561311-63ae-4d47-996e-47d73e01bb93","ios":"levelo://app?vid=f6561311-63ae-4d47-996e-47d73e01bb93"},"vehicle_type_id":"4","last_reported":1686474366,"current_range_meters":13200,"station_id":"ce4bhbh2rcd13ifvqepg","pricing_plan_id":"free"},{"bike_id":"fa8bc7b7-2420-4a7c-b1be-ee64808f43e9","system_id":"levelo_inurba_marseille","lat":43.284217,"lon":5.349697,"is_reserved":false,"is_disabled":false,"rental_uris":{"android":"levelo://app?vid=fa8bc7b7-2420-4a7c-b1be-ee64808f43e9","ios":"levelo://app?vid=fa8bc7b7-2420-4a7c-b1be-ee64808f43e9"},"vehicle_type_id":"4","last_reported":1686474366,"current_range_meters":20000,"station_id":"ce4bhbh2rcd13ifvqepg","pricing_plan_id":"free"},{"bike_id":"5ad7d02d-d7ba-4ddb-8667-ce1b8d83dcef","system_id":"levelo_inurba_marseille","lat":43.284219,"lon":5.3497,"is_reserved":false,"is_disabled":false,"rental_uris":{"android":"levelo://app?vid=5ad7d02d-d7ba-4ddb-8667-ce1b8d83dcef","ios":"levelo://app?vid=5ad7d02d-d7ba-4ddb-8667-ce1b8d83dcef"},"vehicle_type_id":"4","last_reported":1686474366,"current_range_meters":17200,"station_id":"ce4bhbh2rcd13ifvqepg","pricing_plan_id":"free"},{"bike_id":"ad3f3be9-dc5d-4e40-953a-dce8f19b5b0f","system_id":"levelo_inurba_marseille","lat":43.284217,"lon":5.349697,"is_reserved":false,"is_disabled":false,"rental_uris":{"android":"levelo://app?vid=ad3f3be9-dc5d-4e40-953a-dce8f19b5b0f","ios":"levelo://app?vid=ad3f3be9-dc5d-4e40-953a-dce8f19b5b0f"},"vehicle_type_id":"4","last_reported":1686474366,"current_range_meters":16000,"station_id":"ce4bhbh2rcd13ifvqepg","pricing_plan_id":"free"},{"bike_id":"d77e9ca5-91f3-4844-a172-81153a4aa477","system_id":"levelo_inurba_marseille","lat":43.284219,"lon":5.3497,"is_reserved":false,"is_disabled":false,"rental_uris":{"android":"levelo://app?vid=d77e9ca5-91f3-4844-a172-81153a4aa477","ios":"levelo://app?vid=d77e9ca5-91f3-4844-a172-81153a4aa477"},"vehicle_type_id":"4","last_reported":1686474366,"current_range_meters":31600,"station_id":"ce4bhbh2rcd13ifvqepg","pricing_plan_id":"free"},{"bike_id":"75447b6f-d3b4-49fa-a968-11bd6fd0caae","system_id":"levelo_inurba_marseille","lat":43.284219,"lon":5.3497,"is_reserved":false,"is_disabled":false,"rental_uris":{"android":"levelo://app?vid=75447b6f-d3b4-49fa-a968-11bd6fd0caae","ios":"levelo://app?vid=75447b6f-d3b4-49fa-a968-11bd6fd0caae"},"vehicle_type_id":"4","last_reported":1686474366,"current_range_meters":18800,"station_id":"ce4bhbh2rcd13ifvqepg","pricing_plan_id":"free"},{"bike_id":"33118082-67cd-4163-aefd-d0736e7a5838","system_id":"levelo_inurba_marseille","lat":43.284219,"lon":5.3497,"is_reserved":false,"is_disabled":false,"rental_uris":{"android":"levelo://app?vid=33118082-67cd-4163-aefd-d0736e7a5838","ios":"levelo://app?vid=33118082-67cd-4163-aefd-d0736e7a5838"},"vehicle_type_id":"4","last_reported":1686474366,"current_range_meters":0,"station_id":"ce4bhbh2rcd13ifvqepg","pricing_plan_id":"free"},{"bike_id":"cc5645a9-9977-4ba5-be7a-5c10405360a3","system_id":"levelo_inurba_marseille","lat":43.289363,"lon":5.396322,"is_reserved":false,"is_disabled":false,"rental_uris":{"android":"levelo://app?vid=cc5645a9-9977-4ba5-be7a-5c10405360a3","ios":"levelo://app?vid=cc5645a9-9977-4ba5-be7a-5c10405360a3"},"vehicle_type_id":"4","last_reported":1686474366,"current_range_meters":26400,"station_id":"ce4bh3h2rcd13ifvqdn0","pricing_plan_id":"free"},{"bike_id":"7d5e6a58-16fe-4207-b9a8-61d683158745","system_id":"levelo_inurba_marseille","lat":43.289363,"lon":5.396322,"is_reserved":false,"is_disabled":false,"rental_uris":{"android":"levelo://app?vid=7d5e6a58-16fe-4207-b9a8-61d683158745","ios":"levelo://app?vid=7d5e6a58-16fe-4207-b9a8-61d683158745"},"vehicle_type_id":"4","last_reported":1686474366,"current_range_meters":30000,"station_id":"ce4bh3h2rcd13ifvqdn0","pricing_plan_id":"free"},{"bike_id":"f6a92a74-5569-481d-bd1b-8f47a6421dce","system_id":"levelo_inurba_marseille","lat":43.28273,"lon":5.35066,"is_reserved":false,"is_disabled":false,"rental_uris":{"android":"levelo://app?vid=f6a92a74-5569-481d-bd1b-8f47a6421dce","ios":"levelo://app?vid=f6a92a74-5569-481d-bd1b-8f47a6421dce"},"vehicle_type_id":"4","last_reported":1686474366,"current_range_meters":19600,"station_id":"ce4bhbp2rcd13ifvqerg","pricing_plan_id":"free"},{"bike_id":"35390122-4b35-4f5d-978c-052c478b56e0","system_id":"levelo_inurba_marseille","lat":43.28273,"lon":5.35063,"is_reserved":false,"is_disabled":false,"rental_uris":{"android":"levelo://app?vid=35390122-4b35-4f5d-978c-052c478b56e0","ios":"levelo://app?vid=35390122-4b35-4f5d-978c-052c478b56e0"},"vehicle_type_id":"4","last_reported":1686474366,"current_range_meters":30000,"station_id":"ce4bhbp2rcd13ifvqerg","pricing_plan_id":"free"},{"bike_id":"9f8f82da-3a77-45d3-9aad-1869b637d6a7","system_id":"levelo_inurba_marseille","lat":43.28266,"lon":5.35067,"is_reserved":false,"is_disabled":false,"rental_uris":{"android":"levelo://app?vid=9f8f82da-3a77-45d3-9aad-1869b637d6a7","ios":"levelo://app?vid=9f8f82da-3a77-45d3-9aad-1869b637d6a7"},"vehicle_type_id":"4","last_reported":1686474366,"current_range_meters":28400,"station_id":"ce4bhbp2rcd13ifvqerg","pricing_plan_id":"free"},{"bike_id":"986b7c55-f006-484d-8ec6-243ffdc02348","system_id":"levelo_inurba_marseille","lat":43.28268,"lon":5.35059,"is_reserved":false,"is_disabled":false,"rental_uris":{"android":"levelo://app?vid=986b7c55-f006-484d-8ec6-243ffdc02348","ios":"levelo://app?vid=986b7c55-f006-484d-8ec6-243ffdc02348"},"vehicle_type_id":"4","last_reported":1686474366,"current_range_meters":20400,"station_id":"ce4bhbp2rcd13ifvqerg","pricing_plan_id":"free"},{"bike_id":"a7faebc2-9214-4e12-a4cf-f8083b36ac03","system_id":"levelo_inurba_marseille","lat":43.28267,"lon":5.35057,"is_reserved":false,"is_disabled":false,"rental_uris":{"android":"levelo://app?vid=a7faebc2-9214-4e12-a4cf-f8083b36ac03","ios":"levelo://app?vid=a7faebc2-9214-4e12-a4cf-f8083b36ac03"},"vehicle_type_id":"4","last_reported":1686474366,"current_range_meters":16800,"station_id":"ce4bhbp2rcd13ifvqerg","pricing_plan_id":"free"},{"bike_id":"52d5d330-348c-4914-a376-2e142cb1b670","system_id":"levelo_inurba_marseille","lat":43.28262,"lon":5.35067,"is_reserved":false,"is_disabled":false,"rental_uris":{"android":"levelo://app?vid=52d5d330-348c-4914-a376-2e142cb1b670","ios":"levelo://app?vid=52d5d330-348c-4914-a376-2e142cb1b670"},"vehicle_type_id":"4","last_reported":1686474366,"current_range_meters":17600,"station_id":"ce4bhbp2rcd13ifvqerg","pricing_plan_id":"free"},{"bike_id":"5d77eab8-5ce3-4859-81cb-f99f2967abb2","system_id":"levelo_inurba_marseille","lat":43.282744,"lon":5.350533,"is_reserved":false,"is_disabled":false,"rental_uris":{"android":"levelo://app?vid=5d77eab8-5ce3-4859-81cb-f99f2967abb2","ios":"levelo://app?vid=5d77eab8-5ce3-4859-81cb-f99f2967abb2"},"vehicle_type_id":"4","last_reported":1686474366,"current_range_meters":20800,"station_id":"ce4bhbp2rcd13ifvqerg","pricing_plan_id":"free"},{"bike_id":"f2e9ce1d-89b1-46a5-9c91-2a819de868fd","system_id":"levelo_inurba_marseille","lat":43.28262,"lon":5.35053,"is_reserved":false,"is_disabled":false,"rental_uris":{"android":"levelo://app?vid=f2e9ce1d-89b1-46a5-9c91-2a819de868fd","ios":"levelo://app?vid=f2e9ce1d-89b1-46a5-9c91-2a819de868fd"},"vehicle_type_id":"4","last_reported":1686474366,"current_range_meters":27200,"station_id":"ce4bhbp2rcd13ifvqerg","pricing_plan_id":"free"},{"bike_id":"54f5d9cf-fc7d-4fc8-a969-4a8a8eaa02fc","system_id":"levelo_inurba_marseille","lat":43.29047,"lon":5.39937,"is_reserved":false,"is_disabled":false,"rental_uris":{"android":"levelo://app?vid=54f5d9cf-fc7d-4fc8-a969-4a8a8eaa02fc","ios":"levelo://app?vid=54f5d9cf-fc7d-4fc8-a969-4a8a8eaa02fc"},"vehicle_type_id":"4","last_reported":1686474366,"current_range_meters":31200,"station_id":"ce4bh392rcd13ifvqdm0","pricing_plan_id":"free"},{"bike_id":"094ccace-3de5-4faa-854a-2b46eb8c5f51","system_id":"levelo_inurba_marseille","lat":43.29046,"lon":5.39947,"is_reserved":false,"is_disabled":false,"rental_uris":{"android":"levelo://app?vid=094ccace-3de5-4faa-854a-2b46eb8c5f51","ios":"levelo://app?vid=094ccace-3de5-4faa-854a-2b46eb8c5f51"},"vehicle_type_id":"4","last_reported":1686474366,"current_range_meters":29600,"station_id":"ce4bh392rcd13ifvqdm0","pricing_plan_id":"free"},{"bike_id":"792989f8-8c77-442a-9b9a-a6057c99caef","system_id":"levelo_inurba_marseille","lat":43.29041,"lon":5.399634,"is_reserved":false,"is_disabled":false,"rental_uris":{"android":"levelo://app?vid=792989f8-8c77-442a-9b9a-a6057c99caef","ios":"levelo://app?vid=792989f8-8c77-442a-9b9a-a6057c99caef"},"vehicle_type_id":"4","last_reported":1686474366,"current_range_meters":30400,"station_id":"ce4bh392rcd13ifvqdm0","pricing_plan_id":"free"},{"bike_id":"667b45d8-d830-4fc8-bc48-5e2fe95df813","system_id":"levelo_inurba_marseille","lat":43.290364,"lon":5.399462,"is_reserved":false,"is_disabled":false,"rental_uris":{"android":"levelo://app?vid=667b45d8-d830-4fc8-bc48-5e2fe95df813","ios":"levelo://app?vid=667b45d8-d830-4fc8-bc48-5e2fe95df813"},"vehicle_type_id":"4","last_reported":1686474366,"current_range_meters":20800,"station_id":"","pricing_plan_id":"free"},{"bike_id":"007c82fd-294e-4682-aa21-fb1182a15c75","system_id":"levelo_inurba_marseille","lat":43.290372,"lon":5.399519,"is_reserved":false,"is_disabled":false,"rental_uris":{"android":"levelo://app?vid=007c82fd-294e-4682-aa21-fb1182a15c75","ios":"levelo://app?vid=007c82fd-294e-4682-aa21-fb1182a15c75"},"vehicle_type_id":"4","last_reported":1686474366,"current_range_meters":31200,"station_id":"ce4bh392rcd13ifvqdm0","pricing_plan_id":"free"},{"bike_id":"dba932fe-94d9-4ba7-b665-6d1bf41fe3e1","system_id":"levelo_inurba_marseille","lat":43.290384,"lon":5.399545,"is_reserved":false,"is_disabled":false,"rental_uris":{"android":"levelo://app?vid=dba932fe-94d9-4ba7-b665-6d1bf41fe3e1","ios":"levelo://app?vid=dba932fe-94d9-4ba7-b665-6d1bf41fe3e1"},"vehicle_type_id":"4","last_reported":1686474366,"current_range_meters":20000,"station_id":"ce4bh392rcd13ifvqdm0","pricing_plan_id":"free"},{"bike_id":"d4891774-a7d4-4c89-8c60-f13d583b9724","system_id":"levelo_inurba_marseille","lat":43.290366,"lon":5.39955,"is_reserved":false,"is_disabled":false,"rental_uris":{"android":"levelo://app?vid=d4891774-a7d4-4c89-8c60-f13d583b9724","ios":"levelo://app?vid=d4891774-a7d4-4c89-8c60-f13d583b9724"},"vehicle_type_id":"4","last_reported":1686474366,"current_range_meters":31200,"station_id":"ce4bh392rcd13ifvqdm0","pricing_plan_id":"free"},{"bike_id":"6e41e9be-b1ad-4a7e-9b15-f8fcda11ed46","system_id":"levelo_inurba_marseille","lat":43.29041,"lon":5.399634,"is_reserved":false,"is_disabled":false,"rental_uris":{"android":"levelo://app?vid=6e41e9be-b1ad-4a7e-9b15-f8fcda11ed46","ios":"levelo://app?vid=6e41e9be-b1ad-4a7e-9b15-f8fcda11ed46"},"vehicle_type_id":"4","last_reported":1686474366,"current_range_meters":28800,"station_id":"ce4bh392rcd13ifvqdm0","pricing_plan_id":"free"},{"bike_id":"ca0f1f15-8f5c-4e92-bdac-6de5206c987f","system_id":"levelo_inurba_marseille","lat":43.29633,"lon":5.40587,"is_reserved":false,"is_disabled":false,"rental_uris":{"android":"levelo://app?vid=ca0f1f15-8f5c-4e92-bdac-6de5206c987f","ios":"levelo://app?vid=ca0f1f15-8f5c-4e92-bdac-6de5206c987f"},"vehicle_type_id":"4","last_reported":1686474366,"current_range_meters":23200,"station_id":"ce4bh0h2rcd13ifvqd60","pricing_plan_id":"free"},{"bike_id":"5f8aef48-93a9-447f-bea9-c30a8b80e86c","system_id":"levelo_inurba_marseille","lat":43.2963,"lon":5.40599,"is_reserved":false,"is_disabled":false,"rental_uris":{"android":"levelo://app?vid=5f8aef48-93a9-447f-bea9-c30a8b80e86c","ios":"levelo://app?vid=5f8aef48-93a9-447f-bea9-c30a8b80e86c"},"vehicle_type_id":"4","last_reported":1686474366,"current_range_meters":31200,"station_id":"ce4bh0h2rcd13ifvqd60","pricing_plan_id":"free"},{"bike_id":"8bf8d753-fedd-4f0b-8f48-0dcbdf9f214f","system_id":"levelo_inurba_marseille","lat":43.28443,"lon":5.39185,"is_reserved":false,"is_disabled":false,"rental_uris":{"android":"levelo://app?vid=8bf8d753-fedd-4f0b-8f48-0dcbdf9f214f","ios":"levelo://app?vid=8bf8d753-fedd-4f0b-8f48-0dcbdf9f214f"},"vehicle_type_id":"4","last_reported":1686474366,"current_range_meters":29600,"station_id":"ce4bhoh2rcd13ifvqh5g","pricing_plan_id":"free"},{"bike_id":"8d53fdf1-9d5b-49ad-8e83-d7af1a16bc57","system_id":"levelo_inurba_marseille","lat":43.285742,"lon":5.395004,"is_reserved":false,"is_disabled":false,"rental_uris":{"android":"levelo://app?vid=8d53fdf1-9d5b-49ad-8e83-d7af1a16bc57","ios":"levelo://app?vid=8d53fdf1-9d5b-49ad-8e83-d7af1a16bc57"},"vehicle_type_id":"4","last_reported":1686474366,"current_range_meters":19600,"station_id":"ce4bh292rcd13ifvqdg0","pricing_plan_id":"free"},{"bike_id":"caa5d4a7-e67b-4cb4-b720-7385cd88e582","system_id":"levelo_inurba_marseille","lat":43.287154,"lon":5.399979,"is_reserved":false,"is_disabled":false,"rental_uris":{"android":"levelo://app?vid=caa5d4a7-e67b-4cb4-b720-7385cd88e582","ios":"levelo://app?vid=caa5d4a7-e67b-4cb4-b720-7385cd88e582"},"vehicle_type_id":"4","last_reported":1686474366,"current_range_meters":31200,"station_id":"ce4bho92rcd13ifvqh3g","pricing_plan_id":"free"},{"bike_id":"5eeef255-79a2-4949-ad2e-0e638f3e36dd","system_id":"levelo_inurba_marseille","lat":43.287154,"lon":5.399979,"is_reserved":false,"is_disabled":false,"rental_uris":{"android":"levelo://app?vid=5eeef255-79a2-4949-ad2e-0e638f3e36dd","ios":"levelo://app?vid=5eeef255-79a2-4949-ad2e-0e638f3e36dd"},"vehicle_type_id":"4","last_reported":1686474366,"current_range_meters":31200,"station_id":"ce4bho92rcd13ifvqh3g","pricing_plan_id":"free"},{"bike_id":"5e90c9a9-1258-42b4-a356-14dc786d3bae","system_id":"levelo_inurba_marseille","lat":43.320045,"lon":5.415046,"is_reserved":false,"is_disabled":false,"rental_uris":{"android":"levelo://app?vid=5e90c9a9-1258-42b4-a356-14dc786d3bae","ios":"levelo://app?vid=5e90c9a9-1258-42b4-a356-14dc786d3bae"},"vehicle_type_id":"4","last_reported":1686474366,"current_range_meters":31200,"station_id":"ce4bhq92rcd13ifvqhkg","pricing_plan_id":"free"},{"bike_id":"68a42c08-bb82-4706-9431-31a9c4d00abd","system_id":"levelo_inurba_marseille","lat":43.32037,"lon":5.41545,"is_reserved":false,"is_disabled":false,"rental_uris":{"android":"levelo://app?vid=68a42c08-bb82-4706-9431-31a9c4d00abd","ios":"levelo://app?vid=68a42c08-bb82-4706-9431-31a9c4d00abd"},"vehicle_type_id":"4","last_reported":1686474366,"current_range_meters":18000,"station_id":"","pricing_plan_id":"free"},{"bike_id":"e177311a-0b00-473f-b511-46979edcd3b9","system_id":"levelo_inurba_marseille","lat":43.32044,"lon":5.41545,"is_reserved":false,"is_disabled":false,"rental_uris":{"android":"levelo://app?vid=e177311a-0b00-473f-b511-46979edcd3b9","ios":"levelo://app?vid=e177311a-0b00-473f-b511-46979edcd3b9"},"vehicle_type_id":"4","last_reported":1686474366,"current_range_meters":30400,"station_id":"","pricing_plan_id":"free"},{"bike_id":"8d25535e-f116-4f8c-83e9-e57607a567cf","system_id":"levelo_inurba_marseille","lat":43.320045,"lon":5.415048,"is_reserved":false,"is_disabled":false,"rental_uris":{"android":"levelo://app?vid=8d25535e-f116-4f8c-83e9-e57607a567cf","ios":"levelo://app?vid=8d25535e-f116-4f8c-83e9-e57607a567cf"},"vehicle_type_id":"4","last_reported":1686474366,"current_range_meters":31200,"station_id":"ce4bhq92rcd13ifvqhkg","pricing_plan_id":"free"},{"bike_id":"6a18d01b-2cb0-4070-b136-9fc46d559f2a","system_id":"levelo_inurba_marseille","lat":43.28601,"lon":5.40037,"is_reserved":false,"is_disabled":false,"rental_uris":{"android":"levelo://app?vid=6a18d01b-2cb0-4070-b136-9fc46d559f2a","ios":"levelo://app?vid=6a18d01b-2cb0-4070-b136-9fc46d559f2a"},"vehicle_type_id":"4","last_reported":1686474366,"current_range_meters":9600,"station_id":"","pricing_plan_id":"free"},{"bike_id":"752107fa-834a-4c82-9c26-d221ef3d32dc","system_id":"levelo_inurba_marseille","lat":43.320045,"lon":5.415046,"is_reserved":false,"is_disabled":false,"rental_uris":{"android":"levelo://app?vid=752107fa-834a-4c82-9c26-d221ef3d32dc","ios":"levelo://app?vid=752107fa-834a-4c82-9c26-d221ef3d32dc"},"vehicle_type_id":"4","last_reported":1686474366,"current_range_meters":29200,"station_id":"ce4bhq92rcd13ifvqhkg","pricing_plan_id":"free"},{"bike_id":"a0f99a13-ad13-4025-9b02-814503c605f9","system_id":"levelo_inurba_marseille","lat":43.320045,"lon":5.415046,"is_reserved":false,"is_disabled":false,"rental_uris":{"android":"levelo://app?vid=a0f99a13-ad13-4025-9b02-814503c605f9","ios":"levelo://app?vid=a0f99a13-ad13-4025-9b02-814503c605f9"},"vehicle_type_id":"4","last_reported":1686474366,"current_range_meters":30400,"station_id":"ce4bhq92rcd13ifvqhkg","pricing_plan_id":"free"},{"bike_id":"57407a92-2927-4339-b585-c98a1d12c047","system_id":"levelo_inurba_marseille","lat":43.32054,"lon":5.41554,"is_reserved":false,"is_disabled":false,"rental_uris":{"android":"levelo://app?vid=57407a92-2927-4339-b585-c98a1d12c047","ios":"levelo://app?vid=57407a92-2927-4339-b585-c98a1d12c047"},"vehicle_type_id":"4","last_reported":1686474366,"current_range_meters":28000,"station_id":"","pricing_plan_id":"free"},{"bike_id":"5324c499-543c-4927-87be-483ca946f3a0","system_id":"levelo_inurba_marseille","lat":43.320045,"lon":5.415048,"is_reserved":false,"is_disabled":false,"rental_uris":{"android":"levelo://app?vid=5324c499-543c-4927-87be-483ca946f3a0","ios":"levelo://app?vid=5324c499-543c-4927-87be-483ca946f3a0"},"vehicle_type_id":"4","last_reported":1686474366,"current_range_meters":31200,"station_id":"ce4bhq92rcd13ifvqhkg","pricing_plan_id":"free"},{"bike_id":"871681c5-a066-4cdf-b811-85b0fc822323","system_id":"levelo_inurba_marseille","lat":43.320045,"lon":5.415046,"is_reserved":false,"is_disabled":false,"rental_uris":{"android":"levelo://app?vid=871681c5-a066-4cdf-b811-85b0fc822323","ios":"levelo://app?vid=871681c5-a066-4cdf-b811-85b0fc822323"},"vehicle_type_id":"4","last_reported":1686474366,"current_range_meters":31200,"station_id":"ce4bhq92rcd13ifvqhkg","pricing_plan_id":"free"},{"bike_id":"583543eb-b0bf-4785-8b1e-96cd4f7bb70e","system_id":"levelo_inurba_marseille","lat":43.320045,"lon":5.415046,"is_reserved":false,"is_disabled":false,"rental_uris":{"android":"levelo://app?vid=583543eb-b0bf-4785-8b1e-96cd4f7bb70e","ios":"levelo://app?vid=583543eb-b0bf-4785-8b1e-96cd4f7bb70e"},"vehicle_type_id":"4","last_reported":1686474366,"current_range_meters":29600,"station_id":"ce4bhq92rcd13ifvqhkg","pricing_plan_id":"free"},{"bike_id":"ce70f64c-b226-400b-b2e8-9b3d5f16350e","system_id":"levelo_inurba_marseille","lat":43.292569,"lon":5.409107,"is_reserved":false,"is_disabled":false,"rental_uris":{"android":"levelo://app?vid=ce70f64c-b226-400b-b2e8-9b3d5f16350e","ios":"levelo://app?vid=ce70f64c-b226-400b-b2e8-9b3d5f16350e"},"vehicle_type_id":"4","last_reported":1686474366,"current_range_meters":28800,"station_id":"ce4bh192rcd13ifvqdc0","pricing_plan_id":"free"},{"bike_id":"027d3cf1-433b-4fa3-81c6-2c56453b3015","system_id":"levelo_inurba_marseille","lat":43.292569,"lon":5.409107,"is_reserved":false,"is_disabled":false,"rental_uris":{"android":"levelo://app?vid=027d3cf1-433b-4fa3-81c6-2c56453b3015","ios":"levelo://app?vid=027d3cf1-433b-4fa3-81c6-2c56453b3015"},"vehicle_type_id":"4","last_reported":1686474366,"current_range_meters":22800,"station_id":"ce4bh192rcd13ifvqdc0","pricing_plan_id":"free"},{"bike_id":"251d6fe2-ba99-4b65-9742-9f67d8d2e41a","system_id":"levelo_inurba_marseille","lat":43.292569,"lon":5.409107,"is_reserved":false,"is_disabled":false,"rental_uris":{"android":"levelo://app?vid=251d6fe2-ba99-4b65-9742-9f67d8d2e41a","ios":"levelo://app?vid=251d6fe2-ba99-4b65-9742-9f67d8d2e41a"},"vehicle_type_id":"4","last_reported":1686474366,"current_range_meters":22400,"station_id":"ce4bh192rcd13ifvqdc0","pricing_plan_id":"free"},{"bike_id":"84738fb7-4998-4e2c-b779-bc63c295d2a7","system_id":"levelo_inurba_marseille","lat":43.292571,"lon":5.409107,"is_reserved":false,"is_disabled":false,"rental_uris":{"android":"levelo://app?vid=84738fb7-4998-4e2c-b779-bc63c295d2a7","ios":"levelo://app?vid=84738fb7-4998-4e2c-b779-bc63c295d2a7"},"vehicle_type_id":"4","last_reported":1686474366,"current_range_meters":21200,"station_id":"ce4bh192rcd13ifvqdc0","pricing_plan_id":"free"},{"bike_id":"e54ecf4f-4f55-4efb-9ece-e23e62c0c647","system_id":"levelo_inurba_marseille","lat":43.292569,"lon":5.409107,"is_reserved":false,"is_disabled":false,"rental_uris":{"android":"levelo://app?vid=e54ecf4f-4f55-4efb-9ece-e23e62c0c647","ios":"levelo://app?vid=e54ecf4f-4f55-4efb-9ece-e23e62c0c647"},"vehicle_type_id":"4","last_reported":1686474366,"current_range_meters":22400,"station_id":"ce4bh192rcd13ifvqdc0","pricing_plan_id":"free"},{"bike_id":"5e6a9767-8764-4054-ad32-0101876ba855","system_id":"levelo_inurba_marseille","lat":43.29249,"lon":5.40901,"is_reserved":false,"is_disabled":false,"rental_uris":{"android":"levelo://app?vid=5e6a9767-8764-4054-ad32-0101876ba855","ios":"levelo://app?vid=5e6a9767-8764-4054-ad32-0101876ba855"},"vehicle_type_id":"4","last_reported":1686474366,"current_range_meters":0,"station_id":"ce4bh192rcd13ifvqdc0","pricing_plan_id":"free"},{"bike_id":"cd1470dc-86cf-43aa-b307-a0b8186c3d70","system_id":"levelo_inurba_marseille","lat":43.29258,"lon":5.40911,"is_reserved":false,"is_disabled":false,"rental_uris":{"android":"levelo://app?vid=cd1470dc-86cf-43aa-b307-a0b8186c3d70","ios":"levelo://app?vid=cd1470dc-86cf-43aa-b307-a0b8186c3d70"},"vehicle_type_id":"4","last_reported":1686474366,"current_range_meters":16000,"station_id":"ce4bh192rcd13ifvqdc0","pricing_plan_id":"free"},{"bike_id":"141c0373-37cf-4e47-af89-ec6ee90d6bdd","system_id":"levelo_inurba_marseille","lat":43.292571,"lon":5.409107,"is_reserved":false,"is_disabled":false,"rental_uris":{"android":"levelo://app?vid=141c0373-37cf-4e47-af89-ec6ee90d6bdd","ios":"levelo://app?vid=141c0373-37cf-4e47-af89-ec6ee90d6bdd"},"vehicle_type_id":"4","last_reported":1686474366,"current_range_meters":31200,"station_id":"ce4bh192rcd13ifvqdc0","pricing_plan_id":"free"},{"bike_id":"de9c86fe-b9b5-4708-88b1-5076944a2c3f","system_id":"levelo_inurba_marseille","lat":43.29263,"lon":5.40919,"is_reserved":false,"is_disabled":false,"rental_uris":{"android":"levelo://app?vid=de9c86fe-b9b5-4708-88b1-5076944a2c3f","ios":"levelo://app?vid=de9c86fe-b9b5-4708-88b1-5076944a2c3f"},"vehicle_type_id":"4","last_reported":1686474366,"current_range_meters":8000,"station_id":"ce4bh192rcd13ifvqdc0","pricing_plan_id":"free"},{"bike_id":"7544ef50-10f3-484f-9048-bb9de8b64ee3","system_id":"levelo_inurba_marseille","lat":43.292571,"lon":5.409107,"is_reserved":false,"is_disabled":false,"rental_uris":{"android":"levelo://app?vid=7544ef50-10f3-484f-9048-bb9de8b64ee3","ios":"levelo://app?vid=7544ef50-10f3-484f-9048-bb9de8b64ee3"},"vehicle_type_id":"4","last_reported":1686474366,"current_range_meters":31200,"station_id":"ce4bh192rcd13ifvqdc0","pricing_plan_id":"free"},{"bike_id":"c0d2610d-dc6d-44ee-b961-a7c309cc7ad1","system_id":"levelo_inurba_marseille","lat":43.325233,"lon":5.414318,"is_reserved":false,"is_disabled":false,"rental_uris":{"android":"levelo://app?vid=c0d2610d-dc6d-44ee-b961-a7c309cc7ad1","ios":"levelo://app?vid=c0d2610d-dc6d-44ee-b961-a7c309cc7ad1"},"vehicle_type_id":"4","last_reported":1686474366,"current_range_meters":31200,"station_id":"ce4bhq12rcd13ifvqhhg","pricing_plan_id":"free"},{"bike_id":"085bd568-ec40-4961-8fff-65962dfcc170","system_id":"levelo_inurba_marseille","lat":43.32541,"lon":5.41449,"is_reserved":false,"is_disabled":false,"rental_uris":{"android":"levelo://app?vid=085bd568-ec40-4961-8fff-65962dfcc170","ios":"levelo://app?vid=085bd568-ec40-4961-8fff-65962dfcc170"},"vehicle_type_id":"4","last_reported":1686474366,"current_range_meters":26000,"station_id":"ce4bhq12rcd13ifvqhhg","pricing_plan_id":"free"},{"bike_id":"cf8718b8-0e27-4e93-b820-81f41d451b58","system_id":"levelo_inurba_marseille","lat":43.27441,"lon":5.36125,"is_reserved":false,"is_disabled":false,"rental_uris":{"android":"levelo://app?vid=cf8718b8-0e27-4e93-b820-81f41d451b58","ios":"levelo://app?vid=cf8718b8-0e27-4e93-b820-81f41d451b58"},"vehicle_type_id":"4","last_reported":1686474366,"current_range_meters":16400,"station_id":"ce4bhbh2rcd13ifvqeo0","pricing_plan_id":"free"},{"bike_id":"f529634b-d73e-4fc4-be85-373ffe670917","system_id":"levelo_inurba_marseille","lat":43.303837,"lon":5.418724,"is_reserved":false,"is_disabled":false,"rental_uris":{"android":"levelo://app?vid=f529634b-d73e-4fc4-be85-373ffe670917","ios":"levelo://app?vid=f529634b-d73e-4fc4-be85-373ffe670917"},"vehicle_type_id":"4","last_reported":1686474366,"current_range_meters":18000,"station_id":"ce4bhop2rcd13ifvqh7g","pricing_plan_id":"free"},{"bike_id":"c88b6bfe-48c5-48a1-9aef-aced7972a882","system_id":"levelo_inurba_marseille","lat":43.33612,"lon":5.410321,"is_reserved":false,"is_disabled":false,"rental_uris":{"android":"levelo://app?vid=c88b6bfe-48c5-48a1-9aef-aced7972a882","ios":"levelo://app?vid=c88b6bfe-48c5-48a1-9aef-aced7972a882"},"vehicle_type_id":"4","last_reported":1686474366,"current_range_meters":19200,"station_id":"ce4bhqh2rcd13ifvqhmg","pricing_plan_id":"free"},{"bike_id":"5f487c44-6ea4-4ea4-b58f-ef12e333aecd","system_id":"levelo_inurba_marseille","lat":43.273613,"lon":5.362705,"is_reserved":false,"is_disabled":false,"rental_uris":{"android":"levelo://app?vid=5f487c44-6ea4-4ea4-b58f-ef12e333aecd","ios":"levelo://app?vid=5f487c44-6ea4-4ea4-b58f-ef12e333aecd"},"vehicle_type_id":"4","last_reported":1686474366,"current_range_meters":27600,"station_id":"ce4bhbh2rcd13ifvqeo0","pricing_plan_id":"free"},{"bike_id":"64fecba5-77af-40bd-bbee-3c7a7ff40af5","system_id":"levelo_inurba_marseille","lat":43.27574,"lon":5.384273,"is_reserved":false,"is_disabled":false,"rental_uris":{"android":"levelo://app?vid=64fecba5-77af-40bd-bbee-3c7a7ff40af5","ios":"levelo://app?vid=64fecba5-77af-40bd-bbee-3c7a7ff40af5"},"vehicle_type_id":"4","last_reported":1686474366,"current_range_meters":28800,"station_id":"","pricing_plan_id":"free"},{"bike_id":"17206544-7f31-45c4-827f-798ba27bbe63","system_id":"levelo_inurba_marseille","lat":43.27377,"lon":5.36255,"is_reserved":false,"is_disabled":false,"rental_uris":{"android":"levelo://app?vid=17206544-7f31-45c4-827f-798ba27bbe63","ios":"levelo://app?vid=17206544-7f31-45c4-827f-798ba27bbe63"},"vehicle_type_id":"4","last_reported":1686474366,"current_range_meters":25600,"station_id":"ce4bhbh2rcd13ifvqeo0","pricing_plan_id":"free"},{"bike_id":"0fe3d449-f13b-446a-9ab7-0eab7f85b885","system_id":"levelo_inurba_marseille","lat":43.27572,"lon":5.3843,"is_reserved":false,"is_disabled":false,"rental_uris":{"android":"levelo://app?vid=0fe3d449-f13b-446a-9ab7-0eab7f85b885","ios":"levelo://app?vid=0fe3d449-f13b-446a-9ab7-0eab7f85b885"},"vehicle_type_id":"4","last_reported":1686474366,"current_range_meters":3600,"station_id":"","pricing_plan_id":"free"},{"bike_id":"6944258d-8ddd-4730-8964-7675aeb6a968","system_id":"levelo_inurba_marseille","lat":43.273613,"lon":5.362705,"is_reserved":false,"is_disabled":false,"rental_uris":{"android":"levelo://app?vid=6944258d-8ddd-4730-8964-7675aeb6a968","ios":"levelo://app?vid=6944258d-8ddd-4730-8964-7675aeb6a968"},"vehicle_type_id":"4","last_reported":1686474366,"current_range_meters":10800,"station_id":"ce4bhbh2rcd13ifvqeo0","pricing_plan_id":"free"},{"bike_id":"5d6f69c6-5862-4612-9811-8e194e1f86d8","system_id":"levelo_inurba_marseille","lat":43.273613,"lon":5.362705,"is_reserved":false,"is_disabled":false,"rental_uris":{"android":"levelo://app?vid=5d6f69c6-5862-4612-9811-8e194e1f86d8","ios":"levelo://app?vid=5d6f69c6-5862-4612-9811-8e194e1f86d8"},"vehicle_type_id":"4","last_reported":1686474366,"current_range_meters":0,"station_id":"ce4bhbh2rcd13ifvqeo0","pricing_plan_id":"free"},{"bike_id":"d163aae0-9afb-4c61-9a7a-141cbb79da6b","system_id":"levelo_inurba_marseille","lat":43.33612,"lon":5.410321,"is_reserved":false,"is_disabled":false,"rental_uris":{"android":"levelo://app?vid=d163aae0-9afb-4c61-9a7a-141cbb79da6b","ios":"levelo://app?vid=d163aae0-9afb-4c61-9a7a-141cbb79da6b"},"vehicle_type_id":"4","last_reported":1686474366,"current_range_meters":31200,"station_id":"ce4bhqh2rcd13ifvqhmg","pricing_plan_id":"free"},{"bike_id":"10ac50b3-6c1a-4531-9582-46f811beaf19","system_id":"levelo_inurba_marseille","lat":43.27563,"lon":5.38403,"is_reserved":false,"is_disabled":false,"rental_uris":{"android":"levelo://app?vid=10ac50b3-6c1a-4531-9582-46f811beaf19","ios":"levelo://app?vid=10ac50b3-6c1a-4531-9582-46f811beaf19"},"vehicle_type_id":"4","last_reported":1686474366,"current_range_meters":12400,"station_id":"","pricing_plan_id":"free"},{"bike_id":"b61ad7f2-f2de-4df3-a3a7-e85f5682e933","system_id":"levelo_inurba_marseille","lat":43.273613,"lon":5.362705,"is_reserved":false,"is_disabled":false,"rental_uris":{"android":"levelo://app?vid=b61ad7f2-f2de-4df3-a3a7-e85f5682e933","ios":"levelo://app?vid=b61ad7f2-f2de-4df3-a3a7-e85f5682e933"},"vehicle_type_id":"4","last_reported":1686474366,"current_range_meters":14800,"station_id":"ce4bhbh2rcd13ifvqeo0","pricing_plan_id":"free"},