{"last_updated":1687719930,"ttl":30,"version":"2.2","data":{"bikes":[{"bike_id":"e5bcd78c-feaf-417e-b3ba-9b16ba36910a","system_id":"levelo_inurba_marseille","lat":43.31341,"lon":5.36724,"is_reserved":false,"is_disabled":false,"rental_uris":{"android":"levelo://app?vid=e5bcd78c-feaf-417e-b3ba-9b16ba36910a","ios":"levelo://app?vid=e5bcd78c-feaf-417e-b3ba-9b16ba36910a"},"vehicle_type_id":"4","last_reported":1687719930,"current_range_meters":1600,"station_id":"ce4bgr92rcd13ifvqc6g","pricing_plan_id":"free"},{"bike_id":"70dda3df-c34a-4e55-81f6-cca5c3811012","system_id":"levelo_inurba_marseille","lat":43.312239,"lon":5.368562,"is_reserved":false,"is_disabled":false,"rental_uris":{"android":"levelo://app?vid=70dda3df-c34a-4e55-81f6-cca5c3811012","ios":"levelo://app?vid=70dda3df-c34a-4e55-81f6-cca5c3811012"},"vehicle_type_id":"4","last_reported":1687719930,"current_range_meters":4400,"station_id":"ce4bgl92rcd13ifvqbq0","pricing_plan_id":"free"},{"bike_id":"f17a4990-562f-4401-a0dc-8464098a819c","system_id":"levelo_inurba_marseille","lat":43.31237,"lon":5.36922,"is_reserved":false,"is_disabled":false,"rental_uris":{"android":"levelo://app?vid=f17a4990-562f-4401-a0dc-8464098a819c","ios":"levelo://app?vid=f17a4990-562f-4401-a0dc-8464098a819c"},"vehicle_type_id":"4","last_reported":1687719930,"current_range_meters":19200,"station_id":"","pricing_plan_id":"free"},{"bike_id":"2362d78b-e06a-4866-a0a1-7346cde59c6d","system_id":"levelo_inurba_marseille","lat":43.31629,"lon":5.36639,"is_reserved":false,"is_disabled":false,"rental_uris":{"android":"levelo://app?vid=2362d78b-e06a-4866-a0a1-7346cde59c6d","ios":"levelo://app?vid=2362d78b-e06a-4866-a0a1-7346cde59c6d"},"vehicle_type_id":"4","last_reported":1687719930,"current_range_meters":15200,"station_id":"","pricing_plan_id":"free"},{"bike_id":"626fe2f3-674d-44a5-9ea0-8e39fb06213e","system_id":"levelo_inurba_marseille","lat":43.314811,"lon":5.373104,"is_reserved":false,"is_disabled":false,"rental_uris":{"android":"levelo://app?vid=626fe2f3-674d-44a5-9ea0-8e39fb06213e","ios":"levelo://app?vid=626fe2f3-674d-44a5-9ea0-8e39fb06213e"},"vehicle_type_id":"4","last_reported":1687719930,"current_range_meters":2400,"station_id":"ce4bgt12rcd13ifvqcd0","pricing_plan_id":"free"},{"bike_id":"1bce95a0-4446-4699-baa4-05da0d26d758","system_id":"levelo_inurba_marseille","lat":43.30542,"lon":5.36541,"is_reserved":false,"is_disabled":false,"rental_uris":{"android":"levelo://app?vid=1bce95a0-4446-4699-baa4-05da0d26d758","ios":"levelo://app?vid=1bce95a0-4446-4699-baa4-05da0d26d758"},"vehicle_type_id":"4","last_reported":1687719930,"current_range_meters":6800,"station_id":"ce4bgs12rcd13ifvqcag","pricing_plan_id":"free"},{"bike_id":"4671bf4d-afb9-4eb8-acc9-0e6d7ec738f5","system_id":"levelo_inurba_marseille","lat":43.30539,"lon":5.36557,"is_reserved":false,"is_disabled":false,"rental_uris":{"android":"levelo://app?vid=4671bf4d-afb9-4eb8-acc9-0e6d7ec738f5","ios":"levelo://app?vid=4671bf4d-afb9-4eb8-acc9-0e6d7ec738f5"},"vehicle_type_id":"4","last_reported":1687719930,"current_range_meters":5200,"station_id":"ce4bgs12rcd13ifvqcag","pricing_plan_id":"free"},{"bike_id":"a25b4dec-a1f6-45ec-9d13-24d2473ab383","system_id":"levelo_inurba_marseille","lat":43.30538,"lon":5.36554,"is_reserved":false,"is_disabled":false,"rental_uris":{"android":"levelo://app?vid=a25b4dec-a1f6-45ec-9d13-24d2473ab383","ios":"levelo://app?vid=a25b4dec-a1f6-45ec-9d13-24d2473ab383"},"vehicle_type_id":"4","last_reported":1687719930,"current_range_meters":800,"station_id":"ce4bgs12rcd13ifvqcag","pricing_plan_id":"free"},{"bike_id":"91aed326-9ce1-4c97-8ef6-7fd7be6e778c","system_id":"levelo_inurba_marseille","lat":43.317075,"lon":5.377367,"is_reserved":false,"is_disabled":false,"rental_uris":{"android":"levelo://app?vid=91aed326-9ce1-4c97-8ef6-7fd7be6e778c","ios":"levelo://app?vid=91aed326-9ce1-4c97-8ef6-7fd7be6e778c"},"vehicle_type_id":"4","last_reported":1687719930,"current_range_meters":28000,"station_id":"ce4bgth2rcd13ifvqch0","pricing_plan_id":"free"},{"bike_id":"4716d8e4-8ec4-4bab-8787-a593f8a560e2","system_id":"levelo_inurba_marseille","lat":43.31706,"lon":5.3775,"is_reserved":false,"is_disabled":false,"rental_uris":{"android":"levelo://app?vid=4716d8e4-8ec4-4bab-8787-a593f8a560e2","ios":"levelo://app?vid=4716d8e4-8ec4-4bab-8787-a593f8a560e2"},"vehicle_type_id":"4","last_reported":1687719930,"current_range_meters":18800,"station_id":"ce4bgth2rcd13ifvqch0","pricing_plan_id":"free"},{"bike_id":"65fb1434-b79a-46b1-bc0f-c7734bf6f91a","system_id":"levelo_inurba_marseille","lat":43.317075,"lon":5.377367,"is_reserved":false,"is_disabled":false,"rental_uris":{"android":"levelo://app?vid=65fb1434-b79a-46b1-bc0f-c7734bf6f91a","ios":"levelo://app?vid=65fb1434-b79a-46b1-bc0f-c7734bf6f91a"},"vehicle_type_id":"4","last_reported":1687719930,"current_range_meters":16800,"station_id":"ce4bgth2rcd13ifvqch0","pricing_plan_id":"free"},{"bike_id":"4263af41-84c7-42b8-92e0-504085a7ee0c","system_id":"levelo_inurba_marseille","lat":43.317075,"lon":5.377367,"is_reserved":false,"is_disabled":false,"rental_uris":{"android":"levelo://app?vid=4263af41-84c7-42b8-92e0-504085a7ee0c","ios":"levelo://app?vid=4263af41-84c7-42b8-92e0-504085a7ee0c"},"vehicle_type_id":"4","last_reported":1687719930,"current_range_meters":30400,"station_id":"ce4bgth2rcd13ifvqch0","pricing_plan_id":"free"},{"bike_id":"cb8b1387-d8af-42e0-b4a9-acc526dd9ff5","system_id":"levelo_inurba_marseille","lat":43.31766,"lon":5.37778,"is_reserved":false,"is_disabled":false,"rental_uris":{"android":"levelo://app?vid=cb8b1387-d8af-42e0-b4a9-acc526dd9ff5","ios":"levelo://app?vid=cb8b1387-d8af-42e0-b4a9-acc526dd9ff5"},"vehicle_type_id":"4","last_reported":1687719930,"current_range_meters":22800,"station_id":"","pricing_plan_id":"free"},{"bike_id":"911d31be-aa81-4874-8417-522c9144851a","system_id":"levelo_inurba_marseille","lat":43.315289,"lon":5.380349,"is_reserved":false,"is_disabled":false,"rental_uris":{"android":"levelo://app?vid=911d31be-aa81-4874-8417-522c9144851a","ios":"levelo://app?vid=911d31be-aa81-4874-8417-522c9144851a"},"vehicle_type_id":"4","last_reported":1687719930,"current_range_meters":0,"station_id":"ce4bhsp2rcd13ifvqi50","pricing_plan_id":"free"},{"bike_id":"2ae4c695-3a04-437f-83c0-20dac3188f7a","system_id":"levelo_inurba_marseille","lat":43.315289,"lon":5.380349,"is_reserved":false,"is_disabled":false,"rental_uris":{"android":"levelo://app?vid=2ae4c695-3a04-437f-83c0-20dac3188f7a","ios":"levelo://app?vid=2ae4c695-3a04-437f-83c0-20dac3188f7a"},"vehicle_type_id":"4","last_reported":1687719930,"current_range_meters":24400,"station_id":"ce4bhsp2rcd13ifvqi50","pricing_plan_id":"free"},{"bike_id":"0b3a595f-e364-4a9c-bed9-7b29e0182973","system_id":"levelo_inurba_marseille","lat":43.315289,"lon":5.380349,"is_reserved":false,"is_disabled":false,"rental_uris":{"android":"levelo://app?vid=0b3a595f-e364-4a9c-bed9-7b29e0182973","ios":"levelo://app?vid=0b3a595f-e364-4a9c-bed9-7b29e0182973"},"vehicle_type_id":"4","last_reported":1687719930,"current_range_meters":9600,"station_id":"ce4bhsp2rcd13ifvqi50","pricing_plan_id":"free"},{"bike_id":"63f47fe6-cf57-464d-a871-7a820a1e59e5","system_id":"levelo_inurba_marseille","lat":43.303002,"lon":5.392142,"is_reserved":false,"is_disabled":false,"rental_uris":{"android":"levelo://app?vid=63f47fe6-cf57-464d-a871-7a820a1e59e5","ios":"levelo://app?vid=63f47fe6-cf57-464d-a871-7a820a1e59e5"},"vehicle_type_id":"4","last_reported":1687719930,"current_range_meters":13600,"station_id":"ce4bgkh2rcd13ifvqbk0","pricing_plan_id":"free"},{"bike_id":"7961c058-6bbf-43fe-9e62-f3ba9264f471","system_id":"levelo_inurba_marseille","lat":43.30219,"lon":5.37397,"is_reserved":false,"is_disabled":false,"rental_uris":{"android":"levelo://app?vid=7961c058-6bbf-43fe-9e62-f3ba9264f471","ios":"levelo://app?vid=7961c058-6bbf-43fe-9e62-f3ba9264f471"},"vehicle_type_id":"4","last_reported":1687719930,"current_range_meters":4000,"station_id":"","pricing_plan_id":"free"},{"bike_id":"9fb2af00-a3bb-4d59-9a9c-bf6fb58d47f0","system_id":"levelo_inurba_marseille","lat":43.319935,"lon":5.381699,"is_reserved":false,"is_disabled":false,"rental_uris":{"android":"levelo://app?vid=9fb2af00-a3bb-4d59-9a9c-bf6fb58d47f0","ios":"levelo://app?vid=9fb2af00-a3bb-4d59-9a9c-bf6fb58d47f0"},"vehicle_type_id":"4","last_reported":1687719930,"current_range_meters":29200,"station_id":"ce4bhr12rcd13ifvqhpg","pricing_plan_id":"free"},{"bike_id":"e5564a1b-7eaa-42d7-9eac-0b69cc97b61e","system_id":"levelo_inurba_marseille","lat":43.319935,"lon":5.381699,"is_reserved":false,"is_disabled":false,"rental_uris":{"android":"levelo://app?vid=e5564a1b-7eaa-42d7-9eac-0b69cc97b61e","ios":"levelo://app?vid=e5564a1b-7eaa-42d7-9eac-0b69cc97b61e"},"vehicle_type_id":"4","last_reported":1687719930,"current_range_meters":14400,"station_id":"ce4bhr12rcd13ifvqhpg","pricing_plan_id":"free"},{"bike_id":"25bcc21c-84b0-43f8-8ed1-2713382bd734","system_id":"levelo_inurba_marseille","lat":43.319935,"lon":5.381699,"is_reserved":false,"is_disabled":false,"rental_uris":{"android":"levelo://app?vid=25bcc21c-84b0-43f8-8ed1-2713382bd734","ios":"levelo://app?vid=25bcc21c-84b0-43f8-8ed1-2713382bd734"},"vehicle_type_id":"4","last_reported":1687719930,"current_range_meters":21200,"station_id":"ce4bhr12rcd13ifvqhpg","pricing_plan_id":"free"},{"bike_id":"7e9a47a8-5d6c-4e19-9cd5-24ee65ebc02d","system_id":"levelo_inurba_marseille","lat":43.319935,"lon":5.381699,"is_reserved":false,"is_disabled":false,"rental_uris":{"android":"levelo://app?vid=7e9a47a8-5d6c-4e19-9cd5-24ee65ebc02d","ios":"levelo://app?vid=7e9a47a8-5d6c-4e19-9cd5-24ee65ebc02d"},"vehicle_type_id":"4","last_reported":1687719930,"current_range_meters":26800,"station_id":"ce4bhr12rcd13ifvqhpg","pricing_plan_id":"free"},{"bike_id":"8d8e0424-a554-44d1-aac7-2925f426b147","system_id":"levelo_inurba_marseille","lat":43.319935,"lon":5.381699,"is_reserved":false,"is_disabled":false,"rental_uris":{"android":"levelo://app?vid=8d8e0424-a554-44d1-aac7-2925f426b147","ios":"levelo://app?vid=8d8e0424-a554-44d1-aac7-2925f426b147"},"vehicle_type_id":"4","last_reported":1687719930,"current_range_meters":6000,"station_id":"ce4bhr12rcd13ifvqhpg","pricing_plan_id":"free"},{"bike_id":"832ca773-66d7-4453-94c4-9a306782dec8","system_id":"levelo_inurba_marseille","lat":43.313571,"lon":5.384829,"is_reserved":false,"is_disabled":false,"rental_uris":{"android":"levelo://app?vid=832ca773-66d7-4453-94c4-9a306782dec8","ios":"levelo://app?vid=832ca773-66d7-4453-94c4-9a306782dec8"},"vehicle_type_id":"4","last_reported":1687719930,"current_range_meters":17600,"station_id":"ce4bgt92rcd13ifvqcf0","pricing_plan_id":"free"},{"bike_id":"dfe7222b-33d3-4387-b156-4ff3f36bb2d0","system_id":"levelo_inurba_marseille","lat":43.299222,"lon":5.365554,"is_reserved":false,"is_disabled":false,"rental_uris":{"android":"levelo://app?vid=dfe7222b-33d3-4387-b156-4ff3f36bb2d0","ios":"levelo://app?vid=dfe7222b-33d3-4387-b156-4ff3f36bb2d0"},"vehicle_type_id":"4","last_reported":1687719930,"current_range_meters":9600,"station_id":"ce4bgm92rcd13ifvqbr0","pricing_plan_id":"free"},{"bike_id":"a9da1a25-bc10-4b7a-9673-2d3f496340b2","system_id":"levelo_inurba_marseille","lat":43.30541,"lon":5.3842,"is_reserved":false,"is_disabled":false,"rental_uris":{"android":"levelo://app?vid=a9da1a25-bc10-4b7a-9673-2d3f496340b2","ios":"levelo://app?vid=a9da1a25-bc10-4b7a-9673-2d3f496340b2"},"vehicle_type_id":"4","last_reported":1687719930,"current_range_meters":0,"station_id":"ce4bgg92rcd13ifvqb30","pricing_plan_id":"free"},{"bike_id":"7ce9b8ce-8703-46fd-bc9b-dbfacba554ca","system_id":"levelo_inurba_marseille","lat":43.298433,"lon":5.362774,"is_reserved":false,"is_disabled":false,"rental_uris":{"android":"levelo://app?vid=7ce9b8ce-8703-46fd-bc9b-dbfacba554ca","ios":"levelo://app?vid=7ce9b8ce-8703-46fd-bc9b-dbfacba554ca"},"vehicle_type_id":"4","last_reported":1687719930,"current_range_meters":19200,"station_id":"ce4bgpp2rcd13ifvqc3g","pricing_plan_id":"free"},{"bike_id":"88394ce2-5e3b-40ec-9a11-6c300b08859b","system_id":"levelo_inurba_marseille","lat":43.297794,"lon":5.370888,"is_reserved":false,"is_disabled":false,"rental_uris":{"android":"levelo://app?vid=88394ce2-5e3b-40ec-9a11-6c300b08859b","ios":"levelo://app?vid=88394ce2-5e3b-40ec-9a11-6c300b08859b"},"vehicle_type_id":"4","last_reported":1687719930,"current_range_meters":15200,"station_id":"ce4bgop2rcd13ifvqc1g","pricing_plan_id":"free"},{"bike_id":"1580a472-182f-4d91-8a6c-4c3a23a9c034","system_id":"levelo_inurba_marseille","lat":43.302,"lon":5.3821,"is_reserved":false,"is_disabled":false,"rental_uris":{"android":"levelo://app?vid=1580a472-182f-4d91-8a6c-4c3a23a9c034","ios":"levelo://app?vid=1580a472-182f-4d91-8a6c-4c3a23a9c034"},"vehicle_type_id":"4","last_reported":1687719930,"current_range_meters":12400,"station_id":"","pricing_plan_id":"free"},{"bike_id":"5108659d-1431-4d89-a11a-e27336cba391","system_id":"levelo_inurba_marseille","lat":43.328371,"lon":5.366912,"is_reserved":false,"is_disabled":false,"rental_uris":{"android":"levelo://app?vid=5108659d-1431-4d89-a11a-e27336cba391","ios":"levelo://app?vid=5108659d-1431-4d89-a11a-e27336cba391"},"vehicle_type_id":"4","last_reported":1687719930,"current_range_meters":7200,"station_id":"ce4bhs92rcd13ifvqi0g","pricing_plan_id":"free"},{"bike_id":"84310711-9ffd-45bf-a8e1-79683581878e","system_id":"levelo_inurba_marseille","lat":43.32825,"lon":5.36686,"is_reserved":false,"is_disabled":false,"rental_uris":{"android":"levelo://app?vid=84310711-9ffd-45bf-a8e1-79683581878e","ios":"levelo://app?vid=84310711-9ffd-45bf-a8e1-79683581878e"},"vehicle_type_id":"4","last_reported":1687719930,"current_range_meters":20400,"station_id":"ce4bhs92rcd13ifvqi0g","pricing_plan_id":"free"},{"bike_id":"be4c2b1e-4409-4655-b800-08e6615894b0","system_id":"levelo_inurba_marseille","lat":43.328371,"lon":5.366912,"is_reserved":false,"is_disabled":false,"rental_uris":{"android":"levelo://app?vid=be4c2b1e-4409-4655-b800-08e6615894b0","ios":"levelo://app?vid=be4c2b1e-4409-4655-b800-08e6615894b0"},"vehicle_type_id":"4","last_reported":1687719930,"current_range_meters":4400,"station_id":"ce4bhs92rcd13ifvqi0g","pricing_plan_id":"free"},{"bike_id":"c0ba4054-03d2-4233-93b4-0461723bc0b5","system_id":"levelo_inurba_marseille","lat":43.328371,"lon":5.366912,"is_reserved":false,"is_disabled":false,"rental_uris":{"android":"levelo://app?vid=c0ba4054-03d2-4233-93b4-0461723bc0b5","ios":"levelo://app?vid=c0ba4054-03d2-4233-93b4-0461723bc0b5"},"vehicle_type_id":"4","last_reported":1687719930,"current_range_meters":0,"station_id":"ce4bhs92rcd13ifvqi0g","pricing_plan_id":"free"},{"bike_id":"9823f69b-7618-447c-88b9-9a8290da0996","system_id":"levelo_inurba_marseille","lat":43.32833,"lon":5.36684,"is_reserved":false,"is_disabled":false,"rental_uris":{"android":"levelo://app?vid=9823f69b-7618-447c-88b9-9a8290da0996","ios":"levelo://app?vid=9823f69b-7618-447c-88b9-9a8290da0996"},"vehicle_type_id":"4","last_reported":1687719930,"current_range_meters":8400,"station_id":"ce4bhs92rcd13ifvqi0g","pricing_plan_id":"free"},{"bike_id":"8b17aad1-d072-4063-bcd5-d1dd5ac05981","system_id":"levelo_inurba_marseille","lat":43.32834,"lon":5.36689,"is_reserved":false,"is_disabled":false,"rental_uris":{"android":"levelo://app?vid=8b17aad1-d072-4063-bcd5-d1dd5ac05981","ios":"levelo://app?vid=8b17aad1-d072-4063-bcd5-d1dd5ac05981"},"vehicle_type_id":"4","last_reported":1687719930,"current_range_meters":30000,"station_id":"ce4bhs92rcd13ifvqi0g","pricing_plan_id":"free"},{"bike_id":"8cd194c3-4946-47d4-8472-6a93aa928d08","system_id":"levelo_inurba_marseille","lat":43.32838,"lon":5.36686,"is_reserved":false,"is_disabled":false,"rental_uris":{"android":"levelo://app?vid=8cd194c3-4946-47d4-8472-6a93aa928d08","ios":"levelo://app?vid=8cd194c3-4946-47d4-8472-6a93aa928d08"},"vehicle_type_id":"4","last_reported":1687719930,"current_range_meters":24800,"station_id":"ce4bhs92rcd13ifvqi0g","pricing_plan_id":"free"},{"bike_id":"a22b53cd-5453-4a64-a22d-a8aa20eaa021","system_id":"levelo_inurba_marseille","lat":43.29711,"lon":5.36596,"is_reserved":false,"is_disabled":false,"rental_uris":{"android":"levelo://app?vid=a22b53cd-5453-4a64-a22d-a8aa20eaa021","ios":"levelo://app?vid=a22b53cd-5453-4a64-a22d-a8aa20eaa021"},"vehicle_type_id":"4","last_reported":1687719930,"current_range_meters":400,"station_id":"ce4bgn12rcd13ifvqbt0","pricing_plan_id":"free"},{"bike_id":"8d98417a-cbe4-4269-8bc9-598373a7d5de","system_id":"levelo_inurba_marseille","lat":43.32858,"lon":5.3628,"is_reserved":false,"is_disabled":false,"rental_uris":{"android":"levelo://app?vid=8d98417a-cbe4-4269-8bc9-598373a7d5de","ios":"levelo://app?vid=8d98417a-cbe4-4269-8bc9-598373a7d5de"},"vehicle_type_id":"4","last_reported":1687719930,"current_range_meters":16400,"station_id":"","pricing_plan_id":"free"},{"bike_id":"9f59b092-c451-49a4-870f-a9213b90e767","system_id":"levelo_inurba_marseille","lat":43.32942,"lon":5.3664,"is_reserved":false,"is_disabled":false,"rental_uris":{"android":"levelo://app?vid=9f59b092-c451-49a4-870f-a9213b90e767","ios":"levelo://app?vid=9f59b092-c451-49a4-870f-a9213b90e767"},"vehicle_type_id":"4","last_reported":1687719930,"current_range_meters":1200,"station_id":"","pricing_plan_id":"free"},{"bike_id":"a9f1ec22-6222-4477-b558-315a54204bb6","system_id":"levelo_inurba_marseille","lat":43.29904,"lon":5.38132,"is_reserved":false,"is_disabled":false,"rental_uris":{"android":"levelo://app?vid=a9f1ec22-6222-4477-b558-315a54204bb6","ios":"levelo://app?vid=a9f1ec22-6222-4477-b558-315a54204bb6"},"vehicle_type_id":"4","last_reported":1687719930,"current_range_meters":0,"station_id":"ce4bgj12rcd13ifvqbc0","pricing_plan_id":"free"},{"bike_id":"041bc147-ef2f-419b-bb81-deca3bdf89e2","system_id":"levelo_inurba_marseille","lat":43.29611,"lon":5.36046,"is_reserved":false,"is_disabled":false,"rental_uris":{"android":"levelo://app?vid=041bc147-ef2f-419b-bb81-deca3bdf89e2","ios":"levelo://app?vid=041bc147-ef2f-419b-bb81-deca3bdf89e2"},"vehicle_type_id":"4","last_reported":1687719930,"current_range_meters":2000,"station_id":"","pricing_plan_id":"free"},{"bike_id":"3ecb1419-ec96-4c17-8e0a-de207f3a5e04","system_id":"levelo_inurba_marseille","lat":43.317557,"lon":5.390173,"is_reserved":false,"is_disabled":false,"rental_uris":{"android":"levelo://app?vid=3ecb1419-ec96-4c17-8e0a-de207f3a5e04","ios":"levelo://app?vid=3ecb1419-ec96-4c17-8e0a-de207f3a5e04"},"vehicle_type_id":"4","last_reported":1687719930,"current_range_meters":27600,"station_id":"ce4bhqp2rcd13ifvqhng","pricing_plan_id":"free"},{"bike_id":"59711eba-3dfe-4289-9252-d53c16884444","system_id":"levelo_inurba_marseille","lat":43.31752,"lon":5.39019,"is_reserved":false,"is_disabled":false,"rental_uris":{"android":"levelo://app?vid=59711eba-3dfe-4289-9252-d53c16884444","ios":"levelo://app?vid=59711eba-3dfe-4289-9252-d53c16884444"},"vehicle_type_id":"4","last_reported":1687719930,"current_range_meters":5200,"station_id":"ce4bhqp2rcd13ifvqhng","pricing_plan_id":"free"},{"bike_id":"3d7a523b-ea16-4144-b1de-9b699b946ef8","system_id":"levelo_inurba_marseille","lat":43.3176,"lon":5.39018,"is_reserved":false,"is_disabled":false,"rental_uris":{"android":"levelo://app?vid=3d7a523b-ea16-4144-b1de-9b699b946ef8","ios":"levelo://app?vid=3d7a523b-ea16-4144-b1de-9b699b946ef8"},"vehicle_type_id":"4","last_reported":1687719930,"current_range_meters":0,"station_id":"ce4bhqp2rcd13ifvqhng","pricing_plan_id":"free"},{"bike_id":"b86ae760-df21-441c-8ec6-a20e98333b36","system_id":"levelo_inurba_marseille","lat":43.296263,"lon":5.377094,"is_reserved":false,"is_disabled":false,"rental_uris":{"android":"levelo://app?vid=b86ae760-df21-441c-8ec6-a20e98333b36","ios":"levelo://app?vid=b86ae760-df21-441c-8ec6-a20e98333b36"},"vehicle_type_id":"4","last_reported":1687719930,"current_range_meters":0,"station_id":"ce4bgi92rcd13ifvqb90","pricing_plan_id":"free"},{"bike_id":"7f85c2e5-4eb3-4ce6-9d7e-547e45715089","system_id":"levelo_inurba_marseille","lat":43.304278,"lon":5.388868,"is_reserved":false,"is_disabled":false,"rental_uris":{"android":"levelo://app?vid=7f85c2e5-4eb3-4ce6-9d7e-547e45715089","ios":"levelo://app?vid=7f85c2e5-4eb3-4ce6-9d7e-547e45715089"},"vehicle_type_id":"4","last_reported":1687719930,"current_range_meters":17200,"station_id":"ce4bgk12rcd13ifvqbi0","pricing_plan_id":"free"},{"bike_id":"60a3b44b-e12b-4bd5-85e4-2bcfd1b80111","system_id":"levelo_inurba_marseille","lat":43.298037,"lon":5.381066,"is_reserved":false,"is_disabled":false,"rental_uris":{"android":"levelo://app?vid=60a3b44b-e12b-4bd5-85e4-2bcfd1b80111","ios":"levelo://app?vid=60a3b44b-e12b-4bd5-85e4-2bcfd1b80111"},"vehicle_type_id":"4","last_reported":1687719930,"current_range_meters":10800,"station_id":"ce4bgip2rcd13ifvqbb0","pricing_plan_id":"free"},{"bike_id":"86d2974d-0d0a-418b-9a72-a4c5efaf18e7","system_id":"levelo_inurba_marseille","lat":43.299707,"lon":5.384859,"is_reserved":false,"is_disabled":false,"rental_uris":{"android":"levelo://app?vid=86d2974d-0d0a-418b-9a72-a4c5efaf18e7","ios":"levelo://app?vid=86d2974d-0d0a-418b-9a72-a4c5efaf18e7"},"vehicle_type_id":"4","last_reported":1687719930,"current_range_meters":11600,"station_id":"ce4bgj92rcd13ifvqbd0","pricing_plan_id":"free"},{"bike_id":"7595cfc4-1c6e-4c06-9c13-9171f3cdf703","system_id":"levelo_inurba_marseille","lat":43.299717,"lon":5.384845,"is_reserved":false,"is_disabled":false,"rental_uris":{"android":"levelo://app?vid=7595cfc4-1c6e-4c06-9c13-9171f3cdf703","ios":"levelo://app?vid=7595cfc4-1c6e-4c06-9c13-9171f3cdf703"},"vehicle_type_id":"4","last_reported":1687719930,"current_range_meters":4400,"station_id":"ce4bgj92rcd13ifvqbd0","pricing_plan_id":"free"},{"bike_id":"9b44f9cb-26ad-4f74-9cfd-e2dbcc574385","system_id":"levelo_inurba_marseille","lat":43.299717,"lon":5.384845,"is_reserved":false,"is_disabled":false,"rental_uris":{"android":"levelo://app?vid=9b44f9cb-26ad-4f74-9cfd-e2dbcc574385","ios":"levelo://app?vid=9b44f9cb-26ad-4f74-9cfd-e2dbcc574385"},"vehicle_type_id":"4","last_reported":1687719930,"current_range_meters":21200,"station_id":"ce4bgj92rcd13ifvqbd0","pricing_plan_id":"free"},{"bike_id":"c9990fba-f45f-41ce-9725-51e0a451d423","system_id":"levelo_inurba_marseille","lat":43.32367,"lon":5.388836,"is_reserved":false,"is_disabled":false,"rental_uris":{"android":"levelo://app?vid=c9990fba-f45f-41ce-9725-51e0a451d423","ios":"levelo://app?vid=c9990fba-f45f-41ce-9725-51e0a451d423"},"vehicle_type_id":"4","last_reported":1687719930,"current_range_meters":0,"station_id":"ce4bhqp2rcd13ifvqhog","pricing_plan_id":"free"},{"bike_id":"a070f5c2-5e1a-4b7f-8d50-5409a1ba6a8c","system_id":"levelo_inurba_marseille","lat":43.293249,"lon":5.371578,"is_reserved":false,"is_disabled":false,"rental_uris":{"android":"levelo://app?vid=a070f5c2-5e1a-4b7f-8d50-5409a1ba6a8c","ios":"levelo://app?vid=a070f5c2-5e1a-4b7f-8d50-5409a1ba6a8c"},"vehicle_type_id":"4","last_reported":1687719930,"current_range_meters":0,"station_id":"ce4bgh92rcd13ifvqb40","pricing_plan_id":"free"},{"bike_id":"ad6bdcf1-210d-4e89-bad4-9d40cad080a4","system_id":"levelo_inurba_marseille","lat":43.30308,"lon":5.39203,"is_reserved":false,"is_disabled":false,"rental_uris":{"android":"levelo://app?vid=ad6bdcf1-210d-4e89-bad4-9d40cad080a4","ios":"levelo://app?vid=ad6bdcf1-210d-4e89-bad4-9d40cad080a4"},"vehicle_type_id":"4","last_reported":1687719930,"current_range_meters":31200,"station_id":"ce4bgkh2rcd13ifvqbk0","pricing_plan_id":"free"},{"bike_id":"63a4a801-9f08-43de-a531-84af7d1f4c8e","system_id":"levelo_inurba_marseille","lat":43.2936,"lon":5.37835,"is_reserved":false,"is_disabled":false,"rental_uris":{"android":"levelo://app?vid=63a4a801-9f08-43de-a531-84af7d1f4c8e","ios":"levelo://app?vid=63a4a801-9f08-43de-a531-84af7d1f4c8e"},"vehicle_type_id":"4","last_reported":1687719930,"current_range_meters":13600,"station_id":"ce4bgjh2rcd13ifvqbf0","pricing_plan_id":"free"},{"bike_id":"740c683e-8f25-48e1-8ea4-66a35b213366","system_id":"levelo_inurba_marseille","lat":43.30303,"lon":5.39205,"is_reserved":false,"is_disabled":false,"rental_uris":{"android":"levelo://app?vid=740c683e-8f25-48e1-8ea4-66a35b213366","ios":"levelo://app?vid=740c683e-8f25-48e1-8ea4-66a35b213366"},"vehicle_type_id":"4","last_reported":1687719930,"current_range_meters":31200,"station_id":"ce4bgkh2rcd13ifvqbk0","pricing_plan_id":"free"},{"bike_id":"9b31ba1e-28f1-4e55-a18e-672a018958cb","system_id":"levelo_inurba_marseille","lat":43.29267,"lon":5.35973,"is_reserved":false,"is_disabled":false,"rental_uris":{"android":"levelo://app?vid=9b31ba1e-28f1-4e55-a18e-672a018958cb","ios":"levelo://app?vid=9b31ba1e-28f1-4e55-a18e-672a018958cb"},"vehicle_type_id":"4","last_reported":1687719930,"current_range_meters":14400,"station_id":"","pricing_plan_id":"free"},{"bike_id":"76445b38-459a-4d19-b4d2-3915cb254010","system_id":"levelo_inurba_marseille","lat":43.2936,"lon":5.37835,"is_reserved":false,"is_disabled":false,"rental_uris":{"android":"levelo://app?vid=76445b38-459a-4d19-b4d2-3915cb254010","ios":"levelo://app?vid=76445b38-459a-4d19-b4d2-3915cb254010"},"vehicle_type_id":"4","last_reported":1687719930,"current_range_meters":0,"station_id":"ce4bgjh2rcd13ifvqbf0","pricing_plan_id":"free"},{"bike_id":"4421c9c2-e72a-4af6-a32d-c9a83c0406eb","system_id":"levelo_inurba_marseille","lat":43.30301,"lon":5.39217,"is_reserved":false,"is_disabled":false,"rental_uris":{"android":"levelo://app?vid=4421c9c2-e72a-4af6-a32d-c9a83c0406eb","ios":"levelo://app?vid=4421c9c2-e72a-4af6-a32d-c9a83c0406eb"},"vehicle_type_id":"4","last_reported":1687719930,"current_range_meters":0,"station_id":"ce4bgkh2rcd13ifvqbk0","pricing_plan_id":"free"},{"bike_id":"59b0bc2d-1e9a-48f6-8114-f113da5cd322","system_id":"levelo_inurba_marseille","lat":43.291994,"lon":5.357886,"is_reserved":false,"is_disabled":false,"rental_uris":{"android":"levelo://app?vid=59b0bc2d-1e9a-48f6-8114-f113da5cd322","ios":"levelo://app?vid=59b0bc2d-1e9a-48f6-8114-f113da5cd322"},"vehicle_type_id":"4","last_reported":1687719930,"current_range_meters":12000,"station_id":"ce4bhb12rcd13ifvqel0","pricing_plan_id":"free"},{"bike_id":"11b32d42-3534-4f4b-807c-4c1bae185dec","system_id":"levelo_inurba_marseille","lat":43.313291,"lon":5.396838,"is_reserved":false,"is_disabled":false,"rental_uris":{"android":"levelo://app?vid=11b32d42-3534-4f4b-807c-4c1bae185dec","ios":"levelo://app?vid=11b32d42-3534-4f4b-807c-4c1bae185dec"},"vehicle_type_id":"4","last_reported":1687719930,"current_range_meters":16800,"station_id":"ce4bgvp2rcd13ifvqcu0","pricing_plan_id":"free"},{"bike_id":"07f59fbe-a8ea-4638-8515-37e1b5bcdbfa","system_id":"levelo_inurba_marseille","lat":43.313291,"lon":5.396838,"is_reserved":false,"is_disabled":false,"rental_uris":{"android":"levelo://app?vid=07f59fbe-a8ea-4638-8515-37e1b5bcdbfa","ios":"levelo://app?vid=07f59fbe-a8ea-4638-8515-37e1b5bcdbfa"},"vehicle_type_id":"4","last_reported":1687719930,"current_range_meters":8400,"station_id":"ce4bgvp2rcd13ifvqcu0","pricing_plan_id":"free"},{"bike_id":"55fe80c4-412d-4298-bb7d-4b4b5b9061f8","system_id":"levelo_inurba_marseille","lat":43.309038,"lon":5.396546,"is_reserved":false,"is_disabled":false,"rental_uris":{"android":"levelo://app?vid=55fe80c4-412d-4298-bb7d-4b4b5b9061f8","ios":"levelo://app?vid=55fe80c4-412d-4298-bb7d-4b4b5b9061f8"},"vehicle_type_id":"4","last_reported":1687719930,"current_range_meters":0,"station_id":"ce4bh012rcd13ifvqcv0","pricing_plan_id":"free"},{"bike_id":"bc7073f4-4c6d-422f-924a-3cad71517802","system_id":"levelo_inurba_marseille","lat":43.309038,"lon":5.396546,"is_reserved":false,"is_disabled":false,"rental_uris":{"android":"levelo://app?vid=bc7073f4-4c6d-422f-924a-3cad71517802","ios":"levelo://app?vid=bc7073f4-4c6d-422f-924a-3cad71517802"},"vehicle_type_id":"4","last_reported":1687719930,"current_range_meters":9600,"station_id":"ce4bh012rcd13ifvqcv0","pricing_plan_id":"free"},{"bike_id":"c99f50f2-ca43-4caa-9b36-a61f8037f94c","system_id":"levelo_inurba_marseille","lat":43.290779,"lon":5.371482,"is_reserved":false,"is_disabled":false,"rental_uris":{"android":"levelo://app?vid=c99f50f2-ca43-4caa-9b36-a61f8037f94c","ios":"levelo://app?vid=c99f50f2-ca43-4caa-9b36-a61f8037f94c"},"vehicle_type_id":"4","last_reported":1687719930,"current_range_meters":23600,"station_id":"ce4bh5p2rcd13ifvqe4g","pricing_plan_id":"free"},{"bike_id":"e6e188ed-6a02-498d-a6c9-09a2c2c35de7","system_id":"levelo_inurba_marseille","lat":43.290327,"lon":5.375711,"is_reserved":false,"is_disabled":false,"rental_uris":{"android":"levelo://app?vid=e6e188ed-6a02-498d-a6c9-09a2c2c35de7","ios":"levelo://app?vid=e6e188ed-6a02-498d-a6c9-09a2c2c35de7"},"vehicle_type_id":"4","last_reported":1687719930,"current_range_meters":0,"station_id":"ce4bh692rcd13ifvqe90","pricing_plan_id":"free"},{"bike_id":"20b2702a-2cf1-439f-b7da-41f192fa1a0a","system_id":"levelo_inurba_marseille","lat":43.29411,"lon":5.38614,"is_reserved":false,"is_disabled":false,"rental_uris":{"android":"levelo://app?vid=20b2702a-2cf1-439f-b7da-41f192fa1a0a","ios":"levelo://app?vid=20b2702a-2cf1-439f-b7da-41f192fa1a0a"},"vehicle_type_id":"4","last_reported":1687719930,"current_range_meters":14400,"station_id":"","pricing_plan_id":"free"},{"bike_id":"3ef19a70-9dac-4b76-a01b-27d21c7d4ee5","system_id":"levelo_inurba_marseille","lat":43.29417,"lon":5.38628,"is_reserved":false,"is_disabled":false,"rental_uris":{"android":"levelo://app?vid=3ef19a70-9dac-4b76-a01b-27d21c7d4ee5","ios":"levelo://app?vid=3ef19a70-9dac-4b76-a01b-27d21c7d4ee5"},"vehicle_type_id":"4","last_reported":1687719930,"current_range_meters":20000,"station_id":"ce4bh2h2rcd13ifvqdh0","pricing_plan_id":"free"},{"bike_id":"97777373-e4b7-4859-9719-b75e519a9ae6","system_id":"levelo_inurba_marseille","lat":43.304296,"lon":5.397513,"is_reserved":false,"is_disabled":false,"rental_uris":{"android":"levelo://app?vid=97777373-e4b7-4859-9719-b75e519a9ae6","ios":"levelo://app?vid=97777373-e4b7-4859-9719-b75e519a9ae6"},"vehicle_type_id":"4","last_reported":1687719930,"current_range_meters":31600,"station_id":"ce4bh092rcd13ifvqd20","pricing_plan_id":"free"},{"bike_id":"ff60adae-f71a-4e2f-9c03-c28e9ecc3c45","system_id":"levelo_inurba_marseille","lat":43.30409,"lon":5.39732,"is_reserved":false,"is_disabled":false,"rental_uris":{"android":"levelo://app?vid=ff60adae-f71a-4e2f-9c03-c28e9ecc3c45","ios":"levelo://app?vid=ff60adae-f71a-4e2f-9c03-c28e9ecc3c45"},"vehicle_type_id":"4","last_reported":1687719930,"current_range_meters":29600,"station_id":"","pricing_plan_id":"free"},{"bike_id":"0c9eee73-532e-4f1f-8b23-5a0693e22298","system_id":"levelo_inurba_marseille","lat":43.304254,"lon":5.397448,"is_reserved":false,"is_disabled":false,"rental_uris":{"android":"levelo://app?vid=0c9eee73-532e-4f1f-8b23-5a0693e22298","ios":"levelo://app?vid=0c9eee73-532e-4f1f-8b23-5a0693e22298"},"vehicle_type_id":"4","last_reported":1687719930,"current_range_meters":31600,"station_id":"","pricing_plan_id":"free"},{"bike_id":"9602dd1b-65bd-49df-befb-afb2be373565","system_id":"levelo_inurba_marseille","lat":43.290103,"lon":5.356114,"is_reserved":false,"is_disabled":false,"rental_uris":{"android":"levelo://app?vid=9602dd1b-65bd-49df-befb-afb2be373565","ios":"levelo://app?vid=9602dd1b-65bd-49df-befb-afb2be373565"},"vehicle_type_id":"4","last_reported":1687719930,"current_range_meters":0,"station_id":"ce4bhb92rcd13ifvqen0","pricing_plan_id":"free"},{"bike_id":"906879a4-c1ee-466a-9221-42bce8564f5c","system_id":"levelo_inurba_marseille","lat":43.295169,"lon":5.390426,"is_reserved":false,"is_disabled":false,"rental_uris":{"android":"levelo://app?vid=906879a4-c1ee-466a-9221-42bce8564f5c","ios":"levelo://app?vid=906879a4-c1ee-466a-9221-42bce8564f5c"},"vehicle_type_id":"4","last_reported":1687719930,"current_range_meters":4800,"station_id":"ce4bh3p2rcd13ifvqdp0","pricing_plan_id":"free"},{"bike_id":"87b1df15-ffe4-4c81-80c6-2b9135af80c5","system_id":"levelo_inurba_marseille","lat":43.297815,"lon":5.393548,"is_reserved":false,"is_disabled":false,"rental_uris":{"android":"levelo://app?vid=87b1df15-ffe4-4c81-80c6-2b9135af80c5","ios":"levelo://app?vid=87b1df15-ffe4-4c81-80c6-2b9135af80c5"},"vehicle_type_id":"4","last_reported":1687719930,"current_range_meters":22000,"station_id":"chh1huq6cuj3fo74tm60","pricing_plan_id":"free"},{"bike_id":"fd2b8f56-812e-4875-a850-40bb991d8ea9","system_id":"levelo_inurba_marseille","lat":43.28848,"lon":5.3589,"is_reserved":false,"is_disabled":false,"rental_uris":{"android":"levelo://app?vid=fd2b8f56-812e-4875-a850-40bb991d8ea9","ios":"levelo://app?vid=fd2b8f56-812e-4875-a850-40bb991d8ea9"},"vehicle_type_id":"4","last_reported":1687719930,"current_range_meters":17600,"station_id":"","pricing_plan_id":"free"},{"bike_id":"3f8a925a-6a54-4259-a38f-9cf091aab246","system_id":"levelo_inurba_marseille","lat":43.29234,"lon":5.3875,"is_reserved":false,"is_disabled":false,"rental_uris":{"android":"levelo://app?vid=3f8a925a-6a54-4259-a38f-9cf091aab246","ios":"levelo://app?vid=3f8a925a-6a54-4259-a38f-9cf091aab246"},"vehicle_type_id":"4","last_reported":1687719930,"current_range_meters":14800,"station_id":"","pricing_plan_id":"free"},{"bike_id":"c180ae38-f769-441f-8a55-5a6e4930e6ad","system_id":"levelo_inurba_marseille","lat":43.3375,"lon":5.37439,"is_reserved":false,"is_disabled":false,"rental_uris":{"android":"levelo://app?vid=c180ae38-f769-441f-8a55-5a6e4930e6ad","ios":"levelo://app?vid=c180ae38-f769-441f-8a55-5a6e4930e6ad"},"vehicle_type_id":"4","last_reported":1687719930,"current_range_meters":20000,"station_id":"","pricing_plan_id":"free"},{"bike_id":"d30aa884-9673-4d52-8927-b54e5bb4419b","system_id":"levelo_inurba_marseille","lat":43.309371,"lon":5.401449,"is_reserved":false,"is_disabled":false,"rental_uris":{"android":"levelo://app?vid=d30aa884-9673-4d52-8927-b54e5bb4419b","ios":"levelo://app?vid=d30aa884-9673-4d52-8927-b54e5bb4419b"},"vehicle_type_id":"4","last_reported":1687719930,"current_range_meters":31200,"station_id":"ce4bgvp2rcd13ifvqct0","pricing_plan_id":"free"},{"bike_id":"42467928-9718-4905-a83f-4a0a594fb894","system_id":"levelo_inurba_marseille","lat":43.33758,"lon":5.37467,"is_reserved":false,"is_disabled":false,"rental_uris":{"android":"levelo://app?vid=42467928-9718-4905-a83f-4a0a594fb894","ios":"levelo://app?vid=42467928-9718-4905-a83f-4a0a594fb894"},"vehicle_type_id":"4","last_reported":1687719930,"current_range_meters":25200,"station_id":"","pricing_plan_id":"free"},{"bike_id":"f7f638eb-0506-47af-aad0-10550254c900","system_id":"levelo_inurba_marseille","lat":43.30642,"lon":5.401031,"is_reserved":false,"is_disabled":false,"rental_uris":{"android":"levelo://app?vid=f7f638eb-0506-47af-aad0-10550254c900","ios":"levelo://app?vid=f7f638eb-0506-47af-aad0-10550254c900"},"vehicle_type_id":"4","last_reported":1687719930,"current_range_meters":9600,"station_id":"ce4bh112rcd13ifvqda0","pricing_plan_id":"free"},{"bike_id":"7d731757-9037-44c4-878a-0e7642453270","system_id":"levelo_inurba_marseille","lat":43.28761,"lon":5.37332,"is_reserved":false,"is_disabled":false,"rental_uris":{"android":"levelo://app?vid=7d731757-9037-44c4-878a-0e7642453270","ios":"levelo://app?vid=7d731757-9037-44c4-878a-0e7642453270"},"vehicle_type_id":"4","last_reported":1687719930,"current_range_meters":0,"station_id":"","pricing_plan_id":"free"},{"bike_id":"c506a433-7813-48ae-9235-f43fc68a8f88","system_id":"levelo_inurba_marseille","lat":43.28715,"lon":5.36241,"is_reserved":false,"is_disabled":false,"rental_uris":{"android":"levelo://app?vid=c506a433-7813-48ae-9235-f43fc68a8f88","ios":"levelo://app?vid=c506a433-7813-48ae-9235-f43fc68a8f88"},"vehicle_type_id":"4","last_reported":1687719930,"current_range_meters":6800,"station_id":"","pricing_plan_id":"free"},{"bike_id":"d5a106c6-369c-444c-91b3-7c01c56ba7f8","system_id":"levelo_inurba_marseille","lat":43.286961,"lon":5.373785,"is_reserved":false,"is_disabled":false,"rental_uris":{"android":"levelo://app?vid=d5a106c6-369c-444c-91b3-7c01c56ba7f8","ios":"levelo://app?vid=d5a106c6-369c-444c-91b3-7c01c56ba7f8"},"vehicle_type_id":"4","last_reported":1687719930,"current_range_meters":24000,"station_id":"ce4bh3p2rcd13ifvqdq0","pricing_plan_id":"free"},{"bike_id":"dce83bcd-ad13-4102-bf48-12486e4febdd","system_id":"levelo_inurba_marseille","lat":43.286591,"lon":5.363346,"is_reserved":false,"is_disabled":false,"rental_uris":{"android":"levelo://app?vid=dce83bcd-ad13-4102-bf48-12486e4febdd","ios":"levelo://app?vid=dce83bcd-ad13-4102-bf48-12486e4febdd"},"vehicle_type_id":"4","last_reported":1687719930,"current_range_meters":5600,"station_id":"ce4bhah2rcd13ifvqej0","pricing_plan_id":"free"},{"bike_id":"9cec1af9-ddfc-43c5-9631-15a81bab4ecf","system_id":"levelo_inurba_marseille","lat":43.286961,"lon":5.373785,"is_reserved":false,"is_disabled":false,"rental_uris":{"android":"levelo://app?vid=9cec1af9-ddfc-43c5-9631-15a81bab4ecf","ios":"levelo://app?vid=9cec1af9-ddfc-43c5-9631-15a81bab4ecf"},"vehicle_type_id":"4","last_reported":1687719930,"current_range_meters":20000,"station_id":"ce4bh3p2rcd13ifvqdq0","pricing_plan_id":"free"},{"bike_id":"243c517b-9d93-4bed-bafa-aba57387b4c5","system_id":"levelo_inurba_marseille","lat":43.29526,"lon":5.39402,"is_reserved":false,"is_disabled":false,"rental_uris":{"android":"levelo://app?vid=243c517b-9d93-4bed-bafa-aba57387b4c5","ios":"levelo://app?vid=243c517b-9d93-4bed-bafa-aba57387b4c5"},"vehicle_type_id":"4","last_reported":1687719930,"current_range_meters":10400,"station_id":"ce4bh292rcd13ifvqdf0","pricing_plan_id":"free"},{"bike_id":"2a8f8690-d631-4d04-b227-bac735910de4","system_id":"levelo_inurba_marseille","lat":43.28645,"lon":5.37154,"is_reserved":false,"is_disabled":false,"rental_uris":{"android":"levelo://app?vid=2a8f8690-d631-4d04-b227-bac735910de4","ios":"levelo://app?vid=2a8f8690-d631-4d04-b227-bac735910de4"},"vehicle_type_id":"4","last_reported":1687719930,"current_range_meters":0,"station_id":"ce4bht12rcd13ifvqi60","pricing_plan_id":"free"},{"bike_id":"c57548ea-2247-4d8e-b0b2-00a25cc1c3ec","system_id":"levelo_inurba_marseille","lat":43.28615,"lon":5.37062,"is_reserved":false,"is_disabled":false,"rental_uris":{"android":"levelo://app?vid=c57548ea-2247-4d8e-b0b2-00a25cc1c3ec","ios":"levelo://app?vid=c57548ea-2247-4d8e-b0b2-00a25cc1c3ec"},"vehicle_type_id":"4","last_reported":1687719930,"current_range_meters":0,"station_id":"ce4bht12rcd13ifvqi60","pricing_plan_id":"free"},{"bike_id":"7d024650-5431-4595-9821-68a45a66cc6d","system_id":"levelo_inurba_marseille","lat":43.28615,"lon":5.37073,"is_reserved":false,"is_disabled":false,"rental_uris":{"android":"levelo://app?vid=7d024650-5431-4595-9821-68a45a66cc6d","ios":"levelo://app?vid=7d024650-5431-4595-9821-68a45a66cc6d"},"vehicle_type_id":"4","last_reported":1687719930,"current_range_meters":20400,"station_id":"ce4bht12rcd13ifvqi60","pricing_plan_id":"free"},{"bike_id":"5e0e9d0d-8ca1-45e9-be88-7da021293758","system_id":"levelo_inurba_marseille","lat":43.28612,"lon":5.37062,"is_reserved":false,"is_disabled":false,"rental_uris":{"android":"levelo://app?vid=5e0e9d0d-8ca1-45e9-be88-7da021293758","ios":"levelo://app?vid=5e0e9d0d-8ca1-45e9-be88-7da021293758"},"vehicle_type_id":"4","last_reported":1687719930,"current_range_meters":8000,"station_id":"ce4bht12rcd13ifvqi60","pricing_plan_id":"free"},{"bike_id":"e28a144c-7b76-4698-b455-435d6c7efee8","system_id":"levelo_inurba_marseille","lat":43.2861,"lon":5.37061,"is_reserved":false,"is_disabled":false,"rental_uris":{"android":"levelo://app?vid=e28a144c-7b76-4698-b455-435d6c7efee8","ios":"levelo://app?vid=e28a144c-7b76-4698-b455-435d6c7efee8"},"vehicle_type_id":"4","last_reported":1687719930,"current_range_meters":0,"station_id":"ce4bht12rcd13ifvqi60","pricing_plan_id":"free"},{"bike_id":"a199ae5e-44c6-416e-acdf-5b3a6e2e997d","system_id":"levelo_inurba_marseille","lat":43.286039,"lon":5.370679,"is_reserved":false,"is_disabled":false,"rental_uris":{"android":"levelo://app?vid=a199ae5e-44c6-416e-acdf-5b3a6e2e997d","ios":"levelo://app?vid=a199ae5e-44c6-416e-acdf-5b3a6e2e997d"},"vehicle_type_id":"4","last_reported":1687719930,"current_range_meters":17200,"station_id":"ce4bht12rcd13ifvqi60","pricing_plan_id":"free"},{"bike_id":"6f1e3e69-535b-4d86-afe8-3c13dccbdbd4","system_id":"levelo_inurba_marseille","lat":43.28609,"lon":5.37065,"is_reserved":false,"is_disabled":false,"rental_uris":{"android":"levelo://app?vid=6f1e3e69-535b-4d86-afe8-3c13dccbdbd4","ios":"levelo://app?vid=6f1e3e69-535b-4d86-afe8-3c13dccbdbd4"},"vehicle_type_id":"4","last_reported":1687719930,"current_range_meters":22400,"station_id":"ce4bht12rcd13ifvqi60","pricing_plan_id":"free"},{"bike_id":"ac59bce7-5ac7-4247-80d0-d4fe6ebdfb3b","system_id":"levelo_inurba_marseille","lat":43.28608,"lon":5.37066,"is_reserved":false,"is_disabled":false,"rental_uris":{"android":"levelo://app?vid=ac59bce7-5ac7-4247-80d0-d4fe6ebdfb3b","ios":"levelo://app?vid=ac59bce7-5ac7-4247-80d0-d4fe6ebdfb3b"},"vehicle_type_id":"4","last_reported":1687719930,"current_range_meters":17600,"station_id":"ce4bht12rcd13ifvqi60","pricing_plan_id":"free"},{"bike_id":"dafeadd9-cda8-4e5b-a28b-a60b0b68a73d","system_id":"levelo_inurba_marseille","lat":43.286039,"lon":5.370681,"is_reserved":false,"is_disabled":false,"rental_uris":{"android":"levelo://app?vid=dafeadd9-cda8-4e5b-a28b-a60b0b68a73d","ios":"levelo://app?vid=dafeadd9-cda8-4e5b-a28b-a60b0b68a73d"},"vehicle_type_id":"4","last_reported":1687719930,"current_range_meters":12000,"station_id":"ce4bht12rcd13ifvqi60","pricing_plan_id":"free"},{"bike_id":"429f64d7-8baa-43fd-8cad-3c2a1fcc8b4d","system_id":"levelo_inurba_marseille","lat":43.28604,"lon":5.37072,"is_reserved":false,"is_disabled":false,"rental_uris":{"android":"levelo://app?vid=429f64d7-8baa-43fd-8cad-3c2a1fcc8b4d","ios":"levelo://app?vid=429f64d7-8baa-43fd-8cad-3c2a1fcc8b4d"},"vehicle_type_id":"4","last_reported":1687719930,"current_range_meters":10800,"station_id":"ce4bht12rcd13ifvqi60","pricing_plan_id":"free"},{"bike_id":"add9d0a9-9be2-4a4e-a1bb-617246eb3001","system_id":"levelo_inurba_marseille","lat":43.287184,"lon":5.37937,"is_reserved":false,"is_disabled":false,"rental_uris":{"android":"levelo://app?vid=add9d0a9-9be2-4a4e-a1bb-617246eb3001","ios":"levelo://app?vid=add9d0a9-9be2-4a4e-a1bb-617246eb3001"},"vehicle_type_id":"4","last_reported":1687719930,"current_range_meters":5200,"station_id":"ce4bh9p2rcd13ifvqec0","pricing_plan_id":"free"},{"bike_id":"dfd6f13d-b94c-44bc-a604-08df8a62b190","system_id":"levelo_inurba_marseille","lat":43.287184,"lon":5.37937,"is_reserved":false,"is_disabled":false,"rental_uris":{"android":"levelo://app?vid=dfd6f13d-b94c-44bc-a604-08df8a62b190","ios":"levelo://app?vid=dfd6f13d-b94c-44bc-a604-08df8a62b190"},"vehicle_type_id":"4","last_reported":1687719930,"current_range_meters":13600,"station_id":"ce4bh9p2rcd13ifvqec0","pricing_plan_id":"free"},{"bike_id":"5158166e-135e-4562-a675-d910917666fc","system_id":"levelo_inurba_marseille","lat":43.28602,"lon":5.373514,"is_reserved":false,"is_disabled":false,"rental_uris":{"android":"levelo://app?vid=5158166e-135e-4562-a675-d910917666fc","ios":"levelo://app?vid=5158166e-135e-4562-a675-d910917666fc"},"vehicle_type_id":"4","last_reported":1687719930,"current_range_meters":9200,"station_id":"","pricing_plan_id":"free"},{"bike_id":"d69fed3a-efe9-46fb-b1dc-1240b8978d3e","system_id":"levelo_inurba_marseille","lat":43.316517,"lon":5.404375,"is_reserved":false,"is_disabled":false,"rental_uris":{"android":"levelo://app?vid=d69fed3a-efe9-46fb-b1dc-1240b8978d3e","ios":"levelo://app?vid=d69fed3a-efe9-46fb-b1dc-1240b8978d3e"},"vehicle_type_id":"4","last_reported":1687719930,"current_range_meters":13200,"station_id":"ce4bh012rcd13ifvqd00","pricing_plan_id":"free"},{"bike_id":"6fabe770-3172-4593-82b2-39f657ca59b6","system_id":"levelo_inurba_marseille","lat":43.292011,"lon":5.393279,"is_reserved":false,"is_disabled":false,"rental_uris":{"android":"levelo://app?vid=6fabe770-3172-4593-82b2-39f657ca59b6","ios":"levelo://app?vid=6fabe770-3172-4593-82b2-39f657ca59b6"},"vehicle_type_id":"4","last_reported":1687719930,"current_range_meters":14400,"station_id":"","pricing_plan_id":"free"},{"bike_id":"cd60b9a8-ab2e-402f-85f5-0d1798f5a723","system_id":"levelo_inurba_marseille","lat":43.291994,"lon":5.392907,"is_reserved":false,"is_disabled":false,"rental_uris":{"android":"levelo://app?vid=cd60b9a8-ab2e-402f-85f5-0d1798f5a723","ios":"levelo://app?vid=cd60b9a8-ab2e-402f-85f5-0d1798f5a723"},"vehicle_type_id":"4","last_reported":1687719930,"current_range_meters":4800,"station_id":"ce4bh192rcd13ifvqdd0","pricing_plan_id":"free"},{"bike_id":"ca1f753a-a2a3-46ba-9cbf-81c444b9fbdb","system_id":"levelo_inurba_marseille","lat":43.284534,"lon":5.358662,"is_reserved":false,"is_disabled":false,"rental_uris":{"android":"levelo://app?vid=ca1f753a-a2a3-46ba-9cbf-81c444b9fbdb","ios":"levelo://app?vid=ca1f753a-a2a3-46ba-9cbf-81c444b9fbdb"},"vehicle_type_id":"4","last_reported":1687719930,"current_range_meters":16800,"station_id":"ce4bhah2rcd13ifvqei0","pricing_plan_id":"free"},{"bike_id":"eea92160-01bd-4fc1-b567-f106b1b289e4","system_id":"levelo_inurba_marseille","lat":43.294314,"lon":5.397498,"is_reserved":false,"is_disabled":false,"rental_uris":{"android":"levelo://app?vid=eea92160-01bd-4fc1-b567-f106b1b289e4","ios":"levelo://app?vid=eea92160-01bd-4fc1-b567-f106b1b289e4"},"vehicle_type_id":"4","last_reported":1687719930,"current_range_meters":3200,"station_id":"ce4bh3h2rcd13ifvqdo0","pricing_plan_id":"free"},{"bike_id":"48a9b8c2-5565-4eba-87d4-78397e2edafd","system_id":"levelo_inurba_marseille","lat":43.28611,"lon":5.35106,"is_reserved":false,"is_disabled":false,"rental_uris":{"android":"levelo://app?vid=48a9b8c2-5565-4eba-87d4-78397e2edafd","ios":"levelo://app?vid=48a9b8c2-5565-4eba-87d4-78397e2edafd"},"vehicle_type_id":"4","last_reported":1687719930,"current_range_meters":17600,"station_id":"ce4bhch2rcd13ifvqeug","pricing_plan_id":"free"},{"bike_id":"1dbfac4a-5e90-45d5-87e9-f9009d3e353b","system_id":"levelo_inurba_marseille","lat":43.323464,"lon":5.406297,"is_reserved":false,"is_disabled":false,"rental_uris":{"android":"levelo://app?vid=1dbfac4a-5e90-45d5-87e9-f9009d3e353b","ios":"levelo://app?vid=1dbfac4a-5e90-45d5-87e9-f9009d3e353b"},"vehicle_type_id":"4","last_reported":1687719930,"current_range_meters":7600,"station_id":"ce4bhq92rcd13ifvqhjg","pricing_plan_id":"free"},{"bike_id":"3f98ba13-4f79-469b-8c9e-47709eb69c6c","system_id":"levelo_inurba_marseille","lat":43.323464,"lon":5.406297,"is_reserved":false,"is_disabled":false,"rental_uris":{"android":"levelo://app?vid=3f98ba13-4f79-469b-8c9e-47709eb69c6c","ios":"levelo://app?vid=3f98ba13-4f79-469b-8c9e-47709eb69c6c"},"vehicle_type_id":"4","last_reported":1687719930,"current_range_meters":10000,"station_id":"ce4bhq92rcd13ifvqhjg","pricing_plan_id":"free"},{"bike_id":"7c0bbcf9-4499-4a1e-be6b-effe1f6db7d4","system_id":"levelo_inurba_marseille","lat":43.323464,"lon":5.406297,"is_reserved":false,"is_disabled":false,"rental_uris":{"android":"levelo://app?vid=7c0bbcf9-4499-4a1e-be6b-effe1f6db7d4","ios":"levelo://app?vid=7c0bbcf9-4499-4a1e-be6b-effe1f6db7d4"},"vehicle_type_id":"4","last_reported":1687719930,"current_range_meters":31600,"station_id":"ce4bhq92rcd13ifvqhjg","pricing_plan_id":"free"},{"bike_id":"e4365d8e-8a77-4424-a095-df6e3fb69f04","system_id":"levelo_inurba_marseille","lat":43.2832,"lon":5.37874,"is_reserved":false,"is_disabled":false,"rental_uris":{"android":"levelo://app?vid=e4365d8e-8a77-4424-a095-df6e3fb69f04","ios":"levelo://app?vid=e4365d8e-8a77-4424-a095-df6e3fb69f04"},"vehicle_type_id":"4","last_reported":1687719930,"current_range_meters":400,"station_id":"","pricing_plan_id":"free"},{"bike_id":"b4c950db-352f-4a1a-8e3c-c05101a6dad0","system_id":"levelo_inurba_marseille","lat":43.288501,"lon":5.393087,"is_reserved":false,"is_disabled":false,"rental_uris":{"android":"levelo://app?vid=b4c950db-352f-4a1a-8e3c-c05101a6dad0","ios":"levelo://app?vid=b4c950db-352f-4a1a-8e3c-c05101a6dad0"},"vehicle_type_id":"4","last_reported":1687719930,"current_range_meters":31200,"station_id":"ce4bh2p2rcd13ifvqdi0","pricing_plan_id":"free"},{"bike_id":"b474ad6f-c8ed-48e0-8fd0-3dee030fc2e9","system_id":"levelo_inurba_marseille","lat":43.284219,"lon":5.3497,"is_reserved":false,"is_disabled":false,"rental_uris":{"android":"levelo://app?vid=b474ad6f-c8ed-48e0-8fd0-3dee030fc2e9","ios":"levelo://app?vid=b474ad6f-c8ed-48e0-8fd0-3dee030fc2e9"},"vehicle_type_id":"4","last_reported":1687719930,"current_range_meters":0,"station_id":"ce4bhbh2rcd13ifvqepg","pricing_plan_id":"free"},{"bike_id":"980a5ca0-a179-4614-8986-7e5189e8f3ad","system_id":"levelo_inurba_marseille","lat":43.289363,"lon":5.396322,"is_reserved":false,"is_disabled":false,"rental_uris":{"android":"levelo://app?vid=980a5ca0-a179-4614-8986-7e5189e8f3ad","ios":"levelo://app?vid=980a5ca0-a179-4614-8986-7e5189e8f3ad"},"vehicle_type_id":"4","last_reported":1687719930,"current_range_meters":6400,"station_id":"ce4bh3h2rcd13ifvqdn0","pricing_plan_id":"free"},{"bike_id":"ed831995-302a-45b4-85b2-dc1bcbd3e8dc","system_id":"levelo_inurba_marseille","lat":43.289363,"lon":5.396322,"is_reserved":false,"is_disabled":false,"rental_uris":{"android":"levelo://app?vid=ed831995-302a-45b4-85b2-dc1bcbd3e8dc","ios":"levelo://app?vid=ed831995-302a-45b4-85b2-dc1bcbd3e8dc"},"vehicle_type_id":"4","last_reported":1687719930,"current_range_meters":24400,"station_id":"ce4bh3h2rcd13ifvqdn0","pricing_plan_id":"free"},{"bike_id":"3a0f41cc-4005-4ea2-b4f8-87c62c186d79","system_id":"levelo_inurba_marseille","lat":43.292724,"lon":5.401131,"is_reserved":false,"is_disabled":false,"rental_uris":{"android":"levelo://app?vid=3a0f41cc-4005-4ea2-b4f8-87c62c186d79","ios":"levelo://app?vid=3a0f41cc-4005-4ea2-b4f8-87c62c186d79"},"vehicle_type_id":"4","last_reported":1687719930,"current_range_meters":10800,"station_id":"ce4bh312rcd13ifvqdk0","pricing_plan_id":"free"},{"bike_id":"9859cc6d-3409-4dab-8082-c9966ab14b26","system_id":"levelo_inurba_marseille","lat":43.292724,"lon":5.401131,"is_reserved":false,"is_disabled":false,"rental_uris":{"android":"levelo://app?vid=9859cc6d-3409-4dab-8082-c9966ab14b26","ios":"levelo://app?vid=9859cc6d-3409-4dab-8082-c9966ab14b26"},"vehicle_type_id":"4","last_reported":1687719930,"current_range_meters":8000,"station_id":"ce4bh312rcd13ifvqdk0","pricing_plan_id":"free"},{"bike_id":"76672a55-cfed-4aff-a6cf-371e4156a888","system_id":"levelo_inurba_marseille","lat":43.28267,"lon":5.35066,"is_reserved":false,"is_disabled":false,"rental_uris":{"android":"levelo://app?vid=76672a55-cfed-4aff-a6cf-371e4156a888","ios":"levelo://app?vid=76672a55-cfed-4aff-a6cf-371e4156a888"},"vehicle_type_id":"4","last_reported":1687719930,"current_range_meters":0,"station_id":"ce4bhbp2rcd13ifvqerg","pricing_plan_id":"free"},{"bike_id":"8f54b4ac-410b-4528-913c-634f95449dee","system_id":"levelo_inurba_marseille","lat":43.28266,"lon":5.35066,"is_reserved":false,"is_disabled":false,"rental_uris":{"android":"levelo://app?vid=8f54b4ac-410b-4528-913c-634f95449dee","ios":"levelo://app?vid=8f54b4ac-410b-4528-913c-634f95449dee"},"vehicle_type_id":"4","last_reported":1687719930,"current_range_meters":7600,"station_id":"ce4bhbp2rcd13ifvqerg","pricing_plan_id":"free"},{"bike_id":"1a225253-37bb-48e7-8031-f8654c3f003b","system_id":"levelo_inurba_marseille","lat":43.282744,"lon":5.350533,"is_reserved":false,"is_disabled":false,"rental_uris":{"android":"levelo://app?vid=1a225253-37bb-48e7-8031-f8654c3f003b","ios":"levelo://app?vid=1a225253-37bb-48e7-8031-f8654c3f003b"},"vehicle_type_id":"4","last_reported":1687719930,"current_range_meters":0,"station_id":"ce4bhbp2rcd13ifvqerg","pricing_plan_id":"free"},{"bike_id":"cb8ade0a-dd64-4604-a275-da5ccef516d8","system_id":"levelo_inurba_marseille","lat":43.290412,"lon":5.399633,"is_reserved":false,"is_disabled":false,"rental_uris":{"android":"levelo://app?vid=cb8ade0a-dd64-4604-a275-da5ccef516d8","ios":"levelo://app?vid=cb8ade0a-dd64-4604-a275-da5ccef516d8"},"vehicle_type_id":"4","last_reported":1687719930,"current_range_meters":0,"station_id":"ce4bh392rcd13ifvqdm0","pricing_plan_id":"free"},{"bike_id":"67f65d49-3e06-4c67-9c20-d9d7f7a2775d","system_id":"levelo_inurba_marseille","lat":43.281121,"lon":5.37817,"is_reserved":false,"is_disabled":false,"rental_uris":{"android":"levelo://app?vid=67f65d49-3e06-4c67-9c20-d9d7f7a2775d","ios":"levelo://app?vid=67f65d49-3e06-4c67-9c20-d9d7f7a2775d"},"vehicle_type_id":"4","last_reported":1687719930,"current_range_meters":12400,"station_id":"","pricing_plan_id":"free"},{"bike_id":"ec15e1d7-fc08-4fe6-9fef-a01f621ad747","system_id":"levelo_inurba_marseille","lat":43.290412,"lon":5.399633,"is_reserved":false,"is_disabled":false,"rental_uris":{"android":"levelo://app?vid=ec15e1d7-fc08-4fe6-9fef-a01f621ad747","ios":"levelo://app?vid=ec15e1d7-fc08-4fe6-9fef-a01f621ad747"},"vehicle_type_id":"4","last_reported":1687719930,"current_range_meters":31600,"station_id":"ce4bh392rcd13ifvqdm0","pricing_plan_id":"free"},{"bike_id":"69ce5d75-ea4e-482d-88a1-21ba74720a9d","system_id":"levelo_inurba_marseille","lat":43.281044,"lon":5.378308,"is_reserved":false,"is_disabled":false,"rental_uris":{"android":"levelo://app?vid=69ce5d75-ea4e-482d-88a1-21ba74720a9d","ios":"levelo://app?vid=69ce5d75-ea4e-482d-88a1-21ba74720a9d"},"vehicle_type_id":"4","last_reported":1687719930,"current_range_meters":14400,"station_id":"ce4bha12rcd13ifvqee0","pricing_plan_id":"free"},{"bike_id":"4a98cd46-f1a7-438a-b818-41dc03fa5e30","system_id":"levelo_inurba_marseille","lat":43.281044,"lon":5.378308,"is_reserved":false,"is_disabled":false,"rental_uris":{"android":"levelo://app?vid=4a98cd46-f1a7-438a-b818-41dc03fa5e30","ios":"levelo://app?vid=4a98cd46-f1a7-438a-b818-41dc03fa5e30"},"vehicle_type_id":"4","last_reported":1687719930,"current_range_meters":2000,"station_id":"ce4bha12rcd13ifvqee0","pricing_plan_id":"free"},{"bike_id":"f3e456d4-ada5-4c70-85d8-285353288afb","system_id":"levelo_inurba_marseille","lat":43.28102,"lon":5.37832,"is_reserved":false,"is_disabled":false,"rental_uris":{"android":"levelo://app?vid=f3e456d4-ada5-4c70-85d8-285353288afb","ios":"levelo://app?vid=f3e456d4-ada5-4c70-85d8-285353288afb"},"vehicle_type_id":"4","last_reported":1687719930,"current_range_meters":5200,"station_id":"ce4bha12rcd13ifvqee0","pricing_plan_id":"free"},{"bike_id":"4320b369-1a92-4beb-8766-adf4d8d30c24","system_id":"levelo_inurba_marseille","lat":43.28103,"lon":5.37838,"is_reserved":false,"is_disabled":false,"rental_uris":{"android":"levelo://app?vid=4320b369-1a92-4beb-8766-adf4d8d30c24","ios":"levelo://app?vid=4320b369-1a92-4beb-8766-adf4d8d30c24"},"vehicle_type_id":"4","last_reported":1687719930,"current_range_meters":6000,"station_id":"ce4bha12rcd13ifvqee0","pricing_plan_id":"free"},{"bike_id":"4688ca0b-9d8d-4fd4-b5c1-5eacb3c51e4e","system_id":"levelo_inurba_marseille","lat":43.28102,"lon":5.37833,"is_reserved":false,"is_disabled":false,"rental_uris":{"android":"levelo://app?vid=4688ca0b-9d8d-4fd4-b5c1-5eacb3c51e4e","ios":"levelo://app?vid=4688ca0b-9d8d-4fd4-b5c1-5eacb3c51e4e"},"vehicle_type_id":"4","last_reported":1687719930,"current_range_meters":12400,"station_id":"ce4bha12rcd13ifvqee0","pricing_plan_id":"free"},{"bike_id":"4ae25c1c-76e4-4b62-9d31-3138e6746995","system_id":"levelo_inurba_marseille","lat":43.28091,"lon":5.37834,"is_reserved":false,"is_disabled":false,"rental_uris":{"android":"levelo://app?vid=4ae25c1c-76e4-4b62-9d31-3138e6746995","ios":"levelo://app?vid=4ae25c1c-76e4-4b62-9d31-3138e6746995"},"vehicle_type_id":"4","last_reported":1687719930,"current_range_meters":15200,"station_id":"ce4bha12rcd13ifvqee0","pricing_plan_id":"free"},{"bike_id":"14478de0-2637-4035-9614-43452ba641c4","system_id":"levelo_inurba_marseille","lat":43.284462,"lon":5.392121,"is_reserved":false,"is_disabled":false,"rental_uris":{"android":"levelo://app?vid=14478de0-2637-4035-9614-43452ba641c4","ios":"levelo://app?vid=14478de0-2637-4035-9614-43452ba641c4"},"vehicle_type_id":"4","last_reported":1687719930,"current_range_meters":9200,"station_id":"ce4bhoh2rcd13ifvqh5g","pricing_plan_id":"free"},{"bike_id":"b29f0795-eb87-4ea6-adae-590366243afb","system_id":"levelo_inurba_marseille","lat":43.326605,"lon":5.409903,"is_reserved":false,"is_disabled":false,"rental_uris":{"android":"levelo://app?vid=b29f0795-eb87-4ea6-adae-590366243afb","ios":"levelo://app?vid=b29f0795-eb87-4ea6-adae-590366243afb"},"vehicle_type_id":"4","last_reported":1687719930,"current_range_meters":26000,"station_id":"ce4bhpp2rcd13ifvqhgg","pricing_plan_id":"free"},{"bike_id":"7f4e5f33-3d6b-4470-b773-9bb881f7fc86","system_id":"levelo_inurba_marseille","lat":43.326551,"lon":5.409982,"is_reserved":false,"is_disabled":false,"rental_uris":{"android":"levelo://app?vid=7f4e5f33-3d6b-4470-b773-9bb881f7fc86","ios":"levelo://app?vid=7f4e5f33-3d6b-4470-b773-9bb881f7fc86"},"vehicle_type_id":"4","last_reported":1687719930,"current_range_meters":0,"station_id":"ce4bhpp2rcd13ifvqhgg","pricing_plan_id":"free"},{"bike_id":"bcebf6c1-9d86-4359-93f0-04aac321ddc4","system_id":"levelo_inurba_marseille","lat":43.304188,"lon":5.412904,"is_reserved":false,"is_disabled":false,"rental_uris":{"android":"levelo://app?vid=bcebf6c1-9d86-4359-93f0-04aac321ddc4","ios":"levelo://app?vid=bcebf6c1-9d86-4359-93f0-04aac321ddc4"},"vehicle_type_id":"4","last_reported":1687719930,"current_range_meters":0,"station_id":"ce4bhop2rcd13ifvqh8g","pricing_plan_id":"free"},{"bike_id":"e7535495-e36b-4d58-9379-208399c57368","system_id":"levelo_inurba_marseille","lat":43.279087,"lon":5.380114,"is_reserved":false,"is_disabled":false,"rental_uris":{"android":"levelo://app?vid=e7535495-e36b-4d58-9379-208399c57368","ios":"levelo://app?vid=e7535495-e36b-4d58-9379-208399c57368"},"vehicle_type_id":"4","last_reported":1687719930,"current_range_meters":9600,"station_id":"ce4bhf92rcd13ifvqf50","pricing_plan_id":"free"},{"bike_id":"e2909745-5335-4913-b05e-aff179272771","system_id":"levelo_inurba_marseille","lat":43.279087,"lon":5.380114,"is_reserved":false,"is_disabled":false,"rental_uris":{"android":"levelo://app?vid=e2909745-5335-4913-b05e-aff179272771","ios":"levelo://app?vid=e2909745-5335-4913-b05e-aff179272771"},"vehicle_type_id":"4","last_reported":1687719930,"current_range_meters":21200,"station_id":"ce4bhf92rcd13ifvqf50","pricing_plan_id":"free"},{"bike_id":"738c286a-a6ad-4c29-93a7-9c37b39eb575","system_id":"levelo_inurba_marseille","lat":43.279087,"lon":5.380114,"is_reserved":false,"is_disabled":false,"rental_uris":{"android":"levelo://app?vid=738c286a-a6ad-4c29-93a7-9c37b39eb575","ios":"levelo://app?vid=738c286a-a6ad-4c29-93a7-9c37b39eb575"},"vehicle_type_id":"4","last_reported":1687719930,"current_range_meters":11200,"station_id":"ce4bhf92rcd13ifvqf50","pricing_plan_id":"free"},{"bike_id":"9e3a51f7-d088-4023-80eb-12060ef3be3b","system_id":"levelo_inurba_marseille","lat":43.279087,"lon":5.380114,"is_reserved":false,"is_disabled":false,"rental_uris":{"android":"levelo://app?vid=9e3a51f7-d088-4023-80eb-12060ef3be3b","ios":"levelo://app?vid=9e3a51f7-d088-4023-80eb-12060ef3be3b"},"vehicle_type_id":"4","last_reported":1687719930,"current_range_meters":7200,"station_id":"ce4bhf92rcd13ifvqf50","pricing_plan_id":"free"},{"bike_id":"50fd953c-9754-45f4-aec7-ae52bb9eb6fe","system_id":"levelo_inurba_marseille","lat":43.287154,"lon":5.399979,"is_reserved":false,"is_disabled":false,"rental_uris":{"android":"levelo://app?vid=50fd953c-9754-45f4-aec7-ae52bb9eb6fe","ios":"levelo://app?vid=50fd953c-9754-45f4-aec7-ae52bb9eb6fe"},"vehicle_type_id":"4","last_reported":1687719930,"current_range_meters":31200,"station_id":"ce4bho92rcd13ifvqh3g","pricing_plan_id":"free"},{"bike_id":"838cb6c6-7d96-4b87-8a94-01646dbe085d","system_id":"levelo_inurba_marseille","lat":43.27975,"lon":5.38734,"is_reserved":false,"is_disabled":false,"rental_uris":{"android":"levelo://app?vid=838cb6c6-7d96-4b87-8a94-01646dbe085d","ios":"levelo://app?vid=838cb6c6-7d96-4b87-8a94-01646dbe085d"},"vehicle_type_id":"4","last_reported":1687719930,"current_range_meters":15200,"station_id":"ce4bhg12rcd13ifvqf80","pricing_plan_id":"free"},{"bike_id":"f67ead30-0153-4f69-a4fd-94abf7f256b1","system_id":"levelo_inurba_marseille","lat":43.292569,"lon":5.409107,"is_reserved":false,"is_disabled":false,"rental_uris":{"android":"levelo://app?vid=f67ead30-0153-4f69-a4fd-94abf7f256b1","ios":"levelo://app?vid=f67ead30-0153-4f69-a4fd-94abf7f256b1"},"vehicle_type_id":"4","last_reported":1687719930,"current_range_meters":20400,"station_id":"ce4bh192rcd13ifvqdc0","pricing_plan_id":"free"},{"bike_id":"51c13d08-1c39-401a-b4bc-d4a9d99dd5ca","system_id":"levelo_inurba_marseille","lat":43.32542,"lon":5.4143,"is_reserved":false,"is_disabled":false,"rental_uris":{"android":"levelo://app?vid=51c13d08-1c39-401a-b4bc-d4a9d99dd5ca","ios":"levelo://app?vid=51c13d08-1c39-401a-b4bc-d4a9d99dd5ca"},"vehicle_type_id":"4","last_reported":1687719930,"current_range_meters":17200,"station_id":"ce4bhq12rcd13ifvqhhg","pricing_plan_id":"free"},{"bike_id":"26199a99-9470-46d4-89f6-b91a9746feb3","system_id":"levelo_inurba_marseille","lat":43.27618,"lon":5.361009,"is_reserved":false,"is_disabled":false,"rental_uris":{"android":"levelo://app?vid=26199a99-9470-46d4-89f6-b91a9746feb3","ios":"levelo://app?vid=26199a99-9470-46d4-89f6-b91a9746feb3"},"vehicle_type_id":"4","last_reported":1687719930,"current_range_meters":1600,"station_id":"ce4bgj92rcd13ifvqbe0","pricing_plan_id":"free"},{"bike_id":"8006fed1-1663-44d5-8c2f-3eb912bcc9e3","system_id":"levelo_inurba_marseille","lat":43.276179,"lon":5.361009,"is_reserved":false,"is_disabled":false,"rental_uris":{"android":"levelo://app?vid=8006fed1-1663-44d5-8c2f-3eb912bcc9e3","ios":"levelo://app?vid=8006fed1-1663-44d5-8c2f-3eb912bcc9e3"},"vehicle_type_id":"4","last_reported":1687719930,"current_range_meters":0,"station_id":"ce4bgj92rcd13ifvqbe0","pricing_plan_id":"free"},{"bike_id":"6b081579-5bc6-4147-a52b-60a25fbaf4d1","system_id":"levelo_inurba_marseille","lat":43.32549,"lon":5.41449,"is_reserved":false,"is_disabled":false,"rental_uris":{"android":"levelo://app?vid=6b081579-5bc6-4147-a52b-60a25fbaf4d1","ios":"levelo://app?vid=6b081579-5bc6-4147-a52b-60a25fbaf4d1"},"vehicle_type_id":"4","last_reported":1687719930,"current_range_meters":30400,"station_id":"","pricing_plan_id":"free"},{"bike_id":"c071dea1-67c9-4a00-9c4f-681bc8a436fc","system_id":"levelo_inurba_marseille","lat":43.280784,"lon":5.396622,"is_reserved":false,"is_disabled":false,"rental_uris":{"android":"levelo://app?vid=c071dea1-67c9-4a00-9c4f-681bc8a436fc","ios":"levelo://app?vid=c071dea1-67c9-4a00-9c4f-681bc8a436fc"},"vehicle_type_id":"4","last_reported":1687719930,"current_range_meters":14000,"station_id":"ce4bho12rcd13ifvqh2g","pricing_plan_id":"free"},{"bike_id":"b132f37b-53b2-42d4-a387-c114e3bc3fae","system_id":"levelo_inurba_marseille","lat":43.280784,"lon":5.396622,"is_reserved":false,"is_disabled":false,"rental_uris":{"android":"levelo://app?vid=b132f37b-53b2-42d4-a387-c114e3bc3fae","ios":"levelo://app?vid=b132f37b-53b2-42d4-a387-c114e3bc3fae"},"vehicle_type_id":"4","last_reported":1687719930,"current_range_meters":2000,"station_id":"ce4bho12rcd13ifvqh2g","pricing_plan_id":"free"},{"bike_id":"2a780544-8858-4071-b184-cc41ef94a3b7","system_id":"levelo_inurba_marseille","lat":43.278399,"lon":5.392139,"is_reserved":false,"is_disabled":false,"rental_uris":{"android":"levelo://app?vid=2a780544-8858-4071-b184-cc41ef94a3b7","ios":"levelo://app?vid=2a780544-8858-4071-b184-cc41ef94a3b7"},"vehicle_type_id":"4","last_reported":1687719930,"current_range_meters":30400,"station_id":"ce4bhjp2rcd13ifvqga0","pricing_plan_id":"free"},{"bike_id":"f1bf90f3-75c0-47ca-a754-e87f93cf5f5a","system_id":"levelo_inurba_marseille","lat":43.278399,"lon":5.392139,"is_reserved":false,"is_disabled":false,"rental_uris":{"android":"levelo://app?vid=f1bf90f3-75c0-47ca-a754-e87f93cf5f5a","ios":"levelo://app?vid=f1bf90f3-75c0-47ca-a754-e87f93cf5f5a"},"vehicle_type_id":"4","last_reported":1687719930,"current_range_meters":14800,"station_id":"ce4bhjp2rcd13ifvqga0","pricing_plan_id":"free"},{"bike_id":"b3aa844d-760f-4c03-8c35-b837a0def83a","system_id":"levelo_inurba_marseille","lat":43.27376,"lon":5.36252,"is_reserved":false,"is_disabled":false,"rental_uris":{"android":"levelo://app?vid=b3aa844d-760f-4c03-8c35-b837a0def83a","ios":"levelo://app?vid=b3aa844d-760f-4c03-8c35-b837a0def83a"},"vehicle_type_id":"4","last_reported":1687719930,"current_range_meters":23600,"station_id":"ce4bhbh2rcd13ifvqeo0","pricing_plan_id":"free"},{"bike_id":"c2e91a31-73bd-4044-8317-1659adab25e5","system_id":"levelo_inurba_marseille","lat":43.27564,"lon":5.38591,"is_reserved":false,"is_disabled":false,"rental_uris":{"android":"levelo://app?vid=c2e91a31-73bd-4044-8317-1659adab25e5","ios":"levelo://app?vid=c2e91a31-73bd-4044-8317-1659adab25e5"},"vehicle_type_id":"4","last_reported":1687719930,"current_range_meters":24800,"station_id":"","pricing_plan_id":"free"},{"bike_id":"c0e950ed-aea1-4939-a34d-a0494748ad20","system_id":"levelo_inurba_marseille","lat":43.310785,"lon":5.424305,"is_reserved":false,"is_disabled":false,"rental_uris":{"android":"levelo://app?vid=c0e950ed-aea1-4939-a34d-a0494748ad20","ios":"levelo://app?vid=c0e950ed-aea1-4939-a34d-a0494748ad20"},"vehicle_type_id":"4","last_reported":1687719930,"current_range_meters":11200,"station_id":"ce4bhp92rcd13ifvqhag","pricing_plan_id":"free"},{"bike_id":"a8d3126d-d26a-4893-a5bf-0ce1fed4c079","system_id":"levelo_inurba_marseille","lat":43.310785,"lon":5.424305,"is_reserved":false,"is_disabled":false,"rental_uris":{"android":"levelo://app?vid=a8d3126d-d26a-4893-a5bf-0ce1fed4c079","ios":"levelo://app?vid=a8d3126d-d26a-4893-a5bf-0ce1fed4c079"},"vehicle_type_id":"4","last_reported":1687719930,"current_range_meters":7600,"station_id":"ce4bhp92rcd13ifvqhag","pricing_plan_id":"free"},{"bike_id":"01208fbe-9431-4ed6-ac1f-e90329c35bdb","system_id":"levelo_inurba_marseille","lat":43.26955,"lon":5.36633,"is_reserved":false,"is_disabled":false,"rental_uris":{"android":"levelo://app?vid=01208fbe-9431-4ed6-ac1f-e90329c35bdb","ios":"levelo://app?vid=01208fbe-9431-4ed6-ac1f-e90329c35bdb"},"vehicle_type_id":"4","last_reported":1687719930,"current_range_meters":0,"station_id":"","pricing_plan_id":"free"},{"bike_id":"7ba2fd51-8a33-46e6-bdfa-ebc37cad61ba","system_id":"levelo_inurba_marseille","lat":43.295523,"lon":5.422926,"is_reserved":false,"is_disabled":false,"rental_uris":{"android":"levelo://app?vid=7ba2fd51-8a33-46e6-bdfa-ebc37cad61ba","ios":"levelo://app?vid=7ba2fd51-8a33-46e6-bdfa-ebc37cad61ba"},"vehicle_type_id":"4","last_reported":1687719930,"current_range_meters":20400,"station_id":"ce4bhph2rcd13ifvqhdg","pricing_plan_id":"free"},{"bike_id":"4fa21102-9c5c-4785-8da0-3d7f957b0c31","system_id":"levelo_inurba_marseille","lat":43.272118,"lon":5.391758,"is_reserved":false,"is_disabled":false,"rental_uris":{"android":"levelo://app?vid=4fa21102-9c5c-4785-8da0-3d7f957b0c31","ios":"levelo://app?vid=4fa21102-9c5c-4785-8da0-3d7f957b0c31"},"vehicle_type_id":"4","last_reported":1687719930,"current_range_meters":28400,"station_id":"ce4bhhp2rcd13ifvqfm0","pricing_plan_id":"free"},{"bike_id":"8a9afe95-8316-4ec3-86ab-e83e13629c5f","system_id":"levelo_inurba_marseille","lat":43.278128,"lon":5.407195,"is_reserved":false,"is_disabled":false,"rental_uris":{"android":"levelo://app?vid=8a9afe95-8316-4ec3-86ab-e83e13629c5f","ios":"levelo://app?vid=8a9afe95-8316-4ec3-86ab-e83e13629c5f"},"vehicle_type_id":"4","last_reported":1687719930,"current_range_meters":11200,"station_id":"ce4bhnh2rcd13ifvqgtg","pricing_plan_id":"free"},{"bike_id":"8a8c969b-2e3a-4eba-8e9a-d7a4678d6147","system_id":"levelo_inurba_marseille","lat":43.278128,"lon":5.407195,"is_reserved":false,"is_disabled":false,"rental_uris":{"android":"levelo://app?vid=8a8c969b-2e3a-4eba-8e9a-d7a4678d6147","ios":"levelo://app?vid=8a8c969b-2e3a-4eba-8e9a-d7a4678d6147"},"vehicle_type_id":"4","last_reported":1687719930,"current_range_meters":20800,"station_id":"ce4bhnh2rcd13ifvqgtg","pricing_plan_id":"free"},{"bike_id":"ae48766c-6c0d-4da9-9196-f1c972db2e46","system_id":"levelo_inurba_marseille","lat":43.278128,"lon":5.407195,"is_reserved":false,"is_disabled":false,"rental_uris":{"android":"levelo://app?vid=ae48766c-6c0d-4da9-9196-f1c972db2e46","ios":"levelo://app?vid=ae48766c-6c0d-4da9-9196-f1c972db2e46"},"vehicle_type_id":"4","last_reported":1687719930,"current_range_meters":26400,"station_id":"ce4bhnh2rcd13ifvqgtg","pricing_plan_id":"free"},{"bike_id":"b886e63d-4950-4f58-8318-25ca66c26c6f","system_id":"levelo_inurba_marseille","lat":43.26681,"lon":5.382694,"is_reserved":false,"is_disabled":false,"rental_uris":{"android":"levelo://app?vid=b886e63d-4950-4f58-8318-25ca66c26c6f","ios":"levelo://app?vid=b886e63d-4950-4f58-8318-25ca66c26c6f"},"vehicle_type_id":"4","last_reported":1687719930,"current_range_meters":13600,"station_id":"ce4bhg92rcd13ifvqf90","pricing_plan_id":"free"},{"bike_id":"ae7d7c71-e604-43c3-9e35-f5723b256526","system_id":"levelo_inurba_marseille","lat":43.27996,"lon":5.41666,"is_reserved":false,"is_disabled":false,"rental_uris":{"android":"levelo://app?vid=ae7d7c71-e604-43c3-9e35-f5723b256526","ios":"levelo://app?vid=ae7d7c71-e604-43c3-9e35-f5723b256526"},"vehicle_type_id":"4","last_reported":1687719930,"current_range_meters":21600,"station_id":"ce4bho12rcd13ifvqh1g","pricing_plan_id":"free"},{"bike_id":"72adb9e4-c8b9-429a-80a6-7c9155bb2649","system_id":"levelo_inurba_marseille","lat":43.267966,"lon":5.393976,"is_reserved":false,"is_disabled":false,"rental_uris":{"android":"levelo://app?vid=72adb9e4-c8b9-429a-80a6-7c9155bb2649","ios":"levelo://app?vid=72adb9e4-c8b9-429a-80a6-7c9155bb2649"},"vehicle_type_id":"4","last_reported":1687719930,"current_range_meters":3600,"station_id":"ce4bhh12rcd13ifvqfg0","pricing_plan_id":"free"},{"bike_id":"3e60489d-667f-43bb-80b2-7784169c924e","system_id":"levelo_inurba_marseille","lat":43.267966,"lon":5.393976,"is_reserved":false,"is_disabled":false,"rental_uris":{"android":"levelo://app?vid=3e60489d-667f-43bb-80b2-7784169c924e","ios":"levelo://app?vid=3e60489d-667f-43bb-80b2-7784169c924e"},"vehicle_type_id":"4","last_reported":1687719930,"current_range_meters":12000,"station_id":"ce4bhh12rcd13ifvqfg0","pricing_plan_id":"free"},{"bike_id":"fbbfad45-ae1e-460f-b562-ded3b45e14da","system_id":"levelo_inurba_marseille","lat":43.265569,"lon":5.390047,"is_reserved":false,"is_disabled":false,"rental_uris":{"android":"levelo://app?vid=fbbfad45-ae1e-460f-b562-ded3b45e14da","ios":"levelo://app?vid=fbbfad45-ae1e-460f-b562-ded3b45e14da"},"vehicle_type_id":"4","last_reported":1687719930,"current_range_meters":4400,"station_id":"ce4bhe12rcd13ifvqf30","pricing_plan_id":"free"},{"bike_id":"46e67c8b-b6c3-4c76-8fb1-57c130e6fc17","system_id":"levelo_inurba_marseille","lat":43.308051,"lon":5.43527,"is_reserved":false,"is_disabled":false,"rental_uris":{"android":"levelo://app?vid=46e67c8b-b6c3-4c76-8fb1-57c130e6fc17","ios":"levelo://app?vid=46e67c8b-b6c3-4c76-8fb1-57c130e6fc17"},"vehicle_type_id":"4","last_reported":1687719930,"current_range_meters":17200,"station_id":"ce4bhph2rcd13ifvqheg","pricing_plan_id":"free"},{"bike_id":"4d209566-1427-47ac-9d19-9043b349909c","system_id":"levelo_inurba_marseille","lat":43.308,"lon":5.43518,"is_reserved":false,"is_disabled":false,"rental_uris":{"android":"levelo://app?vid=4d209566-1427-47ac-9d19-9043b349909c","ios":"levelo://app?vid=4d209566-1427-47ac-9d19-9043b349909c"},"vehicle_type_id":"4","last_reported":1687719930,"current_range_meters":20000,"station_id":"ce4bhph2rcd13ifvqheg","pricing_plan_id":"free"},{"bike_id":"d4f264e3-ecf8-4f1c-bc2e-778acd680520","system_id":"levelo_inurba_marseille","lat":43.30799,"lon":5.43519,"is_reserved":false,"is_disabled":false,"rental_uris":{"android":"levelo://app?vid=d4f264e3-ecf8-4f1c-bc2e-778acd680520","ios":"levelo://app?vid=d4f264e3-ecf8-4f1c-bc2e-778acd680520"},"vehicle_type_id":"4","last_reported":1687719930,"current_range_meters":10800,"station_id":"ce4bhph2rcd13ifvqheg","pricing_plan_id":"free"},{"bike_id":"d2e70966-95eb-489f-8366-135354866108","system_id":"levelo_inurba_marseille","lat":43.30798,"lon":5.43522,"is_reserved":false,"is_disabled":false,"rental_uris":{"android":"levelo://app?vid=d2e70966-95eb-489f-8366-135354866108","ios":"levelo://app?vid=d2e70966-95eb-489f-8366-135354866108"},"vehicle_type_id":"4","last_reported":1687719930,"current_range_meters":16000,"station_id":"ce4bhph2rcd13ifvqheg","pricing_plan_id":"free"},{"bike_id":"edc3ebe4-9a7c-43b9-bd79-3b964ef5926b","system_id":"levelo_inurba_marseille","lat":43.30795,"lon":5.43524,"is_reserved":false,"is_disabled":false,"rental_uris":{"android":"levelo://app?vid=edc3ebe4-9a7c-43b9-bd79-3b964ef5926b","ios":"levelo://app?vid=edc3ebe4-9a7c-43b9-bd79-3b964ef5926b"},"vehicle_type_id":"4","last_reported":1687719930,"current_range_meters":26800,"station_id":"ce4bhph2rcd13ifvqheg","pricing_plan_id":"free"},{"bike_id":"dc45e63e-c964-47a5-94f6-827aaa664a7c","system_id":"levelo_inurba_marseille","lat":43.261782,"lon":5.374515,"is_reserved":false,"is_disabled":false,"rental_uris":{"android":"levelo://app?vid=dc45e63e-c964-47a5-94f6-827aaa664a7c","ios":"levelo://app?vid=dc45e63e-c964-47a5-94f6-827aaa664a7c"},"vehicle_type_id":"4","last_reported":1687719930,"current_range_meters":12000,"station_id":"ce4bhgp2rcd13ifvqfc0","pricing_plan_id":"free"},{"bike_id":"eef197e4-eb87-4c78-a089-65b7c55e4f36","system_id":"levelo_inurba_marseille","lat":43.271368,"lon":5.40928,"is_reserved":false,"is_disabled":false,"rental_uris":{"android":"levelo://app?vid=eef197e4-eb87-4c78-a089-65b7c55e4f36","ios":"levelo://app?vid=eef197e4-eb87-4c78-a089-65b7c55e4f36"},"vehicle_type_id":"4","last_reported":1687719930,"current_range_meters":8400,"station_id":"ce4bhl12rcd13ifvqgf0","pricing_plan_id":"free"},{"bike_id":"20d4b3ba-7d51-49c4-9928-2cb7c0cb7f89","system_id":"levelo_inurba_marseille","lat":43.267959,"lon":5.402685,"is_reserved":false,"is_disabled":false,"rental_uris":{"android":"levelo://app?vid=20d4b3ba-7d51-49c4-9928-2cb7c0cb7f89","ios":"levelo://app?vid=20d4b3ba-7d51-49c4-9928-2cb7c0cb7f89"},"vehicle_type_id":"4","last_reported":1687719930,"current_range_meters":800,"station_id":"ce501612rcd8frsf0b60","pricing_plan_id":"free"},{"bike_id":"2397ed9f-2cbd-41d9-9c4e-5d7540b6365d","system_id":"levelo_inurba_marseille","lat":43.26106,"lon":5.37292,"is_reserved":false,"is_disabled":false,"rental_uris":{"android":"levelo://app?vid=2397ed9f-2cbd-41d9-9c4e-5d7540b6365d","ios":"levelo://app?vid=2397ed9f-2cbd-41d9-9c4e-5d7540b6365d"},"vehicle_type_id":"4","last_reported":1687719930,"current_range_meters":22000,"station_id":"","pricing_plan_id":"free"},{"bike_id":"6078cd24-5711-409a-8ffa-29bd26ad9c29","system_id":"levelo_inurba_marseille","lat":43.298768,"lon":5.43643,"is_reserved":false,"is_disabled":false,"rental_uris":{"android":"levelo://app?vid=6078cd24-5711-409a-8ffa-29bd26ad9c29","ios":"levelo://app?vid=6078cd24-5711-409a-8ffa-29bd26ad9c29"},"vehicle_type_id":"4","last_reported":1687719930,"current_range_meters":30000,"station_id":"ce4bhpp2rcd13ifvqhfg","pricing_plan_id":"free"},{"bike_id":"055a308f-85c6-45cf-b61e-a1cb9037d321","system_id":"levelo_inurba_marseille","lat":43.26039,"lon":5.37421,"is_reserved":false,"is_disabled":false,"rental_uris":{"android":"levelo://app?vid=055a308f-85c6-45cf-b61e-a1cb9037d321","ios":"levelo://app?vid=055a308f-85c6-45cf-b61e-a1cb9037d321"},"vehicle_type_id":"4","last_reported":1687719930,"current_range_meters":400,"station_id":"","pricing_plan_id":"free"},{"bike_id":"b1d431ca-5d94-4e42-8d8c-cced3ea8b845","system_id":"levelo_inurba_marseille","lat":43.3009,"lon":5.43964,"is_reserved":false,"is_disabled":false,"rental_uris":{"android":"levelo://app?vid=b1d431ca-5d94-4e42-8d8c-cced3ea8b845","ios":"levelo://app?vid=b1d431ca-5d94-4e42-8d8c-cced3ea8b845"},"vehicle_type_id":"4","last_reported":1687719930,"current_range_meters":16800,"station_id":"","pricing_plan_id":"free"},{"bike_id":"4e8a4945-48fa-476c-8cd7-aaab8761c4f8","system_id":"levelo_inurba_marseille","lat":43.275028,"lon":5.424534,"is_reserved":false,"is_disabled":false,"rental_uris":{"android":"levelo://app?vid=4e8a4945-48fa-476c-8cd7-aaab8761c4f8","ios":"levelo://app?vid=4e8a4945-48fa-476c-8cd7-aaab8761c4f8"},"vehicle_type_id":"4","last_reported":1687719930,"current_range_meters":19200,"station_id":"ce4bhn92rcd13ifvqgrg","pricing_plan_id":"free"},{"bike_id":"558f7cd6-d15d-492c-b7bc-e0b3bdb07a79","system_id":"levelo_inurba_marseille","lat":43.275028,"lon":5.424534,"is_reserved":false,"is_disabled":false,"rental_uris":{"android":"levelo://app?vid=558f7cd6-d15d-492c-b7bc-e0b3bdb07a79","ios":"levelo://app?vid=558f7cd6-d15d-492c-b7bc-e0b3bdb07a79"},"vehicle_type_id":"4","last_reported":1687719930,"current_range_meters":400,"station_id":"ce4bhn92rcd13ifvqgrg","pricing_plan_id":"free"},{"bike_id":"abe207a3-4e0e-434c-afba-c5a243bfe3d5","system_id":"levelo_inurba_marseille","lat":43.27498,"lon":5.42452,"is_reserved":false,"is_disabled":false,"rental_uris":{"android":"levelo://app?vid=abe207a3-4e0e-434c-afba-c5a243bfe3d5","ios":"levelo://app?vid=abe207a3-4e0e-434c-afba-c5a243bfe3d5"},"vehicle_type_id":"4","last_reported":1687719930,"current_range_meters":31200,"station_id":"ce4bhn92rcd13ifvqgrg","pricing_plan_id":"free"},{"bike_id":"20076950-2fe6-4aa5-b729-757599d33e96","system_id":"levelo_inurba_marseille","lat":43.260909,"lon":5.397591,"is_reserved":false,"is_disabled":false,"rental_uris":{"android":"levelo://app?vid=20076950-2fe6-4aa5-b729-757599d33e96","ios":"levelo://app?vid=20076950-2fe6-4aa5-b729-757599d33e96"},"vehicle_type_id":"4","last_reported":1687719930,"current_range_meters":0,"station_id":"ce4bhi12rcd13ifvqfq0","pricing_plan_id":"free"},{"bike_id":"506216f7-e4d7-4d4e-81ab-65b2d25f11b9","system_id":"levelo_inurba_marseille","lat":43.275028,"lon":5.424534,"is_reserved":false,"is_disabled":false,"rental_uris":{"android":"levelo://app?vid=506216f7-e4d7-4d4e-81ab-65b2d25f11b9","ios":"levelo://app?vid=506216f7-e4d7-4d4e-81ab-65b2d25f11b9"},"vehicle_type_id":"4","last_reported":1687719930,"current_range_meters":27600,"station_id":"ce4bhn92rcd13ifvqgrg","pricing_plan_id":"free"},{"bike_id":"90c910d3-59b0-47a4-af54-68c084e3189d","system_id":"levelo_inurba_marseille","lat":43.27495,"lon":5.42455,"is_reserved":false,"is_disabled":false,"rental_uris":{"android":"levelo://app?vid=90c910d3-59b0-47a4-af54-68c084e3189d","ios":"levelo://app?vid=90c910d3-59b0-47a4-af54-68c084e3189d"},"vehicle_type_id":"4","last_reported":1687719930,"current_range_meters":31200,"station_id":"ce4bhn92rcd13ifvqgrg","pricing_plan_id":"free"},{"bike_id":"1f0605bb-09e4-4cd0-bc5d-aef39b79467d","system_id":"levelo_inurba_marseille","lat":43.27489,"lon":5.42454,"is_reserved":false,"is_disabled":false,"rental_uris":{"android":"levelo://app?vid=1f0605bb-09e4-4cd0-bc5d-aef39b79467d","ios":"levelo://app?vid=1f0605bb-09e4-4cd0-bc5d-aef39b79467d"},"vehicle_type_id":"4","last_reported":1687719930,"current_range_meters":9600,"station_id":"ce4bhn92rcd13ifvqgrg","pricing_plan_id":"free"},{"bike_id":"0d03610b-e8f5-40a4-bb6f-9e1c224d9bde","system_id":"levelo_inurba_marseille","lat":43.2749,"lon":5.42459,"is_reserved":false,"is_disabled":false,"rental_uris":{"android":"levelo://app?vid=0d03610b-e8f5-40a4-bb6f-9e1c224d9bde","ios":"levelo://app?vid=0d03610b-e8f5-40a4-bb6f-9e1c224d9bde"},"vehicle_type_id":"4","last_reported":1687719930,"current_range_meters":20400,"station_id":"ce4bhn92rcd13ifvqgrg","pricing_plan_id":"free"},{"bike_id":"f4f11001-1acd-4f91-95da-c1874b37610d","system_id":"levelo_inurba_marseille","lat":43.255756,"lon":5.382303,"is_reserved":false,"is_disabled":false,"rental_uris":{"android":"levelo://app?vid=f4f11001-1acd-4f91-95da-c1874b37610d","ios":"levelo://app?vid=f4f11001-1acd-4f91-95da-c1874b37610d"},"vehicle_type_id":"4","last_reported":1687719930,"current_range_meters":0,"station_id":"ce4bhih2rcd13ifvqfs0","pricing_plan_id":"free"},{"bike_id":"0ec484aa-2076-4e35-9cab-56fb80430e26","system_id":"levelo_inurba_marseille","lat":43.255756,"lon":5.382303,"is_reserved":false,"is_disabled":false,"rental_uris":{"android":"levelo://app?vid=0ec484aa-2076-4e35-9cab-56fb80430e26","ios":"levelo://app?vid=0ec484aa-2076-4e35-9cab-56fb80430e26"},"vehicle_type_id":"4","last_reported":1687719930,"current_range_meters":16000,"station_id":"ce4bhih2rcd13ifvqfs0","pricing_plan_id":"free"},{"bike_id":"105a0b89-cb33-4294-acc9-55818edb3b40","system_id":"levelo_inurba_marseille","lat":43.254947,"lon":5.376454,"is_reserved":false,"is_disabled":false,"rental_uris":{"android":"levelo://app?vid=105a0b89-cb33-4294-acc9-55818edb3b40","ios":"levelo://app?vid=105a0b89-cb33-4294-acc9-55818edb3b40"},"vehicle_type_id":"4","last_reported":1687719930,"current_range_meters":0,"station_id":"ce4bhh12rcd13ifvqff0","pricing_plan_id":"free"},{"bike_id":"6ea63fa7-cf01-4a11-9b1a-7be41ac56a66","system_id":"levelo_inurba_marseille","lat":43.254945,"lon":5.376454,"is_reserved":false,"is_disabled":false,"rental_uris":{"android":"levelo://app?vid=6ea63fa7-cf01-4a11-9b1a-7be41ac56a66","ios":"levelo://app?vid=6ea63fa7-cf01-4a11-9b1a-7be41ac56a66"},"vehicle_type_id":"4","last_reported":1687719930,"current_range_meters":0,"station_id":"ce4bhh12rcd13ifvqff0","pricing_plan_id":"free"},{"bike_id":"39c1f6cb-0773-4454-967c-b8980318c503","system_id":"levelo_inurba_marseille","lat":43.270721,"lon":5.422764,"is_reserved":false,"is_disabled":false,"rental_uris":{"android":"levelo://app?vid=39c1f6cb-0773-4454-967c-b8980318c503","ios":"levelo://app?vid=39c1f6cb-0773-4454-967c-b8980318c503"},"vehicle_type_id":"4","last_reported":1687719930,"current_range_meters":24400,"station_id":"ce4bhk92rcd13ifvqgb0","pricing_plan_id":"free"},{"bike_id":"7f325ee4-25cc-4adb-b1c0-02f3d06f9f8b","system_id":"levelo_inurba_marseille","lat":43.258658,"lon":5.398935,"is_reserved":false,"is_disabled":false,"rental_uris":{"android":"levelo://app?vid=7f325ee4-25cc-4adb-b1c0-02f3d06f9f8b","ios":"levelo://app?vid=7f325ee4-25cc-4adb-b1c0-02f3d06f9f8b"},"vehicle_type_id":"4","last_reported":1687719930,"current_range_meters":0,"station_id":"ce4bhl92rcd13ifvqghg","pricing_plan_id":"free"},{"bike_id":"5f112f1c-53b1-4173-9835-b90ddfd1ed75","system_id":"levelo_inurba_marseille","lat":43.258658,"lon":5.398935,"is_reserved":false,"is_disabled":false,"rental_uris":{"android":"levelo://app?vid=5f112f1c-53b1-4173-9835-b90ddfd1ed75","ios":"levelo://app?vid=5f112f1c-53b1-4173-9835-b90ddfd1ed75"},"vehicle_type_id":"4","last_reported":1687719930,"current_range_meters":1600,"station_id":"ce4bhl92rcd13ifvqghg","pricing_plan_id":"free"},{"bike_id":"264e0a5c-fa9e-4d8d-8a10-ce9bd8d7519f","system_id":"levelo_inurba_marseille","lat":43.25936,"lon":5.40897,"is_reserved":false,"is_disabled":false,"rental_uris":{"android":"levelo://app?vid=264e0a5c-fa9e-4d8d-8a10-ce9bd8d7519f","ios":"levelo://app?vid=264e0a5c-fa9e-4d8d-8a10-ce9bd8d7519f"},"vehicle_type_id":"4","last_reported":1687719930,"current_range_meters":10400,"station_id":"","pricing_plan_id":"free"},{"bike_id":"95ceb0c9-73bd-4dd2-ac06-4b987681f4e8","system_id":"levelo_inurba_marseille","lat":43.25937,"lon":5.40903,"is_reserved":false,"is_disabled":false,"rental_uris":{"android":"levelo://app?vid=95ceb0c9-73bd-4dd2-ac06-4b987681f4e8","ios":"levelo://app?vid=95ceb0c9-73bd-4dd2-ac06-4b987681f4e8"},"vehicle_type_id":"4","last_reported":1687719930,"current_range_meters":26800,"station_id":"","pricing_plan_id":"free"},{"bike_id":"2851acfb-00ba-460d-8311-a74e1238fc2c","system_id":"levelo_inurba_marseille","lat":43.25936,"lon":5.40901,"is_reserved":false,"is_disabled":false,"rental_uris":{"android":"levelo://app?vid=2851acfb-00ba-460d-8311-a74e1238fc2c","ios":"levelo://app?vid=2851acfb-00ba-460d-8311-a74e1238fc2c"},"vehicle_type_id":"4","last_reported":1687719930,"current_range_meters":29200,"station_id":"","pricing_plan_id":"free"},{"bike_id":"d8724d74-6425-43b6-b950-a607cbc8e74b","system_id":"levelo_inurba_marseille","lat":43.25936,"lon":5.40902,"is_reserved":false,"is_disabled":false,"rental_uris":{"android":"levelo://app?vid=d8724d74-6425-43b6-b950-a607cbc8e74b","ios":"levelo://app?vid=d8724d74-6425-43b6-b950-a607cbc8e74b"},"vehicle_type_id":"4","last_reported":1687719930,"current_range_meters":29600,"station_id":"","pricing_plan_id":"free"},{"bike_id":"0e8e8af7-8203-423a-b718-ed54280dcbb0","system_id":"levelo_inurba_marseille","lat":43.25936,"lon":5.40904,"is_reserved":false,"is_disabled":false,"rental_uris":{"android":"levelo://app?vid=0e8e8af7-8203-423a-b718-ed54280dcbb0","ios":"levelo://app?vid=0e8e8af7-8203-423a-b718-ed54280dcbb0"},"vehicle_type_id":"4","last_reported":1687719930,"current_range_meters":30800,"station_id":"","pricing_plan_id":"free"},{"bike_id":"b686a91d-096e-43f5-bb52-77f2ae76bca8","system_id":"levelo_inurba_marseille","lat":43.259013,"lon":5.409301,"is_reserved":false,"is_disabled":false,"rental_uris":{"android":"levelo://app?vid=b686a91d-096e-43f5-bb52-77f2ae76bca8","ios":"levelo://app?vid=b686a91d-096e-43f5-bb52-77f2ae76bca8"},"vehicle_type_id":"4","last_reported":1687719930,"current_range_meters":20400,"station_id":"ce4bhm92rcd13ifvqglg","pricing_plan_id":"free"},{"bike_id":"de4cb364-48ad-4c5b-ae30-85f5bb7b705a","system_id":"levelo_inurba_marseille","lat":43.259013,"lon":5.409301,"is_reserved":false,"is_disabled":false,"rental_uris":{"android":"levelo://app?vid=de4cb364-48ad-4c5b-ae30-85f5bb7b705a","ios":"levelo://app?vid=de4cb364-48ad-4c5b-ae30-85f5bb7b705a"},"vehicle_type_id":"4","last_reported":1687719930,"current_range_meters":31200,"station_id":"ce4bhm92rcd13ifvqglg","pricing_plan_id":"free"},{"bike_id":"74dd8b5d-7630-4f6a-a7dd-a2db18097386","system_id":"levelo_inurba_marseille","lat":43.28071,"lon":5.43957,"is_reserved":false,"is_disabled":false,"rental_uris":{"android":"levelo://app?vid=74dd8b5d-7630-4f6a-a7dd-a2db18097386","ios":"levelo://app?vid=74dd8b5d-7630-4f6a-a7dd-a2db18097386"},"vehicle_type_id":"4","last_reported":1687719930,"current_range_meters":28800,"station_id":"","pricing_plan_id":"free"},{"bike_id":"d5d70e4b-d1b3-4328-a263-76f143318fbc","system_id":"levelo_inurba_marseille","lat":43.28068,"lon":5.43959,"is_reserved":false,"is_disabled":false,"rental_uris":{"android":"levelo://app?vid=d5d70e4b-d1b3-4328-a263-76f143318fbc","ios":"levelo://app?vid=d5d70e4b-d1b3-4328-a263-76f143318fbc"},"vehicle_type_id":"4","last_reported":1687719930,"current_range_meters":16800,"station_id":"","pricing_plan_id":"free"},{"bike_id":"a5eb68c2-9ba6-47fc-977a-c6fa657f213f","system_id":"levelo_inurba_marseille","lat":43.25,"lon":5.38927,"is_reserved":false,"is_disabled":false,"rental_uris":{"android":"levelo://app?vid=a5eb68c2-9ba6-47fc-977a-c6fa657f213f","ios":"levelo://app?vid=a5eb68c2-9ba6-47fc-977a-c6fa657f213f"},"vehicle_type_id":"4","last_reported":1687719930,"current_range_meters":10800,"station_id":"ce4bhgp2rcd13ifvqfd0","pricing_plan_id":"free"},{"bike_id":"7231132f-20ba-435b-9580-b7cea28f503d","system_id":"levelo_inurba_marseille","lat":43.2479,"lon":5.374457,"is_reserved":false,"is_disabled":false,"rental_uris":{"android":"levelo://app?vid=7231132f-20ba-435b-9580-b7cea28f503d","ios":"levelo://app?vid=7231132f-20ba-435b-9580-b7cea28f503d"},"vehicle_type_id":"4","last_reported":1687719930,"current_range_meters":400,"station_id":"ce4bhgh2rcd13ifvqfb0","pricing_plan_id":"free"},{"bike_id":"a360101c-c2b0-47d5-b546-3a44a700c008","system_id":"levelo_inurba_marseille","lat":43.2481,"lon":5.37463,"is_reserved":false,"is_disabled":false,"rental_uris":{"android":"levelo://app?vid=a360101c-c2b0-47d5-b546-3a44a700c008","ios":"levelo://app?vid=a360101c-c2b0-47d5-b546-3a44a700c008"},"vehicle_type_id":"4","last_reported":1687719930,"current_range_meters":24000,"station_id":"","pricing_plan_id":"free"},{"bike_id":"e7b021fa-fed1-4a48-bb73-3713ecfcf1b7","system_id":"levelo_inurba_marseille","lat":43.24809,"lon":5.37452,"is_reserved":false,"is_disabled":false,"rental_uris":{"android":"levelo://app?vid=e7b021fa-fed1-4a48-bb73-3713ecfcf1b7","ios":"levelo://app?vid=e7b021fa-fed1-4a48-bb73-3713ecfcf1b7"},"vehicle_type_id":"4","last_reported":1687719930,"current_range_meters":14000,"station_id":"ce4bhgh2rcd13ifvqfb0","pricing_plan_id":"free"},{"bike_id":"272d0595-700f-4eed-b414-275c3f957761","system_id":"levelo_inurba_marseille","lat":43.2479,"lon":5.374457,"is_reserved":false,"is_disabled":false,"rental_uris":{"android":"levelo://app?vid=272d0595-700f-4eed-b414-275c3f957761","ios":"levelo://app?vid=272d0595-700f-4eed-b414-275c3f957761"},"vehicle_type_id":"4","last_reported":1687719930,"current_range_meters":30000,"station_id":"ce4bhgh2rcd13ifvqfb0","pricing_plan_id":"free"},{"bike_id":"5105272b-c868-4bd3-8c3d-7c05b42b83f2","system_id":"levelo_inurba_marseille","lat":43.24803,"lon":5.37457,"is_reserved":false,"is_disabled":false,"rental_uris":{"android":"levelo://app?vid=5105272b-c868-4bd3-8c3d-7c05b42b83f2","ios":"levelo://app?vid=5105272b-c868-4bd3-8c3d-7c05b42b83f2"},"vehicle_type_id":"4","last_reported":1687719930,"current_range_meters":4800,"station_id":"ce4bhgh2rcd13ifvqfb0","pricing_plan_id":"free"},{"bike_id":"12decce2-1245-43b9-bc3f-becb0c87a56a","system_id":"levelo_inurba_marseille","lat":43.250966,"lon":5.395186,"is_reserved":false,"is_disabled":false,"rental_uris":{"android":"levelo://app?vid=12decce2-1245-43b9-bc3f-becb0c87a56a","ios":"levelo://app?vid=12decce2-1245-43b9-bc3f-becb0c87a56a"},"vehicle_type_id":"4","last_reported":1687719930,"current_range_meters":30800,"station_id":"ce4bhm12rcd13ifvqgkg","pricing_plan_id":"free"},{"bike_id":"f0451f47-013c-4536-85d7-a412dfe6e56b","system_id":"levelo_inurba_marseille","lat":43.250966,"lon":5.395186,"is_reserved":false,"is_disabled":false,"rental_uris":{"android":"levelo://app?vid=f0451f47-013c-4536-85d7-a412dfe6e56b","ios":"levelo://app?vid=f0451f47-013c-4536-85d7-a412dfe6e56b"},"vehicle_type_id":"4","last_reported":1687719930,"current_range_meters":26800,"station_id":"ce4bhm12rcd13ifvqgkg","pricing_plan_id":"free"},{"bike_id":"9aca8ee5-88bb-429f-ad3d-186aa54b053f","system_id":"levelo_inurba_marseille","lat":43.25016,"lon":5.39615,"is_reserved":false,"is_disabled":false,"rental_uris":{"android":"levelo://app?vid=9aca8ee5-88bb-429f-ad3d-186aa54b053f","ios":"levelo://app?vid=9aca8ee5-88bb-429f-ad3d-186aa54b053f"},"vehicle_type_id":"4","last_reported":1687719930,"current_range_meters":27600,"station_id":"","pricing_plan_id":"free"},{"bike_id":"de266ea2-c2a0-48f5-b420-4a2d6b3d6f8e","system_id":"levelo_inurba_marseille","lat":43.24665,"lon":5.38166,"is_reserved":false,"is_disabled":false,"rental_uris":{"android":"levelo://app?vid=de266ea2-c2a0-48f5-b420-4a2d6b3d6f8e","ios":"levelo://app?vid=de266ea2-c2a0-48f5-b420-4a2d6b3d6f8e"},"vehicle_type_id":"4","last_reported":1687719930,"current_range_meters":400,"station_id":"","pricing_plan_id":"free"},{"bike_id":"1973dcb2-321a-4077-a757-48ce80b0f575","system_id":"levelo_inurba_marseille","lat":43.25102,"lon":5.403214,"is_reserved":false,"is_disabled":false,"rental_uris":{"android":"levelo://app?vid=1973dcb2-321a-4077-a757-48ce80b0f575","ios":"levelo://app?vid=1973dcb2-321a-4077-a757-48ce80b0f575"},"vehicle_type_id":"4","last_reported":1687719930,"current_range_meters":12000,"station_id":"ce4bhlh2rcd13ifvqgig","pricing_plan_id":"free"},{"bike_id":"2f556678-894d-4ae5-a2e7-2c7c3bebafb3","system_id":"levelo_inurba_marseille","lat":43.24663,"lon":5.38169,"is_reserved":false,"is_disabled":false,"rental_uris":{"android":"levelo://app?vid=2f556678-894d-4ae5-a2e7-2c7c3bebafb3","ios":"levelo://app?vid=2f556678-894d-4ae5-a2e7-2c7c3bebafb3"},"vehicle_type_id":"4","last_reported":1687719930,"current_range_meters":29200,"station_id":"","pricing_plan_id":"free"},{"bike_id":"1f9f2b3c-445e-4e24-a553-bf35886f461d","system_id":"levelo_inurba_marseille","lat":43.245581,"lon":5.395069,"is_reserved":false,"is_disabled":false,"rental_uris":{"android":"levelo://app?vid=1f9f2b3c-445e-4e24-a553-bf35886f461d","ios":"levelo://app?vid=1f9f2b3c-445e-4e24-a553-bf35886f461d"},"vehicle_type_id":"4","last_reported":1687719930,"current_range_meters":31200,"station_id":"ce4bhlp2rcd13ifvqgjg","pricing_plan_id":"free"},{"bike_id":"33de0f3c-eae3-4a8d-9e7b-735c9fe2e419","system_id":"levelo_inurba_marseille","lat":43.245581,"lon":5.395069,"is_reserved":false,"is_disabled":false,"rental_uris":{"android":"levelo://app?vid=33de0f3c-eae3-4a8d-9e7b-735c9fe2e419","ios":"levelo://app?vid=33de0f3c-eae3-4a8d-9e7b-735c9fe2e419"},"vehicle_type_id":"4","last_reported":1687719930,"current_range_meters":10800,"station_id":"ce4bhlp2rcd13ifvqgjg","pricing_plan_id":"free"},{"bike_id":"c15f1ce1-5680-443d-b68f-cee51bc81897","system_id":"levelo_inurba_marseille","lat":43.245581,"lon":5.395069,"is_reserved":false,"is_disabled":false,"rental_uris":{"android":"levelo://app?vid=c15f1ce1-5680-443d-b68f-cee51bc81897","ios":"levelo://app?vid=c15f1ce1-5680-443d-b68f-cee51bc81897"},"vehicle_type_id":"4","last_reported":1687719930,"current_range_meters":18000,"station_id":"ce4bhlp2rcd13ifvqgjg","pricing_plan_id":"free"},{"bike_id":"70cdccc4-924d-4793-88ef-d63450007ff8","system_id":"levelo_inurba_marseille","lat":43.240623,"lon":5.377642,"is_reserved":false,"is_disabled":false,"rental_uris":{"android":"levelo://app?vid=70cdccc4-924d-4793-88ef-d63450007ff8","ios":"levelo://app?vid=70cdccc4-924d-4793-88ef-d63450007ff8"},"vehicle_type_id":"4","last_reported":1687719930,"current_range_meters":2800,"station_id":"ce4bhnp2rcd13ifvqgvg","pricing_plan_id":"free"},{"bike_id":"95521e8a-6cd5-45ff-b147-26270f34b279","system_id":"levelo_inurba_marseille","lat":43.240736,"lon":5.377598,"is_reserved":false,"is_disabled":false,"rental_uris":{"android":"levelo://app?vid=95521e8a-6cd5-45ff-b147-26270f34b279","ios":"levelo://app?vid=95521e8a-6cd5-45ff-b147-26270f34b279"},"vehicle_type_id":"4","last_reported":1687719930,"current_range_meters":0,"station_id":"ce4bhnp2rcd13ifvqgvg","pricing_plan_id":"free"},{"bike_id":"833c5e79-3f16-4525-9c3d-b731e655859d","system_id":"levelo_inurba_marseille","lat":43.240623,"lon":5.377642,"is_reserved":false,"is_disabled":false,"rental_uris":{"android":"levelo://app?vid=833c5e79-3f16-4525-9c3d-b731e655859d","ios":"levelo://app?vid=833c5e79-3f16-4525-9c3d-b731e655859d"},"vehicle_type_id":"4","last_reported":1687719930,"current_range_meters":16800,"station_id":"ce4bhnp2rcd13ifvqgvg","pricing_plan_id":"free"},{"bike_id":"29938d21-b6aa-42a1-8975-95ff510350b6","system_id":"levelo_inurba_marseille","lat":43.240623,"lon":5.377642,"is_reserved":false,"is_disabled":false,"rental_uris":{"android":"levelo://app?vid=29938d21-b6aa-42a1-8975-95ff510350b6","ios":"levelo://app?vid=29938d21-b6aa-42a1-8975-95ff510350b6"},"vehicle_type_id":"4","last_reported":1687719930,"current_range_meters":23600,"station_id":"ce4bhnp2rcd13ifvqgvg","pricing_plan_id":"free"},{"bike_id":"096f6d3e-8bdb-4ce2-ab1e-053225ff5e15","system_id":"levelo_inurba_marseille","lat":43.23965,"lon":5.36633,"is_reserved":false,"is_disabled":false,"rental_uris":{"android":"levelo://app?vid=096f6d3e-8bdb-4ce2-ab1e-053225ff5e15","ios":"levelo://app?vid=096f6d3e-8bdb-4ce2-ab1e-053225ff5e15"},"vehicle_type_id":"4","last_reported":1687719930,"current_range_meters":28800,"station_id":"ce4bhi12rcd13ifvqfp0","pricing_plan_id":"free"},{"bike_id":"5a0598e1-95d5-4007-91f6-35f2e892475d","system_id":"levelo_inurba_marseille","lat":43.239588,"lon":5.366238,"is_reserved":false,"is_disabled":false,"rental_uris":{"android":"levelo://app?vid=5a0598e1-95d5-4007-91f6-35f2e892475d","ios":"levelo://app?vid=5a0598e1-95d5-4007-91f6-35f2e892475d"},"vehicle_type_id":"4","last_reported":1687719930,"current_range_meters":32000,"station_id":"ce4bhi12rcd13ifvqfp0","pricing_plan_id":"free"},{"bike_id":"e6bd621d-8e80-4fca-b5b9-705661443595","system_id":"levelo_inurba_marseille","lat":43.23964,"lon":5.36637,"is_reserved":false,"is_disabled":false,"rental_uris":{"android":"levelo://app?vid=e6bd621d-8e80-4fca-b5b9-705661443595","ios":"levelo://app?vid=e6bd621d-8e80-4fca-b5b9-705661443595"},"vehicle_type_id":"4","last_reported":1687719930,"current_range_meters":31200,"station_id":"ce4bhi12rcd13ifvqfp0","pricing_plan_id":"free"},{"bike_id":"fa5651df-005a-4e21-a874-064d2a082d53","system_id":"levelo_inurba_marseille","lat":43.239588,"lon":5.366238,"is_reserved":false,"is_disabled":false,"rental_uris":{"android":"levelo://app?vid=fa5651df-005a-4e21-a874-064d2a082d53","ios":"levelo://app?vid=fa5651df-005a-4e21-a874-064d2a082d53"},"vehicle_type_id":"4","last_reported":1687719930,"current_range_meters":23600,"station_id":"ce4bhi12rcd13ifvqfp0","pricing_plan_id":"free"},{"bike_id":"2c49255c-a1df-48a4-9617-cd3fee688229","system_id":"levelo_inurba_marseille","lat":43.23961,"lon":5.36623,"is_reserved":false,"is_disabled":false,"rental_uris":{"android":"levelo://app?vid=2c49255c-a1df-48a4-9617-cd3fee688229","ios":"levelo://app?vid=2c49255c-a1df-48a4-9617-cd3fee688229"},"vehicle_type_id":"4","last_reported":1687719930,"current_range_meters":31200,"station_id":"ce4bhi12rcd13ifvqfp0","pricing_plan_id":"free"},{"bike_id":"aef03910-27b8-405b-952a-bca4570b7b4d","system_id":"levelo_inurba_marseille","lat":43.2396,"lon":5.36626,"is_reserved":false,"is_disabled":false,"rental_uris":{"android":"levelo://app?vid=aef03910-27b8-405b-952a-bca4570b7b4d","ios":"levelo://app?vid=aef03910-27b8-405b-952a-bca4570b7b4d"},"vehicle_type_id":"4","last_reported":1687719930,"current_range_meters":800,"station_id":"ce4bhi12rcd13ifvqfp0","pricing_plan_id":"free"},{"bike_id":"78b50315-4aab-4e63-88c8-df365e9ea53b","system_id":"levelo_inurba_marseille","lat":43.239588,"lon":5.366238,"is_reserved":false,"is_disabled":false,"rental_uris":{"android":"levelo://app?vid=78b50315-4aab-4e63-88c8-df365e9ea53b","ios":"levelo://app?vid=78b50315-4aab-4e63-88c8-df365e9ea53b"},"vehicle_type_id":"4","last_reported":1687719930,"current_range_meters":24000,"station_id":"ce4bhi12rcd13ifvqfp0","pricing_plan_id":"free"},{"bike_id":"2f44326e-6f9f-462f-9b37-d6ca291ad05c","system_id":"levelo_inurba_marseille","lat":43.30457,"lon":5.46701,"is_reserved":false,"is_disabled":false,"rental_uris":{"android":"levelo://app?vid=2f44326e-6f9f-462f-9b37-d6ca291ad05c","ios":"levelo://app?vid=2f44326e-6f9f-462f-9b37-d6ca291ad05c"},"vehicle_type_id":"4","last_reported":1687719930,"current_range_meters":18400,"station_id":"","pricing_plan_id":"free"},{"bike_id":"6bee6cb2-c073-4aad-9a4c-a1140db5cc05","system_id":"levelo_inurba_marseille","lat":43.23283,"lon":5.35365,"is_reserved":false,"is_disabled":false,"rental_uris":{"android":"levelo://app?vid=6bee6cb2-c073-4aad-9a4c-a1140db5cc05","ios":"levelo://app?vid=6bee6cb2-c073-4aad-9a4c-a1140db5cc05"},"vehicle_type_id":"4","last_reported":1687719930,"current_range_meters":11200,"station_id":"ce4bhu92rcd13ifvqi70","pricing_plan_id":"free"},{"bike_id":"29bf83ef-a0ce-4033-a4f7-bb76e3630f0f","system_id":"levelo_inurba_marseille","lat":43.23201,"lon":5.35551,"is_reserved":false,"is_disabled":false,"rental_uris":{"android":"levelo://app?vid=29bf83ef-a0ce-4033-a4f7-bb76e3630f0f","ios":"levelo://app?vid=29bf83ef-a0ce-4033-a4f7-bb76e3630f0f"},"vehicle_type_id":"4","last_reported":1687719930,"current_range_meters":11200,"station_id":"ce4bhu92rcd13ifvqi70","pricing_plan_id":"free"},{"bike_id":"883c0fa2-7fa3-413e-bc88-c58d2d00b87f","system_id":"levelo_inurba_marseille","lat":43.23199,"lon":5.35552,"is_reserved":false,"is_disabled":false,"rental_uris":{"android":"levelo://app?vid=883c0fa2-7fa3-413e-bc88-c58d2d00b87f","ios":"levelo://app?vid=883c0fa2-7fa3-413e-bc88-c58d2d00b87f"},"vehicle_type_id":"4","last_reported":1687719930,"current_range_meters":22400,"station_id":"ce4bhu92rcd13ifvqi70","pricing_plan_id":"free"},{"bike_id":"7d8062f1-160f-4b7e-866c-d96cc04a8f66","system_id":"levelo_inurba_marseille","lat":43.23198,"lon":5.35546,"is_reserved":false,"is_disabled":false,"rental_uris":{"android":"levelo://app?vid=7d8062f1-160f-4b7e-866c-d96cc04a8f66","ios":"levelo://app?vid=7d8062f1-160f-4b7e-866c-d96cc04a8f66"},"vehicle_type_id":"4","last_reported":1687719930,"current_range_meters":21200,"station_id":"ce4bhu92rcd13ifvqi70","pricing_plan_id":"free"},{"bike_id":"48dcc5fe-60eb-4a07-be44-857dc7c36567","system_id":"levelo_inurba_marseille","lat":43.23195,"lon":5.35545,"is_reserved":false,"is_disabled":false,"rental_uris":{"android":"levelo://app?vid=48dcc5fe-60eb-4a07-be44-857dc7c36567","ios":"levelo://app?vid=48dcc5fe-60eb-4a07-be44-857dc7c36567"},"vehicle_type_id":"4","last_reported":1687719930,"current_range_meters":31600,"station_id":"ce4bhu92rcd13ifvqi70","pricing_plan_id":"free"},