{"last_updated":1774442560,"ttl":60,"version":"2.2","data":{"bikes":[{"bike_id":"b9521509-e817-4227-bd50-d1b08a5285e3","system_id":"levelo_inurba_marseille","lat":43.25089,"lon":5.39444,"is_reserved":false,"is_disabled":false,"rental_uris":{"android":"levelo://app?vid=b9521509-e817-4227-bd50-d1b08a5285e3","ios":"levelo://app?vid=b9521509-e817-4227-bd50-d1b08a5285e3"},"vehicle_type_id":"4","last_reported":1774442560,"current_range_meters":800,"station_id":"ce4bhm12rcd13ifvqgkg","pricing_plan_id":"cebpf4jnsgd1na2vs0mg"},{"bike_id":"0c591e30-255a-4baf-a77f-36566243911d","system_id":"levelo_inurba_marseille","lat":43.3203,"lon":5.41544,"is_reserved":false,"is_disabled":false,"rental_uris":{"android":"levelo://app?vid=0c591e30-255a-4baf-a77f-36566243911d","ios":"levelo://app?vid=0c591e30-255a-4baf-a77f-36566243911d"},"vehicle_type_id":"4","last_reported":1774442560,"current_range_meters":800,"station_id":"ce4bhq92rcd13ifvqhkg","pricing_plan_id":"cebpf4jnsgd1na2vs0mg"},{"bike_id":"d4fd3a3f-81ca-4aec-8d80-7f4553aced63","system_id":"levelo_inurba_marseille","lat":43.29974,"lon":5.38499,"is_reserved":false,"is_disabled":false,"rental_uris":{"android":"levelo://app?vid=d4fd3a3f-81ca-4aec-8d80-7f4553aced63","ios":"levelo://app?vid=d4fd3a3f-81ca-4aec-8d80-7f4553aced63"},"vehicle_type_id":"4","last_reported":1774442560,"current_range_meters":1600,"station_id":"ce4bgj92rcd13ifvqbd0","pricing_plan_id":"cebpf4jnsgd1na2vs0mg"},{"bike_id":"0e2f4137-e82a-401c-945f-6a1c7c098239","system_id":"levelo_inurba_marseille","lat":43.29618,"lon":5.37142,"is_reserved":false,"is_disabled":true,"rental_uris":{"android":"levelo://app?vid=0e2f4137-e82a-401c-945f-6a1c7c098239","ios":"levelo://app?vid=0e2f4137-e82a-401c-945f-6a1c7c098239"},"vehicle_type_id":"4","last_reported":1774442560,"current_range_meters":2800,"station_id":"ce4bgnh2rcd13ifvqc0g","pricing_plan_id":"cebpf4jnsgd1na2vs0mg"},{"bike_id":"b75036ac-d81d-4bfd-a9c8-a051a6ff39fe","system_id":"levelo_inurba_marseille","lat":43.28529,"lon":5.44126,"is_reserved":false,"is_disabled":false,"rental_uris":{"android":"levelo://app?vid=b75036ac-d81d-4bfd-a9c8-a051a6ff39fe","ios":"levelo://app?vid=b75036ac-d81d-4bfd-a9c8-a051a6ff39fe"},"vehicle_type_id":"4","last_reported":1774442560,"current_range_meters":2800,"station_id":"st_d3j3df2ikq2c7380ej80","pricing_plan_id":"cebpf4jnsgd1na2vs0mg"},{"bike_id":"f910acab-e234-4475-91c9-ec3fea6d1bf3","system_id":"levelo_inurba_marseille","lat":43.29893,"lon":5.43651,"is_reserved":false,"is_disabled":false,"rental_uris":{"android":"levelo://app?vid=f910acab-e234-4475-91c9-ec3fea6d1bf3","ios":"levelo://app?vid=f910acab-e234-4475-91c9-ec3fea6d1bf3"},"vehicle_type_id":"4","last_reported":1774442560,"current_range_meters":2800,"station_id":"ce4bhpp2rcd13ifvqhfg","pricing_plan_id":"cebpf4jnsgd1na2vs0mg"},{"bike_id":"384e742f-c1f9-465c-ba2c-07930ec1239d","system_id":"levelo_inurba_marseille","lat":43.28142,"lon":5.42638,"is_reserved":false,"is_disabled":false,"rental_uris":{"android":"levelo://app?vid=384e742f-c1f9-465c-ba2c-07930ec1239d","ios":"levelo://app?vid=384e742f-c1f9-465c-ba2c-07930ec1239d"},"vehicle_type_id":"4","last_reported":1774442560,"current_range_meters":2800,"station_id":"ce4bhnh2rcd13ifvqgug","pricing_plan_id":"cebpf4jnsgd1na2vs0mg"},{"bike_id":"0b786319-6d9f-4d1c-890a-5150198e272a","system_id":"levelo_inurba_marseille","lat":43.28479,"lon":5.48384,"is_reserved":false,"is_disabled":false,"rental_uris":{"android":"levelo://app?vid=0b786319-6d9f-4d1c-890a-5150198e272a","ios":"levelo://app?vid=0b786319-6d9f-4d1c-890a-5150198e272a"},"vehicle_type_id":"4","last_reported":1774442560,"current_range_meters":2800,"station_id":"st_d3svhcjqgbts73a3dn0g","pricing_plan_id":"cebpf4jnsgd1na2vs0mg"},{"bike_id":"2266a878-55bd-4b34-b840-23cc716e7b37","system_id":"levelo_inurba_marseille","lat":43.30127,"lon":5.39873,"is_reserved":false,"is_disabled":false,"rental_uris":{"android":"levelo://app?vid=2266a878-55bd-4b34-b840-23cc716e7b37","ios":"levelo://app?vid=2266a878-55bd-4b34-b840-23cc716e7b37"},"vehicle_type_id":"4","last_reported":1774442560,"current_range_meters":2800,"station_id":"ce4bh0h2rcd13ifvqd40","pricing_plan_id":"cebpf4jnsgd1na2vs0mg"},{"bike_id":"285db872-787a-4613-a1fe-da7e0b0c9ea6","system_id":"levelo_inurba_marseille","lat":43.26681,"lon":5.38255,"is_reserved":false,"is_disabled":false,"rental_uris":{"android":"levelo://app?vid=285db872-787a-4613-a1fe-da7e0b0c9ea6","ios":"levelo://app?vid=285db872-787a-4613-a1fe-da7e0b0c9ea6"},"vehicle_type_id":"4","last_reported":1774442560,"current_range_meters":2800,"station_id":"ce4bhg92rcd13ifvqf90","pricing_plan_id":"cebpf4jnsgd1na2vs0mg"},{"bike_id":"51a9cb16-8dd8-4e8d-9618-237dcd69d497","system_id":"levelo_inurba_marseille","lat":43.24924,"lon":5.40468,"is_reserved":false,"is_disabled":false,"rental_uris":{"android":"levelo://app?vid=51a9cb16-8dd8-4e8d-9618-237dcd69d497","ios":"levelo://app?vid=51a9cb16-8dd8-4e8d-9618-237dcd69d497"},"vehicle_type_id":"4","last_reported":1774442560,"current_range_meters":2800,"station_id":"st_d2ngiaodas8pm72gd1h0","pricing_plan_id":"cebpf4jnsgd1na2vs0mg"},{"bike_id":"b1ceaa1d-f7d5-4f1b-b74b-3e9a13f9efeb","system_id":"levelo_inurba_marseille","lat":43.23965,"lon":5.36625,"is_reserved":false,"is_disabled":false,"rental_uris":{"android":"levelo://app?vid=b1ceaa1d-f7d5-4f1b-b74b-3e9a13f9efeb","ios":"levelo://app?vid=b1ceaa1d-f7d5-4f1b-b74b-3e9a13f9efeb"},"vehicle_type_id":"4","last_reported":1774442560,"current_range_meters":2800,"station_id":"ce4bhi12rcd13ifvqfp0","pricing_plan_id":"cebpf4jnsgd1na2vs0mg"},{"bike_id":"8e331d09-f777-47e4-a327-164db2e188a9","system_id":"levelo_inurba_marseille","lat":43.26563,"lon":5.40318,"is_reserved":false,"is_disabled":true,"rental_uris":{"android":"levelo://app?vid=8e331d09-f777-47e4-a327-164db2e188a9","ios":"levelo://app?vid=8e331d09-f777-47e4-a327-164db2e188a9"},"vehicle_type_id":"4","last_reported":1774442560,"current_range_meters":3200,"station_id":"ce4bhmp2rcd13ifvqgng","pricing_plan_id":"cebpf4jnsgd1na2vs0mg"},{"bike_id":"5a13ff06-47c5-48f2-99ab-b375156754c4","system_id":"levelo_inurba_marseille","lat":43.31497,"lon":5.37322,"is_reserved":false,"is_disabled":false,"rental_uris":{"android":"levelo://app?vid=5a13ff06-47c5-48f2-99ab-b375156754c4","ios":"levelo://app?vid=5a13ff06-47c5-48f2-99ab-b375156754c4"},"vehicle_type_id":"4","last_reported":1774442560,"current_range_meters":3200,"station_id":"ce4bgt12rcd13ifvqcd0","pricing_plan_id":"cebpf4jnsgd1na2vs0mg"},{"bike_id":"b40d36d1-15d3-4622-a8c3-130ac453326e","system_id":"levelo_inurba_marseille","lat":43.31322,"lon":5.39698,"is_reserved":false,"is_disabled":false,"rental_uris":{"android":"levelo://app?vid=b40d36d1-15d3-4622-a8c3-130ac453326e","ios":"levelo://app?vid=b40d36d1-15d3-4622-a8c3-130ac453326e"},"vehicle_type_id":"4","last_reported":1774442560,"current_range_meters":3200,"station_id":"ce4bgvp2rcd13ifvqcu0","pricing_plan_id":"cebpf4jnsgd1na2vs0mg"},{"bike_id":"1a8af75b-8ae8-4c53-8767-ea71c476ad8c","system_id":"levelo_inurba_marseille","lat":43.26227,"lon":5.40448,"is_reserved":false,"is_disabled":false,"rental_uris":{"android":"levelo://app?vid=1a8af75b-8ae8-4c53-8767-ea71c476ad8c","ios":"levelo://app?vid=1a8af75b-8ae8-4c53-8767-ea71c476ad8c"},"vehicle_type_id":"4","last_reported":1774442560,"current_range_meters":3200,"station_id":"ce4bhmh2rcd13ifvqgmg","pricing_plan_id":"cebpf4jnsgd1na2vs0mg"},{"bike_id":"f35a9644-f102-427c-8b00-579a35988db3","system_id":"levelo_inurba_marseille","lat":43.21212,"lon":5.35055,"is_reserved":false,"is_disabled":false,"rental_uris":{"android":"levelo://app?vid=f35a9644-f102-427c-8b00-579a35988db3","ios":"levelo://app?vid=f35a9644-f102-427c-8b00-579a35988db3"},"vehicle_type_id":"4","last_reported":1774442560,"current_range_meters":3200,"station_id":"st_cvj6sg6p6f1abm77japg","pricing_plan_id":"cebpf4jnsgd1na2vs0mg"},{"bike_id":"7e03e45c-d69c-4371-8267-aa26cde43729","system_id":"levelo_inurba_marseille","lat":43.25579,"lon":5.38215,"is_reserved":false,"is_disabled":false,"rental_uris":{"android":"levelo://app?vid=7e03e45c-d69c-4371-8267-aa26cde43729","ios":"levelo://app?vid=7e03e45c-d69c-4371-8267-aa26cde43729"},"vehicle_type_id":"4","last_reported":1774442560,"current_range_meters":3200,"station_id":"ce4bhih2rcd13ifvqfs0","pricing_plan_id":"cebpf4jnsgd1na2vs0mg"},{"bike_id":"ecac7f57-3a00-4a35-b61b-60114a326a1f","system_id":"levelo_inurba_marseille","lat":43.3095,"lon":5.39024,"is_reserved":false,"is_disabled":false,"rental_uris":{"android":"levelo://app?vid=ecac7f57-3a00-4a35-b61b-60114a326a1f","ios":"levelo://app?vid=ecac7f57-3a00-4a35-b61b-60114a326a1f"},"vehicle_type_id":"4","last_reported":1774442560,"current_range_meters":3200,"station_id":"ce4bgup2rcd13ifvqco0","pricing_plan_id":"cebpf4jnsgd1na2vs0mg"},{"bike_id":"066cfe81-714d-4a28-ba8d-e13baf5bbb1b","system_id":"levelo_inurba_marseille","lat":43.27266,"lon":5.41147,"is_reserved":false,"is_disabled":false,"rental_uris":{"android":"levelo://app?vid=066cfe81-714d-4a28-ba8d-e13baf5bbb1b","ios":"levelo://app?vid=066cfe81-714d-4a28-ba8d-e13baf5bbb1b"},"vehicle_type_id":"4","last_reported":1774442560,"current_range_meters":3600,"station_id":"","pricing_plan_id":"cebpf4jnsgd1na2vs0mg"},{"bike_id":"d23d3cfb-104c-45fb-a823-7e84977a715b","system_id":"levelo_inurba_marseille","lat":43.21197,"lon":5.35071,"is_reserved":false,"is_disabled":false,"rental_uris":{"android":"levelo://app?vid=d23d3cfb-104c-45fb-a823-7e84977a715b","ios":"levelo://app?vid=d23d3cfb-104c-45fb-a823-7e84977a715b"},"vehicle_type_id":"4","last_reported":1774442560,"current_range_meters":3600,"station_id":"st_cvj6sg6p6f1abm77japg","pricing_plan_id":"cebpf4jnsgd1na2vs0mg"},{"bike_id":"40c920b0-3115-4e08-b984-151d6f1c7702","system_id":"levelo_inurba_marseille","lat":43.24169,"lon":5.39708,"is_reserved":false,"is_disabled":false,"rental_uris":{"android":"levelo://app?vid=40c920b0-3115-4e08-b984-151d6f1c7702","ios":"levelo://app?vid=40c920b0-3115-4e08-b984-151d6f1c7702"},"vehicle_type_id":"4","last_reported":1774442560,"current_range_meters":3600,"station_id":"ce4bhn12rcd13ifvqgpg","pricing_plan_id":"cebpf4jnsgd1na2vs0mg"},{"bike_id":"3eede537-8f14-4702-94fd-4e909859f66d","system_id":"levelo_inurba_marseille","lat":43.29714,"lon":5.36603,"is_reserved":false,"is_disabled":false,"rental_uris":{"android":"levelo://app?vid=3eede537-8f14-4702-94fd-4e909859f66d","ios":"levelo://app?vid=3eede537-8f14-4702-94fd-4e909859f66d"},"vehicle_type_id":"4","last_reported":1774442560,"current_range_meters":3600,"station_id":"ce4bgn12rcd13ifvqbt0","pricing_plan_id":"cebpf4jnsgd1na2vs0mg"},{"bike_id":"fe332a28-7761-474f-ad2d-b84cd0257740","system_id":"levelo_inurba_marseille","lat":43.23793,"lon":5.36627,"is_reserved":false,"is_disabled":false,"rental_uris":{"android":"levelo://app?vid=fe332a28-7761-474f-ad2d-b84cd0257740","ios":"levelo://app?vid=fe332a28-7761-474f-ad2d-b84cd0257740"},"vehicle_type_id":"4","last_reported":1774442560,"current_range_meters":4000,"station_id":"st_d3nk18o9ro0c73en2l3g","pricing_plan_id":"cebpf4jnsgd1na2vs0mg"},{"bike_id":"fb4ec991-9d76-4e41-ad50-4c06fec4a6b5","system_id":"levelo_inurba_marseille","lat":43.31364,"lon":5.36704,"is_reserved":false,"is_disabled":false,"rental_uris":{"android":"levelo://app?vid=fb4ec991-9d76-4e41-ad50-4c06fec4a6b5","ios":"levelo://app?vid=fb4ec991-9d76-4e41-ad50-4c06fec4a6b5"},"vehicle_type_id":"4","last_reported":1774442560,"current_range_meters":4000,"station_id":"ce4bgr92rcd13ifvqc6g","pricing_plan_id":"cebpf4jnsgd1na2vs0mg"},{"bike_id":"e51f3b8f-2277-4636-88c7-d4fed1c89dba","system_id":"levelo_inurba_marseille","lat":43.29857,"lon":5.40935,"is_reserved":false,"is_disabled":false,"rental_uris":{"android":"levelo://app?vid=e51f3b8f-2277-4636-88c7-d4fed1c89dba","ios":"levelo://app?vid=e51f3b8f-2277-4636-88c7-d4fed1c89dba"},"vehicle_type_id":"4","last_reported":1774442560,"current_range_meters":4000,"station_id":"","pricing_plan_id":"cebpf4jnsgd1na2vs0mg"},{"bike_id":"097ca7c5-a8a8-4ab5-8beb-e98c021eabd2","system_id":"levelo_inurba_marseille","lat":43.3416,"lon":5.40897,"is_reserved":false,"is_disabled":false,"rental_uris":{"android":"levelo://app?vid=097ca7c5-a8a8-4ab5-8beb-e98c021eabd2","ios":"levelo://app?vid=097ca7c5-a8a8-4ab5-8beb-e98c021eabd2"},"vehicle_type_id":"4","last_reported":1774442560,"current_range_meters":4000,"station_id":"ce4bhqh2rcd13ifvqhlg","pricing_plan_id":"cebpf4jnsgd1na2vs0mg"},{"bike_id":"83d4f062-062c-4399-87b2-c5e559e5fa56","system_id":"levelo_inurba_marseille","lat":43.2994,"lon":5.36557,"is_reserved":false,"is_disabled":false,"rental_uris":{"android":"levelo://app?vid=83d4f062-062c-4399-87b2-c5e559e5fa56","ios":"levelo://app?vid=83d4f062-062c-4399-87b2-c5e559e5fa56"},"vehicle_type_id":"4","last_reported":1774442560,"current_range_meters":4000,"station_id":"ce4bgm92rcd13ifvqbr0","pricing_plan_id":"cebpf4jnsgd1na2vs0mg"},{"bike_id":"e94d83da-a52c-4009-83db-8b37093608a6","system_id":"levelo_inurba_marseille","lat":43.2259,"lon":5.41645,"is_reserved":false,"is_disabled":false,"rental_uris":{"android":"levelo://app?vid=e94d83da-a52c-4009-83db-8b37093608a6","ios":"levelo://app?vid=e94d83da-a52c-4009-83db-8b37093608a6"},"vehicle_type_id":"4","last_reported":1774442560,"current_range_meters":4000,"station_id":"st_d2o4gvlbi1j2169b742g","pricing_plan_id":"cebpf4jnsgd1na2vs0mg"},{"bike_id":"77e54dbf-e569-4165-8189-ea8e960381a0","system_id":"levelo_inurba_marseille","lat":43.279,"lon":5.38016,"is_reserved":false,"is_disabled":false,"rental_uris":{"android":"levelo://app?vid=77e54dbf-e569-4165-8189-ea8e960381a0","ios":"levelo://app?vid=77e54dbf-e569-4165-8189-ea8e960381a0"},"vehicle_type_id":"4","last_reported":1774442560,"current_range_meters":4000,"station_id":"ce4bhf92rcd13ifvqf50","pricing_plan_id":"cebpf4jnsgd1na2vs0mg"},{"bike_id":"ba1e580e-2080-4d73-a63b-c42fbb3f0b26","system_id":"levelo_inurba_marseille","lat":43.2316,"lon":5.43694,"is_reserved":false,"is_disabled":false,"rental_uris":{"android":"levelo://app?vid=ba1e580e-2080-4d73-a63b-c42fbb3f0b26","ios":"levelo://app?vid=ba1e580e-2080-4d73-a63b-c42fbb3f0b26"},"vehicle_type_id":"4","last_reported":1774442560,"current_range_meters":4000,"station_id":"ce4bhmp2rcd13ifvqgog","pricing_plan_id":"cebpf4jnsgd1na2vs0mg"},{"bike_id":"0c905920-39a3-4df9-a2cd-efad93fa0b7e","system_id":"levelo_inurba_marseille","lat":43.28705,"lon":5.46675,"is_reserved":false,"is_disabled":false,"rental_uris":{"android":"levelo://app?vid=0c905920-39a3-4df9-a2cd-efad93fa0b7e","ios":"levelo://app?vid=0c905920-39a3-4df9-a2cd-efad93fa0b7e"},"vehicle_type_id":"4","last_reported":1774442560,"current_range_meters":4000,"station_id":"st_d6tc3vkotcvc738tfjhg","pricing_plan_id":"cebpf4jnsgd1na2vs0mg"},{"bike_id":"69c7dedb-e831-42c1-9502-923d17edb3d6","system_id":"levelo_inurba_marseille","lat":43.31021,"lon":5.37156,"is_reserved":false,"is_disabled":false,"rental_uris":{"android":"levelo://app?vid=69c7dedb-e831-42c1-9502-923d17edb3d6","ios":"levelo://app?vid=69c7dedb-e831-42c1-9502-923d17edb3d6"},"vehicle_type_id":"4","last_reported":1774442560,"current_range_meters":4400,"station_id":"st_d4kl2rp97mjs73e7tdfg","pricing_plan_id":"cebpf4jnsgd1na2vs0mg"},{"bike_id":"f2522a16-8fa2-4104-b60c-00156d54dbd6","system_id":"levelo_inurba_marseille","lat":43.23804,"lon":5.36626,"is_reserved":false,"is_disabled":false,"rental_uris":{"android":"levelo://app?vid=f2522a16-8fa2-4104-b60c-00156d54dbd6","ios":"levelo://app?vid=f2522a16-8fa2-4104-b60c-00156d54dbd6"},"vehicle_type_id":"4","last_reported":1774442560,"current_range_meters":4400,"station_id":"st_d3nk18o9ro0c73en2l3g","pricing_plan_id":"cebpf4jnsgd1na2vs0mg"},{"bike_id":"f7e664bc-8cfe-465d-9dbe-128ca982aa9c","system_id":"levelo_inurba_marseille","lat":43.25015,"lon":5.38934,"is_reserved":false,"is_disabled":false,"rental_uris":{"android":"levelo://app?vid=f7e664bc-8cfe-465d-9dbe-128ca982aa9c","ios":"levelo://app?vid=f7e664bc-8cfe-465d-9dbe-128ca982aa9c"},"vehicle_type_id":"4","last_reported":1774442560,"current_range_meters":4400,"station_id":"ce4bhgp2rcd13ifvqfd0","pricing_plan_id":"cebpf4jnsgd1na2vs0mg"},{"bike_id":"a21ce08b-748e-41eb-aca5-e1a217e075d0","system_id":"levelo_inurba_marseille","lat":43.23161,"lon":5.43704,"is_reserved":false,"is_disabled":false,"rental_uris":{"android":"levelo://app?vid=a21ce08b-748e-41eb-aca5-e1a217e075d0","ios":"levelo://app?vid=a21ce08b-748e-41eb-aca5-e1a217e075d0"},"vehicle_type_id":"4","last_reported":1774442560,"current_range_meters":4400,"station_id":"ce4bhmp2rcd13ifvqgog","pricing_plan_id":"cebpf4jnsgd1na2vs0mg"},{"bike_id":"a0bc69c2-2de5-4440-9888-f224ddcc9078","system_id":"levelo_inurba_marseille","lat":43.2668,"lon":5.38254,"is_reserved":false,"is_disabled":false,"rental_uris":{"android":"levelo://app?vid=a0bc69c2-2de5-4440-9888-f224ddcc9078","ios":"levelo://app?vid=a0bc69c2-2de5-4440-9888-f224ddcc9078"},"vehicle_type_id":"4","last_reported":1774442560,"current_range_meters":4400,"station_id":"ce4bhg92rcd13ifvqf90","pricing_plan_id":"cebpf4jnsgd1na2vs0mg"},{"bike_id":"5436ae21-40b7-42d7-b176-db2ddf8cc4ab","system_id":"levelo_inurba_marseille","lat":43.23142,"lon":5.43706,"is_reserved":false,"is_disabled":false,"rental_uris":{"android":"levelo://app?vid=5436ae21-40b7-42d7-b176-db2ddf8cc4ab","ios":"levelo://app?vid=5436ae21-40b7-42d7-b176-db2ddf8cc4ab"},"vehicle_type_id":"4","last_reported":1774442560,"current_range_meters":4400,"station_id":"ce4bhmp2rcd13ifvqgog","pricing_plan_id":"cebpf4jnsgd1na2vs0mg"},{"bike_id":"2a772c19-d7d7-411b-97b5-2da7b5dc6a66","system_id":"levelo_inurba_marseille","lat":43.30169,"lon":5.38076,"is_reserved":false,"is_disabled":false,"rental_uris":{"android":"levelo://app?vid=2a772c19-d7d7-411b-97b5-2da7b5dc6a66","ios":"levelo://app?vid=2a772c19-d7d7-411b-97b5-2da7b5dc6a66"},"vehicle_type_id":"4","last_reported":1774442560,"current_range_meters":4400,"station_id":"ce4bgjp2rcd13ifvqbh0","pricing_plan_id":"cebpf4jnsgd1na2vs0mg"},{"bike_id":"6711ca2b-9a4e-46b1-892e-1007cc2a656e","system_id":"levelo_inurba_marseille","lat":43.2856,"lon":5.44133,"is_reserved":false,"is_disabled":false,"rental_uris":{"android":"levelo://app?vid=6711ca2b-9a4e-46b1-892e-1007cc2a656e","ios":"levelo://app?vid=6711ca2b-9a4e-46b1-892e-1007cc2a656e"},"vehicle_type_id":"4","last_reported":1774442560,"current_range_meters":4400,"station_id":"st_d3j3df2ikq2c7380ej80","pricing_plan_id":"cebpf4jnsgd1na2vs0mg"},{"bike_id":"cbe143e8-3e8d-46c8-8239-3389a4661d28","system_id":"levelo_inurba_marseille","lat":43.30298,"lon":5.36905,"is_reserved":false,"is_disabled":false,"rental_uris":{"android":"levelo://app?vid=cbe143e8-3e8d-46c8-8239-3389a4661d28","ios":"levelo://app?vid=cbe143e8-3e8d-46c8-8239-3389a4661d28"},"vehicle_type_id":"4","last_reported":1774442560,"current_range_meters":4400,"station_id":"ce4bgqh2rcd13ifvqc5g","pricing_plan_id":"cebpf4jnsgd1na2vs0mg"},{"bike_id":"70214f46-b448-478a-8e3a-0a5578a95784","system_id":"levelo_inurba_marseille","lat":43.31625,"lon":5.39332,"is_reserved":false,"is_disabled":false,"rental_uris":{"android":"levelo://app?vid=70214f46-b448-478a-8e3a-0a5578a95784","ios":"levelo://app?vid=70214f46-b448-478a-8e3a-0a5578a95784"},"vehicle_type_id":"4","last_reported":1774442560,"current_range_meters":4400,"station_id":"","pricing_plan_id":"cebpf4jnsgd1na2vs0mg"},{"bike_id":"76d67dcd-ff47-49e9-b2cd-6c2e7176615e","system_id":"levelo_inurba_marseille","lat":43.26044,"lon":5.37511,"is_reserved":false,"is_disabled":false,"rental_uris":{"android":"levelo://app?vid=76d67dcd-ff47-49e9-b2cd-6c2e7176615e","ios":"levelo://app?vid=76d67dcd-ff47-49e9-b2cd-6c2e7176615e"},"vehicle_type_id":"4","last_reported":1774442560,"current_range_meters":4800,"station_id":"ce4bhgh2rcd13ifvqfa0","pricing_plan_id":"cebpf4jnsgd1na2vs0mg"},{"bike_id":"83732a6c-ebed-473c-9b13-eb7d63194259","system_id":"levelo_inurba_marseille","lat":43.21202,"lon":5.35074,"is_reserved":false,"is_disabled":false,"rental_uris":{"android":"levelo://app?vid=83732a6c-ebed-473c-9b13-eb7d63194259","ios":"levelo://app?vid=83732a6c-ebed-473c-9b13-eb7d63194259"},"vehicle_type_id":"4","last_reported":1774442560,"current_range_meters":4800,"station_id":"st_cvj6sg6p6f1abm77japg","pricing_plan_id":"cebpf4jnsgd1na2vs0mg"},{"bike_id":"445a363e-6635-4c6f-9d9b-6ed1d223c4e8","system_id":"levelo_inurba_marseille","lat":43.29559,"lon":5.43893,"is_reserved":false,"is_disabled":false,"rental_uris":{"android":"levelo://app?vid=445a363e-6635-4c6f-9d9b-6ed1d223c4e8","ios":"levelo://app?vid=445a363e-6635-4c6f-9d9b-6ed1d223c4e8"},"vehicle_type_id":"4","last_reported":1774442560,"current_range_meters":4800,"station_id":"","pricing_plan_id":"cebpf4jnsgd1na2vs0mg"},{"bike_id":"3d0236ca-aef4-4966-9dcb-08a2cba2f7d7","system_id":"levelo_inurba_marseille","lat":43.28409,"lon":5.34982,"is_reserved":false,"is_disabled":false,"rental_uris":{"android":"levelo://app?vid=3d0236ca-aef4-4966-9dcb-08a2cba2f7d7","ios":"levelo://app?vid=3d0236ca-aef4-4966-9dcb-08a2cba2f7d7"},"vehicle_type_id":"4","last_reported":1774442560,"current_range_meters":4800,"station_id":"ce4bhbh2rcd13ifvqepg","pricing_plan_id":"cebpf4jnsgd1na2vs0mg"},{"bike_id":"c0b689e5-350b-4835-a209-95a8604ec264","system_id":"levelo_inurba_marseille","lat":43.27433,"lon":5.39387,"is_reserved":false,"is_disabled":true,"rental_uris":{"android":"levelo://app?vid=c0b689e5-350b-4835-a209-95a8604ec264","ios":"levelo://app?vid=c0b689e5-350b-4835-a209-95a8604ec264"},"vehicle_type_id":"4","last_reported":1774442560,"current_range_meters":4800,"station_id":"ce4bhdp2rcd13ifvqf20","pricing_plan_id":"cebpf4jnsgd1na2vs0mg"},{"bike_id":"8ba21890-7d18-4d86-9267-31e7661dcb9b","system_id":"levelo_inurba_marseille","lat":43.27075,"lon":5.42273,"is_reserved":false,"is_disabled":false,"rental_uris":{"android":"levelo://app?vid=8ba21890-7d18-4d86-9267-31e7661dcb9b","ios":"levelo://app?vid=8ba21890-7d18-4d86-9267-31e7661dcb9b"},"vehicle_type_id":"4","last_reported":1774442560,"current_range_meters":4800,"station_id":"ce4bhk92rcd13ifvqgb0","pricing_plan_id":"cebpf4jnsgd1na2vs0mg"},{"bike_id":"13246d42-dfa9-4ae8-a810-27d7f22f60a2","system_id":"levelo_inurba_marseille","lat":43.26561,"lon":5.40323,"is_reserved":false,"is_disabled":false,"rental_uris":{"android":"levelo://app?vid=13246d42-dfa9-4ae8-a810-27d7f22f60a2","ios":"levelo://app?vid=13246d42-dfa9-4ae8-a810-27d7f22f60a2"},"vehicle_type_id":"4","last_reported":1774442560,"current_range_meters":4800,"station_id":"ce4bhmp2rcd13ifvqgng","pricing_plan_id":"cebpf4jnsgd1na2vs0mg"},{"bike_id":"228402be-089a-417c-b1f4-6f6fe2b8057c","system_id":"levelo_inurba_marseille","lat":43.304215,"lon":5.412864,"is_reserved":false,"is_disabled":false,"rental_uris":{"android":"levelo://app?vid=228402be-089a-417c-b1f4-6f6fe2b8057c","ios":"levelo://app?vid=228402be-089a-417c-b1f4-6f6fe2b8057c"},"vehicle_type_id":"4","last_reported":1774442560,"current_range_meters":4800,"station_id":"ce4bhop2rcd13ifvqh8g","pricing_plan_id":"cebpf4jnsgd1na2vs0mg"},{"bike_id":"31d0e8d1-41ca-49bc-b101-6f54248861c2","system_id":"levelo_inurba_marseille","lat":43.2119,"lon":5.35072,"is_reserved":false,"is_disabled":false,"rental_uris":{"android":"levelo://app?vid=31d0e8d1-41ca-49bc-b101-6f54248861c2","ios":"levelo://app?vid=31d0e8d1-41ca-49bc-b101-6f54248861c2"},"vehicle_type_id":"4","last_reported":1774442560,"current_range_meters":4800,"station_id":"st_cvj6sg6p6f1abm77japg","pricing_plan_id":"cebpf4jnsgd1na2vs0mg"},{"bike_id":"b5b7d44f-1f81-483b-9db2-a49ebf17a02c","system_id":"levelo_inurba_marseille","lat":43.28617,"lon":5.35111,"is_reserved":false,"is_disabled":false,"rental_uris":{"android":"levelo://app?vid=b5b7d44f-1f81-483b-9db2-a49ebf17a02c","ios":"levelo://app?vid=b5b7d44f-1f81-483b-9db2-a49ebf17a02c"},"vehicle_type_id":"4","last_reported":1774442560,"current_range_meters":4800,"station_id":"ce4bhch2rcd13ifvqeug","pricing_plan_id":"cebpf4jnsgd1na2vs0mg"},{"bike_id":"5f75fc59-ca0f-4412-acdb-852e0b310194","system_id":"levelo_inurba_marseille","lat":43.23156,"lon":5.43702,"is_reserved":false,"is_disabled":false,"rental_uris":{"android":"levelo://app?vid=5f75fc59-ca0f-4412-acdb-852e0b310194","ios":"levelo://app?vid=5f75fc59-ca0f-4412-acdb-852e0b310194"},"vehicle_type_id":"4","last_reported":1774442560,"current_range_meters":4800,"station_id":"ce4bhmp2rcd13ifvqgog","pricing_plan_id":"cebpf4jnsgd1na2vs0mg"},{"bike_id":"941414dd-dc52-42e3-93e6-3d18fbeb8045","system_id":"levelo_inurba_marseille","lat":43.27911,"lon":5.39565,"is_reserved":false,"is_disabled":false,"rental_uris":{"android":"levelo://app?vid=941414dd-dc52-42e3-93e6-3d18fbeb8045","ios":"levelo://app?vid=941414dd-dc52-42e3-93e6-3d18fbeb8045"},"vehicle_type_id":"4","last_reported":1774442560,"current_range_meters":4800,"station_id":"ce4bhf92rcd13ifvqf40","pricing_plan_id":"cebpf4jnsgd1na2vs0mg"},{"bike_id":"1bfe3958-2503-48b6-bc3f-6b6785e2e225","system_id":"levelo_inurba_marseille","lat":43.296454,"lon":5.375145,"is_reserved":false,"is_disabled":true,"rental_uris":{"android":"levelo://app?vid=1bfe3958-2503-48b6-bc3f-6b6785e2e225","ios":"levelo://app?vid=1bfe3958-2503-48b6-bc3f-6b6785e2e225"},"vehicle_type_id":"4","last_reported":1774442560,"current_range_meters":4800,"station_id":"ce4bhap2rcd13ifvqek0","pricing_plan_id":"cebpf4jnsgd1na2vs0mg"},{"bike_id":"13639e07-2b1d-4da9-8f46-07bec979ccd4","system_id":"levelo_inurba_marseille","lat":43.25332,"lon":5.42166,"is_reserved":false,"is_disabled":false,"rental_uris":{"android":"levelo://app?vid=13639e07-2b1d-4da9-8f46-07bec979ccd4","ios":"levelo://app?vid=13639e07-2b1d-4da9-8f46-07bec979ccd4"},"vehicle_type_id":"4","last_reported":1774442560,"current_range_meters":4800,"station_id":"st_d2m65c5bi1j21697t3ng","pricing_plan_id":"cebpf4jnsgd1na2vs0mg"},{"bike_id":"43ae41ff-509f-477c-87aa-a6f2333b7925","system_id":"levelo_inurba_marseille","lat":43.2992,"lon":5.37459,"is_reserved":false,"is_disabled":true,"rental_uris":{"android":"levelo://app?vid=43ae41ff-509f-477c-87aa-a6f2333b7925","ios":"levelo://app?vid=43ae41ff-509f-477c-87aa-a6f2333b7925"},"vehicle_type_id":"4","last_reported":1774442560,"current_range_meters":5600,"station_id":"ce4bgjh2rcd13ifvqbg0","pricing_plan_id":"cebpf4jnsgd1na2vs0mg"},{"bike_id":"50055c2d-efc8-4fb1-ab35-a0bbc75043c6","system_id":"levelo_inurba_marseille","lat":43.29016,"lon":5.40025,"is_reserved":false,"is_disabled":false,"rental_uris":{"android":"levelo://app?vid=50055c2d-efc8-4fb1-ab35-a0bbc75043c6","ios":"levelo://app?vid=50055c2d-efc8-4fb1-ab35-a0bbc75043c6"},"vehicle_type_id":"4","last_reported":1774442560,"current_range_meters":5600,"station_id":"","pricing_plan_id":"cebpf4jnsgd1na2vs0mg"},{"bike_id":"22a24422-8367-44e3-afc2-fd1672c2c7f5","system_id":"levelo_inurba_marseille","lat":43.28484,"lon":5.48378,"is_reserved":false,"is_disabled":false,"rental_uris":{"android":"levelo://app?vid=22a24422-8367-44e3-afc2-fd1672c2c7f5","ios":"levelo://app?vid=22a24422-8367-44e3-afc2-fd1672c2c7f5"},"vehicle_type_id":"4","last_reported":1774442560,"current_range_meters":5600,"station_id":"","pricing_plan_id":"cebpf4jnsgd1na2vs0mg"},{"bike_id":"34d17ae1-9016-4873-89d8-39e8193d5893","system_id":"levelo_inurba_marseille","lat":43.28434,"lon":5.39201,"is_reserved":false,"is_disabled":true,"rental_uris":{"android":"levelo://app?vid=34d17ae1-9016-4873-89d8-39e8193d5893","ios":"levelo://app?vid=34d17ae1-9016-4873-89d8-39e8193d5893"},"vehicle_type_id":"4","last_reported":1774442560,"current_range_meters":5600,"station_id":"ce4bhoh2rcd13ifvqh5g","pricing_plan_id":"cebpf4jnsgd1na2vs0mg"},{"bike_id":"8c31f052-9a00-43a1-8244-3f7ffe5b3626","system_id":"levelo_inurba_marseille","lat":43.26221,"lon":5.40453,"is_reserved":false,"is_disabled":true,"rental_uris":{"android":"levelo://app?vid=8c31f052-9a00-43a1-8244-3f7ffe5b3626","ios":"levelo://app?vid=8c31f052-9a00-43a1-8244-3f7ffe5b3626"},"vehicle_type_id":"4","last_reported":1774442560,"current_range_meters":5600,"station_id":"","pricing_plan_id":"cebpf4jnsgd1na2vs0mg"},{"bike_id":"d6cedfd7-f851-4154-be58-5e7ef2f2c136","system_id":"levelo_inurba_marseille","lat":43.24941,"lon":5.40499,"is_reserved":false,"is_disabled":false,"rental_uris":{"android":"levelo://app?vid=d6cedfd7-f851-4154-be58-5e7ef2f2c136","ios":"levelo://app?vid=d6cedfd7-f851-4154-be58-5e7ef2f2c136"},"vehicle_type_id":"4","last_reported":1774442560,"current_range_meters":5600,"station_id":"st_d2ngiaodas8pm72gd1h0","pricing_plan_id":"cebpf4jnsgd1na2vs0mg"},{"bike_id":"9839e34a-0748-4f52-b4a2-fd1d07da9b94","system_id":"levelo_inurba_marseille","lat":43.27352,"lon":5.39084,"is_reserved":false,"is_disabled":false,"rental_uris":{"android":"levelo://app?vid=9839e34a-0748-4f52-b4a2-fd1d07da9b94","ios":"levelo://app?vid=9839e34a-0748-4f52-b4a2-fd1d07da9b94"},"vehicle_type_id":"4","last_reported":1774442560,"current_range_meters":5600,"station_id":"ce4bhgp2rcd13ifvqfe0","pricing_plan_id":"cebpf4jnsgd1na2vs0mg"},{"bike_id":"f9035f2c-b99c-4b0b-ae04-564b48f5f1b1","system_id":"levelo_inurba_marseille","lat":43.21185,"lon":5.3507,"is_reserved":false,"is_disabled":false,"rental_uris":{"android":"levelo://app?vid=f9035f2c-b99c-4b0b-ae04-564b48f5f1b1","ios":"levelo://app?vid=f9035f2c-b99c-4b0b-ae04-564b48f5f1b1"},"vehicle_type_id":"4","last_reported":1774442560,"current_range_meters":5600,"station_id":"st_cvj6sg6p6f1abm77japg","pricing_plan_id":"cebpf4jnsgd1na2vs0mg"},{"bike_id":"9ca4b1da-0df4-426d-b237-eed2d4351450","system_id":"levelo_inurba_marseille","lat":43.23195,"lon":5.39965,"is_reserved":false,"is_disabled":false,"rental_uris":{"android":"levelo://app?vid=9ca4b1da-0df4-426d-b237-eed2d4351450","ios":"levelo://app?vid=9ca4b1da-0df4-426d-b237-eed2d4351450"},"vehicle_type_id":"4","last_reported":1774442560,"current_range_meters":5600,"station_id":"ce4bhn12rcd13ifvqgqg","pricing_plan_id":"cebpf4jnsgd1na2vs0mg"},{"bike_id":"a925be4f-af4d-4c6c-804d-cf6aef5dd66c","system_id":"levelo_inurba_marseille","lat":43.31104,"lon":5.37812,"is_reserved":false,"is_disabled":false,"rental_uris":{"android":"levelo://app?vid=a925be4f-af4d-4c6c-804d-cf6aef5dd66c","ios":"levelo://app?vid=a925be4f-af4d-4c6c-804d-cf6aef5dd66c"},"vehicle_type_id":"4","last_reported":1774442560,"current_range_meters":6000,"station_id":"ce4bgt92rcd13ifvqcg0","pricing_plan_id":"cebpf4jnsgd1na2vs0mg"},{"bike_id":"eb066547-bfa0-411c-a0d2-e4752b8d93d2","system_id":"levelo_inurba_marseille","lat":43.23159,"lon":5.43721,"is_reserved":false,"is_disabled":false,"rental_uris":{"android":"levelo://app?vid=eb066547-bfa0-411c-a0d2-e4752b8d93d2","ios":"levelo://app?vid=eb066547-bfa0-411c-a0d2-e4752b8d93d2"},"vehicle_type_id":"4","last_reported":1774442560,"current_range_meters":6000,"station_id":"ce4bhmp2rcd13ifvqgog","pricing_plan_id":"cebpf4jnsgd1na2vs0mg"},{"bike_id":"a4dcf628-2c33-4464-82ad-f178ae637008","system_id":"levelo_inurba_marseille","lat":43.29809,"lon":5.44071,"is_reserved":false,"is_disabled":false,"rental_uris":{"android":"levelo://app?vid=a4dcf628-2c33-4464-82ad-f178ae637008","ios":"levelo://app?vid=a4dcf628-2c33-4464-82ad-f178ae637008"},"vehicle_type_id":"4","last_reported":1774442560,"current_range_meters":6000,"station_id":"st_d3jp68qikq2c7381ktn0","pricing_plan_id":"cebpf4jnsgd1na2vs0mg"},{"bike_id":"3891e9fa-ce7d-4dd0-b7da-8c45ad7bb804","system_id":"levelo_inurba_marseille","lat":43.272,"lon":5.40989,"is_reserved":false,"is_disabled":false,"rental_uris":{"android":"levelo://app?vid=3891e9fa-ce7d-4dd0-b7da-8c45ad7bb804","ios":"levelo://app?vid=3891e9fa-ce7d-4dd0-b7da-8c45ad7bb804"},"vehicle_type_id":"4","last_reported":1774442560,"current_range_meters":6000,"station_id":"ce4bhl12rcd13ifvqgf0","pricing_plan_id":"cebpf4jnsgd1na2vs0mg"},{"bike_id":"f4e12de3-12ee-449c-bb7b-82b4b799a0fa","system_id":"levelo_inurba_marseille","lat":43.246511,"lon":5.388933,"is_reserved":false,"is_disabled":true,"rental_uris":{"android":"levelo://app?vid=f4e12de3-12ee-449c-bb7b-82b4b799a0fa","ios":"levelo://app?vid=f4e12de3-12ee-449c-bb7b-82b4b799a0fa"},"vehicle_type_id":"4","last_reported":1774442560,"current_range_meters":6400,"station_id":"ce4bgg92rcd13ifvqb30","pricing_plan_id":"cebpf4jnsgd1na2vs0mg"},{"bike_id":"293b39fc-2cbf-4a18-a28a-b59332b7e28c","system_id":"levelo_inurba_marseille","lat":43.29878,"lon":5.38921,"is_reserved":false,"is_disabled":false,"rental_uris":{"android":"levelo://app?vid=293b39fc-2cbf-4a18-a28a-b59332b7e28c","ios":"levelo://app?vid=293b39fc-2cbf-4a18-a28a-b59332b7e28c"},"vehicle_type_id":"4","last_reported":1774442560,"current_range_meters":6400,"station_id":"ce4bh392rcd13ifvqdl0","pricing_plan_id":"cebpf4jnsgd1na2vs0mg"},{"bike_id":"13f9f031-67ea-407a-a66e-c4b749576cd4","system_id":"levelo_inurba_marseille","lat":43.23947,"lon":5.36631,"is_reserved":false,"is_disabled":false,"rental_uris":{"android":"levelo://app?vid=13f9f031-67ea-407a-a66e-c4b749576cd4","ios":"levelo://app?vid=13f9f031-67ea-407a-a66e-c4b749576cd4"},"vehicle_type_id":"4","last_reported":1774442560,"current_range_meters":6400,"station_id":"ce4bhi12rcd13ifvqfp0","pricing_plan_id":"cebpf4jnsgd1na2vs0mg"},{"bike_id":"eb7f051c-07f1-41d2-9450-33cd5a984ca1","system_id":"levelo_inurba_marseille","lat":43.2305,"lon":5.35483,"is_reserved":false,"is_disabled":false,"rental_uris":{"android":"levelo://app?vid=eb7f051c-07f1-41d2-9450-33cd5a984ca1","ios":"levelo://app?vid=eb7f051c-07f1-41d2-9450-33cd5a984ca1"},"vehicle_type_id":"4","last_reported":1774442560,"current_range_meters":6400,"station_id":"cpo3342slgdg3j2ifvpg","pricing_plan_id":"cebpf4jnsgd1na2vs0mg"},{"bike_id":"7212c6ba-6dfd-4545-9588-72b468573d82","system_id":"levelo_inurba_marseille","lat":43.24961,"lon":5.40475,"is_reserved":false,"is_disabled":false,"rental_uris":{"android":"levelo://app?vid=7212c6ba-6dfd-4545-9588-72b468573d82","ios":"levelo://app?vid=7212c6ba-6dfd-4545-9588-72b468573d82"},"vehicle_type_id":"4","last_reported":1774442560,"current_range_meters":6400,"station_id":"st_d2ngiaodas8pm72gd1h0","pricing_plan_id":"cebpf4jnsgd1na2vs0mg"},{"bike_id":"5487f2c1-c4a8-4daf-8490-88d7b84744cf","system_id":"levelo_inurba_marseille","lat":43.30302,"lon":5.36914,"is_reserved":false,"is_disabled":false,"rental_uris":{"android":"levelo://app?vid=5487f2c1-c4a8-4daf-8490-88d7b84744cf","ios":"levelo://app?vid=5487f2c1-c4a8-4daf-8490-88d7b84744cf"},"vehicle_type_id":"4","last_reported":1774442560,"current_range_meters":6400,"station_id":"ce4bgqh2rcd13ifvqc5g","pricing_plan_id":"cebpf4jnsgd1na2vs0mg"},{"bike_id":"5be5c06e-17ed-4c05-88a6-6a397d7320dd","system_id":"levelo_inurba_marseille","lat":43.25344,"lon":5.42148,"is_reserved":false,"is_disabled":false,"rental_uris":{"android":"levelo://app?vid=5be5c06e-17ed-4c05-88a6-6a397d7320dd","ios":"levelo://app?vid=5be5c06e-17ed-4c05-88a6-6a397d7320dd"},"vehicle_type_id":"4","last_reported":1774442560,"current_range_meters":6400,"station_id":"st_d2m65c5bi1j21697t3ng","pricing_plan_id":"cebpf4jnsgd1na2vs0mg"},{"bike_id":"21a45244-c1c4-423b-9d37-4deb92a4a9b7","system_id":"levelo_inurba_marseille","lat":43.31114,"lon":5.37226,"is_reserved":false,"is_disabled":false,"rental_uris":{"android":"levelo://app?vid=21a45244-c1c4-423b-9d37-4deb92a4a9b7","ios":"levelo://app?vid=21a45244-c1c4-423b-9d37-4deb92a4a9b7"},"vehicle_type_id":"4","last_reported":1774442560,"current_range_meters":6400,"station_id":"","pricing_plan_id":"cebpf4jnsgd1na2vs0mg"},{"bike_id":"0054f337-d193-45e8-a395-56845f1fff96","system_id":"levelo_inurba_marseille","lat":43.23782,"lon":5.36625,"is_reserved":false,"is_disabled":false,"rental_uris":{"android":"levelo://app?vid=0054f337-d193-45e8-a395-56845f1fff96","ios":"levelo://app?vid=0054f337-d193-45e8-a395-56845f1fff96"},"vehicle_type_id":"4","last_reported":1774442560,"current_range_meters":6400,"station_id":"st_d3nk18o9ro0c73en2l3g","pricing_plan_id":"cebpf4jnsgd1na2vs0mg"},{"bike_id":"494c1205-bc3f-4bb2-8325-0a9784b1ff3c","system_id":"levelo_inurba_marseille","lat":43.33733,"lon":5.39169,"is_reserved":false,"is_disabled":false,"rental_uris":{"android":"levelo://app?vid=494c1205-bc3f-4bb2-8325-0a9784b1ff3c","ios":"levelo://app?vid=494c1205-bc3f-4bb2-8325-0a9784b1ff3c"},"vehicle_type_id":"4","last_reported":1774442560,"current_range_meters":6400,"station_id":"ce4bhr92rcd13ifvqhsg","pricing_plan_id":"cebpf4jnsgd1na2vs0mg"},{"bike_id":"41765925-c912-4b9e-8534-d733626e14d3","system_id":"levelo_inurba_marseille","lat":43.29297,"lon":5.38053,"is_reserved":false,"is_disabled":false,"rental_uris":{"android":"levelo://app?vid=41765925-c912-4b9e-8534-d733626e14d3","ios":"levelo://app?vid=41765925-c912-4b9e-8534-d733626e14d3"},"vehicle_type_id":"4","last_reported":1774442560,"current_range_meters":6400,"station_id":"","pricing_plan_id":"cebpf4jnsgd1na2vs0mg"},{"bike_id":"bf24de65-d4b8-4de3-8970-bb832fcbf64f","system_id":"levelo_inurba_marseille","lat":43.2466,"lon":5.38148,"is_reserved":false,"is_disabled":false,"rental_uris":{"android":"levelo://app?vid=bf24de65-d4b8-4de3-8970-bb832fcbf64f","ios":"levelo://app?vid=bf24de65-d4b8-4de3-8970-bb832fcbf64f"},"vehicle_type_id":"4","last_reported":1774442560,"current_range_meters":6400,"station_id":"ce4bhih2rcd13ifvqfr0","pricing_plan_id":"cebpf4jnsgd1na2vs0mg"},{"bike_id":"ea0f5843-8abb-4df9-b513-08cfad1e209c","system_id":"levelo_inurba_marseille","lat":43.30458,"lon":5.3791,"is_reserved":false,"is_disabled":false,"rental_uris":{"android":"levelo://app?vid=ea0f5843-8abb-4df9-b513-08cfad1e209c","ios":"levelo://app?vid=ea0f5843-8abb-4df9-b513-08cfad1e209c"},"vehicle_type_id":"4","last_reported":1774442560,"current_range_meters":6800,"station_id":"ce4bgup2rcd13ifvqcn0","pricing_plan_id":"cebpf4jnsgd1na2vs0mg"},{"bike_id":"715aaeb5-0d16-47e0-ba84-f56328a24f5b","system_id":"levelo_inurba_marseille","lat":43.29896,"lon":5.43667,"is_reserved":false,"is_disabled":false,"rental_uris":{"android":"levelo://app?vid=715aaeb5-0d16-47e0-ba84-f56328a24f5b","ios":"levelo://app?vid=715aaeb5-0d16-47e0-ba84-f56328a24f5b"},"vehicle_type_id":"4","last_reported":1774442560,"current_range_meters":6800,"station_id":"ce4bhpp2rcd13ifvqhfg","pricing_plan_id":"cebpf4jnsgd1na2vs0mg"},{"bike_id":"21212254-e5a0-4af6-a45f-ed4c631ca773","system_id":"levelo_inurba_marseille","lat":43.25518,"lon":5.37656,"is_reserved":false,"is_disabled":false,"rental_uris":{"android":"levelo://app?vid=21212254-e5a0-4af6-a45f-ed4c631ca773","ios":"levelo://app?vid=21212254-e5a0-4af6-a45f-ed4c631ca773"},"vehicle_type_id":"4","last_reported":1774442560,"current_range_meters":6800,"station_id":"ce4bhh12rcd13ifvqff0","pricing_plan_id":"cebpf4jnsgd1na2vs0mg"},{"bike_id":"c26e2a49-390a-4852-aeea-993ad1a06398","system_id":"levelo_inurba_marseille","lat":43.31892,"lon":5.36805,"is_reserved":false,"is_disabled":false,"rental_uris":{"android":"levelo://app?vid=c26e2a49-390a-4852-aeea-993ad1a06398","ios":"levelo://app?vid=c26e2a49-390a-4852-aeea-993ad1a06398"},"vehicle_type_id":"4","last_reported":1774442560,"current_range_meters":6800,"station_id":"st_d6o2h0d0559c73evc1b0","pricing_plan_id":"cebpf4jnsgd1na2vs0mg"},{"bike_id":"fbe5bfea-dbdd-42c2-908b-8c935a9fcf5e","system_id":"levelo_inurba_marseille","lat":43.22557,"lon":5.41613,"is_reserved":false,"is_disabled":false,"rental_uris":{"android":"levelo://app?vid=fbe5bfea-dbdd-42c2-908b-8c935a9fcf5e","ios":"levelo://app?vid=fbe5bfea-dbdd-42c2-908b-8c935a9fcf5e"},"vehicle_type_id":"4","last_reported":1774442560,"current_range_meters":6800,"station_id":"st_d2o4gvlbi1j2169b742g","pricing_plan_id":"cebpf4jnsgd1na2vs0mg"},{"bike_id":"ffe6cdab-762e-420d-b43d-a84f4a946f2d","system_id":"levelo_inurba_marseille","lat":43.30277,"lon":5.40049,"is_reserved":false,"is_disabled":false,"rental_uris":{"android":"levelo://app?vid=ffe6cdab-762e-420d-b43d-a84f4a946f2d","ios":"levelo://app?vid=ffe6cdab-762e-420d-b43d-a84f4a946f2d"},"vehicle_type_id":"4","last_reported":1774442560,"current_range_meters":6800,"station_id":"ce4bgvh2rcd13ifvqcs0","pricing_plan_id":"cebpf4jnsgd1na2vs0mg"},{"bike_id":"adaf8e00-ca2c-49b5-9b35-6749da32aa87","system_id":"levelo_inurba_marseille","lat":43.3355,"lon":5.37468,"is_reserved":false,"is_disabled":false,"rental_uris":{"android":"levelo://app?vid=adaf8e00-ca2c-49b5-9b35-6749da32aa87","ios":"levelo://app?vid=adaf8e00-ca2c-49b5-9b35-6749da32aa87"},"vehicle_type_id":"4","last_reported":1774442560,"current_range_meters":6800,"station_id":"st_d46tts09ee8s73dlu43g","pricing_plan_id":"cebpf4jnsgd1na2vs0mg"},{"bike_id":"d7ed10fb-253a-44b0-a7ea-35dffda4d2a0","system_id":"levelo_inurba_marseille","lat":43.24804,"lon":5.37454,"is_reserved":false,"is_disabled":false,"rental_uris":{"android":"levelo://app?vid=d7ed10fb-253a-44b0-a7ea-35dffda4d2a0","ios":"levelo://app?vid=d7ed10fb-253a-44b0-a7ea-35dffda4d2a0"},"vehicle_type_id":"4","last_reported":1774442560,"current_range_meters":6800,"station_id":"ce4bhgh2rcd13ifvqfb0","pricing_plan_id":"cebpf4jnsgd1na2vs0mg"},{"bike_id":"aae792bd-1c8a-454d-ba57-45007311d229","system_id":"levelo_inurba_marseille","lat":43.22569,"lon":5.41614,"is_reserved":false,"is_disabled":false,"rental_uris":{"android":"levelo://app?vid=aae792bd-1c8a-454d-ba57-45007311d229","ios":"levelo://app?vid=aae792bd-1c8a-454d-ba57-45007311d229"},"vehicle_type_id":"4","last_reported":1774442560,"current_range_meters":6800,"station_id":"st_d2o4gvlbi1j2169b742g","pricing_plan_id":"cebpf4jnsgd1na2vs0mg"},{"bike_id":"08f3c701-efdb-46d9-b610-9d4c22d6d3d1","system_id":"levelo_inurba_marseille","lat":43.24641,"lon":5.43139,"is_reserved":false,"is_disabled":false,"rental_uris":{"android":"levelo://app?vid=08f3c701-efdb-46d9-b610-9d4c22d6d3d1","ios":"levelo://app?vid=08f3c701-efdb-46d9-b610-9d4c22d6d3d1"},"vehicle_type_id":"4","last_reported":1774442560,"current_range_meters":6800,"station_id":"","pricing_plan_id":"cebpf4jnsgd1na2vs0mg"},{"bike_id":"05f2e3f0-a4b3-4470-817a-2790bf76d4b0","system_id":"levelo_inurba_marseille","lat":43.241485,"lon":5.363936,"is_reserved":false,"is_disabled":false,"rental_uris":{"android":"levelo://app?vid=05f2e3f0-a4b3-4470-817a-2790bf76d4b0","ios":"levelo://app?vid=05f2e3f0-a4b3-4470-817a-2790bf76d4b0"},"vehicle_type_id":"4","last_reported":1774442560,"current_range_meters":6800,"station_id":"cpo36qri1sfpv3e86is0","pricing_plan_id":"cebpf4jnsgd1na2vs0mg"},{"bike_id":"5ece89f7-1d14-49b1-bf0b-557411e0fe9a","system_id":"levelo_inurba_marseille","lat":43.31049,"lon":5.37159,"is_reserved":false,"is_disabled":false,"rental_uris":{"android":"levelo://app?vid=5ece89f7-1d14-49b1-bf0b-557411e0fe9a","ios":"levelo://app?vid=5ece89f7-1d14-49b1-bf0b-557411e0fe9a"},"vehicle_type_id":"4","last_reported":1774442560,"current_range_meters":6800,"station_id":"st_d4kl2rp97mjs73e7tdfg","pricing_plan_id":"cebpf4jnsgd1na2vs0mg"},{"bike_id":"390642d5-ebc3-4bda-abf8-55b0c8070dc5","system_id":"levelo_inurba_marseille","lat":43.2669,"lon":5.38282,"is_reserved":false,"is_disabled":true,"rental_uris":{"android":"levelo://app?vid=390642d5-ebc3-4bda-abf8-55b0c8070dc5","ios":"levelo://app?vid=390642d5-ebc3-4bda-abf8-55b0c8070dc5"},"vehicle_type_id":"4","last_reported":1774442560,"current_range_meters":7200,"station_id":"ce4bhg92rcd13ifvqf90","pricing_plan_id":"cebpf4jnsgd1na2vs0mg"},{"bike_id":"89673b48-b93e-49b1-91bc-4a5460ed425e","system_id":"levelo_inurba_marseille","lat":43.29899,"lon":5.43666,"is_reserved":false,"is_disabled":false,"rental_uris":{"android":"levelo://app?vid=89673b48-b93e-49b1-91bc-4a5460ed425e","ios":"levelo://app?vid=89673b48-b93e-49b1-91bc-4a5460ed425e"},"vehicle_type_id":"4","last_reported":1774442560,"current_range_meters":7200,"station_id":"ce4bhpp2rcd13ifvqhfg","pricing_plan_id":"cebpf4jnsgd1na2vs0mg"},{"bike_id":"8e77315d-88e4-4eb1-8071-0e263b7fc688","system_id":"levelo_inurba_marseille","lat":43.23905,"lon":5.37429,"is_reserved":false,"is_disabled":false,"rental_uris":{"android":"levelo://app?vid=8e77315d-88e4-4eb1-8071-0e263b7fc688","ios":"levelo://app?vid=8e77315d-88e4-4eb1-8071-0e263b7fc688"},"vehicle_type_id":"4","last_reported":1774442560,"current_range_meters":7200,"station_id":"st_d6sm7csbq4hs73f8fpjg","pricing_plan_id":"cebpf4jnsgd1na2vs0mg"},{"bike_id":"61d5109e-e9d2-457a-bf42-8fd667b83cd3","system_id":"levelo_inurba_marseille","lat":43.30374,"lon":5.42484,"is_reserved":false,"is_disabled":false,"rental_uris":{"android":"levelo://app?vid=61d5109e-e9d2-457a-bf42-8fd667b83cd3","ios":"levelo://app?vid=61d5109e-e9d2-457a-bf42-8fd667b83cd3"},"vehicle_type_id":"4","last_reported":1774442560,"current_range_meters":7200,"station_id":"ce4bhoh2rcd13ifvqh6g","pricing_plan_id":"cebpf4jnsgd1na2vs0mg"},{"bike_id":"caf99c90-512b-4068-ace7-e50485e87cdf","system_id":"levelo_inurba_marseille","lat":43.29292,"lon":5.36859,"is_reserved":false,"is_disabled":false,"rental_uris":{"android":"levelo://app?vid=caf99c90-512b-4068-ace7-e50485e87cdf","ios":"levelo://app?vid=caf99c90-512b-4068-ace7-e50485e87cdf"},"vehicle_type_id":"4","last_reported":1774442560,"current_range_meters":7200,"station_id":"ce4bhbp2rcd13ifvqesg","pricing_plan_id":"cebpf4jnsgd1na2vs0mg"},{"bike_id":"e8ba5069-6ba5-4607-ba76-37a602e090e0","system_id":"levelo_inurba_marseille","lat":43.26372,"lon":5.41066,"is_reserved":false,"is_disabled":false,"rental_uris":{"android":"levelo://app?vid=e8ba5069-6ba5-4607-ba76-37a602e090e0","ios":"levelo://app?vid=e8ba5069-6ba5-4607-ba76-37a602e090e0"},"vehicle_type_id":"4","last_reported":1774442560,"current_range_meters":7200,"station_id":"st_d4e5ca6na9uc73bfl5fg","pricing_plan_id":"cebpf4jnsgd1na2vs0mg"},{"bike_id":"18adfd8d-4070-4d1a-8a22-a62bbb566b9b","system_id":"levelo_inurba_marseille","lat":43.30965,"lon":5.39041,"is_reserved":false,"is_disabled":false,"rental_uris":{"android":"levelo://app?vid=18adfd8d-4070-4d1a-8a22-a62bbb566b9b","ios":"levelo://app?vid=18adfd8d-4070-4d1a-8a22-a62bbb566b9b"},"vehicle_type_id":"4","last_reported":1774442560,"current_range_meters":7200,"station_id":"ce4bgup2rcd13ifvqco0","pricing_plan_id":"cebpf4jnsgd1na2vs0mg"},{"bike_id":"e73aa5c4-587d-43ed-8ac6-1108384813a2","system_id":"levelo_inurba_marseille","lat":43.27926,"lon":5.39585,"is_reserved":false,"is_disabled":true,"rental_uris":{"android":"levelo://app?vid=e73aa5c4-587d-43ed-8ac6-1108384813a2","ios":"levelo://app?vid=e73aa5c4-587d-43ed-8ac6-1108384813a2"},"vehicle_type_id":"4","last_reported":1774442560,"current_range_meters":7200,"station_id":"ce4bhf92rcd13ifvqf40","pricing_plan_id":"cebpf4jnsgd1na2vs0mg"},{"bike_id":"55f38c8e-1f2a-4c56-a950-839284d0263b","system_id":"levelo_inurba_marseille","lat":43.26681,"lon":5.38265,"is_reserved":false,"is_disabled":false,"rental_uris":{"android":"levelo://app?vid=55f38c8e-1f2a-4c56-a950-839284d0263b","ios":"levelo://app?vid=55f38c8e-1f2a-4c56-a950-839284d0263b"},"vehicle_type_id":"4","last_reported":1774442560,"current_range_meters":7200,"station_id":"ce4bhhp2rcd13ifvqfm0","pricing_plan_id":"cebpf4jnsgd1na2vs0mg"},{"bike_id":"5c39f7cf-c7f7-4747-b217-e778a50c0011","system_id":"levelo_inurba_marseille","lat":43.29955,"lon":5.37584,"is_reserved":false,"is_disabled":false,"rental_uris":{"android":"levelo://app?vid=5c39f7cf-c7f7-4747-b217-e778a50c0011","ios":"levelo://app?vid=5c39f7cf-c7f7-4747-b217-e778a50c0011"},"vehicle_type_id":"4","last_reported":1774442560,"current_range_meters":7200,"station_id":"","pricing_plan_id":"cebpf4jnsgd1na2vs0mg"},{"bike_id":"c1e92c70-aede-452c-8e8c-6914c0324e0c","system_id":"levelo_inurba_marseille","lat":43.29039,"lon":5.35893,"is_reserved":false,"is_disabled":false,"rental_uris":{"android":"levelo://app?vid=c1e92c70-aede-452c-8e8c-6914c0324e0c","ios":"levelo://app?vid=c1e92c70-aede-452c-8e8c-6914c0324e0c"},"vehicle_type_id":"4","last_reported":1774442560,"current_range_meters":7200,"station_id":"ce4bha92rcd13ifvqeg0","pricing_plan_id":"cebpf4jnsgd1na2vs0mg"},{"bike_id":"d594e935-ec7a-4a10-af1c-e7aeb3a4a3cc","system_id":"levelo_inurba_marseille","lat":43.25357,"lon":5.42158,"is_reserved":false,"is_disabled":false,"rental_uris":{"android":"levelo://app?vid=d594e935-ec7a-4a10-af1c-e7aeb3a4a3cc","ios":"levelo://app?vid=d594e935-ec7a-4a10-af1c-e7aeb3a4a3cc"},"vehicle_type_id":"4","last_reported":1774442560,"current_range_meters":7200,"station_id":"st_d2m65c5bi1j21697t3ng","pricing_plan_id":"cebpf4jnsgd1na2vs0mg"},{"bike_id":"0df6d16f-36d4-42c1-8335-b8a697e6bb13","system_id":"levelo_inurba_marseille","lat":43.29563,"lon":5.3753,"is_reserved":false,"is_disabled":false,"rental_uris":{"android":"levelo://app?vid=0df6d16f-36d4-42c1-8335-b8a697e6bb13","ios":"levelo://app?vid=0df6d16f-36d4-42c1-8335-b8a697e6bb13"},"vehicle_type_id":"4","last_reported":1774442560,"current_range_meters":8000,"station_id":"ce4bgh92rcd13ifvqb50","pricing_plan_id":"cebpf4jnsgd1na2vs0mg"},{"bike_id":"8d62d318-2efc-448f-bc9d-98f35e74f094","system_id":"levelo_inurba_marseille","lat":43.298067,"lon":5.381094,"is_reserved":false,"is_disabled":false,"rental_uris":{"android":"levelo://app?vid=8d62d318-2efc-448f-bc9d-98f35e74f094","ios":"levelo://app?vid=8d62d318-2efc-448f-bc9d-98f35e74f094"},"vehicle_type_id":"4","last_reported":1774442560,"current_range_meters":8000,"station_id":"ce4bgip2rcd13ifvqbb0","pricing_plan_id":"cebpf4jnsgd1na2vs0mg"},{"bike_id":"7bd56366-368c-4244-8c16-7c2a34fab141","system_id":"levelo_inurba_marseille","lat":43.26215,"lon":5.37459,"is_reserved":false,"is_disabled":false,"rental_uris":{"android":"levelo://app?vid=7bd56366-368c-4244-8c16-7c2a34fab141","ios":"levelo://app?vid=7bd56366-368c-4244-8c16-7c2a34fab141"},"vehicle_type_id":"4","last_reported":1774442560,"current_range_meters":8000,"station_id":"ce4bhgp2rcd13ifvqfc0","pricing_plan_id":"cebpf4jnsgd1na2vs0mg"},{"bike_id":"afe888dd-9043-4baa-a20b-6fd832872b3e","system_id":"levelo_inurba_marseille","lat":43.30212,"lon":5.39458,"is_reserved":false,"is_disabled":false,"rental_uris":{"android":"levelo://app?vid=afe888dd-9043-4baa-a20b-6fd832872b3e","ios":"levelo://app?vid=afe888dd-9043-4baa-a20b-6fd832872b3e"},"vehicle_type_id":"4","last_reported":1774442560,"current_range_meters":8000,"station_id":"ce4bh0p2rcd13ifvqd70","pricing_plan_id":"cebpf4jnsgd1na2vs0mg"},{"bike_id":"aa62a860-394a-46fd-ab0f-fa8be87384ba","system_id":"levelo_inurba_marseille","lat":43.25827,"lon":5.39415,"is_reserved":false,"is_disabled":false,"rental_uris":{"android":"levelo://app?vid=aa62a860-394a-46fd-ab0f-fa8be87384ba","ios":"levelo://app?vid=aa62a860-394a-46fd-ab0f-fa8be87384ba"},"vehicle_type_id":"4","last_reported":1774442560,"current_range_meters":8000,"station_id":"ce4bhip2rcd13ifvqft0","pricing_plan_id":"cebpf4jnsgd1na2vs0mg"},{"bike_id":"76874935-a550-4b44-90a3-28eb485c749a","system_id":"levelo_inurba_marseille","lat":43.29645,"lon":5.37134,"is_reserved":false,"is_disabled":true,"rental_uris":{"android":"levelo://app?vid=76874935-a550-4b44-90a3-28eb485c749a","ios":"levelo://app?vid=76874935-a550-4b44-90a3-28eb485c749a"},"vehicle_type_id":"4","last_reported":1774442560,"current_range_meters":8000,"station_id":"ce4bgnh2rcd13ifvqc0g","pricing_plan_id":"cebpf4jnsgd1na2vs0mg"},{"bike_id":"bac3d23a-ec72-4891-8dbf-a53526dcdaef","system_id":"levelo_inurba_marseille","lat":43.27431,"lon":5.39403,"is_reserved":false,"is_disabled":false,"rental_uris":{"android":"levelo://app?vid=bac3d23a-ec72-4891-8dbf-a53526dcdaef","ios":"levelo://app?vid=bac3d23a-ec72-4891-8dbf-a53526dcdaef"},"vehicle_type_id":"4","last_reported":1774442560,"current_range_meters":8000,"station_id":"ce4bhdp2rcd13ifvqf20","pricing_plan_id":"cebpf4jnsgd1na2vs0mg"},{"bike_id":"7d696d83-90f4-4587-9db0-36234620c7a4","system_id":"levelo_inurba_marseille","lat":43.29314,"lon":5.37174,"is_reserved":false,"is_disabled":false,"rental_uris":{"android":"levelo://app?vid=7d696d83-90f4-4587-9db0-36234620c7a4","ios":"levelo://app?vid=7d696d83-90f4-4587-9db0-36234620c7a4"},"vehicle_type_id":"4","last_reported":1774442560,"current_range_meters":8000,"station_id":"ce4bgh92rcd13ifvqb40","pricing_plan_id":"cebpf4jnsgd1na2vs0mg"},{"bike_id":"39945977-9066-43d3-a185-a18f02027ae1","system_id":"levelo_inurba_marseille","lat":43.29801,"lon":5.38094,"is_reserved":false,"is_disabled":false,"rental_uris":{"android":"levelo://app?vid=39945977-9066-43d3-a185-a18f02027ae1","ios":"levelo://app?vid=39945977-9066-43d3-a185-a18f02027ae1"},"vehicle_type_id":"4","last_reported":1774442560,"current_range_meters":8000,"station_id":"ce4bgip2rcd13ifvqbb0","pricing_plan_id":"cebpf4jnsgd1na2vs0mg"},{"bike_id":"4d0f13ff-9e4f-4588-8dac-238cbd3df610","system_id":"levelo_inurba_marseille","lat":43.30191,"lon":5.36605,"is_reserved":false,"is_disabled":false,"rental_uris":{"android":"levelo://app?vid=4d0f13ff-9e4f-4588-8dac-238cbd3df610","ios":"levelo://app?vid=4d0f13ff-9e4f-4588-8dac-238cbd3df610"},"vehicle_type_id":"4","last_reported":1774442560,"current_range_meters":8000,"station_id":"ce4bgrh2rcd13ifvqc8g","pricing_plan_id":"cebpf4jnsgd1na2vs0mg"},{"bike_id":"43619f6c-b072-4296-a792-e80fc1044f91","system_id":"levelo_inurba_marseille","lat":43.26554,"lon":5.37289,"is_reserved":false,"is_disabled":false,"rental_uris":{"android":"levelo://app?vid=43619f6c-b072-4296-a792-e80fc1044f91","ios":"levelo://app?vid=43619f6c-b072-4296-a792-e80fc1044f91"},"vehicle_type_id":"4","last_reported":1774442560,"current_range_meters":8000,"station_id":"ce4bhg12rcd13ifvqf70","pricing_plan_id":"cebpf4jnsgd1na2vs0mg"},{"bike_id":"81afbade-9b61-4865-965d-d9c81a599521","system_id":"levelo_inurba_marseille","lat":43.23761,"lon":5.36663,"is_reserved":false,"is_disabled":false,"rental_uris":{"android":"levelo://app?vid=81afbade-9b61-4865-965d-d9c81a599521","ios":"levelo://app?vid=81afbade-9b61-4865-965d-d9c81a599521"},"vehicle_type_id":"4","last_reported":1774442560,"current_range_meters":8000,"station_id":"st_d3nk18o9ro0c73en2l3g","pricing_plan_id":"cebpf4jnsgd1na2vs0mg"},{"bike_id":"a262f43d-85a2-4a30-93dd-8651921757f5","system_id":"levelo_inurba_marseille","lat":43.23149,"lon":5.43713,"is_reserved":false,"is_disabled":false,"rental_uris":{"android":"levelo://app?vid=a262f43d-85a2-4a30-93dd-8651921757f5","ios":"levelo://app?vid=a262f43d-85a2-4a30-93dd-8651921757f5"},"vehicle_type_id":"4","last_reported":1774442560,"current_range_meters":8000,"station_id":"ce4bhmp2rcd13ifvqgog","pricing_plan_id":"cebpf4jnsgd1na2vs0mg"},{"bike_id":"f5b03ec9-f04a-455a-96b8-562b5e810ed5","system_id":"levelo_inurba_marseille","lat":43.28227,"lon":5.39066,"is_reserved":false,"is_disabled":false,"rental_uris":{"android":"levelo://app?vid=f5b03ec9-f04a-455a-96b8-562b5e810ed5","ios":"levelo://app?vid=f5b03ec9-f04a-455a-96b8-562b5e810ed5"},"vehicle_type_id":"4","last_reported":1774442560,"current_range_meters":8000,"station_id":"ce4bhn92rcd13ifvqgsg","pricing_plan_id":"cebpf4jnsgd1na2vs0mg"},{"bike_id":"b236ba0f-68b9-4f75-96e1-de33848f6431","system_id":"levelo_inurba_marseille","lat":43.30914,"lon":5.36884,"is_reserved":false,"is_disabled":false,"rental_uris":{"android":"levelo://app?vid=b236ba0f-68b9-4f75-96e1-de33848f6431","ios":"levelo://app?vid=b236ba0f-68b9-4f75-96e1-de33848f6431"},"vehicle_type_id":"4","last_reported":1774442560,"current_range_meters":8000,"station_id":"ce4bgn92rcd13ifvqbvg","pricing_plan_id":"cebpf4jnsgd1na2vs0mg"},{"bike_id":"2f430c62-15bb-430c-969c-56b5339d66a3","system_id":"levelo_inurba_marseille","lat":43.28539,"lon":5.44094,"is_reserved":false,"is_disabled":false,"rental_uris":{"android":"levelo://app?vid=2f430c62-15bb-430c-969c-56b5339d66a3","ios":"levelo://app?vid=2f430c62-15bb-430c-969c-56b5339d66a3"},"vehicle_type_id":"4","last_reported":1774442560,"current_range_meters":8000,"station_id":"st_d3j3df2ikq2c7380ej80","pricing_plan_id":"cebpf4jnsgd1na2vs0mg"},{"bike_id":"21fbf897-c6ad-44b1-baf1-78ff53bcdf00","system_id":"levelo_inurba_marseille","lat":43.29255,"lon":5.37608,"is_reserved":false,"is_disabled":false,"rental_uris":{"android":"levelo://app?vid=21fbf897-c6ad-44b1-baf1-78ff53bcdf00","ios":"levelo://app?vid=21fbf897-c6ad-44b1-baf1-78ff53bcdf00"},"vehicle_type_id":"4","last_reported":1774442560,"current_range_meters":8000,"station_id":"ce4bgi12rcd13ifvqb80","pricing_plan_id":"cebpf4jnsgd1na2vs0mg"},{"bike_id":"2238f30d-c2e0-4d80-a7e7-ce4f2dc94228","system_id":"levelo_inurba_marseille","lat":43.23161,"lon":5.43697,"is_reserved":false,"is_disabled":false,"rental_uris":{"android":"levelo://app?vid=2238f30d-c2e0-4d80-a7e7-ce4f2dc94228","ios":"levelo://app?vid=2238f30d-c2e0-4d80-a7e7-ce4f2dc94228"},"vehicle_type_id":"4","last_reported":1774442560,"current_range_meters":8400,"station_id":"ce4bhmp2rcd13ifvqgog","pricing_plan_id":"cebpf4jnsgd1na2vs0mg"},{"bike_id":"da6972b3-b161-480b-8ef0-1ff556fc7299","system_id":"levelo_inurba_marseille","lat":43.23775,"lon":5.3665,"is_reserved":false,"is_disabled":false,"rental_uris":{"android":"levelo://app?vid=da6972b3-b161-480b-8ef0-1ff556fc7299","ios":"levelo://app?vid=da6972b3-b161-480b-8ef0-1ff556fc7299"},"vehicle_type_id":"4","last_reported":1774442560,"current_range_meters":8400,"station_id":"st_d3nk18o9ro0c73en2l3g","pricing_plan_id":"cebpf4jnsgd1na2vs0mg"},{"bike_id":"5fea4591-9536-478c-9dd1-1abddc74092a","system_id":"levelo_inurba_marseille","lat":43.284071,"lon":5.375206,"is_reserved":false,"is_disabled":false,"rental_uris":{"android":"levelo://app?vid=5fea4591-9536-478c-9dd1-1abddc74092a","ios":"levelo://app?vid=5fea4591-9536-478c-9dd1-1abddc74092a"},"vehicle_type_id":"4","last_reported":1774442560,"current_range_meters":8400,"station_id":"ce4bh412rcd13ifvqds0","pricing_plan_id":"cebpf4jnsgd1na2vs0mg"},{"bike_id":"d64c94f3-e268-41de-bac3-5a218887d9b5","system_id":"levelo_inurba_marseille","lat":43.28476,"lon":5.48399,"is_reserved":false,"is_disabled":false,"rental_uris":{"android":"levelo://app?vid=d64c94f3-e268-41de-bac3-5a218887d9b5","ios":"levelo://app?vid=d64c94f3-e268-41de-bac3-5a218887d9b5"},"vehicle_type_id":"4","last_reported":1774442560,"current_range_meters":8400,"station_id":"","pricing_plan_id":"cebpf4jnsgd1na2vs0mg"},{"bike_id":"dcc2c9db-79ba-4341-8d0e-f6ca29cae3f3","system_id":"levelo_inurba_marseille","lat":43.28272,"lon":5.35066,"is_reserved":false,"is_disabled":false,"rental_uris":{"android":"levelo://app?vid=dcc2c9db-79ba-4341-8d0e-f6ca29cae3f3","ios":"levelo://app?vid=dcc2c9db-79ba-4341-8d0e-f6ca29cae3f3"},"vehicle_type_id":"4","last_reported":1774442560,"current_range_meters":8400,"station_id":"ce4bhbp2rcd13ifvqerg","pricing_plan_id":"cebpf4jnsgd1na2vs0mg"},{"bike_id":"fdd8bf84-b2fe-4508-9572-06ea662fa5ac","system_id":"levelo_inurba_marseille","lat":43.28481,"lon":5.48376,"is_reserved":false,"is_disabled":false,"rental_uris":{"android":"levelo://app?vid=fdd8bf84-b2fe-4508-9572-06ea662fa5ac","ios":"levelo://app?vid=fdd8bf84-b2fe-4508-9572-06ea662fa5ac"},"vehicle_type_id":"4","last_reported":1774442560,"current_range_meters":8400,"station_id":"","pricing_plan_id":"cebpf4jnsgd1na2vs0mg"},{"bike_id":"9b8ef9d9-2b69-4832-b2af-dff113d7bac1","system_id":"levelo_inurba_marseille","lat":43.27331,"lon":5.39108,"is_reserved":false,"is_disabled":true,"rental_uris":{"android":"levelo://app?vid=9b8ef9d9-2b69-4832-b2af-dff113d7bac1","ios":"levelo://app?vid=9b8ef9d9-2b69-4832-b2af-dff113d7bac1"},"vehicle_type_id":"4","last_reported":1774442560,"current_range_meters":8400,"station_id":"ce4bhgp2rcd13ifvqfe0","pricing_plan_id":"cebpf4jnsgd1na2vs0mg"},{"bike_id":"db8e1c36-1d9c-44d2-bc2d-f91041c6fca2","system_id":"levelo_inurba_marseille","lat":43.28442,"lon":5.45783,"is_reserved":false,"is_disabled":false,"rental_uris":{"android":"levelo://app?vid=db8e1c36-1d9c-44d2-bc2d-f91041c6fca2","ios":"levelo://app?vid=db8e1c36-1d9c-44d2-bc2d-f91041c6fca2"},"vehicle_type_id":"4","last_reported":1774442560,"current_range_meters":8400,"station_id":"","pricing_plan_id":"cebpf4jnsgd1na2vs0mg"},{"bike_id":"aa929685-e4dd-4a31-a1c6-979463fa81a3","system_id":"levelo_inurba_marseille","lat":43.2848,"lon":5.48388,"is_reserved":false,"is_disabled":false,"rental_uris":{"android":"levelo://app?vid=aa929685-e4dd-4a31-a1c6-979463fa81a3","ios":"levelo://app?vid=aa929685-e4dd-4a31-a1c6-979463fa81a3"},"vehicle_type_id":"4","last_reported":1774442560,"current_range_meters":8400,"station_id":"st_d3svhcjqgbts73a3dn0g","pricing_plan_id":"cebpf4jnsgd1na2vs0mg"},{"bike_id":"25c18403-51c7-4525-a478-e688a6140950","system_id":"levelo_inurba_marseille","lat":43.24172,"lon":5.39724,"is_reserved":false,"is_disabled":false,"rental_uris":{"android":"levelo://app?vid=25c18403-51c7-4525-a478-e688a6140950","ios":"levelo://app?vid=25c18403-51c7-4525-a478-e688a6140950"},"vehicle_type_id":"4","last_reported":1774442560,"current_range_meters":8400,"station_id":"ce4bhn12rcd13ifvqgpg","pricing_plan_id":"cebpf4jnsgd1na2vs0mg"},{"bike_id":"942ff02c-31c2-4c51-8842-9c7d3c411c98","system_id":"levelo_inurba_marseille","lat":43.26556,"lon":5.37263,"is_reserved":false,"is_disabled":true,"rental_uris":{"android":"levelo://app?vid=942ff02c-31c2-4c51-8842-9c7d3c411c98","ios":"levelo://app?vid=942ff02c-31c2-4c51-8842-9c7d3c411c98"},"vehicle_type_id":"4","last_reported":1774442560,"current_range_meters":8400,"station_id":"ce4bhg12rcd13ifvqf70","pricing_plan_id":"cebpf4jnsgd1na2vs0mg"},{"bike_id":"e58da262-73bb-476d-a3cd-348095f82af6","system_id":"levelo_inurba_marseille","lat":43.28268,"lon":5.35051,"is_reserved":false,"is_disabled":false,"rental_uris":{"android":"levelo://app?vid=e58da262-73bb-476d-a3cd-348095f82af6","ios":"levelo://app?vid=e58da262-73bb-476d-a3cd-348095f82af6"},"vehicle_type_id":"4","last_reported":1774442560,"current_range_meters":8400,"station_id":"ce4bhbp2rcd13ifvqerg","pricing_plan_id":"cebpf4jnsgd1na2vs0mg"},{"bike_id":"bd5ac974-59fe-4cce-a9cf-a047ad6ed45a","system_id":"levelo_inurba_marseille","lat":43.25517,"lon":5.3765,"is_reserved":false,"is_disabled":false,"rental_uris":{"android":"levelo://app?vid=bd5ac974-59fe-4cce-a9cf-a047ad6ed45a","ios":"levelo://app?vid=bd5ac974-59fe-4cce-a9cf-a047ad6ed45a"},"vehicle_type_id":"4","last_reported":1774442560,"current_range_meters":8400,"station_id":"ce4bhh12rcd13ifvqff0","pricing_plan_id":"cebpf4jnsgd1na2vs0mg"},{"bike_id":"17541a85-c8e7-42e9-85e1-1e067875f4a2","system_id":"levelo_inurba_marseille","lat":43.24807,"lon":5.37459,"is_reserved":false,"is_disabled":false,"rental_uris":{"android":"levelo://app?vid=17541a85-c8e7-42e9-85e1-1e067875f4a2","ios":"levelo://app?vid=17541a85-c8e7-42e9-85e1-1e067875f4a2"},"vehicle_type_id":"4","last_reported":1774442560,"current_range_meters":8400,"station_id":"ce4bhgh2rcd13ifvqfb0","pricing_plan_id":"cebpf4jnsgd1na2vs0mg"},{"bike_id":"6a198090-4bef-443d-a382-227d8b70aab3","system_id":"levelo_inurba_marseille","lat":43.27199,"lon":5.40979,"is_reserved":false,"is_disabled":false,"rental_uris":{"android":"levelo://app?vid=6a198090-4bef-443d-a382-227d8b70aab3","ios":"levelo://app?vid=6a198090-4bef-443d-a382-227d8b70aab3"},"vehicle_type_id":"4","last_reported":1774442560,"current_range_meters":8400,"station_id":"ce4bhl12rcd13ifvqgf0","pricing_plan_id":"cebpf4jnsgd1na2vs0mg"},{"bike_id":"451e822b-d17c-41b3-aa86-e9da4e66ded2","system_id":"levelo_inurba_marseille","lat":43.2397,"lon":5.3665,"is_reserved":false,"is_disabled":false,"rental_uris":{"android":"levelo://app?vid=451e822b-d17c-41b3-aa86-e9da4e66ded2","ios":"levelo://app?vid=451e822b-d17c-41b3-aa86-e9da4e66ded2"},"vehicle_type_id":"4","last_reported":1774442560,"current_range_meters":8400,"station_id":"ce4bhi12rcd13ifvqfp0","pricing_plan_id":"cebpf4jnsgd1na2vs0mg"},{"bike_id":"5840b2c5-76c6-4609-b272-f4b1c1663b3b","system_id":"levelo_inurba_marseille","lat":43.29939,"lon":5.38828,"is_reserved":false,"is_disabled":false,"rental_uris":{"android":"levelo://app?vid=5840b2c5-76c6-4609-b272-f4b1c1663b3b","ios":"levelo://app?vid=5840b2c5-76c6-4609-b272-f4b1c1663b3b"},"vehicle_type_id":"4","last_reported":1774442560,"current_range_meters":8400,"station_id":"","pricing_plan_id":"cebpf4jnsgd1na2vs0mg"},{"bike_id":"be9284ea-133f-4c80-b81d-68132e068255","system_id":"levelo_inurba_marseille","lat":43.28723,"lon":5.36086,"is_reserved":false,"is_disabled":false,"rental_uris":{"android":"levelo://app?vid=be9284ea-133f-4c80-b81d-68132e068255","ios":"levelo://app?vid=be9284ea-133f-4c80-b81d-68132e068255"},"vehicle_type_id":"4","last_reported":1774442560,"current_range_meters":8400,"station_id":"cki0cbj6b192h4jlfktg","pricing_plan_id":"cebpf4jnsgd1na2vs0mg"},{"bike_id":"f244068a-97ac-4865-b07d-50ca501f7033","system_id":"levelo_inurba_marseille","lat":43.22941,"lon":5.35361,"is_reserved":false,"is_disabled":false,"rental_uris":{"android":"levelo://app?vid=f244068a-97ac-4865-b07d-50ca501f7033","ios":"levelo://app?vid=f244068a-97ac-4865-b07d-50ca501f7033"},"vehicle_type_id":"4","last_reported":1774442560,"current_range_meters":8400,"station_id":"cpo3532slgdg3j2ikp40","pricing_plan_id":"cebpf4jnsgd1na2vs0mg"},{"bike_id":"7a87624e-803a-4bf7-a27a-f073f32ea2cc","system_id":"levelo_inurba_marseille","lat":43.27831,"lon":5.39219,"is_reserved":false,"is_disabled":false,"rental_uris":{"android":"levelo://app?vid=7a87624e-803a-4bf7-a27a-f073f32ea2cc","ios":"levelo://app?vid=7a87624e-803a-4bf7-a27a-f073f32ea2cc"},"vehicle_type_id":"4","last_reported":1774442560,"current_range_meters":8400,"station_id":"ce4bhjp2rcd13ifvqga0","pricing_plan_id":"cebpf4jnsgd1na2vs0mg"},{"bike_id":"93898619-ec06-4199-91fd-e195b738998f","system_id":"levelo_inurba_marseille","lat":43.24176,"lon":5.36395,"is_reserved":false,"is_disabled":false,"rental_uris":{"android":"levelo://app?vid=93898619-ec06-4199-91fd-e195b738998f","ios":"levelo://app?vid=93898619-ec06-4199-91fd-e195b738998f"},"vehicle_type_id":"4","last_reported":1774442560,"current_range_meters":8400,"station_id":"cpo36qri1sfpv3e86is0","pricing_plan_id":"cebpf4jnsgd1na2vs0mg"},{"bike_id":"b9d157e4-adb0-4d64-b93d-349f42c39fcf","system_id":"levelo_inurba_marseille","lat":43.31892,"lon":5.36837,"is_reserved":false,"is_disabled":true,"rental_uris":{"android":"levelo://app?vid=b9d157e4-adb0-4d64-b93d-349f42c39fcf","ios":"levelo://app?vid=b9d157e4-adb0-4d64-b93d-349f42c39fcf"},"vehicle_type_id":"4","last_reported":1774442560,"current_range_meters":8400,"station_id":"st_d6o2h0d0559c73evc1b0","pricing_plan_id":"cebpf4jnsgd1na2vs0mg"},{"bike_id":"16361bd3-ef19-4039-8073-445d7b2012e9","system_id":"levelo_inurba_marseille","lat":43.30947,"lon":5.39031,"is_reserved":false,"is_disabled":false,"rental_uris":{"android":"levelo://app?vid=16361bd3-ef19-4039-8073-445d7b2012e9","ios":"levelo://app?vid=16361bd3-ef19-4039-8073-445d7b2012e9"},"vehicle_type_id":"4","last_reported":1774442560,"current_range_meters":8400,"station_id":"ce4bgup2rcd13ifvqco0","pricing_plan_id":"cebpf4jnsgd1na2vs0mg"},{"bike_id":"5ec79b4e-9893-4c40-8854-29e1fdef2ce2","system_id":"levelo_inurba_marseille","lat":43.31906,"lon":5.36813,"is_reserved":false,"is_disabled":false,"rental_uris":{"android":"levelo://app?vid=5ec79b4e-9893-4c40-8854-29e1fdef2ce2","ios":"levelo://app?vid=5ec79b4e-9893-4c40-8854-29e1fdef2ce2"},"vehicle_type_id":"4","last_reported":1774442560,"current_range_meters":8800,"station_id":"st_d6o2h0d0559c73evc1b0","pricing_plan_id":"cebpf4jnsgd1na2vs0mg"},{"bike_id":"218342cb-e0a0-46c2-9c63-087d0ffa9744","system_id":"levelo_inurba_marseille","lat":43.26365,"lon":5.41081,"is_reserved":false,"is_disabled":false,"rental_uris":{"android":"levelo://app?vid=218342cb-e0a0-46c2-9c63-087d0ffa9744","ios":"levelo://app?vid=218342cb-e0a0-46c2-9c63-087d0ffa9744"},"vehicle_type_id":"4","last_reported":1774442560,"current_range_meters":8800,"station_id":"st_d4e5ca6na9uc73bfl5fg","pricing_plan_id":"cebpf4jnsgd1na2vs0mg"},{"bike_id":"a20bca81-a392-424e-a85c-bf79f4eb1a7b","system_id":"levelo_inurba_marseille","lat":43.23794,"lon":5.3659,"is_reserved":false,"is_disabled":false,"rental_uris":{"android":"levelo://app?vid=a20bca81-a392-424e-a85c-bf79f4eb1a7b","ios":"levelo://app?vid=a20bca81-a392-424e-a85c-bf79f4eb1a7b"},"vehicle_type_id":"4","last_reported":1774442560,"current_range_meters":8800,"station_id":"st_d3nk18o9ro0c73en2l3g","pricing_plan_id":"cebpf4jnsgd1na2vs0mg"},{"bike_id":"317d0fae-7d4a-4bfc-a3ad-9d347e3e5200","system_id":"levelo_inurba_marseille","lat":43.27381,"lon":5.36256,"is_reserved":false,"is_disabled":false,"rental_uris":{"android":"levelo://app?vid=317d0fae-7d4a-4bfc-a3ad-9d347e3e5200","ios":"levelo://app?vid=317d0fae-7d4a-4bfc-a3ad-9d347e3e5200"},"vehicle_type_id":"4","last_reported":1774442560,"current_range_meters":8800,"station_id":"ce4bhbh2rcd13ifvqeo0","pricing_plan_id":"cebpf4jnsgd1na2vs0mg"},{"bike_id":"872c2a3e-f902-4424-975b-d797696b281b","system_id":"levelo_inurba_marseille","lat":43.2679,"lon":5.39403,"is_reserved":false,"is_disabled":false,"rental_uris":{"android":"levelo://app?vid=872c2a3e-f902-4424-975b-d797696b281b","ios":"levelo://app?vid=872c2a3e-f902-4424-975b-d797696b281b"},"vehicle_type_id":"4","last_reported":1774442560,"current_range_meters":8800,"station_id":"ce4bhh12rcd13ifvqfg0","pricing_plan_id":"cebpf4jnsgd1na2vs0mg"},{"bike_id":"b9a275c9-d51f-4f11-a776-e728aae18c62","system_id":"levelo_inurba_marseille","lat":43.25347,"lon":5.42147,"is_reserved":false,"is_disabled":false,"rental_uris":{"android":"levelo://app?vid=b9a275c9-d51f-4f11-a776-e728aae18c62","ios":"levelo://app?vid=b9a275c9-d51f-4f11-a776-e728aae18c62"},"vehicle_type_id":"4","last_reported":1774442560,"current_range_meters":8800,"station_id":"st_d2m65c5bi1j21697t3ng","pricing_plan_id":"cebpf4jnsgd1na2vs0mg"},{"bike_id":"265c1a7e-ea64-47f3-959e-c623f30cf0fd","system_id":"levelo_inurba_marseille","lat":43.211932,"lon":5.350764,"is_reserved":false,"is_disabled":false,"rental_uris":{"android":"levelo://app?vid=265c1a7e-ea64-47f3-959e-c623f30cf0fd","ios":"levelo://app?vid=265c1a7e-ea64-47f3-959e-c623f30cf0fd"},"vehicle_type_id":"4","last_reported":1774442560,"current_range_meters":8800,"station_id":"st_cvj6sg6p6f1abm77japg","pricing_plan_id":"cebpf4jnsgd1na2vs0mg"},{"bike_id":"2726efb4-ce06-4f2f-8065-e4ac3aedc676","system_id":"levelo_inurba_marseille","lat":43.2967,"lon":5.3817,"is_reserved":false,"is_disabled":false,"rental_uris":{"android":"levelo://app?vid=2726efb4-ce06-4f2f-8065-e4ac3aedc676","ios":"levelo://app?vid=2726efb4-ce06-4f2f-8065-e4ac3aedc676"},"vehicle_type_id":"4","last_reported":1774442560,"current_range_meters":8800,"station_id":"","pricing_plan_id":"cebpf4jnsgd1na2vs0mg"},{"bike_id":"02d4491a-d4a0-4dba-af4b-dfc2d1419703","system_id":"levelo_inurba_marseille","lat":43.29862,"lon":5.39782,"is_reserved":false,"is_disabled":false,"rental_uris":{"android":"levelo://app?vid=02d4491a-d4a0-4dba-af4b-dfc2d1419703","ios":"levelo://app?vid=02d4491a-d4a0-4dba-af4b-dfc2d1419703"},"vehicle_type_id":"4","last_reported":1774442560,"current_range_meters":8800,"station_id":"ce4bh0h2rcd13ifvqd50","pricing_plan_id":"cebpf4jnsgd1na2vs0mg"},{"bike_id":"3a2d7079-a53a-4207-8597-4b5271971c69","system_id":"levelo_inurba_marseille","lat":43.25953,"lon":5.40873,"is_reserved":false,"is_disabled":false,"rental_uris":{"android":"levelo://app?vid=3a2d7079-a53a-4207-8597-4b5271971c69","ios":"levelo://app?vid=3a2d7079-a53a-4207-8597-4b5271971c69"},"vehicle_type_id":"4","last_reported":1774442560,"current_range_meters":8800,"station_id":"ce4bhm92rcd13ifvqglg","pricing_plan_id":"cebpf4jnsgd1na2vs0mg"},{"bike_id":"7478743c-2bbe-40ae-96f4-fbb0859d0ef1","system_id":"levelo_inurba_marseille","lat":43.3247,"lon":5.36548,"is_reserved":false,"is_disabled":false,"rental_uris":{"android":"levelo://app?vid=7478743c-2bbe-40ae-96f4-fbb0859d0ef1","ios":"levelo://app?vid=7478743c-2bbe-40ae-96f4-fbb0859d0ef1"},"vehicle_type_id":"4","last_reported":1774442560,"current_range_meters":8800,"station_id":"ce4bhs12rcd13ifvqhvg","pricing_plan_id":"cebpf4jnsgd1na2vs0mg"},{"bike_id":"46120e68-7222-4af8-b27a-b3a0722d09c6","system_id":"levelo_inurba_marseille","lat":43.2866,"lon":5.36358,"is_reserved":false,"is_disabled":true,"rental_uris":{"android":"levelo://app?vid=46120e68-7222-4af8-b27a-b3a0722d09c6","ios":"levelo://app?vid=46120e68-7222-4af8-b27a-b3a0722d09c6"},"vehicle_type_id":"4","last_reported":1774442560,"current_range_meters":8800,"station_id":"ce4bhah2rcd13ifvqej0","pricing_plan_id":"cebpf4jnsgd1na2vs0mg"},{"bike_id":"9ac3c85e-53d6-4040-9e62-c694dc24e9ae","system_id":"levelo_inurba_marseille","lat":43.29796,"lon":5.39351,"is_reserved":false,"is_disabled":false,"rental_uris":{"android":"levelo://app?vid=9ac3c85e-53d6-4040-9e62-c694dc24e9ae","ios":"levelo://app?vid=9ac3c85e-53d6-4040-9e62-c694dc24e9ae"},"vehicle_type_id":"4","last_reported":1774442560,"current_range_meters":8800,"station_id":"chh1huq6cuj3fo74tm60","pricing_plan_id":"cebpf4jnsgd1na2vs0mg"},{"bike_id":"b8e36708-9a62-495f-bdb5-2e0d4509c806","system_id":"levelo_inurba_marseille","lat":43.30183,"lon":5.36602,"is_reserved":false,"is_disabled":false,"rental_uris":{"android":"levelo://app?vid=b8e36708-9a62-495f-bdb5-2e0d4509c806","ios":"levelo://app?vid=b8e36708-9a62-495f-bdb5-2e0d4509c806"},"vehicle_type_id":"4","last_reported":1774442560,"current_range_meters":8800,"station_id":"ce4bgrh2rcd13ifvqc8g","pricing_plan_id":"cebpf4jnsgd1na2vs0mg"},{"bike_id":"6dec5835-0db9-4985-9199-19da0c021f21","system_id":"levelo_inurba_marseille","lat":43.30681,"lon":5.37038,"is_reserved":false,"is_disabled":false,"rental_uris":{"android":"levelo://app?vid=6dec5835-0db9-4985-9199-19da0c021f21","ios":"levelo://app?vid=6dec5835-0db9-4985-9199-19da0c021f21"},"vehicle_type_id":"4","last_reported":1774442560,"current_range_meters":8800,"station_id":"","pricing_plan_id":"cebpf4jnsgd1na2vs0mg"},{"bike_id":"84aa80cd-58bb-494c-ae1e-b9b2f2564c94","system_id":"levelo_inurba_marseille","lat":43.21212,"lon":5.35064,"is_reserved":false,"is_disabled":false,"rental_uris":{"android":"levelo://app?vid=84aa80cd-58bb-494c-ae1e-b9b2f2564c94","ios":"levelo://app?vid=84aa80cd-58bb-494c-ae1e-b9b2f2564c94"},"vehicle_type_id":"4","last_reported":1774442560,"current_range_meters":8800,"station_id":"","pricing_plan_id":"cebpf4jnsgd1na2vs0mg"},{"bike_id":"e4a4f07d-4fef-4769-a8fa-74946fe8e6b6","system_id":"levelo_inurba_marseille","lat":43.29905,"lon":5.37467,"is_reserved":false,"is_disabled":false,"rental_uris":{"android":"levelo://app?vid=e4a4f07d-4fef-4769-a8fa-74946fe8e6b6","ios":"levelo://app?vid=e4a4f07d-4fef-4769-a8fa-74946fe8e6b6"},"vehicle_type_id":"4","last_reported":1774442560,"current_range_meters":8800,"station_id":"ce4bgjh2rcd13ifvqbg0","pricing_plan_id":"cebpf4jnsgd1na2vs0mg"},{"bike_id":"50fdac31-5e33-4366-8748-02cde82901e6","system_id":"levelo_inurba_marseille","lat":43.23162,"lon":5.43688,"is_reserved":false,"is_disabled":false,"rental_uris":{"android":"levelo://app?vid=50fdac31-5e33-4366-8748-02cde82901e6","ios":"levelo://app?vid=50fdac31-5e33-4366-8748-02cde82901e6"},"vehicle_type_id":"4","last_reported":1774442560,"current_range_meters":8800,"station_id":"ce4bhmp2rcd13ifvqgog","pricing_plan_id":"cebpf4jnsgd1na2vs0mg"},{"bike_id":"7c31a5b6-a1b9-41e2-a9e3-78b489e35943","system_id":"levelo_inurba_marseille","lat":43.21196,"lon":5.3507,"is_reserved":false,"is_disabled":false,"rental_uris":{"android":"levelo://app?vid=7c31a5b6-a1b9-41e2-a9e3-78b489e35943","ios":"levelo://app?vid=7c31a5b6-a1b9-41e2-a9e3-78b489e35943"},"vehicle_type_id":"4","last_reported":1774442560,"current_range_meters":8800,"station_id":"st_cvj6sg6p6f1abm77japg","pricing_plan_id":"cebpf4jnsgd1na2vs0mg"},{"bike_id":"2aa00120-26f0-468d-8fc9-3481a3ad36ee","system_id":"levelo_inurba_marseille","lat":43.23155,"lon":5.43705,"is_reserved":false,"is_disabled":false,"rental_uris":{"android":"levelo://app?vid=2aa00120-26f0-468d-8fc9-3481a3ad36ee","ios":"levelo://app?vid=2aa00120-26f0-468d-8fc9-3481a3ad36ee"},"vehicle_type_id":"4","last_reported":1774442560,"current_range_meters":8800,"station_id":"ce4bhmp2rcd13ifvqgog","pricing_plan_id":"cebpf4jnsgd1na2vs0mg"},{"bike_id":"429d7eee-1b7d-4a50-9161-871ac6edebcd","system_id":"levelo_inurba_marseille","lat":43.29623,"lon":5.37167,"is_reserved":false,"is_disabled":false,"rental_uris":{"android":"levelo://app?vid=429d7eee-1b7d-4a50-9161-871ac6edebcd","ios":"levelo://app?vid=429d7eee-1b7d-4a50-9161-871ac6edebcd"},"vehicle_type_id":"4","last_reported":1774442560,"current_range_meters":8800,"station_id":"ce4bgnh2rcd13ifvqc0g","pricing_plan_id":"cebpf4jnsgd1na2vs0mg"},{"bike_id":"b50f88a8-e30c-487a-9996-6d42f9bd1abc","system_id":"levelo_inurba_marseille","lat":43.28268,"lon":5.35071,"is_reserved":false,"is_disabled":false,"rental_uris":{"android":"levelo://app?vid=b50f88a8-e30c-487a-9996-6d42f9bd1abc","ios":"levelo://app?vid=b50f88a8-e30c-487a-9996-6d42f9bd1abc"},"vehicle_type_id":"4","last_reported":1774442560,"current_range_meters":8800,"station_id":"ce4bhbp2rcd13ifvqerg","pricing_plan_id":"cebpf4jnsgd1na2vs0mg"},{"bike_id":"68574f64-abe4-4afb-a280-27fa21ebd0d5","system_id":"levelo_inurba_marseille","lat":43.2593,"lon":5.40904,"is_reserved":false,"is_disabled":false,"rental_uris":{"android":"levelo://app?vid=68574f64-abe4-4afb-a280-27fa21ebd0d5","ios":"levelo://app?vid=68574f64-abe4-4afb-a280-27fa21ebd0d5"},"vehicle_type_id":"4","last_reported":1774442560,"current_range_meters":9200,"station_id":"ce4bhm92rcd13ifvqglg","pricing_plan_id":"cebpf4jnsgd1na2vs0mg"},{"bike_id":"742ca053-a063-4e48-baca-0cee52277e18","system_id":"levelo_inurba_marseille","lat":43.27078,"lon":5.38298,"is_reserved":false,"is_disabled":true,"rental_uris":{"android":"levelo://app?vid=742ca053-a063-4e48-baca-0cee52277e18","ios":"levelo://app?vid=742ca053-a063-4e48-baca-0cee52277e18"},"vehicle_type_id":"4","last_reported":1774442560,"current_range_meters":9200,"station_id":"st_d3n2fo6cfp8s73cte1j0","pricing_plan_id":"cebpf4jnsgd1na2vs0mg"},{"bike_id":"bc7370d4-acab-4330-b95d-56ba0a70ec18","system_id":"levelo_inurba_marseille","lat":43.24675,"lon":5.38162,"is_reserved":false,"is_disabled":false,"rental_uris":{"android":"levelo://app?vid=bc7370d4-acab-4330-b95d-56ba0a70ec18","ios":"levelo://app?vid=bc7370d4-acab-4330-b95d-56ba0a70ec18"},"vehicle_type_id":"4","last_reported":1774442560,"current_range_meters":9200,"station_id":"ce4bhih2rcd13ifvqfr0","pricing_plan_id":"cebpf4jnsgd1na2vs0mg"},{"bike_id":"01382b8e-6077-4776-a410-b6df05bc3804","system_id":"levelo_inurba_marseille","lat":43.2733,"lon":5.39064,"is_reserved":false,"is_disabled":true,"rental_uris":{"android":"levelo://app?vid=01382b8e-6077-4776-a410-b6df05bc3804","ios":"levelo://app?vid=01382b8e-6077-4776-a410-b6df05bc3804"},"vehicle_type_id":"4","last_reported":1774442560,"current_range_meters":9200,"station_id":"ce4bhgp2rcd13ifvqfe0","pricing_plan_id":"cebpf4jnsgd1na2vs0mg"},{"bike_id":"e1353c27-9dbc-409c-b44a-76842076b63d","system_id":"levelo_inurba_marseille","lat":43.28858,"lon":5.42495,"is_reserved":false,"is_disabled":false,"rental_uris":{"android":"levelo://app?vid=e1353c27-9dbc-409c-b44a-76842076b63d","ios":"levelo://app?vid=e1353c27-9dbc-409c-b44a-76842076b63d"},"vehicle_type_id":"4","last_reported":1774442560,"current_range_meters":9200,"station_id":"","pricing_plan_id":"cebpf4jnsgd1na2vs0mg"},{"bike_id":"9a8960b3-d25e-4551-8e28-b39f62740562","system_id":"levelo_inurba_marseille","lat":43.33553,"lon":5.37465,"is_reserved":false,"is_disabled":false,"rental_uris":{"android":"levelo://app?vid=9a8960b3-d25e-4551-8e28-b39f62740562","ios":"levelo://app?vid=9a8960b3-d25e-4551-8e28-b39f62740562"},"vehicle_type_id":"4","last_reported":1774442560,"current_range_meters":9200,"station_id":"st_d46tts09ee8s73dlu43g","pricing_plan_id":"cebpf4jnsgd1na2vs0mg"},{"bike_id":"47dd47d3-069b-44b7-9b23-4d51871ff836","system_id":"levelo_inurba_marseille","lat":43.25505,"lon":5.37659,"is_reserved":false,"is_disabled":false,"rental_uris":{"android":"levelo://app?vid=47dd47d3-069b-44b7-9b23-4d51871ff836","ios":"levelo://app?vid=47dd47d3-069b-44b7-9b23-4d51871ff836"},"vehicle_type_id":"4","last_reported":1774442560,"current_range_meters":9200,"station_id":"ce4bhh12rcd13ifvqff0","pricing_plan_id":"cebpf4jnsgd1na2vs0mg"},{"bike_id":"1b627dd7-d071-4a06-8f09-aadb194ffd03","system_id":"levelo_inurba_marseille","lat":43.30198,"lon":5.3804,"is_reserved":false,"is_disabled":false,"rental_uris":{"android":"levelo://app?vid=1b627dd7-d071-4a06-8f09-aadb194ffd03","ios":"levelo://app?vid=1b627dd7-d071-4a06-8f09-aadb194ffd03"},"vehicle_type_id":"4","last_reported":1774442560,"current_range_meters":9200,"station_id":"","pricing_plan_id":"cebpf4jnsgd1na2vs0mg"},{"bike_id":"9c440d29-35c0-4b2b-88b7-f37f37a329fb","system_id":"levelo_inurba_marseille","lat":43.29143,"lon":5.3717,"is_reserved":false,"is_disabled":false,"rental_uris":{"android":"levelo://app?vid=9c440d29-35c0-4b2b-88b7-f37f37a329fb","ios":"levelo://app?vid=9c440d29-35c0-4b2b-88b7-f37f37a329fb"},"vehicle_type_id":"4","last_reported":1774442560,"current_range_meters":9200,"station_id":"ce4bha92rcd13ifvqeh0","pricing_plan_id":"cebpf4jnsgd1na2vs0mg"},{"bike_id":"de387f06-430d-4a21-b0d3-0639cb2d1ba5","system_id":"levelo_inurba_marseille","lat":43.28468,"lon":5.35887,"is_reserved":false,"is_disabled":false,"rental_uris":{"android":"levelo://app?vid=de387f06-430d-4a21-b0d3-0639cb2d1ba5","ios":"levelo://app?vid=de387f06-430d-4a21-b0d3-0639cb2d1ba5"},"vehicle_type_id":"4","last_reported":1774442560,"current_range_meters":9200,"station_id":"ce4bhah2rcd13ifvqei0","pricing_plan_id":"cebpf4jnsgd1na2vs0mg"},{"bike_id":"9923600c-01c8-45d7-8256-7aa1c8b8617b","system_id":"levelo_inurba_marseille","lat":43.24789,"lon":5.37494,"is_reserved":false,"is_disabled":false,"rental_uris":{"android":"levelo://app?vid=9923600c-01c8-45d7-8256-7aa1c8b8617b","ios":"levelo://app?vid=9923600c-01c8-45d7-8256-7aa1c8b8617b"},"vehicle_type_id":"4","last_reported":1774442560,"current_range_meters":9200,"station_id":"ce4bhgh2rcd13ifvqfb0","pricing_plan_id":"cebpf4jnsgd1na2vs0mg"},{"bike_id":"03a91464-7c37-4bfe-a5b1-0ae1789a67b5","system_id":"levelo_inurba_marseille","lat":43.32664,"lon":5.40992,"is_reserved":false,"is_disabled":false,"rental_uris":{"android":"levelo://app?vid=03a91464-7c37-4bfe-a5b1-0ae1789a67b5","ios":"levelo://app?vid=03a91464-7c37-4bfe-a5b1-0ae1789a67b5"},"vehicle_type_id":"4","last_reported":1774442560,"current_range_meters":9200,"station_id":"ce4bhpp2rcd13ifvqhgg","pricing_plan_id":"cebpf4jnsgd1na2vs0mg"},{"bike_id":"34bfc7d0-ec66-4b33-b383-dc3f18312f93","system_id":"levelo_inurba_marseille","lat":43.245451,"lon":5.395197,"is_reserved":false,"is_disabled":false,"rental_uris":{"android":"levelo://app?vid=34bfc7d0-ec66-4b33-b383-dc3f18312f93","ios":"levelo://app?vid=34bfc7d0-ec66-4b33-b383-dc3f18312f93"},"vehicle_type_id":"4","last_reported":1774442560,"current_range_meters":9200,"station_id":"ce4bhlp2rcd13ifvqgjg","pricing_plan_id":"cebpf4jnsgd1na2vs0mg"},{"bike_id":"944ccb07-d804-4fc6-a8e4-922126b7215b","system_id":"levelo_inurba_marseille","lat":43.29966,"lon":5.37123,"is_reserved":false,"is_disabled":false,"rental_uris":{"android":"levelo://app?vid=944ccb07-d804-4fc6-a8e4-922126b7215b","ios":"levelo://app?vid=944ccb07-d804-4fc6-a8e4-922126b7215b"},"vehicle_type_id":"4","last_reported":1774442560,"current_range_meters":9200,"station_id":"ce4bgr92rcd13ifvqc7g","pricing_plan_id":"cebpf4jnsgd1na2vs0mg"},{"bike_id":"0d1752c9-3429-40ed-a487-bb9cb7d22fbc","system_id":"levelo_inurba_marseille","lat":43.21196,"lon":5.35061,"is_reserved":false,"is_disabled":false,"rental_uris":{"android":"levelo://app?vid=0d1752c9-3429-40ed-a487-bb9cb7d22fbc","ios":"levelo://app?vid=0d1752c9-3429-40ed-a487-bb9cb7d22fbc"},"vehicle_type_id":"4","last_reported":1774442560,"current_range_meters":9200,"station_id":"","pricing_plan_id":"cebpf4jnsgd1na2vs0mg"},{"bike_id":"7c367541-87a0-44b6-b518-c9f712651281","system_id":"levelo_inurba_marseille","lat":43.28416,"lon":5.34969,"is_reserved":false,"is_disabled":false,"rental_uris":{"android":"levelo://app?vid=7c367541-87a0-44b6-b518-c9f712651281","ios":"levelo://app?vid=7c367541-87a0-44b6-b518-c9f712651281"},"vehicle_type_id":"4","last_reported":1774442560,"current_range_meters":9200,"station_id":"ce4bhbh2rcd13ifvqepg","pricing_plan_id":"cebpf4jnsgd1na2vs0mg"},{"bike_id":"785b0aab-4bf0-4a95-afa1-cc4ca163b889","system_id":"levelo_inurba_marseille","lat":43.30165,"lon":5.3807,"is_reserved":false,"is_disabled":false,"rental_uris":{"android":"levelo://app?vid=785b0aab-4bf0-4a95-afa1-cc4ca163b889","ios":"levelo://app?vid=785b0aab-4bf0-4a95-afa1-cc4ca163b889"},"vehicle_type_id":"4","last_reported":1774442560,"current_range_meters":9200,"station_id":"ce4bgjp2rcd13ifvqbh0","pricing_plan_id":"cebpf4jnsgd1na2vs0mg"},{"bike_id":"6f1933b6-62e3-4fe3-a71b-d8b1f30812ee","system_id":"levelo_inurba_marseille","lat":43.23148,"lon":5.43713,"is_reserved":false,"is_disabled":false,"rental_uris":{"android":"levelo://app?vid=6f1933b6-62e3-4fe3-a71b-d8b1f30812ee","ios":"levelo://app?vid=6f1933b6-62e3-4fe3-a71b-d8b1f30812ee"},"vehicle_type_id":"4","last_reported":1774442560,"current_range_meters":9200,"station_id":"ce4bhmp2rcd13ifvqgog","pricing_plan_id":"cebpf4jnsgd1na2vs0mg"},{"bike_id":"8da4c177-2bb5-4f4d-ab4e-4d0e548e74fb","system_id":"levelo_inurba_marseille","lat":43.29768,"lon":5.42756,"is_reserved":false,"is_disabled":false,"rental_uris":{"android":"levelo://app?vid=8da4c177-2bb5-4f4d-ab4e-4d0e548e74fb","ios":"levelo://app?vid=8da4c177-2bb5-4f4d-ab4e-4d0e548e74fb"},"vehicle_type_id":"4","last_reported":1774442560,"current_range_meters":9600,"station_id":"st_d3md5207bmas73dh9klg","pricing_plan_id":"cebpf4jnsgd1na2vs0mg"},{"bike_id":"3c506157-f1c2-47cf-891f-e540401fcf63","system_id":"levelo_inurba_marseille","lat":43.33607,"lon":5.37472,"is_reserved":false,"is_disabled":false,"rental_uris":{"android":"levelo://app?vid=3c506157-f1c2-47cf-891f-e540401fcf63","ios":"levelo://app?vid=3c506157-f1c2-47cf-891f-e540401fcf63"},"vehicle_type_id":"4","last_reported":1774442560,"current_range_meters":9600,"station_id":"st_d46tts09ee8s73dlu43g","pricing_plan_id":"cebpf4jnsgd1na2vs0mg"},{"bike_id":"65da9330-c19a-498b-9f24-e99ba36e921a","system_id":"levelo_inurba_marseille","lat":43.30546,"lon":5.36526,"is_reserved":false,"is_disabled":false,"rental_uris":{"android":"levelo://app?vid=65da9330-c19a-498b-9f24-e99ba36e921a","ios":"levelo://app?vid=65da9330-c19a-498b-9f24-e99ba36e921a"},"vehicle_type_id":"4","last_reported":1774442560,"current_range_meters":9600,"station_id":"ce4bgs12rcd13ifvqcag","pricing_plan_id":"cebpf4jnsgd1na2vs0mg"},{"bike_id":"b7be6b4a-b0f7-4cde-be7c-9acdd1327021","system_id":"levelo_inurba_marseille","lat":43.258236,"lon":5.394396,"is_reserved":false,"is_disabled":false,"rental_uris":{"android":"levelo://app?vid=b7be6b4a-b0f7-4cde-be7c-9acdd1327021","ios":"levelo://app?vid=b7be6b4a-b0f7-4cde-be7c-9acdd1327021"},"vehicle_type_id":"4","last_reported":1774442560,"current_range_meters":9600,"station_id":"ce4bhip2rcd13ifvqft0","pricing_plan_id":"cebpf4jnsgd1na2vs0mg"},{"bike_id":"42aedab7-5bb6-45b1-b0ba-9a9484483756","system_id":"levelo_inurba_marseille","lat":43.30946,"lon":5.39054,"is_reserved":false,"is_disabled":false,"rental_uris":{"android":"levelo://app?vid=42aedab7-5bb6-45b1-b0ba-9a9484483756","ios":"levelo://app?vid=42aedab7-5bb6-45b1-b0ba-9a9484483756"},"vehicle_type_id":"4","last_reported":1774442560,"current_range_meters":9600,"station_id":"ce4bgup2rcd13ifvqco0","pricing_plan_id":"cebpf4jnsgd1na2vs0mg"},{"bike_id":"be0d328d-5560-4744-9601-5542473973cf","system_id":"levelo_inurba_marseille","lat":43.24658,"lon":5.38895,"is_reserved":false,"is_disabled":false,"rental_uris":{"android":"levelo://app?vid=be0d328d-5560-4744-9601-5542473973cf","ios":"levelo://app?vid=be0d328d-5560-4744-9601-5542473973cf"},"vehicle_type_id":"4","last_reported":1774442560,"current_range_meters":9600,"station_id":"ce4bhg12rcd13ifvqf60","pricing_plan_id":"cebpf4jnsgd1na2vs0mg"},{"bike_id":"5e272289-d23c-4ff3-a518-40e1e5881d2f","system_id":"levelo_inurba_marseille","lat":43.25573,"lon":5.38247,"is_reserved":false,"is_disabled":false,"rental_uris":{"android":"levelo://app?vid=5e272289-d23c-4ff3-a518-40e1e5881d2f","ios":"levelo://app?vid=5e272289-d23c-4ff3-a518-40e1e5881d2f"},"vehicle_type_id":"4","last_reported":1774442560,"current_range_meters":9600,"station_id":"ce4bhih2rcd13ifvqfs0","pricing_plan_id":"cebpf4jnsgd1na2vs0mg"},{"bike_id":"4eebdffa-846b-42bf-aa89-be20c25ce345","system_id":"levelo_inurba_marseille","lat":43.28463,"lon":5.359,"is_reserved":false,"is_disabled":true,"rental_uris":{"android":"levelo://app?vid=4eebdffa-846b-42bf-aa89-be20c25ce345","ios":"levelo://app?vid=4eebdffa-846b-42bf-aa89-be20c25ce345"},"vehicle_type_id":"4","last_reported":1774442560,"current_range_meters":9600,"station_id":"ce4bhah2rcd13ifvqei0","pricing_plan_id":"cebpf4jnsgd1na2vs0mg"},{"bike_id":"ef14a37e-19e3-4c3d-9072-982cfa3265f5","system_id":"levelo_inurba_marseille","lat":43.30528,"lon":5.3842,"is_reserved":false,"is_disabled":false,"rental_uris":{"android":"levelo://app?vid=ef14a37e-19e3-4c3d-9072-982cfa3265f5","ios":"levelo://app?vid=ef14a37e-19e3-4c3d-9072-982cfa3265f5"},"vehicle_type_id":"4","last_reported":1774442560,"current_range_meters":9600,"station_id":"ce4bgg92rcd13ifvqb30","pricing_plan_id":"cebpf4jnsgd1na2vs0mg"},{"bike_id":"78899ca1-1a54-47b4-a3ef-2d481c8e412e","system_id":"levelo_inurba_marseille","lat":43.29738,"lon":5.37686,"is_reserved":false,"is_disabled":false,"rental_uris":{"android":"levelo://app?vid=78899ca1-1a54-47b4-a3ef-2d481c8e412e","ios":"levelo://app?vid=78899ca1-1a54-47b4-a3ef-2d481c8e412e"},"vehicle_type_id":"4","last_reported":1774442560,"current_range_meters":9600,"station_id":"ce4bgkh2rcd13ifvqbl0","pricing_plan_id":"cebpf4jnsgd1na2vs0mg"},{"bike_id":"effad8c5-355c-47e4-befd-14c78f79379a","system_id":"levelo_inurba_marseille","lat":43.31252,"lon":5.36823,"is_reserved":false,"is_disabled":false,"rental_uris":{"android":"levelo://app?vid=effad8c5-355c-47e4-befd-14c78f79379a","ios":"levelo://app?vid=effad8c5-355c-47e4-befd-14c78f79379a"},"vehicle_type_id":"4","last_reported":1774442560,"current_range_meters":9600,"station_id":"ce4bgl92rcd13ifvqbq0","pricing_plan_id":"cebpf4jnsgd1na2vs0mg"},{"bike_id":"52a2b77d-b5b1-4c9d-8945-8dc44e6464ba","system_id":"levelo_inurba_marseille","lat":43.25408,"lon":5.42584,"is_reserved":false,"is_disabled":false,"rental_uris":{"android":"levelo://app?vid=52a2b77d-b5b1-4c9d-8945-8dc44e6464ba","ios":"levelo://app?vid=52a2b77d-b5b1-4c9d-8945-8dc44e6464ba"},"vehicle_type_id":"4","last_reported":1774442560,"current_range_meters":9600,"station_id":"","pricing_plan_id":"cebpf4jnsgd1na2vs0mg"},{"bike_id":"9d4c91a5-96d9-484f-9d67-862e25b3379d","system_id":"levelo_inurba_marseille","lat":43.2892,"lon":5.384,"is_reserved":false,"is_disabled":false,"rental_uris":{"android":"levelo://app?vid=9d4c91a5-96d9-484f-9d67-862e25b3379d","ios":"levelo://app?vid=9d4c91a5-96d9-484f-9d67-862e25b3379d"},"vehicle_type_id":"4","last_reported":1774442560,"current_range_meters":9600,"station_id":"ce4bh612rcd13ifvqe6g","pricing_plan_id":"cebpf4jnsgd1na2vs0mg"},{"bike_id":"33a8bfd1-905b-442f-b4a3-c09834460501","system_id":"levelo_inurba_marseille","lat":43.2509,"lon":5.40307,"is_reserved":false,"is_disabled":false,"rental_uris":{"android":"levelo://app?vid=33a8bfd1-905b-442f-b4a3-c09834460501","ios":"levelo://app?vid=33a8bfd1-905b-442f-b4a3-c09834460501"},"vehicle_type_id":"4","last_reported":1774442560,"current_range_meters":10000,"station_id":"ce4bhlh2rcd13ifvqgig","pricing_plan_id":"cebpf4jnsgd1na2vs0mg"},{"bike_id":"e3024c0c-e961-4d7b-9268-c639e790db14","system_id":"levelo_inurba_marseille","lat":43.29574,"lon":5.39977,"is_reserved":false,"is_disabled":false,"rental_uris":{"android":"levelo://app?vid=e3024c0c-e961-4d7b-9268-c639e790db14","ios":"levelo://app?vid=e3024c0c-e961-4d7b-9268-c639e790db14"},"vehicle_type_id":"4","last_reported":1774442560,"current_range_meters":10000,"station_id":"ce4bh312rcd13ifvqdj0","pricing_plan_id":"cebpf4jnsgd1na2vs0mg"},{"bike_id":"fefd0d48-9428-49dc-9d8f-841a78a64428","system_id":"levelo_inurba_marseille","lat":43.309507,"lon":5.390282,"is_reserved":false,"is_disabled":false,"rental_uris":{"android":"levelo://app?vid=fefd0d48-9428-49dc-9d8f-841a78a64428","ios":"levelo://app?vid=fefd0d48-9428-49dc-9d8f-841a78a64428"},"vehicle_type_id":"4","last_reported":1774442560,"current_range_meters":10000,"station_id":"","pricing_plan_id":"cebpf4jnsgd1na2vs0mg"},{"bike_id":"d1d4a8c3-fbe0-4faf-87c9-bd48a4bf726f","system_id":"levelo_inurba_marseille","lat":43.30954,"lon":5.39045,"is_reserved":false,"is_disabled":false,"rental_uris":{"android":"levelo://app?vid=d1d4a8c3-fbe0-4faf-87c9-bd48a4bf726f","ios":"levelo://app?vid=d1d4a8c3-fbe0-4faf-87c9-bd48a4bf726f"},"vehicle_type_id":"4","last_reported":1774442560,"current_range_meters":10000,"station_id":"ce4bgup2rcd13ifvqco0","pricing_plan_id":"cebpf4jnsgd1na2vs0mg"},{"bike_id":"3063d35b-cea8-4b8c-aaa7-ea125cc74f0b","system_id":"levelo_inurba_marseille","lat":43.30099,"lon":5.39071,"is_reserved":false,"is_disabled":false,"rental_uris":{"android":"levelo://app?vid=3063d35b-cea8-4b8c-aaa7-ea125cc74f0b","ios":"levelo://app?vid=3063d35b-cea8-4b8c-aaa7-ea125cc74f0b"},"vehicle_type_id":"4","last_reported":1774442560,"current_range_meters":10000,"station_id":"ce4bh192rcd13ifvqdb0","pricing_plan_id":"cebpf4jnsgd1na2vs0mg"},{"bike_id":"a9ed9ea7-fea0-45aa-9529-734693a98cf2","system_id":"levelo_inurba_marseille","lat":43.23791,"lon":5.36627,"is_reserved":false,"is_disabled":false,"rental_uris":{"android":"levelo://app?vid=a9ed9ea7-fea0-45aa-9529-734693a98cf2","ios":"levelo://app?vid=a9ed9ea7-fea0-45aa-9529-734693a98cf2"},"vehicle_type_id":"4","last_reported":1774442560,"current_range_meters":10000,"station_id":"st_d3nk18o9ro0c73en2l3g","pricing_plan_id":"cebpf4jnsgd1na2vs0mg"},{"bike_id":"5ff9dc00-a792-4bdf-9aad-51b76b22be00","system_id":"levelo_inurba_marseille","lat":43.22565,"lon":5.41627,"is_reserved":false,"is_disabled":false,"rental_uris":{"android":"levelo://app?vid=5ff9dc00-a792-4bdf-9aad-51b76b22be00","ios":"levelo://app?vid=5ff9dc00-a792-4bdf-9aad-51b76b22be00"},"vehicle_type_id":"4","last_reported":1774442560,"current_range_meters":10000,"station_id":"st_d2o4gvlbi1j2169b742g","pricing_plan_id":"cebpf4jnsgd1na2vs0mg"},{"bike_id":"cdacba11-eb24-4e97-ba11-61d8f956fe7c","system_id":"levelo_inurba_marseille","lat":43.241698,"lon":5.364019,"is_reserved":false,"is_disabled":false,"rental_uris":{"android":"levelo://app?vid=cdacba11-eb24-4e97-ba11-61d8f956fe7c","ios":"levelo://app?vid=cdacba11-eb24-4e97-ba11-61d8f956fe7c"},"vehicle_type_id":"4","last_reported":1774442560,"current_range_meters":10000,"station_id":"cpo36qri1sfpv3e86is0","pricing_plan_id":"cebpf4jnsgd1na2vs0mg"},{"bike_id":"44cc2c8d-76ca-44f4-a82f-aefe90c07d8b","system_id":"levelo_inurba_marseille","lat":43.33598,"lon":5.41031,"is_reserved":false,"is_disabled":false,"rental_uris":{"android":"levelo://app?vid=44cc2c8d-76ca-44f4-a82f-aefe90c07d8b","ios":"levelo://app?vid=44cc2c8d-76ca-44f4-a82f-aefe90c07d8b"},"vehicle_type_id":"4","last_reported":1774442560,"current_range_meters":10000,"station_id":"ce4bhqh2rcd13ifvqhmg","pricing_plan_id":"cebpf4jnsgd1na2vs0mg"},{"bike_id":"2e5af36e-3f2c-45e0-8c75-3eeede4f8c1b","system_id":"levelo_inurba_marseille","lat":43.2594,"lon":5.40903,"is_reserved":false,"is_disabled":false,"rental_uris":{"android":"levelo://app?vid=2e5af36e-3f2c-45e0-8c75-3eeede4f8c1b","ios":"levelo://app?vid=2e5af36e-3f2c-45e0-8c75-3eeede4f8c1b"},"vehicle_type_id":"4","last_reported":1774442560,"current_range_meters":10000,"station_id":"ce4bhm92rcd13ifvqglg","pricing_plan_id":"cebpf4jnsgd1na2vs0mg"},{"bike_id":"229d5f7b-0837-42d7-9c5d-fc438c10fd40","system_id":"levelo_inurba_marseille","lat":43.28716,"lon":5.3795,"is_reserved":false,"is_disabled":false,"rental_uris":{"android":"levelo://app?vid=229d5f7b-0837-42d7-9c5d-fc438c10fd40","ios":"levelo://app?vid=229d5f7b-0837-42d7-9c5d-fc438c10fd40"},"vehicle_type_id":"4","last_reported":1774442560,"current_range_meters":10000,"station_id":"ce4bh9p2rcd13ifvqec0","pricing_plan_id":"cebpf4jnsgd1na2vs0mg"},{"bike_id":"9a1b7562-5c14-4853-ad31-a4b1e826c8d0","system_id":"levelo_inurba_marseille","lat":43.22561,"lon":5.41629,"is_reserved":false,"is_disabled":false,"rental_uris":{"android":"levelo://app?vid=9a1b7562-5c14-4853-ad31-a4b1e826c8d0","ios":"levelo://app?vid=9a1b7562-5c14-4853-ad31-a4b1e826c8d0"},"vehicle_type_id":"4","last_reported":1774442560,"current_range_meters":10000,"station_id":"st_d2o4gvlbi1j2169b742g","pricing_plan_id":"cebpf4jnsgd1na2vs0mg"},{"bike_id":"40424783-1c7e-48f9-a72b-49017c8063b7","system_id":"levelo_inurba_marseille","lat":43.23154,"lon":5.43702,"is_reserved":false,"is_disabled":false,"rental_uris":{"android":"levelo://app?vid=40424783-1c7e-48f9-a72b-49017c8063b7","ios":"levelo://app?vid=40424783-1c7e-48f9-a72b-49017c8063b7"},"vehicle_type_id":"4","last_reported":1774442560,"current_range_meters":10000,"station_id":"ce4bhmp2rcd13ifvqgog","pricing_plan_id":"cebpf4jnsgd1na2vs0mg"},{"bike_id":"7b7e8d16-e359-40a0-9d7c-df6096547f00","system_id":"levelo_inurba_marseille","lat":43.30883,"lon":5.37176,"is_reserved":false,"is_disabled":false,"rental_uris":{"android":"levelo://app?vid=7b7e8d16-e359-40a0-9d7c-df6096547f00","ios":"levelo://app?vid=7b7e8d16-e359-40a0-9d7c-df6096547f00"},"vehicle_type_id":"4","last_reported":1774442560,"current_range_meters":10000,"station_id":"ce4bguh2rcd13ifvqckg","pricing_plan_id":"cebpf4jnsgd1na2vs0mg"},{"bike_id":"8cc83fff-6641-4b28-9444-fc572f4dd3c3","system_id":"levelo_inurba_marseille","lat":43.28483,"lon":5.48384,"is_reserved":false,"is_disabled":false,"rental_uris":{"android":"levelo://app?vid=8cc83fff-6641-4b28-9444-fc572f4dd3c3","ios":"levelo://app?vid=8cc83fff-6641-4b28-9444-fc572f4dd3c3"},"vehicle_type_id":"4","last_reported":1774442560,"current_range_meters":10000,"station_id":"","pricing_plan_id":"cebpf4jnsgd1na2vs0mg"},{"bike_id":"2dff1b50-0ad4-4bf0-b506-0d0736c3c696","system_id":"levelo_inurba_marseille","lat":43.30664,"lon":5.37713,"is_reserved":false,"is_disabled":false,"rental_uris":{"android":"levelo://app?vid=2dff1b50-0ad4-4bf0-b506-0d0736c3c696","ios":"levelo://app?vid=2dff1b50-0ad4-4bf0-b506-0d0736c3c696"},"vehicle_type_id":"4","last_reported":1774442560,"current_range_meters":10000,"station_id":"","pricing_plan_id":"cebpf4jnsgd1na2vs0mg"},{"bike_id":"8855fc01-d15e-456e-820e-2a468839c9d8","system_id":"levelo_inurba_marseille","lat":43.31536,"lon":5.45371,"is_reserved":false,"is_disabled":false,"rental_uris":{"android":"levelo://app?vid=8855fc01-d15e-456e-820e-2a468839c9d8","ios":"levelo://app?vid=8855fc01-d15e-456e-820e-2a468839c9d8"},"vehicle_type_id":"4","last_reported":1774442560,"current_range_meters":10000,"station_id":"","pricing_plan_id":"cebpf4jnsgd1na2vs0mg"},{"bike_id":"6eaf8eff-41f5-4c36-9343-37f58c7a5cdc","system_id":"levelo_inurba_marseille","lat":43.24961,"lon":5.40479,"is_reserved":false,"is_disabled":false,"rental_uris":{"android":"levelo://app?vid=6eaf8eff-41f5-4c36-9343-37f58c7a5cdc","ios":"levelo://app?vid=6eaf8eff-41f5-4c36-9343-37f58c7a5cdc"},"vehicle_type_id":"4","last_reported":1774442560,"current_range_meters":10000,"station_id":"st_d2ngiaodas8pm72gd1h0","pricing_plan_id":"cebpf4jnsgd1na2vs0mg"},{"bike_id":"b492a63d-4a67-405d-9305-0d8d7bf8a5e5","system_id":"levelo_inurba_marseille","lat":43.2119,"lon":5.35072,"is_reserved":false,"is_disabled":false,"rental_uris":{"android":"levelo://app?vid=b492a63d-4a67-405d-9305-0d8d7bf8a5e5","ios":"levelo://app?vid=b492a63d-4a67-405d-9305-0d8d7bf8a5e5"},"vehicle_type_id":"4","last_reported":1774442560,"current_range_meters":10000,"station_id":"st_cvj6sg6p6f1abm77japg","pricing_plan_id":"cebpf4jnsgd1na2vs0mg"},{"bike_id":"ad1b03be-4d9f-4a36-8287-b69625fc84fe","system_id":"levelo_inurba_marseille","lat":43.25349,"lon":5.42144,"is_reserved":false,"is_disabled":false,"rental_uris":{"android":"levelo://app?vid=ad1b03be-4d9f-4a36-8287-b69625fc84fe","ios":"levelo://app?vid=ad1b03be-4d9f-4a36-8287-b69625fc84fe"},"vehicle_type_id":"4","last_reported":1774442560,"current_range_meters":10800,"station_id":"st_d2m65c5bi1j21697t3ng","pricing_plan_id":"cebpf4jnsgd1na2vs0mg"},{"bike_id":"f5482640-f0e8-4788-b049-15ff903f9080","system_id":"levelo_inurba_marseille","lat":43.30541,"lon":5.36538,"is_reserved":false,"is_disabled":false,"rental_uris":{"android":"levelo://app?vid=f5482640-f0e8-4788-b049-15ff903f9080","ios":"levelo://app?vid=f5482640-f0e8-4788-b049-15ff903f9080"},"vehicle_type_id":"4","last_reported":1774442560,"current_range_meters":10800,"station_id":"ce4bgs12rcd13ifvqcag","pricing_plan_id":"cebpf4jnsgd1na2vs0mg"},{"bike_id":"010fcd91-f1ba-4edb-a0cd-f9401b0078bd","system_id":"levelo_inurba_marseille","lat":43.30927,"lon":5.40165,"is_reserved":false,"is_disabled":false,"rental_uris":{"android":"levelo://app?vid=010fcd91-f1ba-4edb-a0cd-f9401b0078bd","ios":"levelo://app?vid=010fcd91-f1ba-4edb-a0cd-f9401b0078bd"},"vehicle_type_id":"4","last_reported":1774442560,"current_range_meters":10800,"station_id":"ce4bgvp2rcd13ifvqct0","pricing_plan_id":"cebpf4jnsgd1na2vs0mg"},