{"last_updated":1734466220,"ttl":60,"version":"2.2","data":{"bikes":[{"bike_id":"b4867eb7-76a2-41ec-b1ac-37dc322b3d24","system_id":"levelo_inurba_marseille","lat":43.29205,"lon":5.39337,"is_reserved":false,"is_disabled":false,"rental_uris":{"android":"levelo://app?vid=b4867eb7-76a2-41ec-b1ac-37dc322b3d24","ios":"levelo://app?vid=b4867eb7-76a2-41ec-b1ac-37dc322b3d24"},"vehicle_type_id":"4","last_reported":1734466220,"current_range_meters":18000,"station_id":"ce4bh192rcd13ifvqdd0","pricing_plan_id":"cebpf4jnsgd1na2vs0mg"},{"bike_id":"86d1f0d2-cc9e-4374-8511-b59412218c7b","system_id":"levelo_inurba_marseille","lat":43.31166,"lon":5.38719,"is_reserved":false,"is_disabled":false,"rental_uris":{"android":"levelo://app?vid=86d1f0d2-cc9e-4374-8511-b59412218c7b","ios":"levelo://app?vid=86d1f0d2-cc9e-4374-8511-b59412218c7b"},"vehicle_type_id":"4","last_reported":1734466220,"current_range_meters":17600,"station_id":"ce4bgv12rcd13ifvqcp0","pricing_plan_id":"cebpf4jnsgd1na2vs0mg"},{"bike_id":"6e2cce5a-7603-4843-a252-616f12793bbd","system_id":"levelo_inurba_marseille","lat":43.3108,"lon":5.42431,"is_reserved":false,"is_disabled":false,"rental_uris":{"android":"levelo://app?vid=6e2cce5a-7603-4843-a252-616f12793bbd","ios":"levelo://app?vid=6e2cce5a-7603-4843-a252-616f12793bbd"},"vehicle_type_id":"4","last_reported":1734466220,"current_range_meters":10800,"station_id":"ce4bhp92rcd13ifvqhag","pricing_plan_id":"cebpf4jnsgd1na2vs0mg"},{"bike_id":"360c8721-12eb-4735-ac2d-4c0d0142f8ed","system_id":"levelo_inurba_marseille","lat":43.30428,"lon":5.39746,"is_reserved":false,"is_disabled":false,"rental_uris":{"android":"levelo://app?vid=360c8721-12eb-4735-ac2d-4c0d0142f8ed","ios":"levelo://app?vid=360c8721-12eb-4735-ac2d-4c0d0142f8ed"},"vehicle_type_id":"4","last_reported":1734466220,"current_range_meters":12400,"station_id":"ce4bh092rcd13ifvqd20","pricing_plan_id":"cebpf4jnsgd1na2vs0mg"},{"bike_id":"df99d8de-50f7-4deb-b58a-cb5175498e3a","system_id":"levelo_inurba_marseille","lat":43.28035,"lon":5.36942,"is_reserved":false,"is_disabled":false,"rental_uris":{"android":"levelo://app?vid=df99d8de-50f7-4deb-b58a-cb5175498e3a","ios":"levelo://app?vid=df99d8de-50f7-4deb-b58a-cb5175498e3a"},"vehicle_type_id":"4","last_reported":1734466220,"current_range_meters":24800,"station_id":"ce4bha12rcd13ifvqef0","pricing_plan_id":"cebpf4jnsgd1na2vs0mg"},{"bike_id":"fc2fa04a-e722-4371-8749-69685a4b0890","system_id":"levelo_inurba_marseille","lat":43.255817,"lon":5.382317,"is_reserved":false,"is_disabled":false,"rental_uris":{"android":"levelo://app?vid=fc2fa04a-e722-4371-8749-69685a4b0890","ios":"levelo://app?vid=fc2fa04a-e722-4371-8749-69685a4b0890"},"vehicle_type_id":"4","last_reported":1734466220,"current_range_meters":19600,"station_id":"ce4bhih2rcd13ifvqfs0","pricing_plan_id":"cebpf4jnsgd1na2vs0mg"},{"bike_id":"91e1efbf-d73c-4813-8358-4f8cd30ff5a5","system_id":"levelo_inurba_marseille","lat":43.29273,"lon":5.40126,"is_reserved":false,"is_disabled":false,"rental_uris":{"android":"levelo://app?vid=91e1efbf-d73c-4813-8358-4f8cd30ff5a5","ios":"levelo://app?vid=91e1efbf-d73c-4813-8358-4f8cd30ff5a5"},"vehicle_type_id":"4","last_reported":1734466220,"current_range_meters":34000,"station_id":"ce4bh312rcd13ifvqdk0","pricing_plan_id":"cebpf4jnsgd1na2vs0mg"},{"bike_id":"b11582ef-cd79-4520-90a0-ff99d0a86791","system_id":"levelo_inurba_marseille","lat":43.28663,"lon":5.36359,"is_reserved":false,"is_disabled":false,"rental_uris":{"android":"levelo://app?vid=b11582ef-cd79-4520-90a0-ff99d0a86791","ios":"levelo://app?vid=b11582ef-cd79-4520-90a0-ff99d0a86791"},"vehicle_type_id":"4","last_reported":1734466220,"current_range_meters":30400,"station_id":"ce4bhah2rcd13ifvqej0","pricing_plan_id":"cebpf4jnsgd1na2vs0mg"},{"bike_id":"b1b1f756-c1a0-4e66-8530-9c85602c1813","system_id":"levelo_inurba_marseille","lat":43.322,"lon":5.36554,"is_reserved":false,"is_disabled":false,"rental_uris":{"android":"levelo://app?vid=b1b1f756-c1a0-4e66-8530-9c85602c1813","ios":"levelo://app?vid=b1b1f756-c1a0-4e66-8530-9c85602c1813"},"vehicle_type_id":"4","last_reported":1734466220,"current_range_meters":22800,"station_id":"ce4bhsh2rcd13ifvqi2g","pricing_plan_id":"cebpf4jnsgd1na2vs0mg"},{"bike_id":"4499e5cb-e9c9-497a-8545-66527ad733fe","system_id":"levelo_inurba_marseille","lat":43.29881,"lon":5.38907,"is_reserved":false,"is_disabled":false,"rental_uris":{"android":"levelo://app?vid=4499e5cb-e9c9-497a-8545-66527ad733fe","ios":"levelo://app?vid=4499e5cb-e9c9-497a-8545-66527ad733fe"},"vehicle_type_id":"4","last_reported":1734466220,"current_range_meters":9600,"station_id":"ce4bh392rcd13ifvqdl0","pricing_plan_id":"cebpf4jnsgd1na2vs0mg"},{"bike_id":"5c9d787a-ed08-4f6d-aae6-50e448cf550d","system_id":"levelo_inurba_marseille","lat":43.26025,"lon":5.37553,"is_reserved":false,"is_disabled":false,"rental_uris":{"android":"levelo://app?vid=5c9d787a-ed08-4f6d-aae6-50e448cf550d","ios":"levelo://app?vid=5c9d787a-ed08-4f6d-aae6-50e448cf550d"},"vehicle_type_id":"4","last_reported":1734466220,"current_range_meters":35200,"station_id":"ce4bhgh2rcd13ifvqfa0","pricing_plan_id":"cebpf4jnsgd1na2vs0mg"},{"bike_id":"20358b83-225d-4ff6-8386-f5d7e4ace024","system_id":"levelo_inurba_marseille","lat":43.30023,"lon":5.37713,"is_reserved":false,"is_disabled":true,"rental_uris":{"android":"levelo://app?vid=20358b83-225d-4ff6-8386-f5d7e4ace024","ios":"levelo://app?vid=20358b83-225d-4ff6-8386-f5d7e4ace024"},"vehicle_type_id":"4","last_reported":1734466220,"current_range_meters":6400,"station_id":"","pricing_plan_id":"cebpf4jnsgd1na2vs0mg"},{"bike_id":"39c6df87-420a-4b56-b0b5-8549d488d37a","system_id":"levelo_inurba_marseille","lat":43.28345,"lon":5.38099,"is_reserved":false,"is_disabled":false,"rental_uris":{"android":"levelo://app?vid=39c6df87-420a-4b56-b0b5-8549d488d37a","ios":"levelo://app?vid=39c6df87-420a-4b56-b0b5-8549d488d37a"},"vehicle_type_id":"4","last_reported":1734466220,"current_range_meters":33200,"station_id":"ce4bh412rcd13ifvqdr0","pricing_plan_id":"cebpf4jnsgd1na2vs0mg"},{"bike_id":"2fbdd41c-1732-4e93-8819-1535f69b6924","system_id":"levelo_inurba_marseille","lat":43.30412,"lon":5.41285,"is_reserved":false,"is_disabled":false,"rental_uris":{"android":"levelo://app?vid=2fbdd41c-1732-4e93-8819-1535f69b6924","ios":"levelo://app?vid=2fbdd41c-1732-4e93-8819-1535f69b6924"},"vehicle_type_id":"4","last_reported":1734466220,"current_range_meters":14000,"station_id":"ce4bhop2rcd13ifvqh8g","pricing_plan_id":"cebpf4jnsgd1na2vs0mg"},{"bike_id":"8d405b56-bd90-4216-9e34-bb99feb0ba4d","system_id":"levelo_inurba_marseille","lat":43.27495,"lon":5.42449,"is_reserved":false,"is_disabled":false,"rental_uris":{"android":"levelo://app?vid=8d405b56-bd90-4216-9e34-bb99feb0ba4d","ios":"levelo://app?vid=8d405b56-bd90-4216-9e34-bb99feb0ba4d"},"vehicle_type_id":"4","last_reported":1734466220,"current_range_meters":34800,"station_id":"ce4bhn92rcd13ifvqgrg","pricing_plan_id":"cebpf4jnsgd1na2vs0mg"},{"bike_id":"8a7b999e-41f2-494c-ba32-de5da872441d","system_id":"levelo_inurba_marseille","lat":43.28466,"lon":5.359,"is_reserved":false,"is_disabled":false,"rental_uris":{"android":"levelo://app?vid=8a7b999e-41f2-494c-ba32-de5da872441d","ios":"levelo://app?vid=8a7b999e-41f2-494c-ba32-de5da872441d"},"vehicle_type_id":"4","last_reported":1734466220,"current_range_meters":38800,"station_id":"ce4bhah2rcd13ifvqei0","pricing_plan_id":"cebpf4jnsgd1na2vs0mg"},{"bike_id":"4ef58d0d-8e30-4280-aa40-6d3ae5111f3b","system_id":"levelo_inurba_marseille","lat":43.3057,"lon":5.36906,"is_reserved":false,"is_disabled":false,"rental_uris":{"android":"levelo://app?vid=4ef58d0d-8e30-4280-aa40-6d3ae5111f3b","ios":"levelo://app?vid=4ef58d0d-8e30-4280-aa40-6d3ae5111f3b"},"vehicle_type_id":"4","last_reported":1734466220,"current_range_meters":37600,"station_id":"","pricing_plan_id":"cebpf4jnsgd1na2vs0mg"},{"bike_id":"27b383df-6ec0-40f7-a7a0-d5b93c3b72fe","system_id":"levelo_inurba_marseille","lat":43.29015,"lon":5.38141,"is_reserved":false,"is_disabled":false,"rental_uris":{"android":"levelo://app?vid=27b383df-6ec0-40f7-a7a0-d5b93c3b72fe","ios":"levelo://app?vid=27b383df-6ec0-40f7-a7a0-d5b93c3b72fe"},"vehicle_type_id":"4","last_reported":1734466220,"current_range_meters":14000,"station_id":"ce4bh4p2rcd13ifvqe1g","pricing_plan_id":"cebpf4jnsgd1na2vs0mg"},{"bike_id":"217019ea-8c08-4175-aab7-04728a42bf44","system_id":"levelo_inurba_marseille","lat":43.29532,"lon":5.39034,"is_reserved":false,"is_disabled":false,"rental_uris":{"android":"levelo://app?vid=217019ea-8c08-4175-aab7-04728a42bf44","ios":"levelo://app?vid=217019ea-8c08-4175-aab7-04728a42bf44"},"vehicle_type_id":"4","last_reported":1734466220,"current_range_meters":16400,"station_id":"ce4bh3p2rcd13ifvqdp0","pricing_plan_id":"cebpf4jnsgd1na2vs0mg"},{"bike_id":"93d60b0e-d1be-4313-951f-229c23b27964","system_id":"levelo_inurba_marseille","lat":43.29882,"lon":5.38905,"is_reserved":false,"is_disabled":false,"rental_uris":{"android":"levelo://app?vid=93d60b0e-d1be-4313-951f-229c23b27964","ios":"levelo://app?vid=93d60b0e-d1be-4313-951f-229c23b27964"},"vehicle_type_id":"4","last_reported":1734466220,"current_range_meters":27200,"station_id":"ce4bh392rcd13ifvqdl0","pricing_plan_id":"cebpf4jnsgd1na2vs0mg"},{"bike_id":"bfe97e7b-6b0b-4bdc-83b9-1bac7752b9af","system_id":"levelo_inurba_marseille","lat":43.28861,"lon":5.35865,"is_reserved":false,"is_disabled":false,"rental_uris":{"android":"levelo://app?vid=bfe97e7b-6b0b-4bdc-83b9-1bac7752b9af","ios":"levelo://app?vid=bfe97e7b-6b0b-4bdc-83b9-1bac7752b9af"},"vehicle_type_id":"4","last_reported":1734466220,"current_range_meters":24400,"station_id":"ce4bhb12rcd13ifvqem0","pricing_plan_id":"cebpf4jnsgd1na2vs0mg"},{"bike_id":"9c65cac0-2c19-4b7e-a870-22fbcebbec87","system_id":"levelo_inurba_marseille","lat":43.28716,"lon":5.37927,"is_reserved":false,"is_disabled":true,"rental_uris":{"android":"levelo://app?vid=9c65cac0-2c19-4b7e-a870-22fbcebbec87","ios":"levelo://app?vid=9c65cac0-2c19-4b7e-a870-22fbcebbec87"},"vehicle_type_id":"4","last_reported":1734466220,"current_range_meters":0,"station_id":"ce4bh9p2rcd13ifvqec0","pricing_plan_id":"cebpf4jnsgd1na2vs0mg"},{"bike_id":"33d5b731-57e7-485a-afa6-25f1ad322dc5","system_id":"levelo_inurba_marseille","lat":43.33032,"lon":5.39046,"is_reserved":false,"is_disabled":false,"rental_uris":{"android":"levelo://app?vid=33d5b731-57e7-485a-afa6-25f1ad322dc5","ios":"levelo://app?vid=33d5b731-57e7-485a-afa6-25f1ad322dc5"},"vehicle_type_id":"4","last_reported":1734466220,"current_range_meters":13600,"station_id":"ce4bhr92rcd13ifvqhrg","pricing_plan_id":"cebpf4jnsgd1na2vs0mg"},{"bike_id":"6fe7cbfb-4e7e-4fa2-aeff-0309c7eee35c","system_id":"levelo_inurba_marseille","lat":43.24985,"lon":5.38949,"is_reserved":false,"is_disabled":false,"rental_uris":{"android":"levelo://app?vid=6fe7cbfb-4e7e-4fa2-aeff-0309c7eee35c","ios":"levelo://app?vid=6fe7cbfb-4e7e-4fa2-aeff-0309c7eee35c"},"vehicle_type_id":"4","last_reported":1734466220,"current_range_meters":14800,"station_id":"ce4bhgp2rcd13ifvqfd0","pricing_plan_id":"cebpf4jnsgd1na2vs0mg"},{"bike_id":"aacc7da2-1446-4d2a-aa32-e804470fc32d","system_id":"levelo_inurba_marseille","lat":43.30914,"lon":5.40041,"is_reserved":false,"is_disabled":true,"rental_uris":{"android":"levelo://app?vid=aacc7da2-1446-4d2a-aa32-e804470fc32d","ios":"levelo://app?vid=aacc7da2-1446-4d2a-aa32-e804470fc32d"},"vehicle_type_id":"4","last_reported":1734466220,"current_range_meters":18800,"station_id":"","pricing_plan_id":"cebpf4jnsgd1na2vs0mg"},{"bike_id":"937c90ec-cf04-465b-97b2-ee54435829e8","system_id":"levelo_inurba_marseille","lat":43.301974,"lon":5.366212,"is_reserved":false,"is_disabled":true,"rental_uris":{"android":"levelo://app?vid=937c90ec-cf04-465b-97b2-ee54435829e8","ios":"levelo://app?vid=937c90ec-cf04-465b-97b2-ee54435829e8"},"vehicle_type_id":"4","last_reported":1734466220,"current_range_meters":30400,"station_id":"","pricing_plan_id":"cebpf4jnsgd1na2vs0mg"},{"bike_id":"d16bce85-cdf1-41bb-bba8-ece834b668f3","system_id":"levelo_inurba_marseille","lat":43.29783,"lon":5.39342,"is_reserved":false,"is_disabled":false,"rental_uris":{"android":"levelo://app?vid=d16bce85-cdf1-41bb-bba8-ece834b668f3","ios":"levelo://app?vid=d16bce85-cdf1-41bb-bba8-ece834b668f3"},"vehicle_type_id":"4","last_reported":1734466220,"current_range_meters":38000,"station_id":"chh1huq6cuj3fo74tm60","pricing_plan_id":"cebpf4jnsgd1na2vs0mg"},{"bike_id":"af21cd6a-d93b-4c13-abdb-d5302ad25c24","system_id":"levelo_inurba_marseille","lat":43.27323,"lon":5.39079,"is_reserved":false,"is_disabled":false,"rental_uris":{"android":"levelo://app?vid=af21cd6a-d93b-4c13-abdb-d5302ad25c24","ios":"levelo://app?vid=af21cd6a-d93b-4c13-abdb-d5302ad25c24"},"vehicle_type_id":"4","last_reported":1734466220,"current_range_meters":37600,"station_id":"ce4bhgp2rcd13ifvqfe0","pricing_plan_id":"cebpf4jnsgd1na2vs0mg"},{"bike_id":"124e6c05-4926-4207-84f5-da69a7334d60","system_id":"levelo_inurba_marseille","lat":43.29024,"lon":5.38131,"is_reserved":false,"is_disabled":true,"rental_uris":{"android":"levelo://app?vid=124e6c05-4926-4207-84f5-da69a7334d60","ios":"levelo://app?vid=124e6c05-4926-4207-84f5-da69a7334d60"},"vehicle_type_id":"4","last_reported":1734466220,"current_range_meters":37600,"station_id":"ce4bh4p2rcd13ifvqe1g","pricing_plan_id":"cebpf4jnsgd1na2vs0mg"},{"bike_id":"3e448834-dcf8-49ab-bb03-8e9c175c977f","system_id":"levelo_inurba_marseille","lat":43.30097,"lon":5.39076,"is_reserved":false,"is_disabled":false,"rental_uris":{"android":"levelo://app?vid=3e448834-dcf8-49ab-bb03-8e9c175c977f","ios":"levelo://app?vid=3e448834-dcf8-49ab-bb03-8e9c175c977f"},"vehicle_type_id":"4","last_reported":1734466220,"current_range_meters":34800,"station_id":"ce4bh192rcd13ifvqdb0","pricing_plan_id":"cebpf4jnsgd1na2vs0mg"},{"bike_id":"b56c4a15-79b4-43a7-be93-f93d9975d6ed","system_id":"levelo_inurba_marseille","lat":43.26933,"lon":5.40253,"is_reserved":false,"is_disabled":false,"rental_uris":{"android":"levelo://app?vid=b56c4a15-79b4-43a7-be93-f93d9975d6ed","ios":"levelo://app?vid=b56c4a15-79b4-43a7-be93-f93d9975d6ed"},"vehicle_type_id":"4","last_reported":1734466220,"current_range_meters":14400,"station_id":"cjm6bp8fraef2m0cb0m0","pricing_plan_id":"cebpf4jnsgd1na2vs0mg"},{"bike_id":"3e2fafc2-b489-45a3-a98b-fd4864eac52c","system_id":"levelo_inurba_marseille","lat":43.30094,"lon":5.39084,"is_reserved":false,"is_disabled":true,"rental_uris":{"android":"levelo://app?vid=3e2fafc2-b489-45a3-a98b-fd4864eac52c","ios":"levelo://app?vid=3e2fafc2-b489-45a3-a98b-fd4864eac52c"},"vehicle_type_id":"4","last_reported":1734466220,"current_range_meters":1200,"station_id":"ce4bh192rcd13ifvqdb0","pricing_plan_id":"cebpf4jnsgd1na2vs0mg"},{"bike_id":"dc0e6df7-295d-4e62-8939-9c7a9d49b036","system_id":"levelo_inurba_marseille","lat":43.29953,"lon":5.41316,"is_reserved":false,"is_disabled":true,"rental_uris":{"android":"levelo://app?vid=dc0e6df7-295d-4e62-8939-9c7a9d49b036","ios":"levelo://app?vid=dc0e6df7-295d-4e62-8939-9c7a9d49b036"},"vehicle_type_id":"4","last_reported":1734466220,"current_range_meters":28800,"station_id":"ce4bhp12rcd13ifvqh9g","pricing_plan_id":"cebpf4jnsgd1na2vs0mg"},{"bike_id":"e00adc22-223f-4ada-80c9-2463d152fa0e","system_id":"levelo_inurba_marseille","lat":43.29888,"lon":5.38899,"is_reserved":false,"is_disabled":false,"rental_uris":{"android":"levelo://app?vid=e00adc22-223f-4ada-80c9-2463d152fa0e","ios":"levelo://app?vid=e00adc22-223f-4ada-80c9-2463d152fa0e"},"vehicle_type_id":"4","last_reported":1734466220,"current_range_meters":33200,"station_id":"ce4bh392rcd13ifvqdl0","pricing_plan_id":"cebpf4jnsgd1na2vs0mg"},{"bike_id":"0a63bca6-39a0-42cf-bc8f-cd65c34f24df","system_id":"levelo_inurba_marseille","lat":43.24641,"lon":5.38893,"is_reserved":false,"is_disabled":false,"rental_uris":{"android":"levelo://app?vid=0a63bca6-39a0-42cf-bc8f-cd65c34f24df","ios":"levelo://app?vid=0a63bca6-39a0-42cf-bc8f-cd65c34f24df"},"vehicle_type_id":"4","last_reported":1734466220,"current_range_meters":38000,"station_id":"ce4bhg12rcd13ifvqf60","pricing_plan_id":"cebpf4jnsgd1na2vs0mg"},{"bike_id":"e2785b46-005d-4949-9961-a81dd2290aed","system_id":"levelo_inurba_marseille","lat":43.32111,"lon":5.36774,"is_reserved":false,"is_disabled":false,"rental_uris":{"android":"levelo://app?vid=e2785b46-005d-4949-9961-a81dd2290aed","ios":"levelo://app?vid=e2785b46-005d-4949-9961-a81dd2290aed"},"vehicle_type_id":"4","last_reported":1734466220,"current_range_meters":22800,"station_id":"ce4bhrh2rcd13ifvqhug","pricing_plan_id":"cebpf4jnsgd1na2vs0mg"},{"bike_id":"8806f127-b5d3-4cd7-acdc-a8187ef02bd7","system_id":"levelo_inurba_marseille","lat":43.29439,"lon":5.39757,"is_reserved":false,"is_disabled":false,"rental_uris":{"android":"levelo://app?vid=8806f127-b5d3-4cd7-acdc-a8187ef02bd7","ios":"levelo://app?vid=8806f127-b5d3-4cd7-acdc-a8187ef02bd7"},"vehicle_type_id":"4","last_reported":1734466220,"current_range_meters":32400,"station_id":"ce4bh3h2rcd13ifvqdo0","pricing_plan_id":"cebpf4jnsgd1na2vs0mg"},{"bike_id":"ea1ee0a0-f240-4d25-84d9-e6fb6fc7a18c","system_id":"levelo_inurba_marseille","lat":43.33767,"lon":5.4209,"is_reserved":false,"is_disabled":true,"rental_uris":{"android":"levelo://app?vid=ea1ee0a0-f240-4d25-84d9-e6fb6fc7a18c","ios":"levelo://app?vid=ea1ee0a0-f240-4d25-84d9-e6fb6fc7a18c"},"vehicle_type_id":"4","last_reported":1734466220,"current_range_meters":0,"station_id":"","pricing_plan_id":"cebpf4jnsgd1na2vs0mg"},{"bike_id":"06c6e1cd-66a9-44f1-a613-032c381bdb70","system_id":"levelo_inurba_marseille","lat":43.28478,"lon":5.35867,"is_reserved":false,"is_disabled":false,"rental_uris":{"android":"levelo://app?vid=06c6e1cd-66a9-44f1-a613-032c381bdb70","ios":"levelo://app?vid=06c6e1cd-66a9-44f1-a613-032c381bdb70"},"vehicle_type_id":"4","last_reported":1734466220,"current_range_meters":24800,"station_id":"ce4bhah2rcd13ifvqei0","pricing_plan_id":"cebpf4jnsgd1na2vs0mg"},{"bike_id":"12b4b165-951a-4db7-8b79-0bc1787b0fa0","system_id":"levelo_inurba_marseille","lat":43.31761,"lon":5.39024,"is_reserved":false,"is_disabled":false,"rental_uris":{"android":"levelo://app?vid=12b4b165-951a-4db7-8b79-0bc1787b0fa0","ios":"levelo://app?vid=12b4b165-951a-4db7-8b79-0bc1787b0fa0"},"vehicle_type_id":"4","last_reported":1734466220,"current_range_meters":38800,"station_id":"ce4bhqp2rcd13ifvqhng","pricing_plan_id":"cebpf4jnsgd1na2vs0mg"},{"bike_id":"c8f79b9f-b6a3-42c1-83aa-cf20faccc3b4","system_id":"levelo_inurba_marseille","lat":43.266862,"lon":5.382676,"is_reserved":false,"is_disabled":true,"rental_uris":{"android":"levelo://app?vid=c8f79b9f-b6a3-42c1-83aa-cf20faccc3b4","ios":"levelo://app?vid=c8f79b9f-b6a3-42c1-83aa-cf20faccc3b4"},"vehicle_type_id":"4","last_reported":1734466220,"current_range_meters":39200,"station_id":"ce4bhg92rcd13ifvqf90","pricing_plan_id":"cebpf4jnsgd1na2vs0mg"},{"bike_id":"6d0a4370-d019-403f-897f-a8460cf9e1a2","system_id":"levelo_inurba_marseille","lat":43.30417,"lon":5.39746,"is_reserved":false,"is_disabled":false,"rental_uris":{"android":"levelo://app?vid=6d0a4370-d019-403f-897f-a8460cf9e1a2","ios":"levelo://app?vid=6d0a4370-d019-403f-897f-a8460cf9e1a2"},"vehicle_type_id":"4","last_reported":1734466220,"current_range_meters":37600,"station_id":"ce4bh092rcd13ifvqd20","pricing_plan_id":"cebpf4jnsgd1na2vs0mg"},{"bike_id":"ef00e13f-569a-41fd-b53e-49adca3b054e","system_id":"levelo_inurba_marseille","lat":43.27491,"lon":5.42449,"is_reserved":false,"is_disabled":false,"rental_uris":{"android":"levelo://app?vid=ef00e13f-569a-41fd-b53e-49adca3b054e","ios":"levelo://app?vid=ef00e13f-569a-41fd-b53e-49adca3b054e"},"vehicle_type_id":"4","last_reported":1734466220,"current_range_meters":30000,"station_id":"ce4bhn92rcd13ifvqgrg","pricing_plan_id":"cebpf4jnsgd1na2vs0mg"},{"bike_id":"2b9e5232-81d0-497c-a52e-1e7fea60b29a","system_id":"levelo_inurba_marseille","lat":43.323657,"lon":5.388837,"is_reserved":false,"is_disabled":false,"rental_uris":{"android":"levelo://app?vid=2b9e5232-81d0-497c-a52e-1e7fea60b29a","ios":"levelo://app?vid=2b9e5232-81d0-497c-a52e-1e7fea60b29a"},"vehicle_type_id":"4","last_reported":1734466220,"current_range_meters":27600,"station_id":"ce4bhqp2rcd13ifvqhog","pricing_plan_id":"cebpf4jnsgd1na2vs0mg"},{"bike_id":"abc160a5-b345-4f6d-9b91-525c32686bc7","system_id":"levelo_inurba_marseille","lat":43.30439,"lon":5.38891,"is_reserved":false,"is_disabled":false,"rental_uris":{"android":"levelo://app?vid=abc160a5-b345-4f6d-9b91-525c32686bc7","ios":"levelo://app?vid=abc160a5-b345-4f6d-9b91-525c32686bc7"},"vehicle_type_id":"4","last_reported":1734466220,"current_range_meters":21600,"station_id":"ce4bgk12rcd13ifvqbi0","pricing_plan_id":"cebpf4jnsgd1na2vs0mg"},{"bike_id":"fdae6994-2b52-4fd0-8d8f-e92f1ee91c77","system_id":"levelo_inurba_marseille","lat":43.28461,"lon":5.35892,"is_reserved":false,"is_disabled":false,"rental_uris":{"android":"levelo://app?vid=fdae6994-2b52-4fd0-8d8f-e92f1ee91c77","ios":"levelo://app?vid=fdae6994-2b52-4fd0-8d8f-e92f1ee91c77"},"vehicle_type_id":"4","last_reported":1734466220,"current_range_meters":30400,"station_id":"ce4bhah2rcd13ifvqei0","pricing_plan_id":"cebpf4jnsgd1na2vs0mg"},{"bike_id":"d5bb5233-5c13-4106-a5af-af43f6e0c448","system_id":"levelo_inurba_marseille","lat":43.3137,"lon":5.38482,"is_reserved":false,"is_disabled":false,"rental_uris":{"android":"levelo://app?vid=d5bb5233-5c13-4106-a5af-af43f6e0c448","ios":"levelo://app?vid=d5bb5233-5c13-4106-a5af-af43f6e0c448"},"vehicle_type_id":"4","last_reported":1734466220,"current_range_meters":38400,"station_id":"ce4bgt92rcd13ifvqcf0","pricing_plan_id":"cebpf4jnsgd1na2vs0mg"},{"bike_id":"38f20744-af43-4445-b9c5-a52798357518","system_id":"levelo_inurba_marseille","lat":43.25495,"lon":5.37648,"is_reserved":false,"is_disabled":false,"rental_uris":{"android":"levelo://app?vid=38f20744-af43-4445-b9c5-a52798357518","ios":"levelo://app?vid=38f20744-af43-4445-b9c5-a52798357518"},"vehicle_type_id":"4","last_reported":1734466220,"current_range_meters":38000,"station_id":"ce4bhh12rcd13ifvqff0","pricing_plan_id":"cebpf4jnsgd1na2vs0mg"},{"bike_id":"8846bd8f-c0b8-4c74-8001-bc9dee08d09d","system_id":"levelo_inurba_marseille","lat":43.29059,"lon":5.38754,"is_reserved":false,"is_disabled":false,"rental_uris":{"android":"levelo://app?vid=8846bd8f-c0b8-4c74-8001-bc9dee08d09d","ios":"levelo://app?vid=8846bd8f-c0b8-4c74-8001-bc9dee08d09d"},"vehicle_type_id":"4","last_reported":1734466220,"current_range_meters":25200,"station_id":"ce4bh4p2rcd13ifvqe0g","pricing_plan_id":"cebpf4jnsgd1na2vs0mg"},{"bike_id":"3dd03454-9930-421f-baa9-6f7c444d56d0","system_id":"levelo_inurba_marseille","lat":43.24655,"lon":5.38141,"is_reserved":false,"is_disabled":false,"rental_uris":{"android":"levelo://app?vid=3dd03454-9930-421f-baa9-6f7c444d56d0","ios":"levelo://app?vid=3dd03454-9930-421f-baa9-6f7c444d56d0"},"vehicle_type_id":"4","last_reported":1734466220,"current_range_meters":32800,"station_id":"ce4bhih2rcd13ifvqfr0","pricing_plan_id":"cebpf4jnsgd1na2vs0mg"},{"bike_id":"ea836852-5949-4189-9e99-2b4aee4f7e11","system_id":"levelo_inurba_marseille","lat":43.3017,"lon":5.37479,"is_reserved":false,"is_disabled":false,"rental_uris":{"android":"levelo://app?vid=ea836852-5949-4189-9e99-2b4aee4f7e11","ios":"levelo://app?vid=ea836852-5949-4189-9e99-2b4aee4f7e11"},"vehicle_type_id":"4","last_reported":1734466220,"current_range_meters":17200,"station_id":"","pricing_plan_id":"cebpf4jnsgd1na2vs0mg"},{"bike_id":"309d831f-115c-4adf-a559-0862791f9321","system_id":"levelo_inurba_marseille","lat":43.26548,"lon":5.39001,"is_reserved":false,"is_disabled":false,"rental_uris":{"android":"levelo://app?vid=309d831f-115c-4adf-a559-0862791f9321","ios":"levelo://app?vid=309d831f-115c-4adf-a559-0862791f9321"},"vehicle_type_id":"4","last_reported":1734466220,"current_range_meters":14400,"station_id":"ce4bhe12rcd13ifvqf30","pricing_plan_id":"cebpf4jnsgd1na2vs0mg"},{"bike_id":"f2feff4c-28ba-468f-a6dd-9bfdf1705106","system_id":"levelo_inurba_marseille","lat":43.27573,"lon":5.38433,"is_reserved":false,"is_disabled":false,"rental_uris":{"android":"levelo://app?vid=f2feff4c-28ba-468f-a6dd-9bfdf1705106","ios":"levelo://app?vid=f2feff4c-28ba-468f-a6dd-9bfdf1705106"},"vehicle_type_id":"4","last_reported":1734466220,"current_range_meters":38800,"station_id":"ce4bhh92rcd13ifvqfi0","pricing_plan_id":"cebpf4jnsgd1na2vs0mg"},{"bike_id":"5e92ecb3-11f8-486e-b871-ed378b8cfd18","system_id":"levelo_inurba_marseille","lat":43.31284,"lon":5.40151,"is_reserved":false,"is_disabled":false,"rental_uris":{"android":"levelo://app?vid=5e92ecb3-11f8-486e-b871-ed378b8cfd18","ios":"levelo://app?vid=5e92ecb3-11f8-486e-b871-ed378b8cfd18"},"vehicle_type_id":"4","last_reported":1734466220,"current_range_meters":16000,"station_id":"ce4bh092rcd13ifvqd30","pricing_plan_id":"cebpf4jnsgd1na2vs0mg"},{"bike_id":"30849068-80f6-42b6-9128-585925b1ced1","system_id":"levelo_inurba_marseille","lat":43.30094,"lon":5.39073,"is_reserved":false,"is_disabled":false,"rental_uris":{"android":"levelo://app?vid=30849068-80f6-42b6-9128-585925b1ced1","ios":"levelo://app?vid=30849068-80f6-42b6-9128-585925b1ced1"},"vehicle_type_id":"4","last_reported":1734466220,"current_range_meters":34800,"station_id":"ce4bh192rcd13ifvqdb0","pricing_plan_id":"cebpf4jnsgd1na2vs0mg"},{"bike_id":"45b39e50-137b-40ed-8099-af5b128ed6d9","system_id":"levelo_inurba_marseille","lat":43.29552,"lon":5.42294,"is_reserved":false,"is_disabled":false,"rental_uris":{"android":"levelo://app?vid=45b39e50-137b-40ed-8099-af5b128ed6d9","ios":"levelo://app?vid=45b39e50-137b-40ed-8099-af5b128ed6d9"},"vehicle_type_id":"4","last_reported":1734466220,"current_range_meters":22400,"station_id":"ce4bhph2rcd13ifvqhdg","pricing_plan_id":"cebpf4jnsgd1na2vs0mg"},{"bike_id":"29178437-6c99-4660-97f8-8e869a8bd3ad","system_id":"levelo_inurba_marseille","lat":43.29553,"lon":5.42286,"is_reserved":false,"is_disabled":false,"rental_uris":{"android":"levelo://app?vid=29178437-6c99-4660-97f8-8e869a8bd3ad","ios":"levelo://app?vid=29178437-6c99-4660-97f8-8e869a8bd3ad"},"vehicle_type_id":"4","last_reported":1734466220,"current_range_meters":38800,"station_id":"ce4bhph2rcd13ifvqhdg","pricing_plan_id":"cebpf4jnsgd1na2vs0mg"},{"bike_id":"77b045ec-31af-4db4-b5a1-524f94c3c261","system_id":"levelo_inurba_marseille","lat":43.29308,"lon":5.37452,"is_reserved":false,"is_disabled":true,"rental_uris":{"android":"levelo://app?vid=77b045ec-31af-4db4-b5a1-524f94c3c261","ios":"levelo://app?vid=77b045ec-31af-4db4-b5a1-524f94c3c261"},"vehicle_type_id":"4","last_reported":1734466220,"current_range_meters":35200,"station_id":"ce4bgi12rcd13ifvqb70","pricing_plan_id":"cebpf4jnsgd1na2vs0mg"},{"bike_id":"68b87acd-70e3-43a8-bdf6-7a10ad4b1651","system_id":"levelo_inurba_marseille","lat":43.2857,"lon":5.39495,"is_reserved":false,"is_disabled":false,"rental_uris":{"android":"levelo://app?vid=68b87acd-70e3-43a8-bdf6-7a10ad4b1651","ios":"levelo://app?vid=68b87acd-70e3-43a8-bdf6-7a10ad4b1651"},"vehicle_type_id":"4","last_reported":1734466220,"current_range_meters":18800,"station_id":"ce4bh292rcd13ifvqdg0","pricing_plan_id":"cebpf4jnsgd1na2vs0mg"},{"bike_id":"2bf4c27f-73f1-47b0-882f-c1c6ceb171f4","system_id":"levelo_inurba_marseille","lat":43.2407,"lon":5.37751,"is_reserved":false,"is_disabled":false,"rental_uris":{"android":"levelo://app?vid=2bf4c27f-73f1-47b0-882f-c1c6ceb171f4","ios":"levelo://app?vid=2bf4c27f-73f1-47b0-882f-c1c6ceb171f4"},"vehicle_type_id":"4","last_reported":1734466220,"current_range_meters":37600,"station_id":"ce4bhnp2rcd13ifvqgvg","pricing_plan_id":"cebpf4jnsgd1na2vs0mg"},{"bike_id":"11de44e4-fb7b-4b95-8378-6a52a6f6b88e","system_id":"levelo_inurba_marseille","lat":43.28999,"lon":5.35616,"is_reserved":false,"is_disabled":false,"rental_uris":{"android":"levelo://app?vid=11de44e4-fb7b-4b95-8378-6a52a6f6b88e","ios":"levelo://app?vid=11de44e4-fb7b-4b95-8378-6a52a6f6b88e"},"vehicle_type_id":"4","last_reported":1734466220,"current_range_meters":38400,"station_id":"ce4bhb92rcd13ifvqen0","pricing_plan_id":"cebpf4jnsgd1na2vs0mg"},{"bike_id":"130a2660-ebd5-47b0-b3a3-00e69fdbf9f8","system_id":"levelo_inurba_marseille","lat":43.29254,"lon":5.40906,"is_reserved":false,"is_disabled":false,"rental_uris":{"android":"levelo://app?vid=130a2660-ebd5-47b0-b3a3-00e69fdbf9f8","ios":"levelo://app?vid=130a2660-ebd5-47b0-b3a3-00e69fdbf9f8"},"vehicle_type_id":"4","last_reported":1734466220,"current_range_meters":38800,"station_id":"ce4bh192rcd13ifvqdc0","pricing_plan_id":"cebpf4jnsgd1na2vs0mg"},{"bike_id":"7ac5424e-a731-49fe-826a-ac5d1fb7499c","system_id":"levelo_inurba_marseille","lat":43.29424,"lon":5.38611,"is_reserved":false,"is_disabled":true,"rental_uris":{"android":"levelo://app?vid=7ac5424e-a731-49fe-826a-ac5d1fb7499c","ios":"levelo://app?vid=7ac5424e-a731-49fe-826a-ac5d1fb7499c"},"vehicle_type_id":"4","last_reported":1734466220,"current_range_meters":400,"station_id":"ce4bh2h2rcd13ifvqdh0","pricing_plan_id":"cebpf4jnsgd1na2vs0mg"},{"bike_id":"db23072e-de1a-4644-811c-c402eaa8abff","system_id":"levelo_inurba_marseille","lat":43.28698,"lon":5.37402,"is_reserved":false,"is_disabled":false,"rental_uris":{"android":"levelo://app?vid=db23072e-de1a-4644-811c-c402eaa8abff","ios":"levelo://app?vid=db23072e-de1a-4644-811c-c402eaa8abff"},"vehicle_type_id":"4","last_reported":1734466220,"current_range_meters":8000,"station_id":"ce4bh3p2rcd13ifvqdq0","pricing_plan_id":"cebpf4jnsgd1na2vs0mg"},{"bike_id":"c953ff18-b846-472a-8545-9e903f392b49","system_id":"levelo_inurba_marseille","lat":43.306476,"lon":5.400887,"is_reserved":false,"is_disabled":false,"rental_uris":{"android":"levelo://app?vid=c953ff18-b846-472a-8545-9e903f392b49","ios":"levelo://app?vid=c953ff18-b846-472a-8545-9e903f392b49"},"vehicle_type_id":"4","last_reported":1734466220,"current_range_meters":6400,"station_id":"ce4bh112rcd13ifvqda0","pricing_plan_id":"cebpf4jnsgd1na2vs0mg"},{"bike_id":"56c02537-b677-43e5-80b7-3400913d2016","system_id":"levelo_inurba_marseille","lat":43.29263,"lon":5.40147,"is_reserved":false,"is_disabled":false,"rental_uris":{"android":"levelo://app?vid=56c02537-b677-43e5-80b7-3400913d2016","ios":"levelo://app?vid=56c02537-b677-43e5-80b7-3400913d2016"},"vehicle_type_id":"4","last_reported":1734466220,"current_range_meters":21600,"station_id":"ce4bh312rcd13ifvqdk0","pricing_plan_id":"cebpf4jnsgd1na2vs0mg"},{"bike_id":"3975bb97-dd9b-47d6-be00-a863027faf84","system_id":"levelo_inurba_marseille","lat":43.27942,"lon":5.41046,"is_reserved":false,"is_disabled":false,"rental_uris":{"android":"levelo://app?vid=3975bb97-dd9b-47d6-be00-a863027faf84","ios":"levelo://app?vid=3975bb97-dd9b-47d6-be00-a863027faf84"},"vehicle_type_id":"4","last_reported":1734466220,"current_range_meters":28800,"station_id":"ce4bhnp2rcd13ifvqh0g","pricing_plan_id":"cebpf4jnsgd1na2vs0mg"},{"bike_id":"a47a812b-8479-4dbf-a984-c261870d3f1a","system_id":"levelo_inurba_marseille","lat":43.32473,"lon":5.36555,"is_reserved":false,"is_disabled":false,"rental_uris":{"android":"levelo://app?vid=a47a812b-8479-4dbf-a984-c261870d3f1a","ios":"levelo://app?vid=a47a812b-8479-4dbf-a984-c261870d3f1a"},"vehicle_type_id":"4","last_reported":1734466220,"current_range_meters":7200,"station_id":"ce4bhs12rcd13ifvqhvg","pricing_plan_id":"cebpf4jnsgd1na2vs0mg"},{"bike_id":"399886e1-1fd8-45ef-b9a3-f32444b7db24","system_id":"levelo_inurba_marseille","lat":43.27322,"lon":5.39087,"is_reserved":false,"is_disabled":true,"rental_uris":{"android":"levelo://app?vid=399886e1-1fd8-45ef-b9a3-f32444b7db24","ios":"levelo://app?vid=399886e1-1fd8-45ef-b9a3-f32444b7db24"},"vehicle_type_id":"4","last_reported":1734466220,"current_range_meters":35200,"station_id":"ce4bhgp2rcd13ifvqfe0","pricing_plan_id":"cebpf4jnsgd1na2vs0mg"},{"bike_id":"59dae833-2bec-49e2-9523-38c687f543b6","system_id":"levelo_inurba_marseille","lat":43.29528,"lon":5.39031,"is_reserved":false,"is_disabled":false,"rental_uris":{"android":"levelo://app?vid=59dae833-2bec-49e2-9523-38c687f543b6","ios":"levelo://app?vid=59dae833-2bec-49e2-9523-38c687f543b6"},"vehicle_type_id":"4","last_reported":1734466220,"current_range_meters":38800,"station_id":"ce4bh3p2rcd13ifvqdp0","pricing_plan_id":"cebpf4jnsgd1na2vs0mg"},{"bike_id":"bf673e10-a449-4566-ae2c-76daf1c928cc","system_id":"levelo_inurba_marseille","lat":43.29299,"lon":5.37464,"is_reserved":false,"is_disabled":false,"rental_uris":{"android":"levelo://app?vid=bf673e10-a449-4566-ae2c-76daf1c928cc","ios":"levelo://app?vid=bf673e10-a449-4566-ae2c-76daf1c928cc"},"vehicle_type_id":"4","last_reported":1734466220,"current_range_meters":38800,"station_id":"ce4bgi12rcd13ifvqb70","pricing_plan_id":"cebpf4jnsgd1na2vs0mg"},{"bike_id":"1d2c2503-b2ff-4efa-8b0f-f1c1d0f7013e","system_id":"levelo_inurba_marseille","lat":43.28663,"lon":5.36356,"is_reserved":false,"is_disabled":false,"rental_uris":{"android":"levelo://app?vid=1d2c2503-b2ff-4efa-8b0f-f1c1d0f7013e","ios":"levelo://app?vid=1d2c2503-b2ff-4efa-8b0f-f1c1d0f7013e"},"vehicle_type_id":"4","last_reported":1734466220,"current_range_meters":22800,"station_id":"ce4bhah2rcd13ifvqej0","pricing_plan_id":"cebpf4jnsgd1na2vs0mg"},{"bike_id":"cebb2fe6-dd82-4aa3-a8d5-f3291341a320","system_id":"levelo_inurba_marseille","lat":43.24681,"lon":5.38154,"is_reserved":false,"is_disabled":false,"rental_uris":{"android":"levelo://app?vid=cebb2fe6-dd82-4aa3-a8d5-f3291341a320","ios":"levelo://app?vid=cebb2fe6-dd82-4aa3-a8d5-f3291341a320"},"vehicle_type_id":"4","last_reported":1734466220,"current_range_meters":21600,"station_id":"ce4bhih2rcd13ifvqfr0","pricing_plan_id":"cebpf4jnsgd1na2vs0mg"},{"bike_id":"782bcbf2-b7de-4b04-bebc-aaa0329dd90c","system_id":"levelo_inurba_marseille","lat":43.23197,"lon":5.35558,"is_reserved":false,"is_disabled":false,"rental_uris":{"android":"levelo://app?vid=782bcbf2-b7de-4b04-bebc-aaa0329dd90c","ios":"levelo://app?vid=782bcbf2-b7de-4b04-bebc-aaa0329dd90c"},"vehicle_type_id":"4","last_reported":1734466220,"current_range_meters":38800,"station_id":"ce4bhu92rcd13ifvqi70","pricing_plan_id":"cebpf4jnsgd1na2vs0mg"},{"bike_id":"a925316d-9d31-43b0-a430-5cb1bef87372","system_id":"levelo_inurba_marseille","lat":43.27181,"lon":5.40985,"is_reserved":false,"is_disabled":false,"rental_uris":{"android":"levelo://app?vid=a925316d-9d31-43b0-a430-5cb1bef87372","ios":"levelo://app?vid=a925316d-9d31-43b0-a430-5cb1bef87372"},"vehicle_type_id":"4","last_reported":1734466220,"current_range_meters":24000,"station_id":"ce4bhl12rcd13ifvqgf0","pricing_plan_id":"cebpf4jnsgd1na2vs0mg"},{"bike_id":"540c19ab-e8ac-4092-909b-c3e5069b6978","system_id":"levelo_inurba_marseille","lat":43.337444,"lon":5.374475,"is_reserved":false,"is_disabled":true,"rental_uris":{"android":"levelo://app?vid=540c19ab-e8ac-4092-909b-c3e5069b6978","ios":"levelo://app?vid=540c19ab-e8ac-4092-909b-c3e5069b6978"},"vehicle_type_id":"4","last_reported":1734466220,"current_range_meters":0,"station_id":"","pricing_plan_id":"cebpf4jnsgd1na2vs0mg"},{"bike_id":"fff17d87-f8d7-4f1e-a0f7-7b3ab53761a8","system_id":"levelo_inurba_marseille","lat":43.31721,"lon":5.424,"is_reserved":false,"is_disabled":false,"rental_uris":{"android":"levelo://app?vid=fff17d87-f8d7-4f1e-a0f7-7b3ab53761a8","ios":"levelo://app?vid=fff17d87-f8d7-4f1e-a0f7-7b3ab53761a8"},"vehicle_type_id":"4","last_reported":1734466220,"current_range_meters":28800,"station_id":"ce4bhp92rcd13ifvqhbg","pricing_plan_id":"cebpf4jnsgd1na2vs0mg"},{"bike_id":"6d0fe413-c02d-44e5-bae7-4197d61df69e","system_id":"levelo_inurba_marseille","lat":43.29625,"lon":5.37148,"is_reserved":false,"is_disabled":false,"rental_uris":{"android":"levelo://app?vid=6d0fe413-c02d-44e5-bae7-4197d61df69e","ios":"levelo://app?vid=6d0fe413-c02d-44e5-bae7-4197d61df69e"},"vehicle_type_id":"4","last_reported":1734466220,"current_range_meters":36400,"station_id":"ce4bgnh2rcd13ifvqc0g","pricing_plan_id":"cebpf4jnsgd1na2vs0mg"},{"bike_id":"0e853b40-5ab0-423f-9897-613da707d815","system_id":"levelo_inurba_marseille","lat":43.2781,"lon":5.40711,"is_reserved":false,"is_disabled":false,"rental_uris":{"android":"levelo://app?vid=0e853b40-5ab0-423f-9897-613da707d815","ios":"levelo://app?vid=0e853b40-5ab0-423f-9897-613da707d815"},"vehicle_type_id":"4","last_reported":1734466220,"current_range_meters":9200,"station_id":"ce4bhnh2rcd13ifvqgtg","pricing_plan_id":"cebpf4jnsgd1na2vs0mg"},{"bike_id":"99b91171-fdca-426c-9c5c-0f1db2efdad6","system_id":"levelo_inurba_marseille","lat":43.27804,"lon":5.40699,"is_reserved":false,"is_disabled":false,"rental_uris":{"android":"levelo://app?vid=99b91171-fdca-426c-9c5c-0f1db2efdad6","ios":"levelo://app?vid=99b91171-fdca-426c-9c5c-0f1db2efdad6"},"vehicle_type_id":"4","last_reported":1734466220,"current_range_meters":38000,"station_id":"ce4bhnh2rcd13ifvqgtg","pricing_plan_id":"cebpf4jnsgd1na2vs0mg"},{"bike_id":"52ab890a-0d03-4302-bf47-9d77d5300a88","system_id":"levelo_inurba_marseille","lat":43.26565,"lon":5.38997,"is_reserved":false,"is_disabled":false,"rental_uris":{"android":"levelo://app?vid=52ab890a-0d03-4302-bf47-9d77d5300a88","ios":"levelo://app?vid=52ab890a-0d03-4302-bf47-9d77d5300a88"},"vehicle_type_id":"4","last_reported":1734466220,"current_range_meters":32000,"station_id":"ce4bhe12rcd13ifvqf30","pricing_plan_id":"cebpf4jnsgd1na2vs0mg"},{"bike_id":"62c99ef1-ed98-40bb-9ebe-4b8107ad9967","system_id":"levelo_inurba_marseille","lat":43.28351,"lon":5.38109,"is_reserved":false,"is_disabled":false,"rental_uris":{"android":"levelo://app?vid=62c99ef1-ed98-40bb-9ebe-4b8107ad9967","ios":"levelo://app?vid=62c99ef1-ed98-40bb-9ebe-4b8107ad9967"},"vehicle_type_id":"4","last_reported":1734466220,"current_range_meters":38800,"station_id":"ce4bh412rcd13ifvqdr0","pricing_plan_id":"cebpf4jnsgd1na2vs0mg"},{"bike_id":"4da35f85-345f-4beb-bc6e-3d767f63bcac","system_id":"levelo_inurba_marseille","lat":43.29271,"lon":5.38446,"is_reserved":false,"is_disabled":false,"rental_uris":{"android":"levelo://app?vid=4da35f85-345f-4beb-bc6e-3d767f63bcac","ios":"levelo://app?vid=4da35f85-345f-4beb-bc6e-3d767f63bcac"},"vehicle_type_id":"4","last_reported":1734466220,"current_range_meters":38800,"station_id":"ce4bh692rcd13ifvqea0","pricing_plan_id":"cebpf4jnsgd1na2vs0mg"},{"bike_id":"8df875b2-8253-44ac-be35-397c9234bb2e","system_id":"levelo_inurba_marseille","lat":43.27975,"lon":5.38742,"is_reserved":false,"is_disabled":false,"rental_uris":{"android":"levelo://app?vid=8df875b2-8253-44ac-be35-397c9234bb2e","ios":"levelo://app?vid=8df875b2-8253-44ac-be35-397c9234bb2e"},"vehicle_type_id":"4","last_reported":1734466220,"current_range_meters":25200,"station_id":"ce4bhg12rcd13ifvqf80","pricing_plan_id":"cebpf4jnsgd1na2vs0mg"},{"bike_id":"e40982b3-d070-4ac9-9d92-78dbbb3e6a49","system_id":"levelo_inurba_marseille","lat":43.29573,"lon":5.39968,"is_reserved":false,"is_disabled":false,"rental_uris":{"android":"levelo://app?vid=e40982b3-d070-4ac9-9d92-78dbbb3e6a49","ios":"levelo://app?vid=e40982b3-d070-4ac9-9d92-78dbbb3e6a49"},"vehicle_type_id":"4","last_reported":1734466220,"current_range_meters":30000,"station_id":"ce4bh312rcd13ifvqdj0","pricing_plan_id":"cebpf4jnsgd1na2vs0mg"},{"bike_id":"1adaea00-ed72-49a8-91bf-6c20e9f42f29","system_id":"levelo_inurba_marseille","lat":43.23192,"lon":5.39991,"is_reserved":false,"is_disabled":false,"rental_uris":{"android":"levelo://app?vid=1adaea00-ed72-49a8-91bf-6c20e9f42f29","ios":"levelo://app?vid=1adaea00-ed72-49a8-91bf-6c20e9f42f29"},"vehicle_type_id":"4","last_reported":1734466220,"current_range_meters":27600,"station_id":"ce4bhn12rcd13ifvqgqg","pricing_plan_id":"cebpf4jnsgd1na2vs0mg"},{"bike_id":"272c380d-0e96-4217-82cd-b4ae34bffa4a","system_id":"levelo_inurba_marseille","lat":43.26941,"lon":5.38918,"is_reserved":false,"is_disabled":true,"rental_uris":{"android":"levelo://app?vid=272c380d-0e96-4217-82cd-b4ae34bffa4a","ios":"levelo://app?vid=272c380d-0e96-4217-82cd-b4ae34bffa4a"},"vehicle_type_id":"4","last_reported":1734466220,"current_range_meters":27600,"station_id":"ce4bhhh2rcd13ifvqfl0","pricing_plan_id":"cebpf4jnsgd1na2vs0mg"},{"bike_id":"7deaa912-bdd7-41f4-9079-15f4a4ee20cf","system_id":"levelo_inurba_marseille","lat":43.28105,"lon":5.37842,"is_reserved":false,"is_disabled":false,"rental_uris":{"android":"levelo://app?vid=7deaa912-bdd7-41f4-9079-15f4a4ee20cf","ios":"levelo://app?vid=7deaa912-bdd7-41f4-9079-15f4a4ee20cf"},"vehicle_type_id":"4","last_reported":1734466220,"current_range_meters":32000,"station_id":"ce4bha12rcd13ifvqee0","pricing_plan_id":"cebpf4jnsgd1na2vs0mg"},{"bike_id":"147bd386-90ae-423c-ba4c-d57b48204abf","system_id":"levelo_inurba_marseille","lat":43.31328,"lon":5.39691,"is_reserved":false,"is_disabled":false,"rental_uris":{"android":"levelo://app?vid=147bd386-90ae-423c-ba4c-d57b48204abf","ios":"levelo://app?vid=147bd386-90ae-423c-ba4c-d57b48204abf"},"vehicle_type_id":"4","last_reported":1734466220,"current_range_meters":24000,"station_id":"ce4bgvp2rcd13ifvqcu0","pricing_plan_id":"cebpf4jnsgd1na2vs0mg"},{"bike_id":"4e61d9a1-ea06-4b46-8816-b58fded388ad","system_id":"levelo_inurba_marseille","lat":43.31182,"lon":5.3869,"is_reserved":false,"is_disabled":false,"rental_uris":{"android":"levelo://app?vid=4e61d9a1-ea06-4b46-8816-b58fded388ad","ios":"levelo://app?vid=4e61d9a1-ea06-4b46-8816-b58fded388ad"},"vehicle_type_id":"4","last_reported":1734466220,"current_range_meters":16000,"station_id":"ce4bgv12rcd13ifvqcp0","pricing_plan_id":"cebpf4jnsgd1na2vs0mg"},{"bike_id":"1f088edd-e254-4389-aab0-8bb3edc2dc9e","system_id":"levelo_inurba_marseille","lat":43.32483,"lon":5.36563,"is_reserved":false,"is_disabled":false,"rental_uris":{"android":"levelo://app?vid=1f088edd-e254-4389-aab0-8bb3edc2dc9e","ios":"levelo://app?vid=1f088edd-e254-4389-aab0-8bb3edc2dc9e"},"vehicle_type_id":"4","last_reported":1734466220,"current_range_meters":4400,"station_id":"ce4bhs12rcd13ifvqhvg","pricing_plan_id":"cebpf4jnsgd1na2vs0mg"},{"bike_id":"00267bf4-cbb0-42ab-952a-10399cc5a2b7","system_id":"levelo_inurba_marseille","lat":43.31365,"lon":5.38504,"is_reserved":false,"is_disabled":false,"rental_uris":{"android":"levelo://app?vid=00267bf4-cbb0-42ab-952a-10399cc5a2b7","ios":"levelo://app?vid=00267bf4-cbb0-42ab-952a-10399cc5a2b7"},"vehicle_type_id":"4","last_reported":1734466220,"current_range_meters":18800,"station_id":"ce4bgt92rcd13ifvqcf0","pricing_plan_id":"cebpf4jnsgd1na2vs0mg"},{"bike_id":"3dbbd5d9-5f8f-4c4e-b439-ee968266fd2d","system_id":"levelo_inurba_marseille","lat":43.28855,"lon":5.39313,"is_reserved":false,"is_disabled":true,"rental_uris":{"android":"levelo://app?vid=3dbbd5d9-5f8f-4c4e-b439-ee968266fd2d","ios":"levelo://app?vid=3dbbd5d9-5f8f-4c4e-b439-ee968266fd2d"},"vehicle_type_id":"4","last_reported":1734466220,"current_range_meters":9200,"station_id":"ce4bh2p2rcd13ifvqdi0","pricing_plan_id":"cebpf4jnsgd1na2vs0mg"},{"bike_id":"fbda7b10-078d-4c58-b700-d8ffd9b7aad2","system_id":"levelo_inurba_marseille","lat":43.29799,"lon":5.3811,"is_reserved":false,"is_disabled":true,"rental_uris":{"android":"levelo://app?vid=fbda7b10-078d-4c58-b700-d8ffd9b7aad2","ios":"levelo://app?vid=fbda7b10-078d-4c58-b700-d8ffd9b7aad2"},"vehicle_type_id":"4","last_reported":1734466220,"current_range_meters":27200,"station_id":"ce4bgip2rcd13ifvqbb0","pricing_plan_id":"cebpf4jnsgd1na2vs0mg"},{"bike_id":"0689ab14-6f7c-4ca3-9b23-c4ba18d6a99e","system_id":"levelo_inurba_marseille","lat":43.2926,"lon":5.38443,"is_reserved":false,"is_disabled":false,"rental_uris":{"android":"levelo://app?vid=0689ab14-6f7c-4ca3-9b23-c4ba18d6a99e","ios":"levelo://app?vid=0689ab14-6f7c-4ca3-9b23-c4ba18d6a99e"},"vehicle_type_id":"4","last_reported":1734466220,"current_range_meters":38800,"station_id":"ce4bh692rcd13ifvqea0","pricing_plan_id":"cebpf4jnsgd1na2vs0mg"},{"bike_id":"7c56283e-1709-4994-bddf-5f66a8a9ce1e","system_id":"levelo_inurba_marseille","lat":43.30146,"lon":5.38783,"is_reserved":false,"is_disabled":false,"rental_uris":{"android":"levelo://app?vid=7c56283e-1709-4994-bddf-5f66a8a9ce1e","ios":"levelo://app?vid=7c56283e-1709-4994-bddf-5f66a8a9ce1e"},"vehicle_type_id":"4","last_reported":1734466220,"current_range_meters":38800,"station_id":"ce4bhoh2rcd13ifvqh6g","pricing_plan_id":"cebpf4jnsgd1na2vs0mg"},{"bike_id":"e63ec124-f160-46c4-aad4-b0f59e1a5cf9","system_id":"levelo_inurba_marseille","lat":43.27998,"lon":5.41652,"is_reserved":false,"is_disabled":true,"rental_uris":{"android":"levelo://app?vid=e63ec124-f160-46c4-aad4-b0f59e1a5cf9","ios":"levelo://app?vid=e63ec124-f160-46c4-aad4-b0f59e1a5cf9"},"vehicle_type_id":"4","last_reported":1734466220,"current_range_meters":24800,"station_id":"ce4bho12rcd13ifvqh1g","pricing_plan_id":"cebpf4jnsgd1na2vs0mg"},{"bike_id":"0427bfa4-7c9f-485e-9901-c36b0591c06e","system_id":"levelo_inurba_marseille","lat":43.26218,"lon":5.37446,"is_reserved":false,"is_disabled":false,"rental_uris":{"android":"levelo://app?vid=0427bfa4-7c9f-485e-9901-c36b0591c06e","ios":"levelo://app?vid=0427bfa4-7c9f-485e-9901-c36b0591c06e"},"vehicle_type_id":"4","last_reported":1734466220,"current_range_meters":23200,"station_id":"ce4bhgp2rcd13ifvqfc0","pricing_plan_id":"cebpf4jnsgd1na2vs0mg"},{"bike_id":"9a94b5d1-f857-4c58-86b0-b2ccb3a75cce","system_id":"levelo_inurba_marseille","lat":43.25117,"lon":5.40316,"is_reserved":false,"is_disabled":true,"rental_uris":{"android":"levelo://app?vid=9a94b5d1-f857-4c58-86b0-b2ccb3a75cce","ios":"levelo://app?vid=9a94b5d1-f857-4c58-86b0-b2ccb3a75cce"},"vehicle_type_id":"4","last_reported":1734466220,"current_range_meters":0,"station_id":"ce4bhlh2rcd13ifvqgig","pricing_plan_id":"cebpf4jnsgd1na2vs0mg"},{"bike_id":"0b86fefb-e82d-47b2-8313-b6e3f3554306","system_id":"levelo_inurba_marseille","lat":43.27968,"lon":5.38739,"is_reserved":false,"is_disabled":false,"rental_uris":{"android":"levelo://app?vid=0b86fefb-e82d-47b2-8313-b6e3f3554306","ios":"levelo://app?vid=0b86fefb-e82d-47b2-8313-b6e3f3554306"},"vehicle_type_id":"4","last_reported":1734466220,"current_range_meters":38400,"station_id":"ce4bhg12rcd13ifvqf80","pricing_plan_id":"cebpf4jnsgd1na2vs0mg"},{"bike_id":"107928ce-875f-4354-be38-938d8ee3c7db","system_id":"levelo_inurba_marseille","lat":43.3127,"lon":5.401713,"is_reserved":false,"is_disabled":false,"rental_uris":{"android":"levelo://app?vid=107928ce-875f-4354-be38-938d8ee3c7db","ios":"levelo://app?vid=107928ce-875f-4354-be38-938d8ee3c7db"},"vehicle_type_id":"4","last_reported":1734466220,"current_range_meters":31200,"station_id":"ce4bh092rcd13ifvqd30","pricing_plan_id":"cebpf4jnsgd1na2vs0mg"},{"bike_id":"efb96ad3-4e63-4408-8c01-0772d5a4e18b","system_id":"levelo_inurba_marseille","lat":43.31333,"lon":5.39694,"is_reserved":false,"is_disabled":false,"rental_uris":{"android":"levelo://app?vid=efb96ad3-4e63-4408-8c01-0772d5a4e18b","ios":"levelo://app?vid=efb96ad3-4e63-4408-8c01-0772d5a4e18b"},"vehicle_type_id":"4","last_reported":1734466220,"current_range_meters":38800,"station_id":"ce4bgvp2rcd13ifvqcu0","pricing_plan_id":"cebpf4jnsgd1na2vs0mg"},{"bike_id":"2c35d799-8445-41f0-9531-f1ab81d4f0aa","system_id":"levelo_inurba_marseille","lat":43.2841,"lon":5.37504,"is_reserved":false,"is_disabled":false,"rental_uris":{"android":"levelo://app?vid=2c35d799-8445-41f0-9531-f1ab81d4f0aa","ios":"levelo://app?vid=2c35d799-8445-41f0-9531-f1ab81d4f0aa"},"vehicle_type_id":"4","last_reported":1734466220,"current_range_meters":30000,"station_id":"ce4bh412rcd13ifvqds0","pricing_plan_id":"cebpf4jnsgd1na2vs0mg"},{"bike_id":"01a870cf-dd25-47e3-81a3-76239976dd64","system_id":"levelo_inurba_marseille","lat":43.27493,"lon":5.42451,"is_reserved":false,"is_disabled":false,"rental_uris":{"android":"levelo://app?vid=01a870cf-dd25-47e3-81a3-76239976dd64","ios":"levelo://app?vid=01a870cf-dd25-47e3-81a3-76239976dd64"},"vehicle_type_id":"4","last_reported":1734466220,"current_range_meters":19600,"station_id":"ce4bhn92rcd13ifvqgrg","pricing_plan_id":"cebpf4jnsgd1na2vs0mg"},{"bike_id":"3a946bb4-183f-4cbb-927a-33845a01d711","system_id":"levelo_inurba_marseille","lat":43.27428,"lon":5.39411,"is_reserved":false,"is_disabled":false,"rental_uris":{"android":"levelo://app?vid=3a946bb4-183f-4cbb-927a-33845a01d711","ios":"levelo://app?vid=3a946bb4-183f-4cbb-927a-33845a01d711"},"vehicle_type_id":"4","last_reported":1734466220,"current_range_meters":24800,"station_id":"ce4bhdp2rcd13ifvqf20","pricing_plan_id":"cebpf4jnsgd1na2vs0mg"},{"bike_id":"adafdbd0-71dd-4ec6-aa0a-aba8315cae01","system_id":"levelo_inurba_marseille","lat":43.281561,"lon":5.426341,"is_reserved":false,"is_disabled":false,"rental_uris":{"android":"levelo://app?vid=adafdbd0-71dd-4ec6-aa0a-aba8315cae01","ios":"levelo://app?vid=adafdbd0-71dd-4ec6-aa0a-aba8315cae01"},"vehicle_type_id":"4","last_reported":1734466220,"current_range_meters":23200,"station_id":"ce4bhnh2rcd13ifvqgug","pricing_plan_id":"cebpf4jnsgd1na2vs0mg"},{"bike_id":"68907ca0-038a-4705-886b-af6c122ac485","system_id":"levelo_inurba_marseille","lat":43.23183,"lon":5.39984,"is_reserved":false,"is_disabled":false,"rental_uris":{"android":"levelo://app?vid=68907ca0-038a-4705-886b-af6c122ac485","ios":"levelo://app?vid=68907ca0-038a-4705-886b-af6c122ac485"},"vehicle_type_id":"4","last_reported":1734466220,"current_range_meters":39200,"station_id":"ce4bhn12rcd13ifvqgqg","pricing_plan_id":"cebpf4jnsgd1na2vs0mg"},{"bike_id":"f98ddb63-39b3-415a-b65d-953147aee9ba","system_id":"levelo_inurba_marseille","lat":43.29885,"lon":5.38908,"is_reserved":false,"is_disabled":false,"rental_uris":{"android":"levelo://app?vid=f98ddb63-39b3-415a-b65d-953147aee9ba","ios":"levelo://app?vid=f98ddb63-39b3-415a-b65d-953147aee9ba"},"vehicle_type_id":"4","last_reported":1734466220,"current_range_meters":27200,"station_id":"ce4bh392rcd13ifvqdl0","pricing_plan_id":"cebpf4jnsgd1na2vs0mg"},{"bike_id":"7ec48f75-2775-4297-aeb5-423e6c184b6b","system_id":"levelo_inurba_marseille","lat":43.27564,"lon":5.38389,"is_reserved":false,"is_disabled":false,"rental_uris":{"android":"levelo://app?vid=7ec48f75-2775-4297-aeb5-423e6c184b6b","ios":"levelo://app?vid=7ec48f75-2775-4297-aeb5-423e6c184b6b"},"vehicle_type_id":"4","last_reported":1734466220,"current_range_meters":34000,"station_id":"ce4bhh92rcd13ifvqfi0","pricing_plan_id":"cebpf4jnsgd1na2vs0mg"},{"bike_id":"a852f14c-1573-40fe-bdb0-30bcf5f773fb","system_id":"levelo_inurba_marseille","lat":43.286138,"lon":5.35095,"is_reserved":false,"is_disabled":true,"rental_uris":{"android":"levelo://app?vid=a852f14c-1573-40fe-bdb0-30bcf5f773fb","ios":"levelo://app?vid=a852f14c-1573-40fe-bdb0-30bcf5f773fb"},"vehicle_type_id":"4","last_reported":1734466220,"current_range_meters":19200,"station_id":"ce4bhch2rcd13ifvqeug","pricing_plan_id":"cebpf4jnsgd1na2vs0mg"},{"bike_id":"bfc9fead-257b-4a9e-84d1-5004af8167f8","system_id":"levelo_inurba_marseille","lat":43.33609,"lon":5.41024,"is_reserved":false,"is_disabled":false,"rental_uris":{"android":"levelo://app?vid=bfc9fead-257b-4a9e-84d1-5004af8167f8","ios":"levelo://app?vid=bfc9fead-257b-4a9e-84d1-5004af8167f8"},"vehicle_type_id":"4","last_reported":1734466220,"current_range_meters":24400,"station_id":"ce4bhqh2rcd13ifvqhmg","pricing_plan_id":"cebpf4jnsgd1na2vs0mg"},{"bike_id":"39b7e59f-b5a3-4722-91bb-8b43e65eec83","system_id":"levelo_inurba_marseille","lat":43.28943,"lon":5.36633,"is_reserved":false,"is_disabled":false,"rental_uris":{"android":"levelo://app?vid=39b7e59f-b5a3-4722-91bb-8b43e65eec83","ios":"levelo://app?vid=39b7e59f-b5a3-4722-91bb-8b43e65eec83"},"vehicle_type_id":"4","last_reported":1734466220,"current_range_meters":28800,"station_id":"ce4bhap2rcd13ifvqek0","pricing_plan_id":"cebpf4jnsgd1na2vs0mg"},{"bike_id":"bb337245-7c41-4671-900b-a4d92ae562c6","system_id":"levelo_inurba_marseille","lat":43.29542,"lon":5.39044,"is_reserved":false,"is_disabled":true,"rental_uris":{"android":"levelo://app?vid=bb337245-7c41-4671-900b-a4d92ae562c6","ios":"levelo://app?vid=bb337245-7c41-4671-900b-a4d92ae562c6"},"vehicle_type_id":"4","last_reported":1734466220,"current_range_meters":4400,"station_id":"ce4bh3p2rcd13ifvqdp0","pricing_plan_id":"cebpf4jnsgd1na2vs0mg"},{"bike_id":"1b00f570-16cc-4573-b9a6-abdc42cc2ac2","system_id":"levelo_inurba_marseille","lat":43.31495,"lon":5.37308,"is_reserved":false,"is_disabled":false,"rental_uris":{"android":"levelo://app?vid=1b00f570-16cc-4573-b9a6-abdc42cc2ac2","ios":"levelo://app?vid=1b00f570-16cc-4573-b9a6-abdc42cc2ac2"},"vehicle_type_id":"4","last_reported":1734466220,"current_range_meters":36000,"station_id":"ce4bgt12rcd13ifvqcd0","pricing_plan_id":"cebpf4jnsgd1na2vs0mg"},{"bike_id":"2b52357e-c848-489a-af80-9064b54407a0","system_id":"levelo_inurba_marseille","lat":43.26558,"lon":5.37283,"is_reserved":false,"is_disabled":false,"rental_uris":{"android":"levelo://app?vid=2b52357e-c848-489a-af80-9064b54407a0","ios":"levelo://app?vid=2b52357e-c848-489a-af80-9064b54407a0"},"vehicle_type_id":"4","last_reported":1734466220,"current_range_meters":7200,"station_id":"ce4bhg12rcd13ifvqf70","pricing_plan_id":"cebpf4jnsgd1na2vs0mg"},{"bike_id":"7399fd58-5dfd-44fa-92b1-0692ace70e73","system_id":"levelo_inurba_marseille","lat":43.3009,"lon":5.37128,"is_reserved":false,"is_disabled":false,"rental_uris":{"android":"levelo://app?vid=7399fd58-5dfd-44fa-92b1-0692ace70e73","ios":"levelo://app?vid=7399fd58-5dfd-44fa-92b1-0692ace70e73"},"vehicle_type_id":"4","last_reported":1734466220,"current_range_meters":24400,"station_id":"","pricing_plan_id":"cebpf4jnsgd1na2vs0mg"},{"bike_id":"704fba7f-7a42-47f8-9c2a-817ac6cf1935","system_id":"levelo_inurba_marseille","lat":43.26572,"lon":5.3901,"is_reserved":false,"is_disabled":false,"rental_uris":{"android":"levelo://app?vid=704fba7f-7a42-47f8-9c2a-817ac6cf1935","ios":"levelo://app?vid=704fba7f-7a42-47f8-9c2a-817ac6cf1935"},"vehicle_type_id":"4","last_reported":1734466220,"current_range_meters":36000,"station_id":"ce4bhe12rcd13ifvqf30","pricing_plan_id":"cebpf4jnsgd1na2vs0mg"},{"bike_id":"9d9e1e2a-798a-41bc-b7ac-5ecb83cf2f29","system_id":"levelo_inurba_marseille","lat":43.29264,"lon":5.38448,"is_reserved":false,"is_disabled":false,"rental_uris":{"android":"levelo://app?vid=9d9e1e2a-798a-41bc-b7ac-5ecb83cf2f29","ios":"levelo://app?vid=9d9e1e2a-798a-41bc-b7ac-5ecb83cf2f29"},"vehicle_type_id":"4","last_reported":1734466220,"current_range_meters":30400,"station_id":"ce4bh692rcd13ifvqea0","pricing_plan_id":"cebpf4jnsgd1na2vs0mg"},{"bike_id":"124789e7-f76a-479b-b318-b9ee15160571","system_id":"levelo_inurba_marseille","lat":43.31272,"lon":5.40173,"is_reserved":false,"is_disabled":false,"rental_uris":{"android":"levelo://app?vid=124789e7-f76a-479b-b318-b9ee15160571","ios":"levelo://app?vid=124789e7-f76a-479b-b318-b9ee15160571"},"vehicle_type_id":"4","last_reported":1734466220,"current_range_meters":16800,"station_id":"ce4bh092rcd13ifvqd30","pricing_plan_id":"cebpf4jnsgd1na2vs0mg"},{"bike_id":"44ff8e7d-1339-43c2-b508-1f594ee49259","system_id":"levelo_inurba_marseille","lat":43.27913,"lon":5.39568,"is_reserved":false,"is_disabled":false,"rental_uris":{"android":"levelo://app?vid=44ff8e7d-1339-43c2-b508-1f594ee49259","ios":"levelo://app?vid=44ff8e7d-1339-43c2-b508-1f594ee49259"},"vehicle_type_id":"4","last_reported":1734466220,"current_range_meters":37600,"station_id":"ce4bhf92rcd13ifvqf40","pricing_plan_id":"cebpf4jnsgd1na2vs0mg"},{"bike_id":"8ceeee5e-f34c-4883-8bf6-079e8a090dff","system_id":"levelo_inurba_marseille","lat":43.29983,"lon":5.3846,"is_reserved":false,"is_disabled":true,"rental_uris":{"android":"levelo://app?vid=8ceeee5e-f34c-4883-8bf6-079e8a090dff","ios":"levelo://app?vid=8ceeee5e-f34c-4883-8bf6-079e8a090dff"},"vehicle_type_id":"4","last_reported":1734466220,"current_range_meters":800,"station_id":"ce4bgj92rcd13ifvqbd0","pricing_plan_id":"cebpf4jnsgd1na2vs0mg"},{"bike_id":"ce03ec55-35d3-44f5-8921-8d0d2d31846f","system_id":"levelo_inurba_marseille","lat":43.27802,"lon":5.40706,"is_reserved":false,"is_disabled":false,"rental_uris":{"android":"levelo://app?vid=ce03ec55-35d3-44f5-8921-8d0d2d31846f","ios":"levelo://app?vid=ce03ec55-35d3-44f5-8921-8d0d2d31846f"},"vehicle_type_id":"4","last_reported":1734466220,"current_range_meters":35600,"station_id":"ce4bhnh2rcd13ifvqgtg","pricing_plan_id":"cebpf4jnsgd1na2vs0mg"},{"bike_id":"1cc30cb6-f18d-4862-b991-88715930d8c9","system_id":"levelo_inurba_marseille","lat":43.24072,"lon":5.37761,"is_reserved":false,"is_disabled":false,"rental_uris":{"android":"levelo://app?vid=1cc30cb6-f18d-4862-b991-88715930d8c9","ios":"levelo://app?vid=1cc30cb6-f18d-4862-b991-88715930d8c9"},"vehicle_type_id":"4","last_reported":1734466220,"current_range_meters":17600,"station_id":"ce4bhnp2rcd13ifvqgvg","pricing_plan_id":"cebpf4jnsgd1na2vs0mg"},{"bike_id":"eb7cd7b9-01c5-4120-bb55-5221a32a505c","system_id":"levelo_inurba_marseille","lat":43.29293,"lon":5.40091,"is_reserved":false,"is_disabled":true,"rental_uris":{"android":"levelo://app?vid=eb7cd7b9-01c5-4120-bb55-5221a32a505c","ios":"levelo://app?vid=eb7cd7b9-01c5-4120-bb55-5221a32a505c"},"vehicle_type_id":"4","last_reported":1734466220,"current_range_meters":34000,"station_id":"ce4bh312rcd13ifvqdk0","pricing_plan_id":"cebpf4jnsgd1na2vs0mg"},{"bike_id":"eba901e5-0847-4fc0-b2b6-9eb1834c3e7a","system_id":"levelo_inurba_marseille","lat":43.29509,"lon":5.42336,"is_reserved":false,"is_disabled":true,"rental_uris":{"android":"levelo://app?vid=eba901e5-0847-4fc0-b2b6-9eb1834c3e7a","ios":"levelo://app?vid=eba901e5-0847-4fc0-b2b6-9eb1834c3e7a"},"vehicle_type_id":"4","last_reported":1734466220,"current_range_meters":0,"station_id":"","pricing_plan_id":"cebpf4jnsgd1na2vs0mg"},{"bike_id":"c71dca09-b946-4485-a053-6c7174aaa385","system_id":"levelo_inurba_marseille","lat":43.29532,"lon":5.38546,"is_reserved":false,"is_disabled":true,"rental_uris":{"android":"levelo://app?vid=c71dca09-b946-4485-a053-6c7174aaa385","ios":"levelo://app?vid=c71dca09-b946-4485-a053-6c7174aaa385"},"vehicle_type_id":"4","last_reported":1734466220,"current_range_meters":18000,"station_id":"ce4bgih2rcd13ifvqba0","pricing_plan_id":"cebpf4jnsgd1na2vs0mg"},{"bike_id":"4a6cf567-0476-47a4-9b25-bea5f116b73d","system_id":"levelo_inurba_marseille","lat":43.28458,"lon":5.35882,"is_reserved":false,"is_disabled":false,"rental_uris":{"android":"levelo://app?vid=4a6cf567-0476-47a4-9b25-bea5f116b73d","ios":"levelo://app?vid=4a6cf567-0476-47a4-9b25-bea5f116b73d"},"vehicle_type_id":"4","last_reported":1734466220,"current_range_meters":33200,"station_id":"ce4bhah2rcd13ifvqei0","pricing_plan_id":"cebpf4jnsgd1na2vs0mg"},{"bike_id":"7aad8740-ff3a-45f1-bc1f-cb1ab4d47b07","system_id":"levelo_inurba_marseille","lat":43.31757,"lon":5.37194,"is_reserved":false,"is_disabled":true,"rental_uris":{"android":"levelo://app?vid=7aad8740-ff3a-45f1-bc1f-cb1ab4d47b07","ios":"levelo://app?vid=7aad8740-ff3a-45f1-bc1f-cb1ab4d47b07"},"vehicle_type_id":"4","last_reported":1734466220,"current_range_meters":1600,"station_id":"","pricing_plan_id":"cebpf4jnsgd1na2vs0mg"},{"bike_id":"bad26968-edc6-485a-bb4a-b2da5ed8c3aa","system_id":"levelo_inurba_marseille","lat":43.2997,"lon":5.38521,"is_reserved":false,"is_disabled":false,"rental_uris":{"android":"levelo://app?vid=bad26968-edc6-485a-bb4a-b2da5ed8c3aa","ios":"levelo://app?vid=bad26968-edc6-485a-bb4a-b2da5ed8c3aa"},"vehicle_type_id":"4","last_reported":1734466220,"current_range_meters":38400,"station_id":"ce4bgj92rcd13ifvqbd0","pricing_plan_id":"cebpf4jnsgd1na2vs0mg"},{"bike_id":"5602b998-8538-45ef-9b3e-c46248c5e330","system_id":"levelo_inurba_marseille","lat":43.24676,"lon":5.38155,"is_reserved":false,"is_disabled":false,"rental_uris":{"android":"levelo://app?vid=5602b998-8538-45ef-9b3e-c46248c5e330","ios":"levelo://app?vid=5602b998-8538-45ef-9b3e-c46248c5e330"},"vehicle_type_id":"4","last_reported":1734466220,"current_range_meters":38000,"station_id":"ce4bhih2rcd13ifvqfr0","pricing_plan_id":"cebpf4jnsgd1na2vs0mg"},{"bike_id":"27d9e2c3-f922-4658-a131-5f6394c8c252","system_id":"levelo_inurba_marseille","lat":43.29057,"lon":5.35899,"is_reserved":false,"is_disabled":false,"rental_uris":{"android":"levelo://app?vid=27d9e2c3-f922-4658-a131-5f6394c8c252","ios":"levelo://app?vid=27d9e2c3-f922-4658-a131-5f6394c8c252"},"vehicle_type_id":"4","last_reported":1734466220,"current_range_meters":39200,"station_id":"ce4bha92rcd13ifvqeg0","pricing_plan_id":"cebpf4jnsgd1na2vs0mg"},{"bike_id":"ed3a8591-316e-49ab-a80e-c8c5d9c39c56","system_id":"levelo_inurba_marseille","lat":43.30095,"lon":5.3908,"is_reserved":false,"is_disabled":true,"rental_uris":{"android":"levelo://app?vid=ed3a8591-316e-49ab-a80e-c8c5d9c39c56","ios":"levelo://app?vid=ed3a8591-316e-49ab-a80e-c8c5d9c39c56"},"vehicle_type_id":"4","last_reported":1734466220,"current_range_meters":32400,"station_id":"ce4bh192rcd13ifvqdb0","pricing_plan_id":"cebpf4jnsgd1na2vs0mg"},{"bike_id":"5a37a828-cff2-4e6d-a76c-d01bbc621389","system_id":"levelo_inurba_marseille","lat":43.231946,"lon":5.355544,"is_reserved":false,"is_disabled":false,"rental_uris":{"android":"levelo://app?vid=5a37a828-cff2-4e6d-a76c-d01bbc621389","ios":"levelo://app?vid=5a37a828-cff2-4e6d-a76c-d01bbc621389"},"vehicle_type_id":"4","last_reported":1734466220,"current_range_meters":25600,"station_id":"ce4bhu92rcd13ifvqi70","pricing_plan_id":"cebpf4jnsgd1na2vs0mg"},{"bike_id":"7a57da23-350f-4b8b-8997-122914f4dc4d","system_id":"levelo_inurba_marseille","lat":43.29202,"lon":5.39328,"is_reserved":false,"is_disabled":false,"rental_uris":{"android":"levelo://app?vid=7a57da23-350f-4b8b-8997-122914f4dc4d","ios":"levelo://app?vid=7a57da23-350f-4b8b-8997-122914f4dc4d"},"vehicle_type_id":"4","last_reported":1734466220,"current_range_meters":23200,"station_id":"ce4bh192rcd13ifvqdd0","pricing_plan_id":"cebpf4jnsgd1na2vs0mg"},{"bike_id":"7f1fdc7d-fd5a-41f5-95df-d4b73f14110f","system_id":"levelo_inurba_marseille","lat":43.31887,"lon":5.40739,"is_reserved":false,"is_disabled":false,"rental_uris":{"android":"levelo://app?vid=7f1fdc7d-fd5a-41f5-95df-d4b73f14110f","ios":"levelo://app?vid=7f1fdc7d-fd5a-41f5-95df-d4b73f14110f"},"vehicle_type_id":"4","last_reported":1734466220,"current_range_meters":24400,"station_id":"ce4bhq12rcd13ifvqhig","pricing_plan_id":"cebpf4jnsgd1na2vs0mg"},{"bike_id":"d02419d3-ab9e-4a05-8bf6-59f7eb4ac434","system_id":"levelo_inurba_marseille","lat":43.312765,"lon":5.401665,"is_reserved":false,"is_disabled":false,"rental_uris":{"android":"levelo://app?vid=d02419d3-ab9e-4a05-8bf6-59f7eb4ac434","ios":"levelo://app?vid=d02419d3-ab9e-4a05-8bf6-59f7eb4ac434"},"vehicle_type_id":"4","last_reported":1734466220,"current_range_meters":27600,"station_id":"ce4bh092rcd13ifvqd30","pricing_plan_id":"cebpf4jnsgd1na2vs0mg"},{"bike_id":"7d822ce8-5a66-4580-bc87-15ab05332588","system_id":"levelo_inurba_marseille","lat":43.29878,"lon":5.38901,"is_reserved":false,"is_disabled":false,"rental_uris":{"android":"levelo://app?vid=7d822ce8-5a66-4580-bc87-15ab05332588","ios":"levelo://app?vid=7d822ce8-5a66-4580-bc87-15ab05332588"},"vehicle_type_id":"4","last_reported":1734466220,"current_range_meters":28000,"station_id":"ce4bh392rcd13ifvqdl0","pricing_plan_id":"cebpf4jnsgd1na2vs0mg"},{"bike_id":"9ee21800-b501-49a6-bd80-490d4a0784fa","system_id":"levelo_inurba_marseille","lat":43.28611,"lon":5.35107,"is_reserved":false,"is_disabled":false,"rental_uris":{"android":"levelo://app?vid=9ee21800-b501-49a6-bd80-490d4a0784fa","ios":"levelo://app?vid=9ee21800-b501-49a6-bd80-490d4a0784fa"},"vehicle_type_id":"4","last_reported":1734466220,"current_range_meters":31200,"station_id":"ce4bhch2rcd13ifvqeug","pricing_plan_id":"cebpf4jnsgd1na2vs0mg"},{"bike_id":"1de05ea6-7ffc-4755-9d5c-2404e5a173c7","system_id":"levelo_inurba_marseille","lat":43.23068,"lon":5.35493,"is_reserved":false,"is_disabled":false,"rental_uris":{"android":"levelo://app?vid=1de05ea6-7ffc-4755-9d5c-2404e5a173c7","ios":"levelo://app?vid=1de05ea6-7ffc-4755-9d5c-2404e5a173c7"},"vehicle_type_id":"4","last_reported":1734466220,"current_range_meters":38800,"station_id":"cpo3342slgdg3j2ifvpg","pricing_plan_id":"cebpf4jnsgd1na2vs0mg"},{"bike_id":"a2a1e93d-0640-46b1-8548-8fdbe1511cb8","system_id":"levelo_inurba_marseille","lat":43.28354,"lon":5.38108,"is_reserved":false,"is_disabled":false,"rental_uris":{"android":"levelo://app?vid=a2a1e93d-0640-46b1-8548-8fdbe1511cb8","ios":"levelo://app?vid=a2a1e93d-0640-46b1-8548-8fdbe1511cb8"},"vehicle_type_id":"4","last_reported":1734466220,"current_range_meters":26800,"station_id":"ce4bh412rcd13ifvqdr0","pricing_plan_id":"cebpf4jnsgd1na2vs0mg"},{"bike_id":"3d428edb-9e94-42e5-94fc-1180dcecbd47","system_id":"levelo_inurba_marseille","lat":43.28727,"lon":5.36091,"is_reserved":false,"is_disabled":false,"rental_uris":{"android":"levelo://app?vid=3d428edb-9e94-42e5-94fc-1180dcecbd47","ios":"levelo://app?vid=3d428edb-9e94-42e5-94fc-1180dcecbd47"},"vehicle_type_id":"4","last_reported":1734466220,"current_range_meters":28400,"station_id":"cki0cbj6b192h4jlfktg","pricing_plan_id":"cebpf4jnsgd1na2vs0mg"},{"bike_id":"2d9f4e58-aed4-42e5-b03f-7c067dbd464d","system_id":"levelo_inurba_marseille","lat":43.27072,"lon":5.42273,"is_reserved":false,"is_disabled":false,"rental_uris":{"android":"levelo://app?vid=2d9f4e58-aed4-42e5-b03f-7c067dbd464d","ios":"levelo://app?vid=2d9f4e58-aed4-42e5-b03f-7c067dbd464d"},"vehicle_type_id":"4","last_reported":1734466220,"current_range_meters":26800,"station_id":"ce4bhk92rcd13ifvqgb0","pricing_plan_id":"cebpf4jnsgd1na2vs0mg"},{"bike_id":"0eec46b1-4828-4b44-b0c0-454df459a71a","system_id":"levelo_inurba_marseille","lat":43.25936,"lon":5.409,"is_reserved":false,"is_disabled":false,"rental_uris":{"android":"levelo://app?vid=0eec46b1-4828-4b44-b0c0-454df459a71a","ios":"levelo://app?vid=0eec46b1-4828-4b44-b0c0-454df459a71a"},"vehicle_type_id":"4","last_reported":1734466220,"current_range_meters":38800,"station_id":"ce4bhm92rcd13ifvqglg","pricing_plan_id":"cebpf4jnsgd1na2vs0mg"},{"bike_id":"24216fde-815f-466d-ae48-7f1bdc5c763a","system_id":"levelo_inurba_marseille","lat":43.27558,"lon":5.38396,"is_reserved":false,"is_disabled":false,"rental_uris":{"android":"levelo://app?vid=24216fde-815f-466d-ae48-7f1bdc5c763a","ios":"levelo://app?vid=24216fde-815f-466d-ae48-7f1bdc5c763a"},"vehicle_type_id":"4","last_reported":1734466220,"current_range_meters":18000,"station_id":"ce4bhh92rcd13ifvqfi0","pricing_plan_id":"cebpf4jnsgd1na2vs0mg"},{"bike_id":"ef2f5e1d-6e01-45b2-93d6-22d7804baf5f","system_id":"levelo_inurba_marseille","lat":43.24999,"lon":5.38933,"is_reserved":false,"is_disabled":false,"rental_uris":{"android":"levelo://app?vid=ef2f5e1d-6e01-45b2-93d6-22d7804baf5f","ios":"levelo://app?vid=ef2f5e1d-6e01-45b2-93d6-22d7804baf5f"},"vehicle_type_id":"4","last_reported":1734466220,"current_range_meters":39200,"station_id":"ce4bhgp2rcd13ifvqfd0","pricing_plan_id":"cebpf4jnsgd1na2vs0mg"},{"bike_id":"4e24cd74-c1ed-48e3-ae04-94fae1db75bb","system_id":"levelo_inurba_marseille","lat":43.27075,"lon":5.42277,"is_reserved":false,"is_disabled":false,"rental_uris":{"android":"levelo://app?vid=4e24cd74-c1ed-48e3-ae04-94fae1db75bb","ios":"levelo://app?vid=4e24cd74-c1ed-48e3-ae04-94fae1db75bb"},"vehicle_type_id":"4","last_reported":1734466220,"current_range_meters":33600,"station_id":"ce4bhk92rcd13ifvqgb0","pricing_plan_id":"cebpf4jnsgd1na2vs0mg"},{"bike_id":"41a1fd19-8c91-470f-af17-b5d8d6495338","system_id":"levelo_inurba_marseille","lat":43.28572,"lon":5.39495,"is_reserved":false,"is_disabled":false,"rental_uris":{"android":"levelo://app?vid=41a1fd19-8c91-470f-af17-b5d8d6495338","ios":"levelo://app?vid=41a1fd19-8c91-470f-af17-b5d8d6495338"},"vehicle_type_id":"4","last_reported":1734466220,"current_range_meters":33600,"station_id":"ce4bh292rcd13ifvqdg0","pricing_plan_id":"cebpf4jnsgd1na2vs0mg"},{"bike_id":"26c43c83-6910-4e0a-8324-4349a43db635","system_id":"levelo_inurba_marseille","lat":43.29273,"lon":5.38445,"is_reserved":false,"is_disabled":false,"rental_uris":{"android":"levelo://app?vid=26c43c83-6910-4e0a-8324-4349a43db635","ios":"levelo://app?vid=26c43c83-6910-4e0a-8324-4349a43db635"},"vehicle_type_id":"4","last_reported":1734466220,"current_range_meters":20400,"station_id":"ce4bh692rcd13ifvqea0","pricing_plan_id":"cebpf4jnsgd1na2vs0mg"},{"bike_id":"a45900a9-71cc-4063-a3ef-a9f0b2ea15f8","system_id":"levelo_inurba_marseille","lat":43.30214,"lon":5.39471,"is_reserved":false,"is_disabled":false,"rental_uris":{"android":"levelo://app?vid=a45900a9-71cc-4063-a3ef-a9f0b2ea15f8","ios":"levelo://app?vid=a45900a9-71cc-4063-a3ef-a9f0b2ea15f8"},"vehicle_type_id":"4","last_reported":1734466220,"current_range_meters":39200,"station_id":"ce4bh0p2rcd13ifvqd70","pricing_plan_id":"cebpf4jnsgd1na2vs0mg"},{"bike_id":"8be702ea-8577-4b81-80bb-e24025cadc6b","system_id":"levelo_inurba_marseille","lat":43.28715,"lon":5.37946,"is_reserved":false,"is_disabled":false,"rental_uris":{"android":"levelo://app?vid=8be702ea-8577-4b81-80bb-e24025cadc6b","ios":"levelo://app?vid=8be702ea-8577-4b81-80bb-e24025cadc6b"},"vehicle_type_id":"4","last_reported":1734466220,"current_range_meters":28800,"station_id":"ce4bh9p2rcd13ifvqec0","pricing_plan_id":"cebpf4jnsgd1na2vs0mg"},{"bike_id":"7bf5b643-8941-4ca1-951d-05964437202f","system_id":"levelo_inurba_marseille","lat":43.30188,"lon":5.366111,"is_reserved":false,"is_disabled":true,"rental_uris":{"android":"levelo://app?vid=7bf5b643-8941-4ca1-951d-05964437202f","ios":"levelo://app?vid=7bf5b643-8941-4ca1-951d-05964437202f"},"vehicle_type_id":"4","last_reported":1734466220,"current_range_meters":400,"station_id":"ce4bgrh2rcd13ifvqc8g","pricing_plan_id":"cebpf4jnsgd1na2vs0mg"},{"bike_id":"289f0ac2-169c-4996-93c9-9c13fd50ee4f","system_id":"levelo_inurba_marseille","lat":43.2985,"lon":5.36288,"is_reserved":false,"is_disabled":false,"rental_uris":{"android":"levelo://app?vid=289f0ac2-169c-4996-93c9-9c13fd50ee4f","ios":"levelo://app?vid=289f0ac2-169c-4996-93c9-9c13fd50ee4f"},"vehicle_type_id":"4","last_reported":1734466220,"current_range_meters":36800,"station_id":"ce4bgpp2rcd13ifvqc3g","pricing_plan_id":"cebpf4jnsgd1na2vs0mg"},{"bike_id":"f620ba7e-e1d8-4bfd-9dbd-c4c8af8775c9","system_id":"levelo_inurba_marseille","lat":43.27666,"lon":5.38893,"is_reserved":false,"is_disabled":false,"rental_uris":{"android":"levelo://app?vid=f620ba7e-e1d8-4bfd-9dbd-c4c8af8775c9","ios":"levelo://app?vid=f620ba7e-e1d8-4bfd-9dbd-c4c8af8775c9"},"vehicle_type_id":"4","last_reported":1734466220,"current_range_meters":38800,"station_id":"ce4bhi12rcd13ifvqfo0","pricing_plan_id":"cebpf4jnsgd1na2vs0mg"},{"bike_id":"10db799c-ec13-4296-8f4e-35546f5e6aa2","system_id":"levelo_inurba_marseille","lat":43.28943,"lon":5.39625,"is_reserved":false,"is_disabled":false,"rental_uris":{"android":"levelo://app?vid=10db799c-ec13-4296-8f4e-35546f5e6aa2","ios":"levelo://app?vid=10db799c-ec13-4296-8f4e-35546f5e6aa2"},"vehicle_type_id":"4","last_reported":1734466220,"current_range_meters":25600,"station_id":"ce4bh3h2rcd13ifvqdn0","pricing_plan_id":"cebpf4jnsgd1na2vs0mg"},{"bike_id":"460dd46c-b468-4cbb-9b1f-c5114fdb2ba8","system_id":"levelo_inurba_marseille","lat":43.30526,"lon":5.36717,"is_reserved":false,"is_disabled":false,"rental_uris":{"android":"levelo://app?vid=460dd46c-b468-4cbb-9b1f-c5114fdb2ba8","ios":"levelo://app?vid=460dd46c-b468-4cbb-9b1f-c5114fdb2ba8"},"vehicle_type_id":"4","last_reported":1734466220,"current_range_meters":9600,"station_id":"ce4bgrp2rcd13ifvqc9g","pricing_plan_id":"cebpf4jnsgd1na2vs0mg"},{"bike_id":"c1660627-a586-4dba-936f-6c9d8777f85f","system_id":"levelo_inurba_marseille","lat":43.31123,"lon":5.37777,"is_reserved":false,"is_disabled":false,"rental_uris":{"android":"levelo://app?vid=c1660627-a586-4dba-936f-6c9d8777f85f","ios":"levelo://app?vid=c1660627-a586-4dba-936f-6c9d8777f85f"},"vehicle_type_id":"4","last_reported":1734466220,"current_range_meters":38000,"station_id":"ce4bgt92rcd13ifvqcg0","pricing_plan_id":"cebpf4jnsgd1na2vs0mg"},{"bike_id":"be90ed6a-921d-40d0-9afc-3014846289cf","system_id":"levelo_inurba_marseille","lat":43.29202,"lon":5.39328,"is_reserved":false,"is_disabled":false,"rental_uris":{"android":"levelo://app?vid=be90ed6a-921d-40d0-9afc-3014846289cf","ios":"levelo://app?vid=be90ed6a-921d-40d0-9afc-3014846289cf"},"vehicle_type_id":"4","last_reported":1734466220,"current_range_meters":7200,"station_id":"ce4bh192rcd13ifvqdd0","pricing_plan_id":"cebpf4jnsgd1na2vs0mg"},{"bike_id":"7afe1d57-3d84-4f87-bbad-574ad8595857","system_id":"levelo_inurba_marseille","lat":43.28671,"lon":5.36358,"is_reserved":false,"is_disabled":false,"rental_uris":{"android":"levelo://app?vid=7afe1d57-3d84-4f87-bbad-574ad8595857","ios":"levelo://app?vid=7afe1d57-3d84-4f87-bbad-574ad8595857"},"vehicle_type_id":"4","last_reported":1734466220,"current_range_meters":10000,"station_id":"ce4bhah2rcd13ifvqej0","pricing_plan_id":"cebpf4jnsgd1na2vs0mg"},{"bike_id":"58827829-e30a-478e-8d3c-af8c7606b368","system_id":"levelo_inurba_marseille","lat":43.30203,"lon":5.37869,"is_reserved":false,"is_disabled":false,"rental_uris":{"android":"levelo://app?vid=58827829-e30a-478e-8d3c-af8c7606b368","ios":"levelo://app?vid=58827829-e30a-478e-8d3c-af8c7606b368"},"vehicle_type_id":"4","last_reported":1734466220,"current_range_meters":14000,"station_id":"","pricing_plan_id":"cebpf4jnsgd1na2vs0mg"},{"bike_id":"cab5cb01-b33a-421c-bfaf-c7630f90de8b","system_id":"levelo_inurba_marseille","lat":43.29043,"lon":5.39962,"is_reserved":false,"is_disabled":true,"rental_uris":{"android":"levelo://app?vid=cab5cb01-b33a-421c-bfaf-c7630f90de8b","ios":"levelo://app?vid=cab5cb01-b33a-421c-bfaf-c7630f90de8b"},"vehicle_type_id":"4","last_reported":1734466220,"current_range_meters":1600,"station_id":"ce4bh392rcd13ifvqdm0","pricing_plan_id":"cebpf4jnsgd1na2vs0mg"},{"bike_id":"78f5dcee-b6ca-4cfa-ae6f-ebcf64be1236","system_id":"levelo_inurba_marseille","lat":43.32356,"lon":5.40608,"is_reserved":false,"is_disabled":true,"rental_uris":{"android":"levelo://app?vid=78f5dcee-b6ca-4cfa-ae6f-ebcf64be1236","ios":"levelo://app?vid=78f5dcee-b6ca-4cfa-ae6f-ebcf64be1236"},"vehicle_type_id":"4","last_reported":1734466220,"current_range_meters":0,"station_id":"ce4bhq92rcd13ifvqhjg","pricing_plan_id":"cebpf4jnsgd1na2vs0mg"},{"bike_id":"e589751b-b6de-4d76-a5ef-c55512c7f4c9","system_id":"levelo_inurba_marseille","lat":43.28714,"lon":5.37936,"is_reserved":false,"is_disabled":true,"rental_uris":{"android":"levelo://app?vid=e589751b-b6de-4d76-a5ef-c55512c7f4c9","ios":"levelo://app?vid=e589751b-b6de-4d76-a5ef-c55512c7f4c9"},"vehicle_type_id":"4","last_reported":1734466220,"current_range_meters":0,"station_id":"","pricing_plan_id":"cebpf4jnsgd1na2vs0mg"},{"bike_id":"d1adb045-11f4-4330-9d2b-f77d89c262d4","system_id":"levelo_inurba_marseille","lat":43.29304,"lon":5.37177,"is_reserved":false,"is_disabled":true,"rental_uris":{"android":"levelo://app?vid=d1adb045-11f4-4330-9d2b-f77d89c262d4","ios":"levelo://app?vid=d1adb045-11f4-4330-9d2b-f77d89c262d4"},"vehicle_type_id":"4","last_reported":1734466220,"current_range_meters":35600,"station_id":"ce4bgh92rcd13ifvqb40","pricing_plan_id":"cebpf4jnsgd1na2vs0mg"},{"bike_id":"fb5ac6cd-6d94-4004-9473-07d3146ccb2b","system_id":"levelo_inurba_marseille","lat":43.28871,"lon":5.35849,"is_reserved":false,"is_disabled":false,"rental_uris":{"android":"levelo://app?vid=fb5ac6cd-6d94-4004-9473-07d3146ccb2b","ios":"levelo://app?vid=fb5ac6cd-6d94-4004-9473-07d3146ccb2b"},"vehicle_type_id":"4","last_reported":1734466220,"current_range_meters":30800,"station_id":"ce4bhb12rcd13ifvqem0","pricing_plan_id":"cebpf4jnsgd1na2vs0mg"},{"bike_id":"0dda4003-865c-4e8d-8fae-087415c72429","system_id":"levelo_inurba_marseille","lat":43.29881,"lon":5.43633,"is_reserved":false,"is_disabled":false,"rental_uris":{"android":"levelo://app?vid=0dda4003-865c-4e8d-8fae-087415c72429","ios":"levelo://app?vid=0dda4003-865c-4e8d-8fae-087415c72429"},"vehicle_type_id":"4","last_reported":1734466220,"current_range_meters":16000,"station_id":"ce4bhpp2rcd13ifvqhfg","pricing_plan_id":"cebpf4jnsgd1na2vs0mg"},{"bike_id":"a33b825e-c779-4129-842f-aeba22c7390a","system_id":"levelo_inurba_marseille","lat":43.317,"lon":5.40458,"is_reserved":false,"is_disabled":false,"rental_uris":{"android":"levelo://app?vid=a33b825e-c779-4129-842f-aeba22c7390a","ios":"levelo://app?vid=a33b825e-c779-4129-842f-aeba22c7390a"},"vehicle_type_id":"4","last_reported":1734466220,"current_range_meters":38800,"station_id":"ce4bh012rcd13ifvqd00","pricing_plan_id":"cebpf4jnsgd1na2vs0mg"},{"bike_id":"492fd9a4-6f47-465d-9838-b5fa8d28f268","system_id":"levelo_inurba_marseille","lat":43.24668,"lon":5.3816,"is_reserved":false,"is_disabled":false,"rental_uris":{"android":"levelo://app?vid=492fd9a4-6f47-465d-9838-b5fa8d28f268","ios":"levelo://app?vid=492fd9a4-6f47-465d-9838-b5fa8d28f268"},"vehicle_type_id":"4","last_reported":1734466220,"current_range_meters":32400,"station_id":"ce4bhih2rcd13ifvqfr0","pricing_plan_id":"cebpf4jnsgd1na2vs0mg"},{"bike_id":"84f6b5f7-8810-4dd9-b948-0e20c04766c6","system_id":"levelo_inurba_marseille","lat":43.24388,"lon":5.37057,"is_reserved":false,"is_disabled":false,"rental_uris":{"android":"levelo://app?vid=84f6b5f7-8810-4dd9-b948-0e20c04766c6","ios":"levelo://app?vid=84f6b5f7-8810-4dd9-b948-0e20c04766c6"},"vehicle_type_id":"4","last_reported":1734466220,"current_range_meters":30800,"station_id":"ce4bhhh2rcd13ifvqfk0","pricing_plan_id":"cebpf4jnsgd1na2vs0mg"},{"bike_id":"0bd5d813-d89e-42f3-8ce9-c06fb9ffedaa","system_id":"levelo_inurba_marseille","lat":43.2894,"lon":5.39612,"is_reserved":false,"is_disabled":true,"rental_uris":{"android":"levelo://app?vid=0bd5d813-d89e-42f3-8ce9-c06fb9ffedaa","ios":"levelo://app?vid=0bd5d813-d89e-42f3-8ce9-c06fb9ffedaa"},"vehicle_type_id":"4","last_reported":1734466220,"current_range_meters":37600,"station_id":"ce4bh3h2rcd13ifvqdn0","pricing_plan_id":"cebpf4jnsgd1na2vs0mg"},{"bike_id":"d0724688-3c4c-434a-90a5-09e016e9f809","system_id":"levelo_inurba_marseille","lat":43.28857,"lon":5.3931,"is_reserved":false,"is_disabled":false,"rental_uris":{"android":"levelo://app?vid=d0724688-3c4c-434a-90a5-09e016e9f809","ios":"levelo://app?vid=d0724688-3c4c-434a-90a5-09e016e9f809"},"vehicle_type_id":"4","last_reported":1734466220,"current_range_meters":36800,"station_id":"ce4bh2p2rcd13ifvqdi0","pricing_plan_id":"cebpf4jnsgd1na2vs0mg"},{"bike_id":"d730b6d2-b4b0-444f-b860-eed7a4f03c01","system_id":"levelo_inurba_marseille","lat":43.32537,"lon":5.41447,"is_reserved":false,"is_disabled":false,"rental_uris":{"android":"levelo://app?vid=d730b6d2-b4b0-444f-b860-eed7a4f03c01","ios":"levelo://app?vid=d730b6d2-b4b0-444f-b860-eed7a4f03c01"},"vehicle_type_id":"4","last_reported":1734466220,"current_range_meters":33600,"station_id":"ce4bhq12rcd13ifvqhhg","pricing_plan_id":"cebpf4jnsgd1na2vs0mg"},{"bike_id":"a2df7d87-51ca-433e-ad68-1e23a0ea5897","system_id":"levelo_inurba_marseille","lat":43.27997,"lon":5.40006,"is_reserved":false,"is_disabled":false,"rental_uris":{"android":"levelo://app?vid=a2df7d87-51ca-433e-ad68-1e23a0ea5897","ios":"levelo://app?vid=a2df7d87-51ca-433e-ad68-1e23a0ea5897"},"vehicle_type_id":"4","last_reported":1734466220,"current_range_meters":39200,"station_id":"ce4bho92rcd13ifvqh4g","pricing_plan_id":"cebpf4jnsgd1na2vs0mg"},{"bike_id":"9a9ca54f-8f83-4db0-b780-a7eb0fa7f88d","system_id":"levelo_inurba_marseille","lat":43.26023,"lon":5.37549,"is_reserved":false,"is_disabled":false,"rental_uris":{"android":"levelo://app?vid=9a9ca54f-8f83-4db0-b780-a7eb0fa7f88d","ios":"levelo://app?vid=9a9ca54f-8f83-4db0-b780-a7eb0fa7f88d"},"vehicle_type_id":"4","last_reported":1734466220,"current_range_meters":36800,"station_id":"ce4bhgh2rcd13ifvqfa0","pricing_plan_id":"cebpf4jnsgd1na2vs0mg"},{"bike_id":"e72fa642-30df-464a-831c-61ff9cf06808","system_id":"levelo_inurba_marseille","lat":43.23067,"lon":5.35477,"is_reserved":false,"is_disabled":false,"rental_uris":{"android":"levelo://app?vid=e72fa642-30df-464a-831c-61ff9cf06808","ios":"levelo://app?vid=e72fa642-30df-464a-831c-61ff9cf06808"},"vehicle_type_id":"4","last_reported":1734466220,"current_range_meters":38800,"station_id":"cpo3342slgdg3j2ifvpg","pricing_plan_id":"cebpf4jnsgd1na2vs0mg"},{"bike_id":"59dd3452-a10e-4582-b091-d9bdba32cb2b","system_id":"levelo_inurba_marseille","lat":43.26564,"lon":5.39012,"is_reserved":false,"is_disabled":false,"rental_uris":{"android":"levelo://app?vid=59dd3452-a10e-4582-b091-d9bdba32cb2b","ios":"levelo://app?vid=59dd3452-a10e-4582-b091-d9bdba32cb2b"},"vehicle_type_id":"4","last_reported":1734466220,"current_range_meters":38800,"station_id":"ce4bhe12rcd13ifvqf30","pricing_plan_id":"cebpf4jnsgd1na2vs0mg"},{"bike_id":"4ad89db2-d7ae-4790-9e48-447a4f27414c","system_id":"levelo_inurba_marseille","lat":43.2694,"lon":5.40251,"is_reserved":false,"is_disabled":false,"rental_uris":{"android":"levelo://app?vid=4ad89db2-d7ae-4790-9e48-447a4f27414c","ios":"levelo://app?vid=4ad89db2-d7ae-4790-9e48-447a4f27414c"},"vehicle_type_id":"4","last_reported":1734466220,"current_range_meters":38000,"station_id":"cjm6bp8fraef2m0cb0m0","pricing_plan_id":"cebpf4jnsgd1na2vs0mg"},{"bike_id":"95c69429-156c-453e-b2c0-5f65d6fe9b40","system_id":"levelo_inurba_marseille","lat":43.23193,"lon":5.3998,"is_reserved":false,"is_disabled":false,"rental_uris":{"android":"levelo://app?vid=95c69429-156c-453e-b2c0-5f65d6fe9b40","ios":"levelo://app?vid=95c69429-156c-453e-b2c0-5f65d6fe9b40"},"vehicle_type_id":"4","last_reported":1734466220,"current_range_meters":30000,"station_id":"ce4bhn12rcd13ifvqgqg","pricing_plan_id":"cebpf4jnsgd1na2vs0mg"},{"bike_id":"69e1d826-a892-40fb-b638-3424bcdbe302","system_id":"levelo_inurba_marseille","lat":43.29932,"lon":5.36546,"is_reserved":false,"is_disabled":false,"rental_uris":{"android":"levelo://app?vid=69e1d826-a892-40fb-b638-3424bcdbe302","ios":"levelo://app?vid=69e1d826-a892-40fb-b638-3424bcdbe302"},"vehicle_type_id":"4","last_reported":1734466220,"current_range_meters":34800,"station_id":"ce4bgm92rcd13ifvqbr0","pricing_plan_id":"cebpf4jnsgd1na2vs0mg"},{"bike_id":"4898a0b9-6a89-490f-8bba-a0329e10212d","system_id":"levelo_inurba_marseille","lat":43.29538,"lon":5.38549,"is_reserved":false,"is_disabled":false,"rental_uris":{"android":"levelo://app?vid=4898a0b9-6a89-490f-8bba-a0329e10212d","ios":"levelo://app?vid=4898a0b9-6a89-490f-8bba-a0329e10212d"},"vehicle_type_id":"4","last_reported":1734466220,"current_range_meters":29600,"station_id":"ce4bgih2rcd13ifvqba0","pricing_plan_id":"cebpf4jnsgd1na2vs0mg"},{"bike_id":"30fd8802-cf54-4794-8c59-3422296724e2","system_id":"levelo_inurba_marseille","lat":43.30604,"lon":5.37231,"is_reserved":false,"is_disabled":false,"rental_uris":{"android":"levelo://app?vid=30fd8802-cf54-4794-8c59-3422296724e2","ios":"levelo://app?vid=30fd8802-cf54-4794-8c59-3422296724e2"},"vehicle_type_id":"4","last_reported":1734466220,"current_range_meters":20800,"station_id":"ce4bgqh2rcd13ifvqc4g","pricing_plan_id":"cebpf4jnsgd1na2vs0mg"},{"bike_id":"84372fcd-8132-442a-8acc-79a0d1bcb37c","system_id":"levelo_inurba_marseille","lat":43.31271,"lon":5.40169,"is_reserved":false,"is_disabled":false,"rental_uris":{"android":"levelo://app?vid=84372fcd-8132-442a-8acc-79a0d1bcb37c","ios":"levelo://app?vid=84372fcd-8132-442a-8acc-79a0d1bcb37c"},"vehicle_type_id":"4","last_reported":1734466220,"current_range_meters":8000,"station_id":"ce4bh092rcd13ifvqd30","pricing_plan_id":"cebpf4jnsgd1na2vs0mg"},{"bike_id":"92d120ee-1efa-43e7-b67c-b82cb5bff379","system_id":"levelo_inurba_marseille","lat":43.30357,"lon":5.41882,"is_reserved":false,"is_disabled":false,"rental_uris":{"android":"levelo://app?vid=92d120ee-1efa-43e7-b67c-b82cb5bff379","ios":"levelo://app?vid=92d120ee-1efa-43e7-b67c-b82cb5bff379"},"vehicle_type_id":"4","last_reported":1734466220,"current_range_meters":32000,"station_id":"ce4bhop2rcd13ifvqh7g","pricing_plan_id":"cebpf4jnsgd1na2vs0mg"},{"bike_id":"50a1b483-75a8-46df-8fd4-ad528343937d","system_id":"levelo_inurba_marseille","lat":43.31999,"lon":5.38139,"is_reserved":false,"is_disabled":false,"rental_uris":{"android":"levelo://app?vid=50a1b483-75a8-46df-8fd4-ad528343937d","ios":"levelo://app?vid=50a1b483-75a8-46df-8fd4-ad528343937d"},"vehicle_type_id":"4","last_reported":1734466220,"current_range_meters":20000,"station_id":"ce4bhr12rcd13ifvqhpg","pricing_plan_id":"cebpf4jnsgd1na2vs0mg"},{"bike_id":"9b3b15b8-0e59-4d35-bc41-e6a64a1479d7","system_id":"levelo_inurba_marseille","lat":43.28032,"lon":5.36931,"is_reserved":false,"is_disabled":false,"rental_uris":{"android":"levelo://app?vid=9b3b15b8-0e59-4d35-bc41-e6a64a1479d7","ios":"levelo://app?vid=9b3b15b8-0e59-4d35-bc41-e6a64a1479d7"},"vehicle_type_id":"4","last_reported":1734466220,"current_range_meters":39200,"station_id":"ce4bha12rcd13ifvqef0","pricing_plan_id":"cebpf4jnsgd1na2vs0mg"},{"bike_id":"59be24f3-ddfe-4937-bd81-8056adec3919","system_id":"levelo_inurba_marseille","lat":43.29865,"lon":5.36292,"is_reserved":false,"is_disabled":false,"rental_uris":{"android":"levelo://app?vid=59be24f3-ddfe-4937-bd81-8056adec3919","ios":"levelo://app?vid=59be24f3-ddfe-4937-bd81-8056adec3919"},"vehicle_type_id":"4","last_reported":1734466220,"current_range_meters":37600,"station_id":"ce4bgpp2rcd13ifvqc3g","pricing_plan_id":"cebpf4jnsgd1na2vs0mg"},{"bike_id":"ebf3d042-c8db-4779-a0f9-9354bb60c8a7","system_id":"levelo_inurba_marseille","lat":43.31365,"lon":5.38492,"is_reserved":false,"is_disabled":false,"rental_uris":{"android":"levelo://app?vid=ebf3d042-c8db-4779-a0f9-9354bb60c8a7","ios":"levelo://app?vid=ebf3d042-c8db-4779-a0f9-9354bb60c8a7"},"vehicle_type_id":"4","last_reported":1734466220,"current_range_meters":28000,"station_id":"ce4bgt92rcd13ifvqcf0","pricing_plan_id":"cebpf4jnsgd1na2vs0mg"},{"bike_id":"197ed8a6-b80d-4d71-97e4-5f2cf13087a5","system_id":"levelo_inurba_marseille","lat":43.29173,"lon":5.37057,"is_reserved":false,"is_disabled":false,"rental_uris":{"android":"levelo://app?vid=197ed8a6-b80d-4d71-97e4-5f2cf13087a5","ios":"levelo://app?vid=197ed8a6-b80d-4d71-97e4-5f2cf13087a5"},"vehicle_type_id":"4","last_reported":1734466220,"current_range_meters":38000,"station_id":"","pricing_plan_id":"cebpf4jnsgd1na2vs0mg"},{"bike_id":"c8399855-72d4-4f25-aa5a-52a18924a7b8","system_id":"levelo_inurba_marseille","lat":43.24161,"lon":5.36391,"is_reserved":false,"is_disabled":false,"rental_uris":{"android":"levelo://app?vid=c8399855-72d4-4f25-aa5a-52a18924a7b8","ios":"levelo://app?vid=c8399855-72d4-4f25-aa5a-52a18924a7b8"},"vehicle_type_id":"4","last_reported":1734466220,"current_range_meters":9600,"station_id":"cpo36qri1sfpv3e86is0","pricing_plan_id":"cebpf4jnsgd1na2vs0mg"},{"bike_id":"cec5bdf2-0eed-4c84-8596-3e8e1dbb0650","system_id":"levelo_inurba_marseille","lat":43.32369,"lon":5.38875,"is_reserved":false,"is_disabled":true,"rental_uris":{"android":"levelo://app?vid=cec5bdf2-0eed-4c84-8596-3e8e1dbb0650","ios":"levelo://app?vid=cec5bdf2-0eed-4c84-8596-3e8e1dbb0650"},"vehicle_type_id":"4","last_reported":1734466220,"current_range_meters":1600,"station_id":"ce4bhqp2rcd13ifvqhog","pricing_plan_id":"cebpf4jnsgd1na2vs0mg"},{"bike_id":"caccf3df-025c-4334-8486-611a28578717","system_id":"levelo_inurba_marseille","lat":43.24668,"lon":5.38149,"is_reserved":false,"is_disabled":true,"rental_uris":{"android":"levelo://app?vid=caccf3df-025c-4334-8486-611a28578717","ios":"levelo://app?vid=caccf3df-025c-4334-8486-611a28578717"},"vehicle_type_id":"4","last_reported":1734466220,"current_range_meters":0,"station_id":"ce4bhih2rcd13ifvqfr0","pricing_plan_id":"cebpf4jnsgd1na2vs0mg"},{"bike_id":"f4b3fee4-b22d-4e10-9cb7-989becb0ffca","system_id":"levelo_inurba_marseille","lat":43.29416,"lon":5.38597,"is_reserved":false,"is_disabled":false,"rental_uris":{"android":"levelo://app?vid=f4b3fee4-b22d-4e10-9cb7-989becb0ffca","ios":"levelo://app?vid=f4b3fee4-b22d-4e10-9cb7-989becb0ffca"},"vehicle_type_id":"4","last_reported":1734466220,"current_range_meters":34000,"station_id":"ce4bh2h2rcd13ifvqdh0","pricing_plan_id":"cebpf4jnsgd1na2vs0mg"},{"bike_id":"bed9f871-1620-4564-be1d-0c9369e670e1","system_id":"levelo_inurba_marseille","lat":43.2988,"lon":5.38917,"is_reserved":false,"is_disabled":false,"rental_uris":{"android":"levelo://app?vid=bed9f871-1620-4564-be1d-0c9369e670e1","ios":"levelo://app?vid=bed9f871-1620-4564-be1d-0c9369e670e1"},"vehicle_type_id":"4","last_reported":1734466220,"current_range_meters":37600,"station_id":"ce4bh392rcd13ifvqdl0","pricing_plan_id":"cebpf4jnsgd1na2vs0mg"},{"bike_id":"85c9c627-fe9e-47f2-b175-a8ec903d8a76","system_id":"levelo_inurba_marseille","lat":43.29621,"lon":5.37149,"is_reserved":false,"is_disabled":false,"rental_uris":{"android":"levelo://app?vid=85c9c627-fe9e-47f2-b175-a8ec903d8a76","ios":"levelo://app?vid=85c9c627-fe9e-47f2-b175-a8ec903d8a76"},"vehicle_type_id":"4","last_reported":1734466220,"current_range_meters":38000,"station_id":"ce4bgnh2rcd13ifvqc0g","pricing_plan_id":"cebpf4jnsgd1na2vs0mg"},{"bike_id":"8c1f4c83-c3db-4eb0-8ecc-c6625970d671","system_id":"levelo_inurba_marseille","lat":43.30124,"lon":5.39891,"is_reserved":false,"is_disabled":false,"rental_uris":{"android":"levelo://app?vid=8c1f4c83-c3db-4eb0-8ecc-c6625970d671","ios":"levelo://app?vid=8c1f4c83-c3db-4eb0-8ecc-c6625970d671"},"vehicle_type_id":"4","last_reported":1734466220,"current_range_meters":12400,"station_id":"ce4bh0h2rcd13ifvqd40","pricing_plan_id":"cebpf4jnsgd1na2vs0mg"},{"bike_id":"b024a3ed-1220-4f88-af52-0d8d757ddabf","system_id":"levelo_inurba_marseille","lat":43.31364,"lon":5.38499,"is_reserved":false,"is_disabled":false,"rental_uris":{"android":"levelo://app?vid=b024a3ed-1220-4f88-af52-0d8d757ddabf","ios":"levelo://app?vid=b024a3ed-1220-4f88-af52-0d8d757ddabf"},"vehicle_type_id":"4","last_reported":1734466220,"current_range_meters":28000,"station_id":"ce4bgt92rcd13ifvqcf0","pricing_plan_id":"cebpf4jnsgd1na2vs0mg"},{"bike_id":"76adf408-c037-4157-88f5-eab2cfbef1ca","system_id":"levelo_inurba_marseille","lat":43.33026,"lon":5.39033,"is_reserved":false,"is_disabled":false,"rental_uris":{"android":"levelo://app?vid=76adf408-c037-4157-88f5-eab2cfbef1ca","ios":"levelo://app?vid=76adf408-c037-4157-88f5-eab2cfbef1ca"},"vehicle_type_id":"4","last_reported":1734466220,"current_range_meters":30000,"station_id":"ce4bhr92rcd13ifvqhrg","pricing_plan_id":"cebpf4jnsgd1na2vs0mg"},{"bike_id":"f3b6eb00-e1c4-4707-8a2c-13ac0d775a10","system_id":"levelo_inurba_marseille","lat":43.31271,"lon":5.40165,"is_reserved":false,"is_disabled":false,"rental_uris":{"android":"levelo://app?vid=f3b6eb00-e1c4-4707-8a2c-13ac0d775a10","ios":"levelo://app?vid=f3b6eb00-e1c4-4707-8a2c-13ac0d775a10"},"vehicle_type_id":"4","last_reported":1734466220,"current_range_meters":8400,"station_id":"ce4bh092rcd13ifvqd30","pricing_plan_id":"cebpf4jnsgd1na2vs0mg"},{"bike_id":"7c6e62f7-fb8f-41ca-9a81-0c4aa82b9f20","system_id":"levelo_inurba_marseille","lat":43.28663,"lon":5.36356,"is_reserved":false,"is_disabled":false,"rental_uris":{"android":"levelo://app?vid=7c6e62f7-fb8f-41ca-9a81-0c4aa82b9f20","ios":"levelo://app?vid=7c6e62f7-fb8f-41ca-9a81-0c4aa82b9f20"},"vehicle_type_id":"4","last_reported":1734466220,"current_range_meters":38800,"station_id":"ce4bhah2rcd13ifvqej0","pricing_plan_id":"cebpf4jnsgd1na2vs0mg"},{"bike_id":"06bac590-e1b1-4699-9bcc-b98cc97843f2","system_id":"levelo_inurba_marseille","lat":43.29294,"lon":5.37464,"is_reserved":false,"is_disabled":false,"rental_uris":{"android":"levelo://app?vid=06bac590-e1b1-4699-9bcc-b98cc97843f2","ios":"levelo://app?vid=06bac590-e1b1-4699-9bcc-b98cc97843f2"},"vehicle_type_id":"4","last_reported":1734466220,"current_range_meters":36400,"station_id":"ce4bgi12rcd13ifvqb70","pricing_plan_id":"cebpf4jnsgd1na2vs0mg"},{"bike_id":"91ee1933-7065-49af-8683-d92c503f6ac5","system_id":"levelo_inurba_marseille","lat":43.26683,"lon":5.38269,"is_reserved":false,"is_disabled":false,"rental_uris":{"android":"levelo://app?vid=91ee1933-7065-49af-8683-d92c503f6ac5","ios":"levelo://app?vid=91ee1933-7065-49af-8683-d92c503f6ac5"},"vehicle_type_id":"4","last_reported":1734466220,"current_range_meters":22000,"station_id":"ce4bhg92rcd13ifvqf90","pricing_plan_id":"cebpf4jnsgd1na2vs0mg"},{"bike_id":"b0b5ca3b-6a23-4037-8add-3940b0ed01fc","system_id":"levelo_inurba_marseille","lat":43.28104,"lon":5.37828,"is_reserved":false,"is_disabled":false,"rental_uris":{"android":"levelo://app?vid=b0b5ca3b-6a23-4037-8add-3940b0ed01fc","ios":"levelo://app?vid=b0b5ca3b-6a23-4037-8add-3940b0ed01fc"},"vehicle_type_id":"4","last_reported":1734466220,"current_range_meters":27600,"station_id":"ce4bha12rcd13ifvqee0","pricing_plan_id":"cebpf4jnsgd1na2vs0mg"},{"bike_id":"e234880d-a291-45ed-8a9a-6a83de9cc650","system_id":"levelo_inurba_marseille","lat":43.28936,"lon":5.36432,"is_reserved":false,"is_disabled":false,"rental_uris":{"android":"levelo://app?vid=e234880d-a291-45ed-8a9a-6a83de9cc650","ios":"levelo://app?vid=e234880d-a291-45ed-8a9a-6a83de9cc650"},"vehicle_type_id":"4","last_reported":1734466220,"current_range_meters":24800,"station_id":"ce4bhc92rcd13ifvqetg","pricing_plan_id":"cebpf4jnsgd1na2vs0mg"},{"bike_id":"dac211e7-f278-4f35-910f-62503c1e8281","system_id":"levelo_inurba_marseille","lat":43.31366,"lon":5.38502,"is_reserved":false,"is_disabled":false,"rental_uris":{"android":"levelo://app?vid=dac211e7-f278-4f35-910f-62503c1e8281","ios":"levelo://app?vid=dac211e7-f278-4f35-910f-62503c1e8281"},"vehicle_type_id":"4","last_reported":1734466220,"current_range_meters":38800,"station_id":"ce4bgt92rcd13ifvqcf0","pricing_plan_id":"cebpf4jnsgd1na2vs0mg"},{"bike_id":"563b4e1d-2e56-47c0-afec-7afc5fbabbcb","system_id":"levelo_inurba_marseille","lat":43.32171,"lon":5.37493,"is_reserved":false,"is_disabled":false,"rental_uris":{"android":"levelo://app?vid=563b4e1d-2e56-47c0-afec-7afc5fbabbcb","ios":"levelo://app?vid=563b4e1d-2e56-47c0-afec-7afc5fbabbcb"},"vehicle_type_id":"4","last_reported":1734466220,"current_range_meters":34800,"station_id":"","pricing_plan_id":"cebpf4jnsgd1na2vs0mg"},{"bike_id":"bdf518c3-8e1c-4e3a-bfa1-e7e3d9079018","system_id":"levelo_inurba_marseille","lat":43.33013,"lon":5.39011,"is_reserved":false,"is_disabled":false,"rental_uris":{"android":"levelo://app?vid=bdf518c3-8e1c-4e3a-bfa1-e7e3d9079018","ios":"levelo://app?vid=bdf518c3-8e1c-4e3a-bfa1-e7e3d9079018"},"vehicle_type_id":"4","last_reported":1734466220,"current_range_meters":38800,"station_id":"ce4bhr92rcd13ifvqhrg","pricing_plan_id":"cebpf4jnsgd1na2vs0mg"},{"bike_id":"b2d380e8-08ed-495f-a052-5d7dfa068f5b","system_id":"levelo_inurba_marseille","lat":43.26949,"lon":5.3863,"is_reserved":false,"is_disabled":true,"rental_uris":{"android":"levelo://app?vid=b2d380e8-08ed-495f-a052-5d7dfa068f5b","ios":"levelo://app?vid=b2d380e8-08ed-495f-a052-5d7dfa068f5b"},"vehicle_type_id":"4","last_reported":1734466220,"current_range_meters":0,"station_id":"ce4bhh92rcd13ifvqfh0","pricing_plan_id":"cebpf4jnsgd1na2vs0mg"},{"bike_id":"262db747-5df7-439b-b4e7-c313a4a57308","system_id":"levelo_inurba_marseille","lat":43.27809,"lon":5.40714,"is_reserved":false,"is_disabled":false,"rental_uris":{"android":"levelo://app?vid=262db747-5df7-439b-b4e7-c313a4a57308","ios":"levelo://app?vid=262db747-5df7-439b-b4e7-c313a4a57308"},"vehicle_type_id":"4","last_reported":1734466220,"current_range_meters":18000,"station_id":"ce4bhnh2rcd13ifvqgtg","pricing_plan_id":"cebpf4jnsgd1na2vs0mg"},{"bike_id":"0a09a248-9970-4ffb-8957-420624d5c825","system_id":"levelo_inurba_marseille","lat":43.23194,"lon":5.35554,"is_reserved":false,"is_disabled":false,"rental_uris":{"android":"levelo://app?vid=0a09a248-9970-4ffb-8957-420624d5c825","ios":"levelo://app?vid=0a09a248-9970-4ffb-8957-420624d5c825"},"vehicle_type_id":"4","last_reported":1734466220,"current_range_meters":38800,"station_id":"ce4bhu92rcd13ifvqi70","pricing_plan_id":"cebpf4jnsgd1na2vs0mg"},{"bike_id":"40b9ed49-cf3b-4ef3-bb1d-862bea75c0eb","system_id":"levelo_inurba_marseille","lat":43.29422,"lon":5.39766,"is_reserved":false,"is_disabled":false,"rental_uris":{"android":"levelo://app?vid=40b9ed49-cf3b-4ef3-bb1d-862bea75c0eb","ios":"levelo://app?vid=40b9ed49-cf3b-4ef3-bb1d-862bea75c0eb"},"vehicle_type_id":"4","last_reported":1734466220,"current_range_meters":26800,"station_id":"ce4bh3h2rcd13ifvqdo0","pricing_plan_id":"cebpf4jnsgd1na2vs0mg"},{"bike_id":"d5c6ce19-842a-4c0c-a604-a28cc7cbaeab","system_id":"levelo_inurba_marseille","lat":43.28688,"lon":5.39992,"is_reserved":false,"is_disabled":false,"rental_uris":{"android":"levelo://app?vid=d5c6ce19-842a-4c0c-a604-a28cc7cbaeab","ios":"levelo://app?vid=d5c6ce19-842a-4c0c-a604-a28cc7cbaeab"},"vehicle_type_id":"4","last_reported":1734466220,"current_range_meters":38800,"station_id":"ce4bho92rcd13ifvqh3g","pricing_plan_id":"cebpf4jnsgd1na2vs0mg"},{"bike_id":"82f7f145-591c-4ce0-8f76-660882a2845e","system_id":"levelo_inurba_marseille","lat":43.33596,"lon":5.40955,"is_reserved":false,"is_disabled":true,"rental_uris":{"android":"levelo://app?vid=82f7f145-591c-4ce0-8f76-660882a2845e","ios":"levelo://app?vid=82f7f145-591c-4ce0-8f76-660882a2845e"},"vehicle_type_id":"4","last_reported":1734466220,"current_range_meters":33600,"station_id":"ce4bhqh2rcd13ifvqhmg","pricing_plan_id":"cebpf4jnsgd1na2vs0mg"},{"bike_id":"840ed963-9f8e-4d70-a8a0-f39a4af27f7a","system_id":"levelo_inurba_marseille","lat":43.27816,"lon":5.40718,"is_reserved":false,"is_disabled":false,"rental_uris":{"android":"levelo://app?vid=840ed963-9f8e-4d70-a8a0-f39a4af27f7a","ios":"levelo://app?vid=840ed963-9f8e-4d70-a8a0-f39a4af27f7a"},"vehicle_type_id":"4","last_reported":1734466220,"current_range_meters":28000,"station_id":"ce4bhnh2rcd13ifvqgtg","pricing_plan_id":"cebpf4jnsgd1na2vs0mg"},{"bike_id":"2ea2b566-c7ff-42df-9b9e-cc74037c16c1","system_id":"levelo_inurba_marseille","lat":43.28725,"lon":5.36091,"is_reserved":false,"is_disabled":false,"rental_uris":{"android":"levelo://app?vid=2ea2b566-c7ff-42df-9b9e-cc74037c16c1","ios":"levelo://app?vid=2ea2b566-c7ff-42df-9b9e-cc74037c16c1"},"vehicle_type_id":"4","last_reported":1734466220,"current_range_meters":38800,"station_id":"cki0cbj6b192h4jlfktg","pricing_plan_id":"cebpf4jnsgd1na2vs0mg"},{"bike_id":"a5507f5f-495d-449e-be0e-e7373f1f8861","system_id":"levelo_inurba_marseille","lat":43.29231,"lon":5.36067,"is_reserved":false,"is_disabled":false,"rental_uris":{"android":"levelo://app?vid=a5507f5f-495d-449e-be0e-e7373f1f8861","ios":"levelo://app?vid=a5507f5f-495d-449e-be0e-e7373f1f8861"},"vehicle_type_id":"4","last_reported":1734466220,"current_range_meters":29600,"station_id":"ce4bhbh2rcd13ifvqeqg","pricing_plan_id":"cebpf4jnsgd1na2vs0mg"},{"bike_id":"ac7c5f56-daad-496c-965f-9103737000e8","system_id":"levelo_inurba_marseille","lat":43.23968,"lon":5.36634,"is_reserved":false,"is_disabled":false,"rental_uris":{"android":"levelo://app?vid=ac7c5f56-daad-496c-965f-9103737000e8","ios":"levelo://app?vid=ac7c5f56-daad-496c-965f-9103737000e8"},"vehicle_type_id":"4","last_reported":1734466220,"current_range_meters":38800,"station_id":"ce4bhi12rcd13ifvqfp0","pricing_plan_id":"cebpf4jnsgd1na2vs0mg"},{"bike_id":"3042285c-4f36-4e00-aa8e-2f4445e3a69e","system_id":"levelo_inurba_marseille","lat":43.32376,"lon":5.38863,"is_reserved":false,"is_disabled":false,"rental_uris":{"android":"levelo://app?vid=3042285c-4f36-4e00-aa8e-2f4445e3a69e","ios":"levelo://app?vid=3042285c-4f36-4e00-aa8e-2f4445e3a69e"},"vehicle_type_id":"4","last_reported":1734466220,"current_range_meters":38800,"station_id":"ce4bhqp2rcd13ifvqhog","pricing_plan_id":"cebpf4jnsgd1na2vs0mg"},{"bike_id":"f5d6a80f-4cdc-43d9-a251-ed5436737e28","system_id":"levelo_inurba_marseille","lat":43.31533,"lon":5.38024,"is_reserved":false,"is_disabled":false,"rental_uris":{"android":"levelo://app?vid=f5d6a80f-4cdc-43d9-a251-ed5436737e28","ios":"levelo://app?vid=f5d6a80f-4cdc-43d9-a251-ed5436737e28"},"vehicle_type_id":"4","last_reported":1734466220,"current_range_meters":38800,"station_id":"ce4bhsp2rcd13ifvqi50","pricing_plan_id":"cebpf4jnsgd1na2vs0mg"},{"bike_id":"dac99265-79af-45f7-ad0c-4d5f9b5e425d","system_id":"levelo_inurba_marseille","lat":43.26491,"lon":5.39545,"is_reserved":false,"is_disabled":false,"rental_uris":{"android":"levelo://app?vid=dac99265-79af-45f7-ad0c-4d5f9b5e425d","ios":"levelo://app?vid=dac99265-79af-45f7-ad0c-4d5f9b5e425d"},"vehicle_type_id":"4","last_reported":1734466220,"current_range_meters":3200,"station_id":"ce4bhi12rcd13ifvqfq0","pricing_plan_id":"cebpf4jnsgd1na2vs0mg"},{"bike_id":"cb66e355-1e6f-4e42-9686-091df755abf7","system_id":"levelo_inurba_marseille","lat":43.25008,"lon":5.38914,"is_reserved":false,"is_disabled":false,"rental_uris":{"android":"levelo://app?vid=cb66e355-1e6f-4e42-9686-091df755abf7","ios":"levelo://app?vid=cb66e355-1e6f-4e42-9686-091df755abf7"},"vehicle_type_id":"4","last_reported":1734466220,"current_range_meters":23200,"station_id":"ce4bhgp2rcd13ifvqfd0","pricing_plan_id":"cebpf4jnsgd1na2vs0mg"},