{"last_updated":1728472094,"ttl":60,"version":"2.2","data":{"bikes":[{"bike_id":"c60da232-2931-445e-9832-6a7c4cbdbe4f","system_id":"levelo_inurba_marseille","lat":43.25939,"lon":5.40909,"is_reserved":false,"is_disabled":false,"rental_uris":{"android":"levelo://app?vid=c60da232-2931-445e-9832-6a7c4cbdbe4f","ios":"levelo://app?vid=c60da232-2931-445e-9832-6a7c4cbdbe4f"},"vehicle_type_id":"4","last_reported":1728472094,"current_range_meters":28400,"station_id":"ce4bhm92rcd13ifvqglg","pricing_plan_id":"cebpf4jnsgd1na2vs0mg"},{"bike_id":"596a6ec3-b7cb-432e-a39c-929a1afb00c6","system_id":"levelo_inurba_marseille","lat":43.28278,"lon":5.35079,"is_reserved":false,"is_disabled":false,"rental_uris":{"android":"levelo://app?vid=596a6ec3-b7cb-432e-a39c-929a1afb00c6","ios":"levelo://app?vid=596a6ec3-b7cb-432e-a39c-929a1afb00c6"},"vehicle_type_id":"4","last_reported":1728472094,"current_range_meters":23200,"station_id":"ce4bhbp2rcd13ifvqerg","pricing_plan_id":"cebpf4jnsgd1na2vs0mg"},{"bike_id":"4d05d63f-111c-4b0a-b626-f412071e31cd","system_id":"levelo_inurba_marseille","lat":43.26692,"lon":5.38275,"is_reserved":false,"is_disabled":false,"rental_uris":{"android":"levelo://app?vid=4d05d63f-111c-4b0a-b626-f412071e31cd","ios":"levelo://app?vid=4d05d63f-111c-4b0a-b626-f412071e31cd"},"vehicle_type_id":"4","last_reported":1728472094,"current_range_meters":26000,"station_id":"ce4bhg92rcd13ifvqf90","pricing_plan_id":"cebpf4jnsgd1na2vs0mg"},{"bike_id":"64401e11-82c8-4b90-a932-63d1fc0345c9","system_id":"levelo_inurba_marseille","lat":43.30541,"lon":5.36709,"is_reserved":false,"is_disabled":false,"rental_uris":{"android":"levelo://app?vid=64401e11-82c8-4b90-a932-63d1fc0345c9","ios":"levelo://app?vid=64401e11-82c8-4b90-a932-63d1fc0345c9"},"vehicle_type_id":"4","last_reported":1728472094,"current_range_meters":18800,"station_id":"ce4bgrp2rcd13ifvqc9g","pricing_plan_id":"cebpf4jnsgd1na2vs0mg"},{"bike_id":"62d9e195-f719-4690-a78c-ff33746a6f51","system_id":"levelo_inurba_marseille","lat":43.27376,"lon":5.36267,"is_reserved":false,"is_disabled":false,"rental_uris":{"android":"levelo://app?vid=62d9e195-f719-4690-a78c-ff33746a6f51","ios":"levelo://app?vid=62d9e195-f719-4690-a78c-ff33746a6f51"},"vehicle_type_id":"4","last_reported":1728472094,"current_range_meters":38800,"station_id":"ce4bhbh2rcd13ifvqeo0","pricing_plan_id":"cebpf4jnsgd1na2vs0mg"},{"bike_id":"6b8918a4-396b-43e5-9a7f-f056357bf660","system_id":"levelo_inurba_marseille","lat":43.23075,"lon":5.35482,"is_reserved":false,"is_disabled":false,"rental_uris":{"android":"levelo://app?vid=6b8918a4-396b-43e5-9a7f-f056357bf660","ios":"levelo://app?vid=6b8918a4-396b-43e5-9a7f-f056357bf660"},"vehicle_type_id":"4","last_reported":1728472094,"current_range_meters":8800,"station_id":"cpo3342slgdg3j2ifvpg","pricing_plan_id":"cebpf4jnsgd1na2vs0mg"},{"bike_id":"1444e3e9-3042-4ff1-9111-4ac8430a0238","system_id":"levelo_inurba_marseille","lat":43.28268,"lon":5.35067,"is_reserved":false,"is_disabled":false,"rental_uris":{"android":"levelo://app?vid=1444e3e9-3042-4ff1-9111-4ac8430a0238","ios":"levelo://app?vid=1444e3e9-3042-4ff1-9111-4ac8430a0238"},"vehicle_type_id":"4","last_reported":1728472094,"current_range_meters":20800,"station_id":"ce4bhbp2rcd13ifvqerg","pricing_plan_id":"cebpf4jnsgd1na2vs0mg"},{"bike_id":"654ab2b2-fb69-4cc7-9d42-6b80158d5f9e","system_id":"levelo_inurba_marseille","lat":43.28457,"lon":5.35881,"is_reserved":false,"is_disabled":false,"rental_uris":{"android":"levelo://app?vid=654ab2b2-fb69-4cc7-9d42-6b80158d5f9e","ios":"levelo://app?vid=654ab2b2-fb69-4cc7-9d42-6b80158d5f9e"},"vehicle_type_id":"4","last_reported":1728472094,"current_range_meters":36800,"station_id":"ce4bhah2rcd13ifvqei0","pricing_plan_id":"cebpf4jnsgd1na2vs0mg"},{"bike_id":"24932f49-175c-4e25-82e1-c5d246dc6f75","system_id":"levelo_inurba_marseille","lat":43.285919,"lon":5.379889,"is_reserved":false,"is_disabled":false,"rental_uris":{"android":"levelo://app?vid=24932f49-175c-4e25-82e1-c5d246dc6f75","ios":"levelo://app?vid=24932f49-175c-4e25-82e1-c5d246dc6f75"},"vehicle_type_id":"4","last_reported":1728472094,"current_range_meters":20400,"station_id":"ce4bguh2rcd13ifvqcj0","pricing_plan_id":"cebpf4jnsgd1na2vs0mg"},{"bike_id":"e81727dc-58b9-4224-be75-56593a5422cc","system_id":"levelo_inurba_marseille","lat":43.28266,"lon":5.35059,"is_reserved":false,"is_disabled":false,"rental_uris":{"android":"levelo://app?vid=e81727dc-58b9-4224-be75-56593a5422cc","ios":"levelo://app?vid=e81727dc-58b9-4224-be75-56593a5422cc"},"vehicle_type_id":"4","last_reported":1728472094,"current_range_meters":26800,"station_id":"ce4bhbp2rcd13ifvqerg","pricing_plan_id":"cebpf4jnsgd1na2vs0mg"},{"bike_id":"a7db8d57-39dc-4df7-b4dc-ffdc3d278a56","system_id":"levelo_inurba_marseille","lat":43.30277,"lon":5.37694,"is_reserved":false,"is_disabled":false,"rental_uris":{"android":"levelo://app?vid=a7db8d57-39dc-4df7-b4dc-ffdc3d278a56","ios":"levelo://app?vid=a7db8d57-39dc-4df7-b4dc-ffdc3d278a56"},"vehicle_type_id":"4","last_reported":1728472094,"current_range_meters":30800,"station_id":"ce4bguh2rcd13ifvqcj0","pricing_plan_id":"cebpf4jnsgd1na2vs0mg"},{"bike_id":"c6c66c5e-7ff3-485e-a7a2-e78c2a15b2b5","system_id":"levelo_inurba_marseille","lat":43.29919,"lon":5.38152,"is_reserved":false,"is_disabled":false,"rental_uris":{"android":"levelo://app?vid=c6c66c5e-7ff3-485e-a7a2-e78c2a15b2b5","ios":"levelo://app?vid=c6c66c5e-7ff3-485e-a7a2-e78c2a15b2b5"},"vehicle_type_id":"4","last_reported":1728472094,"current_range_meters":16000,"station_id":"ce4bgj12rcd13ifvqbc0","pricing_plan_id":"cebpf4jnsgd1na2vs0mg"},{"bike_id":"64c9abdc-a744-4b43-9856-a64e8ee5db15","system_id":"levelo_inurba_marseille","lat":43.23069,"lon":5.35487,"is_reserved":false,"is_disabled":false,"rental_uris":{"android":"levelo://app?vid=64c9abdc-a744-4b43-9856-a64e8ee5db15","ios":"levelo://app?vid=64c9abdc-a744-4b43-9856-a64e8ee5db15"},"vehicle_type_id":"4","last_reported":1728472094,"current_range_meters":38000,"station_id":"cpo3342slgdg3j2ifvpg","pricing_plan_id":"cebpf4jnsgd1na2vs0mg"},{"bike_id":"13f48264-f750-4c8d-9405-da351fc1a002","system_id":"levelo_inurba_marseille","lat":43.28433,"lon":5.39204,"is_reserved":false,"is_disabled":false,"rental_uris":{"android":"levelo://app?vid=13f48264-f750-4c8d-9405-da351fc1a002","ios":"levelo://app?vid=13f48264-f750-4c8d-9405-da351fc1a002"},"vehicle_type_id":"4","last_reported":1728472094,"current_range_meters":32000,"station_id":"ce4bhoh2rcd13ifvqh5g","pricing_plan_id":"cebpf4jnsgd1na2vs0mg"},{"bike_id":"fa676a5e-9c79-4a67-bacd-add425a4036d","system_id":"levelo_inurba_marseille","lat":43.23181,"lon":5.39989,"is_reserved":false,"is_disabled":false,"rental_uris":{"android":"levelo://app?vid=fa676a5e-9c79-4a67-bacd-add425a4036d","ios":"levelo://app?vid=fa676a5e-9c79-4a67-bacd-add425a4036d"},"vehicle_type_id":"4","last_reported":1728472094,"current_range_meters":33200,"station_id":"ce4bhn12rcd13ifvqgqg","pricing_plan_id":"cebpf4jnsgd1na2vs0mg"},{"bike_id":"7469462f-90e1-470e-8aab-e30796ef4ddd","system_id":"levelo_inurba_marseille","lat":43.2656,"lon":5.37289,"is_reserved":false,"is_disabled":false,"rental_uris":{"android":"levelo://app?vid=7469462f-90e1-470e-8aab-e30796ef4ddd","ios":"levelo://app?vid=7469462f-90e1-470e-8aab-e30796ef4ddd"},"vehicle_type_id":"4","last_reported":1728472094,"current_range_meters":26800,"station_id":"ce4bhg12rcd13ifvqf70","pricing_plan_id":"cebpf4jnsgd1na2vs0mg"},{"bike_id":"aebe4de8-b2bc-4e90-8aff-3c0b9ec5f5ba","system_id":"levelo_inurba_marseille","lat":43.23156,"lon":5.43706,"is_reserved":false,"is_disabled":false,"rental_uris":{"android":"levelo://app?vid=aebe4de8-b2bc-4e90-8aff-3c0b9ec5f5ba","ios":"levelo://app?vid=aebe4de8-b2bc-4e90-8aff-3c0b9ec5f5ba"},"vehicle_type_id":"4","last_reported":1728472094,"current_range_meters":16000,"station_id":"ce4bhmp2rcd13ifvqgog","pricing_plan_id":"cebpf4jnsgd1na2vs0mg"},{"bike_id":"60d14f96-a250-46b7-b5f7-856738f6adf5","system_id":"levelo_inurba_marseille","lat":43.2837,"lon":5.3873,"is_reserved":false,"is_disabled":false,"rental_uris":{"android":"levelo://app?vid=60d14f96-a250-46b7-b5f7-856738f6adf5","ios":"levelo://app?vid=60d14f96-a250-46b7-b5f7-856738f6adf5"},"vehicle_type_id":"4","last_reported":1728472094,"current_range_meters":31200,"station_id":"ce4bhnh2rcd13ifvqgtg","pricing_plan_id":"cebpf4jnsgd1na2vs0mg"},{"bike_id":"7028d899-9984-4000-a689-483b691fc9e5","system_id":"levelo_inurba_marseille","lat":43.29561,"lon":5.42281,"is_reserved":false,"is_disabled":false,"rental_uris":{"android":"levelo://app?vid=7028d899-9984-4000-a689-483b691fc9e5","ios":"levelo://app?vid=7028d899-9984-4000-a689-483b691fc9e5"},"vehicle_type_id":"4","last_reported":1728472094,"current_range_meters":38800,"station_id":"ce4bhph2rcd13ifvqhdg","pricing_plan_id":"cebpf4jnsgd1na2vs0mg"},{"bike_id":"f3677255-51a7-41a3-adf9-dd26c82bad4f","system_id":"levelo_inurba_marseille","lat":43.29027,"lon":5.38132,"is_reserved":false,"is_disabled":false,"rental_uris":{"android":"levelo://app?vid=f3677255-51a7-41a3-adf9-dd26c82bad4f","ios":"levelo://app?vid=f3677255-51a7-41a3-adf9-dd26c82bad4f"},"vehicle_type_id":"4","last_reported":1728472094,"current_range_meters":36000,"station_id":"ce4bh4p2rcd13ifvqe1g","pricing_plan_id":"cebpf4jnsgd1na2vs0mg"},{"bike_id":"edf02f1c-812a-49e2-b3c0-268d40cf9f22","system_id":"levelo_inurba_marseille","lat":43.28479,"lon":5.38411,"is_reserved":false,"is_disabled":false,"rental_uris":{"android":"levelo://app?vid=edf02f1c-812a-49e2-b3c0-268d40cf9f22","ios":"levelo://app?vid=edf02f1c-812a-49e2-b3c0-268d40cf9f22"},"vehicle_type_id":"4","last_reported":1728472094,"current_range_meters":37600,"station_id":"ce4bh512rcd13ifvqe3g","pricing_plan_id":"cebpf4jnsgd1na2vs0mg"},{"bike_id":"3d7bf7b2-5658-4bad-8a72-c102c32a34ea","system_id":"levelo_inurba_marseille","lat":43.23965,"lon":5.36623,"is_reserved":false,"is_disabled":false,"rental_uris":{"android":"levelo://app?vid=3d7bf7b2-5658-4bad-8a72-c102c32a34ea","ios":"levelo://app?vid=3d7bf7b2-5658-4bad-8a72-c102c32a34ea"},"vehicle_type_id":"4","last_reported":1728472094,"current_range_meters":3200,"station_id":"ce4bhi12rcd13ifvqfp0","pricing_plan_id":"cebpf4jnsgd1na2vs0mg"},{"bike_id":"a112664f-3423-43f7-a5f3-07021b975e89","system_id":"levelo_inurba_marseille","lat":43.29534,"lon":5.39044,"is_reserved":false,"is_disabled":false,"rental_uris":{"android":"levelo://app?vid=a112664f-3423-43f7-a5f3-07021b975e89","ios":"levelo://app?vid=a112664f-3423-43f7-a5f3-07021b975e89"},"vehicle_type_id":"4","last_reported":1728472094,"current_range_meters":25200,"station_id":"ce4bh3p2rcd13ifvqdp0","pricing_plan_id":"cebpf4jnsgd1na2vs0mg"},{"bike_id":"0f21128f-2cd6-4779-8b8b-00ba634cf7e3","system_id":"levelo_inurba_marseille","lat":43.25117,"lon":5.40321,"is_reserved":false,"is_disabled":false,"rental_uris":{"android":"levelo://app?vid=0f21128f-2cd6-4779-8b8b-00ba634cf7e3","ios":"levelo://app?vid=0f21128f-2cd6-4779-8b8b-00ba634cf7e3"},"vehicle_type_id":"4","last_reported":1728472094,"current_range_meters":25200,"station_id":"ce4bhlh2rcd13ifvqgig","pricing_plan_id":"cebpf4jnsgd1na2vs0mg"},{"bike_id":"59a20882-e884-470e-b111-32ed424e7cc3","system_id":"levelo_inurba_marseille","lat":43.33733,"lon":5.39187,"is_reserved":false,"is_disabled":false,"rental_uris":{"android":"levelo://app?vid=59a20882-e884-470e-b111-32ed424e7cc3","ios":"levelo://app?vid=59a20882-e884-470e-b111-32ed424e7cc3"},"vehicle_type_id":"4","last_reported":1728472094,"current_range_meters":31200,"station_id":"ce4bhr92rcd13ifvqhsg","pricing_plan_id":"cebpf4jnsgd1na2vs0mg"},{"bike_id":"9ed272e2-1a9d-49cf-8f57-b4c6c6d52ed4","system_id":"levelo_inurba_marseille","lat":43.30548,"lon":5.36532,"is_reserved":false,"is_disabled":false,"rental_uris":{"android":"levelo://app?vid=9ed272e2-1a9d-49cf-8f57-b4c6c6d52ed4","ios":"levelo://app?vid=9ed272e2-1a9d-49cf-8f57-b4c6c6d52ed4"},"vehicle_type_id":"4","last_reported":1728472094,"current_range_meters":26800,"station_id":"ce4bgs12rcd13ifvqcag","pricing_plan_id":"cebpf4jnsgd1na2vs0mg"},{"bike_id":"f00895ad-d945-4c67-a40c-d19215363036","system_id":"levelo_inurba_marseille","lat":43.32293,"lon":5.38269,"is_reserved":false,"is_disabled":false,"rental_uris":{"android":"levelo://app?vid=f00895ad-d945-4c67-a40c-d19215363036","ios":"levelo://app?vid=f00895ad-d945-4c67-a40c-d19215363036"},"vehicle_type_id":"4","last_reported":1728472094,"current_range_meters":30400,"station_id":"ce4bhr12rcd13ifvqhqg","pricing_plan_id":"cebpf4jnsgd1na2vs0mg"},{"bike_id":"72078f29-e154-4c5b-836a-c7e362ba1f09","system_id":"levelo_inurba_marseille","lat":43.33737,"lon":5.37473,"is_reserved":false,"is_disabled":false,"rental_uris":{"android":"levelo://app?vid=72078f29-e154-4c5b-836a-c7e362ba1f09","ios":"levelo://app?vid=72078f29-e154-4c5b-836a-c7e362ba1f09"},"vehicle_type_id":"4","last_reported":1728472094,"current_range_meters":11600,"station_id":"","pricing_plan_id":"cebpf4jnsgd1na2vs0mg"},{"bike_id":"7d7ab187-9965-49a4-bf26-b6ade39671fc","system_id":"levelo_inurba_marseille","lat":43.23195,"lon":5.3555,"is_reserved":false,"is_disabled":false,"rental_uris":{"android":"levelo://app?vid=7d7ab187-9965-49a4-bf26-b6ade39671fc","ios":"levelo://app?vid=7d7ab187-9965-49a4-bf26-b6ade39671fc"},"vehicle_type_id":"4","last_reported":1728472094,"current_range_meters":25200,"station_id":"ce4bhu92rcd13ifvqi70","pricing_plan_id":"cebpf4jnsgd1na2vs0mg"},{"bike_id":"1d57d01c-0b05-433b-b05a-ef5f2fd397d1","system_id":"levelo_inurba_marseille","lat":43.33026,"lon":5.39042,"is_reserved":false,"is_disabled":false,"rental_uris":{"android":"levelo://app?vid=1d57d01c-0b05-433b-b05a-ef5f2fd397d1","ios":"levelo://app?vid=1d57d01c-0b05-433b-b05a-ef5f2fd397d1"},"vehicle_type_id":"4","last_reported":1728472094,"current_range_meters":17600,"station_id":"ce4bhr92rcd13ifvqhrg","pricing_plan_id":"cebpf4jnsgd1na2vs0mg"},{"bike_id":"64cbf5ad-210a-4eed-8035-947870e47e4b","system_id":"levelo_inurba_marseille","lat":43.23188,"lon":5.39985,"is_reserved":false,"is_disabled":false,"rental_uris":{"android":"levelo://app?vid=64cbf5ad-210a-4eed-8035-947870e47e4b","ios":"levelo://app?vid=64cbf5ad-210a-4eed-8035-947870e47e4b"},"vehicle_type_id":"4","last_reported":1728472094,"current_range_meters":3600,"station_id":"ce4bhn12rcd13ifvqgqg","pricing_plan_id":"cebpf4jnsgd1na2vs0mg"},{"bike_id":"62c4f28c-3c6d-41b1-ab47-4c4a59ba841c","system_id":"levelo_inurba_marseille","lat":43.31081,"lon":5.4243,"is_reserved":false,"is_disabled":false,"rental_uris":{"android":"levelo://app?vid=62c4f28c-3c6d-41b1-ab47-4c4a59ba841c","ios":"levelo://app?vid=62c4f28c-3c6d-41b1-ab47-4c4a59ba841c"},"vehicle_type_id":"4","last_reported":1728472094,"current_range_meters":31200,"station_id":"ce4bhp92rcd13ifvqhag","pricing_plan_id":"cebpf4jnsgd1na2vs0mg"},{"bike_id":"328c531c-1e4f-418e-8338-5cec54dbc27c","system_id":"levelo_inurba_marseille","lat":43.30887,"lon":5.37193,"is_reserved":false,"is_disabled":false,"rental_uris":{"android":"levelo://app?vid=328c531c-1e4f-418e-8338-5cec54dbc27c","ios":"levelo://app?vid=328c531c-1e4f-418e-8338-5cec54dbc27c"},"vehicle_type_id":"4","last_reported":1728472094,"current_range_meters":36000,"station_id":"ce4bguh2rcd13ifvqckg","pricing_plan_id":"cebpf4jnsgd1na2vs0mg"},{"bike_id":"8b53370a-d79d-4d24-9f91-f912a389ae54","system_id":"levelo_inurba_marseille","lat":43.289703,"lon":5.366368,"is_reserved":false,"is_disabled":false,"rental_uris":{"android":"levelo://app?vid=8b53370a-d79d-4d24-9f91-f912a389ae54","ios":"levelo://app?vid=8b53370a-d79d-4d24-9f91-f912a389ae54"},"vehicle_type_id":"4","last_reported":1728472094,"current_range_meters":25600,"station_id":"ce4bhap2rcd13ifvqek0","pricing_plan_id":"cebpf4jnsgd1na2vs0mg"},{"bike_id":"7dd56a6b-ec2c-4470-b345-14af7dd0ef03","system_id":"levelo_inurba_marseille","lat":43.28423,"lon":5.34987,"is_reserved":false,"is_disabled":false,"rental_uris":{"android":"levelo://app?vid=7dd56a6b-ec2c-4470-b345-14af7dd0ef03","ios":"levelo://app?vid=7dd56a6b-ec2c-4470-b345-14af7dd0ef03"},"vehicle_type_id":"4","last_reported":1728472094,"current_range_meters":4800,"station_id":"ce4bhbh2rcd13ifvqepg","pricing_plan_id":"cebpf4jnsgd1na2vs0mg"},{"bike_id":"8b3ae388-fa92-4ecb-99df-8fbab4bc842b","system_id":"levelo_inurba_marseille","lat":43.27905,"lon":5.395687,"is_reserved":false,"is_disabled":false,"rental_uris":{"android":"levelo://app?vid=8b3ae388-fa92-4ecb-99df-8fbab4bc842b","ios":"levelo://app?vid=8b3ae388-fa92-4ecb-99df-8fbab4bc842b"},"vehicle_type_id":"4","last_reported":1728472094,"current_range_meters":6400,"station_id":"ce4bhf92rcd13ifvqf40","pricing_plan_id":"cebpf4jnsgd1na2vs0mg"},{"bike_id":"2c4c3de7-36cc-49ba-89f4-420d8d550649","system_id":"levelo_inurba_marseille","lat":43.25936,"lon":5.40908,"is_reserved":false,"is_disabled":false,"rental_uris":{"android":"levelo://app?vid=2c4c3de7-36cc-49ba-89f4-420d8d550649","ios":"levelo://app?vid=2c4c3de7-36cc-49ba-89f4-420d8d550649"},"vehicle_type_id":"4","last_reported":1728472094,"current_range_meters":25600,"station_id":"ce4bhm92rcd13ifvqglg","pricing_plan_id":"cebpf4jnsgd1na2vs0mg"},{"bike_id":"74e9ce9d-9e9f-4c6b-92fb-2f9a88c1f0f4","system_id":"levelo_inurba_marseille","lat":43.2417,"lon":5.36399,"is_reserved":false,"is_disabled":false,"rental_uris":{"android":"levelo://app?vid=74e9ce9d-9e9f-4c6b-92fb-2f9a88c1f0f4","ios":"levelo://app?vid=74e9ce9d-9e9f-4c6b-92fb-2f9a88c1f0f4"},"vehicle_type_id":"4","last_reported":1728472094,"current_range_meters":37600,"station_id":"cpo36qri1sfpv3e86is0","pricing_plan_id":"cebpf4jnsgd1na2vs0mg"},{"bike_id":"3ba9758c-1050-46cf-926c-459e0f470e30","system_id":"levelo_inurba_marseille","lat":43.29784,"lon":5.37102,"is_reserved":false,"is_disabled":false,"rental_uris":{"android":"levelo://app?vid=3ba9758c-1050-46cf-926c-459e0f470e30","ios":"levelo://app?vid=3ba9758c-1050-46cf-926c-459e0f470e30"},"vehicle_type_id":"4","last_reported":1728472094,"current_range_meters":7200,"station_id":"ce4bgop2rcd13ifvqc1g","pricing_plan_id":"cebpf4jnsgd1na2vs0mg"},{"bike_id":"2b1fa9d3-a0c8-412d-8c4f-9629473af7e8","system_id":"levelo_inurba_marseille","lat":43.29634,"lon":5.40597,"is_reserved":false,"is_disabled":false,"rental_uris":{"android":"levelo://app?vid=2b1fa9d3-a0c8-412d-8c4f-9629473af7e8","ios":"levelo://app?vid=2b1fa9d3-a0c8-412d-8c4f-9629473af7e8"},"vehicle_type_id":"4","last_reported":1728472094,"current_range_meters":4000,"station_id":"ce4bh0h2rcd13ifvqd60","pricing_plan_id":"cebpf4jnsgd1na2vs0mg"},{"bike_id":"d6666cc7-8ab0-4cc3-8232-1da81b3ee0fd","system_id":"levelo_inurba_marseille","lat":43.26496,"lon":5.39537,"is_reserved":false,"is_disabled":false,"rental_uris":{"android":"levelo://app?vid=d6666cc7-8ab0-4cc3-8232-1da81b3ee0fd","ios":"levelo://app?vid=d6666cc7-8ab0-4cc3-8232-1da81b3ee0fd"},"vehicle_type_id":"4","last_reported":1728472094,"current_range_meters":18000,"station_id":"ce4bhi12rcd13ifvqfq0","pricing_plan_id":"cebpf4jnsgd1na2vs0mg"},{"bike_id":"792577a6-685a-43bd-bdfe-2ef41696d1e8","system_id":"levelo_inurba_marseille","lat":43.23188,"lon":5.39994,"is_reserved":false,"is_disabled":false,"rental_uris":{"android":"levelo://app?vid=792577a6-685a-43bd-bdfe-2ef41696d1e8","ios":"levelo://app?vid=792577a6-685a-43bd-bdfe-2ef41696d1e8"},"vehicle_type_id":"4","last_reported":1728472094,"current_range_meters":32800,"station_id":"ce4bhn12rcd13ifvqgqg","pricing_plan_id":"cebpf4jnsgd1na2vs0mg"},{"bike_id":"4e6700a4-9eaa-4883-b595-cfa877cac3c2","system_id":"levelo_inurba_marseille","lat":43.22926,"lon":5.35376,"is_reserved":false,"is_disabled":false,"rental_uris":{"android":"levelo://app?vid=4e6700a4-9eaa-4883-b595-cfa877cac3c2","ios":"levelo://app?vid=4e6700a4-9eaa-4883-b595-cfa877cac3c2"},"vehicle_type_id":"4","last_reported":1728472094,"current_range_meters":16400,"station_id":"cpo3532slgdg3j2ikp40","pricing_plan_id":"cebpf4jnsgd1na2vs0mg"},{"bike_id":"15076557-340d-41fc-a13c-2001a5da6496","system_id":"levelo_inurba_marseille","lat":43.26209,"lon":5.37921,"is_reserved":false,"is_disabled":false,"rental_uris":{"android":"levelo://app?vid=15076557-340d-41fc-a13c-2001a5da6496","ios":"levelo://app?vid=15076557-340d-41fc-a13c-2001a5da6496"},"vehicle_type_id":"4","last_reported":1728472094,"current_range_meters":30000,"station_id":"ce4bhjp2rcd13ifvqg90","pricing_plan_id":"cebpf4jnsgd1na2vs0mg"},{"bike_id":"d0797665-6ef2-4471-9f17-aaa74175c83c","system_id":"levelo_inurba_marseille","lat":43.28421,"lon":5.34982,"is_reserved":false,"is_disabled":false,"rental_uris":{"android":"levelo://app?vid=d0797665-6ef2-4471-9f17-aaa74175c83c","ios":"levelo://app?vid=d0797665-6ef2-4471-9f17-aaa74175c83c"},"vehicle_type_id":"4","last_reported":1728472094,"current_range_meters":33200,"station_id":"ce4bhbh2rcd13ifvqepg","pricing_plan_id":"cebpf4jnsgd1na2vs0mg"},{"bike_id":"b54e9ef9-d972-4a51-94db-ff061a7b9a07","system_id":"levelo_inurba_marseille","lat":43.25105,"lon":5.40323,"is_reserved":false,"is_disabled":false,"rental_uris":{"android":"levelo://app?vid=b54e9ef9-d972-4a51-94db-ff061a7b9a07","ios":"levelo://app?vid=b54e9ef9-d972-4a51-94db-ff061a7b9a07"},"vehicle_type_id":"4","last_reported":1728472094,"current_range_meters":15200,"station_id":"ce4bhlh2rcd13ifvqgig","pricing_plan_id":"cebpf4jnsgd1na2vs0mg"},{"bike_id":"8bea543b-214d-40ec-9431-9caab1e0e5b3","system_id":"levelo_inurba_marseille","lat":43.23156,"lon":5.43713,"is_reserved":false,"is_disabled":false,"rental_uris":{"android":"levelo://app?vid=8bea543b-214d-40ec-9431-9caab1e0e5b3","ios":"levelo://app?vid=8bea543b-214d-40ec-9431-9caab1e0e5b3"},"vehicle_type_id":"4","last_reported":1728472094,"current_range_meters":14000,"station_id":"ce4bhmp2rcd13ifvqgog","pricing_plan_id":"cebpf4jnsgd1na2vs0mg"},{"bike_id":"4093053b-c626-4a09-b5e6-1e1f073c548e","system_id":"levelo_inurba_marseille","lat":43.3254,"lon":5.4144,"is_reserved":false,"is_disabled":false,"rental_uris":{"android":"levelo://app?vid=4093053b-c626-4a09-b5e6-1e1f073c548e","ios":"levelo://app?vid=4093053b-c626-4a09-b5e6-1e1f073c548e"},"vehicle_type_id":"4","last_reported":1728472094,"current_range_meters":2800,"station_id":"ce4bhq12rcd13ifvqhhg","pricing_plan_id":"cebpf4jnsgd1na2vs0mg"},{"bike_id":"c8b0f9ec-3371-4835-b214-a1b79f4757b6","system_id":"levelo_inurba_marseille","lat":43.3255,"lon":5.41444,"is_reserved":false,"is_disabled":false,"rental_uris":{"android":"levelo://app?vid=c8b0f9ec-3371-4835-b214-a1b79f4757b6","ios":"levelo://app?vid=c8b0f9ec-3371-4835-b214-a1b79f4757b6"},"vehicle_type_id":"4","last_reported":1728472094,"current_range_meters":22000,"station_id":"ce4bhq12rcd13ifvqhhg","pricing_plan_id":"cebpf4jnsgd1na2vs0mg"},{"bike_id":"ea5635e0-80cb-496e-adfa-0885ec66db1a","system_id":"levelo_inurba_marseille","lat":43.27059,"lon":5.40258,"is_reserved":false,"is_disabled":false,"rental_uris":{"android":"levelo://app?vid=ea5635e0-80cb-496e-adfa-0885ec66db1a","ios":"levelo://app?vid=ea5635e0-80cb-496e-adfa-0885ec66db1a"},"vehicle_type_id":"4","last_reported":1728472094,"current_range_meters":23200,"station_id":"ce4bhk92rcd13ifvqgc0","pricing_plan_id":"cebpf4jnsgd1na2vs0mg"},{"bike_id":"051133e1-617d-4246-9be9-4d946642f690","system_id":"levelo_inurba_marseille","lat":43.33604,"lon":5.4102,"is_reserved":false,"is_disabled":false,"rental_uris":{"android":"levelo://app?vid=051133e1-617d-4246-9be9-4d946642f690","ios":"levelo://app?vid=051133e1-617d-4246-9be9-4d946642f690"},"vehicle_type_id":"4","last_reported":1728472094,"current_range_meters":38800,"station_id":"ce4bhqh2rcd13ifvqhmg","pricing_plan_id":"cebpf4jnsgd1na2vs0mg"},{"bike_id":"5455d861-e530-460e-8031-bb07f9d2766e","system_id":"levelo_inurba_marseille","lat":43.29262,"lon":5.40903,"is_reserved":false,"is_disabled":false,"rental_uris":{"android":"levelo://app?vid=5455d861-e530-460e-8031-bb07f9d2766e","ios":"levelo://app?vid=5455d861-e530-460e-8031-bb07f9d2766e"},"vehicle_type_id":"4","last_reported":1728472094,"current_range_meters":27200,"station_id":"ce4bh192rcd13ifvqdc0","pricing_plan_id":"cebpf4jnsgd1na2vs0mg"},{"bike_id":"b7a137bd-734f-4958-a076-b35dada76552","system_id":"levelo_inurba_marseille","lat":43.31166,"lon":5.38721,"is_reserved":false,"is_disabled":false,"rental_uris":{"android":"levelo://app?vid=b7a137bd-734f-4958-a076-b35dada76552","ios":"levelo://app?vid=b7a137bd-734f-4958-a076-b35dada76552"},"vehicle_type_id":"4","last_reported":1728472094,"current_range_meters":28400,"station_id":"ce4bgv12rcd13ifvqcp0","pricing_plan_id":"cebpf4jnsgd1na2vs0mg"},{"bike_id":"842a3c2b-b187-480e-b38e-6cf8f2c4da54","system_id":"levelo_inurba_marseille","lat":43.298569,"lon":5.372862,"is_reserved":false,"is_disabled":false,"rental_uris":{"android":"levelo://app?vid=842a3c2b-b187-480e-b38e-6cf8f2c4da54","ios":"levelo://app?vid=842a3c2b-b187-480e-b38e-6cf8f2c4da54"},"vehicle_type_id":"4","last_reported":1728472094,"current_range_meters":8400,"station_id":"chh1huq6cuj3fo74tm60","pricing_plan_id":"cebpf4jnsgd1na2vs0mg"},{"bike_id":"ac45a0e0-9a70-4810-97dd-a872e45e1a81","system_id":"levelo_inurba_marseille","lat":43.2695,"lon":5.38697,"is_reserved":false,"is_disabled":false,"rental_uris":{"android":"levelo://app?vid=ac45a0e0-9a70-4810-97dd-a872e45e1a81","ios":"levelo://app?vid=ac45a0e0-9a70-4810-97dd-a872e45e1a81"},"vehicle_type_id":"4","last_reported":1728472094,"current_range_meters":17200,"station_id":"ce4bgj92rcd13ifvqbe0","pricing_plan_id":"cebpf4jnsgd1na2vs0mg"},{"bike_id":"67f5c9ce-d342-43bc-a463-b94ab74a1fe0","system_id":"levelo_inurba_marseille","lat":43.33029,"lon":5.39037,"is_reserved":false,"is_disabled":false,"rental_uris":{"android":"levelo://app?vid=67f5c9ce-d342-43bc-a463-b94ab74a1fe0","ios":"levelo://app?vid=67f5c9ce-d342-43bc-a463-b94ab74a1fe0"},"vehicle_type_id":"4","last_reported":1728472094,"current_range_meters":16800,"station_id":"ce4bhr92rcd13ifvqhrg","pricing_plan_id":"cebpf4jnsgd1na2vs0mg"},{"bike_id":"8513be67-a978-4cfc-9563-19285ed6fe5a","system_id":"levelo_inurba_marseille","lat":43.23196,"lon":5.35544,"is_reserved":false,"is_disabled":false,"rental_uris":{"android":"levelo://app?vid=8513be67-a978-4cfc-9563-19285ed6fe5a","ios":"levelo://app?vid=8513be67-a978-4cfc-9563-19285ed6fe5a"},"vehicle_type_id":"4","last_reported":1728472094,"current_range_meters":12400,"station_id":"ce4bhu92rcd13ifvqi70","pricing_plan_id":"cebpf4jnsgd1na2vs0mg"},{"bike_id":"dbe3fcb8-c425-4b3c-993e-4519e57abf04","system_id":"levelo_inurba_marseille","lat":43.25088,"lon":5.3952,"is_reserved":false,"is_disabled":false,"rental_uris":{"android":"levelo://app?vid=dbe3fcb8-c425-4b3c-993e-4519e57abf04","ios":"levelo://app?vid=dbe3fcb8-c425-4b3c-993e-4519e57abf04"},"vehicle_type_id":"4","last_reported":1728472094,"current_range_meters":24800,"station_id":"ce4bhm12rcd13ifvqgkg","pricing_plan_id":"cebpf4jnsgd1na2vs0mg"},{"bike_id":"922252e8-02c2-4987-8eed-1d6d69073568","system_id":"levelo_inurba_marseille","lat":43.26693,"lon":5.38271,"is_reserved":false,"is_disabled":false,"rental_uris":{"android":"levelo://app?vid=922252e8-02c2-4987-8eed-1d6d69073568","ios":"levelo://app?vid=922252e8-02c2-4987-8eed-1d6d69073568"},"vehicle_type_id":"4","last_reported":1728472094,"current_range_meters":32400,"station_id":"ce4bhg92rcd13ifvqf90","pricing_plan_id":"cebpf4jnsgd1na2vs0mg"},{"bike_id":"c283bee0-b392-40e1-b183-58fab03c3b3d","system_id":"levelo_inurba_marseille","lat":43.28425,"lon":5.34979,"is_reserved":false,"is_disabled":false,"rental_uris":{"android":"levelo://app?vid=c283bee0-b392-40e1-b183-58fab03c3b3d","ios":"levelo://app?vid=c283bee0-b392-40e1-b183-58fab03c3b3d"},"vehicle_type_id":"4","last_reported":1728472094,"current_range_meters":21600,"station_id":"ce4bhbh2rcd13ifvqepg","pricing_plan_id":"cebpf4jnsgd1na2vs0mg"},{"bike_id":"84215a7f-6c8c-475c-90b2-922895c61d8d","system_id":"levelo_inurba_marseille","lat":43.29788,"lon":5.37097,"is_reserved":false,"is_disabled":false,"rental_uris":{"android":"levelo://app?vid=84215a7f-6c8c-475c-90b2-922895c61d8d","ios":"levelo://app?vid=84215a7f-6c8c-475c-90b2-922895c61d8d"},"vehicle_type_id":"4","last_reported":1728472094,"current_range_meters":4800,"station_id":"ce4bgop2rcd13ifvqc1g","pricing_plan_id":"cebpf4jnsgd1na2vs0mg"},{"bike_id":"671cc9f6-8745-4066-90da-e8eb6074456c","system_id":"levelo_inurba_marseille","lat":43.30145,"lon":5.39847,"is_reserved":false,"is_disabled":false,"rental_uris":{"android":"levelo://app?vid=671cc9f6-8745-4066-90da-e8eb6074456c","ios":"levelo://app?vid=671cc9f6-8745-4066-90da-e8eb6074456c"},"vehicle_type_id":"4","last_reported":1728472094,"current_range_meters":20400,"station_id":"ce4bh0h2rcd13ifvqd40","pricing_plan_id":"cebpf4jnsgd1na2vs0mg"},{"bike_id":"a6b3d3c3-66cf-4ef9-93fa-38e21f9a6c77","system_id":"levelo_inurba_marseille","lat":43.26687,"lon":5.38261,"is_reserved":false,"is_disabled":false,"rental_uris":{"android":"levelo://app?vid=a6b3d3c3-66cf-4ef9-93fa-38e21f9a6c77","ios":"levelo://app?vid=a6b3d3c3-66cf-4ef9-93fa-38e21f9a6c77"},"vehicle_type_id":"4","last_reported":1728472094,"current_range_meters":38800,"station_id":"ce4bhg92rcd13ifvqf90","pricing_plan_id":"cebpf4jnsgd1na2vs0mg"},{"bike_id":"1b3df055-06b6-4141-b9e9-f3a77821f663","system_id":"levelo_inurba_marseille","lat":43.30604,"lon":5.37208,"is_reserved":false,"is_disabled":false,"rental_uris":{"android":"levelo://app?vid=1b3df055-06b6-4141-b9e9-f3a77821f663","ios":"levelo://app?vid=1b3df055-06b6-4141-b9e9-f3a77821f663"},"vehicle_type_id":"4","last_reported":1728472094,"current_range_meters":38400,"station_id":"ce4bgqh2rcd13ifvqc4g","pricing_plan_id":"cebpf4jnsgd1na2vs0mg"},{"bike_id":"0143b792-017e-404c-a69c-04c2fb0a118b","system_id":"levelo_inurba_marseille","lat":43.34147,"lon":5.40902,"is_reserved":false,"is_disabled":false,"rental_uris":{"android":"levelo://app?vid=0143b792-017e-404c-a69c-04c2fb0a118b","ios":"levelo://app?vid=0143b792-017e-404c-a69c-04c2fb0a118b"},"vehicle_type_id":"4","last_reported":1728472094,"current_range_meters":16400,"station_id":"ce4bhqh2rcd13ifvqhlg","pricing_plan_id":"cebpf4jnsgd1na2vs0mg"},{"bike_id":"abdeb7b7-9443-4a2e-90f2-c4f781442d2e","system_id":"levelo_inurba_marseille","lat":43.29905,"lon":5.43664,"is_reserved":false,"is_disabled":false,"rental_uris":{"android":"levelo://app?vid=abdeb7b7-9443-4a2e-90f2-c4f781442d2e","ios":"levelo://app?vid=abdeb7b7-9443-4a2e-90f2-c4f781442d2e"},"vehicle_type_id":"4","last_reported":1728472094,"current_range_meters":16400,"station_id":"ce4bhpp2rcd13ifvqhfg","pricing_plan_id":"cebpf4jnsgd1na2vs0mg"},{"bike_id":"4a0c4a80-24ca-4117-82f0-18bb156d4aec","system_id":"levelo_inurba_marseille","lat":43.3091,"lon":5.36839,"is_reserved":false,"is_disabled":false,"rental_uris":{"android":"levelo://app?vid=4a0c4a80-24ca-4117-82f0-18bb156d4aec","ios":"levelo://app?vid=4a0c4a80-24ca-4117-82f0-18bb156d4aec"},"vehicle_type_id":"4","last_reported":1728472094,"current_range_meters":4400,"station_id":"ce4bgn92rcd13ifvqbvg","pricing_plan_id":"cebpf4jnsgd1na2vs0mg"},{"bike_id":"527bdaef-80de-47b0-9b80-85874e027293","system_id":"levelo_inurba_marseille","lat":43.23964,"lon":5.36631,"is_reserved":false,"is_disabled":false,"rental_uris":{"android":"levelo://app?vid=527bdaef-80de-47b0-9b80-85874e027293","ios":"levelo://app?vid=527bdaef-80de-47b0-9b80-85874e027293"},"vehicle_type_id":"4","last_reported":1728472094,"current_range_meters":24000,"station_id":"ce4bhi12rcd13ifvqfp0","pricing_plan_id":"cebpf4jnsgd1na2vs0mg"},{"bike_id":"d1d729c1-7adb-492b-9c95-9015a1ed2807","system_id":"levelo_inurba_marseille","lat":43.23152,"lon":5.43716,"is_reserved":false,"is_disabled":false,"rental_uris":{"android":"levelo://app?vid=d1d729c1-7adb-492b-9c95-9015a1ed2807","ios":"levelo://app?vid=d1d729c1-7adb-492b-9c95-9015a1ed2807"},"vehicle_type_id":"4","last_reported":1728472094,"current_range_meters":12000,"station_id":"ce4bhmp2rcd13ifvqgog","pricing_plan_id":"cebpf4jnsgd1na2vs0mg"},{"bike_id":"ef18b2fe-6c65-47ee-9c16-9776d2274fcf","system_id":"levelo_inurba_marseille","lat":43.26555,"lon":5.37287,"is_reserved":false,"is_disabled":false,"rental_uris":{"android":"levelo://app?vid=ef18b2fe-6c65-47ee-9c16-9776d2274fcf","ios":"levelo://app?vid=ef18b2fe-6c65-47ee-9c16-9776d2274fcf"},"vehicle_type_id":"4","last_reported":1728472094,"current_range_meters":8800,"station_id":"ce4bhg12rcd13ifvqf70","pricing_plan_id":"cebpf4jnsgd1na2vs0mg"},{"bike_id":"d44528dc-e775-4311-a3bb-7cbc1070eeb0","system_id":"levelo_inurba_marseille","lat":43.27177,"lon":5.40996,"is_reserved":false,"is_disabled":false,"rental_uris":{"android":"levelo://app?vid=d44528dc-e775-4311-a3bb-7cbc1070eeb0","ios":"levelo://app?vid=d44528dc-e775-4311-a3bb-7cbc1070eeb0"},"vehicle_type_id":"4","last_reported":1728472094,"current_range_meters":38800,"station_id":"ce4bhl12rcd13ifvqgf0","pricing_plan_id":"cebpf4jnsgd1na2vs0mg"},{"bike_id":"96d80047-32d2-45f4-bd41-195cf5cb8e0c","system_id":"levelo_inurba_marseille","lat":43.23059,"lon":5.35484,"is_reserved":false,"is_disabled":false,"rental_uris":{"android":"levelo://app?vid=96d80047-32d2-45f4-bd41-195cf5cb8e0c","ios":"levelo://app?vid=96d80047-32d2-45f4-bd41-195cf5cb8e0c"},"vehicle_type_id":"4","last_reported":1728472094,"current_range_meters":37600,"station_id":"cpo3342slgdg3j2ifvpg","pricing_plan_id":"cebpf4jnsgd1na2vs0mg"},{"bike_id":"2e1572c2-5320-48c2-8085-93e0ecdaf72c","system_id":"levelo_inurba_marseille","lat":43.312103,"lon":5.368063,"is_reserved":false,"is_disabled":false,"rental_uris":{"android":"levelo://app?vid=2e1572c2-5320-48c2-8085-93e0ecdaf72c","ios":"levelo://app?vid=2e1572c2-5320-48c2-8085-93e0ecdaf72c"},"vehicle_type_id":"4","last_reported":1728472094,"current_range_meters":35600,"station_id":"ce4bhb12rcd13ifvqem0","pricing_plan_id":"cebpf4jnsgd1na2vs0mg"},{"bike_id":"19554691-3bcc-4b18-beab-fd495de29453","system_id":"levelo_inurba_marseille","lat":43.30913,"lon":5.36849,"is_reserved":false,"is_disabled":false,"rental_uris":{"android":"levelo://app?vid=19554691-3bcc-4b18-beab-fd495de29453","ios":"levelo://app?vid=19554691-3bcc-4b18-beab-fd495de29453"},"vehicle_type_id":"4","last_reported":1728472094,"current_range_meters":16400,"station_id":"ce4bgn92rcd13ifvqbvg","pricing_plan_id":"cebpf4jnsgd1na2vs0mg"},{"bike_id":"91d9e5db-f06d-4eb8-b721-128b36a8c2dc","system_id":"levelo_inurba_marseille","lat":43.28156,"lon":5.42646,"is_reserved":false,"is_disabled":false,"rental_uris":{"android":"levelo://app?vid=91d9e5db-f06d-4eb8-b721-128b36a8c2dc","ios":"levelo://app?vid=91d9e5db-f06d-4eb8-b721-128b36a8c2dc"},"vehicle_type_id":"4","last_reported":1728472094,"current_range_meters":10800,"station_id":"ce4bhnh2rcd13ifvqgug","pricing_plan_id":"cebpf4jnsgd1na2vs0mg"},{"bike_id":"0796fc03-cedd-4668-8767-ff9d83360f15","system_id":"levelo_inurba_marseille","lat":43.27618,"lon":5.36115,"is_reserved":false,"is_disabled":false,"rental_uris":{"android":"levelo://app?vid=0796fc03-cedd-4668-8767-ff9d83360f15","ios":"levelo://app?vid=0796fc03-cedd-4668-8767-ff9d83360f15"},"vehicle_type_id":"4","last_reported":1728472094,"current_range_meters":28400,"station_id":"ce4bgj92rcd13ifvqbe0","pricing_plan_id":"cebpf4jnsgd1na2vs0mg"},{"bike_id":"45051c07-a864-41b8-be9f-d6bc8c6d0047","system_id":"levelo_inurba_marseille","lat":43.23151,"lon":5.4372,"is_reserved":false,"is_disabled":false,"rental_uris":{"android":"levelo://app?vid=45051c07-a864-41b8-be9f-d6bc8c6d0047","ios":"levelo://app?vid=45051c07-a864-41b8-be9f-d6bc8c6d0047"},"vehicle_type_id":"4","last_reported":1728472094,"current_range_meters":30800,"station_id":"ce4bhmp2rcd13ifvqgog","pricing_plan_id":"cebpf4jnsgd1na2vs0mg"},{"bike_id":"2540b34d-8172-4ccc-9535-ea538cf31cdf","system_id":"levelo_inurba_marseille","lat":43.26557,"lon":5.37282,"is_reserved":false,"is_disabled":false,"rental_uris":{"android":"levelo://app?vid=2540b34d-8172-4ccc-9535-ea538cf31cdf","ios":"levelo://app?vid=2540b34d-8172-4ccc-9535-ea538cf31cdf"},"vehicle_type_id":"4","last_reported":1728472094,"current_range_meters":29600,"station_id":"ce4bhg12rcd13ifvqf70","pricing_plan_id":"cebpf4jnsgd1na2vs0mg"},{"bike_id":"ea9195a9-c9f1-4349-9121-6231f05d3714","system_id":"levelo_inurba_marseille","lat":43.261963,"lon":5.379377,"is_reserved":false,"is_disabled":false,"rental_uris":{"android":"levelo://app?vid=ea9195a9-c9f1-4349-9121-6231f05d3714","ios":"levelo://app?vid=ea9195a9-c9f1-4349-9121-6231f05d3714"},"vehicle_type_id":"4","last_reported":1728472094,"current_range_meters":8000,"station_id":"ce4bhjp2rcd13ifvqg90","pricing_plan_id":"cebpf4jnsgd1na2vs0mg"},{"bike_id":"9fe78430-11e7-47f8-baac-bd725566a90b","system_id":"levelo_inurba_marseille","lat":43.23195,"lon":5.35559,"is_reserved":false,"is_disabled":false,"rental_uris":{"android":"levelo://app?vid=9fe78430-11e7-47f8-baac-bd725566a90b","ios":"levelo://app?vid=9fe78430-11e7-47f8-baac-bd725566a90b"},"vehicle_type_id":"4","last_reported":1728472094,"current_range_meters":3200,"station_id":"ce4bhu92rcd13ifvqi70","pricing_plan_id":"cebpf4jnsgd1na2vs0mg"},{"bike_id":"a2669f3a-b54e-4fbb-9b92-5c5cfb930d28","system_id":"levelo_inurba_marseille","lat":43.25933,"lon":5.40913,"is_reserved":false,"is_disabled":false,"rental_uris":{"android":"levelo://app?vid=a2669f3a-b54e-4fbb-9b92-5c5cfb930d28","ios":"levelo://app?vid=a2669f3a-b54e-4fbb-9b92-5c5cfb930d28"},"vehicle_type_id":"4","last_reported":1728472094,"current_range_meters":23200,"station_id":"ce4bhm92rcd13ifvqglg","pricing_plan_id":"cebpf4jnsgd1na2vs0mg"},{"bike_id":"ac306548-b43c-4797-8258-6b92e99a3229","system_id":"levelo_inurba_marseille","lat":43.23969,"lon":5.36631,"is_reserved":false,"is_disabled":false,"rental_uris":{"android":"levelo://app?vid=ac306548-b43c-4797-8258-6b92e99a3229","ios":"levelo://app?vid=ac306548-b43c-4797-8258-6b92e99a3229"},"vehicle_type_id":"4","last_reported":1728472094,"current_range_meters":36400,"station_id":"ce4bhi12rcd13ifvqfp0","pricing_plan_id":"cebpf4jnsgd1na2vs0mg"},{"bike_id":"c8e9291d-35ee-475b-89da-29af01fa2abe","system_id":"levelo_inurba_marseille","lat":43.32364,"lon":5.38882,"is_reserved":false,"is_disabled":false,"rental_uris":{"android":"levelo://app?vid=c8e9291d-35ee-475b-89da-29af01fa2abe","ios":"levelo://app?vid=c8e9291d-35ee-475b-89da-29af01fa2abe"},"vehicle_type_id":"4","last_reported":1728472094,"current_range_meters":8400,"station_id":"ce4bhqp2rcd13ifvqhog","pricing_plan_id":"cebpf4jnsgd1na2vs0mg"},{"bike_id":"32a47555-5b90-4e71-acec-5d7469e9cc0c","system_id":"levelo_inurba_marseille","lat":43.32486,"lon":5.36571,"is_reserved":false,"is_disabled":false,"rental_uris":{"android":"levelo://app?vid=32a47555-5b90-4e71-acec-5d7469e9cc0c","ios":"levelo://app?vid=32a47555-5b90-4e71-acec-5d7469e9cc0c"},"vehicle_type_id":"4","last_reported":1728472094,"current_range_meters":38800,"station_id":"ce4bhs12rcd13ifvqhvg","pricing_plan_id":"cebpf4jnsgd1na2vs0mg"},{"bike_id":"d90712d7-c141-4692-95f9-dd71034a00eb","system_id":"levelo_inurba_marseille","lat":43.29851,"lon":5.36273,"is_reserved":false,"is_disabled":false,"rental_uris":{"android":"levelo://app?vid=d90712d7-c141-4692-95f9-dd71034a00eb","ios":"levelo://app?vid=d90712d7-c141-4692-95f9-dd71034a00eb"},"vehicle_type_id":"4","last_reported":1728472094,"current_range_meters":22400,"station_id":"ce4bgpp2rcd13ifvqc3g","pricing_plan_id":"cebpf4jnsgd1na2vs0mg"},{"bike_id":"da401a8f-9f6a-47b3-9494-8dec84eabc02","system_id":"levelo_inurba_marseille","lat":43.30437,"lon":5.38898,"is_reserved":false,"is_disabled":false,"rental_uris":{"android":"levelo://app?vid=da401a8f-9f6a-47b3-9494-8dec84eabc02","ios":"levelo://app?vid=da401a8f-9f6a-47b3-9494-8dec84eabc02"},"vehicle_type_id":"4","last_reported":1728472094,"current_range_meters":38800,"station_id":"ce4bgk12rcd13ifvqbi0","pricing_plan_id":"cebpf4jnsgd1na2vs0mg"},{"bike_id":"6052bbae-af22-42ff-8f6e-595e17cf0c42","system_id":"levelo_inurba_marseille","lat":43.34141,"lon":5.40903,"is_reserved":false,"is_disabled":false,"rental_uris":{"android":"levelo://app?vid=6052bbae-af22-42ff-8f6e-595e17cf0c42","ios":"levelo://app?vid=6052bbae-af22-42ff-8f6e-595e17cf0c42"},"vehicle_type_id":"4","last_reported":1728472094,"current_range_meters":23200,"station_id":"ce4bhqh2rcd13ifvqhlg","pricing_plan_id":"cebpf4jnsgd1na2vs0mg"},{"bike_id":"103c77ce-4dea-4195-aaf4-89892f71e01e","system_id":"levelo_inurba_marseille","lat":43.297084,"lon":5.376877,"is_reserved":false,"is_disabled":false,"rental_uris":{"android":"levelo://app?vid=103c77ce-4dea-4195-aaf4-89892f71e01e","ios":"levelo://app?vid=103c77ce-4dea-4195-aaf4-89892f71e01e"},"vehicle_type_id":"4","last_reported":1728472094,"current_range_meters":36400,"station_id":"ce4bgkh2rcd13ifvqbl0","pricing_plan_id":"cebpf4jnsgd1na2vs0mg"},{"bike_id":"e92e26c5-68aa-4d1e-a934-e4fb65cbde89","system_id":"levelo_inurba_marseille","lat":43.3361,"lon":5.41024,"is_reserved":false,"is_disabled":false,"rental_uris":{"android":"levelo://app?vid=e92e26c5-68aa-4d1e-a934-e4fb65cbde89","ios":"levelo://app?vid=e92e26c5-68aa-4d1e-a934-e4fb65cbde89"},"vehicle_type_id":"4","last_reported":1728472094,"current_range_meters":28800,"station_id":"ce4bhqh2rcd13ifvqhmg","pricing_plan_id":"cebpf4jnsgd1na2vs0mg"},{"bike_id":"2ca58a1d-f6a4-4865-aedf-49b26e627ac8","system_id":"levelo_inurba_marseille","lat":43.262054,"lon":5.374431,"is_reserved":false,"is_disabled":false,"rental_uris":{"android":"levelo://app?vid=2ca58a1d-f6a4-4865-aedf-49b26e627ac8","ios":"levelo://app?vid=2ca58a1d-f6a4-4865-aedf-49b26e627ac8"},"vehicle_type_id":"4","last_reported":1728472094,"current_range_meters":24400,"station_id":"ce4bhgp2rcd13ifvqfc0","pricing_plan_id":"cebpf4jnsgd1na2vs0mg"},{"bike_id":"70579604-fe31-4626-8ce5-732c300fd65a","system_id":"levelo_inurba_marseille","lat":43.29927,"lon":5.36543,"is_reserved":false,"is_disabled":false,"rental_uris":{"android":"levelo://app?vid=70579604-fe31-4626-8ce5-732c300fd65a","ios":"levelo://app?vid=70579604-fe31-4626-8ce5-732c300fd65a"},"vehicle_type_id":"4","last_reported":1728472094,"current_range_meters":8800,"station_id":"ce4bgm92rcd13ifvqbr0","pricing_plan_id":"cebpf4jnsgd1na2vs0mg"},{"bike_id":"dbc7ac39-d091-40f6-b363-24616b7a4d92","system_id":"levelo_inurba_marseille","lat":43.27059,"lon":5.4026,"is_reserved":false,"is_disabled":false,"rental_uris":{"android":"levelo://app?vid=dbc7ac39-d091-40f6-b363-24616b7a4d92","ios":"levelo://app?vid=dbc7ac39-d091-40f6-b363-24616b7a4d92"},"vehicle_type_id":"4","last_reported":1728472094,"current_range_meters":23200,"station_id":"ce4bhk92rcd13ifvqgc0","pricing_plan_id":"cebpf4jnsgd1na2vs0mg"},{"bike_id":"baba3ddf-e747-4095-9a9c-078163c7026f","system_id":"levelo_inurba_marseille","lat":43.25936,"lon":5.40915,"is_reserved":false,"is_disabled":false,"rental_uris":{"android":"levelo://app?vid=baba3ddf-e747-4095-9a9c-078163c7026f","ios":"levelo://app?vid=baba3ddf-e747-4095-9a9c-078163c7026f"},"vehicle_type_id":"4","last_reported":1728472094,"current_range_meters":6800,"station_id":"ce4bhm92rcd13ifvqglg","pricing_plan_id":"cebpf4jnsgd1na2vs0mg"},{"bike_id":"b96de683-5115-4680-b00b-b6f8cd9661a2","system_id":"levelo_inurba_marseille","lat":43.29028,"lon":5.38641,"is_reserved":false,"is_disabled":false,"rental_uris":{"android":"levelo://app?vid=b96de683-5115-4680-b00b-b6f8cd9661a2","ios":"levelo://app?vid=b96de683-5115-4680-b00b-b6f8cd9661a2"},"vehicle_type_id":"4","last_reported":1728472094,"current_range_meters":36800,"station_id":"ce4bh4p2rcd13ifvqe0g","pricing_plan_id":"cebpf4jnsgd1na2vs0mg"},{"bike_id":"c8e9a463-c93c-44a0-a9e2-433cb856e0d3","system_id":"levelo_inurba_marseille","lat":43.28157,"lon":5.42642,"is_reserved":false,"is_disabled":false,"rental_uris":{"android":"levelo://app?vid=c8e9a463-c93c-44a0-a9e2-433cb856e0d3","ios":"levelo://app?vid=c8e9a463-c93c-44a0-a9e2-433cb856e0d3"},"vehicle_type_id":"4","last_reported":1728472094,"current_range_meters":4000,"station_id":"ce4bhnh2rcd13ifvqgug","pricing_plan_id":"cebpf4jnsgd1na2vs0mg"},{"bike_id":"6217f0d4-29aa-4911-a3f9-c02e45328700","system_id":"levelo_inurba_marseille","lat":43.23194,"lon":5.35542,"is_reserved":false,"is_disabled":false,"rental_uris":{"android":"levelo://app?vid=6217f0d4-29aa-4911-a3f9-c02e45328700","ios":"levelo://app?vid=6217f0d4-29aa-4911-a3f9-c02e45328700"},"vehicle_type_id":"4","last_reported":1728472094,"current_range_meters":33200,"station_id":"ce4bhu92rcd13ifvqi70","pricing_plan_id":"cebpf4jnsgd1na2vs0mg"},{"bike_id":"8189b5cc-54d7-42d4-beb1-ee659f30d19d","system_id":"levelo_inurba_marseille","lat":43.2827,"lon":5.3506,"is_reserved":false,"is_disabled":false,"rental_uris":{"android":"levelo://app?vid=8189b5cc-54d7-42d4-beb1-ee659f30d19d","ios":"levelo://app?vid=8189b5cc-54d7-42d4-beb1-ee659f30d19d"},"vehicle_type_id":"4","last_reported":1728472094,"current_range_meters":12000,"station_id":"ce4bhbp2rcd13ifvqerg","pricing_plan_id":"cebpf4jnsgd1na2vs0mg"},{"bike_id":"141df06e-113e-44c6-8129-a25fe376a60a","system_id":"levelo_inurba_marseille","lat":43.29551,"lon":5.42285,"is_reserved":false,"is_disabled":false,"rental_uris":{"android":"levelo://app?vid=141df06e-113e-44c6-8129-a25fe376a60a","ios":"levelo://app?vid=141df06e-113e-44c6-8129-a25fe376a60a"},"vehicle_type_id":"4","last_reported":1728472094,"current_range_meters":38000,"station_id":"ce4bhph2rcd13ifvqhdg","pricing_plan_id":"cebpf4jnsgd1na2vs0mg"},{"bike_id":"c8ebc7d1-6943-4044-ad6c-3252fb6dd74b","system_id":"levelo_inurba_marseille","lat":43.26209,"lon":5.37446,"is_reserved":false,"is_disabled":false,"rental_uris":{"android":"levelo://app?vid=c8ebc7d1-6943-4044-ad6c-3252fb6dd74b","ios":"levelo://app?vid=c8ebc7d1-6943-4044-ad6c-3252fb6dd74b"},"vehicle_type_id":"4","last_reported":1728472094,"current_range_meters":28000,"station_id":"ce4bhgp2rcd13ifvqfc0","pricing_plan_id":"cebpf4jnsgd1na2vs0mg"},{"bike_id":"9d3935c4-e49c-4d7a-9332-1bd57798c7ac","system_id":"levelo_inurba_marseille","lat":43.26944,"lon":5.40254,"is_reserved":false,"is_disabled":false,"rental_uris":{"android":"levelo://app?vid=9d3935c4-e49c-4d7a-9332-1bd57798c7ac","ios":"levelo://app?vid=9d3935c4-e49c-4d7a-9332-1bd57798c7ac"},"vehicle_type_id":"4","last_reported":1728472094,"current_range_meters":38800,"station_id":"cjm6bp8fraef2m0cb0m0","pricing_plan_id":"cebpf4jnsgd1na2vs0mg"},{"bike_id":"fde7cf76-2bbb-462c-878e-7256af82b32b","system_id":"levelo_inurba_marseille","lat":43.23206,"lon":5.35544,"is_reserved":false,"is_disabled":false,"rental_uris":{"android":"levelo://app?vid=fde7cf76-2bbb-462c-878e-7256af82b32b","ios":"levelo://app?vid=fde7cf76-2bbb-462c-878e-7256af82b32b"},"vehicle_type_id":"4","last_reported":1728472094,"current_range_meters":38800,"station_id":"ce4bhu92rcd13ifvqi70","pricing_plan_id":"cebpf4jnsgd1na2vs0mg"},{"bike_id":"fd4dd0b0-9f29-4283-b0a3-caf50dd2be11","system_id":"levelo_inurba_marseille","lat":43.33027,"lon":5.39026,"is_reserved":false,"is_disabled":false,"rental_uris":{"android":"levelo://app?vid=fd4dd0b0-9f29-4283-b0a3-caf50dd2be11","ios":"levelo://app?vid=fd4dd0b0-9f29-4283-b0a3-caf50dd2be11"},"vehicle_type_id":"4","last_reported":1728472094,"current_range_meters":39200,"station_id":"ce4bhr92rcd13ifvqhrg","pricing_plan_id":"cebpf4jnsgd1na2vs0mg"},{"bike_id":"b09aadd8-c998-4fad-9eb8-b8955e102824","system_id":"levelo_inurba_marseille","lat":43.27498,"lon":5.42449,"is_reserved":false,"is_disabled":false,"rental_uris":{"android":"levelo://app?vid=b09aadd8-c998-4fad-9eb8-b8955e102824","ios":"levelo://app?vid=b09aadd8-c998-4fad-9eb8-b8955e102824"},"vehicle_type_id":"4","last_reported":1728472094,"current_range_meters":9200,"station_id":"ce4bhn92rcd13ifvqgrg","pricing_plan_id":"cebpf4jnsgd1na2vs0mg"},{"bike_id":"2b6677d5-7b62-4a07-b6c3-7bf77f5bcd5c","system_id":"levelo_inurba_marseille","lat":43.28446,"lon":5.39185,"is_reserved":false,"is_disabled":false,"rental_uris":{"android":"levelo://app?vid=2b6677d5-7b62-4a07-b6c3-7bf77f5bcd5c","ios":"levelo://app?vid=2b6677d5-7b62-4a07-b6c3-7bf77f5bcd5c"},"vehicle_type_id":"4","last_reported":1728472094,"current_range_meters":38000,"station_id":"ce4bhoh2rcd13ifvqh5g","pricing_plan_id":"cebpf4jnsgd1na2vs0mg"},{"bike_id":"e0c9bed0-dc03-44fc-ae70-9188b4649c31","system_id":"levelo_inurba_marseille","lat":43.2989,"lon":5.38892,"is_reserved":false,"is_disabled":false,"rental_uris":{"android":"levelo://app?vid=e0c9bed0-dc03-44fc-ae70-9188b4649c31","ios":"levelo://app?vid=e0c9bed0-dc03-44fc-ae70-9188b4649c31"},"vehicle_type_id":"4","last_reported":1728472094,"current_range_meters":12800,"station_id":"ce4bh392rcd13ifvqdl0","pricing_plan_id":"cebpf4jnsgd1na2vs0mg"},{"bike_id":"d80bfdf3-f9a5-4093-8b7b-d5ae47861bec","system_id":"levelo_inurba_marseille","lat":43.308017,"lon":5.435191,"is_reserved":false,"is_disabled":false,"rental_uris":{"android":"levelo://app?vid=d80bfdf3-f9a5-4093-8b7b-d5ae47861bec","ios":"levelo://app?vid=d80bfdf3-f9a5-4093-8b7b-d5ae47861bec"},"vehicle_type_id":"4","last_reported":1728472094,"current_range_meters":17600,"station_id":"ce4bhph2rcd13ifvqheg","pricing_plan_id":"cebpf4jnsgd1na2vs0mg"},{"bike_id":"0639ec70-43dc-420c-a1af-257ee376cffc","system_id":"levelo_inurba_marseille","lat":43.29554,"lon":5.4229,"is_reserved":false,"is_disabled":false,"rental_uris":{"android":"levelo://app?vid=0639ec70-43dc-420c-a1af-257ee376cffc","ios":"levelo://app?vid=0639ec70-43dc-420c-a1af-257ee376cffc"},"vehicle_type_id":"4","last_reported":1728472094,"current_range_meters":30400,"station_id":"ce4bhph2rcd13ifvqhdg","pricing_plan_id":"cebpf4jnsgd1na2vs0mg"},{"bike_id":"2250666e-2423-4ec9-a242-d1f6b184ebc2","system_id":"levelo_inurba_marseille","lat":43.30142,"lon":5.37412,"is_reserved":false,"is_disabled":false,"rental_uris":{"android":"levelo://app?vid=2250666e-2423-4ec9-a242-d1f6b184ebc2","ios":"levelo://app?vid=2250666e-2423-4ec9-a242-d1f6b184ebc2"},"vehicle_type_id":"4","last_reported":1728472094,"current_range_meters":27600,"station_id":"ce4bgs92rcd13ifvqcc0","pricing_plan_id":"cebpf4jnsgd1na2vs0mg"},{"bike_id":"22d650dc-a27f-4ed2-8de1-6b863e472295","system_id":"levelo_inurba_marseille","lat":43.32489,"lon":5.36563,"is_reserved":false,"is_disabled":false,"rental_uris":{"android":"levelo://app?vid=22d650dc-a27f-4ed2-8de1-6b863e472295","ios":"levelo://app?vid=22d650dc-a27f-4ed2-8de1-6b863e472295"},"vehicle_type_id":"4","last_reported":1728472094,"current_range_meters":20400,"station_id":"ce4bhs12rcd13ifvqhvg","pricing_plan_id":"cebpf4jnsgd1na2vs0mg"},{"bike_id":"ea48a221-362d-4042-83c7-87424df8e9bd","system_id":"levelo_inurba_marseille","lat":43.30557,"lon":5.36554,"is_reserved":false,"is_disabled":false,"rental_uris":{"android":"levelo://app?vid=ea48a221-362d-4042-83c7-87424df8e9bd","ios":"levelo://app?vid=ea48a221-362d-4042-83c7-87424df8e9bd"},"vehicle_type_id":"4","last_reported":1728472094,"current_range_meters":28800,"station_id":"ce4bgs12rcd13ifvqcag","pricing_plan_id":"cebpf4jnsgd1na2vs0mg"},{"bike_id":"87829896-1494-4933-8bd6-c2df639bfd27","system_id":"levelo_inurba_marseille","lat":43.28274,"lon":5.3506,"is_reserved":false,"is_disabled":false,"rental_uris":{"android":"levelo://app?vid=87829896-1494-4933-8bd6-c2df639bfd27","ios":"levelo://app?vid=87829896-1494-4933-8bd6-c2df639bfd27"},"vehicle_type_id":"4","last_reported":1728472094,"current_range_meters":8400,"station_id":"ce4bhbp2rcd13ifvqerg","pricing_plan_id":"cebpf4jnsgd1na2vs0mg"},{"bike_id":"354f7f1f-c6e5-484a-bbe7-7242cfb1c085","system_id":"levelo_inurba_marseille","lat":43.31539,"lon":5.38032,"is_reserved":false,"is_disabled":false,"rental_uris":{"android":"levelo://app?vid=354f7f1f-c6e5-484a-bbe7-7242cfb1c085","ios":"levelo://app?vid=354f7f1f-c6e5-484a-bbe7-7242cfb1c085"},"vehicle_type_id":"4","last_reported":1728472094,"current_range_meters":24800,"station_id":"ce4bhsp2rcd13ifvqi50","pricing_plan_id":"cebpf4jnsgd1na2vs0mg"},{"bike_id":"8a67907a-4e1b-4251-b4a4-c980df6fc77b","system_id":"levelo_inurba_marseille","lat":43.30282,"lon":5.37701,"is_reserved":false,"is_disabled":false,"rental_uris":{"android":"levelo://app?vid=8a67907a-4e1b-4251-b4a4-c980df6fc77b","ios":"levelo://app?vid=8a67907a-4e1b-4251-b4a4-c980df6fc77b"},"vehicle_type_id":"4","last_reported":1728472094,"current_range_meters":36000,"station_id":"ce4bguh2rcd13ifvqcj0","pricing_plan_id":"cebpf4jnsgd1na2vs0mg"},{"bike_id":"8f195e73-56cf-4dbf-97df-c620bbc300b1","system_id":"levelo_inurba_marseille","lat":43.23157,"lon":5.43703,"is_reserved":false,"is_disabled":false,"rental_uris":{"android":"levelo://app?vid=8f195e73-56cf-4dbf-97df-c620bbc300b1","ios":"levelo://app?vid=8f195e73-56cf-4dbf-97df-c620bbc300b1"},"vehicle_type_id":"4","last_reported":1728472094,"current_range_meters":16800,"station_id":"ce4bhmp2rcd13ifvqgog","pricing_plan_id":"cebpf4jnsgd1na2vs0mg"},{"bike_id":"25afecff-8faf-4ca5-beb4-ce74280dcb13","system_id":"levelo_inurba_marseille","lat":43.231943,"lon":5.355463,"is_reserved":false,"is_disabled":false,"rental_uris":{"android":"levelo://app?vid=25afecff-8faf-4ca5-beb4-ce74280dcb13","ios":"levelo://app?vid=25afecff-8faf-4ca5-beb4-ce74280dcb13"},"vehicle_type_id":"4","last_reported":1728472094,"current_range_meters":3600,"station_id":"ce4bhu92rcd13ifvqi70","pricing_plan_id":"cebpf4jnsgd1na2vs0mg"},{"bike_id":"cdbd59de-9880-4c67-a07e-bb376a44fc03","system_id":"levelo_inurba_marseille","lat":43.30437,"lon":5.38892,"is_reserved":false,"is_disabled":false,"rental_uris":{"android":"levelo://app?vid=cdbd59de-9880-4c67-a07e-bb376a44fc03","ios":"levelo://app?vid=cdbd59de-9880-4c67-a07e-bb376a44fc03"},"vehicle_type_id":"4","last_reported":1728472094,"current_range_meters":33600,"station_id":"ce4bgk12rcd13ifvqbi0","pricing_plan_id":"cebpf4jnsgd1na2vs0mg"},{"bike_id":"7219fee0-219f-4cfa-8633-b620db7597ae","system_id":"levelo_inurba_marseille","lat":43.29832,"lon":5.37104,"is_reserved":false,"is_disabled":false,"rental_uris":{"android":"levelo://app?vid=7219fee0-219f-4cfa-8633-b620db7597ae","ios":"levelo://app?vid=7219fee0-219f-4cfa-8633-b620db7597ae"},"vehicle_type_id":"4","last_reported":1728472094,"current_range_meters":12800,"station_id":"","pricing_plan_id":"cebpf4jnsgd1na2vs0mg"},{"bike_id":"93258689-2bce-40db-906d-e71e9f13e67d","system_id":"levelo_inurba_marseille","lat":43.24655,"lon":5.38899,"is_reserved":false,"is_disabled":false,"rental_uris":{"android":"levelo://app?vid=93258689-2bce-40db-906d-e71e9f13e67d","ios":"levelo://app?vid=93258689-2bce-40db-906d-e71e9f13e67d"},"vehicle_type_id":"4","last_reported":1728472094,"current_range_meters":32800,"station_id":"ce4bhg12rcd13ifvqf60","pricing_plan_id":"cebpf4jnsgd1na2vs0mg"},{"bike_id":"afbd4872-3114-4610-8b22-c3e231093fdb","system_id":"levelo_inurba_marseille","lat":43.29796,"lon":5.38101,"is_reserved":false,"is_disabled":false,"rental_uris":{"android":"levelo://app?vid=afbd4872-3114-4610-8b22-c3e231093fdb","ios":"levelo://app?vid=afbd4872-3114-4610-8b22-c3e231093fdb"},"vehicle_type_id":"4","last_reported":1728472094,"current_range_meters":38800,"station_id":"ce4bhbp2rcd13ifvqerg","pricing_plan_id":"cebpf4jnsgd1na2vs0mg"},{"bike_id":"2ba3a48c-ba60-4fb1-88bf-f00ab8246b1a","system_id":"levelo_inurba_marseille","lat":43.28674,"lon":5.38649,"is_reserved":false,"is_disabled":false,"rental_uris":{"android":"levelo://app?vid=2ba3a48c-ba60-4fb1-88bf-f00ab8246b1a","ios":"levelo://app?vid=2ba3a48c-ba60-4fb1-88bf-f00ab8246b1a"},"vehicle_type_id":"4","last_reported":1728472094,"current_range_meters":34000,"station_id":"ce4bh492rcd13ifvqdug","pricing_plan_id":"cebpf4jnsgd1na2vs0mg"},{"bike_id":"d819c6e6-0d15-4623-ab7d-7d4be1f5b1aa","system_id":"levelo_inurba_marseille","lat":43.30545,"lon":5.36537,"is_reserved":false,"is_disabled":false,"rental_uris":{"android":"levelo://app?vid=d819c6e6-0d15-4623-ab7d-7d4be1f5b1aa","ios":"levelo://app?vid=d819c6e6-0d15-4623-ab7d-7d4be1f5b1aa"},"vehicle_type_id":"4","last_reported":1728472094,"current_range_meters":16000,"station_id":"ce4bgs12rcd13ifvqcag","pricing_plan_id":"cebpf4jnsgd1na2vs0mg"},{"bike_id":"bf8bc583-947b-4675-b8f5-4e93f82366ad","system_id":"levelo_inurba_marseille","lat":43.25938,"lon":5.40907,"is_reserved":false,"is_disabled":false,"rental_uris":{"android":"levelo://app?vid=bf8bc583-947b-4675-b8f5-4e93f82366ad","ios":"levelo://app?vid=bf8bc583-947b-4675-b8f5-4e93f82366ad"},"vehicle_type_id":"4","last_reported":1728472094,"current_range_meters":20400,"station_id":"ce4bhm92rcd13ifvqglg","pricing_plan_id":"cebpf4jnsgd1na2vs0mg"},{"bike_id":"3cc37643-d382-4c42-b0a7-a93de2a04b32","system_id":"levelo_inurba_marseille","lat":43.31487,"lon":5.37307,"is_reserved":false,"is_disabled":false,"rental_uris":{"android":"levelo://app?vid=3cc37643-d382-4c42-b0a7-a93de2a04b32","ios":"levelo://app?vid=3cc37643-d382-4c42-b0a7-a93de2a04b32"},"vehicle_type_id":"4","last_reported":1728472094,"current_range_meters":11200,"station_id":"ce4bgt12rcd13ifvqcd0","pricing_plan_id":"cebpf4jnsgd1na2vs0mg"},{"bike_id":"a86e7ac7-5b2e-4374-aa62-0e4791596c98","system_id":"levelo_inurba_marseille","lat":43.27706,"lon":5.38363,"is_reserved":false,"is_disabled":false,"rental_uris":{"android":"levelo://app?vid=a86e7ac7-5b2e-4374-aa62-0e4791596c98","ios":"levelo://app?vid=a86e7ac7-5b2e-4374-aa62-0e4791596c98"},"vehicle_type_id":"4","last_reported":1728472094,"current_range_meters":8800,"station_id":"ce4bhh92rcd13ifvqfh0","pricing_plan_id":"cebpf4jnsgd1na2vs0mg"},{"bike_id":"b46796af-8b2c-4470-a66e-03bec174b80a","system_id":"levelo_inurba_marseille","lat":43.29558,"lon":5.42289,"is_reserved":false,"is_disabled":false,"rental_uris":{"android":"levelo://app?vid=b46796af-8b2c-4470-a66e-03bec174b80a","ios":"levelo://app?vid=b46796af-8b2c-4470-a66e-03bec174b80a"},"vehicle_type_id":"4","last_reported":1728472094,"current_range_meters":32800,"station_id":"ce4bhph2rcd13ifvqhdg","pricing_plan_id":"cebpf4jnsgd1na2vs0mg"},{"bike_id":"3732d06a-ec1c-4a8c-9a03-2b481dd2191f","system_id":"levelo_inurba_marseille","lat":43.33753,"lon":5.37454,"is_reserved":false,"is_disabled":false,"rental_uris":{"android":"levelo://app?vid=3732d06a-ec1c-4a8c-9a03-2b481dd2191f","ios":"levelo://app?vid=3732d06a-ec1c-4a8c-9a03-2b481dd2191f"},"vehicle_type_id":"4","last_reported":1728472094,"current_range_meters":37600,"station_id":"","pricing_plan_id":"cebpf4jnsgd1na2vs0mg"},{"bike_id":"732d19be-8b53-4050-aa65-9f53c2511677","system_id":"levelo_inurba_marseille","lat":43.29728,"lon":5.37685,"is_reserved":false,"is_disabled":false,"rental_uris":{"android":"levelo://app?vid=732d19be-8b53-4050-aa65-9f53c2511677","ios":"levelo://app?vid=732d19be-8b53-4050-aa65-9f53c2511677"},"vehicle_type_id":"4","last_reported":1728472094,"current_range_meters":24800,"station_id":"ce4bgkh2rcd13ifvqbl0","pricing_plan_id":"cebpf4jnsgd1na2vs0mg"},{"bike_id":"2da6e46e-c4a1-45ae-a363-4743b2ed352c","system_id":"levelo_inurba_marseille","lat":43.23197,"lon":5.3555,"is_reserved":false,"is_disabled":false,"rental_uris":{"android":"levelo://app?vid=2da6e46e-c4a1-45ae-a363-4743b2ed352c","ios":"levelo://app?vid=2da6e46e-c4a1-45ae-a363-4743b2ed352c"},"vehicle_type_id":"4","last_reported":1728472094,"current_range_meters":8000,"station_id":"ce4bhu92rcd13ifvqi70","pricing_plan_id":"cebpf4jnsgd1na2vs0mg"},{"bike_id":"8294e8f5-117e-4e3e-8834-b93c0e247682","system_id":"levelo_inurba_marseille","lat":43.28274,"lon":5.35059,"is_reserved":false,"is_disabled":false,"rental_uris":{"android":"levelo://app?vid=8294e8f5-117e-4e3e-8834-b93c0e247682","ios":"levelo://app?vid=8294e8f5-117e-4e3e-8834-b93c0e247682"},"vehicle_type_id":"4","last_reported":1728472094,"current_range_meters":24800,"station_id":"ce4bhbp2rcd13ifvqerg","pricing_plan_id":"cebpf4jnsgd1na2vs0mg"},{"bike_id":"4fec72a7-59ba-4f0f-a548-f3636d67302b","system_id":"levelo_inurba_marseille","lat":43.30887,"lon":5.37193,"is_reserved":false,"is_disabled":false,"rental_uris":{"android":"levelo://app?vid=4fec72a7-59ba-4f0f-a548-f3636d67302b","ios":"levelo://app?vid=4fec72a7-59ba-4f0f-a548-f3636d67302b"},"vehicle_type_id":"4","last_reported":1728472094,"current_range_meters":24000,"station_id":"ce4bguh2rcd13ifvqckg","pricing_plan_id":"cebpf4jnsgd1na2vs0mg"},{"bike_id":"b9a4d42f-555a-4f49-88bf-3fa3ead13517","system_id":"levelo_inurba_marseille","lat":43.29791,"lon":5.37087,"is_reserved":false,"is_disabled":false,"rental_uris":{"android":"levelo://app?vid=b9a4d42f-555a-4f49-88bf-3fa3ead13517","ios":"levelo://app?vid=b9a4d42f-555a-4f49-88bf-3fa3ead13517"},"vehicle_type_id":"4","last_reported":1728472094,"current_range_meters":29600,"station_id":"ce4bgop2rcd13ifvqc1g","pricing_plan_id":"cebpf4jnsgd1na2vs0mg"},{"bike_id":"166a39f5-db64-4701-9c1e-3e028fdca3cf","system_id":"levelo_inurba_marseille","lat":43.28615,"lon":5.35104,"is_reserved":false,"is_disabled":false,"rental_uris":{"android":"levelo://app?vid=166a39f5-db64-4701-9c1e-3e028fdca3cf","ios":"levelo://app?vid=166a39f5-db64-4701-9c1e-3e028fdca3cf"},"vehicle_type_id":"4","last_reported":1728472094,"current_range_meters":16000,"station_id":"ce4bhch2rcd13ifvqeug","pricing_plan_id":"cebpf4jnsgd1na2vs0mg"},{"bike_id":"cd5db413-cd84-47e8-8776-565b7138cca3","system_id":"levelo_inurba_marseille","lat":43.32456,"lon":5.36577,"is_reserved":false,"is_disabled":false,"rental_uris":{"android":"levelo://app?vid=cd5db413-cd84-47e8-8776-565b7138cca3","ios":"levelo://app?vid=cd5db413-cd84-47e8-8776-565b7138cca3"},"vehicle_type_id":"4","last_reported":1728472094,"current_range_meters":30400,"station_id":"ce4bhs12rcd13ifvqhvg","pricing_plan_id":"cebpf4jnsgd1na2vs0mg"},{"bike_id":"a6e9f20e-28bd-4bd3-8142-23cd653e00be","system_id":"levelo_inurba_marseille","lat":43.28853,"lon":5.39303,"is_reserved":false,"is_disabled":false,"rental_uris":{"android":"levelo://app?vid=a6e9f20e-28bd-4bd3-8142-23cd653e00be","ios":"levelo://app?vid=a6e9f20e-28bd-4bd3-8142-23cd653e00be"},"vehicle_type_id":"4","last_reported":1728472094,"current_range_meters":25600,"station_id":"ce4bh2p2rcd13ifvqdi0","pricing_plan_id":"cebpf4jnsgd1na2vs0mg"},{"bike_id":"c8e62e83-fd2e-4961-96aa-48ff55e57972","system_id":"levelo_inurba_marseille","lat":43.30598,"lon":5.37214,"is_reserved":false,"is_disabled":false,"rental_uris":{"android":"levelo://app?vid=c8e62e83-fd2e-4961-96aa-48ff55e57972","ios":"levelo://app?vid=c8e62e83-fd2e-4961-96aa-48ff55e57972"},"vehicle_type_id":"4","last_reported":1728472094,"current_range_meters":20000,"station_id":"ce4bgqh2rcd13ifvqc4g","pricing_plan_id":"cebpf4jnsgd1na2vs0mg"},{"bike_id":"d637a702-dbdd-4f5f-a98c-3814ecd02bd8","system_id":"levelo_inurba_marseille","lat":43.225,"lon":5.44591,"is_reserved":false,"is_disabled":false,"rental_uris":{"android":"levelo://app?vid=d637a702-dbdd-4f5f-a98c-3814ecd02bd8","ios":"levelo://app?vid=d637a702-dbdd-4f5f-a98c-3814ecd02bd8"},"vehicle_type_id":"4","last_reported":1728472094,"current_range_meters":38000,"station_id":"ce4bhmp2rcd13ifvqgog","pricing_plan_id":"cebpf4jnsgd1na2vs0mg"},{"bike_id":"b5091056-768b-4f29-bd24-518a83978216","system_id":"levelo_inurba_marseille","lat":43.28262,"lon":5.35065,"is_reserved":false,"is_disabled":false,"rental_uris":{"android":"levelo://app?vid=b5091056-768b-4f29-bd24-518a83978216","ios":"levelo://app?vid=b5091056-768b-4f29-bd24-518a83978216"},"vehicle_type_id":"4","last_reported":1728472094,"current_range_meters":24800,"station_id":"ce4bhbp2rcd13ifvqerg","pricing_plan_id":"cebpf4jnsgd1na2vs0mg"},{"bike_id":"1fd41ce8-ec61-444a-9cf9-9ba9d679d4d2","system_id":"levelo_inurba_marseille","lat":43.24691,"lon":5.38154,"is_reserved":false,"is_disabled":false,"rental_uris":{"android":"levelo://app?vid=1fd41ce8-ec61-444a-9cf9-9ba9d679d4d2","ios":"levelo://app?vid=1fd41ce8-ec61-444a-9cf9-9ba9d679d4d2"},"vehicle_type_id":"4","last_reported":1728472094,"current_range_meters":35200,"station_id":"ce4bhih2rcd13ifvqfr0","pricing_plan_id":"cebpf4jnsgd1na2vs0mg"},{"bike_id":"8d06181a-6075-4139-9696-5ca6c1154ac9","system_id":"levelo_inurba_marseille","lat":43.25827,"lon":5.39431,"is_reserved":false,"is_disabled":false,"rental_uris":{"android":"levelo://app?vid=8d06181a-6075-4139-9696-5ca6c1154ac9","ios":"levelo://app?vid=8d06181a-6075-4139-9696-5ca6c1154ac9"},"vehicle_type_id":"4","last_reported":1728472094,"current_range_meters":20800,"station_id":"ce4bhip2rcd13ifvqft0","pricing_plan_id":"cebpf4jnsgd1na2vs0mg"},{"bike_id":"380bd33f-8dc7-45ca-b56d-ccd9331981cb","system_id":"levelo_inurba_marseille","lat":43.31361,"lon":5.38497,"is_reserved":false,"is_disabled":false,"rental_uris":{"android":"levelo://app?vid=380bd33f-8dc7-45ca-b56d-ccd9331981cb","ios":"levelo://app?vid=380bd33f-8dc7-45ca-b56d-ccd9331981cb"},"vehicle_type_id":"4","last_reported":1728472094,"current_range_meters":24000,"station_id":"ce4bgt92rcd13ifvqcf0","pricing_plan_id":"cebpf4jnsgd1na2vs0mg"},{"bike_id":"e10db1cd-5b85-4aec-a6bc-4abff42e1dd6","system_id":"levelo_inurba_marseille","lat":43.29024,"lon":5.38134,"is_reserved":false,"is_disabled":false,"rental_uris":{"android":"levelo://app?vid=e10db1cd-5b85-4aec-a6bc-4abff42e1dd6","ios":"levelo://app?vid=e10db1cd-5b85-4aec-a6bc-4abff42e1dd6"},"vehicle_type_id":"4","last_reported":1728472094,"current_range_meters":22800,"station_id":"ce4bh4p2rcd13ifvqe1g","pricing_plan_id":"cebpf4jnsgd1na2vs0mg"},{"bike_id":"216c5cc8-c089-4ed5-aad7-859a8e9374c0","system_id":"levelo_inurba_marseille","lat":43.26569,"lon":5.39004,"is_reserved":false,"is_disabled":false,"rental_uris":{"android":"levelo://app?vid=216c5cc8-c089-4ed5-aad7-859a8e9374c0","ios":"levelo://app?vid=216c5cc8-c089-4ed5-aad7-859a8e9374c0"},"vehicle_type_id":"4","last_reported":1728472094,"current_range_meters":24800,"station_id":"ce4bhe12rcd13ifvqf30","pricing_plan_id":"cebpf4jnsgd1na2vs0mg"},{"bike_id":"2ed31331-8d4b-4cc9-a6d5-cb863be87dba","system_id":"levelo_inurba_marseille","lat":43.27497,"lon":5.42457,"is_reserved":false,"is_disabled":false,"rental_uris":{"android":"levelo://app?vid=2ed31331-8d4b-4cc9-a6d5-cb863be87dba","ios":"levelo://app?vid=2ed31331-8d4b-4cc9-a6d5-cb863be87dba"},"vehicle_type_id":"4","last_reported":1728472094,"current_range_meters":30400,"station_id":"ce4bhn92rcd13ifvqgrg","pricing_plan_id":"cebpf4jnsgd1na2vs0mg"},{"bike_id":"afe4f243-7565-4172-a4a9-25fcf4321014","system_id":"levelo_inurba_marseille","lat":43.33028,"lon":5.39035,"is_reserved":false,"is_disabled":false,"rental_uris":{"android":"levelo://app?vid=afe4f243-7565-4172-a4a9-25fcf4321014","ios":"levelo://app?vid=afe4f243-7565-4172-a4a9-25fcf4321014"},"vehicle_type_id":"4","last_reported":1728472094,"current_range_meters":17200,"station_id":"ce4bhr92rcd13ifvqhrg","pricing_plan_id":"cebpf4jnsgd1na2vs0mg"},{"bike_id":"35ba4d1a-5c0b-4a5d-bfa0-3327d1ad3382","system_id":"levelo_inurba_marseille","lat":43.29732,"lon":5.3769,"is_reserved":false,"is_disabled":false,"rental_uris":{"android":"levelo://app?vid=35ba4d1a-5c0b-4a5d-bfa0-3327d1ad3382","ios":"levelo://app?vid=35ba4d1a-5c0b-4a5d-bfa0-3327d1ad3382"},"vehicle_type_id":"4","last_reported":1728472094,"current_range_meters":34000,"station_id":"ce4bgkh2rcd13ifvqbl0","pricing_plan_id":"cebpf4jnsgd1na2vs0mg"},{"bike_id":"981417f7-3650-4686-9c01-f3fca65dc77f","system_id":"levelo_inurba_marseille","lat":43.23071,"lon":5.35493,"is_reserved":false,"is_disabled":false,"rental_uris":{"android":"levelo://app?vid=981417f7-3650-4686-9c01-f3fca65dc77f","ios":"levelo://app?vid=981417f7-3650-4686-9c01-f3fca65dc77f"},"vehicle_type_id":"4","last_reported":1728472094,"current_range_meters":18800,"station_id":"cpo3342slgdg3j2ifvpg","pricing_plan_id":"cebpf4jnsgd1na2vs0mg"},{"bike_id":"d70851e2-f83d-4813-9783-36d9465aeed3","system_id":"levelo_inurba_marseille","lat":43.25502,"lon":5.37652,"is_reserved":false,"is_disabled":false,"rental_uris":{"android":"levelo://app?vid=d70851e2-f83d-4813-9783-36d9465aeed3","ios":"levelo://app?vid=d70851e2-f83d-4813-9783-36d9465aeed3"},"vehicle_type_id":"4","last_reported":1728472094,"current_range_meters":38400,"station_id":"ce4bhh12rcd13ifvqff0","pricing_plan_id":"cebpf4jnsgd1na2vs0mg"},{"bike_id":"a7fc21fc-96fb-4603-843c-267888a20c03","system_id":"levelo_inurba_marseille","lat":43.305441,"lon":5.367073,"is_reserved":false,"is_disabled":false,"rental_uris":{"android":"levelo://app?vid=a7fc21fc-96fb-4603-843c-267888a20c03","ios":"levelo://app?vid=a7fc21fc-96fb-4603-843c-267888a20c03"},"vehicle_type_id":"4","last_reported":1728472094,"current_range_meters":38800,"station_id":"ce4bgrp2rcd13ifvqc9g","pricing_plan_id":"cebpf4jnsgd1na2vs0mg"},{"bike_id":"6f39e742-4a2b-4f06-bdb9-8b8689c4bb75","system_id":"levelo_inurba_marseille","lat":43.25718,"lon":5.4111,"is_reserved":false,"is_disabled":false,"rental_uris":{"android":"levelo://app?vid=6f39e742-4a2b-4f06-bdb9-8b8689c4bb75","ios":"levelo://app?vid=6f39e742-4a2b-4f06-bdb9-8b8689c4bb75"},"vehicle_type_id":"4","last_reported":1728472094,"current_range_meters":35600,"station_id":"ce4bhkp2rcd13ifvqgd0","pricing_plan_id":"cebpf4jnsgd1na2vs0mg"},{"bike_id":"ede68b2f-f53f-4ad5-a3f5-950bc936b5eb","system_id":"levelo_inurba_marseille","lat":43.33764,"lon":5.37434,"is_reserved":false,"is_disabled":false,"rental_uris":{"android":"levelo://app?vid=ede68b2f-f53f-4ad5-a3f5-950bc936b5eb","ios":"levelo://app?vid=ede68b2f-f53f-4ad5-a3f5-950bc936b5eb"},"vehicle_type_id":"4","last_reported":1728472094,"current_range_meters":34000,"station_id":"","pricing_plan_id":"cebpf4jnsgd1na2vs0mg"},{"bike_id":"5d19a48f-4ecb-4a04-8593-e3ad4a8266a2","system_id":"levelo_inurba_marseille","lat":43.29846,"lon":5.36272,"is_reserved":false,"is_disabled":false,"rental_uris":{"android":"levelo://app?vid=5d19a48f-4ecb-4a04-8593-e3ad4a8266a2","ios":"levelo://app?vid=5d19a48f-4ecb-4a04-8593-e3ad4a8266a2"},"vehicle_type_id":"4","last_reported":1728472094,"current_range_meters":38000,"station_id":"ce4bgpp2rcd13ifvqc3g","pricing_plan_id":"cebpf4jnsgd1na2vs0mg"},{"bike_id":"9061c416-f4a1-4d00-a6ea-a460d8a315f7","system_id":"levelo_inurba_marseille","lat":43.29283,"lon":5.40119,"is_reserved":false,"is_disabled":false,"rental_uris":{"android":"levelo://app?vid=9061c416-f4a1-4d00-a6ea-a460d8a315f7","ios":"levelo://app?vid=9061c416-f4a1-4d00-a6ea-a460d8a315f7"},"vehicle_type_id":"4","last_reported":1728472094,"current_range_meters":32400,"station_id":"ce4bh312rcd13ifvqdk0","pricing_plan_id":"cebpf4jnsgd1na2vs0mg"},{"bike_id":"a1573d54-0cc2-41b1-af18-60b8894eee67","system_id":"levelo_inurba_marseille","lat":43.25934,"lon":5.40912,"is_reserved":false,"is_disabled":false,"rental_uris":{"android":"levelo://app?vid=a1573d54-0cc2-41b1-af18-60b8894eee67","ios":"levelo://app?vid=a1573d54-0cc2-41b1-af18-60b8894eee67"},"vehicle_type_id":"4","last_reported":1728472094,"current_range_meters":38800,"station_id":"ce4bhm92rcd13ifvqglg","pricing_plan_id":"cebpf4jnsgd1na2vs0mg"},{"bike_id":"825facad-f7b4-4d04-aaa8-1642e7166df5","system_id":"levelo_inurba_marseille","lat":43.30546,"lon":5.36708,"is_reserved":false,"is_disabled":false,"rental_uris":{"android":"levelo://app?vid=825facad-f7b4-4d04-aaa8-1642e7166df5","ios":"levelo://app?vid=825facad-f7b4-4d04-aaa8-1642e7166df5"},"vehicle_type_id":"4","last_reported":1728472094,"current_range_meters":28000,"station_id":"ce4bgrp2rcd13ifvqc9g","pricing_plan_id":"cebpf4jnsgd1na2vs0mg"},{"bike_id":"fb56abde-916f-4270-886b-f264464a7c0d","system_id":"levelo_inurba_marseille","lat":43.29902,"lon":5.43668,"is_reserved":false,"is_disabled":false,"rental_uris":{"android":"levelo://app?vid=fb56abde-916f-4270-886b-f264464a7c0d","ios":"levelo://app?vid=fb56abde-916f-4270-886b-f264464a7c0d"},"vehicle_type_id":"4","last_reported":1728472094,"current_range_meters":38800,"station_id":"ce4bhpp2rcd13ifvqhfg","pricing_plan_id":"cebpf4jnsgd1na2vs0mg"},{"bike_id":"92f02590-07bb-4cfa-829f-8bd0dd55de75","system_id":"levelo_inurba_marseille","lat":43.31119,"lon":5.37764,"is_reserved":false,"is_disabled":false,"rental_uris":{"android":"levelo://app?vid=92f02590-07bb-4cfa-829f-8bd0dd55de75","ios":"levelo://app?vid=92f02590-07bb-4cfa-829f-8bd0dd55de75"},"vehicle_type_id":"4","last_reported":1728472094,"current_range_meters":15200,"station_id":"ce4bgt92rcd13ifvqcg0","pricing_plan_id":"cebpf4jnsgd1na2vs0mg"},{"bike_id":"acc85f39-3b29-4d55-ac95-b906b13e8eef","system_id":"levelo_inurba_marseille","lat":43.30559,"lon":5.36539,"is_reserved":false,"is_disabled":false,"rental_uris":{"android":"levelo://app?vid=acc85f39-3b29-4d55-ac95-b906b13e8eef","ios":"levelo://app?vid=acc85f39-3b29-4d55-ac95-b906b13e8eef"},"vehicle_type_id":"4","last_reported":1728472094,"current_range_meters":38800,"station_id":"ce4bgs12rcd13ifvqcag","pricing_plan_id":"cebpf4jnsgd1na2vs0mg"},{"bike_id":"3b824c89-cf15-4e04-8271-2c0fef868aed","system_id":"levelo_inurba_marseille","lat":43.30547,"lon":5.36535,"is_reserved":false,"is_disabled":false,"rental_uris":{"android":"levelo://app?vid=3b824c89-cf15-4e04-8271-2c0fef868aed","ios":"levelo://app?vid=3b824c89-cf15-4e04-8271-2c0fef868aed"},"vehicle_type_id":"4","last_reported":1728472094,"current_range_meters":21600,"station_id":"ce4bgs12rcd13ifvqcag","pricing_plan_id":"cebpf4jnsgd1na2vs0mg"},{"bike_id":"810b32d6-b30c-480b-a6ee-5bd54d112eb8","system_id":"levelo_inurba_marseille","lat":43.33749,"lon":5.37442,"is_reserved":false,"is_disabled":false,"rental_uris":{"android":"levelo://app?vid=810b32d6-b30c-480b-a6ee-5bd54d112eb8","ios":"levelo://app?vid=810b32d6-b30c-480b-a6ee-5bd54d112eb8"},"vehicle_type_id":"4","last_reported":1728472094,"current_range_meters":28400,"station_id":"ce4rr2p2rcd13i802rgg","pricing_plan_id":"cebpf4jnsgd1na2vs0mg"},{"bike_id":"b29b29c4-fc47-47de-ab19-b81f2c31f968","system_id":"levelo_inurba_marseille","lat":43.29898,"lon":5.43667,"is_reserved":false,"is_disabled":false,"rental_uris":{"android":"levelo://app?vid=b29b29c4-fc47-47de-ab19-b81f2c31f968","ios":"levelo://app?vid=b29b29c4-fc47-47de-ab19-b81f2c31f968"},"vehicle_type_id":"4","last_reported":1728472094,"current_range_meters":30800,"station_id":"ce4bhpp2rcd13ifvqhfg","pricing_plan_id":"cebpf4jnsgd1na2vs0mg"},{"bike_id":"579f8a1b-ce20-436f-8ebc-fb0e8cefd486","system_id":"levelo_inurba_marseille","lat":43.29516,"lon":5.39406,"is_reserved":false,"is_disabled":false,"rental_uris":{"android":"levelo://app?vid=579f8a1b-ce20-436f-8ebc-fb0e8cefd486","ios":"levelo://app?vid=579f8a1b-ce20-436f-8ebc-fb0e8cefd486"},"vehicle_type_id":"4","last_reported":1728472094,"current_range_meters":4800,"station_id":"ce4bh292rcd13ifvqdf0","pricing_plan_id":"cebpf4jnsgd1na2vs0mg"},{"bike_id":"9442da56-d3f1-4066-833b-caaee3959a02","system_id":"levelo_inurba_marseille","lat":43.29788,"lon":5.37094,"is_reserved":false,"is_disabled":false,"rental_uris":{"android":"levelo://app?vid=9442da56-d3f1-4066-833b-caaee3959a02","ios":"levelo://app?vid=9442da56-d3f1-4066-833b-caaee3959a02"},"vehicle_type_id":"4","last_reported":1728472094,"current_range_meters":6400,"station_id":"ce4bgop2rcd13ifvqc1g","pricing_plan_id":"cebpf4jnsgd1na2vs0mg"},{"bike_id":"566f124d-d2dc-44d6-baaa-cd99b0a92098","system_id":"levelo_inurba_marseille","lat":43.23149,"lon":5.43717,"is_reserved":false,"is_disabled":false,"rental_uris":{"android":"levelo://app?vid=566f124d-d2dc-44d6-baaa-cd99b0a92098","ios":"levelo://app?vid=566f124d-d2dc-44d6-baaa-cd99b0a92098"},"vehicle_type_id":"4","last_reported":1728472094,"current_range_meters":39200,"station_id":"ce4bhmp2rcd13ifvqgog","pricing_plan_id":"cebpf4jnsgd1na2vs0mg"},{"bike_id":"a4622123-9102-4613-a743-ea61cc78a9b6","system_id":"levelo_inurba_marseille","lat":43.2343,"lon":5.36078,"is_reserved":false,"is_disabled":false,"rental_uris":{"android":"levelo://app?vid=a4622123-9102-4613-a743-ea61cc78a9b6","ios":"levelo://app?vid=a4622123-9102-4613-a743-ea61cc78a9b6"},"vehicle_type_id":"4","last_reported":1728472094,"current_range_meters":14800,"station_id":"","pricing_plan_id":"cebpf4jnsgd1na2vs0mg"},{"bike_id":"8c214357-eba9-4fc4-b295-e19cd9f0b1b7","system_id":"levelo_inurba_marseille","lat":43.296024,"lon":5.381142,"is_reserved":false,"is_disabled":false,"rental_uris":{"android":"levelo://app?vid=8c214357-eba9-4fc4-b295-e19cd9f0b1b7","ios":"levelo://app?vid=8c214357-eba9-4fc4-b295-e19cd9f0b1b7"},"vehicle_type_id":"4","last_reported":1728472094,"current_range_meters":28000,"station_id":"ce4bh2p2rcd13ifvqdi0","pricing_plan_id":"cebpf4jnsgd1na2vs0mg"},{"bike_id":"92f0f563-ea16-4c02-b287-b0ed88c8eb9d","system_id":"levelo_inurba_marseille","lat":43.26685,"lon":5.38259,"is_reserved":false,"is_disabled":false,"rental_uris":{"android":"levelo://app?vid=92f0f563-ea16-4c02-b287-b0ed88c8eb9d","ios":"levelo://app?vid=92f0f563-ea16-4c02-b287-b0ed88c8eb9d"},"vehicle_type_id":"4","last_reported":1728472094,"current_range_meters":38800,"station_id":"ce4bhg92rcd13ifvqf90","pricing_plan_id":"cebpf4jnsgd1na2vs0mg"},{"bike_id":"e3a82d8f-2188-4152-b040-5b5cb1d61e46","system_id":"levelo_inurba_marseille","lat":43.29578,"lon":5.36741,"is_reserved":false,"is_disabled":false,"rental_uris":{"android":"levelo://app?vid=e3a82d8f-2188-4152-b040-5b5cb1d61e46","ios":"levelo://app?vid=e3a82d8f-2188-4152-b040-5b5cb1d61e46"},"vehicle_type_id":"4","last_reported":1728472094,"current_range_meters":38000,"station_id":"ce4bgph2rcd13ifvqc2g","pricing_plan_id":"cebpf4jnsgd1na2vs0mg"},{"bike_id":"e1a5c79b-b669-4f11-8eb4-af5513c136c6","system_id":"levelo_inurba_marseille","lat":43.30278,"lon":5.37701,"is_reserved":false,"is_disabled":false,"rental_uris":{"android":"levelo://app?vid=e1a5c79b-b669-4f11-8eb4-af5513c136c6","ios":"levelo://app?vid=e1a5c79b-b669-4f11-8eb4-af5513c136c6"},"vehicle_type_id":"4","last_reported":1728472094,"current_range_meters":36000,"station_id":"ce4bguh2rcd13ifvqcj0","pricing_plan_id":"cebpf4jnsgd1na2vs0mg"},{"bike_id":"cc1d202b-5d65-40e5-bf96-176d1dac001e","system_id":"levelo_inurba_marseille","lat":43.33737,"lon":5.39182,"is_reserved":false,"is_disabled":false,"rental_uris":{"android":"levelo://app?vid=cc1d202b-5d65-40e5-bf96-176d1dac001e","ios":"levelo://app?vid=cc1d202b-5d65-40e5-bf96-176d1dac001e"},"vehicle_type_id":"4","last_reported":1728472094,"current_range_meters":38800,"station_id":"ce4bhr92rcd13ifvqhsg","pricing_plan_id":"cebpf4jnsgd1na2vs0mg"},{"bike_id":"311179ab-aac7-4a24-b13c-227bd106e5ed","system_id":"levelo_inurba_marseille","lat":43.30598,"lon":5.37223,"is_reserved":false,"is_disabled":false,"rental_uris":{"android":"levelo://app?vid=311179ab-aac7-4a24-b13c-227bd106e5ed","ios":"levelo://app?vid=311179ab-aac7-4a24-b13c-227bd106e5ed"},"vehicle_type_id":"4","last_reported":1728472094,"current_range_meters":2000,"station_id":"ce4bgqh2rcd13ifvqc4g","pricing_plan_id":"cebpf4jnsgd1na2vs0mg"},{"bike_id":"198815dd-b6a8-47b4-9693-50d6f365ad0e","system_id":"levelo_inurba_marseille","lat":43.29037,"lon":5.37549,"is_reserved":false,"is_disabled":false,"rental_uris":{"android":"levelo://app?vid=198815dd-b6a8-47b4-9693-50d6f365ad0e","ios":"levelo://app?vid=198815dd-b6a8-47b4-9693-50d6f365ad0e"},"vehicle_type_id":"4","last_reported":1728472094,"current_range_meters":38800,"station_id":"ce4bh692rcd13ifvqe90","pricing_plan_id":"cebpf4jnsgd1na2vs0mg"},{"bike_id":"b1b914a9-f856-4695-a7db-27fdf5e5c15b","system_id":"levelo_inurba_marseille","lat":43.30548,"lon":5.36538,"is_reserved":false,"is_disabled":false,"rental_uris":{"android":"levelo://app?vid=b1b914a9-f856-4695-a7db-27fdf5e5c15b","ios":"levelo://app?vid=b1b914a9-f856-4695-a7db-27fdf5e5c15b"},"vehicle_type_id":"4","last_reported":1728472094,"current_range_meters":11200,"station_id":"ce4bgs12rcd13ifvqcag","pricing_plan_id":"cebpf4jnsgd1na2vs0mg"},{"bike_id":"ae34953c-471d-45a0-a84a-a16db6392d67","system_id":"levelo_inurba_marseille","lat":43.2668,"lon":5.3827,"is_reserved":false,"is_disabled":false,"rental_uris":{"android":"levelo://app?vid=ae34953c-471d-45a0-a84a-a16db6392d67","ios":"levelo://app?vid=ae34953c-471d-45a0-a84a-a16db6392d67"},"vehicle_type_id":"4","last_reported":1728472094,"current_range_meters":38000,"station_id":"ce4bhg92rcd13ifvqf90","pricing_plan_id":"cebpf4jnsgd1na2vs0mg"},{"bike_id":"b90cd486-0698-4c5a-a490-56ef220678d9","system_id":"levelo_inurba_marseille","lat":43.30806,"lon":5.38154,"is_reserved":false,"is_disabled":false,"rental_uris":{"android":"levelo://app?vid=b90cd486-0698-4c5a-a490-56ef220678d9","ios":"levelo://app?vid=b90cd486-0698-4c5a-a490-56ef220678d9"},"vehicle_type_id":"4","last_reported":1728472094,"current_range_meters":38800,"station_id":"ce4bgt12rcd13ifvqce0","pricing_plan_id":"cebpf4jnsgd1na2vs0mg"},{"bike_id":"3a5e2b55-e71b-49f0-8731-94b39e6c9f55","system_id":"levelo_inurba_marseille","lat":43.30901,"lon":5.37186,"is_reserved":false,"is_disabled":false,"rental_uris":{"android":"levelo://app?vid=3a5e2b55-e71b-49f0-8731-94b39e6c9f55","ios":"levelo://app?vid=3a5e2b55-e71b-49f0-8731-94b39e6c9f55"},"vehicle_type_id":"4","last_reported":1728472094,"current_range_meters":28400,"station_id":"ce4bguh2rcd13ifvqckg","pricing_plan_id":"cebpf4jnsgd1na2vs0mg"},{"bike_id":"4bfd4f11-2180-4493-9b1f-d5bd71700aac","system_id":"levelo_inurba_marseille","lat":43.33765,"lon":5.37427,"is_reserved":false,"is_disabled":false,"rental_uris":{"android":"levelo://app?vid=4bfd4f11-2180-4493-9b1f-d5bd71700aac","ios":"levelo://app?vid=4bfd4f11-2180-4493-9b1f-d5bd71700aac"},"vehicle_type_id":"4","last_reported":1728472094,"current_range_meters":36000,"station_id":"","pricing_plan_id":"cebpf4jnsgd1na2vs0mg"},{"bike_id":"46a6ba3a-87a5-402c-9abb-680b4f4490fc","system_id":"levelo_inurba_marseille","lat":43.27941,"lon":5.41049,"is_reserved":false,"is_disabled":false,"rental_uris":{"android":"levelo://app?vid=46a6ba3a-87a5-402c-9abb-680b4f4490fc","ios":"levelo://app?vid=46a6ba3a-87a5-402c-9abb-680b4f4490fc"},"vehicle_type_id":"4","last_reported":1728472094,"current_range_meters":28400,"station_id":"ce4bhnp2rcd13ifvqh0g","pricing_plan_id":"cebpf4jnsgd1na2vs0mg"},{"bike_id":"ca7dbef4-cde9-4cf8-a6be-521e7eea511d","system_id":"levelo_inurba_marseille","lat":43.27994,"lon":5.41649,"is_reserved":false,"is_disabled":false,"rental_uris":{"android":"levelo://app?vid=ca7dbef4-cde9-4cf8-a6be-521e7eea511d","ios":"levelo://app?vid=ca7dbef4-cde9-4cf8-a6be-521e7eea511d"},"vehicle_type_id":"4","last_reported":1728472094,"current_range_meters":3600,"station_id":"ce4bho12rcd13ifvqh1g","pricing_plan_id":"cebpf4jnsgd1na2vs0mg"},{"bike_id":"a3c35198-54be-4859-9915-09fd3d36b7f4","system_id":"levelo_inurba_marseille","lat":43.29791,"lon":5.37106,"is_reserved":false,"is_disabled":false,"rental_uris":{"android":"levelo://app?vid=a3c35198-54be-4859-9915-09fd3d36b7f4","ios":"levelo://app?vid=a3c35198-54be-4859-9915-09fd3d36b7f4"},"vehicle_type_id":"4","last_reported":1728472094,"current_range_meters":20400,"station_id":"ce4bgop2rcd13ifvqc1g","pricing_plan_id":"cebpf4jnsgd1na2vs0mg"},{"bike_id":"c6ec5fe7-6517-4b10-8ccf-20b8d0be9dc8","system_id":"levelo_inurba_marseille","lat":43.28414,"lon":5.34981,"is_reserved":false,"is_disabled":false,"rental_uris":{"android":"levelo://app?vid=c6ec5fe7-6517-4b10-8ccf-20b8d0be9dc8","ios":"levelo://app?vid=c6ec5fe7-6517-4b10-8ccf-20b8d0be9dc8"},"vehicle_type_id":"4","last_reported":1728472094,"current_range_meters":12800,"station_id":"ce4bhbh2rcd13ifvqepg","pricing_plan_id":"cebpf4jnsgd1na2vs0mg"},{"bike_id":"062863a1-89cf-4b9c-a3eb-1095b5a1e792","system_id":"levelo_inurba_marseille","lat":43.33027,"lon":5.39024,"is_reserved":false,"is_disabled":false,"rental_uris":{"android":"levelo://app?vid=062863a1-89cf-4b9c-a3eb-1095b5a1e792","ios":"levelo://app?vid=062863a1-89cf-4b9c-a3eb-1095b5a1e792"},"vehicle_type_id":"4","last_reported":1728472094,"current_range_meters":38800,"station_id":"ce4bhr92rcd13ifvqhrg","pricing_plan_id":"cebpf4jnsgd1na2vs0mg"},{"bike_id":"6e8c8cbf-845b-47fc-9626-2d8b3d922025","system_id":"levelo_inurba_marseille","lat":43.22932,"lon":5.35374,"is_reserved":false,"is_disabled":false,"rental_uris":{"android":"levelo://app?vid=6e8c8cbf-845b-47fc-9626-2d8b3d922025","ios":"levelo://app?vid=6e8c8cbf-845b-47fc-9626-2d8b3d922025"},"vehicle_type_id":"4","last_reported":1728472094,"current_range_meters":20000,"station_id":"cpo3532slgdg3j2ikp40","pricing_plan_id":"cebpf4jnsgd1na2vs0mg"},{"bike_id":"9b94cebe-943a-47d8-b84d-0ab0c93df7d4","system_id":"levelo_inurba_marseille","lat":43.28272,"lon":5.35065,"is_reserved":false,"is_disabled":false,"rental_uris":{"android":"levelo://app?vid=9b94cebe-943a-47d8-b84d-0ab0c93df7d4","ios":"levelo://app?vid=9b94cebe-943a-47d8-b84d-0ab0c93df7d4"},"vehicle_type_id":"4","last_reported":1728472094,"current_range_meters":36400,"station_id":"ce4bhbp2rcd13ifvqerg","pricing_plan_id":"cebpf4jnsgd1na2vs0mg"},{"bike_id":"5b7c1b64-2180-4349-a949-460f6aba1aeb","system_id":"levelo_inurba_marseille","lat":43.2669,"lon":5.38266,"is_reserved":false,"is_disabled":false,"rental_uris":{"android":"levelo://app?vid=5b7c1b64-2180-4349-a949-460f6aba1aeb","ios":"levelo://app?vid=5b7c1b64-2180-4349-a949-460f6aba1aeb"},"vehicle_type_id":"4","last_reported":1728472094,"current_range_meters":37600,"station_id":"ce4bhg92rcd13ifvqf90","pricing_plan_id":"cebpf4jnsgd1na2vs0mg"},{"bike_id":"d36afd29-050a-4133-98b5-04436a543286","system_id":"levelo_inurba_marseille","lat":43.30534,"lon":5.36531,"is_reserved":false,"is_disabled":false,"rental_uris":{"android":"levelo://app?vid=d36afd29-050a-4133-98b5-04436a543286","ios":"levelo://app?vid=d36afd29-050a-4133-98b5-04436a543286"},"vehicle_type_id":"4","last_reported":1728472094,"current_range_meters":32800,"station_id":"ce4bgs12rcd13ifvqcag","pricing_plan_id":"cebpf4jnsgd1na2vs0mg"},{"bike_id":"7cf49a9f-e0d6-456c-9979-a6b821eedd0d","system_id":"levelo_inurba_marseille","lat":43.2706,"lon":5.40261,"is_reserved":false,"is_disabled":false,"rental_uris":{"android":"levelo://app?vid=7cf49a9f-e0d6-456c-9979-a6b821eedd0d","ios":"levelo://app?vid=7cf49a9f-e0d6-456c-9979-a6b821eedd0d"},"vehicle_type_id":"4","last_reported":1728472094,"current_range_meters":25600,"station_id":"ce4bhk92rcd13ifvqgc0","pricing_plan_id":"cebpf4jnsgd1na2vs0mg"},{"bike_id":"549c60b7-e80a-465c-9929-5897ccbe828d","system_id":"levelo_inurba_marseille","lat":43.23151,"lon":5.43717,"is_reserved":false,"is_disabled":false,"rental_uris":{"android":"levelo://app?vid=549c60b7-e80a-465c-9929-5897ccbe828d","ios":"levelo://app?vid=549c60b7-e80a-465c-9929-5897ccbe828d"},"vehicle_type_id":"4","last_reported":1728472094,"current_range_meters":37600,"station_id":"ce4bhmp2rcd13ifvqgog","pricing_plan_id":"cebpf4jnsgd1na2vs0mg"},{"bike_id":"2b143dcd-abbf-48d2-8316-43c915e5fdc3","system_id":"levelo_inurba_marseille","lat":43.25114,"lon":5.403217,"is_reserved":false,"is_disabled":false,"rental_uris":{"android":"levelo://app?vid=2b143dcd-abbf-48d2-8316-43c915e5fdc3","ios":"levelo://app?vid=2b143dcd-abbf-48d2-8316-43c915e5fdc3"},"vehicle_type_id":"4","last_reported":1728472094,"current_range_meters":18800,"station_id":"ce4bhlh2rcd13ifvqgig","pricing_plan_id":"cebpf4jnsgd1na2vs0mg"},{"bike_id":"bbeaada8-6fa8-45b4-b300-8483bfbdcbe6","system_id":"levelo_inurba_marseille","lat":43.25861,"lon":5.39905,"is_reserved":false,"is_disabled":false,"rental_uris":{"android":"levelo://app?vid=bbeaada8-6fa8-45b4-b300-8483bfbdcbe6","ios":"levelo://app?vid=bbeaada8-6fa8-45b4-b300-8483bfbdcbe6"},"vehicle_type_id":"4","last_reported":1728472094,"current_range_meters":20800,"station_id":"ce4bhl92rcd13ifvqghg","pricing_plan_id":"cebpf4jnsgd1na2vs0mg"},{"bike_id":"64a3b4f5-4d90-4da1-9eed-248af7b5cb93","system_id":"levelo_inurba_marseille","lat":43.31493,"lon":5.37304,"is_reserved":false,"is_disabled":false,"rental_uris":{"android":"levelo://app?vid=64a3b4f5-4d90-4da1-9eed-248af7b5cb93","ios":"levelo://app?vid=64a3b4f5-4d90-4da1-9eed-248af7b5cb93"},"vehicle_type_id":"4","last_reported":1728472094,"current_range_meters":3600,"station_id":"ce4bgt12rcd13ifvqcd0","pricing_plan_id":"cebpf4jnsgd1na2vs0mg"},{"bike_id":"5cb621bf-e5de-4913-b98a-cabdc6d993bc","system_id":"levelo_inurba_marseille","lat":43.31174,"lon":5.38711,"is_reserved":false,"is_disabled":false,"rental_uris":{"android":"levelo://app?vid=5cb621bf-e5de-4913-b98a-cabdc6d993bc","ios":"levelo://app?vid=5cb621bf-e5de-4913-b98a-cabdc6d993bc"},"vehicle_type_id":"4","last_reported":1728472094,"current_range_meters":40000,"station_id":"ce4bgv12rcd13ifvqcp0","pricing_plan_id":"cebpf4jnsgd1na2vs0mg"},{"bike_id":"70cf19be-19ad-4a3b-9675-9095aca99d4a","system_id":"levelo_inurba_marseille","lat":43.24181,"lon":5.39732,"is_reserved":false,"is_disabled":false,"rental_uris":{"android":"levelo://app?vid=70cf19be-19ad-4a3b-9675-9095aca99d4a","ios":"levelo://app?vid=70cf19be-19ad-4a3b-9675-9095aca99d4a"},"vehicle_type_id":"4","last_reported":1728472094,"current_range_meters":14800,"station_id":"ce4bhn12rcd13ifvqgpg","pricing_plan_id":"cebpf4jnsgd1na2vs0mg"},{"bike_id":"e1ce8e46-7d9b-4baa-ba7a-50300f774846","system_id":"levelo_inurba_marseille","lat":43.33026,"lon":5.39041,"is_reserved":false,"is_disabled":false,"rental_uris":{"android":"levelo://app?vid=e1ce8e46-7d9b-4baa-ba7a-50300f774846","ios":"levelo://app?vid=e1ce8e46-7d9b-4baa-ba7a-50300f774846"},"vehicle_type_id":"4","last_reported":1728472094,"current_range_meters":35200,"station_id":"ce4bhr92rcd13ifvqhrg","pricing_plan_id":"cebpf4jnsgd1na2vs0mg"},{"bike_id":"314258a4-23f1-4a6b-8b4c-a1b8452ec4cf","system_id":"levelo_inurba_marseille","lat":43.26881,"lon":5.40172,"is_reserved":false,"is_disabled":false,"rental_uris":{"android":"levelo://app?vid=314258a4-23f1-4a6b-8b4c-a1b8452ec4cf","ios":"levelo://app?vid=314258a4-23f1-4a6b-8b4c-a1b8452ec4cf"},"vehicle_type_id":"4","last_reported":1728472094,"current_range_meters":16400,"station_id":"cjm6bp8fraef2m0cb0m0","pricing_plan_id":"cebpf4jnsgd1na2vs0mg"},{"bike_id":"70704a32-a2b3-46a1-b2bb-1c6687a3fc11","system_id":"levelo_inurba_marseille","lat":43.30554,"lon":5.36535,"is_reserved":false,"is_disabled":false,"rental_uris":{"android":"levelo://app?vid=70704a32-a2b3-46a1-b2bb-1c6687a3fc11","ios":"levelo://app?vid=70704a32-a2b3-46a1-b2bb-1c6687a3fc11"},"vehicle_type_id":"4","last_reported":1728472094,"current_range_meters":40000,"station_id":"ce4bgs12rcd13ifvqcag","pricing_plan_id":"cebpf4jnsgd1na2vs0mg"},{"bike_id":"8fde0ef9-5e2e-4a5c-9da1-7de32db57fc3","system_id":"levelo_inurba_marseille","lat":43.305462,"lon":5.365563,"is_reserved":false,"is_disabled":false,"rental_uris":{"android":"levelo://app?vid=8fde0ef9-5e2e-4a5c-9da1-7de32db57fc3","ios":"levelo://app?vid=8fde0ef9-5e2e-4a5c-9da1-7de32db57fc3"},"vehicle_type_id":"4","last_reported":1728472094,"current_range_meters":38800,"station_id":"ce4bgs12rcd13ifvqcag","pricing_plan_id":"cebpf4jnsgd1na2vs0mg"},{"bike_id":"0c1b07d3-993c-4193-be46-7a8bf1c69a71","system_id":"levelo_inurba_marseille","lat":43.26557,"lon":5.3728,"is_reserved":false,"is_disabled":false,"rental_uris":{"android":"levelo://app?vid=0c1b07d3-993c-4193-be46-7a8bf1c69a71","ios":"levelo://app?vid=0c1b07d3-993c-4193-be46-7a8bf1c69a71"},"vehicle_type_id":"4","last_reported":1728472094,"current_range_meters":31200,"station_id":"ce4bhg12rcd13ifvqf70","pricing_plan_id":"cebpf4jnsgd1na2vs0mg"},{"bike_id":"2c6d5afd-4a60-4f5f-bc62-6cdc7e6a3a98","system_id":"levelo_inurba_marseille","lat":43.2903,"lon":5.37554,"is_reserved":false,"is_disabled":false,"rental_uris":{"android":"levelo://app?vid=2c6d5afd-4a60-4f5f-bc62-6cdc7e6a3a98","ios":"levelo://app?vid=2c6d5afd-4a60-4f5f-bc62-6cdc7e6a3a98"},"vehicle_type_id":"4","last_reported":1728472094,"current_range_meters":16800,"station_id":"ce4bh692rcd13ifvqe90","pricing_plan_id":"cebpf4jnsgd1na2vs0mg"},{"bike_id":"34340eec-541f-4838-ab6b-0f56de94549b","system_id":"levelo_inurba_marseille","lat":43.29197,"lon":5.35804,"is_reserved":false,"is_disabled":false,"rental_uris":{"android":"levelo://app?vid=34340eec-541f-4838-ab6b-0f56de94549b","ios":"levelo://app?vid=34340eec-541f-4838-ab6b-0f56de94549b"},"vehicle_type_id":"4","last_reported":1728472094,"current_range_meters":38800,"station_id":"ce4bhb12rcd13ifvqel0","pricing_plan_id":"cebpf4jnsgd1na2vs0mg"},{"bike_id":"c053c19d-380f-4999-a32e-890a40f95536","system_id":"levelo_inurba_marseille","lat":43.24549,"lon":5.39521,"is_reserved":false,"is_disabled":false,"rental_uris":{"android":"levelo://app?vid=c053c19d-380f-4999-a32e-890a40f95536","ios":"levelo://app?vid=c053c19d-380f-4999-a32e-890a40f95536"},"vehicle_type_id":"4","last_reported":1728472094,"current_range_meters":8400,"station_id":"ce4bhlp2rcd13ifvqgjg","pricing_plan_id":"cebpf4jnsgd1na2vs0mg"},{"bike_id":"962a692d-7e39-45ee-b56a-68d1339f2e0c","system_id":"levelo_inurba_marseille","lat":43.23153,"lon":5.43708,"is_reserved":false,"is_disabled":false,"rental_uris":{"android":"levelo://app?vid=962a692d-7e39-45ee-b56a-68d1339f2e0c","ios":"levelo://app?vid=962a692d-7e39-45ee-b56a-68d1339f2e0c"},"vehicle_type_id":"4","last_reported":1728472094,"current_range_meters":38800,"station_id":"ce4bhmp2rcd13ifvqgog","pricing_plan_id":"cebpf4jnsgd1na2vs0mg"},{"bike_id":"4091faf5-b852-47a2-bc94-599b6339208f","system_id":"levelo_inurba_marseille","lat":43.29418,"lon":5.38622,"is_reserved":false,"is_disabled":false,"rental_uris":{"android":"levelo://app?vid=4091faf5-b852-47a2-bc94-599b6339208f","ios":"levelo://app?vid=4091faf5-b852-47a2-bc94-599b6339208f"},"vehicle_type_id":"4","last_reported":1728472094,"current_range_meters":8000,"station_id":"ce4bh2h2rcd13ifvqdh0","pricing_plan_id":"cebpf4jnsgd1na2vs0mg"},{"bike_id":"bf244315-477f-4562-a3e4-cc788276852a","system_id":"levelo_inurba_marseille","lat":43.28034,"lon":5.36946,"is_reserved":false,"is_disabled":false,"rental_uris":{"android":"levelo://app?vid=bf244315-477f-4562-a3e4-cc788276852a","ios":"levelo://app?vid=bf244315-477f-4562-a3e4-cc788276852a"},"vehicle_type_id":"4","last_reported":1728472094,"current_range_meters":8800,"station_id":"ce4bha12rcd13ifvqef0","pricing_plan_id":"cebpf4jnsgd1na2vs0mg"},{"bike_id":"61633579-2163-4e1c-8196-b84e75141326","system_id":"levelo_inurba_marseille","lat":43.30558,"lon":5.36529,"is_reserved":false,"is_disabled":false,"rental_uris":{"android":"levelo://app?vid=61633579-2163-4e1c-8196-b84e75141326","ios":"levelo://app?vid=61633579-2163-4e1c-8196-b84e75141326"},"vehicle_type_id":"4","last_reported":1728472094,"current_range_meters":38400,"station_id":"ce4bgs12rcd13ifvqcag","pricing_plan_id":"cebpf4jnsgd1na2vs0mg"},{"bike_id":"f731c745-b110-4cff-b95d-57b8f54d1678","system_id":"levelo_inurba_marseille","lat":43.32368,"lon":5.38884,"is_reserved":false,"is_disabled":false,"rental_uris":{"android":"levelo://app?vid=f731c745-b110-4cff-b95d-57b8f54d1678","ios":"levelo://app?vid=f731c745-b110-4cff-b95d-57b8f54d1678"},"vehicle_type_id":"4","last_reported":1728472094,"current_range_meters":25200,"station_id":"ce4bhqp2rcd13ifvqhog","pricing_plan_id":"cebpf4jnsgd1na2vs0mg"},{"bike_id":"80468326-9a30-4380-acb0-cc538ca33aa3","system_id":"levelo_inurba_marseille","lat":43.29739,"lon":5.37685,"is_reserved":false,"is_disabled":false,"rental_uris":{"android":"levelo://app?vid=80468326-9a30-4380-acb0-cc538ca33aa3","ios":"levelo://app?vid=80468326-9a30-4380-acb0-cc538ca33aa3"},"vehicle_type_id":"4","last_reported":1728472094,"current_range_meters":38000,"station_id":"ce4bgkh2rcd13ifvqbl0","pricing_plan_id":"cebpf4jnsgd1na2vs0mg"},{"bike_id":"456b53be-20d1-46cf-a3ae-a98d01e6b552","system_id":"levelo_inurba_marseille","lat":43.26692,"lon":5.38269,"is_reserved":false,"is_disabled":false,"rental_uris":{"android":"levelo://app?vid=456b53be-20d1-46cf-a3ae-a98d01e6b552","ios":"levelo://app?vid=456b53be-20d1-46cf-a3ae-a98d01e6b552"},"vehicle_type_id":"4","last_reported":1728472094,"current_range_meters":38800,"station_id":"ce4bhg92rcd13ifvqf90","pricing_plan_id":"cebpf4jnsgd1na2vs0mg"},{"bike_id":"f064a4ab-2af9-43fa-bf6d-ee73a64edf04","system_id":"levelo_inurba_marseille","lat":43.284637,"lon":5.358958,"is_reserved":false,"is_disabled":false,"rental_uris":{"android":"levelo://app?vid=f064a4ab-2af9-43fa-bf6d-ee73a64edf04","ios":"levelo://app?vid=f064a4ab-2af9-43fa-bf6d-ee73a64edf04"},"vehicle_type_id":"4","last_reported":1728472094,"current_range_meters":22800,"station_id":"ce4bhah2rcd13ifvqei0","pricing_plan_id":"cebpf4jnsgd1na2vs0mg"},{"bike_id":"faf49b77-a5b7-45ff-b48d-58a8c7667b47","system_id":"levelo_inurba_marseille","lat":43.30544,"lon":5.367,"is_reserved":false,"is_disabled":false,"rental_uris":{"android":"levelo://app?vid=faf49b77-a5b7-45ff-b48d-58a8c7667b47","ios":"levelo://app?vid=faf49b77-a5b7-45ff-b48d-58a8c7667b47"},"vehicle_type_id":"4","last_reported":1728472094,"current_range_meters":26800,"station_id":"ce4bgrp2rcd13ifvqc9g","pricing_plan_id":"cebpf4jnsgd1na2vs0mg"},{"bike_id":"53f7dab7-29d9-4c2a-b423-39eabd582cfd","system_id":"levelo_inurba_marseille","lat":43.24387,"lon":5.37056,"is_reserved":false,"is_disabled":false,"rental_uris":{"android":"levelo://app?vid=53f7dab7-29d9-4c2a-b423-39eabd582cfd","ios":"levelo://app?vid=53f7dab7-29d9-4c2a-b423-39eabd582cfd"},"vehicle_type_id":"4","last_reported":1728472094,"current_range_meters":38800,"station_id":"ce4bhhh2rcd13ifvqfk0","pricing_plan_id":"cebpf4jnsgd1na2vs0mg"},{"bike_id":"7e417d51-a48b-4428-9265-4aea394801b8","system_id":"levelo_inurba_marseille","lat":43.27494,"lon":5.39597,"is_reserved":false,"is_disabled":false,"rental_uris":{"android":"levelo://app?vid=7e417d51-a48b-4428-9265-4aea394801b8","ios":"levelo://app?vid=7e417d51-a48b-4428-9265-4aea394801b8"},"vehicle_type_id":"4","last_reported":1728472094,"current_range_meters":5600,"station_id":"ce4bhnh2rcd13ifvqgtg","pricing_plan_id":"cebpf4jnsgd1na2vs0mg"},{"bike_id":"cb5095a1-11ac-494a-8055-eec60d86fb1c","system_id":"levelo_inurba_marseille","lat":43.31234,"lon":5.36859,"is_reserved":false,"is_disabled":false,"rental_uris":{"android":"levelo://app?vid=cb5095a1-11ac-494a-8055-eec60d86fb1c","ios":"levelo://app?vid=cb5095a1-11ac-494a-8055-eec60d86fb1c"},"vehicle_type_id":"4","last_reported":1728472094,"current_range_meters":35200,"station_id":"ce4bgl92rcd13ifvqbq0","pricing_plan_id":"cebpf4jnsgd1na2vs0mg"},{"bike_id":"d428b380-b77b-44c4-87a1-0e526886aa77","system_id":"levelo_inurba_marseille","lat":43.26566,"lon":5.39001,"is_reserved":false,"is_disabled":false,"rental_uris":{"android":"levelo://app?vid=d428b380-b77b-44c4-87a1-0e526886aa77","ios":"levelo://app?vid=d428b380-b77b-44c4-87a1-0e526886aa77"},"vehicle_type_id":"4","last_reported":1728472094,"current_range_meters":26000,"station_id":"ce4bhe12rcd13ifvqf30","pricing_plan_id":"cebpf4jnsgd1na2vs0mg"},{"bike_id":"724e425b-0a6a-445e-a0d4-b02bc720122c","system_id":"levelo_inurba_marseille","lat":43.29736,"lon":5.37683,"is_reserved":false,"is_disabled":false,"rental_uris":{"android":"levelo://app?vid=724e425b-0a6a-445e-a0d4-b02bc720122c","ios":"levelo://app?vid=724e425b-0a6a-445e-a0d4-b02bc720122c"},"vehicle_type_id":"4","last_reported":1728472094,"current_range_meters":22400,"station_id":"ce4bgkh2rcd13ifvqbl0","pricing_plan_id":"cebpf4jnsgd1na2vs0mg"},{"bike_id":"12eef86c-467d-4a02-9596-57a8082e4076","system_id":"levelo_inurba_marseille","lat":43.30612,"lon":5.37233,"is_reserved":false,"is_disabled":false,"rental_uris":{"android":"levelo://app?vid=12eef86c-467d-4a02-9596-57a8082e4076","ios":"levelo://app?vid=12eef86c-467d-4a02-9596-57a8082e4076"},"vehicle_type_id":"4","last_reported":1728472094,"current_range_meters":38000,"station_id":"ce4bgqh2rcd13ifvqc4g","pricing_plan_id":"cebpf4jnsgd1na2vs0mg"},{"bike_id":"1f77e310-3088-4d6f-a35a-d72ad5faf48d","system_id":"levelo_inurba_marseille","lat":43.31346,"lon":5.36715,"is_reserved":false,"is_disabled":false,"rental_uris":{"android":"levelo://app?vid=1f77e310-3088-4d6f-a35a-d72ad5faf48d","ios":"levelo://app?vid=1f77e310-3088-4d6f-a35a-d72ad5faf48d"},"vehicle_type_id":"4","last_reported":1728472094,"current_range_meters":37600,"station_id":"ce4bgr92rcd13ifvqc6g","pricing_plan_id":"cebpf4jnsgd1na2vs0mg"},{"bike_id":"291efdc9-37c6-402f-bcf3-74f5538fe85e","system_id":"levelo_inurba_marseille","lat":43.28159,"lon":5.42648,"is_reserved":false,"is_disabled":false,"rental_uris":{"android":"levelo://app?vid=291efdc9-37c6-402f-bcf3-74f5538fe85e","ios":"levelo://app?vid=291efdc9-37c6-402f-bcf3-74f5538fe85e"},"vehicle_type_id":"4","last_reported":1728472094,"current_range_meters":36000,"station_id":"ce4bhnh2rcd13ifvqgug","pricing_plan_id":"cebpf4jnsgd1na2vs0mg"},{"bike_id":"9bafe326-2da9-44a9-824a-525e7e186578","system_id":"levelo_inurba_marseille","lat":43.29624,"lon":5.37164,"is_reserved":false,"is_disabled":false,"rental_uris":{"android":"levelo://app?vid=9bafe326-2da9-44a9-824a-525e7e186578","ios":"levelo://app?vid=9bafe326-2da9-44a9-824a-525e7e186578"},"vehicle_type_id":"4","last_reported":1728472094,"current_range_meters":28400,"station_id":"ce4bgnh2rcd13ifvqc0g","pricing_plan_id":"cebpf4jnsgd1na2vs0mg"},{"bike_id":"3fbd121b-475a-449b-8080-638deaded432","system_id":"levelo_inurba_marseille","lat":43.25111,"lon":5.40326,"is_reserved":false,"is_disabled":false,"rental_uris":{"android":"levelo://app?vid=3fbd121b-475a-449b-8080-638deaded432","ios":"levelo://app?vid=3fbd121b-475a-449b-8080-638deaded432"},"vehicle_type_id":"4","last_reported":1728472094,"current_range_meters":9200,"station_id":"ce4bhlh2rcd13ifvqgig","pricing_plan_id":"cebpf4jnsgd1na2vs0mg"},