{"last_updated":1773340721,"ttl":60,"version":"2.2","data":{"bikes":[{"bike_id":"e8dfe635-a703-41ae-9072-df5bb8305194","system_id":"levelo_inurba_marseille","lat":43.29712,"lon":5.36609,"is_reserved":false,"is_disabled":false,"rental_uris":{"android":"levelo://app?vid=e8dfe635-a703-41ae-9072-df5bb8305194","ios":"levelo://app?vid=e8dfe635-a703-41ae-9072-df5bb8305194"},"vehicle_type_id":"4","last_reported":1773340721,"current_range_meters":32800,"station_id":"ce4bgn12rcd13ifvqbt0","pricing_plan_id":"cebpf4jnsgd1na2vs0mg"},{"bike_id":"d7f14f08-66d3-42a5-9c51-7afcaa567af4","system_id":"levelo_inurba_marseille","lat":43.2986,"lon":5.39724,"is_reserved":false,"is_disabled":false,"rental_uris":{"android":"levelo://app?vid=d7f14f08-66d3-42a5-9c51-7afcaa567af4","ios":"levelo://app?vid=d7f14f08-66d3-42a5-9c51-7afcaa567af4"},"vehicle_type_id":"4","last_reported":1773340721,"current_range_meters":36800,"station_id":"ce4bh0h2rcd13ifvqd50","pricing_plan_id":"cebpf4jnsgd1na2vs0mg"},{"bike_id":"6a906307-d2b9-4e79-a7aa-e4bd81817826","system_id":"levelo_inurba_marseille","lat":43.27382,"lon":5.36265,"is_reserved":false,"is_disabled":false,"rental_uris":{"android":"levelo://app?vid=6a906307-d2b9-4e79-a7aa-e4bd81817826","ios":"levelo://app?vid=6a906307-d2b9-4e79-a7aa-e4bd81817826"},"vehicle_type_id":"4","last_reported":1773340721,"current_range_meters":4000,"station_id":"ce4bhbh2rcd13ifvqeo0","pricing_plan_id":"cebpf4jnsgd1na2vs0mg"},{"bike_id":"fe90cec3-38fb-49e4-be27-7996428a3178","system_id":"levelo_inurba_marseille","lat":43.25724,"lon":5.41118,"is_reserved":false,"is_disabled":false,"rental_uris":{"android":"levelo://app?vid=fe90cec3-38fb-49e4-be27-7996428a3178","ios":"levelo://app?vid=fe90cec3-38fb-49e4-be27-7996428a3178"},"vehicle_type_id":"4","last_reported":1773340721,"current_range_meters":18000,"station_id":"ce4bhkp2rcd13ifvqgd0","pricing_plan_id":"cebpf4jnsgd1na2vs0mg"},{"bike_id":"af1fcd4a-f45f-400a-ba1f-a400a0d2f9b8","system_id":"levelo_inurba_marseille","lat":43.28633,"lon":5.35107,"is_reserved":false,"is_disabled":false,"rental_uris":{"android":"levelo://app?vid=af1fcd4a-f45f-400a-ba1f-a400a0d2f9b8","ios":"levelo://app?vid=af1fcd4a-f45f-400a-ba1f-a400a0d2f9b8"},"vehicle_type_id":"4","last_reported":1773340721,"current_range_meters":11200,"station_id":"ce4bhch2rcd13ifvqeug","pricing_plan_id":"cebpf4jnsgd1na2vs0mg"},{"bike_id":"e8edc3ab-a478-486d-b336-6b477651bdf2","system_id":"levelo_inurba_marseille","lat":43.29268,"lon":5.40176,"is_reserved":false,"is_disabled":true,"rental_uris":{"android":"levelo://app?vid=e8edc3ab-a478-486d-b336-6b477651bdf2","ios":"levelo://app?vid=e8edc3ab-a478-486d-b336-6b477651bdf2"},"vehicle_type_id":"4","last_reported":1773340721,"current_range_meters":800,"station_id":"ce4bh312rcd13ifvqdk0","pricing_plan_id":"cebpf4jnsgd1na2vs0mg"},{"bike_id":"38a78b95-febb-4708-aab5-230addf5f4d0","system_id":"levelo_inurba_marseille","lat":43.32292,"lon":5.3828,"is_reserved":false,"is_disabled":false,"rental_uris":{"android":"levelo://app?vid=38a78b95-febb-4708-aab5-230addf5f4d0","ios":"levelo://app?vid=38a78b95-febb-4708-aab5-230addf5f4d0"},"vehicle_type_id":"4","last_reported":1773340721,"current_range_meters":24800,"station_id":"ce4bhr12rcd13ifvqhqg","pricing_plan_id":"cebpf4jnsgd1na2vs0mg"},{"bike_id":"92fb41fe-7603-49ec-a816-3eeb022f29fc","system_id":"levelo_inurba_marseille","lat":43.23181,"lon":5.40013,"is_reserved":false,"is_disabled":false,"rental_uris":{"android":"levelo://app?vid=92fb41fe-7603-49ec-a816-3eeb022f29fc","ios":"levelo://app?vid=92fb41fe-7603-49ec-a816-3eeb022f29fc"},"vehicle_type_id":"4","last_reported":1773340721,"current_range_meters":24800,"station_id":"ce4bhn12rcd13ifvqgqg","pricing_plan_id":"cebpf4jnsgd1na2vs0mg"},{"bike_id":"501ac3ce-4e32-4f11-9ff0-40917641f71f","system_id":"levelo_inurba_marseille","lat":43.3302,"lon":5.39069,"is_reserved":false,"is_disabled":false,"rental_uris":{"android":"levelo://app?vid=501ac3ce-4e32-4f11-9ff0-40917641f71f","ios":"levelo://app?vid=501ac3ce-4e32-4f11-9ff0-40917641f71f"},"vehicle_type_id":"4","last_reported":1773340721,"current_range_meters":36000,"station_id":"ce4bhr92rcd13ifvqhrg","pricing_plan_id":"cebpf4jnsgd1na2vs0mg"},{"bike_id":"9faea34b-1c48-4a1b-8f51-2bafe5184a50","system_id":"levelo_inurba_marseille","lat":43.28483,"lon":5.484,"is_reserved":false,"is_disabled":false,"rental_uris":{"android":"levelo://app?vid=9faea34b-1c48-4a1b-8f51-2bafe5184a50","ios":"levelo://app?vid=9faea34b-1c48-4a1b-8f51-2bafe5184a50"},"vehicle_type_id":"4","last_reported":1773340721,"current_range_meters":30400,"station_id":"","pricing_plan_id":"cebpf4jnsgd1na2vs0mg"},{"bike_id":"bd0135ea-2cde-4c88-9947-7d16e31861df","system_id":"levelo_inurba_marseille","lat":43.30714,"lon":5.36783,"is_reserved":false,"is_disabled":false,"rental_uris":{"android":"levelo://app?vid=bd0135ea-2cde-4c88-9947-7d16e31861df","ios":"levelo://app?vid=bd0135ea-2cde-4c88-9947-7d16e31861df"},"vehicle_type_id":"4","last_reported":1773340721,"current_range_meters":27600,"station_id":"","pricing_plan_id":"cebpf4jnsgd1na2vs0mg"},{"bike_id":"18f81ce4-9bbb-4d55-bc01-0a994616daa1","system_id":"levelo_inurba_marseille","lat":43.33163,"lon":5.37681,"is_reserved":false,"is_disabled":false,"rental_uris":{"android":"levelo://app?vid=18f81ce4-9bbb-4d55-bc01-0a994616daa1","ios":"levelo://app?vid=18f81ce4-9bbb-4d55-bc01-0a994616daa1"},"vehicle_type_id":"4","last_reported":1773340721,"current_range_meters":18000,"station_id":"st_d46cu089ee8s73dldbu0","pricing_plan_id":"cebpf4jnsgd1na2vs0mg"},{"bike_id":"c943c8f2-fd97-497f-b02c-47e60712859d","system_id":"levelo_inurba_marseille","lat":43.2583,"lon":5.39426,"is_reserved":false,"is_disabled":false,"rental_uris":{"android":"levelo://app?vid=c943c8f2-fd97-497f-b02c-47e60712859d","ios":"levelo://app?vid=c943c8f2-fd97-497f-b02c-47e60712859d"},"vehicle_type_id":"4","last_reported":1773340721,"current_range_meters":22800,"station_id":"ce4bhip2rcd13ifvqft0","pricing_plan_id":"cebpf4jnsgd1na2vs0mg"},{"bike_id":"1c24e9ff-ff54-446d-b8a6-5efc47293120","system_id":"levelo_inurba_marseille","lat":43.29974,"lon":5.38524,"is_reserved":false,"is_disabled":false,"rental_uris":{"android":"levelo://app?vid=1c24e9ff-ff54-446d-b8a6-5efc47293120","ios":"levelo://app?vid=1c24e9ff-ff54-446d-b8a6-5efc47293120"},"vehicle_type_id":"4","last_reported":1773340721,"current_range_meters":4800,"station_id":"ce4bgj92rcd13ifvqbd0","pricing_plan_id":"cebpf4jnsgd1na2vs0mg"},{"bike_id":"ec8bfdd8-2084-48b8-bdd5-6e3eaed2033f","system_id":"levelo_inurba_marseille","lat":43.27843,"lon":5.40722,"is_reserved":false,"is_disabled":false,"rental_uris":{"android":"levelo://app?vid=ec8bfdd8-2084-48b8-bdd5-6e3eaed2033f","ios":"levelo://app?vid=ec8bfdd8-2084-48b8-bdd5-6e3eaed2033f"},"vehicle_type_id":"4","last_reported":1773340721,"current_range_meters":15200,"station_id":"ce4bhnh2rcd13ifvqgtg","pricing_plan_id":"cebpf4jnsgd1na2vs0mg"},{"bike_id":"90c0ce37-ffd2-49a3-9f45-fdf961b2cb79","system_id":"levelo_inurba_marseille","lat":43.3031,"lon":5.36904,"is_reserved":false,"is_disabled":false,"rental_uris":{"android":"levelo://app?vid=90c0ce37-ffd2-49a3-9f45-fdf961b2cb79","ios":"levelo://app?vid=90c0ce37-ffd2-49a3-9f45-fdf961b2cb79"},"vehicle_type_id":"4","last_reported":1773340721,"current_range_meters":36000,"station_id":"ce4bgqh2rcd13ifvqc5g","pricing_plan_id":"cebpf4jnsgd1na2vs0mg"},{"bike_id":"67871f80-8e5b-4eba-b9cb-18f3261ef672","system_id":"levelo_inurba_marseille","lat":43.29535,"lon":5.38549,"is_reserved":false,"is_disabled":false,"rental_uris":{"android":"levelo://app?vid=67871f80-8e5b-4eba-b9cb-18f3261ef672","ios":"levelo://app?vid=67871f80-8e5b-4eba-b9cb-18f3261ef672"},"vehicle_type_id":"4","last_reported":1773340721,"current_range_meters":24800,"station_id":"ce4bgih2rcd13ifvqba0","pricing_plan_id":"cebpf4jnsgd1na2vs0mg"},{"bike_id":"c0e778de-76d2-4d92-a7f7-3c777a27001a","system_id":"levelo_inurba_marseille","lat":43.29605,"lon":5.38105,"is_reserved":false,"is_disabled":true,"rental_uris":{"android":"levelo://app?vid=c0e778de-76d2-4d92-a7f7-3c777a27001a","ios":"levelo://app?vid=c0e778de-76d2-4d92-a7f7-3c777a27001a"},"vehicle_type_id":"4","last_reported":1773340721,"current_range_meters":16400,"station_id":"ce4bgl12rcd13ifvqbo0","pricing_plan_id":"cebpf4jnsgd1na2vs0mg"},{"bike_id":"20bf681e-dd28-42a1-94f9-defeb2767863","system_id":"levelo_inurba_marseille","lat":43.2587,"lon":5.39904,"is_reserved":false,"is_disabled":false,"rental_uris":{"android":"levelo://app?vid=20bf681e-dd28-42a1-94f9-defeb2767863","ios":"levelo://app?vid=20bf681e-dd28-42a1-94f9-defeb2767863"},"vehicle_type_id":"4","last_reported":1773340721,"current_range_meters":24800,"station_id":"ce4bhl92rcd13ifvqghg","pricing_plan_id":"cebpf4jnsgd1na2vs0mg"},{"bike_id":"47f2105c-ec17-47dd-b471-2c4fe8d7f1f4","system_id":"levelo_inurba_marseille","lat":43.28928,"lon":5.38415,"is_reserved":false,"is_disabled":false,"rental_uris":{"android":"levelo://app?vid=47f2105c-ec17-47dd-b471-2c4fe8d7f1f4","ios":"levelo://app?vid=47f2105c-ec17-47dd-b471-2c4fe8d7f1f4"},"vehicle_type_id":"4","last_reported":1773340721,"current_range_meters":30400,"station_id":"ce4bh612rcd13ifvqe6g","pricing_plan_id":"cebpf4jnsgd1na2vs0mg"},{"bike_id":"f2db42f0-ef5f-4f20-9004-a1fcd44f8365","system_id":"levelo_inurba_marseille","lat":43.28664,"lon":5.38661,"is_reserved":false,"is_disabled":false,"rental_uris":{"android":"levelo://app?vid=f2db42f0-ef5f-4f20-9004-a1fcd44f8365","ios":"levelo://app?vid=f2db42f0-ef5f-4f20-9004-a1fcd44f8365"},"vehicle_type_id":"4","last_reported":1773340721,"current_range_meters":25200,"station_id":"ce4bh492rcd13ifvqdug","pricing_plan_id":"cebpf4jnsgd1na2vs0mg"},{"bike_id":"0b8bfc47-9d7d-485e-bfb6-6251bec0afa1","system_id":"levelo_inurba_marseille","lat":43.28451,"lon":5.3918,"is_reserved":false,"is_disabled":false,"rental_uris":{"android":"levelo://app?vid=0b8bfc47-9d7d-485e-bfb6-6251bec0afa1","ios":"levelo://app?vid=0b8bfc47-9d7d-485e-bfb6-6251bec0afa1"},"vehicle_type_id":"4","last_reported":1773340721,"current_range_meters":22000,"station_id":"ce4bhoh2rcd13ifvqh5g","pricing_plan_id":"cebpf4jnsgd1na2vs0mg"},{"bike_id":"bac80fb0-5c37-4895-a506-d3420b4d80ce","system_id":"levelo_inurba_marseille","lat":43.30872,"lon":5.39657,"is_reserved":false,"is_disabled":false,"rental_uris":{"android":"levelo://app?vid=bac80fb0-5c37-4895-a506-d3420b4d80ce","ios":"levelo://app?vid=bac80fb0-5c37-4895-a506-d3420b4d80ce"},"vehicle_type_id":"4","last_reported":1773340721,"current_range_meters":36800,"station_id":"ce4bh012rcd13ifvqcv0","pricing_plan_id":"cebpf4jnsgd1na2vs0mg"},{"bike_id":"463c9dfb-55cb-4643-98a9-63f734d95af1","system_id":"levelo_inurba_marseille","lat":43.28536,"lon":5.44104,"is_reserved":false,"is_disabled":false,"rental_uris":{"android":"levelo://app?vid=463c9dfb-55cb-4643-98a9-63f734d95af1","ios":"levelo://app?vid=463c9dfb-55cb-4643-98a9-63f734d95af1"},"vehicle_type_id":"4","last_reported":1773340721,"current_range_meters":35200,"station_id":"st_d3j3df2ikq2c7380ej80","pricing_plan_id":"cebpf4jnsgd1na2vs0mg"},{"bike_id":"1be54c69-6d2c-4415-ba9e-c9ead353d966","system_id":"levelo_inurba_marseille","lat":43.24173,"lon":5.36392,"is_reserved":false,"is_disabled":false,"rental_uris":{"android":"levelo://app?vid=1be54c69-6d2c-4415-ba9e-c9ead353d966","ios":"levelo://app?vid=1be54c69-6d2c-4415-ba9e-c9ead353d966"},"vehicle_type_id":"4","last_reported":1773340721,"current_range_meters":28800,"station_id":"cpo36qri1sfpv3e86is0","pricing_plan_id":"cebpf4jnsgd1na2vs0mg"},{"bike_id":"c5433ff8-918f-4cd1-b9dc-eaa009d6d6f4","system_id":"levelo_inurba_marseille","lat":43.24738,"lon":5.38183,"is_reserved":false,"is_disabled":false,"rental_uris":{"android":"levelo://app?vid=c5433ff8-918f-4cd1-b9dc-eaa009d6d6f4","ios":"levelo://app?vid=c5433ff8-918f-4cd1-b9dc-eaa009d6d6f4"},"vehicle_type_id":"4","last_reported":1773340721,"current_range_meters":22800,"station_id":"","pricing_plan_id":"cebpf4jnsgd1na2vs0mg"},{"bike_id":"49d9abe9-7a6a-4574-b46a-f36984570973","system_id":"levelo_inurba_marseille","lat":43.27565,"lon":5.38423,"is_reserved":false,"is_disabled":false,"rental_uris":{"android":"levelo://app?vid=49d9abe9-7a6a-4574-b46a-f36984570973","ios":"levelo://app?vid=49d9abe9-7a6a-4574-b46a-f36984570973"},"vehicle_type_id":"4","last_reported":1773340721,"current_range_meters":25600,"station_id":"ce4bhh92rcd13ifvqfi0","pricing_plan_id":"cebpf4jnsgd1na2vs0mg"},{"bike_id":"8b010353-2360-4a8a-9b76-14130d745a42","system_id":"levelo_inurba_marseille","lat":43.27826,"lon":5.40739,"is_reserved":false,"is_disabled":false,"rental_uris":{"android":"levelo://app?vid=8b010353-2360-4a8a-9b76-14130d745a42","ios":"levelo://app?vid=8b010353-2360-4a8a-9b76-14130d745a42"},"vehicle_type_id":"4","last_reported":1773340721,"current_range_meters":8400,"station_id":"ce4bhnh2rcd13ifvqgtg","pricing_plan_id":"cebpf4jnsgd1na2vs0mg"},{"bike_id":"05d75212-fcf3-49b0-8115-8d0b3b1fe208","system_id":"levelo_inurba_marseille","lat":43.29526,"lon":5.39051,"is_reserved":false,"is_disabled":false,"rental_uris":{"android":"levelo://app?vid=05d75212-fcf3-49b0-8115-8d0b3b1fe208","ios":"levelo://app?vid=05d75212-fcf3-49b0-8115-8d0b3b1fe208"},"vehicle_type_id":"4","last_reported":1773340721,"current_range_meters":15200,"station_id":"ce4bh3p2rcd13ifvqdp0","pricing_plan_id":"cebpf4jnsgd1na2vs0mg"},{"bike_id":"e5992785-f891-4eb7-b8cf-ab9dacd9c960","system_id":"levelo_inurba_marseille","lat":43.23059,"lon":5.35488,"is_reserved":false,"is_disabled":false,"rental_uris":{"android":"levelo://app?vid=e5992785-f891-4eb7-b8cf-ab9dacd9c960","ios":"levelo://app?vid=e5992785-f891-4eb7-b8cf-ab9dacd9c960"},"vehicle_type_id":"4","last_reported":1773340721,"current_range_meters":38800,"station_id":"cpo3342slgdg3j2ifvpg","pricing_plan_id":"cebpf4jnsgd1na2vs0mg"},{"bike_id":"748502a6-ebda-492b-9758-aa3915e37546","system_id":"levelo_inurba_marseille","lat":43.30175,"lon":5.39901,"is_reserved":false,"is_disabled":false,"rental_uris":{"android":"levelo://app?vid=748502a6-ebda-492b-9758-aa3915e37546","ios":"levelo://app?vid=748502a6-ebda-492b-9758-aa3915e37546"},"vehicle_type_id":"4","last_reported":1773340721,"current_range_meters":31200,"station_id":"","pricing_plan_id":"cebpf4jnsgd1na2vs0mg"},{"bike_id":"b6e38367-5bb5-4e25-8c85-83694ffa2882","system_id":"levelo_inurba_marseille","lat":43.26492,"lon":5.3954,"is_reserved":false,"is_disabled":false,"rental_uris":{"android":"levelo://app?vid=b6e38367-5bb5-4e25-8c85-83694ffa2882","ios":"levelo://app?vid=b6e38367-5bb5-4e25-8c85-83694ffa2882"},"vehicle_type_id":"4","last_reported":1773340721,"current_range_meters":39200,"station_id":"ce4bhi12rcd13ifvqfq0","pricing_plan_id":"cebpf4jnsgd1na2vs0mg"},{"bike_id":"34774aad-23db-4978-b1f4-dbbef5dcced6","system_id":"levelo_inurba_marseille","lat":43.24823,"lon":5.37439,"is_reserved":false,"is_disabled":false,"rental_uris":{"android":"levelo://app?vid=34774aad-23db-4978-b1f4-dbbef5dcced6","ios":"levelo://app?vid=34774aad-23db-4978-b1f4-dbbef5dcced6"},"vehicle_type_id":"4","last_reported":1773340721,"current_range_meters":19200,"station_id":"ce4bhgh2rcd13ifvqfb0","pricing_plan_id":"cebpf4jnsgd1na2vs0mg"},{"bike_id":"c8ca76cf-c15f-4d80-8ecc-3230dd8c2ca2","system_id":"levelo_inurba_marseille","lat":43.26203,"lon":5.37923,"is_reserved":false,"is_disabled":false,"rental_uris":{"android":"levelo://app?vid=c8ca76cf-c15f-4d80-8ecc-3230dd8c2ca2","ios":"levelo://app?vid=c8ca76cf-c15f-4d80-8ecc-3230dd8c2ca2"},"vehicle_type_id":"4","last_reported":1773340721,"current_range_meters":39200,"station_id":"ce4bhjp2rcd13ifvqg90","pricing_plan_id":"cebpf4jnsgd1na2vs0mg"},{"bike_id":"184b1f72-b72e-4150-b7f3-4b394e3faa9e","system_id":"levelo_inurba_marseille","lat":43.29252,"lon":5.38437,"is_reserved":false,"is_disabled":false,"rental_uris":{"android":"levelo://app?vid=184b1f72-b72e-4150-b7f3-4b394e3faa9e","ios":"levelo://app?vid=184b1f72-b72e-4150-b7f3-4b394e3faa9e"},"vehicle_type_id":"4","last_reported":1773340721,"current_range_meters":34000,"station_id":"ce4bh692rcd13ifvqea0","pricing_plan_id":"cebpf4jnsgd1na2vs0mg"},{"bike_id":"2d139dbe-4a51-46ac-bf7e-5e630dc6608b","system_id":"levelo_inurba_marseille","lat":43.30919,"lon":5.38317,"is_reserved":false,"is_disabled":false,"rental_uris":{"android":"levelo://app?vid=2d139dbe-4a51-46ac-bf7e-5e630dc6608b","ios":"levelo://app?vid=2d139dbe-4a51-46ac-bf7e-5e630dc6608b"},"vehicle_type_id":"4","last_reported":1773340721,"current_range_meters":14000,"station_id":"","pricing_plan_id":"cebpf4jnsgd1na2vs0mg"},{"bike_id":"f283c710-9bcb-4e19-8eea-6c929eb07878","system_id":"levelo_inurba_marseille","lat":43.2952,"lon":5.375,"is_reserved":false,"is_disabled":true,"rental_uris":{"android":"levelo://app?vid=f283c710-9bcb-4e19-8eea-6c929eb07878","ios":"levelo://app?vid=f283c710-9bcb-4e19-8eea-6c929eb07878"},"vehicle_type_id":"4","last_reported":1773340721,"current_range_meters":40000,"station_id":"ce4bgkp2rcd13ifvqbmg","pricing_plan_id":"cebpf4jnsgd1na2vs0mg"},{"bike_id":"b3982b51-c330-4a92-8307-b379b4c8ce54","system_id":"levelo_inurba_marseille","lat":43.31426,"lon":5.38482,"is_reserved":false,"is_disabled":false,"rental_uris":{"android":"levelo://app?vid=b3982b51-c330-4a92-8307-b379b4c8ce54","ios":"levelo://app?vid=b3982b51-c330-4a92-8307-b379b4c8ce54"},"vehicle_type_id":"4","last_reported":1773340721,"current_range_meters":7200,"station_id":"","pricing_plan_id":"cebpf4jnsgd1na2vs0mg"},{"bike_id":"17ce7070-d813-4eaf-a544-6259968aa271","system_id":"levelo_inurba_marseille","lat":43.31074,"lon":5.36959,"is_reserved":false,"is_disabled":false,"rental_uris":{"android":"levelo://app?vid=17ce7070-d813-4eaf-a544-6259968aa271","ios":"levelo://app?vid=17ce7070-d813-4eaf-a544-6259968aa271"},"vehicle_type_id":"4","last_reported":1773340721,"current_range_meters":4400,"station_id":"","pricing_plan_id":"cebpf4jnsgd1na2vs0mg"},{"bike_id":"bdea4757-afc1-44db-84f1-7dc81ac4fac4","system_id":"levelo_inurba_marseille","lat":43.29188,"lon":5.35788,"is_reserved":false,"is_disabled":true,"rental_uris":{"android":"levelo://app?vid=bdea4757-afc1-44db-84f1-7dc81ac4fac4","ios":"levelo://app?vid=bdea4757-afc1-44db-84f1-7dc81ac4fac4"},"vehicle_type_id":"4","last_reported":1773340721,"current_range_meters":25600,"station_id":"ce4bhb12rcd13ifvqel0","pricing_plan_id":"cebpf4jnsgd1na2vs0mg"},{"bike_id":"d646ab8d-a255-4e2a-b97b-aeed33e0a1a1","system_id":"levelo_inurba_marseille","lat":43.29161,"lon":5.35795,"is_reserved":false,"is_disabled":false,"rental_uris":{"android":"levelo://app?vid=d646ab8d-a255-4e2a-b97b-aeed33e0a1a1","ios":"levelo://app?vid=d646ab8d-a255-4e2a-b97b-aeed33e0a1a1"},"vehicle_type_id":"4","last_reported":1773340721,"current_range_meters":40000,"station_id":"ce4bhb12rcd13ifvqel0","pricing_plan_id":"cebpf4jnsgd1na2vs0mg"},{"bike_id":"566d1d1a-0852-4e0d-907b-e1334e0d6bf9","system_id":"levelo_inurba_marseille","lat":43.23825,"lon":5.36645,"is_reserved":false,"is_disabled":false,"rental_uris":{"android":"levelo://app?vid=566d1d1a-0852-4e0d-907b-e1334e0d6bf9","ios":"levelo://app?vid=566d1d1a-0852-4e0d-907b-e1334e0d6bf9"},"vehicle_type_id":"4","last_reported":1773340721,"current_range_meters":38800,"station_id":"st_d3nk18o9ro0c73en2l3g","pricing_plan_id":"cebpf4jnsgd1na2vs0mg"},{"bike_id":"244f66e9-0261-42d6-853e-ac479a182d4f","system_id":"levelo_inurba_marseille","lat":43.28426,"lon":5.3498,"is_reserved":false,"is_disabled":false,"rental_uris":{"android":"levelo://app?vid=244f66e9-0261-42d6-853e-ac479a182d4f","ios":"levelo://app?vid=244f66e9-0261-42d6-853e-ac479a182d4f"},"vehicle_type_id":"4","last_reported":1773340721,"current_range_meters":22000,"station_id":"ce4bhbh2rcd13ifvqepg","pricing_plan_id":"cebpf4jnsgd1na2vs0mg"},{"bike_id":"f96117d6-7d22-4b57-9564-78f617580e63","system_id":"levelo_inurba_marseille","lat":43.29182,"lon":5.35795,"is_reserved":false,"is_disabled":false,"rental_uris":{"android":"levelo://app?vid=f96117d6-7d22-4b57-9564-78f617580e63","ios":"levelo://app?vid=f96117d6-7d22-4b57-9564-78f617580e63"},"vehicle_type_id":"4","last_reported":1773340721,"current_range_meters":12800,"station_id":"ce4bhb12rcd13ifvqel0","pricing_plan_id":"cebpf4jnsgd1na2vs0mg"},{"bike_id":"b659370e-1128-4507-b672-7a8eb8dace75","system_id":"levelo_inurba_marseille","lat":43.30808,"lon":5.3816,"is_reserved":false,"is_disabled":false,"rental_uris":{"android":"levelo://app?vid=b659370e-1128-4507-b672-7a8eb8dace75","ios":"levelo://app?vid=b659370e-1128-4507-b672-7a8eb8dace75"},"vehicle_type_id":"4","last_reported":1773340721,"current_range_meters":28000,"station_id":"ce4bgt12rcd13ifvqce0","pricing_plan_id":"cebpf4jnsgd1na2vs0mg"},{"bike_id":"1c573354-cf53-44d3-9111-eb37080df88e","system_id":"levelo_inurba_marseille","lat":43.31572,"lon":5.37402,"is_reserved":false,"is_disabled":false,"rental_uris":{"android":"levelo://app?vid=1c573354-cf53-44d3-9111-eb37080df88e","ios":"levelo://app?vid=1c573354-cf53-44d3-9111-eb37080df88e"},"vehicle_type_id":"4","last_reported":1773340721,"current_range_meters":8800,"station_id":"","pricing_plan_id":"cebpf4jnsgd1na2vs0mg"},{"bike_id":"118f5c39-8aaa-4ebf-955d-12443e27feef","system_id":"levelo_inurba_marseille","lat":43.30532,"lon":5.36503,"is_reserved":false,"is_disabled":false,"rental_uris":{"android":"levelo://app?vid=118f5c39-8aaa-4ebf-955d-12443e27feef","ios":"levelo://app?vid=118f5c39-8aaa-4ebf-955d-12443e27feef"},"vehicle_type_id":"4","last_reported":1773340721,"current_range_meters":39200,"station_id":"","pricing_plan_id":"cebpf4jnsgd1na2vs0mg"},{"bike_id":"290affd8-9a09-4ca7-8cc6-b1a8e5ea56f6","system_id":"levelo_inurba_marseille","lat":43.28844,"lon":5.35871,"is_reserved":false,"is_disabled":false,"rental_uris":{"android":"levelo://app?vid=290affd8-9a09-4ca7-8cc6-b1a8e5ea56f6","ios":"levelo://app?vid=290affd8-9a09-4ca7-8cc6-b1a8e5ea56f6"},"vehicle_type_id":"4","last_reported":1773340721,"current_range_meters":17200,"station_id":"ce4bhb12rcd13ifvqem0","pricing_plan_id":"cebpf4jnsgd1na2vs0mg"},{"bike_id":"89b2413d-86d8-406e-a341-8b38f5c21796","system_id":"levelo_inurba_marseille","lat":43.299,"lon":5.38147,"is_reserved":false,"is_disabled":false,"rental_uris":{"android":"levelo://app?vid=89b2413d-86d8-406e-a341-8b38f5c21796","ios":"levelo://app?vid=89b2413d-86d8-406e-a341-8b38f5c21796"},"vehicle_type_id":"4","last_reported":1773340721,"current_range_meters":28800,"station_id":"ce4bgj12rcd13ifvqbc0","pricing_plan_id":"cebpf4jnsgd1na2vs0mg"},{"bike_id":"98a69b82-3426-4662-b314-8ddb62a05de5","system_id":"levelo_inurba_marseille","lat":43.30064,"lon":5.43724,"is_reserved":false,"is_disabled":false,"rental_uris":{"android":"levelo://app?vid=98a69b82-3426-4662-b314-8ddb62a05de5","ios":"levelo://app?vid=98a69b82-3426-4662-b314-8ddb62a05de5"},"vehicle_type_id":"4","last_reported":1773340721,"current_range_meters":11600,"station_id":"","pricing_plan_id":"cebpf4jnsgd1na2vs0mg"},{"bike_id":"a0758522-0d2e-4a8c-8a3b-9a02faec8c48","system_id":"levelo_inurba_marseille","lat":43.29872,"lon":5.39743,"is_reserved":false,"is_disabled":false,"rental_uris":{"android":"levelo://app?vid=a0758522-0d2e-4a8c-8a3b-9a02faec8c48","ios":"levelo://app?vid=a0758522-0d2e-4a8c-8a3b-9a02faec8c48"},"vehicle_type_id":"4","last_reported":1773340721,"current_range_meters":10000,"station_id":"ce4bh0h2rcd13ifvqd50","pricing_plan_id":"cebpf4jnsgd1na2vs0mg"},{"bike_id":"bd312d91-531c-40dc-bbfb-43191c0caff1","system_id":"levelo_inurba_marseille","lat":43.29046,"lon":5.35923,"is_reserved":false,"is_disabled":false,"rental_uris":{"android":"levelo://app?vid=bd312d91-531c-40dc-bbfb-43191c0caff1","ios":"levelo://app?vid=bd312d91-531c-40dc-bbfb-43191c0caff1"},"vehicle_type_id":"4","last_reported":1773340721,"current_range_meters":40000,"station_id":"ce4bha92rcd13ifvqeg0","pricing_plan_id":"cebpf4jnsgd1na2vs0mg"},{"bike_id":"a5eb7e2e-f45f-42c7-8ba3-bf76c2472338","system_id":"levelo_inurba_marseille","lat":43.30207,"lon":5.39438,"is_reserved":false,"is_disabled":false,"rental_uris":{"android":"levelo://app?vid=a5eb7e2e-f45f-42c7-8ba3-bf76c2472338","ios":"levelo://app?vid=a5eb7e2e-f45f-42c7-8ba3-bf76c2472338"},"vehicle_type_id":"4","last_reported":1773340721,"current_range_meters":18800,"station_id":"ce4bh0p2rcd13ifvqd70","pricing_plan_id":"cebpf4jnsgd1na2vs0mg"},{"bike_id":"3d12e3f4-6b13-4168-b577-adf07acbef79","system_id":"levelo_inurba_marseille","lat":43.29234,"lon":5.36069,"is_reserved":false,"is_disabled":false,"rental_uris":{"android":"levelo://app?vid=3d12e3f4-6b13-4168-b577-adf07acbef79","ios":"levelo://app?vid=3d12e3f4-6b13-4168-b577-adf07acbef79"},"vehicle_type_id":"4","last_reported":1773340721,"current_range_meters":38000,"station_id":"ce4bhbh2rcd13ifvqeqg","pricing_plan_id":"cebpf4jnsgd1na2vs0mg"},{"bike_id":"950bab55-74a0-4c68-94d8-f7bcf82fb789","system_id":"levelo_inurba_marseille","lat":43.27815,"lon":5.40717,"is_reserved":false,"is_disabled":false,"rental_uris":{"android":"levelo://app?vid=950bab55-74a0-4c68-94d8-f7bcf82fb789","ios":"levelo://app?vid=950bab55-74a0-4c68-94d8-f7bcf82fb789"},"vehicle_type_id":"4","last_reported":1773340721,"current_range_meters":25200,"station_id":"ce4bhnh2rcd13ifvqgtg","pricing_plan_id":"cebpf4jnsgd1na2vs0mg"},{"bike_id":"c2f40725-1ed9-4d1d-87ac-56a67ffd2ae7","system_id":"levelo_inurba_marseille","lat":43.26065,"lon":5.39403,"is_reserved":false,"is_disabled":false,"rental_uris":{"android":"levelo://app?vid=c2f40725-1ed9-4d1d-87ac-56a67ffd2ae7","ios":"levelo://app?vid=c2f40725-1ed9-4d1d-87ac-56a67ffd2ae7"},"vehicle_type_id":"4","last_reported":1773340721,"current_range_meters":16800,"station_id":"ce4bhh92rcd13ifvqfj0","pricing_plan_id":"cebpf4jnsgd1na2vs0mg"},{"bike_id":"6d1a4920-8e11-4bfa-8529-40727e99424c","system_id":"levelo_inurba_marseille","lat":43.27937,"lon":5.38759,"is_reserved":false,"is_disabled":false,"rental_uris":{"android":"levelo://app?vid=6d1a4920-8e11-4bfa-8529-40727e99424c","ios":"levelo://app?vid=6d1a4920-8e11-4bfa-8529-40727e99424c"},"vehicle_type_id":"4","last_reported":1773340721,"current_range_meters":14800,"station_id":"ce4bhg12rcd13ifvqf80","pricing_plan_id":"cebpf4jnsgd1na2vs0mg"},{"bike_id":"05fa37af-0792-4d18-b58b-4668400518b4","system_id":"levelo_inurba_marseille","lat":43.24082,"lon":5.37755,"is_reserved":false,"is_disabled":false,"rental_uris":{"android":"levelo://app?vid=05fa37af-0792-4d18-b58b-4668400518b4","ios":"levelo://app?vid=05fa37af-0792-4d18-b58b-4668400518b4"},"vehicle_type_id":"4","last_reported":1773340721,"current_range_meters":27600,"station_id":"ce4bhnp2rcd13ifvqgvg","pricing_plan_id":"cebpf4jnsgd1na2vs0mg"},{"bike_id":"91fd971a-e95c-4480-bf20-ce7812403500","system_id":"levelo_inurba_marseille","lat":43.2706,"lon":5.38288,"is_reserved":false,"is_disabled":false,"rental_uris":{"android":"levelo://app?vid=91fd971a-e95c-4480-bf20-ce7812403500","ios":"levelo://app?vid=91fd971a-e95c-4480-bf20-ce7812403500"},"vehicle_type_id":"4","last_reported":1773340721,"current_range_meters":16800,"station_id":"st_d3n2fo6cfp8s73cte1j0","pricing_plan_id":"cebpf4jnsgd1na2vs0mg"},{"bike_id":"d9d9d211-35fa-4898-a902-988d1e493d45","system_id":"levelo_inurba_marseille","lat":43.30485,"lon":5.3786,"is_reserved":false,"is_disabled":false,"rental_uris":{"android":"levelo://app?vid=d9d9d211-35fa-4898-a902-988d1e493d45","ios":"levelo://app?vid=d9d9d211-35fa-4898-a902-988d1e493d45"},"vehicle_type_id":"4","last_reported":1773340721,"current_range_meters":19600,"station_id":"ce4bgup2rcd13ifvqcn0","pricing_plan_id":"cebpf4jnsgd1na2vs0mg"},{"bike_id":"58050a15-c5ad-4992-9d53-ca68c740d72b","system_id":"levelo_inurba_marseille","lat":43.303,"lon":5.39199,"is_reserved":false,"is_disabled":true,"rental_uris":{"android":"levelo://app?vid=58050a15-c5ad-4992-9d53-ca68c740d72b","ios":"levelo://app?vid=58050a15-c5ad-4992-9d53-ca68c740d72b"},"vehicle_type_id":"4","last_reported":1773340721,"current_range_meters":22000,"station_id":"ce4bgkh2rcd13ifvqbk0","pricing_plan_id":"cebpf4jnsgd1na2vs0mg"},{"bike_id":"988db3b8-861f-418c-a7ec-7ae78131696e","system_id":"levelo_inurba_marseille","lat":43.24686,"lon":5.43347,"is_reserved":false,"is_disabled":false,"rental_uris":{"android":"levelo://app?vid=988db3b8-861f-418c-a7ec-7ae78131696e","ios":"levelo://app?vid=988db3b8-861f-418c-a7ec-7ae78131696e"},"vehicle_type_id":"4","last_reported":1773340721,"current_range_meters":25600,"station_id":"","pricing_plan_id":"cebpf4jnsgd1na2vs0mg"},{"bike_id":"dd854777-f378-4132-94e6-63027cc18b82","system_id":"levelo_inurba_marseille","lat":43.29727,"lon":5.41059,"is_reserved":false,"is_disabled":false,"rental_uris":{"android":"levelo://app?vid=dd854777-f378-4132-94e6-63027cc18b82","ios":"levelo://app?vid=dd854777-f378-4132-94e6-63027cc18b82"},"vehicle_type_id":"4","last_reported":1773340721,"current_range_meters":23200,"station_id":"","pricing_plan_id":"cebpf4jnsgd1na2vs0mg"},{"bike_id":"8834cff0-6eb6-47a0-89df-f92f2d188784","system_id":"levelo_inurba_marseille","lat":43.2965,"lon":5.38802,"is_reserved":false,"is_disabled":false,"rental_uris":{"android":"levelo://app?vid=8834cff0-6eb6-47a0-89df-f92f2d188784","ios":"levelo://app?vid=8834cff0-6eb6-47a0-89df-f92f2d188784"},"vehicle_type_id":"4","last_reported":1773340721,"current_range_meters":27200,"station_id":"","pricing_plan_id":"cebpf4jnsgd1na2vs0mg"},{"bike_id":"35a82536-c165-4433-a2e7-59ec0df78006","system_id":"levelo_inurba_marseille","lat":43.32364,"lon":5.38887,"is_reserved":false,"is_disabled":false,"rental_uris":{"android":"levelo://app?vid=35a82536-c165-4433-a2e7-59ec0df78006","ios":"levelo://app?vid=35a82536-c165-4433-a2e7-59ec0df78006"},"vehicle_type_id":"4","last_reported":1773340721,"current_range_meters":3600,"station_id":"ce4bhqp2rcd13ifvqhog","pricing_plan_id":"cebpf4jnsgd1na2vs0mg"},{"bike_id":"85b5b118-e47b-4adc-aa0c-e9bbc2d708e9","system_id":"levelo_inurba_marseille","lat":43.2743,"lon":5.42472,"is_reserved":false,"is_disabled":false,"rental_uris":{"android":"levelo://app?vid=85b5b118-e47b-4adc-aa0c-e9bbc2d708e9","ios":"levelo://app?vid=85b5b118-e47b-4adc-aa0c-e9bbc2d708e9"},"vehicle_type_id":"4","last_reported":1773340721,"current_range_meters":17600,"station_id":"","pricing_plan_id":"cebpf4jnsgd1na2vs0mg"},{"bike_id":"2bfad22e-a84d-4ec7-8c60-301b2abafffe","system_id":"levelo_inurba_marseille","lat":43.30914,"lon":5.36845,"is_reserved":false,"is_disabled":false,"rental_uris":{"android":"levelo://app?vid=2bfad22e-a84d-4ec7-8c60-301b2abafffe","ios":"levelo://app?vid=2bfad22e-a84d-4ec7-8c60-301b2abafffe"},"vehicle_type_id":"4","last_reported":1773340721,"current_range_meters":11200,"station_id":"ce4bgn92rcd13ifvqbvg","pricing_plan_id":"cebpf4jnsgd1na2vs0mg"},{"bike_id":"532f1fe9-6384-4056-88f3-ddfdd084688a","system_id":"levelo_inurba_marseille","lat":43.28979,"lon":5.42582,"is_reserved":false,"is_disabled":false,"rental_uris":{"android":"levelo://app?vid=532f1fe9-6384-4056-88f3-ddfdd084688a","ios":"levelo://app?vid=532f1fe9-6384-4056-88f3-ddfdd084688a"},"vehicle_type_id":"4","last_reported":1773340721,"current_range_meters":30000,"station_id":"","pricing_plan_id":"cebpf4jnsgd1na2vs0mg"},{"bike_id":"08506998-8ae7-4962-89f3-6ccd37448f52","system_id":"levelo_inurba_marseille","lat":43.29263,"lon":5.36858,"is_reserved":false,"is_disabled":false,"rental_uris":{"android":"levelo://app?vid=08506998-8ae7-4962-89f3-6ccd37448f52","ios":"levelo://app?vid=08506998-8ae7-4962-89f3-6ccd37448f52"},"vehicle_type_id":"4","last_reported":1773340721,"current_range_meters":9200,"station_id":"ce4bhbp2rcd13ifvqesg","pricing_plan_id":"cebpf4jnsgd1na2vs0mg"},{"bike_id":"fc4795bd-7fd3-4c14-9a9b-bcc5f999d4b0","system_id":"levelo_inurba_marseille","lat":43.23963,"lon":5.36633,"is_reserved":false,"is_disabled":false,"rental_uris":{"android":"levelo://app?vid=fc4795bd-7fd3-4c14-9a9b-bcc5f999d4b0","ios":"levelo://app?vid=fc4795bd-7fd3-4c14-9a9b-bcc5f999d4b0"},"vehicle_type_id":"4","last_reported":1773340721,"current_range_meters":32000,"station_id":"ce4bhi12rcd13ifvqfp0","pricing_plan_id":"cebpf4jnsgd1na2vs0mg"},{"bike_id":"bd108c0a-2aa4-4697-8083-b96a642b271a","system_id":"levelo_inurba_marseille","lat":43.28345,"lon":5.38127,"is_reserved":false,"is_disabled":false,"rental_uris":{"android":"levelo://app?vid=bd108c0a-2aa4-4697-8083-b96a642b271a","ios":"levelo://app?vid=bd108c0a-2aa4-4697-8083-b96a642b271a"},"vehicle_type_id":"4","last_reported":1773340721,"current_range_meters":19600,"station_id":"ce4bh412rcd13ifvqdr0","pricing_plan_id":"cebpf4jnsgd1na2vs0mg"},{"bike_id":"452441a4-fd17-4cb2-8173-05348912ffe5","system_id":"levelo_inurba_marseille","lat":43.25506,"lon":5.37633,"is_reserved":false,"is_disabled":false,"rental_uris":{"android":"levelo://app?vid=452441a4-fd17-4cb2-8173-05348912ffe5","ios":"levelo://app?vid=452441a4-fd17-4cb2-8173-05348912ffe5"},"vehicle_type_id":"4","last_reported":1773340721,"current_range_meters":39200,"station_id":"ce4bhh12rcd13ifvqff0","pricing_plan_id":"cebpf4jnsgd1na2vs0mg"},{"bike_id":"714b8057-ec12-4240-acd3-7f97fc6b2ebc","system_id":"levelo_inurba_marseille","lat":43.29757,"lon":5.37105,"is_reserved":false,"is_disabled":false,"rental_uris":{"android":"levelo://app?vid=714b8057-ec12-4240-acd3-7f97fc6b2ebc","ios":"levelo://app?vid=714b8057-ec12-4240-acd3-7f97fc6b2ebc"},"vehicle_type_id":"4","last_reported":1773340721,"current_range_meters":15200,"station_id":"ce4bgop2rcd13ifvqc1g","pricing_plan_id":"cebpf4jnsgd1na2vs0mg"},{"bike_id":"937425a6-6b1f-4d7a-a720-58bd8c05238c","system_id":"levelo_inurba_marseille","lat":43.2939,"lon":5.37921,"is_reserved":false,"is_disabled":false,"rental_uris":{"android":"levelo://app?vid=937425a6-6b1f-4d7a-a720-58bd8c05238c","ios":"levelo://app?vid=937425a6-6b1f-4d7a-a720-58bd8c05238c"},"vehicle_type_id":"4","last_reported":1773340721,"current_range_meters":34800,"station_id":"","pricing_plan_id":"cebpf4jnsgd1na2vs0mg"},{"bike_id":"64987c27-f305-4d9c-82ad-26bef65383d9","system_id":"levelo_inurba_marseille","lat":43.27983,"lon":5.41664,"is_reserved":false,"is_disabled":false,"rental_uris":{"android":"levelo://app?vid=64987c27-f305-4d9c-82ad-26bef65383d9","ios":"levelo://app?vid=64987c27-f305-4d9c-82ad-26bef65383d9"},"vehicle_type_id":"4","last_reported":1773340721,"current_range_meters":12400,"station_id":"ce4bho12rcd13ifvqh1g","pricing_plan_id":"cebpf4jnsgd1na2vs0mg"},{"bike_id":"fc57a216-b9e9-4719-9b45-4a142f6ada59","system_id":"levelo_inurba_marseille","lat":43.30649,"lon":5.40096,"is_reserved":false,"is_disabled":false,"rental_uris":{"android":"levelo://app?vid=fc57a216-b9e9-4719-9b45-4a142f6ada59","ios":"levelo://app?vid=fc57a216-b9e9-4719-9b45-4a142f6ada59"},"vehicle_type_id":"4","last_reported":1773340721,"current_range_meters":23200,"station_id":"ce4bh112rcd13ifvqda0","pricing_plan_id":"cebpf4jnsgd1na2vs0mg"},{"bike_id":"b94c3b6d-7912-4bb7-bd16-b874ff101a3d","system_id":"levelo_inurba_marseille","lat":43.24803,"lon":5.37453,"is_reserved":false,"is_disabled":false,"rental_uris":{"android":"levelo://app?vid=b94c3b6d-7912-4bb7-bd16-b874ff101a3d","ios":"levelo://app?vid=b94c3b6d-7912-4bb7-bd16-b874ff101a3d"},"vehicle_type_id":"4","last_reported":1773340721,"current_range_meters":25200,"station_id":"ce4bhgh2rcd13ifvqfb0","pricing_plan_id":"cebpf4jnsgd1na2vs0mg"},{"bike_id":"54afb379-a9b4-4af3-8a9e-239b9433228c","system_id":"levelo_inurba_marseille","lat":43.29903,"lon":5.43676,"is_reserved":false,"is_disabled":false,"rental_uris":{"android":"levelo://app?vid=54afb379-a9b4-4af3-8a9e-239b9433228c","ios":"levelo://app?vid=54afb379-a9b4-4af3-8a9e-239b9433228c"},"vehicle_type_id":"4","last_reported":1773340721,"current_range_meters":28400,"station_id":"ce4bhpp2rcd13ifvqhfg","pricing_plan_id":"cebpf4jnsgd1na2vs0mg"},{"bike_id":"1866c223-50ab-4283-b8a6-28a247e511e9","system_id":"levelo_inurba_marseille","lat":43.32556,"lon":5.36873,"is_reserved":false,"is_disabled":false,"rental_uris":{"android":"levelo://app?vid=1866c223-50ab-4283-b8a6-28a247e511e9","ios":"levelo://app?vid=1866c223-50ab-4283-b8a6-28a247e511e9"},"vehicle_type_id":"4","last_reported":1773340721,"current_range_meters":38400,"station_id":"","pricing_plan_id":"cebpf4jnsgd1na2vs0mg"},{"bike_id":"5cd054a7-6db6-4228-8bae-654e6486a5cd","system_id":"levelo_inurba_marseille","lat":43.29542,"lon":5.38542,"is_reserved":false,"is_disabled":false,"rental_uris":{"android":"levelo://app?vid=5cd054a7-6db6-4228-8bae-654e6486a5cd","ios":"levelo://app?vid=5cd054a7-6db6-4228-8bae-654e6486a5cd"},"vehicle_type_id":"4","last_reported":1773340721,"current_range_meters":9600,"station_id":"ce4bgih2rcd13ifvqba0","pricing_plan_id":"cebpf4jnsgd1na2vs0mg"},{"bike_id":"c23cfd0f-841e-4311-970a-ae86c511637e","system_id":"levelo_inurba_marseille","lat":43.25586,"lon":5.3826,"is_reserved":false,"is_disabled":true,"rental_uris":{"android":"levelo://app?vid=c23cfd0f-841e-4311-970a-ae86c511637e","ios":"levelo://app?vid=c23cfd0f-841e-4311-970a-ae86c511637e"},"vehicle_type_id":"4","last_reported":1773340721,"current_range_meters":800,"station_id":"ce4bhih2rcd13ifvqfs0","pricing_plan_id":"cebpf4jnsgd1na2vs0mg"},{"bike_id":"20e43ab0-94d8-428f-a180-89c3cb95b8a9","system_id":"levelo_inurba_marseille","lat":43.31271,"lon":5.40174,"is_reserved":false,"is_disabled":false,"rental_uris":{"android":"levelo://app?vid=20e43ab0-94d8-428f-a180-89c3cb95b8a9","ios":"levelo://app?vid=20e43ab0-94d8-428f-a180-89c3cb95b8a9"},"vehicle_type_id":"4","last_reported":1773340721,"current_range_meters":8800,"station_id":"ce4bh092rcd13ifvqd30","pricing_plan_id":"cebpf4jnsgd1na2vs0mg"},{"bike_id":"d6a52614-ad0b-4103-b7eb-9f5537a6b2eb","system_id":"levelo_inurba_marseille","lat":43.29885,"lon":5.38921,"is_reserved":false,"is_disabled":false,"rental_uris":{"android":"levelo://app?vid=d6a52614-ad0b-4103-b7eb-9f5537a6b2eb","ios":"levelo://app?vid=d6a52614-ad0b-4103-b7eb-9f5537a6b2eb"},"vehicle_type_id":"4","last_reported":1773340721,"current_range_meters":36400,"station_id":"ce4bh392rcd13ifvqdl0","pricing_plan_id":"cebpf4jnsgd1na2vs0mg"},{"bike_id":"74cb2b6f-9305-47f1-bb68-6c880d035389","system_id":"levelo_inurba_marseille","lat":43.2962,"lon":5.37156,"is_reserved":false,"is_disabled":false,"rental_uris":{"android":"levelo://app?vid=74cb2b6f-9305-47f1-bb68-6c880d035389","ios":"levelo://app?vid=74cb2b6f-9305-47f1-bb68-6c880d035389"},"vehicle_type_id":"4","last_reported":1773340721,"current_range_meters":39200,"station_id":"ce4bgnh2rcd13ifvqc0g","pricing_plan_id":"cebpf4jnsgd1na2vs0mg"},{"bike_id":"58622676-75ce-48ef-b32a-ec505bb9dd92","system_id":"levelo_inurba_marseille","lat":43.31422,"lon":5.38526,"is_reserved":false,"is_disabled":false,"rental_uris":{"android":"levelo://app?vid=58622676-75ce-48ef-b32a-ec505bb9dd92","ios":"levelo://app?vid=58622676-75ce-48ef-b32a-ec505bb9dd92"},"vehicle_type_id":"4","last_reported":1773340721,"current_range_meters":33600,"station_id":"","pricing_plan_id":"cebpf4jnsgd1na2vs0mg"},{"bike_id":"85027943-df55-416f-9da1-ea4ca84b0bd0","system_id":"levelo_inurba_marseille","lat":43.29179,"lon":5.37155,"is_reserved":false,"is_disabled":false,"rental_uris":{"android":"levelo://app?vid=85027943-df55-416f-9da1-ea4ca84b0bd0","ios":"levelo://app?vid=85027943-df55-416f-9da1-ea4ca84b0bd0"},"vehicle_type_id":"4","last_reported":1773340721,"current_range_meters":36000,"station_id":"ce4bha92rcd13ifvqeh0","pricing_plan_id":"cebpf4jnsgd1na2vs0mg"},{"bike_id":"d0eebcb7-9745-4c49-a9e4-a6e32a030f1c","system_id":"levelo_inurba_marseille","lat":43.25579,"lon":5.38231,"is_reserved":false,"is_disabled":false,"rental_uris":{"android":"levelo://app?vid=d0eebcb7-9745-4c49-a9e4-a6e32a030f1c","ios":"levelo://app?vid=d0eebcb7-9745-4c49-a9e4-a6e32a030f1c"},"vehicle_type_id":"4","last_reported":1773340721,"current_range_meters":30000,"station_id":"ce4bhih2rcd13ifvqfs0","pricing_plan_id":"cebpf4jnsgd1na2vs0mg"},{"bike_id":"d2bcd2b3-b9c0-44b8-b65e-328220c5307e","system_id":"levelo_inurba_marseille","lat":43.29116,"lon":5.43276,"is_reserved":false,"is_disabled":false,"rental_uris":{"android":"levelo://app?vid=d2bcd2b3-b9c0-44b8-b65e-328220c5307e","ios":"levelo://app?vid=d2bcd2b3-b9c0-44b8-b65e-328220c5307e"},"vehicle_type_id":"4","last_reported":1773340721,"current_range_meters":38800,"station_id":"","pricing_plan_id":"cebpf4jnsgd1na2vs0mg"},{"bike_id":"2cfb7bc1-ec62-4155-a8fb-fcdb094aa3f6","system_id":"levelo_inurba_marseille","lat":43.29658,"lon":5.37653,"is_reserved":false,"is_disabled":false,"rental_uris":{"android":"levelo://app?vid=2cfb7bc1-ec62-4155-a8fb-fcdb094aa3f6","ios":"levelo://app?vid=2cfb7bc1-ec62-4155-a8fb-fcdb094aa3f6"},"vehicle_type_id":"4","last_reported":1773340721,"current_range_meters":3200,"station_id":"","pricing_plan_id":"cebpf4jnsgd1na2vs0mg"},{"bike_id":"801e310e-d83e-452a-827b-f0f43a0c1cca","system_id":"levelo_inurba_marseille","lat":43.28195,"lon":5.42663,"is_reserved":false,"is_disabled":false,"rental_uris":{"android":"levelo://app?vid=801e310e-d83e-452a-827b-f0f43a0c1cca","ios":"levelo://app?vid=801e310e-d83e-452a-827b-f0f43a0c1cca"},"vehicle_type_id":"4","last_reported":1773340721,"current_range_meters":23200,"station_id":"ce4bhnh2rcd13ifvqgug","pricing_plan_id":"cebpf4jnsgd1na2vs0mg"},{"bike_id":"a50db47c-b4f2-4a58-ae7d-0a4f7384612e","system_id":"levelo_inurba_marseille","lat":43.29888,"lon":5.37594,"is_reserved":false,"is_disabled":false,"rental_uris":{"android":"levelo://app?vid=a50db47c-b4f2-4a58-ae7d-0a4f7384612e","ios":"levelo://app?vid=a50db47c-b4f2-4a58-ae7d-0a4f7384612e"},"vehicle_type_id":"4","last_reported":1773340721,"current_range_meters":32000,"station_id":"","pricing_plan_id":"cebpf4jnsgd1na2vs0mg"},{"bike_id":"896440e6-cef8-4268-bb86-ac2c6e2de747","system_id":"levelo_inurba_marseille","lat":43.28476,"lon":5.48397,"is_reserved":false,"is_disabled":false,"rental_uris":{"android":"levelo://app?vid=896440e6-cef8-4268-bb86-ac2c6e2de747","ios":"levelo://app?vid=896440e6-cef8-4268-bb86-ac2c6e2de747"},"vehicle_type_id":"4","last_reported":1773340721,"current_range_meters":28800,"station_id":"","pricing_plan_id":"cebpf4jnsgd1na2vs0mg"},{"bike_id":"efdefc2a-9a7d-459e-8b4a-7fc2193f98da","system_id":"levelo_inurba_marseille","lat":43.3031,"lon":5.39212,"is_reserved":false,"is_disabled":true,"rental_uris":{"android":"levelo://app?vid=efdefc2a-9a7d-459e-8b4a-7fc2193f98da","ios":"levelo://app?vid=efdefc2a-9a7d-459e-8b4a-7fc2193f98da"},"vehicle_type_id":"4","last_reported":1773340721,"current_range_meters":1600,"station_id":"ce4bgkh2rcd13ifvqbk0","pricing_plan_id":"cebpf4jnsgd1na2vs0mg"},{"bike_id":"2c1215f2-9624-4e50-bbbb-a53264cdd31e","system_id":"levelo_inurba_marseille","lat":43.28482,"lon":5.484,"is_reserved":false,"is_disabled":false,"rental_uris":{"android":"levelo://app?vid=2c1215f2-9624-4e50-bbbb-a53264cdd31e","ios":"levelo://app?vid=2c1215f2-9624-4e50-bbbb-a53264cdd31e"},"vehicle_type_id":"4","last_reported":1773340721,"current_range_meters":16400,"station_id":"","pricing_plan_id":"cebpf4jnsgd1na2vs0mg"},{"bike_id":"e61d1d3b-66e5-4923-a35a-3360aa8e6d5b","system_id":"levelo_inurba_marseille","lat":43.29793,"lon":5.38101,"is_reserved":false,"is_disabled":false,"rental_uris":{"android":"levelo://app?vid=e61d1d3b-66e5-4923-a35a-3360aa8e6d5b","ios":"levelo://app?vid=e61d1d3b-66e5-4923-a35a-3360aa8e6d5b"},"vehicle_type_id":"4","last_reported":1773340721,"current_range_meters":4000,"station_id":"ce4bgip2rcd13ifvqbb0","pricing_plan_id":"cebpf4jnsgd1na2vs0mg"},{"bike_id":"c1db54c2-038e-4f3d-a503-c0e3fc6c96ed","system_id":"levelo_inurba_marseille","lat":43.33553,"lon":5.37466,"is_reserved":false,"is_disabled":false,"rental_uris":{"android":"levelo://app?vid=c1db54c2-038e-4f3d-a503-c0e3fc6c96ed","ios":"levelo://app?vid=c1db54c2-038e-4f3d-a503-c0e3fc6c96ed"},"vehicle_type_id":"4","last_reported":1773340721,"current_range_meters":14400,"station_id":"st_d46tts09ee8s73dlu43g","pricing_plan_id":"cebpf4jnsgd1na2vs0mg"},{"bike_id":"a0ab89fd-d4e3-4039-8377-577b0acf001d","system_id":"levelo_inurba_marseille","lat":43.24368,"lon":5.44106,"is_reserved":false,"is_disabled":true,"rental_uris":{"android":"levelo://app?vid=a0ab89fd-d4e3-4039-8377-577b0acf001d","ios":"levelo://app?vid=a0ab89fd-d4e3-4039-8377-577b0acf001d"},"vehicle_type_id":"4","last_reported":1773340721,"current_range_meters":8000,"station_id":"","pricing_plan_id":"cebpf4jnsgd1na2vs0mg"},{"bike_id":"a5f0fcf2-4428-466f-8d7e-9ffbba7bbbc4","system_id":"levelo_inurba_marseille","lat":43.29897,"lon":5.39761,"is_reserved":false,"is_disabled":false,"rental_uris":{"android":"levelo://app?vid=a5f0fcf2-4428-466f-8d7e-9ffbba7bbbc4","ios":"levelo://app?vid=a5f0fcf2-4428-466f-8d7e-9ffbba7bbbc4"},"vehicle_type_id":"4","last_reported":1773340721,"current_range_meters":16800,"station_id":"ce4bh0h2rcd13ifvqd50","pricing_plan_id":"cebpf4jnsgd1na2vs0mg"},{"bike_id":"ae975228-6ce1-4404-869e-638b38cc98b5","system_id":"levelo_inurba_marseille","lat":43.30951,"lon":5.39033,"is_reserved":false,"is_disabled":false,"rental_uris":{"android":"levelo://app?vid=ae975228-6ce1-4404-869e-638b38cc98b5","ios":"levelo://app?vid=ae975228-6ce1-4404-869e-638b38cc98b5"},"vehicle_type_id":"4","last_reported":1773340721,"current_range_meters":2800,"station_id":"ce4bgup2rcd13ifvqco0","pricing_plan_id":"cebpf4jnsgd1na2vs0mg"},{"bike_id":"ac3c666b-fd11-423e-bcb6-f934ffba6dff","system_id":"levelo_inurba_marseille","lat":43.28715,"lon":5.37924,"is_reserved":false,"is_disabled":false,"rental_uris":{"android":"levelo://app?vid=ac3c666b-fd11-423e-bcb6-f934ffba6dff","ios":"levelo://app?vid=ac3c666b-fd11-423e-bcb6-f934ffba6dff"},"vehicle_type_id":"4","last_reported":1773340721,"current_range_meters":34800,"station_id":"ce4bh9p2rcd13ifvqec0","pricing_plan_id":"cebpf4jnsgd1na2vs0mg"},{"bike_id":"48095d59-6ef5-49df-85b8-b58fde43fb8e","system_id":"levelo_inurba_marseille","lat":43.29035,"lon":5.35911,"is_reserved":false,"is_disabled":false,"rental_uris":{"android":"levelo://app?vid=48095d59-6ef5-49df-85b8-b58fde43fb8e","ios":"levelo://app?vid=48095d59-6ef5-49df-85b8-b58fde43fb8e"},"vehicle_type_id":"4","last_reported":1773340721,"current_range_meters":38400,"station_id":"ce4bha92rcd13ifvqeg0","pricing_plan_id":"cebpf4jnsgd1na2vs0mg"},{"bike_id":"074abf32-ac3f-4657-8880-be02438a7ff0","system_id":"levelo_inurba_marseille","lat":43.23189,"lon":5.39988,"is_reserved":false,"is_disabled":false,"rental_uris":{"android":"levelo://app?vid=074abf32-ac3f-4657-8880-be02438a7ff0","ios":"levelo://app?vid=074abf32-ac3f-4657-8880-be02438a7ff0"},"vehicle_type_id":"4","last_reported":1773340721,"current_range_meters":39200,"station_id":"ce4bhn12rcd13ifvqgqg","pricing_plan_id":"cebpf4jnsgd1na2vs0mg"},{"bike_id":"e8b7d766-9ece-4870-a1b8-5b316a1b8e67","system_id":"levelo_inurba_marseille","lat":43.22578,"lon":5.41663,"is_reserved":false,"is_disabled":false,"rental_uris":{"android":"levelo://app?vid=e8b7d766-9ece-4870-a1b8-5b316a1b8e67","ios":"levelo://app?vid=e8b7d766-9ece-4870-a1b8-5b316a1b8e67"},"vehicle_type_id":"4","last_reported":1773340721,"current_range_meters":14000,"station_id":"st_d2o4gvlbi1j2169b742g","pricing_plan_id":"cebpf4jnsgd1na2vs0mg"},{"bike_id":"d6e33741-be01-4184-a659-f0a031ff17ef","system_id":"levelo_inurba_marseille","lat":43.28181,"lon":5.39043,"is_reserved":false,"is_disabled":true,"rental_uris":{"android":"levelo://app?vid=d6e33741-be01-4184-a659-f0a031ff17ef","ios":"levelo://app?vid=d6e33741-be01-4184-a659-f0a031ff17ef"},"vehicle_type_id":"4","last_reported":1773340721,"current_range_meters":38000,"station_id":"ce4bhn92rcd13ifvqgsg","pricing_plan_id":"cebpf4jnsgd1na2vs0mg"},{"bike_id":"7829957c-d6d0-4e67-9596-f2c0eb93d3a3","system_id":"levelo_inurba_marseille","lat":43.2465,"lon":5.38893,"is_reserved":false,"is_disabled":false,"rental_uris":{"android":"levelo://app?vid=7829957c-d6d0-4e67-9596-f2c0eb93d3a3","ios":"levelo://app?vid=7829957c-d6d0-4e67-9596-f2c0eb93d3a3"},"vehicle_type_id":"4","last_reported":1773340721,"current_range_meters":6000,"station_id":"ce4bhg12rcd13ifvqf60","pricing_plan_id":"cebpf4jnsgd1na2vs0mg"},{"bike_id":"24e39cc1-8412-47be-81a7-dccf2b449598","system_id":"levelo_inurba_marseille","lat":43.26492,"lon":5.39559,"is_reserved":false,"is_disabled":false,"rental_uris":{"android":"levelo://app?vid=24e39cc1-8412-47be-81a7-dccf2b449598","ios":"levelo://app?vid=24e39cc1-8412-47be-81a7-dccf2b449598"},"vehicle_type_id":"4","last_reported":1773340721,"current_range_meters":17600,"station_id":"ce4bhi12rcd13ifvqfq0","pricing_plan_id":"cebpf4jnsgd1na2vs0mg"},{"bike_id":"4f8d09be-29e1-4f68-ac31-b165b92a4407","system_id":"levelo_inurba_marseille","lat":43.29804,"lon":5.40407,"is_reserved":false,"is_disabled":true,"rental_uris":{"android":"levelo://app?vid=4f8d09be-29e1-4f68-ac31-b165b92a4407","ios":"levelo://app?vid=4f8d09be-29e1-4f68-ac31-b165b92a4407"},"vehicle_type_id":"4","last_reported":1773340721,"current_range_meters":0,"station_id":"ce4bh112rcd13ifvqd90","pricing_plan_id":"cebpf4jnsgd1na2vs0mg"},{"bike_id":"e50c6797-fb66-441b-97d0-c7fbbc3eb9c6","system_id":"levelo_inurba_marseille","lat":43.31716,"lon":5.43706,"is_reserved":false,"is_disabled":false,"rental_uris":{"android":"levelo://app?vid=e50c6797-fb66-441b-97d0-c7fbbc3eb9c6","ios":"levelo://app?vid=e50c6797-fb66-441b-97d0-c7fbbc3eb9c6"},"vehicle_type_id":"4","last_reported":1773340721,"current_range_meters":25200,"station_id":"ce4bhp92rcd13ifvqhcg","pricing_plan_id":"cebpf4jnsgd1na2vs0mg"},{"bike_id":"e1a567ea-8ddb-4718-be58-0ee3ac742fe9","system_id":"levelo_inurba_marseille","lat":43.31111,"lon":5.37774,"is_reserved":false,"is_disabled":false,"rental_uris":{"android":"levelo://app?vid=e1a567ea-8ddb-4718-be58-0ee3ac742fe9","ios":"levelo://app?vid=e1a567ea-8ddb-4718-be58-0ee3ac742fe9"},"vehicle_type_id":"4","last_reported":1773340721,"current_range_meters":28800,"station_id":"ce4bgt92rcd13ifvqcg0","pricing_plan_id":"cebpf4jnsgd1na2vs0mg"},{"bike_id":"95d1c9fd-c8e2-46c4-a894-cc37cf1e2a5f","system_id":"levelo_inurba_marseille","lat":43.308037,"lon":5.381544,"is_reserved":false,"is_disabled":false,"rental_uris":{"android":"levelo://app?vid=95d1c9fd-c8e2-46c4-a894-cc37cf1e2a5f","ios":"levelo://app?vid=95d1c9fd-c8e2-46c4-a894-cc37cf1e2a5f"},"vehicle_type_id":"4","last_reported":1773340721,"current_range_meters":11200,"station_id":"ce4bgt12rcd13ifvqce0","pricing_plan_id":"cebpf4jnsgd1na2vs0mg"},{"bike_id":"6f0a3cc3-6813-4500-a3c6-047f7386dff2","system_id":"levelo_inurba_marseille","lat":43.27169,"lon":5.4099,"is_reserved":false,"is_disabled":false,"rental_uris":{"android":"levelo://app?vid=6f0a3cc3-6813-4500-a3c6-047f7386dff2","ios":"levelo://app?vid=6f0a3cc3-6813-4500-a3c6-047f7386dff2"},"vehicle_type_id":"4","last_reported":1773340721,"current_range_meters":40000,"station_id":"ce4bhl12rcd13ifvqgf0","pricing_plan_id":"cebpf4jnsgd1na2vs0mg"},{"bike_id":"ba4b4f74-cb9a-4295-9789-1160d340511d","system_id":"levelo_inurba_marseille","lat":43.29986,"lon":5.38504,"is_reserved":false,"is_disabled":false,"rental_uris":{"android":"levelo://app?vid=ba4b4f74-cb9a-4295-9789-1160d340511d","ios":"levelo://app?vid=ba4b4f74-cb9a-4295-9789-1160d340511d"},"vehicle_type_id":"4","last_reported":1773340721,"current_range_meters":6800,"station_id":"ce4bgj92rcd13ifvqbd0","pricing_plan_id":"cebpf4jnsgd1na2vs0mg"},{"bike_id":"7c5d90d1-8ba7-4d11-a859-9263fa5d367b","system_id":"levelo_inurba_marseille","lat":43.337444,"lon":5.374475,"is_reserved":false,"is_disabled":true,"rental_uris":{"android":"levelo://app?vid=7c5d90d1-8ba7-4d11-a859-9263fa5d367b","ios":"levelo://app?vid=7c5d90d1-8ba7-4d11-a859-9263fa5d367b"},"vehicle_type_id":"4","last_reported":1773340721,"current_range_meters":6400,"station_id":"","pricing_plan_id":"cebpf4jnsgd1na2vs0mg"},{"bike_id":"1fdc5e31-482d-45cd-b868-48b238ba2e13","system_id":"levelo_inurba_marseille","lat":43.29434,"lon":5.39774,"is_reserved":false,"is_disabled":false,"rental_uris":{"android":"levelo://app?vid=1fdc5e31-482d-45cd-b868-48b238ba2e13","ios":"levelo://app?vid=1fdc5e31-482d-45cd-b868-48b238ba2e13"},"vehicle_type_id":"4","last_reported":1773340721,"current_range_meters":22400,"station_id":"ce4bh3h2rcd13ifvqdo0","pricing_plan_id":"cebpf4jnsgd1na2vs0mg"},{"bike_id":"e039f144-1df4-4a8b-8eff-9d9c89994020","system_id":"levelo_inurba_marseille","lat":43.29972,"lon":5.38506,"is_reserved":false,"is_disabled":true,"rental_uris":{"android":"levelo://app?vid=e039f144-1df4-4a8b-8eff-9d9c89994020","ios":"levelo://app?vid=e039f144-1df4-4a8b-8eff-9d9c89994020"},"vehicle_type_id":"4","last_reported":1773340721,"current_range_meters":0,"station_id":"ce4bgj92rcd13ifvqbd0","pricing_plan_id":"cebpf4jnsgd1na2vs0mg"},{"bike_id":"f62cbee2-12e5-4cdd-bfbc-04088f9f32fa","system_id":"levelo_inurba_marseille","lat":43.28475,"lon":5.48389,"is_reserved":false,"is_disabled":false,"rental_uris":{"android":"levelo://app?vid=f62cbee2-12e5-4cdd-bfbc-04088f9f32fa","ios":"levelo://app?vid=f62cbee2-12e5-4cdd-bfbc-04088f9f32fa"},"vehicle_type_id":"4","last_reported":1773340721,"current_range_meters":14800,"station_id":"","pricing_plan_id":"cebpf4jnsgd1na2vs0mg"},{"bike_id":"417f56ab-a693-48a1-9a01-08fefab7c6bf","system_id":"levelo_inurba_marseille","lat":43.28879,"lon":5.38011,"is_reserved":false,"is_disabled":false,"rental_uris":{"android":"levelo://app?vid=417f56ab-a693-48a1-9a01-08fefab7c6bf","ios":"levelo://app?vid=417f56ab-a693-48a1-9a01-08fefab7c6bf"},"vehicle_type_id":"4","last_reported":1773340721,"current_range_meters":8000,"station_id":"","pricing_plan_id":"cebpf4jnsgd1na2vs0mg"},{"bike_id":"8a1abf3f-cc2b-42bf-b1b6-ce8af145558d","system_id":"levelo_inurba_marseille","lat":43.30951,"lon":5.41058,"is_reserved":false,"is_disabled":false,"rental_uris":{"android":"levelo://app?vid=8a1abf3f-cc2b-42bf-b1b6-ce8af145558d","ios":"levelo://app?vid=8a1abf3f-cc2b-42bf-b1b6-ce8af145558d"},"vehicle_type_id":"4","last_reported":1773340721,"current_range_meters":35200,"station_id":"","pricing_plan_id":"cebpf4jnsgd1na2vs0mg"},{"bike_id":"c23dc481-3ca2-42c0-8f9f-0d7f549d4b8a","system_id":"levelo_inurba_marseille","lat":43.29779,"lon":5.37108,"is_reserved":false,"is_disabled":false,"rental_uris":{"android":"levelo://app?vid=c23dc481-3ca2-42c0-8f9f-0d7f549d4b8a","ios":"levelo://app?vid=c23dc481-3ca2-42c0-8f9f-0d7f549d4b8a"},"vehicle_type_id":"4","last_reported":1773340721,"current_range_meters":21600,"station_id":"ce4bgop2rcd13ifvqc1g","pricing_plan_id":"cebpf4jnsgd1na2vs0mg"},{"bike_id":"e824a880-56b7-440e-8a54-db91d8597347","system_id":"levelo_inurba_marseille","lat":43.23197,"lon":5.35577,"is_reserved":false,"is_disabled":false,"rental_uris":{"android":"levelo://app?vid=e824a880-56b7-440e-8a54-db91d8597347","ios":"levelo://app?vid=e824a880-56b7-440e-8a54-db91d8597347"},"vehicle_type_id":"4","last_reported":1773340721,"current_range_meters":14800,"station_id":"ce4bhu92rcd13ifvqi70","pricing_plan_id":"cebpf4jnsgd1na2vs0mg"},{"bike_id":"ba3a231f-10a0-4302-b0e7-08f11861cd04","system_id":"levelo_inurba_marseille","lat":43.28496,"lon":5.48355,"is_reserved":false,"is_disabled":false,"rental_uris":{"android":"levelo://app?vid=ba3a231f-10a0-4302-b0e7-08f11861cd04","ios":"levelo://app?vid=ba3a231f-10a0-4302-b0e7-08f11861cd04"},"vehicle_type_id":"4","last_reported":1773340721,"current_range_meters":36400,"station_id":"","pricing_plan_id":"cebpf4jnsgd1na2vs0mg"},{"bike_id":"a6cf7359-8e0f-4217-b2ed-045a7193aac0","system_id":"levelo_inurba_marseille","lat":43.29931,"lon":5.37484,"is_reserved":false,"is_disabled":false,"rental_uris":{"android":"levelo://app?vid=a6cf7359-8e0f-4217-b2ed-045a7193aac0","ios":"levelo://app?vid=a6cf7359-8e0f-4217-b2ed-045a7193aac0"},"vehicle_type_id":"4","last_reported":1773340721,"current_range_meters":9600,"station_id":"ce4bgjh2rcd13ifvqbg0","pricing_plan_id":"cebpf4jnsgd1na2vs0mg"},{"bike_id":"352c9f7d-89b4-42e5-9e2e-76d972a274bd","system_id":"levelo_inurba_marseille","lat":43.2891,"lon":5.42926,"is_reserved":false,"is_disabled":false,"rental_uris":{"android":"levelo://app?vid=352c9f7d-89b4-42e5-9e2e-76d972a274bd","ios":"levelo://app?vid=352c9f7d-89b4-42e5-9e2e-76d972a274bd"},"vehicle_type_id":"4","last_reported":1773340721,"current_range_meters":6800,"station_id":"","pricing_plan_id":"cebpf4jnsgd1na2vs0mg"},{"bike_id":"c59a5209-1b70-42df-8250-859beecf23e1","system_id":"levelo_inurba_marseille","lat":43.23206,"lon":5.35548,"is_reserved":false,"is_disabled":false,"rental_uris":{"android":"levelo://app?vid=c59a5209-1b70-42df-8250-859beecf23e1","ios":"levelo://app?vid=c59a5209-1b70-42df-8250-859beecf23e1"},"vehicle_type_id":"4","last_reported":1773340721,"current_range_meters":34800,"station_id":"ce4bhu92rcd13ifvqi70","pricing_plan_id":"cebpf4jnsgd1na2vs0mg"},{"bike_id":"e96914ea-9f49-45f4-990f-f623d343ff11","system_id":"levelo_inurba_marseille","lat":43.29202,"lon":5.36056,"is_reserved":false,"is_disabled":true,"rental_uris":{"android":"levelo://app?vid=e96914ea-9f49-45f4-990f-f623d343ff11","ios":"levelo://app?vid=e96914ea-9f49-45f4-990f-f623d343ff11"},"vehicle_type_id":"4","last_reported":1773340721,"current_range_meters":8800,"station_id":"ce4bhbh2rcd13ifvqeqg","pricing_plan_id":"cebpf4jnsgd1na2vs0mg"},{"bike_id":"fed428a6-a508-4132-94d7-783075e10fe3","system_id":"levelo_inurba_marseille","lat":43.32359,"lon":5.36704,"is_reserved":false,"is_disabled":false,"rental_uris":{"android":"levelo://app?vid=fed428a6-a508-4132-94d7-783075e10fe3","ios":"levelo://app?vid=fed428a6-a508-4132-94d7-783075e10fe3"},"vehicle_type_id":"4","last_reported":1773340721,"current_range_meters":38400,"station_id":"ce4bhsh2rcd13ifvqi2g","pricing_plan_id":"cebpf4jnsgd1na2vs0mg"},{"bike_id":"ea00e583-ef30-402a-aac4-1bed2c6ab8e2","system_id":"levelo_inurba_marseille","lat":43.21755,"lon":5.34595,"is_reserved":false,"is_disabled":false,"rental_uris":{"android":"levelo://app?vid=ea00e583-ef30-402a-aac4-1bed2c6ab8e2","ios":"levelo://app?vid=ea00e583-ef30-402a-aac4-1bed2c6ab8e2"},"vehicle_type_id":"4","last_reported":1773340721,"current_range_meters":28000,"station_id":"st_cvj6r9ubvosntc0bgbag","pricing_plan_id":"cebpf4jnsgd1na2vs0mg"},{"bike_id":"ea96b6eb-8d9f-431a-b04d-209f4015c2d4","system_id":"levelo_inurba_marseille","lat":43.24168,"lon":5.36392,"is_reserved":false,"is_disabled":false,"rental_uris":{"android":"levelo://app?vid=ea96b6eb-8d9f-431a-b04d-209f4015c2d4","ios":"levelo://app?vid=ea96b6eb-8d9f-431a-b04d-209f4015c2d4"},"vehicle_type_id":"4","last_reported":1773340721,"current_range_meters":14400,"station_id":"cpo36qri1sfpv3e86is0","pricing_plan_id":"cebpf4jnsgd1na2vs0mg"},{"bike_id":"59ffbc17-04c6-4d4b-bc4e-0d52234fc434","system_id":"levelo_inurba_marseille","lat":43.29992,"lon":5.38495,"is_reserved":false,"is_disabled":false,"rental_uris":{"android":"levelo://app?vid=59ffbc17-04c6-4d4b-bc4e-0d52234fc434","ios":"levelo://app?vid=59ffbc17-04c6-4d4b-bc4e-0d52234fc434"},"vehicle_type_id":"4","last_reported":1773340721,"current_range_meters":3600,"station_id":"ce4bgj92rcd13ifvqbd0","pricing_plan_id":"cebpf4jnsgd1na2vs0mg"},{"bike_id":"035b30d5-a74b-4e35-8731-fb649d854586","system_id":"levelo_inurba_marseille","lat":43.2922,"lon":5.36091,"is_reserved":false,"is_disabled":false,"rental_uris":{"android":"levelo://app?vid=035b30d5-a74b-4e35-8731-fb649d854586","ios":"levelo://app?vid=035b30d5-a74b-4e35-8731-fb649d854586"},"vehicle_type_id":"4","last_reported":1773340721,"current_range_meters":24800,"station_id":"ce4bhbh2rcd13ifvqeqg","pricing_plan_id":"cebpf4jnsgd1na2vs0mg"},{"bike_id":"e8e891cf-164b-4375-8667-e5eaa1ef09df","system_id":"levelo_inurba_marseille","lat":43.31719,"lon":5.39032,"is_reserved":false,"is_disabled":false,"rental_uris":{"android":"levelo://app?vid=e8e891cf-164b-4375-8667-e5eaa1ef09df","ios":"levelo://app?vid=e8e891cf-164b-4375-8667-e5eaa1ef09df"},"vehicle_type_id":"4","last_reported":1773340721,"current_range_meters":34000,"station_id":"ce4bhqp2rcd13ifvqhng","pricing_plan_id":"cebpf4jnsgd1na2vs0mg"},{"bike_id":"71215890-b208-4949-a1ef-27199c05f5b4","system_id":"levelo_inurba_marseille","lat":43.31327,"lon":5.39698,"is_reserved":false,"is_disabled":false,"rental_uris":{"android":"levelo://app?vid=71215890-b208-4949-a1ef-27199c05f5b4","ios":"levelo://app?vid=71215890-b208-4949-a1ef-27199c05f5b4"},"vehicle_type_id":"4","last_reported":1773340721,"current_range_meters":18000,"station_id":"ce4bgvp2rcd13ifvqcu0","pricing_plan_id":"cebpf4jnsgd1na2vs0mg"},{"bike_id":"0623d3e8-8e06-48f4-9ba1-80d3579a4110","system_id":"levelo_inurba_marseille","lat":43.28111,"lon":5.37871,"is_reserved":false,"is_disabled":false,"rental_uris":{"android":"levelo://app?vid=0623d3e8-8e06-48f4-9ba1-80d3579a4110","ios":"levelo://app?vid=0623d3e8-8e06-48f4-9ba1-80d3579a4110"},"vehicle_type_id":"4","last_reported":1773340721,"current_range_meters":6800,"station_id":"ce4bha12rcd13ifvqee0","pricing_plan_id":"cebpf4jnsgd1na2vs0mg"},{"bike_id":"5f24ad05-f8bb-464f-a684-4b00abf8005a","system_id":"levelo_inurba_marseille","lat":43.29973,"lon":5.38502,"is_reserved":false,"is_disabled":false,"rental_uris":{"android":"levelo://app?vid=5f24ad05-f8bb-464f-a684-4b00abf8005a","ios":"levelo://app?vid=5f24ad05-f8bb-464f-a684-4b00abf8005a"},"vehicle_type_id":"4","last_reported":1773340721,"current_range_meters":14800,"station_id":"ce4bgj92rcd13ifvqbd0","pricing_plan_id":"cebpf4jnsgd1na2vs0mg"},{"bike_id":"eb7402b0-d2c7-4043-aa11-cd75870274a3","system_id":"levelo_inurba_marseille","lat":43.26806,"lon":5.40272,"is_reserved":false,"is_disabled":false,"rental_uris":{"android":"levelo://app?vid=eb7402b0-d2c7-4043-aa11-cd75870274a3","ios":"levelo://app?vid=eb7402b0-d2c7-4043-aa11-cd75870274a3"},"vehicle_type_id":"4","last_reported":1773340721,"current_range_meters":40000,"station_id":"ce501612rcd8frsf0b60","pricing_plan_id":"cebpf4jnsgd1na2vs0mg"},{"bike_id":"cadb7f92-fd00-47b7-bb8a-b7f1f3d5d7d0","system_id":"levelo_inurba_marseille","lat":43.26032,"lon":5.37554,"is_reserved":false,"is_disabled":false,"rental_uris":{"android":"levelo://app?vid=cadb7f92-fd00-47b7-bb8a-b7f1f3d5d7d0","ios":"levelo://app?vid=cadb7f92-fd00-47b7-bb8a-b7f1f3d5d7d0"},"vehicle_type_id":"4","last_reported":1773340721,"current_range_meters":26800,"station_id":"ce4bhgh2rcd13ifvqfa0","pricing_plan_id":"cebpf4jnsgd1na2vs0mg"},{"bike_id":"39c348ea-6dfe-4a57-81bd-720e7531649a","system_id":"levelo_inurba_marseille","lat":43.29033,"lon":5.38597,"is_reserved":false,"is_disabled":true,"rental_uris":{"android":"levelo://app?vid=39c348ea-6dfe-4a57-81bd-720e7531649a","ios":"levelo://app?vid=39c348ea-6dfe-4a57-81bd-720e7531649a"},"vehicle_type_id":"4","last_reported":1773340721,"current_range_meters":1200,"station_id":"ce4bh4p2rcd13ifvqe0g","pricing_plan_id":"cebpf4jnsgd1na2vs0mg"},{"bike_id":"17092a17-ecc2-4869-9543-a7b9eb4bf6ef","system_id":"levelo_inurba_marseille","lat":43.21191,"lon":5.35078,"is_reserved":false,"is_disabled":false,"rental_uris":{"android":"levelo://app?vid=17092a17-ecc2-4869-9543-a7b9eb4bf6ef","ios":"levelo://app?vid=17092a17-ecc2-4869-9543-a7b9eb4bf6ef"},"vehicle_type_id":"4","last_reported":1773340721,"current_range_meters":11200,"station_id":"st_cvj6sg6p6f1abm77japg","pricing_plan_id":"cebpf4jnsgd1na2vs0mg"},{"bike_id":"0a2f9b28-6219-4106-b011-3026133a767c","system_id":"levelo_inurba_marseille","lat":43.29574,"lon":5.38147,"is_reserved":false,"is_disabled":true,"rental_uris":{"android":"levelo://app?vid=0a2f9b28-6219-4106-b011-3026133a767c","ios":"levelo://app?vid=0a2f9b28-6219-4106-b011-3026133a767c"},"vehicle_type_id":"4","last_reported":1773340721,"current_range_meters":33200,"station_id":"ce4bgl12rcd13ifvqbo0","pricing_plan_id":"cebpf4jnsgd1na2vs0mg"},{"bike_id":"a1f09277-e6a5-4fd5-b342-fa86eaa2b051","system_id":"levelo_inurba_marseille","lat":43.29832,"lon":5.44062,"is_reserved":false,"is_disabled":false,"rental_uris":{"android":"levelo://app?vid=a1f09277-e6a5-4fd5-b342-fa86eaa2b051","ios":"levelo://app?vid=a1f09277-e6a5-4fd5-b342-fa86eaa2b051"},"vehicle_type_id":"4","last_reported":1773340721,"current_range_meters":19600,"station_id":"st_d3jp68qikq2c7381ktn0","pricing_plan_id":"cebpf4jnsgd1na2vs0mg"},{"bike_id":"cc18ab96-ca5d-4373-a7ba-87da37ebe5bc","system_id":"levelo_inurba_marseille","lat":43.29047,"lon":5.35938,"is_reserved":false,"is_disabled":false,"rental_uris":{"android":"levelo://app?vid=cc18ab96-ca5d-4373-a7ba-87da37ebe5bc","ios":"levelo://app?vid=cc18ab96-ca5d-4373-a7ba-87da37ebe5bc"},"vehicle_type_id":"4","last_reported":1773340721,"current_range_meters":34800,"station_id":"ce4bha92rcd13ifvqeg0","pricing_plan_id":"cebpf4jnsgd1na2vs0mg"},{"bike_id":"97bcfeac-2126-494f-9ed9-6b67f1b064a2","system_id":"levelo_inurba_marseille","lat":43.27436,"lon":5.39423,"is_reserved":false,"is_disabled":true,"rental_uris":{"android":"levelo://app?vid=97bcfeac-2126-494f-9ed9-6b67f1b064a2","ios":"levelo://app?vid=97bcfeac-2126-494f-9ed9-6b67f1b064a2"},"vehicle_type_id":"4","last_reported":1773340721,"current_range_meters":16400,"station_id":"ce4bhdp2rcd13ifvqf20","pricing_plan_id":"cebpf4jnsgd1na2vs0mg"},{"bike_id":"6e0b0aa5-87a1-4737-820e-285f6efc96ee","system_id":"levelo_inurba_marseille","lat":43.28636,"lon":5.35086,"is_reserved":false,"is_disabled":false,"rental_uris":{"android":"levelo://app?vid=6e0b0aa5-87a1-4737-820e-285f6efc96ee","ios":"levelo://app?vid=6e0b0aa5-87a1-4737-820e-285f6efc96ee"},"vehicle_type_id":"4","last_reported":1773340721,"current_range_meters":16400,"station_id":"ce4bhch2rcd13ifvqeug","pricing_plan_id":"cebpf4jnsgd1na2vs0mg"},{"bike_id":"c73dc152-9938-46ce-972e-77003c30697b","system_id":"levelo_inurba_marseille","lat":43.25865,"lon":5.39433,"is_reserved":false,"is_disabled":false,"rental_uris":{"android":"levelo://app?vid=c73dc152-9938-46ce-972e-77003c30697b","ios":"levelo://app?vid=c73dc152-9938-46ce-972e-77003c30697b"},"vehicle_type_id":"4","last_reported":1773340721,"current_range_meters":36000,"station_id":"","pricing_plan_id":"cebpf4jnsgd1na2vs0mg"},{"bike_id":"268aefa2-6343-458a-937b-4e3e958cc0ed","system_id":"levelo_inurba_marseille","lat":43.27817,"lon":5.40737,"is_reserved":false,"is_disabled":false,"rental_uris":{"android":"levelo://app?vid=268aefa2-6343-458a-937b-4e3e958cc0ed","ios":"levelo://app?vid=268aefa2-6343-458a-937b-4e3e958cc0ed"},"vehicle_type_id":"4","last_reported":1773340721,"current_range_meters":35200,"station_id":"ce4bhnh2rcd13ifvqgtg","pricing_plan_id":"cebpf4jnsgd1na2vs0mg"},{"bike_id":"a975d39d-4a14-4e0c-8235-9aa6495c9757","system_id":"levelo_inurba_marseille","lat":43.27401,"lon":5.42491,"is_reserved":false,"is_disabled":true,"rental_uris":{"android":"levelo://app?vid=a975d39d-4a14-4e0c-8235-9aa6495c9757","ios":"levelo://app?vid=a975d39d-4a14-4e0c-8235-9aa6495c9757"},"vehicle_type_id":"4","last_reported":1773340721,"current_range_meters":28800,"station_id":"","pricing_plan_id":"cebpf4jnsgd1na2vs0mg"},{"bike_id":"cb2ae677-1706-4480-93e0-36b2cec99f85","system_id":"levelo_inurba_marseille","lat":43.29549,"lon":5.38575,"is_reserved":false,"is_disabled":false,"rental_uris":{"android":"levelo://app?vid=cb2ae677-1706-4480-93e0-36b2cec99f85","ios":"levelo://app?vid=cb2ae677-1706-4480-93e0-36b2cec99f85"},"vehicle_type_id":"4","last_reported":1773340721,"current_range_meters":7200,"station_id":"ce4bgih2rcd13ifvqba0","pricing_plan_id":"cebpf4jnsgd1na2vs0mg"},{"bike_id":"aa81096f-0238-4da5-9bb1-19ffb49b251d","system_id":"levelo_inurba_marseille","lat":43.29278,"lon":5.38446,"is_reserved":false,"is_disabled":false,"rental_uris":{"android":"levelo://app?vid=aa81096f-0238-4da5-9bb1-19ffb49b251d","ios":"levelo://app?vid=aa81096f-0238-4da5-9bb1-19ffb49b251d"},"vehicle_type_id":"4","last_reported":1773340721,"current_range_meters":28400,"station_id":"ce4bh692rcd13ifvqea0","pricing_plan_id":"cebpf4jnsgd1na2vs0mg"},{"bike_id":"3075e6ae-4213-43a8-ad65-b89ee64bb8ab","system_id":"levelo_inurba_marseille","lat":43.29528,"lon":5.39059,"is_reserved":false,"is_disabled":false,"rental_uris":{"android":"levelo://app?vid=3075e6ae-4213-43a8-ad65-b89ee64bb8ab","ios":"levelo://app?vid=3075e6ae-4213-43a8-ad65-b89ee64bb8ab"},"vehicle_type_id":"4","last_reported":1773340721,"current_range_meters":38000,"station_id":"ce4bh3p2rcd13ifvqdp0","pricing_plan_id":"cebpf4jnsgd1na2vs0mg"},{"bike_id":"515c885a-1081-4ff6-8b49-6ebda1a9b22f","system_id":"levelo_inurba_marseille","lat":43.32663,"lon":5.40996,"is_reserved":false,"is_disabled":false,"rental_uris":{"android":"levelo://app?vid=515c885a-1081-4ff6-8b49-6ebda1a9b22f","ios":"levelo://app?vid=515c885a-1081-4ff6-8b49-6ebda1a9b22f"},"vehicle_type_id":"4","last_reported":1773340721,"current_range_meters":38800,"station_id":"ce4bhpp2rcd13ifvqhgg","pricing_plan_id":"cebpf4jnsgd1na2vs0mg"},{"bike_id":"8353becb-09ec-45b5-a24b-8f6218c436aa","system_id":"levelo_inurba_marseille","lat":43.24168,"lon":5.3967,"is_reserved":false,"is_disabled":true,"rental_uris":{"android":"levelo://app?vid=8353becb-09ec-45b5-a24b-8f6218c436aa","ios":"levelo://app?vid=8353becb-09ec-45b5-a24b-8f6218c436aa"},"vehicle_type_id":"4","last_reported":1773340721,"current_range_meters":6400,"station_id":"ce4bhn12rcd13ifvqgpg","pricing_plan_id":"cebpf4jnsgd1na2vs0mg"},{"bike_id":"fe15d564-a5b3-4ea2-80fe-214387d45512","system_id":"levelo_inurba_marseille","lat":43.28727,"lon":5.36102,"is_reserved":false,"is_disabled":false,"rental_uris":{"android":"levelo://app?vid=fe15d564-a5b3-4ea2-80fe-214387d45512","ios":"levelo://app?vid=fe15d564-a5b3-4ea2-80fe-214387d45512"},"vehicle_type_id":"4","last_reported":1773340721,"current_range_meters":16800,"station_id":"cki0cbj6b192h4jlfktg","pricing_plan_id":"cebpf4jnsgd1na2vs0mg"},{"bike_id":"835e3ab7-5b92-43ff-a458-9667b1e9a762","system_id":"levelo_inurba_marseille","lat":43.29708,"lon":5.36621,"is_reserved":false,"is_disabled":false,"rental_uris":{"android":"levelo://app?vid=835e3ab7-5b92-43ff-a458-9667b1e9a762","ios":"levelo://app?vid=835e3ab7-5b92-43ff-a458-9667b1e9a762"},"vehicle_type_id":"4","last_reported":1773340721,"current_range_meters":35600,"station_id":"ce4bgn12rcd13ifvqbt0","pricing_plan_id":"cebpf4jnsgd1na2vs0mg"},{"bike_id":"071bbebe-54e0-456d-8928-c8b60c0700b6","system_id":"levelo_inurba_marseille","lat":43.27567,"lon":5.38432,"is_reserved":false,"is_disabled":false,"rental_uris":{"android":"levelo://app?vid=071bbebe-54e0-456d-8928-c8b60c0700b6","ios":"levelo://app?vid=071bbebe-54e0-456d-8928-c8b60c0700b6"},"vehicle_type_id":"4","last_reported":1773340721,"current_range_meters":37600,"station_id":"ce4bhh92rcd13ifvqfi0","pricing_plan_id":"cebpf4jnsgd1na2vs0mg"},{"bike_id":"c6e41b0e-a7f4-4243-a48f-6e68bec7d728","system_id":"levelo_inurba_marseille","lat":43.28915,"lon":5.36381,"is_reserved":false,"is_disabled":true,"rental_uris":{"android":"levelo://app?vid=c6e41b0e-a7f4-4243-a48f-6e68bec7d728","ios":"levelo://app?vid=c6e41b0e-a7f4-4243-a48f-6e68bec7d728"},"vehicle_type_id":"4","last_reported":1773340721,"current_range_meters":35200,"station_id":"ce4bhc92rcd13ifvqetg","pricing_plan_id":"cebpf4jnsgd1na2vs0mg"},{"bike_id":"32ac5d0e-ae28-4478-ad22-93086f84b7a9","system_id":"levelo_inurba_marseille","lat":43.28408,"lon":5.34986,"is_reserved":false,"is_disabled":false,"rental_uris":{"android":"levelo://app?vid=32ac5d0e-ae28-4478-ad22-93086f84b7a9","ios":"levelo://app?vid=32ac5d0e-ae28-4478-ad22-93086f84b7a9"},"vehicle_type_id":"4","last_reported":1773340721,"current_range_meters":16800,"station_id":"ce4bhbh2rcd13ifvqepg","pricing_plan_id":"cebpf4jnsgd1na2vs0mg"},{"bike_id":"a63d22a1-9803-47da-97c5-9eb5069b8019","system_id":"levelo_inurba_marseille","lat":43.25832,"lon":5.39443,"is_reserved":false,"is_disabled":false,"rental_uris":{"android":"levelo://app?vid=a63d22a1-9803-47da-97c5-9eb5069b8019","ios":"levelo://app?vid=a63d22a1-9803-47da-97c5-9eb5069b8019"},"vehicle_type_id":"4","last_reported":1773340721,"current_range_meters":36400,"station_id":"ce4bhip2rcd13ifvqft0","pricing_plan_id":"cebpf4jnsgd1na2vs0mg"},{"bike_id":"82451975-68fc-4735-a647-12ad73617286","system_id":"levelo_inurba_marseille","lat":43.30618,"lon":5.37272,"is_reserved":false,"is_disabled":false,"rental_uris":{"android":"levelo://app?vid=82451975-68fc-4735-a647-12ad73617286","ios":"levelo://app?vid=82451975-68fc-4735-a647-12ad73617286"},"vehicle_type_id":"4","last_reported":1773340721,"current_range_meters":38400,"station_id":"ce4bgqh2rcd13ifvqc4g","pricing_plan_id":"cebpf4jnsgd1na2vs0mg"},{"bike_id":"8b2e521b-1101-44fe-9d4a-0344f080c81c","system_id":"levelo_inurba_marseille","lat":43.28478,"lon":5.48407,"is_reserved":false,"is_disabled":false,"rental_uris":{"android":"levelo://app?vid=8b2e521b-1101-44fe-9d4a-0344f080c81c","ios":"levelo://app?vid=8b2e521b-1101-44fe-9d4a-0344f080c81c"},"vehicle_type_id":"4","last_reported":1773340721,"current_range_meters":32400,"station_id":"","pricing_plan_id":"cebpf4jnsgd1na2vs0mg"},{"bike_id":"bcacd82e-9654-4f53-af8f-ff08c9670cfb","system_id":"levelo_inurba_marseille","lat":43.23394,"lon":5.41245,"is_reserved":false,"is_disabled":false,"rental_uris":{"android":"levelo://app?vid=bcacd82e-9654-4f53-af8f-ff08c9670cfb","ios":"levelo://app?vid=bcacd82e-9654-4f53-af8f-ff08c9670cfb"},"vehicle_type_id":"4","last_reported":1773340721,"current_range_meters":29600,"station_id":"","pricing_plan_id":"cebpf4jnsgd1na2vs0mg"},{"bike_id":"1697678c-c8a4-4c47-ade7-901915c540a8","system_id":"levelo_inurba_marseille","lat":43.29602,"lon":5.38094,"is_reserved":false,"is_disabled":true,"rental_uris":{"android":"levelo://app?vid=1697678c-c8a4-4c47-ade7-901915c540a8","ios":"levelo://app?vid=1697678c-c8a4-4c47-ade7-901915c540a8"},"vehicle_type_id":"4","last_reported":1773340721,"current_range_meters":38400,"station_id":"ce4bgl12rcd13ifvqbo0","pricing_plan_id":"cebpf4jnsgd1na2vs0mg"},{"bike_id":"8f71006c-2348-4841-8ce0-b156640e9e6a","system_id":"levelo_inurba_marseille","lat":43.28629,"lon":5.35103,"is_reserved":false,"is_disabled":false,"rental_uris":{"android":"levelo://app?vid=8f71006c-2348-4841-8ce0-b156640e9e6a","ios":"levelo://app?vid=8f71006c-2348-4841-8ce0-b156640e9e6a"},"vehicle_type_id":"4","last_reported":1773340721,"current_range_meters":9600,"station_id":"ce4bhch2rcd13ifvqeug","pricing_plan_id":"cebpf4jnsgd1na2vs0mg"},{"bike_id":"928ede9f-d7b3-4b92-b54e-1233891752ff","system_id":"levelo_inurba_marseille","lat":43.33035,"lon":5.39072,"is_reserved":false,"is_disabled":false,"rental_uris":{"android":"levelo://app?vid=928ede9f-d7b3-4b92-b54e-1233891752ff","ios":"levelo://app?vid=928ede9f-d7b3-4b92-b54e-1233891752ff"},"vehicle_type_id":"4","last_reported":1773340721,"current_range_meters":10000,"station_id":"ce4bhr92rcd13ifvqhrg","pricing_plan_id":"cebpf4jnsgd1na2vs0mg"},{"bike_id":"279b31e6-f012-4d9c-a7c8-086a36e72b5f","system_id":"levelo_inurba_marseille","lat":43.29536,"lon":5.38551,"is_reserved":false,"is_disabled":true,"rental_uris":{"android":"levelo://app?vid=279b31e6-f012-4d9c-a7c8-086a36e72b5f","ios":"levelo://app?vid=279b31e6-f012-4d9c-a7c8-086a36e72b5f"},"vehicle_type_id":"4","last_reported":1773340721,"current_range_meters":18800,"station_id":"ce4bgih2rcd13ifvqba0","pricing_plan_id":"cebpf4jnsgd1na2vs0mg"},{"bike_id":"af10bad1-38d5-4196-a6c6-3ce0e798c9c5","system_id":"levelo_inurba_marseille","lat":43.28541,"lon":5.44103,"is_reserved":false,"is_disabled":true,"rental_uris":{"android":"levelo://app?vid=af10bad1-38d5-4196-a6c6-3ce0e798c9c5","ios":"levelo://app?vid=af10bad1-38d5-4196-a6c6-3ce0e798c9c5"},"vehicle_type_id":"4","last_reported":1773340721,"current_range_meters":400,"station_id":"st_d3j3df2ikq2c7380ej80","pricing_plan_id":"cebpf4jnsgd1na2vs0mg"},{"bike_id":"8cb18c02-9074-4f7e-83f0-8e5266c7a460","system_id":"levelo_inurba_marseille","lat":43.24672,"lon":5.3818,"is_reserved":false,"is_disabled":false,"rental_uris":{"android":"levelo://app?vid=8cb18c02-9074-4f7e-83f0-8e5266c7a460","ios":"levelo://app?vid=8cb18c02-9074-4f7e-83f0-8e5266c7a460"},"vehicle_type_id":"4","last_reported":1773340721,"current_range_meters":16400,"station_id":"ce4bhih2rcd13ifvqfr0","pricing_plan_id":"cebpf4jnsgd1na2vs0mg"},{"bike_id":"1a138e41-89a4-43f0-a2a8-c03e39bfeccc","system_id":"levelo_inurba_marseille","lat":43.2842,"lon":5.3499,"is_reserved":false,"is_disabled":false,"rental_uris":{"android":"levelo://app?vid=1a138e41-89a4-43f0-a2a8-c03e39bfeccc","ios":"levelo://app?vid=1a138e41-89a4-43f0-a2a8-c03e39bfeccc"},"vehicle_type_id":"4","last_reported":1773340721,"current_range_meters":39200,"station_id":"ce4bhbh2rcd13ifvqepg","pricing_plan_id":"cebpf4jnsgd1na2vs0mg"},{"bike_id":"c2390bbc-ed39-45c5-9f2a-b8a83a668278","system_id":"levelo_inurba_marseille","lat":43.27612,"lon":5.36135,"is_reserved":false,"is_disabled":false,"rental_uris":{"android":"levelo://app?vid=c2390bbc-ed39-45c5-9f2a-b8a83a668278","ios":"levelo://app?vid=c2390bbc-ed39-45c5-9f2a-b8a83a668278"},"vehicle_type_id":"4","last_reported":1773340721,"current_range_meters":38000,"station_id":"ce4bgj92rcd13ifvqbe0","pricing_plan_id":"cebpf4jnsgd1na2vs0mg"},{"bike_id":"6a296394-ef0a-4e02-95e3-9df208ef20a1","system_id":"levelo_inurba_marseille","lat":43.2928,"lon":5.4015,"is_reserved":false,"is_disabled":false,"rental_uris":{"android":"levelo://app?vid=6a296394-ef0a-4e02-95e3-9df208ef20a1","ios":"levelo://app?vid=6a296394-ef0a-4e02-95e3-9df208ef20a1"},"vehicle_type_id":"4","last_reported":1773340721,"current_range_meters":26000,"station_id":"ce4bh312rcd13ifvqdk0","pricing_plan_id":"cebpf4jnsgd1na2vs0mg"},{"bike_id":"c8605d01-f739-409b-b7bf-dfb8e1cb0084","system_id":"levelo_inurba_marseille","lat":43.29317,"lon":5.3745,"is_reserved":false,"is_disabled":false,"rental_uris":{"android":"levelo://app?vid=c8605d01-f739-409b-b7bf-dfb8e1cb0084","ios":"levelo://app?vid=c8605d01-f739-409b-b7bf-dfb8e1cb0084"},"vehicle_type_id":"4","last_reported":1773340721,"current_range_meters":24400,"station_id":"ce4bgi12rcd13ifvqb70","pricing_plan_id":"cebpf4jnsgd1na2vs0mg"},{"bike_id":"26a6b2e2-002a-4072-a1a2-b594f4e8b66c","system_id":"levelo_inurba_marseille","lat":43.30895,"lon":5.37329,"is_reserved":false,"is_disabled":false,"rental_uris":{"android":"levelo://app?vid=26a6b2e2-002a-4072-a1a2-b594f4e8b66c","ios":"levelo://app?vid=26a6b2e2-002a-4072-a1a2-b594f4e8b66c"},"vehicle_type_id":"4","last_reported":1773340721,"current_range_meters":28000,"station_id":"","pricing_plan_id":"cebpf4jnsgd1na2vs0mg"},{"bike_id":"34da4a33-43be-4234-816f-fdd3330c4484","system_id":"levelo_inurba_marseille","lat":43.23966,"lon":5.36641,"is_reserved":false,"is_disabled":false,"rental_uris":{"android":"levelo://app?vid=34da4a33-43be-4234-816f-fdd3330c4484","ios":"levelo://app?vid=34da4a33-43be-4234-816f-fdd3330c4484"},"vehicle_type_id":"4","last_reported":1773340721,"current_range_meters":39200,"station_id":"ce4bhi12rcd13ifvqfp0","pricing_plan_id":"cebpf4jnsgd1na2vs0mg"},{"bike_id":"66a3accb-79cb-48f5-ac37-51ce552272b3","system_id":"levelo_inurba_marseille","lat":43.29987,"lon":5.3848,"is_reserved":false,"is_disabled":false,"rental_uris":{"android":"levelo://app?vid=66a3accb-79cb-48f5-ac37-51ce552272b3","ios":"levelo://app?vid=66a3accb-79cb-48f5-ac37-51ce552272b3"},"vehicle_type_id":"4","last_reported":1773340721,"current_range_meters":24800,"station_id":"ce4bgj92rcd13ifvqbd0","pricing_plan_id":"cebpf4jnsgd1na2vs0mg"},{"bike_id":"df608bc1-596d-4999-8ab7-7ccc722b52ef","system_id":"levelo_inurba_marseille","lat":43.28603,"lon":5.37071,"is_reserved":false,"is_disabled":false,"rental_uris":{"android":"levelo://app?vid=df608bc1-596d-4999-8ab7-7ccc722b52ef","ios":"levelo://app?vid=df608bc1-596d-4999-8ab7-7ccc722b52ef"},"vehicle_type_id":"4","last_reported":1773340721,"current_range_meters":22800,"station_id":"ce4bht12rcd13ifvqi60","pricing_plan_id":"cebpf4jnsgd1na2vs0mg"},{"bike_id":"ab4b218f-6511-4217-979b-c409de593e06","system_id":"levelo_inurba_marseille","lat":43.29722,"lon":5.37719,"is_reserved":false,"is_disabled":false,"rental_uris":{"android":"levelo://app?vid=ab4b218f-6511-4217-979b-c409de593e06","ios":"levelo://app?vid=ab4b218f-6511-4217-979b-c409de593e06"},"vehicle_type_id":"4","last_reported":1773340721,"current_range_meters":10000,"station_id":"ce4bgkh2rcd13ifvqbl0","pricing_plan_id":"cebpf4jnsgd1na2vs0mg"},{"bike_id":"e15b97fa-5cd2-4864-8446-e86fba333f79","system_id":"levelo_inurba_marseille","lat":43.29009,"lon":5.35617,"is_reserved":false,"is_disabled":false,"rental_uris":{"android":"levelo://app?vid=e15b97fa-5cd2-4864-8446-e86fba333f79","ios":"levelo://app?vid=e15b97fa-5cd2-4864-8446-e86fba333f79"},"vehicle_type_id":"4","last_reported":1773340721,"current_range_meters":18800,"station_id":"ce4bhb92rcd13ifvqen0","pricing_plan_id":"cebpf4jnsgd1na2vs0mg"},{"bike_id":"b3ec3554-eb1f-4735-9561-8fa9053610e4","system_id":"levelo_inurba_marseille","lat":43.2441,"lon":5.37048,"is_reserved":false,"is_disabled":false,"rental_uris":{"android":"levelo://app?vid=b3ec3554-eb1f-4735-9561-8fa9053610e4","ios":"levelo://app?vid=b3ec3554-eb1f-4735-9561-8fa9053610e4"},"vehicle_type_id":"4","last_reported":1773340721,"current_range_meters":39200,"station_id":"ce4bhhh2rcd13ifvqfk0","pricing_plan_id":"cebpf4jnsgd1na2vs0mg"},{"bike_id":"019b6904-c7d7-4f12-80e0-6c355f613b51","system_id":"levelo_inurba_marseille","lat":43.24822,"lon":5.37479,"is_reserved":false,"is_disabled":false,"rental_uris":{"android":"levelo://app?vid=019b6904-c7d7-4f12-80e0-6c355f613b51","ios":"levelo://app?vid=019b6904-c7d7-4f12-80e0-6c355f613b51"},"vehicle_type_id":"4","last_reported":1773340721,"current_range_meters":35600,"station_id":"ce4bhgh2rcd13ifvqfb0","pricing_plan_id":"cebpf4jnsgd1na2vs0mg"},{"bike_id":"dbc6bc4a-9577-4abe-8c3b-4a8ca82339e5","system_id":"levelo_inurba_marseille","lat":43.29232,"lon":5.36089,"is_reserved":false,"is_disabled":false,"rental_uris":{"android":"levelo://app?vid=dbc6bc4a-9577-4abe-8c3b-4a8ca82339e5","ios":"levelo://app?vid=dbc6bc4a-9577-4abe-8c3b-4a8ca82339e5"},"vehicle_type_id":"4","last_reported":1773340721,"current_range_meters":11200,"station_id":"ce4bhbh2rcd13ifvqeqg","pricing_plan_id":"cebpf4jnsgd1na2vs0mg"},{"bike_id":"06f6a954-a22e-4aa7-b69f-b27939191722","system_id":"levelo_inurba_marseille","lat":43.29975,"lon":5.38504,"is_reserved":false,"is_disabled":false,"rental_uris":{"android":"levelo://app?vid=06f6a954-a22e-4aa7-b69f-b27939191722","ios":"levelo://app?vid=06f6a954-a22e-4aa7-b69f-b27939191722"},"vehicle_type_id":"4","last_reported":1773340721,"current_range_meters":25200,"station_id":"ce4bgj92rcd13ifvqbd0","pricing_plan_id":"cebpf4jnsgd1na2vs0mg"},{"bike_id":"ce59dc88-e142-4ea4-8650-5d080b6a8927","system_id":"levelo_inurba_marseille","lat":43.26776,"lon":5.39382,"is_reserved":false,"is_disabled":false,"rental_uris":{"android":"levelo://app?vid=ce59dc88-e142-4ea4-8650-5d080b6a8927","ios":"levelo://app?vid=ce59dc88-e142-4ea4-8650-5d080b6a8927"},"vehicle_type_id":"4","last_reported":1773340721,"current_range_meters":36800,"station_id":"ce4bhh12rcd13ifvqfg0","pricing_plan_id":"cebpf4jnsgd1na2vs0mg"},{"bike_id":"5331bf44-13b3-42fb-aad1-9b7895a1f20e","system_id":"levelo_inurba_marseille","lat":43.29896,"lon":5.39768,"is_reserved":false,"is_disabled":false,"rental_uris":{"android":"levelo://app?vid=5331bf44-13b3-42fb-aad1-9b7895a1f20e","ios":"levelo://app?vid=5331bf44-13b3-42fb-aad1-9b7895a1f20e"},"vehicle_type_id":"4","last_reported":1773340721,"current_range_meters":39200,"station_id":"ce4bh0h2rcd13ifvqd50","pricing_plan_id":"cebpf4jnsgd1na2vs0mg"},{"bike_id":"003d4be6-c37b-4aa4-9c84-f0d8c631491b","system_id":"levelo_inurba_marseille","lat":43.2903,"lon":5.38661,"is_reserved":false,"is_disabled":true,"rental_uris":{"android":"levelo://app?vid=003d4be6-c37b-4aa4-9c84-f0d8c631491b","ios":"levelo://app?vid=003d4be6-c37b-4aa4-9c84-f0d8c631491b"},"vehicle_type_id":"4","last_reported":1773340721,"current_range_meters":25200,"station_id":"ce4bh4p2rcd13ifvqe0g","pricing_plan_id":"cebpf4jnsgd1na2vs0mg"},{"bike_id":"a8dce137-ecc1-4f19-a186-4d1f5ea307ac","system_id":"levelo_inurba_marseille","lat":43.30331,"lon":5.40435,"is_reserved":false,"is_disabled":false,"rental_uris":{"android":"levelo://app?vid=a8dce137-ecc1-4f19-a186-4d1f5ea307ac","ios":"levelo://app?vid=a8dce137-ecc1-4f19-a186-4d1f5ea307ac"},"vehicle_type_id":"4","last_reported":1773340721,"current_range_meters":24400,"station_id":"ce4bh012rcd13ifvqd10","pricing_plan_id":"cebpf4jnsgd1na2vs0mg"},{"bike_id":"05e28071-265b-4d5c-bcaf-12dc4f5c6740","system_id":"levelo_inurba_marseille","lat":43.27372,"lon":5.36272,"is_reserved":false,"is_disabled":false,"rental_uris":{"android":"levelo://app?vid=05e28071-265b-4d5c-bcaf-12dc4f5c6740","ios":"levelo://app?vid=05e28071-265b-4d5c-bcaf-12dc4f5c6740"},"vehicle_type_id":"4","last_reported":1773340721,"current_range_meters":39200,"station_id":"ce4bhbh2rcd13ifvqeo0","pricing_plan_id":"cebpf4jnsgd1na2vs0mg"},{"bike_id":"e0d3800f-b03e-442e-a8e1-8c4ff7bcaab6","system_id":"levelo_inurba_marseille","lat":43.29635,"lon":5.37745,"is_reserved":false,"is_disabled":false,"rental_uris":{"android":"levelo://app?vid=e0d3800f-b03e-442e-a8e1-8c4ff7bcaab6","ios":"levelo://app?vid=e0d3800f-b03e-442e-a8e1-8c4ff7bcaab6"},"vehicle_type_id":"4","last_reported":1773340721,"current_range_meters":38400,"station_id":"ce4bgi92rcd13ifvqb90","pricing_plan_id":"cebpf4jnsgd1na2vs0mg"},{"bike_id":"8c9e1728-2e25-4e3f-884f-914f06a617c7","system_id":"levelo_inurba_marseille","lat":43.30787,"lon":5.38161,"is_reserved":false,"is_disabled":false,"rental_uris":{"android":"levelo://app?vid=8c9e1728-2e25-4e3f-884f-914f06a617c7","ios":"levelo://app?vid=8c9e1728-2e25-4e3f-884f-914f06a617c7"},"vehicle_type_id":"4","last_reported":1773340721,"current_range_meters":20000,"station_id":"ce4bgt12rcd13ifvqce0","pricing_plan_id":"cebpf4jnsgd1na2vs0mg"},{"bike_id":"a6890abc-726e-45e0-9081-48995f043ce1","system_id":"levelo_inurba_marseille","lat":43.30432,"lon":5.39742,"is_reserved":false,"is_disabled":false,"rental_uris":{"android":"levelo://app?vid=a6890abc-726e-45e0-9081-48995f043ce1","ios":"levelo://app?vid=a6890abc-726e-45e0-9081-48995f043ce1"},"vehicle_type_id":"4","last_reported":1773340721,"current_range_meters":25600,"station_id":"ce4bh092rcd13ifvqd20","pricing_plan_id":"cebpf4jnsgd1na2vs0mg"},{"bike_id":"939bc398-41d9-4727-8f5c-fd660530a23f","system_id":"levelo_inurba_marseille","lat":43.2817,"lon":5.42639,"is_reserved":false,"is_disabled":false,"rental_uris":{"android":"levelo://app?vid=939bc398-41d9-4727-8f5c-fd660530a23f","ios":"levelo://app?vid=939bc398-41d9-4727-8f5c-fd660530a23f"},"vehicle_type_id":"4","last_reported":1773340721,"current_range_meters":19600,"station_id":"ce4bhnh2rcd13ifvqgug","pricing_plan_id":"cebpf4jnsgd1na2vs0mg"},{"bike_id":"67454919-4897-4496-ac02-5ba276c6faca","system_id":"levelo_inurba_marseille","lat":43.28147,"lon":5.37892,"is_reserved":false,"is_disabled":false,"rental_uris":{"android":"levelo://app?vid=67454919-4897-4496-ac02-5ba276c6faca","ios":"levelo://app?vid=67454919-4897-4496-ac02-5ba276c6faca"},"vehicle_type_id":"4","last_reported":1773340721,"current_range_meters":9600,"station_id":"","pricing_plan_id":"cebpf4jnsgd1na2vs0mg"},{"bike_id":"7be8b778-ba45-4b62-8db3-9dc0846b8c1c","system_id":"levelo_inurba_marseille","lat":43.30619,"lon":5.37214,"is_reserved":false,"is_disabled":false,"rental_uris":{"android":"levelo://app?vid=7be8b778-ba45-4b62-8db3-9dc0846b8c1c","ios":"levelo://app?vid=7be8b778-ba45-4b62-8db3-9dc0846b8c1c"},"vehicle_type_id":"4","last_reported":1773340721,"current_range_meters":6400,"station_id":"ce4bgqh2rcd13ifvqc4g","pricing_plan_id":"cebpf4jnsgd1na2vs0mg"},{"bike_id":"eee030f9-7359-435a-8db7-cd8193b34512","system_id":"levelo_inurba_marseille","lat":43.2607,"lon":5.39397,"is_reserved":false,"is_disabled":false,"rental_uris":{"android":"levelo://app?vid=eee030f9-7359-435a-8db7-cd8193b34512","ios":"levelo://app?vid=eee030f9-7359-435a-8db7-cd8193b34512"},"vehicle_type_id":"4","last_reported":1773340721,"current_range_meters":27200,"station_id":"ce4bhh92rcd13ifvqfj0","pricing_plan_id":"cebpf4jnsgd1na2vs0mg"},{"bike_id":"54d4f9e4-068b-4c2d-b5c3-e6b11d286961","system_id":"levelo_inurba_marseille","lat":43.27623,"lon":5.36114,"is_reserved":false,"is_disabled":false,"rental_uris":{"android":"levelo://app?vid=54d4f9e4-068b-4c2d-b5c3-e6b11d286961","ios":"levelo://app?vid=54d4f9e4-068b-4c2d-b5c3-e6b11d286961"},"vehicle_type_id":"4","last_reported":1773340721,"current_range_meters":37600,"station_id":"ce4bgj92rcd13ifvqbe0","pricing_plan_id":"cebpf4jnsgd1na2vs0mg"},{"bike_id":"e1953514-6bba-4fb4-94e4-40c57b362e06","system_id":"levelo_inurba_marseille","lat":43.27998,"lon":5.40004,"is_reserved":false,"is_disabled":false,"rental_uris":{"android":"levelo://app?vid=e1953514-6bba-4fb4-94e4-40c57b362e06","ios":"levelo://app?vid=e1953514-6bba-4fb4-94e4-40c57b362e06"},"vehicle_type_id":"4","last_reported":1773340721,"current_range_meters":15200,"station_id":"ce4bho92rcd13ifvqh4g","pricing_plan_id":"cebpf4jnsgd1na2vs0mg"},{"bike_id":"4601fd5b-0f52-4af6-b7e5-4f72b2806a62","system_id":"levelo_inurba_marseille","lat":43.30328,"lon":5.39297,"is_reserved":false,"is_disabled":false,"rental_uris":{"android":"levelo://app?vid=4601fd5b-0f52-4af6-b7e5-4f72b2806a62","ios":"levelo://app?vid=4601fd5b-0f52-4af6-b7e5-4f72b2806a62"},"vehicle_type_id":"4","last_reported":1773340721,"current_range_meters":8400,"station_id":"","pricing_plan_id":"cebpf4jnsgd1na2vs0mg"},{"bike_id":"47e7d7f5-2be9-471d-813a-fdc80a36beae","system_id":"levelo_inurba_marseille","lat":43.24423,"lon":5.37054,"is_reserved":false,"is_disabled":false,"rental_uris":{"android":"levelo://app?vid=47e7d7f5-2be9-471d-813a-fdc80a36beae","ios":"levelo://app?vid=47e7d7f5-2be9-471d-813a-fdc80a36beae"},"vehicle_type_id":"4","last_reported":1773340721,"current_range_meters":34800,"station_id":"ce4bhhh2rcd13ifvqfk0","pricing_plan_id":"cebpf4jnsgd1na2vs0mg"},{"bike_id":"a1955bf3-14c7-4872-b5c1-6accbfbc0f11","system_id":"levelo_inurba_marseille","lat":43.26955,"lon":5.40325,"is_reserved":false,"is_disabled":false,"rental_uris":{"android":"levelo://app?vid=a1955bf3-14c7-4872-b5c1-6accbfbc0f11","ios":"levelo://app?vid=a1955bf3-14c7-4872-b5c1-6accbfbc0f11"},"vehicle_type_id":"4","last_reported":1773340721,"current_range_meters":37600,"station_id":"","pricing_plan_id":"cebpf4jnsgd1na2vs0mg"},{"bike_id":"4c263969-8934-471b-8225-dcdda4280eb4","system_id":"levelo_inurba_marseille","lat":43.28076,"lon":5.3966,"is_reserved":false,"is_disabled":false,"rental_uris":{"android":"levelo://app?vid=4c263969-8934-471b-8225-dcdda4280eb4","ios":"levelo://app?vid=4c263969-8934-471b-8225-dcdda4280eb4"},"vehicle_type_id":"4","last_reported":1773340721,"current_range_meters":22800,"station_id":"ce4bho12rcd13ifvqh2g","pricing_plan_id":"cebpf4jnsgd1na2vs0mg"},{"bike_id":"26b674fe-c93f-44a2-aa09-51d3e691224c","system_id":"levelo_inurba_marseille","lat":43.29964,"lon":5.38498,"is_reserved":false,"is_disabled":true,"rental_uris":{"android":"levelo://app?vid=26b674fe-c93f-44a2-aa09-51d3e691224c","ios":"levelo://app?vid=26b674fe-c93f-44a2-aa09-51d3e691224c"},"vehicle_type_id":"4","last_reported":1773340721,"current_range_meters":1200,"station_id":"ce4bgj92rcd13ifvqbd0","pricing_plan_id":"cebpf4jnsgd1na2vs0mg"},{"bike_id":"cba60e58-48d2-4695-a218-c3d3f13631d8","system_id":"levelo_inurba_marseille","lat":43.29277,"lon":5.36847,"is_reserved":false,"is_disabled":false,"rental_uris":{"android":"levelo://app?vid=cba60e58-48d2-4695-a218-c3d3f13631d8","ios":"levelo://app?vid=cba60e58-48d2-4695-a218-c3d3f13631d8"},"vehicle_type_id":"4","last_reported":1773340721,"current_range_meters":11200,"station_id":"ce4bhbp2rcd13ifvqesg","pricing_plan_id":"cebpf4jnsgd1na2vs0mg"},{"bike_id":"dd6ad242-ff80-43eb-a285-eeb1e9f8d130","system_id":"levelo_inurba_marseille","lat":43.295694,"lon":5.399859,"is_reserved":false,"is_disabled":false,"rental_uris":{"android":"levelo://app?vid=dd6ad242-ff80-43eb-a285-eeb1e9f8d130","ios":"levelo://app?vid=dd6ad242-ff80-43eb-a285-eeb1e9f8d130"},"vehicle_type_id":"4","last_reported":1773340721,"current_range_meters":18800,"station_id":"ce4bh312rcd13ifvqdj0","pricing_plan_id":"cebpf4jnsgd1na2vs0mg"},{"bike_id":"0864731d-e776-49ce-ac1e-bf70a52eb48d","system_id":"levelo_inurba_marseille","lat":43.29503,"lon":5.39418,"is_reserved":false,"is_disabled":true,"rental_uris":{"android":"levelo://app?vid=0864731d-e776-49ce-ac1e-bf70a52eb48d","ios":"levelo://app?vid=0864731d-e776-49ce-ac1e-bf70a52eb48d"},"vehicle_type_id":"4","last_reported":1773340721,"current_range_meters":18000,"station_id":"ce4bh292rcd13ifvqdf0","pricing_plan_id":"cebpf4jnsgd1na2vs0mg"},{"bike_id":"e77d702c-6e9d-4250-820b-3ce09f62e0dd","system_id":"levelo_inurba_marseille","lat":43.225326,"lon":5.348355,"is_reserved":false,"is_disabled":false,"rental_uris":{"android":"levelo://app?vid=e77d702c-6e9d-4250-820b-3ce09f62e0dd","ios":"levelo://app?vid=e77d702c-6e9d-4250-820b-3ce09f62e0dd"},"vehicle_type_id":"4","last_reported":1773340721,"current_range_meters":16800,"station_id":"","pricing_plan_id":"cebpf4jnsgd1na2vs0mg"},{"bike_id":"7051361c-52b2-41a5-ae41-0f9a6ab3c103","system_id":"levelo_inurba_marseille","lat":43.28454,"lon":5.39201,"is_reserved":false,"is_disabled":false,"rental_uris":{"android":"levelo://app?vid=7051361c-52b2-41a5-ae41-0f9a6ab3c103","ios":"levelo://app?vid=7051361c-52b2-41a5-ae41-0f9a6ab3c103"},"vehicle_type_id":"4","last_reported":1773340721,"current_range_meters":39200,"station_id":"ce4bhoh2rcd13ifvqh5g","pricing_plan_id":"cebpf4jnsgd1na2vs0mg"},{"bike_id":"4cdf905d-d573-4bc7-85be-d03aa61ff4df","system_id":"levelo_inurba_marseille","lat":43.25828,"lon":5.39403,"is_reserved":false,"is_disabled":false,"rental_uris":{"android":"levelo://app?vid=4cdf905d-d573-4bc7-85be-d03aa61ff4df","ios":"levelo://app?vid=4cdf905d-d573-4bc7-85be-d03aa61ff4df"},"vehicle_type_id":"4","last_reported":1773340721,"current_range_meters":30800,"station_id":"ce4bhip2rcd13ifvqft0","pricing_plan_id":"cebpf4jnsgd1na2vs0mg"},{"bike_id":"682da1a2-9992-42a0-a763-7ba6525cc044","system_id":"levelo_inurba_marseille","lat":43.31567,"lon":5.38071,"is_reserved":false,"is_disabled":false,"rental_uris":{"android":"levelo://app?vid=682da1a2-9992-42a0-a763-7ba6525cc044","ios":"levelo://app?vid=682da1a2-9992-42a0-a763-7ba6525cc044"},"vehicle_type_id":"4","last_reported":1773340721,"current_range_meters":27600,"station_id":"","pricing_plan_id":"cebpf4jnsgd1na2vs0mg"},{"bike_id":"27538746-56d0-4be5-853e-86ae52dd0a53","system_id":"levelo_inurba_marseille","lat":43.24085,"lon":5.37754,"is_reserved":false,"is_disabled":true,"rental_uris":{"android":"levelo://app?vid=27538746-56d0-4be5-853e-86ae52dd0a53","ios":"levelo://app?vid=27538746-56d0-4be5-853e-86ae52dd0a53"},"vehicle_type_id":"4","last_reported":1773340721,"current_range_meters":36400,"station_id":"ce4bhnp2rcd13ifvqgvg","pricing_plan_id":"cebpf4jnsgd1na2vs0mg"},{"bike_id":"f6c8c320-c18a-41fc-a411-13305c97203d","system_id":"levelo_inurba_marseille","lat":43.2904,"lon":5.38633,"is_reserved":false,"is_disabled":false,"rental_uris":{"android":"levelo://app?vid=f6c8c320-c18a-41fc-a411-13305c97203d","ios":"levelo://app?vid=f6c8c320-c18a-41fc-a411-13305c97203d"},"vehicle_type_id":"4","last_reported":1773340721,"current_range_meters":6400,"station_id":"ce4bh4p2rcd13ifvqe0g","pricing_plan_id":"cebpf4jnsgd1na2vs0mg"},{"bike_id":"e9828655-3e9f-4bf1-900b-4524602dc318","system_id":"levelo_inurba_marseille","lat":43.23971,"lon":5.36632,"is_reserved":false,"is_disabled":false,"rental_uris":{"android":"levelo://app?vid=e9828655-3e9f-4bf1-900b-4524602dc318","ios":"levelo://app?vid=e9828655-3e9f-4bf1-900b-4524602dc318"},"vehicle_type_id":"4","last_reported":1773340721,"current_range_meters":4400,"station_id":"ce4bhi12rcd13ifvqfp0","pricing_plan_id":"cebpf4jnsgd1na2vs0mg"},{"bike_id":"15774bab-5193-4899-b81e-faca4fe9541b","system_id":"levelo_inurba_marseille","lat":43.29622,"lon":5.38096,"is_reserved":false,"is_disabled":false,"rental_uris":{"android":"levelo://app?vid=15774bab-5193-4899-b81e-faca4fe9541b","ios":"levelo://app?vid=15774bab-5193-4899-b81e-faca4fe9541b"},"vehicle_type_id":"4","last_reported":1773340721,"current_range_meters":36800,"station_id":"ce4bgl12rcd13ifvqbo0","pricing_plan_id":"cebpf4jnsgd1na2vs0mg"},{"bike_id":"c5a9002e-9ed9-4827-90b3-f3f6803216da","system_id":"levelo_inurba_marseille","lat":43.33009,"lon":5.39052,"is_reserved":false,"is_disabled":false,"rental_uris":{"android":"levelo://app?vid=c5a9002e-9ed9-4827-90b3-f3f6803216da","ios":"levelo://app?vid=c5a9002e-9ed9-4827-90b3-f3f6803216da"},"vehicle_type_id":"4","last_reported":1773340721,"current_range_meters":39200,"station_id":"ce4bhr92rcd13ifvqhrg","pricing_plan_id":"cebpf4jnsgd1na2vs0mg"},{"bike_id":"39b8d4e4-964e-41fb-8d61-bd3f99bfd9ce","system_id":"levelo_inurba_marseille","lat":43.28118,"lon":5.37838,"is_reserved":false,"is_disabled":false,"rental_uris":{"android":"levelo://app?vid=39b8d4e4-964e-41fb-8d61-bd3f99bfd9ce","ios":"levelo://app?vid=39b8d4e4-964e-41fb-8d61-bd3f99bfd9ce"},"vehicle_type_id":"4","last_reported":1773340721,"current_range_meters":20400,"station_id":"ce4bha12rcd13ifvqee0","pricing_plan_id":"cebpf4jnsgd1na2vs0mg"},{"bike_id":"45189b38-b602-4f79-b1c2-3d46b4432e64","system_id":"levelo_inurba_marseille","lat":43.30604,"lon":5.37244,"is_reserved":false,"is_disabled":false,"rental_uris":{"android":"levelo://app?vid=45189b38-b602-4f79-b1c2-3d46b4432e64","ios":"levelo://app?vid=45189b38-b602-4f79-b1c2-3d46b4432e64"},"vehicle_type_id":"4","last_reported":1773340721,"current_range_meters":30000,"station_id":"ce4bgqh2rcd13ifvqc4g","pricing_plan_id":"cebpf4jnsgd1na2vs0mg"},{"bike_id":"d296d39e-55a4-423f-bf36-74303ce9272d","system_id":"levelo_inurba_marseille","lat":43.33029,"lon":5.39046,"is_reserved":false,"is_disabled":false,"rental_uris":{"android":"levelo://app?vid=d296d39e-55a4-423f-bf36-74303ce9272d","ios":"levelo://app?vid=d296d39e-55a4-423f-bf36-74303ce9272d"},"vehicle_type_id":"4","last_reported":1773340721,"current_range_meters":24400,"station_id":"ce4bhr92rcd13ifvqhrg","pricing_plan_id":"cebpf4jnsgd1na2vs0mg"},{"bike_id":"3faa3955-fc91-4d7b-bafd-bc8fda72019b","system_id":"levelo_inurba_marseille","lat":43.3208,"lon":5.41572,"is_reserved":false,"is_disabled":false,"rental_uris":{"android":"levelo://app?vid=3faa3955-fc91-4d7b-bafd-bc8fda72019b","ios":"levelo://app?vid=3faa3955-fc91-4d7b-bafd-bc8fda72019b"},"vehicle_type_id":"4","last_reported":1773340721,"current_range_meters":40000,"station_id":"ce4bhq92rcd13ifvqhkg","pricing_plan_id":"cebpf4jnsgd1na2vs0mg"},{"bike_id":"b37f67f1-89d6-4385-9bac-63826e0bd8fa","system_id":"levelo_inurba_marseille","lat":43.31754,"lon":5.39023,"is_reserved":false,"is_disabled":false,"rental_uris":{"android":"levelo://app?vid=b37f67f1-89d6-4385-9bac-63826e0bd8fa","ios":"levelo://app?vid=b37f67f1-89d6-4385-9bac-63826e0bd8fa"},"vehicle_type_id":"4","last_reported":1773340721,"current_range_meters":28000,"station_id":"ce4bhqp2rcd13ifvqhng","pricing_plan_id":"cebpf4jnsgd1na2vs0mg"},{"bike_id":"6714984a-530c-415c-8cef-eb6afdbf6bde","system_id":"levelo_inurba_marseille","lat":43.30128,"lon":5.38795,"is_reserved":false,"is_disabled":false,"rental_uris":{"android":"levelo://app?vid=6714984a-530c-415c-8cef-eb6afdbf6bde","ios":"levelo://app?vid=6714984a-530c-415c-8cef-eb6afdbf6bde"},"vehicle_type_id":"4","last_reported":1773340721,"current_range_meters":27200,"station_id":"ce4bghh2rcd13ifvqb60","pricing_plan_id":"cebpf4jnsgd1na2vs0mg"},{"bike_id":"93ac3ef9-2dcd-456c-80a9-ca9972d8bda2","system_id":"levelo_inurba_marseille","lat":43.27631,"lon":5.36125,"is_reserved":false,"is_disabled":false,"rental_uris":{"android":"levelo://app?vid=93ac3ef9-2dcd-456c-80a9-ca9972d8bda2","ios":"levelo://app?vid=93ac3ef9-2dcd-456c-80a9-ca9972d8bda2"},"vehicle_type_id":"4","last_reported":1773340721,"current_range_meters":11200,"station_id":"ce4bgj92rcd13ifvqbe0","pricing_plan_id":"cebpf4jnsgd1na2vs0mg"},{"bike_id":"bb67318c-64c6-481b-b01a-5d8ff021f53c","system_id":"levelo_inurba_marseille","lat":43.2953,"lon":5.38555,"is_reserved":false,"is_disabled":false,"rental_uris":{"android":"levelo://app?vid=bb67318c-64c6-481b-b01a-5d8ff021f53c","ios":"levelo://app?vid=bb67318c-64c6-481b-b01a-5d8ff021f53c"},"vehicle_type_id":"4","last_reported":1773340721,"current_range_meters":25200,"station_id":"ce4bgih2rcd13ifvqba0","pricing_plan_id":"cebpf4jnsgd1na2vs0mg"},{"bike_id":"ec1224ab-6eaf-4391-aa21-c9e6ec86d96d","system_id":"levelo_inurba_marseille","lat":43.26948,"lon":5.40262,"is_reserved":false,"is_disabled":false,"rental_uris":{"android":"levelo://app?vid=ec1224ab-6eaf-4391-aa21-c9e6ec86d96d","ios":"levelo://app?vid=ec1224ab-6eaf-4391-aa21-c9e6ec86d96d"},"vehicle_type_id":"4","last_reported":1773340721,"current_range_meters":32000,"station_id":"cjm6bp8fraef2m0cb0m0","pricing_plan_id":"cebpf4jnsgd1na2vs0mg"},