{"last_updated":1777306857,"ttl":60,"version":"2.2","data":{"bikes":[{"bike_id":"494fd0fc-3b39-4504-a26b-321afbf22977","system_id":"levelo_inurba_marseille","lat":43.23848,"lon":5.38579,"is_reserved":false,"is_disabled":false,"rental_uris":{"android":"levelo://app?vid=494fd0fc-3b39-4504-a26b-321afbf22977","ios":"levelo://app?vid=494fd0fc-3b39-4504-a26b-321afbf22977"},"vehicle_type_id":"4","last_reported":1777306858,"current_range_meters":2800,"station_id":"","pricing_plan_id":"cebpf4jnsgd1na2vs0mg"},{"bike_id":"f20de898-1d60-48b6-809e-a97081c4c8c1","system_id":"levelo_inurba_marseille","lat":43.25567,"lon":5.3824,"is_reserved":false,"is_disabled":false,"rental_uris":{"android":"levelo://app?vid=f20de898-1d60-48b6-809e-a97081c4c8c1","ios":"levelo://app?vid=f20de898-1d60-48b6-809e-a97081c4c8c1"},"vehicle_type_id":"4","last_reported":1777306858,"current_range_meters":2800,"station_id":"ce4bhih2rcd13ifvqfs0","pricing_plan_id":"cebpf4jnsgd1na2vs0mg"},{"bike_id":"4ef2d244-0bc9-46c9-bd78-629bd3f6f2e2","system_id":"levelo_inurba_marseille","lat":43.28667,"lon":5.38661,"is_reserved":false,"is_disabled":false,"rental_uris":{"android":"levelo://app?vid=4ef2d244-0bc9-46c9-bd78-629bd3f6f2e2","ios":"levelo://app?vid=4ef2d244-0bc9-46c9-bd78-629bd3f6f2e2"},"vehicle_type_id":"4","last_reported":1777306858,"current_range_meters":2800,"station_id":"ce4bh492rcd13ifvqdug","pricing_plan_id":"cebpf4jnsgd1na2vs0mg"},{"bike_id":"d4695f77-79a2-4435-9a24-68a12ba6c940","system_id":"levelo_inurba_marseille","lat":43.25824,"lon":5.41854,"is_reserved":false,"is_disabled":false,"rental_uris":{"android":"levelo://app?vid=d4695f77-79a2-4435-9a24-68a12ba6c940","ios":"levelo://app?vid=d4695f77-79a2-4435-9a24-68a12ba6c940"},"vehicle_type_id":"4","last_reported":1777306858,"current_range_meters":2800,"station_id":"","pricing_plan_id":"cebpf4jnsgd1na2vs0mg"},{"bike_id":"f6861950-5df4-46fd-afb6-03326a5b6ebf","system_id":"levelo_inurba_marseille","lat":43.292623,"lon":5.384339,"is_reserved":false,"is_disabled":false,"rental_uris":{"android":"levelo://app?vid=f6861950-5df4-46fd-afb6-03326a5b6ebf","ios":"levelo://app?vid=f6861950-5df4-46fd-afb6-03326a5b6ebf"},"vehicle_type_id":"4","last_reported":1777306858,"current_range_meters":2800,"station_id":"ce4bh692rcd13ifvqea0","pricing_plan_id":"cebpf4jnsgd1na2vs0mg"},{"bike_id":"4245d6d0-b19f-476b-bb9c-fd01c1c69b07","system_id":"levelo_inurba_marseille","lat":43.28163,"lon":5.39006,"is_reserved":false,"is_disabled":false,"rental_uris":{"android":"levelo://app?vid=4245d6d0-b19f-476b-bb9c-fd01c1c69b07","ios":"levelo://app?vid=4245d6d0-b19f-476b-bb9c-fd01c1c69b07"},"vehicle_type_id":"4","last_reported":1777306858,"current_range_meters":2800,"station_id":"","pricing_plan_id":"cebpf4jnsgd1na2vs0mg"},{"bike_id":"f17b4b0c-dce5-4cce-9e2d-1af1a8327979","system_id":"levelo_inurba_marseille","lat":43.24794,"lon":5.37464,"is_reserved":false,"is_disabled":false,"rental_uris":{"android":"levelo://app?vid=f17b4b0c-dce5-4cce-9e2d-1af1a8327979","ios":"levelo://app?vid=f17b4b0c-dce5-4cce-9e2d-1af1a8327979"},"vehicle_type_id":"4","last_reported":1777306858,"current_range_meters":2800,"station_id":"ce4bhgh2rcd13ifvqfb0","pricing_plan_id":"cebpf4jnsgd1na2vs0mg"},{"bike_id":"79763824-6866-4252-ad58-05ffa1bd9226","system_id":"levelo_inurba_marseille","lat":43.23895,"lon":5.37458,"is_reserved":false,"is_disabled":false,"rental_uris":{"android":"levelo://app?vid=79763824-6866-4252-ad58-05ffa1bd9226","ios":"levelo://app?vid=79763824-6866-4252-ad58-05ffa1bd9226"},"vehicle_type_id":"4","last_reported":1777306858,"current_range_meters":2800,"station_id":"st_d6sm7csbq4hs73f8fpjg","pricing_plan_id":"cebpf4jnsgd1na2vs0mg"},{"bike_id":"892a02fc-779d-4c47-b662-39a906653a55","system_id":"levelo_inurba_marseille","lat":43.29023,"lon":5.38127,"is_reserved":false,"is_disabled":false,"rental_uris":{"android":"levelo://app?vid=892a02fc-779d-4c47-b662-39a906653a55","ios":"levelo://app?vid=892a02fc-779d-4c47-b662-39a906653a55"},"vehicle_type_id":"4","last_reported":1777306858,"current_range_meters":2800,"station_id":"ce4bh4p2rcd13ifvqe1g","pricing_plan_id":"cebpf4jnsgd1na2vs0mg"},{"bike_id":"e892fc43-183a-4a12-9f44-43f43bf3c4aa","system_id":"levelo_inurba_marseille","lat":43.25575,"lon":5.3823,"is_reserved":false,"is_disabled":false,"rental_uris":{"android":"levelo://app?vid=e892fc43-183a-4a12-9f44-43f43bf3c4aa","ios":"levelo://app?vid=e892fc43-183a-4a12-9f44-43f43bf3c4aa"},"vehicle_type_id":"4","last_reported":1777306858,"current_range_meters":3200,"station_id":"ce4bhih2rcd13ifvqfs0","pricing_plan_id":"cebpf4jnsgd1na2vs0mg"},{"bike_id":"5119191b-e357-4285-b8a8-c809c885deb1","system_id":"levelo_inurba_marseille","lat":43.27216,"lon":5.39188,"is_reserved":false,"is_disabled":false,"rental_uris":{"android":"levelo://app?vid=5119191b-e357-4285-b8a8-c809c885deb1","ios":"levelo://app?vid=5119191b-e357-4285-b8a8-c809c885deb1"},"vehicle_type_id":"4","last_reported":1777306858,"current_range_meters":3200,"station_id":"ce4bhhp2rcd13ifvqfm0","pricing_plan_id":"cebpf4jnsgd1na2vs0mg"},{"bike_id":"c35ef435-7351-4292-8bd0-8be9078d3a7d","system_id":"levelo_inurba_marseille","lat":43.30955,"lon":5.39056,"is_reserved":false,"is_disabled":true,"rental_uris":{"android":"levelo://app?vid=c35ef435-7351-4292-8bd0-8be9078d3a7d","ios":"levelo://app?vid=c35ef435-7351-4292-8bd0-8be9078d3a7d"},"vehicle_type_id":"4","last_reported":1777306858,"current_range_meters":3200,"station_id":"ce4bgup2rcd13ifvqco0","pricing_plan_id":"cebpf4jnsgd1na2vs0mg"},{"bike_id":"b9cd5d34-a2bf-4352-b2ff-eee776345c75","system_id":"levelo_inurba_marseille","lat":43.25824,"lon":5.39439,"is_reserved":false,"is_disabled":false,"rental_uris":{"android":"levelo://app?vid=b9cd5d34-a2bf-4352-b2ff-eee776345c75","ios":"levelo://app?vid=b9cd5d34-a2bf-4352-b2ff-eee776345c75"},"vehicle_type_id":"4","last_reported":1777306858,"current_range_meters":3200,"station_id":"ce4bhip2rcd13ifvqft0","pricing_plan_id":"cebpf4jnsgd1na2vs0mg"},{"bike_id":"1b5afab0-8be4-4314-a43d-7c0a41f6163c","system_id":"levelo_inurba_marseille","lat":43.29256,"lon":5.4091,"is_reserved":false,"is_disabled":false,"rental_uris":{"android":"levelo://app?vid=1b5afab0-8be4-4314-a43d-7c0a41f6163c","ios":"levelo://app?vid=1b5afab0-8be4-4314-a43d-7c0a41f6163c"},"vehicle_type_id":"4","last_reported":1777306858,"current_range_meters":3200,"station_id":"ce4bh192rcd13ifvqdc0","pricing_plan_id":"cebpf4jnsgd1na2vs0mg"},{"bike_id":"3c161f4f-3398-4e3e-ae20-5039986fb4bb","system_id":"levelo_inurba_marseille","lat":43.29529,"lon":5.39052,"is_reserved":false,"is_disabled":false,"rental_uris":{"android":"levelo://app?vid=3c161f4f-3398-4e3e-ae20-5039986fb4bb","ios":"levelo://app?vid=3c161f4f-3398-4e3e-ae20-5039986fb4bb"},"vehicle_type_id":"4","last_reported":1777306858,"current_range_meters":3200,"station_id":"ce4bh3p2rcd13ifvqdp0","pricing_plan_id":"cebpf4jnsgd1na2vs0mg"},{"bike_id":"37af42d5-4ce7-4d5d-a5c2-36df1080b490","system_id":"levelo_inurba_marseille","lat":43.22564,"lon":5.41629,"is_reserved":false,"is_disabled":false,"rental_uris":{"android":"levelo://app?vid=37af42d5-4ce7-4d5d-a5c2-36df1080b490","ios":"levelo://app?vid=37af42d5-4ce7-4d5d-a5c2-36df1080b490"},"vehicle_type_id":"4","last_reported":1777306858,"current_range_meters":3600,"station_id":"st_d2o4gvlbi1j2169b742g","pricing_plan_id":"cebpf4jnsgd1na2vs0mg"},{"bike_id":"0e6fc8c2-db56-49e2-9941-ecef20fe9aa5","system_id":"levelo_inurba_marseille","lat":43.29913,"lon":5.37477,"is_reserved":false,"is_disabled":false,"rental_uris":{"android":"levelo://app?vid=0e6fc8c2-db56-49e2-9941-ecef20fe9aa5","ios":"levelo://app?vid=0e6fc8c2-db56-49e2-9941-ecef20fe9aa5"},"vehicle_type_id":"4","last_reported":1777306858,"current_range_meters":3600,"station_id":"ce4bgjh2rcd13ifvqbg0","pricing_plan_id":"cebpf4jnsgd1na2vs0mg"},{"bike_id":"e5551de9-d1bb-49be-b703-617517f5bafc","system_id":"levelo_inurba_marseille","lat":43.27906,"lon":5.39583,"is_reserved":false,"is_disabled":false,"rental_uris":{"android":"levelo://app?vid=e5551de9-d1bb-49be-b703-617517f5bafc","ios":"levelo://app?vid=e5551de9-d1bb-49be-b703-617517f5bafc"},"vehicle_type_id":"4","last_reported":1777306858,"current_range_meters":3600,"station_id":"ce4bhf92rcd13ifvqf40","pricing_plan_id":"cebpf4jnsgd1na2vs0mg"},{"bike_id":"a5d1c5f8-e551-41de-b7f3-a52119a1050b","system_id":"levelo_inurba_marseille","lat":43.27811,"lon":5.37445,"is_reserved":false,"is_disabled":false,"rental_uris":{"android":"levelo://app?vid=a5d1c5f8-e551-41de-b7f3-a52119a1050b","ios":"levelo://app?vid=a5d1c5f8-e551-41de-b7f3-a52119a1050b"},"vehicle_type_id":"4","last_reported":1777306858,"current_range_meters":3600,"station_id":"","pricing_plan_id":"cebpf4jnsgd1na2vs0mg"},{"bike_id":"73ff913d-1e29-4f14-8fe9-65748c25341c","system_id":"levelo_inurba_marseille","lat":43.279968,"lon":5.400182,"is_reserved":false,"is_disabled":false,"rental_uris":{"android":"levelo://app?vid=73ff913d-1e29-4f14-8fe9-65748c25341c","ios":"levelo://app?vid=73ff913d-1e29-4f14-8fe9-65748c25341c"},"vehicle_type_id":"4","last_reported":1777306858,"current_range_meters":3600,"station_id":"ce4bho92rcd13ifvqh4g","pricing_plan_id":"cebpf4jnsgd1na2vs0mg"},{"bike_id":"7c6555e6-442e-4556-a632-ff1cfc434e50","system_id":"levelo_inurba_marseille","lat":43.28613,"lon":5.35102,"is_reserved":false,"is_disabled":false,"rental_uris":{"android":"levelo://app?vid=7c6555e6-442e-4556-a632-ff1cfc434e50","ios":"levelo://app?vid=7c6555e6-442e-4556-a632-ff1cfc434e50"},"vehicle_type_id":"4","last_reported":1777306858,"current_range_meters":3600,"station_id":"ce4bhch2rcd13ifvqeug","pricing_plan_id":"cebpf4jnsgd1na2vs0mg"},{"bike_id":"6a7b0a90-3959-4942-bc5a-a57f4d4f2bd0","system_id":"levelo_inurba_marseille","lat":43.28613,"lon":5.35103,"is_reserved":false,"is_disabled":false,"rental_uris":{"android":"levelo://app?vid=6a7b0a90-3959-4942-bc5a-a57f4d4f2bd0","ios":"levelo://app?vid=6a7b0a90-3959-4942-bc5a-a57f4d4f2bd0"},"vehicle_type_id":"4","last_reported":1777306858,"current_range_meters":3600,"station_id":"ce4bhch2rcd13ifvqeug","pricing_plan_id":"cebpf4jnsgd1na2vs0mg"},{"bike_id":"114a0b10-697e-4e99-93d6-74593b4b6698","system_id":"levelo_inurba_marseille","lat":43.27883,"lon":5.38174,"is_reserved":false,"is_disabled":false,"rental_uris":{"android":"levelo://app?vid=114a0b10-697e-4e99-93d6-74593b4b6698","ios":"levelo://app?vid=114a0b10-697e-4e99-93d6-74593b4b6698"},"vehicle_type_id":"4","last_reported":1777306858,"current_range_meters":3600,"station_id":"","pricing_plan_id":"cebpf4jnsgd1na2vs0mg"},{"bike_id":"1e467ca0-2768-4108-a598-baca0cc991f8","system_id":"levelo_inurba_marseille","lat":43.27492,"lon":5.41578,"is_reserved":false,"is_disabled":true,"rental_uris":{"android":"levelo://app?vid=1e467ca0-2768-4108-a598-baca0cc991f8","ios":"levelo://app?vid=1e467ca0-2768-4108-a598-baca0cc991f8"},"vehicle_type_id":"4","last_reported":1777306858,"current_range_meters":3600,"station_id":"st_d6im8g6chgec73a5pndg","pricing_plan_id":"cebpf4jnsgd1na2vs0mg"},{"bike_id":"ab7126ae-8b9c-42db-9f27-45f89a9614d7","system_id":"levelo_inurba_marseille","lat":43.2925,"lon":5.40911,"is_reserved":false,"is_disabled":false,"rental_uris":{"android":"levelo://app?vid=ab7126ae-8b9c-42db-9f27-45f89a9614d7","ios":"levelo://app?vid=ab7126ae-8b9c-42db-9f27-45f89a9614d7"},"vehicle_type_id":"4","last_reported":1777306858,"current_range_meters":3600,"station_id":"ce4bh192rcd13ifvqdc0","pricing_plan_id":"cebpf4jnsgd1na2vs0mg"},{"bike_id":"d84dad1f-3355-427c-a81e-a3f872caa973","system_id":"levelo_inurba_marseille","lat":43.28703,"lon":5.46683,"is_reserved":false,"is_disabled":false,"rental_uris":{"android":"levelo://app?vid=d84dad1f-3355-427c-a81e-a3f872caa973","ios":"levelo://app?vid=d84dad1f-3355-427c-a81e-a3f872caa973"},"vehicle_type_id":"4","last_reported":1777306858,"current_range_meters":4000,"station_id":"st_d6tc3vkotcvc738tfjhg","pricing_plan_id":"cebpf4jnsgd1na2vs0mg"},{"bike_id":"aa351b2b-b4fb-4625-a876-a900d82d470b","system_id":"levelo_inurba_marseille","lat":43.30563,"lon":5.36544,"is_reserved":false,"is_disabled":false,"rental_uris":{"android":"levelo://app?vid=aa351b2b-b4fb-4625-a876-a900d82d470b","ios":"levelo://app?vid=aa351b2b-b4fb-4625-a876-a900d82d470b"},"vehicle_type_id":"4","last_reported":1777306858,"current_range_meters":4000,"station_id":"ce4bgs12rcd13ifvqcag","pricing_plan_id":"cebpf4jnsgd1na2vs0mg"},{"bike_id":"b94b5f96-79f0-48ca-b92d-080a31da1387","system_id":"levelo_inurba_marseille","lat":43.24089,"lon":5.37762,"is_reserved":false,"is_disabled":false,"rental_uris":{"android":"levelo://app?vid=b94b5f96-79f0-48ca-b92d-080a31da1387","ios":"levelo://app?vid=b94b5f96-79f0-48ca-b92d-080a31da1387"},"vehicle_type_id":"4","last_reported":1777306858,"current_range_meters":4000,"station_id":"ce4bhnp2rcd13ifvqgvg","pricing_plan_id":"cebpf4jnsgd1na2vs0mg"},{"bike_id":"e1dd24e8-c86e-4f89-853a-69682de76545","system_id":"levelo_inurba_marseille","lat":43.3019,"lon":5.366,"is_reserved":false,"is_disabled":false,"rental_uris":{"android":"levelo://app?vid=e1dd24e8-c86e-4f89-853a-69682de76545","ios":"levelo://app?vid=e1dd24e8-c86e-4f89-853a-69682de76545"},"vehicle_type_id":"4","last_reported":1777306858,"current_range_meters":4000,"station_id":"ce4bgrh2rcd13ifvqc8g","pricing_plan_id":"cebpf4jnsgd1na2vs0mg"},{"bike_id":"0f310c52-14d2-4f1e-b4d7-12aed7df7f8b","system_id":"levelo_inurba_marseille","lat":43.26961,"lon":5.40257,"is_reserved":false,"is_disabled":false,"rental_uris":{"android":"levelo://app?vid=0f310c52-14d2-4f1e-b4d7-12aed7df7f8b","ios":"levelo://app?vid=0f310c52-14d2-4f1e-b4d7-12aed7df7f8b"},"vehicle_type_id":"4","last_reported":1777306858,"current_range_meters":4000,"station_id":"cjm6bp8fraef2m0cb0m0","pricing_plan_id":"cebpf4jnsgd1na2vs0mg"},{"bike_id":"1f13452b-ac27-48ca-bbd2-1255b0865067","system_id":"levelo_inurba_marseille","lat":43.2783,"lon":5.37914,"is_reserved":false,"is_disabled":false,"rental_uris":{"android":"levelo://app?vid=1f13452b-ac27-48ca-bbd2-1255b0865067","ios":"levelo://app?vid=1f13452b-ac27-48ca-bbd2-1255b0865067"},"vehicle_type_id":"4","last_reported":1777306858,"current_range_meters":4000,"station_id":"","pricing_plan_id":"cebpf4jnsgd1na2vs0mg"},{"bike_id":"e1a058a5-88da-4db3-90ad-2a415983774e","system_id":"levelo_inurba_marseille","lat":43.24668,"lon":5.38159,"is_reserved":false,"is_disabled":false,"rental_uris":{"android":"levelo://app?vid=e1a058a5-88da-4db3-90ad-2a415983774e","ios":"levelo://app?vid=e1a058a5-88da-4db3-90ad-2a415983774e"},"vehicle_type_id":"4","last_reported":1777306858,"current_range_meters":4000,"station_id":"ce4bhih2rcd13ifvqfr0","pricing_plan_id":"cebpf4jnsgd1na2vs0mg"},{"bike_id":"1249cf22-8d77-4503-804c-cf45bf33db2c","system_id":"levelo_inurba_marseille","lat":43.28631,"lon":5.35071,"is_reserved":false,"is_disabled":false,"rental_uris":{"android":"levelo://app?vid=1249cf22-8d77-4503-804c-cf45bf33db2c","ios":"levelo://app?vid=1249cf22-8d77-4503-804c-cf45bf33db2c"},"vehicle_type_id":"4","last_reported":1777306858,"current_range_meters":4000,"station_id":"ce4bhch2rcd13ifvqeug","pricing_plan_id":"cebpf4jnsgd1na2vs0mg"},{"bike_id":"6d142444-130d-476a-8993-b2a77cde23bc","system_id":"levelo_inurba_marseille","lat":43.31081,"lon":5.4243,"is_reserved":false,"is_disabled":false,"rental_uris":{"android":"levelo://app?vid=6d142444-130d-476a-8993-b2a77cde23bc","ios":"levelo://app?vid=6d142444-130d-476a-8993-b2a77cde23bc"},"vehicle_type_id":"4","last_reported":1777306858,"current_range_meters":4000,"station_id":"ce4bhp92rcd13ifvqhag","pricing_plan_id":"cebpf4jnsgd1na2vs0mg"},{"bike_id":"c6941364-0b3e-415d-827c-e48038694e60","system_id":"levelo_inurba_marseille","lat":43.30766,"lon":5.43521,"is_reserved":false,"is_disabled":false,"rental_uris":{"android":"levelo://app?vid=c6941364-0b3e-415d-827c-e48038694e60","ios":"levelo://app?vid=c6941364-0b3e-415d-827c-e48038694e60"},"vehicle_type_id":"4","last_reported":1777306858,"current_range_meters":4000,"station_id":"","pricing_plan_id":"cebpf4jnsgd1na2vs0mg"},{"bike_id":"9a050a8b-4c9f-47fd-9ddb-dc143b4975c0","system_id":"levelo_inurba_marseille","lat":43.29265,"lon":5.37625,"is_reserved":false,"is_disabled":false,"rental_uris":{"android":"levelo://app?vid=9a050a8b-4c9f-47fd-9ddb-dc143b4975c0","ios":"levelo://app?vid=9a050a8b-4c9f-47fd-9ddb-dc143b4975c0"},"vehicle_type_id":"4","last_reported":1777306858,"current_range_meters":4000,"station_id":"ce4bgi12rcd13ifvqb80","pricing_plan_id":"cebpf4jnsgd1na2vs0mg"},{"bike_id":"50fcb081-4b05-4355-adf3-07f022c0399c","system_id":"levelo_inurba_marseille","lat":43.30993,"lon":5.37913,"is_reserved":false,"is_disabled":false,"rental_uris":{"android":"levelo://app?vid=50fcb081-4b05-4355-adf3-07f022c0399c","ios":"levelo://app?vid=50fcb081-4b05-4355-adf3-07f022c0399c"},"vehicle_type_id":"4","last_reported":1777306858,"current_range_meters":4000,"station_id":"","pricing_plan_id":"cebpf4jnsgd1na2vs0mg"},{"bike_id":"209173b0-693a-4bdb-aa29-d03613f6177b","system_id":"levelo_inurba_marseille","lat":43.29019,"lon":5.35617,"is_reserved":false,"is_disabled":false,"rental_uris":{"android":"levelo://app?vid=209173b0-693a-4bdb-aa29-d03613f6177b","ios":"levelo://app?vid=209173b0-693a-4bdb-aa29-d03613f6177b"},"vehicle_type_id":"4","last_reported":1777306858,"current_range_meters":4400,"station_id":"ce4bhb92rcd13ifvqen0","pricing_plan_id":"cebpf4jnsgd1na2vs0mg"},{"bike_id":"5676b1df-3102-49f0-94ea-6bd037dc90c9","system_id":"levelo_inurba_marseille","lat":43.31098,"lon":5.3802,"is_reserved":false,"is_disabled":false,"rental_uris":{"android":"levelo://app?vid=5676b1df-3102-49f0-94ea-6bd037dc90c9","ios":"levelo://app?vid=5676b1df-3102-49f0-94ea-6bd037dc90c9"},"vehicle_type_id":"4","last_reported":1777306858,"current_range_meters":4400,"station_id":"","pricing_plan_id":"cebpf4jnsgd1na2vs0mg"},{"bike_id":"11d6e85a-41c3-497c-92ad-34b528a4177b","system_id":"levelo_inurba_marseille","lat":43.31214,"lon":5.3685,"is_reserved":false,"is_disabled":false,"rental_uris":{"android":"levelo://app?vid=11d6e85a-41c3-497c-92ad-34b528a4177b","ios":"levelo://app?vid=11d6e85a-41c3-497c-92ad-34b528a4177b"},"vehicle_type_id":"4","last_reported":1777306858,"current_range_meters":4400,"station_id":"ce4bgl92rcd13ifvqbq0","pricing_plan_id":"cebpf4jnsgd1na2vs0mg"},{"bike_id":"f31ee1de-f0ac-45f1-8966-2a05cef2cab6","system_id":"levelo_inurba_marseille","lat":43.30128,"lon":5.39862,"is_reserved":false,"is_disabled":false,"rental_uris":{"android":"levelo://app?vid=f31ee1de-f0ac-45f1-8966-2a05cef2cab6","ios":"levelo://app?vid=f31ee1de-f0ac-45f1-8966-2a05cef2cab6"},"vehicle_type_id":"4","last_reported":1777306858,"current_range_meters":4400,"station_id":"ce4bh0h2rcd13ifvqd40","pricing_plan_id":"cebpf4jnsgd1na2vs0mg"},{"bike_id":"fd583349-9e7d-4e5b-8155-1da1a7a44b99","system_id":"levelo_inurba_marseille","lat":43.27942,"lon":5.41038,"is_reserved":false,"is_disabled":false,"rental_uris":{"android":"levelo://app?vid=fd583349-9e7d-4e5b-8155-1da1a7a44b99","ios":"levelo://app?vid=fd583349-9e7d-4e5b-8155-1da1a7a44b99"},"vehicle_type_id":"4","last_reported":1777306858,"current_range_meters":4400,"station_id":"ce4bhnp2rcd13ifvqh0g","pricing_plan_id":"cebpf4jnsgd1na2vs0mg"},{"bike_id":"b0b71127-0186-446a-a86d-f400e2587a15","system_id":"levelo_inurba_marseille","lat":43.29618,"lon":5.37542,"is_reserved":false,"is_disabled":false,"rental_uris":{"android":"levelo://app?vid=b0b71127-0186-446a-a86d-f400e2587a15","ios":"levelo://app?vid=b0b71127-0186-446a-a86d-f400e2587a15"},"vehicle_type_id":"4","last_reported":1777306858,"current_range_meters":4400,"station_id":"ce4bgh92rcd13ifvqb50","pricing_plan_id":"cebpf4jnsgd1na2vs0mg"},{"bike_id":"35a6efba-6e56-4656-8dc6-121dcaca4930","system_id":"levelo_inurba_marseille","lat":43.25609,"lon":5.38643,"is_reserved":false,"is_disabled":false,"rental_uris":{"android":"levelo://app?vid=35a6efba-6e56-4656-8dc6-121dcaca4930","ios":"levelo://app?vid=35a6efba-6e56-4656-8dc6-121dcaca4930"},"vehicle_type_id":"4","last_reported":1777306858,"current_range_meters":4400,"station_id":"","pricing_plan_id":"cebpf4jnsgd1na2vs0mg"},{"bike_id":"0a524695-72ae-4f45-a61d-7f678a6ce89a","system_id":"levelo_inurba_marseille","lat":43.31885,"lon":5.40732,"is_reserved":false,"is_disabled":false,"rental_uris":{"android":"levelo://app?vid=0a524695-72ae-4f45-a61d-7f678a6ce89a","ios":"levelo://app?vid=0a524695-72ae-4f45-a61d-7f678a6ce89a"},"vehicle_type_id":"4","last_reported":1777306858,"current_range_meters":4400,"station_id":"ce4bhq12rcd13ifvqhig","pricing_plan_id":"cebpf4jnsgd1na2vs0mg"},{"bike_id":"263e220a-f897-4b90-9274-e33a935f3dd3","system_id":"levelo_inurba_marseille","lat":43.27801,"lon":5.40709,"is_reserved":false,"is_disabled":false,"rental_uris":{"android":"levelo://app?vid=263e220a-f897-4b90-9274-e33a935f3dd3","ios":"levelo://app?vid=263e220a-f897-4b90-9274-e33a935f3dd3"},"vehicle_type_id":"4","last_reported":1777306858,"current_range_meters":4800,"station_id":"ce4bhnh2rcd13ifvqgtg","pricing_plan_id":"cebpf4jnsgd1na2vs0mg"},{"bike_id":"e2a3db73-500b-4326-a0e8-79d951dbfb5b","system_id":"levelo_inurba_marseille","lat":43.3005,"lon":5.37943,"is_reserved":false,"is_disabled":false,"rental_uris":{"android":"levelo://app?vid=e2a3db73-500b-4326-a0e8-79d951dbfb5b","ios":"levelo://app?vid=e2a3db73-500b-4326-a0e8-79d951dbfb5b"},"vehicle_type_id":"4","last_reported":1777306858,"current_range_meters":4800,"station_id":"","pricing_plan_id":"cebpf4jnsgd1na2vs0mg"},{"bike_id":"81ab1a2f-3b71-4186-b481-315d2b02b475","system_id":"levelo_inurba_marseille","lat":43.31491,"lon":5.37306,"is_reserved":false,"is_disabled":false,"rental_uris":{"android":"levelo://app?vid=81ab1a2f-3b71-4186-b481-315d2b02b475","ios":"levelo://app?vid=81ab1a2f-3b71-4186-b481-315d2b02b475"},"vehicle_type_id":"4","last_reported":1777306858,"current_range_meters":4800,"station_id":"ce4bgt12rcd13ifvqcd0","pricing_plan_id":"cebpf4jnsgd1na2vs0mg"},{"bike_id":"2596dfd9-6653-4a3f-b8ae-a432e5510c76","system_id":"levelo_inurba_marseille","lat":43.28242,"lon":5.39065,"is_reserved":false,"is_disabled":true,"rental_uris":{"android":"levelo://app?vid=2596dfd9-6653-4a3f-b8ae-a432e5510c76","ios":"levelo://app?vid=2596dfd9-6653-4a3f-b8ae-a432e5510c76"},"vehicle_type_id":"4","last_reported":1777306858,"current_range_meters":4800,"station_id":"ce4bhn92rcd13ifvqgsg","pricing_plan_id":"cebpf4jnsgd1na2vs0mg"},{"bike_id":"bdab1e31-d7ea-4c8e-b3d6-57aabe73b361","system_id":"levelo_inurba_marseille","lat":43.28559,"lon":5.39497,"is_reserved":false,"is_disabled":true,"rental_uris":{"android":"levelo://app?vid=bdab1e31-d7ea-4c8e-b3d6-57aabe73b361","ios":"levelo://app?vid=bdab1e31-d7ea-4c8e-b3d6-57aabe73b361"},"vehicle_type_id":"4","last_reported":1777306858,"current_range_meters":4800,"station_id":"ce4bh292rcd13ifvqdg0","pricing_plan_id":"cebpf4jnsgd1na2vs0mg"},{"bike_id":"8c81c8db-cfa8-4213-85aa-baaa142f7800","system_id":"levelo_inurba_marseille","lat":43.28993,"lon":5.356,"is_reserved":false,"is_disabled":false,"rental_uris":{"android":"levelo://app?vid=8c81c8db-cfa8-4213-85aa-baaa142f7800","ios":"levelo://app?vid=8c81c8db-cfa8-4213-85aa-baaa142f7800"},"vehicle_type_id":"4","last_reported":1777306858,"current_range_meters":4800,"station_id":"ce4bhb92rcd13ifvqen0","pricing_plan_id":"cebpf4jnsgd1na2vs0mg"},{"bike_id":"b21748b2-fb24-4ee6-8e6a-c7c61264faec","system_id":"levelo_inurba_marseille","lat":43.27402,"lon":5.42247,"is_reserved":false,"is_disabled":false,"rental_uris":{"android":"levelo://app?vid=b21748b2-fb24-4ee6-8e6a-c7c61264faec","ios":"levelo://app?vid=b21748b2-fb24-4ee6-8e6a-c7c61264faec"},"vehicle_type_id":"4","last_reported":1777306858,"current_range_meters":4800,"station_id":"","pricing_plan_id":"cebpf4jnsgd1na2vs0mg"},{"bike_id":"beedd9fe-14c1-4a0c-a67b-41f1d966183e","system_id":"levelo_inurba_marseille","lat":43.30586,"lon":5.36738,"is_reserved":false,"is_disabled":false,"rental_uris":{"android":"levelo://app?vid=beedd9fe-14c1-4a0c-a67b-41f1d966183e","ios":"levelo://app?vid=beedd9fe-14c1-4a0c-a67b-41f1d966183e"},"vehicle_type_id":"4","last_reported":1777306858,"current_range_meters":4800,"station_id":"","pricing_plan_id":"cebpf4jnsgd1na2vs0mg"},{"bike_id":"1d56a6ec-a9d2-4d64-8572-e0855473aa94","system_id":"levelo_inurba_marseille","lat":43.29523,"lon":5.38546,"is_reserved":false,"is_disabled":false,"rental_uris":{"android":"levelo://app?vid=1d56a6ec-a9d2-4d64-8572-e0855473aa94","ios":"levelo://app?vid=1d56a6ec-a9d2-4d64-8572-e0855473aa94"},"vehicle_type_id":"4","last_reported":1777306858,"current_range_meters":4800,"station_id":"ce4bgih2rcd13ifvqba0","pricing_plan_id":"cebpf4jnsgd1na2vs0mg"},{"bike_id":"01c2252d-bea7-48a6-8b01-5cd6557b2a57","system_id":"levelo_inurba_marseille","lat":43.29034,"lon":5.39974,"is_reserved":false,"is_disabled":false,"rental_uris":{"android":"levelo://app?vid=01c2252d-bea7-48a6-8b01-5cd6557b2a57","ios":"levelo://app?vid=01c2252d-bea7-48a6-8b01-5cd6557b2a57"},"vehicle_type_id":"4","last_reported":1777306858,"current_range_meters":4800,"station_id":"ce4bh392rcd13ifvqdm0","pricing_plan_id":"cebpf4jnsgd1na2vs0mg"},{"bike_id":"ce87b5cf-3b29-4aaa-8d3b-f7c7c4e49073","system_id":"levelo_inurba_marseille","lat":43.29186,"lon":5.39314,"is_reserved":false,"is_disabled":false,"rental_uris":{"android":"levelo://app?vid=ce87b5cf-3b29-4aaa-8d3b-f7c7c4e49073","ios":"levelo://app?vid=ce87b5cf-3b29-4aaa-8d3b-f7c7c4e49073"},"vehicle_type_id":"4","last_reported":1777306858,"current_range_meters":4800,"station_id":"ce4bh192rcd13ifvqdd0","pricing_plan_id":"cebpf4jnsgd1na2vs0mg"},{"bike_id":"b9002d61-4f86-4163-ab80-21d90728c9d4","system_id":"levelo_inurba_marseille","lat":43.29542,"lon":5.38562,"is_reserved":false,"is_disabled":false,"rental_uris":{"android":"levelo://app?vid=b9002d61-4f86-4163-ab80-21d90728c9d4","ios":"levelo://app?vid=b9002d61-4f86-4163-ab80-21d90728c9d4"},"vehicle_type_id":"4","last_reported":1777306858,"current_range_meters":5600,"station_id":"ce4bgih2rcd13ifvqba0","pricing_plan_id":"cebpf4jnsgd1na2vs0mg"},{"bike_id":"27cd71a7-0940-4415-a67f-21597fbf1cd9","system_id":"levelo_inurba_marseille","lat":43.34583,"lon":5.37819,"is_reserved":false,"is_disabled":false,"rental_uris":{"android":"levelo://app?vid=27cd71a7-0940-4415-a67f-21597fbf1cd9","ios":"levelo://app?vid=27cd71a7-0940-4415-a67f-21597fbf1cd9"},"vehicle_type_id":"4","last_reported":1777306858,"current_range_meters":5600,"station_id":"","pricing_plan_id":"cebpf4jnsgd1na2vs0mg"},{"bike_id":"ada646fe-2eb7-4f53-b614-d5724223ab74","system_id":"levelo_inurba_marseille","lat":43.27812,"lon":5.40717,"is_reserved":false,"is_disabled":false,"rental_uris":{"android":"levelo://app?vid=ada646fe-2eb7-4f53-b614-d5724223ab74","ios":"levelo://app?vid=ada646fe-2eb7-4f53-b614-d5724223ab74"},"vehicle_type_id":"4","last_reported":1777306858,"current_range_meters":5600,"station_id":"ce4bhnh2rcd13ifvqgtg","pricing_plan_id":"cebpf4jnsgd1na2vs0mg"},{"bike_id":"ad06fbeb-2893-47bd-9310-693ccba410e9","system_id":"levelo_inurba_marseille","lat":43.28763,"lon":5.46823,"is_reserved":false,"is_disabled":false,"rental_uris":{"android":"levelo://app?vid=ad06fbeb-2893-47bd-9310-693ccba410e9","ios":"levelo://app?vid=ad06fbeb-2893-47bd-9310-693ccba410e9"},"vehicle_type_id":"4","last_reported":1777306858,"current_range_meters":5600,"station_id":"","pricing_plan_id":"cebpf4jnsgd1na2vs0mg"},{"bike_id":"cf4537a9-051c-4080-9a3f-93f632ce0082","system_id":"levelo_inurba_marseille","lat":43.337444,"lon":5.374475,"is_reserved":false,"is_disabled":false,"rental_uris":{"android":"levelo://app?vid=cf4537a9-051c-4080-9a3f-93f632ce0082","ios":"levelo://app?vid=cf4537a9-051c-4080-9a3f-93f632ce0082"},"vehicle_type_id":"4","last_reported":1777306858,"current_range_meters":5600,"station_id":"","pricing_plan_id":"cebpf4jnsgd1na2vs0mg"},{"bike_id":"017d1404-0900-4621-8a62-5b5967f2a7ca","system_id":"levelo_inurba_marseille","lat":43.2842,"lon":5.34982,"is_reserved":false,"is_disabled":false,"rental_uris":{"android":"levelo://app?vid=017d1404-0900-4621-8a62-5b5967f2a7ca","ios":"levelo://app?vid=017d1404-0900-4621-8a62-5b5967f2a7ca"},"vehicle_type_id":"4","last_reported":1777306858,"current_range_meters":5600,"station_id":"ce4bhbh2rcd13ifvqepg","pricing_plan_id":"cebpf4jnsgd1na2vs0mg"},{"bike_id":"f6e2f137-e505-4503-b936-741e7b80ac2f","system_id":"levelo_inurba_marseille","lat":43.30123,"lon":5.39876,"is_reserved":false,"is_disabled":false,"rental_uris":{"android":"levelo://app?vid=f6e2f137-e505-4503-b936-741e7b80ac2f","ios":"levelo://app?vid=f6e2f137-e505-4503-b936-741e7b80ac2f"},"vehicle_type_id":"4","last_reported":1777306858,"current_range_meters":5600,"station_id":"ce4bh0h2rcd13ifvqd40","pricing_plan_id":"cebpf4jnsgd1na2vs0mg"},{"bike_id":"cc765958-80fb-42f8-8f74-3a6b02f54f6c","system_id":"levelo_inurba_marseille","lat":43.29254,"lon":5.38451,"is_reserved":false,"is_disabled":false,"rental_uris":{"android":"levelo://app?vid=cc765958-80fb-42f8-8f74-3a6b02f54f6c","ios":"levelo://app?vid=cc765958-80fb-42f8-8f74-3a6b02f54f6c"},"vehicle_type_id":"4","last_reported":1777306858,"current_range_meters":5600,"station_id":"ce4bh692rcd13ifvqea0","pricing_plan_id":"cebpf4jnsgd1na2vs0mg"},{"bike_id":"fd149807-d1f1-473e-9fb0-b1b48552560d","system_id":"levelo_inurba_marseille","lat":43.33032,"lon":5.39043,"is_reserved":false,"is_disabled":false,"rental_uris":{"android":"levelo://app?vid=fd149807-d1f1-473e-9fb0-b1b48552560d","ios":"levelo://app?vid=fd149807-d1f1-473e-9fb0-b1b48552560d"},"vehicle_type_id":"4","last_reported":1777306858,"current_range_meters":5600,"station_id":"ce4bhr92rcd13ifvqhrg","pricing_plan_id":"cebpf4jnsgd1na2vs0mg"},{"bike_id":"146e9a61-c468-47d2-a5ee-957cf89f6cef","system_id":"levelo_inurba_marseille","lat":43.2319,"lon":5.35555,"is_reserved":false,"is_disabled":false,"rental_uris":{"android":"levelo://app?vid=146e9a61-c468-47d2-a5ee-957cf89f6cef","ios":"levelo://app?vid=146e9a61-c468-47d2-a5ee-957cf89f6cef"},"vehicle_type_id":"4","last_reported":1777306858,"current_range_meters":5600,"station_id":"ce4bhu92rcd13ifvqi70","pricing_plan_id":"cebpf4jnsgd1na2vs0mg"},{"bike_id":"bf8d5285-1b2a-4538-ad2a-07cde9392d51","system_id":"levelo_inurba_marseille","lat":43.292635,"lon":5.384427,"is_reserved":false,"is_disabled":false,"rental_uris":{"android":"levelo://app?vid=bf8d5285-1b2a-4538-ad2a-07cde9392d51","ios":"levelo://app?vid=bf8d5285-1b2a-4538-ad2a-07cde9392d51"},"vehicle_type_id":"4","last_reported":1777306858,"current_range_meters":5600,"station_id":"ce4bh692rcd13ifvqea0","pricing_plan_id":"cebpf4jnsgd1na2vs0mg"},{"bike_id":"4842a413-bdd6-4e69-9415-653df84a6b64","system_id":"levelo_inurba_marseille","lat":43.26188,"lon":5.37451,"is_reserved":false,"is_disabled":false,"rental_uris":{"android":"levelo://app?vid=4842a413-bdd6-4e69-9415-653df84a6b64","ios":"levelo://app?vid=4842a413-bdd6-4e69-9415-653df84a6b64"},"vehicle_type_id":"4","last_reported":1777306858,"current_range_meters":6000,"station_id":"ce4bhgp2rcd13ifvqfc0","pricing_plan_id":"cebpf4jnsgd1na2vs0mg"},{"bike_id":"259a7a87-95b3-4999-9e9e-b92ef28df776","system_id":"levelo_inurba_marseille","lat":43.25022,"lon":5.3898,"is_reserved":false,"is_disabled":false,"rental_uris":{"android":"levelo://app?vid=259a7a87-95b3-4999-9e9e-b92ef28df776","ios":"levelo://app?vid=259a7a87-95b3-4999-9e9e-b92ef28df776"},"vehicle_type_id":"4","last_reported":1777306858,"current_range_meters":6000,"station_id":"","pricing_plan_id":"cebpf4jnsgd1na2vs0mg"},{"bike_id":"91e4eed8-7aa0-4ca6-bc8b-33ffc5693469","system_id":"levelo_inurba_marseille","lat":43.31334,"lon":5.37908,"is_reserved":false,"is_disabled":false,"rental_uris":{"android":"levelo://app?vid=91e4eed8-7aa0-4ca6-bc8b-33ffc5693469","ios":"levelo://app?vid=91e4eed8-7aa0-4ca6-bc8b-33ffc5693469"},"vehicle_type_id":"4","last_reported":1777306858,"current_range_meters":6000,"station_id":"","pricing_plan_id":"cebpf4jnsgd1na2vs0mg"},{"bike_id":"d2a170e9-4683-45e4-8ad8-6a20e503868b","system_id":"levelo_inurba_marseille","lat":43.2551,"lon":5.37659,"is_reserved":false,"is_disabled":true,"rental_uris":{"android":"levelo://app?vid=d2a170e9-4683-45e4-8ad8-6a20e503868b","ios":"levelo://app?vid=d2a170e9-4683-45e4-8ad8-6a20e503868b"},"vehicle_type_id":"4","last_reported":1777306858,"current_range_meters":6000,"station_id":"ce4bhh12rcd13ifvqff0","pricing_plan_id":"cebpf4jnsgd1na2vs0mg"},{"bike_id":"593310f2-e1f3-47ad-841b-8858f25eadcd","system_id":"levelo_inurba_marseille","lat":43.28693,"lon":5.37393,"is_reserved":false,"is_disabled":false,"rental_uris":{"android":"levelo://app?vid=593310f2-e1f3-47ad-841b-8858f25eadcd","ios":"levelo://app?vid=593310f2-e1f3-47ad-841b-8858f25eadcd"},"vehicle_type_id":"4","last_reported":1777306858,"current_range_meters":6000,"station_id":"ce4bh3p2rcd13ifvqdq0","pricing_plan_id":"cebpf4jnsgd1na2vs0mg"},{"bike_id":"7e17da21-de27-4e4b-9912-876e46bc8a36","system_id":"levelo_inurba_marseille","lat":43.32101,"lon":5.36756,"is_reserved":false,"is_disabled":false,"rental_uris":{"android":"levelo://app?vid=7e17da21-de27-4e4b-9912-876e46bc8a36","ios":"levelo://app?vid=7e17da21-de27-4e4b-9912-876e46bc8a36"},"vehicle_type_id":"4","last_reported":1777306858,"current_range_meters":6000,"station_id":"ce4bhrh2rcd13ifvqhug","pricing_plan_id":"cebpf4jnsgd1na2vs0mg"},{"bike_id":"ad26b8dc-edee-444c-8fc3-cb83169b331a","system_id":"levelo_inurba_marseille","lat":43.2816,"lon":5.42653,"is_reserved":false,"is_disabled":false,"rental_uris":{"android":"levelo://app?vid=ad26b8dc-edee-444c-8fc3-cb83169b331a","ios":"levelo://app?vid=ad26b8dc-edee-444c-8fc3-cb83169b331a"},"vehicle_type_id":"4","last_reported":1777306858,"current_range_meters":6000,"station_id":"ce4bhnh2rcd13ifvqgug","pricing_plan_id":"cebpf4jnsgd1na2vs0mg"},{"bike_id":"50f8bdff-b169-44f8-8920-840c94d5e30a","system_id":"levelo_inurba_marseille","lat":43.28468,"lon":5.48393,"is_reserved":false,"is_disabled":false,"rental_uris":{"android":"levelo://app?vid=50f8bdff-b169-44f8-8920-840c94d5e30a","ios":"levelo://app?vid=50f8bdff-b169-44f8-8920-840c94d5e30a"},"vehicle_type_id":"4","last_reported":1777306858,"current_range_meters":6000,"station_id":"","pricing_plan_id":"cebpf4jnsgd1na2vs0mg"},{"bike_id":"0a600b38-40eb-43f9-ab09-06f299071e76","system_id":"levelo_inurba_marseille","lat":43.29004,"lon":5.3561,"is_reserved":false,"is_disabled":false,"rental_uris":{"android":"levelo://app?vid=0a600b38-40eb-43f9-ab09-06f299071e76","ios":"levelo://app?vid=0a600b38-40eb-43f9-ab09-06f299071e76"},"vehicle_type_id":"4","last_reported":1777306858,"current_range_meters":6000,"station_id":"ce4bhb92rcd13ifvqen0","pricing_plan_id":"cebpf4jnsgd1na2vs0mg"},{"bike_id":"c24bbbf6-fe8e-47a4-943d-c8db7c839d08","system_id":"levelo_inurba_marseille","lat":43.28607,"lon":5.35112,"is_reserved":false,"is_disabled":false,"rental_uris":{"android":"levelo://app?vid=c24bbbf6-fe8e-47a4-943d-c8db7c839d08","ios":"levelo://app?vid=c24bbbf6-fe8e-47a4-943d-c8db7c839d08"},"vehicle_type_id":"4","last_reported":1777306858,"current_range_meters":6000,"station_id":"ce4bhch2rcd13ifvqeug","pricing_plan_id":"cebpf4jnsgd1na2vs0mg"},{"bike_id":"cfef8fd9-aac4-445d-bc5f-d97aa09babab","system_id":"levelo_inurba_marseille","lat":43.27843,"lon":5.39206,"is_reserved":false,"is_disabled":false,"rental_uris":{"android":"levelo://app?vid=cfef8fd9-aac4-445d-bc5f-d97aa09babab","ios":"levelo://app?vid=cfef8fd9-aac4-445d-bc5f-d97aa09babab"},"vehicle_type_id":"4","last_reported":1777306858,"current_range_meters":6000,"station_id":"ce4bhjp2rcd13ifvqga0","pricing_plan_id":"cebpf4jnsgd1na2vs0mg"},{"bike_id":"8149beca-339f-4a6c-b408-f41b0bb74f6a","system_id":"levelo_inurba_marseille","lat":43.31693,"lon":5.4047,"is_reserved":false,"is_disabled":false,"rental_uris":{"android":"levelo://app?vid=8149beca-339f-4a6c-b408-f41b0bb74f6a","ios":"levelo://app?vid=8149beca-339f-4a6c-b408-f41b0bb74f6a"},"vehicle_type_id":"4","last_reported":1777306858,"current_range_meters":6000,"station_id":"ce4bh012rcd13ifvqd00","pricing_plan_id":"cebpf4jnsgd1na2vs0mg"},{"bike_id":"f05be5d8-fa5a-4a74-ae34-8f4e3facd1d7","system_id":"levelo_inurba_marseille","lat":43.25867,"lon":5.39904,"is_reserved":false,"is_disabled":false,"rental_uris":{"android":"levelo://app?vid=f05be5d8-fa5a-4a74-ae34-8f4e3facd1d7","ios":"levelo://app?vid=f05be5d8-fa5a-4a74-ae34-8f4e3facd1d7"},"vehicle_type_id":"4","last_reported":1777306858,"current_range_meters":6000,"station_id":"ce4bhl92rcd13ifvqghg","pricing_plan_id":"cebpf4jnsgd1na2vs0mg"},{"bike_id":"671a3093-f5ac-4dc3-92dd-3b0f34abb5fd","system_id":"levelo_inurba_marseille","lat":43.29532,"lon":5.38546,"is_reserved":false,"is_disabled":false,"rental_uris":{"android":"levelo://app?vid=671a3093-f5ac-4dc3-92dd-3b0f34abb5fd","ios":"levelo://app?vid=671a3093-f5ac-4dc3-92dd-3b0f34abb5fd"},"vehicle_type_id":"4","last_reported":1777306858,"current_range_meters":6000,"station_id":"ce4bgih2rcd13ifvqba0","pricing_plan_id":"cebpf4jnsgd1na2vs0mg"},{"bike_id":"127186fe-87fe-4347-8c14-2b72a4effa84","system_id":"levelo_inurba_marseille","lat":43.32095,"lon":5.36766,"is_reserved":false,"is_disabled":false,"rental_uris":{"android":"levelo://app?vid=127186fe-87fe-4347-8c14-2b72a4effa84","ios":"levelo://app?vid=127186fe-87fe-4347-8c14-2b72a4effa84"},"vehicle_type_id":"4","last_reported":1777306858,"current_range_meters":6000,"station_id":"ce4bhrh2rcd13ifvqhug","pricing_plan_id":"cebpf4jnsgd1na2vs0mg"},{"bike_id":"209318bb-a846-492d-bd32-e8bda5ba7b5d","system_id":"levelo_inurba_marseille","lat":43.30803,"lon":5.38173,"is_reserved":false,"is_disabled":false,"rental_uris":{"android":"levelo://app?vid=209318bb-a846-492d-bd32-e8bda5ba7b5d","ios":"levelo://app?vid=209318bb-a846-492d-bd32-e8bda5ba7b5d"},"vehicle_type_id":"4","last_reported":1777306858,"current_range_meters":6000,"station_id":"ce4bgt12rcd13ifvqce0","pricing_plan_id":"cebpf4jnsgd1na2vs0mg"},{"bike_id":"5367fafd-42a5-4c52-bd35-5d85953af91c","system_id":"levelo_inurba_marseille","lat":43.30992,"lon":5.37911,"is_reserved":false,"is_disabled":true,"rental_uris":{"android":"levelo://app?vid=5367fafd-42a5-4c52-bd35-5d85953af91c","ios":"levelo://app?vid=5367fafd-42a5-4c52-bd35-5d85953af91c"},"vehicle_type_id":"4","last_reported":1777306858,"current_range_meters":6400,"station_id":"","pricing_plan_id":"cebpf4jnsgd1na2vs0mg"},{"bike_id":"e74dd22b-1526-458b-b00b-eb542df6012c","system_id":"levelo_inurba_marseille","lat":43.25121,"lon":5.40299,"is_reserved":false,"is_disabled":false,"rental_uris":{"android":"levelo://app?vid=e74dd22b-1526-458b-b00b-eb542df6012c","ios":"levelo://app?vid=e74dd22b-1526-458b-b00b-eb542df6012c"},"vehicle_type_id":"4","last_reported":1777306858,"current_range_meters":6400,"station_id":"ce4bhlh2rcd13ifvqgig","pricing_plan_id":"cebpf4jnsgd1na2vs0mg"},{"bike_id":"95fcacf0-7086-4a79-916d-eb3549d744d3","system_id":"levelo_inurba_marseille","lat":43.337444,"lon":5.374475,"is_reserved":false,"is_disabled":false,"rental_uris":{"android":"levelo://app?vid=95fcacf0-7086-4a79-916d-eb3549d744d3","ios":"levelo://app?vid=95fcacf0-7086-4a79-916d-eb3549d744d3"},"vehicle_type_id":"4","last_reported":1777306858,"current_range_meters":6400,"station_id":"","pricing_plan_id":"cebpf4jnsgd1na2vs0mg"},{"bike_id":"7afb2c11-f72b-4694-8f2e-9b6ca1a87dfc","system_id":"levelo_inurba_marseille","lat":43.25499,"lon":5.37656,"is_reserved":false,"is_disabled":false,"rental_uris":{"android":"levelo://app?vid=7afb2c11-f72b-4694-8f2e-9b6ca1a87dfc","ios":"levelo://app?vid=7afb2c11-f72b-4694-8f2e-9b6ca1a87dfc"},"vehicle_type_id":"4","last_reported":1777306858,"current_range_meters":6400,"station_id":"ce4bhh12rcd13ifvqff0","pricing_plan_id":"cebpf4jnsgd1na2vs0mg"},{"bike_id":"110adb19-1a4e-4810-9cac-a66df4848347","system_id":"levelo_inurba_marseille","lat":43.30333,"lon":5.40464,"is_reserved":false,"is_disabled":false,"rental_uris":{"android":"levelo://app?vid=110adb19-1a4e-4810-9cac-a66df4848347","ios":"levelo://app?vid=110adb19-1a4e-4810-9cac-a66df4848347"},"vehicle_type_id":"4","last_reported":1777306858,"current_range_meters":6400,"station_id":"ce4bh012rcd13ifvqd10","pricing_plan_id":"cebpf4jnsgd1na2vs0mg"},{"bike_id":"3c9ce41d-7d0e-4321-95b6-f75f0599af83","system_id":"levelo_inurba_marseille","lat":43.27989,"lon":5.41653,"is_reserved":false,"is_disabled":false,"rental_uris":{"android":"levelo://app?vid=3c9ce41d-7d0e-4321-95b6-f75f0599af83","ios":"levelo://app?vid=3c9ce41d-7d0e-4321-95b6-f75f0599af83"},"vehicle_type_id":"4","last_reported":1777306858,"current_range_meters":6400,"station_id":"ce4bho12rcd13ifvqh1g","pricing_plan_id":"cebpf4jnsgd1na2vs0mg"},{"bike_id":"6b5b9e45-67f3-4a64-a294-ead66e30dbef","system_id":"levelo_inurba_marseille","lat":43.24673,"lon":5.38144,"is_reserved":false,"is_disabled":false,"rental_uris":{"android":"levelo://app?vid=6b5b9e45-67f3-4a64-a294-ead66e30dbef","ios":"levelo://app?vid=6b5b9e45-67f3-4a64-a294-ead66e30dbef"},"vehicle_type_id":"4","last_reported":1777306858,"current_range_meters":6400,"station_id":"ce4bhih2rcd13ifvqfr0","pricing_plan_id":"cebpf4jnsgd1na2vs0mg"},{"bike_id":"0db8ca00-576a-4d9b-9a36-6eb000feb39b","system_id":"levelo_inurba_marseille","lat":43.29282,"lon":5.36403,"is_reserved":false,"is_disabled":false,"rental_uris":{"android":"levelo://app?vid=0db8ca00-576a-4d9b-9a36-6eb000feb39b","ios":"levelo://app?vid=0db8ca00-576a-4d9b-9a36-6eb000feb39b"},"vehicle_type_id":"4","last_reported":1777306858,"current_range_meters":6400,"station_id":"","pricing_plan_id":"cebpf4jnsgd1na2vs0mg"},{"bike_id":"cddfc6b6-f3a5-4488-b0aa-8013a28a6b20","system_id":"levelo_inurba_marseille","lat":43.30417,"lon":5.41287,"is_reserved":false,"is_disabled":false,"rental_uris":{"android":"levelo://app?vid=cddfc6b6-f3a5-4488-b0aa-8013a28a6b20","ios":"levelo://app?vid=cddfc6b6-f3a5-4488-b0aa-8013a28a6b20"},"vehicle_type_id":"4","last_reported":1777306858,"current_range_meters":6400,"station_id":"ce4bhop2rcd13ifvqh8g","pricing_plan_id":"cebpf4jnsgd1na2vs0mg"},{"bike_id":"06b38321-2e45-40a1-85f4-1037cc09330e","system_id":"levelo_inurba_marseille","lat":43.30797,"lon":5.38157,"is_reserved":false,"is_disabled":false,"rental_uris":{"android":"levelo://app?vid=06b38321-2e45-40a1-85f4-1037cc09330e","ios":"levelo://app?vid=06b38321-2e45-40a1-85f4-1037cc09330e"},"vehicle_type_id":"4","last_reported":1777306858,"current_range_meters":6400,"station_id":"ce4bgt12rcd13ifvqce0","pricing_plan_id":"cebpf4jnsgd1na2vs0mg"},{"bike_id":"a20c828c-7e17-4850-9066-77d1ff8b1605","system_id":"levelo_inurba_marseille","lat":43.3054,"lon":5.36535,"is_reserved":false,"is_disabled":false,"rental_uris":{"android":"levelo://app?vid=a20c828c-7e17-4850-9066-77d1ff8b1605","ios":"levelo://app?vid=a20c828c-7e17-4850-9066-77d1ff8b1605"},"vehicle_type_id":"4","last_reported":1777306858,"current_range_meters":6400,"station_id":"ce4bgs12rcd13ifvqcag","pricing_plan_id":"cebpf4jnsgd1na2vs0mg"},{"bike_id":"253ffa4d-10dc-495c-93af-c6471d382088","system_id":"levelo_inurba_marseille","lat":43.25086,"lon":5.39524,"is_reserved":false,"is_disabled":false,"rental_uris":{"android":"levelo://app?vid=253ffa4d-10dc-495c-93af-c6471d382088","ios":"levelo://app?vid=253ffa4d-10dc-495c-93af-c6471d382088"},"vehicle_type_id":"4","last_reported":1777306858,"current_range_meters":6400,"station_id":"ce4bhm12rcd13ifvqgkg","pricing_plan_id":"cebpf4jnsgd1na2vs0mg"},{"bike_id":"c034e8a3-a926-411d-8712-6812b7164010","system_id":"levelo_inurba_marseille","lat":43.28702,"lon":5.39987,"is_reserved":false,"is_disabled":false,"rental_uris":{"android":"levelo://app?vid=c034e8a3-a926-411d-8712-6812b7164010","ios":"levelo://app?vid=c034e8a3-a926-411d-8712-6812b7164010"},"vehicle_type_id":"4","last_reported":1777306858,"current_range_meters":6800,"station_id":"ce4bho92rcd13ifvqh3g","pricing_plan_id":"cebpf4jnsgd1na2vs0mg"},{"bike_id":"8a945b63-d37f-4f34-83cd-0f0610185024","system_id":"levelo_inurba_marseille","lat":43.26496,"lon":5.3955,"is_reserved":false,"is_disabled":true,"rental_uris":{"android":"levelo://app?vid=8a945b63-d37f-4f34-83cd-0f0610185024","ios":"levelo://app?vid=8a945b63-d37f-4f34-83cd-0f0610185024"},"vehicle_type_id":"4","last_reported":1777306858,"current_range_meters":6800,"station_id":"ce4bhi12rcd13ifvqfq0","pricing_plan_id":"cebpf4jnsgd1na2vs0mg"},{"bike_id":"90de208a-dbd4-4c03-90b0-777092a46bad","system_id":"levelo_inurba_marseille","lat":43.3014,"lon":5.3886,"is_reserved":false,"is_disabled":false,"rental_uris":{"android":"levelo://app?vid=90de208a-dbd4-4c03-90b0-777092a46bad","ios":"levelo://app?vid=90de208a-dbd4-4c03-90b0-777092a46bad"},"vehicle_type_id":"4","last_reported":1777306858,"current_range_meters":6800,"station_id":"","pricing_plan_id":"cebpf4jnsgd1na2vs0mg"},{"bike_id":"f4b52566-f13c-45cd-96d0-7184d69bec4a","system_id":"levelo_inurba_marseille","lat":43.30889,"lon":5.37172,"is_reserved":false,"is_disabled":false,"rental_uris":{"android":"levelo://app?vid=f4b52566-f13c-45cd-96d0-7184d69bec4a","ios":"levelo://app?vid=f4b52566-f13c-45cd-96d0-7184d69bec4a"},"vehicle_type_id":"4","last_reported":1777306858,"current_range_meters":6800,"station_id":"ce4bguh2rcd13ifvqckg","pricing_plan_id":"cebpf4jnsgd1na2vs0mg"},{"bike_id":"71dfec61-c4e2-45c8-bfcd-ce5977af99ec","system_id":"levelo_inurba_marseille","lat":43.23896,"lon":5.37457,"is_reserved":false,"is_disabled":false,"rental_uris":{"android":"levelo://app?vid=71dfec61-c4e2-45c8-bfcd-ce5977af99ec","ios":"levelo://app?vid=71dfec61-c4e2-45c8-bfcd-ce5977af99ec"},"vehicle_type_id":"4","last_reported":1777306858,"current_range_meters":6800,"station_id":"st_d6sm7csbq4hs73f8fpjg","pricing_plan_id":"cebpf4jnsgd1na2vs0mg"},{"bike_id":"720a0258-2033-4bec-b9ad-9d471c5afa3c","system_id":"levelo_inurba_marseille","lat":43.26921,"lon":5.38922,"is_reserved":false,"is_disabled":false,"rental_uris":{"android":"levelo://app?vid=720a0258-2033-4bec-b9ad-9d471c5afa3c","ios":"levelo://app?vid=720a0258-2033-4bec-b9ad-9d471c5afa3c"},"vehicle_type_id":"4","last_reported":1777306858,"current_range_meters":6800,"station_id":"ce4bhhh2rcd13ifvqfl0","pricing_plan_id":"cebpf4jnsgd1na2vs0mg"},{"bike_id":"26daa8f0-7966-426d-b4c1-31651ee67e00","system_id":"levelo_inurba_marseille","lat":43.31211,"lon":5.36999,"is_reserved":false,"is_disabled":false,"rental_uris":{"android":"levelo://app?vid=26daa8f0-7966-426d-b4c1-31651ee67e00","ios":"levelo://app?vid=26daa8f0-7966-426d-b4c1-31651ee67e00"},"vehicle_type_id":"4","last_reported":1777306858,"current_range_meters":6800,"station_id":"","pricing_plan_id":"cebpf4jnsgd1na2vs0mg"},{"bike_id":"a0306c08-5a06-4f9b-a597-306fad71f9a8","system_id":"levelo_inurba_marseille","lat":43.30892,"lon":5.39639,"is_reserved":false,"is_disabled":false,"rental_uris":{"android":"levelo://app?vid=a0306c08-5a06-4f9b-a597-306fad71f9a8","ios":"levelo://app?vid=a0306c08-5a06-4f9b-a597-306fad71f9a8"},"vehicle_type_id":"4","last_reported":1777306858,"current_range_meters":6800,"station_id":"ce4bh012rcd13ifvqcv0","pricing_plan_id":"cebpf4jnsgd1na2vs0mg"},{"bike_id":"3aa4cb5e-8948-4eec-8e46-8344835cbaf2","system_id":"levelo_inurba_marseille","lat":43.31195,"lon":5.36827,"is_reserved":false,"is_disabled":false,"rental_uris":{"android":"levelo://app?vid=3aa4cb5e-8948-4eec-8e46-8344835cbaf2","ios":"levelo://app?vid=3aa4cb5e-8948-4eec-8e46-8344835cbaf2"},"vehicle_type_id":"4","last_reported":1777306858,"current_range_meters":6800,"station_id":"ce4bgl92rcd13ifvqbq0","pricing_plan_id":"cebpf4jnsgd1na2vs0mg"},{"bike_id":"80b161cc-6e40-44e8-9454-73c670e460e2","system_id":"levelo_inurba_marseille","lat":43.28476,"lon":5.48395,"is_reserved":false,"is_disabled":false,"rental_uris":{"android":"levelo://app?vid=80b161cc-6e40-44e8-9454-73c670e460e2","ios":"levelo://app?vid=80b161cc-6e40-44e8-9454-73c670e460e2"},"vehicle_type_id":"4","last_reported":1777306858,"current_range_meters":6800,"station_id":"","pricing_plan_id":"cebpf4jnsgd1na2vs0mg"},{"bike_id":"b8f12071-7d8c-40eb-b81a-49f9168a955e","system_id":"levelo_inurba_marseille","lat":43.25512,"lon":5.37671,"is_reserved":false,"is_disabled":false,"rental_uris":{"android":"levelo://app?vid=b8f12071-7d8c-40eb-b81a-49f9168a955e","ios":"levelo://app?vid=b8f12071-7d8c-40eb-b81a-49f9168a955e"},"vehicle_type_id":"4","last_reported":1777306858,"current_range_meters":6800,"station_id":"ce4bhh12rcd13ifvqff0","pricing_plan_id":"cebpf4jnsgd1na2vs0mg"},{"bike_id":"6c0e44b5-b4c6-4989-a0ec-b3c6d257ac1d","system_id":"levelo_inurba_marseille","lat":43.33186,"lon":5.37828,"is_reserved":false,"is_disabled":false,"rental_uris":{"android":"levelo://app?vid=6c0e44b5-b4c6-4989-a0ec-b3c6d257ac1d","ios":"levelo://app?vid=6c0e44b5-b4c6-4989-a0ec-b3c6d257ac1d"},"vehicle_type_id":"4","last_reported":1777306858,"current_range_meters":7200,"station_id":"","pricing_plan_id":"cebpf4jnsgd1na2vs0mg"},{"bike_id":"2f755aa1-105e-447f-807e-a8d37a45e600","system_id":"levelo_inurba_marseille","lat":43.28947,"lon":5.39291,"is_reserved":false,"is_disabled":false,"rental_uris":{"android":"levelo://app?vid=2f755aa1-105e-447f-807e-a8d37a45e600","ios":"levelo://app?vid=2f755aa1-105e-447f-807e-a8d37a45e600"},"vehicle_type_id":"4","last_reported":1777306858,"current_range_meters":7200,"station_id":"","pricing_plan_id":"cebpf4jnsgd1na2vs0mg"},{"bike_id":"d91a79ea-757d-4fb0-822d-efffb3df9a9a","system_id":"levelo_inurba_marseille","lat":43.24647,"lon":5.38887,"is_reserved":false,"is_disabled":false,"rental_uris":{"android":"levelo://app?vid=d91a79ea-757d-4fb0-822d-efffb3df9a9a","ios":"levelo://app?vid=d91a79ea-757d-4fb0-822d-efffb3df9a9a"},"vehicle_type_id":"4","last_reported":1777306858,"current_range_meters":7200,"station_id":"","pricing_plan_id":"cebpf4jnsgd1na2vs0mg"},{"bike_id":"6b9ceb44-f98b-4474-bf14-5e53602be7a5","system_id":"levelo_inurba_marseille","lat":43.33545,"lon":5.37464,"is_reserved":false,"is_disabled":false,"rental_uris":{"android":"levelo://app?vid=6b9ceb44-f98b-4474-bf14-5e53602be7a5","ios":"levelo://app?vid=6b9ceb44-f98b-4474-bf14-5e53602be7a5"},"vehicle_type_id":"4","last_reported":1777306858,"current_range_meters":7200,"station_id":"st_d46tts09ee8s73dlu43g","pricing_plan_id":"cebpf4jnsgd1na2vs0mg"},{"bike_id":"12811a9c-eb10-4b33-9d8f-ee152e8f6264","system_id":"levelo_inurba_marseille","lat":43.26043,"lon":5.39389,"is_reserved":false,"is_disabled":false,"rental_uris":{"android":"levelo://app?vid=12811a9c-eb10-4b33-9d8f-ee152e8f6264","ios":"levelo://app?vid=12811a9c-eb10-4b33-9d8f-ee152e8f6264"},"vehicle_type_id":"4","last_reported":1777306858,"current_range_meters":7200,"station_id":"ce4bhh92rcd13ifvqfj0","pricing_plan_id":"cebpf4jnsgd1na2vs0mg"},{"bike_id":"55ffa9cb-0e63-4320-8c55-2d765a24cf5f","system_id":"levelo_inurba_marseille","lat":43.24167,"lon":5.36411,"is_reserved":false,"is_disabled":false,"rental_uris":{"android":"levelo://app?vid=55ffa9cb-0e63-4320-8c55-2d765a24cf5f","ios":"levelo://app?vid=55ffa9cb-0e63-4320-8c55-2d765a24cf5f"},"vehicle_type_id":"4","last_reported":1777306858,"current_range_meters":7200,"station_id":"cpo36qri1sfpv3e86is0","pricing_plan_id":"cebpf4jnsgd1na2vs0mg"},{"bike_id":"22e212fa-15b9-4dee-8e7b-dd4b92edd68a","system_id":"levelo_inurba_marseille","lat":43.28446,"lon":5.39199,"is_reserved":false,"is_disabled":false,"rental_uris":{"android":"levelo://app?vid=22e212fa-15b9-4dee-8e7b-dd4b92edd68a","ios":"levelo://app?vid=22e212fa-15b9-4dee-8e7b-dd4b92edd68a"},"vehicle_type_id":"4","last_reported":1777306858,"current_range_meters":7200,"station_id":"ce4bhoh2rcd13ifvqh5g","pricing_plan_id":"cebpf4jnsgd1na2vs0mg"},{"bike_id":"e6e0181d-d51b-42d7-93b1-7e8f4d00629c","system_id":"levelo_inurba_marseille","lat":43.29824,"lon":5.42038,"is_reserved":false,"is_disabled":true,"rental_uris":{"android":"levelo://app?vid=e6e0181d-d51b-42d7-93b1-7e8f4d00629c","ios":"levelo://app?vid=e6e0181d-d51b-42d7-93b1-7e8f4d00629c"},"vehicle_type_id":"4","last_reported":1777306858,"current_range_meters":7200,"station_id":"","pricing_plan_id":"cebpf4jnsgd1na2vs0mg"},{"bike_id":"2e013045-b635-4629-a87d-995ec1628a85","system_id":"levelo_inurba_marseille","lat":43.32109,"lon":5.36779,"is_reserved":false,"is_disabled":false,"rental_uris":{"android":"levelo://app?vid=2e013045-b635-4629-a87d-995ec1628a85","ios":"levelo://app?vid=2e013045-b635-4629-a87d-995ec1628a85"},"vehicle_type_id":"4","last_reported":1777306858,"current_range_meters":7200,"station_id":"ce4bhrh2rcd13ifvqhug","pricing_plan_id":"cebpf4jnsgd1na2vs0mg"},{"bike_id":"6b8549bf-30d2-490f-8f61-d9ca43e4d06c","system_id":"levelo_inurba_marseille","lat":43.27015,"lon":5.4023,"is_reserved":false,"is_disabled":false,"rental_uris":{"android":"levelo://app?vid=6b8549bf-30d2-490f-8f61-d9ca43e4d06c","ios":"levelo://app?vid=6b8549bf-30d2-490f-8f61-d9ca43e4d06c"},"vehicle_type_id":"4","last_reported":1777306858,"current_range_meters":7200,"station_id":"","pricing_plan_id":"cebpf4jnsgd1na2vs0mg"},{"bike_id":"b475ad2d-310c-49bc-b313-1b98a756af70","system_id":"levelo_inurba_marseille","lat":43.30425,"lon":5.38881,"is_reserved":false,"is_disabled":false,"rental_uris":{"android":"levelo://app?vid=b475ad2d-310c-49bc-b313-1b98a756af70","ios":"levelo://app?vid=b475ad2d-310c-49bc-b313-1b98a756af70"},"vehicle_type_id":"4","last_reported":1777306858,"current_range_meters":7200,"station_id":"ce4bgk12rcd13ifvqbi0","pricing_plan_id":"cebpf4jnsgd1na2vs0mg"},{"bike_id":"20390428-a7a1-452e-834a-56424711f53c","system_id":"levelo_inurba_marseille","lat":43.26466,"lon":5.39534,"is_reserved":false,"is_disabled":false,"rental_uris":{"android":"levelo://app?vid=20390428-a7a1-452e-834a-56424711f53c","ios":"levelo://app?vid=20390428-a7a1-452e-834a-56424711f53c"},"vehicle_type_id":"4","last_reported":1777306858,"current_range_meters":7200,"station_id":"ce4bhi12rcd13ifvqfq0","pricing_plan_id":"cebpf4jnsgd1na2vs0mg"},{"bike_id":"282ffbf9-fbf3-4d44-bf2f-1929132e9e08","system_id":"levelo_inurba_marseille","lat":43.26553,"lon":5.37285,"is_reserved":false,"is_disabled":false,"rental_uris":{"android":"levelo://app?vid=282ffbf9-fbf3-4d44-bf2f-1929132e9e08","ios":"levelo://app?vid=282ffbf9-fbf3-4d44-bf2f-1929132e9e08"},"vehicle_type_id":"4","last_reported":1777306858,"current_range_meters":7200,"station_id":"ce4bhg12rcd13ifvqf70","pricing_plan_id":"cebpf4jnsgd1na2vs0mg"},{"bike_id":"c62c1fa8-d9f3-4d39-abae-b21751072764","system_id":"levelo_inurba_marseille","lat":43.28411,"lon":5.34987,"is_reserved":false,"is_disabled":false,"rental_uris":{"android":"levelo://app?vid=c62c1fa8-d9f3-4d39-abae-b21751072764","ios":"levelo://app?vid=c62c1fa8-d9f3-4d39-abae-b21751072764"},"vehicle_type_id":"4","last_reported":1777306858,"current_range_meters":7200,"station_id":"ce4bhbh2rcd13ifvqepg","pricing_plan_id":"cebpf4jnsgd1na2vs0mg"},{"bike_id":"fb81fa86-d471-409e-b802-b72fe679862f","system_id":"levelo_inurba_marseille","lat":43.24077,"lon":5.37757,"is_reserved":false,"is_disabled":false,"rental_uris":{"android":"levelo://app?vid=fb81fa86-d471-409e-b802-b72fe679862f","ios":"levelo://app?vid=fb81fa86-d471-409e-b802-b72fe679862f"},"vehicle_type_id":"4","last_reported":1777306858,"current_range_meters":7200,"station_id":"ce4bhnp2rcd13ifvqgvg","pricing_plan_id":"cebpf4jnsgd1na2vs0mg"},{"bike_id":"9bb79498-9e2c-49a4-80af-7e06a998c39a","system_id":"levelo_inurba_marseille","lat":43.28263,"lon":5.35063,"is_reserved":false,"is_disabled":false,"rental_uris":{"android":"levelo://app?vid=9bb79498-9e2c-49a4-80af-7e06a998c39a","ios":"levelo://app?vid=9bb79498-9e2c-49a4-80af-7e06a998c39a"},"vehicle_type_id":"4","last_reported":1777306858,"current_range_meters":7200,"station_id":"ce4bhbp2rcd13ifvqerg","pricing_plan_id":"cebpf4jnsgd1na2vs0mg"},{"bike_id":"bbd4b557-3184-4427-af74-50a1783bcb30","system_id":"levelo_inurba_marseille","lat":43.28641,"lon":5.35079,"is_reserved":false,"is_disabled":false,"rental_uris":{"android":"levelo://app?vid=bbd4b557-3184-4427-af74-50a1783bcb30","ios":"levelo://app?vid=bbd4b557-3184-4427-af74-50a1783bcb30"},"vehicle_type_id":"4","last_reported":1777306858,"current_range_meters":7200,"station_id":"ce4bhch2rcd13ifvqeug","pricing_plan_id":"cebpf4jnsgd1na2vs0mg"},{"bike_id":"900119c7-3b48-445f-a5c3-6bfef292e4ac","system_id":"levelo_inurba_marseille","lat":43.29285,"lon":5.36841,"is_reserved":false,"is_disabled":false,"rental_uris":{"android":"levelo://app?vid=900119c7-3b48-445f-a5c3-6bfef292e4ac","ios":"levelo://app?vid=900119c7-3b48-445f-a5c3-6bfef292e4ac"},"vehicle_type_id":"4","last_reported":1777306858,"current_range_meters":7200,"station_id":"ce4bhbp2rcd13ifvqesg","pricing_plan_id":"cebpf4jnsgd1na2vs0mg"},{"bike_id":"baeb7214-8f4f-4c25-bf1e-0d09eba19e90","system_id":"levelo_inurba_marseille","lat":43.30465,"lon":5.37904,"is_reserved":false,"is_disabled":false,"rental_uris":{"android":"levelo://app?vid=baeb7214-8f4f-4c25-bf1e-0d09eba19e90","ios":"levelo://app?vid=baeb7214-8f4f-4c25-bf1e-0d09eba19e90"},"vehicle_type_id":"4","last_reported":1777306858,"current_range_meters":8000,"station_id":"ce4bgup2rcd13ifvqcn0","pricing_plan_id":"cebpf4jnsgd1na2vs0mg"},{"bike_id":"06987186-7ee4-4b31-8d04-3f9348de776d","system_id":"levelo_inurba_marseille","lat":43.30095,"lon":5.39086,"is_reserved":false,"is_disabled":false,"rental_uris":{"android":"levelo://app?vid=06987186-7ee4-4b31-8d04-3f9348de776d","ios":"levelo://app?vid=06987186-7ee4-4b31-8d04-3f9348de776d"},"vehicle_type_id":"4","last_reported":1777306858,"current_range_meters":8000,"station_id":"ce4bh192rcd13ifvqdb0","pricing_plan_id":"cebpf4jnsgd1na2vs0mg"},{"bike_id":"8f13b61e-8a25-4927-8213-0f8d3090195b","system_id":"levelo_inurba_marseille","lat":43.28479,"lon":5.48403,"is_reserved":false,"is_disabled":false,"rental_uris":{"android":"levelo://app?vid=8f13b61e-8a25-4927-8213-0f8d3090195b","ios":"levelo://app?vid=8f13b61e-8a25-4927-8213-0f8d3090195b"},"vehicle_type_id":"4","last_reported":1777306858,"current_range_meters":8000,"station_id":"","pricing_plan_id":"cebpf4jnsgd1na2vs0mg"},{"bike_id":"8e77f3ba-38f8-4add-b61b-b2f308d4dba7","system_id":"levelo_inurba_marseille","lat":43.24667,"lon":5.38163,"is_reserved":false,"is_disabled":false,"rental_uris":{"android":"levelo://app?vid=8e77f3ba-38f8-4add-b61b-b2f308d4dba7","ios":"levelo://app?vid=8e77f3ba-38f8-4add-b61b-b2f308d4dba7"},"vehicle_type_id":"4","last_reported":1777306858,"current_range_meters":8000,"station_id":"ce4bhih2rcd13ifvqfr0","pricing_plan_id":"cebpf4jnsgd1na2vs0mg"},{"bike_id":"adf6e58e-5f3b-4f53-8876-d70bbb501954","system_id":"levelo_inurba_marseille","lat":43.26553,"lon":5.38946,"is_reserved":false,"is_disabled":false,"rental_uris":{"android":"levelo://app?vid=adf6e58e-5f3b-4f53-8876-d70bbb501954","ios":"levelo://app?vid=adf6e58e-5f3b-4f53-8876-d70bbb501954"},"vehicle_type_id":"4","last_reported":1777306858,"current_range_meters":8000,"station_id":"ce4bhe12rcd13ifvqf30","pricing_plan_id":"cebpf4jnsgd1na2vs0mg"},{"bike_id":"152ee7cd-5769-47c4-a921-4ef5bd0982bd","system_id":"levelo_inurba_marseille","lat":43.28264,"lon":5.35061,"is_reserved":false,"is_disabled":false,"rental_uris":{"android":"levelo://app?vid=152ee7cd-5769-47c4-a921-4ef5bd0982bd","ios":"levelo://app?vid=152ee7cd-5769-47c4-a921-4ef5bd0982bd"},"vehicle_type_id":"4","last_reported":1777306858,"current_range_meters":8000,"station_id":"ce4bhbp2rcd13ifvqerg","pricing_plan_id":"cebpf4jnsgd1na2vs0mg"},{"bike_id":"0a5a3ac5-e405-4d55-b971-b42d5be0aa52","system_id":"levelo_inurba_marseille","lat":43.28418,"lon":5.3499,"is_reserved":false,"is_disabled":false,"rental_uris":{"android":"levelo://app?vid=0a5a3ac5-e405-4d55-b971-b42d5be0aa52","ios":"levelo://app?vid=0a5a3ac5-e405-4d55-b971-b42d5be0aa52"},"vehicle_type_id":"4","last_reported":1777306858,"current_range_meters":8000,"station_id":"ce4bhbh2rcd13ifvqepg","pricing_plan_id":"cebpf4jnsgd1na2vs0mg"},{"bike_id":"64633d88-7e11-4956-bb07-afe41f84a160","system_id":"levelo_inurba_marseille","lat":43.31127,"lon":5.3776,"is_reserved":false,"is_disabled":false,"rental_uris":{"android":"levelo://app?vid=64633d88-7e11-4956-bb07-afe41f84a160","ios":"levelo://app?vid=64633d88-7e11-4956-bb07-afe41f84a160"},"vehicle_type_id":"4","last_reported":1777306858,"current_range_meters":8000,"station_id":"ce4bgt92rcd13ifvqcg0","pricing_plan_id":"cebpf4jnsgd1na2vs0mg"},{"bike_id":"11effbb2-3489-4e85-aec9-0e018fcdcc03","system_id":"levelo_inurba_marseille","lat":43.2319,"lon":5.35553,"is_reserved":false,"is_disabled":false,"rental_uris":{"android":"levelo://app?vid=11effbb2-3489-4e85-aec9-0e018fcdcc03","ios":"levelo://app?vid=11effbb2-3489-4e85-aec9-0e018fcdcc03"},"vehicle_type_id":"4","last_reported":1777306858,"current_range_meters":8000,"station_id":"ce4bhu92rcd13ifvqi70","pricing_plan_id":"cebpf4jnsgd1na2vs0mg"},{"bike_id":"16f36c8c-7807-471a-bd1b-2d0c485ccc8a","system_id":"levelo_inurba_marseille","lat":43.29258,"lon":5.40905,"is_reserved":false,"is_disabled":false,"rental_uris":{"android":"levelo://app?vid=16f36c8c-7807-471a-bd1b-2d0c485ccc8a","ios":"levelo://app?vid=16f36c8c-7807-471a-bd1b-2d0c485ccc8a"},"vehicle_type_id":"4","last_reported":1777306858,"current_range_meters":8000,"station_id":"ce4bh192rcd13ifvqdc0","pricing_plan_id":"cebpf4jnsgd1na2vs0mg"},{"bike_id":"2e1487b5-ffbe-4174-a3cb-5f2ca03b60ce","system_id":"levelo_inurba_marseille","lat":43.28481,"lon":5.48399,"is_reserved":false,"is_disabled":false,"rental_uris":{"android":"levelo://app?vid=2e1487b5-ffbe-4174-a3cb-5f2ca03b60ce","ios":"levelo://app?vid=2e1487b5-ffbe-4174-a3cb-5f2ca03b60ce"},"vehicle_type_id":"4","last_reported":1777306858,"current_range_meters":8000,"station_id":"st_d3svhcjqgbts73a3dn0g","pricing_plan_id":"cebpf4jnsgd1na2vs0mg"},{"bike_id":"dd590341-7511-4484-a775-ab80f8d34f5b","system_id":"levelo_inurba_marseille","lat":43.30499,"lon":5.3647,"is_reserved":false,"is_disabled":false,"rental_uris":{"android":"levelo://app?vid=dd590341-7511-4484-a775-ab80f8d34f5b","ios":"levelo://app?vid=dd590341-7511-4484-a775-ab80f8d34f5b"},"vehicle_type_id":"4","last_reported":1777306858,"current_range_meters":8000,"station_id":"","pricing_plan_id":"cebpf4jnsgd1na2vs0mg"},{"bike_id":"58ed6a13-d208-4ebb-82ad-8708a5bbec55","system_id":"levelo_inurba_marseille","lat":43.32104,"lon":5.36776,"is_reserved":false,"is_disabled":false,"rental_uris":{"android":"levelo://app?vid=58ed6a13-d208-4ebb-82ad-8708a5bbec55","ios":"levelo://app?vid=58ed6a13-d208-4ebb-82ad-8708a5bbec55"},"vehicle_type_id":"4","last_reported":1777306858,"current_range_meters":8000,"station_id":"ce4bhrh2rcd13ifvqhug","pricing_plan_id":"cebpf4jnsgd1na2vs0mg"},{"bike_id":"bf755b54-9bfc-4f5a-b759-04d952b762e5","system_id":"levelo_inurba_marseille","lat":43.24384,"lon":5.37075,"is_reserved":false,"is_disabled":false,"rental_uris":{"android":"levelo://app?vid=bf755b54-9bfc-4f5a-b759-04d952b762e5","ios":"levelo://app?vid=bf755b54-9bfc-4f5a-b759-04d952b762e5"},"vehicle_type_id":"4","last_reported":1777306858,"current_range_meters":8000,"station_id":"ce4bhhh2rcd13ifvqfk0","pricing_plan_id":"cebpf4jnsgd1na2vs0mg"},{"bike_id":"1d51c702-75ba-494d-89c9-6b8c4379e860","system_id":"levelo_inurba_marseille","lat":43.31218,"lon":5.37792,"is_reserved":false,"is_disabled":false,"rental_uris":{"android":"levelo://app?vid=1d51c702-75ba-494d-89c9-6b8c4379e860","ios":"levelo://app?vid=1d51c702-75ba-494d-89c9-6b8c4379e860"},"vehicle_type_id":"4","last_reported":1777306858,"current_range_meters":8000,"station_id":"","pricing_plan_id":"cebpf4jnsgd1na2vs0mg"},{"bike_id":"ca533c47-8a0f-44d9-804c-087b1a4a78e7","system_id":"levelo_inurba_marseille","lat":43.30549,"lon":5.36555,"is_reserved":false,"is_disabled":false,"rental_uris":{"android":"levelo://app?vid=ca533c47-8a0f-44d9-804c-087b1a4a78e7","ios":"levelo://app?vid=ca533c47-8a0f-44d9-804c-087b1a4a78e7"},"vehicle_type_id":"4","last_reported":1777306858,"current_range_meters":8000,"station_id":"ce4bgs12rcd13ifvqcag","pricing_plan_id":"cebpf4jnsgd1na2vs0mg"},{"bike_id":"77a84f5b-7059-4a53-ab66-ca8c8389943e","system_id":"levelo_inurba_marseille","lat":43.25336,"lon":5.42176,"is_reserved":false,"is_disabled":false,"rental_uris":{"android":"levelo://app?vid=77a84f5b-7059-4a53-ab66-ca8c8389943e","ios":"levelo://app?vid=77a84f5b-7059-4a53-ab66-ca8c8389943e"},"vehicle_type_id":"4","last_reported":1777306858,"current_range_meters":8000,"station_id":"st_d2m65c5bi1j21697t3ng","pricing_plan_id":"cebpf4jnsgd1na2vs0mg"},{"bike_id":"d20ccda7-29ef-4aa5-bbf2-63f1e6c3dcf5","system_id":"levelo_inurba_marseille","lat":43.32117,"lon":5.36772,"is_reserved":false,"is_disabled":false,"rental_uris":{"android":"levelo://app?vid=d20ccda7-29ef-4aa5-bbf2-63f1e6c3dcf5","ios":"levelo://app?vid=d20ccda7-29ef-4aa5-bbf2-63f1e6c3dcf5"},"vehicle_type_id":"4","last_reported":1777306858,"current_range_meters":8000,"station_id":"ce4bhrh2rcd13ifvqhug","pricing_plan_id":"cebpf4jnsgd1na2vs0mg"},{"bike_id":"d90972ed-485f-4362-9af1-16fec8b743e6","system_id":"levelo_inurba_marseille","lat":43.290326,"lon":5.399659,"is_reserved":false,"is_disabled":false,"rental_uris":{"android":"levelo://app?vid=d90972ed-485f-4362-9af1-16fec8b743e6","ios":"levelo://app?vid=d90972ed-485f-4362-9af1-16fec8b743e6"},"vehicle_type_id":"4","last_reported":1777306858,"current_range_meters":8000,"station_id":"ce4bh392rcd13ifvqdm0","pricing_plan_id":"cebpf4jnsgd1na2vs0mg"},{"bike_id":"00dc5e9b-ea0b-4277-be66-d6c88f0df8eb","system_id":"levelo_inurba_marseille","lat":43.32363,"lon":5.38882,"is_reserved":false,"is_disabled":false,"rental_uris":{"android":"levelo://app?vid=00dc5e9b-ea0b-4277-be66-d6c88f0df8eb","ios":"levelo://app?vid=00dc5e9b-ea0b-4277-be66-d6c88f0df8eb"},"vehicle_type_id":"4","last_reported":1777306858,"current_range_meters":8000,"station_id":"ce4bhqp2rcd13ifvqhog","pricing_plan_id":"cebpf4jnsgd1na2vs0mg"},{"bike_id":"b613f66f-4e3c-4a0c-9879-44ecad857af5","system_id":"levelo_inurba_marseille","lat":43.27623,"lon":5.36098,"is_reserved":false,"is_disabled":false,"rental_uris":{"android":"levelo://app?vid=b613f66f-4e3c-4a0c-9879-44ecad857af5","ios":"levelo://app?vid=b613f66f-4e3c-4a0c-9879-44ecad857af5"},"vehicle_type_id":"4","last_reported":1777306858,"current_range_meters":8000,"station_id":"ce4bgj92rcd13ifvqbe0","pricing_plan_id":"cebpf4jnsgd1na2vs0mg"},{"bike_id":"70407ec7-fbb8-427a-9b6a-4593a1da9be7","system_id":"levelo_inurba_marseille","lat":43.30304,"lon":5.36886,"is_reserved":false,"is_disabled":false,"rental_uris":{"android":"levelo://app?vid=70407ec7-fbb8-427a-9b6a-4593a1da9be7","ios":"levelo://app?vid=70407ec7-fbb8-427a-9b6a-4593a1da9be7"},"vehicle_type_id":"4","last_reported":1777306858,"current_range_meters":8000,"station_id":"ce4bgqh2rcd13ifvqc5g","pricing_plan_id":"cebpf4jnsgd1na2vs0mg"},{"bike_id":"7d24a3ee-0eb9-47a1-8904-33af700bdc69","system_id":"levelo_inurba_marseille","lat":43.28478,"lon":5.48395,"is_reserved":false,"is_disabled":false,"rental_uris":{"android":"levelo://app?vid=7d24a3ee-0eb9-47a1-8904-33af700bdc69","ios":"levelo://app?vid=7d24a3ee-0eb9-47a1-8904-33af700bdc69"},"vehicle_type_id":"4","last_reported":1777306858,"current_range_meters":8400,"station_id":"st_d3svhcjqgbts73a3dn0g","pricing_plan_id":"cebpf4jnsgd1na2vs0mg"},{"bike_id":"7ff02ec2-148f-473c-b17e-f6b44b0796b1","system_id":"levelo_inurba_marseille","lat":43.28885,"lon":5.37132,"is_reserved":false,"is_disabled":false,"rental_uris":{"android":"levelo://app?vid=7ff02ec2-148f-473c-b17e-f6b44b0796b1","ios":"levelo://app?vid=7ff02ec2-148f-473c-b17e-f6b44b0796b1"},"vehicle_type_id":"4","last_reported":1777306858,"current_range_meters":8400,"station_id":"","pricing_plan_id":"cebpf4jnsgd1na2vs0mg"},{"bike_id":"fb55a29e-fc68-4bb3-9b50-a2d7150b05aa","system_id":"levelo_inurba_marseille","lat":43.30658,"lon":5.40063,"is_reserved":false,"is_disabled":false,"rental_uris":{"android":"levelo://app?vid=fb55a29e-fc68-4bb3-9b50-a2d7150b05aa","ios":"levelo://app?vid=fb55a29e-fc68-4bb3-9b50-a2d7150b05aa"},"vehicle_type_id":"4","last_reported":1777306858,"current_range_meters":8400,"station_id":"ce4bh112rcd13ifvqda0","pricing_plan_id":"cebpf4jnsgd1na2vs0mg"},{"bike_id":"633a7919-24b3-4ba2-b51c-27b65dc34870","system_id":"levelo_inurba_marseille","lat":43.26185,"lon":5.37452,"is_reserved":false,"is_disabled":false,"rental_uris":{"android":"levelo://app?vid=633a7919-24b3-4ba2-b51c-27b65dc34870","ios":"levelo://app?vid=633a7919-24b3-4ba2-b51c-27b65dc34870"},"vehicle_type_id":"4","last_reported":1777306858,"current_range_meters":8400,"station_id":"ce4bhgp2rcd13ifvqfc0","pricing_plan_id":"cebpf4jnsgd1na2vs0mg"},{"bike_id":"b504488c-4a5c-43df-b299-e768506d1980","system_id":"levelo_inurba_marseille","lat":43.29332,"lon":5.37179,"is_reserved":false,"is_disabled":true,"rental_uris":{"android":"levelo://app?vid=b504488c-4a5c-43df-b299-e768506d1980","ios":"levelo://app?vid=b504488c-4a5c-43df-b299-e768506d1980"},"vehicle_type_id":"4","last_reported":1777306858,"current_range_meters":8400,"station_id":"ce4bgh92rcd13ifvqb40","pricing_plan_id":"cebpf4jnsgd1na2vs0mg"},{"bike_id":"14869599-ab60-4e86-8f2c-d0b35d29b95e","system_id":"levelo_inurba_marseille","lat":43.25646,"lon":5.4184,"is_reserved":false,"is_disabled":false,"rental_uris":{"android":"levelo://app?vid=14869599-ab60-4e86-8f2c-d0b35d29b95e","ios":"levelo://app?vid=14869599-ab60-4e86-8f2c-d0b35d29b95e"},"vehicle_type_id":"4","last_reported":1777306858,"current_range_meters":8400,"station_id":"","pricing_plan_id":"cebpf4jnsgd1na2vs0mg"},{"bike_id":"4d06cad1-2e4a-4159-99f3-38d6bcb9cc90","system_id":"levelo_inurba_marseille","lat":43.23195,"lon":5.35549,"is_reserved":false,"is_disabled":false,"rental_uris":{"android":"levelo://app?vid=4d06cad1-2e4a-4159-99f3-38d6bcb9cc90","ios":"levelo://app?vid=4d06cad1-2e4a-4159-99f3-38d6bcb9cc90"},"vehicle_type_id":"4","last_reported":1777306858,"current_range_meters":8400,"station_id":"ce4bhu92rcd13ifvqi70","pricing_plan_id":"cebpf4jnsgd1na2vs0mg"},{"bike_id":"b61b3e0f-e87d-4322-afcd-ef53193ae495","system_id":"levelo_inurba_marseille","lat":43.29009,"lon":5.38152,"is_reserved":false,"is_disabled":false,"rental_uris":{"android":"levelo://app?vid=b61b3e0f-e87d-4322-afcd-ef53193ae495","ios":"levelo://app?vid=b61b3e0f-e87d-4322-afcd-ef53193ae495"},"vehicle_type_id":"4","last_reported":1777306858,"current_range_meters":8400,"station_id":"ce4bh4p2rcd13ifvqe1g","pricing_plan_id":"cebpf4jnsgd1na2vs0mg"},{"bike_id":"5cc1c643-e016-4021-bc02-4c390e1e9896","system_id":"levelo_inurba_marseille","lat":43.288472,"lon":5.39265,"is_reserved":false,"is_disabled":false,"rental_uris":{"android":"levelo://app?vid=5cc1c643-e016-4021-bc02-4c390e1e9896","ios":"levelo://app?vid=5cc1c643-e016-4021-bc02-4c390e1e9896"},"vehicle_type_id":"4","last_reported":1777306858,"current_range_meters":8400,"station_id":"ce4bh2p2rcd13ifvqdi0","pricing_plan_id":"cebpf4jnsgd1na2vs0mg"},{"bike_id":"b3902c02-ed0d-498b-ac59-4afec3f2e9c3","system_id":"levelo_inurba_marseille","lat":43.27845,"lon":5.39225,"is_reserved":false,"is_disabled":false,"rental_uris":{"android":"levelo://app?vid=b3902c02-ed0d-498b-ac59-4afec3f2e9c3","ios":"levelo://app?vid=b3902c02-ed0d-498b-ac59-4afec3f2e9c3"},"vehicle_type_id":"4","last_reported":1777306858,"current_range_meters":8400,"station_id":"ce4bhjp2rcd13ifvqga0","pricing_plan_id":"cebpf4jnsgd1na2vs0mg"},{"bike_id":"486a6bd7-6877-47a7-872d-b6d92138ce35","system_id":"levelo_inurba_marseille","lat":43.28183,"lon":5.42638,"is_reserved":false,"is_disabled":false,"rental_uris":{"android":"levelo://app?vid=486a6bd7-6877-47a7-872d-b6d92138ce35","ios":"levelo://app?vid=486a6bd7-6877-47a7-872d-b6d92138ce35"},"vehicle_type_id":"4","last_reported":1777306858,"current_range_meters":8400,"station_id":"ce4bhnh2rcd13ifvqgug","pricing_plan_id":"cebpf4jnsgd1na2vs0mg"},{"bike_id":"f7466655-3f2b-4979-8e81-52d2b32b6b96","system_id":"levelo_inurba_marseille","lat":43.25577,"lon":5.38228,"is_reserved":false,"is_disabled":false,"rental_uris":{"android":"levelo://app?vid=f7466655-3f2b-4979-8e81-52d2b32b6b96","ios":"levelo://app?vid=f7466655-3f2b-4979-8e81-52d2b32b6b96"},"vehicle_type_id":"4","last_reported":1777306858,"current_range_meters":8400,"station_id":"ce4bhih2rcd13ifvqfs0","pricing_plan_id":"cebpf4jnsgd1na2vs0mg"},{"bike_id":"ed25a454-52a8-4945-92c6-672abf802e4d","system_id":"levelo_inurba_marseille","lat":43.24392,"lon":5.37062,"is_reserved":false,"is_disabled":false,"rental_uris":{"android":"levelo://app?vid=ed25a454-52a8-4945-92c6-672abf802e4d","ios":"levelo://app?vid=ed25a454-52a8-4945-92c6-672abf802e4d"},"vehicle_type_id":"4","last_reported":1777306858,"current_range_meters":8400,"station_id":"ce4bhhh2rcd13ifvqfk0","pricing_plan_id":"cebpf4jnsgd1na2vs0mg"},{"bike_id":"a613ec48-8652-47ac-9246-dcfba5774b3a","system_id":"levelo_inurba_marseille","lat":43.24401,"lon":5.37051,"is_reserved":false,"is_disabled":false,"rental_uris":{"android":"levelo://app?vid=a613ec48-8652-47ac-9246-dcfba5774b3a","ios":"levelo://app?vid=a613ec48-8652-47ac-9246-dcfba5774b3a"},"vehicle_type_id":"4","last_reported":1777306858,"current_range_meters":8400,"station_id":"ce4bhhh2rcd13ifvqfk0","pricing_plan_id":"cebpf4jnsgd1na2vs0mg"},{"bike_id":"b4c7fe36-8eb5-4184-a2d2-22d513d4c2ed","system_id":"levelo_inurba_marseille","lat":43.25336,"lon":5.42188,"is_reserved":false,"is_disabled":false,"rental_uris":{"android":"levelo://app?vid=b4c7fe36-8eb5-4184-a2d2-22d513d4c2ed","ios":"levelo://app?vid=b4c7fe36-8eb5-4184-a2d2-22d513d4c2ed"},"vehicle_type_id":"4","last_reported":1777306858,"current_range_meters":8800,"station_id":"st_d2m65c5bi1j21697t3ng","pricing_plan_id":"cebpf4jnsgd1na2vs0mg"},{"bike_id":"603fe1e8-d047-47a4-b8a9-0e24ed00a95a","system_id":"levelo_inurba_marseille","lat":43.30322,"lon":5.39236,"is_reserved":false,"is_disabled":false,"rental_uris":{"android":"levelo://app?vid=603fe1e8-d047-47a4-b8a9-0e24ed00a95a","ios":"levelo://app?vid=603fe1e8-d047-47a4-b8a9-0e24ed00a95a"},"vehicle_type_id":"4","last_reported":1777306858,"current_range_meters":8800,"station_id":"ce4bgkh2rcd13ifvqbk0","pricing_plan_id":"cebpf4jnsgd1na2vs0mg"},{"bike_id":"e593377f-0b04-468e-be39-461905e9f322","system_id":"levelo_inurba_marseille","lat":43.24661,"lon":5.38909,"is_reserved":false,"is_disabled":false,"rental_uris":{"android":"levelo://app?vid=e593377f-0b04-468e-be39-461905e9f322","ios":"levelo://app?vid=e593377f-0b04-468e-be39-461905e9f322"},"vehicle_type_id":"4","last_reported":1777306858,"current_range_meters":8800,"station_id":"ce4bhg12rcd13ifvqf60","pricing_plan_id":"cebpf4jnsgd1na2vs0mg"},{"bike_id":"8ac0bd5f-2f2a-4833-ada5-2e9beded5ddb","system_id":"levelo_inurba_marseille","lat":43.31488,"lon":5.39198,"is_reserved":false,"is_disabled":false,"rental_uris":{"android":"levelo://app?vid=8ac0bd5f-2f2a-4833-ada5-2e9beded5ddb","ios":"levelo://app?vid=8ac0bd5f-2f2a-4833-ada5-2e9beded5ddb"},"vehicle_type_id":"4","last_reported":1777306858,"current_range_meters":8800,"station_id":"","pricing_plan_id":"cebpf4jnsgd1na2vs0mg"},{"bike_id":"16d472fe-eb19-4acc-8aa8-94088ad37de6","system_id":"levelo_inurba_marseille","lat":43.35192,"lon":5.36422,"is_reserved":false,"is_disabled":false,"rental_uris":{"android":"levelo://app?vid=16d472fe-eb19-4acc-8aa8-94088ad37de6","ios":"levelo://app?vid=16d472fe-eb19-4acc-8aa8-94088ad37de6"},"vehicle_type_id":"4","last_reported":1777306858,"current_range_meters":8800,"station_id":"","pricing_plan_id":"cebpf4jnsgd1na2vs0mg"},{"bike_id":"cf0e25e4-8ae0-45f9-9ead-bb535e1638dd","system_id":"levelo_inurba_marseille","lat":43.25347,"lon":5.42187,"is_reserved":false,"is_disabled":false,"rental_uris":{"android":"levelo://app?vid=cf0e25e4-8ae0-45f9-9ead-bb535e1638dd","ios":"levelo://app?vid=cf0e25e4-8ae0-45f9-9ead-bb535e1638dd"},"vehicle_type_id":"4","last_reported":1777306858,"current_range_meters":8800,"station_id":"st_d2m65c5bi1j21697t3ng","pricing_plan_id":"cebpf4jnsgd1na2vs0mg"},{"bike_id":"93f5cff5-a130-443a-b757-911ad52186c7","system_id":"levelo_inurba_marseille","lat":43.26521,"lon":5.39576,"is_reserved":false,"is_disabled":false,"rental_uris":{"android":"levelo://app?vid=93f5cff5-a130-443a-b757-911ad52186c7","ios":"levelo://app?vid=93f5cff5-a130-443a-b757-911ad52186c7"},"vehicle_type_id":"4","last_reported":1777306858,"current_range_meters":8800,"station_id":"ce4bhi12rcd13ifvqfq0","pricing_plan_id":"cebpf4jnsgd1na2vs0mg"},{"bike_id":"df05f1b1-12eb-4b58-9ec1-bf4f4d7d337d","system_id":"levelo_inurba_marseille","lat":43.28838,"lon":5.39331,"is_reserved":false,"is_disabled":false,"rental_uris":{"android":"levelo://app?vid=df05f1b1-12eb-4b58-9ec1-bf4f4d7d337d","ios":"levelo://app?vid=df05f1b1-12eb-4b58-9ec1-bf4f4d7d337d"},"vehicle_type_id":"4","last_reported":1777306858,"current_range_meters":8800,"station_id":"ce4bh2p2rcd13ifvqdi0","pricing_plan_id":"cebpf4jnsgd1na2vs0mg"},{"bike_id":"1313d3cc-feb5-4a48-99b3-cb4d7635e1e9","system_id":"levelo_inurba_marseille","lat":43.32531,"lon":5.38091,"is_reserved":false,"is_disabled":false,"rental_uris":{"android":"levelo://app?vid=1313d3cc-feb5-4a48-99b3-cb4d7635e1e9","ios":"levelo://app?vid=1313d3cc-feb5-4a48-99b3-cb4d7635e1e9"},"vehicle_type_id":"4","last_reported":1777306858,"current_range_meters":8800,"station_id":"","pricing_plan_id":"cebpf4jnsgd1na2vs0mg"},{"bike_id":"390bf80e-a686-45ee-be0e-9cfd49dc8517","system_id":"levelo_inurba_marseille","lat":43.28923,"lon":5.38376,"is_reserved":false,"is_disabled":true,"rental_uris":{"android":"levelo://app?vid=390bf80e-a686-45ee-be0e-9cfd49dc8517","ios":"levelo://app?vid=390bf80e-a686-45ee-be0e-9cfd49dc8517"},"vehicle_type_id":"4","last_reported":1777306858,"current_range_meters":8800,"station_id":"ce4bh612rcd13ifvqe6g","pricing_plan_id":"cebpf4jnsgd1na2vs0mg"},{"bike_id":"c51a8dfc-89ca-43ee-bcfa-57b0c093775c","system_id":"levelo_inurba_marseille","lat":43.29002,"lon":5.3562,"is_reserved":false,"is_disabled":false,"rental_uris":{"android":"levelo://app?vid=c51a8dfc-89ca-43ee-bcfa-57b0c093775c","ios":"levelo://app?vid=c51a8dfc-89ca-43ee-bcfa-57b0c093775c"},"vehicle_type_id":"4","last_reported":1777306858,"current_range_meters":8800,"station_id":"ce4bhb92rcd13ifvqen0","pricing_plan_id":"cebpf4jnsgd1na2vs0mg"},{"bike_id":"88a0f582-80de-4d6f-aec4-8e4ea246f34a","system_id":"levelo_inurba_marseille","lat":43.30513,"lon":5.36698,"is_reserved":false,"is_disabled":false,"rental_uris":{"android":"levelo://app?vid=88a0f582-80de-4d6f-aec4-8e4ea246f34a","ios":"levelo://app?vid=88a0f582-80de-4d6f-aec4-8e4ea246f34a"},"vehicle_type_id":"4","last_reported":1777306858,"current_range_meters":8800,"station_id":"ce4bgrp2rcd13ifvqc9g","pricing_plan_id":"cebpf4jnsgd1na2vs0mg"},{"bike_id":"3e7d162c-00c7-4c2d-a6f3-27d041cf5cf7","system_id":"levelo_inurba_marseille","lat":43.27662,"lon":5.3888,"is_reserved":false,"is_disabled":false,"rental_uris":{"android":"levelo://app?vid=3e7d162c-00c7-4c2d-a6f3-27d041cf5cf7","ios":"levelo://app?vid=3e7d162c-00c7-4c2d-a6f3-27d041cf5cf7"},"vehicle_type_id":"4","last_reported":1777306858,"current_range_meters":8800,"station_id":"ce4bhi12rcd13ifvqfo0","pricing_plan_id":"cebpf4jnsgd1na2vs0mg"},{"bike_id":"1b777b2a-868b-41f8-a934-5ffefe1d9742","system_id":"levelo_inurba_marseille","lat":43.28072,"lon":5.39647,"is_reserved":false,"is_disabled":false,"rental_uris":{"android":"levelo://app?vid=1b777b2a-868b-41f8-a934-5ffefe1d9742","ios":"levelo://app?vid=1b777b2a-868b-41f8-a934-5ffefe1d9742"},"vehicle_type_id":"4","last_reported":1777306858,"current_range_meters":8800,"station_id":"ce4bho12rcd13ifvqh2g","pricing_plan_id":"cebpf4jnsgd1na2vs0mg"},{"bike_id":"6bbf9791-d3c9-4235-8715-2d74e1c78f88","system_id":"levelo_inurba_marseille","lat":43.28699,"lon":5.39996,"is_reserved":false,"is_disabled":false,"rental_uris":{"android":"levelo://app?vid=6bbf9791-d3c9-4235-8715-2d74e1c78f88","ios":"levelo://app?vid=6bbf9791-d3c9-4235-8715-2d74e1c78f88"},"vehicle_type_id":"4","last_reported":1777306858,"current_range_meters":8800,"station_id":"ce4bho92rcd13ifvqh3g","pricing_plan_id":"cebpf4jnsgd1na2vs0mg"},{"bike_id":"103b74ed-2fbf-46cc-82eb-d5bb64ef6f5e","system_id":"levelo_inurba_marseille","lat":43.26092,"lon":5.38698,"is_reserved":false,"is_disabled":false,"rental_uris":{"android":"levelo://app?vid=103b74ed-2fbf-46cc-82eb-d5bb64ef6f5e","ios":"levelo://app?vid=103b74ed-2fbf-46cc-82eb-d5bb64ef6f5e"},"vehicle_type_id":"4","last_reported":1777306858,"current_range_meters":8800,"station_id":"","pricing_plan_id":"cebpf4jnsgd1na2vs0mg"},{"bike_id":"8dbbe05a-b0e7-456c-ba6f-767ce1c37a34","system_id":"levelo_inurba_marseille","lat":43.27619,"lon":5.36106,"is_reserved":false,"is_disabled":false,"rental_uris":{"android":"levelo://app?vid=8dbbe05a-b0e7-456c-ba6f-767ce1c37a34","ios":"levelo://app?vid=8dbbe05a-b0e7-456c-ba6f-767ce1c37a34"},"vehicle_type_id":"4","last_reported":1777306858,"current_range_meters":8800,"station_id":"ce4bgj92rcd13ifvqbe0","pricing_plan_id":"cebpf4jnsgd1na2vs0mg"},{"bike_id":"c04c42cf-36a4-4a3c-b656-dde2fe1bae7e","system_id":"levelo_inurba_marseille","lat":43.28574,"lon":5.40268,"is_reserved":false,"is_disabled":false,"rental_uris":{"android":"levelo://app?vid=c04c42cf-36a4-4a3c-b656-dde2fe1bae7e","ios":"levelo://app?vid=c04c42cf-36a4-4a3c-b656-dde2fe1bae7e"},"vehicle_type_id":"4","last_reported":1777306858,"current_range_meters":8800,"station_id":"","pricing_plan_id":"cebpf4jnsgd1na2vs0mg"},{"bike_id":"511b6884-6d1a-4909-add3-762ec103ac5b","system_id":"levelo_inurba_marseille","lat":43.2903,"lon":5.35615,"is_reserved":false,"is_disabled":false,"rental_uris":{"android":"levelo://app?vid=511b6884-6d1a-4909-add3-762ec103ac5b","ios":"levelo://app?vid=511b6884-6d1a-4909-add3-762ec103ac5b"},"vehicle_type_id":"4","last_reported":1777306858,"current_range_meters":8800,"station_id":"ce4bhb92rcd13ifvqen0","pricing_plan_id":"cebpf4jnsgd1na2vs0mg"},{"bike_id":"baa55d1a-8e1e-46c2-9459-c2953120d083","system_id":"levelo_inurba_marseille","lat":43.28415,"lon":5.34996,"is_reserved":false,"is_disabled":false,"rental_uris":{"android":"levelo://app?vid=baa55d1a-8e1e-46c2-9459-c2953120d083","ios":"levelo://app?vid=baa55d1a-8e1e-46c2-9459-c2953120d083"},"vehicle_type_id":"4","last_reported":1777306858,"current_range_meters":9200,"station_id":"ce4bhbh2rcd13ifvqepg","pricing_plan_id":"cebpf4jnsgd1na2vs0mg"},{"bike_id":"3462feaa-c9a2-441c-b3a1-f70058c367e6","system_id":"levelo_inurba_marseille","lat":43.24403,"lon":5.37064,"is_reserved":false,"is_disabled":false,"rental_uris":{"android":"levelo://app?vid=3462feaa-c9a2-441c-b3a1-f70058c367e6","ios":"levelo://app?vid=3462feaa-c9a2-441c-b3a1-f70058c367e6"},"vehicle_type_id":"4","last_reported":1777306858,"current_range_meters":9200,"station_id":"ce4bhhh2rcd13ifvqfk0","pricing_plan_id":"cebpf4jnsgd1na2vs0mg"},{"bike_id":"0d4dfb01-63c5-4be7-bdb0-5163c6b2578c","system_id":"levelo_inurba_marseille","lat":43.31876,"lon":5.36825,"is_reserved":false,"is_disabled":false,"rental_uris":{"android":"levelo://app?vid=0d4dfb01-63c5-4be7-bdb0-5163c6b2578c","ios":"levelo://app?vid=0d4dfb01-63c5-4be7-bdb0-5163c6b2578c"},"vehicle_type_id":"4","last_reported":1777306858,"current_range_meters":9200,"station_id":"st_d6o2h0d0559c73evc1b0","pricing_plan_id":"cebpf4jnsgd1na2vs0mg"},{"bike_id":"19af9a3c-5539-4472-a5a8-42eb3cf95ee3","system_id":"levelo_inurba_marseille","lat":43.29266,"lon":5.38443,"is_reserved":false,"is_disabled":false,"rental_uris":{"android":"levelo://app?vid=19af9a3c-5539-4472-a5a8-42eb3cf95ee3","ios":"levelo://app?vid=19af9a3c-5539-4472-a5a8-42eb3cf95ee3"},"vehicle_type_id":"4","last_reported":1777306858,"current_range_meters":9200,"station_id":"ce4bh692rcd13ifvqea0","pricing_plan_id":"cebpf4jnsgd1na2vs0mg"},{"bike_id":"f447fec5-f118-42c2-be2c-8ef32b6d20a2","system_id":"levelo_inurba_marseille","lat":43.25963,"lon":5.41685,"is_reserved":false,"is_disabled":false,"rental_uris":{"android":"levelo://app?vid=f447fec5-f118-42c2-be2c-8ef32b6d20a2","ios":"levelo://app?vid=f447fec5-f118-42c2-be2c-8ef32b6d20a2"},"vehicle_type_id":"4","last_reported":1777306858,"current_range_meters":9200,"station_id":"","pricing_plan_id":"cebpf4jnsgd1na2vs0mg"},{"bike_id":"b5088cd7-5e45-457a-ae9f-32446d67355c","system_id":"levelo_inurba_marseille","lat":43.3248,"lon":5.36569,"is_reserved":false,"is_disabled":false,"rental_uris":{"android":"levelo://app?vid=b5088cd7-5e45-457a-ae9f-32446d67355c","ios":"levelo://app?vid=b5088cd7-5e45-457a-ae9f-32446d67355c"},"vehicle_type_id":"4","last_reported":1777306858,"current_range_meters":9200,"station_id":"ce4bhs12rcd13ifvqhvg","pricing_plan_id":"cebpf4jnsgd1na2vs0mg"},{"bike_id":"74929e98-c2e0-43cc-b447-0901251d01cb","system_id":"levelo_inurba_marseille","lat":43.2549,"lon":5.37677,"is_reserved":false,"is_disabled":false,"rental_uris":{"android":"levelo://app?vid=74929e98-c2e0-43cc-b447-0901251d01cb","ios":"levelo://app?vid=74929e98-c2e0-43cc-b447-0901251d01cb"},"vehicle_type_id":"4","last_reported":1777306858,"current_range_meters":9200,"station_id":"ce4bhh12rcd13ifvqff0","pricing_plan_id":"cebpf4jnsgd1na2vs0mg"},{"bike_id":"e5cd69c7-9379-4379-93b8-62cf25a54177","system_id":"levelo_inurba_marseille","lat":43.337497,"lon":5.374492,"is_reserved":false,"is_disabled":false,"rental_uris":{"android":"levelo://app?vid=e5cd69c7-9379-4379-93b8-62cf25a54177","ios":"levelo://app?vid=e5cd69c7-9379-4379-93b8-62cf25a54177"},"vehicle_type_id":"4","last_reported":1777306858,"current_range_meters":9200,"station_id":"","pricing_plan_id":"cebpf4jnsgd1na2vs0mg"},{"bike_id":"43689306-3dd6-4d81-a379-c152a4ab879e","system_id":"levelo_inurba_marseille","lat":43.29621,"lon":5.37726,"is_reserved":false,"is_disabled":false,"rental_uris":{"android":"levelo://app?vid=43689306-3dd6-4d81-a379-c152a4ab879e","ios":"levelo://app?vid=43689306-3dd6-4d81-a379-c152a4ab879e"},"vehicle_type_id":"4","last_reported":1777306858,"current_range_meters":9200,"station_id":"ce4bgi92rcd13ifvqb90","pricing_plan_id":"cebpf4jnsgd1na2vs0mg"},{"bike_id":"61ed4735-d94e-455f-b359-ae8082d37801","system_id":"levelo_inurba_marseille","lat":43.27615,"lon":5.36103,"is_reserved":false,"is_disabled":false,"rental_uris":{"android":"levelo://app?vid=61ed4735-d94e-455f-b359-ae8082d37801","ios":"levelo://app?vid=61ed4735-d94e-455f-b359-ae8082d37801"},"vehicle_type_id":"4","last_reported":1777306858,"current_range_meters":9200,"station_id":"ce4bgj92rcd13ifvqbe0","pricing_plan_id":"cebpf4jnsgd1na2vs0mg"},{"bike_id":"82bc7e96-ab6f-42a2-8514-8b94948a0347","system_id":"levelo_inurba_marseille","lat":43.28999,"lon":5.35612,"is_reserved":false,"is_disabled":false,"rental_uris":{"android":"levelo://app?vid=82bc7e96-ab6f-42a2-8514-8b94948a0347","ios":"levelo://app?vid=82bc7e96-ab6f-42a2-8514-8b94948a0347"},"vehicle_type_id":"4","last_reported":1777306858,"current_range_meters":9200,"station_id":"ce4bhb92rcd13ifvqen0","pricing_plan_id":"cebpf4jnsgd1na2vs0mg"},{"bike_id":"a7ef47ae-ac7a-4811-8371-2ebdbd6eea38","system_id":"levelo_inurba_marseille","lat":43.21744,"lon":5.34603,"is_reserved":false,"is_disabled":false,"rental_uris":{"android":"levelo://app?vid=a7ef47ae-ac7a-4811-8371-2ebdbd6eea38","ios":"levelo://app?vid=a7ef47ae-ac7a-4811-8371-2ebdbd6eea38"},"vehicle_type_id":"4","last_reported":1777306858,"current_range_meters":9200,"station_id":"st_cvj6r9ubvosntc0bgbag","pricing_plan_id":"cebpf4jnsgd1na2vs0mg"},{"bike_id":"987eda33-b3ad-4fac-a63c-0e3ff496e921","system_id":"levelo_inurba_marseille","lat":43.32349,"lon":5.36745,"is_reserved":false,"is_disabled":false,"rental_uris":{"android":"levelo://app?vid=987eda33-b3ad-4fac-a63c-0e3ff496e921","ios":"levelo://app?vid=987eda33-b3ad-4fac-a63c-0e3ff496e921"},"vehicle_type_id":"4","last_reported":1777306858,"current_range_meters":9200,"station_id":"ce4bhsh2rcd13ifvqi2g","pricing_plan_id":"cebpf4jnsgd1na2vs0mg"},{"bike_id":"1395b271-6bcd-4509-801d-3ede40af7746","system_id":"levelo_inurba_marseille","lat":43.31122,"lon":5.43857,"is_reserved":false,"is_disabled":false,"rental_uris":{"android":"levelo://app?vid=1395b271-6bcd-4509-801d-3ede40af7746","ios":"levelo://app?vid=1395b271-6bcd-4509-801d-3ede40af7746"},"vehicle_type_id":"4","last_reported":1777306858,"current_range_meters":9200,"station_id":"","pricing_plan_id":"cebpf4jnsgd1na2vs0mg"},{"bike_id":"d1ec29a2-7952-494f-af90-3ed8b1370b17","system_id":"levelo_inurba_marseille","lat":43.30542,"lon":5.36541,"is_reserved":false,"is_disabled":false,"rental_uris":{"android":"levelo://app?vid=d1ec29a2-7952-494f-af90-3ed8b1370b17","ios":"levelo://app?vid=d1ec29a2-7952-494f-af90-3ed8b1370b17"},"vehicle_type_id":"4","last_reported":1777306858,"current_range_meters":9200,"station_id":"ce4bgs12rcd13ifvqcag","pricing_plan_id":"cebpf4jnsgd1na2vs0mg"},{"bike_id":"5eaf7604-39d4-4e91-890a-a23cf4b2cb1d","system_id":"levelo_inurba_marseille","lat":43.29256,"lon":5.38445,"is_reserved":false,"is_disabled":false,"rental_uris":{"android":"levelo://app?vid=5eaf7604-39d4-4e91-890a-a23cf4b2cb1d","ios":"levelo://app?vid=5eaf7604-39d4-4e91-890a-a23cf4b2cb1d"},"vehicle_type_id":"4","last_reported":1777306858,"current_range_meters":9200,"station_id":"ce4bh692rcd13ifvqea0","pricing_plan_id":"cebpf4jnsgd1na2vs0mg"},{"bike_id":"9daae5fc-029a-4575-8080-71abfd7ee94e","system_id":"levelo_inurba_marseille","lat":43.21194,"lon":5.35072,"is_reserved":false,"is_disabled":false,"rental_uris":{"android":"levelo://app?vid=9daae5fc-029a-4575-8080-71abfd7ee94e","ios":"levelo://app?vid=9daae5fc-029a-4575-8080-71abfd7ee94e"},"vehicle_type_id":"4","last_reported":1777306858,"current_range_meters":9200,"station_id":"st_cvj6sg6p6f1abm77japg","pricing_plan_id":"cebpf4jnsgd1na2vs0mg"},{"bike_id":"d92caaac-645c-46df-bf9e-7bb5e99c670b","system_id":"levelo_inurba_marseille","lat":43.26925,"lon":5.38911,"is_reserved":false,"is_disabled":false,"rental_uris":{"android":"levelo://app?vid=d92caaac-645c-46df-bf9e-7bb5e99c670b","ios":"levelo://app?vid=d92caaac-645c-46df-bf9e-7bb5e99c670b"},"vehicle_type_id":"4","last_reported":1777306858,"current_range_meters":9200,"station_id":"ce4bhhh2rcd13ifvqfl0","pricing_plan_id":"cebpf4jnsgd1na2vs0mg"},{"bike_id":"4dba35da-6d1d-4052-b805-16700a110615","system_id":"levelo_inurba_marseille","lat":43.31685,"lon":5.40475,"is_reserved":false,"is_disabled":false,"rental_uris":{"android":"levelo://app?vid=4dba35da-6d1d-4052-b805-16700a110615","ios":"levelo://app?vid=4dba35da-6d1d-4052-b805-16700a110615"},"vehicle_type_id":"4","last_reported":1777306858,"current_range_meters":9200,"station_id":"ce4bh012rcd13ifvqd00","pricing_plan_id":"cebpf4jnsgd1na2vs0mg"},{"bike_id":"dc4f256b-dad1-4b0e-b0aa-70815278bacb","system_id":"levelo_inurba_marseille","lat":43.28967,"lon":5.39318,"is_reserved":false,"is_disabled":false,"rental_uris":{"android":"levelo://app?vid=dc4f256b-dad1-4b0e-b0aa-70815278bacb","ios":"levelo://app?vid=dc4f256b-dad1-4b0e-b0aa-70815278bacb"},"vehicle_type_id":"4","last_reported":1777306858,"current_range_meters":9200,"station_id":"","pricing_plan_id":"cebpf4jnsgd1na2vs0mg"},{"bike_id":"8b4e6bd3-1e82-4277-a45a-3a8abaa4e3ab","system_id":"levelo_inurba_marseille","lat":43.28474,"lon":5.48384,"is_reserved":false,"is_disabled":false,"rental_uris":{"android":"levelo://app?vid=8b4e6bd3-1e82-4277-a45a-3a8abaa4e3ab","ios":"levelo://app?vid=8b4e6bd3-1e82-4277-a45a-3a8abaa4e3ab"},"vehicle_type_id":"4","last_reported":1777306858,"current_range_meters":9200,"station_id":"","pricing_plan_id":"cebpf4jnsgd1na2vs0mg"},{"bike_id":"3cf26fe4-db96-49b5-bc58-4564bf731331","system_id":"levelo_inurba_marseille","lat":43.26804,"lon":5.40262,"is_reserved":false,"is_disabled":false,"rental_uris":{"android":"levelo://app?vid=3cf26fe4-db96-49b5-bc58-4564bf731331","ios":"levelo://app?vid=3cf26fe4-db96-49b5-bc58-4564bf731331"},"vehicle_type_id":"4","last_reported":1777306858,"current_range_meters":9200,"station_id":"ce501612rcd8frsf0b60","pricing_plan_id":"cebpf4jnsgd1na2vs0mg"},{"bike_id":"f8211867-8ad7-4904-9a24-36e380edcdc0","system_id":"levelo_inurba_marseille","lat":43.2885,"lon":5.39319,"is_reserved":false,"is_disabled":false,"rental_uris":{"android":"levelo://app?vid=f8211867-8ad7-4904-9a24-36e380edcdc0","ios":"levelo://app?vid=f8211867-8ad7-4904-9a24-36e380edcdc0"},"vehicle_type_id":"4","last_reported":1777306858,"current_range_meters":9200,"station_id":"ce4bh2p2rcd13ifvqdi0","pricing_plan_id":"cebpf4jnsgd1na2vs0mg"},{"bike_id":"6e4ec2a6-c0e9-4971-869e-1f56cd2daea5","system_id":"levelo_inurba_marseille","lat":43.2952,"lon":5.39047,"is_reserved":false,"is_disabled":false,"rental_uris":{"android":"levelo://app?vid=6e4ec2a6-c0e9-4971-869e-1f56cd2daea5","ios":"levelo://app?vid=6e4ec2a6-c0e9-4971-869e-1f56cd2daea5"},"vehicle_type_id":"4","last_reported":1777306858,"current_range_meters":9200,"station_id":"ce4bh3p2rcd13ifvqdp0","pricing_plan_id":"cebpf4jnsgd1na2vs0mg"},{"bike_id":"252f57d6-6276-400d-bf52-051e219553fc","system_id":"levelo_inurba_marseille","lat":43.31328,"lon":5.39689,"is_reserved":false,"is_disabled":false,"rental_uris":{"android":"levelo://app?vid=252f57d6-6276-400d-bf52-051e219553fc","ios":"levelo://app?vid=252f57d6-6276-400d-bf52-051e219553fc"},"vehicle_type_id":"4","last_reported":1777306858,"current_range_meters":9200,"station_id":"ce4bgvp2rcd13ifvqcu0","pricing_plan_id":"cebpf4jnsgd1na2vs0mg"},{"bike_id":"1accd777-82cc-4c56-a305-ffbbf1354706","system_id":"levelo_inurba_marseille","lat":43.286588,"lon":5.353886,"is_reserved":false,"is_disabled":false,"rental_uris":{"android":"levelo://app?vid=1accd777-82cc-4c56-a305-ffbbf1354706","ios":"levelo://app?vid=1accd777-82cc-4c56-a305-ffbbf1354706"},"vehicle_type_id":"4","last_reported":1777306858,"current_range_meters":9200,"station_id":"ce4bhbp2rcd13ifvqerg","pricing_plan_id":"cebpf4jnsgd1na2vs0mg"},{"bike_id":"20bef919-cd8e-4c03-becb-6b2c2b81527f","system_id":"levelo_inurba_marseille","lat":43.31333,"lon":5.39701,"is_reserved":false,"is_disabled":false,"rental_uris":{"android":"levelo://app?vid=20bef919-cd8e-4c03-becb-6b2c2b81527f","ios":"levelo://app?vid=20bef919-cd8e-4c03-becb-6b2c2b81527f"},"vehicle_type_id":"4","last_reported":1777306858,"current_range_meters":9200,"station_id":"ce4bgvp2rcd13ifvqcu0","pricing_plan_id":"cebpf4jnsgd1na2vs0mg"},{"bike_id":"ca970bed-dff0-40b1-aa6e-d0db5b10d8ee","system_id":"levelo_inurba_marseille","lat":43.27423,"lon":5.39411,"is_reserved":false,"is_disabled":true,"rental_uris":{"android":"levelo://app?vid=ca970bed-dff0-40b1-aa6e-d0db5b10d8ee","ios":"levelo://app?vid=ca970bed-dff0-40b1-aa6e-d0db5b10d8ee"},"vehicle_type_id":"4","last_reported":1777306858,"current_range_meters":9600,"station_id":"ce4bhdp2rcd13ifvqf20","pricing_plan_id":"cebpf4jnsgd1na2vs0mg"},{"bike_id":"fea39923-e753-4d90-b681-471ca045335e","system_id":"levelo_inurba_marseille","lat":43.2953,"lon":5.38547,"is_reserved":false,"is_disabled":false,"rental_uris":{"android":"levelo://app?vid=fea39923-e753-4d90-b681-471ca045335e","ios":"levelo://app?vid=fea39923-e753-4d90-b681-471ca045335e"},"vehicle_type_id":"4","last_reported":1777306858,"current_range_meters":9600,"station_id":"ce4bgih2rcd13ifvqba0","pricing_plan_id":"cebpf4jnsgd1na2vs0mg"},{"bike_id":"4f5ba31b-80de-4db6-8df1-62462ecf38b4","system_id":"levelo_inurba_marseille","lat":43.28417,"lon":5.34977,"is_reserved":false,"is_disabled":false,"rental_uris":{"android":"levelo://app?vid=4f5ba31b-80de-4db6-8df1-62462ecf38b4","ios":"levelo://app?vid=4f5ba31b-80de-4db6-8df1-62462ecf38b4"},"vehicle_type_id":"4","last_reported":1777306858,"current_range_meters":9600,"station_id":"ce4bhbh2rcd13ifvqepg","pricing_plan_id":"cebpf4jnsgd1na2vs0mg"},{"bike_id":"697fb2a4-e494-4242-8576-17a670ff6a6a","system_id":"levelo_inurba_marseille","lat":43.31335,"lon":5.36707,"is_reserved":false,"is_disabled":false,"rental_uris":{"android":"levelo://app?vid=697fb2a4-e494-4242-8576-17a670ff6a6a","ios":"levelo://app?vid=697fb2a4-e494-4242-8576-17a670ff6a6a"},"vehicle_type_id":"4","last_reported":1777306858,"current_range_meters":9600,"station_id":"ce4bgr92rcd13ifvqc6g","pricing_plan_id":"cebpf4jnsgd1na2vs0mg"},{"bike_id":"e3442820-6db5-433b-a1e8-c40309b1c9ad","system_id":"levelo_inurba_marseille","lat":43.29261,"lon":5.38439,"is_reserved":false,"is_disabled":false,"rental_uris":{"android":"levelo://app?vid=e3442820-6db5-433b-a1e8-c40309b1c9ad","ios":"levelo://app?vid=e3442820-6db5-433b-a1e8-c40309b1c9ad"},"vehicle_type_id":"4","last_reported":1777306858,"current_range_meters":9600,"station_id":"ce4bh692rcd13ifvqea0","pricing_plan_id":"cebpf4jnsgd1na2vs0mg"},{"bike_id":"9c3e13ef-f5ac-46d8-aa8d-d51602f7c726","system_id":"levelo_inurba_marseille","lat":43.25583,"lon":5.38237,"is_reserved":false,"is_disabled":false,"rental_uris":{"android":"levelo://app?vid=9c3e13ef-f5ac-46d8-aa8d-d51602f7c726","ios":"levelo://app?vid=9c3e13ef-f5ac-46d8-aa8d-d51602f7c726"},"vehicle_type_id":"4","last_reported":1777306858,"current_range_meters":9600,"station_id":"ce4bhih2rcd13ifvqfs0","pricing_plan_id":"cebpf4jnsgd1na2vs0mg"},{"bike_id":"2c8e4709-55aa-4ff7-a16f-580940fc6666","system_id":"levelo_inurba_marseille","lat":43.2918,"lon":5.35799,"is_reserved":false,"is_disabled":false,"rental_uris":{"android":"levelo://app?vid=2c8e4709-55aa-4ff7-a16f-580940fc6666","ios":"levelo://app?vid=2c8e4709-55aa-4ff7-a16f-580940fc6666"},"vehicle_type_id":"4","last_reported":1777306858,"current_range_meters":9600,"station_id":"ce4bhb12rcd13ifvqel0","pricing_plan_id":"cebpf4jnsgd1na2vs0mg"},{"bike_id":"81e52b6e-bff7-4875-a0d8-d533ea21c465","system_id":"levelo_inurba_marseille","lat":43.28165,"lon":5.42647,"is_reserved":false,"is_disabled":false,"rental_uris":{"android":"levelo://app?vid=81e52b6e-bff7-4875-a0d8-d533ea21c465","ios":"levelo://app?vid=81e52b6e-bff7-4875-a0d8-d533ea21c465"},"vehicle_type_id":"4","last_reported":1777306858,"current_range_meters":9600,"station_id":"ce4bhnh2rcd13ifvqgug","pricing_plan_id":"cebpf4jnsgd1na2vs0mg"},{"bike_id":"33ae2f51-d568-4f63-bfe1-57a7e56b13fe","system_id":"levelo_inurba_marseille","lat":43.30522,"lon":5.36691,"is_reserved":false,"is_disabled":false,"rental_uris":{"android":"levelo://app?vid=33ae2f51-d568-4f63-bfe1-57a7e56b13fe","ios":"levelo://app?vid=33ae2f51-d568-4f63-bfe1-57a7e56b13fe"},"vehicle_type_id":"4","last_reported":1777306858,"current_range_meters":9600,"station_id":"ce4bgrp2rcd13ifvqc9g","pricing_plan_id":"cebpf4jnsgd1na2vs0mg"},{"bike_id":"af61528c-c4cd-4018-bb75-912af67f81e6","system_id":"levelo_inurba_marseille","lat":43.27364,"lon":5.36253,"is_reserved":false,"is_disabled":false,"rental_uris":{"android":"levelo://app?vid=af61528c-c4cd-4018-bb75-912af67f81e6","ios":"levelo://app?vid=af61528c-c4cd-4018-bb75-912af67f81e6"},"vehicle_type_id":"4","last_reported":1777306858,"current_range_meters":9600,"station_id":"ce4bhbh2rcd13ifvqeo0","pricing_plan_id":"cebpf4jnsgd1na2vs0mg"},{"bike_id":"58531717-4481-454d-8b8d-39158b11632d","system_id":"levelo_inurba_marseille","lat":43.29193,"lon":5.35798,"is_reserved":false,"is_disabled":false,"rental_uris":{"android":"levelo://app?vid=58531717-4481-454d-8b8d-39158b11632d","ios":"levelo://app?vid=58531717-4481-454d-8b8d-39158b11632d"},"vehicle_type_id":"4","last_reported":1777306858,"current_range_meters":9600,"station_id":"ce4bhb12rcd13ifvqel0","pricing_plan_id":"cebpf4jnsgd1na2vs0mg"},{"bike_id":"7691273e-33d0-40e7-9122-ebb011af1b54","system_id":"levelo_inurba_marseille","lat":43.24655,"lon":5.38155,"is_reserved":false,"is_disabled":false,"rental_uris":{"android":"levelo://app?vid=7691273e-33d0-40e7-9122-ebb011af1b54","ios":"levelo://app?vid=7691273e-33d0-40e7-9122-ebb011af1b54"},"vehicle_type_id":"4","last_reported":1777306858,"current_range_meters":9600,"station_id":"ce4bhih2rcd13ifvqfr0","pricing_plan_id":"cebpf4jnsgd1na2vs0mg"},{"bike_id":"76907408-a8ff-4688-9cbf-66e48bb415e8","system_id":"levelo_inurba_marseille","lat":43.28705,"lon":5.46714,"is_reserved":false,"is_disabled":false,"rental_uris":{"android":"levelo://app?vid=76907408-a8ff-4688-9cbf-66e48bb415e8","ios":"levelo://app?vid=76907408-a8ff-4688-9cbf-66e48bb415e8"},"vehicle_type_id":"4","last_reported":1777306858,"current_range_meters":9600,"station_id":"st_d6tc3vkotcvc738tfjhg","pricing_plan_id":"cebpf4jnsgd1na2vs0mg"},{"bike_id":"afde96ac-1493-4085-af72-e5da568a87fd","system_id":"levelo_inurba_marseille","lat":43.28486,"lon":5.48391,"is_reserved":false,"is_disabled":false,"rental_uris":{"android":"levelo://app?vid=afde96ac-1493-4085-af72-e5da568a87fd","ios":"levelo://app?vid=afde96ac-1493-4085-af72-e5da568a87fd"},"vehicle_type_id":"4","last_reported":1777306858,"current_range_meters":9600,"station_id":"st_d3svhcjqgbts73a3dn0g","pricing_plan_id":"cebpf4jnsgd1na2vs0mg"},{"bike_id":"b4d9b492-c746-46ed-bddf-343e9b749f81","system_id":"levelo_inurba_marseille","lat":43.33724,"lon":5.3688,"is_reserved":false,"is_disabled":true,"rental_uris":{"android":"levelo://app?vid=b4d9b492-c746-46ed-bddf-343e9b749f81","ios":"levelo://app?vid=b4d9b492-c746-46ed-bddf-343e9b749f81"},"vehicle_type_id":"4","last_reported":1777306858,"current_range_meters":9600,"station_id":"","pricing_plan_id":"cebpf4jnsgd1na2vs0mg"},