{"last_updated":1732662522,"ttl":60,"version":"2.2","data":{"bikes":[{"bike_id":"867de474-7d21-4a45-b160-f59fdff81394","system_id":"levelo_inurba_marseille","lat":43.3133,"lon":5.3969,"is_reserved":false,"is_disabled":false,"rental_uris":{"android":"levelo://app?vid=867de474-7d21-4a45-b160-f59fdff81394","ios":"levelo://app?vid=867de474-7d21-4a45-b160-f59fdff81394"},"vehicle_type_id":"4","last_reported":1732662522,"current_range_meters":38800,"station_id":"ce4bgvp2rcd13ifvqcu0","pricing_plan_id":"cebpf4jnsgd1na2vs0mg"},{"bike_id":"d9c28aa4-81a4-4d13-8fc9-100bb4e3d7e2","system_id":"levelo_inurba_marseille","lat":43.27401,"lon":5.38959,"is_reserved":false,"is_disabled":true,"rental_uris":{"android":"levelo://app?vid=d9c28aa4-81a4-4d13-8fc9-100bb4e3d7e2","ios":"levelo://app?vid=d9c28aa4-81a4-4d13-8fc9-100bb4e3d7e2"},"vehicle_type_id":"4","last_reported":1732662522,"current_range_meters":0,"station_id":"","pricing_plan_id":"cebpf4jnsgd1na2vs0mg"},{"bike_id":"a33a40f2-a99d-4474-9adc-0da0cd98f9a9","system_id":"levelo_inurba_marseille","lat":43.27372,"lon":5.36247,"is_reserved":false,"is_disabled":true,"rental_uris":{"android":"levelo://app?vid=a33a40f2-a99d-4474-9adc-0da0cd98f9a9","ios":"levelo://app?vid=a33a40f2-a99d-4474-9adc-0da0cd98f9a9"},"vehicle_type_id":"4","last_reported":1732662522,"current_range_meters":0,"station_id":"ce4bhbh2rcd13ifvqeo0","pricing_plan_id":"cebpf4jnsgd1na2vs0mg"},{"bike_id":"b856c8b4-412d-4c25-bdd4-e6b29aed04cb","system_id":"levelo_inurba_marseille","lat":43.22941,"lon":5.35379,"is_reserved":false,"is_disabled":false,"rental_uris":{"android":"levelo://app?vid=b856c8b4-412d-4c25-bdd4-e6b29aed04cb","ios":"levelo://app?vid=b856c8b4-412d-4c25-bdd4-e6b29aed04cb"},"vehicle_type_id":"4","last_reported":1732662522,"current_range_meters":38800,"station_id":"cpo3532slgdg3j2ikp40","pricing_plan_id":"cebpf4jnsgd1na2vs0mg"},{"bike_id":"4eebdf16-4fbb-423f-bcd8-8055ad21b28f","system_id":"levelo_inurba_marseille","lat":43.311,"lon":5.3835,"is_reserved":false,"is_disabled":false,"rental_uris":{"android":"levelo://app?vid=4eebdf16-4fbb-423f-bcd8-8055ad21b28f","ios":"levelo://app?vid=4eebdf16-4fbb-423f-bcd8-8055ad21b28f"},"vehicle_type_id":"4","last_reported":1732662522,"current_range_meters":27200,"station_id":"ce4bgv92rcd13ifvqcr0","pricing_plan_id":"cebpf4jnsgd1na2vs0mg"},{"bike_id":"b51d31e3-b561-4c0d-b4c9-74c74d6a4aa9","system_id":"levelo_inurba_marseille","lat":43.33025,"lon":5.39044,"is_reserved":false,"is_disabled":false,"rental_uris":{"android":"levelo://app?vid=b51d31e3-b561-4c0d-b4c9-74c74d6a4aa9","ios":"levelo://app?vid=b51d31e3-b561-4c0d-b4c9-74c74d6a4aa9"},"vehicle_type_id":"4","last_reported":1732662522,"current_range_meters":38800,"station_id":"ce4bhr92rcd13ifvqhrg","pricing_plan_id":"cebpf4jnsgd1na2vs0mg"},{"bike_id":"d69e2163-7b36-4552-b784-37cc2a937a83","system_id":"levelo_inurba_marseille","lat":43.31169,"lon":5.38726,"is_reserved":false,"is_disabled":false,"rental_uris":{"android":"levelo://app?vid=d69e2163-7b36-4552-b784-37cc2a937a83","ios":"levelo://app?vid=d69e2163-7b36-4552-b784-37cc2a937a83"},"vehicle_type_id":"4","last_reported":1732662522,"current_range_meters":19200,"station_id":"ce4bgv12rcd13ifvqcp0","pricing_plan_id":"cebpf4jnsgd1na2vs0mg"},{"bike_id":"f0347ef3-0bf2-4904-8134-c34ce91c6bae","system_id":"levelo_inurba_marseille","lat":43.30538,"lon":5.36706,"is_reserved":false,"is_disabled":true,"rental_uris":{"android":"levelo://app?vid=f0347ef3-0bf2-4904-8134-c34ce91c6bae","ios":"levelo://app?vid=f0347ef3-0bf2-4904-8134-c34ce91c6bae"},"vehicle_type_id":"4","last_reported":1732662522,"current_range_meters":12000,"station_id":"ce4bgrp2rcd13ifvqc9g","pricing_plan_id":"cebpf4jnsgd1na2vs0mg"},{"bike_id":"938efd6e-163f-4dea-98cc-4cf7852276fc","system_id":"levelo_inurba_marseille","lat":43.30567,"lon":5.40147,"is_reserved":false,"is_disabled":false,"rental_uris":{"android":"levelo://app?vid=938efd6e-163f-4dea-98cc-4cf7852276fc","ios":"levelo://app?vid=938efd6e-163f-4dea-98cc-4cf7852276fc"},"vehicle_type_id":"4","last_reported":1732662522,"current_range_meters":28800,"station_id":"","pricing_plan_id":"cebpf4jnsgd1na2vs0mg"},{"bike_id":"a481b9a0-9c57-4f11-a4b3-9fcac54c7392","system_id":"levelo_inurba_marseille","lat":43.24072,"lon":5.37761,"is_reserved":false,"is_disabled":false,"rental_uris":{"android":"levelo://app?vid=a481b9a0-9c57-4f11-a4b3-9fcac54c7392","ios":"levelo://app?vid=a481b9a0-9c57-4f11-a4b3-9fcac54c7392"},"vehicle_type_id":"4","last_reported":1732662522,"current_range_meters":38800,"station_id":"ce4bhnp2rcd13ifvqgvg","pricing_plan_id":"cebpf4jnsgd1na2vs0mg"},{"bike_id":"cc53cd1b-3948-4296-9254-4f4de661880c","system_id":"levelo_inurba_marseille","lat":43.3132,"lon":5.39715,"is_reserved":false,"is_disabled":false,"rental_uris":{"android":"levelo://app?vid=cc53cd1b-3948-4296-9254-4f4de661880c","ios":"levelo://app?vid=cc53cd1b-3948-4296-9254-4f4de661880c"},"vehicle_type_id":"4","last_reported":1732662522,"current_range_meters":32800,"station_id":"ce4bgvp2rcd13ifvqcu0","pricing_plan_id":"cebpf4jnsgd1na2vs0mg"},{"bike_id":"8d79141f-b811-4a05-965b-319f30ef22a4","system_id":"levelo_inurba_marseille","lat":43.27966,"lon":5.38757,"is_reserved":false,"is_disabled":false,"rental_uris":{"android":"levelo://app?vid=8d79141f-b811-4a05-965b-319f30ef22a4","ios":"levelo://app?vid=8d79141f-b811-4a05-965b-319f30ef22a4"},"vehicle_type_id":"4","last_reported":1732662522,"current_range_meters":16400,"station_id":"ce4bhg12rcd13ifvqf80","pricing_plan_id":"cebpf4jnsgd1na2vs0mg"},{"bike_id":"1da8863d-b51d-4642-8293-886a1ff66c87","system_id":"levelo_inurba_marseille","lat":43.25866,"lon":5.39913,"is_reserved":false,"is_disabled":false,"rental_uris":{"android":"levelo://app?vid=1da8863d-b51d-4642-8293-886a1ff66c87","ios":"levelo://app?vid=1da8863d-b51d-4642-8293-886a1ff66c87"},"vehicle_type_id":"4","last_reported":1732662522,"current_range_meters":38800,"station_id":"ce4bhl92rcd13ifvqghg","pricing_plan_id":"cebpf4jnsgd1na2vs0mg"},{"bike_id":"4a6f40e9-24aa-48ac-9ef2-a1bddf93539a","system_id":"levelo_inurba_marseille","lat":43.24076,"lon":5.37759,"is_reserved":false,"is_disabled":false,"rental_uris":{"android":"levelo://app?vid=4a6f40e9-24aa-48ac-9ef2-a1bddf93539a","ios":"levelo://app?vid=4a6f40e9-24aa-48ac-9ef2-a1bddf93539a"},"vehicle_type_id":"4","last_reported":1732662522,"current_range_meters":36800,"station_id":"ce4bhnp2rcd13ifvqgvg","pricing_plan_id":"cebpf4jnsgd1na2vs0mg"},{"bike_id":"37ee09df-8673-47a3-96b4-c2ef618884e5","system_id":"levelo_inurba_marseille","lat":43.337444,"lon":5.374475,"is_reserved":false,"is_disabled":false,"rental_uris":{"android":"levelo://app?vid=37ee09df-8673-47a3-96b4-c2ef618884e5","ios":"levelo://app?vid=37ee09df-8673-47a3-96b4-c2ef618884e5"},"vehicle_type_id":"4","last_reported":1732662522,"current_range_meters":34000,"station_id":"","pricing_plan_id":"cebpf4jnsgd1na2vs0mg"},{"bike_id":"718ff31a-d980-4068-bbf2-50c3ab9c075e","system_id":"levelo_inurba_marseille","lat":43.258468,"lon":5.399094,"is_reserved":false,"is_disabled":false,"rental_uris":{"android":"levelo://app?vid=718ff31a-d980-4068-bbf2-50c3ab9c075e","ios":"levelo://app?vid=718ff31a-d980-4068-bbf2-50c3ab9c075e"},"vehicle_type_id":"4","last_reported":1732662522,"current_range_meters":36400,"station_id":"ce4bhlh2rcd13ifvqgig","pricing_plan_id":"cebpf4jnsgd1na2vs0mg"},{"bike_id":"c523214a-88b9-4353-bb8b-55d45b020426","system_id":"levelo_inurba_marseille","lat":43.27817,"lon":5.4072,"is_reserved":false,"is_disabled":true,"rental_uris":{"android":"levelo://app?vid=c523214a-88b9-4353-bb8b-55d45b020426","ios":"levelo://app?vid=c523214a-88b9-4353-bb8b-55d45b020426"},"vehicle_type_id":"4","last_reported":1732662522,"current_range_meters":27600,"station_id":"ce4bhnh2rcd13ifvqgtg","pricing_plan_id":"cebpf4jnsgd1na2vs0mg"},{"bike_id":"c41b083c-1b8a-4db4-b164-43ed9d4c854e","system_id":"levelo_inurba_marseille","lat":43.29598,"lon":5.38108,"is_reserved":false,"is_disabled":false,"rental_uris":{"android":"levelo://app?vid=c41b083c-1b8a-4db4-b164-43ed9d4c854e","ios":"levelo://app?vid=c41b083c-1b8a-4db4-b164-43ed9d4c854e"},"vehicle_type_id":"4","last_reported":1732662522,"current_range_meters":38400,"station_id":"ce4bgl12rcd13ifvqbo0","pricing_plan_id":"cebpf4jnsgd1na2vs0mg"},{"bike_id":"e7d61961-f2fb-44c4-9ee3-a227626b507f","system_id":"levelo_inurba_marseille","lat":43.23066,"lon":5.35494,"is_reserved":false,"is_disabled":false,"rental_uris":{"android":"levelo://app?vid=e7d61961-f2fb-44c4-9ee3-a227626b507f","ios":"levelo://app?vid=e7d61961-f2fb-44c4-9ee3-a227626b507f"},"vehicle_type_id":"4","last_reported":1732662522,"current_range_meters":38800,"station_id":"cpo3342slgdg3j2ifvpg","pricing_plan_id":"cebpf4jnsgd1na2vs0mg"},{"bike_id":"f7165f07-e923-4579-b202-89b3912a60e2","system_id":"levelo_inurba_marseille","lat":43.25868,"lon":5.39902,"is_reserved":false,"is_disabled":false,"rental_uris":{"android":"levelo://app?vid=f7165f07-e923-4579-b202-89b3912a60e2","ios":"levelo://app?vid=f7165f07-e923-4579-b202-89b3912a60e2"},"vehicle_type_id":"4","last_reported":1732662522,"current_range_meters":36800,"station_id":"ce4bhl92rcd13ifvqghg","pricing_plan_id":"cebpf4jnsgd1na2vs0mg"},{"bike_id":"a6e22c89-3dcb-4b2e-a4cc-b4c11dbf537a","system_id":"levelo_inurba_marseille","lat":43.23193,"lon":5.39991,"is_reserved":false,"is_disabled":false,"rental_uris":{"android":"levelo://app?vid=a6e22c89-3dcb-4b2e-a4cc-b4c11dbf537a","ios":"levelo://app?vid=a6e22c89-3dcb-4b2e-a4cc-b4c11dbf537a"},"vehicle_type_id":"4","last_reported":1732662522,"current_range_meters":9600,"station_id":"ce4bhn12rcd13ifvqgqg","pricing_plan_id":"cebpf4jnsgd1na2vs0mg"},{"bike_id":"6f4eadd3-2f79-46d7-bb1d-68b0f0ab48f3","system_id":"levelo_inurba_marseille","lat":43.30461,"lon":5.37911,"is_reserved":false,"is_disabled":false,"rental_uris":{"android":"levelo://app?vid=6f4eadd3-2f79-46d7-bb1d-68b0f0ab48f3","ios":"levelo://app?vid=6f4eadd3-2f79-46d7-bb1d-68b0f0ab48f3"},"vehicle_type_id":"4","last_reported":1732662522,"current_range_meters":23200,"station_id":"ce4bgup2rcd13ifvqcn0","pricing_plan_id":"cebpf4jnsgd1na2vs0mg"},{"bike_id":"3e08674a-4d13-4c1c-9a3c-8470b601da63","system_id":"levelo_inurba_marseille","lat":43.29796,"lon":5.39348,"is_reserved":false,"is_disabled":false,"rental_uris":{"android":"levelo://app?vid=3e08674a-4d13-4c1c-9a3c-8470b601da63","ios":"levelo://app?vid=3e08674a-4d13-4c1c-9a3c-8470b601da63"},"vehicle_type_id":"4","last_reported":1732662522,"current_range_meters":33600,"station_id":"chh1huq6cuj3fo74tm60","pricing_plan_id":"cebpf4jnsgd1na2vs0mg"},{"bike_id":"232d3dc5-0179-4abc-b358-d4d004e73122","system_id":"levelo_inurba_marseille","lat":43.29798,"lon":5.40405,"is_reserved":false,"is_disabled":false,"rental_uris":{"android":"levelo://app?vid=232d3dc5-0179-4abc-b358-d4d004e73122","ios":"levelo://app?vid=232d3dc5-0179-4abc-b358-d4d004e73122"},"vehicle_type_id":"4","last_reported":1732662522,"current_range_meters":39200,"station_id":"ce4bh112rcd13ifvqd90","pricing_plan_id":"cebpf4jnsgd1na2vs0mg"},{"bike_id":"f98cf346-2f95-41c1-a190-288b7ed6e557","system_id":"levelo_inurba_marseille","lat":43.24077,"lon":5.37729,"is_reserved":false,"is_disabled":false,"rental_uris":{"android":"levelo://app?vid=f98cf346-2f95-41c1-a190-288b7ed6e557","ios":"levelo://app?vid=f98cf346-2f95-41c1-a190-288b7ed6e557"},"vehicle_type_id":"4","last_reported":1732662522,"current_range_meters":38800,"station_id":"ce4bhnp2rcd13ifvqgvg","pricing_plan_id":"cebpf4jnsgd1na2vs0mg"},{"bike_id":"3e74510c-d86b-4186-a956-0b286b8b0c60","system_id":"levelo_inurba_marseille","lat":43.24683,"lon":5.38153,"is_reserved":false,"is_disabled":false,"rental_uris":{"android":"levelo://app?vid=3e74510c-d86b-4186-a956-0b286b8b0c60","ios":"levelo://app?vid=3e74510c-d86b-4186-a956-0b286b8b0c60"},"vehicle_type_id":"4","last_reported":1732662522,"current_range_meters":39200,"station_id":"ce4bhih2rcd13ifvqfr0","pricing_plan_id":"cebpf4jnsgd1na2vs0mg"},{"bike_id":"d64ffcd3-a58b-4e95-9879-e36e5743e12b","system_id":"levelo_inurba_marseille","lat":43.28706,"lon":5.39994,"is_reserved":false,"is_disabled":false,"rental_uris":{"android":"levelo://app?vid=d64ffcd3-a58b-4e95-9879-e36e5743e12b","ios":"levelo://app?vid=d64ffcd3-a58b-4e95-9879-e36e5743e12b"},"vehicle_type_id":"4","last_reported":1732662522,"current_range_meters":32800,"station_id":"ce4bho92rcd13ifvqh3g","pricing_plan_id":"cebpf4jnsgd1na2vs0mg"},{"bike_id":"6a5b225e-c7d8-4f89-9bf6-49238d8586ea","system_id":"levelo_inurba_marseille","lat":43.29785,"lon":5.37101,"is_reserved":false,"is_disabled":false,"rental_uris":{"android":"levelo://app?vid=6a5b225e-c7d8-4f89-9bf6-49238d8586ea","ios":"levelo://app?vid=6a5b225e-c7d8-4f89-9bf6-49238d8586ea"},"vehicle_type_id":"4","last_reported":1732662522,"current_range_meters":35600,"station_id":"ce4bgop2rcd13ifvqc1g","pricing_plan_id":"cebpf4jnsgd1na2vs0mg"},{"bike_id":"b891d583-603a-49e6-afab-c922f2af192e","system_id":"levelo_inurba_marseille","lat":43.28075,"lon":5.39661,"is_reserved":false,"is_disabled":false,"rental_uris":{"android":"levelo://app?vid=b891d583-603a-49e6-afab-c922f2af192e","ios":"levelo://app?vid=b891d583-603a-49e6-afab-c922f2af192e"},"vehicle_type_id":"4","last_reported":1732662522,"current_range_meters":38800,"station_id":"ce4bho12rcd13ifvqh2g","pricing_plan_id":"cebpf4jnsgd1na2vs0mg"},{"bike_id":"05aa3fb3-ce2d-43ba-9106-8e5fd56b7e9e","system_id":"levelo_inurba_marseille","lat":43.28453,"lon":5.35879,"is_reserved":false,"is_disabled":false,"rental_uris":{"android":"levelo://app?vid=05aa3fb3-ce2d-43ba-9106-8e5fd56b7e9e","ios":"levelo://app?vid=05aa3fb3-ce2d-43ba-9106-8e5fd56b7e9e"},"vehicle_type_id":"4","last_reported":1732662522,"current_range_meters":17200,"station_id":"ce4bhah2rcd13ifvqei0","pricing_plan_id":"cebpf4jnsgd1na2vs0mg"},{"bike_id":"38814ff2-ffa8-4a66-be40-cf35d7ad2ae5","system_id":"levelo_inurba_marseille","lat":43.28724,"lon":5.36084,"is_reserved":false,"is_disabled":false,"rental_uris":{"android":"levelo://app?vid=38814ff2-ffa8-4a66-be40-cf35d7ad2ae5","ios":"levelo://app?vid=38814ff2-ffa8-4a66-be40-cf35d7ad2ae5"},"vehicle_type_id":"4","last_reported":1732662522,"current_range_meters":20800,"station_id":"cki0cbj6b192h4jlfktg","pricing_plan_id":"cebpf4jnsgd1na2vs0mg"},{"bike_id":"c7f0c2ae-332e-48f3-b3ba-a947d25b82d6","system_id":"levelo_inurba_marseille","lat":43.31068,"lon":5.38345,"is_reserved":false,"is_disabled":false,"rental_uris":{"android":"levelo://app?vid=c7f0c2ae-332e-48f3-b3ba-a947d25b82d6","ios":"levelo://app?vid=c7f0c2ae-332e-48f3-b3ba-a947d25b82d6"},"vehicle_type_id":"4","last_reported":1732662522,"current_range_meters":38800,"station_id":"ce4bgv92rcd13ifvqcr0","pricing_plan_id":"cebpf4jnsgd1na2vs0mg"},{"bike_id":"38fc8bf0-78a6-4380-a16d-e35db9a0e0af","system_id":"levelo_inurba_marseille","lat":43.30246,"lon":5.4007,"is_reserved":false,"is_disabled":false,"rental_uris":{"android":"levelo://app?vid=38fc8bf0-78a6-4380-a16d-e35db9a0e0af","ios":"levelo://app?vid=38fc8bf0-78a6-4380-a16d-e35db9a0e0af"},"vehicle_type_id":"4","last_reported":1732662522,"current_range_meters":10800,"station_id":"ce4bgvh2rcd13ifvqcs0","pricing_plan_id":"cebpf4jnsgd1na2vs0mg"},{"bike_id":"9f0d99d0-4576-4f22-ab76-950a0271ec39","system_id":"levelo_inurba_marseille","lat":43.28342,"lon":5.38116,"is_reserved":false,"is_disabled":true,"rental_uris":{"android":"levelo://app?vid=9f0d99d0-4576-4f22-ab76-950a0271ec39","ios":"levelo://app?vid=9f0d99d0-4576-4f22-ab76-950a0271ec39"},"vehicle_type_id":"4","last_reported":1732662522,"current_range_meters":38800,"station_id":"ce4bh412rcd13ifvqdr0","pricing_plan_id":"cebpf4jnsgd1na2vs0mg"},{"bike_id":"05ad44e5-d7ad-40e4-b78e-31a67af522c0","system_id":"levelo_inurba_marseille","lat":43.25727,"lon":5.41104,"is_reserved":false,"is_disabled":false,"rental_uris":{"android":"levelo://app?vid=05ad44e5-d7ad-40e4-b78e-31a67af522c0","ios":"levelo://app?vid=05ad44e5-d7ad-40e4-b78e-31a67af522c0"},"vehicle_type_id":"4","last_reported":1732662522,"current_range_meters":38000,"station_id":"ce4bhkp2rcd13ifvqgd0","pricing_plan_id":"cebpf4jnsgd1na2vs0mg"},{"bike_id":"947b4ae5-6d27-48cd-83df-1d5aa4a4dc55","system_id":"levelo_inurba_marseille","lat":43.24666,"lon":5.38156,"is_reserved":false,"is_disabled":false,"rental_uris":{"android":"levelo://app?vid=947b4ae5-6d27-48cd-83df-1d5aa4a4dc55","ios":"levelo://app?vid=947b4ae5-6d27-48cd-83df-1d5aa4a4dc55"},"vehicle_type_id":"4","last_reported":1732662522,"current_range_meters":31200,"station_id":"ce4bhih2rcd13ifvqfr0","pricing_plan_id":"cebpf4jnsgd1na2vs0mg"},{"bike_id":"10de435a-aad1-43a3-8ec0-4c3b2ed8ba07","system_id":"levelo_inurba_marseille","lat":43.31162,"lon":5.38705,"is_reserved":false,"is_disabled":false,"rental_uris":{"android":"levelo://app?vid=10de435a-aad1-43a3-8ec0-4c3b2ed8ba07","ios":"levelo://app?vid=10de435a-aad1-43a3-8ec0-4c3b2ed8ba07"},"vehicle_type_id":"4","last_reported":1732662522,"current_range_meters":37600,"station_id":"ce4bgv12rcd13ifvqcp0","pricing_plan_id":"cebpf4jnsgd1na2vs0mg"},{"bike_id":"0c86fb33-d7cf-435d-b7bd-9910df7b3782","system_id":"levelo_inurba_marseille","lat":43.29189,"lon":5.35806,"is_reserved":false,"is_disabled":false,"rental_uris":{"android":"levelo://app?vid=0c86fb33-d7cf-435d-b7bd-9910df7b3782","ios":"levelo://app?vid=0c86fb33-d7cf-435d-b7bd-9910df7b3782"},"vehicle_type_id":"4","last_reported":1732662522,"current_range_meters":38000,"station_id":"ce4bhb12rcd13ifvqel0","pricing_plan_id":"cebpf4jnsgd1na2vs0mg"},{"bike_id":"d7b4e41b-5ea8-4d2c-9fe2-df65bc6478d3","system_id":"levelo_inurba_marseille","lat":43.24814,"lon":5.37454,"is_reserved":false,"is_disabled":false,"rental_uris":{"android":"levelo://app?vid=d7b4e41b-5ea8-4d2c-9fe2-df65bc6478d3","ios":"levelo://app?vid=d7b4e41b-5ea8-4d2c-9fe2-df65bc6478d3"},"vehicle_type_id":"4","last_reported":1732662522,"current_range_meters":18000,"station_id":"ce4bhgh2rcd13ifvqfb0","pricing_plan_id":"cebpf4jnsgd1na2vs0mg"},{"bike_id":"ea05d9d6-8979-46e2-85b0-19a92c6440c3","system_id":"levelo_inurba_marseille","lat":43.28459,"lon":5.35878,"is_reserved":false,"is_disabled":false,"rental_uris":{"android":"levelo://app?vid=ea05d9d6-8979-46e2-85b0-19a92c6440c3","ios":"levelo://app?vid=ea05d9d6-8979-46e2-85b0-19a92c6440c3"},"vehicle_type_id":"4","last_reported":1732662522,"current_range_meters":27600,"station_id":"ce4bhah2rcd13ifvqei0","pricing_plan_id":"cebpf4jnsgd1na2vs0mg"},{"bike_id":"835a170b-9333-4a62-9af0-a89a87c1a309","system_id":"levelo_inurba_marseille","lat":43.24645,"lon":5.38162,"is_reserved":false,"is_disabled":false,"rental_uris":{"android":"levelo://app?vid=835a170b-9333-4a62-9af0-a89a87c1a309","ios":"levelo://app?vid=835a170b-9333-4a62-9af0-a89a87c1a309"},"vehicle_type_id":"4","last_reported":1732662522,"current_range_meters":9600,"station_id":"ce4bhih2rcd13ifvqfr0","pricing_plan_id":"cebpf4jnsgd1na2vs0mg"},{"bike_id":"830d6b87-87f9-4255-8695-a991d2800c7b","system_id":"levelo_inurba_marseille","lat":43.25583,"lon":5.38237,"is_reserved":false,"is_disabled":false,"rental_uris":{"android":"levelo://app?vid=830d6b87-87f9-4255-8695-a991d2800c7b","ios":"levelo://app?vid=830d6b87-87f9-4255-8695-a991d2800c7b"},"vehicle_type_id":"4","last_reported":1732662522,"current_range_meters":38800,"station_id":"ce4bhih2rcd13ifvqfs0","pricing_plan_id":"cebpf4jnsgd1na2vs0mg"},{"bike_id":"a96be017-c1b4-47a1-8837-0a89e8c43906","system_id":"levelo_inurba_marseille","lat":43.27804,"lon":5.40716,"is_reserved":false,"is_disabled":false,"rental_uris":{"android":"levelo://app?vid=a96be017-c1b4-47a1-8837-0a89e8c43906","ios":"levelo://app?vid=a96be017-c1b4-47a1-8837-0a89e8c43906"},"vehicle_type_id":"4","last_reported":1732662522,"current_range_meters":39200,"station_id":"ce4bhnh2rcd13ifvqgtg","pricing_plan_id":"cebpf4jnsgd1na2vs0mg"},{"bike_id":"dcdd3219-3a91-4c2a-ac8b-1c3e94c5cca6","system_id":"levelo_inurba_marseille","lat":43.30878,"lon":5.39627,"is_reserved":false,"is_disabled":false,"rental_uris":{"android":"levelo://app?vid=dcdd3219-3a91-4c2a-ac8b-1c3e94c5cca6","ios":"levelo://app?vid=dcdd3219-3a91-4c2a-ac8b-1c3e94c5cca6"},"vehicle_type_id":"4","last_reported":1732662522,"current_range_meters":39200,"station_id":"ce4bh012rcd13ifvqcv0","pricing_plan_id":"cebpf4jnsgd1na2vs0mg"},{"bike_id":"63275fb3-4dd2-41f4-a63d-1d6b25faf4dc","system_id":"levelo_inurba_marseille","lat":43.2904,"lon":5.35922,"is_reserved":false,"is_disabled":false,"rental_uris":{"android":"levelo://app?vid=63275fb3-4dd2-41f4-a63d-1d6b25faf4dc","ios":"levelo://app?vid=63275fb3-4dd2-41f4-a63d-1d6b25faf4dc"},"vehicle_type_id":"4","last_reported":1732662522,"current_range_meters":38000,"station_id":"ce4bha92rcd13ifvqeg0","pricing_plan_id":"cebpf4jnsgd1na2vs0mg"},{"bike_id":"519c024c-492e-476b-b78a-c6051e15e25a","system_id":"levelo_inurba_marseille","lat":43.31759,"lon":5.39016,"is_reserved":false,"is_disabled":false,"rental_uris":{"android":"levelo://app?vid=519c024c-492e-476b-b78a-c6051e15e25a","ios":"levelo://app?vid=519c024c-492e-476b-b78a-c6051e15e25a"},"vehicle_type_id":"4","last_reported":1732662522,"current_range_meters":38800,"station_id":"ce4bhqp2rcd13ifvqhng","pricing_plan_id":"cebpf4jnsgd1na2vs0mg"},{"bike_id":"ecdb3743-a3d9-4afc-bb51-ff07b746abac","system_id":"levelo_inurba_marseille","lat":43.2903,"lon":5.39969,"is_reserved":false,"is_disabled":true,"rental_uris":{"android":"levelo://app?vid=ecdb3743-a3d9-4afc-bb51-ff07b746abac","ios":"levelo://app?vid=ecdb3743-a3d9-4afc-bb51-ff07b746abac"},"vehicle_type_id":"4","last_reported":1732662522,"current_range_meters":38800,"station_id":"ce4bh392rcd13ifvqdm0","pricing_plan_id":"cebpf4jnsgd1na2vs0mg"},{"bike_id":"0a2d70bc-b761-4725-9e3d-6717bfcaa6cc","system_id":"levelo_inurba_marseille","lat":43.337444,"lon":5.374475,"is_reserved":false,"is_disabled":false,"rental_uris":{"android":"levelo://app?vid=0a2d70bc-b761-4725-9e3d-6717bfcaa6cc","ios":"levelo://app?vid=0a2d70bc-b761-4725-9e3d-6717bfcaa6cc"},"vehicle_type_id":"4","last_reported":1732662522,"current_range_meters":36000,"station_id":"","pricing_plan_id":"cebpf4jnsgd1na2vs0mg"},{"bike_id":"b3479e59-acbd-4cc9-9c90-f77a72c4b110","system_id":"levelo_inurba_marseille","lat":43.31758,"lon":5.3899,"is_reserved":false,"is_disabled":false,"rental_uris":{"android":"levelo://app?vid=b3479e59-acbd-4cc9-9c90-f77a72c4b110","ios":"levelo://app?vid=b3479e59-acbd-4cc9-9c90-f77a72c4b110"},"vehicle_type_id":"4","last_reported":1732662522,"current_range_meters":8800,"station_id":"ce4bhqp2rcd13ifvqhng","pricing_plan_id":"cebpf4jnsgd1na2vs0mg"},{"bike_id":"8e46b2c9-0288-44ad-a5dd-399cf4cb50ae","system_id":"levelo_inurba_marseille","lat":43.33607,"lon":5.41034,"is_reserved":false,"is_disabled":false,"rental_uris":{"android":"levelo://app?vid=8e46b2c9-0288-44ad-a5dd-399cf4cb50ae","ios":"levelo://app?vid=8e46b2c9-0288-44ad-a5dd-399cf4cb50ae"},"vehicle_type_id":"4","last_reported":1732662522,"current_range_meters":9200,"station_id":"ce4bhqh2rcd13ifvqhmg","pricing_plan_id":"cebpf4jnsgd1na2vs0mg"},{"bike_id":"820f12a0-cf28-488c-8a74-3f1b9d2e4db5","system_id":"levelo_inurba_marseille","lat":43.23056,"lon":5.35491,"is_reserved":false,"is_disabled":false,"rental_uris":{"android":"levelo://app?vid=820f12a0-cf28-488c-8a74-3f1b9d2e4db5","ios":"levelo://app?vid=820f12a0-cf28-488c-8a74-3f1b9d2e4db5"},"vehicle_type_id":"4","last_reported":1732662522,"current_range_meters":22400,"station_id":"cpo3342slgdg3j2ifvpg","pricing_plan_id":"cebpf4jnsgd1na2vs0mg"},{"bike_id":"563f55ce-6804-43ad-8afb-e9baaddbdbd0","system_id":"levelo_inurba_marseille","lat":43.25117,"lon":5.40327,"is_reserved":false,"is_disabled":false,"rental_uris":{"android":"levelo://app?vid=563f55ce-6804-43ad-8afb-e9baaddbdbd0","ios":"levelo://app?vid=563f55ce-6804-43ad-8afb-e9baaddbdbd0"},"vehicle_type_id":"4","last_reported":1732662522,"current_range_meters":38400,"station_id":"ce4bhlh2rcd13ifvqgig","pricing_plan_id":"cebpf4jnsgd1na2vs0mg"},{"bike_id":"043a72e8-0f32-43d1-b019-65c0557aa07e","system_id":"levelo_inurba_marseille","lat":43.25819,"lon":5.39439,"is_reserved":false,"is_disabled":false,"rental_uris":{"android":"levelo://app?vid=043a72e8-0f32-43d1-b019-65c0557aa07e","ios":"levelo://app?vid=043a72e8-0f32-43d1-b019-65c0557aa07e"},"vehicle_type_id":"4","last_reported":1732662522,"current_range_meters":37600,"station_id":"ce4bhip2rcd13ifvqft0","pricing_plan_id":"cebpf4jnsgd1na2vs0mg"},{"bike_id":"15c47ae6-5fda-4e52-aa1e-cdaf765e816b","system_id":"levelo_inurba_marseille","lat":43.28434,"lon":5.39186,"is_reserved":false,"is_disabled":false,"rental_uris":{"android":"levelo://app?vid=15c47ae6-5fda-4e52-aa1e-cdaf765e816b","ios":"levelo://app?vid=15c47ae6-5fda-4e52-aa1e-cdaf765e816b"},"vehicle_type_id":"4","last_reported":1732662522,"current_range_meters":35600,"station_id":"ce4bhoh2rcd13ifvqh5g","pricing_plan_id":"cebpf4jnsgd1na2vs0mg"},{"bike_id":"42098c83-9126-4d89-a011-0835a54e364c","system_id":"levelo_inurba_marseille","lat":43.32289,"lon":5.3828,"is_reserved":false,"is_disabled":false,"rental_uris":{"android":"levelo://app?vid=42098c83-9126-4d89-a011-0835a54e364c","ios":"levelo://app?vid=42098c83-9126-4d89-a011-0835a54e364c"},"vehicle_type_id":"4","last_reported":1732662522,"current_range_meters":9200,"station_id":"ce4bhr12rcd13ifvqhqg","pricing_plan_id":"cebpf4jnsgd1na2vs0mg"},{"bike_id":"3451b272-9230-4dff-84d2-783314fd3bbb","system_id":"levelo_inurba_marseille","lat":43.25108,"lon":5.4032,"is_reserved":false,"is_disabled":true,"rental_uris":{"android":"levelo://app?vid=3451b272-9230-4dff-84d2-783314fd3bbb","ios":"levelo://app?vid=3451b272-9230-4dff-84d2-783314fd3bbb"},"vehicle_type_id":"4","last_reported":1732662522,"current_range_meters":0,"station_id":"ce4bhlh2rcd13ifvqgig","pricing_plan_id":"cebpf4jnsgd1na2vs0mg"},{"bike_id":"2f9b9b42-f665-4c1c-86a1-5a0ce40d3de2","system_id":"levelo_inurba_marseille","lat":43.32474,"lon":5.36567,"is_reserved":false,"is_disabled":true,"rental_uris":{"android":"levelo://app?vid=2f9b9b42-f665-4c1c-86a1-5a0ce40d3de2","ios":"levelo://app?vid=2f9b9b42-f665-4c1c-86a1-5a0ce40d3de2"},"vehicle_type_id":"4","last_reported":1732662522,"current_range_meters":28000,"station_id":"ce4bhs12rcd13ifvqhvg","pricing_plan_id":"cebpf4jnsgd1na2vs0mg"},{"bike_id":"33b8045d-fd1a-444f-8a40-a4ebaad2413b","system_id":"levelo_inurba_marseille","lat":43.25115,"lon":5.40308,"is_reserved":false,"is_disabled":false,"rental_uris":{"android":"levelo://app?vid=33b8045d-fd1a-444f-8a40-a4ebaad2413b","ios":"levelo://app?vid=33b8045d-fd1a-444f-8a40-a4ebaad2413b"},"vehicle_type_id":"4","last_reported":1732662522,"current_range_meters":38000,"station_id":"ce4bhlh2rcd13ifvqgig","pricing_plan_id":"cebpf4jnsgd1na2vs0mg"},{"bike_id":"103d6123-171f-44af-8025-a1d7c6f0de05","system_id":"levelo_inurba_marseille","lat":43.2996,"lon":5.41326,"is_reserved":false,"is_disabled":false,"rental_uris":{"android":"levelo://app?vid=103d6123-171f-44af-8025-a1d7c6f0de05","ios":"levelo://app?vid=103d6123-171f-44af-8025-a1d7c6f0de05"},"vehicle_type_id":"4","last_reported":1732662522,"current_range_meters":26000,"station_id":"ce4bhp12rcd13ifvqh9g","pricing_plan_id":"cebpf4jnsgd1na2vs0mg"},{"bike_id":"eab81c10-82ad-41ae-910c-927bcf79fc1f","system_id":"levelo_inurba_marseille","lat":43.30797,"lon":5.3816,"is_reserved":false,"is_disabled":false,"rental_uris":{"android":"levelo://app?vid=eab81c10-82ad-41ae-910c-927bcf79fc1f","ios":"levelo://app?vid=eab81c10-82ad-41ae-910c-927bcf79fc1f"},"vehicle_type_id":"4","last_reported":1732662522,"current_range_meters":37600,"station_id":"ce4bgt12rcd13ifvqce0","pricing_plan_id":"cebpf4jnsgd1na2vs0mg"},{"bike_id":"53f1ee6c-5f9b-4107-b452-641653a9a8fc","system_id":"levelo_inurba_marseille","lat":43.31067,"lon":5.40101,"is_reserved":false,"is_disabled":false,"rental_uris":{"android":"levelo://app?vid=53f1ee6c-5f9b-4107-b452-641653a9a8fc","ios":"levelo://app?vid=53f1ee6c-5f9b-4107-b452-641653a9a8fc"},"vehicle_type_id":"4","last_reported":1732662522,"current_range_meters":38800,"station_id":"","pricing_plan_id":"cebpf4jnsgd1na2vs0mg"},{"bike_id":"7dddc6b3-bc71-4707-b97c-f58db65819c0","system_id":"levelo_inurba_marseille","lat":43.3014,"lon":5.37417,"is_reserved":false,"is_disabled":false,"rental_uris":{"android":"levelo://app?vid=7dddc6b3-bc71-4707-b97c-f58db65819c0","ios":"levelo://app?vid=7dddc6b3-bc71-4707-b97c-f58db65819c0"},"vehicle_type_id":"4","last_reported":1732662522,"current_range_meters":37600,"station_id":"ce4bgs92rcd13ifvqcc0","pricing_plan_id":"cebpf4jnsgd1na2vs0mg"},{"bike_id":"ef6a39b7-e6a6-4a91-aee1-cbf11610eb03","system_id":"levelo_inurba_marseille","lat":43.32369,"lon":5.38879,"is_reserved":false,"is_disabled":false,"rental_uris":{"android":"levelo://app?vid=ef6a39b7-e6a6-4a91-aee1-cbf11610eb03","ios":"levelo://app?vid=ef6a39b7-e6a6-4a91-aee1-cbf11610eb03"},"vehicle_type_id":"4","last_reported":1732662522,"current_range_meters":28400,"station_id":"ce4bhqp2rcd13ifvqhog","pricing_plan_id":"cebpf4jnsgd1na2vs0mg"},{"bike_id":"8cbb0878-6a10-472f-8cfe-82e6d1269102","system_id":"levelo_inurba_marseille","lat":43.28156,"lon":5.42643,"is_reserved":false,"is_disabled":false,"rental_uris":{"android":"levelo://app?vid=8cbb0878-6a10-472f-8cfe-82e6d1269102","ios":"levelo://app?vid=8cbb0878-6a10-472f-8cfe-82e6d1269102"},"vehicle_type_id":"4","last_reported":1732662522,"current_range_meters":32800,"station_id":"ce4bhnh2rcd13ifvqgug","pricing_plan_id":"cebpf4jnsgd1na2vs0mg"},{"bike_id":"287fa067-0159-4a80-8436-f002b330f07a","system_id":"levelo_inurba_marseille","lat":43.27073,"lon":5.42275,"is_reserved":false,"is_disabled":false,"rental_uris":{"android":"levelo://app?vid=287fa067-0159-4a80-8436-f002b330f07a","ios":"levelo://app?vid=287fa067-0159-4a80-8436-f002b330f07a"},"vehicle_type_id":"4","last_reported":1732662522,"current_range_meters":38800,"station_id":"ce4bhk92rcd13ifvqgb0","pricing_plan_id":"cebpf4jnsgd1na2vs0mg"},{"bike_id":"3761a2cb-c60e-43b9-8c0c-334e8848448c","system_id":"levelo_inurba_marseille","lat":43.29715,"lon":5.36622,"is_reserved":false,"is_disabled":false,"rental_uris":{"android":"levelo://app?vid=3761a2cb-c60e-43b9-8c0c-334e8848448c","ios":"levelo://app?vid=3761a2cb-c60e-43b9-8c0c-334e8848448c"},"vehicle_type_id":"4","last_reported":1732662522,"current_range_meters":20400,"station_id":"ce4bgn12rcd13ifvqbt0","pricing_plan_id":"cebpf4jnsgd1na2vs0mg"},{"bike_id":"4d4c884f-6933-49c0-8899-f9856d90f44d","system_id":"levelo_inurba_marseille","lat":43.29729,"lon":5.38008,"is_reserved":false,"is_disabled":true,"rental_uris":{"android":"levelo://app?vid=4d4c884f-6933-49c0-8899-f9856d90f44d","ios":"levelo://app?vid=4d4c884f-6933-49c0-8899-f9856d90f44d"},"vehicle_type_id":"4","last_reported":1732662522,"current_range_meters":0,"station_id":"","pricing_plan_id":"cebpf4jnsgd1na2vs0mg"},{"bike_id":"681ca36a-6410-4f02-939e-44c887c34c98","system_id":"levelo_inurba_marseille","lat":43.29025,"lon":5.38652,"is_reserved":false,"is_disabled":false,"rental_uris":{"android":"levelo://app?vid=681ca36a-6410-4f02-939e-44c887c34c98","ios":"levelo://app?vid=681ca36a-6410-4f02-939e-44c887c34c98"},"vehicle_type_id":"4","last_reported":1732662522,"current_range_meters":32800,"station_id":"ce4bh4p2rcd13ifvqe0g","pricing_plan_id":"cebpf4jnsgd1na2vs0mg"},{"bike_id":"55339742-29d1-4563-81c8-46551a560258","system_id":"levelo_inurba_marseille","lat":43.28099,"lon":5.3785,"is_reserved":false,"is_disabled":false,"rental_uris":{"android":"levelo://app?vid=55339742-29d1-4563-81c8-46551a560258","ios":"levelo://app?vid=55339742-29d1-4563-81c8-46551a560258"},"vehicle_type_id":"4","last_reported":1732662522,"current_range_meters":33600,"station_id":"ce4bha12rcd13ifvqee0","pricing_plan_id":"cebpf4jnsgd1na2vs0mg"},{"bike_id":"85ad58f6-1962-47c9-867e-4d960b52d89c","system_id":"levelo_inurba_marseille","lat":43.29901,"lon":5.39745,"is_reserved":false,"is_disabled":false,"rental_uris":{"android":"levelo://app?vid=85ad58f6-1962-47c9-867e-4d960b52d89c","ios":"levelo://app?vid=85ad58f6-1962-47c9-867e-4d960b52d89c"},"vehicle_type_id":"4","last_reported":1732662522,"current_range_meters":38800,"station_id":"ce4bh0h2rcd13ifvqd50","pricing_plan_id":"cebpf4jnsgd1na2vs0mg"},{"bike_id":"f3ffd556-9cd2-4b11-88d2-d1e698fceed7","system_id":"levelo_inurba_marseille","lat":43.28079,"lon":5.396539,"is_reserved":false,"is_disabled":false,"rental_uris":{"android":"levelo://app?vid=f3ffd556-9cd2-4b11-88d2-d1e698fceed7","ios":"levelo://app?vid=f3ffd556-9cd2-4b11-88d2-d1e698fceed7"},"vehicle_type_id":"4","last_reported":1732662522,"current_range_meters":38800,"station_id":"ce4bho12rcd13ifvqh2g","pricing_plan_id":"cebpf4jnsgd1na2vs0mg"},{"bike_id":"0b59e005-4e42-47c9-a772-4603f8162a9b","system_id":"levelo_inurba_marseille","lat":43.27811,"lon":5.40706,"is_reserved":false,"is_disabled":false,"rental_uris":{"android":"levelo://app?vid=0b59e005-4e42-47c9-a772-4603f8162a9b","ios":"levelo://app?vid=0b59e005-4e42-47c9-a772-4603f8162a9b"},"vehicle_type_id":"4","last_reported":1732662522,"current_range_meters":24400,"station_id":"ce4bhnh2rcd13ifvqgtg","pricing_plan_id":"cebpf4jnsgd1na2vs0mg"},{"bike_id":"5001bb71-3eee-4da5-b32a-e07ff7493211","system_id":"levelo_inurba_marseille","lat":43.31324,"lon":5.39704,"is_reserved":false,"is_disabled":false,"rental_uris":{"android":"levelo://app?vid=5001bb71-3eee-4da5-b32a-e07ff7493211","ios":"levelo://app?vid=5001bb71-3eee-4da5-b32a-e07ff7493211"},"vehicle_type_id":"4","last_reported":1732662522,"current_range_meters":38800,"station_id":"ce4bgvp2rcd13ifvqcu0","pricing_plan_id":"cebpf4jnsgd1na2vs0mg"},{"bike_id":"20b3d934-42a7-42b9-bb49-0833cf2f0412","system_id":"levelo_inurba_marseille","lat":43.29256,"lon":5.37217,"is_reserved":false,"is_disabled":true,"rental_uris":{"android":"levelo://app?vid=20b3d934-42a7-42b9-bb49-0833cf2f0412","ios":"levelo://app?vid=20b3d934-42a7-42b9-bb49-0833cf2f0412"},"vehicle_type_id":"4","last_reported":1732662522,"current_range_meters":38800,"station_id":"ce4bgh92rcd13ifvqb40","pricing_plan_id":"cebpf4jnsgd1na2vs0mg"},{"bike_id":"83180126-4cf0-4abb-ad76-e641c55a3a11","system_id":"levelo_inurba_marseille","lat":43.28662,"lon":5.36355,"is_reserved":false,"is_disabled":false,"rental_uris":{"android":"levelo://app?vid=83180126-4cf0-4abb-ad76-e641c55a3a11","ios":"levelo://app?vid=83180126-4cf0-4abb-ad76-e641c55a3a11"},"vehicle_type_id":"4","last_reported":1732662522,"current_range_meters":29600,"station_id":"ce4bhah2rcd13ifvqej0","pricing_plan_id":"cebpf4jnsgd1na2vs0mg"},{"bike_id":"8fb9db29-1c5d-45f2-b322-b456cc18a118","system_id":"levelo_inurba_marseille","lat":43.29196,"lon":5.39327,"is_reserved":false,"is_disabled":false,"rental_uris":{"android":"levelo://app?vid=8fb9db29-1c5d-45f2-b322-b456cc18a118","ios":"levelo://app?vid=8fb9db29-1c5d-45f2-b322-b456cc18a118"},"vehicle_type_id":"4","last_reported":1732662522,"current_range_meters":3200,"station_id":"ce4bh192rcd13ifvqdd0","pricing_plan_id":"cebpf4jnsgd1na2vs0mg"},{"bike_id":"e023ff32-6c4f-4673-a7aa-5fcdbec26d0f","system_id":"levelo_inurba_marseille","lat":43.28851,"lon":5.35841,"is_reserved":false,"is_disabled":true,"rental_uris":{"android":"levelo://app?vid=e023ff32-6c4f-4673-a7aa-5fcdbec26d0f","ios":"levelo://app?vid=e023ff32-6c4f-4673-a7aa-5fcdbec26d0f"},"vehicle_type_id":"4","last_reported":1732662522,"current_range_meters":27600,"station_id":"ce4bhb12rcd13ifvqem0","pricing_plan_id":"cebpf4jnsgd1na2vs0mg"},{"bike_id":"22c0168c-678d-471b-9881-7150f7db9bb9","system_id":"levelo_inurba_marseille","lat":43.31755,"lon":5.39009,"is_reserved":false,"is_disabled":false,"rental_uris":{"android":"levelo://app?vid=22c0168c-678d-471b-9881-7150f7db9bb9","ios":"levelo://app?vid=22c0168c-678d-471b-9881-7150f7db9bb9"},"vehicle_type_id":"4","last_reported":1732662522,"current_range_meters":22400,"station_id":"ce4bhqp2rcd13ifvqhng","pricing_plan_id":"cebpf4jnsgd1na2vs0mg"},{"bike_id":"f9ca3389-f0b0-42e9-b890-7ec20aa8d35e","system_id":"levelo_inurba_marseille","lat":43.29269,"lon":5.36843,"is_reserved":false,"is_disabled":true,"rental_uris":{"android":"levelo://app?vid=f9ca3389-f0b0-42e9-b890-7ec20aa8d35e","ios":"levelo://app?vid=f9ca3389-f0b0-42e9-b890-7ec20aa8d35e"},"vehicle_type_id":"4","last_reported":1732662522,"current_range_meters":14800,"station_id":"ce4bhbp2rcd13ifvqesg","pricing_plan_id":"cebpf4jnsgd1na2vs0mg"},{"bike_id":"4d809776-4d2b-4bf5-8aa6-666b5b1fd18f","system_id":"levelo_inurba_marseille","lat":43.33721,"lon":5.39188,"is_reserved":false,"is_disabled":false,"rental_uris":{"android":"levelo://app?vid=4d809776-4d2b-4bf5-8aa6-666b5b1fd18f","ios":"levelo://app?vid=4d809776-4d2b-4bf5-8aa6-666b5b1fd18f"},"vehicle_type_id":"4","last_reported":1732662522,"current_range_meters":38800,"station_id":"ce4bhr92rcd13ifvqhsg","pricing_plan_id":"cebpf4jnsgd1na2vs0mg"},{"bike_id":"b80db3ef-68b8-40cd-be1c-ce27d7b819cb","system_id":"levelo_inurba_marseille","lat":43.30903,"lon":5.3719,"is_reserved":false,"is_disabled":false,"rental_uris":{"android":"levelo://app?vid=b80db3ef-68b8-40cd-be1c-ce27d7b819cb","ios":"levelo://app?vid=b80db3ef-68b8-40cd-be1c-ce27d7b819cb"},"vehicle_type_id":"4","last_reported":1732662522,"current_range_meters":24800,"station_id":"ce4bguh2rcd13ifvqckg","pricing_plan_id":"cebpf4jnsgd1na2vs0mg"},{"bike_id":"00292876-a591-4db5-8ad3-3978764f3dcd","system_id":"levelo_inurba_marseille","lat":43.30188,"lon":5.36632,"is_reserved":false,"is_disabled":false,"rental_uris":{"android":"levelo://app?vid=00292876-a591-4db5-8ad3-3978764f3dcd","ios":"levelo://app?vid=00292876-a591-4db5-8ad3-3978764f3dcd"},"vehicle_type_id":"4","last_reported":1732662522,"current_range_meters":30800,"station_id":"ce4bgrh2rcd13ifvqc8g","pricing_plan_id":"cebpf4jnsgd1na2vs0mg"},{"bike_id":"5817161f-5d63-41b2-92c0-c94f8059d60c","system_id":"levelo_inurba_marseille","lat":43.33769,"lon":5.37438,"is_reserved":false,"is_disabled":false,"rental_uris":{"android":"levelo://app?vid=5817161f-5d63-41b2-92c0-c94f8059d60c","ios":"levelo://app?vid=5817161f-5d63-41b2-92c0-c94f8059d60c"},"vehicle_type_id":"4","last_reported":1732662522,"current_range_meters":38400,"station_id":"","pricing_plan_id":"cebpf4jnsgd1na2vs0mg"},{"bike_id":"546136ed-c1c3-4d73-b4c6-2ffa4b1b222b","system_id":"levelo_inurba_marseille","lat":43.3172,"lon":5.42402,"is_reserved":false,"is_disabled":false,"rental_uris":{"android":"levelo://app?vid=546136ed-c1c3-4d73-b4c6-2ffa4b1b222b","ios":"levelo://app?vid=546136ed-c1c3-4d73-b4c6-2ffa4b1b222b"},"vehicle_type_id":"4","last_reported":1732662522,"current_range_meters":38800,"station_id":"ce4bhp92rcd13ifvqhbg","pricing_plan_id":"cebpf4jnsgd1na2vs0mg"},{"bike_id":"a39548b4-21b3-49f1-b19a-4edf06e549d9","system_id":"levelo_inurba_marseille","lat":43.24666,"lon":5.38162,"is_reserved":false,"is_disabled":false,"rental_uris":{"android":"levelo://app?vid=a39548b4-21b3-49f1-b19a-4edf06e549d9","ios":"levelo://app?vid=a39548b4-21b3-49f1-b19a-4edf06e549d9"},"vehicle_type_id":"4","last_reported":1732662522,"current_range_meters":38800,"station_id":"ce4bhih2rcd13ifvqfr0","pricing_plan_id":"cebpf4jnsgd1na2vs0mg"},{"bike_id":"89d3adbc-8c70-413f-8488-75b105f8d0ff","system_id":"levelo_inurba_marseille","lat":43.28436,"lon":5.39188,"is_reserved":false,"is_disabled":false,"rental_uris":{"android":"levelo://app?vid=89d3adbc-8c70-413f-8488-75b105f8d0ff","ios":"levelo://app?vid=89d3adbc-8c70-413f-8488-75b105f8d0ff"},"vehicle_type_id":"4","last_reported":1732662522,"current_range_meters":35200,"station_id":"ce4bhoh2rcd13ifvqh5g","pricing_plan_id":"cebpf4jnsgd1na2vs0mg"},{"bike_id":"ba59c81d-bd3b-43f6-bcd2-4ba276996005","system_id":"levelo_inurba_marseille","lat":43.3088,"lon":5.39653,"is_reserved":false,"is_disabled":false,"rental_uris":{"android":"levelo://app?vid=ba59c81d-bd3b-43f6-bcd2-4ba276996005","ios":"levelo://app?vid=ba59c81d-bd3b-43f6-bcd2-4ba276996005"},"vehicle_type_id":"4","last_reported":1732662522,"current_range_meters":38800,"station_id":"ce4bh012rcd13ifvqcv0","pricing_plan_id":"cebpf4jnsgd1na2vs0mg"},{"bike_id":"90727e02-f0ff-4f8c-ad9a-e36562188eef","system_id":"levelo_inurba_marseille","lat":43.29517,"lon":5.39399,"is_reserved":false,"is_disabled":false,"rental_uris":{"android":"levelo://app?vid=90727e02-f0ff-4f8c-ad9a-e36562188eef","ios":"levelo://app?vid=90727e02-f0ff-4f8c-ad9a-e36562188eef"},"vehicle_type_id":"4","last_reported":1732662522,"current_range_meters":38800,"station_id":"ce4bh292rcd13ifvqdf0","pricing_plan_id":"cebpf4jnsgd1na2vs0mg"},{"bike_id":"9f3336f6-205c-487c-b4db-85f8db3f7ce0","system_id":"levelo_inurba_marseille","lat":43.24664,"lon":5.38169,"is_reserved":false,"is_disabled":false,"rental_uris":{"android":"levelo://app?vid=9f3336f6-205c-487c-b4db-85f8db3f7ce0","ios":"levelo://app?vid=9f3336f6-205c-487c-b4db-85f8db3f7ce0"},"vehicle_type_id":"4","last_reported":1732662522,"current_range_meters":38800,"station_id":"ce4bhih2rcd13ifvqfr0","pricing_plan_id":"cebpf4jnsgd1na2vs0mg"},{"bike_id":"2e638509-d4c2-4e15-a097-0bd7b43115a9","system_id":"levelo_inurba_marseille","lat":43.31274,"lon":5.40169,"is_reserved":false,"is_disabled":false,"rental_uris":{"android":"levelo://app?vid=2e638509-d4c2-4e15-a097-0bd7b43115a9","ios":"levelo://app?vid=2e638509-d4c2-4e15-a097-0bd7b43115a9"},"vehicle_type_id":"4","last_reported":1732662522,"current_range_meters":17200,"station_id":"ce4bh092rcd13ifvqd30","pricing_plan_id":"cebpf4jnsgd1na2vs0mg"},{"bike_id":"bb61ac50-22fe-46f6-a901-b29181bd2c76","system_id":"levelo_inurba_marseille","lat":43.3137,"lon":5.38507,"is_reserved":false,"is_disabled":false,"rental_uris":{"android":"levelo://app?vid=bb61ac50-22fe-46f6-a901-b29181bd2c76","ios":"levelo://app?vid=bb61ac50-22fe-46f6-a901-b29181bd2c76"},"vehicle_type_id":"4","last_reported":1732662522,"current_range_meters":18000,"station_id":"ce4bgt92rcd13ifvqcf0","pricing_plan_id":"cebpf4jnsgd1na2vs0mg"},{"bike_id":"7201e0cf-a992-4041-bacd-04ce15cb4f7c","system_id":"levelo_inurba_marseille","lat":43.26218,"lon":5.37445,"is_reserved":false,"is_disabled":false,"rental_uris":{"android":"levelo://app?vid=7201e0cf-a992-4041-bacd-04ce15cb4f7c","ios":"levelo://app?vid=7201e0cf-a992-4041-bacd-04ce15cb4f7c"},"vehicle_type_id":"4","last_reported":1732662522,"current_range_meters":38800,"station_id":"ce4bhgp2rcd13ifvqfc0","pricing_plan_id":"cebpf4jnsgd1na2vs0mg"},{"bike_id":"5f60bd09-ca4b-4eaa-a808-cc895fde7bba","system_id":"levelo_inurba_marseille","lat":43.28434,"lon":5.37508,"is_reserved":false,"is_disabled":false,"rental_uris":{"android":"levelo://app?vid=5f60bd09-ca4b-4eaa-a808-cc895fde7bba","ios":"levelo://app?vid=5f60bd09-ca4b-4eaa-a808-cc895fde7bba"},"vehicle_type_id":"4","last_reported":1732662522,"current_range_meters":20800,"station_id":"ce4bh412rcd13ifvqds0","pricing_plan_id":"cebpf4jnsgd1na2vs0mg"},{"bike_id":"674df4ab-5b72-443e-a3da-efdec3ddef4f","system_id":"levelo_inurba_marseille","lat":43.31489,"lon":5.3731,"is_reserved":false,"is_disabled":false,"rental_uris":{"android":"levelo://app?vid=674df4ab-5b72-443e-a3da-efdec3ddef4f","ios":"levelo://app?vid=674df4ab-5b72-443e-a3da-efdec3ddef4f"},"vehicle_type_id":"4","last_reported":1732662522,"current_range_meters":8400,"station_id":"ce4bgt12rcd13ifvqcd0","pricing_plan_id":"cebpf4jnsgd1na2vs0mg"},{"bike_id":"ebba3546-4cc2-46cf-89c2-e1c5c89f5432","system_id":"levelo_inurba_marseille","lat":43.25868,"lon":5.39894,"is_reserved":false,"is_disabled":false,"rental_uris":{"android":"levelo://app?vid=ebba3546-4cc2-46cf-89c2-e1c5c89f5432","ios":"levelo://app?vid=ebba3546-4cc2-46cf-89c2-e1c5c89f5432"},"vehicle_type_id":"4","last_reported":1732662522,"current_range_meters":38800,"station_id":"ce4bhl92rcd13ifvqghg","pricing_plan_id":"cebpf4jnsgd1na2vs0mg"},{"bike_id":"dc473ea1-cb7e-4df1-8bc2-7f7c75206904","system_id":"levelo_inurba_marseille","lat":43.24648,"lon":5.3889,"is_reserved":false,"is_disabled":false,"rental_uris":{"android":"levelo://app?vid=dc473ea1-cb7e-4df1-8bc2-7f7c75206904","ios":"levelo://app?vid=dc473ea1-cb7e-4df1-8bc2-7f7c75206904"},"vehicle_type_id":"4","last_reported":1732662522,"current_range_meters":30400,"station_id":"ce4bhg12rcd13ifvqf60","pricing_plan_id":"cebpf4jnsgd1na2vs0mg"},{"bike_id":"0cd7fb1f-f090-4e80-a2fb-03510d2b2219","system_id":"levelo_inurba_marseille","lat":43.29572,"lon":5.3751,"is_reserved":false,"is_disabled":true,"rental_uris":{"android":"levelo://app?vid=0cd7fb1f-f090-4e80-a2fb-03510d2b2219","ios":"levelo://app?vid=0cd7fb1f-f090-4e80-a2fb-03510d2b2219"},"vehicle_type_id":"4","last_reported":1732662522,"current_range_meters":30400,"station_id":"ce4bgh92rcd13ifvqb50","pricing_plan_id":"cebpf4jnsgd1na2vs0mg"},{"bike_id":"8b8b52b9-1d01-45b3-a51d-9242a1a257c1","system_id":"levelo_inurba_marseille","lat":43.29038,"lon":5.3592,"is_reserved":false,"is_disabled":false,"rental_uris":{"android":"levelo://app?vid=8b8b52b9-1d01-45b3-a51d-9242a1a257c1","ios":"levelo://app?vid=8b8b52b9-1d01-45b3-a51d-9242a1a257c1"},"vehicle_type_id":"4","last_reported":1732662522,"current_range_meters":36400,"station_id":"ce4bha92rcd13ifvqeg0","pricing_plan_id":"cebpf4jnsgd1na2vs0mg"},{"bike_id":"f8cecc01-c100-4297-b07c-016f62c77456","system_id":"levelo_inurba_marseille","lat":43.27901,"lon":5.38008,"is_reserved":false,"is_disabled":false,"rental_uris":{"android":"levelo://app?vid=f8cecc01-c100-4297-b07c-016f62c77456","ios":"levelo://app?vid=f8cecc01-c100-4297-b07c-016f62c77456"},"vehicle_type_id":"4","last_reported":1732662522,"current_range_meters":38800,"station_id":"ce4bhf92rcd13ifvqf50","pricing_plan_id":"cebpf4jnsgd1na2vs0mg"},{"bike_id":"b77fabb2-bd54-449c-af02-b0fd68ac1c04","system_id":"levelo_inurba_marseille","lat":43.27812,"lon":5.40709,"is_reserved":false,"is_disabled":false,"rental_uris":{"android":"levelo://app?vid=b77fabb2-bd54-449c-af02-b0fd68ac1c04","ios":"levelo://app?vid=b77fabb2-bd54-449c-af02-b0fd68ac1c04"},"vehicle_type_id":"4","last_reported":1732662522,"current_range_meters":2800,"station_id":"ce4bhnh2rcd13ifvqgtg","pricing_plan_id":"cebpf4jnsgd1na2vs0mg"},{"bike_id":"afec7923-bb94-4d10-aee5-c8a044b181fe","system_id":"levelo_inurba_marseille","lat":43.336057,"lon":5.410357,"is_reserved":false,"is_disabled":false,"rental_uris":{"android":"levelo://app?vid=afec7923-bb94-4d10-aee5-c8a044b181fe","ios":"levelo://app?vid=afec7923-bb94-4d10-aee5-c8a044b181fe"},"vehicle_type_id":"4","last_reported":1732662522,"current_range_meters":36400,"station_id":"","pricing_plan_id":"cebpf4jnsgd1na2vs0mg"},{"bike_id":"b96b93ca-a597-434c-a94f-c8450f9327b3","system_id":"levelo_inurba_marseille","lat":43.25869,"lon":5.39897,"is_reserved":false,"is_disabled":false,"rental_uris":{"android":"levelo://app?vid=b96b93ca-a597-434c-a94f-c8450f9327b3","ios":"levelo://app?vid=b96b93ca-a597-434c-a94f-c8450f9327b3"},"vehicle_type_id":"4","last_reported":1732662522,"current_range_meters":38400,"station_id":"ce4bhl92rcd13ifvqghg","pricing_plan_id":"cebpf4jnsgd1na2vs0mg"},{"bike_id":"182d83f8-e1ac-4212-b9e0-e3deabd469da","system_id":"levelo_inurba_marseille","lat":43.2318,"lon":5.39988,"is_reserved":false,"is_disabled":false,"rental_uris":{"android":"levelo://app?vid=182d83f8-e1ac-4212-b9e0-e3deabd469da","ios":"levelo://app?vid=182d83f8-e1ac-4212-b9e0-e3deabd469da"},"vehicle_type_id":"4","last_reported":1732662522,"current_range_meters":12400,"station_id":"ce4bhn12rcd13ifvqgqg","pricing_plan_id":"cebpf4jnsgd1na2vs0mg"},{"bike_id":"6a243988-d267-4e1e-bafc-c091870de6a8","system_id":"levelo_inurba_marseille","lat":43.2417,"lon":5.3639,"is_reserved":false,"is_disabled":false,"rental_uris":{"android":"levelo://app?vid=6a243988-d267-4e1e-bafc-c091870de6a8","ios":"levelo://app?vid=6a243988-d267-4e1e-bafc-c091870de6a8"},"vehicle_type_id":"4","last_reported":1732662522,"current_range_meters":37600,"station_id":"cpo36qri1sfpv3e86is0","pricing_plan_id":"cebpf4jnsgd1na2vs0mg"},{"bike_id":"9270ae5a-9523-474e-ae1b-6b468e75ab53","system_id":"levelo_inurba_marseille","lat":43.29031,"lon":5.38135,"is_reserved":false,"is_disabled":false,"rental_uris":{"android":"levelo://app?vid=9270ae5a-9523-474e-ae1b-6b468e75ab53","ios":"levelo://app?vid=9270ae5a-9523-474e-ae1b-6b468e75ab53"},"vehicle_type_id":"4","last_reported":1732662522,"current_range_meters":37600,"station_id":"ce4bh4p2rcd13ifvqe1g","pricing_plan_id":"cebpf4jnsgd1na2vs0mg"},{"bike_id":"32cbe6aa-217f-475e-8d89-7b3ea1a39381","system_id":"levelo_inurba_marseille","lat":43.33017,"lon":5.3904,"is_reserved":false,"is_disabled":false,"rental_uris":{"android":"levelo://app?vid=32cbe6aa-217f-475e-8d89-7b3ea1a39381","ios":"levelo://app?vid=32cbe6aa-217f-475e-8d89-7b3ea1a39381"},"vehicle_type_id":"4","last_reported":1732662522,"current_range_meters":11600,"station_id":"ce4bhr92rcd13ifvqhrg","pricing_plan_id":"cebpf4jnsgd1na2vs0mg"},{"bike_id":"8d7fb948-8394-45df-85f4-38659c7c1984","system_id":"levelo_inurba_marseille","lat":43.24643,"lon":5.389,"is_reserved":false,"is_disabled":false,"rental_uris":{"android":"levelo://app?vid=8d7fb948-8394-45df-85f4-38659c7c1984","ios":"levelo://app?vid=8d7fb948-8394-45df-85f4-38659c7c1984"},"vehicle_type_id":"4","last_reported":1732662522,"current_range_meters":16000,"station_id":"ce4bhg12rcd13ifvqf60","pricing_plan_id":"cebpf4jnsgd1na2vs0mg"},{"bike_id":"82d9c03a-6f43-4338-8c7b-2b9ac3a50f16","system_id":"levelo_inurba_marseille","lat":43.28941,"lon":5.36635,"is_reserved":false,"is_disabled":true,"rental_uris":{"android":"levelo://app?vid=82d9c03a-6f43-4338-8c7b-2b9ac3a50f16","ios":"levelo://app?vid=82d9c03a-6f43-4338-8c7b-2b9ac3a50f16"},"vehicle_type_id":"4","last_reported":1732662522,"current_range_meters":29600,"station_id":"ce4bhap2rcd13ifvqek0","pricing_plan_id":"cebpf4jnsgd1na2vs0mg"},{"bike_id":"39b04c21-6a6a-40a7-a489-741c2b67c9bd","system_id":"levelo_inurba_marseille","lat":43.33726,"lon":5.39193,"is_reserved":false,"is_disabled":false,"rental_uris":{"android":"levelo://app?vid=39b04c21-6a6a-40a7-a489-741c2b67c9bd","ios":"levelo://app?vid=39b04c21-6a6a-40a7-a489-741c2b67c9bd"},"vehicle_type_id":"4","last_reported":1732662522,"current_range_meters":14000,"station_id":"ce4bhr92rcd13ifvqhsg","pricing_plan_id":"cebpf4jnsgd1na2vs0mg"},{"bike_id":"da499228-a122-4ef7-8dcf-c3a40f3557ba","system_id":"levelo_inurba_marseille","lat":43.28852,"lon":5.35846,"is_reserved":false,"is_disabled":false,"rental_uris":{"android":"levelo://app?vid=da499228-a122-4ef7-8dcf-c3a40f3557ba","ios":"levelo://app?vid=da499228-a122-4ef7-8dcf-c3a40f3557ba"},"vehicle_type_id":"4","last_reported":1732662522,"current_range_meters":27600,"station_id":"ce4bhb12rcd13ifvqem0","pricing_plan_id":"cebpf4jnsgd1na2vs0mg"},{"bike_id":"1fa2d81f-1883-4991-a02b-1a8e3a64fecf","system_id":"levelo_inurba_marseille","lat":43.28841,"lon":5.35864,"is_reserved":false,"is_disabled":false,"rental_uris":{"android":"levelo://app?vid=1fa2d81f-1883-4991-a02b-1a8e3a64fecf","ios":"levelo://app?vid=1fa2d81f-1883-4991-a02b-1a8e3a64fecf"},"vehicle_type_id":"4","last_reported":1732662522,"current_range_meters":32800,"station_id":"ce4bhb12rcd13ifvqem0","pricing_plan_id":"cebpf4jnsgd1na2vs0mg"},{"bike_id":"3661ba76-5df4-4da2-a023-30b8178c9761","system_id":"levelo_inurba_marseille","lat":43.29547,"lon":5.42281,"is_reserved":false,"is_disabled":false,"rental_uris":{"android":"levelo://app?vid=3661ba76-5df4-4da2-a023-30b8178c9761","ios":"levelo://app?vid=3661ba76-5df4-4da2-a023-30b8178c9761"},"vehicle_type_id":"4","last_reported":1732662522,"current_range_meters":39200,"station_id":"ce4bhph2rcd13ifvqhdg","pricing_plan_id":"cebpf4jnsgd1na2vs0mg"},{"bike_id":"aaabd233-f07a-4d18-bea7-b9a035fdaedc","system_id":"levelo_inurba_marseille","lat":43.30802,"lon":5.43527,"is_reserved":false,"is_disabled":false,"rental_uris":{"android":"levelo://app?vid=aaabd233-f07a-4d18-bea7-b9a035fdaedc","ios":"levelo://app?vid=aaabd233-f07a-4d18-bea7-b9a035fdaedc"},"vehicle_type_id":"4","last_reported":1732662522,"current_range_meters":17200,"station_id":"ce4bhph2rcd13ifvqheg","pricing_plan_id":"cebpf4jnsgd1na2vs0mg"},{"bike_id":"e26d0981-24f1-43fe-b7af-bb6dae750240","system_id":"levelo_inurba_marseille","lat":43.31266,"lon":5.40171,"is_reserved":false,"is_disabled":false,"rental_uris":{"android":"levelo://app?vid=e26d0981-24f1-43fe-b7af-bb6dae750240","ios":"levelo://app?vid=e26d0981-24f1-43fe-b7af-bb6dae750240"},"vehicle_type_id":"4","last_reported":1732662522,"current_range_meters":38800,"station_id":"ce4bh092rcd13ifvqd30","pricing_plan_id":"cebpf4jnsgd1na2vs0mg"},{"bike_id":"7d51e624-0ea6-4353-a684-c3afe6c0bb90","system_id":"levelo_inurba_marseille","lat":43.25581,"lon":5.38242,"is_reserved":false,"is_disabled":false,"rental_uris":{"android":"levelo://app?vid=7d51e624-0ea6-4353-a684-c3afe6c0bb90","ios":"levelo://app?vid=7d51e624-0ea6-4353-a684-c3afe6c0bb90"},"vehicle_type_id":"4","last_reported":1732662522,"current_range_meters":38800,"station_id":"ce4bhih2rcd13ifvqfs0","pricing_plan_id":"cebpf4jnsgd1na2vs0mg"},{"bike_id":"8edeeb24-d361-4ae0-81a4-17af8692ba49","system_id":"levelo_inurba_marseille","lat":43.28688,"lon":5.39981,"is_reserved":false,"is_disabled":false,"rental_uris":{"android":"levelo://app?vid=8edeeb24-d361-4ae0-81a4-17af8692ba49","ios":"levelo://app?vid=8edeeb24-d361-4ae0-81a4-17af8692ba49"},"vehicle_type_id":"4","last_reported":1732662522,"current_range_meters":38800,"station_id":"ce4bho92rcd13ifvqh3g","pricing_plan_id":"cebpf4jnsgd1na2vs0mg"},{"bike_id":"704ddb11-043f-474f-a260-926d75682a49","system_id":"levelo_inurba_marseille","lat":43.29798,"lon":5.40411,"is_reserved":false,"is_disabled":false,"rental_uris":{"android":"levelo://app?vid=704ddb11-043f-474f-a260-926d75682a49","ios":"levelo://app?vid=704ddb11-043f-474f-a260-926d75682a49"},"vehicle_type_id":"4","last_reported":1732662522,"current_range_meters":38800,"station_id":"ce4bh112rcd13ifvqd90","pricing_plan_id":"cebpf4jnsgd1na2vs0mg"},{"bike_id":"ec67f2e6-2c78-4be6-a42b-19eafc1c3ce3","system_id":"levelo_inurba_marseille","lat":43.2925,"lon":5.40907,"is_reserved":false,"is_disabled":false,"rental_uris":{"android":"levelo://app?vid=ec67f2e6-2c78-4be6-a42b-19eafc1c3ce3","ios":"levelo://app?vid=ec67f2e6-2c78-4be6-a42b-19eafc1c3ce3"},"vehicle_type_id":"4","last_reported":1732662522,"current_range_meters":9600,"station_id":"ce4bh192rcd13ifvqdc0","pricing_plan_id":"cebpf4jnsgd1na2vs0mg"},{"bike_id":"e6b6ed62-a985-43be-a221-3aaa72f8a1db","system_id":"levelo_inurba_marseille","lat":43.2796,"lon":5.38709,"is_reserved":false,"is_disabled":true,"rental_uris":{"android":"levelo://app?vid=e6b6ed62-a985-43be-a221-3aaa72f8a1db","ios":"levelo://app?vid=e6b6ed62-a985-43be-a221-3aaa72f8a1db"},"vehicle_type_id":"4","last_reported":1732662522,"current_range_meters":1200,"station_id":"ce4bhg12rcd13ifvqf80","pricing_plan_id":"cebpf4jnsgd1na2vs0mg"},{"bike_id":"6eb165ac-2a63-464b-982d-3fb7f9449104","system_id":"levelo_inurba_marseille","lat":43.30934,"lon":5.40147,"is_reserved":false,"is_disabled":false,"rental_uris":{"android":"levelo://app?vid=6eb165ac-2a63-464b-982d-3fb7f9449104","ios":"levelo://app?vid=6eb165ac-2a63-464b-982d-3fb7f9449104"},"vehicle_type_id":"4","last_reported":1732662522,"current_range_meters":32800,"station_id":"ce4bgvp2rcd13ifvqct0","pricing_plan_id":"cebpf4jnsgd1na2vs0mg"},{"bike_id":"3b2ddd61-7276-4381-b067-2a88d42fe9ff","system_id":"levelo_inurba_marseille","lat":43.28267,"lon":5.35075,"is_reserved":false,"is_disabled":false,"rental_uris":{"android":"levelo://app?vid=3b2ddd61-7276-4381-b067-2a88d42fe9ff","ios":"levelo://app?vid=3b2ddd61-7276-4381-b067-2a88d42fe9ff"},"vehicle_type_id":"4","last_reported":1732662522,"current_range_meters":17200,"station_id":"ce4bhbp2rcd13ifvqerg","pricing_plan_id":"cebpf4jnsgd1na2vs0mg"},{"bike_id":"3faca838-929a-408e-bcba-41512aacc531","system_id":"levelo_inurba_marseille","lat":43.28079,"lon":5.3968,"is_reserved":false,"is_disabled":false,"rental_uris":{"android":"levelo://app?vid=3faca838-929a-408e-bcba-41512aacc531","ios":"levelo://app?vid=3faca838-929a-408e-bcba-41512aacc531"},"vehicle_type_id":"4","last_reported":1732662522,"current_range_meters":8400,"station_id":"ce4bho12rcd13ifvqh2g","pricing_plan_id":"cebpf4jnsgd1na2vs0mg"},{"bike_id":"36296f5c-0176-4be0-97c8-7930cda9c369","system_id":"levelo_inurba_marseille","lat":43.32106,"lon":5.36769,"is_reserved":false,"is_disabled":false,"rental_uris":{"android":"levelo://app?vid=36296f5c-0176-4be0-97c8-7930cda9c369","ios":"levelo://app?vid=36296f5c-0176-4be0-97c8-7930cda9c369"},"vehicle_type_id":"4","last_reported":1732662522,"current_range_meters":20000,"station_id":"ce4bhrh2rcd13ifvqhug","pricing_plan_id":"cebpf4jnsgd1na2vs0mg"},{"bike_id":"87a67757-30e9-48f9-acc0-db5ea929da65","system_id":"levelo_inurba_marseille","lat":43.28416,"lon":5.37516,"is_reserved":false,"is_disabled":false,"rental_uris":{"android":"levelo://app?vid=87a67757-30e9-48f9-acc0-db5ea929da65","ios":"levelo://app?vid=87a67757-30e9-48f9-acc0-db5ea929da65"},"vehicle_type_id":"4","last_reported":1732662522,"current_range_meters":34800,"station_id":"ce4bh412rcd13ifvqds0","pricing_plan_id":"cebpf4jnsgd1na2vs0mg"},{"bike_id":"00cfb2f4-c202-43c6-a6ae-d8f94f3813f3","system_id":"levelo_inurba_marseille","lat":43.28711,"lon":5.37947,"is_reserved":false,"is_disabled":false,"rental_uris":{"android":"levelo://app?vid=00cfb2f4-c202-43c6-a6ae-d8f94f3813f3","ios":"levelo://app?vid=00cfb2f4-c202-43c6-a6ae-d8f94f3813f3"},"vehicle_type_id":"4","last_reported":1732662522,"current_range_meters":35600,"station_id":"ce4bh9p2rcd13ifvqec0","pricing_plan_id":"cebpf4jnsgd1na2vs0mg"},{"bike_id":"09a03102-200d-4e4e-be75-8279cbe6b87f","system_id":"levelo_inurba_marseille","lat":43.30799,"lon":5.38152,"is_reserved":false,"is_disabled":false,"rental_uris":{"android":"levelo://app?vid=09a03102-200d-4e4e-be75-8279cbe6b87f","ios":"levelo://app?vid=09a03102-200d-4e4e-be75-8279cbe6b87f"},"vehicle_type_id":"4","last_reported":1732662522,"current_range_meters":38400,"station_id":"ce4bgt12rcd13ifvqce0","pricing_plan_id":"cebpf4jnsgd1na2vs0mg"},{"bike_id":"5a64147f-da9a-40cb-a940-153001e1f291","system_id":"levelo_inurba_marseille","lat":43.29796,"lon":5.38192,"is_reserved":false,"is_disabled":true,"rental_uris":{"android":"levelo://app?vid=5a64147f-da9a-40cb-a940-153001e1f291","ios":"levelo://app?vid=5a64147f-da9a-40cb-a940-153001e1f291"},"vehicle_type_id":"4","last_reported":1732662522,"current_range_meters":29600,"station_id":"","pricing_plan_id":"cebpf4jnsgd1na2vs0mg"},{"bike_id":"f3ab79b4-bee0-4279-abac-5f85f5e58a2e","system_id":"levelo_inurba_marseille","lat":43.29569,"lon":5.39983,"is_reserved":false,"is_disabled":false,"rental_uris":{"android":"levelo://app?vid=f3ab79b4-bee0-4279-abac-5f85f5e58a2e","ios":"levelo://app?vid=f3ab79b4-bee0-4279-abac-5f85f5e58a2e"},"vehicle_type_id":"4","last_reported":1732662522,"current_range_meters":36400,"station_id":"ce4bh312rcd13ifvqdj0","pricing_plan_id":"cebpf4jnsgd1na2vs0mg"},{"bike_id":"5e94e11f-881f-4f15-b59c-c93c4e3ef240","system_id":"levelo_inurba_marseille","lat":43.25106,"lon":5.4032,"is_reserved":false,"is_disabled":false,"rental_uris":{"android":"levelo://app?vid=5e94e11f-881f-4f15-b59c-c93c4e3ef240","ios":"levelo://app?vid=5e94e11f-881f-4f15-b59c-c93c4e3ef240"},"vehicle_type_id":"4","last_reported":1732662522,"current_range_meters":12000,"station_id":"ce4bhlh2rcd13ifvqgig","pricing_plan_id":"cebpf4jnsgd1na2vs0mg"},{"bike_id":"1d92a500-1738-4712-ac6b-bf70c5533805","system_id":"levelo_inurba_marseille","lat":43.32662,"lon":5.40993,"is_reserved":false,"is_disabled":false,"rental_uris":{"android":"levelo://app?vid=1d92a500-1738-4712-ac6b-bf70c5533805","ios":"levelo://app?vid=1d92a500-1738-4712-ac6b-bf70c5533805"},"vehicle_type_id":"4","last_reported":1732662522,"current_range_meters":38800,"station_id":"ce4bhpp2rcd13ifvqhgg","pricing_plan_id":"cebpf4jnsgd1na2vs0mg"},{"bike_id":"d08c361c-1912-4825-949a-6ab73f0b4c31","system_id":"levelo_inurba_marseille","lat":43.28087,"lon":5.39665,"is_reserved":false,"is_disabled":false,"rental_uris":{"android":"levelo://app?vid=d08c361c-1912-4825-949a-6ab73f0b4c31","ios":"levelo://app?vid=d08c361c-1912-4825-949a-6ab73f0b4c31"},"vehicle_type_id":"4","last_reported":1732662522,"current_range_meters":31200,"station_id":"ce4bho12rcd13ifvqh2g","pricing_plan_id":"cebpf4jnsgd1na2vs0mg"},{"bike_id":"73e59ae6-2ee9-4cfa-a524-30488db1567f","system_id":"levelo_inurba_marseille","lat":43.30609,"lon":5.4008,"is_reserved":false,"is_disabled":false,"rental_uris":{"android":"levelo://app?vid=73e59ae6-2ee9-4cfa-a524-30488db1567f","ios":"levelo://app?vid=73e59ae6-2ee9-4cfa-a524-30488db1567f"},"vehicle_type_id":"4","last_reported":1732662522,"current_range_meters":17200,"station_id":"ce4bh112rcd13ifvqda0","pricing_plan_id":"cebpf4jnsgd1na2vs0mg"},{"bike_id":"59d4e266-5854-41fb-a8c4-d167a2b656fd","system_id":"levelo_inurba_marseille","lat":43.30777,"lon":5.37648,"is_reserved":false,"is_disabled":false,"rental_uris":{"android":"levelo://app?vid=59d4e266-5854-41fb-a8c4-d167a2b656fd","ios":"levelo://app?vid=59d4e266-5854-41fb-a8c4-d167a2b656fd"},"vehicle_type_id":"4","last_reported":1732662522,"current_range_meters":38000,"station_id":"ce4bgv92rcd13ifvqcq0","pricing_plan_id":"cebpf4jnsgd1na2vs0mg"},{"bike_id":"af37692a-afc7-4ddb-93b0-b4c766c6cca7","system_id":"levelo_inurba_marseille","lat":43.30142,"lon":5.37414,"is_reserved":false,"is_disabled":false,"rental_uris":{"android":"levelo://app?vid=af37692a-afc7-4ddb-93b0-b4c766c6cca7","ios":"levelo://app?vid=af37692a-afc7-4ddb-93b0-b4c766c6cca7"},"vehicle_type_id":"4","last_reported":1732662522,"current_range_meters":38800,"station_id":"ce4bgs92rcd13ifvqcc0","pricing_plan_id":"cebpf4jnsgd1na2vs0mg"},{"bike_id":"d81c53c2-9041-4610-9112-f91be4e0b004","system_id":"levelo_inurba_marseille","lat":43.29522,"lon":5.39403,"is_reserved":false,"is_disabled":false,"rental_uris":{"android":"levelo://app?vid=d81c53c2-9041-4610-9112-f91be4e0b004","ios":"levelo://app?vid=d81c53c2-9041-4610-9112-f91be4e0b004"},"vehicle_type_id":"4","last_reported":1732662522,"current_range_meters":38800,"station_id":"ce4bh292rcd13ifvqdf0","pricing_plan_id":"cebpf4jnsgd1na2vs0mg"},{"bike_id":"7087eacf-6790-4ce8-8680-8e435b348b59","system_id":"levelo_inurba_marseille","lat":43.29505,"lon":5.39391,"is_reserved":false,"is_disabled":false,"rental_uris":{"android":"levelo://app?vid=7087eacf-6790-4ce8-8680-8e435b348b59","ios":"levelo://app?vid=7087eacf-6790-4ce8-8680-8e435b348b59"},"vehicle_type_id":"4","last_reported":1732662522,"current_range_meters":24400,"station_id":"ce4bh292rcd13ifvqdf0","pricing_plan_id":"cebpf4jnsgd1na2vs0mg"},{"bike_id":"51b398f2-b539-440c-917f-0128fd59b7e4","system_id":"levelo_inurba_marseille","lat":43.28466,"lon":5.35894,"is_reserved":false,"is_disabled":false,"rental_uris":{"android":"levelo://app?vid=51b398f2-b539-440c-917f-0128fd59b7e4","ios":"levelo://app?vid=51b398f2-b539-440c-917f-0128fd59b7e4"},"vehicle_type_id":"4","last_reported":1732662522,"current_range_meters":39200,"station_id":"ce4bhah2rcd13ifvqei0","pricing_plan_id":"cebpf4jnsgd1na2vs0mg"},{"bike_id":"1cd78e3c-eca2-430e-a00b-3450b52eb373","system_id":"levelo_inurba_marseille","lat":43.2293,"lon":5.35376,"is_reserved":false,"is_disabled":false,"rental_uris":{"android":"levelo://app?vid=1cd78e3c-eca2-430e-a00b-3450b52eb373","ios":"levelo://app?vid=1cd78e3c-eca2-430e-a00b-3450b52eb373"},"vehicle_type_id":"4","last_reported":1732662522,"current_range_meters":38800,"station_id":"cpo3532slgdg3j2ikp40","pricing_plan_id":"cebpf4jnsgd1na2vs0mg"},{"bike_id":"2ccbab4c-72b8-4d2e-a7d8-b3b981518916","system_id":"levelo_inurba_marseille","lat":43.31762,"lon":5.39012,"is_reserved":false,"is_disabled":false,"rental_uris":{"android":"levelo://app?vid=2ccbab4c-72b8-4d2e-a7d8-b3b981518916","ios":"levelo://app?vid=2ccbab4c-72b8-4d2e-a7d8-b3b981518916"},"vehicle_type_id":"4","last_reported":1732662522,"current_range_meters":39200,"station_id":"ce4bhqp2rcd13ifvqhng","pricing_plan_id":"cebpf4jnsgd1na2vs0mg"},{"bike_id":"391001e2-7361-4b92-b20f-4fb1d1376b6e","system_id":"levelo_inurba_marseille","lat":43.23195,"lon":5.40079,"is_reserved":false,"is_disabled":false,"rental_uris":{"android":"levelo://app?vid=391001e2-7361-4b92-b20f-4fb1d1376b6e","ios":"levelo://app?vid=391001e2-7361-4b92-b20f-4fb1d1376b6e"},"vehicle_type_id":"4","last_reported":1732662522,"current_range_meters":38800,"station_id":"","pricing_plan_id":"cebpf4jnsgd1na2vs0mg"},{"bike_id":"f74a3789-cb95-4d4e-b372-c223603b6dfc","system_id":"levelo_inurba_marseille","lat":43.28106,"lon":5.3784,"is_reserved":false,"is_disabled":false,"rental_uris":{"android":"levelo://app?vid=f74a3789-cb95-4d4e-b372-c223603b6dfc","ios":"levelo://app?vid=f74a3789-cb95-4d4e-b372-c223603b6dfc"},"vehicle_type_id":"4","last_reported":1732662522,"current_range_meters":31200,"station_id":"ce4bha12rcd13ifvqee0","pricing_plan_id":"cebpf4jnsgd1na2vs0mg"},{"bike_id":"139e07cb-4864-4586-813b-7d6db5e691bf","system_id":"levelo_inurba_marseille","lat":43.32654,"lon":5.4096,"is_reserved":false,"is_disabled":false,"rental_uris":{"android":"levelo://app?vid=139e07cb-4864-4586-813b-7d6db5e691bf","ios":"levelo://app?vid=139e07cb-4864-4586-813b-7d6db5e691bf"},"vehicle_type_id":"4","last_reported":1732662522,"current_range_meters":37600,"station_id":"ce4bhpp2rcd13ifvqhgg","pricing_plan_id":"cebpf4jnsgd1na2vs0mg"},{"bike_id":"e72d41bb-8bbd-4274-987d-4e5a925e8fe7","system_id":"levelo_inurba_marseille","lat":43.2963,"lon":5.40594,"is_reserved":false,"is_disabled":false,"rental_uris":{"android":"levelo://app?vid=e72d41bb-8bbd-4274-987d-4e5a925e8fe7","ios":"levelo://app?vid=e72d41bb-8bbd-4274-987d-4e5a925e8fe7"},"vehicle_type_id":"4","last_reported":1732662522,"current_range_meters":37600,"station_id":"ce4bh0h2rcd13ifvqd60","pricing_plan_id":"cebpf4jnsgd1na2vs0mg"},{"bike_id":"28709731-d14f-4e98-afa7-e678c8db1a10","system_id":"levelo_inurba_marseille","lat":43.32367,"lon":5.38879,"is_reserved":false,"is_disabled":false,"rental_uris":{"android":"levelo://app?vid=28709731-d14f-4e98-afa7-e678c8db1a10","ios":"levelo://app?vid=28709731-d14f-4e98-afa7-e678c8db1a10"},"vehicle_type_id":"4","last_reported":1732662522,"current_range_meters":27600,"station_id":"ce4bhqp2rcd13ifvqhog","pricing_plan_id":"cebpf4jnsgd1na2vs0mg"},{"bike_id":"ad147b94-4180-4578-a0fa-c4d1998acb2d","system_id":"levelo_inurba_marseille","lat":43.29043,"lon":5.3593,"is_reserved":false,"is_disabled":true,"rental_uris":{"android":"levelo://app?vid=ad147b94-4180-4578-a0fa-c4d1998acb2d","ios":"levelo://app?vid=ad147b94-4180-4578-a0fa-c4d1998acb2d"},"vehicle_type_id":"4","last_reported":1732662522,"current_range_meters":38400,"station_id":"ce4bha92rcd13ifvqeg0","pricing_plan_id":"cebpf4jnsgd1na2vs0mg"},{"bike_id":"8d88d784-a412-435e-bbdb-816b3095509e","system_id":"levelo_inurba_marseille","lat":43.31179,"lon":5.38722,"is_reserved":false,"is_disabled":false,"rental_uris":{"android":"levelo://app?vid=8d88d784-a412-435e-bbdb-816b3095509e","ios":"levelo://app?vid=8d88d784-a412-435e-bbdb-816b3095509e"},"vehicle_type_id":"4","last_reported":1732662522,"current_range_meters":38800,"station_id":"ce4bgv12rcd13ifvqcp0","pricing_plan_id":"cebpf4jnsgd1na2vs0mg"},{"bike_id":"4f9eddaf-5d26-42f4-98f6-12cd4c5250b2","system_id":"levelo_inurba_marseille","lat":43.28431,"lon":5.39193,"is_reserved":false,"is_disabled":false,"rental_uris":{"android":"levelo://app?vid=4f9eddaf-5d26-42f4-98f6-12cd4c5250b2","ios":"levelo://app?vid=4f9eddaf-5d26-42f4-98f6-12cd4c5250b2"},"vehicle_type_id":"4","last_reported":1732662522,"current_range_meters":32000,"station_id":"ce4bhoh2rcd13ifvqh5g","pricing_plan_id":"cebpf4jnsgd1na2vs0mg"},{"bike_id":"2e95a691-d7d8-426b-8dba-47b6b56c6a41","system_id":"levelo_inurba_marseille","lat":43.28157,"lon":5.42648,"is_reserved":false,"is_disabled":true,"rental_uris":{"android":"levelo://app?vid=2e95a691-d7d8-426b-8dba-47b6b56c6a41","ios":"levelo://app?vid=2e95a691-d7d8-426b-8dba-47b6b56c6a41"},"vehicle_type_id":"4","last_reported":1732662522,"current_range_meters":3600,"station_id":"ce4bhnh2rcd13ifvqgug","pricing_plan_id":"cebpf4jnsgd1na2vs0mg"},{"bike_id":"e1023cd0-0598-4752-bca2-87e3d8646e5a","system_id":"levelo_inurba_marseille","lat":43.27381,"lon":5.36241,"is_reserved":false,"is_disabled":true,"rental_uris":{"android":"levelo://app?vid=e1023cd0-0598-4752-bca2-87e3d8646e5a","ios":"levelo://app?vid=e1023cd0-0598-4752-bca2-87e3d8646e5a"},"vehicle_type_id":"4","last_reported":1732662522,"current_range_meters":0,"station_id":"ce4bhbh2rcd13ifvqeo0","pricing_plan_id":"cebpf4jnsgd1na2vs0mg"},{"bike_id":"3e37db55-c4a9-4419-a174-bfd57be8a027","system_id":"levelo_inurba_marseille","lat":43.24385,"lon":5.37057,"is_reserved":false,"is_disabled":false,"rental_uris":{"android":"levelo://app?vid=3e37db55-c4a9-4419-a174-bfd57be8a027","ios":"levelo://app?vid=3e37db55-c4a9-4419-a174-bfd57be8a027"},"vehicle_type_id":"4","last_reported":1732662522,"current_range_meters":23200,"station_id":"ce4bhhh2rcd13ifvqfk0","pricing_plan_id":"cebpf4jnsgd1na2vs0mg"},{"bike_id":"fba1ceb6-3cef-4b3a-8f1d-cb2909f800c4","system_id":"levelo_inurba_marseille","lat":43.31359,"lon":5.36705,"is_reserved":false,"is_disabled":false,"rental_uris":{"android":"levelo://app?vid=fba1ceb6-3cef-4b3a-8f1d-cb2909f800c4","ios":"levelo://app?vid=fba1ceb6-3cef-4b3a-8f1d-cb2909f800c4"},"vehicle_type_id":"4","last_reported":1732662522,"current_range_meters":37600,"station_id":"ce4bgr92rcd13ifvqc6g","pricing_plan_id":"cebpf4jnsgd1na2vs0mg"},{"bike_id":"296383cf-b9f1-4ece-98e9-977ef8cbd17a","system_id":"levelo_inurba_marseille","lat":43.23188,"lon":5.3999,"is_reserved":false,"is_disabled":false,"rental_uris":{"android":"levelo://app?vid=296383cf-b9f1-4ece-98e9-977ef8cbd17a","ios":"levelo://app?vid=296383cf-b9f1-4ece-98e9-977ef8cbd17a"},"vehicle_type_id":"4","last_reported":1732662522,"current_range_meters":22000,"station_id":"ce4bhn12rcd13ifvqgqg","pricing_plan_id":"cebpf4jnsgd1na2vs0mg"},{"bike_id":"c2a4f2c4-31ea-43f5-bfb7-329a41ddaa42","system_id":"levelo_inurba_marseille","lat":43.29255,"lon":5.40902,"is_reserved":false,"is_disabled":false,"rental_uris":{"android":"levelo://app?vid=c2a4f2c4-31ea-43f5-bfb7-329a41ddaa42","ios":"levelo://app?vid=c2a4f2c4-31ea-43f5-bfb7-329a41ddaa42"},"vehicle_type_id":"4","last_reported":1732662522,"current_range_meters":10000,"station_id":"ce4bh192rcd13ifvqdc0","pricing_plan_id":"cebpf4jnsgd1na2vs0mg"},{"bike_id":"d69a51a9-ec48-4388-9e83-d0dcd701678d","system_id":"levelo_inurba_marseille","lat":43.27916,"lon":5.39576,"is_reserved":false,"is_disabled":false,"rental_uris":{"android":"levelo://app?vid=d69a51a9-ec48-4388-9e83-d0dcd701678d","ios":"levelo://app?vid=d69a51a9-ec48-4388-9e83-d0dcd701678d"},"vehicle_type_id":"4","last_reported":1732662522,"current_range_meters":24800,"station_id":"ce4bhf92rcd13ifvqf40","pricing_plan_id":"cebpf4jnsgd1na2vs0mg"},{"bike_id":"1606c510-b735-4fc8-8ac9-1879292672fd","system_id":"levelo_inurba_marseille","lat":43.25868,"lon":5.39898,"is_reserved":false,"is_disabled":false,"rental_uris":{"android":"levelo://app?vid=1606c510-b735-4fc8-8ac9-1879292672fd","ios":"levelo://app?vid=1606c510-b735-4fc8-8ac9-1879292672fd"},"vehicle_type_id":"4","last_reported":1732662522,"current_range_meters":9200,"station_id":"ce4bhl92rcd13ifvqghg","pricing_plan_id":"cebpf4jnsgd1na2vs0mg"},{"bike_id":"858b65e1-94fc-4151-a71e-8b168cb19dcb","system_id":"levelo_inurba_marseille","lat":43.32249,"lon":5.39241,"is_reserved":false,"is_disabled":true,"rental_uris":{"android":"levelo://app?vid=858b65e1-94fc-4151-a71e-8b168cb19dcb","ios":"levelo://app?vid=858b65e1-94fc-4151-a71e-8b168cb19dcb"},"vehicle_type_id":"4","last_reported":1732662522,"current_range_meters":0,"station_id":"","pricing_plan_id":"cebpf4jnsgd1na2vs0mg"},{"bike_id":"ea8c70eb-fb96-44a1-a20d-11ed438fce10","system_id":"levelo_inurba_marseille","lat":43.31082,"lon":5.4243,"is_reserved":false,"is_disabled":false,"rental_uris":{"android":"levelo://app?vid=ea8c70eb-fb96-44a1-a20d-11ed438fce10","ios":"levelo://app?vid=ea8c70eb-fb96-44a1-a20d-11ed438fce10"},"vehicle_type_id":"4","last_reported":1732662522,"current_range_meters":27600,"station_id":"ce4bhp92rcd13ifvqhag","pricing_plan_id":"cebpf4jnsgd1na2vs0mg"},{"bike_id":"e51b2acb-d883-446b-9ce9-347608453ece","system_id":"levelo_inurba_marseille","lat":43.22929,"lon":5.35378,"is_reserved":false,"is_disabled":false,"rental_uris":{"android":"levelo://app?vid=e51b2acb-d883-446b-9ce9-347608453ece","ios":"levelo://app?vid=e51b2acb-d883-446b-9ce9-347608453ece"},"vehicle_type_id":"4","last_reported":1732662522,"current_range_meters":38800,"station_id":"cpo3532slgdg3j2ikp40","pricing_plan_id":"cebpf4jnsgd1na2vs0mg"},{"bike_id":"d4631ba8-55fd-4d7a-8e8b-d75420895cf3","system_id":"levelo_inurba_marseille","lat":43.29189,"lon":5.39298,"is_reserved":false,"is_disabled":false,"rental_uris":{"android":"levelo://app?vid=d4631ba8-55fd-4d7a-8e8b-d75420895cf3","ios":"levelo://app?vid=d4631ba8-55fd-4d7a-8e8b-d75420895cf3"},"vehicle_type_id":"4","last_reported":1732662522,"current_range_meters":38800,"station_id":"ce4bh192rcd13ifvqdd0","pricing_plan_id":"cebpf4jnsgd1na2vs0mg"},{"bike_id":"a01a3735-629e-4ada-b75a-7b15adc23229","system_id":"levelo_inurba_marseille","lat":43.28951,"lon":5.36388,"is_reserved":false,"is_disabled":false,"rental_uris":{"android":"levelo://app?vid=a01a3735-629e-4ada-b75a-7b15adc23229","ios":"levelo://app?vid=a01a3735-629e-4ada-b75a-7b15adc23229"},"vehicle_type_id":"4","last_reported":1732662522,"current_range_meters":14800,"station_id":"ce4bhc92rcd13ifvqetg","pricing_plan_id":"cebpf4jnsgd1na2vs0mg"},{"bike_id":"ef0c18b4-5a1e-43d8-a116-f5143dc45dc0","system_id":"levelo_inurba_marseille","lat":43.30254,"lon":5.40078,"is_reserved":false,"is_disabled":false,"rental_uris":{"android":"levelo://app?vid=ef0c18b4-5a1e-43d8-a116-f5143dc45dc0","ios":"levelo://app?vid=ef0c18b4-5a1e-43d8-a116-f5143dc45dc0"},"vehicle_type_id":"4","last_reported":1732662522,"current_range_meters":13600,"station_id":"ce4bgvh2rcd13ifvqcs0","pricing_plan_id":"cebpf4jnsgd1na2vs0mg"},{"bike_id":"cc9ef2b2-b43f-4616-aced-d50547813afe","system_id":"levelo_inurba_marseille","lat":43.27975,"lon":5.38736,"is_reserved":false,"is_disabled":false,"rental_uris":{"android":"levelo://app?vid=cc9ef2b2-b43f-4616-aced-d50547813afe","ios":"levelo://app?vid=cc9ef2b2-b43f-4616-aced-d50547813afe"},"vehicle_type_id":"4","last_reported":1732662522,"current_range_meters":26800,"station_id":"ce4bhg12rcd13ifvqf80","pricing_plan_id":"cebpf4jnsgd1na2vs0mg"},{"bike_id":"d5da5333-8509-4b0a-b744-e59e463e7865","system_id":"levelo_inurba_marseille","lat":43.27904,"lon":5.38297,"is_reserved":false,"is_disabled":true,"rental_uris":{"android":"levelo://app?vid=d5da5333-8509-4b0a-b744-e59e463e7865","ios":"levelo://app?vid=d5da5333-8509-4b0a-b744-e59e463e7865"},"vehicle_type_id":"4","last_reported":1732662522,"current_range_meters":22400,"station_id":"","pricing_plan_id":"cebpf4jnsgd1na2vs0mg"},{"bike_id":"859fbee0-02c1-4795-bf59-3633c6d02e96","system_id":"levelo_inurba_marseille","lat":43.30934,"lon":5.40136,"is_reserved":false,"is_disabled":false,"rental_uris":{"android":"levelo://app?vid=859fbee0-02c1-4795-bf59-3633c6d02e96","ios":"levelo://app?vid=859fbee0-02c1-4795-bf59-3633c6d02e96"},"vehicle_type_id":"4","last_reported":1732662522,"current_range_meters":18000,"station_id":"ce4bgvp2rcd13ifvqct0","pricing_plan_id":"cebpf4jnsgd1na2vs0mg"},{"bike_id":"20bdbe8a-5b4c-40cd-8994-ae002231f6f1","system_id":"levelo_inurba_marseille","lat":43.30825,"lon":5.37627,"is_reserved":false,"is_disabled":false,"rental_uris":{"android":"levelo://app?vid=20bdbe8a-5b4c-40cd-8994-ae002231f6f1","ios":"levelo://app?vid=20bdbe8a-5b4c-40cd-8994-ae002231f6f1"},"vehicle_type_id":"4","last_reported":1732662522,"current_range_meters":38800,"station_id":"ce4bgv92rcd13ifvqcq0","pricing_plan_id":"cebpf4jnsgd1na2vs0mg"},{"bike_id":"df8b6335-1fd6-4826-94dd-ea51fbe98817","system_id":"levelo_inurba_marseille","lat":43.28721,"lon":5.36082,"is_reserved":false,"is_disabled":false,"rental_uris":{"android":"levelo://app?vid=df8b6335-1fd6-4826-94dd-ea51fbe98817","ios":"levelo://app?vid=df8b6335-1fd6-4826-94dd-ea51fbe98817"},"vehicle_type_id":"4","last_reported":1732662522,"current_range_meters":38800,"station_id":"cki0cbj6b192h4jlfktg","pricing_plan_id":"cebpf4jnsgd1na2vs0mg"},{"bike_id":"f7f3756c-1ec7-4782-9c87-6273f87b6774","system_id":"levelo_inurba_marseille","lat":43.337444,"lon":5.374475,"is_reserved":false,"is_disabled":true,"rental_uris":{"android":"levelo://app?vid=f7f3756c-1ec7-4782-9c87-6273f87b6774","ios":"levelo://app?vid=f7f3756c-1ec7-4782-9c87-6273f87b6774"},"vehicle_type_id":"4","last_reported":1732662522,"current_range_meters":17600,"station_id":"","pricing_plan_id":"cebpf4jnsgd1na2vs0mg"},{"bike_id":"5ac84619-8500-415b-9629-5dc640523aaa","system_id":"levelo_inurba_marseille","lat":43.29518,"lon":5.37505,"is_reserved":false,"is_disabled":true,"rental_uris":{"android":"levelo://app?vid=5ac84619-8500-415b-9629-5dc640523aaa","ios":"levelo://app?vid=5ac84619-8500-415b-9629-5dc640523aaa"},"vehicle_type_id":"4","last_reported":1732662522,"current_range_meters":14800,"station_id":"ce4bgkp2rcd13ifvqbmg","pricing_plan_id":"cebpf4jnsgd1na2vs0mg"},{"bike_id":"ca3c5af7-6212-4473-8827-9c89992897f3","system_id":"levelo_inurba_marseille","lat":43.28446,"lon":5.39193,"is_reserved":false,"is_disabled":false,"rental_uris":{"android":"levelo://app?vid=ca3c5af7-6212-4473-8827-9c89992897f3","ios":"levelo://app?vid=ca3c5af7-6212-4473-8827-9c89992897f3"},"vehicle_type_id":"4","last_reported":1732662522,"current_range_meters":33600,"station_id":"ce4bhoh2rcd13ifvqh5g","pricing_plan_id":"cebpf4jnsgd1na2vs0mg"},{"bike_id":"3b633dca-eb70-4ea8-b301-a2515bdd370f","system_id":"levelo_inurba_marseille","lat":43.28405,"lon":5.3751,"is_reserved":false,"is_disabled":false,"rental_uris":{"android":"levelo://app?vid=3b633dca-eb70-4ea8-b301-a2515bdd370f","ios":"levelo://app?vid=3b633dca-eb70-4ea8-b301-a2515bdd370f"},"vehicle_type_id":"4","last_reported":1732662522,"current_range_meters":17200,"station_id":"ce4bh412rcd13ifvqds0","pricing_plan_id":"cebpf4jnsgd1na2vs0mg"},{"bike_id":"e74072b3-a02b-4151-87ff-4a55be046050","system_id":"levelo_inurba_marseille","lat":43.25088,"lon":5.39523,"is_reserved":false,"is_disabled":false,"rental_uris":{"android":"levelo://app?vid=e74072b3-a02b-4151-87ff-4a55be046050","ios":"levelo://app?vid=e74072b3-a02b-4151-87ff-4a55be046050"},"vehicle_type_id":"4","last_reported":1732662522,"current_range_meters":38400,"station_id":"ce4bhm12rcd13ifvqgkg","pricing_plan_id":"cebpf4jnsgd1na2vs0mg"},{"bike_id":"1c89c5b4-083f-4e52-8440-fa52a965f9b3","system_id":"levelo_inurba_marseille","lat":43.30544,"lon":5.36529,"is_reserved":false,"is_disabled":true,"rental_uris":{"android":"levelo://app?vid=1c89c5b4-083f-4e52-8440-fa52a965f9b3","ios":"levelo://app?vid=1c89c5b4-083f-4e52-8440-fa52a965f9b3"},"vehicle_type_id":"4","last_reported":1732662522,"current_range_meters":35600,"station_id":"ce4bgs12rcd13ifvqcag","pricing_plan_id":"cebpf4jnsgd1na2vs0mg"},{"bike_id":"da9766fc-7c3a-4df3-adb6-43d914fc777e","system_id":"levelo_inurba_marseille","lat":43.29853,"lon":5.39762,"is_reserved":false,"is_disabled":false,"rental_uris":{"android":"levelo://app?vid=da9766fc-7c3a-4df3-adb6-43d914fc777e","ios":"levelo://app?vid=da9766fc-7c3a-4df3-adb6-43d914fc777e"},"vehicle_type_id":"4","last_reported":1732662522,"current_range_meters":38400,"station_id":"ce4bh0h2rcd13ifvqd50","pricing_plan_id":"cebpf4jnsgd1na2vs0mg"},{"bike_id":"5beeafd9-fc35-4444-8f38-3d5aae2d23a8","system_id":"levelo_inurba_marseille","lat":43.32483,"lon":5.36557,"is_reserved":false,"is_disabled":false,"rental_uris":{"android":"levelo://app?vid=5beeafd9-fc35-4444-8f38-3d5aae2d23a8","ios":"levelo://app?vid=5beeafd9-fc35-4444-8f38-3d5aae2d23a8"},"vehicle_type_id":"4","last_reported":1732662522,"current_range_meters":17600,"station_id":"ce4bhs12rcd13ifvqhvg","pricing_plan_id":"cebpf4jnsgd1na2vs0mg"},{"bike_id":"ee39fb7d-6338-4ece-8656-cb0f293fe4e8","system_id":"levelo_inurba_marseille","lat":43.31172,"lon":5.38713,"is_reserved":false,"is_disabled":false,"rental_uris":{"android":"levelo://app?vid=ee39fb7d-6338-4ece-8656-cb0f293fe4e8","ios":"levelo://app?vid=ee39fb7d-6338-4ece-8656-cb0f293fe4e8"},"vehicle_type_id":"4","last_reported":1732662522,"current_range_meters":12000,"station_id":"ce4bgv12rcd13ifvqcp0","pricing_plan_id":"cebpf4jnsgd1na2vs0mg"},{"bike_id":"1bdf9afd-1539-40b5-b519-81e00474358c","system_id":"levelo_inurba_marseille","lat":43.28848,"lon":5.35849,"is_reserved":false,"is_disabled":false,"rental_uris":{"android":"levelo://app?vid=1bdf9afd-1539-40b5-b519-81e00474358c","ios":"levelo://app?vid=1bdf9afd-1539-40b5-b519-81e00474358c"},"vehicle_type_id":"4","last_reported":1732662522,"current_range_meters":28400,"station_id":"ce4bhb12rcd13ifvqem0","pricing_plan_id":"cebpf4jnsgd1na2vs0mg"},{"bike_id":"ceef91ef-278d-48da-8af0-4d75c1ac4622","system_id":"levelo_inurba_marseille","lat":43.2656,"lon":5.37286,"is_reserved":false,"is_disabled":false,"rental_uris":{"android":"levelo://app?vid=ceef91ef-278d-48da-8af0-4d75c1ac4622","ios":"levelo://app?vid=ceef91ef-278d-48da-8af0-4d75c1ac4622"},"vehicle_type_id":"4","last_reported":1732662522,"current_range_meters":28800,"station_id":"ce4bhg12rcd13ifvqf70","pricing_plan_id":"cebpf4jnsgd1na2vs0mg"},{"bike_id":"b94865bd-271b-4f4b-bfb5-073ca9cd54df","system_id":"levelo_inurba_marseille","lat":43.30307,"lon":5.39208,"is_reserved":false,"is_disabled":true,"rental_uris":{"android":"levelo://app?vid=b94865bd-271b-4f4b-bfb5-073ca9cd54df","ios":"levelo://app?vid=b94865bd-271b-4f4b-bfb5-073ca9cd54df"},"vehicle_type_id":"4","last_reported":1732662522,"current_range_meters":32000,"station_id":"ce4bgkh2rcd13ifvqbk0","pricing_plan_id":"cebpf4jnsgd1na2vs0mg"},{"bike_id":"a1e4c6c6-2f64-4874-8633-ea7f2cf7d72d","system_id":"levelo_inurba_marseille","lat":43.31068,"lon":5.38355,"is_reserved":false,"is_disabled":false,"rental_uris":{"android":"levelo://app?vid=a1e4c6c6-2f64-4874-8633-ea7f2cf7d72d","ios":"levelo://app?vid=a1e4c6c6-2f64-4874-8633-ea7f2cf7d72d"},"vehicle_type_id":"4","last_reported":1732662522,"current_range_meters":38800,"station_id":"ce4bgv92rcd13ifvqcr0","pricing_plan_id":"cebpf4jnsgd1na2vs0mg"},{"bike_id":"a5909545-3e09-4859-9fda-9ffe4e6e4883","system_id":"levelo_inurba_marseille","lat":43.23068,"lon":5.35492,"is_reserved":false,"is_disabled":false,"rental_uris":{"android":"levelo://app?vid=a5909545-3e09-4859-9fda-9ffe4e6e4883","ios":"levelo://app?vid=a5909545-3e09-4859-9fda-9ffe4e6e4883"},"vehicle_type_id":"4","last_reported":1732662522,"current_range_meters":29600,"station_id":"cpo3342slgdg3j2ifvpg","pricing_plan_id":"cebpf4jnsgd1na2vs0mg"},{"bike_id":"9f12d915-5eff-4689-a96d-7d2d1d3f25d8","system_id":"levelo_inurba_marseille","lat":43.298045,"lon":5.404221,"is_reserved":false,"is_disabled":false,"rental_uris":{"android":"levelo://app?vid=9f12d915-5eff-4689-a96d-7d2d1d3f25d8","ios":"levelo://app?vid=9f12d915-5eff-4689-a96d-7d2d1d3f25d8"},"vehicle_type_id":"4","last_reported":1732662522,"current_range_meters":36400,"station_id":"ce4bh112rcd13ifvqd90","pricing_plan_id":"cebpf4jnsgd1na2vs0mg"},{"bike_id":"e2ce9644-d3a8-45c7-bcf9-77c4fa8e6779","system_id":"levelo_inurba_marseille","lat":43.27809,"lon":5.40719,"is_reserved":false,"is_disabled":false,"rental_uris":{"android":"levelo://app?vid=e2ce9644-d3a8-45c7-bcf9-77c4fa8e6779","ios":"levelo://app?vid=e2ce9644-d3a8-45c7-bcf9-77c4fa8e6779"},"vehicle_type_id":"4","last_reported":1732662522,"current_range_meters":32800,"station_id":"ce4bhnh2rcd13ifvqgtg","pricing_plan_id":"cebpf4jnsgd1na2vs0mg"},{"bike_id":"71653c12-5f0e-4266-b463-df436a385bc4","system_id":"levelo_inurba_marseille","lat":43.32368,"lon":5.38881,"is_reserved":false,"is_disabled":false,"rental_uris":{"android":"levelo://app?vid=71653c12-5f0e-4266-b463-df436a385bc4","ios":"levelo://app?vid=71653c12-5f0e-4266-b463-df436a385bc4"},"vehicle_type_id":"4","last_reported":1732662522,"current_range_meters":13600,"station_id":"ce4bhqp2rcd13ifvqhog","pricing_plan_id":"cebpf4jnsgd1na2vs0mg"},{"bike_id":"00c1b85e-f618-4a9f-97fe-87be3eac83ec","system_id":"levelo_inurba_marseille","lat":43.25866,"lon":5.398983,"is_reserved":false,"is_disabled":false,"rental_uris":{"android":"levelo://app?vid=00c1b85e-f618-4a9f-97fe-87be3eac83ec","ios":"levelo://app?vid=00c1b85e-f618-4a9f-97fe-87be3eac83ec"},"vehicle_type_id":"4","last_reported":1732662522,"current_range_meters":17600,"station_id":"ce4bhl92rcd13ifvqghg","pricing_plan_id":"cebpf4jnsgd1na2vs0mg"},{"bike_id":"8f909575-15ed-40f5-ae18-0c95329b2480","system_id":"levelo_inurba_marseille","lat":43.28037,"lon":5.36947,"is_reserved":false,"is_disabled":false,"rental_uris":{"android":"levelo://app?vid=8f909575-15ed-40f5-ae18-0c95329b2480","ios":"levelo://app?vid=8f909575-15ed-40f5-ae18-0c95329b2480"},"vehicle_type_id":"4","last_reported":1732662522,"current_range_meters":28400,"station_id":"ce4bha12rcd13ifvqef0","pricing_plan_id":"cebpf4jnsgd1na2vs0mg"},{"bike_id":"62c49c9f-db49-42d3-9bfc-6586cdffe13d","system_id":"levelo_inurba_marseille","lat":43.31494,"lon":5.37309,"is_reserved":false,"is_disabled":false,"rental_uris":{"android":"levelo://app?vid=62c49c9f-db49-42d3-9bfc-6586cdffe13d","ios":"levelo://app?vid=62c49c9f-db49-42d3-9bfc-6586cdffe13d"},"vehicle_type_id":"4","last_reported":1732662522,"current_range_meters":32800,"station_id":"ce4bgt12rcd13ifvqcd0","pricing_plan_id":"cebpf4jnsgd1na2vs0mg"},{"bike_id":"e5951ee3-4a5a-4ebb-b469-096c5188dfa3","system_id":"levelo_inurba_marseille","lat":43.23189,"lon":5.35557,"is_reserved":false,"is_disabled":false,"rental_uris":{"android":"levelo://app?vid=e5951ee3-4a5a-4ebb-b469-096c5188dfa3","ios":"levelo://app?vid=e5951ee3-4a5a-4ebb-b469-096c5188dfa3"},"vehicle_type_id":"4","last_reported":1732662522,"current_range_meters":35200,"station_id":"ce4bhu92rcd13ifvqi70","pricing_plan_id":"cebpf4jnsgd1na2vs0mg"},{"bike_id":"a8849e45-a02d-4da0-9306-d787ba72acfc","system_id":"levelo_inurba_marseille","lat":43.29517,"lon":5.3941,"is_reserved":false,"is_disabled":false,"rental_uris":{"android":"levelo://app?vid=a8849e45-a02d-4da0-9306-d787ba72acfc","ios":"levelo://app?vid=a8849e45-a02d-4da0-9306-d787ba72acfc"},"vehicle_type_id":"4","last_reported":1732662522,"current_range_meters":13600,"station_id":"ce4bh292rcd13ifvqdf0","pricing_plan_id":"cebpf4jnsgd1na2vs0mg"},{"bike_id":"c4ff3c2c-87d7-4575-9335-5f53ac047a46","system_id":"levelo_inurba_marseille","lat":43.27069,"lon":5.42273,"is_reserved":false,"is_disabled":false,"rental_uris":{"android":"levelo://app?vid=c4ff3c2c-87d7-4575-9335-5f53ac047a46","ios":"levelo://app?vid=c4ff3c2c-87d7-4575-9335-5f53ac047a46"},"vehicle_type_id":"4","last_reported":1732662522,"current_range_meters":38800,"station_id":"ce4bhk92rcd13ifvqgb0","pricing_plan_id":"cebpf4jnsgd1na2vs0mg"},{"bike_id":"8b90e280-1859-48e5-8cc1-f1521436ad0b","system_id":"levelo_inurba_marseille","lat":43.255807,"lon":5.382487,"is_reserved":false,"is_disabled":false,"rental_uris":{"android":"levelo://app?vid=8b90e280-1859-48e5-8cc1-f1521436ad0b","ios":"levelo://app?vid=8b90e280-1859-48e5-8cc1-f1521436ad0b"},"vehicle_type_id":"4","last_reported":1732662522,"current_range_meters":18000,"station_id":"ce4bhih2rcd13ifvqfs0","pricing_plan_id":"cebpf4jnsgd1na2vs0mg"},{"bike_id":"3379f44f-c07d-4ec3-b622-4c7ff9c0b74e","system_id":"levelo_inurba_marseille","lat":43.23197,"lon":5.35547,"is_reserved":false,"is_disabled":false,"rental_uris":{"android":"levelo://app?vid=3379f44f-c07d-4ec3-b622-4c7ff9c0b74e","ios":"levelo://app?vid=3379f44f-c07d-4ec3-b622-4c7ff9c0b74e"},"vehicle_type_id":"4","last_reported":1732662522,"current_range_meters":8400,"station_id":"ce4bhu92rcd13ifvqi70","pricing_plan_id":"cebpf4jnsgd1na2vs0mg"},{"bike_id":"6c948e9c-d5b3-4fe5-a918-1bd2f7c83b02","system_id":"levelo_inurba_marseille","lat":43.32112,"lon":5.36771,"is_reserved":false,"is_disabled":false,"rental_uris":{"android":"levelo://app?vid=6c948e9c-d5b3-4fe5-a918-1bd2f7c83b02","ios":"levelo://app?vid=6c948e9c-d5b3-4fe5-a918-1bd2f7c83b02"},"vehicle_type_id":"4","last_reported":1732662522,"current_range_meters":16400,"station_id":"ce4bhrh2rcd13ifvqhug","pricing_plan_id":"cebpf4jnsgd1na2vs0mg"},{"bike_id":"9e620abf-d324-4f99-84fc-d67e71109f2a","system_id":"levelo_inurba_marseille","lat":43.31077,"lon":5.42435,"is_reserved":false,"is_disabled":true,"rental_uris":{"android":"levelo://app?vid=9e620abf-d324-4f99-84fc-d67e71109f2a","ios":"levelo://app?vid=9e620abf-d324-4f99-84fc-d67e71109f2a"},"vehicle_type_id":"4","last_reported":1732662522,"current_range_meters":0,"station_id":"ce4bhp92rcd13ifvqhag","pricing_plan_id":"cebpf4jnsgd1na2vs0mg"},{"bike_id":"311c22a9-d002-4f76-a390-2ec196f39862","system_id":"levelo_inurba_marseille","lat":43.31025,"lon":5.38342,"is_reserved":false,"is_disabled":true,"rental_uris":{"android":"levelo://app?vid=311c22a9-d002-4f76-a390-2ec196f39862","ios":"levelo://app?vid=311c22a9-d002-4f76-a390-2ec196f39862"},"vehicle_type_id":"4","last_reported":1732662522,"current_range_meters":0,"station_id":"","pricing_plan_id":"cebpf4jnsgd1na2vs0mg"},{"bike_id":"047f1f9d-58af-4872-9794-3b5fe9f3ce18","system_id":"levelo_inurba_marseille","lat":43.31337,"lon":5.39693,"is_reserved":false,"is_disabled":false,"rental_uris":{"android":"levelo://app?vid=047f1f9d-58af-4872-9794-3b5fe9f3ce18","ios":"levelo://app?vid=047f1f9d-58af-4872-9794-3b5fe9f3ce18"},"vehicle_type_id":"4","last_reported":1732662522,"current_range_meters":36400,"station_id":"ce4bgvp2rcd13ifvqcu0","pricing_plan_id":"cebpf4jnsgd1na2vs0mg"},{"bike_id":"61248f67-1f70-427f-8a70-08cdafab4410","system_id":"levelo_inurba_marseille","lat":43.29637,"lon":5.40603,"is_reserved":false,"is_disabled":false,"rental_uris":{"android":"levelo://app?vid=61248f67-1f70-427f-8a70-08cdafab4410","ios":"levelo://app?vid=61248f67-1f70-427f-8a70-08cdafab4410"},"vehicle_type_id":"4","last_reported":1732662522,"current_range_meters":27200,"station_id":"ce4bh0h2rcd13ifvqd60","pricing_plan_id":"cebpf4jnsgd1na2vs0mg"},{"bike_id":"8c79e570-47a5-4e10-96a4-2fc604c2da79","system_id":"levelo_inurba_marseille","lat":43.28099,"lon":5.37846,"is_reserved":false,"is_disabled":false,"rental_uris":{"android":"levelo://app?vid=8c79e570-47a5-4e10-96a4-2fc604c2da79","ios":"levelo://app?vid=8c79e570-47a5-4e10-96a4-2fc604c2da79"},"vehicle_type_id":"4","last_reported":1732662522,"current_range_meters":19200,"station_id":"ce4bha12rcd13ifvqee0","pricing_plan_id":"cebpf4jnsgd1na2vs0mg"},{"bike_id":"319db8f6-ad1c-4b46-ad57-5033d5ed25eb","system_id":"levelo_inurba_marseille","lat":43.25728,"lon":5.41104,"is_reserved":false,"is_disabled":false,"rental_uris":{"android":"levelo://app?vid=319db8f6-ad1c-4b46-ad57-5033d5ed25eb","ios":"levelo://app?vid=319db8f6-ad1c-4b46-ad57-5033d5ed25eb"},"vehicle_type_id":"4","last_reported":1732662522,"current_range_meters":20800,"station_id":"ce4bhkp2rcd13ifvqgd0","pricing_plan_id":"cebpf4jnsgd1na2vs0mg"},{"bike_id":"5c53cfbd-2547-413a-b79a-f8cc3b1ca992","system_id":"levelo_inurba_marseille","lat":43.32112,"lon":5.36773,"is_reserved":false,"is_disabled":false,"rental_uris":{"android":"levelo://app?vid=5c53cfbd-2547-413a-b79a-f8cc3b1ca992","ios":"levelo://app?vid=5c53cfbd-2547-413a-b79a-f8cc3b1ca992"},"vehicle_type_id":"4","last_reported":1732662522,"current_range_meters":30000,"station_id":"ce4bhrh2rcd13ifvqhug","pricing_plan_id":"cebpf4jnsgd1na2vs0mg"},{"bike_id":"18045cdd-2260-48a4-ab4b-06afcf0afb50","system_id":"levelo_inurba_marseille","lat":43.28264,"lon":5.35052,"is_reserved":false,"is_disabled":false,"rental_uris":{"android":"levelo://app?vid=18045cdd-2260-48a4-ab4b-06afcf0afb50","ios":"levelo://app?vid=18045cdd-2260-48a4-ab4b-06afcf0afb50"},"vehicle_type_id":"4","last_reported":1732662522,"current_range_meters":20000,"station_id":"ce4bhbp2rcd13ifvqerg","pricing_plan_id":"cebpf4jnsgd1na2vs0mg"},{"bike_id":"c7fe4fc5-fac4-4f1b-972c-78550c203873","system_id":"levelo_inurba_marseille","lat":43.291923,"lon":5.393088,"is_reserved":false,"is_disabled":false,"rental_uris":{"android":"levelo://app?vid=c7fe4fc5-fac4-4f1b-972c-78550c203873","ios":"levelo://app?vid=c7fe4fc5-fac4-4f1b-972c-78550c203873"},"vehicle_type_id":"4","last_reported":1732662522,"current_range_meters":38000,"station_id":"ce4bh192rcd13ifvqdd0","pricing_plan_id":"cebpf4jnsgd1na2vs0mg"},{"bike_id":"e3910269-0960-41ab-9a5c-2f153c15e14c","system_id":"levelo_inurba_marseille","lat":43.25564,"lon":5.38234,"is_reserved":false,"is_disabled":false,"rental_uris":{"android":"levelo://app?vid=e3910269-0960-41ab-9a5c-2f153c15e14c","ios":"levelo://app?vid=e3910269-0960-41ab-9a5c-2f153c15e14c"},"vehicle_type_id":"4","last_reported":1732662522,"current_range_meters":38800,"station_id":"ce4bhih2rcd13ifvqfs0","pricing_plan_id":"cebpf4jnsgd1na2vs0mg"},{"bike_id":"49653a55-5a6c-41f9-820b-80b194fa8c56","system_id":"levelo_inurba_marseille","lat":43.28103,"lon":5.37838,"is_reserved":false,"is_disabled":false,"rental_uris":{"android":"levelo://app?vid=49653a55-5a6c-41f9-820b-80b194fa8c56","ios":"levelo://app?vid=49653a55-5a6c-41f9-820b-80b194fa8c56"},"vehicle_type_id":"4","last_reported":1732662522,"current_range_meters":38800,"station_id":"ce4bha12rcd13ifvqee0","pricing_plan_id":"cebpf4jnsgd1na2vs0mg"},{"bike_id":"3b0d35f8-f73d-4890-b7a7-d7e9a1b22244","system_id":"levelo_inurba_marseille","lat":43.2894,"lon":5.36389,"is_reserved":false,"is_disabled":false,"rental_uris":{"android":"levelo://app?vid=3b0d35f8-f73d-4890-b7a7-d7e9a1b22244","ios":"levelo://app?vid=3b0d35f8-f73d-4890-b7a7-d7e9a1b22244"},"vehicle_type_id":"4","last_reported":1732662522,"current_range_meters":20800,"station_id":"ce4bhc92rcd13ifvqetg","pricing_plan_id":"cebpf4jnsgd1na2vs0mg"},{"bike_id":"2ca9605c-5ec3-4ba9-84c5-d21f7f922f37","system_id":"levelo_inurba_marseille","lat":43.28427,"lon":5.39185,"is_reserved":false,"is_disabled":false,"rental_uris":{"android":"levelo://app?vid=2ca9605c-5ec3-4ba9-84c5-d21f7f922f37","ios":"levelo://app?vid=2ca9605c-5ec3-4ba9-84c5-d21f7f922f37"},"vehicle_type_id":"4","last_reported":1732662522,"current_range_meters":37600,"station_id":"ce4bhoh2rcd13ifvqh5g","pricing_plan_id":"cebpf4jnsgd1na2vs0mg"},{"bike_id":"276c8eac-f26f-4d52-8494-1e5f39f12889","system_id":"levelo_inurba_marseille","lat":43.25579,"lon":5.38231,"is_reserved":false,"is_disabled":false,"rental_uris":{"android":"levelo://app?vid=276c8eac-f26f-4d52-8494-1e5f39f12889","ios":"levelo://app?vid=276c8eac-f26f-4d52-8494-1e5f39f12889"},"vehicle_type_id":"4","last_reported":1732662522,"current_range_meters":38800,"station_id":"ce4bhih2rcd13ifvqfs0","pricing_plan_id":"cebpf4jnsgd1na2vs0mg"},{"bike_id":"40373390-4a6b-49c7-9be2-78b71cf451bd","system_id":"levelo_inurba_marseille","lat":43.29254,"lon":5.40913,"is_reserved":false,"is_disabled":false,"rental_uris":{"android":"levelo://app?vid=40373390-4a6b-49c7-9be2-78b71cf451bd","ios":"levelo://app?vid=40373390-4a6b-49c7-9be2-78b71cf451bd"},"vehicle_type_id":"4","last_reported":1732662522,"current_range_meters":36400,"station_id":"ce4bh192rcd13ifvqdc0","pricing_plan_id":"cebpf4jnsgd1na2vs0mg"},{"bike_id":"32d3feff-25ce-4c69-94cf-f83de9897a97","system_id":"levelo_inurba_marseille","lat":43.28417,"lon":5.37517,"is_reserved":false,"is_disabled":false,"rental_uris":{"android":"levelo://app?vid=32d3feff-25ce-4c69-94cf-f83de9897a97","ios":"levelo://app?vid=32d3feff-25ce-4c69-94cf-f83de9897a97"},"vehicle_type_id":"4","last_reported":1732662522,"current_range_meters":33600,"station_id":"ce4bh412rcd13ifvqds0","pricing_plan_id":"cebpf4jnsgd1na2vs0mg"},{"bike_id":"ef7028aa-55d4-45ec-be28-f7ed1ac8aa0c","system_id":"levelo_inurba_marseille","lat":43.28624,"lon":5.35104,"is_reserved":false,"is_disabled":false,"rental_uris":{"android":"levelo://app?vid=ef7028aa-55d4-45ec-be28-f7ed1ac8aa0c","ios":"levelo://app?vid=ef7028aa-55d4-45ec-be28-f7ed1ac8aa0c"},"vehicle_type_id":"4","last_reported":1732662522,"current_range_meters":18000,"station_id":"ce4bhch2rcd13ifvqeug","pricing_plan_id":"cebpf4jnsgd1na2vs0mg"},{"bike_id":"daebfee1-ceef-4c8a-a40b-ddc9ce4af392","system_id":"levelo_inurba_marseille","lat":43.28447,"lon":5.39202,"is_reserved":false,"is_disabled":false,"rental_uris":{"android":"levelo://app?vid=daebfee1-ceef-4c8a-a40b-ddc9ce4af392","ios":"levelo://app?vid=daebfee1-ceef-4c8a-a40b-ddc9ce4af392"},"vehicle_type_id":"4","last_reported":1732662522,"current_range_meters":28000,"station_id":"ce4bhoh2rcd13ifvqh5g","pricing_plan_id":"cebpf4jnsgd1na2vs0mg"},{"bike_id":"ba9864d3-c286-4638-8ccd-91ad2b066417","system_id":"levelo_inurba_marseille","lat":43.26488,"lon":5.39552,"is_reserved":false,"is_disabled":false,"rental_uris":{"android":"levelo://app?vid=ba9864d3-c286-4638-8ccd-91ad2b066417","ios":"levelo://app?vid=ba9864d3-c286-4638-8ccd-91ad2b066417"},"vehicle_type_id":"4","last_reported":1732662522,"current_range_meters":38800,"station_id":"ce4bhi12rcd13ifvqfq0","pricing_plan_id":"cebpf4jnsgd1na2vs0mg"},{"bike_id":"43746d86-8a13-4845-9faf-ae69b548d714","system_id":"levelo_inurba_marseille","lat":43.29459,"lon":5.37917,"is_reserved":false,"is_disabled":true,"rental_uris":{"android":"levelo://app?vid=43746d86-8a13-4845-9faf-ae69b548d714","ios":"levelo://app?vid=43746d86-8a13-4845-9faf-ae69b548d714"},"vehicle_type_id":"4","last_reported":1732662522,"current_range_meters":0,"station_id":"","pricing_plan_id":"cebpf4jnsgd1na2vs0mg"},{"bike_id":"e6a98e09-efc5-4507-9fb0-a56012aa8712","system_id":"levelo_inurba_marseille","lat":43.28152,"lon":5.42635,"is_reserved":false,"is_disabled":false,"rental_uris":{"android":"levelo://app?vid=e6a98e09-efc5-4507-9fb0-a56012aa8712","ios":"levelo://app?vid=e6a98e09-efc5-4507-9fb0-a56012aa8712"},"vehicle_type_id":"4","last_reported":1732662522,"current_range_meters":37600,"station_id":"ce4bhnh2rcd13ifvqgug","pricing_plan_id":"cebpf4jnsgd1na2vs0mg"},{"bike_id":"49ad9574-b0d7-498d-8456-68bdd40aec93","system_id":"levelo_inurba_marseille","lat":43.24661,"lon":5.3816,"is_reserved":false,"is_disabled":false,"rental_uris":{"android":"levelo://app?vid=49ad9574-b0d7-498d-8456-68bdd40aec93","ios":"levelo://app?vid=49ad9574-b0d7-498d-8456-68bdd40aec93"},"vehicle_type_id":"4","last_reported":1732662522,"current_range_meters":37600,"station_id":"ce4bhih2rcd13ifvqfr0","pricing_plan_id":"cebpf4jnsgd1na2vs0mg"},{"bike_id":"df76b7bf-b879-4e94-9796-439ee296ef0a","system_id":"levelo_inurba_marseille","lat":43.22931,"lon":5.35375,"is_reserved":false,"is_disabled":false,"rental_uris":{"android":"levelo://app?vid=df76b7bf-b879-4e94-9796-439ee296ef0a","ios":"levelo://app?vid=df76b7bf-b879-4e94-9796-439ee296ef0a"},"vehicle_type_id":"4","last_reported":1732662522,"current_range_meters":38800,"station_id":"cpo3532slgdg3j2ikp40","pricing_plan_id":"cebpf4jnsgd1na2vs0mg"},{"bike_id":"f27c9572-3322-4dbe-9f18-e24f1001beb0","system_id":"levelo_inurba_marseille","lat":43.28433,"lon":5.39182,"is_reserved":false,"is_disabled":false,"rental_uris":{"android":"levelo://app?vid=f27c9572-3322-4dbe-9f18-e24f1001beb0","ios":"levelo://app?vid=f27c9572-3322-4dbe-9f18-e24f1001beb0"},"vehicle_type_id":"4","last_reported":1732662522,"current_range_meters":38800,"station_id":"ce4bhoh2rcd13ifvqh5g","pricing_plan_id":"cebpf4jnsgd1na2vs0mg"},{"bike_id":"f971abee-70f8-43dc-afe4-4050ccc8c3f7","system_id":"levelo_inurba_marseille","lat":43.25865,"lon":5.39896,"is_reserved":false,"is_disabled":true,"rental_uris":{"android":"levelo://app?vid=f971abee-70f8-43dc-afe4-4050ccc8c3f7","ios":"levelo://app?vid=f971abee-70f8-43dc-afe4-4050ccc8c3f7"},"vehicle_type_id":"4","last_reported":1732662522,"current_range_meters":38800,"station_id":"ce4bhl92rcd13ifvqghg","pricing_plan_id":"cebpf4jnsgd1na2vs0mg"},{"bike_id":"e429a23d-08fa-43bc-a99f-41dd20232034","system_id":"levelo_inurba_marseille","lat":43.26302,"lon":5.39868,"is_reserved":false,"is_disabled":true,"rental_uris":{"android":"levelo://app?vid=e429a23d-08fa-43bc-a99f-41dd20232034","ios":"levelo://app?vid=e429a23d-08fa-43bc-a99f-41dd20232034"},"vehicle_type_id":"4","last_reported":1732662522,"current_range_meters":0,"station_id":"","pricing_plan_id":"cebpf4jnsgd1na2vs0mg"},{"bike_id":"0f197c2e-8561-4650-8985-59f7e13704e5","system_id":"levelo_inurba_marseille","lat":43.30646,"lon":5.40075,"is_reserved":false,"is_disabled":false,"rental_uris":{"android":"levelo://app?vid=0f197c2e-8561-4650-8985-59f7e13704e5","ios":"levelo://app?vid=0f197c2e-8561-4650-8985-59f7e13704e5"},"vehicle_type_id":"4","last_reported":1732662522,"current_range_meters":30800,"station_id":"ce4bh112rcd13ifvqda0","pricing_plan_id":"cebpf4jnsgd1na2vs0mg"},