{"last_updated":1743970184,"ttl":60,"version":"2.2","data":{"bikes":[{"bike_id":"e83984a0-dd8e-49dc-8ded-8201a886340d","system_id":"levelo_inurba_marseille","lat":43.26206,"lon":5.40476,"is_reserved":false,"is_disabled":false,"rental_uris":{"android":"levelo://app?vid=e83984a0-dd8e-49dc-8ded-8201a886340d","ios":"levelo://app?vid=e83984a0-dd8e-49dc-8ded-8201a886340d"},"vehicle_type_id":"4","last_reported":1743970184,"current_range_meters":2800,"station_id":"ce4bhmh2rcd13ifvqgmg","pricing_plan_id":"cebpf4jnsgd1na2vs0mg"},{"bike_id":"f291227d-dd95-425e-ac98-4a823c82e085","system_id":"levelo_inurba_marseille","lat":43.28097,"lon":5.37847,"is_reserved":false,"is_disabled":false,"rental_uris":{"android":"levelo://app?vid=f291227d-dd95-425e-ac98-4a823c82e085","ios":"levelo://app?vid=f291227d-dd95-425e-ac98-4a823c82e085"},"vehicle_type_id":"4","last_reported":1743970184,"current_range_meters":2800,"station_id":"ce4bha12rcd13ifvqee0","pricing_plan_id":"cebpf4jnsgd1na2vs0mg"},{"bike_id":"2e27eb5d-3ba6-4f34-8974-ac76dd083829","system_id":"levelo_inurba_marseille","lat":43.29636,"lon":5.40596,"is_reserved":false,"is_disabled":false,"rental_uris":{"android":"levelo://app?vid=2e27eb5d-3ba6-4f34-8974-ac76dd083829","ios":"levelo://app?vid=2e27eb5d-3ba6-4f34-8974-ac76dd083829"},"vehicle_type_id":"4","last_reported":1743970184,"current_range_meters":3200,"station_id":"ce4bh0h2rcd13ifvqd60","pricing_plan_id":"cebpf4jnsgd1na2vs0mg"},{"bike_id":"e1bbc7fc-7ac5-4a5c-ad9f-7ceaf700a479","system_id":"levelo_inurba_marseille","lat":43.27843,"lon":5.39199,"is_reserved":false,"is_disabled":false,"rental_uris":{"android":"levelo://app?vid=e1bbc7fc-7ac5-4a5c-ad9f-7ceaf700a479","ios":"levelo://app?vid=e1bbc7fc-7ac5-4a5c-ad9f-7ceaf700a479"},"vehicle_type_id":"4","last_reported":1743970184,"current_range_meters":3200,"station_id":"ce4bhjp2rcd13ifvqga0","pricing_plan_id":"cebpf4jnsgd1na2vs0mg"},{"bike_id":"fb0d4993-67fa-4314-9525-ef2ba9197c72","system_id":"levelo_inurba_marseille","lat":43.30263,"lon":5.4063,"is_reserved":false,"is_disabled":false,"rental_uris":{"android":"levelo://app?vid=fb0d4993-67fa-4314-9525-ef2ba9197c72","ios":"levelo://app?vid=fb0d4993-67fa-4314-9525-ef2ba9197c72"},"vehicle_type_id":"4","last_reported":1743970184,"current_range_meters":3200,"station_id":"","pricing_plan_id":"cebpf4jnsgd1na2vs0mg"},{"bike_id":"f7234480-b0c2-4f32-91d7-997abb602429","system_id":"levelo_inurba_marseille","lat":43.26682,"lon":5.38272,"is_reserved":false,"is_disabled":false,"rental_uris":{"android":"levelo://app?vid=f7234480-b0c2-4f32-91d7-997abb602429","ios":"levelo://app?vid=f7234480-b0c2-4f32-91d7-997abb602429"},"vehicle_type_id":"4","last_reported":1743970184,"current_range_meters":3200,"station_id":"ce4bhg92rcd13ifvqf90","pricing_plan_id":"cebpf4jnsgd1na2vs0mg"},{"bike_id":"78a6c39c-1164-42e4-9e01-9540e04e73af","system_id":"levelo_inurba_marseille","lat":43.276707,"lon":5.389087,"is_reserved":false,"is_disabled":false,"rental_uris":{"android":"levelo://app?vid=78a6c39c-1164-42e4-9e01-9540e04e73af","ios":"levelo://app?vid=78a6c39c-1164-42e4-9e01-9540e04e73af"},"vehicle_type_id":"4","last_reported":1743970184,"current_range_meters":3200,"station_id":"ce4bhi12rcd13ifvqfo0","pricing_plan_id":"cebpf4jnsgd1na2vs0mg"},{"bike_id":"3a69c7bf-ffb3-4dce-af64-5df0ba24282c","system_id":"levelo_inurba_marseille","lat":43.27664,"lon":5.38936,"is_reserved":false,"is_disabled":false,"rental_uris":{"android":"levelo://app?vid=3a69c7bf-ffb3-4dce-af64-5df0ba24282c","ios":"levelo://app?vid=3a69c7bf-ffb3-4dce-af64-5df0ba24282c"},"vehicle_type_id":"4","last_reported":1743970184,"current_range_meters":3200,"station_id":"ce4bhi12rcd13ifvqfo0","pricing_plan_id":"cebpf4jnsgd1na2vs0mg"},{"bike_id":"3f0c6fe5-e6d6-4fd9-b2c0-091b52a152d8","system_id":"levelo_inurba_marseille","lat":43.27422,"lon":5.39416,"is_reserved":false,"is_disabled":false,"rental_uris":{"android":"levelo://app?vid=3f0c6fe5-e6d6-4fd9-b2c0-091b52a152d8","ios":"levelo://app?vid=3f0c6fe5-e6d6-4fd9-b2c0-091b52a152d8"},"vehicle_type_id":"4","last_reported":1743970184,"current_range_meters":3600,"station_id":"ce4bhdp2rcd13ifvqf20","pricing_plan_id":"cebpf4jnsgd1na2vs0mg"},{"bike_id":"660d99f1-cadb-413d-82ad-e49e35dc1993","system_id":"levelo_inurba_marseille","lat":43.309475,"lon":5.390407,"is_reserved":false,"is_disabled":false,"rental_uris":{"android":"levelo://app?vid=660d99f1-cadb-413d-82ad-e49e35dc1993","ios":"levelo://app?vid=660d99f1-cadb-413d-82ad-e49e35dc1993"},"vehicle_type_id":"4","last_reported":1743970184,"current_range_meters":3600,"station_id":"","pricing_plan_id":"cebpf4jnsgd1na2vs0mg"},{"bike_id":"e1a93d63-1d42-4da5-b326-21ad269657ee","system_id":"levelo_inurba_marseille","lat":43.30133,"lon":5.38758,"is_reserved":false,"is_disabled":false,"rental_uris":{"android":"levelo://app?vid=e1a93d63-1d42-4da5-b326-21ad269657ee","ios":"levelo://app?vid=e1a93d63-1d42-4da5-b326-21ad269657ee"},"vehicle_type_id":"4","last_reported":1743970184,"current_range_meters":3200,"station_id":"ce4bghh2rcd13ifvqb60","pricing_plan_id":"cebpf4jnsgd1na2vs0mg"},{"bike_id":"927e73fe-ff3b-4322-a8c1-8fe2c28653a4","system_id":"levelo_inurba_marseille","lat":43.316809,"lon":5.404778,"is_reserved":false,"is_disabled":false,"rental_uris":{"android":"levelo://app?vid=927e73fe-ff3b-4322-a8c1-8fe2c28653a4","ios":"levelo://app?vid=927e73fe-ff3b-4322-a8c1-8fe2c28653a4"},"vehicle_type_id":"4","last_reported":1743970184,"current_range_meters":3600,"station_id":"ce4bh012rcd13ifvqd00","pricing_plan_id":"cebpf4jnsgd1na2vs0mg"},{"bike_id":"c1b66da4-5579-404d-b517-aeeed6bf74f8","system_id":"levelo_inurba_marseille","lat":43.29433,"lon":5.39758,"is_reserved":false,"is_disabled":false,"rental_uris":{"android":"levelo://app?vid=c1b66da4-5579-404d-b517-aeeed6bf74f8","ios":"levelo://app?vid=c1b66da4-5579-404d-b517-aeeed6bf74f8"},"vehicle_type_id":"4","last_reported":1743970184,"current_range_meters":3600,"station_id":"ce4bh3h2rcd13ifvqdo0","pricing_plan_id":"cebpf4jnsgd1na2vs0mg"},{"bike_id":"70bf14bb-4d8a-4831-9904-f57d5b5c13e4","system_id":"levelo_inurba_marseille","lat":43.244683,"lon":5.372406,"is_reserved":false,"is_disabled":false,"rental_uris":{"android":"levelo://app?vid=70bf14bb-4d8a-4831-9904-f57d5b5c13e4","ios":"levelo://app?vid=70bf14bb-4d8a-4831-9904-f57d5b5c13e4"},"vehicle_type_id":"4","last_reported":1743970184,"current_range_meters":3200,"station_id":"ce4bhi12rcd13ifvqfp0","pricing_plan_id":"cebpf4jnsgd1na2vs0mg"},{"bike_id":"8739ea41-f2be-441b-82fb-ac6608ea96ab","system_id":"levelo_inurba_marseille","lat":43.27192,"lon":5.38922,"is_reserved":false,"is_disabled":false,"rental_uris":{"android":"levelo://app?vid=8739ea41-f2be-441b-82fb-ac6608ea96ab","ios":"levelo://app?vid=8739ea41-f2be-441b-82fb-ac6608ea96ab"},"vehicle_type_id":"4","last_reported":1743970184,"current_range_meters":3600,"station_id":"ce4bh612rcd13ifvqe6g","pricing_plan_id":"cebpf4jnsgd1na2vs0mg"},{"bike_id":"46c28730-414e-47a3-a8fc-36235e0b6fdd","system_id":"levelo_inurba_marseille","lat":43.25723,"lon":5.41118,"is_reserved":false,"is_disabled":false,"rental_uris":{"android":"levelo://app?vid=46c28730-414e-47a3-a8fc-36235e0b6fdd","ios":"levelo://app?vid=46c28730-414e-47a3-a8fc-36235e0b6fdd"},"vehicle_type_id":"4","last_reported":1743970184,"current_range_meters":4000,"station_id":"ce4bhkp2rcd13ifvqgd0","pricing_plan_id":"cebpf4jnsgd1na2vs0mg"},{"bike_id":"69f8a740-a0ff-4635-87ad-9b7d7d0db53e","system_id":"levelo_inurba_marseille","lat":43.246487,"lon":5.389117,"is_reserved":false,"is_disabled":true,"rental_uris":{"android":"levelo://app?vid=69f8a740-a0ff-4635-87ad-9b7d7d0db53e","ios":"levelo://app?vid=69f8a740-a0ff-4635-87ad-9b7d7d0db53e"},"vehicle_type_id":"4","last_reported":1743970184,"current_range_meters":4000,"station_id":"ce4bhg12rcd13ifvqf60","pricing_plan_id":"cebpf4jnsgd1na2vs0mg"},{"bike_id":"db171f88-7551-431c-b6b6-144e2672c137","system_id":"levelo_inurba_marseille","lat":43.28846,"lon":5.39307,"is_reserved":false,"is_disabled":false,"rental_uris":{"android":"levelo://app?vid=db171f88-7551-431c-b6b6-144e2672c137","ios":"levelo://app?vid=db171f88-7551-431c-b6b6-144e2672c137"},"vehicle_type_id":"4","last_reported":1743970184,"current_range_meters":4000,"station_id":"ce4bh2p2rcd13ifvqdi0","pricing_plan_id":"cebpf4jnsgd1na2vs0mg"},{"bike_id":"e81a6431-a4b2-4737-aa3a-62ee8b0f7132","system_id":"levelo_inurba_marseille","lat":43.30197,"lon":5.36633,"is_reserved":false,"is_disabled":false,"rental_uris":{"android":"levelo://app?vid=e81a6431-a4b2-4737-aa3a-62ee8b0f7132","ios":"levelo://app?vid=e81a6431-a4b2-4737-aa3a-62ee8b0f7132"},"vehicle_type_id":"4","last_reported":1743970184,"current_range_meters":4000,"station_id":"ce4bgrh2rcd13ifvqc8g","pricing_plan_id":"cebpf4jnsgd1na2vs0mg"},{"bike_id":"c41ef028-1082-4dd1-a9c9-799c8d0666e5","system_id":"levelo_inurba_marseille","lat":43.274507,"lon":5.384753,"is_reserved":false,"is_disabled":false,"rental_uris":{"android":"levelo://app?vid=c41ef028-1082-4dd1-a9c9-799c8d0666e5","ios":"levelo://app?vid=c41ef028-1082-4dd1-a9c9-799c8d0666e5"},"vehicle_type_id":"4","last_reported":1743970184,"current_range_meters":3600,"station_id":"ce4bhh92rcd13ifvqfi0","pricing_plan_id":"cebpf4jnsgd1na2vs0mg"},{"bike_id":"de8c7673-f24b-4f83-97a2-f3b597943ac1","system_id":"levelo_inurba_marseille","lat":43.27082,"lon":5.42264,"is_reserved":false,"is_disabled":false,"rental_uris":{"android":"levelo://app?vid=de8c7673-f24b-4f83-97a2-f3b597943ac1","ios":"levelo://app?vid=de8c7673-f24b-4f83-97a2-f3b597943ac1"},"vehicle_type_id":"4","last_reported":1743970184,"current_range_meters":4000,"station_id":"ce4bhk92rcd13ifvqgb0","pricing_plan_id":"cebpf4jnsgd1na2vs0mg"},{"bike_id":"35988cb1-0f21-4499-b83c-b5570806f4f8","system_id":"levelo_inurba_marseille","lat":43.27187,"lon":5.40976,"is_reserved":false,"is_disabled":false,"rental_uris":{"android":"levelo://app?vid=35988cb1-0f21-4499-b83c-b5570806f4f8","ios":"levelo://app?vid=35988cb1-0f21-4499-b83c-b5570806f4f8"},"vehicle_type_id":"4","last_reported":1743970184,"current_range_meters":4400,"station_id":"ce4bhl12rcd13ifvqgf0","pricing_plan_id":"cebpf4jnsgd1na2vs0mg"},{"bike_id":"62aa11ed-2f54-4844-8426-4249a76a2427","system_id":"levelo_inurba_marseille","lat":43.26242,"lon":5.40094,"is_reserved":false,"is_disabled":false,"rental_uris":{"android":"levelo://app?vid=62aa11ed-2f54-4844-8426-4249a76a2427","ios":"levelo://app?vid=62aa11ed-2f54-4844-8426-4249a76a2427"},"vehicle_type_id":"4","last_reported":1743970184,"current_range_meters":4400,"station_id":"ce4bhmh2rcd13ifvqgmg","pricing_plan_id":"cebpf4jnsgd1na2vs0mg"},{"bike_id":"39fdc411-7113-4853-a2dc-6bf47ceb082d","system_id":"levelo_inurba_marseille","lat":43.30129,"lon":5.38798,"is_reserved":false,"is_disabled":false,"rental_uris":{"android":"levelo://app?vid=39fdc411-7113-4853-a2dc-6bf47ceb082d","ios":"levelo://app?vid=39fdc411-7113-4853-a2dc-6bf47ceb082d"},"vehicle_type_id":"4","last_reported":1743970184,"current_range_meters":4400,"station_id":"ce4bghh2rcd13ifvqb60","pricing_plan_id":"cebpf4jnsgd1na2vs0mg"},{"bike_id":"8752f352-63c7-4035-84db-ab936a48425a","system_id":"levelo_inurba_marseille","lat":43.27309,"lon":5.39145,"is_reserved":false,"is_disabled":false,"rental_uris":{"android":"levelo://app?vid=8752f352-63c7-4035-84db-ab936a48425a","ios":"levelo://app?vid=8752f352-63c7-4035-84db-ab936a48425a"},"vehicle_type_id":"4","last_reported":1743970184,"current_range_meters":4400,"station_id":"","pricing_plan_id":"cebpf4jnsgd1na2vs0mg"},{"bike_id":"cf30babb-0ae2-4b97-a383-7bf17e8e6bdb","system_id":"levelo_inurba_marseille","lat":43.29555,"lon":5.42292,"is_reserved":false,"is_disabled":false,"rental_uris":{"android":"levelo://app?vid=cf30babb-0ae2-4b97-a383-7bf17e8e6bdb","ios":"levelo://app?vid=cf30babb-0ae2-4b97-a383-7bf17e8e6bdb"},"vehicle_type_id":"4","last_reported":1743970184,"current_range_meters":4000,"station_id":"ce4bhph2rcd13ifvqhdg","pricing_plan_id":"cebpf4jnsgd1na2vs0mg"},{"bike_id":"f2a6e401-24e0-4106-a20d-80cccc9d118a","system_id":"levelo_inurba_marseille","lat":43.2996,"lon":5.38502,"is_reserved":false,"is_disabled":false,"rental_uris":{"android":"levelo://app?vid=f2a6e401-24e0-4106-a20d-80cccc9d118a","ios":"levelo://app?vid=f2a6e401-24e0-4106-a20d-80cccc9d118a"},"vehicle_type_id":"4","last_reported":1743970184,"current_range_meters":4400,"station_id":"ce4bgj92rcd13ifvqbd0","pricing_plan_id":"cebpf4jnsgd1na2vs0mg"},{"bike_id":"1b787287-c0a2-4d6e-8733-b58deee4725f","system_id":"levelo_inurba_marseille","lat":43.2692,"lon":5.38928,"is_reserved":false,"is_disabled":false,"rental_uris":{"android":"levelo://app?vid=1b787287-c0a2-4d6e-8733-b58deee4725f","ios":"levelo://app?vid=1b787287-c0a2-4d6e-8733-b58deee4725f"},"vehicle_type_id":"4","last_reported":1743970184,"current_range_meters":4000,"station_id":"ce4bhhh2rcd13ifvqfl0","pricing_plan_id":"cebpf4jnsgd1na2vs0mg"},{"bike_id":"5a481be5-e70d-46d4-9e03-853e0e7b8019","system_id":"levelo_inurba_marseille","lat":43.29932,"lon":5.36555,"is_reserved":false,"is_disabled":false,"rental_uris":{"android":"levelo://app?vid=5a481be5-e70d-46d4-9e03-853e0e7b8019","ios":"levelo://app?vid=5a481be5-e70d-46d4-9e03-853e0e7b8019"},"vehicle_type_id":"4","last_reported":1743970184,"current_range_meters":4400,"station_id":"ce4bgm92rcd13ifvqbr0","pricing_plan_id":"cebpf4jnsgd1na2vs0mg"},{"bike_id":"8e8105ce-63e2-4441-9ebe-d6a09a08a22e","system_id":"levelo_inurba_marseille","lat":43.29668,"lon":5.36204,"is_reserved":false,"is_disabled":false,"rental_uris":{"android":"levelo://app?vid=8e8105ce-63e2-4441-9ebe-d6a09a08a22e","ios":"levelo://app?vid=8e8105ce-63e2-4441-9ebe-d6a09a08a22e"},"vehicle_type_id":"4","last_reported":1743970184,"current_range_meters":4400,"station_id":"","pricing_plan_id":"cebpf4jnsgd1na2vs0mg"},{"bike_id":"6d70e492-394e-44f3-96aa-c37ef18b968b","system_id":"levelo_inurba_marseille","lat":43.250886,"lon":5.39522,"is_reserved":false,"is_disabled":false,"rental_uris":{"android":"levelo://app?vid=6d70e492-394e-44f3-96aa-c37ef18b968b","ios":"levelo://app?vid=6d70e492-394e-44f3-96aa-c37ef18b968b"},"vehicle_type_id":"4","last_reported":1743970184,"current_range_meters":4400,"station_id":"ce4bhm12rcd13ifvqgkg","pricing_plan_id":"cebpf4jnsgd1na2vs0mg"},{"bike_id":"eb79d1f9-7c91-4ea2-b5f8-796189743e1a","system_id":"levelo_inurba_marseille","lat":43.34255,"lon":5.38123,"is_reserved":false,"is_disabled":false,"rental_uris":{"android":"levelo://app?vid=eb79d1f9-7c91-4ea2-b5f8-796189743e1a","ios":"levelo://app?vid=eb79d1f9-7c91-4ea2-b5f8-796189743e1a"},"vehicle_type_id":"4","last_reported":1743970184,"current_range_meters":4800,"station_id":"","pricing_plan_id":"cebpf4jnsgd1na2vs0mg"},{"bike_id":"f9a2e20b-1fd8-41c3-b10c-0d21f71b4edb","system_id":"levelo_inurba_marseille","lat":43.3078,"lon":5.37657,"is_reserved":false,"is_disabled":false,"rental_uris":{"android":"levelo://app?vid=f9a2e20b-1fd8-41c3-b10c-0d21f71b4edb","ios":"levelo://app?vid=f9a2e20b-1fd8-41c3-b10c-0d21f71b4edb"},"vehicle_type_id":"4","last_reported":1743970184,"current_range_meters":4800,"station_id":"ce4bgv92rcd13ifvqcq0","pricing_plan_id":"cebpf4jnsgd1na2vs0mg"},{"bike_id":"5f659389-84fe-466a-bf6d-71ea1664e421","system_id":"levelo_inurba_marseille","lat":43.29906,"lon":5.37443,"is_reserved":false,"is_disabled":false,"rental_uris":{"android":"levelo://app?vid=5f659389-84fe-466a-bf6d-71ea1664e421","ios":"levelo://app?vid=5f659389-84fe-466a-bf6d-71ea1664e421"},"vehicle_type_id":"4","last_reported":1743970184,"current_range_meters":4800,"station_id":"ce4bgjh2rcd13ifvqbg0","pricing_plan_id":"cebpf4jnsgd1na2vs0mg"},{"bike_id":"77dc57dc-37d8-49f7-8a0c-ceb9ccbb88a1","system_id":"levelo_inurba_marseille","lat":43.27829,"lon":5.40693,"is_reserved":false,"is_disabled":false,"rental_uris":{"android":"levelo://app?vid=77dc57dc-37d8-49f7-8a0c-ceb9ccbb88a1","ios":"levelo://app?vid=77dc57dc-37d8-49f7-8a0c-ceb9ccbb88a1"},"vehicle_type_id":"4","last_reported":1743970184,"current_range_meters":4800,"station_id":"ce4bhnh2rcd13ifvqgtg","pricing_plan_id":"cebpf4jnsgd1na2vs0mg"},{"bike_id":"41c9288f-614e-44e9-83de-3168b50054f5","system_id":"levelo_inurba_marseille","lat":43.274231,"lon":5.394227,"is_reserved":false,"is_disabled":false,"rental_uris":{"android":"levelo://app?vid=41c9288f-614e-44e9-83de-3168b50054f5","ios":"levelo://app?vid=41c9288f-614e-44e9-83de-3168b50054f5"},"vehicle_type_id":"4","last_reported":1743970184,"current_range_meters":4800,"station_id":"ce4bho12rcd13ifvqh1g","pricing_plan_id":"cebpf4jnsgd1na2vs0mg"},{"bike_id":"1e01c7bf-cc32-4372-a40e-75f004185c7e","system_id":"levelo_inurba_marseille","lat":43.26795,"lon":5.39411,"is_reserved":false,"is_disabled":false,"rental_uris":{"android":"levelo://app?vid=1e01c7bf-cc32-4372-a40e-75f004185c7e","ios":"levelo://app?vid=1e01c7bf-cc32-4372-a40e-75f004185c7e"},"vehicle_type_id":"4","last_reported":1743970184,"current_range_meters":2800,"station_id":"ce4bhh12rcd13ifvqfg0","pricing_plan_id":"cebpf4jnsgd1na2vs0mg"},{"bike_id":"367b7bb3-d043-4d41-ac6c-cd8c9cef9d3d","system_id":"levelo_inurba_marseille","lat":43.29255,"lon":5.40878,"is_reserved":false,"is_disabled":false,"rental_uris":{"android":"levelo://app?vid=367b7bb3-d043-4d41-ac6c-cd8c9cef9d3d","ios":"levelo://app?vid=367b7bb3-d043-4d41-ac6c-cd8c9cef9d3d"},"vehicle_type_id":"4","last_reported":1743970184,"current_range_meters":5600,"station_id":"ce4bh192rcd13ifvqdc0","pricing_plan_id":"cebpf4jnsgd1na2vs0mg"},{"bike_id":"9338d5e7-b45f-4081-995a-59a48b6dd9ca","system_id":"levelo_inurba_marseille","lat":43.296008,"lon":5.386432,"is_reserved":false,"is_disabled":false,"rental_uris":{"android":"levelo://app?vid=9338d5e7-b45f-4081-995a-59a48b6dd9ca","ios":"levelo://app?vid=9338d5e7-b45f-4081-995a-59a48b6dd9ca"},"vehicle_type_id":"4","last_reported":1743970184,"current_range_meters":5600,"station_id":"","pricing_plan_id":"cebpf4jnsgd1na2vs0mg"},{"bike_id":"97004ba0-d617-4c2b-8d7a-79753d888686","system_id":"levelo_inurba_marseille","lat":43.29201,"lon":5.35795,"is_reserved":false,"is_disabled":false,"rental_uris":{"android":"levelo://app?vid=97004ba0-d617-4c2b-8d7a-79753d888686","ios":"levelo://app?vid=97004ba0-d617-4c2b-8d7a-79753d888686"},"vehicle_type_id":"4","last_reported":1743970184,"current_range_meters":5600,"station_id":"ce4bhb12rcd13ifvqel0","pricing_plan_id":"cebpf4jnsgd1na2vs0mg"},{"bike_id":"96f0fcb7-f82d-4b20-8d51-8c35f0febb09","system_id":"levelo_inurba_marseille","lat":43.28695,"lon":5.39975,"is_reserved":false,"is_disabled":false,"rental_uris":{"android":"levelo://app?vid=96f0fcb7-f82d-4b20-8d51-8c35f0febb09","ios":"levelo://app?vid=96f0fcb7-f82d-4b20-8d51-8c35f0febb09"},"vehicle_type_id":"4","last_reported":1743970184,"current_range_meters":5600,"station_id":"ce4bho92rcd13ifvqh3g","pricing_plan_id":"cebpf4jnsgd1na2vs0mg"},{"bike_id":"8474f455-4eab-448c-9e4b-3d0704475d2e","system_id":"levelo_inurba_marseille","lat":43.27176,"lon":5.40985,"is_reserved":false,"is_disabled":false,"rental_uris":{"android":"levelo://app?vid=8474f455-4eab-448c-9e4b-3d0704475d2e","ios":"levelo://app?vid=8474f455-4eab-448c-9e4b-3d0704475d2e"},"vehicle_type_id":"4","last_reported":1743970184,"current_range_meters":5600,"station_id":"ce4bhl12rcd13ifvqgf0","pricing_plan_id":"cebpf4jnsgd1na2vs0mg"},{"bike_id":"abf828e0-bebc-4654-bc93-1d92f449deee","system_id":"levelo_inurba_marseille","lat":43.32358,"lon":5.36746,"is_reserved":false,"is_disabled":true,"rental_uris":{"android":"levelo://app?vid=abf828e0-bebc-4654-bc93-1d92f449deee","ios":"levelo://app?vid=abf828e0-bebc-4654-bc93-1d92f449deee"},"vehicle_type_id":"4","last_reported":1743970184,"current_range_meters":5600,"station_id":"ce4bhsh2rcd13ifvqi2g","pricing_plan_id":"cebpf4jnsgd1na2vs0mg"},{"bike_id":"d053da59-b4cc-423b-993d-2b5933787105","system_id":"levelo_inurba_marseille","lat":43.3088,"lon":5.37204,"is_reserved":false,"is_disabled":false,"rental_uris":{"android":"levelo://app?vid=d053da59-b4cc-423b-993d-2b5933787105","ios":"levelo://app?vid=d053da59-b4cc-423b-993d-2b5933787105"},"vehicle_type_id":"4","last_reported":1743970184,"current_range_meters":5600,"station_id":"ce4bguh2rcd13ifvqckg","pricing_plan_id":"cebpf4jnsgd1na2vs0mg"},{"bike_id":"7c1f37a0-0597-46e9-a93e-6bda258555d6","system_id":"levelo_inurba_marseille","lat":43.30928,"lon":5.40143,"is_reserved":false,"is_disabled":false,"rental_uris":{"android":"levelo://app?vid=7c1f37a0-0597-46e9-a93e-6bda258555d6","ios":"levelo://app?vid=7c1f37a0-0597-46e9-a93e-6bda258555d6"},"vehicle_type_id":"4","last_reported":1743970184,"current_range_meters":6000,"station_id":"ce4bgvp2rcd13ifvqct0","pricing_plan_id":"cebpf4jnsgd1na2vs0mg"},{"bike_id":"d5f50458-f9fb-403e-a7f2-d91d7d7dd8c7","system_id":"levelo_inurba_marseille","lat":43.25118,"lon":5.40309,"is_reserved":false,"is_disabled":false,"rental_uris":{"android":"levelo://app?vid=d5f50458-f9fb-403e-a7f2-d91d7d7dd8c7","ios":"levelo://app?vid=d5f50458-f9fb-403e-a7f2-d91d7d7dd8c7"},"vehicle_type_id":"4","last_reported":1743970184,"current_range_meters":6000,"station_id":"ce4bhlh2rcd13ifvqgig","pricing_plan_id":"cebpf4jnsgd1na2vs0mg"},{"bike_id":"2030495f-6ffa-4f44-b6b3-069df365abc3","system_id":"levelo_inurba_marseille","lat":43.27372,"lon":5.39365,"is_reserved":false,"is_disabled":false,"rental_uris":{"android":"levelo://app?vid=2030495f-6ffa-4f44-b6b3-069df365abc3","ios":"levelo://app?vid=2030495f-6ffa-4f44-b6b3-069df365abc3"},"vehicle_type_id":"4","last_reported":1743970184,"current_range_meters":6000,"station_id":"ce4bhdp2rcd13ifvqf20","pricing_plan_id":"cebpf4jnsgd1na2vs0mg"},{"bike_id":"c4962e3e-2981-4a1c-a441-7cf6378b4dc9","system_id":"levelo_inurba_marseille","lat":43.3061,"lon":5.37213,"is_reserved":false,"is_disabled":false,"rental_uris":{"android":"levelo://app?vid=c4962e3e-2981-4a1c-a441-7cf6378b4dc9","ios":"levelo://app?vid=c4962e3e-2981-4a1c-a441-7cf6378b4dc9"},"vehicle_type_id":"4","last_reported":1743970184,"current_range_meters":5600,"station_id":"ce4bgqh2rcd13ifvqc4g","pricing_plan_id":"cebpf4jnsgd1na2vs0mg"},{"bike_id":"74f369b8-01cc-4053-8161-463f3c77d22b","system_id":"levelo_inurba_marseille","lat":43.31883,"lon":5.40738,"is_reserved":false,"is_disabled":false,"rental_uris":{"android":"levelo://app?vid=74f369b8-01cc-4053-8161-463f3c77d22b","ios":"levelo://app?vid=74f369b8-01cc-4053-8161-463f3c77d22b"},"vehicle_type_id":"4","last_reported":1743970184,"current_range_meters":6000,"station_id":"ce4bhq12rcd13ifvqhig","pricing_plan_id":"cebpf4jnsgd1na2vs0mg"},{"bike_id":"0acf090a-51fa-45b7-9db6-dd9f6119dca2","system_id":"levelo_inurba_marseille","lat":43.25953,"lon":5.40905,"is_reserved":false,"is_disabled":false,"rental_uris":{"android":"levelo://app?vid=0acf090a-51fa-45b7-9db6-dd9f6119dca2","ios":"levelo://app?vid=0acf090a-51fa-45b7-9db6-dd9f6119dca2"},"vehicle_type_id":"4","last_reported":1743970184,"current_range_meters":6000,"station_id":"ce4bhm92rcd13ifvqglg","pricing_plan_id":"cebpf4jnsgd1na2vs0mg"},{"bike_id":"18cd143a-d445-49fe-9485-32ed2f8e33af","system_id":"levelo_inurba_marseille","lat":43.26554,"lon":5.37294,"is_reserved":false,"is_disabled":false,"rental_uris":{"android":"levelo://app?vid=18cd143a-d445-49fe-9485-32ed2f8e33af","ios":"levelo://app?vid=18cd143a-d445-49fe-9485-32ed2f8e33af"},"vehicle_type_id":"4","last_reported":1743970184,"current_range_meters":6000,"station_id":"ce4bhg12rcd13ifvqf70","pricing_plan_id":"cebpf4jnsgd1na2vs0mg"},{"bike_id":"9d3a6400-f14e-4889-b1f0-7c20f6abed23","system_id":"levelo_inurba_marseille","lat":43.27418,"lon":5.39405,"is_reserved":false,"is_disabled":false,"rental_uris":{"android":"levelo://app?vid=9d3a6400-f14e-4889-b1f0-7c20f6abed23","ios":"levelo://app?vid=9d3a6400-f14e-4889-b1f0-7c20f6abed23"},"vehicle_type_id":"4","last_reported":1743970184,"current_range_meters":6400,"station_id":"ce4bhdp2rcd13ifvqf20","pricing_plan_id":"cebpf4jnsgd1na2vs0mg"},{"bike_id":"69f27ac7-c201-4d7b-a41a-066249700815","system_id":"levelo_inurba_marseille","lat":43.241683,"lon":5.363968,"is_reserved":false,"is_disabled":true,"rental_uris":{"android":"levelo://app?vid=69f27ac7-c201-4d7b-a41a-066249700815","ios":"levelo://app?vid=69f27ac7-c201-4d7b-a41a-066249700815"},"vehicle_type_id":"4","last_reported":1743970184,"current_range_meters":6400,"station_id":"ce4bh412rcd13ifvqdr0","pricing_plan_id":"cebpf4jnsgd1na2vs0mg"},{"bike_id":"05668c95-66a4-4e96-94a8-63b86e17776f","system_id":"levelo_inurba_marseille","lat":43.3093,"lon":5.40145,"is_reserved":false,"is_disabled":false,"rental_uris":{"android":"levelo://app?vid=05668c95-66a4-4e96-94a8-63b86e17776f","ios":"levelo://app?vid=05668c95-66a4-4e96-94a8-63b86e17776f"},"vehicle_type_id":"4","last_reported":1743970184,"current_range_meters":6400,"station_id":"ce4bgvp2rcd13ifvqct0","pricing_plan_id":"cebpf4jnsgd1na2vs0mg"},{"bike_id":"9378cab7-1ef7-47d6-af28-c6473192be1a","system_id":"levelo_inurba_marseille","lat":43.31184,"lon":5.40767,"is_reserved":false,"is_disabled":false,"rental_uris":{"android":"levelo://app?vid=9378cab7-1ef7-47d6-af28-c6473192be1a","ios":"levelo://app?vid=9378cab7-1ef7-47d6-af28-c6473192be1a"},"vehicle_type_id":"4","last_reported":1743970184,"current_range_meters":6400,"station_id":"","pricing_plan_id":"cebpf4jnsgd1na2vs0mg"},{"bike_id":"8b6a5575-35e1-41bc-b6ad-47298a8c5e29","system_id":"levelo_inurba_marseille","lat":43.29925,"lon":5.38137,"is_reserved":false,"is_disabled":false,"rental_uris":{"android":"levelo://app?vid=8b6a5575-35e1-41bc-b6ad-47298a8c5e29","ios":"levelo://app?vid=8b6a5575-35e1-41bc-b6ad-47298a8c5e29"},"vehicle_type_id":"4","last_reported":1743970184,"current_range_meters":6400,"station_id":"ce4bgj12rcd13ifvqbc0","pricing_plan_id":"cebpf4jnsgd1na2vs0mg"},{"bike_id":"e4b309fe-305e-4fa7-8291-fbce8f668a31","system_id":"levelo_inurba_marseille","lat":43.28055,"lon":5.36911,"is_reserved":false,"is_disabled":false,"rental_uris":{"android":"levelo://app?vid=e4b309fe-305e-4fa7-8291-fbce8f668a31","ios":"levelo://app?vid=e4b309fe-305e-4fa7-8291-fbce8f668a31"},"vehicle_type_id":"4","last_reported":1743970184,"current_range_meters":6400,"station_id":"ce4bha12rcd13ifvqef0","pricing_plan_id":"cebpf4jnsgd1na2vs0mg"},{"bike_id":"fe5a8fe2-2dca-4c58-ac7b-e61e0bced93c","system_id":"levelo_inurba_marseille","lat":43.28153,"lon":5.42645,"is_reserved":false,"is_disabled":false,"rental_uris":{"android":"levelo://app?vid=fe5a8fe2-2dca-4c58-ac7b-e61e0bced93c","ios":"levelo://app?vid=fe5a8fe2-2dca-4c58-ac7b-e61e0bced93c"},"vehicle_type_id":"4","last_reported":1743970184,"current_range_meters":6400,"station_id":"ce4bhnh2rcd13ifvqgug","pricing_plan_id":"cebpf4jnsgd1na2vs0mg"},{"bike_id":"723720e9-da5a-48f9-b73b-a760ade4fbdd","system_id":"levelo_inurba_marseille","lat":43.26217,"lon":5.40443,"is_reserved":false,"is_disabled":false,"rental_uris":{"android":"levelo://app?vid=723720e9-da5a-48f9-b73b-a760ade4fbdd","ios":"levelo://app?vid=723720e9-da5a-48f9-b73b-a760ade4fbdd"},"vehicle_type_id":"4","last_reported":1743970184,"current_range_meters":6400,"station_id":"ce4bhmh2rcd13ifvqgmg","pricing_plan_id":"cebpf4jnsgd1na2vs0mg"},{"bike_id":"d1232379-d2e6-465c-91f6-ca7759ca99b3","system_id":"levelo_inurba_marseille","lat":43.26232,"lon":5.40435,"is_reserved":false,"is_disabled":false,"rental_uris":{"android":"levelo://app?vid=d1232379-d2e6-465c-91f6-ca7759ca99b3","ios":"levelo://app?vid=d1232379-d2e6-465c-91f6-ca7759ca99b3"},"vehicle_type_id":"4","last_reported":1743970184,"current_range_meters":6400,"station_id":"ce4bhmh2rcd13ifvqgmg","pricing_plan_id":"cebpf4jnsgd1na2vs0mg"},{"bike_id":"1c8f9443-fa95-4995-992b-86c893c09786","system_id":"levelo_inurba_marseille","lat":43.25092,"lon":5.39507,"is_reserved":false,"is_disabled":false,"rental_uris":{"android":"levelo://app?vid=1c8f9443-fa95-4995-992b-86c893c09786","ios":"levelo://app?vid=1c8f9443-fa95-4995-992b-86c893c09786"},"vehicle_type_id":"4","last_reported":1743970184,"current_range_meters":6800,"station_id":"ce4bhm12rcd13ifvqgkg","pricing_plan_id":"cebpf4jnsgd1na2vs0mg"},{"bike_id":"794a5e02-f4e9-4353-9919-e2d0596c58d6","system_id":"levelo_inurba_marseille","lat":43.29944,"lon":5.3652,"is_reserved":false,"is_disabled":false,"rental_uris":{"android":"levelo://app?vid=794a5e02-f4e9-4353-9919-e2d0596c58d6","ios":"levelo://app?vid=794a5e02-f4e9-4353-9919-e2d0596c58d6"},"vehicle_type_id":"4","last_reported":1743970184,"current_range_meters":6800,"station_id":"ce4bgm92rcd13ifvqbr0","pricing_plan_id":"cebpf4jnsgd1na2vs0mg"},{"bike_id":"0e413919-8111-4681-a208-d8ca519ce3ab","system_id":"levelo_inurba_marseille","lat":43.28851,"lon":5.39323,"is_reserved":false,"is_disabled":false,"rental_uris":{"android":"levelo://app?vid=0e413919-8111-4681-a208-d8ca519ce3ab","ios":"levelo://app?vid=0e413919-8111-4681-a208-d8ca519ce3ab"},"vehicle_type_id":"4","last_reported":1743970184,"current_range_meters":6800,"station_id":"ce4bh2p2rcd13ifvqdi0","pricing_plan_id":"cebpf4jnsgd1na2vs0mg"},{"bike_id":"9c619748-e711-473b-bd5a-dde690b06833","system_id":"levelo_inurba_marseille","lat":43.31529,"lon":5.38038,"is_reserved":false,"is_disabled":false,"rental_uris":{"android":"levelo://app?vid=9c619748-e711-473b-bd5a-dde690b06833","ios":"levelo://app?vid=9c619748-e711-473b-bd5a-dde690b06833"},"vehicle_type_id":"4","last_reported":1743970184,"current_range_meters":6800,"station_id":"ce4bhsp2rcd13ifvqi50","pricing_plan_id":"cebpf4jnsgd1na2vs0mg"},{"bike_id":"5496e439-c1cd-4c5c-a827-ff70b805c975","system_id":"levelo_inurba_marseille","lat":43.25718,"lon":5.41114,"is_reserved":false,"is_disabled":false,"rental_uris":{"android":"levelo://app?vid=5496e439-c1cd-4c5c-a827-ff70b805c975","ios":"levelo://app?vid=5496e439-c1cd-4c5c-a827-ff70b805c975"},"vehicle_type_id":"4","last_reported":1743970184,"current_range_meters":6400,"station_id":"ce4bhkp2rcd13ifvqgd0","pricing_plan_id":"cebpf4jnsgd1na2vs0mg"},{"bike_id":"6023584e-870f-454d-88b0-bf3dc0e21fbe","system_id":"levelo_inurba_marseille","lat":43.24407,"lon":5.37037,"is_reserved":false,"is_disabled":true,"rental_uris":{"android":"levelo://app?vid=6023584e-870f-454d-88b0-bf3dc0e21fbe","ios":"levelo://app?vid=6023584e-870f-454d-88b0-bf3dc0e21fbe"},"vehicle_type_id":"4","last_reported":1743970184,"current_range_meters":6800,"station_id":"ce4bhhh2rcd13ifvqfk0","pricing_plan_id":"cebpf4jnsgd1na2vs0mg"},{"bike_id":"adc342d2-19f5-42c8-bd32-0f6dd7900d25","system_id":"levelo_inurba_marseille","lat":43.27434,"lon":5.39398,"is_reserved":false,"is_disabled":false,"rental_uris":{"android":"levelo://app?vid=adc342d2-19f5-42c8-bd32-0f6dd7900d25","ios":"levelo://app?vid=adc342d2-19f5-42c8-bd32-0f6dd7900d25"},"vehicle_type_id":"4","last_reported":1743970184,"current_range_meters":7200,"station_id":"ce4bhdp2rcd13ifvqf20","pricing_plan_id":"cebpf4jnsgd1na2vs0mg"},{"bike_id":"72a4f661-6d65-4e28-994b-cb9ec5276606","system_id":"levelo_inurba_marseille","lat":43.27326,"lon":5.38992,"is_reserved":false,"is_disabled":false,"rental_uris":{"android":"levelo://app?vid=72a4f661-6d65-4e28-994b-cb9ec5276606","ios":"levelo://app?vid=72a4f661-6d65-4e28-994b-cb9ec5276606"},"vehicle_type_id":"4","last_reported":1743970184,"current_range_meters":7200,"station_id":"","pricing_plan_id":"cebpf4jnsgd1na2vs0mg"},{"bike_id":"e3c5f122-d61d-4b7a-b30e-709a3dbe5e46","system_id":"levelo_inurba_marseille","lat":43.324,"lon":5.39014,"is_reserved":false,"is_disabled":false,"rental_uris":{"android":"levelo://app?vid=e3c5f122-d61d-4b7a-b30e-709a3dbe5e46","ios":"levelo://app?vid=e3c5f122-d61d-4b7a-b30e-709a3dbe5e46"},"vehicle_type_id":"4","last_reported":1743970184,"current_range_meters":7200,"station_id":"","pricing_plan_id":"cebpf4jnsgd1na2vs0mg"},{"bike_id":"46aaf249-f504-46ae-93ce-7245839b78b5","system_id":"levelo_inurba_marseille","lat":43.25758,"lon":5.38641,"is_reserved":false,"is_disabled":true,"rental_uris":{"android":"levelo://app?vid=46aaf249-f504-46ae-93ce-7245839b78b5","ios":"levelo://app?vid=46aaf249-f504-46ae-93ce-7245839b78b5"},"vehicle_type_id":"4","last_reported":1743970184,"current_range_meters":7200,"station_id":"","pricing_plan_id":"cebpf4jnsgd1na2vs0mg"},{"bike_id":"aa2c1d8e-94ab-4e7a-825c-945a570d060b","system_id":"levelo_inurba_marseille","lat":43.28669,"lon":5.36347,"is_reserved":false,"is_disabled":false,"rental_uris":{"android":"levelo://app?vid=aa2c1d8e-94ab-4e7a-825c-945a570d060b","ios":"levelo://app?vid=aa2c1d8e-94ab-4e7a-825c-945a570d060b"},"vehicle_type_id":"4","last_reported":1743970184,"current_range_meters":7200,"station_id":"ce4bhah2rcd13ifvqej0","pricing_plan_id":"cebpf4jnsgd1na2vs0mg"},{"bike_id":"a0ab8544-f190-49d8-9ce8-3caa425b8ace","system_id":"levelo_inurba_marseille","lat":43.29015,"lon":5.38645,"is_reserved":false,"is_disabled":false,"rental_uris":{"android":"levelo://app?vid=a0ab8544-f190-49d8-9ce8-3caa425b8ace","ios":"levelo://app?vid=a0ab8544-f190-49d8-9ce8-3caa425b8ace"},"vehicle_type_id":"4","last_reported":1743970184,"current_range_meters":7200,"station_id":"ce4bh4p2rcd13ifvqe0g","pricing_plan_id":"cebpf4jnsgd1na2vs0mg"},{"bike_id":"fb7fbcd9-baa6-47df-8305-71257020670d","system_id":"levelo_inurba_marseille","lat":43.26936,"lon":5.40232,"is_reserved":false,"is_disabled":false,"rental_uris":{"android":"levelo://app?vid=fb7fbcd9-baa6-47df-8305-71257020670d","ios":"levelo://app?vid=fb7fbcd9-baa6-47df-8305-71257020670d"},"vehicle_type_id":"4","last_reported":1743970184,"current_range_meters":7200,"station_id":"cjm6bp8fraef2m0cb0m0","pricing_plan_id":"cebpf4jnsgd1na2vs0mg"},{"bike_id":"d8c6056e-5636-430f-9551-7fcb4f5a9a8b","system_id":"levelo_inurba_marseille","lat":43.26797,"lon":5.39418,"is_reserved":false,"is_disabled":false,"rental_uris":{"android":"levelo://app?vid=d8c6056e-5636-430f-9551-7fcb4f5a9a8b","ios":"levelo://app?vid=d8c6056e-5636-430f-9551-7fcb4f5a9a8b"},"vehicle_type_id":"4","last_reported":1743970184,"current_range_meters":7200,"station_id":"ce4bhh12rcd13ifvqfg0","pricing_plan_id":"cebpf4jnsgd1na2vs0mg"},{"bike_id":"3e9a35d1-de44-4a45-84e7-a27ce0a23b8b","system_id":"levelo_inurba_marseille","lat":43.279857,"lon":5.41653,"is_reserved":false,"is_disabled":false,"rental_uris":{"android":"levelo://app?vid=3e9a35d1-de44-4a45-84e7-a27ce0a23b8b","ios":"levelo://app?vid=3e9a35d1-de44-4a45-84e7-a27ce0a23b8b"},"vehicle_type_id":"4","last_reported":1743970184,"current_range_meters":7200,"station_id":"ce4bho12rcd13ifvqh1g","pricing_plan_id":"cebpf4jnsgd1na2vs0mg"},{"bike_id":"e4d2f197-789e-4a9b-b12e-6f72b2af4d33","system_id":"levelo_inurba_marseille","lat":43.26941,"lon":5.40238,"is_reserved":false,"is_disabled":false,"rental_uris":{"android":"levelo://app?vid=e4d2f197-789e-4a9b-b12e-6f72b2af4d33","ios":"levelo://app?vid=e4d2f197-789e-4a9b-b12e-6f72b2af4d33"},"vehicle_type_id":"4","last_reported":1743970184,"current_range_meters":7200,"station_id":"cjm6bp8fraef2m0cb0m0","pricing_plan_id":"cebpf4jnsgd1na2vs0mg"},{"bike_id":"cfde0f36-ce86-4c0c-a6b5-7d08513a7ffd","system_id":"levelo_inurba_marseille","lat":43.26933,"lon":5.4026,"is_reserved":false,"is_disabled":false,"rental_uris":{"android":"levelo://app?vid=cfde0f36-ce86-4c0c-a6b5-7d08513a7ffd","ios":"levelo://app?vid=cfde0f36-ce86-4c0c-a6b5-7d08513a7ffd"},"vehicle_type_id":"4","last_reported":1743970184,"current_range_meters":7200,"station_id":"cjm6bp8fraef2m0cb0m0","pricing_plan_id":"cebpf4jnsgd1na2vs0mg"},{"bike_id":"8d65df10-4ae1-48db-a81b-dbb1de62e9d7","system_id":"levelo_inurba_marseille","lat":43.25716,"lon":5.41071,"is_reserved":false,"is_disabled":false,"rental_uris":{"android":"levelo://app?vid=8d65df10-4ae1-48db-a81b-dbb1de62e9d7","ios":"levelo://app?vid=8d65df10-4ae1-48db-a81b-dbb1de62e9d7"},"vehicle_type_id":"4","last_reported":1743970184,"current_range_meters":8000,"station_id":"ce4bhkp2rcd13ifvqgd0","pricing_plan_id":"cebpf4jnsgd1na2vs0mg"},{"bike_id":"3a131c82-d16e-4cb7-8973-9592b60ab886","system_id":"levelo_inurba_marseille","lat":43.25085,"lon":5.39526,"is_reserved":false,"is_disabled":false,"rental_uris":{"android":"levelo://app?vid=3a131c82-d16e-4cb7-8973-9592b60ab886","ios":"levelo://app?vid=3a131c82-d16e-4cb7-8973-9592b60ab886"},"vehicle_type_id":"4","last_reported":1743970184,"current_range_meters":8000,"station_id":"ce4bhm12rcd13ifvqgkg","pricing_plan_id":"cebpf4jnsgd1na2vs0mg"},{"bike_id":"823e71e5-488a-42c8-b7df-9256c147647c","system_id":"levelo_inurba_marseille","lat":43.31269,"lon":5.40163,"is_reserved":false,"is_disabled":false,"rental_uris":{"android":"levelo://app?vid=823e71e5-488a-42c8-b7df-9256c147647c","ios":"levelo://app?vid=823e71e5-488a-42c8-b7df-9256c147647c"},"vehicle_type_id":"4","last_reported":1743970184,"current_range_meters":8000,"station_id":"ce4bh092rcd13ifvqd30","pricing_plan_id":"cebpf4jnsgd1na2vs0mg"},{"bike_id":"8095757d-1ea5-4e59-aaac-1680c18cdb40","system_id":"levelo_inurba_marseille","lat":43.28376,"lon":5.38653,"is_reserved":false,"is_disabled":false,"rental_uris":{"android":"levelo://app?vid=8095757d-1ea5-4e59-aaac-1680c18cdb40","ios":"levelo://app?vid=8095757d-1ea5-4e59-aaac-1680c18cdb40"},"vehicle_type_id":"4","last_reported":1743970184,"current_range_meters":8000,"station_id":"ce4bh492rcd13ifvqdvg","pricing_plan_id":"cebpf4jnsgd1na2vs0mg"},{"bike_id":"09764cee-8724-44c1-b501-307abe5b537a","system_id":"levelo_inurba_marseille","lat":43.32102,"lon":5.36772,"is_reserved":false,"is_disabled":false,"rental_uris":{"android":"levelo://app?vid=09764cee-8724-44c1-b501-307abe5b537a","ios":"levelo://app?vid=09764cee-8724-44c1-b501-307abe5b537a"},"vehicle_type_id":"4","last_reported":1743970184,"current_range_meters":8400,"station_id":"ce4bhrh2rcd13ifvqhug","pricing_plan_id":"cebpf4jnsgd1na2vs0mg"},{"bike_id":"6300bf7a-6aac-4c78-96a1-48305a1b7020","system_id":"levelo_inurba_marseille","lat":43.28448,"lon":5.39206,"is_reserved":false,"is_disabled":false,"rental_uris":{"android":"levelo://app?vid=6300bf7a-6aac-4c78-96a1-48305a1b7020","ios":"levelo://app?vid=6300bf7a-6aac-4c78-96a1-48305a1b7020"},"vehicle_type_id":"4","last_reported":1743970184,"current_range_meters":8400,"station_id":"ce4bhoh2rcd13ifvqh5g","pricing_plan_id":"cebpf4jnsgd1na2vs0mg"},{"bike_id":"d6e80ffd-629f-4a4a-b6fb-ed2d2a5dd46d","system_id":"levelo_inurba_marseille","lat":43.29255,"lon":5.409,"is_reserved":false,"is_disabled":false,"rental_uris":{"android":"levelo://app?vid=d6e80ffd-629f-4a4a-b6fb-ed2d2a5dd46d","ios":"levelo://app?vid=d6e80ffd-629f-4a4a-b6fb-ed2d2a5dd46d"},"vehicle_type_id":"4","last_reported":1743970184,"current_range_meters":8000,"station_id":"ce4bh192rcd13ifvqdc0","pricing_plan_id":"cebpf4jnsgd1na2vs0mg"},{"bike_id":"607308b3-6cb0-49ad-9852-b5ced867feea","system_id":"levelo_inurba_marseille","lat":43.27286,"lon":5.39143,"is_reserved":false,"is_disabled":false,"rental_uris":{"android":"levelo://app?vid=607308b3-6cb0-49ad-9852-b5ced867feea","ios":"levelo://app?vid=607308b3-6cb0-49ad-9852-b5ced867feea"},"vehicle_type_id":"4","last_reported":1743970184,"current_range_meters":8400,"station_id":"","pricing_plan_id":"cebpf4jnsgd1na2vs0mg"},{"bike_id":"a682add7-90f6-4f21-a237-5c2e46b6894b","system_id":"levelo_inurba_marseille","lat":43.29746,"lon":5.37672,"is_reserved":false,"is_disabled":false,"rental_uris":{"android":"levelo://app?vid=a682add7-90f6-4f21-a237-5c2e46b6894b","ios":"levelo://app?vid=a682add7-90f6-4f21-a237-5c2e46b6894b"},"vehicle_type_id":"4","last_reported":1743970184,"current_range_meters":8400,"station_id":"ce4bgkh2rcd13ifvqbl0","pricing_plan_id":"cebpf4jnsgd1na2vs0mg"},{"bike_id":"607bc019-83aa-4c5f-9a00-7697e5e1f6b5","system_id":"levelo_inurba_marseille","lat":43.31267,"lon":5.40165,"is_reserved":false,"is_disabled":false,"rental_uris":{"android":"levelo://app?vid=607bc019-83aa-4c5f-9a00-7697e5e1f6b5","ios":"levelo://app?vid=607bc019-83aa-4c5f-9a00-7697e5e1f6b5"},"vehicle_type_id":"4","last_reported":1743970184,"current_range_meters":8400,"station_id":"ce4bh092rcd13ifvqd30","pricing_plan_id":"cebpf4jnsgd1na2vs0mg"},{"bike_id":"605b47bb-ada8-4a07-b799-c363c1576ca2","system_id":"levelo_inurba_marseille","lat":43.281511,"lon":5.426431,"is_reserved":false,"is_disabled":false,"rental_uris":{"android":"levelo://app?vid=605b47bb-ada8-4a07-b799-c363c1576ca2","ios":"levelo://app?vid=605b47bb-ada8-4a07-b799-c363c1576ca2"},"vehicle_type_id":"4","last_reported":1743970184,"current_range_meters":8000,"station_id":"ce4bhnh2rcd13ifvqgug","pricing_plan_id":"cebpf4jnsgd1na2vs0mg"},{"bike_id":"0f4b6c43-2924-4851-af76-1d9c549c8b8b","system_id":"levelo_inurba_marseille","lat":43.30138,"lon":5.37424,"is_reserved":false,"is_disabled":false,"rental_uris":{"android":"levelo://app?vid=0f4b6c43-2924-4851-af76-1d9c549c8b8b","ios":"levelo://app?vid=0f4b6c43-2924-4851-af76-1d9c549c8b8b"},"vehicle_type_id":"4","last_reported":1743970184,"current_range_meters":8400,"station_id":"ce4bgs92rcd13ifvqcc0","pricing_plan_id":"cebpf4jnsgd1na2vs0mg"},{"bike_id":"879c15b8-249d-4ac3-837b-467979be949e","system_id":"levelo_inurba_marseille","lat":43.23312,"lon":5.36165,"is_reserved":false,"is_disabled":false,"rental_uris":{"android":"levelo://app?vid=879c15b8-249d-4ac3-837b-467979be949e","ios":"levelo://app?vid=879c15b8-249d-4ac3-837b-467979be949e"},"vehicle_type_id":"4","last_reported":1743970184,"current_range_meters":8400,"station_id":"","pricing_plan_id":"cebpf4jnsgd1na2vs0mg"},{"bike_id":"38f1b519-f409-4107-ab69-ca2029a19f07","system_id":"levelo_inurba_marseille","lat":43.255,"lon":5.37654,"is_reserved":false,"is_disabled":false,"rental_uris":{"android":"levelo://app?vid=38f1b519-f409-4107-ab69-ca2029a19f07","ios":"levelo://app?vid=38f1b519-f409-4107-ab69-ca2029a19f07"},"vehicle_type_id":"4","last_reported":1743970184,"current_range_meters":8400,"station_id":"ce4bhh12rcd13ifvqff0","pricing_plan_id":"cebpf4jnsgd1na2vs0mg"},{"bike_id":"ef2ae475-47d2-48ce-862b-539edba60102","system_id":"levelo_inurba_marseille","lat":43.28402,"lon":5.3753,"is_reserved":false,"is_disabled":false,"rental_uris":{"android":"levelo://app?vid=ef2ae475-47d2-48ce-862b-539edba60102","ios":"levelo://app?vid=ef2ae475-47d2-48ce-862b-539edba60102"},"vehicle_type_id":"4","last_reported":1743970184,"current_range_meters":8400,"station_id":"ce4bh412rcd13ifvqds0","pricing_plan_id":"cebpf4jnsgd1na2vs0mg"},{"bike_id":"a5359b15-de36-446c-a102-4205e2aff03a","system_id":"levelo_inurba_marseille","lat":43.26796,"lon":5.39401,"is_reserved":false,"is_disabled":false,"rental_uris":{"android":"levelo://app?vid=a5359b15-de36-446c-a102-4205e2aff03a","ios":"levelo://app?vid=a5359b15-de36-446c-a102-4205e2aff03a"},"vehicle_type_id":"4","last_reported":1743970184,"current_range_meters":8800,"station_id":"ce4bhh12rcd13ifvqfg0","pricing_plan_id":"cebpf4jnsgd1na2vs0mg"},{"bike_id":"283d9ac2-ea7e-4f45-beb7-6857e584a52d","system_id":"levelo_inurba_marseille","lat":43.2454,"lon":5.39535,"is_reserved":false,"is_disabled":false,"rental_uris":{"android":"levelo://app?vid=283d9ac2-ea7e-4f45-beb7-6857e584a52d","ios":"levelo://app?vid=283d9ac2-ea7e-4f45-beb7-6857e584a52d"},"vehicle_type_id":"4","last_reported":1743970184,"current_range_meters":8800,"station_id":"ce4bhlp2rcd13ifvqgjg","pricing_plan_id":"cebpf4jnsgd1na2vs0mg"},{"bike_id":"107d2e56-e93f-431e-afd4-84034c260b8f","system_id":"levelo_inurba_marseille","lat":43.25812,"lon":5.39436,"is_reserved":false,"is_disabled":false,"rental_uris":{"android":"levelo://app?vid=107d2e56-e93f-431e-afd4-84034c260b8f","ios":"levelo://app?vid=107d2e56-e93f-431e-afd4-84034c260b8f"},"vehicle_type_id":"4","last_reported":1743970184,"current_range_meters":8800,"station_id":"ce4bhip2rcd13ifvqft0","pricing_plan_id":"cebpf4jnsgd1na2vs0mg"},{"bike_id":"1d8daedd-ea9c-4c3a-a703-caba6531a409","system_id":"levelo_inurba_marseille","lat":43.307889,"lon":5.376565,"is_reserved":false,"is_disabled":false,"rental_uris":{"android":"levelo://app?vid=1d8daedd-ea9c-4c3a-a703-caba6531a409","ios":"levelo://app?vid=1d8daedd-ea9c-4c3a-a703-caba6531a409"},"vehicle_type_id":"4","last_reported":1743970184,"current_range_meters":8800,"station_id":"ce4bgv92rcd13ifvqcq0","pricing_plan_id":"cebpf4jnsgd1na2vs0mg"},{"bike_id":"a5b8d5a8-0957-41d9-b3f5-dbe9c750123f","system_id":"levelo_inurba_marseille","lat":43.30426,"lon":5.38889,"is_reserved":false,"is_disabled":false,"rental_uris":{"android":"levelo://app?vid=a5b8d5a8-0957-41d9-b3f5-dbe9c750123f","ios":"levelo://app?vid=a5b8d5a8-0957-41d9-b3f5-dbe9c750123f"},"vehicle_type_id":"4","last_reported":1743970184,"current_range_meters":8800,"station_id":"ce4bgk12rcd13ifvqbi0","pricing_plan_id":"cebpf4jnsgd1na2vs0mg"},{"bike_id":"988458a3-e1f7-4ea2-8f59-55f69d76c4ab","system_id":"levelo_inurba_marseille","lat":43.255817,"lon":5.382411,"is_reserved":false,"is_disabled":false,"rental_uris":{"android":"levelo://app?vid=988458a3-e1f7-4ea2-8f59-55f69d76c4ab","ios":"levelo://app?vid=988458a3-e1f7-4ea2-8f59-55f69d76c4ab"},"vehicle_type_id":"4","last_reported":1743970184,"current_range_meters":8800,"station_id":"ce4bhah2rcd13ifvqei0","pricing_plan_id":"cebpf4jnsgd1na2vs0mg"},{"bike_id":"dfe033e5-eb50-4610-85ee-430cd4939587","system_id":"levelo_inurba_marseille","lat":43.27602,"lon":5.36111,"is_reserved":false,"is_disabled":true,"rental_uris":{"android":"levelo://app?vid=dfe033e5-eb50-4610-85ee-430cd4939587","ios":"levelo://app?vid=dfe033e5-eb50-4610-85ee-430cd4939587"},"vehicle_type_id":"4","last_reported":1743970184,"current_range_meters":8800,"station_id":"ce4bgj92rcd13ifvqbe0","pricing_plan_id":"cebpf4jnsgd1na2vs0mg"},{"bike_id":"defbf62e-bc87-49d1-818e-bcc6d5e6f212","system_id":"levelo_inurba_marseille","lat":43.27447,"lon":5.39385,"is_reserved":false,"is_disabled":false,"rental_uris":{"android":"levelo://app?vid=defbf62e-bc87-49d1-818e-bcc6d5e6f212","ios":"levelo://app?vid=defbf62e-bc87-49d1-818e-bcc6d5e6f212"},"vehicle_type_id":"4","last_reported":1743970184,"current_range_meters":8800,"station_id":"ce4bhdp2rcd13ifvqf20","pricing_plan_id":"cebpf4jnsgd1na2vs0mg"},{"bike_id":"12e43439-f997-44cc-917b-b7441c453179","system_id":"levelo_inurba_marseille","lat":43.29552,"lon":5.4229,"is_reserved":false,"is_disabled":false,"rental_uris":{"android":"levelo://app?vid=12e43439-f997-44cc-917b-b7441c453179","ios":"levelo://app?vid=12e43439-f997-44cc-917b-b7441c453179"},"vehicle_type_id":"4","last_reported":1743970184,"current_range_meters":8800,"station_id":"ce4bhph2rcd13ifvqhdg","pricing_plan_id":"cebpf4jnsgd1na2vs0mg"},{"bike_id":"0db472c0-ef0d-4bc9-bc2a-d369458303a3","system_id":"levelo_inurba_marseille","lat":43.28335,"lon":5.38108,"is_reserved":false,"is_disabled":false,"rental_uris":{"android":"levelo://app?vid=0db472c0-ef0d-4bc9-bc2a-d369458303a3","ios":"levelo://app?vid=0db472c0-ef0d-4bc9-bc2a-d369458303a3"},"vehicle_type_id":"4","last_reported":1743970184,"current_range_meters":9200,"station_id":"ce4bh412rcd13ifvqdr0","pricing_plan_id":"cebpf4jnsgd1na2vs0mg"},{"bike_id":"d408c9dd-eb34-4ee2-8457-e973282fef82","system_id":"levelo_inurba_marseille","lat":43.30935,"lon":5.40118,"is_reserved":false,"is_disabled":false,"rental_uris":{"android":"levelo://app?vid=d408c9dd-eb34-4ee2-8457-e973282fef82","ios":"levelo://app?vid=d408c9dd-eb34-4ee2-8457-e973282fef82"},"vehicle_type_id":"4","last_reported":1743970184,"current_range_meters":9200,"station_id":"ce4bgvp2rcd13ifvqct0","pricing_plan_id":"cebpf4jnsgd1na2vs0mg"},{"bike_id":"abde5d83-9b30-4b2f-8a88-f914ca452329","system_id":"levelo_inurba_marseille","lat":43.31248,"lon":5.38671,"is_reserved":false,"is_disabled":false,"rental_uris":{"android":"levelo://app?vid=abde5d83-9b30-4b2f-8a88-f914ca452329","ios":"levelo://app?vid=abde5d83-9b30-4b2f-8a88-f914ca452329"},"vehicle_type_id":"4","last_reported":1743970184,"current_range_meters":9200,"station_id":"","pricing_plan_id":"cebpf4jnsgd1na2vs0mg"},{"bike_id":"a3f88b92-3d02-4fed-8b12-0e7732d8ba6f","system_id":"levelo_inurba_marseille","lat":43.30316,"lon":5.36905,"is_reserved":false,"is_disabled":false,"rental_uris":{"android":"levelo://app?vid=a3f88b92-3d02-4fed-8b12-0e7732d8ba6f","ios":"levelo://app?vid=a3f88b92-3d02-4fed-8b12-0e7732d8ba6f"},"vehicle_type_id":"4","last_reported":1743970184,"current_range_meters":9200,"station_id":"ce4bgqh2rcd13ifvqc5g","pricing_plan_id":"cebpf4jnsgd1na2vs0mg"},{"bike_id":"00393ee2-317d-4e98-a30d-fd25773ef49f","system_id":"levelo_inurba_marseille","lat":43.35228,"lon":5.35783,"is_reserved":false,"is_disabled":false,"rental_uris":{"android":"levelo://app?vid=00393ee2-317d-4e98-a30d-fd25773ef49f","ios":"levelo://app?vid=00393ee2-317d-4e98-a30d-fd25773ef49f"},"vehicle_type_id":"4","last_reported":1743970184,"current_range_meters":9200,"station_id":"","pricing_plan_id":"cebpf4jnsgd1na2vs0mg"},{"bike_id":"5e96b480-0943-41ff-bc95-79d78b1301a2","system_id":"levelo_inurba_marseille","lat":43.2754,"lon":5.424,"is_reserved":false,"is_disabled":false,"rental_uris":{"android":"levelo://app?vid=5e96b480-0943-41ff-bc95-79d78b1301a2","ios":"levelo://app?vid=5e96b480-0943-41ff-bc95-79d78b1301a2"},"vehicle_type_id":"4","last_reported":1743970184,"current_range_meters":9200,"station_id":"","pricing_plan_id":"cebpf4jnsgd1na2vs0mg"},{"bike_id":"7e998a0c-eed3-46de-aa53-8ecfbd4eddbb","system_id":"levelo_inurba_marseille","lat":43.2319,"lon":5.35556,"is_reserved":false,"is_disabled":true,"rental_uris":{"android":"levelo://app?vid=7e998a0c-eed3-46de-aa53-8ecfbd4eddbb","ios":"levelo://app?vid=7e998a0c-eed3-46de-aa53-8ecfbd4eddbb"},"vehicle_type_id":"4","last_reported":1743970184,"current_range_meters":9200,"station_id":"ce4bhu92rcd13ifvqi70","pricing_plan_id":"cebpf4jnsgd1na2vs0mg"},{"bike_id":"71d5aad2-e8a9-4c9e-9b9e-6a5d13464bc5","system_id":"levelo_inurba_marseille","lat":43.27404,"lon":5.39411,"is_reserved":false,"is_disabled":false,"rental_uris":{"android":"levelo://app?vid=71d5aad2-e8a9-4c9e-9b9e-6a5d13464bc5","ios":"levelo://app?vid=71d5aad2-e8a9-4c9e-9b9e-6a5d13464bc5"},"vehicle_type_id":"4","last_reported":1743970184,"current_range_meters":9200,"station_id":"ce4bhdp2rcd13ifvqf20","pricing_plan_id":"cebpf4jnsgd1na2vs0mg"},{"bike_id":"5941b1f7-2796-4e0b-8ae3-ae836f4cf8b8","system_id":"levelo_inurba_marseille","lat":43.27206,"lon":5.3918,"is_reserved":false,"is_disabled":false,"rental_uris":{"android":"levelo://app?vid=5941b1f7-2796-4e0b-8ae3-ae836f4cf8b8","ios":"levelo://app?vid=5941b1f7-2796-4e0b-8ae3-ae836f4cf8b8"},"vehicle_type_id":"4","last_reported":1743970184,"current_range_meters":9200,"station_id":"ce4bhhp2rcd13ifvqfm0","pricing_plan_id":"cebpf4jnsgd1na2vs0mg"},{"bike_id":"a637d94b-88a9-424d-9a24-f7dbc8c0fb71","system_id":"levelo_inurba_marseille","lat":43.27382,"lon":5.39408,"is_reserved":false,"is_disabled":false,"rental_uris":{"android":"levelo://app?vid=a637d94b-88a9-424d-9a24-f7dbc8c0fb71","ios":"levelo://app?vid=a637d94b-88a9-424d-9a24-f7dbc8c0fb71"},"vehicle_type_id":"4","last_reported":1743970184,"current_range_meters":9600,"station_id":"ce4bhdp2rcd13ifvqf20","pricing_plan_id":"cebpf4jnsgd1na2vs0mg"},{"bike_id":"c9cf6b43-f8a7-413a-98c0-9c145cfb8ab7","system_id":"levelo_inurba_marseille","lat":43.26785,"lon":5.39417,"is_reserved":false,"is_disabled":false,"rental_uris":{"android":"levelo://app?vid=c9cf6b43-f8a7-413a-98c0-9c145cfb8ab7","ios":"levelo://app?vid=c9cf6b43-f8a7-413a-98c0-9c145cfb8ab7"},"vehicle_type_id":"4","last_reported":1743970184,"current_range_meters":9600,"station_id":"","pricing_plan_id":"cebpf4jnsgd1na2vs0mg"},{"bike_id":"590bd0e2-9f1d-4e6f-9e37-05bb0e5ae5dc","system_id":"levelo_inurba_marseille","lat":43.29887,"lon":5.36399,"is_reserved":false,"is_disabled":false,"rental_uris":{"android":"levelo://app?vid=590bd0e2-9f1d-4e6f-9e37-05bb0e5ae5dc","ios":"levelo://app?vid=590bd0e2-9f1d-4e6f-9e37-05bb0e5ae5dc"},"vehicle_type_id":"4","last_reported":1743970184,"current_range_meters":9600,"station_id":"","pricing_plan_id":"cebpf4jnsgd1na2vs0mg"},{"bike_id":"edaccf97-dc5b-4501-9f95-e0fff4b79492","system_id":"levelo_inurba_marseille","lat":43.27993,"lon":5.41659,"is_reserved":false,"is_disabled":false,"rental_uris":{"android":"levelo://app?vid=edaccf97-dc5b-4501-9f95-e0fff4b79492","ios":"levelo://app?vid=edaccf97-dc5b-4501-9f95-e0fff4b79492"},"vehicle_type_id":"4","last_reported":1743970184,"current_range_meters":9600,"station_id":"ce4bho12rcd13ifvqh1g","pricing_plan_id":"cebpf4jnsgd1na2vs0mg"},{"bike_id":"093019e0-55e5-42b1-9c23-9d41c3c990a6","system_id":"levelo_inurba_marseille","lat":43.31988,"lon":5.38146,"is_reserved":false,"is_disabled":false,"rental_uris":{"android":"levelo://app?vid=093019e0-55e5-42b1-9c23-9d41c3c990a6","ios":"levelo://app?vid=093019e0-55e5-42b1-9c23-9d41c3c990a6"},"vehicle_type_id":"4","last_reported":1743970184,"current_range_meters":9600,"station_id":"ce4bhr12rcd13ifvqhpg","pricing_plan_id":"cebpf4jnsgd1na2vs0mg"},{"bike_id":"fdec153d-5dce-4e52-90c7-f0f53df30ffb","system_id":"levelo_inurba_marseille","lat":43.27836,"lon":5.39211,"is_reserved":false,"is_disabled":false,"rental_uris":{"android":"levelo://app?vid=fdec153d-5dce-4e52-90c7-f0f53df30ffb","ios":"levelo://app?vid=fdec153d-5dce-4e52-90c7-f0f53df30ffb"},"vehicle_type_id":"4","last_reported":1743970184,"current_range_meters":9600,"station_id":"ce4bhjp2rcd13ifvqga0","pricing_plan_id":"cebpf4jnsgd1na2vs0mg"},{"bike_id":"45c476b4-22e8-46ff-aec0-c1a3ccd602b3","system_id":"levelo_inurba_marseille","lat":43.29523,"lon":5.3903,"is_reserved":false,"is_disabled":false,"rental_uris":{"android":"levelo://app?vid=45c476b4-22e8-46ff-aec0-c1a3ccd602b3","ios":"levelo://app?vid=45c476b4-22e8-46ff-aec0-c1a3ccd602b3"},"vehicle_type_id":"4","last_reported":1743970184,"current_range_meters":9600,"station_id":"ce4bh3p2rcd13ifvqdp0","pricing_plan_id":"cebpf4jnsgd1na2vs0mg"},{"bike_id":"aa9b59b6-65cb-49e0-b211-3fb1aecd03a8","system_id":"levelo_inurba_marseille","lat":43.29225,"lon":5.36052,"is_reserved":false,"is_disabled":true,"rental_uris":{"android":"levelo://app?vid=aa9b59b6-65cb-49e0-b211-3fb1aecd03a8","ios":"levelo://app?vid=aa9b59b6-65cb-49e0-b211-3fb1aecd03a8"},"vehicle_type_id":"4","last_reported":1743970184,"current_range_meters":9600,"station_id":"ce4bhbh2rcd13ifvqeqg","pricing_plan_id":"cebpf4jnsgd1na2vs0mg"},{"bike_id":"7fd0635d-68ad-4ce6-a52b-daef56987b4b","system_id":"levelo_inurba_marseille","lat":43.30862,"lon":5.3861,"is_reserved":false,"is_disabled":false,"rental_uris":{"android":"levelo://app?vid=7fd0635d-68ad-4ce6-a52b-daef56987b4b","ios":"levelo://app?vid=7fd0635d-68ad-4ce6-a52b-daef56987b4b"},"vehicle_type_id":"4","last_reported":1743970184,"current_range_meters":9600,"station_id":"","pricing_plan_id":"cebpf4jnsgd1na2vs0mg"},{"bike_id":"8a79caba-2237-49ce-9250-28fab8ef5de2","system_id":"levelo_inurba_marseille","lat":43.29252,"lon":5.40894,"is_reserved":false,"is_disabled":false,"rental_uris":{"android":"levelo://app?vid=8a79caba-2237-49ce-9250-28fab8ef5de2","ios":"levelo://app?vid=8a79caba-2237-49ce-9250-28fab8ef5de2"},"vehicle_type_id":"4","last_reported":1743970184,"current_range_meters":9600,"station_id":"ce4bh192rcd13ifvqdc0","pricing_plan_id":"cebpf4jnsgd1na2vs0mg"},{"bike_id":"9c550370-5e9b-4130-be34-d0d9373573a9","system_id":"levelo_inurba_marseille","lat":43.27172,"lon":5.41,"is_reserved":false,"is_disabled":false,"rental_uris":{"android":"levelo://app?vid=9c550370-5e9b-4130-be34-d0d9373573a9","ios":"levelo://app?vid=9c550370-5e9b-4130-be34-d0d9373573a9"},"vehicle_type_id":"4","last_reported":1743970184,"current_range_meters":9600,"station_id":"ce4bhl12rcd13ifvqgf0","pricing_plan_id":"cebpf4jnsgd1na2vs0mg"},{"bike_id":"136b6e45-ee21-453e-aa22-e07947db9071","system_id":"levelo_inurba_marseille","lat":43.23164,"lon":5.43692,"is_reserved":false,"is_disabled":true,"rental_uris":{"android":"levelo://app?vid=136b6e45-ee21-453e-aa22-e07947db9071","ios":"levelo://app?vid=136b6e45-ee21-453e-aa22-e07947db9071"},"vehicle_type_id":"4","last_reported":1743970184,"current_range_meters":9600,"station_id":"ce4bhmp2rcd13ifvqgog","pricing_plan_id":"cebpf4jnsgd1na2vs0mg"},{"bike_id":"25fadef7-e8d9-4a30-bac7-8917be00fc0e","system_id":"levelo_inurba_marseille","lat":43.28697,"lon":5.39982,"is_reserved":false,"is_disabled":false,"rental_uris":{"android":"levelo://app?vid=25fadef7-e8d9-4a30-bac7-8917be00fc0e","ios":"levelo://app?vid=25fadef7-e8d9-4a30-bac7-8917be00fc0e"},"vehicle_type_id":"4","last_reported":1743970184,"current_range_meters":10000,"station_id":"ce4bho92rcd13ifvqh3g","pricing_plan_id":"cebpf4jnsgd1na2vs0mg"},{"bike_id":"b780db30-7dc3-42ce-950b-43bda8c5cdf9","system_id":"levelo_inurba_marseille","lat":43.29557,"lon":5.42272,"is_reserved":false,"is_disabled":false,"rental_uris":{"android":"levelo://app?vid=b780db30-7dc3-42ce-950b-43bda8c5cdf9","ios":"levelo://app?vid=b780db30-7dc3-42ce-950b-43bda8c5cdf9"},"vehicle_type_id":"4","last_reported":1743970184,"current_range_meters":10000,"station_id":"ce4bhph2rcd13ifvqhdg","pricing_plan_id":"cebpf4jnsgd1na2vs0mg"},{"bike_id":"f8321878-9e9a-4e56-8919-d9cad8905f3c","system_id":"levelo_inurba_marseille","lat":43.30565,"lon":5.36499,"is_reserved":false,"is_disabled":true,"rental_uris":{"android":"levelo://app?vid=f8321878-9e9a-4e56-8919-d9cad8905f3c","ios":"levelo://app?vid=f8321878-9e9a-4e56-8919-d9cad8905f3c"},"vehicle_type_id":"4","last_reported":1743970184,"current_range_meters":10000,"station_id":"ce4bgs12rcd13ifvqcag","pricing_plan_id":"cebpf4jnsgd1na2vs0mg"},{"bike_id":"bcee7aa7-573b-420a-86bf-0dd92b51caed","system_id":"levelo_inurba_marseille","lat":43.271381,"lon":5.391919,"is_reserved":false,"is_disabled":false,"rental_uris":{"android":"levelo://app?vid=bcee7aa7-573b-420a-86bf-0dd92b51caed","ios":"levelo://app?vid=bcee7aa7-573b-420a-86bf-0dd92b51caed"},"vehicle_type_id":"4","last_reported":1743970184,"current_range_meters":9600,"station_id":"ce4bhhh2rcd13ifvqfl0","pricing_plan_id":"cebpf4jnsgd1na2vs0mg"},{"bike_id":"72543552-8188-4373-8db0-bd2f24c14e7b","system_id":"levelo_inurba_marseille","lat":43.32298,"lon":5.37653,"is_reserved":false,"is_disabled":false,"rental_uris":{"android":"levelo://app?vid=72543552-8188-4373-8db0-bd2f24c14e7b","ios":"levelo://app?vid=72543552-8188-4373-8db0-bd2f24c14e7b"},"vehicle_type_id":"4","last_reported":1743970184,"current_range_meters":10000,"station_id":"","pricing_plan_id":"cebpf4jnsgd1na2vs0mg"},{"bike_id":"aba5e844-f429-4fca-8fbd-34616f5265a2","system_id":"levelo_inurba_marseille","lat":43.28155,"lon":5.42643,"is_reserved":false,"is_disabled":false,"rental_uris":{"android":"levelo://app?vid=aba5e844-f429-4fca-8fbd-34616f5265a2","ios":"levelo://app?vid=aba5e844-f429-4fca-8fbd-34616f5265a2"},"vehicle_type_id":"4","last_reported":1743970184,"current_range_meters":10000,"station_id":"ce4bhnh2rcd13ifvqgug","pricing_plan_id":"cebpf4jnsgd1na2vs0mg"},{"bike_id":"a2c06b7a-67a9-4980-ab26-4556ab19b3ed","system_id":"levelo_inurba_marseille","lat":43.27825,"lon":5.39208,"is_reserved":false,"is_disabled":false,"rental_uris":{"android":"levelo://app?vid=a2c06b7a-67a9-4980-ab26-4556ab19b3ed","ios":"levelo://app?vid=a2c06b7a-67a9-4980-ab26-4556ab19b3ed"},"vehicle_type_id":"4","last_reported":1743970184,"current_range_meters":10000,"station_id":"ce4bhjp2rcd13ifvqga0","pricing_plan_id":"cebpf4jnsgd1na2vs0mg"},{"bike_id":"ebeb4749-70b5-4ea7-90f9-07d87fd83752","system_id":"levelo_inurba_marseille","lat":43.26784,"lon":5.39418,"is_reserved":false,"is_disabled":false,"rental_uris":{"android":"levelo://app?vid=ebeb4749-70b5-4ea7-90f9-07d87fd83752","ios":"levelo://app?vid=ebeb4749-70b5-4ea7-90f9-07d87fd83752"},"vehicle_type_id":"4","last_reported":1743970184,"current_range_meters":10000,"station_id":"ce4bhh12rcd13ifvqfg0","pricing_plan_id":"cebpf4jnsgd1na2vs0mg"},{"bike_id":"8882b9b4-6bd4-44ba-af0b-004e38de19d7","system_id":"levelo_inurba_marseille","lat":43.32477,"lon":5.3655,"is_reserved":false,"is_disabled":false,"rental_uris":{"android":"levelo://app?vid=8882b9b4-6bd4-44ba-af0b-004e38de19d7","ios":"levelo://app?vid=8882b9b4-6bd4-44ba-af0b-004e38de19d7"},"vehicle_type_id":"4","last_reported":1743970184,"current_range_meters":10000,"station_id":"ce4bhs12rcd13ifvqhvg","pricing_plan_id":"cebpf4jnsgd1na2vs0mg"},{"bike_id":"e41bd095-8d4f-4e45-bcd6-26277f901ef3","system_id":"levelo_inurba_marseille","lat":43.26805,"lon":5.40253,"is_reserved":false,"is_disabled":false,"rental_uris":{"android":"levelo://app?vid=e41bd095-8d4f-4e45-bcd6-26277f901ef3","ios":"levelo://app?vid=e41bd095-8d4f-4e45-bcd6-26277f901ef3"},"vehicle_type_id":"4","last_reported":1743970184,"current_range_meters":10800,"station_id":"ce501612rcd8frsf0b60","pricing_plan_id":"cebpf4jnsgd1na2vs0mg"},{"bike_id":"b92a4272-ab89-4a8d-8965-1e0d78a2b47d","system_id":"levelo_inurba_marseille","lat":43.292735,"lon":5.40117,"is_reserved":false,"is_disabled":false,"rental_uris":{"android":"levelo://app?vid=b92a4272-ab89-4a8d-8965-1e0d78a2b47d","ios":"levelo://app?vid=b92a4272-ab89-4a8d-8965-1e0d78a2b47d"},"vehicle_type_id":"4","last_reported":1743970184,"current_range_meters":10800,"station_id":"ce4bh312rcd13ifvqdk0","pricing_plan_id":"cebpf4jnsgd1na2vs0mg"},{"bike_id":"faad4ee6-9d62-4e9c-a38b-194f45701742","system_id":"levelo_inurba_marseille","lat":43.2732,"lon":5.39116,"is_reserved":false,"is_disabled":false,"rental_uris":{"android":"levelo://app?vid=faad4ee6-9d62-4e9c-a38b-194f45701742","ios":"levelo://app?vid=faad4ee6-9d62-4e9c-a38b-194f45701742"},"vehicle_type_id":"4","last_reported":1743970184,"current_range_meters":10800,"station_id":"ce4bhgp2rcd13ifvqfe0","pricing_plan_id":"cebpf4jnsgd1na2vs0mg"},{"bike_id":"b6d86e44-966b-48f4-9f8b-2f230da93799","system_id":"levelo_inurba_marseille","lat":43.2928,"lon":5.40112,"is_reserved":false,"is_disabled":false,"rental_uris":{"android":"levelo://app?vid=b6d86e44-966b-48f4-9f8b-2f230da93799","ios":"levelo://app?vid=b6d86e44-966b-48f4-9f8b-2f230da93799"},"vehicle_type_id":"4","last_reported":1743970184,"current_range_meters":10800,"station_id":"ce4bh312rcd13ifvqdk0","pricing_plan_id":"cebpf4jnsgd1na2vs0mg"},{"bike_id":"c76f6a46-f0f9-4490-838a-f90848bc4bdb","system_id":"levelo_inurba_marseille","lat":43.267782,"lon":5.394153,"is_reserved":false,"is_disabled":false,"rental_uris":{"android":"levelo://app?vid=c76f6a46-f0f9-4490-838a-f90848bc4bdb","ios":"levelo://app?vid=c76f6a46-f0f9-4490-838a-f90848bc4bdb"},"vehicle_type_id":"4","last_reported":1743970184,"current_range_meters":10800,"station_id":"ce4bh512rcd13ifvqe2g","pricing_plan_id":"cebpf4jnsgd1na2vs0mg"},{"bike_id":"f29aecaa-ade0-467c-986a-b65b06d523f4","system_id":"levelo_inurba_marseille","lat":43.28858,"lon":5.3934,"is_reserved":false,"is_disabled":true,"rental_uris":{"android":"levelo://app?vid=f29aecaa-ade0-467c-986a-b65b06d523f4","ios":"levelo://app?vid=f29aecaa-ade0-467c-986a-b65b06d523f4"},"vehicle_type_id":"4","last_reported":1743970184,"current_range_meters":10800,"station_id":"ce4bh2p2rcd13ifvqdi0","pricing_plan_id":"cebpf4jnsgd1na2vs0mg"},{"bike_id":"c3e6d442-6282-4c88-9f90-93d85aff9e76","system_id":"levelo_inurba_marseille","lat":43.28202,"lon":5.42623,"is_reserved":false,"is_disabled":false,"rental_uris":{"android":"levelo://app?vid=c3e6d442-6282-4c88-9f90-93d85aff9e76","ios":"levelo://app?vid=c3e6d442-6282-4c88-9f90-93d85aff9e76"},"vehicle_type_id":"4","last_reported":1743970184,"current_range_meters":10800,"station_id":"","pricing_plan_id":"cebpf4jnsgd1na2vs0mg"},{"bike_id":"8583c8d2-5fcd-4fdf-9771-9ad825d521c6","system_id":"levelo_inurba_marseille","lat":43.3014,"lon":5.37398,"is_reserved":false,"is_disabled":false,"rental_uris":{"android":"levelo://app?vid=8583c8d2-5fcd-4fdf-9771-9ad825d521c6","ios":"levelo://app?vid=8583c8d2-5fcd-4fdf-9771-9ad825d521c6"},"vehicle_type_id":"4","last_reported":1743970184,"current_range_meters":10800,"station_id":"ce4bgs92rcd13ifvqcc0","pricing_plan_id":"cebpf4jnsgd1na2vs0mg"},{"bike_id":"4a5a8189-e8d8-4c28-9179-9cf218e4ccba","system_id":"levelo_inurba_marseille","lat":43.28406,"lon":5.37524,"is_reserved":false,"is_disabled":false,"rental_uris":{"android":"levelo://app?vid=4a5a8189-e8d8-4c28-9179-9cf218e4ccba","ios":"levelo://app?vid=4a5a8189-e8d8-4c28-9179-9cf218e4ccba"},"vehicle_type_id":"4","last_reported":1743970184,"current_range_meters":10800,"station_id":"ce4bh412rcd13ifvqds0","pricing_plan_id":"cebpf4jnsgd1na2vs0mg"},{"bike_id":"004fceae-5e96-40ac-9467-fecf44312fbb","system_id":"levelo_inurba_marseille","lat":43.3059,"lon":5.39359,"is_reserved":false,"is_disabled":false,"rental_uris":{"android":"levelo://app?vid=004fceae-5e96-40ac-9467-fecf44312fbb","ios":"levelo://app?vid=004fceae-5e96-40ac-9467-fecf44312fbb"},"vehicle_type_id":"4","last_reported":1743970184,"current_range_meters":10800,"station_id":"ce4bh0p2rcd13ifvqd80","pricing_plan_id":"cebpf4jnsgd1na2vs0mg"},{"bike_id":"f64adc8f-ea0a-4a9e-bbd4-a1e2beaecb98","system_id":"levelo_inurba_marseille","lat":43.2743,"lon":5.39401,"is_reserved":false,"is_disabled":false,"rental_uris":{"android":"levelo://app?vid=f64adc8f-ea0a-4a9e-bbd4-a1e2beaecb98","ios":"levelo://app?vid=f64adc8f-ea0a-4a9e-bbd4-a1e2beaecb98"},"vehicle_type_id":"4","last_reported":1743970184,"current_range_meters":10800,"station_id":"ce4bhdp2rcd13ifvqf20","pricing_plan_id":"cebpf4jnsgd1na2vs0mg"},{"bike_id":"3b7d29b8-d0d2-407f-9667-56b31133e7b1","system_id":"levelo_inurba_marseille","lat":43.29896,"lon":5.43672,"is_reserved":false,"is_disabled":false,"rental_uris":{"android":"levelo://app?vid=3b7d29b8-d0d2-407f-9667-56b31133e7b1","ios":"levelo://app?vid=3b7d29b8-d0d2-407f-9667-56b31133e7b1"},"vehicle_type_id":"4","last_reported":1743970184,"current_range_meters":10800,"station_id":"ce4bhpp2rcd13ifvqhfg","pricing_plan_id":"cebpf4jnsgd1na2vs0mg"},{"bike_id":"9b912e78-6523-49fd-ad35-32ee8656508c","system_id":"levelo_inurba_marseille","lat":43.31482,"lon":5.37311,"is_reserved":false,"is_disabled":false,"rental_uris":{"android":"levelo://app?vid=9b912e78-6523-49fd-ad35-32ee8656508c","ios":"levelo://app?vid=9b912e78-6523-49fd-ad35-32ee8656508c"},"vehicle_type_id":"4","last_reported":1743970184,"current_range_meters":10800,"station_id":"ce4bgt12rcd13ifvqcd0","pricing_plan_id":"cebpf4jnsgd1na2vs0mg"},{"bike_id":"19379d7b-b3b4-46ff-9af1-6370bf06ecc3","system_id":"levelo_inurba_marseille","lat":43.28997,"lon":5.35611,"is_reserved":false,"is_disabled":true,"rental_uris":{"android":"levelo://app?vid=19379d7b-b3b4-46ff-9af1-6370bf06ecc3","ios":"levelo://app?vid=19379d7b-b3b4-46ff-9af1-6370bf06ecc3"},"vehicle_type_id":"4","last_reported":1743970184,"current_range_meters":10800,"station_id":"ce4bhb92rcd13ifvqen0","pricing_plan_id":"cebpf4jnsgd1na2vs0mg"},{"bike_id":"d0151f2b-248d-414b-a0f1-5f5d41db74f7","system_id":"levelo_inurba_marseille","lat":43.29534,"lon":5.42282,"is_reserved":false,"is_disabled":false,"rental_uris":{"android":"levelo://app?vid=d0151f2b-248d-414b-a0f1-5f5d41db74f7","ios":"levelo://app?vid=d0151f2b-248d-414b-a0f1-5f5d41db74f7"},"vehicle_type_id":"4","last_reported":1743970184,"current_range_meters":10800,"station_id":"ce4bhph2rcd13ifvqhdg","pricing_plan_id":"cebpf4jnsgd1na2vs0mg"},{"bike_id":"24c99463-ed01-407f-8494-a4cac581c497","system_id":"levelo_inurba_marseille","lat":43.25719,"lon":5.41111,"is_reserved":false,"is_disabled":false,"rental_uris":{"android":"levelo://app?vid=24c99463-ed01-407f-8494-a4cac581c497","ios":"levelo://app?vid=24c99463-ed01-407f-8494-a4cac581c497"},"vehicle_type_id":"4","last_reported":1743970184,"current_range_meters":10800,"station_id":"ce4bhkp2rcd13ifvqgd0","pricing_plan_id":"cebpf4jnsgd1na2vs0mg"},{"bike_id":"8a38320c-a733-4cf5-8c8e-152497fe8f8f","system_id":"levelo_inurba_marseille","lat":43.28159,"lon":5.42638,"is_reserved":false,"is_disabled":false,"rental_uris":{"android":"levelo://app?vid=8a38320c-a733-4cf5-8c8e-152497fe8f8f","ios":"levelo://app?vid=8a38320c-a733-4cf5-8c8e-152497fe8f8f"},"vehicle_type_id":"4","last_reported":1743970184,"current_range_meters":11200,"station_id":"ce4bhnh2rcd13ifvqgug","pricing_plan_id":"cebpf4jnsgd1na2vs0mg"},{"bike_id":"ca7f05e3-3cf5-4c2f-8da5-f8b5ad8f92dc","system_id":"levelo_inurba_marseille","lat":43.30431,"lon":5.38893,"is_reserved":false,"is_disabled":false,"rental_uris":{"android":"levelo://app?vid=ca7f05e3-3cf5-4c2f-8da5-f8b5ad8f92dc","ios":"levelo://app?vid=ca7f05e3-3cf5-4c2f-8da5-f8b5ad8f92dc"},"vehicle_type_id":"4","last_reported":1743970184,"current_range_meters":11200,"station_id":"ce4bgk12rcd13ifvqbi0","pricing_plan_id":"cebpf4jnsgd1na2vs0mg"},{"bike_id":"6ee85d75-9576-48a6-9ea1-92da0dac2d73","system_id":"levelo_inurba_marseille","lat":43.30822,"lon":5.43517,"is_reserved":false,"is_disabled":false,"rental_uris":{"android":"levelo://app?vid=6ee85d75-9576-48a6-9ea1-92da0dac2d73","ios":"levelo://app?vid=6ee85d75-9576-48a6-9ea1-92da0dac2d73"},"vehicle_type_id":"4","last_reported":1743970184,"current_range_meters":11200,"station_id":"ce4bhph2rcd13ifvqheg","pricing_plan_id":"cebpf4jnsgd1na2vs0mg"},{"bike_id":"0e5fb2b7-a7c3-435d-90dc-bb9cdaf6fd4c","system_id":"levelo_inurba_marseille","lat":43.29009,"lon":5.38126,"is_reserved":false,"is_disabled":false,"rental_uris":{"android":"levelo://app?vid=0e5fb2b7-a7c3-435d-90dc-bb9cdaf6fd4c","ios":"levelo://app?vid=0e5fb2b7-a7c3-435d-90dc-bb9cdaf6fd4c"},"vehicle_type_id":"4","last_reported":1743970184,"current_range_meters":11200,"station_id":"ce4bh4p2rcd13ifvqe1g","pricing_plan_id":"cebpf4jnsgd1na2vs0mg"},{"bike_id":"3784bc1f-5f12-4491-be7e-21df31be6317","system_id":"levelo_inurba_marseille","lat":43.24386,"lon":5.3706,"is_reserved":false,"is_disabled":false,"rental_uris":{"android":"levelo://app?vid=3784bc1f-5f12-4491-be7e-21df31be6317","ios":"levelo://app?vid=3784bc1f-5f12-4491-be7e-21df31be6317"},"vehicle_type_id":"4","last_reported":1743970184,"current_range_meters":11200,"station_id":"ce4bhhh2rcd13ifvqfk0","pricing_plan_id":"cebpf4jnsgd1na2vs0mg"},{"bike_id":"63e1d95c-79be-4b82-a868-e312bf827ceb","system_id":"levelo_inurba_marseille","lat":43.29037,"lon":5.38638,"is_reserved":false,"is_disabled":true,"rental_uris":{"android":"levelo://app?vid=63e1d95c-79be-4b82-a868-e312bf827ceb","ios":"levelo://app?vid=63e1d95c-79be-4b82-a868-e312bf827ceb"},"vehicle_type_id":"4","last_reported":1743970184,"current_range_meters":11200,"station_id":"ce4bh4p2rcd13ifvqe0g","pricing_plan_id":"cebpf4jnsgd1na2vs0mg"},{"bike_id":"37566333-73c3-4404-ba7c-c72222dd323d","system_id":"levelo_inurba_marseille","lat":43.29006,"lon":5.3812,"is_reserved":false,"is_disabled":false,"rental_uris":{"android":"levelo://app?vid=37566333-73c3-4404-ba7c-c72222dd323d","ios":"levelo://app?vid=37566333-73c3-4404-ba7c-c72222dd323d"},"vehicle_type_id":"4","last_reported":1743970184,"current_range_meters":11200,"station_id":"ce4bh4p2rcd13ifvqe1g","pricing_plan_id":"cebpf4jnsgd1na2vs0mg"},{"bike_id":"33448e42-2dee-4e4d-933a-57b94ec14f0c","system_id":"levelo_inurba_marseille","lat":43.29183,"lon":5.35575,"is_reserved":false,"is_disabled":true,"rental_uris":{"android":"levelo://app?vid=33448e42-2dee-4e4d-933a-57b94ec14f0c","ios":"levelo://app?vid=33448e42-2dee-4e4d-933a-57b94ec14f0c"},"vehicle_type_id":"4","last_reported":1743970184,"current_range_meters":11200,"station_id":"","pricing_plan_id":"cebpf4jnsgd1na2vs0mg"},{"bike_id":"7c8e7c6a-d570-4ee6-a6d5-20863f6acdda","system_id":"levelo_inurba_marseille","lat":43.29505,"lon":5.39031,"is_reserved":false,"is_disabled":false,"rental_uris":{"android":"levelo://app?vid=7c8e7c6a-d570-4ee6-a6d5-20863f6acdda","ios":"levelo://app?vid=7c8e7c6a-d570-4ee6-a6d5-20863f6acdda"},"vehicle_type_id":"4","last_reported":1743970184,"current_range_meters":11200,"station_id":"ce4bh3p2rcd13ifvqdp0","pricing_plan_id":"cebpf4jnsgd1na2vs0mg"},{"bike_id":"bb701c96-99bd-4860-8418-e305e194dffb","system_id":"levelo_inurba_marseille","lat":43.29017,"lon":5.38145,"is_reserved":false,"is_disabled":false,"rental_uris":{"android":"levelo://app?vid=bb701c96-99bd-4860-8418-e305e194dffb","ios":"levelo://app?vid=bb701c96-99bd-4860-8418-e305e194dffb"},"vehicle_type_id":"4","last_reported":1743970184,"current_range_meters":11200,"station_id":"ce4bh4p2rcd13ifvqe1g","pricing_plan_id":"cebpf4jnsgd1na2vs0mg"},{"bike_id":"aee908d0-6a9c-46ca-9865-a3168a34f2de","system_id":"levelo_inurba_marseille","lat":43.31168,"lon":5.3872,"is_reserved":false,"is_disabled":false,"rental_uris":{"android":"levelo://app?vid=aee908d0-6a9c-46ca-9865-a3168a34f2de","ios":"levelo://app?vid=aee908d0-6a9c-46ca-9865-a3168a34f2de"},"vehicle_type_id":"4","last_reported":1743970184,"current_range_meters":11200,"station_id":"ce4bgv12rcd13ifvqcp0","pricing_plan_id":"cebpf4jnsgd1na2vs0mg"},{"bike_id":"8539495d-a8db-48e8-999c-a0eec7f95200","system_id":"levelo_inurba_marseille","lat":43.25484,"lon":5.37652,"is_reserved":false,"is_disabled":true,"rental_uris":{"android":"levelo://app?vid=8539495d-a8db-48e8-999c-a0eec7f95200","ios":"levelo://app?vid=8539495d-a8db-48e8-999c-a0eec7f95200"},"vehicle_type_id":"4","last_reported":1743970184,"current_range_meters":11200,"station_id":"ce4bhh12rcd13ifvqff0","pricing_plan_id":"cebpf4jnsgd1na2vs0mg"},{"bike_id":"a409c3f0-8991-4228-afb5-57b19bb06658","system_id":"levelo_inurba_marseille","lat":43.32401,"lon":5.38997,"is_reserved":false,"is_disabled":false,"rental_uris":{"android":"levelo://app?vid=a409c3f0-8991-4228-afb5-57b19bb06658","ios":"levelo://app?vid=a409c3f0-8991-4228-afb5-57b19bb06658"},"vehicle_type_id":"4","last_reported":1743970184,"current_range_meters":11600,"station_id":"","pricing_plan_id":"cebpf4jnsgd1na2vs0mg"},{"bike_id":"f72a0969-fb19-4d3a-90e9-19756f509dbb","system_id":"levelo_inurba_marseille","lat":43.31292,"lon":5.40175,"is_reserved":false,"is_disabled":false,"rental_uris":{"android":"levelo://app?vid=f72a0969-fb19-4d3a-90e9-19756f509dbb","ios":"levelo://app?vid=f72a0969-fb19-4d3a-90e9-19756f509dbb"},"vehicle_type_id":"4","last_reported":1743970184,"current_range_meters":11600,"station_id":"ce4bh092rcd13ifvqd30","pricing_plan_id":"cebpf4jnsgd1na2vs0mg"},{"bike_id":"e4d4dc7a-abcd-4c1d-8017-887f937d011f","system_id":"levelo_inurba_marseille","lat":43.29569,"lon":5.3998,"is_reserved":false,"is_disabled":true,"rental_uris":{"android":"levelo://app?vid=e4d4dc7a-abcd-4c1d-8017-887f937d011f","ios":"levelo://app?vid=e4d4dc7a-abcd-4c1d-8017-887f937d011f"},"vehicle_type_id":"4","last_reported":1743970184,"current_range_meters":11600,"station_id":"ce4bh312rcd13ifvqdj0","pricing_plan_id":"cebpf4jnsgd1na2vs0mg"},{"bike_id":"6dfdfc24-a614-4b08-8bf5-d78e6f85c950","system_id":"levelo_inurba_marseille","lat":43.28152,"lon":5.42628,"is_reserved":false,"is_disabled":false,"rental_uris":{"android":"levelo://app?vid=6dfdfc24-a614-4b08-8bf5-d78e6f85c950","ios":"levelo://app?vid=6dfdfc24-a614-4b08-8bf5-d78e6f85c950"},"vehicle_type_id":"4","last_reported":1743970184,"current_range_meters":11600,"station_id":"ce4bhnh2rcd13ifvqgug","pricing_plan_id":"cebpf4jnsgd1na2vs0mg"},{"bike_id":"80c64622-4b7d-4829-86e4-32d8ef10adb5","system_id":"levelo_inurba_marseille","lat":43.28154,"lon":5.42643,"is_reserved":false,"is_disabled":false,"rental_uris":{"android":"levelo://app?vid=80c64622-4b7d-4829-86e4-32d8ef10adb5","ios":"levelo://app?vid=80c64622-4b7d-4829-86e4-32d8ef10adb5"},"vehicle_type_id":"4","last_reported":1743970184,"current_range_meters":11600,"station_id":"ce4bhnh2rcd13ifvqgug","pricing_plan_id":"cebpf4jnsgd1na2vs0mg"},{"bike_id":"d68c4d9e-a51e-4e1c-80bc-f69a06d4473f","system_id":"levelo_inurba_marseille","lat":43.26934,"lon":5.40267,"is_reserved":false,"is_disabled":false,"rental_uris":{"android":"levelo://app?vid=d68c4d9e-a51e-4e1c-80bc-f69a06d4473f","ios":"levelo://app?vid=d68c4d9e-a51e-4e1c-80bc-f69a06d4473f"},"vehicle_type_id":"4","last_reported":1743970184,"current_range_meters":12000,"station_id":"cjm6bp8fraef2m0cb0m0","pricing_plan_id":"cebpf4jnsgd1na2vs0mg"},{"bike_id":"1db98c6b-d13e-4e8a-809c-143145482c65","system_id":"levelo_inurba_marseille","lat":43.27577,"lon":5.38418,"is_reserved":false,"is_disabled":false,"rental_uris":{"android":"levelo://app?vid=1db98c6b-d13e-4e8a-809c-143145482c65","ios":"levelo://app?vid=1db98c6b-d13e-4e8a-809c-143145482c65"},"vehicle_type_id":"4","last_reported":1743970184,"current_range_meters":11600,"station_id":"ce4bhh92rcd13ifvqfi0","pricing_plan_id":"cebpf4jnsgd1na2vs0mg"},{"bike_id":"1e81c4d2-6637-42bf-8d6d-5d37c0fe2360","system_id":"levelo_inurba_marseille","lat":43.32103,"lon":5.36767,"is_reserved":false,"is_disabled":false,"rental_uris":{"android":"levelo://app?vid=1e81c4d2-6637-42bf-8d6d-5d37c0fe2360","ios":"levelo://app?vid=1e81c4d2-6637-42bf-8d6d-5d37c0fe2360"},"vehicle_type_id":"4","last_reported":1743970184,"current_range_meters":12000,"station_id":"ce4bhrh2rcd13ifvqhug","pricing_plan_id":"cebpf4jnsgd1na2vs0mg"},{"bike_id":"a5bd5abf-e64b-49fb-9823-db9745ea97e7","system_id":"levelo_inurba_marseille","lat":43.28946,"lon":5.36621,"is_reserved":false,"is_disabled":true,"rental_uris":{"android":"levelo://app?vid=a5bd5abf-e64b-49fb-9823-db9745ea97e7","ios":"levelo://app?vid=a5bd5abf-e64b-49fb-9823-db9745ea97e7"},"vehicle_type_id":"4","last_reported":1743970184,"current_range_meters":12000,"station_id":"ce4bhap2rcd13ifvqek0","pricing_plan_id":"cebpf4jnsgd1na2vs0mg"},{"bike_id":"2abbb6b2-05a2-42b5-aaed-24480306c4a9","system_id":"levelo_inurba_marseille","lat":43.30593,"lon":5.39357,"is_reserved":false,"is_disabled":false,"rental_uris":{"android":"levelo://app?vid=2abbb6b2-05a2-42b5-aaed-24480306c4a9","ios":"levelo://app?vid=2abbb6b2-05a2-42b5-aaed-24480306c4a9"},"vehicle_type_id":"4","last_reported":1743970184,"current_range_meters":12000,"station_id":"ce4bh0p2rcd13ifvqd80","pricing_plan_id":"cebpf4jnsgd1na2vs0mg"},{"bike_id":"a8644010-a3c7-432d-96c7-ec0bc0fac985","system_id":"levelo_inurba_marseille","lat":43.30242,"lon":5.40042,"is_reserved":false,"is_disabled":false,"rental_uris":{"android":"levelo://app?vid=a8644010-a3c7-432d-96c7-ec0bc0fac985","ios":"levelo://app?vid=a8644010-a3c7-432d-96c7-ec0bc0fac985"},"vehicle_type_id":"4","last_reported":1743970184,"current_range_meters":15200,"station_id":"ce4bgvh2rcd13ifvqcs0","pricing_plan_id":"cebpf4jnsgd1na2vs0mg"},{"bike_id":"30ec374d-d857-4c15-8033-637bc545dc82","system_id":"levelo_inurba_marseille","lat":43.29874,"lon":5.39741,"is_reserved":false,"is_disabled":false,"rental_uris":{"android":"levelo://app?vid=30ec374d-d857-4c15-8033-637bc545dc82","ios":"levelo://app?vid=30ec374d-d857-4c15-8033-637bc545dc82"},"vehicle_type_id":"4","last_reported":1743970184,"current_range_meters":12000,"station_id":"ce4bh0h2rcd13ifvqd50","pricing_plan_id":"cebpf4jnsgd1na2vs0mg"},{"bike_id":"3b7348d2-6450-4cc0-82e5-285281fd4a05","system_id":"levelo_inurba_marseille","lat":43.299648,"lon":5.384954,"is_reserved":false,"is_disabled":false,"rental_uris":{"android":"levelo://app?vid=3b7348d2-6450-4cc0-82e5-285281fd4a05","ios":"levelo://app?vid=3b7348d2-6450-4cc0-82e5-285281fd4a05"},"vehicle_type_id":"4","last_reported":1743970184,"current_range_meters":12000,"station_id":"ce4bhip2rcd13ifvqft0","pricing_plan_id":"cebpf4jnsgd1na2vs0mg"},{"bike_id":"94eb28cf-5fe3-455d-9567-58d509e6aa8c","system_id":"levelo_inurba_marseille","lat":43.28562,"lon":5.39504,"is_reserved":false,"is_disabled":false,"rental_uris":{"android":"levelo://app?vid=94eb28cf-5fe3-455d-9567-58d509e6aa8c","ios":"levelo://app?vid=94eb28cf-5fe3-455d-9567-58d509e6aa8c"},"vehicle_type_id":"4","last_reported":1743970184,"current_range_meters":11600,"station_id":"ce4bh292rcd13ifvqdg0","pricing_plan_id":"cebpf4jnsgd1na2vs0mg"},{"bike_id":"6f6d6376-8b5f-4fba-bf7f-7c538d406caf","system_id":"levelo_inurba_marseille","lat":43.26765,"lon":5.3943,"is_reserved":false,"is_disabled":false,"rental_uris":{"android":"levelo://app?vid=6f6d6376-8b5f-4fba-bf7f-7c538d406caf","ios":"levelo://app?vid=6f6d6376-8b5f-4fba-bf7f-7c538d406caf"},"vehicle_type_id":"4","last_reported":1743970184,"current_range_meters":12000,"station_id":"ce4bhh12rcd13ifvqfg0","pricing_plan_id":"cebpf4jnsgd1na2vs0mg"},{"bike_id":"d4b23ed4-58b0-45de-950a-b74066853d94","system_id":"levelo_inurba_marseille","lat":43.2512,"lon":5.40317,"is_reserved":false,"is_disabled":false,"rental_uris":{"android":"levelo://app?vid=d4b23ed4-58b0-45de-950a-b74066853d94","ios":"levelo://app?vid=d4b23ed4-58b0-45de-950a-b74066853d94"},"vehicle_type_id":"4","last_reported":1743970184,"current_range_meters":12400,"station_id":"ce4bhlh2rcd13ifvqgig","pricing_plan_id":"cebpf4jnsgd1na2vs0mg"},{"bike_id":"d6c3d7f4-760c-422c-8667-25e15a7934b3","system_id":"levelo_inurba_marseille","lat":43.30797,"lon":5.374,"is_reserved":false,"is_disabled":false,"rental_uris":{"android":"levelo://app?vid=d6c3d7f4-760c-422c-8667-25e15a7934b3","ios":"levelo://app?vid=d6c3d7f4-760c-422c-8667-25e15a7934b3"},"vehicle_type_id":"4","last_reported":1743970184,"current_range_meters":12400,"station_id":"","pricing_plan_id":"cebpf4jnsgd1na2vs0mg"},{"bike_id":"34f62bea-f2eb-412e-8f55-bf9283ccb2a7","system_id":"levelo_inurba_marseille","lat":43.28331,"lon":5.38112,"is_reserved":false,"is_disabled":false,"rental_uris":{"android":"levelo://app?vid=34f62bea-f2eb-412e-8f55-bf9283ccb2a7","ios":"levelo://app?vid=34f62bea-f2eb-412e-8f55-bf9283ccb2a7"},"vehicle_type_id":"4","last_reported":1743970184,"current_range_meters":12400,"station_id":"ce4bh412rcd13ifvqdr0","pricing_plan_id":"cebpf4jnsgd1na2vs0mg"},{"bike_id":"5726a46d-72a9-43a3-aa16-2ba78e26437d","system_id":"levelo_inurba_marseille","lat":43.26811,"lon":5.40249,"is_reserved":false,"is_disabled":false,"rental_uris":{"android":"levelo://app?vid=5726a46d-72a9-43a3-aa16-2ba78e26437d","ios":"levelo://app?vid=5726a46d-72a9-43a3-aa16-2ba78e26437d"},"vehicle_type_id":"4","last_reported":1743970184,"current_range_meters":12400,"station_id":"ce501612rcd8frsf0b60","pricing_plan_id":"cebpf4jnsgd1na2vs0mg"},{"bike_id":"1caa313b-bb8f-48c3-ad86-14dfa98d6a62","system_id":"levelo_inurba_marseille","lat":43.25583,"lon":5.38252,"is_reserved":false,"is_disabled":true,"rental_uris":{"android":"levelo://app?vid=1caa313b-bb8f-48c3-ad86-14dfa98d6a62","ios":"levelo://app?vid=1caa313b-bb8f-48c3-ad86-14dfa98d6a62"},"vehicle_type_id":"4","last_reported":1743970184,"current_range_meters":12400,"station_id":"ce4bhih2rcd13ifvqfs0","pricing_plan_id":"cebpf4jnsgd1na2vs0mg"},{"bike_id":"51f5e7bb-7a4b-4029-a001-ac3e8ae17160","system_id":"levelo_inurba_marseille","lat":43.29024,"lon":5.38653,"is_reserved":false,"is_disabled":false,"rental_uris":{"android":"levelo://app?vid=51f5e7bb-7a4b-4029-a001-ac3e8ae17160","ios":"levelo://app?vid=51f5e7bb-7a4b-4029-a001-ac3e8ae17160"},"vehicle_type_id":"4","last_reported":1743970184,"current_range_meters":12400,"station_id":"ce4bh4p2rcd13ifvqe0g","pricing_plan_id":"cebpf4jnsgd1na2vs0mg"},{"bike_id":"a959694d-18ce-4d80-917f-23c91ed81065","system_id":"levelo_inurba_marseille","lat":43.299038,"lon":5.436701,"is_reserved":false,"is_disabled":false,"rental_uris":{"android":"levelo://app?vid=a959694d-18ce-4d80-917f-23c91ed81065","ios":"levelo://app?vid=a959694d-18ce-4d80-917f-23c91ed81065"},"vehicle_type_id":"4","last_reported":1743970184,"current_range_meters":12400,"station_id":"ce4bhpp2rcd13ifvqhfg","pricing_plan_id":"cebpf4jnsgd1na2vs0mg"},{"bike_id":"a1913776-e0d9-47a2-9906-ec745965407d","system_id":"levelo_inurba_marseille","lat":43.31273,"lon":5.40178,"is_reserved":false,"is_disabled":false,"rental_uris":{"android":"levelo://app?vid=a1913776-e0d9-47a2-9906-ec745965407d","ios":"levelo://app?vid=a1913776-e0d9-47a2-9906-ec745965407d"},"vehicle_type_id":"4","last_reported":1743970184,"current_range_meters":12400,"station_id":"ce4bh092rcd13ifvqd30","pricing_plan_id":"cebpf4jnsgd1na2vs0mg"},{"bike_id":"5500f75a-6970-4709-a65f-7ddb0656918e","system_id":"levelo_inurba_marseille","lat":43.28669,"lon":5.36341,"is_reserved":false,"is_disabled":false,"rental_uris":{"android":"levelo://app?vid=5500f75a-6970-4709-a65f-7ddb0656918e","ios":"levelo://app?vid=5500f75a-6970-4709-a65f-7ddb0656918e"},"vehicle_type_id":"4","last_reported":1743970184,"current_range_meters":12400,"station_id":"ce4bhah2rcd13ifvqej0","pricing_plan_id":"cebpf4jnsgd1na2vs0mg"},{"bike_id":"bebeb4f3-aae2-41b0-82ec-96e0ee8a57fa","system_id":"levelo_inurba_marseille","lat":43.32372,"lon":5.36755,"is_reserved":false,"is_disabled":false,"rental_uris":{"android":"levelo://app?vid=bebeb4f3-aae2-41b0-82ec-96e0ee8a57fa","ios":"levelo://app?vid=bebeb4f3-aae2-41b0-82ec-96e0ee8a57fa"},"vehicle_type_id":"4","last_reported":1743970184,"current_range_meters":12400,"station_id":"ce4bhsh2rcd13ifvqi2g","pricing_plan_id":"cebpf4jnsgd1na2vs0mg"},{"bike_id":"900fc72b-0a40-4453-bbf8-8501f7f8f100","system_id":"levelo_inurba_marseille","lat":43.28472,"lon":5.3842,"is_reserved":false,"is_disabled":false,"rental_uris":{"android":"levelo://app?vid=900fc72b-0a40-4453-bbf8-8501f7f8f100","ios":"levelo://app?vid=900fc72b-0a40-4453-bbf8-8501f7f8f100"},"vehicle_type_id":"4","last_reported":1743970184,"current_range_meters":12800,"station_id":"ce4bh512rcd13ifvqe3g","pricing_plan_id":"cebpf4jnsgd1na2vs0mg"},{"bike_id":"95ce5e46-3547-4cdb-b4a6-7ceb52857738","system_id":"levelo_inurba_marseille","lat":43.289368,"lon":5.364346,"is_reserved":false,"is_disabled":false,"rental_uris":{"android":"levelo://app?vid=95ce5e46-3547-4cdb-b4a6-7ceb52857738","ios":"levelo://app?vid=95ce5e46-3547-4cdb-b4a6-7ceb52857738"},"vehicle_type_id":"4","last_reported":1743970184,"current_range_meters":12400,"station_id":"ce4bh8p2rcd13ifvqeb0","pricing_plan_id":"cebpf4jnsgd1na2vs0mg"},{"bike_id":"86f6d02b-6bb5-4ccb-99f4-841700fe01af","system_id":"levelo_inurba_marseille","lat":43.26944,"lon":5.40243,"is_reserved":false,"is_disabled":false,"rental_uris":{"android":"levelo://app?vid=86f6d02b-6bb5-4ccb-99f4-841700fe01af","ios":"levelo://app?vid=86f6d02b-6bb5-4ccb-99f4-841700fe01af"},"vehicle_type_id":"4","last_reported":1743970184,"current_range_meters":12800,"station_id":"cjm6bp8fraef2m0cb0m0","pricing_plan_id":"cebpf4jnsgd1na2vs0mg"},{"bike_id":"d893a78a-9318-483a-996e-9bec91fd98dc","system_id":"levelo_inurba_marseille","lat":43.31725,"lon":5.43687,"is_reserved":false,"is_disabled":false,"rental_uris":{"android":"levelo://app?vid=d893a78a-9318-483a-996e-9bec91fd98dc","ios":"levelo://app?vid=d893a78a-9318-483a-996e-9bec91fd98dc"},"vehicle_type_id":"4","last_reported":1743970184,"current_range_meters":12800,"station_id":"ce4bhp92rcd13ifvqhcg","pricing_plan_id":"cebpf4jnsgd1na2vs0mg"},{"bike_id":"e62d8178-b8e6-41c0-a71c-8a2629180d3c","system_id":"levelo_inurba_marseille","lat":43.26923,"lon":5.40281,"is_reserved":false,"is_disabled":false,"rental_uris":{"android":"levelo://app?vid=e62d8178-b8e6-41c0-a71c-8a2629180d3c","ios":"levelo://app?vid=e62d8178-b8e6-41c0-a71c-8a2629180d3c"},"vehicle_type_id":"4","last_reported":1743970184,"current_range_meters":12800,"station_id":"cjm6bp8fraef2m0cb0m0","pricing_plan_id":"cebpf4jnsgd1na2vs0mg"},{"bike_id":"2061dd40-ef87-435b-840f-81e97f77f291","system_id":"levelo_inurba_marseille","lat":43.28485,"lon":5.38561,"is_reserved":false,"is_disabled":false,"rental_uris":{"android":"levelo://app?vid=2061dd40-ef87-435b-840f-81e97f77f291","ios":"levelo://app?vid=2061dd40-ef87-435b-840f-81e97f77f291"},"vehicle_type_id":"4","last_reported":1743970184,"current_range_meters":12800,"station_id":"ce4bh8p2rcd13ifvqeb0","pricing_plan_id":"cebpf4jnsgd1na2vs0mg"},{"bike_id":"891f1f09-6759-480b-9d4f-0756d59abf11","system_id":"levelo_inurba_marseille","lat":43.22505,"lon":5.34786,"is_reserved":false,"is_disabled":false,"rental_uris":{"android":"levelo://app?vid=891f1f09-6759-480b-9d4f-0756d59abf11","ios":"levelo://app?vid=891f1f09-6759-480b-9d4f-0756d59abf11"},"vehicle_type_id":"4","last_reported":1743970184,"current_range_meters":12800,"station_id":"ce4bh612rcd13ifvqe6g","pricing_plan_id":"cebpf4jnsgd1na2vs0mg"},{"bike_id":"acaf3194-5742-4ad0-b3a2-9e5b75d52775","system_id":"levelo_inurba_marseille","lat":43.29425,"lon":5.38626,"is_reserved":false,"is_disabled":false,"rental_uris":{"android":"levelo://app?vid=acaf3194-5742-4ad0-b3a2-9e5b75d52775","ios":"levelo://app?vid=acaf3194-5742-4ad0-b3a2-9e5b75d52775"},"vehicle_type_id":"4","last_reported":1743970184,"current_range_meters":13600,"station_id":"ce4bh2h2rcd13ifvqdh0","pricing_plan_id":"cebpf4jnsgd1na2vs0mg"},{"bike_id":"4af5a181-5de5-4654-b994-747d18990ef1","system_id":"levelo_inurba_marseille","lat":43.29437,"lon":5.39741,"is_reserved":false,"is_disabled":false,"rental_uris":{"android":"levelo://app?vid=4af5a181-5de5-4654-b994-747d18990ef1","ios":"levelo://app?vid=4af5a181-5de5-4654-b994-747d18990ef1"},"vehicle_type_id":"4","last_reported":1743970184,"current_range_meters":13600,"station_id":"ce4bh3h2rcd13ifvqdo0","pricing_plan_id":"cebpf4jnsgd1na2vs0mg"},{"bike_id":"bc95c693-17f0-42a7-8c4f-5e36b7c48978","system_id":"levelo_inurba_marseille","lat":43.30783,"lon":5.37653,"is_reserved":false,"is_disabled":false,"rental_uris":{"android":"levelo://app?vid=bc95c693-17f0-42a7-8c4f-5e36b7c48978","ios":"levelo://app?vid=bc95c693-17f0-42a7-8c4f-5e36b7c48978"},"vehicle_type_id":"4","last_reported":1743970184,"current_range_meters":13600,"station_id":"ce4bgv92rcd13ifvqcq0","pricing_plan_id":"cebpf4jnsgd1na2vs0mg"},{"bike_id":"cc7d32fb-1fb5-4327-b7a2-7972f21dbb5b","system_id":"levelo_inurba_marseille","lat":43.26766,"lon":5.39413,"is_reserved":false,"is_disabled":false,"rental_uris":{"android":"levelo://app?vid=cc7d32fb-1fb5-4327-b7a2-7972f21dbb5b","ios":"levelo://app?vid=cc7d32fb-1fb5-4327-b7a2-7972f21dbb5b"},"vehicle_type_id":"4","last_reported":1743970184,"current_range_meters":13600,"station_id":"ce4bhh12rcd13ifvqfg0","pricing_plan_id":"cebpf4jnsgd1na2vs0mg"},{"bike_id":"672083c5-5262-4705-8ed2-1e985f3ea8bb","system_id":"levelo_inurba_marseille","lat":43.30426,"lon":5.39756,"is_reserved":false,"is_disabled":false,"rental_uris":{"android":"levelo://app?vid=672083c5-5262-4705-8ed2-1e985f3ea8bb","ios":"levelo://app?vid=672083c5-5262-4705-8ed2-1e985f3ea8bb"},"vehicle_type_id":"4","last_reported":1743970184,"current_range_meters":13600,"station_id":"ce4bh092rcd13ifvqd20","pricing_plan_id":"cebpf4jnsgd1na2vs0mg"},{"bike_id":"222e1e00-578b-4512-8bd3-f56c6fa61730","system_id":"levelo_inurba_marseille","lat":43.23955,"lon":5.36635,"is_reserved":false,"is_disabled":true,"rental_uris":{"android":"levelo://app?vid=222e1e00-578b-4512-8bd3-f56c6fa61730","ios":"levelo://app?vid=222e1e00-578b-4512-8bd3-f56c6fa61730"},"vehicle_type_id":"4","last_reported":1743970184,"current_range_meters":13600,"station_id":"ce4bhi12rcd13ifvqfp0","pricing_plan_id":"cebpf4jnsgd1na2vs0mg"},{"bike_id":"84759aad-57e1-4587-bee9-0135d28a8cc3","system_id":"levelo_inurba_marseille","lat":43.26931,"lon":5.40252,"is_reserved":false,"is_disabled":false,"rental_uris":{"android":"levelo://app?vid=84759aad-57e1-4587-bee9-0135d28a8cc3","ios":"levelo://app?vid=84759aad-57e1-4587-bee9-0135d28a8cc3"},"vehicle_type_id":"4","last_reported":1743970184,"current_range_meters":13600,"station_id":"cjm6bp8fraef2m0cb0m0","pricing_plan_id":"cebpf4jnsgd1na2vs0mg"},{"bike_id":"e4f68006-eba3-46dd-b011-8c262c542dfe","system_id":"levelo_inurba_marseille","lat":43.27569,"lon":5.38432,"is_reserved":false,"is_disabled":false,"rental_uris":{"android":"levelo://app?vid=e4f68006-eba3-46dd-b011-8c262c542dfe","ios":"levelo://app?vid=e4f68006-eba3-46dd-b011-8c262c542dfe"},"vehicle_type_id":"4","last_reported":1743970184,"current_range_meters":14000,"station_id":"ce4bhh92rcd13ifvqfi0","pricing_plan_id":"cebpf4jnsgd1na2vs0mg"},{"bike_id":"1193d21e-5d20-4e82-a914-65683e3843b0","system_id":"levelo_inurba_marseille","lat":43.27411,"lon":5.39376,"is_reserved":false,"is_disabled":false,"rental_uris":{"android":"levelo://app?vid=1193d21e-5d20-4e82-a914-65683e3843b0","ios":"levelo://app?vid=1193d21e-5d20-4e82-a914-65683e3843b0"},"vehicle_type_id":"4","last_reported":1743970184,"current_range_meters":14000,"station_id":"ce4bhdp2rcd13ifvqf20","pricing_plan_id":"cebpf4jnsgd1na2vs0mg"},{"bike_id":"f8d1c41d-21fe-458c-9516-e1e92139d521","system_id":"levelo_inurba_marseille","lat":43.29258,"lon":5.37617,"is_reserved":false,"is_disabled":false,"rental_uris":{"android":"levelo://app?vid=f8d1c41d-21fe-458c-9516-e1e92139d521","ios":"levelo://app?vid=f8d1c41d-21fe-458c-9516-e1e92139d521"},"vehicle_type_id":"4","last_reported":1743970184,"current_range_meters":14000,"station_id":"ce4bgi12rcd13ifvqb80","pricing_plan_id":"cebpf4jnsgd1na2vs0mg"},{"bike_id":"7ed58746-6cb8-4f4c-bdb0-08acae7ade22","system_id":"levelo_inurba_marseille","lat":43.28727,"lon":5.36083,"is_reserved":false,"is_disabled":false,"rental_uris":{"android":"levelo://app?vid=7ed58746-6cb8-4f4c-bdb0-08acae7ade22","ios":"levelo://app?vid=7ed58746-6cb8-4f4c-bdb0-08acae7ade22"},"vehicle_type_id":"4","last_reported":1743970184,"current_range_meters":14000,"station_id":"cki0cbj6b192h4jlfktg","pricing_plan_id":"cebpf4jnsgd1na2vs0mg"},{"bike_id":"00fcc5bf-f368-4f4d-8396-033d9b518df2","system_id":"levelo_inurba_marseille","lat":43.31177,"lon":5.38717,"is_reserved":false,"is_disabled":false,"rental_uris":{"android":"levelo://app?vid=00fcc5bf-f368-4f4d-8396-033d9b518df2","ios":"levelo://app?vid=00fcc5bf-f368-4f4d-8396-033d9b518df2"},"vehicle_type_id":"4","last_reported":1743970184,"current_range_meters":14000,"station_id":"ce4bgv12rcd13ifvqcp0","pricing_plan_id":"cebpf4jnsgd1na2vs0mg"},{"bike_id":"1f9fb7f7-963f-4c26-981b-f9fe44a35432","system_id":"levelo_inurba_marseille","lat":43.26943,"lon":5.40243,"is_reserved":false,"is_disabled":false,"rental_uris":{"android":"levelo://app?vid=1f9fb7f7-963f-4c26-981b-f9fe44a35432","ios":"levelo://app?vid=1f9fb7f7-963f-4c26-981b-f9fe44a35432"},"vehicle_type_id":"4","last_reported":1743970184,"current_range_meters":14400,"station_id":"cjm6bp8fraef2m0cb0m0","pricing_plan_id":"cebpf4jnsgd1na2vs0mg"},{"bike_id":"3a6cf4dd-4a04-48a6-bbfb-6b1ea18759b5","system_id":"levelo_inurba_marseille","lat":43.32362,"lon":5.36764,"is_reserved":false,"is_disabled":false,"rental_uris":{"android":"levelo://app?vid=3a6cf4dd-4a04-48a6-bbfb-6b1ea18759b5","ios":"levelo://app?vid=3a6cf4dd-4a04-48a6-bbfb-6b1ea18759b5"},"vehicle_type_id":"4","last_reported":1743970184,"current_range_meters":14400,"station_id":"ce4bhsh2rcd13ifvqi2g","pricing_plan_id":"cebpf4jnsgd1na2vs0mg"},{"bike_id":"351b921a-1463-4cf6-859d-ca5bd51a6e76","system_id":"levelo_inurba_marseille","lat":43.30639,"lon":5.37361,"is_reserved":false,"is_disabled":false,"rental_uris":{"android":"levelo://app?vid=351b921a-1463-4cf6-859d-ca5bd51a6e76","ios":"levelo://app?vid=351b921a-1463-4cf6-859d-ca5bd51a6e76"},"vehicle_type_id":"4","last_reported":1743970184,"current_range_meters":14400,"station_id":"","pricing_plan_id":"cebpf4jnsgd1na2vs0mg"},{"bike_id":"73c31629-d4c6-4112-85f3-81a995f1389f","system_id":"levelo_inurba_marseille","lat":43.2693,"lon":5.40253,"is_reserved":false,"is_disabled":false,"rental_uris":{"android":"levelo://app?vid=73c31629-d4c6-4112-85f3-81a995f1389f","ios":"levelo://app?vid=73c31629-d4c6-4112-85f3-81a995f1389f"},"vehicle_type_id":"4","last_reported":1743970184,"current_range_meters":14400,"station_id":"cjm6bp8fraef2m0cb0m0","pricing_plan_id":"cebpf4jnsgd1na2vs0mg"},{"bike_id":"69f25506-685e-4847-9621-f4fa78a4dc47","system_id":"levelo_inurba_marseille","lat":43.23318,"lon":5.35764,"is_reserved":false,"is_disabled":false,"rental_uris":{"android":"levelo://app?vid=69f25506-685e-4847-9621-f4fa78a4dc47","ios":"levelo://app?vid=69f25506-685e-4847-9621-f4fa78a4dc47"},"vehicle_type_id":"4","last_reported":1743970184,"current_range_meters":14800,"station_id":"","pricing_plan_id":"cebpf4jnsgd1na2vs0mg"},{"bike_id":"750bc9c2-8244-4f27-a571-77c62d7d6b92","system_id":"levelo_inurba_marseille","lat":43.31291,"lon":5.37738,"is_reserved":false,"is_disabled":false,"rental_uris":{"android":"levelo://app?vid=750bc9c2-8244-4f27-a571-77c62d7d6b92","ios":"levelo://app?vid=750bc9c2-8244-4f27-a571-77c62d7d6b92"},"vehicle_type_id":"4","last_reported":1743970184,"current_range_meters":14800,"station_id":"","pricing_plan_id":"cebpf4jnsgd1na2vs0mg"},{"bike_id":"2dba3b01-1ac0-4cb4-bd47-df22d7904e11","system_id":"levelo_inurba_marseille","lat":43.30971,"lon":5.39027,"is_reserved":false,"is_disabled":false,"rental_uris":{"android":"levelo://app?vid=2dba3b01-1ac0-4cb4-bd47-df22d7904e11","ios":"levelo://app?vid=2dba3b01-1ac0-4cb4-bd47-df22d7904e11"},"vehicle_type_id":"4","last_reported":1743970184,"current_range_meters":14800,"station_id":"ce4bgup2rcd13ifvqco0","pricing_plan_id":"cebpf4jnsgd1na2vs0mg"},{"bike_id":"dc945757-a363-40df-a45e-cb2c57dff9d6","system_id":"levelo_inurba_marseille","lat":43.27434,"lon":5.39392,"is_reserved":false,"is_disabled":false,"rental_uris":{"android":"levelo://app?vid=dc945757-a363-40df-a45e-cb2c57dff9d6","ios":"levelo://app?vid=dc945757-a363-40df-a45e-cb2c57dff9d6"},"vehicle_type_id":"4","last_reported":1743970184,"current_range_meters":14800,"station_id":"ce4bhdp2rcd13ifvqf20","pricing_plan_id":"cebpf4jnsgd1na2vs0mg"},{"bike_id":"b3386835-bf07-49e0-a2d9-5dd6db1216b8","system_id":"levelo_inurba_marseille","lat":43.31119,"lon":5.37764,"is_reserved":false,"is_disabled":false,"rental_uris":{"android":"levelo://app?vid=b3386835-bf07-49e0-a2d9-5dd6db1216b8","ios":"levelo://app?vid=b3386835-bf07-49e0-a2d9-5dd6db1216b8"},"vehicle_type_id":"4","last_reported":1743970184,"current_range_meters":14800,"station_id":"ce4bgt92rcd13ifvqcg0","pricing_plan_id":"cebpf4jnsgd1na2vs0mg"},{"bike_id":"7956d4b7-f9df-4616-bd52-832d0af74ae0","system_id":"levelo_inurba_marseille","lat":43.25721,"lon":5.41117,"is_reserved":false,"is_disabled":false,"rental_uris":{"android":"levelo://app?vid=7956d4b7-f9df-4616-bd52-832d0af74ae0","ios":"levelo://app?vid=7956d4b7-f9df-4616-bd52-832d0af74ae0"},"vehicle_type_id":"4","last_reported":1743970184,"current_range_meters":14800,"station_id":"ce4bhkp2rcd13ifvqgd0","pricing_plan_id":"cebpf4jnsgd1na2vs0mg"},{"bike_id":"69b7e58f-2968-4144-90d9-4ce3c56a3c55","system_id":"levelo_inurba_marseille","lat":43.28934,"lon":5.38411,"is_reserved":false,"is_disabled":false,"rental_uris":{"android":"levelo://app?vid=69b7e58f-2968-4144-90d9-4ce3c56a3c55","ios":"levelo://app?vid=69b7e58f-2968-4144-90d9-4ce3c56a3c55"},"vehicle_type_id":"4","last_reported":1743970184,"current_range_meters":14800,"station_id":"ce4bh612rcd13ifvqe6g","pricing_plan_id":"cebpf4jnsgd1na2vs0mg"},{"bike_id":"5266b485-864e-49e2-903e-a864283d04cb","system_id":"levelo_inurba_marseille","lat":43.273,"lon":5.39134,"is_reserved":false,"is_disabled":false,"rental_uris":{"android":"levelo://app?vid=5266b485-864e-49e2-903e-a864283d04cb","ios":"levelo://app?vid=5266b485-864e-49e2-903e-a864283d04cb"},"vehicle_type_id":"4","last_reported":1743970184,"current_range_meters":14800,"station_id":"ce4bhgp2rcd13ifvqfe0","pricing_plan_id":"cebpf4jnsgd1na2vs0mg"},{"bike_id":"e926ae44-9c36-4909-aca0-768b34034fa9","system_id":"levelo_inurba_marseille","lat":43.31994,"lon":5.3814,"is_reserved":false,"is_disabled":true,"rental_uris":{"android":"levelo://app?vid=e926ae44-9c36-4909-aca0-768b34034fa9","ios":"levelo://app?vid=e926ae44-9c36-4909-aca0-768b34034fa9"},"vehicle_type_id":"4","last_reported":1743970184,"current_range_meters":14800,"station_id":"ce4bhr12rcd13ifvqhpg","pricing_plan_id":"cebpf4jnsgd1na2vs0mg"},{"bike_id":"73272853-088e-4b39-8e6e-94fe10fc353c","system_id":"levelo_inurba_marseille","lat":43.33767,"lon":5.37485,"is_reserved":false,"is_disabled":false,"rental_uris":{"android":"levelo://app?vid=73272853-088e-4b39-8e6e-94fe10fc353c","ios":"levelo://app?vid=73272853-088e-4b39-8e6e-94fe10fc353c"},"vehicle_type_id":"4","last_reported":1743970184,"current_range_meters":14800,"station_id":"","pricing_plan_id":"cebpf4jnsgd1na2vs0mg"},{"bike_id":"ed8fc941-f91b-4ac4-b638-8ae395bbc5c7","system_id":"levelo_inurba_marseille","lat":43.29246,"lon":5.36064,"is_reserved":false,"is_disabled":true,"rental_uris":{"android":"levelo://app?vid=ed8fc941-f91b-4ac4-b638-8ae395bbc5c7","ios":"levelo://app?vid=ed8fc941-f91b-4ac4-b638-8ae395bbc5c7"},"vehicle_type_id":"4","last_reported":1743970184,"current_range_meters":14800,"station_id":"ce4bhbh2rcd13ifvqeqg","pricing_plan_id":"cebpf4jnsgd1na2vs0mg"},{"bike_id":"4b75d48d-acfe-4ec5-8274-94d867a5c21d","system_id":"levelo_inurba_marseille","lat":43.30535,"lon":5.38428,"is_reserved":false,"is_disabled":false,"rental_uris":{"android":"levelo://app?vid=4b75d48d-acfe-4ec5-8274-94d867a5c21d","ios":"levelo://app?vid=4b75d48d-acfe-4ec5-8274-94d867a5c21d"},"vehicle_type_id":"4","last_reported":1743970184,"current_range_meters":14800,"station_id":"ce4bgg92rcd13ifvqb30","pricing_plan_id":"cebpf4jnsgd1na2vs0mg"},{"bike_id":"ad5893c3-50ef-47d7-907f-587cb2b8a400","system_id":"levelo_inurba_marseille","lat":43.30135,"lon":5.39802,"is_reserved":false,"is_disabled":false,"rental_uris":{"android":"levelo://app?vid=ad5893c3-50ef-47d7-907f-587cb2b8a400","ios":"levelo://app?vid=ad5893c3-50ef-47d7-907f-587cb2b8a400"},"vehicle_type_id":"4","last_reported":1743970184,"current_range_meters":14800,"station_id":"ce4bh0h2rcd13ifvqd40","pricing_plan_id":"cebpf4jnsgd1na2vs0mg"},