{"last_updated":1702926339,"ttl":30,"version":"2.2","data":{"bikes":[{"bike_id":"fc23ba97-f1e1-4d5f-989f-4ee3ffb54230","system_id":"levelo_inurba_marseille","lat":43.313391,"lon":5.36706,"is_reserved":false,"is_disabled":false,"rental_uris":{"android":"levelo://app?vid=fc23ba97-f1e1-4d5f-989f-4ee3ffb54230","ios":"levelo://app?vid=fc23ba97-f1e1-4d5f-989f-4ee3ffb54230"},"vehicle_type_id":"4","last_reported":1702926340,"current_range_meters":16000,"station_id":"ce4bgr92rcd13ifvqc6g","pricing_plan_id":"free"},{"bike_id":"2dad8310-500d-4087-8ccd-ff116b033fc5","system_id":"levelo_inurba_marseille","lat":43.314811,"lon":5.373104,"is_reserved":false,"is_disabled":false,"rental_uris":{"android":"levelo://app?vid=2dad8310-500d-4087-8ccd-ff116b033fc5","ios":"levelo://app?vid=2dad8310-500d-4087-8ccd-ff116b033fc5"},"vehicle_type_id":"4","last_reported":1702926340,"current_range_meters":19600,"station_id":"ce4bgt12rcd13ifvqcd0","pricing_plan_id":"free"},{"bike_id":"8f23fcbf-7675-462a-9f16-17d04f5e1294","system_id":"levelo_inurba_marseille","lat":43.314817,"lon":5.373084,"is_reserved":false,"is_disabled":false,"rental_uris":{"android":"levelo://app?vid=8f23fcbf-7675-462a-9f16-17d04f5e1294","ios":"levelo://app?vid=8f23fcbf-7675-462a-9f16-17d04f5e1294"},"vehicle_type_id":"4","last_reported":1702926340,"current_range_meters":2400,"station_id":"","pricing_plan_id":"free"},{"bike_id":"a58efa39-4536-49fe-afc8-1b01962cc9e5","system_id":"levelo_inurba_marseille","lat":43.314811,"lon":5.373104,"is_reserved":false,"is_disabled":false,"rental_uris":{"android":"levelo://app?vid=a58efa39-4536-49fe-afc8-1b01962cc9e5","ios":"levelo://app?vid=a58efa39-4536-49fe-afc8-1b01962cc9e5"},"vehicle_type_id":"4","last_reported":1702926340,"current_range_meters":30000,"station_id":"ce4bgt12rcd13ifvqcd0","pricing_plan_id":"free"},{"bike_id":"9e0c5f97-bee4-4d9f-90c1-a1a8196949db","system_id":"levelo_inurba_marseille","lat":43.314811,"lon":5.373104,"is_reserved":false,"is_disabled":false,"rental_uris":{"android":"levelo://app?vid=9e0c5f97-bee4-4d9f-90c1-a1a8196949db","ios":"levelo://app?vid=9e0c5f97-bee4-4d9f-90c1-a1a8196949db"},"vehicle_type_id":"4","last_reported":1702926340,"current_range_meters":23200,"station_id":"ce4bgt12rcd13ifvqcd0","pricing_plan_id":"free"},{"bike_id":"f2671bb6-6edd-4d34-9bb4-75b0cb90e845","system_id":"levelo_inurba_marseille","lat":43.314811,"lon":5.373103,"is_reserved":false,"is_disabled":false,"rental_uris":{"android":"levelo://app?vid=f2671bb6-6edd-4d34-9bb4-75b0cb90e845","ios":"levelo://app?vid=f2671bb6-6edd-4d34-9bb4-75b0cb90e845"},"vehicle_type_id":"4","last_reported":1702926340,"current_range_meters":5200,"station_id":"ce4bgt12rcd13ifvqcd0","pricing_plan_id":"free"},{"bike_id":"955e4ab2-16e5-44e8-a986-a2f50ff96c06","system_id":"levelo_inurba_marseille","lat":43.305382,"lon":5.365389,"is_reserved":false,"is_disabled":false,"rental_uris":{"android":"levelo://app?vid=955e4ab2-16e5-44e8-a986-a2f50ff96c06","ios":"levelo://app?vid=955e4ab2-16e5-44e8-a986-a2f50ff96c06"},"vehicle_type_id":"4","last_reported":1702926340,"current_range_meters":6800,"station_id":"","pricing_plan_id":"free"},{"bike_id":"1f9ac06f-6b35-430d-9366-687edda92227","system_id":"levelo_inurba_marseille","lat":43.311147,"lon":5.377613,"is_reserved":false,"is_disabled":false,"rental_uris":{"android":"levelo://app?vid=1f9ac06f-6b35-430d-9366-687edda92227","ios":"levelo://app?vid=1f9ac06f-6b35-430d-9366-687edda92227"},"vehicle_type_id":"4","last_reported":1702926340,"current_range_meters":17600,"station_id":"ce4bgt92rcd13ifvqcg0","pricing_plan_id":"free"},{"bike_id":"1550b743-82c2-4bb9-9737-951d49db4abc","system_id":"levelo_inurba_marseille","lat":43.311125,"lon":5.377624,"is_reserved":false,"is_disabled":false,"rental_uris":{"android":"levelo://app?vid=1550b743-82c2-4bb9-9737-951d49db4abc","ios":"levelo://app?vid=1550b743-82c2-4bb9-9737-951d49db4abc"},"vehicle_type_id":"4","last_reported":1702926340,"current_range_meters":28800,"station_id":"ce4bgt92rcd13ifvqcg0","pricing_plan_id":"free"},{"bike_id":"319a5133-4fd6-4474-b5e6-f67e77a4368d","system_id":"levelo_inurba_marseille","lat":43.311125,"lon":5.377624,"is_reserved":false,"is_disabled":false,"rental_uris":{"android":"levelo://app?vid=319a5133-4fd6-4474-b5e6-f67e77a4368d","ios":"levelo://app?vid=319a5133-4fd6-4474-b5e6-f67e77a4368d"},"vehicle_type_id":"4","last_reported":1702926340,"current_range_meters":14000,"station_id":"ce4bgt92rcd13ifvqcg0","pricing_plan_id":"free"},{"bike_id":"8b97c3f1-bb5f-4c4b-bae8-74bcb68230ca","system_id":"levelo_inurba_marseille","lat":43.31071,"lon":5.383203,"is_reserved":false,"is_disabled":false,"rental_uris":{"android":"levelo://app?vid=8b97c3f1-bb5f-4c4b-bae8-74bcb68230ca","ios":"levelo://app?vid=8b97c3f1-bb5f-4c4b-bae8-74bcb68230ca"},"vehicle_type_id":"4","last_reported":1702926340,"current_range_meters":0,"station_id":"","pricing_plan_id":"free"},{"bike_id":"07a376be-02e2-44de-a85d-9e028c589ebd","system_id":"levelo_inurba_marseille","lat":43.324771,"lon":5.36557,"is_reserved":false,"is_disabled":false,"rental_uris":{"android":"levelo://app?vid=07a376be-02e2-44de-a85d-9e028c589ebd","ios":"levelo://app?vid=07a376be-02e2-44de-a85d-9e028c589ebd"},"vehicle_type_id":"4","last_reported":1702926340,"current_range_meters":4400,"station_id":"ce4bhs12rcd13ifvqhvg","pricing_plan_id":"free"},{"bike_id":"dc7965b0-3c35-48d1-bfa1-d5075cfcf70d","system_id":"levelo_inurba_marseille","lat":43.302784,"lon":5.377158,"is_reserved":false,"is_disabled":false,"rental_uris":{"android":"levelo://app?vid=dc7965b0-3c35-48d1-bfa1-d5075cfcf70d","ios":"levelo://app?vid=dc7965b0-3c35-48d1-bfa1-d5075cfcf70d"},"vehicle_type_id":"4","last_reported":1702926340,"current_range_meters":10400,"station_id":"ce4bguh2rcd13ifvqcj0","pricing_plan_id":"free"},{"bike_id":"f0f21bd4-2f2b-467e-8749-0f6745beec37","system_id":"levelo_inurba_marseille","lat":43.300607,"lon":5.374257,"is_reserved":false,"is_disabled":false,"rental_uris":{"android":"levelo://app?vid=f0f21bd4-2f2b-467e-8749-0f6745beec37","ios":"levelo://app?vid=f0f21bd4-2f2b-467e-8749-0f6745beec37"},"vehicle_type_id":"4","last_reported":1702926340,"current_range_meters":5200,"station_id":"","pricing_plan_id":"free"},{"bike_id":"ad2ff6b9-8273-45b5-a6b4-25466f021dd6","system_id":"levelo_inurba_marseille","lat":43.299222,"lon":5.365554,"is_reserved":false,"is_disabled":false,"rental_uris":{"android":"levelo://app?vid=ad2ff6b9-8273-45b5-a6b4-25466f021dd6","ios":"levelo://app?vid=ad2ff6b9-8273-45b5-a6b4-25466f021dd6"},"vehicle_type_id":"4","last_reported":1702926340,"current_range_meters":17200,"station_id":"ce4bgm92rcd13ifvqbr0","pricing_plan_id":"free"},{"bike_id":"b7abe86b-cd2b-4151-b8b4-b40f1e853582","system_id":"levelo_inurba_marseille","lat":43.313571,"lon":5.384829,"is_reserved":false,"is_disabled":false,"rental_uris":{"android":"levelo://app?vid=b7abe86b-cd2b-4151-b8b4-b40f1e853582","ios":"levelo://app?vid=b7abe86b-cd2b-4151-b8b4-b40f1e853582"},"vehicle_type_id":"4","last_reported":1702926340,"current_range_meters":5600,"station_id":"ce4bgt92rcd13ifvqcf0","pricing_plan_id":"free"},{"bike_id":"5275ea88-3624-4c0d-91e6-e4385dca5ddb","system_id":"levelo_inurba_marseille","lat":43.313571,"lon":5.384829,"is_reserved":false,"is_disabled":false,"rental_uris":{"android":"levelo://app?vid=5275ea88-3624-4c0d-91e6-e4385dca5ddb","ios":"levelo://app?vid=5275ea88-3624-4c0d-91e6-e4385dca5ddb"},"vehicle_type_id":"4","last_reported":1702926340,"current_range_meters":26400,"station_id":"ce4bgt92rcd13ifvqcf0","pricing_plan_id":"free"},{"bike_id":"58964417-d611-4878-b14e-6202aa088dde","system_id":"levelo_inurba_marseille","lat":43.31268,"lon":5.38641,"is_reserved":false,"is_disabled":false,"rental_uris":{"android":"levelo://app?vid=58964417-d611-4878-b14e-6202aa088dde","ios":"levelo://app?vid=58964417-d611-4878-b14e-6202aa088dde"},"vehicle_type_id":"4","last_reported":1702926340,"current_range_meters":0,"station_id":"","pricing_plan_id":"free"},{"bike_id":"f6db91ea-7f41-433e-9317-71ba3cf5ea66","system_id":"levelo_inurba_marseille","lat":43.298433,"lon":5.362774,"is_reserved":false,"is_disabled":false,"rental_uris":{"android":"levelo://app?vid=f6db91ea-7f41-433e-9317-71ba3cf5ea66","ios":"levelo://app?vid=f6db91ea-7f41-433e-9317-71ba3cf5ea66"},"vehicle_type_id":"4","last_reported":1702926340,"current_range_meters":6000,"station_id":"ce4bgpp2rcd13ifvqc3g","pricing_plan_id":"free"},{"bike_id":"802d2262-5a8f-4ba8-8456-54c96b8bcd57","system_id":"levelo_inurba_marseille","lat":43.298433,"lon":5.362774,"is_reserved":false,"is_disabled":false,"rental_uris":{"android":"levelo://app?vid=802d2262-5a8f-4ba8-8456-54c96b8bcd57","ios":"levelo://app?vid=802d2262-5a8f-4ba8-8456-54c96b8bcd57"},"vehicle_type_id":"4","last_reported":1702926340,"current_range_meters":31200,"station_id":"ce4bgpp2rcd13ifvqc3g","pricing_plan_id":"free"},{"bike_id":"c759f3d7-1a97-4446-8047-4e8e80a147d8","system_id":"levelo_inurba_marseille","lat":43.298433,"lon":5.362774,"is_reserved":false,"is_disabled":false,"rental_uris":{"android":"levelo://app?vid=c759f3d7-1a97-4446-8047-4e8e80a147d8","ios":"levelo://app?vid=c759f3d7-1a97-4446-8047-4e8e80a147d8"},"vehicle_type_id":"4","last_reported":1702926340,"current_range_meters":25200,"station_id":"ce4bgpp2rcd13ifvqc3g","pricing_plan_id":"free"},{"bike_id":"819cb438-2e9c-4e0b-902b-5e19ef554d5c","system_id":"levelo_inurba_marseille","lat":43.305445,"lon":5.384362,"is_reserved":false,"is_disabled":false,"rental_uris":{"android":"levelo://app?vid=819cb438-2e9c-4e0b-902b-5e19ef554d5c","ios":"levelo://app?vid=819cb438-2e9c-4e0b-902b-5e19ef554d5c"},"vehicle_type_id":"4","last_reported":1702926340,"current_range_meters":5600,"station_id":"ce4bgg92rcd13ifvqb30","pricing_plan_id":"free"},{"bike_id":"01f4d0eb-e2d6-430b-b044-01604281fb76","system_id":"levelo_inurba_marseille","lat":43.298433,"lon":5.362774,"is_reserved":false,"is_disabled":false,"rental_uris":{"android":"levelo://app?vid=01f4d0eb-e2d6-430b-b044-01604281fb76","ios":"levelo://app?vid=01f4d0eb-e2d6-430b-b044-01604281fb76"},"vehicle_type_id":"4","last_reported":1702926340,"current_range_meters":20400,"station_id":"ce4bgpp2rcd13ifvqc3g","pricing_plan_id":"free"},{"bike_id":"37a92bd5-223b-41c5-b499-fe52ac7929c1","system_id":"levelo_inurba_marseille","lat":43.311722,"lon":5.387247,"is_reserved":false,"is_disabled":false,"rental_uris":{"android":"levelo://app?vid=37a92bd5-223b-41c5-b499-fe52ac7929c1","ios":"levelo://app?vid=37a92bd5-223b-41c5-b499-fe52ac7929c1"},"vehicle_type_id":"4","last_reported":1702926340,"current_range_meters":12800,"station_id":"ce4bgv12rcd13ifvqcp0","pricing_plan_id":"free"},{"bike_id":"1784cefd-ae0e-40c8-a476-06e37d05dc31","system_id":"levelo_inurba_marseille","lat":43.322872,"lon":5.382756,"is_reserved":false,"is_disabled":false,"rental_uris":{"android":"levelo://app?vid=1784cefd-ae0e-40c8-a476-06e37d05dc31","ios":"levelo://app?vid=1784cefd-ae0e-40c8-a476-06e37d05dc31"},"vehicle_type_id":"4","last_reported":1702926340,"current_range_meters":28400,"station_id":"ce4bhr12rcd13ifvqhqg","pricing_plan_id":"free"},{"bike_id":"5fcddf76-dd6d-43b0-a679-2d7e61213231","system_id":"levelo_inurba_marseille","lat":43.322944,"lon":5.38251,"is_reserved":false,"is_disabled":false,"rental_uris":{"android":"levelo://app?vid=5fcddf76-dd6d-43b0-a679-2d7e61213231","ios":"levelo://app?vid=5fcddf76-dd6d-43b0-a679-2d7e61213231"},"vehicle_type_id":"4","last_reported":1702926340,"current_range_meters":20800,"station_id":"ce4bhr12rcd13ifvqhqg","pricing_plan_id":"free"},{"bike_id":"e66617a4-437e-4611-bcde-9766d1b74975","system_id":"levelo_inurba_marseille","lat":43.322872,"lon":5.382756,"is_reserved":false,"is_disabled":false,"rental_uris":{"android":"levelo://app?vid=e66617a4-437e-4611-bcde-9766d1b74975","ios":"levelo://app?vid=e66617a4-437e-4611-bcde-9766d1b74975"},"vehicle_type_id":"4","last_reported":1702926340,"current_range_meters":29600,"station_id":"ce4bhr12rcd13ifvqhqg","pricing_plan_id":"free"},{"bike_id":"05219ea5-a8e8-49e8-83af-75a14ee59020","system_id":"levelo_inurba_marseille","lat":43.299243,"lon":5.37481,"is_reserved":false,"is_disabled":false,"rental_uris":{"android":"levelo://app?vid=05219ea5-a8e8-49e8-83af-75a14ee59020","ios":"levelo://app?vid=05219ea5-a8e8-49e8-83af-75a14ee59020"},"vehicle_type_id":"4","last_reported":1702926340,"current_range_meters":26400,"station_id":"ce4bgjh2rcd13ifvqbg0","pricing_plan_id":"free"},{"bike_id":"5a0dec12-6d40-456c-a336-a2b332cfce8e","system_id":"levelo_inurba_marseille","lat":43.317557,"lon":5.390173,"is_reserved":false,"is_disabled":false,"rental_uris":{"android":"levelo://app?vid=5a0dec12-6d40-456c-a336-a2b332cfce8e","ios":"levelo://app?vid=5a0dec12-6d40-456c-a336-a2b332cfce8e"},"vehicle_type_id":"4","last_reported":1702926340,"current_range_meters":18400,"station_id":"ce4bhqp2rcd13ifvqhng","pricing_plan_id":"free"},{"bike_id":"3169e9d0-e557-477c-bc0e-9840d59b9c85","system_id":"levelo_inurba_marseille","lat":43.317557,"lon":5.390173,"is_reserved":false,"is_disabled":false,"rental_uris":{"android":"levelo://app?vid=3169e9d0-e557-477c-bc0e-9840d59b9c85","ios":"levelo://app?vid=3169e9d0-e557-477c-bc0e-9840d59b9c85"},"vehicle_type_id":"4","last_reported":1702926340,"current_range_meters":17600,"station_id":"ce4bhqp2rcd13ifvqhng","pricing_plan_id":"free"},{"bike_id":"708ff2df-6df8-437a-83a8-a660675bae4f","system_id":"levelo_inurba_marseille","lat":43.317557,"lon":5.390173,"is_reserved":false,"is_disabled":false,"rental_uris":{"android":"levelo://app?vid=708ff2df-6df8-437a-83a8-a660675bae4f","ios":"levelo://app?vid=708ff2df-6df8-437a-83a8-a660675bae4f"},"vehicle_type_id":"4","last_reported":1702926340,"current_range_meters":7200,"station_id":"ce4bhqp2rcd13ifvqhng","pricing_plan_id":"free"},{"bike_id":"d4b5dcef-37d4-4c90-bb6e-10083563fa8f","system_id":"levelo_inurba_marseille","lat":43.29802,"lon":5.38107,"is_reserved":false,"is_disabled":false,"rental_uris":{"android":"levelo://app?vid=d4b5dcef-37d4-4c90-bb6e-10083563fa8f","ios":"levelo://app?vid=d4b5dcef-37d4-4c90-bb6e-10083563fa8f"},"vehicle_type_id":"4","last_reported":1702926340,"current_range_meters":14400,"station_id":"ce4bgip2rcd13ifvqbb0","pricing_plan_id":"free"},{"bike_id":"ac116ef1-2536-4322-85da-677be2783aa9","system_id":"levelo_inurba_marseille","lat":43.29799,"lon":5.38109,"is_reserved":false,"is_disabled":false,"rental_uris":{"android":"levelo://app?vid=ac116ef1-2536-4322-85da-677be2783aa9","ios":"levelo://app?vid=ac116ef1-2536-4322-85da-677be2783aa9"},"vehicle_type_id":"4","last_reported":1702926340,"current_range_meters":7200,"station_id":"ce4bgip2rcd13ifvqbb0","pricing_plan_id":"free"},{"bike_id":"2547181c-f43b-4522-bb80-bb92f7740c77","system_id":"levelo_inurba_marseille","lat":43.299717,"lon":5.384845,"is_reserved":false,"is_disabled":false,"rental_uris":{"android":"levelo://app?vid=2547181c-f43b-4522-bb80-bb92f7740c77","ios":"levelo://app?vid=2547181c-f43b-4522-bb80-bb92f7740c77"},"vehicle_type_id":"4","last_reported":1702926340,"current_range_meters":20800,"station_id":"ce4bgj92rcd13ifvqbd0","pricing_plan_id":"free"},{"bike_id":"1c91e5f5-2f5c-4dd0-9fff-21d08ee1d44d","system_id":"levelo_inurba_marseille","lat":43.29965,"lon":5.38498,"is_reserved":false,"is_disabled":false,"rental_uris":{"android":"levelo://app?vid=1c91e5f5-2f5c-4dd0-9fff-21d08ee1d44d","ios":"levelo://app?vid=1c91e5f5-2f5c-4dd0-9fff-21d08ee1d44d"},"vehicle_type_id":"4","last_reported":1702926340,"current_range_meters":0,"station_id":"ce4bgj92rcd13ifvqbd0","pricing_plan_id":"free"},{"bike_id":"9b6e877a-d293-4301-877d-8e06c5c0b098","system_id":"levelo_inurba_marseille","lat":43.299717,"lon":5.384845,"is_reserved":false,"is_disabled":false,"rental_uris":{"android":"levelo://app?vid=9b6e877a-d293-4301-877d-8e06c5c0b098","ios":"levelo://app?vid=9b6e877a-d293-4301-877d-8e06c5c0b098"},"vehicle_type_id":"4","last_reported":1702926340,"current_range_meters":16400,"station_id":"ce4bgj92rcd13ifvqbd0","pricing_plan_id":"free"},{"bike_id":"10d7df7f-fd5d-419c-8505-c3bd4c2fcdec","system_id":"levelo_inurba_marseille","lat":43.296412,"lon":5.379987,"is_reserved":false,"is_disabled":false,"rental_uris":{"android":"levelo://app?vid=10d7df7f-fd5d-419c-8505-c3bd4c2fcdec","ios":"levelo://app?vid=10d7df7f-fd5d-419c-8505-c3bd4c2fcdec"},"vehicle_type_id":"4","last_reported":1702926340,"current_range_meters":20000,"station_id":"","pricing_plan_id":"free"},{"bike_id":"98c8c68b-241c-4a3e-91bd-a72dc865890d","system_id":"levelo_inurba_marseille","lat":43.293259,"lon":5.371586,"is_reserved":false,"is_disabled":false,"rental_uris":{"android":"levelo://app?vid=98c8c68b-241c-4a3e-91bd-a72dc865890d","ios":"levelo://app?vid=98c8c68b-241c-4a3e-91bd-a72dc865890d"},"vehicle_type_id":"4","last_reported":1702926340,"current_range_meters":7600,"station_id":"ce4bgh92rcd13ifvqb40","pricing_plan_id":"free"},{"bike_id":"731bf4d7-07ca-4143-8fae-30a8375db767","system_id":"levelo_inurba_marseille","lat":43.293009,"lon":5.374584,"is_reserved":false,"is_disabled":false,"rental_uris":{"android":"levelo://app?vid=731bf4d7-07ca-4143-8fae-30a8375db767","ios":"levelo://app?vid=731bf4d7-07ca-4143-8fae-30a8375db767"},"vehicle_type_id":"4","last_reported":1702926340,"current_range_meters":0,"station_id":"ce4bgi12rcd13ifvqb70","pricing_plan_id":"free"},{"bike_id":"f2a451ce-cdc9-4082-96b3-9b98c8332a92","system_id":"levelo_inurba_marseille","lat":43.292311,"lon":5.360731,"is_reserved":false,"is_disabled":false,"rental_uris":{"android":"levelo://app?vid=f2a451ce-cdc9-4082-96b3-9b98c8332a92","ios":"levelo://app?vid=f2a451ce-cdc9-4082-96b3-9b98c8332a92"},"vehicle_type_id":"4","last_reported":1702926340,"current_range_meters":8000,"station_id":"ce4bhbh2rcd13ifvqeqg","pricing_plan_id":"free"},{"bike_id":"f962fa19-d9fe-4f81-bbce-17ef368e6843","system_id":"levelo_inurba_marseille","lat":43.29888,"lon":5.38911,"is_reserved":false,"is_disabled":false,"rental_uris":{"android":"levelo://app?vid=f962fa19-d9fe-4f81-bbce-17ef368e6843","ios":"levelo://app?vid=f962fa19-d9fe-4f81-bbce-17ef368e6843"},"vehicle_type_id":"4","last_reported":1702926340,"current_range_meters":400,"station_id":"","pricing_plan_id":"free"},{"bike_id":"9f18f4a2-2d03-404f-beb7-e3930a60b773","system_id":"levelo_inurba_marseille","lat":43.29873,"lon":5.38902,"is_reserved":false,"is_disabled":false,"rental_uris":{"android":"levelo://app?vid=9f18f4a2-2d03-404f-beb7-e3930a60b773","ios":"levelo://app?vid=9f18f4a2-2d03-404f-beb7-e3930a60b773"},"vehicle_type_id":"4","last_reported":1702926340,"current_range_meters":6000,"station_id":"","pricing_plan_id":"free"},{"bike_id":"45ffc421-054a-48ac-872c-d6512262a28f","system_id":"levelo_inurba_marseille","lat":43.29872,"lon":5.389029,"is_reserved":false,"is_disabled":false,"rental_uris":{"android":"levelo://app?vid=45ffc421-054a-48ac-872c-d6512262a28f","ios":"levelo://app?vid=45ffc421-054a-48ac-872c-d6512262a28f"},"vehicle_type_id":"4","last_reported":1702926340,"current_range_meters":1600,"station_id":"","pricing_plan_id":"free"},{"bike_id":"442c2698-4f42-45ce-9b72-89920234ba94","system_id":"levelo_inurba_marseille","lat":43.309038,"lon":5.396546,"is_reserved":false,"is_disabled":false,"rental_uris":{"android":"levelo://app?vid=442c2698-4f42-45ce-9b72-89920234ba94","ios":"levelo://app?vid=442c2698-4f42-45ce-9b72-89920234ba94"},"vehicle_type_id":"4","last_reported":1702926340,"current_range_meters":29200,"station_id":"ce4bh012rcd13ifvqcv0","pricing_plan_id":"free"},{"bike_id":"241b1e6d-5e83-4075-922e-8e2eeb9bb922","system_id":"levelo_inurba_marseille","lat":43.313291,"lon":5.396838,"is_reserved":false,"is_disabled":false,"rental_uris":{"android":"levelo://app?vid=241b1e6d-5e83-4075-922e-8e2eeb9bb922","ios":"levelo://app?vid=241b1e6d-5e83-4075-922e-8e2eeb9bb922"},"vehicle_type_id":"4","last_reported":1702926340,"current_range_meters":13200,"station_id":"ce4bgvp2rcd13ifvqcu0","pricing_plan_id":"free"},{"bike_id":"0a31ed2a-87c2-4e2f-8c31-84ef29d5cbe1","system_id":"levelo_inurba_marseille","lat":43.313291,"lon":5.396838,"is_reserved":false,"is_disabled":false,"rental_uris":{"android":"levelo://app?vid=0a31ed2a-87c2-4e2f-8c31-84ef29d5cbe1","ios":"levelo://app?vid=0a31ed2a-87c2-4e2f-8c31-84ef29d5cbe1"},"vehicle_type_id":"4","last_reported":1702926340,"current_range_meters":29200,"station_id":"ce4bgvp2rcd13ifvqcu0","pricing_plan_id":"free"},{"bike_id":"8596454a-374e-41ea-99ce-4d9c867b4db5","system_id":"levelo_inurba_marseille","lat":43.313291,"lon":5.396838,"is_reserved":false,"is_disabled":false,"rental_uris":{"android":"levelo://app?vid=8596454a-374e-41ea-99ce-4d9c867b4db5","ios":"levelo://app?vid=8596454a-374e-41ea-99ce-4d9c867b4db5"},"vehicle_type_id":"4","last_reported":1702926340,"current_range_meters":26400,"station_id":"ce4bgvp2rcd13ifvqcu0","pricing_plan_id":"free"},{"bike_id":"0a6846ef-e9dc-47b2-b1a7-2583912d5ef9","system_id":"levelo_inurba_marseille","lat":43.29529,"lon":5.385581,"is_reserved":false,"is_disabled":false,"rental_uris":{"android":"levelo://app?vid=0a6846ef-e9dc-47b2-b1a7-2583912d5ef9","ios":"levelo://app?vid=0a6846ef-e9dc-47b2-b1a7-2583912d5ef9"},"vehicle_type_id":"4","last_reported":1702926340,"current_range_meters":0,"station_id":"ce4bgih2rcd13ifvqba0","pricing_plan_id":"free"},{"bike_id":"5bb7cac6-c38f-41dc-b36d-c51b900f7b60","system_id":"levelo_inurba_marseille","lat":43.290779,"lon":5.371482,"is_reserved":false,"is_disabled":false,"rental_uris":{"android":"levelo://app?vid=5bb7cac6-c38f-41dc-b36d-c51b900f7b60","ios":"levelo://app?vid=5bb7cac6-c38f-41dc-b36d-c51b900f7b60"},"vehicle_type_id":"4","last_reported":1702926340,"current_range_meters":8000,"station_id":"ce4bh5p2rcd13ifvqe4g","pricing_plan_id":"free"},{"bike_id":"89ade0dd-444d-4d59-9510-49e4bea94525","system_id":"levelo_inurba_marseille","lat":43.290779,"lon":5.371482,"is_reserved":false,"is_disabled":false,"rental_uris":{"android":"levelo://app?vid=89ade0dd-444d-4d59-9510-49e4bea94525","ios":"levelo://app?vid=89ade0dd-444d-4d59-9510-49e4bea94525"},"vehicle_type_id":"4","last_reported":1702926340,"current_range_meters":0,"station_id":"ce4bh5p2rcd13ifvqe4g","pricing_plan_id":"free"},{"bike_id":"4d4bb202-63ea-48fc-8400-fa8b20021fd2","system_id":"levelo_inurba_marseille","lat":43.290016,"lon":5.366984,"is_reserved":false,"is_disabled":false,"rental_uris":{"android":"levelo://app?vid=4d4bb202-63ea-48fc-8400-fa8b20021fd2","ios":"levelo://app?vid=4d4bb202-63ea-48fc-8400-fa8b20021fd2"},"vehicle_type_id":"4","last_reported":1702926340,"current_range_meters":0,"station_id":"","pricing_plan_id":"free"},{"bike_id":"66169445-f1d0-4301-b22e-d7c4098b4d72","system_id":"levelo_inurba_marseille","lat":43.302008,"lon":5.394694,"is_reserved":false,"is_disabled":false,"rental_uris":{"android":"levelo://app?vid=66169445-f1d0-4301-b22e-d7c4098b4d72","ios":"levelo://app?vid=66169445-f1d0-4301-b22e-d7c4098b4d72"},"vehicle_type_id":"4","last_reported":1702926340,"current_range_meters":14000,"station_id":"ce4bh0p2rcd13ifvqd70","pricing_plan_id":"free"},{"bike_id":"0d7aa228-8e80-46a9-a143-fefab4b4d0e5","system_id":"levelo_inurba_marseille","lat":43.290624,"lon":5.359245,"is_reserved":false,"is_disabled":false,"rental_uris":{"android":"levelo://app?vid=0d7aa228-8e80-46a9-a143-fefab4b4d0e5","ios":"levelo://app?vid=0d7aa228-8e80-46a9-a143-fefab4b4d0e5"},"vehicle_type_id":"4","last_reported":1702926340,"current_range_meters":0,"station_id":"ce4bha92rcd13ifvqeg0","pricing_plan_id":"free"},{"bike_id":"4b08a009-57a1-4f9e-a9a1-e0cae138a56c","system_id":"levelo_inurba_marseille","lat":43.290631,"lon":5.359244,"is_reserved":false,"is_disabled":false,"rental_uris":{"android":"levelo://app?vid=4b08a009-57a1-4f9e-a9a1-e0cae138a56c","ios":"levelo://app?vid=4b08a009-57a1-4f9e-a9a1-e0cae138a56c"},"vehicle_type_id":"4","last_reported":1702926340,"current_range_meters":28000,"station_id":"ce4bha92rcd13ifvqeg0","pricing_plan_id":"free"},{"bike_id":"05decfcc-86fc-416a-9efe-68231915e0f0","system_id":"levelo_inurba_marseille","lat":43.294162,"lon":5.386292,"is_reserved":false,"is_disabled":false,"rental_uris":{"android":"levelo://app?vid=05decfcc-86fc-416a-9efe-68231915e0f0","ios":"levelo://app?vid=05decfcc-86fc-416a-9efe-68231915e0f0"},"vehicle_type_id":"4","last_reported":1702926340,"current_range_meters":400,"station_id":"ce4bh2h2rcd13ifvqdh0","pricing_plan_id":"free"},{"bike_id":"8f43d285-eedb-4d4a-bb5a-dd21f2ffe320","system_id":"levelo_inurba_marseille","lat":43.33042,"lon":5.38921,"is_reserved":false,"is_disabled":false,"rental_uris":{"android":"levelo://app?vid=8f43d285-eedb-4d4a-bb5a-dd21f2ffe320","ios":"levelo://app?vid=8f43d285-eedb-4d4a-bb5a-dd21f2ffe320"},"vehicle_type_id":"4","last_reported":1702926340,"current_range_meters":17200,"station_id":"ce4bhr92rcd13ifvqhrg","pricing_plan_id":"free"},{"bike_id":"0eb29cf8-6cad-4fbf-8127-a31ff2bbb89a","system_id":"levelo_inurba_marseille","lat":43.33043,"lon":5.38923,"is_reserved":false,"is_disabled":false,"rental_uris":{"android":"levelo://app?vid=0eb29cf8-6cad-4fbf-8127-a31ff2bbb89a","ios":"levelo://app?vid=0eb29cf8-6cad-4fbf-8127-a31ff2bbb89a"},"vehicle_type_id":"4","last_reported":1702926340,"current_range_meters":2400,"station_id":"ce4bhr92rcd13ifvqhrg","pricing_plan_id":"free"},{"bike_id":"c267dbd5-197f-483b-9406-40ff3552c0da","system_id":"levelo_inurba_marseille","lat":43.290104,"lon":5.356111,"is_reserved":false,"is_disabled":false,"rental_uris":{"android":"levelo://app?vid=c267dbd5-197f-483b-9406-40ff3552c0da","ios":"levelo://app?vid=c267dbd5-197f-483b-9406-40ff3552c0da"},"vehicle_type_id":"4","last_reported":1702926340,"current_range_meters":18400,"station_id":"ce4bhb92rcd13ifvqen0","pricing_plan_id":"free"},{"bike_id":"bb4a18f7-dd2a-4ad5-8d6e-35c6c7f9f11b","system_id":"levelo_inurba_marseille","lat":43.33054,"lon":5.38917,"is_reserved":false,"is_disabled":false,"rental_uris":{"android":"levelo://app?vid=bb4a18f7-dd2a-4ad5-8d6e-35c6c7f9f11b","ios":"levelo://app?vid=bb4a18f7-dd2a-4ad5-8d6e-35c6c7f9f11b"},"vehicle_type_id":"4","last_reported":1702926340,"current_range_meters":20800,"station_id":"ce4bhr92rcd13ifvqhrg","pricing_plan_id":"free"},{"bike_id":"c7766489-84d2-49ec-919e-98a11d4e6726","system_id":"levelo_inurba_marseille","lat":43.297815,"lon":5.393548,"is_reserved":false,"is_disabled":false,"rental_uris":{"android":"levelo://app?vid=c7766489-84d2-49ec-919e-98a11d4e6726","ios":"levelo://app?vid=c7766489-84d2-49ec-919e-98a11d4e6726"},"vehicle_type_id":"4","last_reported":1702926340,"current_range_meters":9600,"station_id":"chh1huq6cuj3fo74tm60","pricing_plan_id":"free"},{"bike_id":"238f8aea-7863-41c3-806f-57aeac4b7343","system_id":"levelo_inurba_marseille","lat":43.29526,"lon":5.39042,"is_reserved":false,"is_disabled":false,"rental_uris":{"android":"levelo://app?vid=238f8aea-7863-41c3-806f-57aeac4b7343","ios":"levelo://app?vid=238f8aea-7863-41c3-806f-57aeac4b7343"},"vehicle_type_id":"4","last_reported":1702926340,"current_range_meters":31200,"station_id":"ce4bh3p2rcd13ifvqdp0","pricing_plan_id":"free"},{"bike_id":"d124da3c-d570-4fc8-9751-ccbc02517b26","system_id":"levelo_inurba_marseille","lat":43.28861,"lon":5.35859,"is_reserved":false,"is_disabled":false,"rental_uris":{"android":"levelo://app?vid=d124da3c-d570-4fc8-9751-ccbc02517b26","ios":"levelo://app?vid=d124da3c-d570-4fc8-9751-ccbc02517b26"},"vehicle_type_id":"4","last_reported":1702926340,"current_range_meters":0,"station_id":"ce4bhb12rcd13ifvqem0","pricing_plan_id":"free"},{"bike_id":"9c7657a4-680a-4fd2-a3a1-52815276e51f","system_id":"levelo_inurba_marseille","lat":43.2901,"lon":5.381269,"is_reserved":false,"is_disabled":false,"rental_uris":{"android":"levelo://app?vid=9c7657a4-680a-4fd2-a3a1-52815276e51f","ios":"levelo://app?vid=9c7657a4-680a-4fd2-a3a1-52815276e51f"},"vehicle_type_id":"4","last_reported":1702926340,"current_range_meters":0,"station_id":"ce4bh4p2rcd13ifvqe1g","pricing_plan_id":"free"},{"bike_id":"a292f0f5-8d5d-42d7-96ff-f0ef817a54d2","system_id":"levelo_inurba_marseille","lat":43.28856,"lon":5.358371,"is_reserved":false,"is_disabled":false,"rental_uris":{"android":"levelo://app?vid=a292f0f5-8d5d-42d7-96ff-f0ef817a54d2","ios":"levelo://app?vid=a292f0f5-8d5d-42d7-96ff-f0ef817a54d2"},"vehicle_type_id":"4","last_reported":1702926340,"current_range_meters":4400,"station_id":"ce4bhb12rcd13ifvqem0","pricing_plan_id":"free"},{"bike_id":"52555428-7738-4bc5-99ea-eb79b5202705","system_id":"levelo_inurba_marseille","lat":43.337512,"lon":5.374439,"is_reserved":false,"is_disabled":false,"rental_uris":{"android":"levelo://app?vid=52555428-7738-4bc5-99ea-eb79b5202705","ios":"levelo://app?vid=52555428-7738-4bc5-99ea-eb79b5202705"},"vehicle_type_id":"4","last_reported":1702926340,"current_range_meters":28000,"station_id":"","pricing_plan_id":"free"},{"bike_id":"5d2b7674-df04-4304-838c-c0d3b93083a6","system_id":"levelo_inurba_marseille","lat":43.3375,"lon":5.37454,"is_reserved":false,"is_disabled":false,"rental_uris":{"android":"levelo://app?vid=5d2b7674-df04-4304-838c-c0d3b93083a6","ios":"levelo://app?vid=5d2b7674-df04-4304-838c-c0d3b93083a6"},"vehicle_type_id":"4","last_reported":1702926340,"current_range_meters":18800,"station_id":"","pricing_plan_id":"free"},{"bike_id":"fc8d24bb-0c26-4688-9bac-affcc075aa4d","system_id":"levelo_inurba_marseille","lat":43.33754,"lon":5.37447,"is_reserved":false,"is_disabled":false,"rental_uris":{"android":"levelo://app?vid=fc8d24bb-0c26-4688-9bac-affcc075aa4d","ios":"levelo://app?vid=fc8d24bb-0c26-4688-9bac-affcc075aa4d"},"vehicle_type_id":"4","last_reported":1702926340,"current_range_meters":25200,"station_id":"","pricing_plan_id":"free"},{"bike_id":"30fe65e3-b366-4630-8c71-a903cf8a6c91","system_id":"levelo_inurba_marseille","lat":43.30642,"lon":5.401031,"is_reserved":false,"is_disabled":false,"rental_uris":{"android":"levelo://app?vid=30fe65e3-b366-4630-8c71-a903cf8a6c91","ios":"levelo://app?vid=30fe65e3-b366-4630-8c71-a903cf8a6c91"},"vehicle_type_id":"4","last_reported":1702926340,"current_range_meters":12400,"station_id":"ce4bh112rcd13ifvqda0","pricing_plan_id":"free"},{"bike_id":"3d889ba9-34fb-42c4-be81-bdd3a0ca54c8","system_id":"levelo_inurba_marseille","lat":43.306412,"lon":5.401035,"is_reserved":false,"is_disabled":false,"rental_uris":{"android":"levelo://app?vid=3d889ba9-34fb-42c4-be81-bdd3a0ca54c8","ios":"levelo://app?vid=3d889ba9-34fb-42c4-be81-bdd3a0ca54c8"},"vehicle_type_id":"4","last_reported":1702926340,"current_range_meters":5200,"station_id":"ce4bh112rcd13ifvqda0","pricing_plan_id":"free"},{"bike_id":"dfe0e63f-e657-4749-8691-a2708869d71d","system_id":"levelo_inurba_marseille","lat":43.28727,"lon":5.36078,"is_reserved":false,"is_disabled":false,"rental_uris":{"android":"levelo://app?vid=dfe0e63f-e657-4749-8691-a2708869d71d","ios":"levelo://app?vid=dfe0e63f-e657-4749-8691-a2708869d71d"},"vehicle_type_id":"4","last_reported":1702926340,"current_range_meters":29600,"station_id":"cki0cbj6b192h4jlfktg","pricing_plan_id":"free"},{"bike_id":"2618ed52-aaab-4281-b032-c4cac9cbdffa","system_id":"levelo_inurba_marseille","lat":43.28727,"lon":5.36078,"is_reserved":false,"is_disabled":false,"rental_uris":{"android":"levelo://app?vid=2618ed52-aaab-4281-b032-c4cac9cbdffa","ios":"levelo://app?vid=2618ed52-aaab-4281-b032-c4cac9cbdffa"},"vehicle_type_id":"4","last_reported":1702926340,"current_range_meters":20400,"station_id":"cki0cbj6b192h4jlfktg","pricing_plan_id":"free"},{"bike_id":"57343f7a-b5a7-4c64-bde2-578dd3b7d51a","system_id":"levelo_inurba_marseille","lat":43.286961,"lon":5.373785,"is_reserved":false,"is_disabled":false,"rental_uris":{"android":"levelo://app?vid=57343f7a-b5a7-4c64-bde2-578dd3b7d51a","ios":"levelo://app?vid=57343f7a-b5a7-4c64-bde2-578dd3b7d51a"},"vehicle_type_id":"4","last_reported":1702926340,"current_range_meters":31600,"station_id":"ce4bh3p2rcd13ifvqdq0","pricing_plan_id":"free"},{"bike_id":"e63f6908-e5c6-4f87-9ab6-f653f2e5977b","system_id":"levelo_inurba_marseille","lat":43.286961,"lon":5.373785,"is_reserved":false,"is_disabled":false,"rental_uris":{"android":"levelo://app?vid=e63f6908-e5c6-4f87-9ab6-f653f2e5977b","ios":"levelo://app?vid=e63f6908-e5c6-4f87-9ab6-f653f2e5977b"},"vehicle_type_id":"4","last_reported":1702926340,"current_range_meters":14800,"station_id":"ce4bh3p2rcd13ifvqdq0","pricing_plan_id":"free"},{"bike_id":"09482689-f053-4eab-b1b2-4a75dc849209","system_id":"levelo_inurba_marseille","lat":43.286961,"lon":5.373785,"is_reserved":false,"is_disabled":false,"rental_uris":{"android":"levelo://app?vid=09482689-f053-4eab-b1b2-4a75dc849209","ios":"levelo://app?vid=09482689-f053-4eab-b1b2-4a75dc849209"},"vehicle_type_id":"4","last_reported":1702926340,"current_range_meters":12800,"station_id":"ce4bh3p2rcd13ifvqdq0","pricing_plan_id":"free"},{"bike_id":"773474c7-82a1-47e4-a12f-a6e03bb8a19c","system_id":"levelo_inurba_marseille","lat":43.286961,"lon":5.373785,"is_reserved":false,"is_disabled":false,"rental_uris":{"android":"levelo://app?vid=773474c7-82a1-47e4-a12f-a6e03bb8a19c","ios":"levelo://app?vid=773474c7-82a1-47e4-a12f-a6e03bb8a19c"},"vehicle_type_id":"4","last_reported":1702926340,"current_range_meters":5200,"station_id":"ce4bh3p2rcd13ifvqdq0","pricing_plan_id":"free"},{"bike_id":"aeab685b-091d-4fec-9ecb-2b416ebf43f6","system_id":"levelo_inurba_marseille","lat":43.286593,"lon":5.363346,"is_reserved":false,"is_disabled":false,"rental_uris":{"android":"levelo://app?vid=aeab685b-091d-4fec-9ecb-2b416ebf43f6","ios":"levelo://app?vid=aeab685b-091d-4fec-9ecb-2b416ebf43f6"},"vehicle_type_id":"4","last_reported":1702926340,"current_range_meters":17600,"station_id":"ce4bhah2rcd13ifvqej0","pricing_plan_id":"free"},{"bike_id":"a581f509-1603-48d3-a78d-0a28073fa166","system_id":"levelo_inurba_marseille","lat":43.286961,"lon":5.373785,"is_reserved":false,"is_disabled":false,"rental_uris":{"android":"levelo://app?vid=a581f509-1603-48d3-a78d-0a28073fa166","ios":"levelo://app?vid=a581f509-1603-48d3-a78d-0a28073fa166"},"vehicle_type_id":"4","last_reported":1702926340,"current_range_meters":15200,"station_id":"ce4bh3p2rcd13ifvqdq0","pricing_plan_id":"free"},{"bike_id":"f4baef8d-79a0-4bbb-a482-719efc270145","system_id":"levelo_inurba_marseille","lat":43.286637,"lon":5.36354,"is_reserved":false,"is_disabled":false,"rental_uris":{"android":"levelo://app?vid=f4baef8d-79a0-4bbb-a482-719efc270145","ios":"levelo://app?vid=f4baef8d-79a0-4bbb-a482-719efc270145"},"vehicle_type_id":"4","last_reported":1702926340,"current_range_meters":23600,"station_id":"ce4bhah2rcd13ifvqej0","pricing_plan_id":"free"},{"bike_id":"c19c79a8-775d-4da1-b291-f35d57d67324","system_id":"levelo_inurba_marseille","lat":43.286591,"lon":5.363346,"is_reserved":false,"is_disabled":false,"rental_uris":{"android":"levelo://app?vid=c19c79a8-775d-4da1-b291-f35d57d67324","ios":"levelo://app?vid=c19c79a8-775d-4da1-b291-f35d57d67324"},"vehicle_type_id":"4","last_reported":1702926340,"current_range_meters":20800,"station_id":"ce4bhah2rcd13ifvqej0","pricing_plan_id":"free"},{"bike_id":"e054a5f3-8921-408d-9930-0da36cff847e","system_id":"levelo_inurba_marseille","lat":43.286961,"lon":5.373785,"is_reserved":false,"is_disabled":false,"rental_uris":{"android":"levelo://app?vid=e054a5f3-8921-408d-9930-0da36cff847e","ios":"levelo://app?vid=e054a5f3-8921-408d-9930-0da36cff847e"},"vehicle_type_id":"4","last_reported":1702926340,"current_range_meters":7200,"station_id":"ce4bh3p2rcd13ifvqdq0","pricing_plan_id":"free"},{"bike_id":"eb4ce8a9-b79c-49e9-abf4-e7b0af041abc","system_id":"levelo_inurba_marseille","lat":43.286961,"lon":5.373785,"is_reserved":false,"is_disabled":false,"rental_uris":{"android":"levelo://app?vid=eb4ce8a9-b79c-49e9-abf4-e7b0af041abc","ios":"levelo://app?vid=eb4ce8a9-b79c-49e9-abf4-e7b0af041abc"},"vehicle_type_id":"4","last_reported":1702926340,"current_range_meters":20400,"station_id":"ce4bh3p2rcd13ifvqdq0","pricing_plan_id":"free"},{"bike_id":"43832eb9-6230-467e-94af-98eed995e58f","system_id":"levelo_inurba_marseille","lat":43.290336,"lon":5.386425,"is_reserved":false,"is_disabled":false,"rental_uris":{"android":"levelo://app?vid=43832eb9-6230-467e-94af-98eed995e58f","ios":"levelo://app?vid=43832eb9-6230-467e-94af-98eed995e58f"},"vehicle_type_id":"4","last_reported":1702926340,"current_range_meters":29200,"station_id":"ce4bh4p2rcd13ifvqe0g","pricing_plan_id":"free"},{"bike_id":"f8b98059-39b3-42c1-8744-efd5127029a8","system_id":"levelo_inurba_marseille","lat":43.289237,"lon":5.383907,"is_reserved":false,"is_disabled":false,"rental_uris":{"android":"levelo://app?vid=f8b98059-39b3-42c1-8744-efd5127029a8","ios":"levelo://app?vid=f8b98059-39b3-42c1-8744-efd5127029a8"},"vehicle_type_id":"4","last_reported":1702926340,"current_range_meters":0,"station_id":"ce4bh612rcd13ifvqe6g","pricing_plan_id":"free"},{"bike_id":"9a69b94a-3af0-492d-b458-fbab19284bb6","system_id":"levelo_inurba_marseille","lat":43.290336,"lon":5.386425,"is_reserved":false,"is_disabled":false,"rental_uris":{"android":"levelo://app?vid=9a69b94a-3af0-492d-b458-fbab19284bb6","ios":"levelo://app?vid=9a69b94a-3af0-492d-b458-fbab19284bb6"},"vehicle_type_id":"4","last_reported":1702926340,"current_range_meters":6000,"station_id":"ce4bh4p2rcd13ifvqe0g","pricing_plan_id":"free"},{"bike_id":"e9ebd21d-2f09-4bd4-a7ea-a9182895e836","system_id":"levelo_inurba_marseille","lat":43.286039,"lon":5.370679,"is_reserved":false,"is_disabled":false,"rental_uris":{"android":"levelo://app?vid=e9ebd21d-2f09-4bd4-a7ea-a9182895e836","ios":"levelo://app?vid=e9ebd21d-2f09-4bd4-a7ea-a9182895e836"},"vehicle_type_id":"4","last_reported":1702926340,"current_range_meters":11600,"station_id":"ce4bht12rcd13ifvqi60","pricing_plan_id":"free"},{"bike_id":"04ce3566-187c-4390-b127-e0bde3fb4456","system_id":"levelo_inurba_marseille","lat":43.314017,"lon":5.403697,"is_reserved":false,"is_disabled":false,"rental_uris":{"android":"levelo://app?vid=04ce3566-187c-4390-b127-e0bde3fb4456","ios":"levelo://app?vid=04ce3566-187c-4390-b127-e0bde3fb4456"},"vehicle_type_id":"4","last_reported":1702926340,"current_range_meters":22400,"station_id":"","pricing_plan_id":"free"},{"bike_id":"b9107709-24c9-405a-b560-63394689601c","system_id":"levelo_inurba_marseille","lat":43.287185,"lon":5.379373,"is_reserved":false,"is_disabled":false,"rental_uris":{"android":"levelo://app?vid=b9107709-24c9-405a-b560-63394689601c","ios":"levelo://app?vid=b9107709-24c9-405a-b560-63394689601c"},"vehicle_type_id":"4","last_reported":1702926340,"current_range_meters":31200,"station_id":"ce4bh9p2rcd13ifvqec0","pricing_plan_id":"free"},{"bike_id":"24d4422a-81c5-48f5-b5b1-96a084b48a13","system_id":"levelo_inurba_marseille","lat":43.291994,"lon":5.392907,"is_reserved":false,"is_disabled":false,"rental_uris":{"android":"levelo://app?vid=24d4422a-81c5-48f5-b5b1-96a084b48a13","ios":"levelo://app?vid=24d4422a-81c5-48f5-b5b1-96a084b48a13"},"vehicle_type_id":"4","last_reported":1702926340,"current_range_meters":10400,"station_id":"ce4bh192rcd13ifvqdd0","pricing_plan_id":"free"},{"bike_id":"8c22da29-f189-4442-a10e-a405b7dfb79c","system_id":"levelo_inurba_marseille","lat":43.284538,"lon":5.358657,"is_reserved":false,"is_disabled":false,"rental_uris":{"android":"levelo://app?vid=8c22da29-f189-4442-a10e-a405b7dfb79c","ios":"levelo://app?vid=8c22da29-f189-4442-a10e-a405b7dfb79c"},"vehicle_type_id":"4","last_reported":1702926340,"current_range_meters":29200,"station_id":"ce4bhah2rcd13ifvqei0","pricing_plan_id":"free"},{"bike_id":"a5a6fc51-1f2d-4638-bcf7-bbc8f0e84d9a","system_id":"levelo_inurba_marseille","lat":43.284534,"lon":5.358662,"is_reserved":false,"is_disabled":false,"rental_uris":{"android":"levelo://app?vid=a5a6fc51-1f2d-4638-bcf7-bbc8f0e84d9a","ios":"levelo://app?vid=a5a6fc51-1f2d-4638-bcf7-bbc8f0e84d9a"},"vehicle_type_id":"4","last_reported":1702926340,"current_range_meters":25600,"station_id":"ce4bhah2rcd13ifvqei0","pricing_plan_id":"free"},{"bike_id":"7e3398a8-c940-4a15-94de-ad2d4ed67464","system_id":"levelo_inurba_marseille","lat":43.294314,"lon":5.397498,"is_reserved":false,"is_disabled":false,"rental_uris":{"android":"levelo://app?vid=7e3398a8-c940-4a15-94de-ad2d4ed67464","ios":"levelo://app?vid=7e3398a8-c940-4a15-94de-ad2d4ed67464"},"vehicle_type_id":"4","last_reported":1702926340,"current_range_meters":24800,"station_id":"ce4bh3h2rcd13ifvqdo0","pricing_plan_id":"free"},{"bike_id":"275dfd0e-5b16-4a69-a93f-504951f1142e","system_id":"levelo_inurba_marseille","lat":43.28617,"lon":5.35105,"is_reserved":false,"is_disabled":false,"rental_uris":{"android":"levelo://app?vid=275dfd0e-5b16-4a69-a93f-504951f1142e","ios":"levelo://app?vid=275dfd0e-5b16-4a69-a93f-504951f1142e"},"vehicle_type_id":"4","last_reported":1702926340,"current_range_meters":14400,"station_id":"ce4bhch2rcd13ifvqeug","pricing_plan_id":"free"},{"bike_id":"77389bdc-2727-4736-819e-bb68f0dc0783","system_id":"levelo_inurba_marseille","lat":43.28613,"lon":5.35111,"is_reserved":false,"is_disabled":false,"rental_uris":{"android":"levelo://app?vid=77389bdc-2727-4736-819e-bb68f0dc0783","ios":"levelo://app?vid=77389bdc-2727-4736-819e-bb68f0dc0783"},"vehicle_type_id":"4","last_reported":1702926340,"current_range_meters":0,"station_id":"ce4bhch2rcd13ifvqeug","pricing_plan_id":"free"},{"bike_id":"5e39142f-4bc7-4b39-81db-3ddba57925dc","system_id":"levelo_inurba_marseille","lat":43.285848,"lon":5.350787,"is_reserved":false,"is_disabled":false,"rental_uris":{"android":"levelo://app?vid=5e39142f-4bc7-4b39-81db-3ddba57925dc","ios":"levelo://app?vid=5e39142f-4bc7-4b39-81db-3ddba57925dc"},"vehicle_type_id":"4","last_reported":1702926340,"current_range_meters":20400,"station_id":"ce4bhch2rcd13ifvqeug","pricing_plan_id":"free"},{"bike_id":"0f237380-8414-47ca-9607-4fd40ea057f0","system_id":"levelo_inurba_marseille","lat":43.295763,"lon":5.39964,"is_reserved":false,"is_disabled":false,"rental_uris":{"android":"levelo://app?vid=0f237380-8414-47ca-9607-4fd40ea057f0","ios":"levelo://app?vid=0f237380-8414-47ca-9607-4fd40ea057f0"},"vehicle_type_id":"4","last_reported":1702926340,"current_range_meters":22800,"station_id":"ce4bh312rcd13ifvqdj0","pricing_plan_id":"free"},{"bike_id":"648b9eb3-117b-4ef6-8b52-802a099ea74c","system_id":"levelo_inurba_marseille","lat":43.283998,"lon":5.375062,"is_reserved":false,"is_disabled":false,"rental_uris":{"android":"levelo://app?vid=648b9eb3-117b-4ef6-8b52-802a099ea74c","ios":"levelo://app?vid=648b9eb3-117b-4ef6-8b52-802a099ea74c"},"vehicle_type_id":"4","last_reported":1702926340,"current_range_meters":4000,"station_id":"ce4bh412rcd13ifvqds0","pricing_plan_id":"free"},{"bike_id":"3ea82344-f814-489e-9854-20359f6b6ff6","system_id":"levelo_inurba_marseille","lat":43.295713,"lon":5.399639,"is_reserved":false,"is_disabled":false,"rental_uris":{"android":"levelo://app?vid=3ea82344-f814-489e-9854-20359f6b6ff6","ios":"levelo://app?vid=3ea82344-f814-489e-9854-20359f6b6ff6"},"vehicle_type_id":"4","last_reported":1702926340,"current_range_meters":20400,"station_id":"ce4bh312rcd13ifvqdj0","pricing_plan_id":"free"},{"bike_id":"2dfa5049-0e1b-4839-b5c3-156910a65dbd","system_id":"levelo_inurba_marseille","lat":43.33218,"lon":5.397067,"is_reserved":false,"is_disabled":false,"rental_uris":{"android":"levelo://app?vid=2dfa5049-0e1b-4839-b5c3-156910a65dbd","ios":"levelo://app?vid=2dfa5049-0e1b-4839-b5c3-156910a65dbd"},"vehicle_type_id":"4","last_reported":1702926340,"current_range_meters":4400,"station_id":"","pricing_plan_id":"free"},{"bike_id":"631f99c1-13ff-43fb-8355-be7ad37c39d2","system_id":"levelo_inurba_marseille","lat":43.295713,"lon":5.399639,"is_reserved":false,"is_disabled":false,"rental_uris":{"android":"levelo://app?vid=631f99c1-13ff-43fb-8355-be7ad37c39d2","ios":"levelo://app?vid=631f99c1-13ff-43fb-8355-be7ad37c39d2"},"vehicle_type_id":"4","last_reported":1702926340,"current_range_meters":12400,"station_id":"ce4bh312rcd13ifvqdj0","pricing_plan_id":"free"},{"bike_id":"ca3b04c3-f20b-4fa3-b259-f320fef6cbdc","system_id":"levelo_inurba_marseille","lat":43.28393,"lon":5.37529,"is_reserved":false,"is_disabled":false,"rental_uris":{"android":"levelo://app?vid=ca3b04c3-f20b-4fa3-b259-f320fef6cbdc","ios":"levelo://app?vid=ca3b04c3-f20b-4fa3-b259-f320fef6cbdc"},"vehicle_type_id":"4","last_reported":1702926340,"current_range_meters":16000,"station_id":"ce4bh412rcd13ifvqds0","pricing_plan_id":"free"},{"bike_id":"68076cdf-f4d9-4277-9054-85a2c25e291e","system_id":"levelo_inurba_marseille","lat":43.286595,"lon":5.386795,"is_reserved":false,"is_disabled":false,"rental_uris":{"android":"levelo://app?vid=68076cdf-f4d9-4277-9054-85a2c25e291e","ios":"levelo://app?vid=68076cdf-f4d9-4277-9054-85a2c25e291e"},"vehicle_type_id":"4","last_reported":1702926340,"current_range_meters":9600,"station_id":"ce4bh492rcd13ifvqdug","pricing_plan_id":"free"},{"bike_id":"dd7c3735-fcc8-4fe9-8427-c354b4521977","system_id":"levelo_inurba_marseille","lat":43.28666,"lon":5.386567,"is_reserved":false,"is_disabled":false,"rental_uris":{"android":"levelo://app?vid=dd7c3735-fcc8-4fe9-8427-c354b4521977","ios":"levelo://app?vid=dd7c3735-fcc8-4fe9-8427-c354b4521977"},"vehicle_type_id":"4","last_reported":1702926340,"current_range_meters":0,"station_id":"ce4bh492rcd13ifvqdug","pricing_plan_id":"free"},{"bike_id":"388a2be8-11ce-402d-9c8a-bacd786454e8","system_id":"levelo_inurba_marseille","lat":43.28663,"lon":5.38672,"is_reserved":false,"is_disabled":false,"rental_uris":{"android":"levelo://app?vid=388a2be8-11ce-402d-9c8a-bacd786454e8","ios":"levelo://app?vid=388a2be8-11ce-402d-9c8a-bacd786454e8"},"vehicle_type_id":"4","last_reported":1702926340,"current_range_meters":27200,"station_id":"","pricing_plan_id":"free"},{"bike_id":"ce5f4898-7e3f-4feb-8491-c37baca1638e","system_id":"levelo_inurba_marseille","lat":43.284793,"lon":5.384113,"is_reserved":false,"is_disabled":false,"rental_uris":{"android":"levelo://app?vid=ce5f4898-7e3f-4feb-8491-c37baca1638e","ios":"levelo://app?vid=ce5f4898-7e3f-4feb-8491-c37baca1638e"},"vehicle_type_id":"4","last_reported":1702926340,"current_range_meters":0,"station_id":"ce4bh512rcd13ifvqe3g","pricing_plan_id":"free"},{"bike_id":"0a373f18-b477-453d-b9cd-22b5bdacd204","system_id":"levelo_inurba_marseille","lat":43.284787,"lon":5.384116,"is_reserved":false,"is_disabled":false,"rental_uris":{"android":"levelo://app?vid=0a373f18-b477-453d-b9cd-22b5bdacd204","ios":"levelo://app?vid=0a373f18-b477-453d-b9cd-22b5bdacd204"},"vehicle_type_id":"4","last_reported":1702926340,"current_range_meters":14800,"station_id":"ce4bh512rcd13ifvqe3g","pricing_plan_id":"free"},{"bike_id":"3a293e34-ad39-404a-8046-873b947690e5","system_id":"levelo_inurba_marseille","lat":43.297946,"lon":5.404063,"is_reserved":false,"is_disabled":false,"rental_uris":{"android":"levelo://app?vid=3a293e34-ad39-404a-8046-873b947690e5","ios":"levelo://app?vid=3a293e34-ad39-404a-8046-873b947690e5"},"vehicle_type_id":"4","last_reported":1702926340,"current_range_meters":7600,"station_id":"ce4bh112rcd13ifvqd90","pricing_plan_id":"free"},{"bike_id":"2919631a-5f21-4cf6-930a-50f71929b7b5","system_id":"levelo_inurba_marseille","lat":43.29795,"lon":5.404086,"is_reserved":false,"is_disabled":false,"rental_uris":{"android":"levelo://app?vid=2919631a-5f21-4cf6-930a-50f71929b7b5","ios":"levelo://app?vid=2919631a-5f21-4cf6-930a-50f71929b7b5"},"vehicle_type_id":"4","last_reported":1702926340,"current_range_meters":30800,"station_id":"ce4bh112rcd13ifvqd90","pricing_plan_id":"free"},{"bike_id":"9da4610a-9468-4009-8350-2bd77e1c9e1d","system_id":"levelo_inurba_marseille","lat":43.297946,"lon":5.404063,"is_reserved":false,"is_disabled":false,"rental_uris":{"android":"levelo://app?vid=9da4610a-9468-4009-8350-2bd77e1c9e1d","ios":"levelo://app?vid=9da4610a-9468-4009-8350-2bd77e1c9e1d"},"vehicle_type_id":"4","last_reported":1702926340,"current_range_meters":1600,"station_id":"ce4bh112rcd13ifvqd90","pricing_plan_id":"free"},{"bike_id":"63937f00-79aa-4dea-877e-5d1eecd0759e","system_id":"levelo_inurba_marseille","lat":43.306412,"lon":5.401035,"is_reserved":false,"is_disabled":false,"rental_uris":{"android":"levelo://app?vid=63937f00-79aa-4dea-877e-5d1eecd0759e","ios":"levelo://app?vid=63937f00-79aa-4dea-877e-5d1eecd0759e"},"vehicle_type_id":"4","last_reported":1702926340,"current_range_meters":26000,"station_id":"ce4bh112rcd13ifvqda0","pricing_plan_id":"free"},{"bike_id":"6ac57daa-4daf-47f1-a501-e19ead09e558","system_id":"levelo_inurba_marseille","lat":43.289363,"lon":5.396322,"is_reserved":false,"is_disabled":false,"rental_uris":{"android":"levelo://app?vid=6ac57daa-4daf-47f1-a501-e19ead09e558","ios":"levelo://app?vid=6ac57daa-4daf-47f1-a501-e19ead09e558"},"vehicle_type_id":"4","last_reported":1702926340,"current_range_meters":10400,"station_id":"ce4bh3h2rcd13ifvqdn0","pricing_plan_id":"free"},{"bike_id":"3d3140a8-fbb1-47bf-b9ef-e9bf548435f6","system_id":"levelo_inurba_marseille","lat":43.283502,"lon":5.386471,"is_reserved":false,"is_disabled":false,"rental_uris":{"android":"levelo://app?vid=3d3140a8-fbb1-47bf-b9ef-e9bf548435f6","ios":"levelo://app?vid=3d3140a8-fbb1-47bf-b9ef-e9bf548435f6"},"vehicle_type_id":"4","last_reported":1702926340,"current_range_meters":20400,"station_id":"ce4bh492rcd13ifvqdvg","pricing_plan_id":"free"},{"bike_id":"14e1b31b-c460-4fda-b8f3-d7d72b9acd89","system_id":"levelo_inurba_marseille","lat":43.281044,"lon":5.378308,"is_reserved":false,"is_disabled":false,"rental_uris":{"android":"levelo://app?vid=14e1b31b-c460-4fda-b8f3-d7d72b9acd89","ios":"levelo://app?vid=14e1b31b-c460-4fda-b8f3-d7d72b9acd89"},"vehicle_type_id":"4","last_reported":1702926340,"current_range_meters":19200,"station_id":"ce4bha12rcd13ifvqee0","pricing_plan_id":"free"},{"bike_id":"9698e689-4b8e-4a73-8d7d-39bb6b2312fa","system_id":"levelo_inurba_marseille","lat":43.2811,"lon":5.37836,"is_reserved":false,"is_disabled":false,"rental_uris":{"android":"levelo://app?vid=9698e689-4b8e-4a73-8d7d-39bb6b2312fa","ios":"levelo://app?vid=9698e689-4b8e-4a73-8d7d-39bb6b2312fa"},"vehicle_type_id":"4","last_reported":1702926340,"current_range_meters":0,"station_id":"ce4bha12rcd13ifvqee0","pricing_plan_id":"free"},{"bike_id":"4c4933e9-fd4a-47e9-8b8c-02ad0ede1418","system_id":"levelo_inurba_marseille","lat":43.281044,"lon":5.378308,"is_reserved":false,"is_disabled":false,"rental_uris":{"android":"levelo://app?vid=4c4933e9-fd4a-47e9-8b8c-02ad0ede1418","ios":"levelo://app?vid=4c4933e9-fd4a-47e9-8b8c-02ad0ede1418"},"vehicle_type_id":"4","last_reported":1702926340,"current_range_meters":21600,"station_id":"ce4bha12rcd13ifvqee0","pricing_plan_id":"free"},{"bike_id":"9bad57d9-8f00-42c2-ba99-f7d3200362ca","system_id":"levelo_inurba_marseille","lat":43.296263,"lon":5.40601,"is_reserved":false,"is_disabled":false,"rental_uris":{"android":"levelo://app?vid=9bad57d9-8f00-42c2-ba99-f7d3200362ca","ios":"levelo://app?vid=9bad57d9-8f00-42c2-ba99-f7d3200362ca"},"vehicle_type_id":"4","last_reported":1702926340,"current_range_meters":25600,"station_id":"ce4bh0h2rcd13ifvqd60","pricing_plan_id":"free"},{"bike_id":"2970159a-cdd2-48e2-b3c0-fecd78954376","system_id":"levelo_inurba_marseille","lat":43.284462,"lon":5.392121,"is_reserved":false,"is_disabled":false,"rental_uris":{"android":"levelo://app?vid=2970159a-cdd2-48e2-b3c0-fecd78954376","ios":"levelo://app?vid=2970159a-cdd2-48e2-b3c0-fecd78954376"},"vehicle_type_id":"4","last_reported":1702926340,"current_range_meters":4400,"station_id":"ce4bhoh2rcd13ifvqh5g","pricing_plan_id":"free"},{"bike_id":"75a2a611-e6d8-442f-ba5a-47c2032c5304","system_id":"levelo_inurba_marseille","lat":43.284462,"lon":5.392121,"is_reserved":false,"is_disabled":false,"rental_uris":{"android":"levelo://app?vid=75a2a611-e6d8-442f-ba5a-47c2032c5304","ios":"levelo://app?vid=75a2a611-e6d8-442f-ba5a-47c2032c5304"},"vehicle_type_id":"4","last_reported":1702926340,"current_range_meters":10400,"station_id":"ce4bhoh2rcd13ifvqh5g","pricing_plan_id":"free"},{"bike_id":"078401c7-9978-48fe-a767-59fb46b7e93c","system_id":"levelo_inurba_marseille","lat":43.284462,"lon":5.392121,"is_reserved":false,"is_disabled":false,"rental_uris":{"android":"levelo://app?vid=078401c7-9978-48fe-a767-59fb46b7e93c","ios":"levelo://app?vid=078401c7-9978-48fe-a767-59fb46b7e93c"},"vehicle_type_id":"4","last_reported":1702926340,"current_range_meters":15200,"station_id":"ce4bhoh2rcd13ifvqh5g","pricing_plan_id":"free"},{"bike_id":"78d39f5f-a0a5-4f60-8286-6ee470ee6ae3","system_id":"levelo_inurba_marseille","lat":43.30421,"lon":5.41291,"is_reserved":false,"is_disabled":false,"rental_uris":{"android":"levelo://app?vid=78d39f5f-a0a5-4f60-8286-6ee470ee6ae3","ios":"levelo://app?vid=78d39f5f-a0a5-4f60-8286-6ee470ee6ae3"},"vehicle_type_id":"4","last_reported":1702926340,"current_range_meters":12800,"station_id":"ce4bhop2rcd13ifvqh8g","pricing_plan_id":"free"},{"bike_id":"ebc382dc-bff4-4ed0-8fce-28d10fdc332a","system_id":"levelo_inurba_marseille","lat":43.304188,"lon":5.412904,"is_reserved":false,"is_disabled":false,"rental_uris":{"android":"levelo://app?vid=ebc382dc-bff4-4ed0-8fce-28d10fdc332a","ios":"levelo://app?vid=ebc382dc-bff4-4ed0-8fce-28d10fdc332a"},"vehicle_type_id":"4","last_reported":1702926340,"current_range_meters":8400,"station_id":"ce4bhop2rcd13ifvqh8g","pricing_plan_id":"free"},{"bike_id":"49d8443e-7f2a-450b-b859-da4aa2a14d6d","system_id":"levelo_inurba_marseille","lat":43.279087,"lon":5.380114,"is_reserved":false,"is_disabled":false,"rental_uris":{"android":"levelo://app?vid=49d8443e-7f2a-450b-b859-da4aa2a14d6d","ios":"levelo://app?vid=49d8443e-7f2a-450b-b859-da4aa2a14d6d"},"vehicle_type_id":"4","last_reported":1702926340,"current_range_meters":19200,"station_id":"ce4bhf92rcd13ifvqf50","pricing_plan_id":"free"},{"bike_id":"1ea76922-7e4c-4026-a051-c916e47f69ee","system_id":"levelo_inurba_marseille","lat":43.287154,"lon":5.399979,"is_reserved":false,"is_disabled":false,"rental_uris":{"android":"levelo://app?vid=1ea76922-7e4c-4026-a051-c916e47f69ee","ios":"levelo://app?vid=1ea76922-7e4c-4026-a051-c916e47f69ee"},"vehicle_type_id":"4","last_reported":1702926340,"current_range_meters":19200,"station_id":"ce4bho92rcd13ifvqh3g","pricing_plan_id":"free"},{"bike_id":"06d6d0a7-5a4c-4ff6-a91a-ac2bb0e711e7","system_id":"levelo_inurba_marseille","lat":43.276078,"lon":5.361,"is_reserved":false,"is_disabled":false,"rental_uris":{"android":"levelo://app?vid=06d6d0a7-5a4c-4ff6-a91a-ac2bb0e711e7","ios":"levelo://app?vid=06d6d0a7-5a4c-4ff6-a91a-ac2bb0e711e7"},"vehicle_type_id":"4","last_reported":1702926340,"current_range_meters":7600,"station_id":"ce4bgj92rcd13ifvqbe0","pricing_plan_id":"free"},{"bike_id":"4443f536-4f02-4320-8763-26fb4bf07d92","system_id":"levelo_inurba_marseille","lat":43.279087,"lon":5.380114,"is_reserved":false,"is_disabled":false,"rental_uris":{"android":"levelo://app?vid=4443f536-4f02-4320-8763-26fb4bf07d92","ios":"levelo://app?vid=4443f536-4f02-4320-8763-26fb4bf07d92"},"vehicle_type_id":"4","last_reported":1702926340,"current_range_meters":5600,"station_id":"ce4bhf92rcd13ifvqf50","pricing_plan_id":"free"},{"bike_id":"abce9a6c-3aeb-4133-883b-f887057d135d","system_id":"levelo_inurba_marseille","lat":43.280784,"lon":5.396622,"is_reserved":false,"is_disabled":false,"rental_uris":{"android":"levelo://app?vid=abce9a6c-3aeb-4133-883b-f887057d135d","ios":"levelo://app?vid=abce9a6c-3aeb-4133-883b-f887057d135d"},"vehicle_type_id":"4","last_reported":1702926340,"current_range_meters":6000,"station_id":"ce4bho12rcd13ifvqh2g","pricing_plan_id":"free"},{"bike_id":"15e1f8dc-2600-4807-a14e-dd378347c034","system_id":"levelo_inurba_marseille","lat":43.303837,"lon":5.418724,"is_reserved":false,"is_disabled":false,"rental_uris":{"android":"levelo://app?vid=15e1f8dc-2600-4807-a14e-dd378347c034","ios":"levelo://app?vid=15e1f8dc-2600-4807-a14e-dd378347c034"},"vehicle_type_id":"4","last_reported":1702926340,"current_range_meters":28400,"station_id":"ce4bhop2rcd13ifvqh7g","pricing_plan_id":"free"},{"bike_id":"ca903987-9494-4462-9aab-15e028bbb414","system_id":"levelo_inurba_marseille","lat":43.278399,"lon":5.392139,"is_reserved":false,"is_disabled":false,"rental_uris":{"android":"levelo://app?vid=ca903987-9494-4462-9aab-15e028bbb414","ios":"levelo://app?vid=ca903987-9494-4462-9aab-15e028bbb414"},"vehicle_type_id":"4","last_reported":1702926340,"current_range_meters":14800,"station_id":"ce4bhjp2rcd13ifvqga0","pricing_plan_id":"free"},{"bike_id":"7a94aa7f-225e-4f23-a1e7-8f86fd04b7de","system_id":"levelo_inurba_marseille","lat":43.278401,"lon":5.392152,"is_reserved":false,"is_disabled":false,"rental_uris":{"android":"levelo://app?vid=7a94aa7f-225e-4f23-a1e7-8f86fd04b7de","ios":"levelo://app?vid=7a94aa7f-225e-4f23-a1e7-8f86fd04b7de"},"vehicle_type_id":"4","last_reported":1702926340,"current_range_meters":20800,"station_id":"ce4bhjp2rcd13ifvqga0","pricing_plan_id":"free"},{"bike_id":"8b7163c8-747c-4e96-8584-c017d4b913c7","system_id":"levelo_inurba_marseille","lat":43.273613,"lon":5.362705,"is_reserved":false,"is_disabled":false,"rental_uris":{"android":"levelo://app?vid=8b7163c8-747c-4e96-8584-c017d4b913c7","ios":"levelo://app?vid=8b7163c8-747c-4e96-8584-c017d4b913c7"},"vehicle_type_id":"4","last_reported":1702926340,"current_range_meters":23600,"station_id":"ce4bhbh2rcd13ifvqeo0","pricing_plan_id":"free"},{"bike_id":"0cf403f8-9992-471b-b83e-97c5b20efdb5","system_id":"levelo_inurba_marseille","lat":43.273609,"lon":5.362708,"is_reserved":false,"is_disabled":false,"rental_uris":{"android":"levelo://app?vid=0cf403f8-9992-471b-b83e-97c5b20efdb5","ios":"levelo://app?vid=0cf403f8-9992-471b-b83e-97c5b20efdb5"},"vehicle_type_id":"4","last_reported":1702926340,"current_range_meters":18400,"station_id":"ce4bhbh2rcd13ifvqeo0","pricing_plan_id":"free"},{"bike_id":"1b3fa34e-3ef3-4901-977b-90059fa68b57","system_id":"levelo_inurba_marseille","lat":43.276771,"lon":5.388799,"is_reserved":false,"is_disabled":false,"rental_uris":{"android":"levelo://app?vid=1b3fa34e-3ef3-4901-977b-90059fa68b57","ios":"levelo://app?vid=1b3fa34e-3ef3-4901-977b-90059fa68b57"},"vehicle_type_id":"4","last_reported":1702926340,"current_range_meters":21200,"station_id":"ce4bhi12rcd13ifvqfo0","pricing_plan_id":"free"},{"bike_id":"ba23a49f-f752-40f9-b881-d731ba920e07","system_id":"levelo_inurba_marseille","lat":43.323861,"lon":5.419548,"is_reserved":false,"is_disabled":false,"rental_uris":{"android":"levelo://app?vid=ba23a49f-f752-40f9-b881-d731ba920e07","ios":"levelo://app?vid=ba23a49f-f752-40f9-b881-d731ba920e07"},"vehicle_type_id":"4","last_reported":1702926340,"current_range_meters":27600,"station_id":"","pricing_plan_id":"free"},{"bike_id":"8733e204-521a-4eb5-b941-02d6d0876730","system_id":"levelo_inurba_marseille","lat":43.279952,"lon":5.400085,"is_reserved":false,"is_disabled":false,"rental_uris":{"android":"levelo://app?vid=8733e204-521a-4eb5-b941-02d6d0876730","ios":"levelo://app?vid=8733e204-521a-4eb5-b941-02d6d0876730"},"vehicle_type_id":"4","last_reported":1702926340,"current_range_meters":3200,"station_id":"ce4bho92rcd13ifvqh4g","pricing_plan_id":"free"},{"bike_id":"1c94075f-1520-42e4-b407-7493fed250da","system_id":"levelo_inurba_marseille","lat":43.340804,"lon":5.410219,"is_reserved":false,"is_disabled":false,"rental_uris":{"android":"levelo://app?vid=1c94075f-1520-42e4-b407-7493fed250da","ios":"levelo://app?vid=1c94075f-1520-42e4-b407-7493fed250da"},"vehicle_type_id":"4","last_reported":1702926340,"current_range_meters":10400,"station_id":"ce4bhqh2rcd13ifvqhlg","pricing_plan_id":"free"},{"bike_id":"051c77bb-f477-4448-bbe3-4595a522b0e7","system_id":"levelo_inurba_marseille","lat":43.340804,"lon":5.410219,"is_reserved":false,"is_disabled":false,"rental_uris":{"android":"levelo://app?vid=051c77bb-f477-4448-bbe3-4595a522b0e7","ios":"levelo://app?vid=051c77bb-f477-4448-bbe3-4595a522b0e7"},"vehicle_type_id":"4","last_reported":1702926340,"current_range_meters":8400,"station_id":"ce4bhqh2rcd13ifvqhlg","pricing_plan_id":"free"},{"bike_id":"3ca2c2d2-99b0-4aa6-a05d-e30f02e6a7fb","system_id":"levelo_inurba_marseille","lat":43.276092,"lon":5.395289,"is_reserved":false,"is_disabled":false,"rental_uris":{"android":"levelo://app?vid=3ca2c2d2-99b0-4aa6-a05d-e30f02e6a7fb","ios":"levelo://app?vid=3ca2c2d2-99b0-4aa6-a05d-e30f02e6a7fb"},"vehicle_type_id":"4","last_reported":1702926340,"current_range_meters":12000,"station_id":"","pricing_plan_id":"free"},{"bike_id":"4aa50c83-f74e-4e80-a38a-68eb50be775e","system_id":"levelo_inurba_marseille","lat":43.304088,"lon":5.425388,"is_reserved":false,"is_disabled":false,"rental_uris":{"android":"levelo://app?vid=4aa50c83-f74e-4e80-a38a-68eb50be775e","ios":"levelo://app?vid=4aa50c83-f74e-4e80-a38a-68eb50be775e"},"vehicle_type_id":"4","last_reported":1702926340,"current_range_meters":10000,"station_id":"ce4bhoh2rcd13ifvqh6g","pricing_plan_id":"free"},{"bike_id":"52ffbfe2-3dc9-4e53-97d1-3182ba2225bd","system_id":"levelo_inurba_marseille","lat":43.295511,"lon":5.422926,"is_reserved":false,"is_disabled":false,"rental_uris":{"android":"levelo://app?vid=52ffbfe2-3dc9-4e53-97d1-3182ba2225bd","ios":"levelo://app?vid=52ffbfe2-3dc9-4e53-97d1-3182ba2225bd"},"vehicle_type_id":"4","last_reported":1702926340,"current_range_meters":22400,"station_id":"ce4bhph2rcd13ifvqhdg","pricing_plan_id":"free"},{"bike_id":"fb094048-824a-49d1-905f-084ec3753a88","system_id":"levelo_inurba_marseille","lat":43.295523,"lon":5.422926,"is_reserved":false,"is_disabled":false,"rental_uris":{"android":"levelo://app?vid=fb094048-824a-49d1-905f-084ec3753a88","ios":"levelo://app?vid=fb094048-824a-49d1-905f-084ec3753a88"},"vehicle_type_id":"4","last_reported":1702926340,"current_range_meters":24000,"station_id":"ce4bhph2rcd13ifvqhdg","pricing_plan_id":"free"},{"bike_id":"9cbe5e87-404e-4c09-afbe-5ee44247e5dc","system_id":"levelo_inurba_marseille","lat":43.295523,"lon":5.422926,"is_reserved":false,"is_disabled":false,"rental_uris":{"android":"levelo://app?vid=9cbe5e87-404e-4c09-afbe-5ee44247e5dc","ios":"levelo://app?vid=9cbe5e87-404e-4c09-afbe-5ee44247e5dc"},"vehicle_type_id":"4","last_reported":1702926340,"current_range_meters":31200,"station_id":"ce4bhph2rcd13ifvqhdg","pricing_plan_id":"free"},{"bike_id":"628a1844-4de6-4ff8-b7b8-44bb12a39376","system_id":"levelo_inurba_marseille","lat":43.295511,"lon":5.422926,"is_reserved":false,"is_disabled":false,"rental_uris":{"android":"levelo://app?vid=628a1844-4de6-4ff8-b7b8-44bb12a39376","ios":"levelo://app?vid=628a1844-4de6-4ff8-b7b8-44bb12a39376"},"vehicle_type_id":"4","last_reported":1702926340,"current_range_meters":31200,"station_id":"ce4bhph2rcd13ifvqhdg","pricing_plan_id":"free"},{"bike_id":"1d583d68-8350-42de-af0a-dd3bb755495b","system_id":"levelo_inurba_marseille","lat":43.295513,"lon":5.42282,"is_reserved":false,"is_disabled":false,"rental_uris":{"android":"levelo://app?vid=1d583d68-8350-42de-af0a-dd3bb755495b","ios":"levelo://app?vid=1d583d68-8350-42de-af0a-dd3bb755495b"},"vehicle_type_id":"4","last_reported":1702926340,"current_range_meters":2800,"station_id":"ce4bhph2rcd13ifvqhdg","pricing_plan_id":"free"},{"bike_id":"c5b44840-1601-43ac-abe9-c1e5b739efac","system_id":"levelo_inurba_marseille","lat":43.295523,"lon":5.422926,"is_reserved":false,"is_disabled":false,"rental_uris":{"android":"levelo://app?vid=c5b44840-1601-43ac-abe9-c1e5b739efac","ios":"levelo://app?vid=c5b44840-1601-43ac-abe9-c1e5b739efac"},"vehicle_type_id":"4","last_reported":1702926340,"current_range_meters":26000,"station_id":"ce4bhph2rcd13ifvqhdg","pricing_plan_id":"free"},{"bike_id":"35f4c7df-1dd1-49cd-b086-e9b64d14ba25","system_id":"levelo_inurba_marseille","lat":43.295511,"lon":5.422926,"is_reserved":false,"is_disabled":false,"rental_uris":{"android":"levelo://app?vid=35f4c7df-1dd1-49cd-b086-e9b64d14ba25","ios":"levelo://app?vid=35f4c7df-1dd1-49cd-b086-e9b64d14ba25"},"vehicle_type_id":"4","last_reported":1702926340,"current_range_meters":25200,"station_id":"ce4bhph2rcd13ifvqhdg","pricing_plan_id":"free"},{"bike_id":"fc3f22f4-3d85-4b36-bd3d-60cd40afff37","system_id":"levelo_inurba_marseille","lat":43.295511,"lon":5.422926,"is_reserved":false,"is_disabled":false,"rental_uris":{"android":"levelo://app?vid=fc3f22f4-3d85-4b36-bd3d-60cd40afff37","ios":"levelo://app?vid=fc3f22f4-3d85-4b36-bd3d-60cd40afff37"},"vehicle_type_id":"4","last_reported":1702926340,"current_range_meters":10400,"station_id":"ce4bhph2rcd13ifvqhdg","pricing_plan_id":"free"},{"bike_id":"a1b8af23-d392-49bd-a85a-eb8ad9510d9c","system_id":"levelo_inurba_marseille","lat":43.295511,"lon":5.422926,"is_reserved":false,"is_disabled":false,"rental_uris":{"android":"levelo://app?vid=a1b8af23-d392-49bd-a85a-eb8ad9510d9c","ios":"levelo://app?vid=a1b8af23-d392-49bd-a85a-eb8ad9510d9c"},"vehicle_type_id":"4","last_reported":1702926340,"current_range_meters":3600,"station_id":"ce4bhph2rcd13ifvqhdg","pricing_plan_id":"free"},{"bike_id":"130d85e1-44d5-493e-a0ea-3d743f56907f","system_id":"levelo_inurba_marseille","lat":43.272116,"lon":5.391763,"is_reserved":false,"is_disabled":false,"rental_uris":{"android":"levelo://app?vid=130d85e1-44d5-493e-a0ea-3d743f56907f","ios":"levelo://app?vid=130d85e1-44d5-493e-a0ea-3d743f56907f"},"vehicle_type_id":"4","last_reported":1702926340,"current_range_meters":15600,"station_id":"ce4bhhp2rcd13ifvqfm0","pricing_plan_id":"free"},{"bike_id":"a1ae3715-97ca-42e5-8776-b10ba4d4843d","system_id":"levelo_inurba_marseille","lat":43.272116,"lon":5.391747,"is_reserved":false,"is_disabled":false,"rental_uris":{"android":"levelo://app?vid=a1ae3715-97ca-42e5-8776-b10ba4d4843d","ios":"levelo://app?vid=a1ae3715-97ca-42e5-8776-b10ba4d4843d"},"vehicle_type_id":"4","last_reported":1702926340,"current_range_meters":2400,"station_id":"ce4bhhp2rcd13ifvqfm0","pricing_plan_id":"free"},{"bike_id":"ad10f8c9-cfe7-4eb7-bb3f-2c4707cc1d6b","system_id":"levelo_inurba_marseille","lat":43.278128,"lon":5.407195,"is_reserved":false,"is_disabled":false,"rental_uris":{"android":"levelo://app?vid=ad10f8c9-cfe7-4eb7-bb3f-2c4707cc1d6b","ios":"levelo://app?vid=ad10f8c9-cfe7-4eb7-bb3f-2c4707cc1d6b"},"vehicle_type_id":"4","last_reported":1702926340,"current_range_meters":0,"station_id":"ce4bhnh2rcd13ifvqgtg","pricing_plan_id":"free"},{"bike_id":"0970f853-2943-45d7-a713-c184c287bf54","system_id":"levelo_inurba_marseille","lat":43.269319,"lon":5.389397,"is_reserved":false,"is_disabled":false,"rental_uris":{"android":"levelo://app?vid=0970f853-2943-45d7-a713-c184c287bf54","ios":"levelo://app?vid=0970f853-2943-45d7-a713-c184c287bf54"},"vehicle_type_id":"4","last_reported":1702926340,"current_range_meters":5200,"station_id":"ce4bhhh2rcd13ifvqfl0","pricing_plan_id":"free"},{"bike_id":"3a1e9026-70c5-42cb-a840-74cc18200d68","system_id":"levelo_inurba_marseille","lat":43.269319,"lon":5.389397,"is_reserved":false,"is_disabled":false,"rental_uris":{"android":"levelo://app?vid=3a1e9026-70c5-42cb-a840-74cc18200d68","ios":"levelo://app?vid=3a1e9026-70c5-42cb-a840-74cc18200d68"},"vehicle_type_id":"4","last_reported":1702926340,"current_range_meters":23200,"station_id":"ce4bhhh2rcd13ifvqfl0","pricing_plan_id":"free"},{"bike_id":"1d41ae8e-a9df-496f-9b59-75c99de355d0","system_id":"levelo_inurba_marseille","lat":43.26928,"lon":5.38924,"is_reserved":false,"is_disabled":false,"rental_uris":{"android":"levelo://app?vid=1d41ae8e-a9df-496f-9b59-75c99de355d0","ios":"levelo://app?vid=1d41ae8e-a9df-496f-9b59-75c99de355d0"},"vehicle_type_id":"4","last_reported":1702926340,"current_range_meters":0,"station_id":"ce4bhhh2rcd13ifvqfl0","pricing_plan_id":"free"},{"bike_id":"036681ef-93f3-4046-997a-329f2a07c70f","system_id":"levelo_inurba_marseille","lat":43.265714,"lon":5.372891,"is_reserved":false,"is_disabled":false,"rental_uris":{"android":"levelo://app?vid=036681ef-93f3-4046-997a-329f2a07c70f","ios":"levelo://app?vid=036681ef-93f3-4046-997a-329f2a07c70f"},"vehicle_type_id":"4","last_reported":1702926340,"current_range_meters":15600,"station_id":"ce4bhg12rcd13ifvqf70","pricing_plan_id":"free"},{"bike_id":"622acec4-94b1-4d43-8b51-f52ed34f2464","system_id":"levelo_inurba_marseille","lat":43.27996,"lon":5.416624,"is_reserved":false,"is_disabled":false,"rental_uris":{"android":"levelo://app?vid=622acec4-94b1-4d43-8b51-f52ed34f2464","ios":"levelo://app?vid=622acec4-94b1-4d43-8b51-f52ed34f2464"},"vehicle_type_id":"4","last_reported":1702926340,"current_range_meters":26000,"station_id":"ce4bho12rcd13ifvqh1g","pricing_plan_id":"free"},{"bike_id":"d980ca74-4384-405b-b2e3-5bf7171c7021","system_id":"levelo_inurba_marseille","lat":43.265714,"lon":5.372891,"is_reserved":false,"is_disabled":false,"rental_uris":{"android":"levelo://app?vid=d980ca74-4384-405b-b2e3-5bf7171c7021","ios":"levelo://app?vid=d980ca74-4384-405b-b2e3-5bf7171c7021"},"vehicle_type_id":"4","last_reported":1702926340,"current_range_meters":4400,"station_id":"ce4bhg12rcd13ifvqf70","pricing_plan_id":"free"},{"bike_id":"ae8a95c1-6443-4773-ad3f-12c934cfe98a","system_id":"levelo_inurba_marseille","lat":43.30799,"lon":5.43518,"is_reserved":false,"is_disabled":false,"rental_uris":{"android":"levelo://app?vid=ae8a95c1-6443-4773-ad3f-12c934cfe98a","ios":"levelo://app?vid=ae8a95c1-6443-4773-ad3f-12c934cfe98a"},"vehicle_type_id":"4","last_reported":1702926340,"current_range_meters":30800,"station_id":"ce4bhph2rcd13ifvqheg","pricing_plan_id":"free"},{"bike_id":"b60fc5e1-89e5-42b6-95cd-2facc0075673","system_id":"levelo_inurba_marseille","lat":43.308056,"lon":5.4352,"is_reserved":false,"is_disabled":false,"rental_uris":{"android":"levelo://app?vid=b60fc5e1-89e5-42b6-95cd-2facc0075673","ios":"levelo://app?vid=b60fc5e1-89e5-42b6-95cd-2facc0075673"},"vehicle_type_id":"4","last_reported":1702926340,"current_range_meters":21200,"station_id":"ce4bhph2rcd13ifvqheg","pricing_plan_id":"free"},{"bike_id":"50adc33a-5cec-46d7-ab61-ad25db1ee9ac","system_id":"levelo_inurba_marseille","lat":43.308057,"lon":5.43528,"is_reserved":false,"is_disabled":false,"rental_uris":{"android":"levelo://app?vid=50adc33a-5cec-46d7-ab61-ad25db1ee9ac","ios":"levelo://app?vid=50adc33a-5cec-46d7-ab61-ad25db1ee9ac"},"vehicle_type_id":"4","last_reported":1702926340,"current_range_meters":1200,"station_id":"ce4bhph2rcd13ifvqheg","pricing_plan_id":"free"},{"bike_id":"dea6d4bf-6bd3-4e00-ab36-832382195e1c","system_id":"levelo_inurba_marseille","lat":43.308051,"lon":5.43527,"is_reserved":false,"is_disabled":false,"rental_uris":{"android":"levelo://app?vid=dea6d4bf-6bd3-4e00-ab36-832382195e1c","ios":"levelo://app?vid=dea6d4bf-6bd3-4e00-ab36-832382195e1c"},"vehicle_type_id":"4","last_reported":1702926340,"current_range_meters":29600,"station_id":"ce4bhph2rcd13ifvqheg","pricing_plan_id":"free"},{"bike_id":"0e7b831b-1e1c-4fad-bcde-dc190a7e792b","system_id":"levelo_inurba_marseille","lat":43.26558,"lon":5.39004,"is_reserved":false,"is_disabled":false,"rental_uris":{"android":"levelo://app?vid=0e7b831b-1e1c-4fad-bcde-dc190a7e792b","ios":"levelo://app?vid=0e7b831b-1e1c-4fad-bcde-dc190a7e792b"},"vehicle_type_id":"4","last_reported":1702926340,"current_range_meters":4400,"station_id":"ce4bhe12rcd13ifvqf30","pricing_plan_id":"free"},{"bike_id":"c004ba62-5f4a-48d8-9c18-9ff0def65790","system_id":"levelo_inurba_marseille","lat":43.26949,"lon":5.40262,"is_reserved":false,"is_disabled":false,"rental_uris":{"android":"levelo://app?vid=c004ba62-5f4a-48d8-9c18-9ff0def65790","ios":"levelo://app?vid=c004ba62-5f4a-48d8-9c18-9ff0def65790"},"vehicle_type_id":"4","last_reported":1702926340,"current_range_meters":0,"station_id":"cjm6bp8fraef2m0cb0m0","pricing_plan_id":"free"},{"bike_id":"50dd6dff-c53f-4ac5-b9a0-4a136248695a","system_id":"levelo_inurba_marseille","lat":43.2694,"lon":5.40243,"is_reserved":false,"is_disabled":false,"rental_uris":{"android":"levelo://app?vid=50dd6dff-c53f-4ac5-b9a0-4a136248695a","ios":"levelo://app?vid=50dd6dff-c53f-4ac5-b9a0-4a136248695a"},"vehicle_type_id":"4","last_reported":1702926340,"current_range_meters":0,"station_id":"cjm6bp8fraef2m0cb0m0","pricing_plan_id":"free"},{"bike_id":"68a8aa27-7f6a-4bdc-a49e-9faa72ce1250","system_id":"levelo_inurba_marseille","lat":43.26942,"lon":5.40254,"is_reserved":false,"is_disabled":false,"rental_uris":{"android":"levelo://app?vid=68a8aa27-7f6a-4bdc-a49e-9faa72ce1250","ios":"levelo://app?vid=68a8aa27-7f6a-4bdc-a49e-9faa72ce1250"},"vehicle_type_id":"4","last_reported":1702926340,"current_range_meters":2400,"station_id":"cjm6bp8fraef2m0cb0m0","pricing_plan_id":"free"},{"bike_id":"ee1964dd-bd19-4163-8977-66dfe213996c","system_id":"levelo_inurba_marseille","lat":43.261782,"lon":5.374515,"is_reserved":false,"is_disabled":false,"rental_uris":{"android":"levelo://app?vid=ee1964dd-bd19-4163-8977-66dfe213996c","ios":"levelo://app?vid=ee1964dd-bd19-4163-8977-66dfe213996c"},"vehicle_type_id":"4","last_reported":1702926340,"current_range_meters":31200,"station_id":"ce4bhgp2rcd13ifvqfc0","pricing_plan_id":"free"},{"bike_id":"883f20e2-6def-4a2a-94c6-c5c2c4f893c0","system_id":"levelo_inurba_marseille","lat":43.261782,"lon":5.374515,"is_reserved":false,"is_disabled":false,"rental_uris":{"android":"levelo://app?vid=883f20e2-6def-4a2a-94c6-c5c2c4f893c0","ios":"levelo://app?vid=883f20e2-6def-4a2a-94c6-c5c2c4f893c0"},"vehicle_type_id":"4","last_reported":1702926340,"current_range_meters":3600,"station_id":"ce4bhgp2rcd13ifvqfc0","pricing_plan_id":"free"},{"bike_id":"524ed846-4fbf-4d2f-8a66-ae44c466484e","system_id":"levelo_inurba_marseille","lat":43.261782,"lon":5.374515,"is_reserved":false,"is_disabled":false,"rental_uris":{"android":"levelo://app?vid=524ed846-4fbf-4d2f-8a66-ae44c466484e","ios":"levelo://app?vid=524ed846-4fbf-4d2f-8a66-ae44c466484e"},"vehicle_type_id":"4","last_reported":1702926340,"current_range_meters":27600,"station_id":"ce4bhgp2rcd13ifvqfc0","pricing_plan_id":"free"},{"bike_id":"aed94823-987c-4f39-a8b9-00dab2638955","system_id":"levelo_inurba_marseille","lat":43.261782,"lon":5.374515,"is_reserved":false,"is_disabled":false,"rental_uris":{"android":"levelo://app?vid=aed94823-987c-4f39-a8b9-00dab2638955","ios":"levelo://app?vid=aed94823-987c-4f39-a8b9-00dab2638955"},"vehicle_type_id":"4","last_reported":1702926340,"current_range_meters":400,"station_id":"ce4bhgp2rcd13ifvqfc0","pricing_plan_id":"free"},{"bike_id":"eb1de3d3-c43d-4404-a0bf-e3e0f979c4f1","system_id":"levelo_inurba_marseille","lat":43.271388,"lon":5.409269,"is_reserved":false,"is_disabled":false,"rental_uris":{"android":"levelo://app?vid=eb1de3d3-c43d-4404-a0bf-e3e0f979c4f1","ios":"levelo://app?vid=eb1de3d3-c43d-4404-a0bf-e3e0f979c4f1"},"vehicle_type_id":"4","last_reported":1702926340,"current_range_meters":8800,"station_id":"ce4bhl12rcd13ifvqgf0","pricing_plan_id":"free"},{"bike_id":"596e3210-6bf0-4d85-99a9-57f2c2b7bb13","system_id":"levelo_inurba_marseille","lat":43.262012,"lon":5.379307,"is_reserved":false,"is_disabled":false,"rental_uris":{"android":"levelo://app?vid=596e3210-6bf0-4d85-99a9-57f2c2b7bb13","ios":"levelo://app?vid=596e3210-6bf0-4d85-99a9-57f2c2b7bb13"},"vehicle_type_id":"4","last_reported":1702926340,"current_range_meters":29200,"station_id":"ce4bhjp2rcd13ifvqg90","pricing_plan_id":"free"},{"bike_id":"048b65ab-e603-40b6-9e1f-0b7ecd62e405","system_id":"levelo_inurba_marseille","lat":43.271368,"lon":5.40928,"is_reserved":false,"is_disabled":false,"rental_uris":{"android":"levelo://app?vid=048b65ab-e603-40b6-9e1f-0b7ecd62e405","ios":"levelo://app?vid=048b65ab-e603-40b6-9e1f-0b7ecd62e405"},"vehicle_type_id":"4","last_reported":1702926340,"current_range_meters":26400,"station_id":"ce4bhl12rcd13ifvqgf0","pricing_plan_id":"free"},{"bike_id":"a3be1c29-995a-4f18-8d28-f5aa4c79f3d0","system_id":"levelo_inurba_marseille","lat":43.271368,"lon":5.40928,"is_reserved":false,"is_disabled":false,"rental_uris":{"android":"levelo://app?vid=a3be1c29-995a-4f18-8d28-f5aa4c79f3d0","ios":"levelo://app?vid=a3be1c29-995a-4f18-8d28-f5aa4c79f3d0"},"vehicle_type_id":"4","last_reported":1702926340,"current_range_meters":28800,"station_id":"ce4bhl12rcd13ifvqgf0","pricing_plan_id":"free"},{"bike_id":"3ec17574-714c-4dd8-936f-b707a5b77655","system_id":"levelo_inurba_marseille","lat":43.271388,"lon":5.409269,"is_reserved":false,"is_disabled":false,"rental_uris":{"android":"levelo://app?vid=3ec17574-714c-4dd8-936f-b707a5b77655","ios":"levelo://app?vid=3ec17574-714c-4dd8-936f-b707a5b77655"},"vehicle_type_id":"4","last_reported":1702926340,"current_range_meters":20400,"station_id":"ce4bhl12rcd13ifvqgf0","pricing_plan_id":"free"},{"bike_id":"de0c8463-985e-421e-ba2b-0e4cab03aa7f","system_id":"levelo_inurba_marseille","lat":43.271388,"lon":5.409269,"is_reserved":false,"is_disabled":false,"rental_uris":{"android":"levelo://app?vid=de0c8463-985e-421e-ba2b-0e4cab03aa7f","ios":"levelo://app?vid=de0c8463-985e-421e-ba2b-0e4cab03aa7f"},"vehicle_type_id":"4","last_reported":1702926340,"current_range_meters":5200,"station_id":"ce4bhl12rcd13ifvqgf0","pricing_plan_id":"free"},{"bike_id":"7f0a85fc-e9b1-422b-b922-07a060dc7b5a","system_id":"levelo_inurba_marseille","lat":43.271368,"lon":5.40928,"is_reserved":false,"is_disabled":false,"rental_uris":{"android":"levelo://app?vid=7f0a85fc-e9b1-422b-b922-07a060dc7b5a","ios":"levelo://app?vid=7f0a85fc-e9b1-422b-b922-07a060dc7b5a"},"vehicle_type_id":"4","last_reported":1702926340,"current_range_meters":31600,"station_id":"ce4bhl12rcd13ifvqgf0","pricing_plan_id":"free"},{"bike_id":"d8b3f44b-b64f-48c5-90fb-16521be69981","system_id":"levelo_inurba_marseille","lat":43.267959,"lon":5.402685,"is_reserved":false,"is_disabled":false,"rental_uris":{"android":"levelo://app?vid=d8b3f44b-b64f-48c5-90fb-16521be69981","ios":"levelo://app?vid=d8b3f44b-b64f-48c5-90fb-16521be69981"},"vehicle_type_id":"4","last_reported":1702926340,"current_range_meters":29600,"station_id":"ce501612rcd8frsf0b60","pricing_plan_id":"free"},{"bike_id":"9432fde5-b38d-4791-8aea-32f68aa873e9","system_id":"levelo_inurba_marseille","lat":43.267959,"lon":5.402687,"is_reserved":false,"is_disabled":false,"rental_uris":{"android":"levelo://app?vid=9432fde5-b38d-4791-8aea-32f68aa873e9","ios":"levelo://app?vid=9432fde5-b38d-4791-8aea-32f68aa873e9"},"vehicle_type_id":"4","last_reported":1702926340,"current_range_meters":21200,"station_id":"ce501612rcd8frsf0b60","pricing_plan_id":"free"},{"bike_id":"121b143a-c3d0-42e2-8acc-fe4f38cddd91","system_id":"levelo_inurba_marseille","lat":43.26496,"lon":5.39529,"is_reserved":false,"is_disabled":false,"rental_uris":{"android":"levelo://app?vid=121b143a-c3d0-42e2-8acc-fe4f38cddd91","ios":"levelo://app?vid=121b143a-c3d0-42e2-8acc-fe4f38cddd91"},"vehicle_type_id":"4","last_reported":1702926340,"current_range_meters":10000,"station_id":"","pricing_plan_id":"free"},{"bike_id":"e8a234b0-5e27-410f-b763-446173f4b18b","system_id":"levelo_inurba_marseille","lat":43.26491,"lon":5.39545,"is_reserved":false,"is_disabled":false,"rental_uris":{"android":"levelo://app?vid=e8a234b0-5e27-410f-b763-446173f4b18b","ios":"levelo://app?vid=e8a234b0-5e27-410f-b763-446173f4b18b"},"vehicle_type_id":"4","last_reported":1702926340,"current_range_meters":800,"station_id":"","pricing_plan_id":"free"},{"bike_id":"a4975794-e88f-4155-947c-264e12be34c5","system_id":"levelo_inurba_marseille","lat":43.29899,"lon":5.43662,"is_reserved":false,"is_disabled":false,"rental_uris":{"android":"levelo://app?vid=a4975794-e88f-4155-947c-264e12be34c5","ios":"levelo://app?vid=a4975794-e88f-4155-947c-264e12be34c5"},"vehicle_type_id":"4","last_reported":1702926340,"current_range_meters":27200,"station_id":"ce4bhpp2rcd13ifvqhfg","pricing_plan_id":"free"},{"bike_id":"e1dbd143-4512-4ef2-81f6-ec31d4c89c72","system_id":"levelo_inurba_marseille","lat":43.298768,"lon":5.43643,"is_reserved":false,"is_disabled":false,"rental_uris":{"android":"levelo://app?vid=e1dbd143-4512-4ef2-81f6-ec31d4c89c72","ios":"levelo://app?vid=e1dbd143-4512-4ef2-81f6-ec31d4c89c72"},"vehicle_type_id":"4","last_reported":1702926340,"current_range_meters":8800,"station_id":"ce4bhpp2rcd13ifvqhfg","pricing_plan_id":"free"},{"bike_id":"8b000818-ee66-4afa-956c-06d1feec8088","system_id":"levelo_inurba_marseille","lat":43.298768,"lon":5.43643,"is_reserved":false,"is_disabled":false,"rental_uris":{"android":"levelo://app?vid=8b000818-ee66-4afa-956c-06d1feec8088","ios":"levelo://app?vid=8b000818-ee66-4afa-956c-06d1feec8088"},"vehicle_type_id":"4","last_reported":1702926340,"current_range_meters":31600,"station_id":"ce4bhpp2rcd13ifvqhfg","pricing_plan_id":"free"},{"bike_id":"be3c7518-3a90-4ace-b263-cbe424279bc2","system_id":"levelo_inurba_marseille","lat":43.298768,"lon":5.43643,"is_reserved":false,"is_disabled":false,"rental_uris":{"android":"levelo://app?vid=be3c7518-3a90-4ace-b263-cbe424279bc2","ios":"levelo://app?vid=be3c7518-3a90-4ace-b263-cbe424279bc2"},"vehicle_type_id":"4","last_reported":1702926340,"current_range_meters":30000,"station_id":"ce4bhpp2rcd13ifvqhfg","pricing_plan_id":"free"},{"bike_id":"76346036-12b6-4dcc-86d0-232802e30c75","system_id":"levelo_inurba_marseille","lat":43.298768,"lon":5.43643,"is_reserved":false,"is_disabled":false,"rental_uris":{"android":"levelo://app?vid=76346036-12b6-4dcc-86d0-232802e30c75","ios":"levelo://app?vid=76346036-12b6-4dcc-86d0-232802e30c75"},"vehicle_type_id":"4","last_reported":1702926340,"current_range_meters":21600,"station_id":"ce4bhpp2rcd13ifvqhfg","pricing_plan_id":"free"},{"bike_id":"2f8fdef1-7474-4cd2-8a56-88137a904cf7","system_id":"levelo_inurba_marseille","lat":43.2607,"lon":5.393983,"is_reserved":false,"is_disabled":false,"rental_uris":{"android":"levelo://app?vid=2f8fdef1-7474-4cd2-8a56-88137a904cf7","ios":"levelo://app?vid=2f8fdef1-7474-4cd2-8a56-88137a904cf7"},"vehicle_type_id":"4","last_reported":1702926340,"current_range_meters":20800,"station_id":"ce4bhh92rcd13ifvqfj0","pricing_plan_id":"free"},{"bike_id":"9e394c7b-ad8a-4178-91e9-ac10bd6076ef","system_id":"levelo_inurba_marseille","lat":43.275028,"lon":5.424534,"is_reserved":false,"is_disabled":false,"rental_uris":{"android":"levelo://app?vid=9e394c7b-ad8a-4178-91e9-ac10bd6076ef","ios":"levelo://app?vid=9e394c7b-ad8a-4178-91e9-ac10bd6076ef"},"vehicle_type_id":"4","last_reported":1702926340,"current_range_meters":20400,"station_id":"ce4bhn92rcd13ifvqgrg","pricing_plan_id":"free"},{"bike_id":"094d45f0-cea5-4dc3-98bc-e91c28e32823","system_id":"levelo_inurba_marseille","lat":43.255868,"lon":5.382335,"is_reserved":false,"is_disabled":false,"rental_uris":{"android":"levelo://app?vid=094d45f0-cea5-4dc3-98bc-e91c28e32823","ios":"levelo://app?vid=094d45f0-cea5-4dc3-98bc-e91c28e32823"},"vehicle_type_id":"4","last_reported":1702926340,"current_range_meters":18800,"station_id":"ce4bhih2rcd13ifvqfs0","pricing_plan_id":"free"},{"bike_id":"771c001f-b785-4927-ada6-91aa387b0245","system_id":"levelo_inurba_marseille","lat":43.255853,"lon":5.382319,"is_reserved":false,"is_disabled":false,"rental_uris":{"android":"levelo://app?vid=771c001f-b785-4927-ada6-91aa387b0245","ios":"levelo://app?vid=771c001f-b785-4927-ada6-91aa387b0245"},"vehicle_type_id":"4","last_reported":1702926340,"current_range_meters":4800,"station_id":"ce4bhih2rcd13ifvqfs0","pricing_plan_id":"free"},{"bike_id":"260ef006-57c0-4fe9-86d3-14af6fcb989e","system_id":"levelo_inurba_marseille","lat":43.25582,"lon":5.38228,"is_reserved":false,"is_disabled":false,"rental_uris":{"android":"levelo://app?vid=260ef006-57c0-4fe9-86d3-14af6fcb989e","ios":"levelo://app?vid=260ef006-57c0-4fe9-86d3-14af6fcb989e"},"vehicle_type_id":"4","last_reported":1702926340,"current_range_meters":23600,"station_id":"ce4bhih2rcd13ifvqfs0","pricing_plan_id":"free"},{"bike_id":"a7286da3-29c9-46b2-9b2b-d4de98cef60b","system_id":"levelo_inurba_marseille","lat":43.2558,"lon":5.38227,"is_reserved":false,"is_disabled":false,"rental_uris":{"android":"levelo://app?vid=a7286da3-29c9-46b2-9b2b-d4de98cef60b","ios":"levelo://app?vid=a7286da3-29c9-46b2-9b2b-d4de98cef60b"},"vehicle_type_id":"4","last_reported":1702926340,"current_range_meters":18000,"station_id":"ce4bhih2rcd13ifvqfs0","pricing_plan_id":"free"},{"bike_id":"f66b9691-79da-495b-b626-28549e04daba","system_id":"levelo_inurba_marseille","lat":43.25577,"lon":5.38239,"is_reserved":false,"is_disabled":false,"rental_uris":{"android":"levelo://app?vid=f66b9691-79da-495b-b626-28549e04daba","ios":"levelo://app?vid=f66b9691-79da-495b-b626-28549e04daba"},"vehicle_type_id":"4","last_reported":1702926340,"current_range_meters":0,"station_id":"ce4bhih2rcd13ifvqfs0","pricing_plan_id":"free"},{"bike_id":"c89dcb56-7515-448e-b5f6-fb6ed21417b0","system_id":"levelo_inurba_marseille","lat":43.25503,"lon":5.37651,"is_reserved":false,"is_disabled":false,"rental_uris":{"android":"levelo://app?vid=c89dcb56-7515-448e-b5f6-fb6ed21417b0","ios":"levelo://app?vid=c89dcb56-7515-448e-b5f6-fb6ed21417b0"},"vehicle_type_id":"4","last_reported":1702926340,"current_range_meters":27200,"station_id":"ce4bhh12rcd13ifvqff0","pricing_plan_id":"free"},{"bike_id":"5f10ab57-6efd-45f6-a231-f77b3637d3fb","system_id":"levelo_inurba_marseille","lat":43.25494,"lon":5.37645,"is_reserved":false,"is_disabled":false,"rental_uris":{"android":"levelo://app?vid=5f10ab57-6efd-45f6-a231-f77b3637d3fb","ios":"levelo://app?vid=5f10ab57-6efd-45f6-a231-f77b3637d3fb"},"vehicle_type_id":"4","last_reported":1702926340,"current_range_meters":7200,"station_id":"ce4bhh12rcd13ifvqff0","pricing_plan_id":"free"},{"bike_id":"1ab26662-3a45-4e48-b861-d4c7ec7307b2","system_id":"levelo_inurba_marseille","lat":43.25493,"lon":5.37647,"is_reserved":false,"is_disabled":false,"rental_uris":{"android":"levelo://app?vid=1ab26662-3a45-4e48-b861-d4c7ec7307b2","ios":"levelo://app?vid=1ab26662-3a45-4e48-b861-d4c7ec7307b2"},"vehicle_type_id":"4","last_reported":1702926340,"current_range_meters":16000,"station_id":"ce4bhh12rcd13ifvqff0","pricing_plan_id":"free"},{"bike_id":"88eed449-3d87-4183-9edc-9401796301b8","system_id":"levelo_inurba_marseille","lat":43.25493,"lon":5.37648,"is_reserved":false,"is_disabled":false,"rental_uris":{"android":"levelo://app?vid=88eed449-3d87-4183-9edc-9401796301b8","ios":"levelo://app?vid=88eed449-3d87-4183-9edc-9401796301b8"},"vehicle_type_id":"4","last_reported":1702926340,"current_range_meters":17600,"station_id":"ce4bhh12rcd13ifvqff0","pricing_plan_id":"free"},{"bike_id":"43d94734-3de6-4671-9bf4-01e0c9f66288","system_id":"levelo_inurba_marseille","lat":43.27073,"lon":5.42272,"is_reserved":false,"is_disabled":false,"rental_uris":{"android":"levelo://app?vid=43d94734-3de6-4671-9bf4-01e0c9f66288","ios":"levelo://app?vid=43d94734-3de6-4671-9bf4-01e0c9f66288"},"vehicle_type_id":"4","last_reported":1702926340,"current_range_meters":14800,"station_id":"ce4bhk92rcd13ifvqgb0","pricing_plan_id":"free"},{"bike_id":"d2317233-1733-438f-832e-8596d21c90aa","system_id":"levelo_inurba_marseille","lat":43.258224,"lon":5.394369,"is_reserved":false,"is_disabled":false,"rental_uris":{"android":"levelo://app?vid=d2317233-1733-438f-832e-8596d21c90aa","ios":"levelo://app?vid=d2317233-1733-438f-832e-8596d21c90aa"},"vehicle_type_id":"4","last_reported":1702926340,"current_range_meters":8000,"station_id":"ce4bhip2rcd13ifvqft0","pricing_plan_id":"free"},{"bike_id":"b38d1365-fcfe-4286-a6ef-b7c497c7ad36","system_id":"levelo_inurba_marseille","lat":43.258658,"lon":5.398935,"is_reserved":false,"is_disabled":false,"rental_uris":{"android":"levelo://app?vid=b38d1365-fcfe-4286-a6ef-b7c497c7ad36","ios":"levelo://app?vid=b38d1365-fcfe-4286-a6ef-b7c497c7ad36"},"vehicle_type_id":"4","last_reported":1702926340,"current_range_meters":6400,"station_id":"ce4bhl92rcd13ifvqghg","pricing_plan_id":"free"},{"bike_id":"088bc051-4b2e-4f3b-99d5-218250b2ef2e","system_id":"levelo_inurba_marseille","lat":43.259009,"lon":5.40929,"is_reserved":false,"is_disabled":false,"rental_uris":{"android":"levelo://app?vid=088bc051-4b2e-4f3b-99d5-218250b2ef2e","ios":"levelo://app?vid=088bc051-4b2e-4f3b-99d5-218250b2ef2e"},"vehicle_type_id":"4","last_reported":1702926340,"current_range_meters":26800,"station_id":"ce4bhm92rcd13ifvqglg","pricing_plan_id":"free"},{"bike_id":"86b0222e-9893-41e3-9aa5-31dd7bec5d9b","system_id":"levelo_inurba_marseille","lat":43.25717,"lon":5.41113,"is_reserved":false,"is_disabled":false,"rental_uris":{"android":"levelo://app?vid=86b0222e-9893-41e3-9aa5-31dd7bec5d9b","ios":"levelo://app?vid=86b0222e-9893-41e3-9aa5-31dd7bec5d9b"},"vehicle_type_id":"4","last_reported":1702926340,"current_range_meters":26400,"station_id":"ce4bhkp2rcd13ifvqgd0","pricing_plan_id":"free"},{"bike_id":"360da49c-c170-4c00-b1dc-8fcfb8353c99","system_id":"levelo_inurba_marseille","lat":43.25716,"lon":5.41114,"is_reserved":false,"is_disabled":false,"rental_uris":{"android":"levelo://app?vid=360da49c-c170-4c00-b1dc-8fcfb8353c99","ios":"levelo://app?vid=360da49c-c170-4c00-b1dc-8fcfb8353c99"},"vehicle_type_id":"4","last_reported":1702926340,"current_range_meters":17600,"station_id":"ce4bhkp2rcd13ifvqgd0","pricing_plan_id":"free"},{"bike_id":"fba7f794-a546-4f15-b96b-697eae263c9d","system_id":"levelo_inurba_marseille","lat":43.250009,"lon":5.389195,"is_reserved":false,"is_disabled":false,"rental_uris":{"android":"levelo://app?vid=fba7f794-a546-4f15-b96b-697eae263c9d","ios":"levelo://app?vid=fba7f794-a546-4f15-b96b-697eae263c9d"},"vehicle_type_id":"4","last_reported":1702926340,"current_range_meters":14000,"station_id":"ce4bhgp2rcd13ifvqfd0","pricing_plan_id":"free"},{"bike_id":"1212fdcd-3184-465c-afc1-6a639fa88bce","system_id":"levelo_inurba_marseille","lat":43.250009,"lon":5.389195,"is_reserved":false,"is_disabled":false,"rental_uris":{"android":"levelo://app?vid=1212fdcd-3184-465c-afc1-6a639fa88bce","ios":"levelo://app?vid=1212fdcd-3184-465c-afc1-6a639fa88bce"},"vehicle_type_id":"4","last_reported":1702926340,"current_range_meters":20000,"station_id":"ce4bhgp2rcd13ifvqfd0","pricing_plan_id":"free"},{"bike_id":"82c00435-67c7-4293-b4fc-3225ddc1178c","system_id":"levelo_inurba_marseille","lat":43.250023,"lon":5.38919,"is_reserved":false,"is_disabled":false,"rental_uris":{"android":"levelo://app?vid=82c00435-67c7-4293-b4fc-3225ddc1178c","ios":"levelo://app?vid=82c00435-67c7-4293-b4fc-3225ddc1178c"},"vehicle_type_id":"4","last_reported":1702926340,"current_range_meters":28800,"station_id":"ce4bhgp2rcd13ifvqfd0","pricing_plan_id":"free"},{"bike_id":"ebbbe43b-9741-475b-ae3d-7d50d4c59a53","system_id":"levelo_inurba_marseille","lat":43.250009,"lon":5.389195,"is_reserved":false,"is_disabled":false,"rental_uris":{"android":"levelo://app?vid=ebbbe43b-9741-475b-ae3d-7d50d4c59a53","ios":"levelo://app?vid=ebbbe43b-9741-475b-ae3d-7d50d4c59a53"},"vehicle_type_id":"4","last_reported":1702926340,"current_range_meters":13600,"station_id":"ce4bhgp2rcd13ifvqfd0","pricing_plan_id":"free"},{"bike_id":"f01ebef3-6276-4dee-bd1f-4abbf85894e0","system_id":"levelo_inurba_marseille","lat":43.2481,"lon":5.37458,"is_reserved":false,"is_disabled":false,"rental_uris":{"android":"levelo://app?vid=f01ebef3-6276-4dee-bd1f-4abbf85894e0","ios":"levelo://app?vid=f01ebef3-6276-4dee-bd1f-4abbf85894e0"},"vehicle_type_id":"4","last_reported":1702926340,"current_range_meters":25600,"station_id":"","pricing_plan_id":"free"},{"bike_id":"69f77616-3f54-41d1-859b-91d86f54d7d0","system_id":"levelo_inurba_marseille","lat":43.250966,"lon":5.395186,"is_reserved":false,"is_disabled":false,"rental_uris":{"android":"levelo://app?vid=69f77616-3f54-41d1-859b-91d86f54d7d0","ios":"levelo://app?vid=69f77616-3f54-41d1-859b-91d86f54d7d0"},"vehicle_type_id":"4","last_reported":1702926340,"current_range_meters":11200,"station_id":"ce4bhm12rcd13ifvqgkg","pricing_plan_id":"free"},{"bike_id":"f7355d0c-75e0-4eb6-a66b-8a3f13e7d068","system_id":"levelo_inurba_marseille","lat":43.250809,"lon":5.395165,"is_reserved":false,"is_disabled":false,"rental_uris":{"android":"levelo://app?vid=f7355d0c-75e0-4eb6-a66b-8a3f13e7d068","ios":"levelo://app?vid=f7355d0c-75e0-4eb6-a66b-8a3f13e7d068"},"vehicle_type_id":"4","last_reported":1702926340,"current_range_meters":31200,"station_id":"ce4bhm12rcd13ifvqgkg","pricing_plan_id":"free"},{"bike_id":"c0884669-6c22-4168-8f72-2657ef2a7395","system_id":"levelo_inurba_marseille","lat":43.24693,"lon":5.382096,"is_reserved":false,"is_disabled":false,"rental_uris":{"android":"levelo://app?vid=c0884669-6c22-4168-8f72-2657ef2a7395","ios":"levelo://app?vid=c0884669-6c22-4168-8f72-2657ef2a7395"},"vehicle_type_id":"4","last_reported":1702926340,"current_range_meters":3600,"station_id":"ce4bhih2rcd13ifvqfr0","pricing_plan_id":"free"},{"bike_id":"db16cabb-e3ba-4b2d-a2ec-1d6e143fe384","system_id":"levelo_inurba_marseille","lat":43.24667,"lon":5.38174,"is_reserved":false,"is_disabled":false,"rental_uris":{"android":"levelo://app?vid=db16cabb-e3ba-4b2d-a2ec-1d6e143fe384","ios":"levelo://app?vid=db16cabb-e3ba-4b2d-a2ec-1d6e143fe384"},"vehicle_type_id":"4","last_reported":1702926340,"current_range_meters":0,"station_id":"ce4bhih2rcd13ifvqfr0","pricing_plan_id":"free"},{"bike_id":"47f916c5-45b8-4473-9deb-32ab4e151e73","system_id":"levelo_inurba_marseille","lat":43.24693,"lon":5.382096,"is_reserved":false,"is_disabled":false,"rental_uris":{"android":"levelo://app?vid=47f916c5-45b8-4473-9deb-32ab4e151e73","ios":"levelo://app?vid=47f916c5-45b8-4473-9deb-32ab4e151e73"},"vehicle_type_id":"4","last_reported":1702926340,"current_range_meters":12800,"station_id":"ce4bhih2rcd13ifvqfr0","pricing_plan_id":"free"},{"bike_id":"db391e1d-b3dc-4008-ba0f-bd3b29b856dd","system_id":"levelo_inurba_marseille","lat":43.25102,"lon":5.403214,"is_reserved":false,"is_disabled":false,"rental_uris":{"android":"levelo://app?vid=db391e1d-b3dc-4008-ba0f-bd3b29b856dd","ios":"levelo://app?vid=db391e1d-b3dc-4008-ba0f-bd3b29b856dd"},"vehicle_type_id":"4","last_reported":1702926340,"current_range_meters":1200,"station_id":"ce4bhlh2rcd13ifvqgig","pricing_plan_id":"free"},{"bike_id":"6f0deca4-7b9c-41ee-84a2-ea9f683ecc39","system_id":"levelo_inurba_marseille","lat":43.246461,"lon":5.389014,"is_reserved":false,"is_disabled":false,"rental_uris":{"android":"levelo://app?vid=6f0deca4-7b9c-41ee-84a2-ea9f683ecc39","ios":"levelo://app?vid=6f0deca4-7b9c-41ee-84a2-ea9f683ecc39"},"vehicle_type_id":"4","last_reported":1702926340,"current_range_meters":22000,"station_id":"ce4bhg12rcd13ifvqf60","pricing_plan_id":"free"},{"bike_id":"32c6d230-07b8-4d3e-93a6-a7043d42f8dc","system_id":"levelo_inurba_marseille","lat":43.246461,"lon":5.389014,"is_reserved":false,"is_disabled":false,"rental_uris":{"android":"levelo://app?vid=32c6d230-07b8-4d3e-93a6-a7043d42f8dc","ios":"levelo://app?vid=32c6d230-07b8-4d3e-93a6-a7043d42f8dc"},"vehicle_type_id":"4","last_reported":1702926340,"current_range_meters":30800,"station_id":"ce4bhg12rcd13ifvqf60","pricing_plan_id":"free"},{"bike_id":"0b5b9e33-e4a9-477d-86ae-5f3dd1661964","system_id":"levelo_inurba_marseille","lat":43.243884,"lon":5.370737,"is_reserved":false,"is_disabled":false,"rental_uris":{"android":"levelo://app?vid=0b5b9e33-e4a9-477d-86ae-5f3dd1661964","ios":"levelo://app?vid=0b5b9e33-e4a9-477d-86ae-5f3dd1661964"},"vehicle_type_id":"4","last_reported":1702926340,"current_range_meters":28000,"station_id":"ce4bhhh2rcd13ifvqfk0","pricing_plan_id":"free"},{"bike_id":"38b8adbe-18bf-4e0e-915b-4991fbc79633","system_id":"levelo_inurba_marseille","lat":43.243884,"lon":5.370737,"is_reserved":false,"is_disabled":false,"rental_uris":{"android":"levelo://app?vid=38b8adbe-18bf-4e0e-915b-4991fbc79633","ios":"levelo://app?vid=38b8adbe-18bf-4e0e-915b-4991fbc79633"},"vehicle_type_id":"4","last_reported":1702926340,"current_range_meters":10800,"station_id":"ce4bhhh2rcd13ifvqfk0","pricing_plan_id":"free"},{"bike_id":"85526b85-fd42-4866-8652-9009514175af","system_id":"levelo_inurba_marseille","lat":43.243884,"lon":5.370737,"is_reserved":false,"is_disabled":false,"rental_uris":{"android":"levelo://app?vid=85526b85-fd42-4866-8652-9009514175af","ios":"levelo://app?vid=85526b85-fd42-4866-8652-9009514175af"},"vehicle_type_id":"4","last_reported":1702926340,"current_range_meters":4800,"station_id":"ce4bhhh2rcd13ifvqfk0","pricing_plan_id":"free"},{"bike_id":"ff2cf3cd-83a3-4454-a842-e68ad0e66887","system_id":"levelo_inurba_marseille","lat":43.243884,"lon":5.370736,"is_reserved":false,"is_disabled":false,"rental_uris":{"android":"levelo://app?vid=ff2cf3cd-83a3-4454-a842-e68ad0e66887","ios":"levelo://app?vid=ff2cf3cd-83a3-4454-a842-e68ad0e66887"},"vehicle_type_id":"4","last_reported":1702926340,"current_range_meters":2000,"station_id":"ce4bhhh2rcd13ifvqfk0","pricing_plan_id":"free"},{"bike_id":"30e44002-57a0-4fdd-bc57-1a73cc6f3faf","system_id":"levelo_inurba_marseille","lat":43.243884,"lon":5.370736,"is_reserved":false,"is_disabled":false,"rental_uris":{"android":"levelo://app?vid=30e44002-57a0-4fdd-bc57-1a73cc6f3faf","ios":"levelo://app?vid=30e44002-57a0-4fdd-bc57-1a73cc6f3faf"},"vehicle_type_id":"4","last_reported":1702926340,"current_range_meters":30000,"station_id":"ce4bhhh2rcd13ifvqfk0","pricing_plan_id":"free"},{"bike_id":"976e55be-3382-485b-84a6-7234f373e4d1","system_id":"levelo_inurba_marseille","lat":43.245581,"lon":5.395069,"is_reserved":false,"is_disabled":false,"rental_uris":{"android":"levelo://app?vid=976e55be-3382-485b-84a6-7234f373e4d1","ios":"levelo://app?vid=976e55be-3382-485b-84a6-7234f373e4d1"},"vehicle_type_id":"4","last_reported":1702926340,"current_range_meters":26400,"station_id":"ce4bhlp2rcd13ifvqgjg","pricing_plan_id":"free"},{"bike_id":"55d77847-54ab-479f-8963-103ffd529cd9","system_id":"levelo_inurba_marseille","lat":43.24546,"lon":5.39521,"is_reserved":false,"is_disabled":false,"rental_uris":{"android":"levelo://app?vid=55d77847-54ab-479f-8963-103ffd529cd9","ios":"levelo://app?vid=55d77847-54ab-479f-8963-103ffd529cd9"},"vehicle_type_id":"4","last_reported":1702926340,"current_range_meters":0,"station_id":"ce4bhlp2rcd13ifvqgjg","pricing_plan_id":"free"},{"bike_id":"ed305491-eed3-4a98-9499-ee1401ff70f2","system_id":"levelo_inurba_marseille","lat":43.245581,"lon":5.395069,"is_reserved":false,"is_disabled":false,"rental_uris":{"android":"levelo://app?vid=ed305491-eed3-4a98-9499-ee1401ff70f2","ios":"levelo://app?vid=ed305491-eed3-4a98-9499-ee1401ff70f2"},"vehicle_type_id":"4","last_reported":1702926340,"current_range_meters":16800,"station_id":"ce4bhlp2rcd13ifvqgjg","pricing_plan_id":"free"},{"bike_id":"3a13234a-9cc6-43ed-84fd-33fa83cd0f7c","system_id":"levelo_inurba_marseille","lat":43.240623,"lon":5.377642,"is_reserved":false,"is_disabled":false,"rental_uris":{"android":"levelo://app?vid=3a13234a-9cc6-43ed-84fd-33fa83cd0f7c","ios":"levelo://app?vid=3a13234a-9cc6-43ed-84fd-33fa83cd0f7c"},"vehicle_type_id":"4","last_reported":1702926340,"current_range_meters":16000,"station_id":"ce4bhnp2rcd13ifvqgvg","pricing_plan_id":"free"},{"bike_id":"865da4e8-e8be-4110-baad-921ccaf6d5fc","system_id":"levelo_inurba_marseille","lat":43.24073,"lon":5.37766,"is_reserved":false,"is_disabled":false,"rental_uris":{"android":"levelo://app?vid=865da4e8-e8be-4110-baad-921ccaf6d5fc","ios":"levelo://app?vid=865da4e8-e8be-4110-baad-921ccaf6d5fc"},"vehicle_type_id":"4","last_reported":1702926340,"current_range_meters":13600,"station_id":"ce4bhnp2rcd13ifvqgvg","pricing_plan_id":"free"},{"bike_id":"6e05fd53-57ff-4d8b-97dc-e409216a975b","system_id":"levelo_inurba_marseille","lat":43.239588,"lon":5.366238,"is_reserved":false,"is_disabled":false,"rental_uris":{"android":"levelo://app?vid=6e05fd53-57ff-4d8b-97dc-e409216a975b","ios":"levelo://app?vid=6e05fd53-57ff-4d8b-97dc-e409216a975b"},"vehicle_type_id":"4","last_reported":1702926340,"current_range_meters":27600,"station_id":"ce4bhi12rcd13ifvqfp0","pricing_plan_id":"free"},{"bike_id":"14e78016-51c2-4d3c-ad13-e05d3fc5830e","system_id":"levelo_inurba_marseille","lat":43.239588,"lon":5.366238,"is_reserved":false,"is_disabled":false,"rental_uris":{"android":"levelo://app?vid=14e78016-51c2-4d3c-ad13-e05d3fc5830e","ios":"levelo://app?vid=14e78016-51c2-4d3c-ad13-e05d3fc5830e"},"vehicle_type_id":"4","last_reported":1702926340,"current_range_meters":30400,"station_id":"ce4bhi12rcd13ifvqfp0","pricing_plan_id":"free"},{"bike_id":"945031ea-46a0-45dc-b827-f2c1848c09af","system_id":"levelo_inurba_marseille","lat":43.239588,"lon":5.366238,"is_reserved":false,"is_disabled":false,"rental_uris":{"android":"levelo://app?vid=945031ea-46a0-45dc-b827-f2c1848c09af","ios":"levelo://app?vid=945031ea-46a0-45dc-b827-f2c1848c09af"},"vehicle_type_id":"4","last_reported":1702926340,"current_range_meters":31200,"station_id":"ce4bhi12rcd13ifvqfp0","pricing_plan_id":"free"},{"bike_id":"7c9acc5b-9432-4542-a6d8-5ca51dca000c","system_id":"levelo_inurba_marseille","lat":43.241782,"lon":5.397261,"is_reserved":false,"is_disabled":false,"rental_uris":{"android":"levelo://app?vid=7c9acc5b-9432-4542-a6d8-5ca51dca000c","ios":"levelo://app?vid=7c9acc5b-9432-4542-a6d8-5ca51dca000c"},"vehicle_type_id":"4","last_reported":1702926340,"current_range_meters":10400,"station_id":"ce4bhn12rcd13ifvqgpg","pricing_plan_id":"free"},