{"last_updated":1679180800,"ttl":30,"version":"2.2","data":{"bikes":[{"bike_id":"94545776-9107-46bc-8fa6-7ec93fc00d48","system_id":"levelo_inurba_marseille","lat":43.31224,"lon":5.36859,"is_reserved":false,"is_disabled":false,"rental_uris":{"android":"levelo://app?vid=94545776-9107-46bc-8fa6-7ec93fc00d48","ios":"levelo://app?vid=94545776-9107-46bc-8fa6-7ec93fc00d48"},"vehicle_type_id":"4","last_reported":1679180800,"current_range_meters":23200,"station_id":"ce4bgl92rcd13ifvqbq0","pricing_plan_id":"free"},{"bike_id":"15818c45-f59e-44b5-857b-57b5ad91fac0","system_id":"levelo_inurba_marseille","lat":43.312239,"lon":5.368562,"is_reserved":false,"is_disabled":false,"rental_uris":{"android":"levelo://app?vid=15818c45-f59e-44b5-857b-57b5ad91fac0","ios":"levelo://app?vid=15818c45-f59e-44b5-857b-57b5ad91fac0"},"vehicle_type_id":"4","last_reported":1679180800,"current_range_meters":8000,"station_id":"ce4bgl92rcd13ifvqbq0","pricing_plan_id":"free"},{"bike_id":"647aaa01-5e2b-4d3b-90b3-15779aa05dcd","system_id":"levelo_inurba_marseille","lat":43.305989,"lon":5.37225,"is_reserved":false,"is_disabled":false,"rental_uris":{"android":"levelo://app?vid=647aaa01-5e2b-4d3b-90b3-15779aa05dcd","ios":"levelo://app?vid=647aaa01-5e2b-4d3b-90b3-15779aa05dcd"},"vehicle_type_id":"4","last_reported":1679180800,"current_range_meters":28000,"station_id":"ce4bgqh2rcd13ifvqc4g","pricing_plan_id":"free"},{"bike_id":"b3babf30-d4fa-4466-bd1d-a3ead437aeb8","system_id":"levelo_inurba_marseille","lat":43.301939,"lon":5.366286,"is_reserved":false,"is_disabled":false,"rental_uris":{"android":"levelo://app?vid=b3babf30-d4fa-4466-bd1d-a3ead437aeb8","ios":"levelo://app?vid=b3babf30-d4fa-4466-bd1d-a3ead437aeb8"},"vehicle_type_id":"4","last_reported":1679180800,"current_range_meters":4000,"station_id":"ce4bgrh2rcd13ifvqc8g","pricing_plan_id":"free"},{"bike_id":"1a2b175d-dbdb-47c1-b244-c0200de61e74","system_id":"levelo_inurba_marseille","lat":43.308298,"lon":5.381143,"is_reserved":false,"is_disabled":false,"rental_uris":{"android":"levelo://app?vid=1a2b175d-dbdb-47c1-b244-c0200de61e74","ios":"levelo://app?vid=1a2b175d-dbdb-47c1-b244-c0200de61e74"},"vehicle_type_id":"4","last_reported":1679180800,"current_range_meters":0,"station_id":"","pricing_plan_id":"free"},{"bike_id":"f3748c22-131c-48f4-8392-2318cb87ce1f","system_id":"levelo_inurba_marseille","lat":43.304606,"lon":5.379026,"is_reserved":false,"is_disabled":false,"rental_uris":{"android":"levelo://app?vid=f3748c22-131c-48f4-8392-2318cb87ce1f","ios":"levelo://app?vid=f3748c22-131c-48f4-8392-2318cb87ce1f"},"vehicle_type_id":"4","last_reported":1679180800,"current_range_meters":10400,"station_id":"ce4bgup2rcd13ifvqcn0","pricing_plan_id":"free"},{"bike_id":"a3a26f8a-52f1-484d-b06c-552e0f98d28c","system_id":"levelo_inurba_marseille","lat":43.301425,"lon":5.37409,"is_reserved":false,"is_disabled":false,"rental_uris":{"android":"levelo://app?vid=a3a26f8a-52f1-484d-b06c-552e0f98d28c","ios":"levelo://app?vid=a3a26f8a-52f1-484d-b06c-552e0f98d28c"},"vehicle_type_id":"4","last_reported":1679180800,"current_range_meters":0,"station_id":"ce4bgs92rcd13ifvqcc0","pricing_plan_id":"free"},{"bike_id":"3fe933c9-0aac-4c6d-b23f-0ba644538ac0","system_id":"levelo_inurba_marseille","lat":43.301376,"lon":5.374189,"is_reserved":false,"is_disabled":false,"rental_uris":{"android":"levelo://app?vid=3fe933c9-0aac-4c6d-b23f-0ba644538ac0","ios":"levelo://app?vid=3fe933c9-0aac-4c6d-b23f-0ba644538ac0"},"vehicle_type_id":"4","last_reported":1679180800,"current_range_meters":0,"station_id":"ce4bgs92rcd13ifvqcc0","pricing_plan_id":"free"},{"bike_id":"0ebfb709-cdc2-41c6-b005-5dbfa83d1b7d","system_id":"levelo_inurba_marseille","lat":43.313571,"lon":5.384829,"is_reserved":false,"is_disabled":false,"rental_uris":{"android":"levelo://app?vid=0ebfb709-cdc2-41c6-b005-5dbfa83d1b7d","ios":"levelo://app?vid=0ebfb709-cdc2-41c6-b005-5dbfa83d1b7d"},"vehicle_type_id":"4","last_reported":1679180800,"current_range_meters":24400,"station_id":"ce4bgt92rcd13ifvqcf0","pricing_plan_id":"free"},{"bike_id":"52dac2d3-f258-4c49-9d68-b46744136d95","system_id":"levelo_inurba_marseille","lat":43.313571,"lon":5.384829,"is_reserved":false,"is_disabled":false,"rental_uris":{"android":"levelo://app?vid=52dac2d3-f258-4c49-9d68-b46744136d95","ios":"levelo://app?vid=52dac2d3-f258-4c49-9d68-b46744136d95"},"vehicle_type_id":"4","last_reported":1679180800,"current_range_meters":400,"station_id":"ce4bgt92rcd13ifvqcf0","pricing_plan_id":"free"},{"bike_id":"2c08438d-9244-4741-81f5-3ef5683362f6","system_id":"levelo_inurba_marseille","lat":43.313571,"lon":5.384829,"is_reserved":false,"is_disabled":false,"rental_uris":{"android":"levelo://app?vid=2c08438d-9244-4741-81f5-3ef5683362f6","ios":"levelo://app?vid=2c08438d-9244-4741-81f5-3ef5683362f6"},"vehicle_type_id":"4","last_reported":1679180800,"current_range_meters":22000,"station_id":"ce4bgt92rcd13ifvqcf0","pricing_plan_id":"free"},{"bike_id":"a54e6fff-17a6-4a57-a059-b5e64588e929","system_id":"levelo_inurba_marseille","lat":43.29941,"lon":5.36536,"is_reserved":false,"is_disabled":false,"rental_uris":{"android":"levelo://app?vid=a54e6fff-17a6-4a57-a059-b5e64588e929","ios":"levelo://app?vid=a54e6fff-17a6-4a57-a059-b5e64588e929"},"vehicle_type_id":"4","last_reported":1679180800,"current_range_meters":0,"station_id":"","pricing_plan_id":"free"},{"bike_id":"66478734-5aa3-4a23-80bb-cfeaed69ea0f","system_id":"levelo_inurba_marseille","lat":43.299094,"lon":5.365415,"is_reserved":false,"is_disabled":false,"rental_uris":{"android":"levelo://app?vid=66478734-5aa3-4a23-80bb-cfeaed69ea0f","ios":"levelo://app?vid=66478734-5aa3-4a23-80bb-cfeaed69ea0f"},"vehicle_type_id":"4","last_reported":1679180800,"current_range_meters":9200,"station_id":"ce4bgm92rcd13ifvqbr0","pricing_plan_id":"free"},{"bike_id":"4dad9e8e-1f47-423a-b5bc-e287a587d1da","system_id":"levelo_inurba_marseille","lat":43.315145,"lon":5.385929,"is_reserved":false,"is_disabled":false,"rental_uris":{"android":"levelo://app?vid=4dad9e8e-1f47-423a-b5bc-e287a587d1da","ios":"levelo://app?vid=4dad9e8e-1f47-423a-b5bc-e287a587d1da"},"vehicle_type_id":"4","last_reported":1679180800,"current_range_meters":0,"station_id":"","pricing_plan_id":"free"},{"bike_id":"c77f5a1f-2bab-40c9-99fd-0d635774132a","system_id":"levelo_inurba_marseille","lat":43.311664,"lon":5.386953,"is_reserved":false,"is_disabled":false,"rental_uris":{"android":"levelo://app?vid=c77f5a1f-2bab-40c9-99fd-0d635774132a","ios":"levelo://app?vid=c77f5a1f-2bab-40c9-99fd-0d635774132a"},"vehicle_type_id":"4","last_reported":1679180800,"current_range_meters":0,"station_id":"ce4bgv12rcd13ifvqcp0","pricing_plan_id":"free"},{"bike_id":"8207ed28-47cf-4b80-b8de-ab2619816bb1","system_id":"levelo_inurba_marseille","lat":43.298433,"lon":5.362774,"is_reserved":false,"is_disabled":false,"rental_uris":{"android":"levelo://app?vid=8207ed28-47cf-4b80-b8de-ab2619816bb1","ios":"levelo://app?vid=8207ed28-47cf-4b80-b8de-ab2619816bb1"},"vehicle_type_id":"4","last_reported":1679180800,"current_range_meters":21600,"station_id":"ce4bgpp2rcd13ifvqc3g","pricing_plan_id":"free"},{"bike_id":"1f26d716-302e-4a39-a08e-f701c177217c","system_id":"levelo_inurba_marseille","lat":43.311722,"lon":5.387247,"is_reserved":false,"is_disabled":false,"rental_uris":{"android":"levelo://app?vid=1f26d716-302e-4a39-a08e-f701c177217c","ios":"levelo://app?vid=1f26d716-302e-4a39-a08e-f701c177217c"},"vehicle_type_id":"4","last_reported":1679180800,"current_range_meters":3200,"station_id":"ce4bgv12rcd13ifvqcp0","pricing_plan_id":"free"},{"bike_id":"131759ac-620c-4eea-ae14-38cec5d55ff2","system_id":"levelo_inurba_marseille","lat":43.299243,"lon":5.374807,"is_reserved":false,"is_disabled":false,"rental_uris":{"android":"levelo://app?vid=131759ac-620c-4eea-ae14-38cec5d55ff2","ios":"levelo://app?vid=131759ac-620c-4eea-ae14-38cec5d55ff2"},"vehicle_type_id":"4","last_reported":1679180800,"current_range_meters":0,"station_id":"ce4bgjh2rcd13ifvqbg0","pricing_plan_id":"free"},{"bike_id":"ff2965ac-1764-4dd5-a769-9a5fb3660cbc","system_id":"levelo_inurba_marseille","lat":43.29685,"lon":5.372893,"is_reserved":false,"is_disabled":false,"rental_uris":{"android":"levelo://app?vid=ff2965ac-1764-4dd5-a769-9a5fb3660cbc","ios":"levelo://app?vid=ff2965ac-1764-4dd5-a769-9a5fb3660cbc"},"vehicle_type_id":"4","last_reported":1679180800,"current_range_meters":0,"station_id":"","pricing_plan_id":"free"},{"bike_id":"51d5848e-824e-40da-b27f-af64ce8509ac","system_id":"levelo_inurba_marseille","lat":43.297342,"lon":5.376845,"is_reserved":false,"is_disabled":false,"rental_uris":{"android":"levelo://app?vid=51d5848e-824e-40da-b27f-af64ce8509ac","ios":"levelo://app?vid=51d5848e-824e-40da-b27f-af64ce8509ac"},"vehicle_type_id":"4","last_reported":1679180800,"current_range_meters":0,"station_id":"","pricing_plan_id":"free"},{"bike_id":"5c3b6506-e140-4763-af1a-1f041e436522","system_id":"levelo_inurba_marseille","lat":43.309589,"lon":5.390258,"is_reserved":false,"is_disabled":false,"rental_uris":{"android":"levelo://app?vid=5c3b6506-e140-4763-af1a-1f041e436522","ios":"levelo://app?vid=5c3b6506-e140-4763-af1a-1f041e436522"},"vehicle_type_id":"4","last_reported":1679180800,"current_range_meters":15600,"station_id":"ce4bgup2rcd13ifvqco0","pricing_plan_id":"free"},{"bike_id":"43aeac86-0638-45e0-bb53-d2079e26eef6","system_id":"levelo_inurba_marseille","lat":43.309589,"lon":5.390258,"is_reserved":false,"is_disabled":false,"rental_uris":{"android":"levelo://app?vid=43aeac86-0638-45e0-bb53-d2079e26eef6","ios":"levelo://app?vid=43aeac86-0638-45e0-bb53-d2079e26eef6"},"vehicle_type_id":"4","last_reported":1679180800,"current_range_meters":24000,"station_id":"ce4bgup2rcd13ifvqco0","pricing_plan_id":"free"},{"bike_id":"2e1d1032-c7cc-4597-b25e-d7f5e58534d5","system_id":"levelo_inurba_marseille","lat":43.296277,"lon":5.377108,"is_reserved":false,"is_disabled":false,"rental_uris":{"android":"levelo://app?vid=2e1d1032-c7cc-4597-b25e-d7f5e58534d5","ios":"levelo://app?vid=2e1d1032-c7cc-4597-b25e-d7f5e58534d5"},"vehicle_type_id":"4","last_reported":1679180800,"current_range_meters":0,"station_id":"ce4bgi92rcd13ifvqb90","pricing_plan_id":"free"},{"bike_id":"5971bedb-4e55-4cca-a827-15c1c85bce63","system_id":"levelo_inurba_marseille","lat":43.299708,"lon":5.384931,"is_reserved":false,"is_disabled":false,"rental_uris":{"android":"levelo://app?vid=5971bedb-4e55-4cca-a827-15c1c85bce63","ios":"levelo://app?vid=5971bedb-4e55-4cca-a827-15c1c85bce63"},"vehicle_type_id":"4","last_reported":1679180800,"current_range_meters":0,"station_id":"ce4bgj92rcd13ifvqbd0","pricing_plan_id":"free"},{"bike_id":"8ee722c3-cfd3-40d6-953f-42f233fdf582","system_id":"levelo_inurba_marseille","lat":43.323568,"lon":5.388856,"is_reserved":false,"is_disabled":false,"rental_uris":{"android":"levelo://app?vid=8ee722c3-cfd3-40d6-953f-42f233fdf582","ios":"levelo://app?vid=8ee722c3-cfd3-40d6-953f-42f233fdf582"},"vehicle_type_id":"4","last_reported":1679180800,"current_range_meters":20400,"station_id":"ce4bhqp2rcd13ifvqhog","pricing_plan_id":"free"},{"bike_id":"0ee17032-ad2e-4291-899b-1b72f2f34597","system_id":"levelo_inurba_marseille","lat":43.32365,"lon":5.38881,"is_reserved":false,"is_disabled":false,"rental_uris":{"android":"levelo://app?vid=0ee17032-ad2e-4291-899b-1b72f2f34597","ios":"levelo://app?vid=0ee17032-ad2e-4291-899b-1b72f2f34597"},"vehicle_type_id":"4","last_reported":1679180800,"current_range_meters":400,"station_id":"ce4bhqp2rcd13ifvqhog","pricing_plan_id":"free"},{"bike_id":"deb37c96-3348-4d98-a426-72a96f26f7ee","system_id":"levelo_inurba_marseille","lat":43.32368,"lon":5.388793,"is_reserved":false,"is_disabled":false,"rental_uris":{"android":"levelo://app?vid=deb37c96-3348-4d98-a426-72a96f26f7ee","ios":"levelo://app?vid=deb37c96-3348-4d98-a426-72a96f26f7ee"},"vehicle_type_id":"4","last_reported":1679180800,"current_range_meters":1200,"station_id":"","pricing_plan_id":"free"},{"bike_id":"90745e93-3e4e-4248-af91-77f98ca477a1","system_id":"levelo_inurba_marseille","lat":43.323673,"lon":5.38883,"is_reserved":false,"is_disabled":false,"rental_uris":{"android":"levelo://app?vid=90745e93-3e4e-4248-af91-77f98ca477a1","ios":"levelo://app?vid=90745e93-3e4e-4248-af91-77f98ca477a1"},"vehicle_type_id":"4","last_reported":1679180800,"current_range_meters":21600,"station_id":"ce4bhqp2rcd13ifvqhog","pricing_plan_id":"free"},{"bike_id":"40dcf835-58c7-406a-8fb1-1b5823f9644d","system_id":"levelo_inurba_marseille","lat":43.32367,"lon":5.388836,"is_reserved":false,"is_disabled":false,"rental_uris":{"android":"levelo://app?vid=40dcf835-58c7-406a-8fb1-1b5823f9644d","ios":"levelo://app?vid=40dcf835-58c7-406a-8fb1-1b5823f9644d"},"vehicle_type_id":"4","last_reported":1679180800,"current_range_meters":5600,"station_id":"ce4bhqp2rcd13ifvqhog","pricing_plan_id":"free"},{"bike_id":"4385a8c2-fe29-43d4-9bc6-b3c21db78f50","system_id":"levelo_inurba_marseille","lat":43.32367,"lon":5.388836,"is_reserved":false,"is_disabled":false,"rental_uris":{"android":"levelo://app?vid=4385a8c2-fe29-43d4-9bc6-b3c21db78f50","ios":"levelo://app?vid=4385a8c2-fe29-43d4-9bc6-b3c21db78f50"},"vehicle_type_id":"4","last_reported":1679180800,"current_range_meters":21200,"station_id":"ce4bhqp2rcd13ifvqhog","pricing_plan_id":"free"},{"bike_id":"4acf4a6e-610b-4acb-b648-9bcdf0839ce4","system_id":"levelo_inurba_marseille","lat":43.32367,"lon":5.388836,"is_reserved":false,"is_disabled":false,"rental_uris":{"android":"levelo://app?vid=4acf4a6e-610b-4acb-b648-9bcdf0839ce4","ios":"levelo://app?vid=4acf4a6e-610b-4acb-b648-9bcdf0839ce4"},"vehicle_type_id":"4","last_reported":1679180800,"current_range_meters":2400,"station_id":"ce4bhqp2rcd13ifvqhog","pricing_plan_id":"free"},{"bike_id":"37ca3e8f-0050-4cfc-b16c-187f216fe935","system_id":"levelo_inurba_marseille","lat":43.293013,"lon":5.374521,"is_reserved":false,"is_disabled":false,"rental_uris":{"android":"levelo://app?vid=37ca3e8f-0050-4cfc-b16c-187f216fe935","ios":"levelo://app?vid=37ca3e8f-0050-4cfc-b16c-187f216fe935"},"vehicle_type_id":"4","last_reported":1679180800,"current_range_meters":0,"station_id":"","pricing_plan_id":"free"},{"bike_id":"27a582be-2a50-45fa-953d-0a8612e385e1","system_id":"levelo_inurba_marseille","lat":43.305994,"lon":5.393687,"is_reserved":false,"is_disabled":false,"rental_uris":{"android":"levelo://app?vid=27a582be-2a50-45fa-953d-0a8612e385e1","ios":"levelo://app?vid=27a582be-2a50-45fa-953d-0a8612e385e1"},"vehicle_type_id":"4","last_reported":1679180800,"current_range_meters":3600,"station_id":"ce4bh0p2rcd13ifvqd80","pricing_plan_id":"free"},{"bike_id":"47a6c54a-5061-43df-af03-918fd5db40bb","system_id":"levelo_inurba_marseille","lat":43.305994,"lon":5.393687,"is_reserved":false,"is_disabled":false,"rental_uris":{"android":"levelo://app?vid=47a6c54a-5061-43df-af03-918fd5db40bb","ios":"levelo://app?vid=47a6c54a-5061-43df-af03-918fd5db40bb"},"vehicle_type_id":"4","last_reported":1679180800,"current_range_meters":20000,"station_id":"ce4bh0p2rcd13ifvqd80","pricing_plan_id":"free"},{"bike_id":"805fd9ff-04bd-47e4-a00e-4ab171d2bfa9","system_id":"levelo_inurba_marseille","lat":43.313291,"lon":5.396838,"is_reserved":false,"is_disabled":false,"rental_uris":{"android":"levelo://app?vid=805fd9ff-04bd-47e4-a00e-4ab171d2bfa9","ios":"levelo://app?vid=805fd9ff-04bd-47e4-a00e-4ab171d2bfa9"},"vehicle_type_id":"4","last_reported":1679180800,"current_range_meters":17600,"station_id":"ce4bgvp2rcd13ifvqcu0","pricing_plan_id":"free"},{"bike_id":"c0a2a658-41d7-4335-9ab5-ee428580e2e7","system_id":"levelo_inurba_marseille","lat":43.31681,"lon":5.396578,"is_reserved":false,"is_disabled":false,"rental_uris":{"android":"levelo://app?vid=c0a2a658-41d7-4335-9ab5-ee428580e2e7","ios":"levelo://app?vid=c0a2a658-41d7-4335-9ab5-ee428580e2e7"},"vehicle_type_id":"4","last_reported":1679180800,"current_range_meters":23600,"station_id":"","pricing_plan_id":"free"},{"bike_id":"a2ea142d-6b25-4c4d-905b-a7ef4e1690ac","system_id":"levelo_inurba_marseille","lat":43.295829,"lon":5.386574,"is_reserved":false,"is_disabled":false,"rental_uris":{"android":"levelo://app?vid=a2ea142d-6b25-4c4d-905b-a7ef4e1690ac","ios":"levelo://app?vid=a2ea142d-6b25-4c4d-905b-a7ef4e1690ac"},"vehicle_type_id":"4","last_reported":1679180800,"current_range_meters":0,"station_id":"","pricing_plan_id":"free"},{"bike_id":"f5a35ec6-a699-4b39-9282-cd3501ccdd9b","system_id":"levelo_inurba_marseille","lat":43.290779,"lon":5.371482,"is_reserved":false,"is_disabled":false,"rental_uris":{"android":"levelo://app?vid=f5a35ec6-a699-4b39-9282-cd3501ccdd9b","ios":"levelo://app?vid=f5a35ec6-a699-4b39-9282-cd3501ccdd9b"},"vehicle_type_id":"4","last_reported":1679180800,"current_range_meters":0,"station_id":"ce4bh5p2rcd13ifvqe4g","pricing_plan_id":"free"},{"bike_id":"ecac682f-40a2-47f2-ba2b-7d2cb43a2773","system_id":"levelo_inurba_marseille","lat":43.290375,"lon":5.359203,"is_reserved":false,"is_disabled":false,"rental_uris":{"android":"levelo://app?vid=ecac682f-40a2-47f2-ba2b-7d2cb43a2773","ios":"levelo://app?vid=ecac682f-40a2-47f2-ba2b-7d2cb43a2773"},"vehicle_type_id":"4","last_reported":1679180800,"current_range_meters":0,"station_id":"ce4bha92rcd13ifvqeg0","pricing_plan_id":"free"},{"bike_id":"3ef5c721-c142-4987-b996-49b82317e027","system_id":"levelo_inurba_marseille","lat":43.330442,"lon":5.389148,"is_reserved":false,"is_disabled":false,"rental_uris":{"android":"levelo://app?vid=3ef5c721-c142-4987-b996-49b82317e027","ios":"levelo://app?vid=3ef5c721-c142-4987-b996-49b82317e027"},"vehicle_type_id":"4","last_reported":1679180800,"current_range_meters":7600,"station_id":"ce4bhr92rcd13ifvqhrg","pricing_plan_id":"free"},{"bike_id":"35ad711c-31a9-49c5-a31a-d4ee1d59c984","system_id":"levelo_inurba_marseille","lat":43.330442,"lon":5.389148,"is_reserved":false,"is_disabled":false,"rental_uris":{"android":"levelo://app?vid=35ad711c-31a9-49c5-a31a-d4ee1d59c984","ios":"levelo://app?vid=35ad711c-31a9-49c5-a31a-d4ee1d59c984"},"vehicle_type_id":"4","last_reported":1679180800,"current_range_meters":2000,"station_id":"ce4bhr92rcd13ifvqhrg","pricing_plan_id":"free"},{"bike_id":"621c087d-85cc-4eaa-b933-04755e299abb","system_id":"levelo_inurba_marseille","lat":43.330442,"lon":5.389148,"is_reserved":false,"is_disabled":false,"rental_uris":{"android":"levelo://app?vid=621c087d-85cc-4eaa-b933-04755e299abb","ios":"levelo://app?vid=621c087d-85cc-4eaa-b933-04755e299abb"},"vehicle_type_id":"4","last_reported":1679180800,"current_range_meters":4400,"station_id":"ce4bhr92rcd13ifvqhrg","pricing_plan_id":"free"},{"bike_id":"28cb8c96-fbff-4e6f-b114-7355be64be23","system_id":"levelo_inurba_marseille","lat":43.330442,"lon":5.389148,"is_reserved":false,"is_disabled":false,"rental_uris":{"android":"levelo://app?vid=28cb8c96-fbff-4e6f-b114-7355be64be23","ios":"levelo://app?vid=28cb8c96-fbff-4e6f-b114-7355be64be23"},"vehicle_type_id":"4","last_reported":1679180800,"current_range_meters":2400,"station_id":"ce4bhr92rcd13ifvqhrg","pricing_plan_id":"free"},{"bike_id":"f9e3b24f-c5a3-4647-9392-61c32af10db4","system_id":"levelo_inurba_marseille","lat":43.29042,"lon":5.37955,"is_reserved":false,"is_disabled":false,"rental_uris":{"android":"levelo://app?vid=f9e3b24f-c5a3-4647-9392-61c32af10db4","ios":"levelo://app?vid=f9e3b24f-c5a3-4647-9392-61c32af10db4"},"vehicle_type_id":"4","last_reported":1679180800,"current_range_meters":8800,"station_id":"","pricing_plan_id":"free"},{"bike_id":"ebd3695e-32a8-4577-8f40-c88d7b750d58","system_id":"levelo_inurba_marseille","lat":43.290983,"lon":5.381361,"is_reserved":false,"is_disabled":false,"rental_uris":{"android":"levelo://app?vid=ebd3695e-32a8-4577-8f40-c88d7b750d58","ios":"levelo://app?vid=ebd3695e-32a8-4577-8f40-c88d7b750d58"},"vehicle_type_id":"4","last_reported":1679180800,"current_range_meters":2400,"station_id":"ce4bh512rcd13ifvqe2g","pricing_plan_id":"free"},{"bike_id":"37600cf5-2f78-4ba9-ae40-486df5a0d728","system_id":"levelo_inurba_marseille","lat":43.290997,"lon":5.381518,"is_reserved":false,"is_disabled":false,"rental_uris":{"android":"levelo://app?vid=37600cf5-2f78-4ba9-ae40-486df5a0d728","ios":"levelo://app?vid=37600cf5-2f78-4ba9-ae40-486df5a0d728"},"vehicle_type_id":"4","last_reported":1679180800,"current_range_meters":0,"station_id":"","pricing_plan_id":"free"},{"bike_id":"3fb4600a-e7d7-466e-917a-0a6599d73651","system_id":"levelo_inurba_marseille","lat":43.295169,"lon":5.390426,"is_reserved":false,"is_disabled":false,"rental_uris":{"android":"levelo://app?vid=3fb4600a-e7d7-466e-917a-0a6599d73651","ios":"levelo://app?vid=3fb4600a-e7d7-466e-917a-0a6599d73651"},"vehicle_type_id":"4","last_reported":1679180800,"current_range_meters":800,"station_id":"ce4bh3p2rcd13ifvqdp0","pricing_plan_id":"free"},{"bike_id":"3691d997-1cad-46ed-b7e6-586680d35f2f","system_id":"levelo_inurba_marseille","lat":43.337446,"lon":5.37465,"is_reserved":false,"is_disabled":false,"rental_uris":{"android":"levelo://app?vid=3691d997-1cad-46ed-b7e6-586680d35f2f","ios":"levelo://app?vid=3691d997-1cad-46ed-b7e6-586680d35f2f"},"vehicle_type_id":"4","last_reported":1679180800,"current_range_meters":19600,"station_id":"ce4rr2p2rcd13i802rgg","pricing_plan_id":"free"},{"bike_id":"f0888a5d-8469-4a4a-aa32-e51183159fbe","system_id":"levelo_inurba_marseille","lat":43.337455,"lon":5.374605,"is_reserved":false,"is_disabled":false,"rental_uris":{"android":"levelo://app?vid=f0888a5d-8469-4a4a-aa32-e51183159fbe","ios":"levelo://app?vid=f0888a5d-8469-4a4a-aa32-e51183159fbe"},"vehicle_type_id":"4","last_reported":1679180800,"current_range_meters":10800,"station_id":"","pricing_plan_id":"free"},{"bike_id":"97a70748-85a2-4139-aa8d-3426ee2a5b86","system_id":"levelo_inurba_marseille","lat":43.337501,"lon":5.374448,"is_reserved":false,"is_disabled":false,"rental_uris":{"android":"levelo://app?vid=97a70748-85a2-4139-aa8d-3426ee2a5b86","ios":"levelo://app?vid=97a70748-85a2-4139-aa8d-3426ee2a5b86"},"vehicle_type_id":"4","last_reported":1679180800,"current_range_meters":0,"station_id":"","pricing_plan_id":"free"},{"bike_id":"f3e60a9c-2b74-43cb-ac11-5dfafdbb73c0","system_id":"levelo_inurba_marseille","lat":43.337547,"lon":5.374653,"is_reserved":false,"is_disabled":false,"rental_uris":{"android":"levelo://app?vid=f3e60a9c-2b74-43cb-ac11-5dfafdbb73c0","ios":"levelo://app?vid=f3e60a9c-2b74-43cb-ac11-5dfafdbb73c0"},"vehicle_type_id":"4","last_reported":1679180800,"current_range_meters":24800,"station_id":"","pricing_plan_id":"free"},{"bike_id":"cbe0b653-0be1-401f-97fe-29e9916c05b6","system_id":"levelo_inurba_marseille","lat":43.30642,"lon":5.401031,"is_reserved":false,"is_disabled":false,"rental_uris":{"android":"levelo://app?vid=cbe0b653-0be1-401f-97fe-29e9916c05b6","ios":"levelo://app?vid=cbe0b653-0be1-401f-97fe-29e9916c05b6"},"vehicle_type_id":"4","last_reported":1679180800,"current_range_meters":15200,"station_id":"ce4bh112rcd13ifvqda0","pricing_plan_id":"free"},{"bike_id":"6a4556e3-cbd8-41c1-8024-a32ed86b6e38","system_id":"levelo_inurba_marseille","lat":43.29538,"lon":5.39397,"is_reserved":false,"is_disabled":false,"rental_uris":{"android":"levelo://app?vid=6a4556e3-cbd8-41c1-8024-a32ed86b6e38","ios":"levelo://app?vid=6a4556e3-cbd8-41c1-8024-a32ed86b6e38"},"vehicle_type_id":"4","last_reported":1679180800,"current_range_meters":5200,"station_id":"ce4bh212rcd13ifvqde0","pricing_plan_id":"free"},{"bike_id":"7cc095d8-ef99-4d7e-8069-6bcd074ab6bd","system_id":"levelo_inurba_marseille","lat":43.29026,"lon":5.38642,"is_reserved":false,"is_disabled":false,"rental_uris":{"android":"levelo://app?vid=7cc095d8-ef99-4d7e-8069-6bcd074ab6bd","ios":"levelo://app?vid=7cc095d8-ef99-4d7e-8069-6bcd074ab6bd"},"vehicle_type_id":"4","last_reported":1679180800,"current_range_meters":2800,"station_id":"ce4bh4p2rcd13ifvqe0g","pricing_plan_id":"free"},{"bike_id":"29461053-021f-4bca-bf09-0165ca63494b","system_id":"levelo_inurba_marseille","lat":43.302759,"lon":5.400793,"is_reserved":false,"is_disabled":false,"rental_uris":{"android":"levelo://app?vid=29461053-021f-4bca-bf09-0165ca63494b","ios":"levelo://app?vid=29461053-021f-4bca-bf09-0165ca63494b"},"vehicle_type_id":"4","last_reported":1679180800,"current_range_meters":11600,"station_id":"ce4bgvh2rcd13ifvqcs0","pricing_plan_id":"free"},{"bike_id":"1c7d729c-0c4d-48e9-bf8c-2dc26eb2807d","system_id":"levelo_inurba_marseille","lat":43.286039,"lon":5.370679,"is_reserved":false,"is_disabled":false,"rental_uris":{"android":"levelo://app?vid=1c7d729c-0c4d-48e9-bf8c-2dc26eb2807d","ios":"levelo://app?vid=1c7d729c-0c4d-48e9-bf8c-2dc26eb2807d"},"vehicle_type_id":"4","last_reported":1679180800,"current_range_meters":0,"station_id":"ce4bht12rcd13ifvqi60","pricing_plan_id":"free"},{"bike_id":"f72ee2fa-587c-40ab-8502-a348c51e9c1c","system_id":"levelo_inurba_marseille","lat":43.287184,"lon":5.37937,"is_reserved":false,"is_disabled":false,"rental_uris":{"android":"levelo://app?vid=f72ee2fa-587c-40ab-8502-a348c51e9c1c","ios":"levelo://app?vid=f72ee2fa-587c-40ab-8502-a348c51e9c1c"},"vehicle_type_id":"4","last_reported":1679180800,"current_range_meters":12800,"station_id":"ce4bh9p2rcd13ifvqec0","pricing_plan_id":"free"},{"bike_id":"d135f718-1c3f-427e-8199-5d9e31ce4436","system_id":"levelo_inurba_marseille","lat":43.295713,"lon":5.399639,"is_reserved":false,"is_disabled":false,"rental_uris":{"android":"levelo://app?vid=d135f718-1c3f-427e-8199-5d9e31ce4436","ios":"levelo://app?vid=d135f718-1c3f-427e-8199-5d9e31ce4436"},"vehicle_type_id":"4","last_reported":1679180800,"current_range_meters":17200,"station_id":"ce4bh312rcd13ifvqdj0","pricing_plan_id":"free"},{"bike_id":"a856019f-9b62-4c44-909a-e3757f690c99","system_id":"levelo_inurba_marseille","lat":43.28462,"lon":5.35897,"is_reserved":false,"is_disabled":false,"rental_uris":{"android":"levelo://app?vid=a856019f-9b62-4c44-909a-e3757f690c99","ios":"levelo://app?vid=a856019f-9b62-4c44-909a-e3757f690c99"},"vehicle_type_id":"4","last_reported":1679180800,"current_range_meters":0,"station_id":"","pricing_plan_id":"free"},{"bike_id":"f8280d14-b024-4ff4-a6e5-b2b51fdf43fd","system_id":"levelo_inurba_marseille","lat":43.284589,"lon":5.358931,"is_reserved":false,"is_disabled":false,"rental_uris":{"android":"levelo://app?vid=f8280d14-b024-4ff4-a6e5-b2b51fdf43fd","ios":"levelo://app?vid=f8280d14-b024-4ff4-a6e5-b2b51fdf43fd"},"vehicle_type_id":"4","last_reported":1679180800,"current_range_meters":0,"station_id":"","pricing_plan_id":"free"},{"bike_id":"922c9d7f-132f-4c76-a454-01a53878338c","system_id":"levelo_inurba_marseille","lat":43.28458,"lon":5.358977,"is_reserved":false,"is_disabled":false,"rental_uris":{"android":"levelo://app?vid=922c9d7f-132f-4c76-a454-01a53878338c","ios":"levelo://app?vid=922c9d7f-132f-4c76-a454-01a53878338c"},"vehicle_type_id":"4","last_reported":1679180800,"current_range_meters":1200,"station_id":"","pricing_plan_id":"free"},{"bike_id":"d3f62af2-68d4-43ce-8d3d-c81ca0e865b0","system_id":"levelo_inurba_marseille","lat":43.284534,"lon":5.358662,"is_reserved":false,"is_disabled":false,"rental_uris":{"android":"levelo://app?vid=d3f62af2-68d4-43ce-8d3d-c81ca0e865b0","ios":"levelo://app?vid=d3f62af2-68d4-43ce-8d3d-c81ca0e865b0"},"vehicle_type_id":"4","last_reported":1679180800,"current_range_meters":15600,"station_id":"ce4bhah2rcd13ifvqei0","pricing_plan_id":"free"},{"bike_id":"4a33ba6f-5260-41cd-80ca-e6c65b6e0ffe","system_id":"levelo_inurba_marseille","lat":43.28454,"lon":5.35892,"is_reserved":false,"is_disabled":false,"rental_uris":{"android":"levelo://app?vid=4a33ba6f-5260-41cd-80ca-e6c65b6e0ffe","ios":"levelo://app?vid=4a33ba6f-5260-41cd-80ca-e6c65b6e0ffe"},"vehicle_type_id":"4","last_reported":1679180800,"current_range_meters":18000,"station_id":"ce4bhah2rcd13ifvqei0","pricing_plan_id":"free"},{"bike_id":"9a5b6c2b-edf4-4a86-9878-4f70f3050e75","system_id":"levelo_inurba_marseille","lat":43.33717,"lon":5.391857,"is_reserved":false,"is_disabled":false,"rental_uris":{"android":"levelo://app?vid=9a5b6c2b-edf4-4a86-9878-4f70f3050e75","ios":"levelo://app?vid=9a5b6c2b-edf4-4a86-9878-4f70f3050e75"},"vehicle_type_id":"4","last_reported":1679180800,"current_range_meters":17600,"station_id":"ce4bhr92rcd13ifvqhsg","pricing_plan_id":"free"},{"bike_id":"3aefbdbc-5f38-4591-979a-6173272a0a4f","system_id":"levelo_inurba_marseille","lat":43.32344,"lon":5.40619,"is_reserved":false,"is_disabled":false,"rental_uris":{"android":"levelo://app?vid=3aefbdbc-5f38-4591-979a-6173272a0a4f","ios":"levelo://app?vid=3aefbdbc-5f38-4591-979a-6173272a0a4f"},"vehicle_type_id":"4","last_reported":1679180800,"current_range_meters":6000,"station_id":"","pricing_plan_id":"free"},{"bike_id":"2256a0a0-f5f3-4f95-bc79-2ee019fd15f3","system_id":"levelo_inurba_marseille","lat":43.3234,"lon":5.40622,"is_reserved":false,"is_disabled":false,"rental_uris":{"android":"levelo://app?vid=2256a0a0-f5f3-4f95-bc79-2ee019fd15f3","ios":"levelo://app?vid=2256a0a0-f5f3-4f95-bc79-2ee019fd15f3"},"vehicle_type_id":"4","last_reported":1679180800,"current_range_meters":13600,"station_id":"","pricing_plan_id":"free"},{"bike_id":"be722fcf-2449-4356-8f7c-1919a63239e0","system_id":"levelo_inurba_marseille","lat":43.288501,"lon":5.393087,"is_reserved":false,"is_disabled":false,"rental_uris":{"android":"levelo://app?vid=be722fcf-2449-4356-8f7c-1919a63239e0","ios":"levelo://app?vid=be722fcf-2449-4356-8f7c-1919a63239e0"},"vehicle_type_id":"4","last_reported":1679180800,"current_range_meters":0,"station_id":"ce4bh2p2rcd13ifvqdi0","pricing_plan_id":"free"},{"bike_id":"2b7f9522-4bf9-4e94-8492-f906abcb885a","system_id":"levelo_inurba_marseille","lat":43.283497,"lon":5.381067,"is_reserved":false,"is_disabled":false,"rental_uris":{"android":"levelo://app?vid=2b7f9522-4bf9-4e94-8492-f906abcb885a","ios":"levelo://app?vid=2b7f9522-4bf9-4e94-8492-f906abcb885a"},"vehicle_type_id":"4","last_reported":1679180800,"current_range_meters":22800,"station_id":"","pricing_plan_id":"free"},{"bike_id":"9655a4b2-e20e-4c90-83b7-0fd76d2fb0a3","system_id":"levelo_inurba_marseille","lat":43.284138,"lon":5.34985,"is_reserved":false,"is_disabled":false,"rental_uris":{"android":"levelo://app?vid=9655a4b2-e20e-4c90-83b7-0fd76d2fb0a3","ios":"levelo://app?vid=9655a4b2-e20e-4c90-83b7-0fd76d2fb0a3"},"vehicle_type_id":"4","last_reported":1679180800,"current_range_meters":4400,"station_id":"ce4bhbh2rcd13ifvqepg","pricing_plan_id":"free"},{"bike_id":"dec8f7d2-8578-492e-973f-290f248f25b0","system_id":"levelo_inurba_marseille","lat":43.282689,"lon":5.350666,"is_reserved":false,"is_disabled":false,"rental_uris":{"android":"levelo://app?vid=dec8f7d2-8578-492e-973f-290f248f25b0","ios":"levelo://app?vid=dec8f7d2-8578-492e-973f-290f248f25b0"},"vehicle_type_id":"4","last_reported":1679180800,"current_range_meters":31600,"station_id":"","pricing_plan_id":"free"},{"bike_id":"877646dc-d667-4ba5-a4c6-bae813d7ac51","system_id":"levelo_inurba_marseille","lat":43.28264,"lon":5.35061,"is_reserved":false,"is_disabled":false,"rental_uris":{"android":"levelo://app?vid=877646dc-d667-4ba5-a4c6-bae813d7ac51","ios":"levelo://app?vid=877646dc-d667-4ba5-a4c6-bae813d7ac51"},"vehicle_type_id":"4","last_reported":1679180800,"current_range_meters":2400,"station_id":"ce4bhbp2rcd13ifvqerg","pricing_plan_id":"free"},{"bike_id":"b10b60a5-7b72-41ed-bd83-b94fda7dda6b","system_id":"levelo_inurba_marseille","lat":43.280382,"lon":5.369291,"is_reserved":false,"is_disabled":false,"rental_uris":{"android":"levelo://app?vid=b10b60a5-7b72-41ed-bd83-b94fda7dda6b","ios":"levelo://app?vid=b10b60a5-7b72-41ed-bd83-b94fda7dda6b"},"vehicle_type_id":"4","last_reported":1679180800,"current_range_meters":19200,"station_id":"ce4bha12rcd13ifvqef0","pricing_plan_id":"free"},{"bike_id":"cd6074c3-d4f8-424c-9fa4-a7dc241d6e28","system_id":"levelo_inurba_marseille","lat":43.29041,"lon":5.399634,"is_reserved":false,"is_disabled":false,"rental_uris":{"android":"levelo://app?vid=cd6074c3-d4f8-424c-9fa4-a7dc241d6e28","ios":"levelo://app?vid=cd6074c3-d4f8-424c-9fa4-a7dc241d6e28"},"vehicle_type_id":"4","last_reported":1679180800,"current_range_meters":5600,"station_id":"ce4bh392rcd13ifvqdm0","pricing_plan_id":"free"},{"bike_id":"0e2ae0ef-792d-4d3a-85f6-4ac15ff7bb66","system_id":"levelo_inurba_marseille","lat":43.290412,"lon":5.399633,"is_reserved":false,"is_disabled":false,"rental_uris":{"android":"levelo://app?vid=0e2ae0ef-792d-4d3a-85f6-4ac15ff7bb66","ios":"levelo://app?vid=0e2ae0ef-792d-4d3a-85f6-4ac15ff7bb66"},"vehicle_type_id":"4","last_reported":1679180800,"current_range_meters":6000,"station_id":"ce4bh392rcd13ifvqdm0","pricing_plan_id":"free"},{"bike_id":"85b07207-0aa6-429b-bf2f-2ee59c65bd73","system_id":"levelo_inurba_marseille","lat":43.296263,"lon":5.40601,"is_reserved":false,"is_disabled":false,"rental_uris":{"android":"levelo://app?vid=85b07207-0aa6-429b-bf2f-2ee59c65bd73","ios":"levelo://app?vid=85b07207-0aa6-429b-bf2f-2ee59c65bd73"},"vehicle_type_id":"4","last_reported":1679180800,"current_range_meters":1600,"station_id":"ce4bh0h2rcd13ifvqd60","pricing_plan_id":"free"},{"bike_id":"c455f864-b8aa-48bf-bc57-0056007c1e20","system_id":"levelo_inurba_marseille","lat":43.296263,"lon":5.40601,"is_reserved":false,"is_disabled":false,"rental_uris":{"android":"levelo://app?vid=c455f864-b8aa-48bf-bc57-0056007c1e20","ios":"levelo://app?vid=c455f864-b8aa-48bf-bc57-0056007c1e20"},"vehicle_type_id":"4","last_reported":1679180800,"current_range_meters":6000,"station_id":"ce4bh0h2rcd13ifvqd60","pricing_plan_id":"free"},{"bike_id":"ec1c4208-8525-4a00-b6ba-025f55caaf1f","system_id":"levelo_inurba_marseille","lat":43.280968,"lon":5.378416,"is_reserved":false,"is_disabled":false,"rental_uris":{"android":"levelo://app?vid=ec1c4208-8525-4a00-b6ba-025f55caaf1f","ios":"levelo://app?vid=ec1c4208-8525-4a00-b6ba-025f55caaf1f"},"vehicle_type_id":"4","last_reported":1679180800,"current_range_meters":25200,"station_id":"ce4bha12rcd13ifvqee0","pricing_plan_id":"free"},{"bike_id":"f276a7a1-ac2a-4567-b8cf-9d38f3495f64","system_id":"levelo_inurba_marseille","lat":43.320603,"lon":5.415497,"is_reserved":false,"is_disabled":false,"rental_uris":{"android":"levelo://app?vid=f276a7a1-ac2a-4567-b8cf-9d38f3495f64","ios":"levelo://app?vid=f276a7a1-ac2a-4567-b8cf-9d38f3495f64"},"vehicle_type_id":"4","last_reported":1679180800,"current_range_meters":0,"station_id":"","pricing_plan_id":"free"},{"bike_id":"bd78b7c8-b968-4194-9214-a48bbf5de69b","system_id":"levelo_inurba_marseille","lat":43.320045,"lon":5.415048,"is_reserved":false,"is_disabled":false,"rental_uris":{"android":"levelo://app?vid=bd78b7c8-b968-4194-9214-a48bbf5de69b","ios":"levelo://app?vid=bd78b7c8-b968-4194-9214-a48bbf5de69b"},"vehicle_type_id":"4","last_reported":1679180800,"current_range_meters":15200,"station_id":"ce4bhq92rcd13ifvqhkg","pricing_plan_id":"free"},{"bike_id":"2f454740-0b4f-4abc-9d61-60c7eebac267","system_id":"levelo_inurba_marseille","lat":43.324803,"lon":5.414295,"is_reserved":false,"is_disabled":false,"rental_uris":{"android":"levelo://app?vid=2f454740-0b4f-4abc-9d61-60c7eebac267","ios":"levelo://app?vid=2f454740-0b4f-4abc-9d61-60c7eebac267"},"vehicle_type_id":"4","last_reported":1679180800,"current_range_meters":8400,"station_id":"","pricing_plan_id":"free"},{"bike_id":"ed38afd4-d724-4e08-ba37-6f0d0c8cafa0","system_id":"levelo_inurba_marseille","lat":43.325233,"lon":5.414318,"is_reserved":false,"is_disabled":false,"rental_uris":{"android":"levelo://app?vid=ed38afd4-d724-4e08-ba37-6f0d0c8cafa0","ios":"levelo://app?vid=ed38afd4-d724-4e08-ba37-6f0d0c8cafa0"},"vehicle_type_id":"4","last_reported":1679180800,"current_range_meters":29200,"station_id":"ce4bhq12rcd13ifvqhhg","pricing_plan_id":"free"},{"bike_id":"97b94eb1-6a49-448f-b909-f7cae9b8b27b","system_id":"levelo_inurba_marseille","lat":43.292555,"lon":5.40911,"is_reserved":false,"is_disabled":false,"rental_uris":{"android":"levelo://app?vid=97b94eb1-6a49-448f-b909-f7cae9b8b27b","ios":"levelo://app?vid=97b94eb1-6a49-448f-b909-f7cae9b8b27b"},"vehicle_type_id":"4","last_reported":1679180800,"current_range_meters":11200,"station_id":"ce4bh192rcd13ifvqdc0","pricing_plan_id":"free"},{"bike_id":"82c0197b-5828-4710-a88c-34b63d75cfda","system_id":"levelo_inurba_marseille","lat":43.325233,"lon":5.414318,"is_reserved":false,"is_disabled":false,"rental_uris":{"android":"levelo://app?vid=82c0197b-5828-4710-a88c-34b63d75cfda","ios":"levelo://app?vid=82c0197b-5828-4710-a88c-34b63d75cfda"},"vehicle_type_id":"4","last_reported":1679180800,"current_range_meters":25600,"station_id":"ce4bhq12rcd13ifvqhhg","pricing_plan_id":"free"},{"bike_id":"d5b853cc-8bf0-4a1e-a013-652267b292ea","system_id":"levelo_inurba_marseille","lat":43.325243,"lon":5.414326,"is_reserved":false,"is_disabled":false,"rental_uris":{"android":"levelo://app?vid=d5b853cc-8bf0-4a1e-a013-652267b292ea","ios":"levelo://app?vid=d5b853cc-8bf0-4a1e-a013-652267b292ea"},"vehicle_type_id":"4","last_reported":1679180800,"current_range_meters":24400,"station_id":"ce4bhq12rcd13ifvqhhg","pricing_plan_id":"free"},{"bike_id":"5f11de16-2911-4b4f-b726-c59123cc1e79","system_id":"levelo_inurba_marseille","lat":43.325233,"lon":5.414318,"is_reserved":false,"is_disabled":false,"rental_uris":{"android":"levelo://app?vid=5f11de16-2911-4b4f-b726-c59123cc1e79","ios":"levelo://app?vid=5f11de16-2911-4b4f-b726-c59123cc1e79"},"vehicle_type_id":"4","last_reported":1679180800,"current_range_meters":18800,"station_id":"ce4bhq12rcd13ifvqhhg","pricing_plan_id":"free"},{"bike_id":"723827fb-8bd7-429f-8250-b44b4c84fe20","system_id":"levelo_inurba_marseille","lat":43.276173,"lon":5.361123,"is_reserved":false,"is_disabled":false,"rental_uris":{"android":"levelo://app?vid=723827fb-8bd7-429f-8250-b44b4c84fe20","ios":"levelo://app?vid=723827fb-8bd7-429f-8250-b44b4c84fe20"},"vehicle_type_id":"4","last_reported":1679180800,"current_range_meters":0,"station_id":"","pricing_plan_id":"free"},{"bike_id":"4e924825-18da-48fb-b5bc-28bbbc060640","system_id":"levelo_inurba_marseille","lat":43.325243,"lon":5.414326,"is_reserved":false,"is_disabled":false,"rental_uris":{"android":"levelo://app?vid=4e924825-18da-48fb-b5bc-28bbbc060640","ios":"levelo://app?vid=4e924825-18da-48fb-b5bc-28bbbc060640"},"vehicle_type_id":"4","last_reported":1679180800,"current_range_meters":26000,"station_id":"ce4bhq12rcd13ifvqhhg","pricing_plan_id":"free"},{"bike_id":"51d76d32-5703-4de6-9544-9d06ddb31cbf","system_id":"levelo_inurba_marseille","lat":43.325243,"lon":5.414326,"is_reserved":false,"is_disabled":false,"rental_uris":{"android":"levelo://app?vid=51d76d32-5703-4de6-9544-9d06ddb31cbf","ios":"levelo://app?vid=51d76d32-5703-4de6-9544-9d06ddb31cbf"},"vehicle_type_id":"4","last_reported":1679180800,"current_range_meters":9600,"station_id":"ce4bhq12rcd13ifvqhhg","pricing_plan_id":"free"},{"bike_id":"69d4dd91-dfcd-4995-966b-ec2f27d43f39","system_id":"levelo_inurba_marseille","lat":43.280784,"lon":5.396622,"is_reserved":false,"is_disabled":false,"rental_uris":{"android":"levelo://app?vid=69d4dd91-dfcd-4995-966b-ec2f27d43f39","ios":"levelo://app?vid=69d4dd91-dfcd-4995-966b-ec2f27d43f39"},"vehicle_type_id":"4","last_reported":1679180800,"current_range_meters":0,"station_id":"ce4bho12rcd13ifvqh2g","pricing_plan_id":"free"},{"bike_id":"eb462c0b-2666-46c8-b365-bcbf64fc0073","system_id":"levelo_inurba_marseille","lat":43.2738,"lon":5.36251,"is_reserved":false,"is_disabled":false,"rental_uris":{"android":"levelo://app?vid=eb462c0b-2666-46c8-b365-bcbf64fc0073","ios":"levelo://app?vid=eb462c0b-2666-46c8-b365-bcbf64fc0073"},"vehicle_type_id":"4","last_reported":1679180800,"current_range_meters":6800,"station_id":"ce4bhbh2rcd13ifvqeo0","pricing_plan_id":"free"},{"bike_id":"5a5465a4-49c5-41e2-9d12-da9c3759cf26","system_id":"levelo_inurba_marseille","lat":43.273613,"lon":5.362705,"is_reserved":false,"is_disabled":false,"rental_uris":{"android":"levelo://app?vid=5a5465a4-49c5-41e2-9d12-da9c3759cf26","ios":"levelo://app?vid=5a5465a4-49c5-41e2-9d12-da9c3759cf26"},"vehicle_type_id":"4","last_reported":1679180800,"current_range_meters":0,"station_id":"ce4bhbh2rcd13ifvqeo0","pricing_plan_id":"free"},{"bike_id":"06be7252-62d7-4ce0-bdcd-7f73e341c640","system_id":"levelo_inurba_marseille","lat":43.336134,"lon":5.410341,"is_reserved":false,"is_disabled":false,"rental_uris":{"android":"levelo://app?vid=06be7252-62d7-4ce0-bdcd-7f73e341c640","ios":"levelo://app?vid=06be7252-62d7-4ce0-bdcd-7f73e341c640"},"vehicle_type_id":"4","last_reported":1679180800,"current_range_meters":2800,"station_id":"ce4bhqh2rcd13ifvqhmg","pricing_plan_id":"free"},{"bike_id":"3ff80340-d069-452f-a905-f5619d140102","system_id":"levelo_inurba_marseille","lat":43.33612,"lon":5.410321,"is_reserved":false,"is_disabled":false,"rental_uris":{"android":"levelo://app?vid=3ff80340-d069-452f-a905-f5619d140102","ios":"levelo://app?vid=3ff80340-d069-452f-a905-f5619d140102"},"vehicle_type_id":"4","last_reported":1679180800,"current_range_meters":3200,"station_id":"ce4bhqh2rcd13ifvqhmg","pricing_plan_id":"free"},{"bike_id":"2abcf298-3819-478b-95ea-54cc72544c00","system_id":"levelo_inurba_marseille","lat":43.336148,"lon":5.410349,"is_reserved":false,"is_disabled":false,"rental_uris":{"android":"levelo://app?vid=2abcf298-3819-478b-95ea-54cc72544c00","ios":"levelo://app?vid=2abcf298-3819-478b-95ea-54cc72544c00"},"vehicle_type_id":"4","last_reported":1679180800,"current_range_meters":9600,"station_id":"ce4bhqh2rcd13ifvqhmg","pricing_plan_id":"free"},{"bike_id":"350d6b89-8c6e-4cbd-a303-a381f1965236","system_id":"levelo_inurba_marseille","lat":43.336134,"lon":5.410341,"is_reserved":false,"is_disabled":false,"rental_uris":{"android":"levelo://app?vid=350d6b89-8c6e-4cbd-a303-a381f1965236","ios":"levelo://app?vid=350d6b89-8c6e-4cbd-a303-a381f1965236"},"vehicle_type_id":"4","last_reported":1679180800,"current_range_meters":19600,"station_id":"ce4bhqh2rcd13ifvqhmg","pricing_plan_id":"free"},{"bike_id":"40ccecf9-2a41-4805-8794-5f0451158b43","system_id":"levelo_inurba_marseille","lat":43.276769,"lon":5.388787,"is_reserved":false,"is_disabled":false,"rental_uris":{"android":"levelo://app?vid=40ccecf9-2a41-4805-8794-5f0451158b43","ios":"levelo://app?vid=40ccecf9-2a41-4805-8794-5f0451158b43"},"vehicle_type_id":"4","last_reported":1679180800,"current_range_meters":0,"station_id":"ce4bhi12rcd13ifvqfo0","pricing_plan_id":"free"},{"bike_id":"27a138ec-ac35-43df-9be7-1ff43296cc01","system_id":"levelo_inurba_marseille","lat":43.317319,"lon":5.424032,"is_reserved":false,"is_disabled":false,"rental_uris":{"android":"levelo://app?vid=27a138ec-ac35-43df-9be7-1ff43296cc01","ios":"levelo://app?vid=27a138ec-ac35-43df-9be7-1ff43296cc01"},"vehicle_type_id":"4","last_reported":1679180800,"current_range_meters":14400,"station_id":"ce4bhp92rcd13ifvqhbg","pricing_plan_id":"free"},{"bike_id":"a8843578-c01d-4af1-8848-3e7987c51a6a","system_id":"levelo_inurba_marseille","lat":43.295523,"lon":5.422926,"is_reserved":false,"is_disabled":false,"rental_uris":{"android":"levelo://app?vid=a8843578-c01d-4af1-8848-3e7987c51a6a","ios":"levelo://app?vid=a8843578-c01d-4af1-8848-3e7987c51a6a"},"vehicle_type_id":"4","last_reported":1679180800,"current_range_meters":0,"station_id":"ce4bhph2rcd13ifvqhdg","pricing_plan_id":"free"},{"bike_id":"7fdcc3f8-7dc4-4f87-854d-ae11d4a14639","system_id":"levelo_inurba_marseille","lat":43.295511,"lon":5.422926,"is_reserved":false,"is_disabled":false,"rental_uris":{"android":"levelo://app?vid=7fdcc3f8-7dc4-4f87-854d-ae11d4a14639","ios":"levelo://app?vid=7fdcc3f8-7dc4-4f87-854d-ae11d4a14639"},"vehicle_type_id":"4","last_reported":1679180800,"current_range_meters":4800,"station_id":"ce4bhph2rcd13ifvqhdg","pricing_plan_id":"free"},{"bike_id":"b170044d-c7bc-4687-8c61-d20e1d905ffc","system_id":"levelo_inurba_marseille","lat":43.295511,"lon":5.422926,"is_reserved":false,"is_disabled":false,"rental_uris":{"android":"levelo://app?vid=b170044d-c7bc-4687-8c61-d20e1d905ffc","ios":"levelo://app?vid=b170044d-c7bc-4687-8c61-d20e1d905ffc"},"vehicle_type_id":"4","last_reported":1679180800,"current_range_meters":8000,"station_id":"ce4bhph2rcd13ifvqhdg","pricing_plan_id":"free"},{"bike_id":"500ba279-d765-4469-a69f-fc786362a5b0","system_id":"levelo_inurba_marseille","lat":43.29551,"lon":5.42285,"is_reserved":false,"is_disabled":false,"rental_uris":{"android":"levelo://app?vid=500ba279-d765-4469-a69f-fc786362a5b0","ios":"levelo://app?vid=500ba279-d765-4469-a69f-fc786362a5b0"},"vehicle_type_id":"4","last_reported":1679180800,"current_range_meters":17200,"station_id":"ce4bhph2rcd13ifvqhdg","pricing_plan_id":"free"},{"bike_id":"f9f8ef73-9cb4-4a4f-bc57-9f13bfc750bc","system_id":"levelo_inurba_marseille","lat":43.295511,"lon":5.422926,"is_reserved":false,"is_disabled":false,"rental_uris":{"android":"levelo://app?vid=f9f8ef73-9cb4-4a4f-bc57-9f13bfc750bc","ios":"levelo://app?vid=f9f8ef73-9cb4-4a4f-bc57-9f13bfc750bc"},"vehicle_type_id":"4","last_reported":1679180800,"current_range_meters":16000,"station_id":"ce4bhph2rcd13ifvqhdg","pricing_plan_id":"free"},{"bike_id":"9af2e8d5-dc01-40cf-80dd-c962bc5ccd43","system_id":"levelo_inurba_marseille","lat":43.295511,"lon":5.422926,"is_reserved":false,"is_disabled":false,"rental_uris":{"android":"levelo://app?vid=9af2e8d5-dc01-40cf-80dd-c962bc5ccd43","ios":"levelo://app?vid=9af2e8d5-dc01-40cf-80dd-c962bc5ccd43"},"vehicle_type_id":"4","last_reported":1679180800,"current_range_meters":800,"station_id":"ce4bhph2rcd13ifvqhdg","pricing_plan_id":"free"},{"bike_id":"f3e4fce1-d685-4331-8d0a-b43da31718f1","system_id":"levelo_inurba_marseille","lat":43.272116,"lon":5.391763,"is_reserved":false,"is_disabled":false,"rental_uris":{"android":"levelo://app?vid=f3e4fce1-d685-4331-8d0a-b43da31718f1","ios":"levelo://app?vid=f3e4fce1-d685-4331-8d0a-b43da31718f1"},"vehicle_type_id":"4","last_reported":1679180800,"current_range_meters":0,"station_id":"ce4bhhp2rcd13ifvqfm0","pricing_plan_id":"free"},{"bike_id":"8f5a7768-9024-4612-a3e2-3ff0f002da31","system_id":"levelo_inurba_marseille","lat":43.272118,"lon":5.391758,"is_reserved":false,"is_disabled":false,"rental_uris":{"android":"levelo://app?vid=8f5a7768-9024-4612-a3e2-3ff0f002da31","ios":"levelo://app?vid=8f5a7768-9024-4612-a3e2-3ff0f002da31"},"vehicle_type_id":"4","last_reported":1679180800,"current_range_meters":11600,"station_id":"ce4bhhp2rcd13ifvqfm0","pricing_plan_id":"free"},{"bike_id":"118d6d4a-269c-4671-b309-a6b4286555e0","system_id":"levelo_inurba_marseille","lat":43.26517,"lon":5.3734,"is_reserved":false,"is_disabled":false,"rental_uris":{"android":"levelo://app?vid=118d6d4a-269c-4671-b309-a6b4286555e0","ios":"levelo://app?vid=118d6d4a-269c-4671-b309-a6b4286555e0"},"vehicle_type_id":"4","last_reported":1679180800,"current_range_meters":0,"station_id":"","pricing_plan_id":"free"},{"bike_id":"13b6f600-6bf7-44e2-9643-255e5169245c","system_id":"levelo_inurba_marseille","lat":43.26504,"lon":5.373423,"is_reserved":false,"is_disabled":false,"rental_uris":{"android":"levelo://app?vid=13b6f600-6bf7-44e2-9643-255e5169245c","ios":"levelo://app?vid=13b6f600-6bf7-44e2-9643-255e5169245c"},"vehicle_type_id":"4","last_reported":1679180800,"current_range_meters":20800,"station_id":"","pricing_plan_id":"free"},{"bike_id":"a8b9c6ee-276f-422b-8adf-8cf6eba64eda","system_id":"levelo_inurba_marseille","lat":43.26504,"lon":5.37346,"is_reserved":false,"is_disabled":false,"rental_uris":{"android":"levelo://app?vid=a8b9c6ee-276f-422b-8adf-8cf6eba64eda","ios":"levelo://app?vid=a8b9c6ee-276f-422b-8adf-8cf6eba64eda"},"vehicle_type_id":"4","last_reported":1679180800,"current_range_meters":31600,"station_id":"","pricing_plan_id":"free"},{"bike_id":"e64489c4-592d-410b-ab06-d7f4db460c24","system_id":"levelo_inurba_marseille","lat":43.308051,"lon":5.43527,"is_reserved":false,"is_disabled":false,"rental_uris":{"android":"levelo://app?vid=e64489c4-592d-410b-ab06-d7f4db460c24","ios":"levelo://app?vid=e64489c4-592d-410b-ab06-d7f4db460c24"},"vehicle_type_id":"4","last_reported":1679180800,"current_range_meters":5200,"station_id":"ce4bhph2rcd13ifvqheg","pricing_plan_id":"free"},{"bike_id":"7c3e4dc0-a7e8-4178-b3c7-70ceb02652cc","system_id":"levelo_inurba_marseille","lat":43.308051,"lon":5.43527,"is_reserved":false,"is_disabled":false,"rental_uris":{"android":"levelo://app?vid=7c3e4dc0-a7e8-4178-b3c7-70ceb02652cc","ios":"levelo://app?vid=7c3e4dc0-a7e8-4178-b3c7-70ceb02652cc"},"vehicle_type_id":"4","last_reported":1679180800,"current_range_meters":9200,"station_id":"ce4bhph2rcd13ifvqheg","pricing_plan_id":"free"},{"bike_id":"14293337-5ea7-40c8-a934-95d76a38fbb4","system_id":"levelo_inurba_marseille","lat":43.30797,"lon":5.43526,"is_reserved":false,"is_disabled":false,"rental_uris":{"android":"levelo://app?vid=14293337-5ea7-40c8-a934-95d76a38fbb4","ios":"levelo://app?vid=14293337-5ea7-40c8-a934-95d76a38fbb4"},"vehicle_type_id":"4","last_reported":1679180800,"current_range_meters":0,"station_id":"ce4bhph2rcd13ifvqheg","pricing_plan_id":"free"},{"bike_id":"8bbbcc37-39f2-481d-9c0f-90371390543a","system_id":"levelo_inurba_marseille","lat":43.308051,"lon":5.43527,"is_reserved":false,"is_disabled":false,"rental_uris":{"android":"levelo://app?vid=8bbbcc37-39f2-481d-9c0f-90371390543a","ios":"levelo://app?vid=8bbbcc37-39f2-481d-9c0f-90371390543a"},"vehicle_type_id":"4","last_reported":1679180800,"current_range_meters":5200,"station_id":"ce4bhph2rcd13ifvqheg","pricing_plan_id":"free"},{"bike_id":"5f1ed12c-98a6-44da-878c-9efd2642ac8e","system_id":"levelo_inurba_marseille","lat":43.255756,"lon":5.382303,"is_reserved":false,"is_disabled":false,"rental_uris":{"android":"levelo://app?vid=5f1ed12c-98a6-44da-878c-9efd2642ac8e","ios":"levelo://app?vid=5f1ed12c-98a6-44da-878c-9efd2642ac8e"},"vehicle_type_id":"4","last_reported":1679180800,"current_range_meters":8800,"station_id":"ce4bhih2rcd13ifvqfs0","pricing_plan_id":"free"},{"bike_id":"79f99775-dde6-45a5-ac8e-6759fdd0e4eb","system_id":"levelo_inurba_marseille","lat":43.254947,"lon":5.376454,"is_reserved":false,"is_disabled":false,"rental_uris":{"android":"levelo://app?vid=79f99775-dde6-45a5-ac8e-6759fdd0e4eb","ios":"levelo://app?vid=79f99775-dde6-45a5-ac8e-6759fdd0e4eb"},"vehicle_type_id":"4","last_reported":1679180800,"current_range_meters":18400,"station_id":"ce4bhh12rcd13ifvqff0","pricing_plan_id":"free"},{"bike_id":"d7e54303-e9ce-423c-b4a0-19bb0f39cc62","system_id":"levelo_inurba_marseille","lat":43.254947,"lon":5.376454,"is_reserved":false,"is_disabled":false,"rental_uris":{"android":"levelo://app?vid=d7e54303-e9ce-423c-b4a0-19bb0f39cc62","ios":"levelo://app?vid=d7e54303-e9ce-423c-b4a0-19bb0f39cc62"},"vehicle_type_id":"4","last_reported":1679180800,"current_range_meters":11600,"station_id":"ce4bhh12rcd13ifvqff0","pricing_plan_id":"free"},{"bike_id":"6f0614e8-a7ca-40b7-a0cf-f5e3029b8583","system_id":"levelo_inurba_marseille","lat":43.2707,"lon":5.42283,"is_reserved":false,"is_disabled":false,"rental_uris":{"android":"levelo://app?vid=6f0614e8-a7ca-40b7-a0cf-f5e3029b8583","ios":"levelo://app?vid=6f0614e8-a7ca-40b7-a0cf-f5e3029b8583"},"vehicle_type_id":"4","last_reported":1679180800,"current_range_meters":13600,"station_id":"ce4bhk92rcd13ifvqgb0","pricing_plan_id":"free"},{"bike_id":"b86de4bb-82b3-4051-a9c4-e40f11314f3c","system_id":"levelo_inurba_marseille","lat":43.25006,"lon":5.3891,"is_reserved":false,"is_disabled":false,"rental_uris":{"android":"levelo://app?vid=b86de4bb-82b3-4051-a9c4-e40f11314f3c","ios":"levelo://app?vid=b86de4bb-82b3-4051-a9c4-e40f11314f3c"},"vehicle_type_id":"4","last_reported":1679180800,"current_range_meters":27600,"station_id":"ce4bhgp2rcd13ifvqfd0","pricing_plan_id":"free"},{"bike_id":"96186fc4-e261-4c9c-b25c-ccd926aa07dd","system_id":"levelo_inurba_marseille","lat":43.24815,"lon":5.37462,"is_reserved":false,"is_disabled":false,"rental_uris":{"android":"levelo://app?vid=96186fc4-e261-4c9c-b25c-ccd926aa07dd","ios":"levelo://app?vid=96186fc4-e261-4c9c-b25c-ccd926aa07dd"},"vehicle_type_id":"4","last_reported":1679180800,"current_range_meters":14400,"station_id":"","pricing_plan_id":"free"},{"bike_id":"22af5f68-1fad-4b6c-a857-f8f55f963a3b","system_id":"levelo_inurba_marseille","lat":43.24815,"lon":5.37463,"is_reserved":false,"is_disabled":false,"rental_uris":{"android":"levelo://app?vid=22af5f68-1fad-4b6c-a857-f8f55f963a3b","ios":"levelo://app?vid=22af5f68-1fad-4b6c-a857-f8f55f963a3b"},"vehicle_type_id":"4","last_reported":1679180800,"current_range_meters":9600,"station_id":"","pricing_plan_id":"free"},{"bike_id":"4198d439-6bcd-4695-a8dc-ae254dd71863","system_id":"levelo_inurba_marseille","lat":43.24809,"lon":5.37456,"is_reserved":false,"is_disabled":false,"rental_uris":{"android":"levelo://app?vid=4198d439-6bcd-4695-a8dc-ae254dd71863","ios":"levelo://app?vid=4198d439-6bcd-4695-a8dc-ae254dd71863"},"vehicle_type_id":"4","last_reported":1679180800,"current_range_meters":30400,"station_id":"","pricing_plan_id":"free"},{"bike_id":"32d47f2d-0bbe-4cc0-a374-e84fb1c4a813","system_id":"levelo_inurba_marseille","lat":43.2479,"lon":5.374457,"is_reserved":false,"is_disabled":false,"rental_uris":{"android":"levelo://app?vid=32d47f2d-0bbe-4cc0-a374-e84fb1c4a813","ios":"levelo://app?vid=32d47f2d-0bbe-4cc0-a374-e84fb1c4a813"},"vehicle_type_id":"4","last_reported":1679180800,"current_range_meters":20000,"station_id":"ce4bhgh2rcd13ifvqfb0","pricing_plan_id":"free"},{"bike_id":"87b02d55-bd4c-47e7-b4a2-8e6a3fd9412c","system_id":"levelo_inurba_marseille","lat":43.250966,"lon":5.395186,"is_reserved":false,"is_disabled":false,"rental_uris":{"android":"levelo://app?vid=87b02d55-bd4c-47e7-b4a2-8e6a3fd9412c","ios":"levelo://app?vid=87b02d55-bd4c-47e7-b4a2-8e6a3fd9412c"},"vehicle_type_id":"4","last_reported":1679180800,"current_range_meters":7200,"station_id":"ce4bhm12rcd13ifvqgkg","pricing_plan_id":"free"},{"bike_id":"875d5d08-cfe6-456e-884a-2e9b70ba5783","system_id":"levelo_inurba_marseille","lat":43.25102,"lon":5.403214,"is_reserved":false,"is_disabled":false,"rental_uris":{"android":"levelo://app?vid=875d5d08-cfe6-456e-884a-2e9b70ba5783","ios":"levelo://app?vid=875d5d08-cfe6-456e-884a-2e9b70ba5783"},"vehicle_type_id":"4","last_reported":1679180800,"current_range_meters":6400,"station_id":"ce4bhlh2rcd13ifvqgig","pricing_plan_id":"free"},{"bike_id":"33602cf2-083d-408f-8ce8-6fb7516f2926","system_id":"levelo_inurba_marseille","lat":43.24693,"lon":5.382096,"is_reserved":false,"is_disabled":false,"rental_uris":{"android":"levelo://app?vid=33602cf2-083d-408f-8ce8-6fb7516f2926","ios":"levelo://app?vid=33602cf2-083d-408f-8ce8-6fb7516f2926"},"vehicle_type_id":"4","last_reported":1679180800,"current_range_meters":24000,"station_id":"ce4bhih2rcd13ifvqfr0","pricing_plan_id":"free"},{"bike_id":"cb880012-c3cb-4c51-a580-f7c1d13a54ff","system_id":"levelo_inurba_marseille","lat":43.24659,"lon":5.38159,"is_reserved":false,"is_disabled":false,"rental_uris":{"android":"levelo://app?vid=cb880012-c3cb-4c51-a580-f7c1d13a54ff","ios":"levelo://app?vid=cb880012-c3cb-4c51-a580-f7c1d13a54ff"},"vehicle_type_id":"4","last_reported":1679180800,"current_range_meters":0,"station_id":"","pricing_plan_id":"free"},{"bike_id":"26545bc5-7353-408d-9699-715d1aece88c","system_id":"levelo_inurba_marseille","lat":43.25102,"lon":5.403214,"is_reserved":false,"is_disabled":false,"rental_uris":{"android":"levelo://app?vid=26545bc5-7353-408d-9699-715d1aece88c","ios":"levelo://app?vid=26545bc5-7353-408d-9699-715d1aece88c"},"vehicle_type_id":"4","last_reported":1679180800,"current_range_meters":27600,"station_id":"ce4bhlh2rcd13ifvqgig","pricing_plan_id":"free"},{"bike_id":"94d5747e-02e7-430e-8bf5-a05fc5f68cdd","system_id":"levelo_inurba_marseille","lat":43.25102,"lon":5.403214,"is_reserved":false,"is_disabled":false,"rental_uris":{"android":"levelo://app?vid=94d5747e-02e7-430e-8bf5-a05fc5f68cdd","ios":"levelo://app?vid=94d5747e-02e7-430e-8bf5-a05fc5f68cdd"},"vehicle_type_id":"4","last_reported":1679180800,"current_range_meters":10000,"station_id":"ce4bhlh2rcd13ifvqgig","pricing_plan_id":"free"},{"bike_id":"a7aa3cfd-0818-478f-aaac-3109f9877811","system_id":"levelo_inurba_marseille","lat":43.243884,"lon":5.370736,"is_reserved":false,"is_disabled":false,"rental_uris":{"android":"levelo://app?vid=a7aa3cfd-0818-478f-aaac-3109f9877811","ios":"levelo://app?vid=a7aa3cfd-0818-478f-aaac-3109f9877811"},"vehicle_type_id":"4","last_reported":1679180800,"current_range_meters":10000,"station_id":"ce4bhhh2rcd13ifvqfk0","pricing_plan_id":"free"},{"bike_id":"088a25f1-4e71-4e12-b29e-c5b32ef46c65","system_id":"levelo_inurba_marseille","lat":43.245581,"lon":5.395069,"is_reserved":false,"is_disabled":false,"rental_uris":{"android":"levelo://app?vid=088a25f1-4e71-4e12-b29e-c5b32ef46c65","ios":"levelo://app?vid=088a25f1-4e71-4e12-b29e-c5b32ef46c65"},"vehicle_type_id":"4","last_reported":1679180800,"current_range_meters":2800,"station_id":"ce4bhlp2rcd13ifvqgjg","pricing_plan_id":"free"},{"bike_id":"9437728d-e8f9-48f2-a4e5-0d48b81636a3","system_id":"levelo_inurba_marseille","lat":43.240623,"lon":5.377642,"is_reserved":false,"is_disabled":false,"rental_uris":{"android":"levelo://app?vid=9437728d-e8f9-48f2-a4e5-0d48b81636a3","ios":"levelo://app?vid=9437728d-e8f9-48f2-a4e5-0d48b81636a3"},"vehicle_type_id":"4","last_reported":1679180800,"current_range_meters":18800,"station_id":"ce4bhnp2rcd13ifvqgvg","pricing_plan_id":"free"},{"bike_id":"96addcf5-71c3-4884-9d98-5c9c93876129","system_id":"levelo_inurba_marseille","lat":43.240623,"lon":5.377642,"is_reserved":false,"is_disabled":false,"rental_uris":{"android":"levelo://app?vid=96addcf5-71c3-4884-9d98-5c9c93876129","ios":"levelo://app?vid=96addcf5-71c3-4884-9d98-5c9c93876129"},"vehicle_type_id":"4","last_reported":1679180800,"current_range_meters":13200,"station_id":"ce4bhnp2rcd13ifvqgvg","pricing_plan_id":"free"},{"bike_id":"4f98cc0f-5688-4d40-91c4-e1bbe0362004","system_id":"levelo_inurba_marseille","lat":43.240623,"lon":5.377642,"is_reserved":false,"is_disabled":false,"rental_uris":{"android":"levelo://app?vid=4f98cc0f-5688-4d40-91c4-e1bbe0362004","ios":"levelo://app?vid=4f98cc0f-5688-4d40-91c4-e1bbe0362004"},"vehicle_type_id":"4","last_reported":1679180800,"current_range_meters":16800,"station_id":"ce4bhnp2rcd13ifvqgvg","pricing_plan_id":"free"},{"bike_id":"91895e72-70c3-4fff-8de2-9c7d84433031","system_id":"levelo_inurba_marseille","lat":43.23967,"lon":5.36634,"is_reserved":false,"is_disabled":false,"rental_uris":{"android":"levelo://app?vid=91895e72-70c3-4fff-8de2-9c7d84433031","ios":"levelo://app?vid=91895e72-70c3-4fff-8de2-9c7d84433031"},"vehicle_type_id":"4","last_reported":1679180800,"current_range_meters":13600,"station_id":"ce4bhi12rcd13ifvqfp0","pricing_plan_id":"free"},{"bike_id":"aee4b4a6-f9ab-4084-a4f7-edd5ccad8d40","system_id":"levelo_inurba_marseille","lat":43.239588,"lon":5.366238,"is_reserved":false,"is_disabled":false,"rental_uris":{"android":"levelo://app?vid=aee4b4a6-f9ab-4084-a4f7-edd5ccad8d40","ios":"levelo://app?vid=aee4b4a6-f9ab-4084-a4f7-edd5ccad8d40"},"vehicle_type_id":"4","last_reported":1679180800,"current_range_meters":18400,"station_id":"ce4bhi12rcd13ifvqfp0","pricing_plan_id":"free"},{"bike_id":"60ec317c-9c95-456f-90a7-3e1b12c23fe5","system_id":"levelo_inurba_marseille","lat":43.239588,"lon":5.366238,"is_reserved":false,"is_disabled":false,"rental_uris":{"android":"levelo://app?vid=60ec317c-9c95-456f-90a7-3e1b12c23fe5","ios":"levelo://app?vid=60ec317c-9c95-456f-90a7-3e1b12c23fe5"},"vehicle_type_id":"4","last_reported":1679180800,"current_range_meters":4400,"station_id":"ce4bhi12rcd13ifvqfp0","pricing_plan_id":"free"},{"bike_id":"b9eb7df5-4549-486d-acf3-adcd910c731d","system_id":"levelo_inurba_marseille","lat":43.23963,"lon":5.366393,"is_reserved":false,"is_disabled":false,"rental_uris":{"android":"levelo://app?vid=b9eb7df5-4549-486d-acf3-adcd910c731d","ios":"levelo://app?vid=b9eb7df5-4549-486d-acf3-adcd910c731d"},"vehicle_type_id":"4","last_reported":1679180800,"current_range_meters":6800,"station_id":"","pricing_plan_id":"free"},{"bike_id":"dcfbe225-2601-4561-81df-92cf185c56f6","system_id":"levelo_inurba_marseille","lat":43.239588,"lon":5.366238,"is_reserved":false,"is_disabled":false,"rental_uris":{"android":"levelo://app?vid=dcfbe225-2601-4561-81df-92cf185c56f6","ios":"levelo://app?vid=dcfbe225-2601-4561-81df-92cf185c56f6"},"vehicle_type_id":"4","last_reported":1679180800,"current_range_meters":5600,"station_id":"ce4bhi12rcd13ifvqfp0","pricing_plan_id":"free"},{"bike_id":"dba2b3da-89d5-4fcb-a15f-73661f099710","system_id":"levelo_inurba_marseille","lat":43.241782,"lon":5.397264,"is_reserved":false,"is_disabled":false,"rental_uris":{"android":"levelo://app?vid=dba2b3da-89d5-4fcb-a15f-73661f099710","ios":"levelo://app?vid=dba2b3da-89d5-4fcb-a15f-73661f099710"},"vehicle_type_id":"4","last_reported":1679180800,"current_range_meters":10400,"station_id":"ce4bhn12rcd13ifvqgpg","pricing_plan_id":"free"},{"bike_id":"e6de100f-ddf7-4ced-91e9-e2c1e1a231bc","system_id":"levelo_inurba_marseille","lat":43.241782,"lon":5.397264,"is_reserved":false,"is_disabled":false,"rental_uris":{"android":"levelo://app?vid=e6de100f-ddf7-4ced-91e9-e2c1e1a231bc","ios":"levelo://app?vid=e6de100f-ddf7-4ced-91e9-e2c1e1a231bc"},"vehicle_type_id":"4","last_reported":1679180800,"current_range_meters":16000,"station_id":"ce4bhn12rcd13ifvqgpg","pricing_plan_id":"free"},{"bike_id":"beb4cea3-745f-44b9-b80b-15d479bcf9d9","system_id":"levelo_inurba_marseille","lat":43.241782,"lon":5.397264,"is_reserved":false,"is_disabled":false,"rental_uris":{"android":"levelo://app?vid=beb4cea3-745f-44b9-b80b-15d479bcf9d9","ios":"levelo://app?vid=beb4cea3-745f-44b9-b80b-15d479bcf9d9"},"vehicle_type_id":"4","last_reported":1679180800,"current_range_meters":0,"station_id":"ce4bhn12rcd13ifvqgpg","pricing_plan_id":"free"},{"bike_id":"beaf722f-8cce-48cc-9f08-62b9af3ed634","system_id":"levelo_inurba_marseille","lat":43.23199,"lon":5.35554,"is_reserved":false,"is_disabled":false,"rental_uris":{"android":"levelo://app?vid=beaf722f-8cce-48cc-9f08-62b9af3ed634","ios":"levelo://app?vid=beaf722f-8cce-48cc-9f08-62b9af3ed634"},"vehicle_type_id":"4","last_reported":1679180800,"current_range_meters":24000,"station_id":"","pricing_plan_id":"free"},{"bike_id":"0510984e-f649-44d1-8242-9d987e2a499a","system_id":"levelo_inurba_marseille","lat":43.23198,"lon":5.35553,"is_reserved":false,"is_disabled":false,"rental_uris":{"android":"levelo://app?vid=0510984e-f649-44d1-8242-9d987e2a499a","ios":"levelo://app?vid=0510984e-f649-44d1-8242-9d987e2a499a"},"vehicle_type_id":"4","last_reported":1679180800,"current_range_meters":24800,"station_id":"ce4bhu92rcd13ifvqi70","pricing_plan_id":"free"},{"bike_id":"2f1e89bb-26de-4f28-9f9c-8145daa23f89","system_id":"levelo_inurba_marseille","lat":43.231945,"lon":5.35558,"is_reserved":false,"is_disabled":false,"rental_uris":{"android":"levelo://app?vid=2f1e89bb-26de-4f28-9f9c-8145daa23f89","ios":"levelo://app?vid=2f1e89bb-26de-4f28-9f9c-8145daa23f89"},"vehicle_type_id":"4","last_reported":1679180800,"current_range_meters":31600,"station_id":"","pricing_plan_id":"free"},{"bike_id":"b71d4bb3-9dd8-4f9d-8402-e3595c6b6b91","system_id":"levelo_inurba_marseille","lat":43.231936,"lon":5.355528,"is_reserved":false,"is_disabled":false,"rental_uris":{"android":"levelo://app?vid=b71d4bb3-9dd8-4f9d-8402-e3595c6b6b91","ios":"levelo://app?vid=b71d4bb3-9dd8-4f9d-8402-e3595c6b6b91"},"vehicle_type_id":"4","last_reported":1679180800,"current_range_meters":24800,"station_id":"","pricing_plan_id":"free"},{"bike_id":"b9f6f4f0-f36b-4f70-8715-1fede5862196","system_id":"levelo_inurba_marseille","lat":43.23193,"lon":5.35553,"is_reserved":false,"is_disabled":false,"rental_uris":{"android":"levelo://app?vid=b9f6f4f0-f36b-4f70-8715-1fede5862196","ios":"levelo://app?vid=b9f6f4f0-f36b-4f70-8715-1fede5862196"},"vehicle_type_id":"4","last_reported":1679180800,"current_range_meters":29200,"station_id":"ce4bhu92rcd13ifvqi70","pricing_plan_id":"free"},{"bike_id":"956fe110-a343-4414-91a1-6e3d50bfa094","system_id":"levelo_inurba_marseille","lat":43.231923,"lon":5.355545,"is_reserved":false,"is_disabled":false,"rental_uris":{"android":"levelo://app?vid=956fe110-a343-4414-91a1-6e3d50bfa094","ios":"levelo://app?vid=956fe110-a343-4414-91a1-6e3d50bfa094"},"vehicle_type_id":"4","last_reported":1679180800,"current_range_meters":31200,"station_id":"ce4bhu92rcd13ifvqi70","pricing_plan_id":"free"},{"bike_id":"e8fea5b7-48a9-48c9-b449-fe6211bd9de6","system_id":"levelo_inurba_marseille","lat":43.231923,"lon":5.355545,"is_reserved":false,"is_disabled":false,"rental_uris":{"android":"levelo://app?vid=e8fea5b7-48a9-48c9-b449-fe6211bd9de6","ios":"levelo://app?vid=e8fea5b7-48a9-48c9-b449-fe6211bd9de6"},"vehicle_type_id":"4","last_reported":1679180800,"current_range_meters":27200,"station_id":"ce4bhu92rcd13ifvqi70","pricing_plan_id":"free"},{"bike_id":"9396a642-8421-4ca9-b20d-a2492104caf9","system_id":"levelo_inurba_marseille","lat":43.23192,"lon":5.35556,"is_reserved":false,"is_disabled":false,"rental_uris":{"android":"levelo://app?vid=9396a642-8421-4ca9-b20d-a2492104caf9","ios":"levelo://app?vid=9396a642-8421-4ca9-b20d-a2492104caf9"},"vehicle_type_id":"4","last_reported":1679180800,"current_range_meters":30400,"station_id":"","pricing_plan_id":"free"},{"bike_id":"8057768e-761b-41d6-916d-02a9ceb83bc6","system_id":"levelo_inurba_marseille","lat":43.23192,"lon":5.35556,"is_reserved":false,"is_disabled":false,"rental_uris":{"android":"levelo://app?vid=8057768e-761b-41d6-916d-02a9ceb83bc6","ios":"levelo://app?vid=8057768e-761b-41d6-916d-02a9ceb83bc6"},"vehicle_type_id":"4","last_reported":1679180800,"current_range_meters":28000,"station_id":"ce4bhu92rcd13ifvqi70","pricing_plan_id":"free"},{"bike_id":"c4a765e8-1981-4501-b559-fd423b924ef4","system_id":"levelo_inurba_marseille","lat":43.231923,"lon":5.355545,"is_reserved":false,"is_disabled":false,"rental_uris":{"android":"levelo://app?vid=c4a765e8-1981-4501-b559-fd423b924ef4","ios":"levelo://app?vid=c4a765e8-1981-4501-b559-fd423b924ef4"},"vehicle_type_id":"4","last_reported":1679180800,"current_range_meters":27600,"station_id":"ce4bhu92rcd13ifvqi70","pricing_plan_id":"free"},{"bike_id":"ff98316f-748f-4069-a942-b27635abd352","system_id":"levelo_inurba_marseille","lat":43.231923,"lon":5.355545,"is_reserved":false,"is_disabled":false,"rental_uris":{"android":"levelo://app?vid=ff98316f-748f-4069-a942-b27635abd352","ios":"levelo://app?vid=ff98316f-748f-4069-a942-b27635abd352"},"vehicle_type_id":"4","last_reported":1679180800,"current_range_meters":31600,"station_id":"ce4bhu92rcd13ifvqi70","pricing_plan_id":"free"},{"bike_id":"aa784494-bcc8-4b38-921b-25d4252dc6ab","system_id":"levelo_inurba_marseille","lat":43.23191,"lon":5.35553,"is_reserved":false,"is_disabled":false,"rental_uris":{"android":"levelo://app?vid=aa784494-bcc8-4b38-921b-25d4252dc6ab","ios":"levelo://app?vid=aa784494-bcc8-4b38-921b-25d4252dc6ab"},"vehicle_type_id":"4","last_reported":1679180800,"current_range_meters":9200,"station_id":"ce4bhu92rcd13ifvqi70","pricing_plan_id":"free"},{"bike_id":"0010ebe6-0da4-49c8-96ff-1cfa6d1925a0","system_id":"levelo_inurba_marseille","lat":43.231903,"lon":5.355556,"is_reserved":false,"is_disabled":false,"rental_uris":{"android":"levelo://app?vid=0010ebe6-0da4-49c8-96ff-1cfa6d1925a0","ios":"levelo://app?vid=0010ebe6-0da4-49c8-96ff-1cfa6d1925a0"},"vehicle_type_id":"4","last_reported":1679180800,"current_range_meters":26400,"station_id":"ce4bhu92rcd13ifvqi70","pricing_plan_id":"free"}]}}