{"last_updated":1719068803,"ttl":30,"version":"2.2","data":{"bikes":[{"bike_id":"91bac76f-df4b-4b90-a775-ce53b257ce72","system_id":"levelo_inurba_marseille","lat":43.312239,"lon":5.368562,"is_reserved":false,"is_disabled":false,"rental_uris":{"android":"levelo://app?vid=91bac76f-df4b-4b90-a775-ce53b257ce72","ios":"levelo://app?vid=91bac76f-df4b-4b90-a775-ce53b257ce72"},"vehicle_type_id":"4","last_reported":1719068803,"current_range_meters":31200,"station_id":"ce4bgl92rcd13ifvqbq0","pricing_plan_id":"cebpf4jnsgd1na2vs0mg"},{"bike_id":"d3ff2776-ad1a-4ffc-b3df-04913da84fba","system_id":"levelo_inurba_marseille","lat":43.31223,"lon":5.368777,"is_reserved":false,"is_disabled":false,"rental_uris":{"android":"levelo://app?vid=d3ff2776-ad1a-4ffc-b3df-04913da84fba","ios":"levelo://app?vid=d3ff2776-ad1a-4ffc-b3df-04913da84fba"},"vehicle_type_id":"4","last_reported":1719068803,"current_range_meters":0,"station_id":"ce4bgl92rcd13ifvqbq0","pricing_plan_id":"cebpf4jnsgd1na2vs0mg"},{"bike_id":"24d509b5-ef37-465b-b8cc-6a71986a5c4f","system_id":"levelo_inurba_marseille","lat":43.308744,"lon":5.368099,"is_reserved":false,"is_disabled":false,"rental_uris":{"android":"levelo://app?vid=24d509b5-ef37-465b-b8cc-6a71986a5c4f","ios":"levelo://app?vid=24d509b5-ef37-465b-b8cc-6a71986a5c4f"},"vehicle_type_id":"4","last_reported":1719068803,"current_range_meters":20800,"station_id":"ce4bgn92rcd13ifvqbvg","pricing_plan_id":"cebpf4jnsgd1na2vs0mg"},{"bike_id":"62b30bff-41da-443f-b9c6-1da7391a137b","system_id":"levelo_inurba_marseille","lat":43.309039,"lon":5.371797,"is_reserved":false,"is_disabled":false,"rental_uris":{"android":"levelo://app?vid=62b30bff-41da-443f-b9c6-1da7391a137b","ios":"levelo://app?vid=62b30bff-41da-443f-b9c6-1da7391a137b"},"vehicle_type_id":"4","last_reported":1719068803,"current_range_meters":2000,"station_id":"ce4bguh2rcd13ifvqckg","pricing_plan_id":"cebpf4jnsgd1na2vs0mg"},{"bike_id":"e72ff122-a774-430e-a250-871ac7b74652","system_id":"levelo_inurba_marseille","lat":43.309039,"lon":5.371797,"is_reserved":false,"is_disabled":false,"rental_uris":{"android":"levelo://app?vid=e72ff122-a774-430e-a250-871ac7b74652","ios":"levelo://app?vid=e72ff122-a774-430e-a250-871ac7b74652"},"vehicle_type_id":"4","last_reported":1719068803,"current_range_meters":22400,"station_id":"ce4bguh2rcd13ifvqckg","pricing_plan_id":"cebpf4jnsgd1na2vs0mg"},{"bike_id":"20f31c62-307b-4c16-93b6-6fcc5accd677","system_id":"levelo_inurba_marseille","lat":43.31458,"lon":5.373641,"is_reserved":false,"is_disabled":false,"rental_uris":{"android":"levelo://app?vid=20f31c62-307b-4c16-93b6-6fcc5accd677","ios":"levelo://app?vid=20f31c62-307b-4c16-93b6-6fcc5accd677"},"vehicle_type_id":"4","last_reported":1719068803,"current_range_meters":16000,"station_id":"","pricing_plan_id":"cebpf4jnsgd1na2vs0mg"},{"bike_id":"5ab8f24b-8bf8-4c2c-a72e-1e8f8650b315","system_id":"levelo_inurba_marseille","lat":43.30578,"lon":5.367488,"is_reserved":false,"is_disabled":false,"rental_uris":{"android":"levelo://app?vid=5ab8f24b-8bf8-4c2c-a72e-1e8f8650b315","ios":"levelo://app?vid=5ab8f24b-8bf8-4c2c-a72e-1e8f8650b315"},"vehicle_type_id":"4","last_reported":1719068803,"current_range_meters":25200,"station_id":"ce4bgrp2rcd13ifvqc9g","pricing_plan_id":"cebpf4jnsgd1na2vs0mg"},{"bike_id":"426316b4-81b0-43ab-a5c0-b41cbd0d082e","system_id":"levelo_inurba_marseille","lat":43.305706,"lon":5.365654,"is_reserved":false,"is_disabled":false,"rental_uris":{"android":"levelo://app?vid=426316b4-81b0-43ab-a5c0-b41cbd0d082e","ios":"levelo://app?vid=426316b4-81b0-43ab-a5c0-b41cbd0d082e"},"vehicle_type_id":"4","last_reported":1719068803,"current_range_meters":2000,"station_id":"ce4bgs12rcd13ifvqcag","pricing_plan_id":"cebpf4jnsgd1na2vs0mg"},{"bike_id":"a43e7e1e-e283-47ba-bb74-77104a25b45c","system_id":"levelo_inurba_marseille","lat":43.30532,"lon":5.36661,"is_reserved":false,"is_disabled":false,"rental_uris":{"android":"levelo://app?vid=a43e7e1e-e283-47ba-bb74-77104a25b45c","ios":"levelo://app?vid=a43e7e1e-e283-47ba-bb74-77104a25b45c"},"vehicle_type_id":"4","last_reported":1719068803,"current_range_meters":22000,"station_id":"","pricing_plan_id":"cebpf4jnsgd1na2vs0mg"},{"bike_id":"51752494-08a1-41e9-bc45-d97467569369","system_id":"levelo_inurba_marseille","lat":43.305989,"lon":5.37225,"is_reserved":false,"is_disabled":false,"rental_uris":{"android":"levelo://app?vid=51752494-08a1-41e9-bc45-d97467569369","ios":"levelo://app?vid=51752494-08a1-41e9-bc45-d97467569369"},"vehicle_type_id":"4","last_reported":1719068803,"current_range_meters":7200,"station_id":"ce4bgqh2rcd13ifvqc4g","pricing_plan_id":"cebpf4jnsgd1na2vs0mg"},{"bike_id":"7c73c843-9603-4aeb-86ca-71094cf563e1","system_id":"levelo_inurba_marseille","lat":43.303046,"lon":5.368981,"is_reserved":false,"is_disabled":false,"rental_uris":{"android":"levelo://app?vid=7c73c843-9603-4aeb-86ca-71094cf563e1","ios":"levelo://app?vid=7c73c843-9603-4aeb-86ca-71094cf563e1"},"vehicle_type_id":"4","last_reported":1719068803,"current_range_meters":20800,"station_id":"ce4bgqh2rcd13ifvqc5g","pricing_plan_id":"cebpf4jnsgd1na2vs0mg"},{"bike_id":"eedc50b3-0479-47cf-92a2-62a967313ff4","system_id":"levelo_inurba_marseille","lat":43.30304,"lon":5.368987,"is_reserved":false,"is_disabled":false,"rental_uris":{"android":"levelo://app?vid=eedc50b3-0479-47cf-92a2-62a967313ff4","ios":"levelo://app?vid=eedc50b3-0479-47cf-92a2-62a967313ff4"},"vehicle_type_id":"4","last_reported":1719068803,"current_range_meters":2000,"station_id":"ce4bgqh2rcd13ifvqc5g","pricing_plan_id":"cebpf4jnsgd1na2vs0mg"},{"bike_id":"5b8007bb-0dd8-4352-b213-d088b8c4b4e0","system_id":"levelo_inurba_marseille","lat":43.31555,"lon":5.38022,"is_reserved":false,"is_disabled":false,"rental_uris":{"android":"levelo://app?vid=5b8007bb-0dd8-4352-b213-d088b8c4b4e0","ios":"levelo://app?vid=5b8007bb-0dd8-4352-b213-d088b8c4b4e0"},"vehicle_type_id":"4","last_reported":1719068803,"current_range_meters":8400,"station_id":"ce4bhsp2rcd13ifvqi50","pricing_plan_id":"cebpf4jnsgd1na2vs0mg"},{"bike_id":"cbc412d0-cd30-486d-941e-c01473d68ca8","system_id":"levelo_inurba_marseille","lat":43.315289,"lon":5.380349,"is_reserved":false,"is_disabled":false,"rental_uris":{"android":"levelo://app?vid=cbc412d0-cd30-486d-941e-c01473d68ca8","ios":"levelo://app?vid=cbc412d0-cd30-486d-941e-c01473d68ca8"},"vehicle_type_id":"4","last_reported":1719068803,"current_range_meters":17600,"station_id":"ce4bhsp2rcd13ifvqi50","pricing_plan_id":"cebpf4jnsgd1na2vs0mg"},{"bike_id":"374b75ad-ef9c-4801-ab0d-552e0ad47925","system_id":"levelo_inurba_marseille","lat":43.315289,"lon":5.380349,"is_reserved":false,"is_disabled":false,"rental_uris":{"android":"levelo://app?vid=374b75ad-ef9c-4801-ab0d-552e0ad47925","ios":"levelo://app?vid=374b75ad-ef9c-4801-ab0d-552e0ad47925"},"vehicle_type_id":"4","last_reported":1719068803,"current_range_meters":6000,"station_id":"ce4bhsp2rcd13ifvqi50","pricing_plan_id":"cebpf4jnsgd1na2vs0mg"},{"bike_id":"1aa9382d-bd55-4aff-8971-b23615fccdae","system_id":"levelo_inurba_marseille","lat":43.311,"lon":5.38145,"is_reserved":false,"is_disabled":false,"rental_uris":{"android":"levelo://app?vid=1aa9382d-bd55-4aff-8971-b23615fccdae","ios":"levelo://app?vid=1aa9382d-bd55-4aff-8971-b23615fccdae"},"vehicle_type_id":"4","last_reported":1719068803,"current_range_meters":5200,"station_id":"","pricing_plan_id":"cebpf4jnsgd1na2vs0mg"},{"bike_id":"c8d74784-cfa3-4dc0-a55e-c53d6b6b7590","system_id":"levelo_inurba_marseille","lat":43.31302,"lon":5.38176,"is_reserved":false,"is_disabled":false,"rental_uris":{"android":"levelo://app?vid=c8d74784-cfa3-4dc0-a55e-c53d6b6b7590","ios":"levelo://app?vid=c8d74784-cfa3-4dc0-a55e-c53d6b6b7590"},"vehicle_type_id":"4","last_reported":1719068803,"current_range_meters":16800,"station_id":"","pricing_plan_id":"cebpf4jnsgd1na2vs0mg"},{"bike_id":"31fcc944-92f5-457c-96fe-5ad2260bda6c","system_id":"levelo_inurba_marseille","lat":43.308012,"lon":5.381511,"is_reserved":false,"is_disabled":false,"rental_uris":{"android":"levelo://app?vid=31fcc944-92f5-457c-96fe-5ad2260bda6c","ios":"levelo://app?vid=31fcc944-92f5-457c-96fe-5ad2260bda6c"},"vehicle_type_id":"4","last_reported":1719068803,"current_range_meters":22400,"station_id":"ce4bgt12rcd13ifvqce0","pricing_plan_id":"cebpf4jnsgd1na2vs0mg"},{"bike_id":"fbfcc362-146b-4468-9a05-88ccd8104b9f","system_id":"levelo_inurba_marseille","lat":43.304606,"lon":5.379026,"is_reserved":false,"is_disabled":false,"rental_uris":{"android":"levelo://app?vid=fbfcc362-146b-4468-9a05-88ccd8104b9f","ios":"levelo://app?vid=fbfcc362-146b-4468-9a05-88ccd8104b9f"},"vehicle_type_id":"4","last_reported":1719068803,"current_range_meters":23200,"station_id":"ce4bgup2rcd13ifvqcn0","pricing_plan_id":"cebpf4jnsgd1na2vs0mg"},{"bike_id":"ed14ec74-1f1c-4cfd-8d26-59aa92fdca8a","system_id":"levelo_inurba_marseille","lat":43.30083,"lon":5.36719,"is_reserved":false,"is_disabled":false,"rental_uris":{"android":"levelo://app?vid=ed14ec74-1f1c-4cfd-8d26-59aa92fdca8a","ios":"levelo://app?vid=ed14ec74-1f1c-4cfd-8d26-59aa92fdca8a"},"vehicle_type_id":"4","last_reported":1719068803,"current_range_meters":25600,"station_id":"","pricing_plan_id":"cebpf4jnsgd1na2vs0mg"},{"bike_id":"97cd1ec4-b9d3-447a-bf85-9a0e4eec58d1","system_id":"levelo_inurba_marseille","lat":43.304606,"lon":5.379026,"is_reserved":false,"is_disabled":false,"rental_uris":{"android":"levelo://app?vid=97cd1ec4-b9d3-447a-bf85-9a0e4eec58d1","ios":"levelo://app?vid=97cd1ec4-b9d3-447a-bf85-9a0e4eec58d1"},"vehicle_type_id":"4","last_reported":1719068803,"current_range_meters":30800,"station_id":"ce4bgup2rcd13ifvqcn0","pricing_plan_id":"cebpf4jnsgd1na2vs0mg"},{"bike_id":"e4876dc7-104d-4e95-bdeb-5e7adbe9717d","system_id":"levelo_inurba_marseille","lat":43.324771,"lon":5.36557,"is_reserved":false,"is_disabled":false,"rental_uris":{"android":"levelo://app?vid=e4876dc7-104d-4e95-bdeb-5e7adbe9717d","ios":"levelo://app?vid=e4876dc7-104d-4e95-bdeb-5e7adbe9717d"},"vehicle_type_id":"4","last_reported":1719068803,"current_range_meters":10000,"station_id":"ce4bhs12rcd13ifvqhvg","pricing_plan_id":"cebpf4jnsgd1na2vs0mg"},{"bike_id":"6177fbbe-0691-4f25-beba-fa116f0f0425","system_id":"levelo_inurba_marseille","lat":43.310804,"lon":5.38359,"is_reserved":false,"is_disabled":false,"rental_uris":{"android":"levelo://app?vid=6177fbbe-0691-4f25-beba-fa116f0f0425","ios":"levelo://app?vid=6177fbbe-0691-4f25-beba-fa116f0f0425"},"vehicle_type_id":"4","last_reported":1719068803,"current_range_meters":30400,"station_id":"ce4bgv92rcd13ifvqcr0","pricing_plan_id":"cebpf4jnsgd1na2vs0mg"},{"bike_id":"43b84215-3ec8-49b0-8f31-26a24bd51fe9","system_id":"levelo_inurba_marseille","lat":43.302784,"lon":5.377158,"is_reserved":false,"is_disabled":false,"rental_uris":{"android":"levelo://app?vid=43b84215-3ec8-49b0-8f31-26a24bd51fe9","ios":"levelo://app?vid=43b84215-3ec8-49b0-8f31-26a24bd51fe9"},"vehicle_type_id":"4","last_reported":1719068803,"current_range_meters":18800,"station_id":"ce4bguh2rcd13ifvqcj0","pricing_plan_id":"cebpf4jnsgd1na2vs0mg"},{"bike_id":"c57f6a92-1073-4321-bca9-84500be549a6","system_id":"levelo_inurba_marseille","lat":43.301429,"lon":5.37413,"is_reserved":false,"is_disabled":false,"rental_uris":{"android":"levelo://app?vid=c57f6a92-1073-4321-bca9-84500be549a6","ios":"levelo://app?vid=c57f6a92-1073-4321-bca9-84500be549a6"},"vehicle_type_id":"4","last_reported":1719068803,"current_range_meters":5200,"station_id":"ce4bgs92rcd13ifvqcc0","pricing_plan_id":"cebpf4jnsgd1na2vs0mg"},{"bike_id":"580ce52b-7819-4122-9fd9-1fa666f0600f","system_id":"levelo_inurba_marseille","lat":43.31997,"lon":5.38163,"is_reserved":false,"is_disabled":false,"rental_uris":{"android":"levelo://app?vid=580ce52b-7819-4122-9fd9-1fa666f0600f","ios":"levelo://app?vid=580ce52b-7819-4122-9fd9-1fa666f0600f"},"vehicle_type_id":"4","last_reported":1719068803,"current_range_meters":27600,"station_id":"ce4bhr12rcd13ifvqhpg","pricing_plan_id":"cebpf4jnsgd1na2vs0mg"},{"bike_id":"89e5bf74-315e-4ae2-98cd-6e037d0b37a1","system_id":"levelo_inurba_marseille","lat":43.299222,"lon":5.365554,"is_reserved":false,"is_disabled":false,"rental_uris":{"android":"levelo://app?vid=89e5bf74-315e-4ae2-98cd-6e037d0b37a1","ios":"levelo://app?vid=89e5bf74-315e-4ae2-98cd-6e037d0b37a1"},"vehicle_type_id":"4","last_reported":1719068803,"current_range_meters":23600,"station_id":"ce4bgm92rcd13ifvqbr0","pricing_plan_id":"cebpf4jnsgd1na2vs0mg"},{"bike_id":"e3a80b53-0d0b-42f8-bfbe-deb119f25085","system_id":"levelo_inurba_marseille","lat":43.299724,"lon":5.371829,"is_reserved":false,"is_disabled":false,"rental_uris":{"android":"levelo://app?vid=e3a80b53-0d0b-42f8-bfbe-deb119f25085","ios":"levelo://app?vid=e3a80b53-0d0b-42f8-bfbe-deb119f25085"},"vehicle_type_id":"4","last_reported":1719068803,"current_range_meters":800,"station_id":"ce4bgr92rcd13ifvqc7g","pricing_plan_id":"cebpf4jnsgd1na2vs0mg"},{"bike_id":"6bd1a044-52ca-4bb4-a5e4-a0a6306462e1","system_id":"levelo_inurba_marseille","lat":43.30021,"lon":5.37407,"is_reserved":false,"is_disabled":false,"rental_uris":{"android":"levelo://app?vid=6bd1a044-52ca-4bb4-a5e4-a0a6306462e1","ios":"levelo://app?vid=6bd1a044-52ca-4bb4-a5e4-a0a6306462e1"},"vehicle_type_id":"4","last_reported":1719068803,"current_range_meters":27200,"station_id":"ce4bgr92rcd13ifvqc7g","pricing_plan_id":"cebpf4jnsgd1na2vs0mg"},{"bike_id":"47699ea1-8c65-4fa7-98f4-ab1e61ff1e92","system_id":"levelo_inurba_marseille","lat":43.298433,"lon":5.362774,"is_reserved":false,"is_disabled":false,"rental_uris":{"android":"levelo://app?vid=47699ea1-8c65-4fa7-98f4-ab1e61ff1e92","ios":"levelo://app?vid=47699ea1-8c65-4fa7-98f4-ab1e61ff1e92"},"vehicle_type_id":"4","last_reported":1719068803,"current_range_meters":6800,"station_id":"ce4bgpp2rcd13ifvqc3g","pricing_plan_id":"cebpf4jnsgd1na2vs0mg"},{"bike_id":"b5e2edc7-e68a-4c47-ab07-3780459a45a6","system_id":"levelo_inurba_marseille","lat":43.298433,"lon":5.362774,"is_reserved":false,"is_disabled":false,"rental_uris":{"android":"levelo://app?vid=b5e2edc7-e68a-4c47-ab07-3780459a45a6","ios":"levelo://app?vid=b5e2edc7-e68a-4c47-ab07-3780459a45a6"},"vehicle_type_id":"4","last_reported":1719068803,"current_range_meters":28000,"station_id":"ce4bgpp2rcd13ifvqc3g","pricing_plan_id":"cebpf4jnsgd1na2vs0mg"},{"bike_id":"e98e5881-9317-4117-bc79-cfbf63067f63","system_id":"levelo_inurba_marseille","lat":43.298433,"lon":5.362774,"is_reserved":false,"is_disabled":false,"rental_uris":{"android":"levelo://app?vid=e98e5881-9317-4117-bc79-cfbf63067f63","ios":"levelo://app?vid=e98e5881-9317-4117-bc79-cfbf63067f63"},"vehicle_type_id":"4","last_reported":1719068803,"current_range_meters":31200,"station_id":"ce4bgpp2rcd13ifvqc3g","pricing_plan_id":"cebpf4jnsgd1na2vs0mg"},{"bike_id":"d463c33c-9eb5-4651-a116-a00fdbd60e78","system_id":"levelo_inurba_marseille","lat":43.305364,"lon":5.384119,"is_reserved":false,"is_disabled":false,"rental_uris":{"android":"levelo://app?vid=d463c33c-9eb5-4651-a116-a00fdbd60e78","ios":"levelo://app?vid=d463c33c-9eb5-4651-a116-a00fdbd60e78"},"vehicle_type_id":"4","last_reported":1719068803,"current_range_meters":27200,"station_id":"ce4bgg92rcd13ifvqb30","pricing_plan_id":"cebpf4jnsgd1na2vs0mg"},{"bike_id":"829c5225-0e45-41c5-af6d-a62600b4d611","system_id":"levelo_inurba_marseille","lat":43.311722,"lon":5.387247,"is_reserved":false,"is_disabled":false,"rental_uris":{"android":"levelo://app?vid=829c5225-0e45-41c5-af6d-a62600b4d611","ios":"levelo://app?vid=829c5225-0e45-41c5-af6d-a62600b4d611"},"vehicle_type_id":"4","last_reported":1719068803,"current_range_meters":19200,"station_id":"ce4bgv12rcd13ifvqcp0","pricing_plan_id":"cebpf4jnsgd1na2vs0mg"},{"bike_id":"236a6dff-a523-4e91-946d-547a24688896","system_id":"levelo_inurba_marseille","lat":43.299243,"lon":5.37481,"is_reserved":false,"is_disabled":false,"rental_uris":{"android":"levelo://app?vid=236a6dff-a523-4e91-946d-547a24688896","ios":"levelo://app?vid=236a6dff-a523-4e91-946d-547a24688896"},"vehicle_type_id":"4","last_reported":1719068803,"current_range_meters":11200,"station_id":"ce4bgjh2rcd13ifvqbg0","pricing_plan_id":"cebpf4jnsgd1na2vs0mg"},{"bike_id":"ce42e0ca-388a-44e7-b121-81f02d6bd66e","system_id":"levelo_inurba_marseille","lat":43.311722,"lon":5.387247,"is_reserved":false,"is_disabled":false,"rental_uris":{"android":"levelo://app?vid=ce42e0ca-388a-44e7-b121-81f02d6bd66e","ios":"levelo://app?vid=ce42e0ca-388a-44e7-b121-81f02d6bd66e"},"vehicle_type_id":"4","last_reported":1719068803,"current_range_meters":0,"station_id":"ce4bgv12rcd13ifvqcp0","pricing_plan_id":"cebpf4jnsgd1na2vs0mg"},{"bike_id":"4c737102-f2a5-4496-b8fb-47abf845abd5","system_id":"levelo_inurba_marseille","lat":43.297794,"lon":5.370888,"is_reserved":false,"is_disabled":false,"rental_uris":{"android":"levelo://app?vid=4c737102-f2a5-4496-b8fb-47abf845abd5","ios":"levelo://app?vid=4c737102-f2a5-4496-b8fb-47abf845abd5"},"vehicle_type_id":"4","last_reported":1719068803,"current_range_meters":30800,"station_id":"ce4bgop2rcd13ifvqc1g","pricing_plan_id":"cebpf4jnsgd1na2vs0mg"},{"bike_id":"b487ff77-32a2-4885-a732-ae4bc78760b1","system_id":"levelo_inurba_marseille","lat":43.297163,"lon":5.365866,"is_reserved":false,"is_disabled":false,"rental_uris":{"android":"levelo://app?vid=b487ff77-32a2-4885-a732-ae4bc78760b1","ios":"levelo://app?vid=b487ff77-32a2-4885-a732-ae4bc78760b1"},"vehicle_type_id":"4","last_reported":1719068803,"current_range_meters":24000,"station_id":"ce4bgn12rcd13ifvqbt0","pricing_plan_id":"cebpf4jnsgd1na2vs0mg"},{"bike_id":"a1b1eaea-06b4-469d-af43-85dafdd39cc8","system_id":"levelo_inurba_marseille","lat":43.296129,"lon":5.370777,"is_reserved":false,"is_disabled":false,"rental_uris":{"android":"levelo://app?vid=a1b1eaea-06b4-469d-af43-85dafdd39cc8","ios":"levelo://app?vid=a1b1eaea-06b4-469d-af43-85dafdd39cc8"},"vehicle_type_id":"4","last_reported":1719068803,"current_range_meters":20800,"station_id":"ce4bgnh2rcd13ifvqc0g","pricing_plan_id":"cebpf4jnsgd1na2vs0mg"},{"bike_id":"804fdc3b-b0d3-4de8-b7e9-95703dc44886","system_id":"levelo_inurba_marseille","lat":43.296131,"lon":5.370773,"is_reserved":false,"is_disabled":false,"rental_uris":{"android":"levelo://app?vid=804fdc3b-b0d3-4de8-b7e9-95703dc44886","ios":"levelo://app?vid=804fdc3b-b0d3-4de8-b7e9-95703dc44886"},"vehicle_type_id":"4","last_reported":1719068803,"current_range_meters":26000,"station_id":"ce4bgnh2rcd13ifvqc0g","pricing_plan_id":"cebpf4jnsgd1na2vs0mg"},{"bike_id":"62e6091e-9b47-4b5a-8a03-799abb11beca","system_id":"levelo_inurba_marseille","lat":43.29573,"lon":5.367355,"is_reserved":false,"is_disabled":false,"rental_uris":{"android":"levelo://app?vid=62e6091e-9b47-4b5a-8a03-799abb11beca","ios":"levelo://app?vid=62e6091e-9b47-4b5a-8a03-799abb11beca"},"vehicle_type_id":"4","last_reported":1719068803,"current_range_meters":20000,"station_id":"ce4bgph2rcd13ifvqc2g","pricing_plan_id":"cebpf4jnsgd1na2vs0mg"},{"bike_id":"9f53d5e8-4908-4213-9931-0756acfe05cd","system_id":"levelo_inurba_marseille","lat":43.309589,"lon":5.390258,"is_reserved":false,"is_disabled":false,"rental_uris":{"android":"levelo://app?vid=9f53d5e8-4908-4213-9931-0756acfe05cd","ios":"levelo://app?vid=9f53d5e8-4908-4213-9931-0756acfe05cd"},"vehicle_type_id":"4","last_reported":1719068803,"current_range_meters":19600,"station_id":"ce4bgup2rcd13ifvqco0","pricing_plan_id":"cebpf4jnsgd1na2vs0mg"},{"bike_id":"d898a808-5587-4039-994c-0cd72486fd6f","system_id":"levelo_inurba_marseille","lat":43.309589,"lon":5.390258,"is_reserved":false,"is_disabled":false,"rental_uris":{"android":"levelo://app?vid=d898a808-5587-4039-994c-0cd72486fd6f","ios":"levelo://app?vid=d898a808-5587-4039-994c-0cd72486fd6f"},"vehicle_type_id":"4","last_reported":1719068803,"current_range_meters":18400,"station_id":"ce4bgup2rcd13ifvqco0","pricing_plan_id":"cebpf4jnsgd1na2vs0mg"},{"bike_id":"62bb4efb-a4c2-4f52-bd70-137e900c0722","system_id":"levelo_inurba_marseille","lat":43.299028,"lon":5.381509,"is_reserved":false,"is_disabled":false,"rental_uris":{"android":"levelo://app?vid=62bb4efb-a4c2-4f52-bd70-137e900c0722","ios":"levelo://app?vid=62bb4efb-a4c2-4f52-bd70-137e900c0722"},"vehicle_type_id":"4","last_reported":1719068803,"current_range_meters":29200,"station_id":"ce4bgj12rcd13ifvqbc0","pricing_plan_id":"cebpf4jnsgd1na2vs0mg"},{"bike_id":"4e7840fe-c30c-4a96-be3f-d996b9299d23","system_id":"levelo_inurba_marseille","lat":43.309589,"lon":5.390258,"is_reserved":false,"is_disabled":false,"rental_uris":{"android":"levelo://app?vid=4e7840fe-c30c-4a96-be3f-d996b9299d23","ios":"levelo://app?vid=4e7840fe-c30c-4a96-be3f-d996b9299d23"},"vehicle_type_id":"4","last_reported":1719068803,"current_range_meters":5200,"station_id":"ce4bgup2rcd13ifvqco0","pricing_plan_id":"cebpf4jnsgd1na2vs0mg"},{"bike_id":"9f6fe126-9e67-43d5-bf1c-7a6bf1f6bc28","system_id":"levelo_inurba_marseille","lat":43.29636,"lon":5.37506,"is_reserved":false,"is_disabled":false,"rental_uris":{"android":"levelo://app?vid=9f6fe126-9e67-43d5-bf1c-7a6bf1f6bc28","ios":"levelo://app?vid=9f6fe126-9e67-43d5-bf1c-7a6bf1f6bc28"},"vehicle_type_id":"4","last_reported":1719068803,"current_range_meters":20800,"station_id":"","pricing_plan_id":"cebpf4jnsgd1na2vs0mg"},{"bike_id":"ccbc728b-31c0-4cc5-9494-81fb9065517b","system_id":"levelo_inurba_marseille","lat":43.31757,"lon":5.39011,"is_reserved":false,"is_disabled":false,"rental_uris":{"android":"levelo://app?vid=ccbc728b-31c0-4cc5-9494-81fb9065517b","ios":"levelo://app?vid=ccbc728b-31c0-4cc5-9494-81fb9065517b"},"vehicle_type_id":"4","last_reported":1719068803,"current_range_meters":10000,"station_id":"ce4bhqp2rcd13ifvqhng","pricing_plan_id":"cebpf4jnsgd1na2vs0mg"},{"bike_id":"8bdf9847-87a7-44ac-ad20-2c90776d34de","system_id":"levelo_inurba_marseille","lat":43.298037,"lon":5.381066,"is_reserved":false,"is_disabled":false,"rental_uris":{"android":"levelo://app?vid=8bdf9847-87a7-44ac-ad20-2c90776d34de","ios":"levelo://app?vid=8bdf9847-87a7-44ac-ad20-2c90776d34de"},"vehicle_type_id":"4","last_reported":1719068803,"current_range_meters":18800,"station_id":"ce4bgip2rcd13ifvqbb0","pricing_plan_id":"cebpf4jnsgd1na2vs0mg"},{"bike_id":"bbcd337e-2b9d-43d9-b4b6-1c7a36d05db3","system_id":"levelo_inurba_marseille","lat":43.295748,"lon":5.37522,"is_reserved":false,"is_disabled":false,"rental_uris":{"android":"levelo://app?vid=bbcd337e-2b9d-43d9-b4b6-1c7a36d05db3","ios":"levelo://app?vid=bbcd337e-2b9d-43d9-b4b6-1c7a36d05db3"},"vehicle_type_id":"4","last_reported":1719068803,"current_range_meters":30800,"station_id":"ce4bgh92rcd13ifvqb50","pricing_plan_id":"cebpf4jnsgd1na2vs0mg"},{"bike_id":"b708f97e-3a1e-45bf-a75b-1dd1d7e9201a","system_id":"levelo_inurba_marseille","lat":43.295748,"lon":5.37522,"is_reserved":false,"is_disabled":false,"rental_uris":{"android":"levelo://app?vid=b708f97e-3a1e-45bf-a75b-1dd1d7e9201a","ios":"levelo://app?vid=b708f97e-3a1e-45bf-a75b-1dd1d7e9201a"},"vehicle_type_id":"4","last_reported":1719068803,"current_range_meters":14400,"station_id":"ce4bgh92rcd13ifvqb50","pricing_plan_id":"cebpf4jnsgd1na2vs0mg"},{"bike_id":"6bc81e6c-890f-48dc-8afb-37fd60b286b0","system_id":"levelo_inurba_marseille","lat":43.295748,"lon":5.37522,"is_reserved":false,"is_disabled":false,"rental_uris":{"android":"levelo://app?vid=6bc81e6c-890f-48dc-8afb-37fd60b286b0","ios":"levelo://app?vid=6bc81e6c-890f-48dc-8afb-37fd60b286b0"},"vehicle_type_id":"4","last_reported":1719068803,"current_range_meters":0,"station_id":"ce4bgh92rcd13ifvqb50","pricing_plan_id":"cebpf4jnsgd1na2vs0mg"},{"bike_id":"c460777b-af5d-4bc2-a2fd-238f43827669","system_id":"levelo_inurba_marseille","lat":43.295748,"lon":5.37522,"is_reserved":false,"is_disabled":false,"rental_uris":{"android":"levelo://app?vid=c460777b-af5d-4bc2-a2fd-238f43827669","ios":"levelo://app?vid=c460777b-af5d-4bc2-a2fd-238f43827669"},"vehicle_type_id":"4","last_reported":1719068803,"current_range_meters":27200,"station_id":"ce4bgh92rcd13ifvqb50","pricing_plan_id":"cebpf4jnsgd1na2vs0mg"},{"bike_id":"c6d68f20-a106-4672-bef1-84779240432f","system_id":"levelo_inurba_marseille","lat":43.29564,"lon":5.37518,"is_reserved":false,"is_disabled":false,"rental_uris":{"android":"levelo://app?vid=c6d68f20-a106-4672-bef1-84779240432f","ios":"levelo://app?vid=c6d68f20-a106-4672-bef1-84779240432f"},"vehicle_type_id":"4","last_reported":1719068803,"current_range_meters":15200,"station_id":"ce4bgh92rcd13ifvqb50","pricing_plan_id":"cebpf4jnsgd1na2vs0mg"},{"bike_id":"d34afe0e-731e-4f7e-9a6b-12de9dc0a856","system_id":"levelo_inurba_marseille","lat":43.296277,"lon":5.377108,"is_reserved":false,"is_disabled":false,"rental_uris":{"android":"levelo://app?vid=d34afe0e-731e-4f7e-9a6b-12de9dc0a856","ios":"levelo://app?vid=d34afe0e-731e-4f7e-9a6b-12de9dc0a856"},"vehicle_type_id":"4","last_reported":1719068803,"current_range_meters":12800,"station_id":"ce4bgi92rcd13ifvqb90","pricing_plan_id":"cebpf4jnsgd1na2vs0mg"},{"bike_id":"e12ddeee-2003-4313-9c4e-e62631be2919","system_id":"levelo_inurba_marseille","lat":43.296263,"lon":5.377094,"is_reserved":false,"is_disabled":false,"rental_uris":{"android":"levelo://app?vid=e12ddeee-2003-4313-9c4e-e62631be2919","ios":"levelo://app?vid=e12ddeee-2003-4313-9c4e-e62631be2919"},"vehicle_type_id":"4","last_reported":1719068803,"current_range_meters":27200,"station_id":"ce4bgi92rcd13ifvqb90","pricing_plan_id":"cebpf4jnsgd1na2vs0mg"},{"bike_id":"040fe0bc-c8b0-46e4-88eb-d07004ae50d7","system_id":"levelo_inurba_marseille","lat":43.296277,"lon":5.377108,"is_reserved":false,"is_disabled":false,"rental_uris":{"android":"levelo://app?vid=040fe0bc-c8b0-46e4-88eb-d07004ae50d7","ios":"levelo://app?vid=040fe0bc-c8b0-46e4-88eb-d07004ae50d7"},"vehicle_type_id":"4","last_reported":1719068803,"current_range_meters":4000,"station_id":"ce4bgi92rcd13ifvqb90","pricing_plan_id":"cebpf4jnsgd1na2vs0mg"},{"bike_id":"064a9870-62d0-4d0a-987c-dc0fc4c8b451","system_id":"levelo_inurba_marseille","lat":43.295279,"lon":5.375048,"is_reserved":false,"is_disabled":false,"rental_uris":{"android":"levelo://app?vid=064a9870-62d0-4d0a-987c-dc0fc4c8b451","ios":"levelo://app?vid=064a9870-62d0-4d0a-987c-dc0fc4c8b451"},"vehicle_type_id":"4","last_reported":1719068803,"current_range_meters":12400,"station_id":"ce4bgkp2rcd13ifvqbmg","pricing_plan_id":"cebpf4jnsgd1na2vs0mg"},{"bike_id":"cb0e9900-94af-4247-b362-102a601441b0","system_id":"levelo_inurba_marseille","lat":43.32367,"lon":5.388836,"is_reserved":false,"is_disabled":false,"rental_uris":{"android":"levelo://app?vid=cb0e9900-94af-4247-b362-102a601441b0","ios":"levelo://app?vid=cb0e9900-94af-4247-b362-102a601441b0"},"vehicle_type_id":"4","last_reported":1719068803,"current_range_meters":15600,"station_id":"ce4bhqp2rcd13ifvqhog","pricing_plan_id":"cebpf4jnsgd1na2vs0mg"},{"bike_id":"894e3352-403d-4d4c-99c9-329fbc383fc8","system_id":"levelo_inurba_marseille","lat":43.32367,"lon":5.388836,"is_reserved":false,"is_disabled":false,"rental_uris":{"android":"levelo://app?vid=894e3352-403d-4d4c-99c9-329fbc383fc8","ios":"levelo://app?vid=894e3352-403d-4d4c-99c9-329fbc383fc8"},"vehicle_type_id":"4","last_reported":1719068803,"current_range_meters":0,"station_id":"ce4bhqp2rcd13ifvqhog","pricing_plan_id":"cebpf4jnsgd1na2vs0mg"},{"bike_id":"c9992668-aa59-4d6d-ba4e-049dbe0a6290","system_id":"levelo_inurba_marseille","lat":43.29602,"lon":5.381084,"is_reserved":false,"is_disabled":false,"rental_uris":{"android":"levelo://app?vid=c9992668-aa59-4d6d-ba4e-049dbe0a6290","ios":"levelo://app?vid=c9992668-aa59-4d6d-ba4e-049dbe0a6290"},"vehicle_type_id":"4","last_reported":1719068803,"current_range_meters":4800,"station_id":"ce4bgl12rcd13ifvqbo0","pricing_plan_id":"cebpf4jnsgd1na2vs0mg"},{"bike_id":"07e76463-35fa-4c9c-9f7f-b8b8c3826b8b","system_id":"levelo_inurba_marseille","lat":43.293249,"lon":5.371578,"is_reserved":false,"is_disabled":false,"rental_uris":{"android":"levelo://app?vid=07e76463-35fa-4c9c-9f7f-b8b8c3826b8b","ios":"levelo://app?vid=07e76463-35fa-4c9c-9f7f-b8b8c3826b8b"},"vehicle_type_id":"4","last_reported":1719068803,"current_range_meters":31200,"station_id":"ce4bgh92rcd13ifvqb40","pricing_plan_id":"cebpf4jnsgd1na2vs0mg"},{"bike_id":"99edec6f-73c6-494f-80ec-64b423e30e30","system_id":"levelo_inurba_marseille","lat":43.2931,"lon":5.3717,"is_reserved":false,"is_disabled":false,"rental_uris":{"android":"levelo://app?vid=99edec6f-73c6-494f-80ec-64b423e30e30","ios":"levelo://app?vid=99edec6f-73c6-494f-80ec-64b423e30e30"},"vehicle_type_id":"4","last_reported":1719068803,"current_range_meters":23200,"station_id":"ce4bgh92rcd13ifvqb40","pricing_plan_id":"cebpf4jnsgd1na2vs0mg"},{"bike_id":"81705c3e-26a1-4d7c-b8ed-c9ee5c69eda9","system_id":"levelo_inurba_marseille","lat":43.292749,"lon":5.368402,"is_reserved":false,"is_disabled":false,"rental_uris":{"android":"levelo://app?vid=81705c3e-26a1-4d7c-b8ed-c9ee5c69eda9","ios":"levelo://app?vid=81705c3e-26a1-4d7c-b8ed-c9ee5c69eda9"},"vehicle_type_id":"4","last_reported":1719068803,"current_range_meters":18800,"station_id":"ce4bhbp2rcd13ifvqesg","pricing_plan_id":"cebpf4jnsgd1na2vs0mg"},{"bike_id":"96409d1d-eb22-4207-87c9-bda905a1d0f3","system_id":"levelo_inurba_marseille","lat":43.292749,"lon":5.368402,"is_reserved":false,"is_disabled":false,"rental_uris":{"android":"levelo://app?vid=96409d1d-eb22-4207-87c9-bda905a1d0f3","ios":"levelo://app?vid=96409d1d-eb22-4207-87c9-bda905a1d0f3"},"vehicle_type_id":"4","last_reported":1719068803,"current_range_meters":12000,"station_id":"ce4bhbp2rcd13ifvqesg","pricing_plan_id":"cebpf4jnsgd1na2vs0mg"},{"bike_id":"611068b1-8872-4ff7-b95c-36cfb4e18b52","system_id":"levelo_inurba_marseille","lat":43.292749,"lon":5.368402,"is_reserved":false,"is_disabled":false,"rental_uris":{"android":"levelo://app?vid=611068b1-8872-4ff7-b95c-36cfb4e18b52","ios":"levelo://app?vid=611068b1-8872-4ff7-b95c-36cfb4e18b52"},"vehicle_type_id":"4","last_reported":1719068803,"current_range_meters":0,"station_id":"ce4bhbp2rcd13ifvqesg","pricing_plan_id":"cebpf4jnsgd1na2vs0mg"},{"bike_id":"a9462127-c624-41c0-b324-16f2254649e1","system_id":"levelo_inurba_marseille","lat":43.293009,"lon":5.374584,"is_reserved":false,"is_disabled":false,"rental_uris":{"android":"levelo://app?vid=a9462127-c624-41c0-b324-16f2254649e1","ios":"levelo://app?vid=a9462127-c624-41c0-b324-16f2254649e1"},"vehicle_type_id":"4","last_reported":1719068803,"current_range_meters":5600,"station_id":"ce4bgi12rcd13ifvqb70","pricing_plan_id":"cebpf4jnsgd1na2vs0mg"},{"bike_id":"1ec0e144-8d39-463a-9d50-f3295d708487","system_id":"levelo_inurba_marseille","lat":43.2936,"lon":5.37835,"is_reserved":false,"is_disabled":false,"rental_uris":{"android":"levelo://app?vid=1ec0e144-8d39-463a-9d50-f3295d708487","ios":"levelo://app?vid=1ec0e144-8d39-463a-9d50-f3295d708487"},"vehicle_type_id":"4","last_reported":1719068803,"current_range_meters":400,"station_id":"ce4bgjh2rcd13ifvqbf0","pricing_plan_id":"cebpf4jnsgd1na2vs0mg"},{"bike_id":"55212130-304d-42ea-9e20-167b3a19aae6","system_id":"levelo_inurba_marseille","lat":43.2936,"lon":5.37835,"is_reserved":false,"is_disabled":false,"rental_uris":{"android":"levelo://app?vid=55212130-304d-42ea-9e20-167b3a19aae6","ios":"levelo://app?vid=55212130-304d-42ea-9e20-167b3a19aae6"},"vehicle_type_id":"4","last_reported":1719068803,"current_range_meters":24000,"station_id":"ce4bgjh2rcd13ifvqbf0","pricing_plan_id":"cebpf4jnsgd1na2vs0mg"},{"bike_id":"5c233e59-21b0-41fd-b3ee-23f12d7c6642","system_id":"levelo_inurba_marseille","lat":43.2936,"lon":5.37835,"is_reserved":false,"is_disabled":false,"rental_uris":{"android":"levelo://app?vid=5c233e59-21b0-41fd-b3ee-23f12d7c6642","ios":"levelo://app?vid=5c233e59-21b0-41fd-b3ee-23f12d7c6642"},"vehicle_type_id":"4","last_reported":1719068803,"current_range_meters":16800,"station_id":"ce4bgjh2rcd13ifvqbf0","pricing_plan_id":"cebpf4jnsgd1na2vs0mg"},{"bike_id":"38665dba-2e7d-4761-8725-9b53a8f729dc","system_id":"levelo_inurba_marseille","lat":43.2936,"lon":5.37835,"is_reserved":false,"is_disabled":false,"rental_uris":{"android":"levelo://app?vid=38665dba-2e7d-4761-8725-9b53a8f729dc","ios":"levelo://app?vid=38665dba-2e7d-4761-8725-9b53a8f729dc"},"vehicle_type_id":"4","last_reported":1719068803,"current_range_meters":12800,"station_id":"ce4bgjh2rcd13ifvqbf0","pricing_plan_id":"cebpf4jnsgd1na2vs0mg"},{"bike_id":"a43a19cc-7632-41f6-9004-9a392ced2b9f","system_id":"levelo_inurba_marseille","lat":43.30085,"lon":5.390856,"is_reserved":false,"is_disabled":false,"rental_uris":{"android":"levelo://app?vid=a43a19cc-7632-41f6-9004-9a392ced2b9f","ios":"levelo://app?vid=a43a19cc-7632-41f6-9004-9a392ced2b9f"},"vehicle_type_id":"4","last_reported":1719068803,"current_range_meters":18400,"station_id":"ce4bh192rcd13ifvqdb0","pricing_plan_id":"cebpf4jnsgd1na2vs0mg"},{"bike_id":"48136602-551a-40e9-84f0-6039c05c1644","system_id":"levelo_inurba_marseille","lat":43.292311,"lon":5.360731,"is_reserved":false,"is_disabled":false,"rental_uris":{"android":"levelo://app?vid=48136602-551a-40e9-84f0-6039c05c1644","ios":"levelo://app?vid=48136602-551a-40e9-84f0-6039c05c1644"},"vehicle_type_id":"4","last_reported":1719068803,"current_range_meters":28000,"station_id":"ce4bhbh2rcd13ifvqeqg","pricing_plan_id":"cebpf4jnsgd1na2vs0mg"},{"bike_id":"4fecb179-e113-4ac3-9ad6-2749ac506997","system_id":"levelo_inurba_marseille","lat":43.292311,"lon":5.360731,"is_reserved":false,"is_disabled":false,"rental_uris":{"android":"levelo://app?vid=4fecb179-e113-4ac3-9ad6-2749ac506997","ios":"levelo://app?vid=4fecb179-e113-4ac3-9ad6-2749ac506997"},"vehicle_type_id":"4","last_reported":1719068803,"current_range_meters":31200,"station_id":"ce4bhbh2rcd13ifvqeqg","pricing_plan_id":"cebpf4jnsgd1na2vs0mg"},{"bike_id":"0d63c729-c2a1-415d-b1ee-aa2e1fcbf01c","system_id":"levelo_inurba_marseille","lat":43.298764,"lon":5.388973,"is_reserved":false,"is_disabled":false,"rental_uris":{"android":"levelo://app?vid=0d63c729-c2a1-415d-b1ee-aa2e1fcbf01c","ios":"levelo://app?vid=0d63c729-c2a1-415d-b1ee-aa2e1fcbf01c"},"vehicle_type_id":"4","last_reported":1719068803,"current_range_meters":2400,"station_id":"ce4bh392rcd13ifvqdl0","pricing_plan_id":"cebpf4jnsgd1na2vs0mg"},{"bike_id":"b92e1ae6-6e22-49b2-b4d9-e3be1cdec45a","system_id":"levelo_inurba_marseille","lat":43.309038,"lon":5.396546,"is_reserved":false,"is_disabled":false,"rental_uris":{"android":"levelo://app?vid=b92e1ae6-6e22-49b2-b4d9-e3be1cdec45a","ios":"levelo://app?vid=b92e1ae6-6e22-49b2-b4d9-e3be1cdec45a"},"vehicle_type_id":"4","last_reported":1719068803,"current_range_meters":9200,"station_id":"ce4bh012rcd13ifvqcv0","pricing_plan_id":"cebpf4jnsgd1na2vs0mg"},{"bike_id":"7d83a640-9f10-41d4-8e4d-5331796cdf3e","system_id":"levelo_inurba_marseille","lat":43.290779,"lon":5.371482,"is_reserved":false,"is_disabled":false,"rental_uris":{"android":"levelo://app?vid=7d83a640-9f10-41d4-8e4d-5331796cdf3e","ios":"levelo://app?vid=7d83a640-9f10-41d4-8e4d-5331796cdf3e"},"vehicle_type_id":"4","last_reported":1719068803,"current_range_meters":7200,"station_id":"ce4bh5p2rcd13ifvqe4g","pricing_plan_id":"cebpf4jnsgd1na2vs0mg"},{"bike_id":"a4db3e13-2706-4a3e-abe4-001da0ccc660","system_id":"levelo_inurba_marseille","lat":43.302008,"lon":5.394694,"is_reserved":false,"is_disabled":false,"rental_uris":{"android":"levelo://app?vid=a4db3e13-2706-4a3e-abe4-001da0ccc660","ios":"levelo://app?vid=a4db3e13-2706-4a3e-abe4-001da0ccc660"},"vehicle_type_id":"4","last_reported":1719068803,"current_range_meters":23600,"station_id":"ce4bh0p2rcd13ifvqd70","pricing_plan_id":"cebpf4jnsgd1na2vs0mg"},{"bike_id":"0908fabe-84be-456a-8c11-f7bfdc6b2244","system_id":"levelo_inurba_marseille","lat":43.290523,"lon":5.35915,"is_reserved":false,"is_disabled":false,"rental_uris":{"android":"levelo://app?vid=0908fabe-84be-456a-8c11-f7bfdc6b2244","ios":"levelo://app?vid=0908fabe-84be-456a-8c11-f7bfdc6b2244"},"vehicle_type_id":"4","last_reported":1719068803,"current_range_meters":0,"station_id":"ce4bha92rcd13ifvqeg0","pricing_plan_id":"cebpf4jnsgd1na2vs0mg"},{"bike_id":"5da00296-47e4-4a83-8968-322c14ff08c5","system_id":"levelo_inurba_marseille","lat":43.290327,"lon":5.375711,"is_reserved":false,"is_disabled":false,"rental_uris":{"android":"levelo://app?vid=5da00296-47e4-4a83-8968-322c14ff08c5","ios":"levelo://app?vid=5da00296-47e4-4a83-8968-322c14ff08c5"},"vehicle_type_id":"4","last_reported":1719068803,"current_range_meters":11200,"station_id":"ce4bh692rcd13ifvqe90","pricing_plan_id":"cebpf4jnsgd1na2vs0mg"},{"bike_id":"682429b0-62af-4d79-a1bb-5b7739005ea8","system_id":"levelo_inurba_marseille","lat":43.294162,"lon":5.386292,"is_reserved":false,"is_disabled":false,"rental_uris":{"android":"levelo://app?vid=682429b0-62af-4d79-a1bb-5b7739005ea8","ios":"levelo://app?vid=682429b0-62af-4d79-a1bb-5b7739005ea8"},"vehicle_type_id":"4","last_reported":1719068803,"current_range_meters":19600,"station_id":"ce4bh2h2rcd13ifvqdh0","pricing_plan_id":"cebpf4jnsgd1na2vs0mg"},{"bike_id":"d801fc21-bd96-469d-be8f-215f3fa1c6df","system_id":"levelo_inurba_marseille","lat":43.289422,"lon":5.366313,"is_reserved":false,"is_disabled":false,"rental_uris":{"android":"levelo://app?vid=d801fc21-bd96-469d-be8f-215f3fa1c6df","ios":"levelo://app?vid=d801fc21-bd96-469d-be8f-215f3fa1c6df"},"vehicle_type_id":"4","last_reported":1719068803,"current_range_meters":0,"station_id":"ce4bhap2rcd13ifvqek0","pricing_plan_id":"cebpf4jnsgd1na2vs0mg"},{"bike_id":"ab68dd63-c3ab-4b04-ae15-6f1e8fdc3661","system_id":"levelo_inurba_marseille","lat":43.294153,"lon":5.386305,"is_reserved":false,"is_disabled":false,"rental_uris":{"android":"levelo://app?vid=ab68dd63-c3ab-4b04-ae15-6f1e8fdc3661","ios":"levelo://app?vid=ab68dd63-c3ab-4b04-ae15-6f1e8fdc3661"},"vehicle_type_id":"4","last_reported":1719068803,"current_range_meters":13600,"station_id":"ce4bh2h2rcd13ifvqdh0","pricing_plan_id":"cebpf4jnsgd1na2vs0mg"},{"bike_id":"490d1cdd-e35c-4267-aa95-566c5da915d4","system_id":"levelo_inurba_marseille","lat":43.29279,"lon":5.38454,"is_reserved":false,"is_disabled":false,"rental_uris":{"android":"levelo://app?vid=490d1cdd-e35c-4267-aa95-566c5da915d4","ios":"levelo://app?vid=490d1cdd-e35c-4267-aa95-566c5da915d4"},"vehicle_type_id":"4","last_reported":1719068803,"current_range_meters":2000,"station_id":"ce4bh692rcd13ifvqea0","pricing_plan_id":"cebpf4jnsgd1na2vs0mg"},{"bike_id":"d8058bd7-5abe-4832-a64c-29572447c7aa","system_id":"levelo_inurba_marseille","lat":43.304296,"lon":5.397513,"is_reserved":false,"is_disabled":false,"rental_uris":{"android":"levelo://app?vid=d8058bd7-5abe-4832-a64c-29572447c7aa","ios":"levelo://app?vid=d8058bd7-5abe-4832-a64c-29572447c7aa"},"vehicle_type_id":"4","last_reported":1719068803,"current_range_meters":26800,"station_id":"ce4bh092rcd13ifvqd20","pricing_plan_id":"cebpf4jnsgd1na2vs0mg"},{"bike_id":"c572ee94-e7cd-42ec-8d16-dfd712eca94c","system_id":"levelo_inurba_marseille","lat":43.292642,"lon":5.384254,"is_reserved":false,"is_disabled":false,"rental_uris":{"android":"levelo://app?vid=c572ee94-e7cd-42ec-8d16-dfd712eca94c","ios":"levelo://app?vid=c572ee94-e7cd-42ec-8d16-dfd712eca94c"},"vehicle_type_id":"4","last_reported":1719068803,"current_range_meters":6800,"station_id":"ce4bh692rcd13ifvqea0","pricing_plan_id":"cebpf4jnsgd1na2vs0mg"},{"bike_id":"291e2a3c-a199-40cf-b314-86566b518bac","system_id":"levelo_inurba_marseille","lat":43.290103,"lon":5.356114,"is_reserved":false,"is_disabled":false,"rental_uris":{"android":"levelo://app?vid=291e2a3c-a199-40cf-b314-86566b518bac","ios":"levelo://app?vid=291e2a3c-a199-40cf-b314-86566b518bac"},"vehicle_type_id":"4","last_reported":1719068803,"current_range_meters":31200,"station_id":"ce4bhb92rcd13ifvqen0","pricing_plan_id":"cebpf4jnsgd1na2vs0mg"},{"bike_id":"15c8786e-6a63-4940-af72-21ff059dee3e","system_id":"levelo_inurba_marseille","lat":43.290103,"lon":5.356114,"is_reserved":false,"is_disabled":false,"rental_uris":{"android":"levelo://app?vid=15c8786e-6a63-4940-af72-21ff059dee3e","ios":"levelo://app?vid=15c8786e-6a63-4940-af72-21ff059dee3e"},"vehicle_type_id":"4","last_reported":1719068803,"current_range_meters":31200,"station_id":"ce4bhb92rcd13ifvqen0","pricing_plan_id":"cebpf4jnsgd1na2vs0mg"},{"bike_id":"007f3ffa-7379-4369-9a15-5e3e147eeb25","system_id":"levelo_inurba_marseille","lat":43.290103,"lon":5.356114,"is_reserved":false,"is_disabled":false,"rental_uris":{"android":"levelo://app?vid=007f3ffa-7379-4369-9a15-5e3e147eeb25","ios":"levelo://app?vid=007f3ffa-7379-4369-9a15-5e3e147eeb25"},"vehicle_type_id":"4","last_reported":1719068803,"current_range_meters":21600,"station_id":"ce4bhb92rcd13ifvqen0","pricing_plan_id":"cebpf4jnsgd1na2vs0mg"},{"bike_id":"23932ed2-ae02-4df7-928a-3a610f99da8a","system_id":"levelo_inurba_marseille","lat":43.290103,"lon":5.356114,"is_reserved":false,"is_disabled":false,"rental_uris":{"android":"levelo://app?vid=23932ed2-ae02-4df7-928a-3a610f99da8a","ios":"levelo://app?vid=23932ed2-ae02-4df7-928a-3a610f99da8a"},"vehicle_type_id":"4","last_reported":1719068803,"current_range_meters":29200,"station_id":"ce4bhb92rcd13ifvqen0","pricing_plan_id":"cebpf4jnsgd1na2vs0mg"},{"bike_id":"a99ac456-ea9a-478c-a2b7-952cab9539bd","system_id":"levelo_inurba_marseille","lat":43.290104,"lon":5.356111,"is_reserved":false,"is_disabled":false,"rental_uris":{"android":"levelo://app?vid=a99ac456-ea9a-478c-a2b7-952cab9539bd","ios":"levelo://app?vid=a99ac456-ea9a-478c-a2b7-952cab9539bd"},"vehicle_type_id":"4","last_reported":1719068803,"current_range_meters":4800,"station_id":"ce4bhb92rcd13ifvqen0","pricing_plan_id":"cebpf4jnsgd1na2vs0mg"},{"bike_id":"3550597c-60d3-44c5-bb2d-c6fe0c8730de","system_id":"levelo_inurba_marseille","lat":43.290995,"lon":5.381361,"is_reserved":false,"is_disabled":false,"rental_uris":{"android":"levelo://app?vid=3550597c-60d3-44c5-bb2d-c6fe0c8730de","ios":"levelo://app?vid=3550597c-60d3-44c5-bb2d-c6fe0c8730de"},"vehicle_type_id":"4","last_reported":1719068803,"current_range_meters":20400,"station_id":"ce4bh512rcd13ifvqe2g","pricing_plan_id":"cebpf4jnsgd1na2vs0mg"},{"bike_id":"2ba07d44-fc91-4a6a-baed-95c198feaa0c","system_id":"levelo_inurba_marseille","lat":43.290995,"lon":5.381361,"is_reserved":false,"is_disabled":false,"rental_uris":{"android":"levelo://app?vid=2ba07d44-fc91-4a6a-baed-95c198feaa0c","ios":"levelo://app?vid=2ba07d44-fc91-4a6a-baed-95c198feaa0c"},"vehicle_type_id":"4","last_reported":1719068803,"current_range_meters":19200,"station_id":"ce4bh512rcd13ifvqe2g","pricing_plan_id":"cebpf4jnsgd1na2vs0mg"},{"bike_id":"1a167686-5d9c-47bc-b194-1a0d23281129","system_id":"levelo_inurba_marseille","lat":43.330442,"lon":5.389148,"is_reserved":false,"is_disabled":false,"rental_uris":{"android":"levelo://app?vid=1a167686-5d9c-47bc-b194-1a0d23281129","ios":"levelo://app?vid=1a167686-5d9c-47bc-b194-1a0d23281129"},"vehicle_type_id":"4","last_reported":1719068803,"current_range_meters":6400,"station_id":"ce4bhr92rcd13ifvqhrg","pricing_plan_id":"cebpf4jnsgd1na2vs0mg"},{"bike_id":"e0f845a8-3484-4ac1-890f-ddc0bc56a651","system_id":"levelo_inurba_marseille","lat":43.330442,"lon":5.389148,"is_reserved":false,"is_disabled":false,"rental_uris":{"android":"levelo://app?vid=e0f845a8-3484-4ac1-890f-ddc0bc56a651","ios":"levelo://app?vid=e0f845a8-3484-4ac1-890f-ddc0bc56a651"},"vehicle_type_id":"4","last_reported":1719068803,"current_range_meters":8400,"station_id":"ce4bhr92rcd13ifvqhrg","pricing_plan_id":"cebpf4jnsgd1na2vs0mg"},{"bike_id":"13c6072f-23cb-4f84-ac90-715022f088bc","system_id":"levelo_inurba_marseille","lat":43.2901,"lon":5.381269,"is_reserved":false,"is_disabled":false,"rental_uris":{"android":"levelo://app?vid=13c6072f-23cb-4f84-ac90-715022f088bc","ios":"levelo://app?vid=13c6072f-23cb-4f84-ac90-715022f088bc"},"vehicle_type_id":"4","last_reported":1719068803,"current_range_meters":0,"station_id":"ce4bh4p2rcd13ifvqe1g","pricing_plan_id":"cebpf4jnsgd1na2vs0mg"},{"bike_id":"51a49c9a-2c52-49c4-b8b2-3688cbc051d0","system_id":"levelo_inurba_marseille","lat":43.28856,"lon":5.358371,"is_reserved":false,"is_disabled":false,"rental_uris":{"android":"levelo://app?vid=51a49c9a-2c52-49c4-b8b2-3688cbc051d0","ios":"levelo://app?vid=51a49c9a-2c52-49c4-b8b2-3688cbc051d0"},"vehicle_type_id":"4","last_reported":1719068803,"current_range_meters":14000,"station_id":"ce4bhb12rcd13ifvqem0","pricing_plan_id":"cebpf4jnsgd1na2vs0mg"},{"bike_id":"05092e03-5cef-41c3-9575-df5db7507ebd","system_id":"levelo_inurba_marseille","lat":43.33739,"lon":5.37464,"is_reserved":false,"is_disabled":false,"rental_uris":{"android":"levelo://app?vid=05092e03-5cef-41c3-9575-df5db7507ebd","ios":"levelo://app?vid=05092e03-5cef-41c3-9575-df5db7507ebd"},"vehicle_type_id":"4","last_reported":1719068803,"current_range_meters":19200,"station_id":"","pricing_plan_id":"cebpf4jnsgd1na2vs0mg"},{"bike_id":"c04b1fde-14f5-406c-93fa-a9d8f65491f4","system_id":"levelo_inurba_marseille","lat":43.312609,"lon":5.401662,"is_reserved":false,"is_disabled":false,"rental_uris":{"android":"levelo://app?vid=c04b1fde-14f5-406c-93fa-a9d8f65491f4","ios":"levelo://app?vid=c04b1fde-14f5-406c-93fa-a9d8f65491f4"},"vehicle_type_id":"4","last_reported":1719068803,"current_range_meters":11200,"station_id":"ce4bh092rcd13ifvqd30","pricing_plan_id":"cebpf4jnsgd1na2vs0mg"},{"bike_id":"5b5cae36-09e1-4bd0-aeb4-83d37c064d16","system_id":"levelo_inurba_marseille","lat":43.3375,"lon":5.37457,"is_reserved":false,"is_disabled":false,"rental_uris":{"android":"levelo://app?vid=5b5cae36-09e1-4bd0-aeb4-83d37c064d16","ios":"levelo://app?vid=5b5cae36-09e1-4bd0-aeb4-83d37c064d16"},"vehicle_type_id":"4","last_reported":1719068803,"current_range_meters":28000,"station_id":"","pricing_plan_id":"cebpf4jnsgd1na2vs0mg"},{"bike_id":"a00c218c-138a-4388-aca4-2952a6961815","system_id":"levelo_inurba_marseille","lat":43.33753,"lon":5.37478,"is_reserved":false,"is_disabled":false,"rental_uris":{"android":"levelo://app?vid=a00c218c-138a-4388-aca4-2952a6961815","ios":"levelo://app?vid=a00c218c-138a-4388-aca4-2952a6961815"},"vehicle_type_id":"4","last_reported":1719068803,"current_range_meters":28800,"station_id":"","pricing_plan_id":"cebpf4jnsgd1na2vs0mg"},{"bike_id":"0e11bbab-a5d9-4098-a6f1-624d89f27c59","system_id":"levelo_inurba_marseille","lat":43.337572,"lon":5.374546,"is_reserved":false,"is_disabled":false,"rental_uris":{"android":"levelo://app?vid=0e11bbab-a5d9-4098-a6f1-624d89f27c59","ios":"levelo://app?vid=0e11bbab-a5d9-4098-a6f1-624d89f27c59"},"vehicle_type_id":"4","last_reported":1719068803,"current_range_meters":24000,"station_id":"","pricing_plan_id":"cebpf4jnsgd1na2vs0mg"},{"bike_id":"db534928-e6a2-47cc-a852-558fe66ed50c","system_id":"levelo_inurba_marseille","lat":43.337583,"lon":5.374633,"is_reserved":false,"is_disabled":false,"rental_uris":{"android":"levelo://app?vid=db534928-e6a2-47cc-a852-558fe66ed50c","ios":"levelo://app?vid=db534928-e6a2-47cc-a852-558fe66ed50c"},"vehicle_type_id":"4","last_reported":1719068803,"current_range_meters":22400,"station_id":"","pricing_plan_id":"cebpf4jnsgd1na2vs0mg"},{"bike_id":"e7be790b-07e4-40f3-b60f-da683b157943","system_id":"levelo_inurba_marseille","lat":43.33033,"lon":5.39238,"is_reserved":false,"is_disabled":false,"rental_uris":{"android":"levelo://app?vid=e7be790b-07e4-40f3-b60f-da683b157943","ios":"levelo://app?vid=e7be790b-07e4-40f3-b60f-da683b157943"},"vehicle_type_id":"4","last_reported":1719068803,"current_range_meters":18800,"station_id":"","pricing_plan_id":"cebpf4jnsgd1na2vs0mg"},{"bike_id":"a77bf3f1-dc55-4e35-8fe0-6292cee970ef","system_id":"levelo_inurba_marseille","lat":43.33035,"lon":5.39239,"is_reserved":false,"is_disabled":false,"rental_uris":{"android":"levelo://app?vid=a77bf3f1-dc55-4e35-8fe0-6292cee970ef","ios":"levelo://app?vid=a77bf3f1-dc55-4e35-8fe0-6292cee970ef"},"vehicle_type_id":"4","last_reported":1719068803,"current_range_meters":21200,"station_id":"","pricing_plan_id":"cebpf4jnsgd1na2vs0mg"},{"bike_id":"50bbb250-9e39-41c8-a909-9eed2702ae95","system_id":"levelo_inurba_marseille","lat":43.33788,"lon":5.37427,"is_reserved":false,"is_disabled":false,"rental_uris":{"android":"levelo://app?vid=50bbb250-9e39-41c8-a909-9eed2702ae95","ios":"levelo://app?vid=50bbb250-9e39-41c8-a909-9eed2702ae95"},"vehicle_type_id":"4","last_reported":1719068803,"current_range_meters":27600,"station_id":"","pricing_plan_id":"cebpf4jnsgd1na2vs0mg"},{"bike_id":"1ad38dab-86fc-4c88-9489-92129a8ae0cf","system_id":"levelo_inurba_marseille","lat":43.33799,"lon":5.37424,"is_reserved":false,"is_disabled":false,"rental_uris":{"android":"levelo://app?vid=1ad38dab-86fc-4c88-9489-92129a8ae0cf","ios":"levelo://app?vid=1ad38dab-86fc-4c88-9489-92129a8ae0cf"},"vehicle_type_id":"4","last_reported":1719068803,"current_range_meters":24000,"station_id":"","pricing_plan_id":"cebpf4jnsgd1na2vs0mg"},{"bike_id":"1529575d-3c24-4053-9dc4-3fc753c20a3e","system_id":"levelo_inurba_marseille","lat":43.3304,"lon":5.39281,"is_reserved":false,"is_disabled":false,"rental_uris":{"android":"levelo://app?vid=1529575d-3c24-4053-9dc4-3fc753c20a3e","ios":"levelo://app?vid=1529575d-3c24-4053-9dc4-3fc753c20a3e"},"vehicle_type_id":"4","last_reported":1719068803,"current_range_meters":1600,"station_id":"","pricing_plan_id":"cebpf4jnsgd1na2vs0mg"},{"bike_id":"2817345c-e813-4327-8b9f-954f1d28821c","system_id":"levelo_inurba_marseille","lat":43.28727,"lon":5.36078,"is_reserved":false,"is_disabled":false,"rental_uris":{"android":"levelo://app?vid=2817345c-e813-4327-8b9f-954f1d28821c","ios":"levelo://app?vid=2817345c-e813-4327-8b9f-954f1d28821c"},"vehicle_type_id":"4","last_reported":1719068803,"current_range_meters":17600,"station_id":"cki0cbj6b192h4jlfktg","pricing_plan_id":"cebpf4jnsgd1na2vs0mg"},{"bike_id":"b7db00b0-1bd5-4952-9687-38ef3d6e7f26","system_id":"levelo_inurba_marseille","lat":43.291153,"lon":5.386674,"is_reserved":false,"is_disabled":false,"rental_uris":{"android":"levelo://app?vid=b7db00b0-1bd5-4952-9687-38ef3d6e7f26","ios":"levelo://app?vid=b7db00b0-1bd5-4952-9687-38ef3d6e7f26"},"vehicle_type_id":"4","last_reported":1719068803,"current_range_meters":0,"station_id":"","pricing_plan_id":"cebpf4jnsgd1na2vs0mg"},{"bike_id":"7ef8f71d-e368-4c28-acda-bebe99e5c026","system_id":"levelo_inurba_marseille","lat":43.29873,"lon":5.39731,"is_reserved":false,"is_disabled":false,"rental_uris":{"android":"levelo://app?vid=7ef8f71d-e368-4c28-acda-bebe99e5c026","ios":"levelo://app?vid=7ef8f71d-e368-4c28-acda-bebe99e5c026"},"vehicle_type_id":"4","last_reported":1719068803,"current_range_meters":4000,"station_id":"ce4bh0h2rcd13ifvqd50","pricing_plan_id":"cebpf4jnsgd1na2vs0mg"},{"bike_id":"7ae012ec-bd3d-4a34-ae7f-f4097f4b4408","system_id":"levelo_inurba_marseille","lat":43.29872,"lon":5.39731,"is_reserved":false,"is_disabled":false,"rental_uris":{"android":"levelo://app?vid=7ae012ec-bd3d-4a34-ae7f-f4097f4b4408","ios":"levelo://app?vid=7ae012ec-bd3d-4a34-ae7f-f4097f4b4408"},"vehicle_type_id":"4","last_reported":1719068803,"current_range_meters":11600,"station_id":"ce4bh0h2rcd13ifvqd50","pricing_plan_id":"cebpf4jnsgd1na2vs0mg"},{"bike_id":"e2645991-da03-47bc-953e-db0721d73a67","system_id":"levelo_inurba_marseille","lat":43.295196,"lon":5.39397,"is_reserved":false,"is_disabled":false,"rental_uris":{"android":"levelo://app?vid=e2645991-da03-47bc-953e-db0721d73a67","ios":"levelo://app?vid=e2645991-da03-47bc-953e-db0721d73a67"},"vehicle_type_id":"4","last_reported":1719068803,"current_range_meters":4400,"station_id":"ce4bh292rcd13ifvqdf0","pricing_plan_id":"cebpf4jnsgd1na2vs0mg"},{"bike_id":"9c248a0a-4133-4111-808c-99ec2740548d","system_id":"levelo_inurba_marseille","lat":43.298681,"lon":5.397225,"is_reserved":false,"is_disabled":false,"rental_uris":{"android":"levelo://app?vid=9c248a0a-4133-4111-808c-99ec2740548d","ios":"levelo://app?vid=9c248a0a-4133-4111-808c-99ec2740548d"},"vehicle_type_id":"4","last_reported":1719068803,"current_range_meters":20000,"station_id":"ce4bh0h2rcd13ifvqd50","pricing_plan_id":"cebpf4jnsgd1na2vs0mg"},{"bike_id":"1872ca05-e849-4ea7-badb-3d59d911d5f0","system_id":"levelo_inurba_marseille","lat":43.286961,"lon":5.373785,"is_reserved":false,"is_disabled":false,"rental_uris":{"android":"levelo://app?vid=1872ca05-e849-4ea7-badb-3d59d911d5f0","ios":"levelo://app?vid=1872ca05-e849-4ea7-badb-3d59d911d5f0"},"vehicle_type_id":"4","last_reported":1719068803,"current_range_meters":22400,"station_id":"ce4bh3p2rcd13ifvqdq0","pricing_plan_id":"cebpf4jnsgd1na2vs0mg"},{"bike_id":"102a8acb-1d89-4517-a077-861ead356cd5","system_id":"levelo_inurba_marseille","lat":43.286542,"lon":5.363482,"is_reserved":false,"is_disabled":false,"rental_uris":{"android":"levelo://app?vid=102a8acb-1d89-4517-a077-861ead356cd5","ios":"levelo://app?vid=102a8acb-1d89-4517-a077-861ead356cd5"},"vehicle_type_id":"4","last_reported":1719068803,"current_range_meters":0,"station_id":"ce4bhah2rcd13ifvqej0","pricing_plan_id":"cebpf4jnsgd1na2vs0mg"},{"bike_id":"8e0e4749-e141-457e-a6b4-87844096ddb0","system_id":"levelo_inurba_marseille","lat":43.295196,"lon":5.39397,"is_reserved":false,"is_disabled":false,"rental_uris":{"android":"levelo://app?vid=8e0e4749-e141-457e-a6b4-87844096ddb0","ios":"levelo://app?vid=8e0e4749-e141-457e-a6b4-87844096ddb0"},"vehicle_type_id":"4","last_reported":1719068803,"current_range_meters":14800,"station_id":"ce4bh292rcd13ifvqdf0","pricing_plan_id":"cebpf4jnsgd1na2vs0mg"},{"bike_id":"25e990d3-3250-4fb8-911a-c5ba95ede9f4","system_id":"levelo_inurba_marseille","lat":43.295194,"lon":5.39397,"is_reserved":false,"is_disabled":false,"rental_uris":{"android":"levelo://app?vid=25e990d3-3250-4fb8-911a-c5ba95ede9f4","ios":"levelo://app?vid=25e990d3-3250-4fb8-911a-c5ba95ede9f4"},"vehicle_type_id":"4","last_reported":1719068803,"current_range_meters":0,"station_id":"ce4bh292rcd13ifvqdf0","pricing_plan_id":"cebpf4jnsgd1na2vs0mg"},{"bike_id":"1c6dd095-0442-4b3c-9130-ed516523b50c","system_id":"levelo_inurba_marseille","lat":43.289307,"lon":5.38406,"is_reserved":false,"is_disabled":false,"rental_uris":{"android":"levelo://app?vid=1c6dd095-0442-4b3c-9130-ed516523b50c","ios":"levelo://app?vid=1c6dd095-0442-4b3c-9130-ed516523b50c"},"vehicle_type_id":"4","last_reported":1719068803,"current_range_meters":4800,"station_id":"ce4bh612rcd13ifvqe6g","pricing_plan_id":"cebpf4jnsgd1na2vs0mg"},{"bike_id":"16e370cb-911c-4f9f-9e83-740625600c66","system_id":"levelo_inurba_marseille","lat":43.302759,"lon":5.400793,"is_reserved":false,"is_disabled":false,"rental_uris":{"android":"levelo://app?vid=16e370cb-911c-4f9f-9e83-740625600c66","ios":"levelo://app?vid=16e370cb-911c-4f9f-9e83-740625600c66"},"vehicle_type_id":"4","last_reported":1719068803,"current_range_meters":11600,"station_id":"ce4bgvh2rcd13ifvqcs0","pricing_plan_id":"cebpf4jnsgd1na2vs0mg"},{"bike_id":"d092b8dd-7be3-4005-a817-3270b8bca1df","system_id":"levelo_inurba_marseille","lat":43.289307,"lon":5.38406,"is_reserved":false,"is_disabled":false,"rental_uris":{"android":"levelo://app?vid=d092b8dd-7be3-4005-a817-3270b8bca1df","ios":"levelo://app?vid=d092b8dd-7be3-4005-a817-3270b8bca1df"},"vehicle_type_id":"4","last_reported":1719068803,"current_range_meters":18800,"station_id":"ce4bh612rcd13ifvqe6g","pricing_plan_id":"cebpf4jnsgd1na2vs0mg"},{"bike_id":"a80cb23b-d5c4-4005-a7de-97e519d5ba45","system_id":"levelo_inurba_marseille","lat":43.286039,"lon":5.370679,"is_reserved":false,"is_disabled":false,"rental_uris":{"android":"levelo://app?vid=a80cb23b-d5c4-4005-a7de-97e519d5ba45","ios":"levelo://app?vid=a80cb23b-d5c4-4005-a7de-97e519d5ba45"},"vehicle_type_id":"4","last_reported":1719068803,"current_range_meters":400,"station_id":"ce4bht12rcd13ifvqi60","pricing_plan_id":"cebpf4jnsgd1na2vs0mg"},{"bike_id":"611f08ee-0e5d-4faa-905a-7b09398afaf1","system_id":"levelo_inurba_marseille","lat":43.286039,"lon":5.370679,"is_reserved":false,"is_disabled":false,"rental_uris":{"android":"levelo://app?vid=611f08ee-0e5d-4faa-905a-7b09398afaf1","ios":"levelo://app?vid=611f08ee-0e5d-4faa-905a-7b09398afaf1"},"vehicle_type_id":"4","last_reported":1719068803,"current_range_meters":15600,"station_id":"ce4bht12rcd13ifvqi60","pricing_plan_id":"cebpf4jnsgd1na2vs0mg"},{"bike_id":"17425992-0c8b-4310-adbe-f43891df40ef","system_id":"levelo_inurba_marseille","lat":43.286039,"lon":5.370681,"is_reserved":false,"is_disabled":false,"rental_uris":{"android":"levelo://app?vid=17425992-0c8b-4310-adbe-f43891df40ef","ios":"levelo://app?vid=17425992-0c8b-4310-adbe-f43891df40ef"},"vehicle_type_id":"4","last_reported":1719068803,"current_range_meters":16000,"station_id":"ce4bht12rcd13ifvqi60","pricing_plan_id":"cebpf4jnsgd1na2vs0mg"},{"bike_id":"92b9e1f3-8dd2-4b3a-90cb-945bfe22be9b","system_id":"levelo_inurba_marseille","lat":43.286039,"lon":5.370679,"is_reserved":false,"is_disabled":false,"rental_uris":{"android":"levelo://app?vid=92b9e1f3-8dd2-4b3a-90cb-945bfe22be9b","ios":"levelo://app?vid=92b9e1f3-8dd2-4b3a-90cb-945bfe22be9b"},"vehicle_type_id":"4","last_reported":1719068803,"current_range_meters":4400,"station_id":"ce4bht12rcd13ifvqi60","pricing_plan_id":"cebpf4jnsgd1na2vs0mg"},{"bike_id":"f5353d43-5440-46d9-aa71-b952f7de9bed","system_id":"levelo_inurba_marseille","lat":43.286039,"lon":5.370681,"is_reserved":false,"is_disabled":false,"rental_uris":{"android":"levelo://app?vid=f5353d43-5440-46d9-aa71-b952f7de9bed","ios":"levelo://app?vid=f5353d43-5440-46d9-aa71-b952f7de9bed"},"vehicle_type_id":"4","last_reported":1719068803,"current_range_meters":17200,"station_id":"ce4bht12rcd13ifvqi60","pricing_plan_id":"cebpf4jnsgd1na2vs0mg"},{"bike_id":"67047250-8321-4261-b8de-8c095a8ce691","system_id":"levelo_inurba_marseille","lat":43.29387,"lon":5.39495,"is_reserved":false,"is_disabled":false,"rental_uris":{"android":"levelo://app?vid=67047250-8321-4261-b8de-8c095a8ce691","ios":"levelo://app?vid=67047250-8321-4261-b8de-8c095a8ce691"},"vehicle_type_id":"4","last_reported":1719068803,"current_range_meters":16000,"station_id":"","pricing_plan_id":"cebpf4jnsgd1na2vs0mg"},{"bike_id":"cbed28d8-d801-490c-b66e-fe980d0f5ff9","system_id":"levelo_inurba_marseille","lat":43.316821,"lon":5.404737,"is_reserved":false,"is_disabled":false,"rental_uris":{"android":"levelo://app?vid=cbed28d8-d801-490c-b66e-fe980d0f5ff9","ios":"levelo://app?vid=cbed28d8-d801-490c-b66e-fe980d0f5ff9"},"vehicle_type_id":"4","last_reported":1719068803,"current_range_meters":21600,"station_id":"ce4bh012rcd13ifvqd00","pricing_plan_id":"cebpf4jnsgd1na2vs0mg"},{"bike_id":"d6345e1b-099b-487e-81a4-9722a9a9888f","system_id":"levelo_inurba_marseille","lat":43.284534,"lon":5.358662,"is_reserved":false,"is_disabled":false,"rental_uris":{"android":"levelo://app?vid=d6345e1b-099b-487e-81a4-9722a9a9888f","ios":"levelo://app?vid=d6345e1b-099b-487e-81a4-9722a9a9888f"},"vehicle_type_id":"4","last_reported":1719068803,"current_range_meters":25200,"station_id":"ce4bhah2rcd13ifvqei0","pricing_plan_id":"cebpf4jnsgd1na2vs0mg"},{"bike_id":"540b6574-88c2-4732-805a-976799d8017e","system_id":"levelo_inurba_marseille","lat":43.294314,"lon":5.397498,"is_reserved":false,"is_disabled":false,"rental_uris":{"android":"levelo://app?vid=540b6574-88c2-4732-805a-976799d8017e","ios":"levelo://app?vid=540b6574-88c2-4732-805a-976799d8017e"},"vehicle_type_id":"4","last_reported":1719068803,"current_range_meters":19600,"station_id":"ce4bh3h2rcd13ifvqdo0","pricing_plan_id":"cebpf4jnsgd1na2vs0mg"},{"bike_id":"83fb5dbc-4efc-4bbd-b3c7-cef72e9db304","system_id":"levelo_inurba_marseille","lat":43.294314,"lon":5.397498,"is_reserved":false,"is_disabled":false,"rental_uris":{"android":"levelo://app?vid=83fb5dbc-4efc-4bbd-b3c7-cef72e9db304","ios":"levelo://app?vid=83fb5dbc-4efc-4bbd-b3c7-cef72e9db304"},"vehicle_type_id":"4","last_reported":1719068803,"current_range_meters":13200,"station_id":"ce4bh3h2rcd13ifvqdo0","pricing_plan_id":"cebpf4jnsgd1na2vs0mg"},{"bike_id":"f37748b0-3970-46f0-a437-0940e517f069","system_id":"levelo_inurba_marseille","lat":43.28617,"lon":5.35104,"is_reserved":false,"is_disabled":false,"rental_uris":{"android":"levelo://app?vid=f37748b0-3970-46f0-a437-0940e517f069","ios":"levelo://app?vid=f37748b0-3970-46f0-a437-0940e517f069"},"vehicle_type_id":"4","last_reported":1719068803,"current_range_meters":0,"station_id":"ce4bhch2rcd13ifvqeug","pricing_plan_id":"cebpf4jnsgd1na2vs0mg"},{"bike_id":"33c616c6-bf42-4b30-9f2b-006581c66061","system_id":"levelo_inurba_marseille","lat":43.285856,"lon":5.350771,"is_reserved":false,"is_disabled":false,"rental_uris":{"android":"levelo://app?vid=33c616c6-bf42-4b30-9f2b-006581c66061","ios":"levelo://app?vid=33c616c6-bf42-4b30-9f2b-006581c66061"},"vehicle_type_id":"4","last_reported":1719068803,"current_range_meters":4800,"station_id":"ce4bhch2rcd13ifvqeug","pricing_plan_id":"cebpf4jnsgd1na2vs0mg"},{"bike_id":"334a7833-a507-4beb-8135-263443ad0f33","system_id":"levelo_inurba_marseille","lat":43.285856,"lon":5.350771,"is_reserved":false,"is_disabled":false,"rental_uris":{"android":"levelo://app?vid=334a7833-a507-4beb-8135-263443ad0f33","ios":"levelo://app?vid=334a7833-a507-4beb-8135-263443ad0f33"},"vehicle_type_id":"4","last_reported":1719068803,"current_range_meters":10800,"station_id":"ce4bhch2rcd13ifvqeug","pricing_plan_id":"cebpf4jnsgd1na2vs0mg"},{"bike_id":"7e869aff-3b22-4789-b888-b9690ad63dcb","system_id":"levelo_inurba_marseille","lat":43.254945,"lon":5.376454,"is_reserved":false,"is_disabled":false,"rental_uris":{"android":"levelo://app?vid=7e869aff-3b22-4789-b888-b9690ad63dcb","ios":"levelo://app?vid=7e869aff-3b22-4789-b888-b9690ad63dcb"},"vehicle_type_id":"4","last_reported":1719068803,"current_range_meters":24800,"station_id":"ce4bhh12rcd13ifvqff0","pricing_plan_id":"cebpf4jnsgd1na2vs0mg"},{"bike_id":"960b8887-e982-44fa-a020-f95910be93de","system_id":"levelo_inurba_marseille","lat":43.283998,"lon":5.375062,"is_reserved":false,"is_disabled":false,"rental_uris":{"android":"levelo://app?vid=960b8887-e982-44fa-a020-f95910be93de","ios":"levelo://app?vid=960b8887-e982-44fa-a020-f95910be93de"},"vehicle_type_id":"4","last_reported":1719068803,"current_range_meters":21200,"station_id":"ce4bh412rcd13ifvqds0","pricing_plan_id":"cebpf4jnsgd1na2vs0mg"},{"bike_id":"77fcda79-bbf8-4591-8ce3-d10cb735d55c","system_id":"levelo_inurba_marseille","lat":43.283998,"lon":5.375062,"is_reserved":false,"is_disabled":false,"rental_uris":{"android":"levelo://app?vid=77fcda79-bbf8-4591-8ce3-d10cb735d55c","ios":"levelo://app?vid=77fcda79-bbf8-4591-8ce3-d10cb735d55c"},"vehicle_type_id":"4","last_reported":1719068803,"current_range_meters":21200,"station_id":"ce4bh412rcd13ifvqds0","pricing_plan_id":"cebpf4jnsgd1na2vs0mg"},{"bike_id":"ade75875-51a7-425c-8c10-22f1932b5689","system_id":"levelo_inurba_marseille","lat":43.295713,"lon":5.399639,"is_reserved":false,"is_disabled":false,"rental_uris":{"android":"levelo://app?vid=ade75875-51a7-425c-8c10-22f1932b5689","ios":"levelo://app?vid=ade75875-51a7-425c-8c10-22f1932b5689"},"vehicle_type_id":"4","last_reported":1719068803,"current_range_meters":21200,"station_id":"ce4bh312rcd13ifvqdj0","pricing_plan_id":"cebpf4jnsgd1na2vs0mg"},{"bike_id":"41746d02-c0d4-40ed-b5e9-be9347a483c2","system_id":"levelo_inurba_marseille","lat":43.295713,"lon":5.399639,"is_reserved":false,"is_disabled":false,"rental_uris":{"android":"levelo://app?vid=41746d02-c0d4-40ed-b5e9-be9347a483c2","ios":"levelo://app?vid=41746d02-c0d4-40ed-b5e9-be9347a483c2"},"vehicle_type_id":"4","last_reported":1719068803,"current_range_meters":12800,"station_id":"ce4bh312rcd13ifvqdj0","pricing_plan_id":"cebpf4jnsgd1na2vs0mg"},{"bike_id":"ef3745d8-f4cb-417e-9e42-323a12c5ac63","system_id":"levelo_inurba_marseille","lat":43.283998,"lon":5.375062,"is_reserved":false,"is_disabled":false,"rental_uris":{"android":"levelo://app?vid=ef3745d8-f4cb-417e-9e42-323a12c5ac63","ios":"levelo://app?vid=ef3745d8-f4cb-417e-9e42-323a12c5ac63"},"vehicle_type_id":"4","last_reported":1719068803,"current_range_meters":6800,"station_id":"ce4bh412rcd13ifvqds0","pricing_plan_id":"cebpf4jnsgd1na2vs0mg"},{"bike_id":"96e96dcb-9e16-4287-831f-a786fbe446ab","system_id":"levelo_inurba_marseille","lat":43.319179,"lon":5.407725,"is_reserved":false,"is_disabled":false,"rental_uris":{"android":"levelo://app?vid=96e96dcb-9e16-4287-831f-a786fbe446ab","ios":"levelo://app?vid=96e96dcb-9e16-4287-831f-a786fbe446ab"},"vehicle_type_id":"4","last_reported":1719068803,"current_range_meters":31600,"station_id":"ce4bhq12rcd13ifvqhig","pricing_plan_id":"cebpf4jnsgd1na2vs0mg"},{"bike_id":"171673ad-adf4-483b-952f-474785c3a4a1","system_id":"levelo_inurba_marseille","lat":43.319179,"lon":5.407725,"is_reserved":false,"is_disabled":false,"rental_uris":{"android":"levelo://app?vid=171673ad-adf4-483b-952f-474785c3a4a1","ios":"levelo://app?vid=171673ad-adf4-483b-952f-474785c3a4a1"},"vehicle_type_id":"4","last_reported":1719068803,"current_range_meters":400,"station_id":"ce4bhq12rcd13ifvqhig","pricing_plan_id":"cebpf4jnsgd1na2vs0mg"},{"bike_id":"74fc61ce-9515-44c8-bbf1-51260f80e692","system_id":"levelo_inurba_marseille","lat":43.33716,"lon":5.39187,"is_reserved":false,"is_disabled":false,"rental_uris":{"android":"levelo://app?vid=74fc61ce-9515-44c8-bbf1-51260f80e692","ios":"levelo://app?vid=74fc61ce-9515-44c8-bbf1-51260f80e692"},"vehicle_type_id":"4","last_reported":1719068803,"current_range_meters":12400,"station_id":"ce4bhr92rcd13ifvqhsg","pricing_plan_id":"cebpf4jnsgd1na2vs0mg"},{"bike_id":"a3bf49b6-b621-429b-b232-dd130cc03585","system_id":"levelo_inurba_marseille","lat":43.33717,"lon":5.391857,"is_reserved":false,"is_disabled":false,"rental_uris":{"android":"levelo://app?vid=a3bf49b6-b621-429b-b232-dd130cc03585","ios":"levelo://app?vid=a3bf49b6-b621-429b-b232-dd130cc03585"},"vehicle_type_id":"4","last_reported":1719068803,"current_range_meters":800,"station_id":"ce4bhr92rcd13ifvqhsg","pricing_plan_id":"cebpf4jnsgd1na2vs0mg"},{"bike_id":"3720418d-da95-43ab-883e-5ec4534758a0","system_id":"levelo_inurba_marseille","lat":43.337242,"lon":5.391802,"is_reserved":false,"is_disabled":false,"rental_uris":{"android":"levelo://app?vid=3720418d-da95-43ab-883e-5ec4534758a0","ios":"levelo://app?vid=3720418d-da95-43ab-883e-5ec4534758a0"},"vehicle_type_id":"4","last_reported":1719068803,"current_range_meters":12400,"station_id":"ce4bhr92rcd13ifvqhsg","pricing_plan_id":"cebpf4jnsgd1na2vs0mg"},{"bike_id":"edf69753-5019-4855-9368-d56c882ea8b2","system_id":"levelo_inurba_marseille","lat":43.323464,"lon":5.406297,"is_reserved":false,"is_disabled":false,"rental_uris":{"android":"levelo://app?vid=edf69753-5019-4855-9368-d56c882ea8b2","ios":"levelo://app?vid=edf69753-5019-4855-9368-d56c882ea8b2"},"vehicle_type_id":"4","last_reported":1719068803,"current_range_meters":15200,"station_id":"ce4bhq92rcd13ifvqhjg","pricing_plan_id":"cebpf4jnsgd1na2vs0mg"},{"bike_id":"2ecf1e62-f1e5-4899-b0aa-769c8a548b4f","system_id":"levelo_inurba_marseille","lat":43.323464,"lon":5.406297,"is_reserved":false,"is_disabled":false,"rental_uris":{"android":"levelo://app?vid=2ecf1e62-f1e5-4899-b0aa-769c8a548b4f","ios":"levelo://app?vid=2ecf1e62-f1e5-4899-b0aa-769c8a548b4f"},"vehicle_type_id":"4","last_reported":1719068803,"current_range_meters":4800,"station_id":"ce4bhq92rcd13ifvqhjg","pricing_plan_id":"cebpf4jnsgd1na2vs0mg"},{"bike_id":"1cf5d8c1-dcb0-4051-b77e-fa530fee554a","system_id":"levelo_inurba_marseille","lat":43.323464,"lon":5.406297,"is_reserved":false,"is_disabled":false,"rental_uris":{"android":"levelo://app?vid=1cf5d8c1-dcb0-4051-b77e-fa530fee554a","ios":"levelo://app?vid=1cf5d8c1-dcb0-4051-b77e-fa530fee554a"},"vehicle_type_id":"4","last_reported":1719068803,"current_range_meters":20800,"station_id":"ce4bhq92rcd13ifvqhjg","pricing_plan_id":"cebpf4jnsgd1na2vs0mg"},{"bike_id":"d8b17d29-8b4b-4a6a-bada-b477a750ca64","system_id":"levelo_inurba_marseille","lat":43.33717,"lon":5.391857,"is_reserved":false,"is_disabled":false,"rental_uris":{"android":"levelo://app?vid=d8b17d29-8b4b-4a6a-bada-b477a750ca64","ios":"levelo://app?vid=d8b17d29-8b4b-4a6a-bada-b477a750ca64"},"vehicle_type_id":"4","last_reported":1719068803,"current_range_meters":15200,"station_id":"ce4bhr92rcd13ifvqhsg","pricing_plan_id":"cebpf4jnsgd1na2vs0mg"},{"bike_id":"57dec321-182a-428a-a6ce-8fe4da20ec1d","system_id":"levelo_inurba_marseille","lat":43.297946,"lon":5.404063,"is_reserved":false,"is_disabled":false,"rental_uris":{"android":"levelo://app?vid=57dec321-182a-428a-a6ce-8fe4da20ec1d","ios":"levelo://app?vid=57dec321-182a-428a-a6ce-8fe4da20ec1d"},"vehicle_type_id":"4","last_reported":1719068803,"current_range_meters":14800,"station_id":"ce4bh112rcd13ifvqd90","pricing_plan_id":"cebpf4jnsgd1na2vs0mg"},{"bike_id":"a86a3cac-fb6c-4a08-b8eb-1d229bf2d304","system_id":"levelo_inurba_marseille","lat":43.288567,"lon":5.393304,"is_reserved":false,"is_disabled":false,"rental_uris":{"android":"levelo://app?vid=a86a3cac-fb6c-4a08-b8eb-1d229bf2d304","ios":"levelo://app?vid=a86a3cac-fb6c-4a08-b8eb-1d229bf2d304"},"vehicle_type_id":"4","last_reported":1719068803,"current_range_meters":0,"station_id":"ce4bh2p2rcd13ifvqdi0","pricing_plan_id":"cebpf4jnsgd1na2vs0mg"},{"bike_id":"3b1d243d-2e06-41cb-8827-e9bc20376b36","system_id":"levelo_inurba_marseille","lat":43.284793,"lon":5.384119,"is_reserved":false,"is_disabled":false,"rental_uris":{"android":"levelo://app?vid=3b1d243d-2e06-41cb-8827-e9bc20376b36","ios":"levelo://app?vid=3b1d243d-2e06-41cb-8827-e9bc20376b36"},"vehicle_type_id":"4","last_reported":1719068803,"current_range_meters":4800,"station_id":"ce4bh512rcd13ifvqe3g","pricing_plan_id":"cebpf4jnsgd1na2vs0mg"},{"bike_id":"ebd01647-4578-409a-83c8-fb943fbbef1f","system_id":"levelo_inurba_marseille","lat":43.284776,"lon":5.385603,"is_reserved":false,"is_disabled":false,"rental_uris":{"android":"levelo://app?vid=ebd01647-4578-409a-83c8-fb943fbbef1f","ios":"levelo://app?vid=ebd01647-4578-409a-83c8-fb943fbbef1f"},"vehicle_type_id":"4","last_reported":1719068803,"current_range_meters":0,"station_id":"ce4bh8p2rcd13ifvqeb0","pricing_plan_id":"cebpf4jnsgd1na2vs0mg"},{"bike_id":"81a70136-57c4-49c5-9fa1-1b583d3d813c","system_id":"levelo_inurba_marseille","lat":43.284776,"lon":5.385603,"is_reserved":false,"is_disabled":false,"rental_uris":{"android":"levelo://app?vid=81a70136-57c4-49c5-9fa1-1b583d3d813c","ios":"levelo://app?vid=81a70136-57c4-49c5-9fa1-1b583d3d813c"},"vehicle_type_id":"4","last_reported":1719068803,"current_range_meters":4800,"station_id":"ce4bh8p2rcd13ifvqeb0","pricing_plan_id":"cebpf4jnsgd1na2vs0mg"},{"bike_id":"35609a37-a38a-4a91-9f91-96cd104e50ce","system_id":"levelo_inurba_marseille","lat":43.284566,"lon":5.38479,"is_reserved":false,"is_disabled":false,"rental_uris":{"android":"levelo://app?vid=35609a37-a38a-4a91-9f91-96cd104e50ce","ios":"levelo://app?vid=35609a37-a38a-4a91-9f91-96cd104e50ce"},"vehicle_type_id":"4","last_reported":1719068803,"current_range_meters":26400,"station_id":"","pricing_plan_id":"cebpf4jnsgd1na2vs0mg"},{"bike_id":"36da940f-fb48-4ec1-b0f7-67c753e300af","system_id":"levelo_inurba_marseille","lat":43.284219,"lon":5.3497,"is_reserved":false,"is_disabled":false,"rental_uris":{"android":"levelo://app?vid=36da940f-fb48-4ec1-b0f7-67c753e300af","ios":"levelo://app?vid=36da940f-fb48-4ec1-b0f7-67c753e300af"},"vehicle_type_id":"4","last_reported":1719068803,"current_range_meters":31200,"station_id":"ce4bhbh2rcd13ifvqepg","pricing_plan_id":"cebpf4jnsgd1na2vs0mg"},{"bike_id":"12920d73-eca5-4bab-8862-2c42991df6eb","system_id":"levelo_inurba_marseille","lat":43.28422,"lon":5.34992,"is_reserved":false,"is_disabled":false,"rental_uris":{"android":"levelo://app?vid=12920d73-eca5-4bab-8862-2c42991df6eb","ios":"levelo://app?vid=12920d73-eca5-4bab-8862-2c42991df6eb"},"vehicle_type_id":"4","last_reported":1719068803,"current_range_meters":30800,"station_id":"ce4bhbh2rcd13ifvqepg","pricing_plan_id":"cebpf4jnsgd1na2vs0mg"},{"bike_id":"95ff9aa4-2f47-4cdf-9c4e-8d6cb721a644","system_id":"levelo_inurba_marseille","lat":43.28423,"lon":5.34986,"is_reserved":false,"is_disabled":false,"rental_uris":{"android":"levelo://app?vid=95ff9aa4-2f47-4cdf-9c4e-8d6cb721a644","ios":"levelo://app?vid=95ff9aa4-2f47-4cdf-9c4e-8d6cb721a644"},"vehicle_type_id":"4","last_reported":1719068803,"current_range_meters":31200,"station_id":"ce4bhbh2rcd13ifvqepg","pricing_plan_id":"cebpf4jnsgd1na2vs0mg"},{"bike_id":"edabd08b-0878-4151-969b-869a0968a9ee","system_id":"levelo_inurba_marseille","lat":43.284214,"lon":5.349706,"is_reserved":false,"is_disabled":false,"rental_uris":{"android":"levelo://app?vid=edabd08b-0878-4151-969b-869a0968a9ee","ios":"levelo://app?vid=edabd08b-0878-4151-969b-869a0968a9ee"},"vehicle_type_id":"4","last_reported":1719068803,"current_range_meters":12800,"station_id":"ce4bhbh2rcd13ifvqepg","pricing_plan_id":"cebpf4jnsgd1na2vs0mg"},{"bike_id":"4abbdbe7-fd60-45d4-ba9a-fb8ae538526f","system_id":"levelo_inurba_marseille","lat":43.284217,"lon":5.349697,"is_reserved":false,"is_disabled":false,"rental_uris":{"android":"levelo://app?vid=4abbdbe7-fd60-45d4-ba9a-fb8ae538526f","ios":"levelo://app?vid=4abbdbe7-fd60-45d4-ba9a-fb8ae538526f"},"vehicle_type_id":"4","last_reported":1719068803,"current_range_meters":0,"station_id":"ce4bhbh2rcd13ifvqepg","pricing_plan_id":"cebpf4jnsgd1na2vs0mg"},{"bike_id":"10b7c1df-3464-4a92-9821-09b9680d96bb","system_id":"levelo_inurba_marseille","lat":43.28421,"lon":5.34985,"is_reserved":false,"is_disabled":false,"rental_uris":{"android":"levelo://app?vid=10b7c1df-3464-4a92-9821-09b9680d96bb","ios":"levelo://app?vid=10b7c1df-3464-4a92-9821-09b9680d96bb"},"vehicle_type_id":"4","last_reported":1719068803,"current_range_meters":29200,"station_id":"ce4bhbh2rcd13ifvqepg","pricing_plan_id":"cebpf4jnsgd1na2vs0mg"},{"bike_id":"138582a4-5b51-405e-8998-6ddaf705d26e","system_id":"levelo_inurba_marseille","lat":43.284219,"lon":5.3497,"is_reserved":false,"is_disabled":false,"rental_uris":{"android":"levelo://app?vid=138582a4-5b51-405e-8998-6ddaf705d26e","ios":"levelo://app?vid=138582a4-5b51-405e-8998-6ddaf705d26e"},"vehicle_type_id":"4","last_reported":1719068803,"current_range_meters":10000,"station_id":"ce4bhbh2rcd13ifvqepg","pricing_plan_id":"cebpf4jnsgd1na2vs0mg"},{"bike_id":"b82c05ff-c9f1-44eb-b55a-b191abf53ddf","system_id":"levelo_inurba_marseille","lat":43.28419,"lon":5.349876,"is_reserved":false,"is_disabled":false,"rental_uris":{"android":"levelo://app?vid=b82c05ff-c9f1-44eb-b55a-b191abf53ddf","ios":"levelo://app?vid=b82c05ff-c9f1-44eb-b55a-b191abf53ddf"},"vehicle_type_id":"4","last_reported":1719068803,"current_range_meters":23600,"station_id":"ce4bhbh2rcd13ifvqepg","pricing_plan_id":"cebpf4jnsgd1na2vs0mg"},{"bike_id":"5563069c-a0e3-4e44-b078-74ee8d0135e5","system_id":"levelo_inurba_marseille","lat":43.284776,"lon":5.385603,"is_reserved":false,"is_disabled":false,"rental_uris":{"android":"levelo://app?vid=5563069c-a0e3-4e44-b078-74ee8d0135e5","ios":"levelo://app?vid=5563069c-a0e3-4e44-b078-74ee8d0135e5"},"vehicle_type_id":"4","last_reported":1719068803,"current_range_meters":4000,"station_id":"ce4bh8p2rcd13ifvqeb0","pricing_plan_id":"cebpf4jnsgd1na2vs0mg"},{"bike_id":"4bab2c7b-9020-40f9-a78b-ec964503fedb","system_id":"levelo_inurba_marseille","lat":43.28417,"lon":5.34988,"is_reserved":false,"is_disabled":false,"rental_uris":{"android":"levelo://app?vid=4bab2c7b-9020-40f9-a78b-ec964503fedb","ios":"levelo://app?vid=4bab2c7b-9020-40f9-a78b-ec964503fedb"},"vehicle_type_id":"4","last_reported":1719068803,"current_range_meters":28400,"station_id":"ce4bhbh2rcd13ifvqepg","pricing_plan_id":"cebpf4jnsgd1na2vs0mg"},{"bike_id":"f216af90-fe71-418b-ae7e-2dd66515b32e","system_id":"levelo_inurba_marseille","lat":43.284158,"lon":5.349897,"is_reserved":false,"is_disabled":false,"rental_uris":{"android":"levelo://app?vid=f216af90-fe71-418b-ae7e-2dd66515b32e","ios":"levelo://app?vid=f216af90-fe71-418b-ae7e-2dd66515b32e"},"vehicle_type_id":"4","last_reported":1719068803,"current_range_meters":23600,"station_id":"ce4bhbh2rcd13ifvqepg","pricing_plan_id":"cebpf4jnsgd1na2vs0mg"},{"bike_id":"8c2e4777-1286-4e7d-bca1-673d1c9c4d97","system_id":"levelo_inurba_marseille","lat":43.28415,"lon":5.34985,"is_reserved":false,"is_disabled":false,"rental_uris":{"android":"levelo://app?vid=8c2e4777-1286-4e7d-bca1-673d1c9c4d97","ios":"levelo://app?vid=8c2e4777-1286-4e7d-bca1-673d1c9c4d97"},"vehicle_type_id":"4","last_reported":1719068803,"current_range_meters":16400,"station_id":"ce4bhbh2rcd13ifvqepg","pricing_plan_id":"cebpf4jnsgd1na2vs0mg"},{"bike_id":"93fb68f9-7533-4e13-a6c7-6a316f8f8413","system_id":"levelo_inurba_marseille","lat":43.28418,"lon":5.34974,"is_reserved":false,"is_disabled":false,"rental_uris":{"android":"levelo://app?vid=93fb68f9-7533-4e13-a6c7-6a316f8f8413","ios":"levelo://app?vid=93fb68f9-7533-4e13-a6c7-6a316f8f8413"},"vehicle_type_id":"4","last_reported":1719068803,"current_range_meters":29600,"station_id":"ce4bhbh2rcd13ifvqepg","pricing_plan_id":"cebpf4jnsgd1na2vs0mg"},{"bike_id":"ba7fe97c-c1f2-4fc0-ae85-eb510d970a28","system_id":"levelo_inurba_marseille","lat":43.28415,"lon":5.34977,"is_reserved":false,"is_disabled":false,"rental_uris":{"android":"levelo://app?vid=ba7fe97c-c1f2-4fc0-ae85-eb510d970a28","ios":"levelo://app?vid=ba7fe97c-c1f2-4fc0-ae85-eb510d970a28"},"vehicle_type_id":"4","last_reported":1719068803,"current_range_meters":13200,"station_id":"ce4bhbh2rcd13ifvqepg","pricing_plan_id":"cebpf4jnsgd1na2vs0mg"},{"bike_id":"b94213c5-09d6-40dc-a7d4-bcf06648da8a","system_id":"levelo_inurba_marseille","lat":43.28414,"lon":5.34979,"is_reserved":false,"is_disabled":false,"rental_uris":{"android":"levelo://app?vid=b94213c5-09d6-40dc-a7d4-bcf06648da8a","ios":"levelo://app?vid=b94213c5-09d6-40dc-a7d4-bcf06648da8a"},"vehicle_type_id":"4","last_reported":1719068803,"current_range_meters":30800,"station_id":"ce4bhbh2rcd13ifvqepg","pricing_plan_id":"cebpf4jnsgd1na2vs0mg"},{"bike_id":"e073dd98-8675-44d7-b343-68382a0c5d7b","system_id":"levelo_inurba_marseille","lat":43.28416,"lon":5.34972,"is_reserved":false,"is_disabled":false,"rental_uris":{"android":"levelo://app?vid=e073dd98-8675-44d7-b343-68382a0c5d7b","ios":"levelo://app?vid=e073dd98-8675-44d7-b343-68382a0c5d7b"},"vehicle_type_id":"4","last_reported":1719068803,"current_range_meters":31200,"station_id":"ce4bhbh2rcd13ifvqepg","pricing_plan_id":"cebpf4jnsgd1na2vs0mg"},{"bike_id":"e62b05bc-e50d-494f-b7c0-b58e57bc9645","system_id":"levelo_inurba_marseille","lat":43.28408,"lon":5.3498,"is_reserved":false,"is_disabled":false,"rental_uris":{"android":"levelo://app?vid=e62b05bc-e50d-494f-b7c0-b58e57bc9645","ios":"levelo://app?vid=e62b05bc-e50d-494f-b7c0-b58e57bc9645"},"vehicle_type_id":"4","last_reported":1719068803,"current_range_meters":30400,"station_id":"ce4bhbh2rcd13ifvqepg","pricing_plan_id":"cebpf4jnsgd1na2vs0mg"},{"bike_id":"a2e66de3-df6a-449f-9089-588acb7aa7d6","system_id":"levelo_inurba_marseille","lat":43.284214,"lon":5.349706,"is_reserved":false,"is_disabled":false,"rental_uris":{"android":"levelo://app?vid=a2e66de3-df6a-449f-9089-588acb7aa7d6","ios":"levelo://app?vid=a2e66de3-df6a-449f-9089-588acb7aa7d6"},"vehicle_type_id":"4","last_reported":1719068803,"current_range_meters":28400,"station_id":"ce4bhbh2rcd13ifvqepg","pricing_plan_id":"cebpf4jnsgd1na2vs0mg"},{"bike_id":"c4863644-6fe6-4a0c-a50f-a261a340db86","system_id":"levelo_inurba_marseille","lat":43.28405,"lon":5.34976,"is_reserved":false,"is_disabled":false,"rental_uris":{"android":"levelo://app?vid=c4863644-6fe6-4a0c-a50f-a261a340db86","ios":"levelo://app?vid=c4863644-6fe6-4a0c-a50f-a261a340db86"},"vehicle_type_id":"4","last_reported":1719068803,"current_range_meters":29200,"station_id":"ce4bhbh2rcd13ifvqepg","pricing_plan_id":"cebpf4jnsgd1na2vs0mg"},{"bike_id":"82dff771-79b0-43de-b7cb-0b8b1f8b71fe","system_id":"levelo_inurba_marseille","lat":43.292724,"lon":5.401131,"is_reserved":false,"is_disabled":false,"rental_uris":{"android":"levelo://app?vid=82dff771-79b0-43de-b7cb-0b8b1f8b71fe","ios":"levelo://app?vid=82dff771-79b0-43de-b7cb-0b8b1f8b71fe"},"vehicle_type_id":"4","last_reported":1719068803,"current_range_meters":10800,"station_id":"ce4bh312rcd13ifvqdk0","pricing_plan_id":"cebpf4jnsgd1na2vs0mg"},{"bike_id":"a1f06911-e0d0-45ad-94f5-268e663530db","system_id":"levelo_inurba_marseille","lat":43.282754,"lon":5.350519,"is_reserved":false,"is_disabled":false,"rental_uris":{"android":"levelo://app?vid=a1f06911-e0d0-45ad-94f5-268e663530db","ios":"levelo://app?vid=a1f06911-e0d0-45ad-94f5-268e663530db"},"vehicle_type_id":"4","last_reported":1719068803,"current_range_meters":24800,"station_id":"ce4bhbp2rcd13ifvqerg","pricing_plan_id":"cebpf4jnsgd1na2vs0mg"},{"bike_id":"9651548c-8faa-43d5-9f2b-823108495a23","system_id":"levelo_inurba_marseille","lat":43.282754,"lon":5.350519,"is_reserved":false,"is_disabled":false,"rental_uris":{"android":"levelo://app?vid=9651548c-8faa-43d5-9f2b-823108495a23","ios":"levelo://app?vid=9651548c-8faa-43d5-9f2b-823108495a23"},"vehicle_type_id":"4","last_reported":1719068803,"current_range_meters":23200,"station_id":"ce4bhbp2rcd13ifvqerg","pricing_plan_id":"cebpf4jnsgd1na2vs0mg"},{"bike_id":"669f2d8b-afe3-4b4f-9aa0-bbe20795e013","system_id":"levelo_inurba_marseille","lat":43.282754,"lon":5.350519,"is_reserved":false,"is_disabled":false,"rental_uris":{"android":"levelo://app?vid=669f2d8b-afe3-4b4f-9aa0-bbe20795e013","ios":"levelo://app?vid=669f2d8b-afe3-4b4f-9aa0-bbe20795e013"},"vehicle_type_id":"4","last_reported":1719068803,"current_range_meters":20800,"station_id":"ce4bhbp2rcd13ifvqerg","pricing_plan_id":"cebpf4jnsgd1na2vs0mg"},{"bike_id":"107ad678-83a4-454e-b702-f2bfd348dd76","system_id":"levelo_inurba_marseille","lat":43.282754,"lon":5.350519,"is_reserved":false,"is_disabled":false,"rental_uris":{"android":"levelo://app?vid=107ad678-83a4-454e-b702-f2bfd348dd76","ios":"levelo://app?vid=107ad678-83a4-454e-b702-f2bfd348dd76"},"vehicle_type_id":"4","last_reported":1719068803,"current_range_meters":31600,"station_id":"ce4bhbp2rcd13ifvqerg","pricing_plan_id":"cebpf4jnsgd1na2vs0mg"},{"bike_id":"96ee3292-65ea-4c87-87f9-a002e5b74882","system_id":"levelo_inurba_marseille","lat":43.28267,"lon":5.3508,"is_reserved":false,"is_disabled":false,"rental_uris":{"android":"levelo://app?vid=96ee3292-65ea-4c87-87f9-a002e5b74882","ios":"levelo://app?vid=96ee3292-65ea-4c87-87f9-a002e5b74882"},"vehicle_type_id":"4","last_reported":1719068803,"current_range_meters":30800,"station_id":"ce4bhbp2rcd13ifvqerg","pricing_plan_id":"cebpf4jnsgd1na2vs0mg"},{"bike_id":"5328c780-6190-4fcc-b5fa-d1bc16904448","system_id":"levelo_inurba_marseille","lat":43.28268,"lon":5.35073,"is_reserved":false,"is_disabled":false,"rental_uris":{"android":"levelo://app?vid=5328c780-6190-4fcc-b5fa-d1bc16904448","ios":"levelo://app?vid=5328c780-6190-4fcc-b5fa-d1bc16904448"},"vehicle_type_id":"4","last_reported":1719068803,"current_range_meters":30000,"station_id":"ce4bhbp2rcd13ifvqerg","pricing_plan_id":"cebpf4jnsgd1na2vs0mg"},{"bike_id":"eaff2020-fb3f-42ba-9787-7c3043df5415","system_id":"levelo_inurba_marseille","lat":43.28267,"lon":5.35076,"is_reserved":false,"is_disabled":false,"rental_uris":{"android":"levelo://app?vid=eaff2020-fb3f-42ba-9787-7c3043df5415","ios":"levelo://app?vid=eaff2020-fb3f-42ba-9787-7c3043df5415"},"vehicle_type_id":"4","last_reported":1719068803,"current_range_meters":24400,"station_id":"ce4bhbp2rcd13ifvqerg","pricing_plan_id":"cebpf4jnsgd1na2vs0mg"},{"bike_id":"23c6b247-7cbd-4f7d-ba20-417a28d5e38f","system_id":"levelo_inurba_marseille","lat":43.28269,"lon":5.350689,"is_reserved":false,"is_disabled":false,"rental_uris":{"android":"levelo://app?vid=23c6b247-7cbd-4f7d-ba20-417a28d5e38f","ios":"levelo://app?vid=23c6b247-7cbd-4f7d-ba20-417a28d5e38f"},"vehicle_type_id":"4","last_reported":1719068803,"current_range_meters":22000,"station_id":"ce4bhbp2rcd13ifvqerg","pricing_plan_id":"cebpf4jnsgd1na2vs0mg"},{"bike_id":"d86ca7a6-73d1-4a09-9a44-7b78c5307cc5","system_id":"levelo_inurba_marseille","lat":43.282754,"lon":5.350519,"is_reserved":false,"is_disabled":false,"rental_uris":{"android":"levelo://app?vid=d86ca7a6-73d1-4a09-9a44-7b78c5307cc5","ios":"levelo://app?vid=d86ca7a6-73d1-4a09-9a44-7b78c5307cc5"},"vehicle_type_id":"4","last_reported":1719068803,"current_range_meters":12400,"station_id":"ce4bhbp2rcd13ifvqerg","pricing_plan_id":"cebpf4jnsgd1na2vs0mg"},{"bike_id":"a2e2b31c-7e84-4d96-b892-3e7a44bc02ea","system_id":"levelo_inurba_marseille","lat":43.28269,"lon":5.35064,"is_reserved":false,"is_disabled":false,"rental_uris":{"android":"levelo://app?vid=a2e2b31c-7e84-4d96-b892-3e7a44bc02ea","ios":"levelo://app?vid=a2e2b31c-7e84-4d96-b892-3e7a44bc02ea"},"vehicle_type_id":"4","last_reported":1719068803,"current_range_meters":31200,"station_id":"ce4bhbp2rcd13ifvqerg","pricing_plan_id":"cebpf4jnsgd1na2vs0mg"},{"bike_id":"c4885ef7-ee17-484d-9f7f-25b80a662802","system_id":"levelo_inurba_marseille","lat":43.28268,"lon":5.35067,"is_reserved":false,"is_disabled":false,"rental_uris":{"android":"levelo://app?vid=c4885ef7-ee17-484d-9f7f-25b80a662802","ios":"levelo://app?vid=c4885ef7-ee17-484d-9f7f-25b80a662802"},"vehicle_type_id":"4","last_reported":1719068803,"current_range_meters":31200,"station_id":"ce4bhbp2rcd13ifvqerg","pricing_plan_id":"cebpf4jnsgd1na2vs0mg"},{"bike_id":"8cfdf3e0-0f6c-44e8-b8ab-c88afac2dd9b","system_id":"levelo_inurba_marseille","lat":43.282647,"lon":5.350768,"is_reserved":false,"is_disabled":false,"rental_uris":{"android":"levelo://app?vid=8cfdf3e0-0f6c-44e8-b8ab-c88afac2dd9b","ios":"levelo://app?vid=8cfdf3e0-0f6c-44e8-b8ab-c88afac2dd9b"},"vehicle_type_id":"4","last_reported":1719068803,"current_range_meters":8400,"station_id":"ce4bhbp2rcd13ifvqerg","pricing_plan_id":"cebpf4jnsgd1na2vs0mg"},{"bike_id":"ae43b532-1ad0-44b2-bc03-443e2e10a9d1","system_id":"levelo_inurba_marseille","lat":43.2827,"lon":5.35055,"is_reserved":false,"is_disabled":false,"rental_uris":{"android":"levelo://app?vid=ae43b532-1ad0-44b2-bc03-443e2e10a9d1","ios":"levelo://app?vid=ae43b532-1ad0-44b2-bc03-443e2e10a9d1"},"vehicle_type_id":"4","last_reported":1719068803,"current_range_meters":23600,"station_id":"ce4bhbp2rcd13ifvqerg","pricing_plan_id":"cebpf4jnsgd1na2vs0mg"},{"bike_id":"fb44277d-27d3-4298-95ca-53ae2073c906","system_id":"levelo_inurba_marseille","lat":43.282633,"lon":5.350754,"is_reserved":false,"is_disabled":false,"rental_uris":{"android":"levelo://app?vid=fb44277d-27d3-4298-95ca-53ae2073c906","ios":"levelo://app?vid=fb44277d-27d3-4298-95ca-53ae2073c906"},"vehicle_type_id":"4","last_reported":1719068803,"current_range_meters":18400,"station_id":"ce4bhbp2rcd13ifvqerg","pricing_plan_id":"cebpf4jnsgd1na2vs0mg"},{"bike_id":"292c64dd-2b66-4bef-b880-6f03a946f153","system_id":"levelo_inurba_marseille","lat":43.28266,"lon":5.35062,"is_reserved":false,"is_disabled":false,"rental_uris":{"android":"levelo://app?vid=292c64dd-2b66-4bef-b880-6f03a946f153","ios":"levelo://app?vid=292c64dd-2b66-4bef-b880-6f03a946f153"},"vehicle_type_id":"4","last_reported":1719068803,"current_range_meters":9600,"station_id":"ce4bhbp2rcd13ifvqerg","pricing_plan_id":"cebpf4jnsgd1na2vs0mg"},{"bike_id":"7bac485c-0ba4-4d63-8ecb-af4faf77fac0","system_id":"levelo_inurba_marseille","lat":43.28267,"lon":5.35058,"is_reserved":false,"is_disabled":false,"rental_uris":{"android":"levelo://app?vid=7bac485c-0ba4-4d63-8ecb-af4faf77fac0","ios":"levelo://app?vid=7bac485c-0ba4-4d63-8ecb-af4faf77fac0"},"vehicle_type_id":"4","last_reported":1719068803,"current_range_meters":31200,"station_id":"ce4bhbp2rcd13ifvqerg","pricing_plan_id":"cebpf4jnsgd1na2vs0mg"},{"bike_id":"8c8bebc0-269b-403d-bcb5-9c9aa2264a3b","system_id":"levelo_inurba_marseille","lat":43.282644,"lon":5.350669,"is_reserved":false,"is_disabled":false,"rental_uris":{"android":"levelo://app?vid=8c8bebc0-269b-403d-bcb5-9c9aa2264a3b","ios":"levelo://app?vid=8c8bebc0-269b-403d-bcb5-9c9aa2264a3b"},"vehicle_type_id":"4","last_reported":1719068803,"current_range_meters":24800,"station_id":"ce4bhbp2rcd13ifvqerg","pricing_plan_id":"cebpf4jnsgd1na2vs0mg"},{"bike_id":"ac2c15f7-79f8-46ef-abe7-1e73b450fe92","system_id":"levelo_inurba_marseille","lat":43.282647,"lon":5.35065,"is_reserved":false,"is_disabled":false,"rental_uris":{"android":"levelo://app?vid=ac2c15f7-79f8-46ef-abe7-1e73b450fe92","ios":"levelo://app?vid=ac2c15f7-79f8-46ef-abe7-1e73b450fe92"},"vehicle_type_id":"4","last_reported":1719068803,"current_range_meters":25600,"station_id":"ce4bhbp2rcd13ifvqerg","pricing_plan_id":"cebpf4jnsgd1na2vs0mg"},{"bike_id":"1c3ed481-5542-41be-88a0-60b6d6b332e8","system_id":"levelo_inurba_marseille","lat":43.282754,"lon":5.350519,"is_reserved":false,"is_disabled":false,"rental_uris":{"android":"levelo://app?vid=1c3ed481-5542-41be-88a0-60b6d6b332e8","ios":"levelo://app?vid=1c3ed481-5542-41be-88a0-60b6d6b332e8"},"vehicle_type_id":"4","last_reported":1719068803,"current_range_meters":11200,"station_id":"ce4bhbp2rcd13ifvqerg","pricing_plan_id":"cebpf4jnsgd1na2vs0mg"},{"bike_id":"d684850d-5210-4cd6-83cb-c5257f7f6f15","system_id":"levelo_inurba_marseille","lat":43.282633,"lon":5.350677,"is_reserved":false,"is_disabled":false,"rental_uris":{"android":"levelo://app?vid=d684850d-5210-4cd6-83cb-c5257f7f6f15","ios":"levelo://app?vid=d684850d-5210-4cd6-83cb-c5257f7f6f15"},"vehicle_type_id":"4","last_reported":1719068803,"current_range_meters":11200,"station_id":"ce4bhbp2rcd13ifvqerg","pricing_plan_id":"cebpf4jnsgd1na2vs0mg"},{"bike_id":"895e0418-32b2-433b-8599-731b412e6e2b","system_id":"levelo_inurba_marseille","lat":43.282665,"lon":5.350557,"is_reserved":false,"is_disabled":false,"rental_uris":{"android":"levelo://app?vid=895e0418-32b2-433b-8599-731b412e6e2b","ios":"levelo://app?vid=895e0418-32b2-433b-8599-731b412e6e2b"},"vehicle_type_id":"4","last_reported":1719068803,"current_range_meters":23200,"station_id":"ce4bhbp2rcd13ifvqerg","pricing_plan_id":"cebpf4jnsgd1na2vs0mg"},{"bike_id":"fda84a92-df01-469f-ace9-76361ae62261","system_id":"levelo_inurba_marseille","lat":43.28261,"lon":5.3507,"is_reserved":false,"is_disabled":false,"rental_uris":{"android":"levelo://app?vid=fda84a92-df01-469f-ace9-76361ae62261","ios":"levelo://app?vid=fda84a92-df01-469f-ace9-76361ae62261"},"vehicle_type_id":"4","last_reported":1719068803,"current_range_meters":8000,"station_id":"ce4bhbp2rcd13ifvqerg","pricing_plan_id":"cebpf4jnsgd1na2vs0mg"},{"bike_id":"191e9505-f6ec-43ff-9adf-56038846168c","system_id":"levelo_inurba_marseille","lat":43.28267,"lon":5.35049,"is_reserved":false,"is_disabled":false,"rental_uris":{"android":"levelo://app?vid=191e9505-f6ec-43ff-9adf-56038846168c","ios":"levelo://app?vid=191e9505-f6ec-43ff-9adf-56038846168c"},"vehicle_type_id":"4","last_reported":1719068803,"current_range_meters":17200,"station_id":"ce4bhbp2rcd13ifvqerg","pricing_plan_id":"cebpf4jnsgd1na2vs0mg"},{"bike_id":"7448c93d-cb53-49ba-b7f6-c7b2230b9c9c","system_id":"levelo_inurba_marseille","lat":43.28262,"lon":5.35066,"is_reserved":false,"is_disabled":false,"rental_uris":{"android":"levelo://app?vid=7448c93d-cb53-49ba-b7f6-c7b2230b9c9c","ios":"levelo://app?vid=7448c93d-cb53-49ba-b7f6-c7b2230b9c9c"},"vehicle_type_id":"4","last_reported":1719068803,"current_range_meters":12400,"station_id":"ce4bhbp2rcd13ifvqerg","pricing_plan_id":"cebpf4jnsgd1na2vs0mg"},{"bike_id":"e9eff68d-cb2f-4089-93fc-717906a18601","system_id":"levelo_inurba_marseille","lat":43.28257,"lon":5.35083,"is_reserved":false,"is_disabled":false,"rental_uris":{"android":"levelo://app?vid=e9eff68d-cb2f-4089-93fc-717906a18601","ios":"levelo://app?vid=e9eff68d-cb2f-4089-93fc-717906a18601"},"vehicle_type_id":"4","last_reported":1719068803,"current_range_meters":15200,"station_id":"ce4bhbp2rcd13ifvqerg","pricing_plan_id":"cebpf4jnsgd1na2vs0mg"},{"bike_id":"7eae9203-5714-4867-b966-53cc8e11b79e","system_id":"levelo_inurba_marseille","lat":43.282754,"lon":5.350519,"is_reserved":false,"is_disabled":false,"rental_uris":{"android":"levelo://app?vid=7eae9203-5714-4867-b966-53cc8e11b79e","ios":"levelo://app?vid=7eae9203-5714-4867-b966-53cc8e11b79e"},"vehicle_type_id":"4","last_reported":1719068803,"current_range_meters":0,"station_id":"ce4bhbp2rcd13ifvqerg","pricing_plan_id":"cebpf4jnsgd1na2vs0mg"},{"bike_id":"20e3a9e2-e125-4503-ae92-8aa297250212","system_id":"levelo_inurba_marseille","lat":43.28263,"lon":5.35061,"is_reserved":false,"is_disabled":false,"rental_uris":{"android":"levelo://app?vid=20e3a9e2-e125-4503-ae92-8aa297250212","ios":"levelo://app?vid=20e3a9e2-e125-4503-ae92-8aa297250212"},"vehicle_type_id":"4","last_reported":1719068803,"current_range_meters":31200,"station_id":"ce4bhbp2rcd13ifvqerg","pricing_plan_id":"cebpf4jnsgd1na2vs0mg"},{"bike_id":"bf79368e-c789-486a-a4ab-11ecaa794b32","system_id":"levelo_inurba_marseille","lat":43.28256,"lon":5.35083,"is_reserved":false,"is_disabled":false,"rental_uris":{"android":"levelo://app?vid=bf79368e-c789-486a-a4ab-11ecaa794b32","ios":"levelo://app?vid=bf79368e-c789-486a-a4ab-11ecaa794b32"},"vehicle_type_id":"4","last_reported":1719068803,"current_range_meters":30800,"station_id":"ce4bhbp2rcd13ifvqerg","pricing_plan_id":"cebpf4jnsgd1na2vs0mg"},{"bike_id":"8ac5d413-846b-420b-8683-1dbfcc4baa59","system_id":"levelo_inurba_marseille","lat":43.28261,"lon":5.35065,"is_reserved":false,"is_disabled":false,"rental_uris":{"android":"levelo://app?vid=8ac5d413-846b-420b-8683-1dbfcc4baa59","ios":"levelo://app?vid=8ac5d413-846b-420b-8683-1dbfcc4baa59"},"vehicle_type_id":"4","last_reported":1719068803,"current_range_meters":10000,"station_id":"ce4bhbp2rcd13ifvqerg","pricing_plan_id":"cebpf4jnsgd1na2vs0mg"},{"bike_id":"960eac7a-5070-406a-8bed-1032ec38a64a","system_id":"levelo_inurba_marseille","lat":43.2825,"lon":5.351,"is_reserved":false,"is_disabled":false,"rental_uris":{"android":"levelo://app?vid=960eac7a-5070-406a-8bed-1032ec38a64a","ios":"levelo://app?vid=960eac7a-5070-406a-8bed-1032ec38a64a"},"vehicle_type_id":"4","last_reported":1719068803,"current_range_meters":30400,"station_id":"ce4bhbp2rcd13ifvqerg","pricing_plan_id":"cebpf4jnsgd1na2vs0mg"},{"bike_id":"804ee87e-ca97-4b4d-9823-94eeed977c28","system_id":"levelo_inurba_marseille","lat":43.28255,"lon":5.3508,"is_reserved":false,"is_disabled":false,"rental_uris":{"android":"levelo://app?vid=804ee87e-ca97-4b4d-9823-94eeed977c28","ios":"levelo://app?vid=804ee87e-ca97-4b4d-9823-94eeed977c28"},"vehicle_type_id":"4","last_reported":1719068803,"current_range_meters":30800,"station_id":"ce4bhbp2rcd13ifvqerg","pricing_plan_id":"cebpf4jnsgd1na2vs0mg"},{"bike_id":"b03ff8ed-6c6a-4068-be93-25c0caee2cce","system_id":"levelo_inurba_marseille","lat":43.282754,"lon":5.350519,"is_reserved":false,"is_disabled":false,"rental_uris":{"android":"levelo://app?vid=b03ff8ed-6c6a-4068-be93-25c0caee2cce","ios":"levelo://app?vid=b03ff8ed-6c6a-4068-be93-25c0caee2cce"},"vehicle_type_id":"4","last_reported":1719068803,"current_range_meters":20000,"station_id":"ce4bhbp2rcd13ifvqerg","pricing_plan_id":"cebpf4jnsgd1na2vs0mg"},{"bike_id":"45f2ea8c-4639-4352-9e78-d28c62a213ca","system_id":"levelo_inurba_marseille","lat":43.282565,"lon":5.35068,"is_reserved":false,"is_disabled":false,"rental_uris":{"android":"levelo://app?vid=45f2ea8c-4639-4352-9e78-d28c62a213ca","ios":"levelo://app?vid=45f2ea8c-4639-4352-9e78-d28c62a213ca"},"vehicle_type_id":"4","last_reported":1719068803,"current_range_meters":16400,"station_id":"ce4bhbp2rcd13ifvqerg","pricing_plan_id":"cebpf4jnsgd1na2vs0mg"},{"bike_id":"cb271162-e883-4b94-a9db-385281d32c2b","system_id":"levelo_inurba_marseille","lat":43.28261,"lon":5.35047,"is_reserved":false,"is_disabled":false,"rental_uris":{"android":"levelo://app?vid=cb271162-e883-4b94-a9db-385281d32c2b","ios":"levelo://app?vid=cb271162-e883-4b94-a9db-385281d32c2b"},"vehicle_type_id":"4","last_reported":1719068803,"current_range_meters":30000,"station_id":"ce4bhbp2rcd13ifvqerg","pricing_plan_id":"cebpf4jnsgd1na2vs0mg"},{"bike_id":"37cff0e5-3ee5-4b4b-ade4-c7bf9928c96c","system_id":"levelo_inurba_marseille","lat":43.282557,"lon":5.35064,"is_reserved":false,"is_disabled":false,"rental_uris":{"android":"levelo://app?vid=37cff0e5-3ee5-4b4b-ade4-c7bf9928c96c","ios":"levelo://app?vid=37cff0e5-3ee5-4b4b-ade4-c7bf9928c96c"},"vehicle_type_id":"4","last_reported":1719068803,"current_range_meters":17200,"station_id":"ce4bhbp2rcd13ifvqerg","pricing_plan_id":"cebpf4jnsgd1na2vs0mg"},{"bike_id":"fd6c17ee-8a6d-4457-b5a8-befa71719723","system_id":"levelo_inurba_marseille","lat":43.283502,"lon":5.386471,"is_reserved":false,"is_disabled":false,"rental_uris":{"android":"levelo://app?vid=fd6c17ee-8a6d-4457-b5a8-befa71719723","ios":"levelo://app?vid=fd6c17ee-8a6d-4457-b5a8-befa71719723"},"vehicle_type_id":"4","last_reported":1719068803,"current_range_meters":7200,"station_id":"ce4bh492rcd13ifvqdvg","pricing_plan_id":"cebpf4jnsgd1na2vs0mg"},{"bike_id":"01bd344f-9d2c-47a7-be48-d351d3a5fc24","system_id":"levelo_inurba_marseille","lat":43.282527,"lon":5.350643,"is_reserved":false,"is_disabled":false,"rental_uris":{"android":"levelo://app?vid=01bd344f-9d2c-47a7-be48-d351d3a5fc24","ios":"levelo://app?vid=01bd344f-9d2c-47a7-be48-d351d3a5fc24"},"vehicle_type_id":"4","last_reported":1719068803,"current_range_meters":16800,"station_id":"ce4bhbp2rcd13ifvqerg","pricing_plan_id":"cebpf4jnsgd1na2vs0mg"},{"bike_id":"a6e37cdb-3f33-4f3d-a4bd-59b6c839603b","system_id":"levelo_inurba_marseille","lat":43.281086,"lon":5.378298,"is_reserved":false,"is_disabled":false,"rental_uris":{"android":"levelo://app?vid=a6e37cdb-3f33-4f3d-a4bd-59b6c839603b","ios":"levelo://app?vid=a6e37cdb-3f33-4f3d-a4bd-59b6c839603b"},"vehicle_type_id":"4","last_reported":1719068803,"current_range_meters":0,"station_id":"ce4bha12rcd13ifvqee0","pricing_plan_id":"cebpf4jnsgd1na2vs0mg"},{"bike_id":"d63cf856-c843-4798-9437-f56646fcfef5","system_id":"levelo_inurba_marseille","lat":43.281044,"lon":5.378308,"is_reserved":false,"is_disabled":false,"rental_uris":{"android":"levelo://app?vid=d63cf856-c843-4798-9437-f56646fcfef5","ios":"levelo://app?vid=d63cf856-c843-4798-9437-f56646fcfef5"},"vehicle_type_id":"4","last_reported":1719068803,"current_range_meters":28800,"station_id":"ce4bha12rcd13ifvqee0","pricing_plan_id":"cebpf4jnsgd1na2vs0mg"},{"bike_id":"e32e4ad2-8c75-4ab7-9da6-97d9b6ea7554","system_id":"levelo_inurba_marseille","lat":43.281044,"lon":5.378308,"is_reserved":false,"is_disabled":false,"rental_uris":{"android":"levelo://app?vid=e32e4ad2-8c75-4ab7-9da6-97d9b6ea7554","ios":"levelo://app?vid=e32e4ad2-8c75-4ab7-9da6-97d9b6ea7554"},"vehicle_type_id":"4","last_reported":1719068803,"current_range_meters":9200,"station_id":"ce4bha12rcd13ifvqee0","pricing_plan_id":"cebpf4jnsgd1na2vs0mg"},{"bike_id":"63a5fa0e-9ec4-42e5-9fe7-c94a82263067","system_id":"levelo_inurba_marseille","lat":43.283265,"lon":5.387878,"is_reserved":false,"is_disabled":false,"rental_uris":{"android":"levelo://app?vid=63a5fa0e-9ec4-42e5-9fe7-c94a82263067","ios":"levelo://app?vid=63a5fa0e-9ec4-42e5-9fe7-c94a82263067"},"vehicle_type_id":"4","last_reported":1719068803,"current_range_meters":14000,"station_id":"","pricing_plan_id":"cebpf4jnsgd1na2vs0mg"},{"bike_id":"21ec4eee-4971-4e0e-8dee-b53a226ea526","system_id":"levelo_inurba_marseille","lat":43.284462,"lon":5.392121,"is_reserved":false,"is_disabled":false,"rental_uris":{"android":"levelo://app?vid=21ec4eee-4971-4e0e-8dee-b53a226ea526","ios":"levelo://app?vid=21ec4eee-4971-4e0e-8dee-b53a226ea526"},"vehicle_type_id":"4","last_reported":1719068803,"current_range_meters":19200,"station_id":"ce4bhoh2rcd13ifvqh5g","pricing_plan_id":"cebpf4jnsgd1na2vs0mg"},{"bike_id":"147e0c42-70ad-47b3-b7de-eac967327dc5","system_id":"levelo_inurba_marseille","lat":43.304188,"lon":5.412904,"is_reserved":false,"is_disabled":false,"rental_uris":{"android":"levelo://app?vid=147e0c42-70ad-47b3-b7de-eac967327dc5","ios":"levelo://app?vid=147e0c42-70ad-47b3-b7de-eac967327dc5"},"vehicle_type_id":"4","last_reported":1719068803,"current_range_meters":28400,"station_id":"ce4bhop2rcd13ifvqh8g","pricing_plan_id":"cebpf4jnsgd1na2vs0mg"},{"bike_id":"a08318b6-8af1-42ab-90aa-a33189230225","system_id":"levelo_inurba_marseille","lat":43.284462,"lon":5.392121,"is_reserved":false,"is_disabled":false,"rental_uris":{"android":"levelo://app?vid=a08318b6-8af1-42ab-90aa-a33189230225","ios":"levelo://app?vid=a08318b6-8af1-42ab-90aa-a33189230225"},"vehicle_type_id":"4","last_reported":1719068803,"current_range_meters":18000,"station_id":"ce4bhoh2rcd13ifvqh5g","pricing_plan_id":"cebpf4jnsgd1na2vs0mg"},{"bike_id":"d4f1aa83-6b0c-4864-8628-1eb3bb159400","system_id":"levelo_inurba_marseille","lat":43.284462,"lon":5.392121,"is_reserved":false,"is_disabled":false,"rental_uris":{"android":"levelo://app?vid=d4f1aa83-6b0c-4864-8628-1eb3bb159400","ios":"levelo://app?vid=d4f1aa83-6b0c-4864-8628-1eb3bb159400"},"vehicle_type_id":"4","last_reported":1719068803,"current_range_meters":20800,"station_id":"ce4bhoh2rcd13ifvqh5g","pricing_plan_id":"cebpf4jnsgd1na2vs0mg"},