{"last_updated":1746502439,"ttl":60,"version":"2.2","data":{"bikes":[{"bike_id":"545631c8-05b7-4070-95e3-52dc096addb5","system_id":"levelo_inurba_marseille","lat":43.27191,"lon":5.364807,"is_reserved":false,"is_disabled":true,"rental_uris":{"android":"levelo://app?vid=545631c8-05b7-4070-95e3-52dc096addb5","ios":"levelo://app?vid=545631c8-05b7-4070-95e3-52dc096addb5"},"vehicle_type_id":"4","last_reported":1746502439,"current_range_meters":0,"station_id":"","pricing_plan_id":"cebpf4jnsgd1na2vs0mg"},{"bike_id":"64a99dee-e5f5-406c-bb57-3c1dd0084469","system_id":"levelo_inurba_marseille","lat":43.23667,"lon":5.39143,"is_reserved":false,"is_disabled":true,"rental_uris":{"android":"levelo://app?vid=64a99dee-e5f5-406c-bb57-3c1dd0084469","ios":"levelo://app?vid=64a99dee-e5f5-406c-bb57-3c1dd0084469"},"vehicle_type_id":"4","last_reported":1746502439,"current_range_meters":0,"station_id":"","pricing_plan_id":"cebpf4jnsgd1na2vs0mg"},{"bike_id":"4a2906fd-25b2-4be5-811e-9d84d28e283d","system_id":"levelo_inurba_marseille","lat":43.25394,"lon":5.42404,"is_reserved":false,"is_disabled":true,"rental_uris":{"android":"levelo://app?vid=4a2906fd-25b2-4be5-811e-9d84d28e283d","ios":"levelo://app?vid=4a2906fd-25b2-4be5-811e-9d84d28e283d"},"vehicle_type_id":"4","last_reported":1746502439,"current_range_meters":0,"station_id":"","pricing_plan_id":"cebpf4jnsgd1na2vs0mg"},{"bike_id":"a0ce76ea-4a3e-456b-8981-6ea420463480","system_id":"levelo_inurba_marseille","lat":43.30099,"lon":5.3767,"is_reserved":false,"is_disabled":true,"rental_uris":{"android":"levelo://app?vid=a0ce76ea-4a3e-456b-8981-6ea420463480","ios":"levelo://app?vid=a0ce76ea-4a3e-456b-8981-6ea420463480"},"vehicle_type_id":"4","last_reported":1746502439,"current_range_meters":400,"station_id":"","pricing_plan_id":"cebpf4jnsgd1na2vs0mg"},{"bike_id":"1e3195f6-106c-4dd3-8852-0494cfce0d2f","system_id":"levelo_inurba_marseille","lat":43.286064,"lon":5.370638,"is_reserved":false,"is_disabled":true,"rental_uris":{"android":"levelo://app?vid=1e3195f6-106c-4dd3-8852-0494cfce0d2f","ios":"levelo://app?vid=1e3195f6-106c-4dd3-8852-0494cfce0d2f"},"vehicle_type_id":"4","last_reported":1746502439,"current_range_meters":2000,"station_id":"ce4bht12rcd13ifvqi60","pricing_plan_id":"cebpf4jnsgd1na2vs0mg"},{"bike_id":"d21a1bf2-ff47-419b-9fda-93647c68b552","system_id":"levelo_inurba_marseille","lat":43.281026,"lon":5.378346,"is_reserved":false,"is_disabled":false,"rental_uris":{"android":"levelo://app?vid=d21a1bf2-ff47-419b-9fda-93647c68b552","ios":"levelo://app?vid=d21a1bf2-ff47-419b-9fda-93647c68b552"},"vehicle_type_id":"4","last_reported":1746502439,"current_range_meters":3200,"station_id":"ce4bha12rcd13ifvqee0","pricing_plan_id":"cebpf4jnsgd1na2vs0mg"},{"bike_id":"0c6712bb-c246-4d03-b305-0f5d0e9a0657","system_id":"levelo_inurba_marseille","lat":43.24639,"lon":5.38195,"is_reserved":false,"is_disabled":false,"rental_uris":{"android":"levelo://app?vid=0c6712bb-c246-4d03-b305-0f5d0e9a0657","ios":"levelo://app?vid=0c6712bb-c246-4d03-b305-0f5d0e9a0657"},"vehicle_type_id":"4","last_reported":1746502439,"current_range_meters":3600,"station_id":"ce4bhih2rcd13ifvqfr0","pricing_plan_id":"cebpf4jnsgd1na2vs0mg"},{"bike_id":"19cc5d4a-3669-481b-add7-2079b93dcf06","system_id":"levelo_inurba_marseille","lat":43.27943,"lon":5.41041,"is_reserved":false,"is_disabled":false,"rental_uris":{"android":"levelo://app?vid=19cc5d4a-3669-481b-add7-2079b93dcf06","ios":"levelo://app?vid=19cc5d4a-3669-481b-add7-2079b93dcf06"},"vehicle_type_id":"4","last_reported":1746502439,"current_range_meters":3600,"station_id":"ce4bhnp2rcd13ifvqh0g","pricing_plan_id":"cebpf4jnsgd1na2vs0mg"},{"bike_id":"b315a341-1b0c-4a43-901f-7ff8a489a0b3","system_id":"levelo_inurba_marseille","lat":43.27675,"lon":5.38914,"is_reserved":false,"is_disabled":false,"rental_uris":{"android":"levelo://app?vid=b315a341-1b0c-4a43-901f-7ff8a489a0b3","ios":"levelo://app?vid=b315a341-1b0c-4a43-901f-7ff8a489a0b3"},"vehicle_type_id":"4","last_reported":1746502439,"current_range_meters":4400,"station_id":"ce4bhi12rcd13ifvqfo0","pricing_plan_id":"cebpf4jnsgd1na2vs0mg"},{"bike_id":"f17ceb46-7339-44ff-b2fe-42d604ad05a3","system_id":"levelo_inurba_marseille","lat":43.22955,"lon":5.35353,"is_reserved":false,"is_disabled":false,"rental_uris":{"android":"levelo://app?vid=f17ceb46-7339-44ff-b2fe-42d604ad05a3","ios":"levelo://app?vid=f17ceb46-7339-44ff-b2fe-42d604ad05a3"},"vehicle_type_id":"4","last_reported":1746502439,"current_range_meters":4400,"station_id":"cpo3532slgdg3j2ikp40","pricing_plan_id":"cebpf4jnsgd1na2vs0mg"},{"bike_id":"66b646b3-6352-44bb-9bfb-21570512e3e5","system_id":"levelo_inurba_marseille","lat":43.281283,"lon":5.403876,"is_reserved":false,"is_disabled":false,"rental_uris":{"android":"levelo://app?vid=66b646b3-6352-44bb-9bfb-21570512e3e5","ios":"levelo://app?vid=66b646b3-6352-44bb-9bfb-21570512e3e5"},"vehicle_type_id":"4","last_reported":1746502439,"current_range_meters":4800,"station_id":"","pricing_plan_id":"cebpf4jnsgd1na2vs0mg"},{"bike_id":"c7569f25-9bc2-4a7b-94d5-25bad92fcfaa","system_id":"levelo_inurba_marseille","lat":43.27924,"lon":5.3827,"is_reserved":false,"is_disabled":false,"rental_uris":{"android":"levelo://app?vid=c7569f25-9bc2-4a7b-94d5-25bad92fcfaa","ios":"levelo://app?vid=c7569f25-9bc2-4a7b-94d5-25bad92fcfaa"},"vehicle_type_id":"4","last_reported":1746502439,"current_range_meters":5600,"station_id":"","pricing_plan_id":"cebpf4jnsgd1na2vs0mg"},{"bike_id":"5ed25235-2c54-4555-9b77-e5696daaf187","system_id":"levelo_inurba_marseille","lat":43.28406,"lon":5.37516,"is_reserved":false,"is_disabled":false,"rental_uris":{"android":"levelo://app?vid=5ed25235-2c54-4555-9b77-e5696daaf187","ios":"levelo://app?vid=5ed25235-2c54-4555-9b77-e5696daaf187"},"vehicle_type_id":"4","last_reported":1746502439,"current_range_meters":5600,"station_id":"ce4bh412rcd13ifvqds0","pricing_plan_id":"cebpf4jnsgd1na2vs0mg"},{"bike_id":"e8d3c57f-002a-4ddc-8c08-58b239aae800","system_id":"levelo_inurba_marseille","lat":43.26222,"lon":5.40462,"is_reserved":false,"is_disabled":false,"rental_uris":{"android":"levelo://app?vid=e8d3c57f-002a-4ddc-8c08-58b239aae800","ios":"levelo://app?vid=e8d3c57f-002a-4ddc-8c08-58b239aae800"},"vehicle_type_id":"4","last_reported":1746502439,"current_range_meters":5600,"station_id":"ce4bhmh2rcd13ifvqgmg","pricing_plan_id":"cebpf4jnsgd1na2vs0mg"},{"bike_id":"8043f1d3-b333-4b3e-91cb-7cd42332c295","system_id":"levelo_inurba_marseille","lat":43.30443,"lon":5.37917,"is_reserved":false,"is_disabled":false,"rental_uris":{"android":"levelo://app?vid=8043f1d3-b333-4b3e-91cb-7cd42332c295","ios":"levelo://app?vid=8043f1d3-b333-4b3e-91cb-7cd42332c295"},"vehicle_type_id":"4","last_reported":1746502439,"current_range_meters":6000,"station_id":"ce4bgup2rcd13ifvqcn0","pricing_plan_id":"cebpf4jnsgd1na2vs0mg"},{"bike_id":"f4058794-639c-4973-ab5d-8009a25ee731","system_id":"levelo_inurba_marseille","lat":43.2396,"lon":5.3663,"is_reserved":false,"is_disabled":false,"rental_uris":{"android":"levelo://app?vid=f4058794-639c-4973-ab5d-8009a25ee731","ios":"levelo://app?vid=f4058794-639c-4973-ab5d-8009a25ee731"},"vehicle_type_id":"4","last_reported":1746502439,"current_range_meters":6000,"station_id":"ce4bhi12rcd13ifvqfp0","pricing_plan_id":"cebpf4jnsgd1na2vs0mg"},{"bike_id":"9064d971-3a4c-4284-ab13-670f9e6ead80","system_id":"levelo_inurba_marseille","lat":43.23957,"lon":5.36654,"is_reserved":false,"is_disabled":false,"rental_uris":{"android":"levelo://app?vid=9064d971-3a4c-4284-ab13-670f9e6ead80","ios":"levelo://app?vid=9064d971-3a4c-4284-ab13-670f9e6ead80"},"vehicle_type_id":"4","last_reported":1746502439,"current_range_meters":6000,"station_id":"ce4bhi12rcd13ifvqfp0","pricing_plan_id":"cebpf4jnsgd1na2vs0mg"},{"bike_id":"356abf12-57d2-4a47-ac3e-d8689708fbf2","system_id":"levelo_inurba_marseille","lat":43.323516,"lon":5.406172,"is_reserved":false,"is_disabled":false,"rental_uris":{"android":"levelo://app?vid=356abf12-57d2-4a47-ac3e-d8689708fbf2","ios":"levelo://app?vid=356abf12-57d2-4a47-ac3e-d8689708fbf2"},"vehicle_type_id":"4","last_reported":1746502439,"current_range_meters":6800,"station_id":"ce4bhq92rcd13ifvqhjg","pricing_plan_id":"cebpf4jnsgd1na2vs0mg"},{"bike_id":"3fe14760-50d4-43a8-b058-218490851f16","system_id":"levelo_inurba_marseille","lat":43.28849,"lon":5.35841,"is_reserved":false,"is_disabled":false,"rental_uris":{"android":"levelo://app?vid=3fe14760-50d4-43a8-b058-218490851f16","ios":"levelo://app?vid=3fe14760-50d4-43a8-b058-218490851f16"},"vehicle_type_id":"4","last_reported":1746502439,"current_range_meters":7200,"station_id":"ce4bhb12rcd13ifvqem0","pricing_plan_id":"cebpf4jnsgd1na2vs0mg"},{"bike_id":"75e8ec7b-b97d-4041-ba4c-e6403b45949f","system_id":"levelo_inurba_marseille","lat":43.239599,"lon":5.366399,"is_reserved":false,"is_disabled":false,"rental_uris":{"android":"levelo://app?vid=75e8ec7b-b97d-4041-ba4c-e6403b45949f","ios":"levelo://app?vid=75e8ec7b-b97d-4041-ba4c-e6403b45949f"},"vehicle_type_id":"4","last_reported":1746502439,"current_range_meters":7200,"station_id":"ce4bhi12rcd13ifvqfp0","pricing_plan_id":"cebpf4jnsgd1na2vs0mg"},{"bike_id":"d08e881c-4ac2-413a-af9c-5ff0285ab7f6","system_id":"levelo_inurba_marseille","lat":43.27932,"lon":5.41049,"is_reserved":false,"is_disabled":false,"rental_uris":{"android":"levelo://app?vid=d08e881c-4ac2-413a-af9c-5ff0285ab7f6","ios":"levelo://app?vid=d08e881c-4ac2-413a-af9c-5ff0285ab7f6"},"vehicle_type_id":"4","last_reported":1746502439,"current_range_meters":7200,"station_id":"ce4bhnp2rcd13ifvqh0g","pricing_plan_id":"cebpf4jnsgd1na2vs0mg"},{"bike_id":"5c7249a3-596f-4101-8dbd-1087a1f3b438","system_id":"levelo_inurba_marseille","lat":43.232016,"lon":5.355755,"is_reserved":false,"is_disabled":false,"rental_uris":{"android":"levelo://app?vid=5c7249a3-596f-4101-8dbd-1087a1f3b438","ios":"levelo://app?vid=5c7249a3-596f-4101-8dbd-1087a1f3b438"},"vehicle_type_id":"4","last_reported":1746502439,"current_range_meters":7200,"station_id":"ce4bhu92rcd13ifvqi70","pricing_plan_id":"cebpf4jnsgd1na2vs0mg"},{"bike_id":"482344f1-460c-48ea-83dd-01b9a385e5cf","system_id":"levelo_inurba_marseille","lat":43.306667,"lon":5.368514,"is_reserved":false,"is_disabled":false,"rental_uris":{"android":"levelo://app?vid=482344f1-460c-48ea-83dd-01b9a385e5cf","ios":"levelo://app?vid=482344f1-460c-48ea-83dd-01b9a385e5cf"},"vehicle_type_id":"4","last_reported":1746502439,"current_range_meters":8000,"station_id":"","pricing_plan_id":"cebpf4jnsgd1na2vs0mg"},{"bike_id":"b73c5f22-57c3-42fb-a428-749049909d64","system_id":"levelo_inurba_marseille","lat":43.27882,"lon":5.41099,"is_reserved":false,"is_disabled":false,"rental_uris":{"android":"levelo://app?vid=b73c5f22-57c3-42fb-a428-749049909d64","ios":"levelo://app?vid=b73c5f22-57c3-42fb-a428-749049909d64"},"vehicle_type_id":"4","last_reported":1746502439,"current_range_meters":8000,"station_id":"","pricing_plan_id":"cebpf4jnsgd1na2vs0mg"},{"bike_id":"dccab0c5-be19-4968-9ea0-b5a301b5020b","system_id":"levelo_inurba_marseille","lat":43.268053,"lon":5.402619,"is_reserved":false,"is_disabled":false,"rental_uris":{"android":"levelo://app?vid=dccab0c5-be19-4968-9ea0-b5a301b5020b","ios":"levelo://app?vid=dccab0c5-be19-4968-9ea0-b5a301b5020b"},"vehicle_type_id":"4","last_reported":1746502439,"current_range_meters":8000,"station_id":"ce501612rcd8frsf0b60","pricing_plan_id":"cebpf4jnsgd1na2vs0mg"},{"bike_id":"1e84e465-2e14-47ac-91f0-53a839d6422a","system_id":"levelo_inurba_marseille","lat":43.313634,"lon":5.38494,"is_reserved":false,"is_disabled":false,"rental_uris":{"android":"levelo://app?vid=1e84e465-2e14-47ac-91f0-53a839d6422a","ios":"levelo://app?vid=1e84e465-2e14-47ac-91f0-53a839d6422a"},"vehicle_type_id":"4","last_reported":1746502439,"current_range_meters":8400,"station_id":"ce4bgt92rcd13ifvqcf0","pricing_plan_id":"cebpf4jnsgd1na2vs0mg"},{"bike_id":"a105130d-2c0b-47d7-ad9e-26b35e0360b8","system_id":"levelo_inurba_marseille","lat":43.239617,"lon":5.366297,"is_reserved":false,"is_disabled":false,"rental_uris":{"android":"levelo://app?vid=a105130d-2c0b-47d7-ad9e-26b35e0360b8","ios":"levelo://app?vid=a105130d-2c0b-47d7-ad9e-26b35e0360b8"},"vehicle_type_id":"4","last_reported":1746502439,"current_range_meters":8400,"station_id":"ce4bhi12rcd13ifvqfp0","pricing_plan_id":"cebpf4jnsgd1na2vs0mg"},{"bike_id":"08d06c84-d9e9-43f6-aa7a-603249ac6ecd","system_id":"levelo_inurba_marseille","lat":43.27996,"lon":5.40006,"is_reserved":false,"is_disabled":false,"rental_uris":{"android":"levelo://app?vid=08d06c84-d9e9-43f6-aa7a-603249ac6ecd","ios":"levelo://app?vid=08d06c84-d9e9-43f6-aa7a-603249ac6ecd"},"vehicle_type_id":"4","last_reported":1746502439,"current_range_meters":8400,"station_id":"ce4bho92rcd13ifvqh4g","pricing_plan_id":"cebpf4jnsgd1na2vs0mg"},{"bike_id":"0df6ff4a-d789-4276-8939-264863baa64d","system_id":"levelo_inurba_marseille","lat":43.31758,"lon":5.39025,"is_reserved":false,"is_disabled":false,"rental_uris":{"android":"levelo://app?vid=0df6ff4a-d789-4276-8939-264863baa64d","ios":"levelo://app?vid=0df6ff4a-d789-4276-8939-264863baa64d"},"vehicle_type_id":"4","last_reported":1746502439,"current_range_meters":8400,"station_id":"ce4bhqp2rcd13ifvqhng","pricing_plan_id":"cebpf4jnsgd1na2vs0mg"},{"bike_id":"7a2589c6-a8c1-46f5-a962-7daecd246db4","system_id":"levelo_inurba_marseille","lat":43.315336,"lon":5.380338,"is_reserved":false,"is_disabled":false,"rental_uris":{"android":"levelo://app?vid=7a2589c6-a8c1-46f5-a962-7daecd246db4","ios":"levelo://app?vid=7a2589c6-a8c1-46f5-a962-7daecd246db4"},"vehicle_type_id":"4","last_reported":1746502439,"current_range_meters":8400,"station_id":"ce4bhsp2rcd13ifvqi50","pricing_plan_id":"cebpf4jnsgd1na2vs0mg"},{"bike_id":"9bb55513-9ea9-495b-ad2f-3437e2e09a88","system_id":"levelo_inurba_marseille","lat":43.24664,"lon":5.38159,"is_reserved":false,"is_disabled":false,"rental_uris":{"android":"levelo://app?vid=9bb55513-9ea9-495b-ad2f-3437e2e09a88","ios":"levelo://app?vid=9bb55513-9ea9-495b-ad2f-3437e2e09a88"},"vehicle_type_id":"4","last_reported":1746502439,"current_range_meters":8800,"station_id":"ce4bhih2rcd13ifvqfr0","pricing_plan_id":"cebpf4jnsgd1na2vs0mg"},{"bike_id":"2306010e-85bf-4d9b-a6bc-107f35580834","system_id":"levelo_inurba_marseille","lat":43.25812,"lon":5.39422,"is_reserved":false,"is_disabled":false,"rental_uris":{"android":"levelo://app?vid=2306010e-85bf-4d9b-a6bc-107f35580834","ios":"levelo://app?vid=2306010e-85bf-4d9b-a6bc-107f35580834"},"vehicle_type_id":"4","last_reported":1746502439,"current_range_meters":8800,"station_id":"ce4bhip2rcd13ifvqft0","pricing_plan_id":"cebpf4jnsgd1na2vs0mg"},{"bike_id":"0682277e-ea06-4504-9d78-5310e532663a","system_id":"levelo_inurba_marseille","lat":43.27943,"lon":5.41049,"is_reserved":false,"is_disabled":false,"rental_uris":{"android":"levelo://app?vid=0682277e-ea06-4504-9d78-5310e532663a","ios":"levelo://app?vid=0682277e-ea06-4504-9d78-5310e532663a"},"vehicle_type_id":"4","last_reported":1746502439,"current_range_meters":8800,"station_id":"ce4bhnp2rcd13ifvqh0g","pricing_plan_id":"cebpf4jnsgd1na2vs0mg"},{"bike_id":"bda5329c-0ca8-4429-8276-953c6ccd9961","system_id":"levelo_inurba_marseille","lat":43.279781,"lon":5.416637,"is_reserved":false,"is_disabled":false,"rental_uris":{"android":"levelo://app?vid=bda5329c-0ca8-4429-8276-953c6ccd9961","ios":"levelo://app?vid=bda5329c-0ca8-4429-8276-953c6ccd9961"},"vehicle_type_id":"4","last_reported":1746502439,"current_range_meters":8800,"station_id":"ce4bho12rcd13ifvqh1g","pricing_plan_id":"cebpf4jnsgd1na2vs0mg"},{"bike_id":"d9ebccfe-dd7b-4132-a6f6-002262765ed4","system_id":"levelo_inurba_marseille","lat":43.27998,"lon":5.400174,"is_reserved":false,"is_disabled":false,"rental_uris":{"android":"levelo://app?vid=d9ebccfe-dd7b-4132-a6f6-002262765ed4","ios":"levelo://app?vid=d9ebccfe-dd7b-4132-a6f6-002262765ed4"},"vehicle_type_id":"4","last_reported":1746502439,"current_range_meters":8800,"station_id":"ce4bho92rcd13ifvqh4g","pricing_plan_id":"cebpf4jnsgd1na2vs0mg"},{"bike_id":"33e48a61-b681-49b6-9f4c-c501fbecaaba","system_id":"levelo_inurba_marseille","lat":43.317127,"lon":5.436929,"is_reserved":false,"is_disabled":false,"rental_uris":{"android":"levelo://app?vid=33e48a61-b681-49b6-9f4c-c501fbecaaba","ios":"levelo://app?vid=33e48a61-b681-49b6-9f4c-c501fbecaaba"},"vehicle_type_id":"4","last_reported":1746502439,"current_range_meters":8800,"station_id":"ce4bhp92rcd13ifvqhcg","pricing_plan_id":"cebpf4jnsgd1na2vs0mg"},{"bike_id":"0516f56f-d6da-4619-b60f-e7bb507cb1e3","system_id":"levelo_inurba_marseille","lat":43.323644,"lon":5.388879,"is_reserved":false,"is_disabled":false,"rental_uris":{"android":"levelo://app?vid=0516f56f-d6da-4619-b60f-e7bb507cb1e3","ios":"levelo://app?vid=0516f56f-d6da-4619-b60f-e7bb507cb1e3"},"vehicle_type_id":"4","last_reported":1746502439,"current_range_meters":8800,"station_id":"ce4bhqp2rcd13ifvqhog","pricing_plan_id":"cebpf4jnsgd1na2vs0mg"},{"bike_id":"18fac1a9-fda6-48d8-9aa6-1f61711dea16","system_id":"levelo_inurba_marseille","lat":43.31372,"lon":5.38497,"is_reserved":false,"is_disabled":false,"rental_uris":{"android":"levelo://app?vid=18fac1a9-fda6-48d8-9aa6-1f61711dea16","ios":"levelo://app?vid=18fac1a9-fda6-48d8-9aa6-1f61711dea16"},"vehicle_type_id":"4","last_reported":1746502439,"current_range_meters":9200,"station_id":"ce4bgt92rcd13ifvqcf0","pricing_plan_id":"cebpf4jnsgd1na2vs0mg"},{"bike_id":"f9cec597-af13-4a8a-be1d-b7cf54819d4d","system_id":"levelo_inurba_marseille","lat":43.28976,"lon":5.40715,"is_reserved":false,"is_disabled":false,"rental_uris":{"android":"levelo://app?vid=f9cec597-af13-4a8a-be1d-b7cf54819d4d","ios":"levelo://app?vid=f9cec597-af13-4a8a-be1d-b7cf54819d4d"},"vehicle_type_id":"4","last_reported":1746502439,"current_range_meters":9600,"station_id":"","pricing_plan_id":"cebpf4jnsgd1na2vs0mg"},{"bike_id":"9d4cc952-e455-4fba-8b3f-d5cacd90c8d5","system_id":"levelo_inurba_marseille","lat":43.25053,"lon":5.39563,"is_reserved":false,"is_disabled":false,"rental_uris":{"android":"levelo://app?vid=9d4cc952-e455-4fba-8b3f-d5cacd90c8d5","ios":"levelo://app?vid=9d4cc952-e455-4fba-8b3f-d5cacd90c8d5"},"vehicle_type_id":"4","last_reported":1746502439,"current_range_meters":9600,"station_id":"","pricing_plan_id":"cebpf4jnsgd1na2vs0mg"},{"bike_id":"f26290d6-f201-4d9e-83cc-5ce13015ceeb","system_id":"levelo_inurba_marseille","lat":43.30591,"lon":5.37231,"is_reserved":false,"is_disabled":false,"rental_uris":{"android":"levelo://app?vid=f26290d6-f201-4d9e-83cc-5ce13015ceeb","ios":"levelo://app?vid=f26290d6-f201-4d9e-83cc-5ce13015ceeb"},"vehicle_type_id":"4","last_reported":1746502439,"current_range_meters":9600,"station_id":"ce4bgqh2rcd13ifvqc4g","pricing_plan_id":"cebpf4jnsgd1na2vs0mg"},{"bike_id":"4567db42-a456-48b6-bc7d-8dd13247fcc0","system_id":"levelo_inurba_marseille","lat":43.27945,"lon":5.41049,"is_reserved":false,"is_disabled":false,"rental_uris":{"android":"levelo://app?vid=4567db42-a456-48b6-bc7d-8dd13247fcc0","ios":"levelo://app?vid=4567db42-a456-48b6-bc7d-8dd13247fcc0"},"vehicle_type_id":"4","last_reported":1746502439,"current_range_meters":9600,"station_id":"ce4bhnp2rcd13ifvqh0g","pricing_plan_id":"cebpf4jnsgd1na2vs0mg"},{"bike_id":"9d8f73eb-df09-4699-86a7-d631e2319093","system_id":"levelo_inurba_marseille","lat":43.26268,"lon":5.37442,"is_reserved":false,"is_disabled":false,"rental_uris":{"android":"levelo://app?vid=9d8f73eb-df09-4699-86a7-d631e2319093","ios":"levelo://app?vid=9d8f73eb-df09-4699-86a7-d631e2319093"},"vehicle_type_id":"4","last_reported":1746502439,"current_range_meters":10000,"station_id":"","pricing_plan_id":"cebpf4jnsgd1na2vs0mg"},{"bike_id":"62bfa9fa-531f-4d2b-9e57-eb50b2d48c8c","system_id":"levelo_inurba_marseille","lat":43.24294,"lon":5.38015,"is_reserved":false,"is_disabled":false,"rental_uris":{"android":"levelo://app?vid=62bfa9fa-531f-4d2b-9e57-eb50b2d48c8c","ios":"levelo://app?vid=62bfa9fa-531f-4d2b-9e57-eb50b2d48c8c"},"vehicle_type_id":"4","last_reported":1746502439,"current_range_meters":10000,"station_id":"","pricing_plan_id":"cebpf4jnsgd1na2vs0mg"},{"bike_id":"f6aaa213-9bb7-4b13-824c-e6011a655632","system_id":"levelo_inurba_marseille","lat":43.29183,"lon":5.44194,"is_reserved":false,"is_disabled":false,"rental_uris":{"android":"levelo://app?vid=f6aaa213-9bb7-4b13-824c-e6011a655632","ios":"levelo://app?vid=f6aaa213-9bb7-4b13-824c-e6011a655632"},"vehicle_type_id":"4","last_reported":1746502439,"current_range_meters":10000,"station_id":"","pricing_plan_id":"cebpf4jnsgd1na2vs0mg"},{"bike_id":"a340f385-a1e7-485c-aa95-241503da679d","system_id":"levelo_inurba_marseille","lat":43.313499,"lon":5.385103,"is_reserved":false,"is_disabled":false,"rental_uris":{"android":"levelo://app?vid=a340f385-a1e7-485c-aa95-241503da679d","ios":"levelo://app?vid=a340f385-a1e7-485c-aa95-241503da679d"},"vehicle_type_id":"4","last_reported":1746502439,"current_range_meters":10000,"station_id":"ce4bgt92rcd13ifvqcf0","pricing_plan_id":"cebpf4jnsgd1na2vs0mg"},{"bike_id":"7430b6cc-b229-4c9f-aeae-8e2c8fcf43c9","system_id":"levelo_inurba_marseille","lat":43.241807,"lon":5.397339,"is_reserved":false,"is_disabled":false,"rental_uris":{"android":"levelo://app?vid=7430b6cc-b229-4c9f-aeae-8e2c8fcf43c9","ios":"levelo://app?vid=7430b6cc-b229-4c9f-aeae-8e2c8fcf43c9"},"vehicle_type_id":"4","last_reported":1746502439,"current_range_meters":10000,"station_id":"ce4bhn12rcd13ifvqgpg","pricing_plan_id":"cebpf4jnsgd1na2vs0mg"},{"bike_id":"08ff2bcf-7233-4803-aa19-4c645279e28a","system_id":"levelo_inurba_marseille","lat":43.292626,"lon":5.409016,"is_reserved":false,"is_disabled":false,"rental_uris":{"android":"levelo://app?vid=08ff2bcf-7233-4803-aa19-4c645279e28a","ios":"levelo://app?vid=08ff2bcf-7233-4803-aa19-4c645279e28a"},"vehicle_type_id":"4","last_reported":1746502439,"current_range_meters":10800,"station_id":"ce4bh192rcd13ifvqdc0","pricing_plan_id":"cebpf4jnsgd1na2vs0mg"},{"bike_id":"570e7987-c797-4918-9d70-00c86dd4397e","system_id":"levelo_inurba_marseille","lat":43.29275,"lon":5.40137,"is_reserved":false,"is_disabled":false,"rental_uris":{"android":"levelo://app?vid=570e7987-c797-4918-9d70-00c86dd4397e","ios":"levelo://app?vid=570e7987-c797-4918-9d70-00c86dd4397e"},"vehicle_type_id":"4","last_reported":1746502439,"current_range_meters":10800,"station_id":"ce4bh312rcd13ifvqdk0","pricing_plan_id":"cebpf4jnsgd1na2vs0mg"},{"bike_id":"8de468c6-9e73-4fff-9ec1-822aa1e3ad27","system_id":"levelo_inurba_marseille","lat":43.28945,"lon":5.36612,"is_reserved":false,"is_disabled":false,"rental_uris":{"android":"levelo://app?vid=8de468c6-9e73-4fff-9ec1-822aa1e3ad27","ios":"levelo://app?vid=8de468c6-9e73-4fff-9ec1-822aa1e3ad27"},"vehicle_type_id":"4","last_reported":1746502439,"current_range_meters":10800,"station_id":"ce4bhap2rcd13ifvqek0","pricing_plan_id":"cebpf4jnsgd1na2vs0mg"},{"bike_id":"b486f5fd-1209-4352-985e-d268bb97a482","system_id":"levelo_inurba_marseille","lat":43.28419,"lon":5.34985,"is_reserved":false,"is_disabled":false,"rental_uris":{"android":"levelo://app?vid=b486f5fd-1209-4352-985e-d268bb97a482","ios":"levelo://app?vid=b486f5fd-1209-4352-985e-d268bb97a482"},"vehicle_type_id":"4","last_reported":1746502439,"current_range_meters":10800,"station_id":"ce4bhbh2rcd13ifvqepg","pricing_plan_id":"cebpf4jnsgd1na2vs0mg"},{"bike_id":"5b8d1337-a035-4531-8ae9-843647d6f95e","system_id":"levelo_inurba_marseille","lat":43.231808,"lon":5.399764,"is_reserved":false,"is_disabled":false,"rental_uris":{"android":"levelo://app?vid=5b8d1337-a035-4531-8ae9-843647d6f95e","ios":"levelo://app?vid=5b8d1337-a035-4531-8ae9-843647d6f95e"},"vehicle_type_id":"4","last_reported":1746502439,"current_range_meters":10800,"station_id":"ce4bhn12rcd13ifvqgqg","pricing_plan_id":"cebpf4jnsgd1na2vs0mg"},{"bike_id":"0c377d9d-9a3a-47a7-9944-6039314b5e15","system_id":"levelo_inurba_marseille","lat":43.24589,"lon":5.40484,"is_reserved":false,"is_disabled":false,"rental_uris":{"android":"levelo://app?vid=0c377d9d-9a3a-47a7-9944-6039314b5e15","ios":"levelo://app?vid=0c377d9d-9a3a-47a7-9944-6039314b5e15"},"vehicle_type_id":"4","last_reported":1746502439,"current_range_meters":11200,"station_id":"","pricing_plan_id":"cebpf4jnsgd1na2vs0mg"},{"bike_id":"05a84f69-0592-442a-b098-6253d0b70e9e","system_id":"levelo_inurba_marseille","lat":43.29977,"lon":5.37217,"is_reserved":false,"is_disabled":false,"rental_uris":{"android":"levelo://app?vid=05a84f69-0592-442a-b098-6253d0b70e9e","ios":"levelo://app?vid=05a84f69-0592-442a-b098-6253d0b70e9e"},"vehicle_type_id":"4","last_reported":1746502439,"current_range_meters":11200,"station_id":"ce4bgr92rcd13ifvqc7g","pricing_plan_id":"cebpf4jnsgd1na2vs0mg"},{"bike_id":"fbda12d9-6999-44a5-a236-2a288c2ac07c","system_id":"levelo_inurba_marseille","lat":43.240678,"lon":5.377721,"is_reserved":false,"is_disabled":false,"rental_uris":{"android":"levelo://app?vid=fbda12d9-6999-44a5-a236-2a288c2ac07c","ios":"levelo://app?vid=fbda12d9-6999-44a5-a236-2a288c2ac07c"},"vehicle_type_id":"4","last_reported":1746502439,"current_range_meters":11200,"station_id":"ce4bhnp2rcd13ifvqgvg","pricing_plan_id":"cebpf4jnsgd1na2vs0mg"},{"bike_id":"b60c17f5-436e-489e-8f3c-790e6084ac64","system_id":"levelo_inurba_marseille","lat":43.21189,"lon":5.3508,"is_reserved":false,"is_disabled":false,"rental_uris":{"android":"levelo://app?vid=b60c17f5-436e-489e-8f3c-790e6084ac64","ios":"levelo://app?vid=b60c17f5-436e-489e-8f3c-790e6084ac64"},"vehicle_type_id":"4","last_reported":1746502439,"current_range_meters":11200,"station_id":"st_cvj6sg6p6f1abm77japg","pricing_plan_id":"cebpf4jnsgd1na2vs0mg"},{"bike_id":"db607aba-0db6-423b-a818-c23224727203","system_id":"levelo_inurba_marseille","lat":43.231542,"lon":5.437001,"is_reserved":false,"is_disabled":false,"rental_uris":{"android":"levelo://app?vid=db607aba-0db6-423b-a818-c23224727203","ios":"levelo://app?vid=db607aba-0db6-423b-a818-c23224727203"},"vehicle_type_id":"4","last_reported":1746502439,"current_range_meters":11600,"station_id":"ce4bhmp2rcd13ifvqgog","pricing_plan_id":"cebpf4jnsgd1na2vs0mg"},{"bike_id":"156b2893-1935-4e6b-a870-c55ec5e1824b","system_id":"levelo_inurba_marseille","lat":43.30798,"lon":5.435269,"is_reserved":false,"is_disabled":false,"rental_uris":{"android":"levelo://app?vid=156b2893-1935-4e6b-a870-c55ec5e1824b","ios":"levelo://app?vid=156b2893-1935-4e6b-a870-c55ec5e1824b"},"vehicle_type_id":"4","last_reported":1746502439,"current_range_meters":11600,"station_id":"ce4bhph2rcd13ifvqheg","pricing_plan_id":"cebpf4jnsgd1na2vs0mg"},{"bike_id":"a46b5721-597c-404e-8ddb-3ba6469f967d","system_id":"levelo_inurba_marseille","lat":43.23187,"lon":5.35559,"is_reserved":false,"is_disabled":false,"rental_uris":{"android":"levelo://app?vid=a46b5721-597c-404e-8ddb-3ba6469f967d","ios":"levelo://app?vid=a46b5721-597c-404e-8ddb-3ba6469f967d"},"vehicle_type_id":"4","last_reported":1746502439,"current_range_meters":11600,"station_id":"ce4bhu92rcd13ifvqi70","pricing_plan_id":"cebpf4jnsgd1na2vs0mg"},{"bike_id":"bd0f5d5e-963b-4fe6-aa82-9fc047b0ac51","system_id":"levelo_inurba_marseille","lat":43.299042,"lon":5.388155,"is_reserved":false,"is_disabled":false,"rental_uris":{"android":"levelo://app?vid=bd0f5d5e-963b-4fe6-aa82-9fc047b0ac51","ios":"levelo://app?vid=bd0f5d5e-963b-4fe6-aa82-9fc047b0ac51"},"vehicle_type_id":"4","last_reported":1746502439,"current_range_meters":12000,"station_id":"","pricing_plan_id":"cebpf4jnsgd1na2vs0mg"},{"bike_id":"adf5dfc5-5664-4b0f-8d86-0129f9858272","system_id":"levelo_inurba_marseille","lat":43.30744,"lon":5.37687,"is_reserved":false,"is_disabled":false,"rental_uris":{"android":"levelo://app?vid=adf5dfc5-5664-4b0f-8d86-0129f9858272","ios":"levelo://app?vid=adf5dfc5-5664-4b0f-8d86-0129f9858272"},"vehicle_type_id":"4","last_reported":1746502439,"current_range_meters":12000,"station_id":"","pricing_plan_id":"cebpf4jnsgd1na2vs0mg"},{"bike_id":"311ec4e0-482e-4b83-a693-e6b86a1abb04","system_id":"levelo_inurba_marseille","lat":43.33136,"lon":5.413854,"is_reserved":false,"is_disabled":false,"rental_uris":{"android":"levelo://app?vid=311ec4e0-482e-4b83-a693-e6b86a1abb04","ios":"levelo://app?vid=311ec4e0-482e-4b83-a693-e6b86a1abb04"},"vehicle_type_id":"4","last_reported":1746502439,"current_range_meters":12000,"station_id":"","pricing_plan_id":"cebpf4jnsgd1na2vs0mg"},{"bike_id":"a564814d-612a-4672-a9dd-f9719d2b6023","system_id":"levelo_inurba_marseille","lat":43.28404,"lon":5.375197,"is_reserved":false,"is_disabled":false,"rental_uris":{"android":"levelo://app?vid=a564814d-612a-4672-a9dd-f9719d2b6023","ios":"levelo://app?vid=a564814d-612a-4672-a9dd-f9719d2b6023"},"vehicle_type_id":"4","last_reported":1746502439,"current_range_meters":12000,"station_id":"ce4bh412rcd13ifvqds0","pricing_plan_id":"cebpf4jnsgd1na2vs0mg"},{"bike_id":"936a637d-a079-4ff8-ae5b-41a138df9f05","system_id":"levelo_inurba_marseille","lat":43.27988,"lon":5.38704,"is_reserved":false,"is_disabled":false,"rental_uris":{"android":"levelo://app?vid=936a637d-a079-4ff8-ae5b-41a138df9f05","ios":"levelo://app?vid=936a637d-a079-4ff8-ae5b-41a138df9f05"},"vehicle_type_id":"4","last_reported":1746502439,"current_range_meters":12000,"station_id":"ce4bhg12rcd13ifvqf80","pricing_plan_id":"cebpf4jnsgd1na2vs0mg"},{"bike_id":"e59f121e-ba4f-4890-a742-2d0c49eae7d8","system_id":"levelo_inurba_marseille","lat":43.315379,"lon":5.380301,"is_reserved":false,"is_disabled":false,"rental_uris":{"android":"levelo://app?vid=e59f121e-ba4f-4890-a742-2d0c49eae7d8","ios":"levelo://app?vid=e59f121e-ba4f-4890-a742-2d0c49eae7d8"},"vehicle_type_id":"4","last_reported":1746502439,"current_range_meters":12000,"station_id":"ce4bhsp2rcd13ifvqi50","pricing_plan_id":"cebpf4jnsgd1na2vs0mg"},{"bike_id":"c9592205-9409-4f74-aed1-7c4141a58caa","system_id":"levelo_inurba_marseille","lat":43.27154,"lon":5.36359,"is_reserved":false,"is_disabled":false,"rental_uris":{"android":"levelo://app?vid=c9592205-9409-4f74-aed1-7c4141a58caa","ios":"levelo://app?vid=c9592205-9409-4f74-aed1-7c4141a58caa"},"vehicle_type_id":"4","last_reported":1746502439,"current_range_meters":12400,"station_id":"","pricing_plan_id":"cebpf4jnsgd1na2vs0mg"},{"bike_id":"ff98988f-b7b5-4b59-aafa-108198aebfdf","system_id":"levelo_inurba_marseille","lat":43.311659,"lon":5.387199,"is_reserved":false,"is_disabled":false,"rental_uris":{"android":"levelo://app?vid=ff98988f-b7b5-4b59-aafa-108198aebfdf","ios":"levelo://app?vid=ff98988f-b7b5-4b59-aafa-108198aebfdf"},"vehicle_type_id":"4","last_reported":1746502439,"current_range_meters":12400,"station_id":"ce4bgv12rcd13ifvqcp0","pricing_plan_id":"cebpf4jnsgd1na2vs0mg"},{"bike_id":"44d1a496-4f16-46a6-b178-f49cec17003e","system_id":"levelo_inurba_marseille","lat":43.27147,"lon":5.41026,"is_reserved":false,"is_disabled":false,"rental_uris":{"android":"levelo://app?vid=44d1a496-4f16-46a6-b178-f49cec17003e","ios":"levelo://app?vid=44d1a496-4f16-46a6-b178-f49cec17003e"},"vehicle_type_id":"4","last_reported":1746502439,"current_range_meters":12400,"station_id":"ce4bhl12rcd13ifvqgf0","pricing_plan_id":"cebpf4jnsgd1na2vs0mg"},{"bike_id":"a9b78ccc-48f0-4502-b89e-0369c4bf7b0b","system_id":"levelo_inurba_marseille","lat":43.23185,"lon":5.399811,"is_reserved":false,"is_disabled":false,"rental_uris":{"android":"levelo://app?vid=a9b78ccc-48f0-4502-b89e-0369c4bf7b0b","ios":"levelo://app?vid=a9b78ccc-48f0-4502-b89e-0369c4bf7b0b"},"vehicle_type_id":"4","last_reported":1746502439,"current_range_meters":12400,"station_id":"ce4bhn12rcd13ifvqgqg","pricing_plan_id":"cebpf4jnsgd1na2vs0mg"},{"bike_id":"7e86d21d-45f2-4214-8268-1894a29d6870","system_id":"levelo_inurba_marseille","lat":43.278131,"lon":5.40719,"is_reserved":false,"is_disabled":false,"rental_uris":{"android":"levelo://app?vid=7e86d21d-45f2-4214-8268-1894a29d6870","ios":"levelo://app?vid=7e86d21d-45f2-4214-8268-1894a29d6870"},"vehicle_type_id":"4","last_reported":1746502439,"current_range_meters":12400,"station_id":"ce4bhnh2rcd13ifvqgtg","pricing_plan_id":"cebpf4jnsgd1na2vs0mg"},{"bike_id":"34b1efd4-48c2-4719-84d4-6a6a73d11d34","system_id":"levelo_inurba_marseille","lat":43.31487,"lon":5.3731,"is_reserved":false,"is_disabled":false,"rental_uris":{"android":"levelo://app?vid=34b1efd4-48c2-4719-84d4-6a6a73d11d34","ios":"levelo://app?vid=34b1efd4-48c2-4719-84d4-6a6a73d11d34"},"vehicle_type_id":"4","last_reported":1746502439,"current_range_meters":13600,"station_id":"ce4bgt12rcd13ifvqcd0","pricing_plan_id":"cebpf4jnsgd1na2vs0mg"},{"bike_id":"7ae923fd-583b-405f-968d-fb1bcede32b7","system_id":"levelo_inurba_marseille","lat":43.250846,"lon":5.395125,"is_reserved":false,"is_disabled":false,"rental_uris":{"android":"levelo://app?vid=7ae923fd-583b-405f-968d-fb1bcede32b7","ios":"levelo://app?vid=7ae923fd-583b-405f-968d-fb1bcede32b7"},"vehicle_type_id":"4","last_reported":1746502439,"current_range_meters":13600,"station_id":"ce4bhm12rcd13ifvqgkg","pricing_plan_id":"cebpf4jnsgd1na2vs0mg"},{"bike_id":"3f84d55c-f7b3-443f-a8ba-1f83ba8291a2","system_id":"levelo_inurba_marseille","lat":43.21175,"lon":5.35102,"is_reserved":false,"is_disabled":false,"rental_uris":{"android":"levelo://app?vid=3f84d55c-f7b3-443f-a8ba-1f83ba8291a2","ios":"levelo://app?vid=3f84d55c-f7b3-443f-a8ba-1f83ba8291a2"},"vehicle_type_id":"4","last_reported":1746502439,"current_range_meters":14000,"station_id":"st_cvj6sg6p6f1abm77japg","pricing_plan_id":"cebpf4jnsgd1na2vs0mg"},{"bike_id":"e3bb4c0a-ea28-4d8b-a92a-340ecfdd5f1d","system_id":"levelo_inurba_marseille","lat":43.31057,"lon":5.375504,"is_reserved":false,"is_disabled":false,"rental_uris":{"android":"levelo://app?vid=e3bb4c0a-ea28-4d8b-a92a-340ecfdd5f1d","ios":"levelo://app?vid=e3bb4c0a-ea28-4d8b-a92a-340ecfdd5f1d"},"vehicle_type_id":"4","last_reported":1746502439,"current_range_meters":14400,"station_id":"","pricing_plan_id":"cebpf4jnsgd1na2vs0mg"},{"bike_id":"95f45dd7-acf0-4a6e-8791-45c27bd24fd0","system_id":"levelo_inurba_marseille","lat":43.3015,"lon":5.38081,"is_reserved":false,"is_disabled":false,"rental_uris":{"android":"levelo://app?vid=95f45dd7-acf0-4a6e-8791-45c27bd24fd0","ios":"levelo://app?vid=95f45dd7-acf0-4a6e-8791-45c27bd24fd0"},"vehicle_type_id":"4","last_reported":1746502439,"current_range_meters":14400,"station_id":"ce4bgjp2rcd13ifvqbh0","pricing_plan_id":"cebpf4jnsgd1na2vs0mg"},{"bike_id":"f923bc7e-7ddd-48e1-9a5c-e4b11899f853","system_id":"levelo_inurba_marseille","lat":43.308866,"lon":5.396601,"is_reserved":false,"is_disabled":false,"rental_uris":{"android":"levelo://app?vid=f923bc7e-7ddd-48e1-9a5c-e4b11899f853","ios":"levelo://app?vid=f923bc7e-7ddd-48e1-9a5c-e4b11899f853"},"vehicle_type_id":"4","last_reported":1746502439,"current_range_meters":14400,"station_id":"ce4bh012rcd13ifvqcv0","pricing_plan_id":"cebpf4jnsgd1na2vs0mg"},{"bike_id":"bedea05d-d78e-49aa-a496-3f51d4ea594b","system_id":"levelo_inurba_marseille","lat":43.284634,"lon":5.358902,"is_reserved":false,"is_disabled":false,"rental_uris":{"android":"levelo://app?vid=bedea05d-d78e-49aa-a496-3f51d4ea594b","ios":"levelo://app?vid=bedea05d-d78e-49aa-a496-3f51d4ea594b"},"vehicle_type_id":"4","last_reported":1746502439,"current_range_meters":14400,"station_id":"ce4bhah2rcd13ifvqei0","pricing_plan_id":"cebpf4jnsgd1na2vs0mg"},{"bike_id":"2df614bf-145f-44cd-b174-f8bd8326963c","system_id":"levelo_inurba_marseille","lat":43.315402,"lon":5.380219,"is_reserved":false,"is_disabled":false,"rental_uris":{"android":"levelo://app?vid=2df614bf-145f-44cd-b174-f8bd8326963c","ios":"levelo://app?vid=2df614bf-145f-44cd-b174-f8bd8326963c"},"vehicle_type_id":"4","last_reported":1746502439,"current_range_meters":14400,"station_id":"ce4bhsp2rcd13ifvqi50","pricing_plan_id":"cebpf4jnsgd1na2vs0mg"},{"bike_id":"99097e50-dd2e-47c3-a879-f48655baf4d9","system_id":"levelo_inurba_marseille","lat":43.245938,"lon":5.408261,"is_reserved":false,"is_disabled":false,"rental_uris":{"android":"levelo://app?vid=99097e50-dd2e-47c3-a879-f48655baf4d9","ios":"levelo://app?vid=99097e50-dd2e-47c3-a879-f48655baf4d9"},"vehicle_type_id":"4","last_reported":1746502439,"current_range_meters":14800,"station_id":"","pricing_plan_id":"cebpf4jnsgd1na2vs0mg"},{"bike_id":"5cf9bea3-9c42-4bef-a5e8-cfcc39d36971","system_id":"levelo_inurba_marseille","lat":43.311129,"lon":5.377685,"is_reserved":false,"is_disabled":false,"rental_uris":{"android":"levelo://app?vid=5cf9bea3-9c42-4bef-a5e8-cfcc39d36971","ios":"levelo://app?vid=5cf9bea3-9c42-4bef-a5e8-cfcc39d36971"},"vehicle_type_id":"4","last_reported":1746502439,"current_range_meters":14800,"station_id":"ce4bgt92rcd13ifvqcg0","pricing_plan_id":"cebpf4jnsgd1na2vs0mg"},{"bike_id":"5a7d2749-ecbc-4351-94f2-8339d95d4c06","system_id":"levelo_inurba_marseille","lat":43.3154,"lon":5.38035,"is_reserved":false,"is_disabled":false,"rental_uris":{"android":"levelo://app?vid=5a7d2749-ecbc-4351-94f2-8339d95d4c06","ios":"levelo://app?vid=5a7d2749-ecbc-4351-94f2-8339d95d4c06"},"vehicle_type_id":"4","last_reported":1746502439,"current_range_meters":14800,"station_id":"ce4bhsp2rcd13ifvqi50","pricing_plan_id":"cebpf4jnsgd1na2vs0mg"},{"bike_id":"bfb768d4-db43-4db8-8659-afeb33dd4edd","system_id":"levelo_inurba_marseille","lat":43.307319,"lon":5.424409,"is_reserved":false,"is_disabled":false,"rental_uris":{"android":"levelo://app?vid=bfb768d4-db43-4db8-8659-afeb33dd4edd","ios":"levelo://app?vid=bfb768d4-db43-4db8-8659-afeb33dd4edd"},"vehicle_type_id":"4","last_reported":1746502439,"current_range_meters":14800,"station_id":"st_cvj6ca6bvosntc0bfgr0","pricing_plan_id":"cebpf4jnsgd1na2vs0mg"},{"bike_id":"4678c952-5c8f-4c98-ba53-cd611bbaa1bf","system_id":"levelo_inurba_marseille","lat":43.30359,"lon":5.41868,"is_reserved":false,"is_disabled":false,"rental_uris":{"android":"levelo://app?vid=4678c952-5c8f-4c98-ba53-cd611bbaa1bf","ios":"levelo://app?vid=4678c952-5c8f-4c98-ba53-cd611bbaa1bf"},"vehicle_type_id":"4","last_reported":1746502439,"current_range_meters":15200,"station_id":"ce4bhop2rcd13ifvqh7g","pricing_plan_id":"cebpf4jnsgd1na2vs0mg"},{"bike_id":"68db1e13-3b7e-40af-83a2-a4203eac9c02","system_id":"levelo_inurba_marseille","lat":43.28127,"lon":5.37833,"is_reserved":false,"is_disabled":false,"rental_uris":{"android":"levelo://app?vid=68db1e13-3b7e-40af-83a2-a4203eac9c02","ios":"levelo://app?vid=68db1e13-3b7e-40af-83a2-a4203eac9c02"},"vehicle_type_id":"4","last_reported":1746502439,"current_range_meters":16000,"station_id":"ce4bha12rcd13ifvqee0","pricing_plan_id":"cebpf4jnsgd1na2vs0mg"},{"bike_id":"a8a1b1f9-4837-4bd3-b489-a1183a034be7","system_id":"levelo_inurba_marseille","lat":43.286555,"lon":5.363529,"is_reserved":false,"is_disabled":false,"rental_uris":{"android":"levelo://app?vid=a8a1b1f9-4837-4bd3-b489-a1183a034be7","ios":"levelo://app?vid=a8a1b1f9-4837-4bd3-b489-a1183a034be7"},"vehicle_type_id":"4","last_reported":1746502439,"current_range_meters":16000,"station_id":"ce4bhah2rcd13ifvqej0","pricing_plan_id":"cebpf4jnsgd1na2vs0mg"},{"bike_id":"6ce81efa-e8f3-477a-b7a1-a1c58c727c56","system_id":"levelo_inurba_marseille","lat":43.211915,"lon":5.35077,"is_reserved":false,"is_disabled":false,"rental_uris":{"android":"levelo://app?vid=6ce81efa-e8f3-477a-b7a1-a1c58c727c56","ios":"levelo://app?vid=6ce81efa-e8f3-477a-b7a1-a1c58c727c56"},"vehicle_type_id":"4","last_reported":1746502439,"current_range_meters":16400,"station_id":"","pricing_plan_id":"cebpf4jnsgd1na2vs0mg"},{"bike_id":"d1aa6e5d-6beb-440c-afb6-1d488c12e5a1","system_id":"levelo_inurba_marseille","lat":43.34709,"lon":5.36194,"is_reserved":false,"is_disabled":false,"rental_uris":{"android":"levelo://app?vid=d1aa6e5d-6beb-440c-afb6-1d488c12e5a1","ios":"levelo://app?vid=d1aa6e5d-6beb-440c-afb6-1d488c12e5a1"},"vehicle_type_id":"4","last_reported":1746502439,"current_range_meters":16400,"station_id":"","pricing_plan_id":"cebpf4jnsgd1na2vs0mg"},{"bike_id":"62abd1a7-7a0b-4601-b7d9-44b92d8d2d1e","system_id":"levelo_inurba_marseille","lat":43.281061,"lon":5.378372,"is_reserved":false,"is_disabled":false,"rental_uris":{"android":"levelo://app?vid=62abd1a7-7a0b-4601-b7d9-44b92d8d2d1e","ios":"levelo://app?vid=62abd1a7-7a0b-4601-b7d9-44b92d8d2d1e"},"vehicle_type_id":"4","last_reported":1746502439,"current_range_meters":16400,"station_id":"ce4bha12rcd13ifvqee0","pricing_plan_id":"cebpf4jnsgd1na2vs0mg"},{"bike_id":"9175d517-3c9f-4a9d-9359-bc5552cd94b8","system_id":"levelo_inurba_marseille","lat":43.28608,"lon":5.351174,"is_reserved":false,"is_disabled":false,"rental_uris":{"android":"levelo://app?vid=9175d517-3c9f-4a9d-9359-bc5552cd94b8","ios":"levelo://app?vid=9175d517-3c9f-4a9d-9359-bc5552cd94b8"},"vehicle_type_id":"4","last_reported":1746502439,"current_range_meters":16400,"station_id":"ce4bhch2rcd13ifvqeug","pricing_plan_id":"cebpf4jnsgd1na2vs0mg"},{"bike_id":"a327ed7c-cb3d-44b1-bb3d-7951cd226f01","system_id":"levelo_inurba_marseille","lat":43.293396,"lon":5.371296,"is_reserved":false,"is_disabled":false,"rental_uris":{"android":"levelo://app?vid=a327ed7c-cb3d-44b1-bb3d-7951cd226f01","ios":"levelo://app?vid=a327ed7c-cb3d-44b1-bb3d-7951cd226f01"},"vehicle_type_id":"4","last_reported":1746502439,"current_range_meters":16800,"station_id":"","pricing_plan_id":"cebpf4jnsgd1na2vs0mg"},{"bike_id":"6ddb90f6-4587-4feb-9901-3dcd0e047bc2","system_id":"levelo_inurba_marseille","lat":43.289444,"lon":5.366339,"is_reserved":false,"is_disabled":false,"rental_uris":{"android":"levelo://app?vid=6ddb90f6-4587-4feb-9901-3dcd0e047bc2","ios":"levelo://app?vid=6ddb90f6-4587-4feb-9901-3dcd0e047bc2"},"vehicle_type_id":"4","last_reported":1746502439,"current_range_meters":16800,"station_id":"ce4bhap2rcd13ifvqek0","pricing_plan_id":"cebpf4jnsgd1na2vs0mg"},{"bike_id":"03bb5049-51e5-461e-8353-3cc13edfbfb8","system_id":"levelo_inurba_marseille","lat":43.23945,"lon":5.36642,"is_reserved":false,"is_disabled":false,"rental_uris":{"android":"levelo://app?vid=03bb5049-51e5-461e-8353-3cc13edfbfb8","ios":"levelo://app?vid=03bb5049-51e5-461e-8353-3cc13edfbfb8"},"vehicle_type_id":"4","last_reported":1746502439,"current_range_meters":16800,"station_id":"ce4bhi12rcd13ifvqfp0","pricing_plan_id":"cebpf4jnsgd1na2vs0mg"},{"bike_id":"f8951e71-e6d6-4079-85a7-64eca3dfb50c","system_id":"levelo_inurba_marseille","lat":43.241733,"lon":5.397344,"is_reserved":false,"is_disabled":false,"rental_uris":{"android":"levelo://app?vid=f8951e71-e6d6-4079-85a7-64eca3dfb50c","ios":"levelo://app?vid=f8951e71-e6d6-4079-85a7-64eca3dfb50c"},"vehicle_type_id":"4","last_reported":1746502439,"current_range_meters":16800,"station_id":"ce4bhn12rcd13ifvqgpg","pricing_plan_id":"cebpf4jnsgd1na2vs0mg"},{"bike_id":"27563f88-1268-4b98-bc06-44e98c7ca400","system_id":"levelo_inurba_marseille","lat":43.320842,"lon":5.440945,"is_reserved":false,"is_disabled":false,"rental_uris":{"android":"levelo://app?vid=27563f88-1268-4b98-bc06-44e98c7ca400","ios":"levelo://app?vid=27563f88-1268-4b98-bc06-44e98c7ca400"},"vehicle_type_id":"4","last_reported":1746502439,"current_range_meters":17200,"station_id":"","pricing_plan_id":"cebpf4jnsgd1na2vs0mg"},{"bike_id":"1900e395-19ba-404e-aa6a-262b7656599d","system_id":"levelo_inurba_marseille","lat":43.2888,"lon":5.43707,"is_reserved":false,"is_disabled":false,"rental_uris":{"android":"levelo://app?vid=1900e395-19ba-404e-aa6a-262b7656599d","ios":"levelo://app?vid=1900e395-19ba-404e-aa6a-262b7656599d"},"vehicle_type_id":"4","last_reported":1746502439,"current_range_meters":17200,"station_id":"","pricing_plan_id":"cebpf4jnsgd1na2vs0mg"},{"bike_id":"cce8e4b5-1427-4d8d-b0f6-ba2ff10b77ff","system_id":"levelo_inurba_marseille","lat":43.3015,"lon":5.38097,"is_reserved":false,"is_disabled":false,"rental_uris":{"android":"levelo://app?vid=cce8e4b5-1427-4d8d-b0f6-ba2ff10b77ff","ios":"levelo://app?vid=cce8e4b5-1427-4d8d-b0f6-ba2ff10b77ff"},"vehicle_type_id":"4","last_reported":1746502439,"current_range_meters":17200,"station_id":"ce4bgjp2rcd13ifvqbh0","pricing_plan_id":"cebpf4jnsgd1na2vs0mg"},{"bike_id":"82f4dc22-101f-465e-a26a-59bc1ffb8cd4","system_id":"levelo_inurba_marseille","lat":43.2842,"lon":5.3751,"is_reserved":false,"is_disabled":false,"rental_uris":{"android":"levelo://app?vid=82f4dc22-101f-465e-a26a-59bc1ffb8cd4","ios":"levelo://app?vid=82f4dc22-101f-465e-a26a-59bc1ffb8cd4"},"vehicle_type_id":"4","last_reported":1746502439,"current_range_meters":17200,"station_id":"ce4bh412rcd13ifvqds0","pricing_plan_id":"cebpf4jnsgd1na2vs0mg"},{"bike_id":"46a428a1-3a45-4310-8fc1-8ac5239110b0","system_id":"levelo_inurba_marseille","lat":43.25814,"lon":5.39441,"is_reserved":false,"is_disabled":false,"rental_uris":{"android":"levelo://app?vid=46a428a1-3a45-4310-8fc1-8ac5239110b0","ios":"levelo://app?vid=46a428a1-3a45-4310-8fc1-8ac5239110b0"},"vehicle_type_id":"4","last_reported":1746502439,"current_range_meters":17200,"station_id":"ce4bhip2rcd13ifvqft0","pricing_plan_id":"cebpf4jnsgd1na2vs0mg"},{"bike_id":"13d72c90-097d-44e3-a161-c92142027aeb","system_id":"levelo_inurba_marseille","lat":43.32077,"lon":5.36811,"is_reserved":false,"is_disabled":false,"rental_uris":{"android":"levelo://app?vid=13d72c90-097d-44e3-a161-c92142027aeb","ios":"levelo://app?vid=13d72c90-097d-44e3-a161-c92142027aeb"},"vehicle_type_id":"4","last_reported":1746502439,"current_range_meters":17200,"station_id":"ce4bhrh2rcd13ifvqhug","pricing_plan_id":"cebpf4jnsgd1na2vs0mg"},{"bike_id":"e0a0fb85-9539-4fb6-b21f-392540fb8a26","system_id":"levelo_inurba_marseille","lat":43.323582,"lon":5.367496,"is_reserved":false,"is_disabled":false,"rental_uris":{"android":"levelo://app?vid=e0a0fb85-9539-4fb6-b21f-392540fb8a26","ios":"levelo://app?vid=e0a0fb85-9539-4fb6-b21f-392540fb8a26"},"vehicle_type_id":"4","last_reported":1746502439,"current_range_meters":17200,"station_id":"ce4bhsh2rcd13ifvqi2g","pricing_plan_id":"cebpf4jnsgd1na2vs0mg"},{"bike_id":"144c51af-426b-42d7-b56e-922177862b14","system_id":"levelo_inurba_marseille","lat":43.31073,"lon":5.38357,"is_reserved":false,"is_disabled":false,"rental_uris":{"android":"levelo://app?vid=144c51af-426b-42d7-b56e-922177862b14","ios":"levelo://app?vid=144c51af-426b-42d7-b56e-922177862b14"},"vehicle_type_id":"4","last_reported":1746502439,"current_range_meters":17600,"station_id":"ce4bgv92rcd13ifvqcr0","pricing_plan_id":"cebpf4jnsgd1na2vs0mg"},{"bike_id":"5188d40d-26c6-4eed-930a-0fff493932e7","system_id":"levelo_inurba_marseille","lat":43.298071,"lon":5.403962,"is_reserved":false,"is_disabled":false,"rental_uris":{"android":"levelo://app?vid=5188d40d-26c6-4eed-930a-0fff493932e7","ios":"levelo://app?vid=5188d40d-26c6-4eed-930a-0fff493932e7"},"vehicle_type_id":"4","last_reported":1746502439,"current_range_meters":17600,"station_id":"ce4bh112rcd13ifvqd90","pricing_plan_id":"cebpf4jnsgd1na2vs0mg"},{"bike_id":"e913cf30-eb5e-4abe-8900-12e0ae6d43b8","system_id":"levelo_inurba_marseille","lat":43.286958,"lon":5.374044,"is_reserved":false,"is_disabled":false,"rental_uris":{"android":"levelo://app?vid=e913cf30-eb5e-4abe-8900-12e0ae6d43b8","ios":"levelo://app?vid=e913cf30-eb5e-4abe-8900-12e0ae6d43b8"},"vehicle_type_id":"4","last_reported":1746502439,"current_range_meters":17600,"station_id":"ce4bh3p2rcd13ifvqdq0","pricing_plan_id":"cebpf4jnsgd1na2vs0mg"},{"bike_id":"8089a7f7-6677-45a4-9140-6ad780ae044e","system_id":"levelo_inurba_marseille","lat":43.313764,"lon":5.384841,"is_reserved":false,"is_disabled":false,"rental_uris":{"android":"levelo://app?vid=8089a7f7-6677-45a4-9140-6ad780ae044e","ios":"levelo://app?vid=8089a7f7-6677-45a4-9140-6ad780ae044e"},"vehicle_type_id":"4","last_reported":1746502439,"current_range_meters":18000,"station_id":"ce4bgt92rcd13ifvqcf0","pricing_plan_id":"cebpf4jnsgd1na2vs0mg"},{"bike_id":"bb57f667-396d-4003-ae12-13bf8f696902","system_id":"levelo_inurba_marseille","lat":43.27932,"lon":5.41025,"is_reserved":false,"is_disabled":false,"rental_uris":{"android":"levelo://app?vid=bb57f667-396d-4003-ae12-13bf8f696902","ios":"levelo://app?vid=bb57f667-396d-4003-ae12-13bf8f696902"},"vehicle_type_id":"4","last_reported":1746502439,"current_range_meters":18000,"station_id":"ce4bhnp2rcd13ifvqh0g","pricing_plan_id":"cebpf4jnsgd1na2vs0mg"},{"bike_id":"4bdbfa2a-ffc0-4860-819c-6326869a5a0f","system_id":"levelo_inurba_marseille","lat":43.287261,"lon":5.360915,"is_reserved":false,"is_disabled":false,"rental_uris":{"android":"levelo://app?vid=4bdbfa2a-ffc0-4860-819c-6326869a5a0f","ios":"levelo://app?vid=4bdbfa2a-ffc0-4860-819c-6326869a5a0f"},"vehicle_type_id":"4","last_reported":1746502439,"current_range_meters":18000,"station_id":"cki0cbj6b192h4jlfktg","pricing_plan_id":"cebpf4jnsgd1na2vs0mg"},{"bike_id":"b4bac287-3615-423a-bca2-a11fb80cb066","system_id":"levelo_inurba_marseille","lat":43.230556,"lon":5.354961,"is_reserved":false,"is_disabled":false,"rental_uris":{"android":"levelo://app?vid=b4bac287-3615-423a-bca2-a11fb80cb066","ios":"levelo://app?vid=b4bac287-3615-423a-bca2-a11fb80cb066"},"vehicle_type_id":"4","last_reported":1746502439,"current_range_meters":18000,"station_id":"cpo3342slgdg3j2ifvpg","pricing_plan_id":"cebpf4jnsgd1na2vs0mg"},{"bike_id":"2714f713-c769-4f6a-ac44-441a635e9cba","system_id":"levelo_inurba_marseille","lat":43.21614,"lon":5.34211,"is_reserved":false,"is_disabled":false,"rental_uris":{"android":"levelo://app?vid=2714f713-c769-4f6a-ac44-441a635e9cba","ios":"levelo://app?vid=2714f713-c769-4f6a-ac44-441a635e9cba"},"vehicle_type_id":"4","last_reported":1746502439,"current_range_meters":18800,"station_id":"","pricing_plan_id":"cebpf4jnsgd1na2vs0mg"},{"bike_id":"c68c6456-dba5-40f7-8477-0cd5b17abb93","system_id":"levelo_inurba_marseille","lat":43.287,"lon":5.37391,"is_reserved":false,"is_disabled":false,"rental_uris":{"android":"levelo://app?vid=c68c6456-dba5-40f7-8477-0cd5b17abb93","ios":"levelo://app?vid=c68c6456-dba5-40f7-8477-0cd5b17abb93"},"vehicle_type_id":"4","last_reported":1746502439,"current_range_meters":18800,"station_id":"ce4bh3p2rcd13ifvqdq0","pricing_plan_id":"cebpf4jnsgd1na2vs0mg"},{"bike_id":"f7f685cd-3f69-4e28-b1ba-dd267fb3831d","system_id":"levelo_inurba_marseille","lat":43.28733,"lon":5.36082,"is_reserved":false,"is_disabled":false,"rental_uris":{"android":"levelo://app?vid=f7f685cd-3f69-4e28-b1ba-dd267fb3831d","ios":"levelo://app?vid=f7f685cd-3f69-4e28-b1ba-dd267fb3831d"},"vehicle_type_id":"4","last_reported":1746502439,"current_range_meters":18800,"station_id":"cki0cbj6b192h4jlfktg","pricing_plan_id":"cebpf4jnsgd1na2vs0mg"},{"bike_id":"6754dd71-95b8-439b-aa68-2ee1fd4c8732","system_id":"levelo_inurba_marseille","lat":43.287211,"lon":5.360876,"is_reserved":false,"is_disabled":false,"rental_uris":{"android":"levelo://app?vid=6754dd71-95b8-439b-aa68-2ee1fd4c8732","ios":"levelo://app?vid=6754dd71-95b8-439b-aa68-2ee1fd4c8732"},"vehicle_type_id":"4","last_reported":1746502439,"current_range_meters":18800,"station_id":"cki0cbj6b192h4jlfktg","pricing_plan_id":"cebpf4jnsgd1na2vs0mg"},{"bike_id":"881ffd31-6516-4250-b69a-6fcacc9a3445","system_id":"levelo_inurba_marseille","lat":43.30491,"lon":5.37351,"is_reserved":false,"is_disabled":false,"rental_uris":{"android":"levelo://app?vid=881ffd31-6516-4250-b69a-6fcacc9a3445","ios":"levelo://app?vid=881ffd31-6516-4250-b69a-6fcacc9a3445"},"vehicle_type_id":"4","last_reported":1746502439,"current_range_meters":19200,"station_id":"ce4bgqh2rcd13ifvqc4g","pricing_plan_id":"cebpf4jnsgd1na2vs0mg"},{"bike_id":"b4216838-733b-46cd-aae7-8693e0287a61","system_id":"levelo_inurba_marseille","lat":43.22962,"lon":5.35316,"is_reserved":false,"is_disabled":false,"rental_uris":{"android":"levelo://app?vid=b4216838-733b-46cd-aae7-8693e0287a61","ios":"levelo://app?vid=b4216838-733b-46cd-aae7-8693e0287a61"},"vehicle_type_id":"4","last_reported":1746502439,"current_range_meters":19600,"station_id":"","pricing_plan_id":"cebpf4jnsgd1na2vs0mg"},{"bike_id":"ac700e2e-c129-4f82-a3c3-f628077933a6","system_id":"levelo_inurba_marseille","lat":43.211978,"lon":5.351003,"is_reserved":false,"is_disabled":false,"rental_uris":{"android":"levelo://app?vid=ac700e2e-c129-4f82-a3c3-f628077933a6","ios":"levelo://app?vid=ac700e2e-c129-4f82-a3c3-f628077933a6"},"vehicle_type_id":"4","last_reported":1746502439,"current_range_meters":19600,"station_id":"st_cvj6sg6p6f1abm77japg","pricing_plan_id":"cebpf4jnsgd1na2vs0mg"},{"bike_id":"2c41ce9b-2318-4ef8-a4c8-cb5551a16620","system_id":"levelo_inurba_marseille","lat":43.32353,"lon":5.38911,"is_reserved":false,"is_disabled":false,"rental_uris":{"android":"levelo://app?vid=2c41ce9b-2318-4ef8-a4c8-cb5551a16620","ios":"levelo://app?vid=2c41ce9b-2318-4ef8-a4c8-cb5551a16620"},"vehicle_type_id":"4","last_reported":1746502439,"current_range_meters":20000,"station_id":"ce4bhqp2rcd13ifvqhog","pricing_plan_id":"cebpf4jnsgd1na2vs0mg"},{"bike_id":"39aa275e-d157-4bd3-b8c5-b8344765c5be","system_id":"levelo_inurba_marseille","lat":43.28735,"lon":5.36076,"is_reserved":false,"is_disabled":false,"rental_uris":{"android":"levelo://app?vid=39aa275e-d157-4bd3-b8c5-b8344765c5be","ios":"levelo://app?vid=39aa275e-d157-4bd3-b8c5-b8344765c5be"},"vehicle_type_id":"4","last_reported":1746502439,"current_range_meters":20000,"station_id":"cki0cbj6b192h4jlfktg","pricing_plan_id":"cebpf4jnsgd1na2vs0mg"},{"bike_id":"8fa70930-3d89-410a-8a0d-ae58e85113d9","system_id":"levelo_inurba_marseille","lat":43.33757,"lon":5.37475,"is_reserved":false,"is_disabled":false,"rental_uris":{"android":"levelo://app?vid=8fa70930-3d89-410a-8a0d-ae58e85113d9","ios":"levelo://app?vid=8fa70930-3d89-410a-8a0d-ae58e85113d9"},"vehicle_type_id":"4","last_reported":1746502439,"current_range_meters":20400,"station_id":"","pricing_plan_id":"cebpf4jnsgd1na2vs0mg"},{"bike_id":"a3dc441c-3dd7-42dc-913a-7db783432e14","system_id":"levelo_inurba_marseille","lat":43.28612,"lon":5.37064,"is_reserved":false,"is_disabled":false,"rental_uris":{"android":"levelo://app?vid=a3dc441c-3dd7-42dc-913a-7db783432e14","ios":"levelo://app?vid=a3dc441c-3dd7-42dc-913a-7db783432e14"},"vehicle_type_id":"4","last_reported":1746502439,"current_range_meters":20400,"station_id":"ce4bht12rcd13ifvqi60","pricing_plan_id":"cebpf4jnsgd1na2vs0mg"},{"bike_id":"ea4762e8-256b-4c73-a917-b8c3e12612ed","system_id":"levelo_inurba_marseille","lat":43.261155,"lon":5.414644,"is_reserved":false,"is_disabled":false,"rental_uris":{"android":"levelo://app?vid=ea4762e8-256b-4c73-a917-b8c3e12612ed","ios":"levelo://app?vid=ea4762e8-256b-4c73-a917-b8c3e12612ed"},"vehicle_type_id":"4","last_reported":1746502439,"current_range_meters":20800,"station_id":"","pricing_plan_id":"cebpf4jnsgd1na2vs0mg"},{"bike_id":"2fa0b816-7ec6-4882-9376-089f3a9e406c","system_id":"levelo_inurba_marseille","lat":43.337591,"lon":5.374843,"is_reserved":false,"is_disabled":false,"rental_uris":{"android":"levelo://app?vid=2fa0b816-7ec6-4882-9376-089f3a9e406c","ios":"levelo://app?vid=2fa0b816-7ec6-4882-9376-089f3a9e406c"},"vehicle_type_id":"4","last_reported":1746502439,"current_range_meters":20800,"station_id":"","pricing_plan_id":"cebpf4jnsgd1na2vs0mg"},{"bike_id":"2f25eff5-6c19-4e87-a4b7-84914327c4b4","system_id":"levelo_inurba_marseille","lat":43.307944,"lon":5.381651,"is_reserved":false,"is_disabled":false,"rental_uris":{"android":"levelo://app?vid=2f25eff5-6c19-4e87-a4b7-84914327c4b4","ios":"levelo://app?vid=2f25eff5-6c19-4e87-a4b7-84914327c4b4"},"vehicle_type_id":"4","last_reported":1746502439,"current_range_meters":20800,"station_id":"ce4bgt12rcd13ifvqce0","pricing_plan_id":"cebpf4jnsgd1na2vs0mg"},{"bike_id":"3b1a86b6-0608-4c2a-8a0c-81b34e73a5c5","system_id":"levelo_inurba_marseille","lat":43.30353,"lon":5.36872,"is_reserved":false,"is_disabled":false,"rental_uris":{"android":"levelo://app?vid=3b1a86b6-0608-4c2a-8a0c-81b34e73a5c5","ios":"levelo://app?vid=3b1a86b6-0608-4c2a-8a0c-81b34e73a5c5"},"vehicle_type_id":"4","last_reported":1746502439,"current_range_meters":21600,"station_id":"","pricing_plan_id":"cebpf4jnsgd1na2vs0mg"},{"bike_id":"08729567-1803-4a3a-b335-fdd95b127ecd","system_id":"levelo_inurba_marseille","lat":43.31168,"lon":5.387135,"is_reserved":false,"is_disabled":false,"rental_uris":{"android":"levelo://app?vid=08729567-1803-4a3a-b335-fdd95b127ecd","ios":"levelo://app?vid=08729567-1803-4a3a-b335-fdd95b127ecd"},"vehicle_type_id":"4","last_reported":1746502439,"current_range_meters":21600,"station_id":"ce4bgv12rcd13ifvqcp0","pricing_plan_id":"cebpf4jnsgd1na2vs0mg"},{"bike_id":"7ea9b8bc-827d-4aed-92c9-7aeee53fcbcd","system_id":"levelo_inurba_marseille","lat":43.262131,"lon":5.404569,"is_reserved":false,"is_disabled":false,"rental_uris":{"android":"levelo://app?vid=7ea9b8bc-827d-4aed-92c9-7aeee53fcbcd","ios":"levelo://app?vid=7ea9b8bc-827d-4aed-92c9-7aeee53fcbcd"},"vehicle_type_id":"4","last_reported":1746502439,"current_range_meters":21600,"station_id":"ce4bhmh2rcd13ifvqgmg","pricing_plan_id":"cebpf4jnsgd1na2vs0mg"},{"bike_id":"afac6972-47be-44a9-9b16-e544ef1aba9d","system_id":"levelo_inurba_marseille","lat":43.23184,"lon":5.39977,"is_reserved":false,"is_disabled":false,"rental_uris":{"android":"levelo://app?vid=afac6972-47be-44a9-9b16-e544ef1aba9d","ios":"levelo://app?vid=afac6972-47be-44a9-9b16-e544ef1aba9d"},"vehicle_type_id":"4","last_reported":1746502439,"current_range_meters":21600,"station_id":"ce4bhn12rcd13ifvqgqg","pricing_plan_id":"cebpf4jnsgd1na2vs0mg"},{"bike_id":"4fa44a4d-c738-41bc-9022-213fbeae4065","system_id":"levelo_inurba_marseille","lat":43.23184,"lon":5.3999,"is_reserved":false,"is_disabled":false,"rental_uris":{"android":"levelo://app?vid=4fa44a4d-c738-41bc-9022-213fbeae4065","ios":"levelo://app?vid=4fa44a4d-c738-41bc-9022-213fbeae4065"},"vehicle_type_id":"4","last_reported":1746502439,"current_range_meters":21600,"station_id":"ce4bhn12rcd13ifvqgqg","pricing_plan_id":"cebpf4jnsgd1na2vs0mg"},{"bike_id":"8a4b30e0-b491-4f8b-b56b-65294a62c555","system_id":"levelo_inurba_marseille","lat":43.25475,"lon":5.41872,"is_reserved":false,"is_disabled":false,"rental_uris":{"android":"levelo://app?vid=8a4b30e0-b491-4f8b-b56b-65294a62c555","ios":"levelo://app?vid=8a4b30e0-b491-4f8b-b56b-65294a62c555"},"vehicle_type_id":"4","last_reported":1746502439,"current_range_meters":22000,"station_id":"","pricing_plan_id":"cebpf4jnsgd1na2vs0mg"},{"bike_id":"d912aaf0-9efd-4ef0-b1ab-763b2afabfe0","system_id":"levelo_inurba_marseille","lat":43.290615,"lon":5.371635,"is_reserved":false,"is_disabled":false,"rental_uris":{"android":"levelo://app?vid=d912aaf0-9efd-4ef0-b1ab-763b2afabfe0","ios":"levelo://app?vid=d912aaf0-9efd-4ef0-b1ab-763b2afabfe0"},"vehicle_type_id":"4","last_reported":1746502439,"current_range_meters":22000,"station_id":"ce4bh5p2rcd13ifvqe4g","pricing_plan_id":"cebpf4jnsgd1na2vs0mg"},{"bike_id":"1b5c9130-7e5c-4d9e-b45d-e358c3f71ba5","system_id":"levelo_inurba_marseille","lat":43.28852,"lon":5.35855,"is_reserved":false,"is_disabled":false,"rental_uris":{"android":"levelo://app?vid=1b5c9130-7e5c-4d9e-b45d-e358c3f71ba5","ios":"levelo://app?vid=1b5c9130-7e5c-4d9e-b45d-e358c3f71ba5"},"vehicle_type_id":"4","last_reported":1746502439,"current_range_meters":22000,"station_id":"ce4bhb12rcd13ifvqem0","pricing_plan_id":"cebpf4jnsgd1na2vs0mg"},{"bike_id":"a0fcebb9-adb3-4214-a4cd-919fcb7c5c33","system_id":"levelo_inurba_marseille","lat":43.286154,"lon":5.351116,"is_reserved":false,"is_disabled":false,"rental_uris":{"android":"levelo://app?vid=a0fcebb9-adb3-4214-a4cd-919fcb7c5c33","ios":"levelo://app?vid=a0fcebb9-adb3-4214-a4cd-919fcb7c5c33"},"vehicle_type_id":"4","last_reported":1746502439,"current_range_meters":22000,"station_id":"ce4bhch2rcd13ifvqeug","pricing_plan_id":"cebpf4jnsgd1na2vs0mg"},{"bike_id":"197b6bfa-4958-45f1-827f-50f81cbef7b8","system_id":"levelo_inurba_marseille","lat":43.24669,"lon":5.38153,"is_reserved":false,"is_disabled":false,"rental_uris":{"android":"levelo://app?vid=197b6bfa-4958-45f1-827f-50f81cbef7b8","ios":"levelo://app?vid=197b6bfa-4958-45f1-827f-50f81cbef7b8"},"vehicle_type_id":"4","last_reported":1746502439,"current_range_meters":22000,"station_id":"ce4bhih2rcd13ifvqfr0","pricing_plan_id":"cebpf4jnsgd1na2vs0mg"},{"bike_id":"722c1cb3-31f6-49fd-8369-b5e0a7a256b2","system_id":"levelo_inurba_marseille","lat":43.281049,"lon":5.378427,"is_reserved":false,"is_disabled":false,"rental_uris":{"android":"levelo://app?vid=722c1cb3-31f6-49fd-8369-b5e0a7a256b2","ios":"levelo://app?vid=722c1cb3-31f6-49fd-8369-b5e0a7a256b2"},"vehicle_type_id":"4","last_reported":1746502439,"current_range_meters":22400,"station_id":"ce4bha12rcd13ifvqee0","pricing_plan_id":"cebpf4jnsgd1na2vs0mg"},{"bike_id":"249a255a-a762-4d7c-91d1-e38b413ba4f5","system_id":"levelo_inurba_marseille","lat":43.284567,"lon":5.358894,"is_reserved":false,"is_disabled":false,"rental_uris":{"android":"levelo://app?vid=249a255a-a762-4d7c-91d1-e38b413ba4f5","ios":"levelo://app?vid=249a255a-a762-4d7c-91d1-e38b413ba4f5"},"vehicle_type_id":"4","last_reported":1746502439,"current_range_meters":22400,"station_id":"ce4bhah2rcd13ifvqei0","pricing_plan_id":"cebpf4jnsgd1na2vs0mg"},{"bike_id":"d5ef6ad8-1242-44b6-9125-49309ae65236","system_id":"levelo_inurba_marseille","lat":43.30993,"lon":5.40093,"is_reserved":false,"is_disabled":false,"rental_uris":{"android":"levelo://app?vid=d5ef6ad8-1242-44b6-9125-49309ae65236","ios":"levelo://app?vid=d5ef6ad8-1242-44b6-9125-49309ae65236"},"vehicle_type_id":"4","last_reported":1746502439,"current_range_meters":22800,"station_id":"ce4bgvp2rcd13ifvqct0","pricing_plan_id":"cebpf4jnsgd1na2vs0mg"},{"bike_id":"1d4ad047-6a0f-405c-ba0b-262195f4889b","system_id":"levelo_inurba_marseille","lat":43.304412,"lon":5.397448,"is_reserved":false,"is_disabled":false,"rental_uris":{"android":"levelo://app?vid=1d4ad047-6a0f-405c-ba0b-262195f4889b","ios":"levelo://app?vid=1d4ad047-6a0f-405c-ba0b-262195f4889b"},"vehicle_type_id":"4","last_reported":1746502439,"current_range_meters":23200,"station_id":"ce4bh092rcd13ifvqd20","pricing_plan_id":"cebpf4jnsgd1na2vs0mg"},{"bike_id":"2e656d16-02e6-4eba-9b70-3abb7c377d6f","system_id":"levelo_inurba_marseille","lat":43.28463,"lon":5.35875,"is_reserved":false,"is_disabled":false,"rental_uris":{"android":"levelo://app?vid=2e656d16-02e6-4eba-9b70-3abb7c377d6f","ios":"levelo://app?vid=2e656d16-02e6-4eba-9b70-3abb7c377d6f"},"vehicle_type_id":"4","last_reported":1746502439,"current_range_meters":23200,"station_id":"ce4bhah2rcd13ifvqei0","pricing_plan_id":"cebpf4jnsgd1na2vs0mg"},{"bike_id":"f5774a0b-ba08-4a39-beee-b3ec8dcb2483","system_id":"levelo_inurba_marseille","lat":43.23956,"lon":5.36641,"is_reserved":false,"is_disabled":false,"rental_uris":{"android":"levelo://app?vid=f5774a0b-ba08-4a39-beee-b3ec8dcb2483","ios":"levelo://app?vid=f5774a0b-ba08-4a39-beee-b3ec8dcb2483"},"vehicle_type_id":"4","last_reported":1746502439,"current_range_meters":23200,"station_id":"ce4bhi12rcd13ifvqfp0","pricing_plan_id":"cebpf4jnsgd1na2vs0mg"},{"bike_id":"85fe12a7-92f0-41fa-ae12-56154e1eae9f","system_id":"levelo_inurba_marseille","lat":43.28134,"lon":5.42676,"is_reserved":false,"is_disabled":false,"rental_uris":{"android":"levelo://app?vid=85fe12a7-92f0-41fa-ae12-56154e1eae9f","ios":"levelo://app?vid=85fe12a7-92f0-41fa-ae12-56154e1eae9f"},"vehicle_type_id":"4","last_reported":1746502439,"current_range_meters":23200,"station_id":"ce4bhnh2rcd13ifvqgug","pricing_plan_id":"cebpf4jnsgd1na2vs0mg"},{"bike_id":"72c51981-9a26-4763-8f01-8b65c8314524","system_id":"levelo_inurba_marseille","lat":43.29646,"lon":5.4057,"is_reserved":false,"is_disabled":false,"rental_uris":{"android":"levelo://app?vid=72c51981-9a26-4763-8f01-8b65c8314524","ios":"levelo://app?vid=72c51981-9a26-4763-8f01-8b65c8314524"},"vehicle_type_id":"4","last_reported":1746502439,"current_range_meters":24000,"station_id":"ce4bh0h2rcd13ifvqd60","pricing_plan_id":"cebpf4jnsgd1na2vs0mg"},{"bike_id":"e2b2fa55-386f-4fbb-991b-cc2b8bf7afac","system_id":"levelo_inurba_marseille","lat":43.279429,"lon":5.410327,"is_reserved":false,"is_disabled":false,"rental_uris":{"android":"levelo://app?vid=e2b2fa55-386f-4fbb-991b-cc2b8bf7afac","ios":"levelo://app?vid=e2b2fa55-386f-4fbb-991b-cc2b8bf7afac"},"vehicle_type_id":"4","last_reported":1746502439,"current_range_meters":24000,"station_id":"ce4bhnp2rcd13ifvqh0g","pricing_plan_id":"cebpf4jnsgd1na2vs0mg"},{"bike_id":"72be7735-ecd2-4396-bbf3-e0b752b65580","system_id":"levelo_inurba_marseille","lat":43.26807,"lon":5.402612,"is_reserved":false,"is_disabled":false,"rental_uris":{"android":"levelo://app?vid=72be7735-ecd2-4396-bbf3-e0b752b65580","ios":"levelo://app?vid=72be7735-ecd2-4396-bbf3-e0b752b65580"},"vehicle_type_id":"4","last_reported":1746502439,"current_range_meters":24000,"station_id":"ce501612rcd8frsf0b60","pricing_plan_id":"cebpf4jnsgd1na2vs0mg"},{"bike_id":"f337ae3b-9238-4523-b038-ffc2307dcf95","system_id":"levelo_inurba_marseille","lat":43.31483,"lon":5.372973,"is_reserved":false,"is_disabled":false,"rental_uris":{"android":"levelo://app?vid=f337ae3b-9238-4523-b038-ffc2307dcf95","ios":"levelo://app?vid=f337ae3b-9238-4523-b038-ffc2307dcf95"},"vehicle_type_id":"4","last_reported":1746502439,"current_range_meters":24400,"station_id":"ce4bgt12rcd13ifvqcd0","pricing_plan_id":"cebpf4jnsgd1na2vs0mg"},{"bike_id":"ebad895e-16ab-4861-af58-e61a781cbe8d","system_id":"levelo_inurba_marseille","lat":43.26057,"lon":5.39405,"is_reserved":false,"is_disabled":false,"rental_uris":{"android":"levelo://app?vid=ebad895e-16ab-4861-af58-e61a781cbe8d","ios":"levelo://app?vid=ebad895e-16ab-4861-af58-e61a781cbe8d"},"vehicle_type_id":"4","last_reported":1746502439,"current_range_meters":24400,"station_id":"ce4bhh92rcd13ifvqfj0","pricing_plan_id":"cebpf4jnsgd1na2vs0mg"},{"bike_id":"0df3111c-fd99-4e63-915e-e7763d46bb1b","system_id":"levelo_inurba_marseille","lat":43.28487,"lon":5.37095,"is_reserved":false,"is_disabled":false,"rental_uris":{"android":"levelo://app?vid=0df3111c-fd99-4e63-915e-e7763d46bb1b","ios":"levelo://app?vid=0df3111c-fd99-4e63-915e-e7763d46bb1b"},"vehicle_type_id":"4","last_reported":1746502439,"current_range_meters":24800,"station_id":"","pricing_plan_id":"cebpf4jnsgd1na2vs0mg"},{"bike_id":"d60b5ff3-d886-4755-9de3-7142bffaad36","system_id":"levelo_inurba_marseille","lat":43.29518,"lon":5.39406,"is_reserved":false,"is_disabled":false,"rental_uris":{"android":"levelo://app?vid=d60b5ff3-d886-4755-9de3-7142bffaad36","ios":"levelo://app?vid=d60b5ff3-d886-4755-9de3-7142bffaad36"},"vehicle_type_id":"4","last_reported":1746502439,"current_range_meters":24800,"station_id":"","pricing_plan_id":"cebpf4jnsgd1na2vs0mg"},{"bike_id":"60eb618b-d287-4963-8139-c94a7d23a966","system_id":"levelo_inurba_marseille","lat":43.28404,"lon":5.37523,"is_reserved":false,"is_disabled":false,"rental_uris":{"android":"levelo://app?vid=60eb618b-d287-4963-8139-c94a7d23a966","ios":"levelo://app?vid=60eb618b-d287-4963-8139-c94a7d23a966"},"vehicle_type_id":"4","last_reported":1746502439,"current_range_meters":24800,"station_id":"ce4bh412rcd13ifvqds0","pricing_plan_id":"cebpf4jnsgd1na2vs0mg"},{"bike_id":"062c704a-40d5-43ce-87e6-dc407d9a622e","system_id":"levelo_inurba_marseille","lat":43.28454,"lon":5.35893,"is_reserved":false,"is_disabled":false,"rental_uris":{"android":"levelo://app?vid=062c704a-40d5-43ce-87e6-dc407d9a622e","ios":"levelo://app?vid=062c704a-40d5-43ce-87e6-dc407d9a622e"},"vehicle_type_id":"4","last_reported":1746502439,"current_range_meters":24800,"station_id":"ce4bhah2rcd13ifvqei0","pricing_plan_id":"cebpf4jnsgd1na2vs0mg"},{"bike_id":"a499126d-8bc5-46d1-aede-7b24c6e9618d","system_id":"levelo_inurba_marseille","lat":43.28919,"lon":5.3667,"is_reserved":false,"is_disabled":false,"rental_uris":{"android":"levelo://app?vid=a499126d-8bc5-46d1-aede-7b24c6e9618d","ios":"levelo://app?vid=a499126d-8bc5-46d1-aede-7b24c6e9618d"},"vehicle_type_id":"4","last_reported":1746502439,"current_range_meters":24800,"station_id":"ce4bhap2rcd13ifvqek0","pricing_plan_id":"cebpf4jnsgd1na2vs0mg"},{"bike_id":"988678a7-a74d-49ed-8da4-7dc8aa077ea8","system_id":"levelo_inurba_marseille","lat":43.251012,"lon":5.403438,"is_reserved":false,"is_disabled":false,"rental_uris":{"android":"levelo://app?vid=988678a7-a74d-49ed-8da4-7dc8aa077ea8","ios":"levelo://app?vid=988678a7-a74d-49ed-8da4-7dc8aa077ea8"},"vehicle_type_id":"4","last_reported":1746502439,"current_range_meters":24800,"station_id":"ce4bhlh2rcd13ifvqgig","pricing_plan_id":"cebpf4jnsgd1na2vs0mg"},{"bike_id":"91cb3c59-479e-437f-97db-87bca3df8149","system_id":"levelo_inurba_marseille","lat":43.23184,"lon":5.39978,"is_reserved":false,"is_disabled":false,"rental_uris":{"android":"levelo://app?vid=91cb3c59-479e-437f-97db-87bca3df8149","ios":"levelo://app?vid=91cb3c59-479e-437f-97db-87bca3df8149"},"vehicle_type_id":"4","last_reported":1746502439,"current_range_meters":24800,"station_id":"ce4bhn12rcd13ifvqgqg","pricing_plan_id":"cebpf4jnsgd1na2vs0mg"},{"bike_id":"438628cd-4f8c-4662-860a-ea0022681b58","system_id":"levelo_inurba_marseille","lat":43.303036,"lon":5.36891,"is_reserved":false,"is_disabled":false,"rental_uris":{"android":"levelo://app?vid=438628cd-4f8c-4662-860a-ea0022681b58","ios":"levelo://app?vid=438628cd-4f8c-4662-860a-ea0022681b58"},"vehicle_type_id":"4","last_reported":1746502439,"current_range_meters":25200,"station_id":"ce4bgqh2rcd13ifvqc5g","pricing_plan_id":"cebpf4jnsgd1na2vs0mg"},{"bike_id":"c5e9035a-f042-4568-8ad6-60cf2efeded6","system_id":"levelo_inurba_marseille","lat":43.292608,"lon":5.38439,"is_reserved":false,"is_disabled":false,"rental_uris":{"android":"levelo://app?vid=c5e9035a-f042-4568-8ad6-60cf2efeded6","ios":"levelo://app?vid=c5e9035a-f042-4568-8ad6-60cf2efeded6"},"vehicle_type_id":"4","last_reported":1746502439,"current_range_meters":25600,"station_id":"ce4bghh2rcd13ifvqb60","pricing_plan_id":"cebpf4jnsgd1na2vs0mg"},{"bike_id":"7b0e4b53-63e2-4bfc-84b0-013f07b8ed0e","system_id":"levelo_inurba_marseille","lat":43.308128,"lon":5.381488,"is_reserved":false,"is_disabled":false,"rental_uris":{"android":"levelo://app?vid=7b0e4b53-63e2-4bfc-84b0-013f07b8ed0e","ios":"levelo://app?vid=7b0e4b53-63e2-4bfc-84b0-013f07b8ed0e"},"vehicle_type_id":"4","last_reported":1746502439,"current_range_meters":25600,"station_id":"ce4bgt12rcd13ifvqce0","pricing_plan_id":"cebpf4jnsgd1na2vs0mg"},{"bike_id":"f0d6e860-bae2-41d7-8598-c2308788a440","system_id":"levelo_inurba_marseille","lat":43.30936,"lon":5.401384,"is_reserved":false,"is_disabled":false,"rental_uris":{"android":"levelo://app?vid=f0d6e860-bae2-41d7-8598-c2308788a440","ios":"levelo://app?vid=f0d6e860-bae2-41d7-8598-c2308788a440"},"vehicle_type_id":"4","last_reported":1746502439,"current_range_meters":25600,"station_id":"ce4bgvp2rcd13ifvqct0","pricing_plan_id":"cebpf4jnsgd1na2vs0mg"},{"bike_id":"e1af84df-3d5c-4099-beab-8242473e39ed","system_id":"levelo_inurba_marseille","lat":43.26563,"lon":5.39096,"is_reserved":false,"is_disabled":false,"rental_uris":{"android":"levelo://app?vid=e1af84df-3d5c-4099-beab-8242473e39ed","ios":"levelo://app?vid=e1af84df-3d5c-4099-beab-8242473e39ed"},"vehicle_type_id":"4","last_reported":1746502439,"current_range_meters":25600,"station_id":"ce4bhe12rcd13ifvqf30","pricing_plan_id":"cebpf4jnsgd1na2vs0mg"},{"bike_id":"08b0909a-f2aa-4032-806d-f1469d52a00d","system_id":"levelo_inurba_marseille","lat":43.23967,"lon":5.36635,"is_reserved":false,"is_disabled":false,"rental_uris":{"android":"levelo://app?vid=08b0909a-f2aa-4032-806d-f1469d52a00d","ios":"levelo://app?vid=08b0909a-f2aa-4032-806d-f1469d52a00d"},"vehicle_type_id":"4","last_reported":1746502439,"current_range_meters":25600,"station_id":"ce4bhi12rcd13ifvqfp0","pricing_plan_id":"cebpf4jnsgd1na2vs0mg"},{"bike_id":"86efce73-d764-463e-8080-c05d126201bb","system_id":"levelo_inurba_marseille","lat":43.23176,"lon":5.39991,"is_reserved":false,"is_disabled":false,"rental_uris":{"android":"levelo://app?vid=86efce73-d764-463e-8080-c05d126201bb","ios":"levelo://app?vid=86efce73-d764-463e-8080-c05d126201bb"},"vehicle_type_id":"4","last_reported":1746502439,"current_range_meters":25600,"station_id":"ce4bhn12rcd13ifvqgqg","pricing_plan_id":"cebpf4jnsgd1na2vs0mg"},{"bike_id":"47ea6c46-5c8b-4d49-ba1b-c36ddb77ac5c","system_id":"levelo_inurba_marseille","lat":43.330632,"lon":5.408206,"is_reserved":false,"is_disabled":false,"rental_uris":{"android":"levelo://app?vid=47ea6c46-5c8b-4d49-ba1b-c36ddb77ac5c","ios":"levelo://app?vid=47ea6c46-5c8b-4d49-ba1b-c36ddb77ac5c"},"vehicle_type_id":"4","last_reported":1746502439,"current_range_meters":26000,"station_id":"","pricing_plan_id":"cebpf4jnsgd1na2vs0mg"},{"bike_id":"6d6f8ac3-c33a-4cfa-97ef-7a76b97e82e4","system_id":"levelo_inurba_marseille","lat":43.30445,"lon":5.37914,"is_reserved":false,"is_disabled":false,"rental_uris":{"android":"levelo://app?vid=6d6f8ac3-c33a-4cfa-97ef-7a76b97e82e4","ios":"levelo://app?vid=6d6f8ac3-c33a-4cfa-97ef-7a76b97e82e4"},"vehicle_type_id":"4","last_reported":1746502439,"current_range_meters":26000,"station_id":"ce4bgup2rcd13ifvqcn0","pricing_plan_id":"cebpf4jnsgd1na2vs0mg"},{"bike_id":"7ad09e24-4e7d-4280-b631-6ae13d406f33","system_id":"levelo_inurba_marseille","lat":43.284186,"lon":5.375174,"is_reserved":false,"is_disabled":false,"rental_uris":{"android":"levelo://app?vid=7ad09e24-4e7d-4280-b631-6ae13d406f33","ios":"levelo://app?vid=7ad09e24-4e7d-4280-b631-6ae13d406f33"},"vehicle_type_id":"4","last_reported":1746502439,"current_range_meters":26000,"station_id":"ce4bh412rcd13ifvqds0","pricing_plan_id":"cebpf4jnsgd1na2vs0mg"},{"bike_id":"46d29413-e9b8-4a7d-b8de-36886c12ff9e","system_id":"levelo_inurba_marseille","lat":43.23962,"lon":5.36631,"is_reserved":false,"is_disabled":false,"rental_uris":{"android":"levelo://app?vid=46d29413-e9b8-4a7d-b8de-36886c12ff9e","ios":"levelo://app?vid=46d29413-e9b8-4a7d-b8de-36886c12ff9e"},"vehicle_type_id":"4","last_reported":1746502439,"current_range_meters":26000,"station_id":"ce4bhi12rcd13ifvqfp0","pricing_plan_id":"cebpf4jnsgd1na2vs0mg"},{"bike_id":"23435c06-7147-450b-9972-1f1e9b06c267","system_id":"levelo_inurba_marseille","lat":43.27785,"lon":5.40765,"is_reserved":false,"is_disabled":false,"rental_uris":{"android":"levelo://app?vid=23435c06-7147-450b-9972-1f1e9b06c267","ios":"levelo://app?vid=23435c06-7147-450b-9972-1f1e9b06c267"},"vehicle_type_id":"4","last_reported":1746502439,"current_range_meters":26000,"station_id":"ce4bhnh2rcd13ifvqgtg","pricing_plan_id":"cebpf4jnsgd1na2vs0mg"},{"bike_id":"f7b504c4-422a-4703-a869-c236eae5080f","system_id":"levelo_inurba_marseille","lat":43.281311,"lon":5.4265,"is_reserved":false,"is_disabled":false,"rental_uris":{"android":"levelo://app?vid=f7b504c4-422a-4703-a869-c236eae5080f","ios":"levelo://app?vid=f7b504c4-422a-4703-a869-c236eae5080f"},"vehicle_type_id":"4","last_reported":1746502439,"current_range_meters":26000,"station_id":"ce4bhnh2rcd13ifvqgug","pricing_plan_id":"cebpf4jnsgd1na2vs0mg"},{"bike_id":"f656443d-94df-4397-aea7-ca424a7bde36","system_id":"levelo_inurba_marseille","lat":43.279892,"lon":5.416633,"is_reserved":false,"is_disabled":false,"rental_uris":{"android":"levelo://app?vid=f656443d-94df-4397-aea7-ca424a7bde36","ios":"levelo://app?vid=f656443d-94df-4397-aea7-ca424a7bde36"},"vehicle_type_id":"4","last_reported":1746502439,"current_range_meters":26000,"station_id":"ce4bho12rcd13ifvqh1g","pricing_plan_id":"cebpf4jnsgd1na2vs0mg"},{"bike_id":"be14af02-7701-4605-b2d6-5fd0439029d8","system_id":"levelo_inurba_marseille","lat":43.21189,"lon":5.35072,"is_reserved":false,"is_disabled":false,"rental_uris":{"android":"levelo://app?vid=be14af02-7701-4605-b2d6-5fd0439029d8","ios":"levelo://app?vid=be14af02-7701-4605-b2d6-5fd0439029d8"},"vehicle_type_id":"4","last_reported":1746502439,"current_range_meters":26000,"station_id":"st_cvj6sg6p6f1abm77japg","pricing_plan_id":"cebpf4jnsgd1na2vs0mg"},{"bike_id":"bf59df02-de9b-497c-a191-059653c6e890","system_id":"levelo_inurba_marseille","lat":43.278926,"lon":5.380084,"is_reserved":false,"is_disabled":false,"rental_uris":{"android":"levelo://app?vid=bf59df02-de9b-497c-a191-059653c6e890","ios":"levelo://app?vid=bf59df02-de9b-497c-a191-059653c6e890"},"vehicle_type_id":"4","last_reported":1746502439,"current_range_meters":26800,"station_id":"ce4bhf92rcd13ifvqf50","pricing_plan_id":"cebpf4jnsgd1na2vs0mg"},{"bike_id":"6016196f-a9d8-44fc-9e97-e590e0903040","system_id":"levelo_inurba_marseille","lat":43.24168,"lon":5.39738,"is_reserved":false,"is_disabled":false,"rental_uris":{"android":"levelo://app?vid=6016196f-a9d8-44fc-9e97-e590e0903040","ios":"levelo://app?vid=6016196f-a9d8-44fc-9e97-e590e0903040"},"vehicle_type_id":"4","last_reported":1746502439,"current_range_meters":26800,"station_id":"ce4bhn12rcd13ifvqgpg","pricing_plan_id":"cebpf4jnsgd1na2vs0mg"},{"bike_id":"ed127033-3451-406f-8413-96ba005748d1","system_id":"levelo_inurba_marseille","lat":43.31713,"lon":5.43703,"is_reserved":false,"is_disabled":false,"rental_uris":{"android":"levelo://app?vid=ed127033-3451-406f-8413-96ba005748d1","ios":"levelo://app?vid=ed127033-3451-406f-8413-96ba005748d1"},"vehicle_type_id":"4","last_reported":1746502439,"current_range_meters":26800,"station_id":"ce4bhp92rcd13ifvqhcg","pricing_plan_id":"cebpf4jnsgd1na2vs0mg"},{"bike_id":"68d0c351-3a7f-461c-a2d6-f13542d4eb55","system_id":"levelo_inurba_marseille","lat":43.289382,"lon":5.366271,"is_reserved":false,"is_disabled":false,"rental_uris":{"android":"levelo://app?vid=68d0c351-3a7f-461c-a2d6-f13542d4eb55","ios":"levelo://app?vid=68d0c351-3a7f-461c-a2d6-f13542d4eb55"},"vehicle_type_id":"4","last_reported":1746502439,"current_range_meters":27200,"station_id":"ce4bhap2rcd13ifvqek0","pricing_plan_id":"cebpf4jnsgd1na2vs0mg"},{"bike_id":"e654f728-06b4-489e-bff7-7a80369ada31","system_id":"levelo_inurba_marseille","lat":43.26782,"lon":5.39418,"is_reserved":false,"is_disabled":false,"rental_uris":{"android":"levelo://app?vid=e654f728-06b4-489e-bff7-7a80369ada31","ios":"levelo://app?vid=e654f728-06b4-489e-bff7-7a80369ada31"},"vehicle_type_id":"4","last_reported":1746502439,"current_range_meters":27200,"station_id":"ce4bhh12rcd13ifvqfg0","pricing_plan_id":"cebpf4jnsgd1na2vs0mg"},{"bike_id":"f088165c-a99a-4c56-9e3b-882e8fb00664","system_id":"levelo_inurba_marseille","lat":43.231875,"lon":5.399818,"is_reserved":false,"is_disabled":false,"rental_uris":{"android":"levelo://app?vid=f088165c-a99a-4c56-9e3b-882e8fb00664","ios":"levelo://app?vid=f088165c-a99a-4c56-9e3b-882e8fb00664"},"vehicle_type_id":"4","last_reported":1746502439,"current_range_meters":27200,"station_id":"ce4bhn12rcd13ifvqgqg","pricing_plan_id":"cebpf4jnsgd1na2vs0mg"},{"bike_id":"94510adc-92ab-4bec-b810-65538035f0da","system_id":"levelo_inurba_marseille","lat":43.30802,"lon":5.43537,"is_reserved":false,"is_disabled":false,"rental_uris":{"android":"levelo://app?vid=94510adc-92ab-4bec-b810-65538035f0da","ios":"levelo://app?vid=94510adc-92ab-4bec-b810-65538035f0da"},"vehicle_type_id":"4","last_reported":1746502439,"current_range_meters":27200,"station_id":"ce4bhph2rcd13ifvqheg","pricing_plan_id":"cebpf4jnsgd1na2vs0mg"},{"bike_id":"d928cd0d-2475-4dd3-bfb4-1e78eb7b1084","system_id":"levelo_inurba_marseille","lat":43.26775,"lon":5.39059,"is_reserved":false,"is_disabled":false,"rental_uris":{"android":"levelo://app?vid=d928cd0d-2475-4dd3-bfb4-1e78eb7b1084","ios":"levelo://app?vid=d928cd0d-2475-4dd3-bfb4-1e78eb7b1084"},"vehicle_type_id":"4","last_reported":1746502439,"current_range_meters":27600,"station_id":"","pricing_plan_id":"cebpf4jnsgd1na2vs0mg"},{"bike_id":"b58e123a-3d53-4b64-a38c-a7ba21a7164f","system_id":"levelo_inurba_marseille","lat":43.28457,"lon":5.359095,"is_reserved":false,"is_disabled":false,"rental_uris":{"android":"levelo://app?vid=b58e123a-3d53-4b64-a38c-a7ba21a7164f","ios":"levelo://app?vid=b58e123a-3d53-4b64-a38c-a7ba21a7164f"},"vehicle_type_id":"4","last_reported":1746502439,"current_range_meters":27600,"station_id":"ce4bhah2rcd13ifvqei0","pricing_plan_id":"cebpf4jnsgd1na2vs0mg"},{"bike_id":"f8bbae38-ccdd-4d23-a199-c3746c5ccde9","system_id":"levelo_inurba_marseille","lat":43.231911,"lon":5.399744,"is_reserved":false,"is_disabled":false,"rental_uris":{"android":"levelo://app?vid=f8bbae38-ccdd-4d23-a199-c3746c5ccde9","ios":"levelo://app?vid=f8bbae38-ccdd-4d23-a199-c3746c5ccde9"},"vehicle_type_id":"4","last_reported":1746502439,"current_range_meters":27600,"station_id":"ce4bhn12rcd13ifvqgqg","pricing_plan_id":"cebpf4jnsgd1na2vs0mg"},{"bike_id":"c6d70e9f-212c-4359-b9de-ccec91a162ad","system_id":"levelo_inurba_marseille","lat":43.279425,"lon":5.410383,"is_reserved":false,"is_disabled":false,"rental_uris":{"android":"levelo://app?vid=c6d70e9f-212c-4359-b9de-ccec91a162ad","ios":"levelo://app?vid=c6d70e9f-212c-4359-b9de-ccec91a162ad"},"vehicle_type_id":"4","last_reported":1746502439,"current_range_meters":27600,"station_id":"ce4bhnp2rcd13ifvqh0g","pricing_plan_id":"cebpf4jnsgd1na2vs0mg"},{"bike_id":"b66e0694-7acb-43c1-86b7-b8927ca29402","system_id":"levelo_inurba_marseille","lat":43.28406,"lon":5.39256,"is_reserved":false,"is_disabled":false,"rental_uris":{"android":"levelo://app?vid=b66e0694-7acb-43c1-86b7-b8927ca29402","ios":"levelo://app?vid=b66e0694-7acb-43c1-86b7-b8927ca29402"},"vehicle_type_id":"4","last_reported":1746502439,"current_range_meters":27600,"station_id":"ce4bhoh2rcd13ifvqh5g","pricing_plan_id":"cebpf4jnsgd1na2vs0mg"},{"bike_id":"71c53763-d78e-468a-a150-3ae0ea6930da","system_id":"levelo_inurba_marseille","lat":43.22488,"lon":5.34796,"is_reserved":false,"is_disabled":false,"rental_uris":{"android":"levelo://app?vid=71c53763-d78e-468a-a150-3ae0ea6930da","ios":"levelo://app?vid=71c53763-d78e-468a-a150-3ae0ea6930da"},"vehicle_type_id":"4","last_reported":1746502439,"current_range_meters":27600,"station_id":"st_cvj5dfep6f1abm77gieg","pricing_plan_id":"cebpf4jnsgd1na2vs0mg"},{"bike_id":"2bf7e351-5bfa-418a-9547-52c131512442","system_id":"levelo_inurba_marseille","lat":43.30473,"lon":5.37908,"is_reserved":false,"is_disabled":false,"rental_uris":{"android":"levelo://app?vid=2bf7e351-5bfa-418a-9547-52c131512442","ios":"levelo://app?vid=2bf7e351-5bfa-418a-9547-52c131512442"},"vehicle_type_id":"4","last_reported":1746502439,"current_range_meters":28000,"station_id":"ce4bgup2rcd13ifvqcn0","pricing_plan_id":"cebpf4jnsgd1na2vs0mg"},{"bike_id":"c0f8089e-9d9f-4682-b2f6-ad8c33d333ac","system_id":"levelo_inurba_marseille","lat":43.30779,"lon":5.37656,"is_reserved":false,"is_disabled":false,"rental_uris":{"android":"levelo://app?vid=c0f8089e-9d9f-4682-b2f6-ad8c33d333ac","ios":"levelo://app?vid=c0f8089e-9d9f-4682-b2f6-ad8c33d333ac"},"vehicle_type_id":"4","last_reported":1746502439,"current_range_meters":28000,"station_id":"ce4bgv92rcd13ifvqcq0","pricing_plan_id":"cebpf4jnsgd1na2vs0mg"},{"bike_id":"89a5ab81-ddca-4078-a25d-aa4563e968ee","system_id":"levelo_inurba_marseille","lat":43.284174,"lon":5.375109,"is_reserved":false,"is_disabled":false,"rental_uris":{"android":"levelo://app?vid=89a5ab81-ddca-4078-a25d-aa4563e968ee","ios":"levelo://app?vid=89a5ab81-ddca-4078-a25d-aa4563e968ee"},"vehicle_type_id":"4","last_reported":1746502439,"current_range_meters":28000,"station_id":"ce4bh412rcd13ifvqds0","pricing_plan_id":"cebpf4jnsgd1na2vs0mg"},{"bike_id":"4eabaee4-b382-4c37-aaa0-5322248e78d9","system_id":"levelo_inurba_marseille","lat":43.28103,"lon":5.37838,"is_reserved":false,"is_disabled":false,"rental_uris":{"android":"levelo://app?vid=4eabaee4-b382-4c37-aaa0-5322248e78d9","ios":"levelo://app?vid=4eabaee4-b382-4c37-aaa0-5322248e78d9"},"vehicle_type_id":"4","last_reported":1746502439,"current_range_meters":28000,"station_id":"ce4bha12rcd13ifvqee0","pricing_plan_id":"cebpf4jnsgd1na2vs0mg"},{"bike_id":"c058751e-cafc-44c6-823a-4c2f12adb75e","system_id":"levelo_inurba_marseille","lat":43.287038,"lon":5.399932,"is_reserved":false,"is_disabled":false,"rental_uris":{"android":"levelo://app?vid=c058751e-cafc-44c6-823a-4c2f12adb75e","ios":"levelo://app?vid=c058751e-cafc-44c6-823a-4c2f12adb75e"},"vehicle_type_id":"4","last_reported":1746502439,"current_range_meters":28000,"station_id":"ce4bho92rcd13ifvqh3g","pricing_plan_id":"cebpf4jnsgd1na2vs0mg"},{"bike_id":"a50309b7-cc78-4472-b453-153ce5f4c314","system_id":"levelo_inurba_marseille","lat":43.303718,"lon":5.42488,"is_reserved":false,"is_disabled":false,"rental_uris":{"android":"levelo://app?vid=a50309b7-cc78-4472-b453-153ce5f4c314","ios":"levelo://app?vid=a50309b7-cc78-4472-b453-153ce5f4c314"},"vehicle_type_id":"4","last_reported":1746502439,"current_range_meters":28000,"station_id":"ce4bhoh2rcd13ifvqh6g","pricing_plan_id":"cebpf4jnsgd1na2vs0mg"},{"bike_id":"26a93451-5932-48b2-a06d-d1bdb52f74a6","system_id":"levelo_inurba_marseille","lat":43.315355,"lon":5.380278,"is_reserved":false,"is_disabled":false,"rental_uris":{"android":"levelo://app?vid=26a93451-5932-48b2-a06d-d1bdb52f74a6","ios":"levelo://app?vid=26a93451-5932-48b2-a06d-d1bdb52f74a6"},"vehicle_type_id":"4","last_reported":1746502439,"current_range_meters":28000,"station_id":"ce4bhsp2rcd13ifvqi50","pricing_plan_id":"cebpf4jnsgd1na2vs0mg"},{"bike_id":"440c2515-9c24-470e-8897-d5576b9e7b9a","system_id":"levelo_inurba_marseille","lat":43.235873,"lon":5.403587,"is_reserved":false,"is_disabled":false,"rental_uris":{"android":"levelo://app?vid=440c2515-9c24-470e-8897-d5576b9e7b9a","ios":"levelo://app?vid=440c2515-9c24-470e-8897-d5576b9e7b9a"},"vehicle_type_id":"4","last_reported":1746502439,"current_range_meters":28400,"station_id":"","pricing_plan_id":"cebpf4jnsgd1na2vs0mg"},{"bike_id":"bef0f700-cab9-47ac-8607-667ce6ef77aa","system_id":"levelo_inurba_marseille","lat":43.305892,"lon":5.372226,"is_reserved":false,"is_disabled":false,"rental_uris":{"android":"levelo://app?vid=bef0f700-cab9-47ac-8607-667ce6ef77aa","ios":"levelo://app?vid=bef0f700-cab9-47ac-8607-667ce6ef77aa"},"vehicle_type_id":"4","last_reported":1746502439,"current_range_meters":28400,"station_id":"ce4bgqh2rcd13ifvqc4g","pricing_plan_id":"cebpf4jnsgd1na2vs0mg"},{"bike_id":"c498aeda-296b-4d63-bede-fa21cba02e37","system_id":"levelo_inurba_marseille","lat":43.284039,"lon":5.375053,"is_reserved":false,"is_disabled":false,"rental_uris":{"android":"levelo://app?vid=c498aeda-296b-4d63-bede-fa21cba02e37","ios":"levelo://app?vid=c498aeda-296b-4d63-bede-fa21cba02e37"},"vehicle_type_id":"4","last_reported":1746502439,"current_range_meters":28400,"station_id":"ce4bh412rcd13ifvqds0","pricing_plan_id":"cebpf4jnsgd1na2vs0mg"},{"bike_id":"a3a8d00e-b494-46d7-b80a-736192e27b18","system_id":"levelo_inurba_marseille","lat":43.323635,"lon":5.367647,"is_reserved":false,"is_disabled":false,"rental_uris":{"android":"levelo://app?vid=a3a8d00e-b494-46d7-b80a-736192e27b18","ios":"levelo://app?vid=a3a8d00e-b494-46d7-b80a-736192e27b18"},"vehicle_type_id":"4","last_reported":1746502439,"current_range_meters":28400,"station_id":"ce4bhsh2rcd13ifvqi2g","pricing_plan_id":"cebpf4jnsgd1na2vs0mg"},{"bike_id":"b5d6d97d-e1d4-47e3-9bbf-0dd40a4d64c6","system_id":"levelo_inurba_marseille","lat":43.32472,"lon":5.3662,"is_reserved":false,"is_disabled":false,"rental_uris":{"android":"levelo://app?vid=b5d6d97d-e1d4-47e3-9bbf-0dd40a4d64c6","ios":"levelo://app?vid=b5d6d97d-e1d4-47e3-9bbf-0dd40a4d64c6"},"vehicle_type_id":"4","last_reported":1746502439,"current_range_meters":28800,"station_id":"","pricing_plan_id":"cebpf4jnsgd1na2vs0mg"},{"bike_id":"1236a53c-6d89-4e80-a056-cecbb124fa06","system_id":"levelo_inurba_marseille","lat":43.31168,"lon":5.3828,"is_reserved":false,"is_disabled":false,"rental_uris":{"android":"levelo://app?vid=1236a53c-6d89-4e80-a056-cecbb124fa06","ios":"levelo://app?vid=1236a53c-6d89-4e80-a056-cecbb124fa06"},"vehicle_type_id":"4","last_reported":1746502439,"current_range_meters":28800,"station_id":"","pricing_plan_id":"cebpf4jnsgd1na2vs0mg"},{"bike_id":"c0e13381-17d9-44e1-b21a-ef2935f7758a","system_id":"levelo_inurba_marseille","lat":43.30459,"lon":5.37906,"is_reserved":false,"is_disabled":false,"rental_uris":{"android":"levelo://app?vid=c0e13381-17d9-44e1-b21a-ef2935f7758a","ios":"levelo://app?vid=c0e13381-17d9-44e1-b21a-ef2935f7758a"},"vehicle_type_id":"4","last_reported":1746502439,"current_range_meters":28800,"station_id":"ce4bgup2rcd13ifvqcn0","pricing_plan_id":"cebpf4jnsgd1na2vs0mg"},{"bike_id":"401d6452-e948-4a70-9a8a-2922d74fc9d3","system_id":"levelo_inurba_marseille","lat":43.31156,"lon":5.38721,"is_reserved":false,"is_disabled":false,"rental_uris":{"android":"levelo://app?vid=401d6452-e948-4a70-9a8a-2922d74fc9d3","ios":"levelo://app?vid=401d6452-e948-4a70-9a8a-2922d74fc9d3"},"vehicle_type_id":"4","last_reported":1746502439,"current_range_meters":28800,"station_id":"ce4bgv12rcd13ifvqcp0","pricing_plan_id":"cebpf4jnsgd1na2vs0mg"},{"bike_id":"c8ccb264-fac5-4b6d-b80d-2b1286b68ae8","system_id":"levelo_inurba_marseille","lat":43.310709,"lon":5.38348,"is_reserved":false,"is_disabled":false,"rental_uris":{"android":"levelo://app?vid=c8ccb264-fac5-4b6d-b80d-2b1286b68ae8","ios":"levelo://app?vid=c8ccb264-fac5-4b6d-b80d-2b1286b68ae8"},"vehicle_type_id":"4","last_reported":1746502439,"current_range_meters":28800,"station_id":"ce4bgv92rcd13ifvqcr0","pricing_plan_id":"cebpf4jnsgd1na2vs0mg"},{"bike_id":"0fc93382-9e1a-4878-a0b9-5c3a3a60a121","system_id":"levelo_inurba_marseille","lat":43.3085,"lon":5.39666,"is_reserved":false,"is_disabled":false,"rental_uris":{"android":"levelo://app?vid=0fc93382-9e1a-4878-a0b9-5c3a3a60a121","ios":"levelo://app?vid=0fc93382-9e1a-4878-a0b9-5c3a3a60a121"},"vehicle_type_id":"4","last_reported":1746502439,"current_range_meters":28800,"station_id":"ce4bh012rcd13ifvqcv0","pricing_plan_id":"cebpf4jnsgd1na2vs0mg"},{"bike_id":"049be05d-aee5-4909-ab13-a35d29310e5d","system_id":"levelo_inurba_marseille","lat":43.31535,"lon":5.38032,"is_reserved":false,"is_disabled":false,"rental_uris":{"android":"levelo://app?vid=049be05d-aee5-4909-ab13-a35d29310e5d","ios":"levelo://app?vid=049be05d-aee5-4909-ab13-a35d29310e5d"},"vehicle_type_id":"4","last_reported":1746502439,"current_range_meters":28800,"station_id":"ce4bhsp2rcd13ifvqi50","pricing_plan_id":"cebpf4jnsgd1na2vs0mg"},{"bike_id":"38db03b7-8ab3-44ca-8fee-80b537a216fe","system_id":"levelo_inurba_marseille","lat":43.302508,"lon":5.400778,"is_reserved":false,"is_disabled":false,"rental_uris":{"android":"levelo://app?vid=38db03b7-8ab3-44ca-8fee-80b537a216fe","ios":"levelo://app?vid=38db03b7-8ab3-44ca-8fee-80b537a216fe"},"vehicle_type_id":"4","last_reported":1746502439,"current_range_meters":29600,"station_id":"ce4bgvh2rcd13ifvqcs0","pricing_plan_id":"cebpf4jnsgd1na2vs0mg"},{"bike_id":"e2a6134c-339f-4932-8e91-b51497b50167","system_id":"levelo_inurba_marseille","lat":43.31711,"lon":5.43731,"is_reserved":false,"is_disabled":false,"rental_uris":{"android":"levelo://app?vid=e2a6134c-339f-4932-8e91-b51497b50167","ios":"levelo://app?vid=e2a6134c-339f-4932-8e91-b51497b50167"},"vehicle_type_id":"4","last_reported":1746502439,"current_range_meters":29600,"station_id":"ce4bhp92rcd13ifvqhcg","pricing_plan_id":"cebpf4jnsgd1na2vs0mg"},{"bike_id":"83c3ba93-06b7-47c7-aebf-8c88ba10300d","system_id":"levelo_inurba_marseille","lat":43.317569,"lon":5.390143,"is_reserved":false,"is_disabled":false,"rental_uris":{"android":"levelo://app?vid=83c3ba93-06b7-47c7-aebf-8c88ba10300d","ios":"levelo://app?vid=83c3ba93-06b7-47c7-aebf-8c88ba10300d"},"vehicle_type_id":"4","last_reported":1746502439,"current_range_meters":29600,"station_id":"ce4bhqp2rcd13ifvqhng","pricing_plan_id":"cebpf4jnsgd1na2vs0mg"},{"bike_id":"af765b18-95a8-42a9-a861-903ed354cbdb","system_id":"levelo_inurba_marseille","lat":43.309326,"lon":5.40148,"is_reserved":false,"is_disabled":false,"rental_uris":{"android":"levelo://app?vid=af765b18-95a8-42a9-a861-903ed354cbdb","ios":"levelo://app?vid=af765b18-95a8-42a9-a861-903ed354cbdb"},"vehicle_type_id":"4","last_reported":1746502439,"current_range_meters":30000,"station_id":"ce4bgvp2rcd13ifvqct0","pricing_plan_id":"cebpf4jnsgd1na2vs0mg"},{"bike_id":"870d9777-131d-4bf4-8b68-3e035ae99187","system_id":"levelo_inurba_marseille","lat":43.289417,"lon":5.363996,"is_reserved":false,"is_disabled":false,"rental_uris":{"android":"levelo://app?vid=870d9777-131d-4bf4-8b68-3e035ae99187","ios":"levelo://app?vid=870d9777-131d-4bf4-8b68-3e035ae99187"},"vehicle_type_id":"4","last_reported":1746502439,"current_range_meters":30000,"station_id":"ce4bhc92rcd13ifvqetg","pricing_plan_id":"cebpf4jnsgd1na2vs0mg"},{"bike_id":"3ab8cc1a-39e5-4aee-82d1-0b0ef8a9902a","system_id":"levelo_inurba_marseille","lat":43.32349,"lon":5.3674,"is_reserved":false,"is_disabled":false,"rental_uris":{"android":"levelo://app?vid=3ab8cc1a-39e5-4aee-82d1-0b0ef8a9902a","ios":"levelo://app?vid=3ab8cc1a-39e5-4aee-82d1-0b0ef8a9902a"},"vehicle_type_id":"4","last_reported":1746502439,"current_range_meters":30000,"station_id":"ce4bhsh2rcd13ifvqi2g","pricing_plan_id":"cebpf4jnsgd1na2vs0mg"},{"bike_id":"225484ad-4bb8-4e4c-940e-729921cdcdda","system_id":"levelo_inurba_marseille","lat":43.229233,"lon":5.353778,"is_reserved":false,"is_disabled":false,"rental_uris":{"android":"levelo://app?vid=225484ad-4bb8-4e4c-940e-729921cdcdda","ios":"levelo://app?vid=225484ad-4bb8-4e4c-940e-729921cdcdda"},"vehicle_type_id":"4","last_reported":1746502439,"current_range_meters":30000,"station_id":"cpo3532slgdg3j2ikp40","pricing_plan_id":"cebpf4jnsgd1na2vs0mg"},{"bike_id":"0038520e-b35c-491d-be7e-d31dc59257fe","system_id":"levelo_inurba_marseille","lat":43.30536,"lon":5.37261,"is_reserved":false,"is_disabled":false,"rental_uris":{"android":"levelo://app?vid=0038520e-b35c-491d-be7e-d31dc59257fe","ios":"levelo://app?vid=0038520e-b35c-491d-be7e-d31dc59257fe"},"vehicle_type_id":"4","last_reported":1746502439,"current_range_meters":30400,"station_id":"ce4bgqh2rcd13ifvqc4g","pricing_plan_id":"cebpf4jnsgd1na2vs0mg"},{"bike_id":"066e6853-a05b-49b0-b265-255f9ec157f2","system_id":"levelo_inurba_marseille","lat":43.314834,"lon":5.373056,"is_reserved":false,"is_disabled":false,"rental_uris":{"android":"levelo://app?vid=066e6853-a05b-49b0-b265-255f9ec157f2","ios":"levelo://app?vid=066e6853-a05b-49b0-b265-255f9ec157f2"},"vehicle_type_id":"4","last_reported":1746502439,"current_range_meters":30400,"station_id":"ce4bgt12rcd13ifvqcd0","pricing_plan_id":"cebpf4jnsgd1na2vs0mg"},{"bike_id":"0c717a92-3303-40ac-ab1e-b0edaeea7106","system_id":"levelo_inurba_marseille","lat":43.278957,"lon":5.38005,"is_reserved":false,"is_disabled":false,"rental_uris":{"android":"levelo://app?vid=0c717a92-3303-40ac-ab1e-b0edaeea7106","ios":"levelo://app?vid=0c717a92-3303-40ac-ab1e-b0edaeea7106"},"vehicle_type_id":"4","last_reported":1746502439,"current_range_meters":30400,"station_id":"ce4bhf92rcd13ifvqf50","pricing_plan_id":"cebpf4jnsgd1na2vs0mg"},{"bike_id":"333b5efc-ad98-4ec2-bea7-520f5daf67ce","system_id":"levelo_inurba_marseille","lat":43.2407,"lon":5.3777,"is_reserved":false,"is_disabled":false,"rental_uris":{"android":"levelo://app?vid=333b5efc-ad98-4ec2-bea7-520f5daf67ce","ios":"levelo://app?vid=333b5efc-ad98-4ec2-bea7-520f5daf67ce"},"vehicle_type_id":"4","last_reported":1746502439,"current_range_meters":30400,"station_id":"ce4bhnp2rcd13ifvqgvg","pricing_plan_id":"cebpf4jnsgd1na2vs0mg"},{"bike_id":"90a06f2c-3dec-426b-bbb8-2cf90013e971","system_id":"levelo_inurba_marseille","lat":43.30798,"lon":5.43529,"is_reserved":false,"is_disabled":false,"rental_uris":{"android":"levelo://app?vid=90a06f2c-3dec-426b-bbb8-2cf90013e971","ios":"levelo://app?vid=90a06f2c-3dec-426b-bbb8-2cf90013e971"},"vehicle_type_id":"4","last_reported":1746502439,"current_range_meters":30400,"station_id":"ce4bhph2rcd13ifvqheg","pricing_plan_id":"cebpf4jnsgd1na2vs0mg"},{"bike_id":"160cbbdc-497a-4a74-b187-366b763f37b0","system_id":"levelo_inurba_marseille","lat":43.31758,"lon":5.390144,"is_reserved":false,"is_disabled":false,"rental_uris":{"android":"levelo://app?vid=160cbbdc-497a-4a74-b187-366b763f37b0","ios":"levelo://app?vid=160cbbdc-497a-4a74-b187-366b763f37b0"},"vehicle_type_id":"4","last_reported":1746502439,"current_range_meters":30400,"station_id":"ce4bhqp2rcd13ifvqhng","pricing_plan_id":"cebpf4jnsgd1na2vs0mg"},{"bike_id":"1bebbf60-3f7a-491a-8ab5-2a0a2443449d","system_id":"levelo_inurba_marseille","lat":43.323527,"lon":5.367613,"is_reserved":false,"is_disabled":false,"rental_uris":{"android":"levelo://app?vid=1bebbf60-3f7a-491a-8ab5-2a0a2443449d","ios":"levelo://app?vid=1bebbf60-3f7a-491a-8ab5-2a0a2443449d"},"vehicle_type_id":"4","last_reported":1746502439,"current_range_meters":30400,"station_id":"ce4bhsh2rcd13ifvqi2g","pricing_plan_id":"cebpf4jnsgd1na2vs0mg"},{"bike_id":"7812cd0b-22e4-469a-b8f8-21f56129a869","system_id":"levelo_inurba_marseille","lat":43.23196,"lon":5.35543,"is_reserved":false,"is_disabled":false,"rental_uris":{"android":"levelo://app?vid=7812cd0b-22e4-469a-b8f8-21f56129a869","ios":"levelo://app?vid=7812cd0b-22e4-469a-b8f8-21f56129a869"},"vehicle_type_id":"4","last_reported":1746502439,"current_range_meters":30400,"station_id":"ce4bhu92rcd13ifvqi70","pricing_plan_id":"cebpf4jnsgd1na2vs0mg"},{"bike_id":"446dabfd-4d47-4fd2-91c9-41b3ec5dde76","system_id":"levelo_inurba_marseille","lat":43.287297,"lon":5.360927,"is_reserved":false,"is_disabled":false,"rental_uris":{"android":"levelo://app?vid=446dabfd-4d47-4fd2-91c9-41b3ec5dde76","ios":"levelo://app?vid=446dabfd-4d47-4fd2-91c9-41b3ec5dde76"},"vehicle_type_id":"4","last_reported":1746502439,"current_range_meters":30400,"station_id":"cki0cbj6b192h4jlfktg","pricing_plan_id":"cebpf4jnsgd1na2vs0mg"},{"bike_id":"20267e7b-0a39-4382-9721-101ec71a4078","system_id":"levelo_inurba_marseille","lat":43.301565,"lon":5.38095,"is_reserved":false,"is_disabled":false,"rental_uris":{"android":"levelo://app?vid=20267e7b-0a39-4382-9721-101ec71a4078","ios":"levelo://app?vid=20267e7b-0a39-4382-9721-101ec71a4078"},"vehicle_type_id":"4","last_reported":1746502439,"current_range_meters":30800,"station_id":"ce4bgjp2rcd13ifvqbh0","pricing_plan_id":"cebpf4jnsgd1na2vs0mg"},{"bike_id":"a739eb4b-09c6-4e22-b7cb-a56b5e231797","system_id":"levelo_inurba_marseille","lat":43.31322,"lon":5.39724,"is_reserved":false,"is_disabled":false,"rental_uris":{"android":"levelo://app?vid=a739eb4b-09c6-4e22-b7cb-a56b5e231797","ios":"levelo://app?vid=a739eb4b-09c6-4e22-b7cb-a56b5e231797"},"vehicle_type_id":"4","last_reported":1746502439,"current_range_meters":30800,"station_id":"ce4bgvp2rcd13ifvqcu0","pricing_plan_id":"cebpf4jnsgd1na2vs0mg"},{"bike_id":"d4f966c8-3a8e-4019-9c48-983d2c074704","system_id":"levelo_inurba_marseille","lat":43.286584,"lon":5.363472,"is_reserved":false,"is_disabled":false,"rental_uris":{"android":"levelo://app?vid=d4f966c8-3a8e-4019-9c48-983d2c074704","ios":"levelo://app?vid=d4f966c8-3a8e-4019-9c48-983d2c074704"},"vehicle_type_id":"4","last_reported":1746502439,"current_range_meters":30800,"station_id":"ce4bhah2rcd13ifvqej0","pricing_plan_id":"cebpf4jnsgd1na2vs0mg"},{"bike_id":"3041d84a-2104-43f6-8d55-adec13580506","system_id":"levelo_inurba_marseille","lat":43.25001,"lon":5.3894,"is_reserved":false,"is_disabled":false,"rental_uris":{"android":"levelo://app?vid=3041d84a-2104-43f6-8d55-adec13580506","ios":"levelo://app?vid=3041d84a-2104-43f6-8d55-adec13580506"},"vehicle_type_id":"4","last_reported":1746502439,"current_range_meters":30800,"station_id":"ce4bhgp2rcd13ifvqfd0","pricing_plan_id":"cebpf4jnsgd1na2vs0mg"},{"bike_id":"db1596a8-c2aa-4d4e-b80c-ce9e8f083804","system_id":"levelo_inurba_marseille","lat":43.25111,"lon":5.40423,"is_reserved":false,"is_disabled":false,"rental_uris":{"android":"levelo://app?vid=db1596a8-c2aa-4d4e-b80c-ce9e8f083804","ios":"levelo://app?vid=db1596a8-c2aa-4d4e-b80c-ce9e8f083804"},"vehicle_type_id":"4","last_reported":1746502439,"current_range_meters":30800,"station_id":"ce4bhlh2rcd13ifvqgig","pricing_plan_id":"cebpf4jnsgd1na2vs0mg"},{"bike_id":"ae3b2f4d-6fb6-46bf-8e77-878ca191021a","system_id":"levelo_inurba_marseille","lat":43.28428,"lon":5.3918,"is_reserved":false,"is_disabled":false,"rental_uris":{"android":"levelo://app?vid=ae3b2f4d-6fb6-46bf-8e77-878ca191021a","ios":"levelo://app?vid=ae3b2f4d-6fb6-46bf-8e77-878ca191021a"},"vehicle_type_id":"4","last_reported":1746502439,"current_range_meters":30800,"station_id":"ce4bhoh2rcd13ifvqh5g","pricing_plan_id":"cebpf4jnsgd1na2vs0mg"},{"bike_id":"1dd262b4-c45c-45ca-946a-22fb74897061","system_id":"levelo_inurba_marseille","lat":43.283452,"lon":5.38105,"is_reserved":false,"is_disabled":false,"rental_uris":{"android":"levelo://app?vid=1dd262b4-c45c-45ca-946a-22fb74897061","ios":"levelo://app?vid=1dd262b4-c45c-45ca-946a-22fb74897061"},"vehicle_type_id":"4","last_reported":1746502439,"current_range_meters":31200,"station_id":"ce4bh412rcd13ifvqdr0","pricing_plan_id":"cebpf4jnsgd1na2vs0mg"},{"bike_id":"4260f3ab-965b-4724-ad8e-28c8fbded7c2","system_id":"levelo_inurba_marseille","lat":43.28937,"lon":5.36626,"is_reserved":false,"is_disabled":false,"rental_uris":{"android":"levelo://app?vid=4260f3ab-965b-4724-ad8e-28c8fbded7c2","ios":"levelo://app?vid=4260f3ab-965b-4724-ad8e-28c8fbded7c2"},"vehicle_type_id":"4","last_reported":1746502439,"current_range_meters":31200,"station_id":"ce4bhap2rcd13ifvqek0","pricing_plan_id":"cebpf4jnsgd1na2vs0mg"},