{"last_updated":1701709609,"ttl":30,"version":"2.2","data":{"bikes":[{"bike_id":"a9733d1f-1e51-40a9-9529-2962d257a884","system_id":"levelo_inurba_marseille","lat":43.309039,"lon":5.371797,"is_reserved":false,"is_disabled":false,"rental_uris":{"android":"levelo://app?vid=a9733d1f-1e51-40a9-9529-2962d257a884","ios":"levelo://app?vid=a9733d1f-1e51-40a9-9529-2962d257a884"},"vehicle_type_id":"4","last_reported":1701709609,"current_range_meters":20000,"station_id":"ce4bguh2rcd13ifvqckg","pricing_plan_id":"free"},{"bike_id":"259e6e6d-2c82-4eb7-80c9-bbfd29f61754","system_id":"levelo_inurba_marseille","lat":43.305714,"lon":5.365633,"is_reserved":false,"is_disabled":false,"rental_uris":{"android":"levelo://app?vid=259e6e6d-2c82-4eb7-80c9-bbfd29f61754","ios":"levelo://app?vid=259e6e6d-2c82-4eb7-80c9-bbfd29f61754"},"vehicle_type_id":"4","last_reported":1701709609,"current_range_meters":14000,"station_id":"ce4bgs12rcd13ifvqcag","pricing_plan_id":"free"},{"bike_id":"5d597ddc-1808-4b9b-82bd-5e6a70aefaca","system_id":"levelo_inurba_marseille","lat":43.31932,"lon":5.37296,"is_reserved":false,"is_disabled":false,"rental_uris":{"android":"levelo://app?vid=5d597ddc-1808-4b9b-82bd-5e6a70aefaca","ios":"levelo://app?vid=5d597ddc-1808-4b9b-82bd-5e6a70aefaca"},"vehicle_type_id":"4","last_reported":1701709609,"current_range_meters":0,"station_id":"","pricing_plan_id":"free"},{"bike_id":"c0799d16-c8a8-4cee-9b0a-69ef1a765b40","system_id":"levelo_inurba_marseille","lat":43.30818,"lon":5.37664,"is_reserved":false,"is_disabled":false,"rental_uris":{"android":"levelo://app?vid=c0799d16-c8a8-4cee-9b0a-69ef1a765b40","ios":"levelo://app?vid=c0799d16-c8a8-4cee-9b0a-69ef1a765b40"},"vehicle_type_id":"4","last_reported":1701709609,"current_range_meters":28400,"station_id":"ce4bgv92rcd13ifvqcq0","pricing_plan_id":"free"},{"bike_id":"d02feb7d-0609-460e-b315-db9218d5c30f","system_id":"levelo_inurba_marseille","lat":43.307945,"lon":5.376487,"is_reserved":false,"is_disabled":false,"rental_uris":{"android":"levelo://app?vid=d02feb7d-0609-460e-b315-db9218d5c30f","ios":"levelo://app?vid=d02feb7d-0609-460e-b315-db9218d5c30f"},"vehicle_type_id":"4","last_reported":1701709609,"current_range_meters":29600,"station_id":"ce4bgv92rcd13ifvqcq0","pricing_plan_id":"free"},{"bike_id":"20d003a5-be2d-4238-ad61-cbb606c0696c","system_id":"levelo_inurba_marseille","lat":43.317075,"lon":5.377367,"is_reserved":false,"is_disabled":false,"rental_uris":{"android":"levelo://app?vid=20d003a5-be2d-4238-ad61-cbb606c0696c","ios":"levelo://app?vid=20d003a5-be2d-4238-ad61-cbb606c0696c"},"vehicle_type_id":"4","last_reported":1701709609,"current_range_meters":30400,"station_id":"ce4bgth2rcd13ifvqch0","pricing_plan_id":"free"},{"bike_id":"fb6fd937-527b-4585-9058-0dfdc6436ac8","system_id":"levelo_inurba_marseille","lat":43.31351,"lon":5.37909,"is_reserved":false,"is_disabled":false,"rental_uris":{"android":"levelo://app?vid=fb6fd937-527b-4585-9058-0dfdc6436ac8","ios":"levelo://app?vid=fb6fd937-527b-4585-9058-0dfdc6436ac8"},"vehicle_type_id":"4","last_reported":1701709609,"current_range_meters":13200,"station_id":"","pricing_plan_id":"free"},{"bike_id":"89f241ee-e6fe-49ca-b80d-acd211d0ce34","system_id":"levelo_inurba_marseille","lat":43.308012,"lon":5.381511,"is_reserved":false,"is_disabled":false,"rental_uris":{"android":"levelo://app?vid=89f241ee-e6fe-49ca-b80d-acd211d0ce34","ios":"levelo://app?vid=89f241ee-e6fe-49ca-b80d-acd211d0ce34"},"vehicle_type_id":"4","last_reported":1701709609,"current_range_meters":17600,"station_id":"ce4bgt12rcd13ifvqce0","pricing_plan_id":"free"},{"bike_id":"4ccc2e27-6265-490a-9033-b322b49b7bef","system_id":"levelo_inurba_marseille","lat":43.308012,"lon":5.381511,"is_reserved":false,"is_disabled":false,"rental_uris":{"android":"levelo://app?vid=4ccc2e27-6265-490a-9033-b322b49b7bef","ios":"levelo://app?vid=4ccc2e27-6265-490a-9033-b322b49b7bef"},"vehicle_type_id":"4","last_reported":1701709609,"current_range_meters":0,"station_id":"ce4bgt12rcd13ifvqce0","pricing_plan_id":"free"},{"bike_id":"5f419110-1d56-4ec7-9393-7023ba6d0777","system_id":"levelo_inurba_marseille","lat":43.308012,"lon":5.381511,"is_reserved":false,"is_disabled":false,"rental_uris":{"android":"levelo://app?vid=5f419110-1d56-4ec7-9393-7023ba6d0777","ios":"levelo://app?vid=5f419110-1d56-4ec7-9393-7023ba6d0777"},"vehicle_type_id":"4","last_reported":1701709609,"current_range_meters":29200,"station_id":"ce4bgt12rcd13ifvqce0","pricing_plan_id":"free"},{"bike_id":"a3d240a3-b3cf-4c3d-a8b9-aa1f082b6b1d","system_id":"levelo_inurba_marseille","lat":43.308012,"lon":5.381511,"is_reserved":false,"is_disabled":false,"rental_uris":{"android":"levelo://app?vid=a3d240a3-b3cf-4c3d-a8b9-aa1f082b6b1d","ios":"levelo://app?vid=a3d240a3-b3cf-4c3d-a8b9-aa1f082b6b1d"},"vehicle_type_id":"4","last_reported":1701709609,"current_range_meters":24800,"station_id":"ce4bgt12rcd13ifvqce0","pricing_plan_id":"free"},{"bike_id":"f4e65c18-505b-4de3-9164-4261f4d95c29","system_id":"levelo_inurba_marseille","lat":43.302784,"lon":5.377158,"is_reserved":false,"is_disabled":false,"rental_uris":{"android":"levelo://app?vid=f4e65c18-505b-4de3-9164-4261f4d95c29","ios":"levelo://app?vid=f4e65c18-505b-4de3-9164-4261f4d95c29"},"vehicle_type_id":"4","last_reported":1701709609,"current_range_meters":20800,"station_id":"ce4bguh2rcd13ifvqcj0","pricing_plan_id":"free"},{"bike_id":"29c37982-4e2d-4d08-b8c0-5f31de848134","system_id":"levelo_inurba_marseille","lat":43.30004,"lon":5.365575,"is_reserved":false,"is_disabled":false,"rental_uris":{"android":"levelo://app?vid=29c37982-4e2d-4d08-b8c0-5f31de848134","ios":"levelo://app?vid=29c37982-4e2d-4d08-b8c0-5f31de848134"},"vehicle_type_id":"4","last_reported":1701709609,"current_range_meters":13600,"station_id":"ce4bgm92rcd13ifvqbr0","pricing_plan_id":"free"},{"bike_id":"2275aca5-3158-4c2c-8022-ca5d2714bc86","system_id":"levelo_inurba_marseille","lat":43.319997,"lon":5.381594,"is_reserved":false,"is_disabled":false,"rental_uris":{"android":"levelo://app?vid=2275aca5-3158-4c2c-8022-ca5d2714bc86","ios":"levelo://app?vid=2275aca5-3158-4c2c-8022-ca5d2714bc86"},"vehicle_type_id":"4","last_reported":1701709609,"current_range_meters":6800,"station_id":"ce4bhr12rcd13ifvqhpg","pricing_plan_id":"free"},{"bike_id":"1938206c-945e-44df-baa9-52fee70c4c24","system_id":"levelo_inurba_marseille","lat":43.31997,"lon":5.38166,"is_reserved":false,"is_disabled":false,"rental_uris":{"android":"levelo://app?vid=1938206c-945e-44df-baa9-52fee70c4c24","ios":"levelo://app?vid=1938206c-945e-44df-baa9-52fee70c4c24"},"vehicle_type_id":"4","last_reported":1701709609,"current_range_meters":17200,"station_id":"ce4bhr12rcd13ifvqhpg","pricing_plan_id":"free"},{"bike_id":"3a98f093-c063-4de6-baee-1234560b3957","system_id":"levelo_inurba_marseille","lat":43.313571,"lon":5.384829,"is_reserved":false,"is_disabled":false,"rental_uris":{"android":"levelo://app?vid=3a98f093-c063-4de6-baee-1234560b3957","ios":"levelo://app?vid=3a98f093-c063-4de6-baee-1234560b3957"},"vehicle_type_id":"4","last_reported":1701709609,"current_range_meters":24800,"station_id":"ce4bgt92rcd13ifvqcf0","pricing_plan_id":"free"},{"bike_id":"9fdb7f97-586d-42d2-befd-15216ba2e422","system_id":"levelo_inurba_marseille","lat":43.31183,"lon":5.38523,"is_reserved":false,"is_disabled":false,"rental_uris":{"android":"levelo://app?vid=9fdb7f97-586d-42d2-befd-15216ba2e422","ios":"levelo://app?vid=9fdb7f97-586d-42d2-befd-15216ba2e422"},"vehicle_type_id":"4","last_reported":1701709609,"current_range_meters":0,"station_id":"","pricing_plan_id":"free"},{"bike_id":"aca122f5-0bf1-4b51-9b4b-1c3c063197f6","system_id":"levelo_inurba_marseille","lat":43.299243,"lon":5.37481,"is_reserved":false,"is_disabled":false,"rental_uris":{"android":"levelo://app?vid=aca122f5-0bf1-4b51-9b4b-1c3c063197f6","ios":"levelo://app?vid=aca122f5-0bf1-4b51-9b4b-1c3c063197f6"},"vehicle_type_id":"4","last_reported":1701709609,"current_range_meters":19200,"station_id":"ce4bgjh2rcd13ifvqbg0","pricing_plan_id":"free"},{"bike_id":"fa46457d-df34-45cd-a91c-a0d41a9e8787","system_id":"levelo_inurba_marseille","lat":43.311722,"lon":5.387247,"is_reserved":false,"is_disabled":false,"rental_uris":{"android":"levelo://app?vid=fa46457d-df34-45cd-a91c-a0d41a9e8787","ios":"levelo://app?vid=fa46457d-df34-45cd-a91c-a0d41a9e8787"},"vehicle_type_id":"4","last_reported":1701709609,"current_range_meters":30800,"station_id":"ce4bgv12rcd13ifvqcp0","pricing_plan_id":"free"},{"bike_id":"cc0e9c1c-c39d-4395-95ff-47baaf5bfba9","system_id":"levelo_inurba_marseille","lat":43.297794,"lon":5.370888,"is_reserved":false,"is_disabled":false,"rental_uris":{"android":"levelo://app?vid=cc0e9c1c-c39d-4395-95ff-47baaf5bfba9","ios":"levelo://app?vid=cc0e9c1c-c39d-4395-95ff-47baaf5bfba9"},"vehicle_type_id":"4","last_reported":1701709609,"current_range_meters":28800,"station_id":"ce4bgop2rcd13ifvqc1g","pricing_plan_id":"free"},{"bike_id":"47321b85-2ddb-4fa3-8d13-00bea002eae7","system_id":"levelo_inurba_marseille","lat":43.322872,"lon":5.382756,"is_reserved":false,"is_disabled":false,"rental_uris":{"android":"levelo://app?vid=47321b85-2ddb-4fa3-8d13-00bea002eae7","ios":"levelo://app?vid=47321b85-2ddb-4fa3-8d13-00bea002eae7"},"vehicle_type_id":"4","last_reported":1701709609,"current_range_meters":28800,"station_id":"ce4bhr12rcd13ifvqhqg","pricing_plan_id":"free"},{"bike_id":"cb8f4c3a-456c-4d50-8ea3-298e057d608b","system_id":"levelo_inurba_marseille","lat":43.322974,"lon":5.382772,"is_reserved":false,"is_disabled":false,"rental_uris":{"android":"levelo://app?vid=cb8f4c3a-456c-4d50-8ea3-298e057d608b","ios":"levelo://app?vid=cb8f4c3a-456c-4d50-8ea3-298e057d608b"},"vehicle_type_id":"4","last_reported":1701709609,"current_range_meters":5200,"station_id":"ce4bhr12rcd13ifvqhqg","pricing_plan_id":"free"},{"bike_id":"c6ce3b8f-2076-4eb8-b7d5-d674dca50e8e","system_id":"levelo_inurba_marseille","lat":43.32825,"lon":5.36679,"is_reserved":false,"is_disabled":false,"rental_uris":{"android":"levelo://app?vid=c6ce3b8f-2076-4eb8-b7d5-d674dca50e8e","ios":"levelo://app?vid=c6ce3b8f-2076-4eb8-b7d5-d674dca50e8e"},"vehicle_type_id":"4","last_reported":1701709609,"current_range_meters":6000,"station_id":"ce4bhs92rcd13ifvqi0g","pricing_plan_id":"free"},{"bike_id":"5c26bdfb-7b7c-43fb-8a01-250128a1a6f8","system_id":"levelo_inurba_marseille","lat":43.298218,"lon":5.374416,"is_reserved":false,"is_disabled":false,"rental_uris":{"android":"levelo://app?vid=5c26bdfb-7b7c-43fb-8a01-250128a1a6f8","ios":"levelo://app?vid=5c26bdfb-7b7c-43fb-8a01-250128a1a6f8"},"vehicle_type_id":"4","last_reported":1701709609,"current_range_meters":20800,"station_id":"","pricing_plan_id":"free"},{"bike_id":"f8284d70-c5e7-490d-9c5a-74a62dd38512","system_id":"levelo_inurba_marseille","lat":43.32832,"lon":5.36676,"is_reserved":false,"is_disabled":false,"rental_uris":{"android":"levelo://app?vid=f8284d70-c5e7-490d-9c5a-74a62dd38512","ios":"levelo://app?vid=f8284d70-c5e7-490d-9c5a-74a62dd38512"},"vehicle_type_id":"4","last_reported":1701709609,"current_range_meters":12400,"station_id":"ce4bhs92rcd13ifvqi0g","pricing_plan_id":"free"},{"bike_id":"de401364-d678-4937-be22-13d248a51b5a","system_id":"levelo_inurba_marseille","lat":43.297163,"lon":5.365866,"is_reserved":false,"is_disabled":false,"rental_uris":{"android":"levelo://app?vid=de401364-d678-4937-be22-13d248a51b5a","ios":"levelo://app?vid=de401364-d678-4937-be22-13d248a51b5a"},"vehicle_type_id":"4","last_reported":1701709609,"current_range_meters":30000,"station_id":"ce4bgn12rcd13ifvqbt0","pricing_plan_id":"free"},{"bike_id":"9843c21d-1183-476a-b0c6-edb77488e756","system_id":"levelo_inurba_marseille","lat":43.295905,"lon":5.36752,"is_reserved":false,"is_disabled":false,"rental_uris":{"android":"levelo://app?vid=9843c21d-1183-476a-b0c6-edb77488e756","ios":"levelo://app?vid=9843c21d-1183-476a-b0c6-edb77488e756"},"vehicle_type_id":"4","last_reported":1701709609,"current_range_meters":30400,"station_id":"ce4bgph2rcd13ifvqc2g","pricing_plan_id":"free"},{"bike_id":"eaa0e7e7-2390-47fa-909b-7b240952cbef","system_id":"levelo_inurba_marseille","lat":43.316538,"lon":5.38954,"is_reserved":false,"is_disabled":false,"rental_uris":{"android":"levelo://app?vid=eaa0e7e7-2390-47fa-909b-7b240952cbef","ios":"levelo://app?vid=eaa0e7e7-2390-47fa-909b-7b240952cbef"},"vehicle_type_id":"4","last_reported":1701709609,"current_range_meters":16400,"station_id":"","pricing_plan_id":"free"},{"bike_id":"fdec1f8c-3f65-4c4a-a693-42f0752abef1","system_id":"levelo_inurba_marseille","lat":43.29573,"lon":5.367355,"is_reserved":false,"is_disabled":false,"rental_uris":{"android":"levelo://app?vid=fdec1f8c-3f65-4c4a-a693-42f0752abef1","ios":"levelo://app?vid=fdec1f8c-3f65-4c4a-a693-42f0752abef1"},"vehicle_type_id":"4","last_reported":1701709609,"current_range_meters":3200,"station_id":"ce4bgph2rcd13ifvqc2g","pricing_plan_id":"free"},{"bike_id":"c4378ab6-2b12-4f0e-8442-ec7c3452ff2c","system_id":"levelo_inurba_marseille","lat":43.29573,"lon":5.367355,"is_reserved":false,"is_disabled":false,"rental_uris":{"android":"levelo://app?vid=c4378ab6-2b12-4f0e-8442-ec7c3452ff2c","ios":"levelo://app?vid=c4378ab6-2b12-4f0e-8442-ec7c3452ff2c"},"vehicle_type_id":"4","last_reported":1701709609,"current_range_meters":30800,"station_id":"ce4bgph2rcd13ifvqc2g","pricing_plan_id":"free"},{"bike_id":"e6b3708f-cec1-4649-b3f8-439ff73c0f17","system_id":"levelo_inurba_marseille","lat":43.29581,"lon":5.36744,"is_reserved":false,"is_disabled":false,"rental_uris":{"android":"levelo://app?vid=e6b3708f-cec1-4649-b3f8-439ff73c0f17","ios":"levelo://app?vid=e6b3708f-cec1-4649-b3f8-439ff73c0f17"},"vehicle_type_id":"4","last_reported":1701709609,"current_range_meters":27600,"station_id":"ce4bgph2rcd13ifvqc2g","pricing_plan_id":"free"},{"bike_id":"879a8c6a-88b2-4f7d-843e-93f3ee1c8705","system_id":"levelo_inurba_marseille","lat":43.295807,"lon":5.367505,"is_reserved":false,"is_disabled":false,"rental_uris":{"android":"levelo://app?vid=879a8c6a-88b2-4f7d-843e-93f3ee1c8705","ios":"levelo://app?vid=879a8c6a-88b2-4f7d-843e-93f3ee1c8705"},"vehicle_type_id":"4","last_reported":1701709609,"current_range_meters":22400,"station_id":"ce4bgph2rcd13ifvqc2g","pricing_plan_id":"free"},{"bike_id":"10375e89-6dba-4cca-b4ee-8625fdd0f636","system_id":"levelo_inurba_marseille","lat":43.29573,"lon":5.367355,"is_reserved":false,"is_disabled":false,"rental_uris":{"android":"levelo://app?vid=10375e89-6dba-4cca-b4ee-8625fdd0f636","ios":"levelo://app?vid=10375e89-6dba-4cca-b4ee-8625fdd0f636"},"vehicle_type_id":"4","last_reported":1701709609,"current_range_meters":10000,"station_id":"ce4bgph2rcd13ifvqc2g","pricing_plan_id":"free"},{"bike_id":"54520010-3631-4ffa-946c-aad46e5f28d6","system_id":"levelo_inurba_marseille","lat":43.29573,"lon":5.367355,"is_reserved":false,"is_disabled":false,"rental_uris":{"android":"levelo://app?vid=54520010-3631-4ffa-946c-aad46e5f28d6","ios":"levelo://app?vid=54520010-3631-4ffa-946c-aad46e5f28d6"},"vehicle_type_id":"4","last_reported":1701709609,"current_range_meters":28000,"station_id":"ce4bgph2rcd13ifvqc2g","pricing_plan_id":"free"},{"bike_id":"de188714-ff1d-4684-8ca6-cb83914a3853","system_id":"levelo_inurba_marseille","lat":43.29573,"lon":5.367355,"is_reserved":false,"is_disabled":false,"rental_uris":{"android":"levelo://app?vid=de188714-ff1d-4684-8ca6-cb83914a3853","ios":"levelo://app?vid=de188714-ff1d-4684-8ca6-cb83914a3853"},"vehicle_type_id":"4","last_reported":1701709609,"current_range_meters":26400,"station_id":"ce4bgph2rcd13ifvqc2g","pricing_plan_id":"free"},{"bike_id":"821b761d-6865-4e52-b45a-331da3046b08","system_id":"levelo_inurba_marseille","lat":43.295737,"lon":5.367568,"is_reserved":false,"is_disabled":false,"rental_uris":{"android":"levelo://app?vid=821b761d-6865-4e52-b45a-331da3046b08","ios":"levelo://app?vid=821b761d-6865-4e52-b45a-331da3046b08"},"vehicle_type_id":"4","last_reported":1701709609,"current_range_meters":21200,"station_id":"ce4bgph2rcd13ifvqc2g","pricing_plan_id":"free"},{"bike_id":"71448ccd-9d25-4704-b48a-d448c4dbcd14","system_id":"levelo_inurba_marseille","lat":43.29569,"lon":5.36748,"is_reserved":false,"is_disabled":false,"rental_uris":{"android":"levelo://app?vid=71448ccd-9d25-4704-b48a-d448c4dbcd14","ios":"levelo://app?vid=71448ccd-9d25-4704-b48a-d448c4dbcd14"},"vehicle_type_id":"4","last_reported":1701709609,"current_range_meters":8400,"station_id":"ce4bgph2rcd13ifvqc2g","pricing_plan_id":"free"},{"bike_id":"766f811a-f557-4d3f-87ab-499dc9cf0b02","system_id":"levelo_inurba_marseille","lat":43.296935,"lon":5.376544,"is_reserved":false,"is_disabled":false,"rental_uris":{"android":"levelo://app?vid=766f811a-f557-4d3f-87ab-499dc9cf0b02","ios":"levelo://app?vid=766f811a-f557-4d3f-87ab-499dc9cf0b02"},"vehicle_type_id":"4","last_reported":1701709609,"current_range_meters":17600,"station_id":"ce4bgkh2rcd13ifvqbl0","pricing_plan_id":"free"},{"bike_id":"0f4d94d4-f9d1-457e-83ac-5151113dd4dc","system_id":"levelo_inurba_marseille","lat":43.299028,"lon":5.381509,"is_reserved":false,"is_disabled":false,"rental_uris":{"android":"levelo://app?vid=0f4d94d4-f9d1-457e-83ac-5151113dd4dc","ios":"levelo://app?vid=0f4d94d4-f9d1-457e-83ac-5151113dd4dc"},"vehicle_type_id":"4","last_reported":1701709609,"current_range_meters":28400,"station_id":"ce4bgj12rcd13ifvqbc0","pricing_plan_id":"free"},{"bike_id":"228456a8-f921-4c5c-ae4f-e3ac60eddd0f","system_id":"levelo_inurba_marseille","lat":43.296935,"lon":5.376544,"is_reserved":false,"is_disabled":false,"rental_uris":{"android":"levelo://app?vid=228456a8-f921-4c5c-ae4f-e3ac60eddd0f","ios":"levelo://app?vid=228456a8-f921-4c5c-ae4f-e3ac60eddd0f"},"vehicle_type_id":"4","last_reported":1701709609,"current_range_meters":12800,"station_id":"ce4bgkh2rcd13ifvqbl0","pricing_plan_id":"free"},{"bike_id":"68e4fc1b-04c1-4cfb-9ece-78f3cdb6fc43","system_id":"levelo_inurba_marseille","lat":43.309589,"lon":5.390258,"is_reserved":false,"is_disabled":false,"rental_uris":{"android":"levelo://app?vid=68e4fc1b-04c1-4cfb-9ece-78f3cdb6fc43","ios":"levelo://app?vid=68e4fc1b-04c1-4cfb-9ece-78f3cdb6fc43"},"vehicle_type_id":"4","last_reported":1701709609,"current_range_meters":20400,"station_id":"ce4bgup2rcd13ifvqco0","pricing_plan_id":"free"},{"bike_id":"2682baaf-298d-4ab7-88fc-731b2bc3d0f3","system_id":"levelo_inurba_marseille","lat":43.317557,"lon":5.390173,"is_reserved":false,"is_disabled":false,"rental_uris":{"android":"levelo://app?vid=2682baaf-298d-4ab7-88fc-731b2bc3d0f3","ios":"levelo://app?vid=2682baaf-298d-4ab7-88fc-731b2bc3d0f3"},"vehicle_type_id":"4","last_reported":1701709609,"current_range_meters":27200,"station_id":"ce4bhqp2rcd13ifvqhng","pricing_plan_id":"free"},{"bike_id":"c6c5acc0-3971-43b9-ba4d-33c881a5a76e","system_id":"levelo_inurba_marseille","lat":43.317557,"lon":5.390173,"is_reserved":false,"is_disabled":false,"rental_uris":{"android":"levelo://app?vid=c6c5acc0-3971-43b9-ba4d-33c881a5a76e","ios":"levelo://app?vid=c6c5acc0-3971-43b9-ba4d-33c881a5a76e"},"vehicle_type_id":"4","last_reported":1701709609,"current_range_meters":27600,"station_id":"ce4bhqp2rcd13ifvqhng","pricing_plan_id":"free"},{"bike_id":"cbdb1b26-1b7b-4316-9220-24d1960a98cf","system_id":"levelo_inurba_marseille","lat":43.317557,"lon":5.390173,"is_reserved":false,"is_disabled":false,"rental_uris":{"android":"levelo://app?vid=cbdb1b26-1b7b-4316-9220-24d1960a98cf","ios":"levelo://app?vid=cbdb1b26-1b7b-4316-9220-24d1960a98cf"},"vehicle_type_id":"4","last_reported":1701709609,"current_range_meters":31600,"station_id":"ce4bhqp2rcd13ifvqhng","pricing_plan_id":"free"},{"bike_id":"b7639a32-79c3-4611-9e5f-95d57bce83e2","system_id":"levelo_inurba_marseille","lat":43.317557,"lon":5.390173,"is_reserved":false,"is_disabled":false,"rental_uris":{"android":"levelo://app?vid=b7639a32-79c3-4611-9e5f-95d57bce83e2","ios":"levelo://app?vid=b7639a32-79c3-4611-9e5f-95d57bce83e2"},"vehicle_type_id":"4","last_reported":1701709609,"current_range_meters":2800,"station_id":"ce4bhqp2rcd13ifvqhng","pricing_plan_id":"free"},{"bike_id":"a71c79c9-2e02-4efa-8ab0-fbd47268f50a","system_id":"levelo_inurba_marseille","lat":43.31752,"lon":5.39028,"is_reserved":false,"is_disabled":false,"rental_uris":{"android":"levelo://app?vid=a71c79c9-2e02-4efa-8ab0-fbd47268f50a","ios":"levelo://app?vid=a71c79c9-2e02-4efa-8ab0-fbd47268f50a"},"vehicle_type_id":"4","last_reported":1701709609,"current_range_meters":19200,"station_id":"ce4bhqp2rcd13ifvqhng","pricing_plan_id":"free"},{"bike_id":"f61bbd2c-b69a-4d94-afc2-870afc8d8a19","system_id":"levelo_inurba_marseille","lat":43.29601,"lon":5.381084,"is_reserved":false,"is_disabled":false,"rental_uris":{"android":"levelo://app?vid=f61bbd2c-b69a-4d94-afc2-870afc8d8a19","ios":"levelo://app?vid=f61bbd2c-b69a-4d94-afc2-870afc8d8a19"},"vehicle_type_id":"4","last_reported":1701709609,"current_range_meters":22000,"station_id":"ce4bgl12rcd13ifvqbo0","pricing_plan_id":"free"},{"bike_id":"0b207207-cf56-447e-8607-c32b67c60851","system_id":"levelo_inurba_marseille","lat":43.292311,"lon":5.360731,"is_reserved":false,"is_disabled":false,"rental_uris":{"android":"levelo://app?vid=0b207207-cf56-447e-8607-c32b67c60851","ios":"levelo://app?vid=0b207207-cf56-447e-8607-c32b67c60851"},"vehicle_type_id":"4","last_reported":1701709609,"current_range_meters":26400,"station_id":"ce4bhbh2rcd13ifvqeqg","pricing_plan_id":"free"},{"bike_id":"421d13e2-aa92-4383-910f-04cf31c36528","system_id":"levelo_inurba_marseille","lat":43.2988,"lon":5.38907,"is_reserved":false,"is_disabled":false,"rental_uris":{"android":"levelo://app?vid=421d13e2-aa92-4383-910f-04cf31c36528","ios":"levelo://app?vid=421d13e2-aa92-4383-910f-04cf31c36528"},"vehicle_type_id":"4","last_reported":1701709609,"current_range_meters":14800,"station_id":"ce4bh392rcd13ifvqdl0","pricing_plan_id":"free"},{"bike_id":"cbc0710d-81e6-4327-8275-3d299ca6a47c","system_id":"levelo_inurba_marseille","lat":43.291675,"lon":5.371583,"is_reserved":false,"is_disabled":false,"rental_uris":{"android":"levelo://app?vid=cbc0710d-81e6-4327-8275-3d299ca6a47c","ios":"levelo://app?vid=cbc0710d-81e6-4327-8275-3d299ca6a47c"},"vehicle_type_id":"4","last_reported":1701709609,"current_range_meters":6400,"station_id":"ce4bha92rcd13ifvqeh0","pricing_plan_id":"free"},{"bike_id":"6c5a0a3e-dc48-4d76-8acb-e4d82b21e9fc","system_id":"levelo_inurba_marseille","lat":43.291994,"lon":5.357886,"is_reserved":false,"is_disabled":false,"rental_uris":{"android":"levelo://app?vid=6c5a0a3e-dc48-4d76-8acb-e4d82b21e9fc","ios":"levelo://app?vid=6c5a0a3e-dc48-4d76-8acb-e4d82b21e9fc"},"vehicle_type_id":"4","last_reported":1701709609,"current_range_meters":13600,"station_id":"ce4bhb12rcd13ifvqel0","pricing_plan_id":"free"},{"bike_id":"1c0d048e-99dd-4157-8339-363cdd971a3e","system_id":"levelo_inurba_marseille","lat":43.29187,"lon":5.35809,"is_reserved":false,"is_disabled":false,"rental_uris":{"android":"levelo://app?vid=1c0d048e-99dd-4157-8339-363cdd971a3e","ios":"levelo://app?vid=1c0d048e-99dd-4157-8339-363cdd971a3e"},"vehicle_type_id":"4","last_reported":1701709609,"current_range_meters":13600,"station_id":"ce4bhb12rcd13ifvqel0","pricing_plan_id":"free"},{"bike_id":"2e9bbbc1-0b7c-4450-a911-e1c80a6c0b25","system_id":"levelo_inurba_marseille","lat":43.31327,"lon":5.39698,"is_reserved":false,"is_disabled":false,"rental_uris":{"android":"levelo://app?vid=2e9bbbc1-0b7c-4450-a911-e1c80a6c0b25","ios":"levelo://app?vid=2e9bbbc1-0b7c-4450-a911-e1c80a6c0b25"},"vehicle_type_id":"4","last_reported":1701709609,"current_range_meters":12000,"station_id":"ce4bgvp2rcd13ifvqcu0","pricing_plan_id":"free"},{"bike_id":"3c9310b7-b6f2-47db-b2c9-7a1dd42e043d","system_id":"levelo_inurba_marseille","lat":43.290631,"lon":5.359244,"is_reserved":false,"is_disabled":false,"rental_uris":{"android":"levelo://app?vid=3c9310b7-b6f2-47db-b2c9-7a1dd42e043d","ios":"levelo://app?vid=3c9310b7-b6f2-47db-b2c9-7a1dd42e043d"},"vehicle_type_id":"4","last_reported":1701709609,"current_range_meters":26800,"station_id":"ce4bha92rcd13ifvqeg0","pricing_plan_id":"free"},{"bike_id":"c60c753f-9c7f-4967-a9ce-95562e17820d","system_id":"levelo_inurba_marseille","lat":43.290631,"lon":5.359244,"is_reserved":false,"is_disabled":false,"rental_uris":{"android":"levelo://app?vid=c60c753f-9c7f-4967-a9ce-95562e17820d","ios":"levelo://app?vid=c60c753f-9c7f-4967-a9ce-95562e17820d"},"vehicle_type_id":"4","last_reported":1701709609,"current_range_meters":21200,"station_id":"ce4bha92rcd13ifvqeg0","pricing_plan_id":"free"},{"bike_id":"aadbe002-6705-4e8b-aaae-59ad38c628cf","system_id":"levelo_inurba_marseille","lat":43.289436,"lon":5.363965,"is_reserved":false,"is_disabled":false,"rental_uris":{"android":"levelo://app?vid=aadbe002-6705-4e8b-aaae-59ad38c628cf","ios":"levelo://app?vid=aadbe002-6705-4e8b-aaae-59ad38c628cf"},"vehicle_type_id":"4","last_reported":1701709609,"current_range_meters":15600,"station_id":"ce4bhc92rcd13ifvqetg","pricing_plan_id":"free"},{"bike_id":"93aace4e-598b-4478-8c8b-c555ee0a199b","system_id":"levelo_inurba_marseille","lat":43.289468,"lon":5.363719,"is_reserved":false,"is_disabled":false,"rental_uris":{"android":"levelo://app?vid=93aace4e-598b-4478-8c8b-c555ee0a199b","ios":"levelo://app?vid=93aace4e-598b-4478-8c8b-c555ee0a199b"},"vehicle_type_id":"4","last_reported":1701709609,"current_range_meters":13200,"station_id":"ce4bhc92rcd13ifvqetg","pricing_plan_id":"free"},{"bike_id":"e61fcd25-81d7-4943-ba73-c33aa29920a0","system_id":"levelo_inurba_marseille","lat":43.330442,"lon":5.389148,"is_reserved":false,"is_disabled":false,"rental_uris":{"android":"levelo://app?vid=e61fcd25-81d7-4943-ba73-c33aa29920a0","ios":"levelo://app?vid=e61fcd25-81d7-4943-ba73-c33aa29920a0"},"vehicle_type_id":"4","last_reported":1701709609,"current_range_meters":16400,"station_id":"ce4bhr92rcd13ifvqhrg","pricing_plan_id":"free"},{"bike_id":"1f6eda97-b2b7-45b0-b6bb-af92fcaa4fac","system_id":"levelo_inurba_marseille","lat":43.290104,"lon":5.356111,"is_reserved":false,"is_disabled":false,"rental_uris":{"android":"levelo://app?vid=1f6eda97-b2b7-45b0-b6bb-af92fcaa4fac","ios":"levelo://app?vid=1f6eda97-b2b7-45b0-b6bb-af92fcaa4fac"},"vehicle_type_id":"4","last_reported":1701709609,"current_range_meters":20000,"station_id":"ce4bhb92rcd13ifvqen0","pricing_plan_id":"free"},{"bike_id":"b1da507f-59bc-4bfa-9de7-dd18b0d37739","system_id":"levelo_inurba_marseille","lat":43.33745,"lon":5.37455,"is_reserved":false,"is_disabled":false,"rental_uris":{"android":"levelo://app?vid=b1da507f-59bc-4bfa-9de7-dd18b0d37739","ios":"levelo://app?vid=b1da507f-59bc-4bfa-9de7-dd18b0d37739"},"vehicle_type_id":"4","last_reported":1701709609,"current_range_meters":31200,"station_id":"","pricing_plan_id":"free"},{"bike_id":"94dff6b1-c359-4e63-9b5b-5f815ee3ce54","system_id":"levelo_inurba_marseille","lat":43.33769,"lon":5.37448,"is_reserved":false,"is_disabled":false,"rental_uris":{"android":"levelo://app?vid=94dff6b1-c359-4e63-9b5b-5f815ee3ce54","ios":"levelo://app?vid=94dff6b1-c359-4e63-9b5b-5f815ee3ce54"},"vehicle_type_id":"4","last_reported":1701709609,"current_range_meters":9200,"station_id":"","pricing_plan_id":"free"},{"bike_id":"dbeb873d-88dd-41cd-a629-67e3545fd36b","system_id":"levelo_inurba_marseille","lat":43.30653,"lon":5.40099,"is_reserved":false,"is_disabled":false,"rental_uris":{"android":"levelo://app?vid=dbeb873d-88dd-41cd-a629-67e3545fd36b","ios":"levelo://app?vid=dbeb873d-88dd-41cd-a629-67e3545fd36b"},"vehicle_type_id":"4","last_reported":1701709609,"current_range_meters":0,"station_id":"ce4bh112rcd13ifvqda0","pricing_plan_id":"free"},{"bike_id":"bb2cec10-7092-4cb1-9f35-87f481342d47","system_id":"levelo_inurba_marseille","lat":43.30136,"lon":5.39852,"is_reserved":false,"is_disabled":false,"rental_uris":{"android":"levelo://app?vid=bb2cec10-7092-4cb1-9f35-87f481342d47","ios":"levelo://app?vid=bb2cec10-7092-4cb1-9f35-87f481342d47"},"vehicle_type_id":"4","last_reported":1701709609,"current_range_meters":20800,"station_id":"ce4bh0h2rcd13ifvqd40","pricing_plan_id":"free"},{"bike_id":"96db2c40-4c19-4678-a692-4d17bfaa0bb3","system_id":"levelo_inurba_marseille","lat":43.295196,"lon":5.39397,"is_reserved":false,"is_disabled":false,"rental_uris":{"android":"levelo://app?vid=96db2c40-4c19-4678-a692-4d17bfaa0bb3","ios":"levelo://app?vid=96db2c40-4c19-4678-a692-4d17bfaa0bb3"},"vehicle_type_id":"4","last_reported":1701709609,"current_range_meters":21600,"station_id":"ce4bh292rcd13ifvqdf0","pricing_plan_id":"free"},{"bike_id":"84ad86f1-88c4-490d-8fe0-c19e37f9aea0","system_id":"levelo_inurba_marseille","lat":43.295196,"lon":5.39397,"is_reserved":false,"is_disabled":false,"rental_uris":{"android":"levelo://app?vid=84ad86f1-88c4-490d-8fe0-c19e37f9aea0","ios":"levelo://app?vid=84ad86f1-88c4-490d-8fe0-c19e37f9aea0"},"vehicle_type_id":"4","last_reported":1701709609,"current_range_meters":31600,"station_id":"ce4bh292rcd13ifvqdf0","pricing_plan_id":"free"},{"bike_id":"37d75cfc-99b0-4911-bd4c-d6bb935cbf75","system_id":"levelo_inurba_marseille","lat":43.295194,"lon":5.39397,"is_reserved":false,"is_disabled":false,"rental_uris":{"android":"levelo://app?vid=37d75cfc-99b0-4911-bd4c-d6bb935cbf75","ios":"levelo://app?vid=37d75cfc-99b0-4911-bd4c-d6bb935cbf75"},"vehicle_type_id":"4","last_reported":1701709609,"current_range_meters":31200,"station_id":"ce4bh292rcd13ifvqdf0","pricing_plan_id":"free"},{"bike_id":"5b9aaee5-bb46-43e6-bebc-e9f4fb6411a8","system_id":"levelo_inurba_marseille","lat":43.295194,"lon":5.39397,"is_reserved":false,"is_disabled":false,"rental_uris":{"android":"levelo://app?vid=5b9aaee5-bb46-43e6-bebc-e9f4fb6411a8","ios":"levelo://app?vid=5b9aaee5-bb46-43e6-bebc-e9f4fb6411a8"},"vehicle_type_id":"4","last_reported":1701709609,"current_range_meters":20400,"station_id":"ce4bh292rcd13ifvqdf0","pricing_plan_id":"free"},{"bike_id":"73788a60-6f3f-4fb7-85cc-eb8ee9d30399","system_id":"levelo_inurba_marseille","lat":43.291994,"lon":5.392907,"is_reserved":false,"is_disabled":false,"rental_uris":{"android":"levelo://app?vid=73788a60-6f3f-4fb7-85cc-eb8ee9d30399","ios":"levelo://app?vid=73788a60-6f3f-4fb7-85cc-eb8ee9d30399"},"vehicle_type_id":"4","last_reported":1701709609,"current_range_meters":21600,"station_id":"ce4bh192rcd13ifvqdd0","pricing_plan_id":"free"},{"bike_id":"e410a40c-05e0-42e1-990c-d4230c575e22","system_id":"levelo_inurba_marseille","lat":43.28463,"lon":5.358997,"is_reserved":false,"is_disabled":false,"rental_uris":{"android":"levelo://app?vid=e410a40c-05e0-42e1-990c-d4230c575e22","ios":"levelo://app?vid=e410a40c-05e0-42e1-990c-d4230c575e22"},"vehicle_type_id":"4","last_reported":1701709609,"current_range_meters":28400,"station_id":"ce4bhah2rcd13ifvqei0","pricing_plan_id":"free"},{"bike_id":"d51f0766-7fbf-4175-ad35-3cef124d662f","system_id":"levelo_inurba_marseille","lat":43.284538,"lon":5.358657,"is_reserved":false,"is_disabled":false,"rental_uris":{"android":"levelo://app?vid=d51f0766-7fbf-4175-ad35-3cef124d662f","ios":"levelo://app?vid=d51f0766-7fbf-4175-ad35-3cef124d662f"},"vehicle_type_id":"4","last_reported":1701709609,"current_range_meters":6000,"station_id":"ce4bhah2rcd13ifvqei0","pricing_plan_id":"free"},{"bike_id":"cffa22f3-f430-4bd4-a659-2363909827e5","system_id":"levelo_inurba_marseille","lat":43.284538,"lon":5.358657,"is_reserved":false,"is_disabled":false,"rental_uris":{"android":"levelo://app?vid=cffa22f3-f430-4bd4-a659-2363909827e5","ios":"levelo://app?vid=cffa22f3-f430-4bd4-a659-2363909827e5"},"vehicle_type_id":"4","last_reported":1701709609,"current_range_meters":3600,"station_id":"ce4bhah2rcd13ifvqei0","pricing_plan_id":"free"},{"bike_id":"0262f1d7-4a61-453c-8505-5fa37bc3e4ae","system_id":"levelo_inurba_marseille","lat":43.284534,"lon":5.358662,"is_reserved":false,"is_disabled":false,"rental_uris":{"android":"levelo://app?vid=0262f1d7-4a61-453c-8505-5fa37bc3e4ae","ios":"levelo://app?vid=0262f1d7-4a61-453c-8505-5fa37bc3e4ae"},"vehicle_type_id":"4","last_reported":1701709609,"current_range_meters":26800,"station_id":"ce4bhah2rcd13ifvqei0","pricing_plan_id":"free"},{"bike_id":"d8d94719-7a4d-48bb-a181-4caee99f9526","system_id":"levelo_inurba_marseille","lat":43.284534,"lon":5.358662,"is_reserved":false,"is_disabled":false,"rental_uris":{"android":"levelo://app?vid=d8d94719-7a4d-48bb-a181-4caee99f9526","ios":"levelo://app?vid=d8d94719-7a4d-48bb-a181-4caee99f9526"},"vehicle_type_id":"4","last_reported":1701709609,"current_range_meters":19200,"station_id":"ce4bhah2rcd13ifvqei0","pricing_plan_id":"free"},{"bike_id":"21c1addb-459a-428a-a16f-ff43a2b0c086","system_id":"levelo_inurba_marseille","lat":43.284534,"lon":5.358662,"is_reserved":false,"is_disabled":false,"rental_uris":{"android":"levelo://app?vid=21c1addb-459a-428a-a16f-ff43a2b0c086","ios":"levelo://app?vid=21c1addb-459a-428a-a16f-ff43a2b0c086"},"vehicle_type_id":"4","last_reported":1701709609,"current_range_meters":22800,"station_id":"ce4bhah2rcd13ifvqei0","pricing_plan_id":"free"},{"bike_id":"7a10c680-a91d-438f-a0f2-41bcd277749d","system_id":"levelo_inurba_marseille","lat":43.284534,"lon":5.358662,"is_reserved":false,"is_disabled":false,"rental_uris":{"android":"levelo://app?vid=7a10c680-a91d-438f-a0f2-41bcd277749d","ios":"levelo://app?vid=7a10c680-a91d-438f-a0f2-41bcd277749d"},"vehicle_type_id":"4","last_reported":1701709609,"current_range_meters":0,"station_id":"ce4bhah2rcd13ifvqei0","pricing_plan_id":"free"},{"bike_id":"894cd792-c2d0-4c32-9826-6cd4372d33d4","system_id":"levelo_inurba_marseille","lat":43.294314,"lon":5.397498,"is_reserved":false,"is_disabled":false,"rental_uris":{"android":"levelo://app?vid=894cd792-c2d0-4c32-9826-6cd4372d33d4","ios":"levelo://app?vid=894cd792-c2d0-4c32-9826-6cd4372d33d4"},"vehicle_type_id":"4","last_reported":1701709609,"current_range_meters":7200,"station_id":"ce4bh3h2rcd13ifvqdo0","pricing_plan_id":"free"},{"bike_id":"cc5318b3-b7ed-4e20-b289-25fb587cde23","system_id":"levelo_inurba_marseille","lat":43.294314,"lon":5.397498,"is_reserved":false,"is_disabled":false,"rental_uris":{"android":"levelo://app?vid=cc5318b3-b7ed-4e20-b289-25fb587cde23","ios":"levelo://app?vid=cc5318b3-b7ed-4e20-b289-25fb587cde23"},"vehicle_type_id":"4","last_reported":1701709609,"current_range_meters":26000,"station_id":"ce4bh3h2rcd13ifvqdo0","pricing_plan_id":"free"},{"bike_id":"988e102d-bb1e-4a45-b559-d72bd97dc84e","system_id":"levelo_inurba_marseille","lat":43.283998,"lon":5.375062,"is_reserved":false,"is_disabled":false,"rental_uris":{"android":"levelo://app?vid=988e102d-bb1e-4a45-b559-d72bd97dc84e","ios":"levelo://app?vid=988e102d-bb1e-4a45-b559-d72bd97dc84e"},"vehicle_type_id":"4","last_reported":1701709609,"current_range_meters":25600,"station_id":"ce4bh412rcd13ifvqds0","pricing_plan_id":"free"},{"bike_id":"187f65a4-33fc-4aff-9b6b-86e90083d486","system_id":"levelo_inurba_marseille","lat":43.295713,"lon":5.399639,"is_reserved":false,"is_disabled":false,"rental_uris":{"android":"levelo://app?vid=187f65a4-33fc-4aff-9b6b-86e90083d486","ios":"levelo://app?vid=187f65a4-33fc-4aff-9b6b-86e90083d486"},"vehicle_type_id":"4","last_reported":1701709609,"current_range_meters":13600,"station_id":"ce4bh312rcd13ifvqdj0","pricing_plan_id":"free"},{"bike_id":"c174bbf2-01c5-4b05-8e22-46fd7c4cf588","system_id":"levelo_inurba_marseille","lat":43.295713,"lon":5.399639,"is_reserved":false,"is_disabled":false,"rental_uris":{"android":"levelo://app?vid=c174bbf2-01c5-4b05-8e22-46fd7c4cf588","ios":"levelo://app?vid=c174bbf2-01c5-4b05-8e22-46fd7c4cf588"},"vehicle_type_id":"4","last_reported":1701709609,"current_range_meters":28800,"station_id":"ce4bh312rcd13ifvqdj0","pricing_plan_id":"free"},{"bike_id":"369c1fbf-1810-4955-8a38-fbc243fd34bf","system_id":"levelo_inurba_marseille","lat":43.295713,"lon":5.399639,"is_reserved":false,"is_disabled":false,"rental_uris":{"android":"levelo://app?vid=369c1fbf-1810-4955-8a38-fbc243fd34bf","ios":"levelo://app?vid=369c1fbf-1810-4955-8a38-fbc243fd34bf"},"vehicle_type_id":"4","last_reported":1701709609,"current_range_meters":29600,"station_id":"ce4bh312rcd13ifvqdj0","pricing_plan_id":"free"},{"bike_id":"e523d629-1bd6-471c-9081-4c6791854019","system_id":"levelo_inurba_marseille","lat":43.295713,"lon":5.399639,"is_reserved":false,"is_disabled":false,"rental_uris":{"android":"levelo://app?vid=e523d629-1bd6-471c-9081-4c6791854019","ios":"levelo://app?vid=e523d629-1bd6-471c-9081-4c6791854019"},"vehicle_type_id":"4","last_reported":1701709609,"current_range_meters":30000,"station_id":"ce4bh312rcd13ifvqdj0","pricing_plan_id":"free"},{"bike_id":"4b021143-be23-4d8d-ac72-086548831286","system_id":"levelo_inurba_marseille","lat":43.33717,"lon":5.391857,"is_reserved":false,"is_disabled":false,"rental_uris":{"android":"levelo://app?vid=4b021143-be23-4d8d-ac72-086548831286","ios":"levelo://app?vid=4b021143-be23-4d8d-ac72-086548831286"},"vehicle_type_id":"4","last_reported":1701709609,"current_range_meters":31200,"station_id":"ce4bhr92rcd13ifvqhsg","pricing_plan_id":"free"},{"bike_id":"23a6e18e-5ad6-40cf-b6fb-7a4b1a6034c9","system_id":"levelo_inurba_marseille","lat":43.337168,"lon":5.391825,"is_reserved":false,"is_disabled":false,"rental_uris":{"android":"levelo://app?vid=23a6e18e-5ad6-40cf-b6fb-7a4b1a6034c9","ios":"levelo://app?vid=23a6e18e-5ad6-40cf-b6fb-7a4b1a6034c9"},"vehicle_type_id":"4","last_reported":1701709609,"current_range_meters":28000,"station_id":"ce4bhr92rcd13ifvqhsg","pricing_plan_id":"free"},{"bike_id":"89a41687-2455-44f3-bd8b-9d23bb1eee72","system_id":"levelo_inurba_marseille","lat":43.284793,"lon":5.384113,"is_reserved":false,"is_disabled":false,"rental_uris":{"android":"levelo://app?vid=89a41687-2455-44f3-bd8b-9d23bb1eee72","ios":"levelo://app?vid=89a41687-2455-44f3-bd8b-9d23bb1eee72"},"vehicle_type_id":"4","last_reported":1701709609,"current_range_meters":30800,"station_id":"ce4bh512rcd13ifvqe3g","pricing_plan_id":"free"},{"bike_id":"22bd654f-2dd3-4de4-ad7f-20eba548746d","system_id":"levelo_inurba_marseille","lat":43.284793,"lon":5.384113,"is_reserved":false,"is_disabled":false,"rental_uris":{"android":"levelo://app?vid=22bd654f-2dd3-4de4-ad7f-20eba548746d","ios":"levelo://app?vid=22bd654f-2dd3-4de4-ad7f-20eba548746d"},"vehicle_type_id":"4","last_reported":1701709609,"current_range_meters":23200,"station_id":"ce4bh512rcd13ifvqe3g","pricing_plan_id":"free"},{"bike_id":"2ae14cb9-151e-44d4-be3a-31c50bfe0847","system_id":"levelo_inurba_marseille","lat":43.284793,"lon":5.384119,"is_reserved":false,"is_disabled":false,"rental_uris":{"android":"levelo://app?vid=2ae14cb9-151e-44d4-be3a-31c50bfe0847","ios":"levelo://app?vid=2ae14cb9-151e-44d4-be3a-31c50bfe0847"},"vehicle_type_id":"4","last_reported":1701709609,"current_range_meters":24400,"station_id":"ce4bh512rcd13ifvqe3g","pricing_plan_id":"free"},{"bike_id":"eb9f35fd-28e4-4386-93e5-34e0e8b25817","system_id":"levelo_inurba_marseille","lat":43.283494,"lon":5.380945,"is_reserved":false,"is_disabled":false,"rental_uris":{"android":"levelo://app?vid=eb9f35fd-28e4-4386-93e5-34e0e8b25817","ios":"levelo://app?vid=eb9f35fd-28e4-4386-93e5-34e0e8b25817"},"vehicle_type_id":"4","last_reported":1701709609,"current_range_meters":30800,"station_id":"ce4bh412rcd13ifvqdr0","pricing_plan_id":"free"},{"bike_id":"47863583-a8b5-40b4-b3e1-07401e4379cc","system_id":"levelo_inurba_marseille","lat":43.288497,"lon":5.393089,"is_reserved":false,"is_disabled":false,"rental_uris":{"android":"levelo://app?vid=47863583-a8b5-40b4-b3e1-07401e4379cc","ios":"levelo://app?vid=47863583-a8b5-40b4-b3e1-07401e4379cc"},"vehicle_type_id":"4","last_reported":1701709609,"current_range_meters":10000,"station_id":"ce4bh2p2rcd13ifvqdi0","pricing_plan_id":"free"},{"bike_id":"988833a8-7039-44d4-877c-774a71934a9a","system_id":"levelo_inurba_marseille","lat":43.282744,"lon":5.350533,"is_reserved":false,"is_disabled":false,"rental_uris":{"android":"levelo://app?vid=988833a8-7039-44d4-877c-774a71934a9a","ios":"levelo://app?vid=988833a8-7039-44d4-877c-774a71934a9a"},"vehicle_type_id":"4","last_reported":1701709609,"current_range_meters":27200,"station_id":"ce4bhbp2rcd13ifvqerg","pricing_plan_id":"free"},{"bike_id":"fb17d47e-3f8e-47e7-a8f8-5ac35613e1ae","system_id":"levelo_inurba_marseille","lat":43.28039,"lon":5.369297,"is_reserved":false,"is_disabled":false,"rental_uris":{"android":"levelo://app?vid=fb17d47e-3f8e-47e7-a8f8-5ac35613e1ae","ios":"levelo://app?vid=fb17d47e-3f8e-47e7-a8f8-5ac35613e1ae"},"vehicle_type_id":"4","last_reported":1701709609,"current_range_meters":23600,"station_id":"ce4bha12rcd13ifvqef0","pricing_plan_id":"free"},{"bike_id":"dd3edbec-e53d-4db9-9a2b-757cc47bce65","system_id":"levelo_inurba_marseille","lat":43.28039,"lon":5.369297,"is_reserved":false,"is_disabled":false,"rental_uris":{"android":"levelo://app?vid=dd3edbec-e53d-4db9-9a2b-757cc47bce65","ios":"levelo://app?vid=dd3edbec-e53d-4db9-9a2b-757cc47bce65"},"vehicle_type_id":"4","last_reported":1701709609,"current_range_meters":24400,"station_id":"ce4bha12rcd13ifvqef0","pricing_plan_id":"free"},{"bike_id":"95f276d3-eef7-4fe3-b0a5-6c5ac309ccee","system_id":"levelo_inurba_marseille","lat":43.280422,"lon":5.369504,"is_reserved":false,"is_disabled":false,"rental_uris":{"android":"levelo://app?vid=95f276d3-eef7-4fe3-b0a5-6c5ac309ccee","ios":"levelo://app?vid=95f276d3-eef7-4fe3-b0a5-6c5ac309ccee"},"vehicle_type_id":"4","last_reported":1701709609,"current_range_meters":28800,"station_id":"ce4bha12rcd13ifvqef0","pricing_plan_id":"free"},{"bike_id":"052c7fc7-ace5-456c-a6c3-741f73450385","system_id":"levelo_inurba_marseille","lat":43.28039,"lon":5.369297,"is_reserved":false,"is_disabled":false,"rental_uris":{"android":"levelo://app?vid=052c7fc7-ace5-456c-a6c3-741f73450385","ios":"levelo://app?vid=052c7fc7-ace5-456c-a6c3-741f73450385"},"vehicle_type_id":"4","last_reported":1701709609,"current_range_meters":30800,"station_id":"ce4bha12rcd13ifvqef0","pricing_plan_id":"free"},{"bike_id":"8bf9564f-62b1-426c-bced-de4c15a4c0ad","system_id":"levelo_inurba_marseille","lat":43.28039,"lon":5.369297,"is_reserved":false,"is_disabled":false,"rental_uris":{"android":"levelo://app?vid=8bf9564f-62b1-426c-bced-de4c15a4c0ad","ios":"levelo://app?vid=8bf9564f-62b1-426c-bced-de4c15a4c0ad"},"vehicle_type_id":"4","last_reported":1701709609,"current_range_meters":24000,"station_id":"ce4bha12rcd13ifvqef0","pricing_plan_id":"free"},{"bike_id":"378e06e1-57f0-47f1-a348-dd7d576fe732","system_id":"levelo_inurba_marseille","lat":43.28033,"lon":5.36949,"is_reserved":false,"is_disabled":false,"rental_uris":{"android":"levelo://app?vid=378e06e1-57f0-47f1-a348-dd7d576fe732","ios":"levelo://app?vid=378e06e1-57f0-47f1-a348-dd7d576fe732"},"vehicle_type_id":"4","last_reported":1701709609,"current_range_meters":31200,"station_id":"ce4bha12rcd13ifvqef0","pricing_plan_id":"free"},{"bike_id":"9d9d713b-8a32-4863-bed4-8c77b581da74","system_id":"levelo_inurba_marseille","lat":43.28568,"lon":5.39504,"is_reserved":false,"is_disabled":false,"rental_uris":{"android":"levelo://app?vid=9d9d713b-8a32-4863-bed4-8c77b581da74","ios":"levelo://app?vid=9d9d713b-8a32-4863-bed4-8c77b581da74"},"vehicle_type_id":"4","last_reported":1701709609,"current_range_meters":4400,"station_id":"ce4bh292rcd13ifvqdg0","pricing_plan_id":"free"},{"bike_id":"f71c3e4b-56cc-4b56-8ba6-eea098969b60","system_id":"levelo_inurba_marseille","lat":43.326605,"lon":5.409903,"is_reserved":false,"is_disabled":false,"rental_uris":{"android":"levelo://app?vid=f71c3e4b-56cc-4b56-8ba6-eea098969b60","ios":"levelo://app?vid=f71c3e4b-56cc-4b56-8ba6-eea098969b60"},"vehicle_type_id":"4","last_reported":1701709609,"current_range_meters":27200,"station_id":"ce4bhpp2rcd13ifvqhgg","pricing_plan_id":"free"},{"bike_id":"6ae5f1fa-af6b-4767-9baa-929411e39175","system_id":"levelo_inurba_marseille","lat":43.304188,"lon":5.412904,"is_reserved":false,"is_disabled":false,"rental_uris":{"android":"levelo://app?vid=6ae5f1fa-af6b-4767-9baa-929411e39175","ios":"levelo://app?vid=6ae5f1fa-af6b-4767-9baa-929411e39175"},"vehicle_type_id":"4","last_reported":1701709609,"current_range_meters":13600,"station_id":"ce4bhop2rcd13ifvqh8g","pricing_plan_id":"free"},{"bike_id":"8a92f566-bf30-439c-9100-4a251b541721","system_id":"levelo_inurba_marseille","lat":43.287154,"lon":5.399979,"is_reserved":false,"is_disabled":false,"rental_uris":{"android":"levelo://app?vid=8a92f566-bf30-439c-9100-4a251b541721","ios":"levelo://app?vid=8a92f566-bf30-439c-9100-4a251b541721"},"vehicle_type_id":"4","last_reported":1701709609,"current_range_meters":26000,"station_id":"ce4bho92rcd13ifvqh3g","pricing_plan_id":"free"},{"bike_id":"9fdd3a50-dbdd-4503-9ec4-bd73094e86f2","system_id":"levelo_inurba_marseille","lat":43.320045,"lon":5.415048,"is_reserved":false,"is_disabled":false,"rental_uris":{"android":"levelo://app?vid=9fdd3a50-dbdd-4503-9ec4-bd73094e86f2","ios":"levelo://app?vid=9fdd3a50-dbdd-4503-9ec4-bd73094e86f2"},"vehicle_type_id":"4","last_reported":1701709609,"current_range_meters":24400,"station_id":"ce4bhq92rcd13ifvqhkg","pricing_plan_id":"free"},{"bike_id":"2d7d3996-c453-41c8-a0c8-9201238474c6","system_id":"levelo_inurba_marseille","lat":43.29259,"lon":5.40917,"is_reserved":false,"is_disabled":false,"rental_uris":{"android":"levelo://app?vid=2d7d3996-c453-41c8-a0c8-9201238474c6","ios":"levelo://app?vid=2d7d3996-c453-41c8-a0c8-9201238474c6"},"vehicle_type_id":"4","last_reported":1701709609,"current_range_meters":28800,"station_id":"ce4bh192rcd13ifvqdc0","pricing_plan_id":"free"},{"bike_id":"f51d570e-631c-47a5-9529-09d3ca5f9d2e","system_id":"levelo_inurba_marseille","lat":43.292535,"lon":5.409202,"is_reserved":false,"is_disabled":false,"rental_uris":{"android":"levelo://app?vid=f51d570e-631c-47a5-9529-09d3ca5f9d2e","ios":"levelo://app?vid=f51d570e-631c-47a5-9529-09d3ca5f9d2e"},"vehicle_type_id":"4","last_reported":1701709609,"current_range_meters":0,"station_id":"ce4bh0h2rcd13ifvqd60","pricing_plan_id":"free"},{"bike_id":"8a201fba-d02b-432a-8379-061b3f59a47b","system_id":"levelo_inurba_marseille","lat":43.29378,"lon":5.41266,"is_reserved":false,"is_disabled":false,"rental_uris":{"android":"levelo://app?vid=8a201fba-d02b-432a-8379-061b3f59a47b","ios":"levelo://app?vid=8a201fba-d02b-432a-8379-061b3f59a47b"},"vehicle_type_id":"4","last_reported":1701709609,"current_range_meters":25600,"station_id":"","pricing_plan_id":"free"},{"bike_id":"41ba68de-9ca1-4bd4-a18f-bacd4b156f10","system_id":"levelo_inurba_marseille","lat":43.293743,"lon":5.412723,"is_reserved":false,"is_disabled":false,"rental_uris":{"android":"levelo://app?vid=41ba68de-9ca1-4bd4-a18f-bacd4b156f10","ios":"levelo://app?vid=41ba68de-9ca1-4bd4-a18f-bacd4b156f10"},"vehicle_type_id":"4","last_reported":1701709609,"current_range_meters":27600,"station_id":"","pricing_plan_id":"free"},{"bike_id":"3265701a-11e8-4470-a59e-8f840b41bf74","system_id":"levelo_inurba_marseille","lat":43.2808,"lon":5.39664,"is_reserved":false,"is_disabled":false,"rental_uris":{"android":"levelo://app?vid=3265701a-11e8-4470-a59e-8f840b41bf74","ios":"levelo://app?vid=3265701a-11e8-4470-a59e-8f840b41bf74"},"vehicle_type_id":"4","last_reported":1701709609,"current_range_meters":25200,"station_id":"ce4bho12rcd13ifvqh2g","pricing_plan_id":"free"},{"bike_id":"b203f1bb-e396-47b5-9ff0-00c3bc3fd753","system_id":"levelo_inurba_marseille","lat":43.278401,"lon":5.392152,"is_reserved":false,"is_disabled":false,"rental_uris":{"android":"levelo://app?vid=b203f1bb-e396-47b5-9ff0-00c3bc3fd753","ios":"levelo://app?vid=b203f1bb-e396-47b5-9ff0-00c3bc3fd753"},"vehicle_type_id":"4","last_reported":1701709609,"current_range_meters":6000,"station_id":"ce4bhjp2rcd13ifvqga0","pricing_plan_id":"free"},{"bike_id":"0281b212-223c-4831-9e75-12f75bdcd5e8","system_id":"levelo_inurba_marseille","lat":43.278401,"lon":5.392152,"is_reserved":false,"is_disabled":false,"rental_uris":{"android":"levelo://app?vid=0281b212-223c-4831-9e75-12f75bdcd5e8","ios":"levelo://app?vid=0281b212-223c-4831-9e75-12f75bdcd5e8"},"vehicle_type_id":"4","last_reported":1701709609,"current_range_meters":24000,"station_id":"ce4bhjp2rcd13ifvqga0","pricing_plan_id":"free"},{"bike_id":"fce20caf-6085-475b-a03f-5b6093a51fee","system_id":"levelo_inurba_marseille","lat":43.273613,"lon":5.362705,"is_reserved":false,"is_disabled":false,"rental_uris":{"android":"levelo://app?vid=fce20caf-6085-475b-a03f-5b6093a51fee","ios":"levelo://app?vid=fce20caf-6085-475b-a03f-5b6093a51fee"},"vehicle_type_id":"4","last_reported":1701709609,"current_range_meters":30000,"station_id":"ce4bhbh2rcd13ifvqeo0","pricing_plan_id":"free"},{"bike_id":"fda9e40b-e96c-4e66-a454-2245b873b970","system_id":"levelo_inurba_marseille","lat":43.273609,"lon":5.362708,"is_reserved":false,"is_disabled":false,"rental_uris":{"android":"levelo://app?vid=fda9e40b-e96c-4e66-a454-2245b873b970","ios":"levelo://app?vid=fda9e40b-e96c-4e66-a454-2245b873b970"},"vehicle_type_id":"4","last_reported":1701709609,"current_range_meters":30000,"station_id":"ce4bhbh2rcd13ifvqeo0","pricing_plan_id":"free"},{"bike_id":"3ea28be1-d23c-49b6-a64f-225039a206c7","system_id":"levelo_inurba_marseille","lat":43.273613,"lon":5.362705,"is_reserved":false,"is_disabled":false,"rental_uris":{"android":"levelo://app?vid=3ea28be1-d23c-49b6-a64f-225039a206c7","ios":"levelo://app?vid=3ea28be1-d23c-49b6-a64f-225039a206c7"},"vehicle_type_id":"4","last_reported":1701709609,"current_range_meters":31200,"station_id":"ce4bhbh2rcd13ifvqeo0","pricing_plan_id":"free"},{"bike_id":"3a44682a-58ce-4b11-93fa-e13a92f3ab2d","system_id":"levelo_inurba_marseille","lat":43.279952,"lon":5.400085,"is_reserved":false,"is_disabled":false,"rental_uris":{"android":"levelo://app?vid=3a44682a-58ce-4b11-93fa-e13a92f3ab2d","ios":"levelo://app?vid=3a44682a-58ce-4b11-93fa-e13a92f3ab2d"},"vehicle_type_id":"4","last_reported":1701709609,"current_range_meters":22400,"station_id":"ce4bho92rcd13ifvqh4g","pricing_plan_id":"free"},{"bike_id":"3b8ec5c1-8a88-4ce0-8ae0-c202dec0b813","system_id":"levelo_inurba_marseille","lat":43.280032,"lon":5.400222,"is_reserved":false,"is_disabled":false,"rental_uris":{"android":"levelo://app?vid=3b8ec5c1-8a88-4ce0-8ae0-c202dec0b813","ios":"levelo://app?vid=3b8ec5c1-8a88-4ce0-8ae0-c202dec0b813"},"vehicle_type_id":"4","last_reported":1701709609,"current_range_meters":21600,"station_id":"ce4bho92rcd13ifvqh4g","pricing_plan_id":"free"},{"bike_id":"0de7abf9-fe9c-4185-b4cb-ad9d6ce98399","system_id":"levelo_inurba_marseille","lat":43.279952,"lon":5.400085,"is_reserved":false,"is_disabled":false,"rental_uris":{"android":"levelo://app?vid=0de7abf9-fe9c-4185-b4cb-ad9d6ce98399","ios":"levelo://app?vid=0de7abf9-fe9c-4185-b4cb-ad9d6ce98399"},"vehicle_type_id":"4","last_reported":1701709609,"current_range_meters":30800,"station_id":"ce4bho92rcd13ifvqh4g","pricing_plan_id":"free"},{"bike_id":"a9c88062-a180-4667-a195-38a7946eff6b","system_id":"levelo_inurba_marseille","lat":43.27996,"lon":5.40016,"is_reserved":false,"is_disabled":false,"rental_uris":{"android":"levelo://app?vid=a9c88062-a180-4667-a195-38a7946eff6b","ios":"levelo://app?vid=a9c88062-a180-4667-a195-38a7946eff6b"},"vehicle_type_id":"4","last_reported":1701709609,"current_range_meters":26800,"station_id":"ce4bho92rcd13ifvqh4g","pricing_plan_id":"free"},{"bike_id":"fb7b11b6-2e5c-4a6c-b668-e3de222703b6","system_id":"levelo_inurba_marseille","lat":43.310785,"lon":5.424305,"is_reserved":false,"is_disabled":false,"rental_uris":{"android":"levelo://app?vid=fb7b11b6-2e5c-4a6c-b668-e3de222703b6","ios":"levelo://app?vid=fb7b11b6-2e5c-4a6c-b668-e3de222703b6"},"vehicle_type_id":"4","last_reported":1701709609,"current_range_meters":3600,"station_id":"ce4bhp92rcd13ifvqhag","pricing_plan_id":"free"},{"bike_id":"910fd3aa-d2e0-4553-894a-6161d41c7fcd","system_id":"levelo_inurba_marseille","lat":43.27609,"lon":5.39475,"is_reserved":false,"is_disabled":false,"rental_uris":{"android":"levelo://app?vid=910fd3aa-d2e0-4553-894a-6161d41c7fcd","ios":"levelo://app?vid=910fd3aa-d2e0-4553-894a-6161d41c7fcd"},"vehicle_type_id":"4","last_reported":1701709609,"current_range_meters":10000,"station_id":"","pricing_plan_id":"free"},{"bike_id":"55c23f66-31a6-4882-8fa6-769301f13946","system_id":"levelo_inurba_marseille","lat":43.295523,"lon":5.422926,"is_reserved":false,"is_disabled":false,"rental_uris":{"android":"levelo://app?vid=55c23f66-31a6-4882-8fa6-769301f13946","ios":"levelo://app?vid=55c23f66-31a6-4882-8fa6-769301f13946"},"vehicle_type_id":"4","last_reported":1701709609,"current_range_meters":32000,"station_id":"ce4bhph2rcd13ifvqhdg","pricing_plan_id":"free"},{"bike_id":"52a79f78-3cb3-48e3-8341-7bb9ef6f5f28","system_id":"levelo_inurba_marseille","lat":43.295523,"lon":5.422926,"is_reserved":false,"is_disabled":false,"rental_uris":{"android":"levelo://app?vid=52a79f78-3cb3-48e3-8341-7bb9ef6f5f28","ios":"levelo://app?vid=52a79f78-3cb3-48e3-8341-7bb9ef6f5f28"},"vehicle_type_id":"4","last_reported":1701709609,"current_range_meters":27200,"station_id":"ce4bhph2rcd13ifvqhdg","pricing_plan_id":"free"},{"bike_id":"b7747d81-2e9e-495d-bab9-52df40137c87","system_id":"levelo_inurba_marseille","lat":43.295523,"lon":5.422926,"is_reserved":false,"is_disabled":false,"rental_uris":{"android":"levelo://app?vid=b7747d81-2e9e-495d-bab9-52df40137c87","ios":"levelo://app?vid=b7747d81-2e9e-495d-bab9-52df40137c87"},"vehicle_type_id":"4","last_reported":1701709609,"current_range_meters":4400,"station_id":"ce4bhph2rcd13ifvqhdg","pricing_plan_id":"free"},{"bike_id":"1445fea7-b18a-4071-80db-7bfef1ebfc61","system_id":"levelo_inurba_marseille","lat":43.295511,"lon":5.422926,"is_reserved":false,"is_disabled":false,"rental_uris":{"android":"levelo://app?vid=1445fea7-b18a-4071-80db-7bfef1ebfc61","ios":"levelo://app?vid=1445fea7-b18a-4071-80db-7bfef1ebfc61"},"vehicle_type_id":"4","last_reported":1701709609,"current_range_meters":8400,"station_id":"ce4bhph2rcd13ifvqhdg","pricing_plan_id":"free"},{"bike_id":"668e7b67-3368-45e1-a4bd-4e79ff11f237","system_id":"levelo_inurba_marseille","lat":43.272124,"lon":5.391768,"is_reserved":false,"is_disabled":false,"rental_uris":{"android":"levelo://app?vid=668e7b67-3368-45e1-a4bd-4e79ff11f237","ios":"levelo://app?vid=668e7b67-3368-45e1-a4bd-4e79ff11f237"},"vehicle_type_id":"4","last_reported":1701709609,"current_range_meters":8800,"station_id":"ce4bhhp2rcd13ifvqfm0","pricing_plan_id":"free"},{"bike_id":"4d227eb7-d36a-425e-8f14-420e16d126ca","system_id":"levelo_inurba_marseille","lat":43.272062,"lon":5.392597,"is_reserved":false,"is_disabled":false,"rental_uris":{"android":"levelo://app?vid=4d227eb7-d36a-425e-8f14-420e16d126ca","ios":"levelo://app?vid=4d227eb7-d36a-425e-8f14-420e16d126ca"},"vehicle_type_id":"4","last_reported":1701709609,"current_range_meters":25200,"station_id":"","pricing_plan_id":"free"},{"bike_id":"1acae3f1-df37-49a4-99f3-459b7f011ae3","system_id":"levelo_inurba_marseille","lat":43.27938,"lon":5.4105,"is_reserved":false,"is_disabled":false,"rental_uris":{"android":"levelo://app?vid=1acae3f1-df37-49a4-99f3-459b7f011ae3","ios":"levelo://app?vid=1acae3f1-df37-49a4-99f3-459b7f011ae3"},"vehicle_type_id":"4","last_reported":1701709609,"current_range_meters":16800,"station_id":"ce4bhnp2rcd13ifvqh0g","pricing_plan_id":"free"},{"bike_id":"880c1f56-7e8a-40c9-aba8-b4f0b24c323b","system_id":"levelo_inurba_marseille","lat":43.26554,"lon":5.37288,"is_reserved":false,"is_disabled":false,"rental_uris":{"android":"levelo://app?vid=880c1f56-7e8a-40c9-aba8-b4f0b24c323b","ios":"levelo://app?vid=880c1f56-7e8a-40c9-aba8-b4f0b24c323b"},"vehicle_type_id":"4","last_reported":1701709609,"current_range_meters":22800,"station_id":"ce4bhg12rcd13ifvqf70","pricing_plan_id":"free"},{"bike_id":"7c059a5f-a04b-401f-a9db-20fc39852cdd","system_id":"levelo_inurba_marseille","lat":43.265714,"lon":5.372891,"is_reserved":false,"is_disabled":false,"rental_uris":{"android":"levelo://app?vid=7c059a5f-a04b-401f-a9db-20fc39852cdd","ios":"levelo://app?vid=7c059a5f-a04b-401f-a9db-20fc39852cdd"},"vehicle_type_id":"4","last_reported":1701709609,"current_range_meters":22000,"station_id":"ce4bhg12rcd13ifvqf70","pricing_plan_id":"free"},{"bike_id":"c44dffbc-b86d-492e-8d1f-7dc4cb7db6c4","system_id":"levelo_inurba_marseille","lat":43.27996,"lon":5.416624,"is_reserved":false,"is_disabled":false,"rental_uris":{"android":"levelo://app?vid=c44dffbc-b86d-492e-8d1f-7dc4cb7db6c4","ios":"levelo://app?vid=c44dffbc-b86d-492e-8d1f-7dc4cb7db6c4"},"vehicle_type_id":"4","last_reported":1701709609,"current_range_meters":28800,"station_id":"ce4bho12rcd13ifvqh1g","pricing_plan_id":"free"},{"bike_id":"71467d21-7e60-4fb1-a5fd-3957269486fe","system_id":"levelo_inurba_marseille","lat":43.267966,"lon":5.393976,"is_reserved":false,"is_disabled":false,"rental_uris":{"android":"levelo://app?vid=71467d21-7e60-4fb1-a5fd-3957269486fe","ios":"levelo://app?vid=71467d21-7e60-4fb1-a5fd-3957269486fe"},"vehicle_type_id":"4","last_reported":1701709609,"current_range_meters":24800,"station_id":"ce4bhh12rcd13ifvqfg0","pricing_plan_id":"free"},{"bike_id":"b45c58ad-3a97-42d0-8505-0849f0a13bed","system_id":"levelo_inurba_marseille","lat":43.308051,"lon":5.43527,"is_reserved":false,"is_disabled":false,"rental_uris":{"android":"levelo://app?vid=b45c58ad-3a97-42d0-8505-0849f0a13bed","ios":"levelo://app?vid=b45c58ad-3a97-42d0-8505-0849f0a13bed"},"vehicle_type_id":"4","last_reported":1701709609,"current_range_meters":30800,"station_id":"ce4bhph2rcd13ifvqheg","pricing_plan_id":"free"},{"bike_id":"b2084a7d-613c-4e29-ab0b-e517f237fb20","system_id":"levelo_inurba_marseille","lat":43.308051,"lon":5.43527,"is_reserved":false,"is_disabled":false,"rental_uris":{"android":"levelo://app?vid=b2084a7d-613c-4e29-ab0b-e517f237fb20","ios":"levelo://app?vid=b2084a7d-613c-4e29-ab0b-e517f237fb20"},"vehicle_type_id":"4","last_reported":1701709609,"current_range_meters":4800,"station_id":"ce4bhph2rcd13ifvqheg","pricing_plan_id":"free"},{"bike_id":"c603ebe0-7bba-4739-9538-1f0044e728ca","system_id":"levelo_inurba_marseille","lat":43.317104,"lon":5.436818,"is_reserved":false,"is_disabled":false,"rental_uris":{"android":"levelo://app?vid=c603ebe0-7bba-4739-9538-1f0044e728ca","ios":"levelo://app?vid=c603ebe0-7bba-4739-9538-1f0044e728ca"},"vehicle_type_id":"4","last_reported":1701709609,"current_range_meters":24400,"station_id":"ce4bhp92rcd13ifvqhcg","pricing_plan_id":"free"},{"bike_id":"ea70d7d3-f542-4315-8f09-9724f64ba971","system_id":"levelo_inurba_marseille","lat":43.308051,"lon":5.43527,"is_reserved":false,"is_disabled":false,"rental_uris":{"android":"levelo://app?vid=ea70d7d3-f542-4315-8f09-9724f64ba971","ios":"levelo://app?vid=ea70d7d3-f542-4315-8f09-9724f64ba971"},"vehicle_type_id":"4","last_reported":1701709609,"current_range_meters":23200,"station_id":"ce4bhph2rcd13ifvqheg","pricing_plan_id":"free"},{"bike_id":"ee58d767-f116-46cd-b9c6-2f903f6b13f0","system_id":"levelo_inurba_marseille","lat":43.317104,"lon":5.436818,"is_reserved":false,"is_disabled":false,"rental_uris":{"android":"levelo://app?vid=ee58d767-f116-46cd-b9c6-2f903f6b13f0","ios":"levelo://app?vid=ee58d767-f116-46cd-b9c6-2f903f6b13f0"},"vehicle_type_id":"4","last_reported":1701709609,"current_range_meters":16400,"station_id":"ce4bhp92rcd13ifvqhcg","pricing_plan_id":"free"},{"bike_id":"043d539e-aee5-49a1-9664-34184bfdbcd1","system_id":"levelo_inurba_marseille","lat":43.271368,"lon":5.40928,"is_reserved":false,"is_disabled":false,"rental_uris":{"android":"levelo://app?vid=043d539e-aee5-49a1-9664-34184bfdbcd1","ios":"levelo://app?vid=043d539e-aee5-49a1-9664-34184bfdbcd1"},"vehicle_type_id":"4","last_reported":1701709609,"current_range_meters":30000,"station_id":"ce4bhl12rcd13ifvqgf0","pricing_plan_id":"free"},{"bike_id":"41c97154-9044-4976-997f-fb8f0020505f","system_id":"levelo_inurba_marseille","lat":43.26202,"lon":5.379299,"is_reserved":false,"is_disabled":false,"rental_uris":{"android":"levelo://app?vid=41c97154-9044-4976-997f-fb8f0020505f","ios":"levelo://app?vid=41c97154-9044-4976-997f-fb8f0020505f"},"vehicle_type_id":"4","last_reported":1701709609,"current_range_meters":13600,"station_id":"ce4bhjp2rcd13ifvqg90","pricing_plan_id":"free"},{"bike_id":"e3f5b7df-afff-4158-8700-cf39e754f4de","system_id":"levelo_inurba_marseille","lat":43.27172,"lon":5.40996,"is_reserved":false,"is_disabled":false,"rental_uris":{"android":"levelo://app?vid=e3f5b7df-afff-4158-8700-cf39e754f4de","ios":"levelo://app?vid=e3f5b7df-afff-4158-8700-cf39e754f4de"},"vehicle_type_id":"4","last_reported":1701709609,"current_range_meters":20800,"station_id":"ce4bhl12rcd13ifvqgf0","pricing_plan_id":"free"},{"bike_id":"282af86a-158e-45c8-8944-36f6de023968","system_id":"levelo_inurba_marseille","lat":43.260219,"lon":5.37546,"is_reserved":false,"is_disabled":false,"rental_uris":{"android":"levelo://app?vid=282af86a-158e-45c8-8944-36f6de023968","ios":"levelo://app?vid=282af86a-158e-45c8-8944-36f6de023968"},"vehicle_type_id":"4","last_reported":1701709609,"current_range_meters":21600,"station_id":"ce4bhgh2rcd13ifvqfa0","pricing_plan_id":"free"},{"bike_id":"c076f445-89a5-4b15-85c6-81ad0dd9a67f","system_id":"levelo_inurba_marseille","lat":43.281548,"lon":5.42643,"is_reserved":false,"is_disabled":false,"rental_uris":{"android":"levelo://app?vid=c076f445-89a5-4b15-85c6-81ad0dd9a67f","ios":"levelo://app?vid=c076f445-89a5-4b15-85c6-81ad0dd9a67f"},"vehicle_type_id":"4","last_reported":1701709609,"current_range_meters":3200,"station_id":"ce4bhnh2rcd13ifvqgug","pricing_plan_id":"free"},{"bike_id":"944a6c6b-e7b8-4b14-810a-b7f7f443c5d8","system_id":"levelo_inurba_marseille","lat":43.2607,"lon":5.393983,"is_reserved":false,"is_disabled":false,"rental_uris":{"android":"levelo://app?vid=944a6c6b-e7b8-4b14-810a-b7f7f443c5d8","ios":"levelo://app?vid=944a6c6b-e7b8-4b14-810a-b7f7f443c5d8"},"vehicle_type_id":"4","last_reported":1701709609,"current_range_meters":0,"station_id":"ce4bhh92rcd13ifvqfj0","pricing_plan_id":"free"},{"bike_id":"01cafc76-788b-4956-a52f-65796b80b893","system_id":"levelo_inurba_marseille","lat":43.25576,"lon":5.3824,"is_reserved":false,"is_disabled":false,"rental_uris":{"android":"levelo://app?vid=01cafc76-788b-4956-a52f-65796b80b893","ios":"levelo://app?vid=01cafc76-788b-4956-a52f-65796b80b893"},"vehicle_type_id":"4","last_reported":1701709609,"current_range_meters":13200,"station_id":"ce4bhih2rcd13ifvqfs0","pricing_plan_id":"free"},{"bike_id":"c4190b31-98fb-4e4e-b800-789652f41352","system_id":"levelo_inurba_marseille","lat":43.25504,"lon":5.37652,"is_reserved":false,"is_disabled":false,"rental_uris":{"android":"levelo://app?vid=c4190b31-98fb-4e4e-b800-789652f41352","ios":"levelo://app?vid=c4190b31-98fb-4e4e-b800-789652f41352"},"vehicle_type_id":"4","last_reported":1701709609,"current_range_meters":22000,"station_id":"ce4bhh12rcd13ifvqff0","pricing_plan_id":"free"},{"bike_id":"e72008a9-53a7-4941-a163-953a03680224","system_id":"levelo_inurba_marseille","lat":43.25501,"lon":5.37648,"is_reserved":false,"is_disabled":false,"rental_uris":{"android":"levelo://app?vid=e72008a9-53a7-4941-a163-953a03680224","ios":"levelo://app?vid=e72008a9-53a7-4941-a163-953a03680224"},"vehicle_type_id":"4","last_reported":1701709609,"current_range_meters":12800,"station_id":"ce4bhh12rcd13ifvqff0","pricing_plan_id":"free"},{"bike_id":"343abc3c-e02d-437e-b758-4b73aef440db","system_id":"levelo_inurba_marseille","lat":43.25501,"lon":5.3765,"is_reserved":false,"is_disabled":false,"rental_uris":{"android":"levelo://app?vid=343abc3c-e02d-437e-b758-4b73aef440db","ios":"levelo://app?vid=343abc3c-e02d-437e-b758-4b73aef440db"},"vehicle_type_id":"4","last_reported":1701709609,"current_range_meters":26400,"station_id":"ce4bhh12rcd13ifvqff0","pricing_plan_id":"free"},{"bike_id":"f3f584f6-d1cf-42d5-930f-0d2ec3d902f5","system_id":"levelo_inurba_marseille","lat":43.270721,"lon":5.422764,"is_reserved":false,"is_disabled":false,"rental_uris":{"android":"levelo://app?vid=f3f584f6-d1cf-42d5-930f-0d2ec3d902f5","ios":"levelo://app?vid=f3f584f6-d1cf-42d5-930f-0d2ec3d902f5"},"vehicle_type_id":"4","last_reported":1701709609,"current_range_meters":6800,"station_id":"ce4bhk92rcd13ifvqgb0","pricing_plan_id":"free"},{"bike_id":"d042c477-043a-4299-969a-9242c77c5144","system_id":"levelo_inurba_marseille","lat":43.258658,"lon":5.398935,"is_reserved":false,"is_disabled":false,"rental_uris":{"android":"levelo://app?vid=d042c477-043a-4299-969a-9242c77c5144","ios":"levelo://app?vid=d042c477-043a-4299-969a-9242c77c5144"},"vehicle_type_id":"4","last_reported":1701709609,"current_range_meters":11200,"station_id":"ce4bhl92rcd13ifvqghg","pricing_plan_id":"free"},{"bike_id":"be884364-31ff-4528-a637-66a0e38f6ec4","system_id":"levelo_inurba_marseille","lat":43.258658,"lon":5.398935,"is_reserved":false,"is_disabled":false,"rental_uris":{"android":"levelo://app?vid=be884364-31ff-4528-a637-66a0e38f6ec4","ios":"levelo://app?vid=be884364-31ff-4528-a637-66a0e38f6ec4"},"vehicle_type_id":"4","last_reported":1701709609,"current_range_meters":28000,"station_id":"ce4bhl92rcd13ifvqghg","pricing_plan_id":"free"},{"bike_id":"a934efa2-3f1b-4a11-9399-5fef204a4457","system_id":"levelo_inurba_marseille","lat":43.25729,"lon":5.41109,"is_reserved":false,"is_disabled":false,"rental_uris":{"android":"levelo://app?vid=a934efa2-3f1b-4a11-9399-5fef204a4457","ios":"levelo://app?vid=a934efa2-3f1b-4a11-9399-5fef204a4457"},"vehicle_type_id":"4","last_reported":1701709609,"current_range_meters":20000,"station_id":"ce4bhkp2rcd13ifvqgd0","pricing_plan_id":"free"},{"bike_id":"0b6c9e7a-7236-4c9c-ad42-05c1f1d2a3e5","system_id":"levelo_inurba_marseille","lat":43.257079,"lon":5.411051,"is_reserved":false,"is_disabled":false,"rental_uris":{"android":"levelo://app?vid=0b6c9e7a-7236-4c9c-ad42-05c1f1d2a3e5","ios":"levelo://app?vid=0b6c9e7a-7236-4c9c-ad42-05c1f1d2a3e5"},"vehicle_type_id":"4","last_reported":1701709609,"current_range_meters":8000,"station_id":"ce4bhkp2rcd13ifvqgd0","pricing_plan_id":"free"},{"bike_id":"0b29a01c-d217-401e-9db6-6cbe6826891e","system_id":"levelo_inurba_marseille","lat":43.257079,"lon":5.411051,"is_reserved":false,"is_disabled":false,"rental_uris":{"android":"levelo://app?vid=0b29a01c-d217-401e-9db6-6cbe6826891e","ios":"levelo://app?vid=0b29a01c-d217-401e-9db6-6cbe6826891e"},"vehicle_type_id":"4","last_reported":1701709609,"current_range_meters":27200,"station_id":"ce4bhkp2rcd13ifvqgd0","pricing_plan_id":"free"},{"bike_id":"217620e6-e57b-40f4-8330-538f71b906cc","system_id":"levelo_inurba_marseille","lat":43.2479,"lon":5.374457,"is_reserved":false,"is_disabled":false,"rental_uris":{"android":"levelo://app?vid=217620e6-e57b-40f4-8330-538f71b906cc","ios":"levelo://app?vid=217620e6-e57b-40f4-8330-538f71b906cc"},"vehicle_type_id":"4","last_reported":1701709609,"current_range_meters":24000,"station_id":"ce4bhgh2rcd13ifvqfb0","pricing_plan_id":"free"},{"bike_id":"313ab94f-e6a6-4a6f-b47f-fdee331839c6","system_id":"levelo_inurba_marseille","lat":43.2479,"lon":5.374457,"is_reserved":false,"is_disabled":false,"rental_uris":{"android":"levelo://app?vid=313ab94f-e6a6-4a6f-b47f-fdee331839c6","ios":"levelo://app?vid=313ab94f-e6a6-4a6f-b47f-fdee331839c6"},"vehicle_type_id":"4","last_reported":1701709609,"current_range_meters":3200,"station_id":"ce4bhgh2rcd13ifvqfb0","pricing_plan_id":"free"},{"bike_id":"11cd32e7-517b-49d8-95fd-bdc2fe3ba685","system_id":"levelo_inurba_marseille","lat":43.250966,"lon":5.395186,"is_reserved":false,"is_disabled":false,"rental_uris":{"android":"levelo://app?vid=11cd32e7-517b-49d8-95fd-bdc2fe3ba685","ios":"levelo://app?vid=11cd32e7-517b-49d8-95fd-bdc2fe3ba685"},"vehicle_type_id":"4","last_reported":1701709609,"current_range_meters":18000,"station_id":"ce4bhm12rcd13ifvqgkg","pricing_plan_id":"free"},{"bike_id":"808c82c4-7682-4bdc-a49f-74ff09b83ba9","system_id":"levelo_inurba_marseille","lat":43.25102,"lon":5.403214,"is_reserved":false,"is_disabled":false,"rental_uris":{"android":"levelo://app?vid=808c82c4-7682-4bdc-a49f-74ff09b83ba9","ios":"levelo://app?vid=808c82c4-7682-4bdc-a49f-74ff09b83ba9"},"vehicle_type_id":"4","last_reported":1701709609,"current_range_meters":11600,"station_id":"ce4bhlh2rcd13ifvqgig","pricing_plan_id":"free"},{"bike_id":"3665a89d-fffa-4b28-a8f9-b3962babd92b","system_id":"levelo_inurba_marseille","lat":43.25112,"lon":5.40325,"is_reserved":false,"is_disabled":false,"rental_uris":{"android":"levelo://app?vid=3665a89d-fffa-4b28-a8f9-b3962babd92b","ios":"levelo://app?vid=3665a89d-fffa-4b28-a8f9-b3962babd92b"},"vehicle_type_id":"4","last_reported":1701709609,"current_range_meters":28400,"station_id":"ce4bhlh2rcd13ifvqgig","pricing_plan_id":"free"},{"bike_id":"54429c43-5101-45b3-93b9-80a6001aeee1","system_id":"levelo_inurba_marseille","lat":43.246467,"lon":5.388984,"is_reserved":false,"is_disabled":false,"rental_uris":{"android":"levelo://app?vid=54429c43-5101-45b3-93b9-80a6001aeee1","ios":"levelo://app?vid=54429c43-5101-45b3-93b9-80a6001aeee1"},"vehicle_type_id":"4","last_reported":1701709609,"current_range_meters":9200,"station_id":"ce4bhg12rcd13ifvqf60","pricing_plan_id":"free"},{"bike_id":"075c5af7-8a66-44a0-ae30-a6b648947e96","system_id":"levelo_inurba_marseille","lat":43.246461,"lon":5.389014,"is_reserved":false,"is_disabled":false,"rental_uris":{"android":"levelo://app?vid=075c5af7-8a66-44a0-ae30-a6b648947e96","ios":"levelo://app?vid=075c5af7-8a66-44a0-ae30-a6b648947e96"},"vehicle_type_id":"4","last_reported":1701709609,"current_range_meters":26000,"station_id":"ce4bhg12rcd13ifvqf60","pricing_plan_id":"free"},{"bike_id":"b68a762e-4b2c-4295-a5a1-9c9f75115c66","system_id":"levelo_inurba_marseille","lat":43.243884,"lon":5.370737,"is_reserved":false,"is_disabled":false,"rental_uris":{"android":"levelo://app?vid=b68a762e-4b2c-4295-a5a1-9c9f75115c66","ios":"levelo://app?vid=b68a762e-4b2c-4295-a5a1-9c9f75115c66"},"vehicle_type_id":"4","last_reported":1701709609,"current_range_meters":25200,"station_id":"ce4bhhh2rcd13ifvqfk0","pricing_plan_id":"free"},{"bike_id":"4bec8eeb-1704-41cf-938f-02594591831a","system_id":"levelo_inurba_marseille","lat":43.243884,"lon":5.370736,"is_reserved":false,"is_disabled":false,"rental_uris":{"android":"levelo://app?vid=4bec8eeb-1704-41cf-938f-02594591831a","ios":"levelo://app?vid=4bec8eeb-1704-41cf-938f-02594591831a"},"vehicle_type_id":"4","last_reported":1701709609,"current_range_meters":22000,"station_id":"ce4bhhh2rcd13ifvqfk0","pricing_plan_id":"free"},{"bike_id":"57214705-2a93-47bd-ac2e-5d1e9548360e","system_id":"levelo_inurba_marseille","lat":43.24071,"lon":5.37765,"is_reserved":false,"is_disabled":false,"rental_uris":{"android":"levelo://app?vid=57214705-2a93-47bd-ac2e-5d1e9548360e","ios":"levelo://app?vid=57214705-2a93-47bd-ac2e-5d1e9548360e"},"vehicle_type_id":"4","last_reported":1701709609,"current_range_meters":4000,"station_id":"ce4bhnp2rcd13ifvqgvg","pricing_plan_id":"free"},{"bike_id":"15ec8c74-bb7d-4bed-ae17-b97a26635983","system_id":"levelo_inurba_marseille","lat":43.239588,"lon":5.366238,"is_reserved":false,"is_disabled":false,"rental_uris":{"android":"levelo://app?vid=15ec8c74-bb7d-4bed-ae17-b97a26635983","ios":"levelo://app?vid=15ec8c74-bb7d-4bed-ae17-b97a26635983"},"vehicle_type_id":"4","last_reported":1701709609,"current_range_meters":31600,"station_id":"ce4bhi12rcd13ifvqfp0","pricing_plan_id":"free"},{"bike_id":"43dcc53c-0402-4665-82aa-27920a7c50a2","system_id":"levelo_inurba_marseille","lat":43.239588,"lon":5.366238,"is_reserved":false,"is_disabled":false,"rental_uris":{"android":"levelo://app?vid=43dcc53c-0402-4665-82aa-27920a7c50a2","ios":"levelo://app?vid=43dcc53c-0402-4665-82aa-27920a7c50a2"},"vehicle_type_id":"4","last_reported":1701709609,"current_range_meters":30400,"station_id":"ce4bhi12rcd13ifvqfp0","pricing_plan_id":"free"},{"bike_id":"576fd937-08ae-4ec2-9085-1cd13266fe14","system_id":"levelo_inurba_marseille","lat":43.239588,"lon":5.366238,"is_reserved":false,"is_disabled":false,"rental_uris":{"android":"levelo://app?vid=576fd937-08ae-4ec2-9085-1cd13266fe14","ios":"levelo://app?vid=576fd937-08ae-4ec2-9085-1cd13266fe14"},"vehicle_type_id":"4","last_reported":1701709609,"current_range_meters":26000,"station_id":"ce4bhi12rcd13ifvqfp0","pricing_plan_id":"free"},{"bike_id":"7f284465-fada-4bfe-83d9-86527b7b5358","system_id":"levelo_inurba_marseille","lat":43.239588,"lon":5.366238,"is_reserved":false,"is_disabled":false,"rental_uris":{"android":"levelo://app?vid=7f284465-fada-4bfe-83d9-86527b7b5358","ios":"levelo://app?vid=7f284465-fada-4bfe-83d9-86527b7b5358"},"vehicle_type_id":"4","last_reported":1701709609,"current_range_meters":31200,"station_id":"ce4bhi12rcd13ifvqfp0","pricing_plan_id":"free"},{"bike_id":"eb1d283c-e696-4afd-beba-5a6438129bb8","system_id":"levelo_inurba_marseille","lat":43.241782,"lon":5.397261,"is_reserved":false,"is_disabled":false,"rental_uris":{"android":"levelo://app?vid=eb1d283c-e696-4afd-beba-5a6438129bb8","ios":"levelo://app?vid=eb1d283c-e696-4afd-beba-5a6438129bb8"},"vehicle_type_id":"4","last_reported":1701709609,"current_range_meters":29200,"station_id":"ce4bhn12rcd13ifvqgpg","pricing_plan_id":"free"},{"bike_id":"90dc14d6-522b-45f1-b8fe-f87d269b5381","system_id":"levelo_inurba_marseille","lat":43.241782,"lon":5.397261,"is_reserved":false,"is_disabled":false,"rental_uris":{"android":"levelo://app?vid=90dc14d6-522b-45f1-b8fe-f87d269b5381","ios":"levelo://app?vid=90dc14d6-522b-45f1-b8fe-f87d269b5381"},"vehicle_type_id":"4","last_reported":1701709609,"current_range_meters":2400,"station_id":"ce4bhn12rcd13ifvqgpg","pricing_plan_id":"free"},{"bike_id":"d56a6e17-2997-421a-bc4f-117dc8258f86","system_id":"levelo_inurba_marseille","lat":43.241782,"lon":5.397261,"is_reserved":false,"is_disabled":false,"rental_uris":{"android":"levelo://app?vid=d56a6e17-2997-421a-bc4f-117dc8258f86","ios":"levelo://app?vid=d56a6e17-2997-421a-bc4f-117dc8258f86"},"vehicle_type_id":"4","last_reported":1701709609,"current_range_meters":31200,"station_id":"ce4bhn12rcd13ifvqgpg","pricing_plan_id":"free"},{"bike_id":"9e01ee59-41e6-425c-ae1f-3e33312fefcd","system_id":"levelo_inurba_marseille","lat":43.231923,"lon":5.355545,"is_reserved":false,"is_disabled":false,"rental_uris":{"android":"levelo://app?vid=9e01ee59-41e6-425c-ae1f-3e33312fefcd","ios":"levelo://app?vid=9e01ee59-41e6-425c-ae1f-3e33312fefcd"},"vehicle_type_id":"4","last_reported":1701709609,"current_range_meters":11200,"station_id":"ce4bhu92rcd13ifvqi70","pricing_plan_id":"free"},{"bike_id":"6041d620-664b-4836-b597-a0e62593a032","system_id":"levelo_inurba_marseille","lat":43.231923,"lon":5.355545,"is_reserved":false,"is_disabled":false,"rental_uris":{"android":"levelo://app?vid=6041d620-664b-4836-b597-a0e62593a032","ios":"levelo://app?vid=6041d620-664b-4836-b597-a0e62593a032"},"vehicle_type_id":"4","last_reported":1701709609,"current_range_meters":23600,"station_id":"ce4bhu92rcd13ifvqi70","pricing_plan_id":"free"},{"bike_id":"8756435f-ebd3-4df3-89fa-6a5a1e380d37","system_id":"levelo_inurba_marseille","lat":43.231919,"lon":5.355532,"is_reserved":false,"is_disabled":false,"rental_uris":{"android":"levelo://app?vid=8756435f-ebd3-4df3-89fa-6a5a1e380d37","ios":"levelo://app?vid=8756435f-ebd3-4df3-89fa-6a5a1e380d37"},"vehicle_type_id":"4","last_reported":1701709609,"current_range_meters":30400,"station_id":"ce4bhu92rcd13ifvqi70","pricing_plan_id":"free"},{"bike_id":"cf3102c4-88e0-4a41-86b7-69a76932d3e6","system_id":"levelo_inurba_marseille","lat":43.231923,"lon":5.355545,"is_reserved":false,"is_disabled":false,"rental_uris":{"android":"levelo://app?vid=cf3102c4-88e0-4a41-86b7-69a76932d3e6","ios":"levelo://app?vid=cf3102c4-88e0-4a41-86b7-69a76932d3e6"},"vehicle_type_id":"4","last_reported":1701709609,"current_range_meters":31600,"station_id":"ce4bhu92rcd13ifvqi70","pricing_plan_id":"free"},{"bike_id":"2b04708e-eed8-4471-916a-9fdeea01eec7","system_id":"levelo_inurba_marseille","lat":43.231923,"lon":5.355545,"is_reserved":false,"is_disabled":false,"rental_uris":{"android":"levelo://app?vid=2b04708e-eed8-4471-916a-9fdeea01eec7","ios":"levelo://app?vid=2b04708e-eed8-4471-916a-9fdeea01eec7"},"vehicle_type_id":"4","last_reported":1701709609,"current_range_meters":27600,"station_id":"ce4bhu92rcd13ifvqi70","pricing_plan_id":"free"},{"bike_id":"485c0b7e-a5b9-4021-ac9d-8d3fe310dabb","system_id":"levelo_inurba_marseille","lat":43.231793,"lon":5.400044,"is_reserved":false,"is_disabled":false,"rental_uris":{"android":"levelo://app?vid=485c0b7e-a5b9-4021-ac9d-8d3fe310dabb","ios":"levelo://app?vid=485c0b7e-a5b9-4021-ac9d-8d3fe310dabb"},"vehicle_type_id":"4","last_reported":1701709609,"current_range_meters":9200,"station_id":"ce4bhn12rcd13ifvqgqg","pricing_plan_id":"free"},{"bike_id":"0cf73e26-cfe4-495a-8675-6603ab968aec","system_id":"levelo_inurba_marseille","lat":43.231794,"lon":5.400052,"is_reserved":false,"is_disabled":false,"rental_uris":{"android":"levelo://app?vid=0cf73e26-cfe4-495a-8675-6603ab968aec","ios":"levelo://app?vid=0cf73e26-cfe4-495a-8675-6603ab968aec"},"vehicle_type_id":"4","last_reported":1701709609,"current_range_meters":27600,"station_id":"ce4bhn12rcd13ifvqgqg","pricing_plan_id":"free"},{"bike_id":"e47e98e0-4256-4c41-ae86-e531a41b9213","system_id":"levelo_inurba_marseille","lat":43.231794,"lon":5.400052,"is_reserved":false,"is_disabled":false,"rental_uris":{"android":"levelo://app?vid=e47e98e0-4256-4c41-ae86-e531a41b9213","ios":"levelo://app?vid=e47e98e0-4256-4c41-ae86-e531a41b9213"},"vehicle_type_id":"4","last_reported":1701709609,"current_range_meters":31600,"station_id":"ce4bhn12rcd13ifvqgqg","pricing_plan_id":"free"},{"bike_id":"e44db449-6914-4cfb-bde0-4c3cbeca97c3","system_id":"levelo_inurba_marseille","lat":43.231794,"lon":5.400052,"is_reserved":false,"is_disabled":false,"rental_uris":{"android":"levelo://app?vid=e44db449-6914-4cfb-bde0-4c3cbeca97c3","ios":"levelo://app?vid=e44db449-6914-4cfb-bde0-4c3cbeca97c3"},"vehicle_type_id":"4","last_reported":1701709609,"current_range_meters":30000,"station_id":"ce4bhn12rcd13ifvqgqg","pricing_plan_id":"free"},{"bike_id":"88cf855f-bb31-40e0-8afc-686df3c193ab","system_id":"levelo_inurba_marseille","lat":43.231794,"lon":5.400052,"is_reserved":false,"is_disabled":false,"rental_uris":{"android":"levelo://app?vid=88cf855f-bb31-40e0-8afc-686df3c193ab","ios":"levelo://app?vid=88cf855f-bb31-40e0-8afc-686df3c193ab"},"vehicle_type_id":"4","last_reported":1701709609,"current_range_meters":28800,"station_id":"ce4bhn12rcd13ifvqgqg","pricing_plan_id":"free"},{"bike_id":"554e18bc-f6bd-448a-9d3a-a49810d0b6de","system_id":"levelo_inurba_marseille","lat":43.231794,"lon":5.400052,"is_reserved":false,"is_disabled":false,"rental_uris":{"android":"levelo://app?vid=554e18bc-f6bd-448a-9d3a-a49810d0b6de","ios":"levelo://app?vid=554e18bc-f6bd-448a-9d3a-a49810d0b6de"},"vehicle_type_id":"4","last_reported":1701709609,"current_range_meters":13600,"station_id":"ce4bhn12rcd13ifvqgqg","pricing_plan_id":"free"},{"bike_id":"77b1a551-da7f-429a-980e-bfc6767a5958","system_id":"levelo_inurba_marseille","lat":43.231794,"lon":5.400052,"is_reserved":false,"is_disabled":false,"rental_uris":{"android":"levelo://app?vid=77b1a551-da7f-429a-980e-bfc6767a5958","ios":"levelo://app?vid=77b1a551-da7f-429a-980e-bfc6767a5958"},"vehicle_type_id":"4","last_reported":1701709609,"current_range_meters":31600,"station_id":"ce4bhn12rcd13ifvqgqg","pricing_plan_id":"free"},{"bike_id":"6bd9f065-50d9-4657-9ca0-a006f413d305","system_id":"levelo_inurba_marseille","lat":43.231794,"lon":5.400052,"is_reserved":false,"is_disabled":false,"rental_uris":{"android":"levelo://app?vid=6bd9f065-50d9-4657-9ca0-a006f413d305","ios":"levelo://app?vid=6bd9f065-50d9-4657-9ca0-a006f413d305"},"vehicle_type_id":"4","last_reported":1701709609,"current_range_meters":31600,"station_id":"ce4bhn12rcd13ifvqgqg","pricing_plan_id":"free"},{"bike_id":"ab5eae98-96ca-4718-91b7-353de917f40d","system_id":"levelo_inurba_marseille","lat":43.231793,"lon":5.400044,"is_reserved":false,"is_disabled":false,"rental_uris":{"android":"levelo://app?vid=ab5eae98-96ca-4718-91b7-353de917f40d","ios":"levelo://app?vid=ab5eae98-96ca-4718-91b7-353de917f40d"},"vehicle_type_id":"4","last_reported":1701709609,"current_range_meters":32000,"station_id":"ce4bhn12rcd13ifvqgqg","pricing_plan_id":"free"},{"bike_id":"22bd98e3-c33f-4c44-ae2b-f96729d36f4f","system_id":"levelo_inurba_marseille","lat":43.231793,"lon":5.400044,"is_reserved":false,"is_disabled":false,"rental_uris":{"android":"levelo://app?vid=22bd98e3-c33f-4c44-ae2b-f96729d36f4f","ios":"levelo://app?vid=22bd98e3-c33f-4c44-ae2b-f96729d36f4f"},"vehicle_type_id":"4","last_reported":1701709609,"current_range_meters":32000,"station_id":"ce4bhn12rcd13ifvqgqg","pricing_plan_id":"free"},{"bike_id":"8f0fb87f-53e2-432d-b05f-ab1e816b61dc","system_id":"levelo_inurba_marseille","lat":43.231794,"lon":5.400052,"is_reserved":false,"is_disabled":false,"rental_uris":{"android":"levelo://app?vid=8f0fb87f-53e2-432d-b05f-ab1e816b61dc","ios":"levelo://app?vid=8f0fb87f-53e2-432d-b05f-ab1e816b61dc"},"vehicle_type_id":"4","last_reported":1701709609,"current_range_meters":30800,"station_id":"ce4bhn12rcd13ifvqgqg","pricing_plan_id":"free"},{"bike_id":"5d9be6d5-2985-432d-ac4f-8e0798b2a0ac","system_id":"levelo_inurba_marseille","lat":43.231793,"lon":5.400044,"is_reserved":false,"is_disabled":false,"rental_uris":{"android":"levelo://app?vid=5d9be6d5-2985-432d-ac4f-8e0798b2a0ac","ios":"levelo://app?vid=5d9be6d5-2985-432d-ac4f-8e0798b2a0ac"},"vehicle_type_id":"4","last_reported":1701709609,"current_range_meters":31600,"station_id":"ce4bhn12rcd13ifvqgqg","pricing_plan_id":"free"},{"bike_id":"c93c5996-9b60-4332-be03-980ee74c5247","system_id":"levelo_inurba_marseille","lat":43.231793,"lon":5.400044,"is_reserved":false,"is_disabled":false,"rental_uris":{"android":"levelo://app?vid=c93c5996-9b60-4332-be03-980ee74c5247","ios":"levelo://app?vid=c93c5996-9b60-4332-be03-980ee74c5247"},"vehicle_type_id":"4","last_reported":1701709609,"current_range_meters":20800,"station_id":"ce4bhn12rcd13ifvqgqg","pricing_plan_id":"free"},{"bike_id":"8018717d-336c-48a7-9c90-84a6551a8bc7","system_id":"levelo_inurba_marseille","lat":43.23159,"lon":5.4371,"is_reserved":false,"is_disabled":false,"rental_uris":{"android":"levelo://app?vid=8018717d-336c-48a7-9c90-84a6551a8bc7","ios":"levelo://app?vid=8018717d-336c-48a7-9c90-84a6551a8bc7"},"vehicle_type_id":"4","last_reported":1701709609,"current_range_meters":30800,"station_id":"ce4bhmp2rcd13ifvqgog","pricing_plan_id":"free"},{"bike_id":"818b7971-a62f-4d0c-b4d6-ebcff5688a44","system_id":"levelo_inurba_marseille","lat":43.231562,"lon":5.436933,"is_reserved":false,"is_disabled":false,"rental_uris":{"android":"levelo://app?vid=818b7971-a62f-4d0c-b4d6-ebcff5688a44","ios":"levelo://app?vid=818b7971-a62f-4d0c-b4d6-ebcff5688a44"},"vehicle_type_id":"4","last_reported":1701709609,"current_range_meters":27600,"station_id":"ce4bhmp2rcd13ifvqgog","pricing_plan_id":"free"},{"bike_id":"30690881-465e-4f4e-a81a-04a1a40e4341","system_id":"levelo_inurba_marseille","lat":43.231562,"lon":5.436933,"is_reserved":false,"is_disabled":false,"rental_uris":{"android":"levelo://app?vid=30690881-465e-4f4e-a81a-04a1a40e4341","ios":"levelo://app?vid=30690881-465e-4f4e-a81a-04a1a40e4341"},"vehicle_type_id":"4","last_reported":1701709609,"current_range_meters":17200,"station_id":"ce4bhmp2rcd13ifvqgog","pricing_plan_id":"free"},{"bike_id":"1470ce37-368f-45ab-b473-5fbe751d8010","system_id":"levelo_inurba_marseille","lat":43.231562,"lon":5.436933,"is_reserved":false,"is_disabled":false,"rental_uris":{"android":"levelo://app?vid=1470ce37-368f-45ab-b473-5fbe751d8010","ios":"levelo://app?vid=1470ce37-368f-45ab-b473-5fbe751d8010"},"vehicle_type_id":"4","last_reported":1701709609,"current_range_meters":30800,"station_id":"ce4bhmp2rcd13ifvqgog","pricing_plan_id":"free"},{"bike_id":"2e1f4911-ec15-4212-aa8f-8ade17ab151d","system_id":"levelo_inurba_marseille","lat":43.23148,"lon":5.43724,"is_reserved":false,"is_disabled":false,"rental_uris":{"android":"levelo://app?vid=2e1f4911-ec15-4212-aa8f-8ade17ab151d","ios":"levelo://app?vid=2e1f4911-ec15-4212-aa8f-8ade17ab151d"},"vehicle_type_id":"4","last_reported":1701709609,"current_range_meters":29200,"station_id":"ce4bhmp2rcd13ifvqgog","pricing_plan_id":"free"},{"bike_id":"b718cec7-5e66-4216-830b-20c4cb80c1f6","system_id":"levelo_inurba_marseille","lat":43.231562,"lon":5.436933,"is_reserved":false,"is_disabled":false,"rental_uris":{"android":"levelo://app?vid=b718cec7-5e66-4216-830b-20c4cb80c1f6","ios":"levelo://app?vid=b718cec7-5e66-4216-830b-20c4cb80c1f6"},"vehicle_type_id":"4","last_reported":1701709609,"current_range_meters":30000,"station_id":"ce4bhmp2rcd13ifvqgog","pricing_plan_id":"free"},{"bike_id":"31d0811f-403f-42aa-9ea6-b138ed5aedee","system_id":"levelo_inurba_marseille","lat":43.231562,"lon":5.436933,"is_reserved":false,"is_disabled":false,"rental_uris":{"android":"levelo://app?vid=31d0811f-403f-42aa-9ea6-b138ed5aedee","ios":"levelo://app?vid=31d0811f-403f-42aa-9ea6-b138ed5aedee"},"vehicle_type_id":"4","last_reported":1701709609,"current_range_meters":31200,"station_id":"ce4bhmp2rcd13ifvqgog","pricing_plan_id":"free"}]}}