{"last_updated":1727521692,"ttl":60,"version":"2.2","data":{"bikes":[{"bike_id":"b83c421a-6817-4d8e-a056-2fef532dbfd3","system_id":"levelo_inurba_marseille","lat":43.30794,"lon":5.43523,"is_reserved":false,"is_disabled":false,"rental_uris":{"android":"levelo://app?vid=b83c421a-6817-4d8e-a056-2fef532dbfd3","ios":"levelo://app?vid=b83c421a-6817-4d8e-a056-2fef532dbfd3"},"vehicle_type_id":"4","last_reported":1727521692,"current_range_meters":38800,"station_id":"ce4bhph2rcd13ifvqheg","pricing_plan_id":"cebpf4jnsgd1na2vs0mg"},{"bike_id":"dc7adeb0-aa96-46bd-ad91-016f2e18e7ec","system_id":"levelo_inurba_marseille","lat":43.2996,"lon":5.38502,"is_reserved":false,"is_disabled":false,"rental_uris":{"android":"levelo://app?vid=dc7adeb0-aa96-46bd-ad91-016f2e18e7ec","ios":"levelo://app?vid=dc7adeb0-aa96-46bd-ad91-016f2e18e7ec"},"vehicle_type_id":"4","last_reported":1727521692,"current_range_meters":4400,"station_id":"ce4bgj92rcd13ifvqbd0","pricing_plan_id":"cebpf4jnsgd1na2vs0mg"},{"bike_id":"e7081ef8-8a32-46a8-a293-c48ce527862e","system_id":"levelo_inurba_marseille","lat":43.34487,"lon":5.41637,"is_reserved":false,"is_disabled":false,"rental_uris":{"android":"levelo://app?vid=e7081ef8-8a32-46a8-a293-c48ce527862e","ios":"levelo://app?vid=e7081ef8-8a32-46a8-a293-c48ce527862e"},"vehicle_type_id":"4","last_reported":1727521692,"current_range_meters":4800,"station_id":"","pricing_plan_id":"cebpf4jnsgd1na2vs0mg"},{"bike_id":"40a69021-7417-42c1-80d0-7367101404e7","system_id":"levelo_inurba_marseille","lat":43.2962,"lon":5.37712,"is_reserved":false,"is_disabled":false,"rental_uris":{"android":"levelo://app?vid=40a69021-7417-42c1-80d0-7367101404e7","ios":"levelo://app?vid=40a69021-7417-42c1-80d0-7367101404e7"},"vehicle_type_id":"4","last_reported":1727521692,"current_range_meters":33200,"station_id":"ce4bgi92rcd13ifvqb90","pricing_plan_id":"cebpf4jnsgd1na2vs0mg"},{"bike_id":"47a74a51-65c8-46c9-b9b4-3431d38005d8","system_id":"levelo_inurba_marseille","lat":43.33756,"lon":5.37467,"is_reserved":false,"is_disabled":false,"rental_uris":{"android":"levelo://app?vid=47a74a51-65c8-46c9-b9b4-3431d38005d8","ios":"levelo://app?vid=47a74a51-65c8-46c9-b9b4-3431d38005d8"},"vehicle_type_id":"4","last_reported":1727521692,"current_range_meters":38400,"station_id":"","pricing_plan_id":"cebpf4jnsgd1na2vs0mg"},{"bike_id":"21ca3583-08ba-4730-99e7-03a0cee2cfeb","system_id":"levelo_inurba_marseille","lat":43.31803,"lon":5.37775,"is_reserved":false,"is_disabled":false,"rental_uris":{"android":"levelo://app?vid=21ca3583-08ba-4730-99e7-03a0cee2cfeb","ios":"levelo://app?vid=21ca3583-08ba-4730-99e7-03a0cee2cfeb"},"vehicle_type_id":"4","last_reported":1727521692,"current_range_meters":2000,"station_id":"","pricing_plan_id":"cebpf4jnsgd1na2vs0mg"},{"bike_id":"47d59c33-a125-42df-9b20-837e02437696","system_id":"levelo_inurba_marseille","lat":43.29908,"lon":5.37468,"is_reserved":false,"is_disabled":false,"rental_uris":{"android":"levelo://app?vid=47d59c33-a125-42df-9b20-837e02437696","ios":"levelo://app?vid=47d59c33-a125-42df-9b20-837e02437696"},"vehicle_type_id":"4","last_reported":1727521692,"current_range_meters":34800,"station_id":"ce4bgjh2rcd13ifvqbg0","pricing_plan_id":"cebpf4jnsgd1na2vs0mg"},{"bike_id":"2114921e-6c6d-40fb-8225-090570d48651","system_id":"levelo_inurba_marseille","lat":43.28156,"lon":5.42632,"is_reserved":false,"is_disabled":false,"rental_uris":{"android":"levelo://app?vid=2114921e-6c6d-40fb-8225-090570d48651","ios":"levelo://app?vid=2114921e-6c6d-40fb-8225-090570d48651"},"vehicle_type_id":"4","last_reported":1727521692,"current_range_meters":36000,"station_id":"ce4bhnh2rcd13ifvqgug","pricing_plan_id":"cebpf4jnsgd1na2vs0mg"},{"bike_id":"c42bda2a-576f-4405-9ceb-4d1e065cf644","system_id":"levelo_inurba_marseille","lat":43.27941,"lon":5.41044,"is_reserved":false,"is_disabled":false,"rental_uris":{"android":"levelo://app?vid=c42bda2a-576f-4405-9ceb-4d1e065cf644","ios":"levelo://app?vid=c42bda2a-576f-4405-9ceb-4d1e065cf644"},"vehicle_type_id":"4","last_reported":1727521692,"current_range_meters":37600,"station_id":"ce4bhnp2rcd13ifvqh0g","pricing_plan_id":"cebpf4jnsgd1na2vs0mg"},{"bike_id":"14fac141-8568-4def-be77-4f968b86ffd4","system_id":"levelo_inurba_marseille","lat":43.2926,"lon":5.38443,"is_reserved":false,"is_disabled":false,"rental_uris":{"android":"levelo://app?vid=14fac141-8568-4def-be77-4f968b86ffd4","ios":"levelo://app?vid=14fac141-8568-4def-be77-4f968b86ffd4"},"vehicle_type_id":"4","last_reported":1727521692,"current_range_meters":39200,"station_id":"ce4bh692rcd13ifvqea0","pricing_plan_id":"cebpf4jnsgd1na2vs0mg"},{"bike_id":"45643d95-5279-4a9e-8bfb-978d7ae205d2","system_id":"levelo_inurba_marseille","lat":43.29263,"lon":5.38436,"is_reserved":false,"is_disabled":false,"rental_uris":{"android":"levelo://app?vid=45643d95-5279-4a9e-8bfb-978d7ae205d2","ios":"levelo://app?vid=45643d95-5279-4a9e-8bfb-978d7ae205d2"},"vehicle_type_id":"4","last_reported":1727521692,"current_range_meters":26000,"station_id":"ce4bh692rcd13ifvqea0","pricing_plan_id":"cebpf4jnsgd1na2vs0mg"},{"bike_id":"569beabd-beb6-4b96-b586-3e2a1a8917ec","system_id":"levelo_inurba_marseille","lat":43.30416,"lon":5.41281,"is_reserved":false,"is_disabled":false,"rental_uris":{"android":"levelo://app?vid=569beabd-beb6-4b96-b586-3e2a1a8917ec","ios":"levelo://app?vid=569beabd-beb6-4b96-b586-3e2a1a8917ec"},"vehicle_type_id":"4","last_reported":1727521692,"current_range_meters":26000,"station_id":"ce4bhop2rcd13ifvqh8g","pricing_plan_id":"cebpf4jnsgd1na2vs0mg"},{"bike_id":"e334bd2a-72a2-4efe-b0e7-e9d1f544d1ad","system_id":"levelo_inurba_marseille","lat":43.30939,"lon":5.40145,"is_reserved":false,"is_disabled":false,"rental_uris":{"android":"levelo://app?vid=e334bd2a-72a2-4efe-b0e7-e9d1f544d1ad","ios":"levelo://app?vid=e334bd2a-72a2-4efe-b0e7-e9d1f544d1ad"},"vehicle_type_id":"4","last_reported":1727521692,"current_range_meters":4000,"station_id":"ce4bgvp2rcd13ifvqct0","pricing_plan_id":"cebpf4jnsgd1na2vs0mg"},{"bike_id":"765249a1-b4bd-4788-ba12-3d9f91005156","system_id":"levelo_inurba_marseille","lat":43.29902,"lon":5.43665,"is_reserved":false,"is_disabled":false,"rental_uris":{"android":"levelo://app?vid=765249a1-b4bd-4788-ba12-3d9f91005156","ios":"levelo://app?vid=765249a1-b4bd-4788-ba12-3d9f91005156"},"vehicle_type_id":"4","last_reported":1727521692,"current_range_meters":38800,"station_id":"ce4bhpp2rcd13ifvqhfg","pricing_plan_id":"cebpf4jnsgd1na2vs0mg"},{"bike_id":"02c6d3d8-077a-4c1a-ae87-92ce1ff0942b","system_id":"levelo_inurba_marseille","lat":43.23174,"lon":5.39997,"is_reserved":false,"is_disabled":false,"rental_uris":{"android":"levelo://app?vid=02c6d3d8-077a-4c1a-ae87-92ce1ff0942b","ios":"levelo://app?vid=02c6d3d8-077a-4c1a-ae87-92ce1ff0942b"},"vehicle_type_id":"4","last_reported":1727521692,"current_range_meters":22400,"station_id":"ce4bhn12rcd13ifvqgqg","pricing_plan_id":"cebpf4jnsgd1na2vs0mg"},{"bike_id":"86ab9e15-2330-4229-871b-cd4aa2f273d2","system_id":"levelo_inurba_marseille","lat":43.32836,"lon":5.40501,"is_reserved":false,"is_disabled":false,"rental_uris":{"android":"levelo://app?vid=86ab9e15-2330-4229-871b-cd4aa2f273d2","ios":"levelo://app?vid=86ab9e15-2330-4229-871b-cd4aa2f273d2"},"vehicle_type_id":"4","last_reported":1727521692,"current_range_meters":2800,"station_id":"","pricing_plan_id":"cebpf4jnsgd1na2vs0mg"},{"bike_id":"f2b491e4-9868-4e08-8b7d-d2bab33ba8ab","system_id":"levelo_inurba_marseille","lat":43.27176,"lon":5.40986,"is_reserved":false,"is_disabled":false,"rental_uris":{"android":"levelo://app?vid=f2b491e4-9868-4e08-8b7d-d2bab33ba8ab","ios":"levelo://app?vid=f2b491e4-9868-4e08-8b7d-d2bab33ba8ab"},"vehicle_type_id":"4","last_reported":1727521692,"current_range_meters":27600,"station_id":"ce4bhl12rcd13ifvqgf0","pricing_plan_id":"cebpf4jnsgd1na2vs0mg"},{"bike_id":"fd95b7d0-9465-4ced-a887-157866b5f796","system_id":"levelo_inurba_marseille","lat":43.28079,"lon":5.39672,"is_reserved":false,"is_disabled":false,"rental_uris":{"android":"levelo://app?vid=fd95b7d0-9465-4ced-a887-157866b5f796","ios":"levelo://app?vid=fd95b7d0-9465-4ced-a887-157866b5f796"},"vehicle_type_id":"4","last_reported":1727521692,"current_range_meters":38800,"station_id":"ce4bho12rcd13ifvqh2g","pricing_plan_id":"cebpf4jnsgd1na2vs0mg"},{"bike_id":"a96cf90e-b80f-4a13-ac19-c639b5b034aa","system_id":"levelo_inurba_marseille","lat":43.292725,"lon":5.36841,"is_reserved":false,"is_disabled":false,"rental_uris":{"android":"levelo://app?vid=a96cf90e-b80f-4a13-ac19-c639b5b034aa","ios":"levelo://app?vid=a96cf90e-b80f-4a13-ac19-c639b5b034aa"},"vehicle_type_id":"4","last_reported":1727521692,"current_range_meters":30800,"station_id":"ce4bhbp2rcd13ifvqesg","pricing_plan_id":"cebpf4jnsgd1na2vs0mg"},{"bike_id":"9d7d1a1a-b0b0-4ce6-8234-ec6247013cf8","system_id":"levelo_inurba_marseille","lat":43.27309,"lon":5.39092,"is_reserved":false,"is_disabled":false,"rental_uris":{"android":"levelo://app?vid=9d7d1a1a-b0b0-4ce6-8234-ec6247013cf8","ios":"levelo://app?vid=9d7d1a1a-b0b0-4ce6-8234-ec6247013cf8"},"vehicle_type_id":"4","last_reported":1727521692,"current_range_meters":10800,"station_id":"ce4bhgp2rcd13ifvqfe0","pricing_plan_id":"cebpf4jnsgd1na2vs0mg"},{"bike_id":"829b4aed-3002-4475-ab01-7db37fff68b7","system_id":"levelo_inurba_marseille","lat":43.28036,"lon":5.369511,"is_reserved":false,"is_disabled":false,"rental_uris":{"android":"levelo://app?vid=829b4aed-3002-4475-ab01-7db37fff68b7","ios":"levelo://app?vid=829b4aed-3002-4475-ab01-7db37fff68b7"},"vehicle_type_id":"4","last_reported":1727521692,"current_range_meters":29600,"station_id":"ce4bha12rcd13ifvqef0","pricing_plan_id":"cebpf4jnsgd1na2vs0mg"},{"bike_id":"f5845ab2-8c46-4304-93c9-735f8ada5ffe","system_id":"levelo_inurba_marseille","lat":43.30411,"lon":5.39759,"is_reserved":false,"is_disabled":false,"rental_uris":{"android":"levelo://app?vid=f5845ab2-8c46-4304-93c9-735f8ada5ffe","ios":"levelo://app?vid=f5845ab2-8c46-4304-93c9-735f8ada5ffe"},"vehicle_type_id":"4","last_reported":1727521692,"current_range_meters":38800,"station_id":"ce4bh092rcd13ifvqd20","pricing_plan_id":"cebpf4jnsgd1na2vs0mg"},{"bike_id":"83ab67e9-9683-40ac-9b80-c07390469159","system_id":"levelo_inurba_marseille","lat":43.22928,"lon":5.35373,"is_reserved":false,"is_disabled":false,"rental_uris":{"android":"levelo://app?vid=83ab67e9-9683-40ac-9b80-c07390469159","ios":"levelo://app?vid=83ab67e9-9683-40ac-9b80-c07390469159"},"vehicle_type_id":"4","last_reported":1727521692,"current_range_meters":37600,"station_id":"cpo3532slgdg3j2ikp40","pricing_plan_id":"cebpf4jnsgd1na2vs0mg"},{"bike_id":"7f45f2dc-c5af-46ac-950b-c69876c74dfe","system_id":"levelo_inurba_marseille","lat":43.27996,"lon":5.40007,"is_reserved":false,"is_disabled":false,"rental_uris":{"android":"levelo://app?vid=7f45f2dc-c5af-46ac-950b-c69876c74dfe","ios":"levelo://app?vid=7f45f2dc-c5af-46ac-950b-c69876c74dfe"},"vehicle_type_id":"4","last_reported":1727521692,"current_range_meters":11600,"station_id":"ce4bho92rcd13ifvqh4g","pricing_plan_id":"cebpf4jnsgd1na2vs0mg"},{"bike_id":"1d12beb9-04d0-4763-8c30-7c59b3a619a2","system_id":"levelo_inurba_marseille","lat":43.29683,"lon":5.37309,"is_reserved":false,"is_disabled":false,"rental_uris":{"android":"levelo://app?vid=1d12beb9-04d0-4763-8c30-7c59b3a619a2","ios":"levelo://app?vid=1d12beb9-04d0-4763-8c30-7c59b3a619a2"},"vehicle_type_id":"4","last_reported":1727521692,"current_range_meters":36400,"station_id":"ce4bgk12rcd13ifvqbj0","pricing_plan_id":"cebpf4jnsgd1na2vs0mg"},{"bike_id":"1b893d04-61f0-4747-8a4f-ae4e1314d15d","system_id":"levelo_inurba_marseille","lat":43.25088,"lon":5.39524,"is_reserved":false,"is_disabled":false,"rental_uris":{"android":"levelo://app?vid=1b893d04-61f0-4747-8a4f-ae4e1314d15d","ios":"levelo://app?vid=1b893d04-61f0-4747-8a4f-ae4e1314d15d"},"vehicle_type_id":"4","last_reported":1727521692,"current_range_meters":18000,"station_id":"ce4bhm12rcd13ifvqgkg","pricing_plan_id":"cebpf4jnsgd1na2vs0mg"},{"bike_id":"73d4b1b9-8fa7-45c3-b819-17c2aa182b44","system_id":"levelo_inurba_marseille","lat":43.2956,"lon":5.42284,"is_reserved":false,"is_disabled":false,"rental_uris":{"android":"levelo://app?vid=73d4b1b9-8fa7-45c3-b819-17c2aa182b44","ios":"levelo://app?vid=73d4b1b9-8fa7-45c3-b819-17c2aa182b44"},"vehicle_type_id":"4","last_reported":1727521692,"current_range_meters":10800,"station_id":"ce4bhph2rcd13ifvqhdg","pricing_plan_id":"cebpf4jnsgd1na2vs0mg"},{"bike_id":"8524a85f-8427-4a60-91b5-869fad39ff42","system_id":"levelo_inurba_marseille","lat":43.24994,"lon":5.38937,"is_reserved":false,"is_disabled":false,"rental_uris":{"android":"levelo://app?vid=8524a85f-8427-4a60-91b5-869fad39ff42","ios":"levelo://app?vid=8524a85f-8427-4a60-91b5-869fad39ff42"},"vehicle_type_id":"4","last_reported":1727521692,"current_range_meters":38400,"station_id":"ce4bhgp2rcd13ifvqfd0","pricing_plan_id":"cebpf4jnsgd1na2vs0mg"},{"bike_id":"3dcb4d19-9f2a-4c72-b340-cfe0fcbad6e1","system_id":"levelo_inurba_marseille","lat":43.25829,"lon":5.3943,"is_reserved":false,"is_disabled":false,"rental_uris":{"android":"levelo://app?vid=3dcb4d19-9f2a-4c72-b340-cfe0fcbad6e1","ios":"levelo://app?vid=3dcb4d19-9f2a-4c72-b340-cfe0fcbad6e1"},"vehicle_type_id":"4","last_reported":1727521692,"current_range_meters":37600,"station_id":"ce4bhip2rcd13ifvqft0","pricing_plan_id":"cebpf4jnsgd1na2vs0mg"},{"bike_id":"6fb54eef-1b79-4c8c-956c-b78c5752a631","system_id":"levelo_inurba_marseille","lat":43.25822,"lon":5.39433,"is_reserved":false,"is_disabled":false,"rental_uris":{"android":"levelo://app?vid=6fb54eef-1b79-4c8c-956c-b78c5752a631","ios":"levelo://app?vid=6fb54eef-1b79-4c8c-956c-b78c5752a631"},"vehicle_type_id":"4","last_reported":1727521692,"current_range_meters":7200,"station_id":"ce4bhip2rcd13ifvqft0","pricing_plan_id":"cebpf4jnsgd1na2vs0mg"},{"bike_id":"cd0ff3e3-3daa-42bc-9697-566bcaf7ff3a","system_id":"levelo_inurba_marseille","lat":43.33019,"lon":5.39035,"is_reserved":false,"is_disabled":false,"rental_uris":{"android":"levelo://app?vid=cd0ff3e3-3daa-42bc-9697-566bcaf7ff3a","ios":"levelo://app?vid=cd0ff3e3-3daa-42bc-9697-566bcaf7ff3a"},"vehicle_type_id":"4","last_reported":1727521692,"current_range_meters":38800,"station_id":"ce4bhr92rcd13ifvqhrg","pricing_plan_id":"cebpf4jnsgd1na2vs0mg"},{"bike_id":"16025923-429d-494d-bd7e-d552f9568daf","system_id":"levelo_inurba_marseille","lat":43.27208,"lon":5.3918,"is_reserved":false,"is_disabled":false,"rental_uris":{"android":"levelo://app?vid=16025923-429d-494d-bd7e-d552f9568daf","ios":"levelo://app?vid=16025923-429d-494d-bd7e-d552f9568daf"},"vehicle_type_id":"4","last_reported":1727521692,"current_range_meters":31200,"station_id":"ce4bhhp2rcd13ifvqfm0","pricing_plan_id":"cebpf4jnsgd1na2vs0mg"},{"bike_id":"7fab7451-a6e0-472b-81ac-3e5565e130d8","system_id":"levelo_inurba_marseille","lat":43.33738,"lon":5.37434,"is_reserved":false,"is_disabled":false,"rental_uris":{"android":"levelo://app?vid=7fab7451-a6e0-472b-81ac-3e5565e130d8","ios":"levelo://app?vid=7fab7451-a6e0-472b-81ac-3e5565e130d8"},"vehicle_type_id":"4","last_reported":1727521692,"current_range_meters":22800,"station_id":"","pricing_plan_id":"cebpf4jnsgd1na2vs0mg"},{"bike_id":"ccb0399a-af8d-4a08-a739-b071793d1a1b","system_id":"levelo_inurba_marseille","lat":43.31712,"lon":5.43704,"is_reserved":false,"is_disabled":false,"rental_uris":{"android":"levelo://app?vid=ccb0399a-af8d-4a08-a739-b071793d1a1b","ios":"levelo://app?vid=ccb0399a-af8d-4a08-a739-b071793d1a1b"},"vehicle_type_id":"4","last_reported":1727521692,"current_range_meters":21600,"station_id":"ce4bhp92rcd13ifvqhcg","pricing_plan_id":"cebpf4jnsgd1na2vs0mg"},{"bike_id":"06e383df-1197-449f-9df1-e723e6e5b745","system_id":"levelo_inurba_marseille","lat":43.23926,"lon":5.38282,"is_reserved":false,"is_disabled":false,"rental_uris":{"android":"levelo://app?vid=06e383df-1197-449f-9df1-e723e6e5b745","ios":"levelo://app?vid=06e383df-1197-449f-9df1-e723e6e5b745"},"vehicle_type_id":"4","last_reported":1727521692,"current_range_meters":8400,"station_id":"","pricing_plan_id":"cebpf4jnsgd1na2vs0mg"},{"bike_id":"e19c2211-331c-42ae-b78a-4ecc2a7133fe","system_id":"levelo_inurba_marseille","lat":43.24668,"lon":5.38157,"is_reserved":false,"is_disabled":false,"rental_uris":{"android":"levelo://app?vid=e19c2211-331c-42ae-b78a-4ecc2a7133fe","ios":"levelo://app?vid=e19c2211-331c-42ae-b78a-4ecc2a7133fe"},"vehicle_type_id":"4","last_reported":1727521692,"current_range_meters":38800,"station_id":"ce4bhih2rcd13ifvqfr0","pricing_plan_id":"cebpf4jnsgd1na2vs0mg"},{"bike_id":"6309b35e-70a6-4cf6-828d-1c3546ae70b2","system_id":"levelo_inurba_marseille","lat":43.29872,"lon":5.39738,"is_reserved":false,"is_disabled":false,"rental_uris":{"android":"levelo://app?vid=6309b35e-70a6-4cf6-828d-1c3546ae70b2","ios":"levelo://app?vid=6309b35e-70a6-4cf6-828d-1c3546ae70b2"},"vehicle_type_id":"4","last_reported":1727521692,"current_range_meters":35200,"station_id":"ce4bh0h2rcd13ifvqd50","pricing_plan_id":"cebpf4jnsgd1na2vs0mg"},{"bike_id":"53d3d543-4809-4f9c-a6c1-ced8bbb46e3b","system_id":"levelo_inurba_marseille","lat":43.24386,"lon":5.3705,"is_reserved":false,"is_disabled":false,"rental_uris":{"android":"levelo://app?vid=53d3d543-4809-4f9c-a6c1-ced8bbb46e3b","ios":"levelo://app?vid=53d3d543-4809-4f9c-a6c1-ced8bbb46e3b"},"vehicle_type_id":"4","last_reported":1727521692,"current_range_meters":39200,"station_id":"ce4bhhh2rcd13ifvqfk0","pricing_plan_id":"cebpf4jnsgd1na2vs0mg"},{"bike_id":"a00340c3-2a87-4b48-a268-ec041e1a44ab","system_id":"levelo_inurba_marseille","lat":43.337444,"lon":5.374475,"is_reserved":false,"is_disabled":false,"rental_uris":{"android":"levelo://app?vid=a00340c3-2a87-4b48-a268-ec041e1a44ab","ios":"levelo://app?vid=a00340c3-2a87-4b48-a268-ec041e1a44ab"},"vehicle_type_id":"4","last_reported":1727521692,"current_range_meters":12400,"station_id":"","pricing_plan_id":"cebpf4jnsgd1na2vs0mg"},{"bike_id":"85bea604-ee1a-4e44-ab64-edd92269dade","system_id":"levelo_inurba_marseille","lat":43.30162,"lon":5.38077,"is_reserved":false,"is_disabled":false,"rental_uris":{"android":"levelo://app?vid=85bea604-ee1a-4e44-ab64-edd92269dade","ios":"levelo://app?vid=85bea604-ee1a-4e44-ab64-edd92269dade"},"vehicle_type_id":"4","last_reported":1727521692,"current_range_meters":28000,"station_id":"ce4bgjp2rcd13ifvqbh0","pricing_plan_id":"cebpf4jnsgd1na2vs0mg"},{"bike_id":"ee777075-0508-4b84-bdc7-20b4f047f867","system_id":"levelo_inurba_marseille","lat":43.28371,"lon":5.38626,"is_reserved":false,"is_disabled":false,"rental_uris":{"android":"levelo://app?vid=ee777075-0508-4b84-bdc7-20b4f047f867","ios":"levelo://app?vid=ee777075-0508-4b84-bdc7-20b4f047f867"},"vehicle_type_id":"4","last_reported":1727521692,"current_range_meters":30400,"station_id":"ce4bh492rcd13ifvqdvg","pricing_plan_id":"cebpf4jnsgd1na2vs0mg"},{"bike_id":"dee4a9f7-5360-47b6-839d-f17c135f5ab9","system_id":"levelo_inurba_marseille","lat":43.27372,"lon":5.36262,"is_reserved":false,"is_disabled":false,"rental_uris":{"android":"levelo://app?vid=dee4a9f7-5360-47b6-839d-f17c135f5ab9","ios":"levelo://app?vid=dee4a9f7-5360-47b6-839d-f17c135f5ab9"},"vehicle_type_id":"4","last_reported":1727521692,"current_range_meters":12000,"station_id":"ce4bhbh2rcd13ifvqeo0","pricing_plan_id":"cebpf4jnsgd1na2vs0mg"},{"bike_id":"88c252b6-34e7-4889-9529-1e33eadcc1d0","system_id":"levelo_inurba_marseille","lat":43.27201,"lon":5.39173,"is_reserved":false,"is_disabled":false,"rental_uris":{"android":"levelo://app?vid=88c252b6-34e7-4889-9529-1e33eadcc1d0","ios":"levelo://app?vid=88c252b6-34e7-4889-9529-1e33eadcc1d0"},"vehicle_type_id":"4","last_reported":1727521692,"current_range_meters":35600,"station_id":"ce4bhhp2rcd13ifvqfm0","pricing_plan_id":"cebpf4jnsgd1na2vs0mg"},{"bike_id":"8fe46ecc-1e67-4f19-8b8d-10a6acd8bd0b","system_id":"levelo_inurba_marseille","lat":43.25989,"lon":5.38678,"is_reserved":false,"is_disabled":false,"rental_uris":{"android":"levelo://app?vid=8fe46ecc-1e67-4f19-8b8d-10a6acd8bd0b","ios":"levelo://app?vid=8fe46ecc-1e67-4f19-8b8d-10a6acd8bd0b"},"vehicle_type_id":"4","last_reported":1727521692,"current_range_meters":8800,"station_id":"","pricing_plan_id":"cebpf4jnsgd1na2vs0mg"},{"bike_id":"5b32f9d4-2ec0-4970-9179-e0731cd878d2","system_id":"levelo_inurba_marseille","lat":43.28481,"lon":5.38565,"is_reserved":false,"is_disabled":false,"rental_uris":{"android":"levelo://app?vid=5b32f9d4-2ec0-4970-9179-e0731cd878d2","ios":"levelo://app?vid=5b32f9d4-2ec0-4970-9179-e0731cd878d2"},"vehicle_type_id":"4","last_reported":1727521692,"current_range_meters":38800,"station_id":"ce4bh8p2rcd13ifvqeb0","pricing_plan_id":"cebpf4jnsgd1na2vs0mg"},{"bike_id":"4ecaf403-655b-47c8-9c25-682929ebb982","system_id":"levelo_inurba_marseille","lat":43.27173,"lon":5.40997,"is_reserved":false,"is_disabled":false,"rental_uris":{"android":"levelo://app?vid=4ecaf403-655b-47c8-9c25-682929ebb982","ios":"levelo://app?vid=4ecaf403-655b-47c8-9c25-682929ebb982"},"vehicle_type_id":"4","last_reported":1727521692,"current_range_meters":9600,"station_id":"ce4bhl12rcd13ifvqgf0","pricing_plan_id":"cebpf4jnsgd1na2vs0mg"},{"bike_id":"9663fbf7-8c9e-4cf3-95bb-748c9957057e","system_id":"levelo_inurba_marseille","lat":43.33756,"lon":5.37435,"is_reserved":false,"is_disabled":false,"rental_uris":{"android":"levelo://app?vid=9663fbf7-8c9e-4cf3-95bb-748c9957057e","ios":"levelo://app?vid=9663fbf7-8c9e-4cf3-95bb-748c9957057e"},"vehicle_type_id":"4","last_reported":1727521692,"current_range_meters":22800,"station_id":"","pricing_plan_id":"cebpf4jnsgd1na2vs0mg"},{"bike_id":"70f95908-a707-4443-89f0-05100b6f71f9","system_id":"levelo_inurba_marseille","lat":43.23177,"lon":5.39985,"is_reserved":false,"is_disabled":false,"rental_uris":{"android":"levelo://app?vid=70f95908-a707-4443-89f0-05100b6f71f9","ios":"levelo://app?vid=70f95908-a707-4443-89f0-05100b6f71f9"},"vehicle_type_id":"4","last_reported":1727521692,"current_range_meters":36800,"station_id":"ce4bhn12rcd13ifvqgqg","pricing_plan_id":"cebpf4jnsgd1na2vs0mg"},{"bike_id":"c82015d7-39b7-4550-86aa-0b30127499a3","system_id":"levelo_inurba_marseille","lat":43.27616,"lon":5.36112,"is_reserved":false,"is_disabled":false,"rental_uris":{"android":"levelo://app?vid=c82015d7-39b7-4550-86aa-0b30127499a3","ios":"levelo://app?vid=c82015d7-39b7-4550-86aa-0b30127499a3"},"vehicle_type_id":"4","last_reported":1727521692,"current_range_meters":38000,"station_id":"ce4bgj92rcd13ifvqbe0","pricing_plan_id":"cebpf4jnsgd1na2vs0mg"},{"bike_id":"9d214859-c279-42fe-99f7-b2f6ade3f107","system_id":"levelo_inurba_marseille","lat":43.30469,"lon":5.37905,"is_reserved":false,"is_disabled":false,"rental_uris":{"android":"levelo://app?vid=9d214859-c279-42fe-99f7-b2f6ade3f107","ios":"levelo://app?vid=9d214859-c279-42fe-99f7-b2f6ade3f107"},"vehicle_type_id":"4","last_reported":1727521692,"current_range_meters":38800,"station_id":"ce4bgup2rcd13ifvqcn0","pricing_plan_id":"cebpf4jnsgd1na2vs0mg"},{"bike_id":"afe5fcf5-fe1a-4d30-bfcd-4452c0d39cee","system_id":"levelo_inurba_marseille","lat":43.30149,"lon":5.38095,"is_reserved":false,"is_disabled":false,"rental_uris":{"android":"levelo://app?vid=afe5fcf5-fe1a-4d30-bfcd-4452c0d39cee","ios":"levelo://app?vid=afe5fcf5-fe1a-4d30-bfcd-4452c0d39cee"},"vehicle_type_id":"4","last_reported":1727521692,"current_range_meters":34000,"station_id":"ce4bgjp2rcd13ifvqbh0","pricing_plan_id":"cebpf4jnsgd1na2vs0mg"},{"bike_id":"7ca25bb4-b65d-4b5f-9852-ae78b5dab8a0","system_id":"levelo_inurba_marseille","lat":43.29037,"lon":5.39972,"is_reserved":false,"is_disabled":false,"rental_uris":{"android":"levelo://app?vid=7ca25bb4-b65d-4b5f-9852-ae78b5dab8a0","ios":"levelo://app?vid=7ca25bb4-b65d-4b5f-9852-ae78b5dab8a0"},"vehicle_type_id":"4","last_reported":1727521692,"current_range_meters":38800,"station_id":"ce4bh392rcd13ifvqdm0","pricing_plan_id":"cebpf4jnsgd1na2vs0mg"},{"bike_id":"e70a85af-042c-45b9-b461-16d315ee70d5","system_id":"levelo_inurba_marseille","lat":43.30552,"lon":5.36534,"is_reserved":false,"is_disabled":false,"rental_uris":{"android":"levelo://app?vid=e70a85af-042c-45b9-b461-16d315ee70d5","ios":"levelo://app?vid=e70a85af-042c-45b9-b461-16d315ee70d5"},"vehicle_type_id":"4","last_reported":1727521692,"current_range_meters":38400,"station_id":"ce4bgs12rcd13ifvqcag","pricing_plan_id":"cebpf4jnsgd1na2vs0mg"},{"bike_id":"6a9fc82e-9bb4-4670-844d-21b1e2058bb4","system_id":"levelo_inurba_marseille","lat":43.3078,"lon":5.37647,"is_reserved":false,"is_disabled":false,"rental_uris":{"android":"levelo://app?vid=6a9fc82e-9bb4-4670-844d-21b1e2058bb4","ios":"levelo://app?vid=6a9fc82e-9bb4-4670-844d-21b1e2058bb4"},"vehicle_type_id":"4","last_reported":1727521692,"current_range_meters":32800,"station_id":"ce4bgv92rcd13ifvqcq0","pricing_plan_id":"cebpf4jnsgd1na2vs0mg"},{"bike_id":"fcf7874b-cfb2-47ef-a9c5-89a95a1b831f","system_id":"levelo_inurba_marseille","lat":43.23193,"lon":5.39971,"is_reserved":false,"is_disabled":false,"rental_uris":{"android":"levelo://app?vid=fcf7874b-cfb2-47ef-a9c5-89a95a1b831f","ios":"levelo://app?vid=fcf7874b-cfb2-47ef-a9c5-89a95a1b831f"},"vehicle_type_id":"4","last_reported":1727521692,"current_range_meters":20400,"station_id":"ce4bhn12rcd13ifvqgqg","pricing_plan_id":"cebpf4jnsgd1na2vs0mg"},{"bike_id":"3371e9e2-12bd-492f-9ad0-79333cd40a8a","system_id":"levelo_inurba_marseille","lat":43.301147,"lon":5.391693,"is_reserved":false,"is_disabled":false,"rental_uris":{"android":"levelo://app?vid=3371e9e2-12bd-492f-9ad0-79333cd40a8a","ios":"levelo://app?vid=3371e9e2-12bd-492f-9ad0-79333cd40a8a"},"vehicle_type_id":"4","last_reported":1727521692,"current_range_meters":30000,"station_id":"","pricing_plan_id":"cebpf4jnsgd1na2vs0mg"},{"bike_id":"869403bb-4fcc-4f66-8ec3-05c3e0e700b7","system_id":"levelo_inurba_marseille","lat":43.27417,"lon":5.39412,"is_reserved":false,"is_disabled":false,"rental_uris":{"android":"levelo://app?vid=869403bb-4fcc-4f66-8ec3-05c3e0e700b7","ios":"levelo://app?vid=869403bb-4fcc-4f66-8ec3-05c3e0e700b7"},"vehicle_type_id":"4","last_reported":1727521692,"current_range_meters":39200,"station_id":"ce4bhdp2rcd13ifvqf20","pricing_plan_id":"cebpf4jnsgd1na2vs0mg"},{"bike_id":"a71a48db-b62a-4a36-9988-3e8b8475ae23","system_id":"levelo_inurba_marseille","lat":43.27052,"lon":5.40256,"is_reserved":false,"is_disabled":false,"rental_uris":{"android":"levelo://app?vid=a71a48db-b62a-4a36-9988-3e8b8475ae23","ios":"levelo://app?vid=a71a48db-b62a-4a36-9988-3e8b8475ae23"},"vehicle_type_id":"4","last_reported":1727521692,"current_range_meters":4400,"station_id":"ce4bhk92rcd13ifvqgc0","pricing_plan_id":"cebpf4jnsgd1na2vs0mg"},{"bike_id":"d11a141c-e7c8-456d-bb17-614ed5f53a69","system_id":"levelo_inurba_marseille","lat":43.28612,"lon":5.37063,"is_reserved":false,"is_disabled":false,"rental_uris":{"android":"levelo://app?vid=d11a141c-e7c8-456d-bb17-614ed5f53a69","ios":"levelo://app?vid=d11a141c-e7c8-456d-bb17-614ed5f53a69"},"vehicle_type_id":"4","last_reported":1727521692,"current_range_meters":25200,"station_id":"ce4bht12rcd13ifvqi60","pricing_plan_id":"cebpf4jnsgd1na2vs0mg"},{"bike_id":"42c29691-2fc8-42c6-8cf2-6e1e331d9372","system_id":"levelo_inurba_marseille","lat":43.28152,"lon":5.42644,"is_reserved":false,"is_disabled":false,"rental_uris":{"android":"levelo://app?vid=42c29691-2fc8-42c6-8cf2-6e1e331d9372","ios":"levelo://app?vid=42c29691-2fc8-42c6-8cf2-6e1e331d9372"},"vehicle_type_id":"4","last_reported":1727521692,"current_range_meters":35200,"station_id":"ce4bhnh2rcd13ifvqgug","pricing_plan_id":"cebpf4jnsgd1na2vs0mg"},{"bike_id":"d226e5ca-bcb7-41f2-9194-f2dc62a32499","system_id":"levelo_inurba_marseille","lat":43.284607,"lon":5.386212,"is_reserved":false,"is_disabled":false,"rental_uris":{"android":"levelo://app?vid=d226e5ca-bcb7-41f2-9194-f2dc62a32499","ios":"levelo://app?vid=d226e5ca-bcb7-41f2-9194-f2dc62a32499"},"vehicle_type_id":"4","last_reported":1727521692,"current_range_meters":30000,"station_id":"ce4bh8p2rcd13ifvqeb0","pricing_plan_id":"cebpf4jnsgd1na2vs0mg"},{"bike_id":"cf2a99f0-171d-46e2-b5f9-b8e518581e33","system_id":"levelo_inurba_marseille","lat":43.23962,"lon":5.36625,"is_reserved":false,"is_disabled":false,"rental_uris":{"android":"levelo://app?vid=cf2a99f0-171d-46e2-b5f9-b8e518581e33","ios":"levelo://app?vid=cf2a99f0-171d-46e2-b5f9-b8e518581e33"},"vehicle_type_id":"4","last_reported":1727521692,"current_range_meters":37600,"station_id":"ce4bhi12rcd13ifvqfp0","pricing_plan_id":"cebpf4jnsgd1na2vs0mg"},{"bike_id":"c7d25069-0ed9-4804-8588-f83328902b3b","system_id":"levelo_inurba_marseille","lat":43.24806,"lon":5.37454,"is_reserved":false,"is_disabled":false,"rental_uris":{"android":"levelo://app?vid=c7d25069-0ed9-4804-8588-f83328902b3b","ios":"levelo://app?vid=c7d25069-0ed9-4804-8588-f83328902b3b"},"vehicle_type_id":"4","last_reported":1727521692,"current_range_meters":23200,"station_id":"ce4bhgh2rcd13ifvqfb0","pricing_plan_id":"cebpf4jnsgd1na2vs0mg"},{"bike_id":"1b1b12e9-f9a2-4c74-8380-36908fa1f549","system_id":"levelo_inurba_marseille","lat":43.23965,"lon":5.36627,"is_reserved":false,"is_disabled":false,"rental_uris":{"android":"levelo://app?vid=1b1b12e9-f9a2-4c74-8380-36908fa1f549","ios":"levelo://app?vid=1b1b12e9-f9a2-4c74-8380-36908fa1f549"},"vehicle_type_id":"4","last_reported":1727521692,"current_range_meters":18800,"station_id":"ce4bhi12rcd13ifvqfp0","pricing_plan_id":"cebpf4jnsgd1na2vs0mg"},{"bike_id":"9813bfbe-daed-4c00-ace9-0d66d2e83d16","system_id":"levelo_inurba_marseille","lat":43.23143,"lon":5.4372,"is_reserved":false,"is_disabled":false,"rental_uris":{"android":"levelo://app?vid=9813bfbe-daed-4c00-ace9-0d66d2e83d16","ios":"levelo://app?vid=9813bfbe-daed-4c00-ace9-0d66d2e83d16"},"vehicle_type_id":"4","last_reported":1727521692,"current_range_meters":28000,"station_id":"ce4bhmp2rcd13ifvqgog","pricing_plan_id":"cebpf4jnsgd1na2vs0mg"},{"bike_id":"fddc00de-756b-47da-ba31-aa32fb18be4a","system_id":"levelo_inurba_marseille","lat":43.26192,"lon":5.37445,"is_reserved":false,"is_disabled":false,"rental_uris":{"android":"levelo://app?vid=fddc00de-756b-47da-ba31-aa32fb18be4a","ios":"levelo://app?vid=fddc00de-756b-47da-ba31-aa32fb18be4a"},"vehicle_type_id":"4","last_reported":1727521692,"current_range_meters":10000,"station_id":"ce4bhgp2rcd13ifvqfc0","pricing_plan_id":"cebpf4jnsgd1na2vs0mg"},{"bike_id":"67d438ac-1416-4167-93da-8b29cf303bbc","system_id":"levelo_inurba_marseille","lat":43.293692,"lon":5.378463,"is_reserved":false,"is_disabled":false,"rental_uris":{"android":"levelo://app?vid=67d438ac-1416-4167-93da-8b29cf303bbc","ios":"levelo://app?vid=67d438ac-1416-4167-93da-8b29cf303bbc"},"vehicle_type_id":"4","last_reported":1727521692,"current_range_meters":25600,"station_id":"ce4bhl92rcd13ifvqghg","pricing_plan_id":"cebpf4jnsgd1na2vs0mg"},{"bike_id":"07962460-cd71-41fe-a875-dcfa4dd6e08e","system_id":"levelo_inurba_marseille","lat":43.27368,"lon":5.36246,"is_reserved":false,"is_disabled":false,"rental_uris":{"android":"levelo://app?vid=07962460-cd71-41fe-a875-dcfa4dd6e08e","ios":"levelo://app?vid=07962460-cd71-41fe-a875-dcfa4dd6e08e"},"vehicle_type_id":"4","last_reported":1727521692,"current_range_meters":25200,"station_id":"ce4bhbh2rcd13ifvqeo0","pricing_plan_id":"cebpf4jnsgd1na2vs0mg"},{"bike_id":"15b7b1ca-7be1-494c-91d7-9f056586706d","system_id":"levelo_inurba_marseille","lat":43.30353,"lon":5.41876,"is_reserved":false,"is_disabled":false,"rental_uris":{"android":"levelo://app?vid=15b7b1ca-7be1-494c-91d7-9f056586706d","ios":"levelo://app?vid=15b7b1ca-7be1-494c-91d7-9f056586706d"},"vehicle_type_id":"4","last_reported":1727521692,"current_range_meters":26800,"station_id":"ce4bhop2rcd13ifvqh7g","pricing_plan_id":"cebpf4jnsgd1na2vs0mg"},{"bike_id":"dac02d04-24ef-48ae-953c-a63e2cdd6441","system_id":"levelo_inurba_marseille","lat":43.30885,"lon":5.3897,"is_reserved":false,"is_disabled":false,"rental_uris":{"android":"levelo://app?vid=dac02d04-24ef-48ae-953c-a63e2cdd6441","ios":"levelo://app?vid=dac02d04-24ef-48ae-953c-a63e2cdd6441"},"vehicle_type_id":"4","last_reported":1727521692,"current_range_meters":34000,"station_id":"ce4bgg92rcd13ifvqb30","pricing_plan_id":"cebpf4jnsgd1na2vs0mg"},{"bike_id":"66090a2d-c8e8-444b-97ee-580cb870764a","system_id":"levelo_inurba_marseille","lat":43.27321,"lon":5.39101,"is_reserved":false,"is_disabled":false,"rental_uris":{"android":"levelo://app?vid=66090a2d-c8e8-444b-97ee-580cb870764a","ios":"levelo://app?vid=66090a2d-c8e8-444b-97ee-580cb870764a"},"vehicle_type_id":"4","last_reported":1727521692,"current_range_meters":8000,"station_id":"ce4bhgp2rcd13ifvqfe0","pricing_plan_id":"cebpf4jnsgd1na2vs0mg"},{"bike_id":"2fe97347-d74b-4853-a175-570a52cf3516","system_id":"levelo_inurba_marseille","lat":43.29619,"lon":5.37157,"is_reserved":false,"is_disabled":false,"rental_uris":{"android":"levelo://app?vid=2fe97347-d74b-4853-a175-570a52cf3516","ios":"levelo://app?vid=2fe97347-d74b-4853-a175-570a52cf3516"},"vehicle_type_id":"4","last_reported":1727521692,"current_range_meters":39200,"station_id":"ce4bgnh2rcd13ifvqc0g","pricing_plan_id":"cebpf4jnsgd1na2vs0mg"},{"bike_id":"2136dc8f-b3dd-481b-af5c-ffa324e4a411","system_id":"levelo_inurba_marseille","lat":43.2558,"lon":5.38239,"is_reserved":false,"is_disabled":false,"rental_uris":{"android":"levelo://app?vid=2136dc8f-b3dd-481b-af5c-ffa324e4a411","ios":"levelo://app?vid=2136dc8f-b3dd-481b-af5c-ffa324e4a411"},"vehicle_type_id":"4","last_reported":1727521692,"current_range_meters":31200,"station_id":"ce4bhih2rcd13ifvqfs0","pricing_plan_id":"cebpf4jnsgd1na2vs0mg"},{"bike_id":"e30506ae-b408-4c63-8b96-5db53f14df86","system_id":"levelo_inurba_marseille","lat":43.24805,"lon":5.37454,"is_reserved":false,"is_disabled":false,"rental_uris":{"android":"levelo://app?vid=e30506ae-b408-4c63-8b96-5db53f14df86","ios":"levelo://app?vid=e30506ae-b408-4c63-8b96-5db53f14df86"},"vehicle_type_id":"4","last_reported":1727521692,"current_range_meters":16800,"station_id":"ce4bhgh2rcd13ifvqfb0","pricing_plan_id":"cebpf4jnsgd1na2vs0mg"},{"bike_id":"cef7b0e4-df87-48ab-b380-59c7db40cc58","system_id":"levelo_inurba_marseille","lat":43.29848,"lon":5.36273,"is_reserved":false,"is_disabled":false,"rental_uris":{"android":"levelo://app?vid=cef7b0e4-df87-48ab-b380-59c7db40cc58","ios":"levelo://app?vid=cef7b0e4-df87-48ab-b380-59c7db40cc58"},"vehicle_type_id":"4","last_reported":1727521692,"current_range_meters":11600,"station_id":"ce4bgpp2rcd13ifvqc3g","pricing_plan_id":"cebpf4jnsgd1na2vs0mg"},{"bike_id":"71b65365-44a7-49d8-9865-622c311209c8","system_id":"levelo_inurba_marseille","lat":43.30158,"lon":5.38084,"is_reserved":false,"is_disabled":false,"rental_uris":{"android":"levelo://app?vid=71b65365-44a7-49d8-9865-622c311209c8","ios":"levelo://app?vid=71b65365-44a7-49d8-9865-622c311209c8"},"vehicle_type_id":"4","last_reported":1727521692,"current_range_meters":38800,"station_id":"ce4bgjp2rcd13ifvqbh0","pricing_plan_id":"cebpf4jnsgd1na2vs0mg"},{"bike_id":"a1663e52-4884-4761-8651-845682d6aa9d","system_id":"levelo_inurba_marseille","lat":43.22928,"lon":5.35374,"is_reserved":false,"is_disabled":false,"rental_uris":{"android":"levelo://app?vid=a1663e52-4884-4761-8651-845682d6aa9d","ios":"levelo://app?vid=a1663e52-4884-4761-8651-845682d6aa9d"},"vehicle_type_id":"4","last_reported":1727521692,"current_range_meters":32400,"station_id":"cpo3532slgdg3j2ikp40","pricing_plan_id":"cebpf4jnsgd1na2vs0mg"},{"bike_id":"31d3c74d-f20a-4edf-9c40-1231eb4e8f43","system_id":"levelo_inurba_marseille","lat":43.29727,"lon":5.37688,"is_reserved":false,"is_disabled":false,"rental_uris":{"android":"levelo://app?vid=31d3c74d-f20a-4edf-9c40-1231eb4e8f43","ios":"levelo://app?vid=31d3c74d-f20a-4edf-9c40-1231eb4e8f43"},"vehicle_type_id":"4","last_reported":1727521692,"current_range_meters":39200,"station_id":"ce4bgkh2rcd13ifvqbl0","pricing_plan_id":"cebpf4jnsgd1na2vs0mg"},{"bike_id":"f1148917-41d9-4bef-b149-55965b94c571","system_id":"levelo_inurba_marseille","lat":43.29607,"lon":5.38108,"is_reserved":false,"is_disabled":false,"rental_uris":{"android":"levelo://app?vid=f1148917-41d9-4bef-b149-55965b94c571","ios":"levelo://app?vid=f1148917-41d9-4bef-b149-55965b94c571"},"vehicle_type_id":"4","last_reported":1727521692,"current_range_meters":12000,"station_id":"ce4bgl12rcd13ifvqbo0","pricing_plan_id":"cebpf4jnsgd1na2vs0mg"},{"bike_id":"3356f04f-2dbe-4719-a2ec-91434d94b64b","system_id":"levelo_inurba_marseille","lat":43.29005,"lon":5.35602,"is_reserved":false,"is_disabled":false,"rental_uris":{"android":"levelo://app?vid=3356f04f-2dbe-4719-a2ec-91434d94b64b","ios":"levelo://app?vid=3356f04f-2dbe-4719-a2ec-91434d94b64b"},"vehicle_type_id":"4","last_reported":1727521692,"current_range_meters":10800,"station_id":"ce4bhb92rcd13ifvqen0","pricing_plan_id":"cebpf4jnsgd1na2vs0mg"},{"bike_id":"2ae6ccef-710d-4c66-9e4e-d025d2e134a8","system_id":"levelo_inurba_marseille","lat":43.29569,"lon":5.37509,"is_reserved":false,"is_disabled":false,"rental_uris":{"android":"levelo://app?vid=2ae6ccef-710d-4c66-9e4e-d025d2e134a8","ios":"levelo://app?vid=2ae6ccef-710d-4c66-9e4e-d025d2e134a8"},"vehicle_type_id":"4","last_reported":1727521692,"current_range_meters":30000,"station_id":"ce4bgh92rcd13ifvqb50","pricing_plan_id":"cebpf4jnsgd1na2vs0mg"},{"bike_id":"144bc24b-c2f7-44f0-a3bd-99371a0e04b8","system_id":"levelo_inurba_marseille","lat":43.29537,"lon":5.37496,"is_reserved":false,"is_disabled":false,"rental_uris":{"android":"levelo://app?vid=144bc24b-c2f7-44f0-a3bd-99371a0e04b8","ios":"levelo://app?vid=144bc24b-c2f7-44f0-a3bd-99371a0e04b8"},"vehicle_type_id":"4","last_reported":1727521692,"current_range_meters":38800,"station_id":"ce4bgkp2rcd13ifvqbmg","pricing_plan_id":"cebpf4jnsgd1na2vs0mg"},{"bike_id":"8bc2963e-f24d-4af4-8d3d-ee0a94762b5c","system_id":"levelo_inurba_marseille","lat":43.24998,"lon":5.38931,"is_reserved":false,"is_disabled":false,"rental_uris":{"android":"levelo://app?vid=8bc2963e-f24d-4af4-8d3d-ee0a94762b5c","ios":"levelo://app?vid=8bc2963e-f24d-4af4-8d3d-ee0a94762b5c"},"vehicle_type_id":"4","last_reported":1727521692,"current_range_meters":18800,"station_id":"ce4bhgp2rcd13ifvqfd0","pricing_plan_id":"cebpf4jnsgd1na2vs0mg"},{"bike_id":"91aedcbb-827d-4b04-858c-05e396b55066","system_id":"levelo_inurba_marseille","lat":43.29196,"lon":5.3931,"is_reserved":false,"is_disabled":false,"rental_uris":{"android":"levelo://app?vid=91aedcbb-827d-4b04-858c-05e396b55066","ios":"levelo://app?vid=91aedcbb-827d-4b04-858c-05e396b55066"},"vehicle_type_id":"4","last_reported":1727521692,"current_range_meters":30800,"station_id":"ce4bh192rcd13ifvqdd0","pricing_plan_id":"cebpf4jnsgd1na2vs0mg"},{"bike_id":"78d5a258-2b1f-45f2-9253-05903f545a0a","system_id":"levelo_inurba_marseille","lat":43.29717,"lon":5.3768,"is_reserved":false,"is_disabled":false,"rental_uris":{"android":"levelo://app?vid=78d5a258-2b1f-45f2-9253-05903f545a0a","ios":"levelo://app?vid=78d5a258-2b1f-45f2-9253-05903f545a0a"},"vehicle_type_id":"4","last_reported":1727521692,"current_range_meters":22400,"station_id":"ce4bgkh2rcd13ifvqbl0","pricing_plan_id":"cebpf4jnsgd1na2vs0mg"},{"bike_id":"c77948d6-99d3-41c1-87d1-bd2e1ee920a0","system_id":"levelo_inurba_marseille","lat":43.29523,"lon":5.37511,"is_reserved":false,"is_disabled":false,"rental_uris":{"android":"levelo://app?vid=c77948d6-99d3-41c1-87d1-bd2e1ee920a0","ios":"levelo://app?vid=c77948d6-99d3-41c1-87d1-bd2e1ee920a0"},"vehicle_type_id":"4","last_reported":1727521692,"current_range_meters":30400,"station_id":"ce4bgkp2rcd13ifvqbmg","pricing_plan_id":"cebpf4jnsgd1na2vs0mg"},{"bike_id":"de8323f9-d012-4d9c-b01c-767c8be9d592","system_id":"levelo_inurba_marseille","lat":43.2655,"lon":5.37285,"is_reserved":false,"is_disabled":false,"rental_uris":{"android":"levelo://app?vid=de8323f9-d012-4d9c-b01c-767c8be9d592","ios":"levelo://app?vid=de8323f9-d012-4d9c-b01c-767c8be9d592"},"vehicle_type_id":"4","last_reported":1727521692,"current_range_meters":38800,"station_id":"ce4bhg12rcd13ifvqf70","pricing_plan_id":"cebpf4jnsgd1na2vs0mg"},{"bike_id":"bf15cf37-3a4c-4635-b28c-358f55c15bae","system_id":"levelo_inurba_marseille","lat":43.33739,"lon":5.37468,"is_reserved":false,"is_disabled":false,"rental_uris":{"android":"levelo://app?vid=bf15cf37-3a4c-4635-b28c-358f55c15bae","ios":"levelo://app?vid=bf15cf37-3a4c-4635-b28c-358f55c15bae"},"vehicle_type_id":"4","last_reported":1727521692,"current_range_meters":25200,"station_id":"","pricing_plan_id":"cebpf4jnsgd1na2vs0mg"},{"bike_id":"cd2327c7-af60-4af9-9eff-465722c02c8b","system_id":"levelo_inurba_marseille","lat":43.33617,"lon":5.41018,"is_reserved":false,"is_disabled":false,"rental_uris":{"android":"levelo://app?vid=cd2327c7-af60-4af9-9eff-465722c02c8b","ios":"levelo://app?vid=cd2327c7-af60-4af9-9eff-465722c02c8b"},"vehicle_type_id":"4","last_reported":1727521692,"current_range_meters":8800,"station_id":"ce4bhqh2rcd13ifvqhmg","pricing_plan_id":"cebpf4jnsgd1na2vs0mg"},{"bike_id":"18f4be4d-ea10-4ba9-8b8f-8f36b3fce747","system_id":"levelo_inurba_marseille","lat":43.29938,"lon":5.36538,"is_reserved":false,"is_disabled":false,"rental_uris":{"android":"levelo://app?vid=18f4be4d-ea10-4ba9-8b8f-8f36b3fce747","ios":"levelo://app?vid=18f4be4d-ea10-4ba9-8b8f-8f36b3fce747"},"vehicle_type_id":"4","last_reported":1727521692,"current_range_meters":35600,"station_id":"ce4bgm92rcd13ifvqbr0","pricing_plan_id":"cebpf4jnsgd1na2vs0mg"},{"bike_id":"6aa95821-8b44-42f3-9d07-8b4a4001e2b1","system_id":"levelo_inurba_marseille","lat":43.23952,"lon":5.36638,"is_reserved":false,"is_disabled":false,"rental_uris":{"android":"levelo://app?vid=6aa95821-8b44-42f3-9d07-8b4a4001e2b1","ios":"levelo://app?vid=6aa95821-8b44-42f3-9d07-8b4a4001e2b1"},"vehicle_type_id":"4","last_reported":1727521692,"current_range_meters":33600,"station_id":"ce4bhi12rcd13ifvqfp0","pricing_plan_id":"cebpf4jnsgd1na2vs0mg"},{"bike_id":"a63d4449-4f5a-4f1c-9a3c-27c8d74bd2a3","system_id":"levelo_inurba_marseille","lat":43.2439,"lon":5.37066,"is_reserved":false,"is_disabled":false,"rental_uris":{"android":"levelo://app?vid=a63d4449-4f5a-4f1c-9a3c-27c8d74bd2a3","ios":"levelo://app?vid=a63d4449-4f5a-4f1c-9a3c-27c8d74bd2a3"},"vehicle_type_id":"4","last_reported":1727521692,"current_range_meters":16400,"station_id":"ce4bhhh2rcd13ifvqfk0","pricing_plan_id":"cebpf4jnsgd1na2vs0mg"},{"bike_id":"fdc60fbf-62c6-4343-b28f-fdca3d3b4ed2","system_id":"levelo_inurba_marseille","lat":43.25498,"lon":5.37647,"is_reserved":false,"is_disabled":false,"rental_uris":{"android":"levelo://app?vid=fdc60fbf-62c6-4343-b28f-fdca3d3b4ed2","ios":"levelo://app?vid=fdc60fbf-62c6-4343-b28f-fdca3d3b4ed2"},"vehicle_type_id":"4","last_reported":1727521692,"current_range_meters":33200,"station_id":"ce4bhh12rcd13ifvqff0","pricing_plan_id":"cebpf4jnsgd1na2vs0mg"},{"bike_id":"6b525450-4099-4e0b-bd11-2a201e3d7d9e","system_id":"levelo_inurba_marseille","lat":43.29174,"lon":5.37138,"is_reserved":false,"is_disabled":false,"rental_uris":{"android":"levelo://app?vid=6b525450-4099-4e0b-bd11-2a201e3d7d9e","ios":"levelo://app?vid=6b525450-4099-4e0b-bd11-2a201e3d7d9e"},"vehicle_type_id":"4","last_reported":1727521692,"current_range_meters":4000,"station_id":"ce4bha92rcd13ifvqeh0","pricing_plan_id":"cebpf4jnsgd1na2vs0mg"},{"bike_id":"b82c7a12-fd76-4636-a0e7-ae4e5fd0336d","system_id":"levelo_inurba_marseille","lat":43.28929,"lon":5.38408,"is_reserved":false,"is_disabled":false,"rental_uris":{"android":"levelo://app?vid=b82c7a12-fd76-4636-a0e7-ae4e5fd0336d","ios":"levelo://app?vid=b82c7a12-fd76-4636-a0e7-ae4e5fd0336d"},"vehicle_type_id":"4","last_reported":1727521692,"current_range_meters":24400,"station_id":"ce4bh612rcd13ifvqe6g","pricing_plan_id":"cebpf4jnsgd1na2vs0mg"},{"bike_id":"1daf26b8-2909-42b1-9af7-bcfdfff8297e","system_id":"levelo_inurba_marseille","lat":43.2317,"lon":5.39976,"is_reserved":false,"is_disabled":false,"rental_uris":{"android":"levelo://app?vid=1daf26b8-2909-42b1-9af7-bcfdfff8297e","ios":"levelo://app?vid=1daf26b8-2909-42b1-9af7-bcfdfff8297e"},"vehicle_type_id":"4","last_reported":1727521692,"current_range_meters":36800,"station_id":"ce4bhn12rcd13ifvqgqg","pricing_plan_id":"cebpf4jnsgd1na2vs0mg"},{"bike_id":"e88390ac-2d5b-480a-b35b-ffb87810f56d","system_id":"levelo_inurba_marseille","lat":43.27306,"lon":5.39091,"is_reserved":false,"is_disabled":false,"rental_uris":{"android":"levelo://app?vid=e88390ac-2d5b-480a-b35b-ffb87810f56d","ios":"levelo://app?vid=e88390ac-2d5b-480a-b35b-ffb87810f56d"},"vehicle_type_id":"4","last_reported":1727521692,"current_range_meters":34800,"station_id":"ce4bhgp2rcd13ifvqfe0","pricing_plan_id":"cebpf4jnsgd1na2vs0mg"},{"bike_id":"ed8c0c2a-49b2-4987-a9ba-4dd1ce890fe6","system_id":"levelo_inurba_marseille","lat":43.29717,"lon":5.37688,"is_reserved":false,"is_disabled":false,"rental_uris":{"android":"levelo://app?vid=ed8c0c2a-49b2-4987-a9ba-4dd1ce890fe6","ios":"levelo://app?vid=ed8c0c2a-49b2-4987-a9ba-4dd1ce890fe6"},"vehicle_type_id":"4","last_reported":1727521692,"current_range_meters":38800,"station_id":"ce4bgkh2rcd13ifvqbl0","pricing_plan_id":"cebpf4jnsgd1na2vs0mg"},{"bike_id":"e2f1c042-249e-4ac6-8381-2fe14095f9a0","system_id":"levelo_inurba_marseille","lat":43.28407,"lon":5.37521,"is_reserved":false,"is_disabled":false,"rental_uris":{"android":"levelo://app?vid=e2f1c042-249e-4ac6-8381-2fe14095f9a0","ios":"levelo://app?vid=e2f1c042-249e-4ac6-8381-2fe14095f9a0"},"vehicle_type_id":"4","last_reported":1727521692,"current_range_meters":37600,"station_id":"ce4bh412rcd13ifvqds0","pricing_plan_id":"cebpf4jnsgd1na2vs0mg"},{"bike_id":"f373052a-0b53-4069-8a1a-b7e06d0eca83","system_id":"levelo_inurba_marseille","lat":43.29305,"lon":5.37175,"is_reserved":false,"is_disabled":false,"rental_uris":{"android":"levelo://app?vid=f373052a-0b53-4069-8a1a-b7e06d0eca83","ios":"levelo://app?vid=f373052a-0b53-4069-8a1a-b7e06d0eca83"},"vehicle_type_id":"4","last_reported":1727521692,"current_range_meters":38400,"station_id":"ce4bgh92rcd13ifvqb40","pricing_plan_id":"cebpf4jnsgd1na2vs0mg"},{"bike_id":"4bec3a7d-69b5-4087-96f4-4e0bbed86a87","system_id":"levelo_inurba_marseille","lat":43.31281,"lon":5.40172,"is_reserved":false,"is_disabled":false,"rental_uris":{"android":"levelo://app?vid=4bec3a7d-69b5-4087-96f4-4e0bbed86a87","ios":"levelo://app?vid=4bec3a7d-69b5-4087-96f4-4e0bbed86a87"},"vehicle_type_id":"4","last_reported":1727521692,"current_range_meters":24800,"station_id":"ce4bh092rcd13ifvqd30","pricing_plan_id":"cebpf4jnsgd1na2vs0mg"},{"bike_id":"6bbe7017-d8c4-4797-9de4-8c9de6239e13","system_id":"levelo_inurba_marseille","lat":43.24996,"lon":5.3893,"is_reserved":false,"is_disabled":false,"rental_uris":{"android":"levelo://app?vid=6bbe7017-d8c4-4797-9de4-8c9de6239e13","ios":"levelo://app?vid=6bbe7017-d8c4-4797-9de4-8c9de6239e13"},"vehicle_type_id":"4","last_reported":1727521692,"current_range_meters":35600,"station_id":"ce4bhgp2rcd13ifvqfd0","pricing_plan_id":"cebpf4jnsgd1na2vs0mg"},{"bike_id":"3b170ecf-4bbb-421f-886d-94818fba1de8","system_id":"levelo_inurba_marseille","lat":43.28484,"lon":5.40026,"is_reserved":false,"is_disabled":false,"rental_uris":{"android":"levelo://app?vid=3b170ecf-4bbb-421f-886d-94818fba1de8","ios":"levelo://app?vid=3b170ecf-4bbb-421f-886d-94818fba1de8"},"vehicle_type_id":"4","last_reported":1727521692,"current_range_meters":37600,"station_id":"ce4bh2h2rcd13ifvqdh0","pricing_plan_id":"cebpf4jnsgd1na2vs0mg"},{"bike_id":"a352d782-a71e-4afa-b7a0-5a11c32e90eb","system_id":"levelo_inurba_marseille","lat":43.23963,"lon":5.36626,"is_reserved":false,"is_disabled":false,"rental_uris":{"android":"levelo://app?vid=a352d782-a71e-4afa-b7a0-5a11c32e90eb","ios":"levelo://app?vid=a352d782-a71e-4afa-b7a0-5a11c32e90eb"},"vehicle_type_id":"4","last_reported":1727521692,"current_range_meters":21600,"station_id":"ce4bhi12rcd13ifvqfp0","pricing_plan_id":"cebpf4jnsgd1na2vs0mg"},{"bike_id":"a2930f9b-d270-4c8a-897e-ce534e0919b3","system_id":"levelo_inurba_marseille","lat":43.24176,"lon":5.39731,"is_reserved":false,"is_disabled":false,"rental_uris":{"android":"levelo://app?vid=a2930f9b-d270-4c8a-897e-ce534e0919b3","ios":"levelo://app?vid=a2930f9b-d270-4c8a-897e-ce534e0919b3"},"vehicle_type_id":"4","last_reported":1727521692,"current_range_meters":24800,"station_id":"ce4bhn12rcd13ifvqgpg","pricing_plan_id":"cebpf4jnsgd1na2vs0mg"},{"bike_id":"207ffe99-f2e2-4d11-a577-0100f424763e","system_id":"levelo_inurba_marseille","lat":43.32052,"lon":5.41571,"is_reserved":false,"is_disabled":false,"rental_uris":{"android":"levelo://app?vid=207ffe99-f2e2-4d11-a577-0100f424763e","ios":"levelo://app?vid=207ffe99-f2e2-4d11-a577-0100f424763e"},"vehicle_type_id":"4","last_reported":1727521692,"current_range_meters":20800,"station_id":"ce4bhq92rcd13ifvqhkg","pricing_plan_id":"cebpf4jnsgd1na2vs0mg"},{"bike_id":"1b5c59f8-89a9-4e46-93f7-af2461aa251a","system_id":"levelo_inurba_marseille","lat":43.23954,"lon":5.36631,"is_reserved":false,"is_disabled":false,"rental_uris":{"android":"levelo://app?vid=1b5c59f8-89a9-4e46-93f7-af2461aa251a","ios":"levelo://app?vid=1b5c59f8-89a9-4e46-93f7-af2461aa251a"},"vehicle_type_id":"4","last_reported":1727521692,"current_range_meters":10800,"station_id":"ce4bhi12rcd13ifvqfp0","pricing_plan_id":"cebpf4jnsgd1na2vs0mg"},{"bike_id":"018f69c9-1870-424f-ba04-35ccfc2bcb50","system_id":"levelo_inurba_marseille","lat":43.29569,"lon":5.37532,"is_reserved":false,"is_disabled":false,"rental_uris":{"android":"levelo://app?vid=018f69c9-1870-424f-ba04-35ccfc2bcb50","ios":"levelo://app?vid=018f69c9-1870-424f-ba04-35ccfc2bcb50"},"vehicle_type_id":"4","last_reported":1727521692,"current_range_meters":30800,"station_id":"ce4bgh92rcd13ifvqb50","pricing_plan_id":"cebpf4jnsgd1na2vs0mg"},{"bike_id":"cf12fc66-6548-4eeb-b6ca-f48c6053200d","system_id":"levelo_inurba_marseille","lat":43.30942,"lon":5.39048,"is_reserved":false,"is_disabled":false,"rental_uris":{"android":"levelo://app?vid=cf12fc66-6548-4eeb-b6ca-f48c6053200d","ios":"levelo://app?vid=cf12fc66-6548-4eeb-b6ca-f48c6053200d"},"vehicle_type_id":"4","last_reported":1727521692,"current_range_meters":9600,"station_id":"ce4bgup2rcd13ifvqco0","pricing_plan_id":"cebpf4jnsgd1na2vs0mg"},{"bike_id":"5d3464d5-bc2b-41af-93eb-26a77939cfc7","system_id":"levelo_inurba_marseille","lat":43.27205,"lon":5.39179,"is_reserved":false,"is_disabled":false,"rental_uris":{"android":"levelo://app?vid=5d3464d5-bc2b-41af-93eb-26a77939cfc7","ios":"levelo://app?vid=5d3464d5-bc2b-41af-93eb-26a77939cfc7"},"vehicle_type_id":"4","last_reported":1727521692,"current_range_meters":38400,"station_id":"ce4bhhp2rcd13ifvqfm0","pricing_plan_id":"cebpf4jnsgd1na2vs0mg"},{"bike_id":"de712dca-eef3-49c0-8217-c5753198615c","system_id":"levelo_inurba_marseille","lat":43.28615,"lon":5.35103,"is_reserved":false,"is_disabled":false,"rental_uris":{"android":"levelo://app?vid=de712dca-eef3-49c0-8217-c5753198615c","ios":"levelo://app?vid=de712dca-eef3-49c0-8217-c5753198615c"},"vehicle_type_id":"4","last_reported":1727521692,"current_range_meters":11600,"station_id":"ce4bhch2rcd13ifvqeug","pricing_plan_id":"cebpf4jnsgd1na2vs0mg"},{"bike_id":"e41295e7-eac7-459b-9e87-03cc087f66e9","system_id":"levelo_inurba_marseille","lat":43.29261,"lon":5.38438,"is_reserved":false,"is_disabled":false,"rental_uris":{"android":"levelo://app?vid=e41295e7-eac7-459b-9e87-03cc087f66e9","ios":"levelo://app?vid=e41295e7-eac7-459b-9e87-03cc087f66e9"},"vehicle_type_id":"4","last_reported":1727521692,"current_range_meters":20000,"station_id":"ce4bh692rcd13ifvqea0","pricing_plan_id":"cebpf4jnsgd1na2vs0mg"},{"bike_id":"eb40660b-9cba-4839-95b5-e1a88988e1c0","system_id":"levelo_inurba_marseille","lat":43.29848,"lon":5.36276,"is_reserved":false,"is_disabled":false,"rental_uris":{"android":"levelo://app?vid=eb40660b-9cba-4839-95b5-e1a88988e1c0","ios":"levelo://app?vid=eb40660b-9cba-4839-95b5-e1a88988e1c0"},"vehicle_type_id":"4","last_reported":1727521692,"current_range_meters":38800,"station_id":"ce4bgpp2rcd13ifvqc3g","pricing_plan_id":"cebpf4jnsgd1na2vs0mg"},{"bike_id":"28fd6afa-8ab7-494a-b25a-1a23b319519f","system_id":"levelo_inurba_marseille","lat":43.3171,"lon":5.43708,"is_reserved":false,"is_disabled":false,"rental_uris":{"android":"levelo://app?vid=28fd6afa-8ab7-494a-b25a-1a23b319519f","ios":"levelo://app?vid=28fd6afa-8ab7-494a-b25a-1a23b319519f"},"vehicle_type_id":"4","last_reported":1727521692,"current_range_meters":37600,"station_id":"ce4bhp92rcd13ifvqhcg","pricing_plan_id":"cebpf4jnsgd1na2vs0mg"},{"bike_id":"cf728546-b453-4bbe-a199-05de8a38e92b","system_id":"levelo_inurba_marseille","lat":43.29853,"lon":5.36275,"is_reserved":false,"is_disabled":false,"rental_uris":{"android":"levelo://app?vid=cf728546-b453-4bbe-a199-05de8a38e92b","ios":"levelo://app?vid=cf728546-b453-4bbe-a199-05de8a38e92b"},"vehicle_type_id":"4","last_reported":1727521692,"current_range_meters":11600,"station_id":"ce4bgpp2rcd13ifvqc3g","pricing_plan_id":"cebpf4jnsgd1na2vs0mg"},{"bike_id":"31d9581d-789e-483b-ab43-a3d81f0839cd","system_id":"levelo_inurba_marseille","lat":43.23153,"lon":5.43697,"is_reserved":false,"is_disabled":false,"rental_uris":{"android":"levelo://app?vid=31d9581d-789e-483b-ab43-a3d81f0839cd","ios":"levelo://app?vid=31d9581d-789e-483b-ab43-a3d81f0839cd"},"vehicle_type_id":"4","last_reported":1727521692,"current_range_meters":16000,"station_id":"ce4bhmp2rcd13ifvqgog","pricing_plan_id":"cebpf4jnsgd1na2vs0mg"},{"bike_id":"eeac406d-c796-47e9-bcb1-35f89dd3acf4","system_id":"levelo_inurba_marseille","lat":43.29297,"lon":5.37171,"is_reserved":false,"is_disabled":false,"rental_uris":{"android":"levelo://app?vid=eeac406d-c796-47e9-bcb1-35f89dd3acf4","ios":"levelo://app?vid=eeac406d-c796-47e9-bcb1-35f89dd3acf4"},"vehicle_type_id":"4","last_reported":1727521692,"current_range_meters":24000,"station_id":"ce4bgh92rcd13ifvqb40","pricing_plan_id":"cebpf4jnsgd1na2vs0mg"},{"bike_id":"288e5056-2c53-4f49-984e-452925adfc75","system_id":"levelo_inurba_marseille","lat":43.28999,"lon":5.35603,"is_reserved":false,"is_disabled":false,"rental_uris":{"android":"levelo://app?vid=288e5056-2c53-4f49-984e-452925adfc75","ios":"levelo://app?vid=288e5056-2c53-4f49-984e-452925adfc75"},"vehicle_type_id":"4","last_reported":1727521692,"current_range_meters":38800,"station_id":"ce4bhb92rcd13ifvqen0","pricing_plan_id":"cebpf4jnsgd1na2vs0mg"},{"bike_id":"c1255339-eba0-4050-bad7-acc53bb368ee","system_id":"levelo_inurba_marseille","lat":43.29559,"lon":5.42289,"is_reserved":false,"is_disabled":false,"rental_uris":{"android":"levelo://app?vid=c1255339-eba0-4050-bad7-acc53bb368ee","ios":"levelo://app?vid=c1255339-eba0-4050-bad7-acc53bb368ee"},"vehicle_type_id":"4","last_reported":1727521692,"current_range_meters":38800,"station_id":"ce4bhph2rcd13ifvqhdg","pricing_plan_id":"cebpf4jnsgd1na2vs0mg"},{"bike_id":"2765eaf6-7ca6-4241-a191-b4d7fef45c56","system_id":"levelo_inurba_marseille","lat":43.32039,"lon":5.41568,"is_reserved":false,"is_disabled":false,"rental_uris":{"android":"levelo://app?vid=2765eaf6-7ca6-4241-a191-b4d7fef45c56","ios":"levelo://app?vid=2765eaf6-7ca6-4241-a191-b4d7fef45c56"},"vehicle_type_id":"4","last_reported":1727521692,"current_range_meters":34800,"station_id":"ce4bhq92rcd13ifvqhkg","pricing_plan_id":"cebpf4jnsgd1na2vs0mg"},{"bike_id":"ceda1303-8e1d-4d6f-8792-80ce6a3025d5","system_id":"levelo_inurba_marseille","lat":43.317083,"lon":5.436995,"is_reserved":false,"is_disabled":false,"rental_uris":{"android":"levelo://app?vid=ceda1303-8e1d-4d6f-8792-80ce6a3025d5","ios":"levelo://app?vid=ceda1303-8e1d-4d6f-8792-80ce6a3025d5"},"vehicle_type_id":"4","last_reported":1727521692,"current_range_meters":6800,"station_id":"ce4bhp92rcd13ifvqhcg","pricing_plan_id":"cebpf4jnsgd1na2vs0mg"},{"bike_id":"61e10d90-1bb9-4c62-abe7-5b2652018e77","system_id":"levelo_inurba_marseille","lat":43.30302,"lon":5.36912,"is_reserved":false,"is_disabled":false,"rental_uris":{"android":"levelo://app?vid=61e10d90-1bb9-4c62-abe7-5b2652018e77","ios":"levelo://app?vid=61e10d90-1bb9-4c62-abe7-5b2652018e77"},"vehicle_type_id":"4","last_reported":1727521692,"current_range_meters":36800,"station_id":"ce4bgqh2rcd13ifvqc5g","pricing_plan_id":"cebpf4jnsgd1na2vs0mg"},{"bike_id":"403999e6-396e-4ef4-99d3-c76a06c6f1a0","system_id":"levelo_inurba_marseille","lat":43.25484,"lon":5.37648,"is_reserved":false,"is_disabled":false,"rental_uris":{"android":"levelo://app?vid=403999e6-396e-4ef4-99d3-c76a06c6f1a0","ios":"levelo://app?vid=403999e6-396e-4ef4-99d3-c76a06c6f1a0"},"vehicle_type_id":"4","last_reported":1727521692,"current_range_meters":17200,"station_id":"ce4bhh12rcd13ifvqff0","pricing_plan_id":"cebpf4jnsgd1na2vs0mg"},{"bike_id":"07d609b8-d7b8-49e9-b9ee-262fc446f689","system_id":"levelo_inurba_marseille","lat":43.2953,"lon":5.38561,"is_reserved":false,"is_disabled":false,"rental_uris":{"android":"levelo://app?vid=07d609b8-d7b8-49e9-b9ee-262fc446f689","ios":"levelo://app?vid=07d609b8-d7b8-49e9-b9ee-262fc446f689"},"vehicle_type_id":"4","last_reported":1727521692,"current_range_meters":19600,"station_id":"ce4bgih2rcd13ifvqba0","pricing_plan_id":"cebpf4jnsgd1na2vs0mg"},{"bike_id":"3fc43bcd-c6b6-4207-aa1f-bff47eb4b88a","system_id":"levelo_inurba_marseille","lat":43.31994,"lon":5.38152,"is_reserved":false,"is_disabled":false,"rental_uris":{"android":"levelo://app?vid=3fc43bcd-c6b6-4207-aa1f-bff47eb4b88a","ios":"levelo://app?vid=3fc43bcd-c6b6-4207-aa1f-bff47eb4b88a"},"vehicle_type_id":"4","last_reported":1727521692,"current_range_meters":28800,"station_id":"ce4bhr12rcd13ifvqhpg","pricing_plan_id":"cebpf4jnsgd1na2vs0mg"},{"bike_id":"c049a602-ba08-44c1-a4f9-1cbd185f086f","system_id":"levelo_inurba_marseille","lat":43.2293,"lon":5.35376,"is_reserved":false,"is_disabled":false,"rental_uris":{"android":"levelo://app?vid=c049a602-ba08-44c1-a4f9-1cbd185f086f","ios":"levelo://app?vid=c049a602-ba08-44c1-a4f9-1cbd185f086f"},"vehicle_type_id":"4","last_reported":1727521692,"current_range_meters":6000,"station_id":"cpo3532slgdg3j2ikp40","pricing_plan_id":"cebpf4jnsgd1na2vs0mg"},{"bike_id":"2617c06e-e17f-43d0-bd86-b5a25b7cd217","system_id":"levelo_inurba_marseille","lat":43.27426,"lon":5.39408,"is_reserved":false,"is_disabled":false,"rental_uris":{"android":"levelo://app?vid=2617c06e-e17f-43d0-bd86-b5a25b7cd217","ios":"levelo://app?vid=2617c06e-e17f-43d0-bd86-b5a25b7cd217"},"vehicle_type_id":"4","last_reported":1727521692,"current_range_meters":8400,"station_id":"ce4bhdp2rcd13ifvqf20","pricing_plan_id":"cebpf4jnsgd1na2vs0mg"},{"bike_id":"050bf235-18dc-4608-a728-4332c6e7f289","system_id":"levelo_inurba_marseille","lat":43.28974,"lon":5.37828,"is_reserved":false,"is_disabled":false,"rental_uris":{"android":"levelo://app?vid=050bf235-18dc-4608-a728-4332c6e7f289","ios":"levelo://app?vid=050bf235-18dc-4608-a728-4332c6e7f289"},"vehicle_type_id":"4","last_reported":1727521692,"current_range_meters":38800,"station_id":"ce4bh9p2rcd13ifvqed0","pricing_plan_id":"cebpf4jnsgd1na2vs0mg"},{"bike_id":"04b6177d-c575-4b6e-8490-63c3c4fcb2fb","system_id":"levelo_inurba_marseille","lat":43.29851,"lon":5.36287,"is_reserved":false,"is_disabled":false,"rental_uris":{"android":"levelo://app?vid=04b6177d-c575-4b6e-8490-63c3c4fcb2fb","ios":"levelo://app?vid=04b6177d-c575-4b6e-8490-63c3c4fcb2fb"},"vehicle_type_id":"4","last_reported":1727521692,"current_range_meters":26000,"station_id":"ce4bgpp2rcd13ifvqc3g","pricing_plan_id":"cebpf4jnsgd1na2vs0mg"},{"bike_id":"eab435e6-b89d-4cdf-aa0e-050a5dab33ea","system_id":"levelo_inurba_marseille","lat":43.27942,"lon":5.41038,"is_reserved":false,"is_disabled":false,"rental_uris":{"android":"levelo://app?vid=eab435e6-b89d-4cdf-aa0e-050a5dab33ea","ios":"levelo://app?vid=eab435e6-b89d-4cdf-aa0e-050a5dab33ea"},"vehicle_type_id":"4","last_reported":1727521692,"current_range_meters":36800,"station_id":"ce4bhnp2rcd13ifvqh0g","pricing_plan_id":"cebpf4jnsgd1na2vs0mg"},{"bike_id":"063bbd6f-5d09-4418-8bbc-24cbd88cc1c7","system_id":"levelo_inurba_marseille","lat":43.29896,"lon":5.43665,"is_reserved":false,"is_disabled":false,"rental_uris":{"android":"levelo://app?vid=063bbd6f-5d09-4418-8bbc-24cbd88cc1c7","ios":"levelo://app?vid=063bbd6f-5d09-4418-8bbc-24cbd88cc1c7"},"vehicle_type_id":"4","last_reported":1727521692,"current_range_meters":23200,"station_id":"ce4bhpp2rcd13ifvqhfg","pricing_plan_id":"cebpf4jnsgd1na2vs0mg"},{"bike_id":"237be906-f998-4448-9588-92ef953a4d82","system_id":"levelo_inurba_marseille","lat":43.24161,"lon":5.36394,"is_reserved":false,"is_disabled":false,"rental_uris":{"android":"levelo://app?vid=237be906-f998-4448-9588-92ef953a4d82","ios":"levelo://app?vid=237be906-f998-4448-9588-92ef953a4d82"},"vehicle_type_id":"4","last_reported":1727521692,"current_range_meters":32000,"station_id":"cpo36qri1sfpv3e86is0","pricing_plan_id":"cebpf4jnsgd1na2vs0mg"},{"bike_id":"8ce4806c-bb9d-4fca-8f7a-c7ad41f52108","system_id":"levelo_inurba_marseille","lat":43.30149,"lon":5.38078,"is_reserved":false,"is_disabled":false,"rental_uris":{"android":"levelo://app?vid=8ce4806c-bb9d-4fca-8f7a-c7ad41f52108","ios":"levelo://app?vid=8ce4806c-bb9d-4fca-8f7a-c7ad41f52108"},"vehicle_type_id":"4","last_reported":1727521692,"current_range_meters":18800,"station_id":"ce4bgjp2rcd13ifvqbh0","pricing_plan_id":"cebpf4jnsgd1na2vs0mg"},{"bike_id":"cf75b762-b246-4899-a58b-3f89c40bd654","system_id":"levelo_inurba_marseille","lat":43.25105,"lon":5.40328,"is_reserved":false,"is_disabled":false,"rental_uris":{"android":"levelo://app?vid=cf75b762-b246-4899-a58b-3f89c40bd654","ios":"levelo://app?vid=cf75b762-b246-4899-a58b-3f89c40bd654"},"vehicle_type_id":"4","last_reported":1727521692,"current_range_meters":24000,"station_id":"ce4bhlh2rcd13ifvqgig","pricing_plan_id":"cebpf4jnsgd1na2vs0mg"},{"bike_id":"a5660248-e2bd-4022-9a0a-476b6e4659bf","system_id":"levelo_inurba_marseille","lat":43.29533,"lon":5.37507,"is_reserved":false,"is_disabled":false,"rental_uris":{"android":"levelo://app?vid=a5660248-e2bd-4022-9a0a-476b6e4659bf","ios":"levelo://app?vid=a5660248-e2bd-4022-9a0a-476b6e4659bf"},"vehicle_type_id":"4","last_reported":1727521692,"current_range_meters":22400,"station_id":"ce4bgkp2rcd13ifvqbmg","pricing_plan_id":"cebpf4jnsgd1na2vs0mg"},{"bike_id":"f699f0a9-2012-45e5-94eb-257ded50dcf1","system_id":"levelo_inurba_marseille","lat":43.31881,"lon":5.40738,"is_reserved":false,"is_disabled":false,"rental_uris":{"android":"levelo://app?vid=f699f0a9-2012-45e5-94eb-257ded50dcf1","ios":"levelo://app?vid=f699f0a9-2012-45e5-94eb-257ded50dcf1"},"vehicle_type_id":"4","last_reported":1727521692,"current_range_meters":36400,"station_id":"ce4bhq12rcd13ifvqhig","pricing_plan_id":"cebpf4jnsgd1na2vs0mg"},{"bike_id":"e9776310-b20e-4114-a6b6-30f9f0cfe653","system_id":"levelo_inurba_marseille","lat":43.26021,"lon":5.37549,"is_reserved":false,"is_disabled":false,"rental_uris":{"android":"levelo://app?vid=e9776310-b20e-4114-a6b6-30f9f0cfe653","ios":"levelo://app?vid=e9776310-b20e-4114-a6b6-30f9f0cfe653"},"vehicle_type_id":"4","last_reported":1727521692,"current_range_meters":38000,"station_id":"ce4bhgh2rcd13ifvqfa0","pricing_plan_id":"cebpf4jnsgd1na2vs0mg"},{"bike_id":"507ffe4a-6646-4f3d-8e0c-300f16a346b3","system_id":"levelo_inurba_marseille","lat":43.29,"lon":5.35612,"is_reserved":false,"is_disabled":false,"rental_uris":{"android":"levelo://app?vid=507ffe4a-6646-4f3d-8e0c-300f16a346b3","ios":"levelo://app?vid=507ffe4a-6646-4f3d-8e0c-300f16a346b3"},"vehicle_type_id":"4","last_reported":1727521692,"current_range_meters":32000,"station_id":"ce4bhb92rcd13ifvqen0","pricing_plan_id":"cebpf4jnsgd1na2vs0mg"},{"bike_id":"0701cf2a-674c-4c9d-af1e-6650acbaaf74","system_id":"levelo_inurba_marseille","lat":43.28379,"lon":5.37294,"is_reserved":false,"is_disabled":false,"rental_uris":{"android":"levelo://app?vid=0701cf2a-674c-4c9d-af1e-6650acbaaf74","ios":"levelo://app?vid=0701cf2a-674c-4c9d-af1e-6650acbaaf74"},"vehicle_type_id":"4","last_reported":1727521692,"current_range_meters":16800,"station_id":"","pricing_plan_id":"cebpf4jnsgd1na2vs0mg"},{"bike_id":"30f28c42-8f44-4840-8f55-7c3fa3026e99","system_id":"levelo_inurba_marseille","lat":43.27898,"lon":5.38012,"is_reserved":false,"is_disabled":false,"rental_uris":{"android":"levelo://app?vid=30f28c42-8f44-4840-8f55-7c3fa3026e99","ios":"levelo://app?vid=30f28c42-8f44-4840-8f55-7c3fa3026e99"},"vehicle_type_id":"4","last_reported":1727521692,"current_range_meters":38800,"station_id":"ce4bhf92rcd13ifvqf50","pricing_plan_id":"cebpf4jnsgd1na2vs0mg"},{"bike_id":"e16a2da9-5a72-4e8a-8de5-9c62056fac2a","system_id":"levelo_inurba_marseille","lat":43.27961,"lon":5.38741,"is_reserved":false,"is_disabled":false,"rental_uris":{"android":"levelo://app?vid=e16a2da9-5a72-4e8a-8de5-9c62056fac2a","ios":"levelo://app?vid=e16a2da9-5a72-4e8a-8de5-9c62056fac2a"},"vehicle_type_id":"4","last_reported":1727521692,"current_range_meters":28800,"station_id":"ce4bhg12rcd13ifvqf80","pricing_plan_id":"cebpf4jnsgd1na2vs0mg"},{"bike_id":"48dd8be6-53cb-4e56-80e9-0a26cb8e43ce","system_id":"levelo_inurba_marseille","lat":43.28153,"lon":5.42648,"is_reserved":false,"is_disabled":false,"rental_uris":{"android":"levelo://app?vid=48dd8be6-53cb-4e56-80e9-0a26cb8e43ce","ios":"levelo://app?vid=48dd8be6-53cb-4e56-80e9-0a26cb8e43ce"},"vehicle_type_id":"4","last_reported":1727521692,"current_range_meters":34800,"station_id":"ce4bhnh2rcd13ifvqgug","pricing_plan_id":"cebpf4jnsgd1na2vs0mg"},{"bike_id":"12f9708b-78a7-44bf-89fc-9bc5a8dcadce","system_id":"levelo_inurba_marseille","lat":43.28104,"lon":5.37834,"is_reserved":false,"is_disabled":false,"rental_uris":{"android":"levelo://app?vid=12f9708b-78a7-44bf-89fc-9bc5a8dcadce","ios":"levelo://app?vid=12f9708b-78a7-44bf-89fc-9bc5a8dcadce"},"vehicle_type_id":"4","last_reported":1727521692,"current_range_meters":27600,"station_id":"ce4bha12rcd13ifvqee0","pricing_plan_id":"cebpf4jnsgd1na2vs0mg"},{"bike_id":"001dcef2-87f7-4b07-bfe4-c5e01ebeebf7","system_id":"levelo_inurba_marseille","lat":43.2396,"lon":5.36628,"is_reserved":false,"is_disabled":false,"rental_uris":{"android":"levelo://app?vid=001dcef2-87f7-4b07-bfe4-c5e01ebeebf7","ios":"levelo://app?vid=001dcef2-87f7-4b07-bfe4-c5e01ebeebf7"},"vehicle_type_id":"4","last_reported":1727521692,"current_range_meters":22800,"station_id":"ce4bhi12rcd13ifvqfp0","pricing_plan_id":"cebpf4jnsgd1na2vs0mg"},{"bike_id":"a6903808-354a-4aed-8af8-b4a5f29db99f","system_id":"levelo_inurba_marseille","lat":43.27955,"lon":5.41046,"is_reserved":false,"is_disabled":false,"rental_uris":{"android":"levelo://app?vid=a6903808-354a-4aed-8af8-b4a5f29db99f","ios":"levelo://app?vid=a6903808-354a-4aed-8af8-b4a5f29db99f"},"vehicle_type_id":"4","last_reported":1727521692,"current_range_meters":17600,"station_id":"ce4bhnp2rcd13ifvqh0g","pricing_plan_id":"cebpf4jnsgd1na2vs0mg"},{"bike_id":"6cdca13d-24d1-4302-912a-54d18c748242","system_id":"levelo_inurba_marseille","lat":43.31083,"lon":5.40132,"is_reserved":false,"is_disabled":false,"rental_uris":{"android":"levelo://app?vid=6cdca13d-24d1-4302-912a-54d18c748242","ios":"levelo://app?vid=6cdca13d-24d1-4302-912a-54d18c748242"},"vehicle_type_id":"4","last_reported":1727521692,"current_range_meters":9600,"station_id":"","pricing_plan_id":"cebpf4jnsgd1na2vs0mg"},{"bike_id":"cf3a4ee4-c9d3-4ea3-ae0b-b5b4c90d13af","system_id":"levelo_inurba_marseille","lat":43.2985,"lon":5.36286,"is_reserved":false,"is_disabled":false,"rental_uris":{"android":"levelo://app?vid=cf3a4ee4-c9d3-4ea3-ae0b-b5b4c90d13af","ios":"levelo://app?vid=cf3a4ee4-c9d3-4ea3-ae0b-b5b4c90d13af"},"vehicle_type_id":"4","last_reported":1727521692,"current_range_meters":16400,"station_id":"ce4bgpp2rcd13ifvqc3g","pricing_plan_id":"cebpf4jnsgd1na2vs0mg"},{"bike_id":"6b412f9b-b26b-441f-b1e9-ab8d1f480b6c","system_id":"levelo_inurba_marseille","lat":43.29096,"lon":5.38149,"is_reserved":false,"is_disabled":false,"rental_uris":{"android":"levelo://app?vid=6b412f9b-b26b-441f-b1e9-ab8d1f480b6c","ios":"levelo://app?vid=6b412f9b-b26b-441f-b1e9-ab8d1f480b6c"},"vehicle_type_id":"4","last_reported":1727521692,"current_range_meters":37600,"station_id":"ce4bh512rcd13ifvqe2g","pricing_plan_id":"cebpf4jnsgd1na2vs0mg"},{"bike_id":"80772028-8c3e-4d06-b5a5-47d20bb2da13","system_id":"levelo_inurba_marseille","lat":43.30149,"lon":5.38081,"is_reserved":false,"is_disabled":false,"rental_uris":{"android":"levelo://app?vid=80772028-8c3e-4d06-b5a5-47d20bb2da13","ios":"levelo://app?vid=80772028-8c3e-4d06-b5a5-47d20bb2da13"},"vehicle_type_id":"4","last_reported":1727521692,"current_range_meters":36400,"station_id":"ce4bgjp2rcd13ifvqbh0","pricing_plan_id":"cebpf4jnsgd1na2vs0mg"},{"bike_id":"4dd21b4a-3d28-46e0-a41f-01e2d209a7b6","system_id":"levelo_inurba_marseille","lat":43.29065,"lon":5.37164,"is_reserved":false,"is_disabled":false,"rental_uris":{"android":"levelo://app?vid=4dd21b4a-3d28-46e0-a41f-01e2d209a7b6","ios":"levelo://app?vid=4dd21b4a-3d28-46e0-a41f-01e2d209a7b6"},"vehicle_type_id":"4","last_reported":1727521692,"current_range_meters":7200,"station_id":"ce4bh5p2rcd13ifvqe4g","pricing_plan_id":"cebpf4jnsgd1na2vs0mg"},{"bike_id":"7f31b7c3-4a3b-43de-afc0-d4cf26796b63","system_id":"levelo_inurba_marseille","lat":43.27943,"lon":5.41042,"is_reserved":false,"is_disabled":false,"rental_uris":{"android":"levelo://app?vid=7f31b7c3-4a3b-43de-afc0-d4cf26796b63","ios":"levelo://app?vid=7f31b7c3-4a3b-43de-afc0-d4cf26796b63"},"vehicle_type_id":"4","last_reported":1727521692,"current_range_meters":33200,"station_id":"ce4bhnp2rcd13ifvqh0g","pricing_plan_id":"cebpf4jnsgd1na2vs0mg"},{"bike_id":"da2e7afb-45a7-4193-9960-716c0aa1657b","system_id":"levelo_inurba_marseille","lat":43.32289,"lon":5.38256,"is_reserved":false,"is_disabled":false,"rental_uris":{"android":"levelo://app?vid=da2e7afb-45a7-4193-9960-716c0aa1657b","ios":"levelo://app?vid=da2e7afb-45a7-4193-9960-716c0aa1657b"},"vehicle_type_id":"4","last_reported":1727521692,"current_range_meters":38800,"station_id":"ce4bhr12rcd13ifvqhqg","pricing_plan_id":"cebpf4jnsgd1na2vs0mg"},{"bike_id":"b64089c7-13ae-46ba-b29e-4e00e75820e1","system_id":"levelo_inurba_marseille","lat":43.30154,"lon":5.38083,"is_reserved":false,"is_disabled":false,"rental_uris":{"android":"levelo://app?vid=b64089c7-13ae-46ba-b29e-4e00e75820e1","ios":"levelo://app?vid=b64089c7-13ae-46ba-b29e-4e00e75820e1"},"vehicle_type_id":"4","last_reported":1727521692,"current_range_meters":36800,"station_id":"ce4bgjp2rcd13ifvqbh0","pricing_plan_id":"cebpf4jnsgd1na2vs0mg"},{"bike_id":"2fec73d1-65f5-4b1d-93da-57cebfa114ba","system_id":"levelo_inurba_marseille","lat":43.23056,"lon":5.354878,"is_reserved":false,"is_disabled":false,"rental_uris":{"android":"levelo://app?vid=2fec73d1-65f5-4b1d-93da-57cebfa114ba","ios":"levelo://app?vid=2fec73d1-65f5-4b1d-93da-57cebfa114ba"},"vehicle_type_id":"4","last_reported":1727521692,"current_range_meters":4000,"station_id":"cpo3342slgdg3j2ifvpg","pricing_plan_id":"cebpf4jnsgd1na2vs0mg"},{"bike_id":"dbab5e16-0de9-4389-932d-06a62d667144","system_id":"levelo_inurba_marseille","lat":43.258319,"lon":5.394191,"is_reserved":false,"is_disabled":false,"rental_uris":{"android":"levelo://app?vid=dbab5e16-0de9-4389-932d-06a62d667144","ios":"levelo://app?vid=dbab5e16-0de9-4389-932d-06a62d667144"},"vehicle_type_id":"4","last_reported":1727521692,"current_range_meters":37600,"station_id":"ce4bhip2rcd13ifvqft0","pricing_plan_id":"cebpf4jnsgd1na2vs0mg"},{"bike_id":"a5bcbc6c-275a-46c4-bb07-7ac70df82241","system_id":"levelo_inurba_marseille","lat":43.30182,"lon":5.36621,"is_reserved":false,"is_disabled":false,"rental_uris":{"android":"levelo://app?vid=a5bcbc6c-275a-46c4-bb07-7ac70df82241","ios":"levelo://app?vid=a5bcbc6c-275a-46c4-bb07-7ac70df82241"},"vehicle_type_id":"4","last_reported":1727521692,"current_range_meters":36000,"station_id":"ce4bgrh2rcd13ifvqc8g","pricing_plan_id":"cebpf4jnsgd1na2vs0mg"},{"bike_id":"3407da71-e9f5-4375-9956-506983640a2f","system_id":"levelo_inurba_marseille","lat":43.28988,"lon":5.37593,"is_reserved":false,"is_disabled":false,"rental_uris":{"android":"levelo://app?vid=3407da71-e9f5-4375-9956-506983640a2f","ios":"levelo://app?vid=3407da71-e9f5-4375-9956-506983640a2f"},"vehicle_type_id":"4","last_reported":1727521692,"current_range_meters":28800,"station_id":"","pricing_plan_id":"cebpf4jnsgd1na2vs0mg"},{"bike_id":"06dd8b6a-7184-4e5d-90ec-0eb394d93277","system_id":"levelo_inurba_marseille","lat":43.28456,"lon":5.35895,"is_reserved":false,"is_disabled":false,"rental_uris":{"android":"levelo://app?vid=06dd8b6a-7184-4e5d-90ec-0eb394d93277","ios":"levelo://app?vid=06dd8b6a-7184-4e5d-90ec-0eb394d93277"},"vehicle_type_id":"4","last_reported":1727521692,"current_range_meters":8000,"station_id":"ce4bhah2rcd13ifvqei0","pricing_plan_id":"cebpf4jnsgd1na2vs0mg"},{"bike_id":"1318ea97-aede-4af9-87d0-47e378a9ef81","system_id":"levelo_inurba_marseille","lat":43.29862,"lon":5.3974,"is_reserved":false,"is_disabled":false,"rental_uris":{"android":"levelo://app?vid=1318ea97-aede-4af9-87d0-47e378a9ef81","ios":"levelo://app?vid=1318ea97-aede-4af9-87d0-47e378a9ef81"},"vehicle_type_id":"4","last_reported":1727521692,"current_range_meters":29600,"station_id":"ce4bh0h2rcd13ifvqd50","pricing_plan_id":"cebpf4jnsgd1na2vs0mg"},{"bike_id":"e3ee7d5b-bd0b-4d4d-a3e6-11e8cd23caf2","system_id":"levelo_inurba_marseille","lat":43.28149,"lon":5.4264,"is_reserved":false,"is_disabled":false,"rental_uris":{"android":"levelo://app?vid=e3ee7d5b-bd0b-4d4d-a3e6-11e8cd23caf2","ios":"levelo://app?vid=e3ee7d5b-bd0b-4d4d-a3e6-11e8cd23caf2"},"vehicle_type_id":"4","last_reported":1727521692,"current_range_meters":33600,"station_id":"ce4bhnh2rcd13ifvqgug","pricing_plan_id":"cebpf4jnsgd1na2vs0mg"},{"bike_id":"65768cd7-63c4-42bd-95bb-2f7bc170252f","system_id":"levelo_inurba_marseille","lat":43.29845,"lon":5.36275,"is_reserved":false,"is_disabled":false,"rental_uris":{"android":"levelo://app?vid=65768cd7-63c4-42bd-95bb-2f7bc170252f","ios":"levelo://app?vid=65768cd7-63c4-42bd-95bb-2f7bc170252f"},"vehicle_type_id":"4","last_reported":1727521692,"current_range_meters":38800,"station_id":"ce4bgpp2rcd13ifvqc3g","pricing_plan_id":"cebpf4jnsgd1na2vs0mg"},{"bike_id":"b0904d56-fbfe-4c2b-9dc1-3364971ecbf7","system_id":"levelo_inurba_marseille","lat":43.29258,"lon":5.38435,"is_reserved":false,"is_disabled":false,"rental_uris":{"android":"levelo://app?vid=b0904d56-fbfe-4c2b-9dc1-3364971ecbf7","ios":"levelo://app?vid=b0904d56-fbfe-4c2b-9dc1-3364971ecbf7"},"vehicle_type_id":"4","last_reported":1727521692,"current_range_meters":37600,"station_id":"ce4bh692rcd13ifvqea0","pricing_plan_id":"cebpf4jnsgd1na2vs0mg"},{"bike_id":"b25975a2-4789-471d-bf7d-ec59dfff3ec3","system_id":"levelo_inurba_marseille","lat":43.2953,"lon":5.3749,"is_reserved":false,"is_disabled":false,"rental_uris":{"android":"levelo://app?vid=b25975a2-4789-471d-bf7d-ec59dfff3ec3","ios":"levelo://app?vid=b25975a2-4789-471d-bf7d-ec59dfff3ec3"},"vehicle_type_id":"4","last_reported":1727521692,"current_range_meters":18800,"station_id":"ce4bgkp2rcd13ifvqbmg","pricing_plan_id":"cebpf4jnsgd1na2vs0mg"},{"bike_id":"e7df3a6f-3dc1-47b8-8425-1ba49f7bace4","system_id":"levelo_inurba_marseille","lat":43.29709,"lon":5.36605,"is_reserved":false,"is_disabled":false,"rental_uris":{"android":"levelo://app?vid=e7df3a6f-3dc1-47b8-8425-1ba49f7bace4","ios":"levelo://app?vid=e7df3a6f-3dc1-47b8-8425-1ba49f7bace4"},"vehicle_type_id":"4","last_reported":1727521692,"current_range_meters":34800,"station_id":"ce4bgn12rcd13ifvqbt0","pricing_plan_id":"cebpf4jnsgd1na2vs0mg"},{"bike_id":"4308a703-adba-4295-a370-7844317cb953","system_id":"levelo_inurba_marseille","lat":43.30138,"lon":5.3984,"is_reserved":false,"is_disabled":false,"rental_uris":{"android":"levelo://app?vid=4308a703-adba-4295-a370-7844317cb953","ios":"levelo://app?vid=4308a703-adba-4295-a370-7844317cb953"},"vehicle_type_id":"4","last_reported":1727521692,"current_range_meters":30400,"station_id":"ce4bh0h2rcd13ifvqd40","pricing_plan_id":"cebpf4jnsgd1na2vs0mg"},{"bike_id":"52700ab6-fb0a-4c2a-91ce-ca560f913652","system_id":"levelo_inurba_marseille","lat":43.29796,"lon":5.38096,"is_reserved":false,"is_disabled":false,"rental_uris":{"android":"levelo://app?vid=52700ab6-fb0a-4c2a-91ce-ca560f913652","ios":"levelo://app?vid=52700ab6-fb0a-4c2a-91ce-ca560f913652"},"vehicle_type_id":"4","last_reported":1727521692,"current_range_meters":38800,"station_id":"ce4bgip2rcd13ifvqbb0","pricing_plan_id":"cebpf4jnsgd1na2vs0mg"},{"bike_id":"da3d8f0d-0f47-455d-bf44-fb306bfeadf4","system_id":"levelo_inurba_marseille","lat":43.30157,"lon":5.38086,"is_reserved":false,"is_disabled":false,"rental_uris":{"android":"levelo://app?vid=da3d8f0d-0f47-455d-bf44-fb306bfeadf4","ios":"levelo://app?vid=da3d8f0d-0f47-455d-bf44-fb306bfeadf4"},"vehicle_type_id":"4","last_reported":1727521692,"current_range_meters":27200,"station_id":"ce4bgjp2rcd13ifvqbh0","pricing_plan_id":"cebpf4jnsgd1na2vs0mg"},{"bike_id":"a840744e-f5ba-493b-a121-a825bd5d67de","system_id":"levelo_inurba_marseille","lat":43.27374,"lon":5.36272,"is_reserved":false,"is_disabled":false,"rental_uris":{"android":"levelo://app?vid=a840744e-f5ba-493b-a121-a825bd5d67de","ios":"levelo://app?vid=a840744e-f5ba-493b-a121-a825bd5d67de"},"vehicle_type_id":"4","last_reported":1727521692,"current_range_meters":12000,"station_id":"ce4bhbh2rcd13ifvqeo0","pricing_plan_id":"cebpf4jnsgd1na2vs0mg"},{"bike_id":"67ad384a-3a16-4e29-9113-32c6258c1182","system_id":"levelo_inurba_marseille","lat":43.30157,"lon":5.38077,"is_reserved":false,"is_disabled":false,"rental_uris":{"android":"levelo://app?vid=67ad384a-3a16-4e29-9113-32c6258c1182","ios":"levelo://app?vid=67ad384a-3a16-4e29-9113-32c6258c1182"},"vehicle_type_id":"4","last_reported":1727521692,"current_range_meters":38800,"station_id":"ce4bgjp2rcd13ifvqbh0","pricing_plan_id":"cebpf4jnsgd1na2vs0mg"},{"bike_id":"0180ce52-df6e-4c5e-a8b0-b8ad49f017fe","system_id":"levelo_inurba_marseille","lat":43.30898,"lon":5.37182,"is_reserved":false,"is_disabled":false,"rental_uris":{"android":"levelo://app?vid=0180ce52-df6e-4c5e-a8b0-b8ad49f017fe","ios":"levelo://app?vid=0180ce52-df6e-4c5e-a8b0-b8ad49f017fe"},"vehicle_type_id":"4","last_reported":1727521692,"current_range_meters":38800,"station_id":"ce4bguh2rcd13ifvqckg","pricing_plan_id":"cebpf4jnsgd1na2vs0mg"},{"bike_id":"6f35c4b4-b2b8-477d-b4ca-b7306bdd046f","system_id":"levelo_inurba_marseille","lat":43.28444,"lon":5.39196,"is_reserved":false,"is_disabled":false,"rental_uris":{"android":"levelo://app?vid=6f35c4b4-b2b8-477d-b4ca-b7306bdd046f","ios":"levelo://app?vid=6f35c4b4-b2b8-477d-b4ca-b7306bdd046f"},"vehicle_type_id":"4","last_reported":1727521692,"current_range_meters":16400,"station_id":"ce4bhoh2rcd13ifvqh5g","pricing_plan_id":"cebpf4jnsgd1na2vs0mg"},{"bike_id":"0c3f0369-7cdf-4cba-a0db-09435ab8c8da","system_id":"levelo_inurba_marseille","lat":43.23191,"lon":5.39991,"is_reserved":false,"is_disabled":false,"rental_uris":{"android":"levelo://app?vid=0c3f0369-7cdf-4cba-a0db-09435ab8c8da","ios":"levelo://app?vid=0c3f0369-7cdf-4cba-a0db-09435ab8c8da"},"vehicle_type_id":"4","last_reported":1727521692,"current_range_meters":31200,"station_id":"ce4bhn12rcd13ifvqgqg","pricing_plan_id":"cebpf4jnsgd1na2vs0mg"},{"bike_id":"deb7980f-58a8-4033-8835-655c6a4e78f7","system_id":"levelo_inurba_marseille","lat":43.27566,"lon":5.384185,"is_reserved":false,"is_disabled":false,"rental_uris":{"android":"levelo://app?vid=deb7980f-58a8-4033-8835-655c6a4e78f7","ios":"levelo://app?vid=deb7980f-58a8-4033-8835-655c6a4e78f7"},"vehicle_type_id":"4","last_reported":1727521692,"current_range_meters":39200,"station_id":"ce4bhh92rcd13ifvqfi0","pricing_plan_id":"cebpf4jnsgd1na2vs0mg"},{"bike_id":"5bbd2505-51dc-451e-8388-5c62e078114a","system_id":"levelo_inurba_marseille","lat":43.24179,"lon":5.39734,"is_reserved":false,"is_disabled":false,"rental_uris":{"android":"levelo://app?vid=5bbd2505-51dc-451e-8388-5c62e078114a","ios":"levelo://app?vid=5bbd2505-51dc-451e-8388-5c62e078114a"},"vehicle_type_id":"4","last_reported":1727521692,"current_range_meters":38800,"station_id":"ce4bhn12rcd13ifvqgpg","pricing_plan_id":"cebpf4jnsgd1na2vs0mg"},{"bike_id":"06981e52-06f2-48c7-8865-e14ca565f9df","system_id":"levelo_inurba_marseille","lat":43.29727,"lon":5.37684,"is_reserved":false,"is_disabled":false,"rental_uris":{"android":"levelo://app?vid=06981e52-06f2-48c7-8865-e14ca565f9df","ios":"levelo://app?vid=06981e52-06f2-48c7-8865-e14ca565f9df"},"vehicle_type_id":"4","last_reported":1727521692,"current_range_meters":38800,"station_id":"ce4bgkh2rcd13ifvqbl0","pricing_plan_id":"cebpf4jnsgd1na2vs0mg"},{"bike_id":"bc20af5c-be7b-4c51-b09b-2e170ca1b5b9","system_id":"levelo_inurba_marseille","lat":43.25487,"lon":5.37647,"is_reserved":false,"is_disabled":false,"rental_uris":{"android":"levelo://app?vid=bc20af5c-be7b-4c51-b09b-2e170ca1b5b9","ios":"levelo://app?vid=bc20af5c-be7b-4c51-b09b-2e170ca1b5b9"},"vehicle_type_id":"4","last_reported":1727521692,"current_range_meters":37600,"station_id":"ce4bhh12rcd13ifvqff0","pricing_plan_id":"cebpf4jnsgd1na2vs0mg"},{"bike_id":"03af8350-a5f2-42f1-9a40-a313e4daf477","system_id":"levelo_inurba_marseille","lat":43.23178,"lon":5.39984,"is_reserved":false,"is_disabled":false,"rental_uris":{"android":"levelo://app?vid=03af8350-a5f2-42f1-9a40-a313e4daf477","ios":"levelo://app?vid=03af8350-a5f2-42f1-9a40-a313e4daf477"},"vehicle_type_id":"4","last_reported":1727521692,"current_range_meters":9600,"station_id":"ce4bhn12rcd13ifvqgqg","pricing_plan_id":"cebpf4jnsgd1na2vs0mg"},{"bike_id":"d8e32f1c-4c32-4777-922d-4d90b15b71c7","system_id":"levelo_inurba_marseille","lat":43.30863,"lon":5.3685,"is_reserved":false,"is_disabled":false,"rental_uris":{"android":"levelo://app?vid=d8e32f1c-4c32-4777-922d-4d90b15b71c7","ios":"levelo://app?vid=d8e32f1c-4c32-4777-922d-4d90b15b71c7"},"vehicle_type_id":"4","last_reported":1727521692,"current_range_meters":10000,"station_id":"ce4bgn92rcd13ifvqbvg","pricing_plan_id":"cebpf4jnsgd1na2vs0mg"},{"bike_id":"06bf2ec9-1d6f-48a5-b97f-c855170833ff","system_id":"levelo_inurba_marseille","lat":43.31712,"lon":5.43703,"is_reserved":false,"is_disabled":false,"rental_uris":{"android":"levelo://app?vid=06bf2ec9-1d6f-48a5-b97f-c855170833ff","ios":"levelo://app?vid=06bf2ec9-1d6f-48a5-b97f-c855170833ff"},"vehicle_type_id":"4","last_reported":1727521692,"current_range_meters":24800,"station_id":"ce4bhp92rcd13ifvqhcg","pricing_plan_id":"cebpf4jnsgd1na2vs0mg"},{"bike_id":"b470945e-f45c-4291-ac95-d7061c9aab44","system_id":"levelo_inurba_marseille","lat":43.273677,"lon":5.412172,"is_reserved":false,"is_disabled":false,"rental_uris":{"android":"levelo://app?vid=b470945e-f45c-4291-ac95-d7061c9aab44","ios":"levelo://app?vid=b470945e-f45c-4291-ac95-d7061c9aab44"},"vehicle_type_id":"4","last_reported":1727521692,"current_range_meters":28400,"station_id":"","pricing_plan_id":"cebpf4jnsgd1na2vs0mg"},{"bike_id":"baa06c7d-efad-4a9a-bc59-5e1715d1039c","system_id":"levelo_inurba_marseille","lat":43.22927,"lon":5.3538,"is_reserved":false,"is_disabled":false,"rental_uris":{"android":"levelo://app?vid=baa06c7d-efad-4a9a-bc59-5e1715d1039c","ios":"levelo://app?vid=baa06c7d-efad-4a9a-bc59-5e1715d1039c"},"vehicle_type_id":"4","last_reported":1727521692,"current_range_meters":22800,"station_id":"cpo3532slgdg3j2ikp40","pricing_plan_id":"cebpf4jnsgd1na2vs0mg"},{"bike_id":"60fae2e1-13c5-43d8-9a9c-5584b7fcdafd","system_id":"levelo_inurba_marseille","lat":43.29884,"lon":5.38897,"is_reserved":false,"is_disabled":false,"rental_uris":{"android":"levelo://app?vid=60fae2e1-13c5-43d8-9a9c-5584b7fcdafd","ios":"levelo://app?vid=60fae2e1-13c5-43d8-9a9c-5584b7fcdafd"},"vehicle_type_id":"4","last_reported":1727521692,"current_range_meters":28800,"station_id":"ce4bh392rcd13ifvqdl0","pricing_plan_id":"cebpf4jnsgd1na2vs0mg"},{"bike_id":"1e911b44-2ff8-4e01-b770-41d0e7f234b5","system_id":"levelo_inurba_marseille","lat":43.241726,"lon":5.395678,"is_reserved":false,"is_disabled":false,"rental_uris":{"android":"levelo://app?vid=1e911b44-2ff8-4e01-b770-41d0e7f234b5","ios":"levelo://app?vid=1e911b44-2ff8-4e01-b770-41d0e7f234b5"},"vehicle_type_id":"4","last_reported":1727521692,"current_range_meters":16400,"station_id":"","pricing_plan_id":"cebpf4jnsgd1na2vs0mg"},{"bike_id":"e4361fa2-90d9-45ff-9d8a-e7b112f4e011","system_id":"levelo_inurba_marseille","lat":43.2851,"lon":5.39132,"is_reserved":false,"is_disabled":false,"rental_uris":{"android":"levelo://app?vid=e4361fa2-90d9-45ff-9d8a-e7b112f4e011","ios":"levelo://app?vid=e4361fa2-90d9-45ff-9d8a-e7b112f4e011"},"vehicle_type_id":"4","last_reported":1727521692,"current_range_meters":33600,"station_id":"ce4bh3p2rcd13ifvqdp0","pricing_plan_id":"cebpf4jnsgd1na2vs0mg"},{"bike_id":"e008fd61-43c0-429a-b2db-db9a7277c25c","system_id":"levelo_inurba_marseille","lat":43.2466,"lon":5.38162,"is_reserved":false,"is_disabled":false,"rental_uris":{"android":"levelo://app?vid=e008fd61-43c0-429a-b2db-db9a7277c25c","ios":"levelo://app?vid=e008fd61-43c0-429a-b2db-db9a7277c25c"},"vehicle_type_id":"4","last_reported":1727521692,"current_range_meters":38800,"station_id":"ce4bhih2rcd13ifvqfr0","pricing_plan_id":"cebpf4jnsgd1na2vs0mg"},{"bike_id":"119b1756-239e-4ffb-be16-70a9d802ff66","system_id":"levelo_inurba_marseille","lat":43.298441,"lon":5.36267,"is_reserved":false,"is_disabled":false,"rental_uris":{"android":"levelo://app?vid=119b1756-239e-4ffb-be16-70a9d802ff66","ios":"levelo://app?vid=119b1756-239e-4ffb-be16-70a9d802ff66"},"vehicle_type_id":"4","last_reported":1727521692,"current_range_meters":31200,"station_id":"ce4bgpp2rcd13ifvqc3g","pricing_plan_id":"cebpf4jnsgd1na2vs0mg"},{"bike_id":"cab45fd0-efbe-42f4-815f-9d32eba24a97","system_id":"levelo_inurba_marseille","lat":43.27947,"lon":5.41207,"is_reserved":false,"is_disabled":false,"rental_uris":{"android":"levelo://app?vid=cab45fd0-efbe-42f4-815f-9d32eba24a97","ios":"levelo://app?vid=cab45fd0-efbe-42f4-815f-9d32eba24a97"},"vehicle_type_id":"4","last_reported":1727521692,"current_range_meters":19600,"station_id":"","pricing_plan_id":"cebpf4jnsgd1na2vs0mg"},{"bike_id":"6eff8d2d-61fa-4715-9388-b30a052d3e98","system_id":"levelo_inurba_marseille","lat":43.337444,"lon":5.374475,"is_reserved":false,"is_disabled":false,"rental_uris":{"android":"levelo://app?vid=6eff8d2d-61fa-4715-9388-b30a052d3e98","ios":"levelo://app?vid=6eff8d2d-61fa-4715-9388-b30a052d3e98"},"vehicle_type_id":"4","last_reported":1727521692,"current_range_meters":33200,"station_id":"","pricing_plan_id":"cebpf4jnsgd1na2vs0mg"},{"bike_id":"637ea54b-676e-4687-a372-f778f0655b85","system_id":"levelo_inurba_marseille","lat":43.27215,"lon":5.40098,"is_reserved":false,"is_disabled":false,"rental_uris":{"android":"levelo://app?vid=637ea54b-676e-4687-a372-f778f0655b85","ios":"levelo://app?vid=637ea54b-676e-4687-a372-f778f0655b85"},"vehicle_type_id":"4","last_reported":1727521692,"current_range_meters":26000,"station_id":"","pricing_plan_id":"cebpf4jnsgd1na2vs0mg"},{"bike_id":"2c1f3028-fd60-49b3-9725-b5fa9acf9fdd","system_id":"levelo_inurba_marseille","lat":43.25362,"lon":5.38207,"is_reserved":false,"is_disabled":false,"rental_uris":{"android":"levelo://app?vid=2c1f3028-fd60-49b3-9725-b5fa9acf9fdd","ios":"levelo://app?vid=2c1f3028-fd60-49b3-9725-b5fa9acf9fdd"},"vehicle_type_id":"4","last_reported":1727521692,"current_range_meters":10800,"station_id":"ce4bhih2rcd13ifvqfs0","pricing_plan_id":"cebpf4jnsgd1na2vs0mg"},{"bike_id":"626efa4c-0b1e-402d-b3e8-e2eec0eba740","system_id":"levelo_inurba_marseille","lat":43.26057,"lon":5.39397,"is_reserved":false,"is_disabled":false,"rental_uris":{"android":"levelo://app?vid=626efa4c-0b1e-402d-b3e8-e2eec0eba740","ios":"levelo://app?vid=626efa4c-0b1e-402d-b3e8-e2eec0eba740"},"vehicle_type_id":"4","last_reported":1727521692,"current_range_meters":36400,"station_id":"ce4bhh92rcd13ifvqfj0","pricing_plan_id":"cebpf4jnsgd1na2vs0mg"},{"bike_id":"78abf810-968d-4a6d-8154-58f596737713","system_id":"levelo_inurba_marseille","lat":43.27557,"lon":5.38424,"is_reserved":false,"is_disabled":false,"rental_uris":{"android":"levelo://app?vid=78abf810-968d-4a6d-8154-58f596737713","ios":"levelo://app?vid=78abf810-968d-4a6d-8154-58f596737713"},"vehicle_type_id":"4","last_reported":1727521692,"current_range_meters":30000,"station_id":"ce4bhh92rcd13ifvqfi0","pricing_plan_id":"cebpf4jnsgd1na2vs0mg"},{"bike_id":"fcfb4cc0-f0bc-4831-a3a0-12c465447bff","system_id":"levelo_inurba_marseille","lat":43.29579,"lon":5.38556,"is_reserved":false,"is_disabled":false,"rental_uris":{"android":"levelo://app?vid=fcfb4cc0-f0bc-4831-a3a0-12c465447bff","ios":"levelo://app?vid=fcfb4cc0-f0bc-4831-a3a0-12c465447bff"},"vehicle_type_id":"4","last_reported":1727521692,"current_range_meters":36400,"station_id":"ce4bh2h2rcd13ifvqdh0","pricing_plan_id":"cebpf4jnsgd1na2vs0mg"},{"bike_id":"49103c36-092f-43a6-a665-96ac4218adb8","system_id":"levelo_inurba_marseille","lat":43.32287,"lon":5.38261,"is_reserved":false,"is_disabled":false,"rental_uris":{"android":"levelo://app?vid=49103c36-092f-43a6-a665-96ac4218adb8","ios":"levelo://app?vid=49103c36-092f-43a6-a665-96ac4218adb8"},"vehicle_type_id":"4","last_reported":1727521692,"current_range_meters":39200,"station_id":"ce4bhr12rcd13ifvqhqg","pricing_plan_id":"cebpf4jnsgd1na2vs0mg"},{"bike_id":"54b2ec4e-466f-4113-9607-e4487b9ee18a","system_id":"levelo_inurba_marseille","lat":43.31101,"lon":5.37789,"is_reserved":false,"is_disabled":false,"rental_uris":{"android":"levelo://app?vid=54b2ec4e-466f-4113-9607-e4487b9ee18a","ios":"levelo://app?vid=54b2ec4e-466f-4113-9607-e4487b9ee18a"},"vehicle_type_id":"4","last_reported":1727521692,"current_range_meters":22400,"station_id":"ce4bgt92rcd13ifvqcg0","pricing_plan_id":"cebpf4jnsgd1na2vs0mg"},{"bike_id":"93944db3-4eee-4695-925e-f0474c02fbbb","system_id":"levelo_inurba_marseille","lat":43.29566,"lon":5.39978,"is_reserved":false,"is_disabled":false,"rental_uris":{"android":"levelo://app?vid=93944db3-4eee-4695-925e-f0474c02fbbb","ios":"levelo://app?vid=93944db3-4eee-4695-925e-f0474c02fbbb"},"vehicle_type_id":"4","last_reported":1727521692,"current_range_meters":38800,"station_id":"ce4bh312rcd13ifvqdj0","pricing_plan_id":"cebpf4jnsgd1na2vs0mg"},{"bike_id":"6f0f9c32-de70-4574-9b89-cca29ab0554e","system_id":"levelo_inurba_marseille","lat":43.337444,"lon":5.374475,"is_reserved":false,"is_disabled":false,"rental_uris":{"android":"levelo://app?vid=6f0f9c32-de70-4574-9b89-cca29ab0554e","ios":"levelo://app?vid=6f0f9c32-de70-4574-9b89-cca29ab0554e"},"vehicle_type_id":"4","last_reported":1727521692,"current_range_meters":30800,"station_id":"","pricing_plan_id":"cebpf4jnsgd1na2vs0mg"},{"bike_id":"44839918-e841-4578-a34d-4d8014b09bc8","system_id":"levelo_inurba_marseille","lat":43.31225,"lon":5.36868,"is_reserved":false,"is_disabled":false,"rental_uris":{"android":"levelo://app?vid=44839918-e841-4578-a34d-4d8014b09bc8","ios":"levelo://app?vid=44839918-e841-4578-a34d-4d8014b09bc8"},"vehicle_type_id":"4","last_reported":1727521692,"current_range_meters":38000,"station_id":"ce4bgl92rcd13ifvqbq0","pricing_plan_id":"cebpf4jnsgd1na2vs0mg"},{"bike_id":"0687a646-be72-47a3-8907-22e0afb02a46","system_id":"levelo_inurba_marseille","lat":43.23962,"lon":5.36624,"is_reserved":false,"is_disabled":false,"rental_uris":{"android":"levelo://app?vid=0687a646-be72-47a3-8907-22e0afb02a46","ios":"levelo://app?vid=0687a646-be72-47a3-8907-22e0afb02a46"},"vehicle_type_id":"4","last_reported":1727521692,"current_range_meters":36800,"station_id":"ce4bhi12rcd13ifvqfp0","pricing_plan_id":"cebpf4jnsgd1na2vs0mg"},{"bike_id":"b51e12b3-7df2-4845-bef4-3fd1f7641c91","system_id":"levelo_inurba_marseille","lat":43.25725,"lon":5.41105,"is_reserved":false,"is_disabled":false,"rental_uris":{"android":"levelo://app?vid=b51e12b3-7df2-4845-bef4-3fd1f7641c91","ios":"levelo://app?vid=b51e12b3-7df2-4845-bef4-3fd1f7641c91"},"vehicle_type_id":"4","last_reported":1727521692,"current_range_meters":34000,"station_id":"ce4bhkp2rcd13ifvqgd0","pricing_plan_id":"cebpf4jnsgd1na2vs0mg"},{"bike_id":"5e653bde-cd61-44a4-ac4d-5148c4bfa5d6","system_id":"levelo_inurba_marseille","lat":43.29578,"lon":5.36731,"is_reserved":false,"is_disabled":false,"rental_uris":{"android":"levelo://app?vid=5e653bde-cd61-44a4-ac4d-5148c4bfa5d6","ios":"levelo://app?vid=5e653bde-cd61-44a4-ac4d-5148c4bfa5d6"},"vehicle_type_id":"4","last_reported":1727521692,"current_range_meters":21600,"station_id":"ce4bgph2rcd13ifvqc2g","pricing_plan_id":"cebpf4jnsgd1na2vs0mg"},{"bike_id":"99cdbd9b-38e3-466f-bd1e-ac71554dadb5","system_id":"levelo_inurba_marseille","lat":43.2815,"lon":5.42646,"is_reserved":false,"is_disabled":false,"rental_uris":{"android":"levelo://app?vid=99cdbd9b-38e3-466f-bd1e-ac71554dadb5","ios":"levelo://app?vid=99cdbd9b-38e3-466f-bd1e-ac71554dadb5"},"vehicle_type_id":"4","last_reported":1727521692,"current_range_meters":39200,"station_id":"ce4bhnh2rcd13ifvqgug","pricing_plan_id":"cebpf4jnsgd1na2vs0mg"},{"bike_id":"90c05d40-f5db-4a12-95b3-f8d41ae2e51b","system_id":"levelo_inurba_marseille","lat":43.32367,"lon":5.38875,"is_reserved":false,"is_disabled":false,"rental_uris":{"android":"levelo://app?vid=90c05d40-f5db-4a12-95b3-f8d41ae2e51b","ios":"levelo://app?vid=90c05d40-f5db-4a12-95b3-f8d41ae2e51b"},"vehicle_type_id":"4","last_reported":1727521692,"current_range_meters":34800,"station_id":"ce4bhqp2rcd13ifvqhog","pricing_plan_id":"cebpf4jnsgd1na2vs0mg"},{"bike_id":"69f7b011-a50f-45ed-8749-b94fff8fdfb4","system_id":"levelo_inurba_marseille","lat":43.29779,"lon":5.37119,"is_reserved":false,"is_disabled":false,"rental_uris":{"android":"levelo://app?vid=69f7b011-a50f-45ed-8749-b94fff8fdfb4","ios":"levelo://app?vid=69f7b011-a50f-45ed-8749-b94fff8fdfb4"},"vehicle_type_id":"4","last_reported":1727521692,"current_range_meters":38800,"station_id":"ce4bgop2rcd13ifvqc1g","pricing_plan_id":"cebpf4jnsgd1na2vs0mg"},{"bike_id":"51cb7483-6abd-42e9-b258-96bd9ab429c0","system_id":"levelo_inurba_marseille","lat":43.30422,"lon":5.38896,"is_reserved":false,"is_disabled":false,"rental_uris":{"android":"levelo://app?vid=51cb7483-6abd-42e9-b258-96bd9ab429c0","ios":"levelo://app?vid=51cb7483-6abd-42e9-b258-96bd9ab429c0"},"vehicle_type_id":"4","last_reported":1727521692,"current_range_meters":30000,"station_id":"ce4bgk12rcd13ifvqbi0","pricing_plan_id":"cebpf4jnsgd1na2vs0mg"},{"bike_id":"b98e9569-881f-49b2-9b3e-86b7abafd7d4","system_id":"levelo_inurba_marseille","lat":43.32053,"lon":5.41548,"is_reserved":false,"is_disabled":false,"rental_uris":{"android":"levelo://app?vid=b98e9569-881f-49b2-9b3e-86b7abafd7d4","ios":"levelo://app?vid=b98e9569-881f-49b2-9b3e-86b7abafd7d4"},"vehicle_type_id":"4","last_reported":1727521692,"current_range_meters":38800,"station_id":"ce4bhq92rcd13ifvqhkg","pricing_plan_id":"cebpf4jnsgd1na2vs0mg"},{"bike_id":"8f9a8eac-ef3b-4b28-a5ee-f9849e5f5e48","system_id":"levelo_inurba_marseille","lat":43.29844,"lon":5.36276,"is_reserved":false,"is_disabled":false,"rental_uris":{"android":"levelo://app?vid=8f9a8eac-ef3b-4b28-a5ee-f9849e5f5e48","ios":"levelo://app?vid=8f9a8eac-ef3b-4b28-a5ee-f9849e5f5e48"},"vehicle_type_id":"4","last_reported":1727521692,"current_range_meters":17600,"station_id":"ce4bgpp2rcd13ifvqc3g","pricing_plan_id":"cebpf4jnsgd1na2vs0mg"},{"bike_id":"c383c785-ed98-42a4-bbd4-1a592aba0402","system_id":"levelo_inurba_marseille","lat":43.27814,"lon":5.4071,"is_reserved":false,"is_disabled":false,"rental_uris":{"android":"levelo://app?vid=c383c785-ed98-42a4-bbd4-1a592aba0402","ios":"levelo://app?vid=c383c785-ed98-42a4-bbd4-1a592aba0402"},"vehicle_type_id":"4","last_reported":1727521692,"current_range_meters":32000,"station_id":"ce4bhnh2rcd13ifvqgtg","pricing_plan_id":"cebpf4jnsgd1na2vs0mg"},{"bike_id":"e7236141-d381-4a01-b88e-32c1296e89da","system_id":"levelo_inurba_marseille","lat":43.23959,"lon":5.36635,"is_reserved":false,"is_disabled":false,"rental_uris":{"android":"levelo://app?vid=e7236141-d381-4a01-b88e-32c1296e89da","ios":"levelo://app?vid=e7236141-d381-4a01-b88e-32c1296e89da"},"vehicle_type_id":"4","last_reported":1727521692,"current_range_meters":34000,"station_id":"ce4bhi12rcd13ifvqfp0","pricing_plan_id":"cebpf4jnsgd1na2vs0mg"},{"bike_id":"9112e952-0c72-45d8-963a-c4df9637e0f9","system_id":"levelo_inurba_marseille","lat":43.29795,"lon":5.38113,"is_reserved":false,"is_disabled":false,"rental_uris":{"android":"levelo://app?vid=9112e952-0c72-45d8-963a-c4df9637e0f9","ios":"levelo://app?vid=9112e952-0c72-45d8-963a-c4df9637e0f9"},"vehicle_type_id":"4","last_reported":1727521692,"current_range_meters":28400,"station_id":"ce4bgip2rcd13ifvqbb0","pricing_plan_id":"cebpf4jnsgd1na2vs0mg"},{"bike_id":"e096a6d9-9eb8-456a-aab5-8d82ea6b8c12","system_id":"levelo_inurba_marseille","lat":43.24389,"lon":5.37056,"is_reserved":false,"is_disabled":false,"rental_uris":{"android":"levelo://app?vid=e096a6d9-9eb8-456a-aab5-8d82ea6b8c12","ios":"levelo://app?vid=e096a6d9-9eb8-456a-aab5-8d82ea6b8c12"},"vehicle_type_id":"4","last_reported":1727521692,"current_range_meters":28800,"station_id":"ce4bhhh2rcd13ifvqfk0","pricing_plan_id":"cebpf4jnsgd1na2vs0mg"},{"bike_id":"9fcb71b8-23d8-4fcd-abcf-98182e2b2bbc","system_id":"levelo_inurba_marseille","lat":43.28023,"lon":5.36938,"is_reserved":false,"is_disabled":false,"rental_uris":{"android":"levelo://app?vid=9fcb71b8-23d8-4fcd-abcf-98182e2b2bbc","ios":"levelo://app?vid=9fcb71b8-23d8-4fcd-abcf-98182e2b2bbc"},"vehicle_type_id":"4","last_reported":1727521692,"current_range_meters":36000,"station_id":"ce4bha12rcd13ifvqef0","pricing_plan_id":"cebpf4jnsgd1na2vs0mg"},{"bike_id":"d2b6519e-4831-42d3-8222-3751a37cc1b0","system_id":"levelo_inurba_marseille","lat":43.29897,"lon":5.43656,"is_reserved":false,"is_disabled":false,"rental_uris":{"android":"levelo://app?vid=d2b6519e-4831-42d3-8222-3751a37cc1b0","ios":"levelo://app?vid=d2b6519e-4831-42d3-8222-3751a37cc1b0"},"vehicle_type_id":"4","last_reported":1727521692,"current_range_meters":38800,"station_id":"ce4bhpp2rcd13ifvqhfg","pricing_plan_id":"cebpf4jnsgd1na2vs0mg"},{"bike_id":"c13863ab-394c-4279-821b-acad87d4cdb9","system_id":"levelo_inurba_marseille","lat":43.29564,"lon":5.3751,"is_reserved":false,"is_disabled":false,"rental_uris":{"android":"levelo://app?vid=c13863ab-394c-4279-821b-acad87d4cdb9","ios":"levelo://app?vid=c13863ab-394c-4279-821b-acad87d4cdb9"},"vehicle_type_id":"4","last_reported":1727521692,"current_range_meters":12800,"station_id":"ce4bgh92rcd13ifvqb50","pricing_plan_id":"cebpf4jnsgd1na2vs0mg"},{"bike_id":"0f349d08-61a1-4e12-bb2c-55b08c971dff","system_id":"levelo_inurba_marseille","lat":43.26031,"lon":5.37547,"is_reserved":false,"is_disabled":false,"rental_uris":{"android":"levelo://app?vid=0f349d08-61a1-4e12-bb2c-55b08c971dff","ios":"levelo://app?vid=0f349d08-61a1-4e12-bb2c-55b08c971dff"},"vehicle_type_id":"4","last_reported":1727521692,"current_range_meters":17600,"station_id":"ce4bhgh2rcd13ifvqfa0","pricing_plan_id":"cebpf4jnsgd1na2vs0mg"},{"bike_id":"01f6289c-838d-46e0-8d96-dd323459aae2","system_id":"levelo_inurba_marseille","lat":43.24076,"lon":5.37759,"is_reserved":false,"is_disabled":false,"rental_uris":{"android":"levelo://app?vid=01f6289c-838d-46e0-8d96-dd323459aae2","ios":"levelo://app?vid=01f6289c-838d-46e0-8d96-dd323459aae2"},"vehicle_type_id":"4","last_reported":1727521692,"current_range_meters":28800,"station_id":"ce4bhnp2rcd13ifvqgvg","pricing_plan_id":"cebpf4jnsgd1na2vs0mg"},{"bike_id":"56b22cd9-3ea9-47e7-8148-97189aee3dcd","system_id":"levelo_inurba_marseille","lat":43.28997,"lon":5.35612,"is_reserved":false,"is_disabled":false,"rental_uris":{"android":"levelo://app?vid=56b22cd9-3ea9-47e7-8148-97189aee3dcd","ios":"levelo://app?vid=56b22cd9-3ea9-47e7-8148-97189aee3dcd"},"vehicle_type_id":"4","last_reported":1727521692,"current_range_meters":16400,"station_id":"ce4bhb92rcd13ifvqen0","pricing_plan_id":"cebpf4jnsgd1na2vs0mg"},{"bike_id":"e5ddbbc7-61e4-4696-85fa-ddd1f59a39d1","system_id":"levelo_inurba_marseille","lat":43.31758,"lon":5.39026,"is_reserved":false,"is_disabled":false,"rental_uris":{"android":"levelo://app?vid=e5ddbbc7-61e4-4696-85fa-ddd1f59a39d1","ios":"levelo://app?vid=e5ddbbc7-61e4-4696-85fa-ddd1f59a39d1"},"vehicle_type_id":"4","last_reported":1727521692,"current_range_meters":17600,"station_id":"ce4bhqp2rcd13ifvqhng","pricing_plan_id":"cebpf4jnsgd1na2vs0mg"},{"bike_id":"3ab006c6-bbdd-423e-a26e-a6fb63bc3c66","system_id":"levelo_inurba_marseille","lat":43.29568,"lon":5.37505,"is_reserved":false,"is_disabled":false,"rental_uris":{"android":"levelo://app?vid=3ab006c6-bbdd-423e-a26e-a6fb63bc3c66","ios":"levelo://app?vid=3ab006c6-bbdd-423e-a26e-a6fb63bc3c66"},"vehicle_type_id":"4","last_reported":1727521692,"current_range_meters":39200,"station_id":"ce4bgh92rcd13ifvqb50","pricing_plan_id":"cebpf4jnsgd1na2vs0mg"},