{"last_updated":1702119930,"ttl":30,"version":"2.2","data":{"bikes":[{"bike_id":"d83fabb5-b3a5-42a1-8df9-1f40affb7eb0","system_id":"levelo_inurba_marseille","lat":43.312239,"lon":5.368562,"is_reserved":false,"is_disabled":false,"rental_uris":{"android":"levelo://app?vid=d83fabb5-b3a5-42a1-8df9-1f40affb7eb0","ios":"levelo://app?vid=d83fabb5-b3a5-42a1-8df9-1f40affb7eb0"},"vehicle_type_id":"4","last_reported":1702119931,"current_range_meters":30400,"station_id":"ce4bgl92rcd13ifvqbq0","pricing_plan_id":"free"},{"bike_id":"4f8d4417-25d0-475e-a6e7-67ba7089e1fd","system_id":"levelo_inurba_marseille","lat":43.314811,"lon":5.373103,"is_reserved":false,"is_disabled":false,"rental_uris":{"android":"levelo://app?vid=4f8d4417-25d0-475e-a6e7-67ba7089e1fd","ios":"levelo://app?vid=4f8d4417-25d0-475e-a6e7-67ba7089e1fd"},"vehicle_type_id":"4","last_reported":1702119931,"current_range_meters":22800,"station_id":"ce4bgt12rcd13ifvqcd0","pricing_plan_id":"free"},{"bike_id":"60707c26-ea44-498b-99e9-7b12961ceb20","system_id":"levelo_inurba_marseille","lat":43.314811,"lon":5.373103,"is_reserved":false,"is_disabled":false,"rental_uris":{"android":"levelo://app?vid=60707c26-ea44-498b-99e9-7b12961ceb20","ios":"levelo://app?vid=60707c26-ea44-498b-99e9-7b12961ceb20"},"vehicle_type_id":"4","last_reported":1702119931,"current_range_meters":29600,"station_id":"ce4bgt12rcd13ifvqcd0","pricing_plan_id":"free"},{"bike_id":"82fa1bdb-de41-429e-a7c8-fdd85dc0af09","system_id":"levelo_inurba_marseille","lat":43.314811,"lon":5.373104,"is_reserved":false,"is_disabled":false,"rental_uris":{"android":"levelo://app?vid=82fa1bdb-de41-429e-a7c8-fdd85dc0af09","ios":"levelo://app?vid=82fa1bdb-de41-429e-a7c8-fdd85dc0af09"},"vehicle_type_id":"4","last_reported":1702119931,"current_range_meters":6400,"station_id":"ce4bgt12rcd13ifvqcd0","pricing_plan_id":"free"},{"bike_id":"dc750203-1cf5-43df-ad6d-1b2aeb19de8a","system_id":"levelo_inurba_marseille","lat":43.305714,"lon":5.365633,"is_reserved":false,"is_disabled":false,"rental_uris":{"android":"levelo://app?vid=dc750203-1cf5-43df-ad6d-1b2aeb19de8a","ios":"levelo://app?vid=dc750203-1cf5-43df-ad6d-1b2aeb19de8a"},"vehicle_type_id":"4","last_reported":1702119931,"current_range_meters":16400,"station_id":"ce4bgs12rcd13ifvqcag","pricing_plan_id":"free"},{"bike_id":"bd950bf3-237d-4594-9e6d-6043f5b94728","system_id":"levelo_inurba_marseille","lat":43.305368,"lon":5.367343,"is_reserved":false,"is_disabled":false,"rental_uris":{"android":"levelo://app?vid=bd950bf3-237d-4594-9e6d-6043f5b94728","ios":"levelo://app?vid=bd950bf3-237d-4594-9e6d-6043f5b94728"},"vehicle_type_id":"4","last_reported":1702119931,"current_range_meters":24000,"station_id":"ce4bgrp2rcd13ifvqc9g","pricing_plan_id":"free"},{"bike_id":"e50a0d9c-af0a-4e60-b6b7-2f9fc9cf5c58","system_id":"levelo_inurba_marseille","lat":43.31702,"lon":5.377221,"is_reserved":false,"is_disabled":false,"rental_uris":{"android":"levelo://app?vid=e50a0d9c-af0a-4e60-b6b7-2f9fc9cf5c58","ios":"levelo://app?vid=e50a0d9c-af0a-4e60-b6b7-2f9fc9cf5c58"},"vehicle_type_id":"4","last_reported":1702119931,"current_range_meters":23600,"station_id":"ce4bgth2rcd13ifvqch0","pricing_plan_id":"free"},{"bike_id":"5b019d99-1597-40dd-8863-1c6db6108547","system_id":"levelo_inurba_marseille","lat":43.317075,"lon":5.377367,"is_reserved":false,"is_disabled":false,"rental_uris":{"android":"levelo://app?vid=5b019d99-1597-40dd-8863-1c6db6108547","ios":"levelo://app?vid=5b019d99-1597-40dd-8863-1c6db6108547"},"vehicle_type_id":"4","last_reported":1702119931,"current_range_meters":31200,"station_id":"ce4bgth2rcd13ifvqch0","pricing_plan_id":"free"},{"bike_id":"b9c9037b-ed34-47fd-88ae-465de495830a","system_id":"levelo_inurba_marseille","lat":43.30316,"lon":5.36893,"is_reserved":false,"is_disabled":false,"rental_uris":{"android":"levelo://app?vid=b9c9037b-ed34-47fd-88ae-465de495830a","ios":"levelo://app?vid=b9c9037b-ed34-47fd-88ae-465de495830a"},"vehicle_type_id":"4","last_reported":1702119931,"current_range_meters":23600,"station_id":"ce4bgqh2rcd13ifvqc5g","pricing_plan_id":"free"},{"bike_id":"57db2223-b6b4-43e3-93e0-ea7429206d65","system_id":"levelo_inurba_marseille","lat":43.301939,"lon":5.366286,"is_reserved":false,"is_disabled":false,"rental_uris":{"android":"levelo://app?vid=57db2223-b6b4-43e3-93e0-ea7429206d65","ios":"levelo://app?vid=57db2223-b6b4-43e3-93e0-ea7429206d65"},"vehicle_type_id":"4","last_reported":1702119931,"current_range_meters":24400,"station_id":"ce4bgrh2rcd13ifvqc8g","pricing_plan_id":"free"},{"bike_id":"4e6ff051-2573-47dc-be72-a29951b0909f","system_id":"levelo_inurba_marseille","lat":43.301429,"lon":5.37413,"is_reserved":false,"is_disabled":false,"rental_uris":{"android":"levelo://app?vid=4e6ff051-2573-47dc-be72-a29951b0909f","ios":"levelo://app?vid=4e6ff051-2573-47dc-be72-a29951b0909f"},"vehicle_type_id":"4","last_reported":1702119931,"current_range_meters":22400,"station_id":"ce4bgs92rcd13ifvqcc0","pricing_plan_id":"free"},{"bike_id":"cd6b4203-7aff-4ab8-92b9-aaeaa393501f","system_id":"levelo_inurba_marseille","lat":43.30143,"lon":5.37413,"is_reserved":false,"is_disabled":false,"rental_uris":{"android":"levelo://app?vid=cd6b4203-7aff-4ab8-92b9-aaeaa393501f","ios":"levelo://app?vid=cd6b4203-7aff-4ab8-92b9-aaeaa393501f"},"vehicle_type_id":"4","last_reported":1702119931,"current_range_meters":4400,"station_id":"ce4bgs92rcd13ifvqcc0","pricing_plan_id":"free"},{"bike_id":"a434bb0d-7bce-47d8-91ea-9f722fce5924","system_id":"levelo_inurba_marseille","lat":43.301429,"lon":5.37413,"is_reserved":false,"is_disabled":false,"rental_uris":{"android":"levelo://app?vid=a434bb0d-7bce-47d8-91ea-9f722fce5924","ios":"levelo://app?vid=a434bb0d-7bce-47d8-91ea-9f722fce5924"},"vehicle_type_id":"4","last_reported":1702119931,"current_range_meters":9200,"station_id":"ce4bgs92rcd13ifvqcc0","pricing_plan_id":"free"},{"bike_id":"222d11a8-4270-4b8b-8017-3ec3320e64d8","system_id":"levelo_inurba_marseille","lat":43.30147,"lon":5.37415,"is_reserved":false,"is_disabled":false,"rental_uris":{"android":"levelo://app?vid=222d11a8-4270-4b8b-8017-3ec3320e64d8","ios":"levelo://app?vid=222d11a8-4270-4b8b-8017-3ec3320e64d8"},"vehicle_type_id":"4","last_reported":1702119931,"current_range_meters":22000,"station_id":"ce4bgs92rcd13ifvqcc0","pricing_plan_id":"free"},{"bike_id":"000b2feb-298d-41f4-85b9-8521a2371984","system_id":"levelo_inurba_marseille","lat":43.302784,"lon":5.377158,"is_reserved":false,"is_disabled":false,"rental_uris":{"android":"levelo://app?vid=000b2feb-298d-41f4-85b9-8521a2371984","ios":"levelo://app?vid=000b2feb-298d-41f4-85b9-8521a2371984"},"vehicle_type_id":"4","last_reported":1702119931,"current_range_meters":23200,"station_id":"ce4bguh2rcd13ifvqcj0","pricing_plan_id":"free"},{"bike_id":"e85037d8-da80-4478-951b-fcccbef01fe5","system_id":"levelo_inurba_marseille","lat":43.30126,"lon":5.37409,"is_reserved":false,"is_disabled":false,"rental_uris":{"android":"levelo://app?vid=e85037d8-da80-4478-951b-fcccbef01fe5","ios":"levelo://app?vid=e85037d8-da80-4478-951b-fcccbef01fe5"},"vehicle_type_id":"4","last_reported":1702119931,"current_range_meters":22400,"station_id":"ce4bgs92rcd13ifvqcc0","pricing_plan_id":"free"},{"bike_id":"ee0e638f-d618-41fa-ac21-fbf44fdd47b0","system_id":"levelo_inurba_marseille","lat":43.319935,"lon":5.381699,"is_reserved":false,"is_disabled":false,"rental_uris":{"android":"levelo://app?vid=ee0e638f-d618-41fa-ac21-fbf44fdd47b0","ios":"levelo://app?vid=ee0e638f-d618-41fa-ac21-fbf44fdd47b0"},"vehicle_type_id":"4","last_reported":1702119931,"current_range_meters":29600,"station_id":"ce4bhr12rcd13ifvqhpg","pricing_plan_id":"free"},{"bike_id":"7cadf9d5-609d-4f36-b371-aa696990a50d","system_id":"levelo_inurba_marseille","lat":43.313571,"lon":5.384829,"is_reserved":false,"is_disabled":false,"rental_uris":{"android":"levelo://app?vid=7cadf9d5-609d-4f36-b371-aa696990a50d","ios":"levelo://app?vid=7cadf9d5-609d-4f36-b371-aa696990a50d"},"vehicle_type_id":"4","last_reported":1702119931,"current_range_meters":20000,"station_id":"ce4bgt92rcd13ifvqcf0","pricing_plan_id":"free"},{"bike_id":"bc5fbb97-360a-4591-ac4b-df0879d1eab4","system_id":"levelo_inurba_marseille","lat":43.31356,"lon":5.38493,"is_reserved":false,"is_disabled":false,"rental_uris":{"android":"levelo://app?vid=bc5fbb97-360a-4591-ac4b-df0879d1eab4","ios":"levelo://app?vid=bc5fbb97-360a-4591-ac4b-df0879d1eab4"},"vehicle_type_id":"4","last_reported":1702119931,"current_range_meters":24400,"station_id":"ce4bgt92rcd13ifvqcf0","pricing_plan_id":"free"},{"bike_id":"beabe6fc-4759-40a7-8727-4f898b10b24c","system_id":"levelo_inurba_marseille","lat":43.298433,"lon":5.362774,"is_reserved":false,"is_disabled":false,"rental_uris":{"android":"levelo://app?vid=beabe6fc-4759-40a7-8727-4f898b10b24c","ios":"levelo://app?vid=beabe6fc-4759-40a7-8727-4f898b10b24c"},"vehicle_type_id":"4","last_reported":1702119931,"current_range_meters":21200,"station_id":"ce4bgpp2rcd13ifvqc3g","pricing_plan_id":"free"},{"bike_id":"7e5581e0-dded-4160-a1c7-c4d1c009e084","system_id":"levelo_inurba_marseille","lat":43.298433,"lon":5.362774,"is_reserved":false,"is_disabled":false,"rental_uris":{"android":"levelo://app?vid=7e5581e0-dded-4160-a1c7-c4d1c009e084","ios":"levelo://app?vid=7e5581e0-dded-4160-a1c7-c4d1c009e084"},"vehicle_type_id":"4","last_reported":1702119931,"current_range_meters":23600,"station_id":"ce4bgpp2rcd13ifvqc3g","pricing_plan_id":"free"},{"bike_id":"ae1036a4-48ad-4b36-9786-f0f69447bc23","system_id":"levelo_inurba_marseille","lat":43.31173,"lon":5.38715,"is_reserved":false,"is_disabled":false,"rental_uris":{"android":"levelo://app?vid=ae1036a4-48ad-4b36-9786-f0f69447bc23","ios":"levelo://app?vid=ae1036a4-48ad-4b36-9786-f0f69447bc23"},"vehicle_type_id":"4","last_reported":1702119931,"current_range_meters":18400,"station_id":"ce4bgv12rcd13ifvqcp0","pricing_plan_id":"free"},{"bike_id":"c7434962-efe8-4461-8be2-21b47b98f22c","system_id":"levelo_inurba_marseille","lat":43.322872,"lon":5.382756,"is_reserved":false,"is_disabled":false,"rental_uris":{"android":"levelo://app?vid=c7434962-efe8-4461-8be2-21b47b98f22c","ios":"levelo://app?vid=c7434962-efe8-4461-8be2-21b47b98f22c"},"vehicle_type_id":"4","last_reported":1702119931,"current_range_meters":16400,"station_id":"ce4bhr12rcd13ifvqhqg","pricing_plan_id":"free"},{"bike_id":"38f1223e-a214-4eb0-9b54-a70de861d11b","system_id":"levelo_inurba_marseille","lat":43.322872,"lon":5.382756,"is_reserved":false,"is_disabled":false,"rental_uris":{"android":"levelo://app?vid=38f1223e-a214-4eb0-9b54-a70de861d11b","ios":"levelo://app?vid=38f1223e-a214-4eb0-9b54-a70de861d11b"},"vehicle_type_id":"4","last_reported":1702119931,"current_range_meters":23200,"station_id":"ce4bhr12rcd13ifvqhqg","pricing_plan_id":"free"},{"bike_id":"358df3c2-8cbe-4d31-bd47-bad192091104","system_id":"levelo_inurba_marseille","lat":43.29779,"lon":5.37113,"is_reserved":false,"is_disabled":false,"rental_uris":{"android":"levelo://app?vid=358df3c2-8cbe-4d31-bd47-bad192091104","ios":"levelo://app?vid=358df3c2-8cbe-4d31-bd47-bad192091104"},"vehicle_type_id":"4","last_reported":1702119931,"current_range_meters":25600,"station_id":"ce4bgop2rcd13ifvqc1g","pricing_plan_id":"free"},{"bike_id":"d04bedf3-fa0d-476a-afc0-f8735ca347d1","system_id":"levelo_inurba_marseille","lat":43.322872,"lon":5.382756,"is_reserved":false,"is_disabled":false,"rental_uris":{"android":"levelo://app?vid=d04bedf3-fa0d-476a-afc0-f8735ca347d1","ios":"levelo://app?vid=d04bedf3-fa0d-476a-afc0-f8735ca347d1"},"vehicle_type_id":"4","last_reported":1702119931,"current_range_meters":16000,"station_id":"ce4bhr12rcd13ifvqhqg","pricing_plan_id":"free"},{"bike_id":"6ac675f1-e0be-498c-ad2f-b742a949d4b0","system_id":"levelo_inurba_marseille","lat":43.298218,"lon":5.374416,"is_reserved":false,"is_disabled":false,"rental_uris":{"android":"levelo://app?vid=6ac675f1-e0be-498c-ad2f-b742a949d4b0","ios":"levelo://app?vid=6ac675f1-e0be-498c-ad2f-b742a949d4b0"},"vehicle_type_id":"4","last_reported":1702119931,"current_range_meters":2400,"station_id":"","pricing_plan_id":"free"},{"bike_id":"8152aa9f-d323-476d-b021-9abe496e2dfd","system_id":"levelo_inurba_marseille","lat":43.32829,"lon":5.36693,"is_reserved":false,"is_disabled":false,"rental_uris":{"android":"levelo://app?vid=8152aa9f-d323-476d-b021-9abe496e2dfd","ios":"levelo://app?vid=8152aa9f-d323-476d-b021-9abe496e2dfd"},"vehicle_type_id":"4","last_reported":1702119931,"current_range_meters":20000,"station_id":"ce4bhs92rcd13ifvqi0g","pricing_plan_id":"free"},{"bike_id":"92dc65d6-6823-4de3-93d4-056f738f090c","system_id":"levelo_inurba_marseille","lat":43.316538,"lon":5.38954,"is_reserved":false,"is_disabled":false,"rental_uris":{"android":"levelo://app?vid=92dc65d6-6823-4de3-93d4-056f738f090c","ios":"levelo://app?vid=92dc65d6-6823-4de3-93d4-056f738f090c"},"vehicle_type_id":"4","last_reported":1702119931,"current_range_meters":0,"station_id":"","pricing_plan_id":"free"},{"bike_id":"cd79bbfa-5f08-45a1-a584-119bff5e2e94","system_id":"levelo_inurba_marseille","lat":43.296921,"lon":5.376579,"is_reserved":false,"is_disabled":false,"rental_uris":{"android":"levelo://app?vid=cd79bbfa-5f08-45a1-a584-119bff5e2e94","ios":"levelo://app?vid=cd79bbfa-5f08-45a1-a584-119bff5e2e94"},"vehicle_type_id":"4","last_reported":1702119931,"current_range_meters":27600,"station_id":"ce4bgkh2rcd13ifvqbl0","pricing_plan_id":"free"},{"bike_id":"61c4266c-6790-478b-b76f-f2710a2b8451","system_id":"levelo_inurba_marseille","lat":43.304274,"lon":5.388873,"is_reserved":false,"is_disabled":false,"rental_uris":{"android":"levelo://app?vid=61c4266c-6790-478b-b76f-f2710a2b8451","ios":"levelo://app?vid=61c4266c-6790-478b-b76f-f2710a2b8451"},"vehicle_type_id":"4","last_reported":1702119931,"current_range_meters":27600,"station_id":"ce4bgk12rcd13ifvqbi0","pricing_plan_id":"free"},{"bike_id":"a40da092-1792-497b-8293-69979a416160","system_id":"levelo_inurba_marseille","lat":43.296263,"lon":5.377094,"is_reserved":false,"is_disabled":false,"rental_uris":{"android":"levelo://app?vid=a40da092-1792-497b-8293-69979a416160","ios":"levelo://app?vid=a40da092-1792-497b-8293-69979a416160"},"vehicle_type_id":"4","last_reported":1702119931,"current_range_meters":30800,"station_id":"ce4bgi92rcd13ifvqb90","pricing_plan_id":"free"},{"bike_id":"bf9074bb-44a7-45c6-9192-f6f5049cc92f","system_id":"levelo_inurba_marseille","lat":43.2936,"lon":5.37835,"is_reserved":false,"is_disabled":false,"rental_uris":{"android":"levelo://app?vid=bf9074bb-44a7-45c6-9192-f6f5049cc92f","ios":"levelo://app?vid=bf9074bb-44a7-45c6-9192-f6f5049cc92f"},"vehicle_type_id":"4","last_reported":1702119931,"current_range_meters":22400,"station_id":"ce4bgjh2rcd13ifvqbf0","pricing_plan_id":"free"},{"bike_id":"cd195142-0214-4cf1-92ae-20e1068af93f","system_id":"levelo_inurba_marseille","lat":43.293681,"lon":5.378571,"is_reserved":false,"is_disabled":false,"rental_uris":{"android":"levelo://app?vid=cd195142-0214-4cf1-92ae-20e1068af93f","ios":"levelo://app?vid=cd195142-0214-4cf1-92ae-20e1068af93f"},"vehicle_type_id":"4","last_reported":1702119931,"current_range_meters":26800,"station_id":"","pricing_plan_id":"free"},{"bike_id":"524713f7-d7fc-4591-a266-580012d93bfd","system_id":"levelo_inurba_marseille","lat":43.29885,"lon":5.38896,"is_reserved":false,"is_disabled":false,"rental_uris":{"android":"levelo://app?vid=524713f7-d7fc-4591-a266-580012d93bfd","ios":"levelo://app?vid=524713f7-d7fc-4591-a266-580012d93bfd"},"vehicle_type_id":"4","last_reported":1702119931,"current_range_meters":16000,"station_id":"","pricing_plan_id":"free"},{"bike_id":"ffe8e861-9583-46be-9da3-462d5c1037ee","system_id":"levelo_inurba_marseille","lat":43.29258,"lon":5.3761,"is_reserved":false,"is_disabled":false,"rental_uris":{"android":"levelo://app?vid=ffe8e861-9583-46be-9da3-462d5c1037ee","ios":"levelo://app?vid=ffe8e861-9583-46be-9da3-462d5c1037ee"},"vehicle_type_id":"4","last_reported":1702119931,"current_range_meters":11600,"station_id":"ce4bgi12rcd13ifvqb80","pricing_plan_id":"free"},{"bike_id":"f1907808-434c-4b30-829d-901d1cfb8a2a","system_id":"levelo_inurba_marseille","lat":43.313291,"lon":5.396838,"is_reserved":false,"is_disabled":false,"rental_uris":{"android":"levelo://app?vid=f1907808-434c-4b30-829d-901d1cfb8a2a","ios":"levelo://app?vid=f1907808-434c-4b30-829d-901d1cfb8a2a"},"vehicle_type_id":"4","last_reported":1702119931,"current_range_meters":16000,"station_id":"ce4bgvp2rcd13ifvqcu0","pricing_plan_id":"free"},{"bike_id":"25370a0e-e806-4f5e-a418-6aeaa4287291","system_id":"levelo_inurba_marseille","lat":43.29187,"lon":5.35797,"is_reserved":false,"is_disabled":false,"rental_uris":{"android":"levelo://app?vid=25370a0e-e806-4f5e-a418-6aeaa4287291","ios":"levelo://app?vid=25370a0e-e806-4f5e-a418-6aeaa4287291"},"vehicle_type_id":"4","last_reported":1702119931,"current_range_meters":17200,"station_id":"ce4bhb12rcd13ifvqel0","pricing_plan_id":"free"},{"bike_id":"5b118b9a-3231-4fa2-aef5-9c4549ce7e79","system_id":"levelo_inurba_marseille","lat":43.290779,"lon":5.371482,"is_reserved":false,"is_disabled":false,"rental_uris":{"android":"levelo://app?vid=5b118b9a-3231-4fa2-aef5-9c4549ce7e79","ios":"levelo://app?vid=5b118b9a-3231-4fa2-aef5-9c4549ce7e79"},"vehicle_type_id":"4","last_reported":1702119931,"current_range_meters":30400,"station_id":"ce4bh5p2rcd13ifvqe4g","pricing_plan_id":"free"},{"bike_id":"e89d1bea-990a-4686-b7fd-e408d935b949","system_id":"levelo_inurba_marseille","lat":43.294153,"lon":5.386305,"is_reserved":false,"is_disabled":false,"rental_uris":{"android":"levelo://app?vid=e89d1bea-990a-4686-b7fd-e408d935b949","ios":"levelo://app?vid=e89d1bea-990a-4686-b7fd-e408d935b949"},"vehicle_type_id":"4","last_reported":1702119931,"current_range_meters":9200,"station_id":"ce4bh2h2rcd13ifvqdh0","pricing_plan_id":"free"},{"bike_id":"09e9a93d-d00d-41db-953d-bc7caa7c2760","system_id":"levelo_inurba_marseille","lat":43.294162,"lon":5.386292,"is_reserved":false,"is_disabled":false,"rental_uris":{"android":"levelo://app?vid=09e9a93d-d00d-41db-953d-bc7caa7c2760","ios":"levelo://app?vid=09e9a93d-d00d-41db-953d-bc7caa7c2760"},"vehicle_type_id":"4","last_reported":1702119931,"current_range_meters":3200,"station_id":"ce4bh2h2rcd13ifvqdh0","pricing_plan_id":"free"},{"bike_id":"2699b5b9-1b89-44fa-a9af-0be5181080e1","system_id":"levelo_inurba_marseille","lat":43.294156,"lon":5.386192,"is_reserved":false,"is_disabled":false,"rental_uris":{"android":"levelo://app?vid=2699b5b9-1b89-44fa-a9af-0be5181080e1","ios":"levelo://app?vid=2699b5b9-1b89-44fa-a9af-0be5181080e1"},"vehicle_type_id":"4","last_reported":1702119931,"current_range_meters":18400,"station_id":"","pricing_plan_id":"free"},{"bike_id":"7c30a835-335e-4db4-afce-c62a1a243270","system_id":"levelo_inurba_marseille","lat":43.290327,"lon":5.375711,"is_reserved":false,"is_disabled":false,"rental_uris":{"android":"levelo://app?vid=7c30a835-335e-4db4-afce-c62a1a243270","ios":"levelo://app?vid=7c30a835-335e-4db4-afce-c62a1a243270"},"vehicle_type_id":"4","last_reported":1702119931,"current_range_meters":12800,"station_id":"ce4bh692rcd13ifvqe90","pricing_plan_id":"free"},{"bike_id":"ace701d0-9b5b-4c2a-9884-7bbe60ead95a","system_id":"levelo_inurba_marseille","lat":43.28945,"lon":5.36384,"is_reserved":false,"is_disabled":false,"rental_uris":{"android":"levelo://app?vid=ace701d0-9b5b-4c2a-9884-7bbe60ead95a","ios":"levelo://app?vid=ace701d0-9b5b-4c2a-9884-7bbe60ead95a"},"vehicle_type_id":"4","last_reported":1702119931,"current_range_meters":11600,"station_id":"ce4bhc92rcd13ifvqetg","pricing_plan_id":"free"},{"bike_id":"a02a1b20-1fb1-4951-988a-77389649024d","system_id":"levelo_inurba_marseille","lat":43.289259,"lon":5.366364,"is_reserved":false,"is_disabled":false,"rental_uris":{"android":"levelo://app?vid=a02a1b20-1fb1-4951-988a-77389649024d","ios":"levelo://app?vid=a02a1b20-1fb1-4951-988a-77389649024d"},"vehicle_type_id":"4","last_reported":1702119931,"current_range_meters":12400,"station_id":"","pricing_plan_id":"free"},{"bike_id":"177ef602-16eb-4079-9838-670d040fb9b0","system_id":"levelo_inurba_marseille","lat":43.304274,"lon":5.397513,"is_reserved":false,"is_disabled":false,"rental_uris":{"android":"levelo://app?vid=177ef602-16eb-4079-9838-670d040fb9b0","ios":"levelo://app?vid=177ef602-16eb-4079-9838-670d040fb9b0"},"vehicle_type_id":"4","last_reported":1702119931,"current_range_meters":23600,"station_id":"ce4bh092rcd13ifvqd20","pricing_plan_id":"free"},{"bike_id":"c4d0fd3b-b2c4-413a-95e0-e3cf245ff8ad","system_id":"levelo_inurba_marseille","lat":43.292642,"lon":5.384254,"is_reserved":false,"is_disabled":false,"rental_uris":{"android":"levelo://app?vid=c4d0fd3b-b2c4-413a-95e0-e3cf245ff8ad","ios":"levelo://app?vid=c4d0fd3b-b2c4-413a-95e0-e3cf245ff8ad"},"vehicle_type_id":"4","last_reported":1702119931,"current_range_meters":18000,"station_id":"ce4bh692rcd13ifvqea0","pricing_plan_id":"free"},{"bike_id":"ce18ae7e-3845-4a46-8c8c-674d4d2c7da0","system_id":"levelo_inurba_marseille","lat":43.33035,"lon":5.38922,"is_reserved":false,"is_disabled":false,"rental_uris":{"android":"levelo://app?vid=ce18ae7e-3845-4a46-8c8c-674d4d2c7da0","ios":"levelo://app?vid=ce18ae7e-3845-4a46-8c8c-674d4d2c7da0"},"vehicle_type_id":"4","last_reported":1702119931,"current_range_meters":15200,"station_id":"ce4bhr92rcd13ifvqhrg","pricing_plan_id":"free"},{"bike_id":"400690de-82e4-42ab-8566-d6ecd22cfab1","system_id":"levelo_inurba_marseille","lat":43.33039,"lon":5.38921,"is_reserved":false,"is_disabled":false,"rental_uris":{"android":"levelo://app?vid=400690de-82e4-42ab-8566-d6ecd22cfab1","ios":"levelo://app?vid=400690de-82e4-42ab-8566-d6ecd22cfab1"},"vehicle_type_id":"4","last_reported":1702119931,"current_range_meters":26400,"station_id":"ce4bhr92rcd13ifvqhrg","pricing_plan_id":"free"},{"bike_id":"5c851a12-5741-43b3-816f-010057363b5e","system_id":"levelo_inurba_marseille","lat":43.33041,"lon":5.3892,"is_reserved":false,"is_disabled":false,"rental_uris":{"android":"levelo://app?vid=5c851a12-5741-43b3-816f-010057363b5e","ios":"levelo://app?vid=5c851a12-5741-43b3-816f-010057363b5e"},"vehicle_type_id":"4","last_reported":1702119931,"current_range_meters":8800,"station_id":"ce4bhr92rcd13ifvqhrg","pricing_plan_id":"free"},{"bike_id":"59683761-a578-4012-9a2e-6bfd1a5a4622","system_id":"levelo_inurba_marseille","lat":43.33044,"lon":5.38923,"is_reserved":false,"is_disabled":false,"rental_uris":{"android":"levelo://app?vid=59683761-a578-4012-9a2e-6bfd1a5a4622","ios":"levelo://app?vid=59683761-a578-4012-9a2e-6bfd1a5a4622"},"vehicle_type_id":"4","last_reported":1702119931,"current_range_meters":17600,"station_id":"ce4bhr92rcd13ifvqhrg","pricing_plan_id":"free"},{"bike_id":"f3ce480c-56c1-4197-adce-25bba6491da6","system_id":"levelo_inurba_marseille","lat":43.31278,"lon":5.40172,"is_reserved":false,"is_disabled":false,"rental_uris":{"android":"levelo://app?vid=f3ce480c-56c1-4197-adce-25bba6491da6","ios":"levelo://app?vid=f3ce480c-56c1-4197-adce-25bba6491da6"},"vehicle_type_id":"4","last_reported":1702119931,"current_range_meters":0,"station_id":"ce4bh092rcd13ifvqd30","pricing_plan_id":"free"},{"bike_id":"98cec118-16b8-4a81-af7b-16c08d9a569e","system_id":"levelo_inurba_marseille","lat":43.33759,"lon":5.37457,"is_reserved":false,"is_disabled":false,"rental_uris":{"android":"levelo://app?vid=98cec118-16b8-4a81-af7b-16c08d9a569e","ios":"levelo://app?vid=98cec118-16b8-4a81-af7b-16c08d9a569e"},"vehicle_type_id":"4","last_reported":1702119931,"current_range_meters":27200,"station_id":"","pricing_plan_id":"free"},{"bike_id":"e450bb6c-19ba-44f6-9c4c-7fe494c038e1","system_id":"levelo_inurba_marseille","lat":43.28727,"lon":5.36078,"is_reserved":false,"is_disabled":false,"rental_uris":{"android":"levelo://app?vid=e450bb6c-19ba-44f6-9c4c-7fe494c038e1","ios":"levelo://app?vid=e450bb6c-19ba-44f6-9c4c-7fe494c038e1"},"vehicle_type_id":"4","last_reported":1702119931,"current_range_meters":27200,"station_id":"cki0cbj6b192h4jlfktg","pricing_plan_id":"free"},{"bike_id":"b3d0390d-f86f-4ae3-89fa-51de1310825f","system_id":"levelo_inurba_marseille","lat":43.298681,"lon":5.397225,"is_reserved":false,"is_disabled":false,"rental_uris":{"android":"levelo://app?vid=b3d0390d-f86f-4ae3-89fa-51de1310825f","ios":"levelo://app?vid=b3d0390d-f86f-4ae3-89fa-51de1310825f"},"vehicle_type_id":"4","last_reported":1702119931,"current_range_meters":12800,"station_id":"ce4bh0h2rcd13ifvqd50","pricing_plan_id":"free"},{"bike_id":"7707a145-c651-4fca-955b-fc153ddd0d81","system_id":"levelo_inurba_marseille","lat":43.295196,"lon":5.39397,"is_reserved":false,"is_disabled":false,"rental_uris":{"android":"levelo://app?vid=7707a145-c651-4fca-955b-fc153ddd0d81","ios":"levelo://app?vid=7707a145-c651-4fca-955b-fc153ddd0d81"},"vehicle_type_id":"4","last_reported":1702119931,"current_range_meters":30000,"station_id":"ce4bh292rcd13ifvqdf0","pricing_plan_id":"free"},{"bike_id":"6466d959-4dbf-4972-b894-1001989eb4e5","system_id":"levelo_inurba_marseille","lat":43.302759,"lon":5.400793,"is_reserved":false,"is_disabled":false,"rental_uris":{"android":"levelo://app?vid=6466d959-4dbf-4972-b894-1001989eb4e5","ios":"levelo://app?vid=6466d959-4dbf-4972-b894-1001989eb4e5"},"vehicle_type_id":"4","last_reported":1702119931,"current_range_meters":30400,"station_id":"ce4bgvh2rcd13ifvqcs0","pricing_plan_id":"free"},{"bike_id":"f6b9fe7d-73e2-4aca-8cf7-9a5dc7cbc907","system_id":"levelo_inurba_marseille","lat":43.302759,"lon":5.400793,"is_reserved":false,"is_disabled":false,"rental_uris":{"android":"levelo://app?vid=f6b9fe7d-73e2-4aca-8cf7-9a5dc7cbc907","ios":"levelo://app?vid=f6b9fe7d-73e2-4aca-8cf7-9a5dc7cbc907"},"vehicle_type_id":"4","last_reported":1702119931,"current_range_meters":22800,"station_id":"ce4bgvh2rcd13ifvqcs0","pricing_plan_id":"free"},{"bike_id":"a65d6095-750b-43ca-9a9f-1a37b4e0c4bd","system_id":"levelo_inurba_marseille","lat":43.302759,"lon":5.400793,"is_reserved":false,"is_disabled":false,"rental_uris":{"android":"levelo://app?vid=a65d6095-750b-43ca-9a9f-1a37b4e0c4bd","ios":"levelo://app?vid=a65d6095-750b-43ca-9a9f-1a37b4e0c4bd"},"vehicle_type_id":"4","last_reported":1702119931,"current_range_meters":1600,"station_id":"ce4bgvh2rcd13ifvqcs0","pricing_plan_id":"free"},{"bike_id":"ab889e5c-996d-4563-b61e-300f3a807a49","system_id":"levelo_inurba_marseille","lat":43.302759,"lon":5.400793,"is_reserved":false,"is_disabled":false,"rental_uris":{"android":"levelo://app?vid=ab889e5c-996d-4563-b61e-300f3a807a49","ios":"levelo://app?vid=ab889e5c-996d-4563-b61e-300f3a807a49"},"vehicle_type_id":"4","last_reported":1702119931,"current_range_meters":28000,"station_id":"ce4bgvh2rcd13ifvqcs0","pricing_plan_id":"free"},{"bike_id":"48ef9b80-d088-46ff-a140-0bb0aea41b49","system_id":"levelo_inurba_marseille","lat":43.302759,"lon":5.400793,"is_reserved":false,"is_disabled":false,"rental_uris":{"android":"levelo://app?vid=48ef9b80-d088-46ff-a140-0bb0aea41b49","ios":"levelo://app?vid=48ef9b80-d088-46ff-a140-0bb0aea41b49"},"vehicle_type_id":"4","last_reported":1702119931,"current_range_meters":30800,"station_id":"ce4bgvh2rcd13ifvqcs0","pricing_plan_id":"free"},{"bike_id":"10d35725-387e-4354-9f69-09113f8dd628","system_id":"levelo_inurba_marseille","lat":43.302759,"lon":5.400793,"is_reserved":false,"is_disabled":false,"rental_uris":{"android":"levelo://app?vid=10d35725-387e-4354-9f69-09113f8dd628","ios":"levelo://app?vid=10d35725-387e-4354-9f69-09113f8dd628"},"vehicle_type_id":"4","last_reported":1702119931,"current_range_meters":11200,"station_id":"ce4bgvh2rcd13ifvqcs0","pricing_plan_id":"free"},{"bike_id":"46395ccc-71d0-46fb-813f-90f1b5337aaa","system_id":"levelo_inurba_marseille","lat":43.302759,"lon":5.400793,"is_reserved":false,"is_disabled":false,"rental_uris":{"android":"levelo://app?vid=46395ccc-71d0-46fb-813f-90f1b5337aaa","ios":"levelo://app?vid=46395ccc-71d0-46fb-813f-90f1b5337aaa"},"vehicle_type_id":"4","last_reported":1702119931,"current_range_meters":22000,"station_id":"ce4bgvh2rcd13ifvqcs0","pricing_plan_id":"free"},{"bike_id":"0957a779-0d4e-440c-9a3d-bac490ec9115","system_id":"levelo_inurba_marseille","lat":43.302759,"lon":5.400793,"is_reserved":false,"is_disabled":false,"rental_uris":{"android":"levelo://app?vid=0957a779-0d4e-440c-9a3d-bac490ec9115","ios":"levelo://app?vid=0957a779-0d4e-440c-9a3d-bac490ec9115"},"vehicle_type_id":"4","last_reported":1702119931,"current_range_meters":7200,"station_id":"ce4bgvh2rcd13ifvqcs0","pricing_plan_id":"free"},{"bike_id":"d4ad3f70-2462-435f-9e00-1aae0cf66321","system_id":"levelo_inurba_marseille","lat":43.286039,"lon":5.370681,"is_reserved":false,"is_disabled":false,"rental_uris":{"android":"levelo://app?vid=d4ad3f70-2462-435f-9e00-1aae0cf66321","ios":"levelo://app?vid=d4ad3f70-2462-435f-9e00-1aae0cf66321"},"vehicle_type_id":"4","last_reported":1702119931,"current_range_meters":7200,"station_id":"ce4bht12rcd13ifvqi60","pricing_plan_id":"free"},{"bike_id":"49658399-508d-489c-8ecf-17152ba09692","system_id":"levelo_inurba_marseille","lat":43.286039,"lon":5.370679,"is_reserved":false,"is_disabled":false,"rental_uris":{"android":"levelo://app?vid=49658399-508d-489c-8ecf-17152ba09692","ios":"levelo://app?vid=49658399-508d-489c-8ecf-17152ba09692"},"vehicle_type_id":"4","last_reported":1702119931,"current_range_meters":26800,"station_id":"ce4bht12rcd13ifvqi60","pricing_plan_id":"free"},{"bike_id":"11827d9c-dab2-4e6e-a8a5-19328753934f","system_id":"levelo_inurba_marseille","lat":43.286039,"lon":5.370681,"is_reserved":false,"is_disabled":false,"rental_uris":{"android":"levelo://app?vid=11827d9c-dab2-4e6e-a8a5-19328753934f","ios":"levelo://app?vid=11827d9c-dab2-4e6e-a8a5-19328753934f"},"vehicle_type_id":"4","last_reported":1702119931,"current_range_meters":18000,"station_id":"ce4bht12rcd13ifvqi60","pricing_plan_id":"free"},{"bike_id":"fcfe0419-a60d-4e7a-be3f-565da602c400","system_id":"levelo_inurba_marseille","lat":43.291967,"lon":5.393126,"is_reserved":false,"is_disabled":false,"rental_uris":{"android":"levelo://app?vid=fcfe0419-a60d-4e7a-be3f-565da602c400","ios":"levelo://app?vid=fcfe0419-a60d-4e7a-be3f-565da602c400"},"vehicle_type_id":"4","last_reported":1702119931,"current_range_meters":14000,"station_id":"ce4bh192rcd13ifvqdd0","pricing_plan_id":"free"},{"bike_id":"b8094e0f-7524-4717-bc5c-fead3f342fa7","system_id":"levelo_inurba_marseille","lat":43.29204,"lon":5.39328,"is_reserved":false,"is_disabled":false,"rental_uris":{"android":"levelo://app?vid=b8094e0f-7524-4717-bc5c-fead3f342fa7","ios":"levelo://app?vid=b8094e0f-7524-4717-bc5c-fead3f342fa7"},"vehicle_type_id":"4","last_reported":1702119931,"current_range_meters":31200,"station_id":"ce4bh192rcd13ifvqdd0","pricing_plan_id":"free"},{"bike_id":"77abc239-0daa-492f-bfde-db8e9558e125","system_id":"levelo_inurba_marseille","lat":43.284538,"lon":5.358657,"is_reserved":false,"is_disabled":false,"rental_uris":{"android":"levelo://app?vid=77abc239-0daa-492f-bfde-db8e9558e125","ios":"levelo://app?vid=77abc239-0daa-492f-bfde-db8e9558e125"},"vehicle_type_id":"4","last_reported":1702119931,"current_range_meters":27200,"station_id":"ce4bhah2rcd13ifvqei0","pricing_plan_id":"free"},{"bike_id":"60d3c962-2b73-4f89-a6b5-7017f413e224","system_id":"levelo_inurba_marseille","lat":43.284538,"lon":5.358657,"is_reserved":false,"is_disabled":false,"rental_uris":{"android":"levelo://app?vid=60d3c962-2b73-4f89-a6b5-7017f413e224","ios":"levelo://app?vid=60d3c962-2b73-4f89-a6b5-7017f413e224"},"vehicle_type_id":"4","last_reported":1702119931,"current_range_meters":22800,"station_id":"ce4bhah2rcd13ifvqei0","pricing_plan_id":"free"},{"bike_id":"24b39ee2-5db4-4c53-91cd-672095dd0c9a","system_id":"levelo_inurba_marseille","lat":43.294314,"lon":5.397498,"is_reserved":false,"is_disabled":false,"rental_uris":{"android":"levelo://app?vid=24b39ee2-5db4-4c53-91cd-672095dd0c9a","ios":"levelo://app?vid=24b39ee2-5db4-4c53-91cd-672095dd0c9a"},"vehicle_type_id":"4","last_reported":1702119931,"current_range_meters":14400,"station_id":"ce4bh3h2rcd13ifvqdo0","pricing_plan_id":"free"},{"bike_id":"a74a3878-4eea-4074-b70f-591ba450338d","system_id":"levelo_inurba_marseille","lat":43.28612,"lon":5.35101,"is_reserved":false,"is_disabled":false,"rental_uris":{"android":"levelo://app?vid=a74a3878-4eea-4074-b70f-591ba450338d","ios":"levelo://app?vid=a74a3878-4eea-4074-b70f-591ba450338d"},"vehicle_type_id":"4","last_reported":1702119931,"current_range_meters":29200,"station_id":"ce4bhch2rcd13ifvqeug","pricing_plan_id":"free"},{"bike_id":"52fef2d3-826b-4fee-8893-49efd35172a7","system_id":"levelo_inurba_marseille","lat":43.28406,"lon":5.37505,"is_reserved":false,"is_disabled":false,"rental_uris":{"android":"levelo://app?vid=52fef2d3-826b-4fee-8893-49efd35172a7","ios":"levelo://app?vid=52fef2d3-826b-4fee-8893-49efd35172a7"},"vehicle_type_id":"4","last_reported":1702119931,"current_range_meters":0,"station_id":"ce4bh412rcd13ifvqds0","pricing_plan_id":"free"},{"bike_id":"3372d727-23a1-4780-bcf5-380e35bdb9bb","system_id":"levelo_inurba_marseille","lat":43.295713,"lon":5.399639,"is_reserved":false,"is_disabled":false,"rental_uris":{"android":"levelo://app?vid=3372d727-23a1-4780-bcf5-380e35bdb9bb","ios":"levelo://app?vid=3372d727-23a1-4780-bcf5-380e35bdb9bb"},"vehicle_type_id":"4","last_reported":1702119931,"current_range_meters":13600,"station_id":"ce4bh312rcd13ifvqdj0","pricing_plan_id":"free"},{"bike_id":"324d6f9f-42f6-4266-9049-e3939b639ea9","system_id":"levelo_inurba_marseille","lat":43.337168,"lon":5.391825,"is_reserved":false,"is_disabled":false,"rental_uris":{"android":"levelo://app?vid=324d6f9f-42f6-4266-9049-e3939b639ea9","ios":"levelo://app?vid=324d6f9f-42f6-4266-9049-e3939b639ea9"},"vehicle_type_id":"4","last_reported":1702119931,"current_range_meters":28000,"station_id":"ce4bhr92rcd13ifvqhsg","pricing_plan_id":"free"},{"bike_id":"efe9d2cc-d0eb-4e85-b313-6bf62b4d4d4c","system_id":"levelo_inurba_marseille","lat":43.33717,"lon":5.391857,"is_reserved":false,"is_disabled":false,"rental_uris":{"android":"levelo://app?vid=efe9d2cc-d0eb-4e85-b313-6bf62b4d4d4c","ios":"levelo://app?vid=efe9d2cc-d0eb-4e85-b313-6bf62b4d4d4c"},"vehicle_type_id":"4","last_reported":1702119931,"current_range_meters":0,"station_id":"ce4bhr92rcd13ifvqhsg","pricing_plan_id":"free"},{"bike_id":"486d176f-a585-47ee-8214-d5565461d9ce","system_id":"levelo_inurba_marseille","lat":43.284787,"lon":5.384116,"is_reserved":false,"is_disabled":false,"rental_uris":{"android":"levelo://app?vid=486d176f-a585-47ee-8214-d5565461d9ce","ios":"levelo://app?vid=486d176f-a585-47ee-8214-d5565461d9ce"},"vehicle_type_id":"4","last_reported":1702119931,"current_range_meters":24000,"station_id":"ce4bh512rcd13ifvqe3g","pricing_plan_id":"free"},{"bike_id":"394e7ef0-8795-4b05-b68f-3db5b0a2f588","system_id":"levelo_inurba_marseille","lat":43.33717,"lon":5.391857,"is_reserved":false,"is_disabled":false,"rental_uris":{"android":"levelo://app?vid=394e7ef0-8795-4b05-b68f-3db5b0a2f588","ios":"levelo://app?vid=394e7ef0-8795-4b05-b68f-3db5b0a2f588"},"vehicle_type_id":"4","last_reported":1702119931,"current_range_meters":29600,"station_id":"ce4bhr92rcd13ifvqhsg","pricing_plan_id":"free"},{"bike_id":"7d3df727-38a9-479f-8835-28d164274eef","system_id":"levelo_inurba_marseille","lat":43.288501,"lon":5.393087,"is_reserved":false,"is_disabled":false,"rental_uris":{"android":"levelo://app?vid=7d3df727-38a9-479f-8835-28d164274eef","ios":"levelo://app?vid=7d3df727-38a9-479f-8835-28d164274eef"},"vehicle_type_id":"4","last_reported":1702119931,"current_range_meters":1600,"station_id":"ce4bh2p2rcd13ifvqdi0","pricing_plan_id":"free"},{"bike_id":"3fe85d8f-1fbb-40cd-98f9-b6ce3cdf56b1","system_id":"levelo_inurba_marseille","lat":43.288501,"lon":5.393087,"is_reserved":false,"is_disabled":false,"rental_uris":{"android":"levelo://app?vid=3fe85d8f-1fbb-40cd-98f9-b6ce3cdf56b1","ios":"levelo://app?vid=3fe85d8f-1fbb-40cd-98f9-b6ce3cdf56b1"},"vehicle_type_id":"4","last_reported":1702119931,"current_range_meters":28000,"station_id":"ce4bh2p2rcd13ifvqdi0","pricing_plan_id":"free"},{"bike_id":"99e951c2-6206-47f1-9b98-e2dac9e9b5bf","system_id":"levelo_inurba_marseille","lat":43.288501,"lon":5.393087,"is_reserved":false,"is_disabled":false,"rental_uris":{"android":"levelo://app?vid=99e951c2-6206-47f1-9b98-e2dac9e9b5bf","ios":"levelo://app?vid=99e951c2-6206-47f1-9b98-e2dac9e9b5bf"},"vehicle_type_id":"4","last_reported":1702119931,"current_range_meters":7600,"station_id":"ce4bh2p2rcd13ifvqdi0","pricing_plan_id":"free"},{"bike_id":"6f35cf5f-cbf3-4c4a-86ee-f04a3b5f12ff","system_id":"levelo_inurba_marseille","lat":43.284219,"lon":5.3497,"is_reserved":false,"is_disabled":false,"rental_uris":{"android":"levelo://app?vid=6f35cf5f-cbf3-4c4a-86ee-f04a3b5f12ff","ios":"levelo://app?vid=6f35cf5f-cbf3-4c4a-86ee-f04a3b5f12ff"},"vehicle_type_id":"4","last_reported":1702119931,"current_range_meters":26800,"station_id":"ce4bhbh2rcd13ifvqepg","pricing_plan_id":"free"},{"bike_id":"6c4181a1-c6ee-47fe-a469-5840f9435602","system_id":"levelo_inurba_marseille","lat":43.289363,"lon":5.396322,"is_reserved":false,"is_disabled":false,"rental_uris":{"android":"levelo://app?vid=6c4181a1-c6ee-47fe-a469-5840f9435602","ios":"levelo://app?vid=6c4181a1-c6ee-47fe-a469-5840f9435602"},"vehicle_type_id":"4","last_reported":1702119931,"current_range_meters":17600,"station_id":"ce4bh3h2rcd13ifvqdn0","pricing_plan_id":"free"},{"bike_id":"54d8098a-43b7-44e5-ad66-538f790e0f29","system_id":"levelo_inurba_marseille","lat":43.282754,"lon":5.350519,"is_reserved":false,"is_disabled":false,"rental_uris":{"android":"levelo://app?vid=54d8098a-43b7-44e5-ad66-538f790e0f29","ios":"levelo://app?vid=54d8098a-43b7-44e5-ad66-538f790e0f29"},"vehicle_type_id":"4","last_reported":1702119931,"current_range_meters":23600,"station_id":"ce4bhbp2rcd13ifvqerg","pricing_plan_id":"free"},{"bike_id":"eaad8e8c-b1f2-445b-aafe-f62d3fb607cb","system_id":"levelo_inurba_marseille","lat":43.282754,"lon":5.350519,"is_reserved":false,"is_disabled":false,"rental_uris":{"android":"levelo://app?vid=eaad8e8c-b1f2-445b-aafe-f62d3fb607cb","ios":"levelo://app?vid=eaad8e8c-b1f2-445b-aafe-f62d3fb607cb"},"vehicle_type_id":"4","last_reported":1702119931,"current_range_meters":19200,"station_id":"ce4bhbp2rcd13ifvqerg","pricing_plan_id":"free"},{"bike_id":"c440d3b1-e58d-44d3-92b6-b41186c3f052","system_id":"levelo_inurba_marseille","lat":43.282744,"lon":5.350533,"is_reserved":false,"is_disabled":false,"rental_uris":{"android":"levelo://app?vid=c440d3b1-e58d-44d3-92b6-b41186c3f052","ios":"levelo://app?vid=c440d3b1-e58d-44d3-92b6-b41186c3f052"},"vehicle_type_id":"4","last_reported":1702119931,"current_range_meters":30400,"station_id":"ce4bhbp2rcd13ifvqerg","pricing_plan_id":"free"},{"bike_id":"d17b2ebb-d7cf-4039-b14a-93694b89a095","system_id":"levelo_inurba_marseille","lat":43.28271,"lon":5.35062,"is_reserved":false,"is_disabled":false,"rental_uris":{"android":"levelo://app?vid=d17b2ebb-d7cf-4039-b14a-93694b89a095","ios":"levelo://app?vid=d17b2ebb-d7cf-4039-b14a-93694b89a095"},"vehicle_type_id":"4","last_reported":1702119931,"current_range_meters":21600,"station_id":"ce4bhbp2rcd13ifvqerg","pricing_plan_id":"free"},{"bike_id":"152a8999-7cf8-4d62-80bf-cfba43126857","system_id":"levelo_inurba_marseille","lat":43.282744,"lon":5.350533,"is_reserved":false,"is_disabled":false,"rental_uris":{"android":"levelo://app?vid=152a8999-7cf8-4d62-80bf-cfba43126857","ios":"levelo://app?vid=152a8999-7cf8-4d62-80bf-cfba43126857"},"vehicle_type_id":"4","last_reported":1702119931,"current_range_meters":20400,"station_id":"ce4bhbp2rcd13ifvqerg","pricing_plan_id":"free"},{"bike_id":"e888e934-5427-4e38-85f5-d174b5c254e9","system_id":"levelo_inurba_marseille","lat":43.282744,"lon":5.350533,"is_reserved":false,"is_disabled":false,"rental_uris":{"android":"levelo://app?vid=e888e934-5427-4e38-85f5-d174b5c254e9","ios":"levelo://app?vid=e888e934-5427-4e38-85f5-d174b5c254e9"},"vehicle_type_id":"4","last_reported":1702119931,"current_range_meters":14800,"station_id":"ce4bhbp2rcd13ifvqerg","pricing_plan_id":"free"},{"bike_id":"5f2a4063-e399-47fc-a12a-8b158e3e0666","system_id":"levelo_inurba_marseille","lat":43.280382,"lon":5.369291,"is_reserved":false,"is_disabled":false,"rental_uris":{"android":"levelo://app?vid=5f2a4063-e399-47fc-a12a-8b158e3e0666","ios":"levelo://app?vid=5f2a4063-e399-47fc-a12a-8b158e3e0666"},"vehicle_type_id":"4","last_reported":1702119931,"current_range_meters":24800,"station_id":"ce4bha12rcd13ifvqef0","pricing_plan_id":"free"},{"bike_id":"231af83a-204f-4852-ac58-d34843dfdd3c","system_id":"levelo_inurba_marseille","lat":43.28039,"lon":5.369297,"is_reserved":false,"is_disabled":false,"rental_uris":{"android":"levelo://app?vid=231af83a-204f-4852-ac58-d34843dfdd3c","ios":"levelo://app?vid=231af83a-204f-4852-ac58-d34843dfdd3c"},"vehicle_type_id":"4","last_reported":1702119931,"current_range_meters":8800,"station_id":"ce4bha12rcd13ifvqef0","pricing_plan_id":"free"},{"bike_id":"c271cf0c-0ad9-47ce-afdb-b663a085afae","system_id":"levelo_inurba_marseille","lat":43.284462,"lon":5.392121,"is_reserved":false,"is_disabled":false,"rental_uris":{"android":"levelo://app?vid=c271cf0c-0ad9-47ce-afdb-b663a085afae","ios":"levelo://app?vid=c271cf0c-0ad9-47ce-afdb-b663a085afae"},"vehicle_type_id":"4","last_reported":1702119931,"current_range_meters":24000,"station_id":"ce4bhoh2rcd13ifvqh5g","pricing_plan_id":"free"},{"bike_id":"c6edb2c0-fca4-4817-ac1a-8acfbd5f7de7","system_id":"levelo_inurba_marseille","lat":43.32659,"lon":5.40989,"is_reserved":false,"is_disabled":false,"rental_uris":{"android":"levelo://app?vid=c6edb2c0-fca4-4817-ac1a-8acfbd5f7de7","ios":"levelo://app?vid=c6edb2c0-fca4-4817-ac1a-8acfbd5f7de7"},"vehicle_type_id":"4","last_reported":1702119931,"current_range_meters":30000,"station_id":"ce4bhpp2rcd13ifvqhgg","pricing_plan_id":"free"},{"bike_id":"e52ddfd6-0ddd-4c7b-ab34-3c7fe5c2aaef","system_id":"levelo_inurba_marseille","lat":43.32657,"lon":5.40992,"is_reserved":false,"is_disabled":false,"rental_uris":{"android":"levelo://app?vid=e52ddfd6-0ddd-4c7b-ab34-3c7fe5c2aaef","ios":"levelo://app?vid=e52ddfd6-0ddd-4c7b-ab34-3c7fe5c2aaef"},"vehicle_type_id":"4","last_reported":1702119931,"current_range_meters":31200,"station_id":"ce4bhpp2rcd13ifvqhgg","pricing_plan_id":"free"},{"bike_id":"5e578afd-3e4d-4841-96fa-cf1bf643d8d9","system_id":"levelo_inurba_marseille","lat":43.32659,"lon":5.40991,"is_reserved":false,"is_disabled":false,"rental_uris":{"android":"levelo://app?vid=5e578afd-3e4d-4841-96fa-cf1bf643d8d9","ios":"levelo://app?vid=5e578afd-3e4d-4841-96fa-cf1bf643d8d9"},"vehicle_type_id":"4","last_reported":1702119931,"current_range_meters":19600,"station_id":"ce4bhpp2rcd13ifvqhgg","pricing_plan_id":"free"},{"bike_id":"c0763524-47cd-4818-80fc-1b29f8280dc8","system_id":"levelo_inurba_marseille","lat":43.326605,"lon":5.409903,"is_reserved":false,"is_disabled":false,"rental_uris":{"android":"levelo://app?vid=c0763524-47cd-4818-80fc-1b29f8280dc8","ios":"levelo://app?vid=c0763524-47cd-4818-80fc-1b29f8280dc8"},"vehicle_type_id":"4","last_reported":1702119931,"current_range_meters":31200,"station_id":"ce4bhpp2rcd13ifvqhgg","pricing_plan_id":"free"},{"bike_id":"662db981-1613-44dd-90b6-609a422796bc","system_id":"levelo_inurba_marseille","lat":43.279087,"lon":5.380114,"is_reserved":false,"is_disabled":false,"rental_uris":{"android":"levelo://app?vid=662db981-1613-44dd-90b6-609a422796bc","ios":"levelo://app?vid=662db981-1613-44dd-90b6-609a422796bc"},"vehicle_type_id":"4","last_reported":1702119931,"current_range_meters":29200,"station_id":"ce4bhf92rcd13ifvqf50","pricing_plan_id":"free"},{"bike_id":"24b10a3e-23d1-4501-90bd-d3015c64138f","system_id":"levelo_inurba_marseille","lat":43.320045,"lon":5.415048,"is_reserved":false,"is_disabled":false,"rental_uris":{"android":"levelo://app?vid=24b10a3e-23d1-4501-90bd-d3015c64138f","ios":"levelo://app?vid=24b10a3e-23d1-4501-90bd-d3015c64138f"},"vehicle_type_id":"4","last_reported":1702119931,"current_range_meters":26800,"station_id":"ce4bhq92rcd13ifvqhkg","pricing_plan_id":"free"},{"bike_id":"bbfe9074-64de-4b1a-a6d3-833075b583cb","system_id":"levelo_inurba_marseille","lat":43.320045,"lon":5.415046,"is_reserved":false,"is_disabled":false,"rental_uris":{"android":"levelo://app?vid=bbfe9074-64de-4b1a-a6d3-833075b583cb","ios":"levelo://app?vid=bbfe9074-64de-4b1a-a6d3-833075b583cb"},"vehicle_type_id":"4","last_reported":1702119931,"current_range_meters":21600,"station_id":"ce4bhq92rcd13ifvqhkg","pricing_plan_id":"free"},{"bike_id":"9e5b7f34-b370-48d0-90cb-50133a1f9365","system_id":"levelo_inurba_marseille","lat":43.292569,"lon":5.409107,"is_reserved":false,"is_disabled":false,"rental_uris":{"android":"levelo://app?vid=9e5b7f34-b370-48d0-90cb-50133a1f9365","ios":"levelo://app?vid=9e5b7f34-b370-48d0-90cb-50133a1f9365"},"vehicle_type_id":"4","last_reported":1702119931,"current_range_meters":28400,"station_id":"ce4bh192rcd13ifvqdc0","pricing_plan_id":"free"},{"bike_id":"00aefffc-0b3f-4f37-b088-c293e94bb941","system_id":"levelo_inurba_marseille","lat":43.27383,"lon":5.36252,"is_reserved":false,"is_disabled":false,"rental_uris":{"android":"levelo://app?vid=00aefffc-0b3f-4f37-b088-c293e94bb941","ios":"levelo://app?vid=00aefffc-0b3f-4f37-b088-c293e94bb941"},"vehicle_type_id":"4","last_reported":1702119931,"current_range_meters":22400,"station_id":"ce4bhbh2rcd13ifvqeo0","pricing_plan_id":"free"},{"bike_id":"28de6b25-f8a6-4b5a-b931-e682f2d33ad0","system_id":"levelo_inurba_marseille","lat":43.275625,"lon":5.384392,"is_reserved":false,"is_disabled":false,"rental_uris":{"android":"levelo://app?vid=28de6b25-f8a6-4b5a-b931-e682f2d33ad0","ios":"levelo://app?vid=28de6b25-f8a6-4b5a-b931-e682f2d33ad0"},"vehicle_type_id":"4","last_reported":1702119931,"current_range_meters":21600,"station_id":"ce4bhh92rcd13ifvqfi0","pricing_plan_id":"free"},{"bike_id":"0347b65c-3abe-471c-a2f1-dd3d53142c56","system_id":"levelo_inurba_marseille","lat":43.276685,"lon":5.38884,"is_reserved":false,"is_disabled":false,"rental_uris":{"android":"levelo://app?vid=0347b65c-3abe-471c-a2f1-dd3d53142c56","ios":"levelo://app?vid=0347b65c-3abe-471c-a2f1-dd3d53142c56"},"vehicle_type_id":"4","last_reported":1702119931,"current_range_meters":6000,"station_id":"ce4bhi12rcd13ifvqfo0","pricing_plan_id":"free"},{"bike_id":"47723a28-1698-4551-8de2-3e4dcf2da4e8","system_id":"levelo_inurba_marseille","lat":43.28003,"lon":5.4001,"is_reserved":false,"is_disabled":false,"rental_uris":{"android":"levelo://app?vid=47723a28-1698-4551-8de2-3e4dcf2da4e8","ios":"levelo://app?vid=47723a28-1698-4551-8de2-3e4dcf2da4e8"},"vehicle_type_id":"4","last_reported":1702119931,"current_range_meters":24800,"station_id":"ce4bho92rcd13ifvqh4g","pricing_plan_id":"free"},{"bike_id":"fc4bcc5b-5f4e-42a1-8cca-78d5c651475f","system_id":"levelo_inurba_marseille","lat":43.317121,"lon":5.423936,"is_reserved":false,"is_disabled":false,"rental_uris":{"android":"levelo://app?vid=fc4bcc5b-5f4e-42a1-8cca-78d5c651475f","ios":"levelo://app?vid=fc4bcc5b-5f4e-42a1-8cca-78d5c651475f"},"vehicle_type_id":"4","last_reported":1702119931,"current_range_meters":27200,"station_id":"ce4bhp92rcd13ifvqhbg","pricing_plan_id":"free"},{"bike_id":"b5e520e0-8911-4af3-a2d4-7d3ed4e4e33e","system_id":"levelo_inurba_marseille","lat":43.31712,"lon":5.424,"is_reserved":false,"is_disabled":false,"rental_uris":{"android":"levelo://app?vid=b5e520e0-8911-4af3-a2d4-7d3ed4e4e33e","ios":"levelo://app?vid=b5e520e0-8911-4af3-a2d4-7d3ed4e4e33e"},"vehicle_type_id":"4","last_reported":1702119931,"current_range_meters":10800,"station_id":"ce4bhp92rcd13ifvqhbg","pricing_plan_id":"free"},{"bike_id":"02791883-a925-42a0-9dd3-b7193f6a574b","system_id":"levelo_inurba_marseille","lat":43.31712,"lon":5.424,"is_reserved":false,"is_disabled":false,"rental_uris":{"android":"levelo://app?vid=02791883-a925-42a0-9dd3-b7193f6a574b","ios":"levelo://app?vid=02791883-a925-42a0-9dd3-b7193f6a574b"},"vehicle_type_id":"4","last_reported":1702119931,"current_range_meters":4800,"station_id":"ce4bhp92rcd13ifvqhbg","pricing_plan_id":"free"},{"bike_id":"0f7a9644-c470-46e7-ae97-75a010349f8b","system_id":"levelo_inurba_marseille","lat":43.317121,"lon":5.423936,"is_reserved":false,"is_disabled":false,"rental_uris":{"android":"levelo://app?vid=0f7a9644-c470-46e7-ae97-75a010349f8b","ios":"levelo://app?vid=0f7a9644-c470-46e7-ae97-75a010349f8b"},"vehicle_type_id":"4","last_reported":1702119931,"current_range_meters":27200,"station_id":"ce4bhp92rcd13ifvqhbg","pricing_plan_id":"free"},{"bike_id":"3382fddf-23bf-43e2-9be0-1a0233fdea3a","system_id":"levelo_inurba_marseille","lat":43.31085,"lon":5.42428,"is_reserved":false,"is_disabled":false,"rental_uris":{"android":"levelo://app?vid=3382fddf-23bf-43e2-9be0-1a0233fdea3a","ios":"levelo://app?vid=3382fddf-23bf-43e2-9be0-1a0233fdea3a"},"vehicle_type_id":"4","last_reported":1702119931,"current_range_meters":29200,"station_id":"ce4bhp92rcd13ifvqhag","pricing_plan_id":"free"},{"bike_id":"88e59060-d458-48a8-8abe-8a1913097d92","system_id":"levelo_inurba_marseille","lat":43.31716,"lon":5.42402,"is_reserved":false,"is_disabled":false,"rental_uris":{"android":"levelo://app?vid=88e59060-d458-48a8-8abe-8a1913097d92","ios":"levelo://app?vid=88e59060-d458-48a8-8abe-8a1913097d92"},"vehicle_type_id":"4","last_reported":1702119931,"current_range_meters":26000,"station_id":"ce4bhp92rcd13ifvqhbg","pricing_plan_id":"free"},{"bike_id":"80038031-3601-4c51-b66a-c6c9131d41d1","system_id":"levelo_inurba_marseille","lat":43.310785,"lon":5.424305,"is_reserved":false,"is_disabled":false,"rental_uris":{"android":"levelo://app?vid=80038031-3601-4c51-b66a-c6c9131d41d1","ios":"levelo://app?vid=80038031-3601-4c51-b66a-c6c9131d41d1"},"vehicle_type_id":"4","last_reported":1702119931,"current_range_meters":30800,"station_id":"ce4bhp92rcd13ifvqhag","pricing_plan_id":"free"},{"bike_id":"c58024d2-cabc-4012-868c-d0b5976a6bb0","system_id":"levelo_inurba_marseille","lat":43.317121,"lon":5.423936,"is_reserved":false,"is_disabled":false,"rental_uris":{"android":"levelo://app?vid=c58024d2-cabc-4012-868c-d0b5976a6bb0","ios":"levelo://app?vid=c58024d2-cabc-4012-868c-d0b5976a6bb0"},"vehicle_type_id":"4","last_reported":1702119931,"current_range_meters":29200,"station_id":"ce4bhp92rcd13ifvqhbg","pricing_plan_id":"free"},{"bike_id":"e6ff414d-6f05-44d2-b7c6-4a89a6fc64e2","system_id":"levelo_inurba_marseille","lat":43.31079,"lon":5.42429,"is_reserved":false,"is_disabled":false,"rental_uris":{"android":"levelo://app?vid=e6ff414d-6f05-44d2-b7c6-4a89a6fc64e2","ios":"levelo://app?vid=e6ff414d-6f05-44d2-b7c6-4a89a6fc64e2"},"vehicle_type_id":"4","last_reported":1702119931,"current_range_meters":6000,"station_id":"ce4bhp92rcd13ifvqhag","pricing_plan_id":"free"},{"bike_id":"e7bd1e73-4f86-473d-905c-a7b0f3d6ad8a","system_id":"levelo_inurba_marseille","lat":43.31723,"lon":5.42405,"is_reserved":false,"is_disabled":false,"rental_uris":{"android":"levelo://app?vid=e7bd1e73-4f86-473d-905c-a7b0f3d6ad8a","ios":"levelo://app?vid=e7bd1e73-4f86-473d-905c-a7b0f3d6ad8a"},"vehicle_type_id":"4","last_reported":1702119931,"current_range_meters":17600,"station_id":"ce4bhp92rcd13ifvqhbg","pricing_plan_id":"free"},{"bike_id":"48e3df08-57dc-434d-a06c-f6f751cd351f","system_id":"levelo_inurba_marseille","lat":43.310785,"lon":5.424305,"is_reserved":false,"is_disabled":false,"rental_uris":{"android":"levelo://app?vid=48e3df08-57dc-434d-a06c-f6f751cd351f","ios":"levelo://app?vid=48e3df08-57dc-434d-a06c-f6f751cd351f"},"vehicle_type_id":"4","last_reported":1702119931,"current_range_meters":20800,"station_id":"ce4bhp92rcd13ifvqhag","pricing_plan_id":"free"},{"bike_id":"63133364-316e-458e-b234-bbd4926c63fc","system_id":"levelo_inurba_marseille","lat":43.27583,"lon":5.39474,"is_reserved":false,"is_disabled":false,"rental_uris":{"android":"levelo://app?vid=63133364-316e-458e-b234-bbd4926c63fc","ios":"levelo://app?vid=63133364-316e-458e-b234-bbd4926c63fc"},"vehicle_type_id":"4","last_reported":1702119931,"current_range_meters":8400,"station_id":"","pricing_plan_id":"free"},{"bike_id":"931579d9-bb5a-42fd-9eb0-3f123b275122","system_id":"levelo_inurba_marseille","lat":43.273129,"lon":5.390725,"is_reserved":false,"is_disabled":false,"rental_uris":{"android":"levelo://app?vid=931579d9-bb5a-42fd-9eb0-3f123b275122","ios":"levelo://app?vid=931579d9-bb5a-42fd-9eb0-3f123b275122"},"vehicle_type_id":"4","last_reported":1702119931,"current_range_meters":14000,"station_id":"ce4bhgp2rcd13ifvqfe0","pricing_plan_id":"free"},{"bike_id":"fc6794cf-495d-453d-b822-fc2923d07b21","system_id":"levelo_inurba_marseille","lat":43.304133,"lon":5.42542,"is_reserved":false,"is_disabled":false,"rental_uris":{"android":"levelo://app?vid=fc6794cf-495d-453d-b822-fc2923d07b21","ios":"levelo://app?vid=fc6794cf-495d-453d-b822-fc2923d07b21"},"vehicle_type_id":"4","last_reported":1702119931,"current_range_meters":11600,"station_id":"ce4bhoh2rcd13ifvqh6g","pricing_plan_id":"free"},{"bike_id":"6e368dc2-c621-4d41-a98b-608bcdd93b18","system_id":"levelo_inurba_marseille","lat":43.304096,"lon":5.425385,"is_reserved":false,"is_disabled":false,"rental_uris":{"android":"levelo://app?vid=6e368dc2-c621-4d41-a98b-608bcdd93b18","ios":"levelo://app?vid=6e368dc2-c621-4d41-a98b-608bcdd93b18"},"vehicle_type_id":"4","last_reported":1702119931,"current_range_meters":30000,"station_id":"ce4bhoh2rcd13ifvqh6g","pricing_plan_id":"free"},{"bike_id":"b0f86606-8154-47d8-bdba-2e76713781d4","system_id":"levelo_inurba_marseille","lat":43.30416,"lon":5.4255,"is_reserved":false,"is_disabled":false,"rental_uris":{"android":"levelo://app?vid=b0f86606-8154-47d8-bdba-2e76713781d4","ios":"levelo://app?vid=b0f86606-8154-47d8-bdba-2e76713781d4"},"vehicle_type_id":"4","last_reported":1702119931,"current_range_meters":4400,"station_id":"ce4bhoh2rcd13ifvqh6g","pricing_plan_id":"free"},{"bike_id":"19d0bff2-9420-4cc7-a5d7-5c2a381f7d06","system_id":"levelo_inurba_marseille","lat":43.304054,"lon":5.425633,"is_reserved":false,"is_disabled":false,"rental_uris":{"android":"levelo://app?vid=19d0bff2-9420-4cc7-a5d7-5c2a381f7d06","ios":"levelo://app?vid=19d0bff2-9420-4cc7-a5d7-5c2a381f7d06"},"vehicle_type_id":"4","last_reported":1702119931,"current_range_meters":24800,"station_id":"ce4bhoh2rcd13ifvqh6g","pricing_plan_id":"free"},{"bike_id":"d04013a3-534f-4ad9-a405-306181f29573","system_id":"levelo_inurba_marseille","lat":43.295511,"lon":5.422926,"is_reserved":false,"is_disabled":false,"rental_uris":{"android":"levelo://app?vid=d04013a3-534f-4ad9-a405-306181f29573","ios":"levelo://app?vid=d04013a3-534f-4ad9-a405-306181f29573"},"vehicle_type_id":"4","last_reported":1702119931,"current_range_meters":30400,"station_id":"ce4bhph2rcd13ifvqhdg","pricing_plan_id":"free"},{"bike_id":"4f9e48a0-eacd-4e63-bd3c-330b19e5c041","system_id":"levelo_inurba_marseille","lat":43.295511,"lon":5.422926,"is_reserved":false,"is_disabled":false,"rental_uris":{"android":"levelo://app?vid=4f9e48a0-eacd-4e63-bd3c-330b19e5c041","ios":"levelo://app?vid=4f9e48a0-eacd-4e63-bd3c-330b19e5c041"},"vehicle_type_id":"4","last_reported":1702119931,"current_range_meters":32000,"station_id":"ce4bhph2rcd13ifvqhdg","pricing_plan_id":"free"},{"bike_id":"8f021145-48f8-459b-aef0-f8921e18b0a0","system_id":"levelo_inurba_marseille","lat":43.27214,"lon":5.3925,"is_reserved":false,"is_disabled":false,"rental_uris":{"android":"levelo://app?vid=8f021145-48f8-459b-aef0-f8921e18b0a0","ios":"levelo://app?vid=8f021145-48f8-459b-aef0-f8921e18b0a0"},"vehicle_type_id":"4","last_reported":1702119931,"current_range_meters":2000,"station_id":"","pricing_plan_id":"free"},{"bike_id":"b059728c-a8df-46c8-a0f0-bd1fbc08873e","system_id":"levelo_inurba_marseille","lat":43.278128,"lon":5.407195,"is_reserved":false,"is_disabled":false,"rental_uris":{"android":"levelo://app?vid=b059728c-a8df-46c8-a0f0-bd1fbc08873e","ios":"levelo://app?vid=b059728c-a8df-46c8-a0f0-bd1fbc08873e"},"vehicle_type_id":"4","last_reported":1702119931,"current_range_meters":31600,"station_id":"ce4bhnh2rcd13ifvqgtg","pricing_plan_id":"free"},{"bike_id":"a5983fa1-f78a-4534-b00f-ce1a4f527b94","system_id":"levelo_inurba_marseille","lat":43.278128,"lon":5.407195,"is_reserved":false,"is_disabled":false,"rental_uris":{"android":"levelo://app?vid=a5983fa1-f78a-4534-b00f-ce1a4f527b94","ios":"levelo://app?vid=a5983fa1-f78a-4534-b00f-ce1a4f527b94"},"vehicle_type_id":"4","last_reported":1702119931,"current_range_meters":31600,"station_id":"ce4bhnh2rcd13ifvqgtg","pricing_plan_id":"free"},{"bike_id":"28c7de37-0d10-44ff-8fa1-299a48b8bd62","system_id":"levelo_inurba_marseille","lat":43.269467,"lon":5.386439,"is_reserved":false,"is_disabled":false,"rental_uris":{"android":"levelo://app?vid=28c7de37-0d10-44ff-8fa1-299a48b8bd62","ios":"levelo://app?vid=28c7de37-0d10-44ff-8fa1-299a48b8bd62"},"vehicle_type_id":"4","last_reported":1702119931,"current_range_meters":22400,"station_id":"ce4bhh92rcd13ifvqfh0","pricing_plan_id":"free"},{"bike_id":"fa260f30-e595-416c-9013-3041ceaeaf8f","system_id":"levelo_inurba_marseille","lat":43.269467,"lon":5.386439,"is_reserved":false,"is_disabled":false,"rental_uris":{"android":"levelo://app?vid=fa260f30-e595-416c-9013-3041ceaeaf8f","ios":"levelo://app?vid=fa260f30-e595-416c-9013-3041ceaeaf8f"},"vehicle_type_id":"4","last_reported":1702119931,"current_range_meters":24000,"station_id":"ce4bhh92rcd13ifvqfh0","pricing_plan_id":"free"},{"bike_id":"064a9334-d43b-45bb-ac83-ea802e0c22e8","system_id":"levelo_inurba_marseille","lat":43.265593,"lon":5.37289,"is_reserved":false,"is_disabled":false,"rental_uris":{"android":"levelo://app?vid=064a9334-d43b-45bb-ac83-ea802e0c22e8","ios":"levelo://app?vid=064a9334-d43b-45bb-ac83-ea802e0c22e8"},"vehicle_type_id":"4","last_reported":1702119931,"current_range_meters":1600,"station_id":"ce4bhg12rcd13ifvqf70","pricing_plan_id":"free"},{"bike_id":"4d10ad25-ae29-4ab9-9c75-4deeeec88a78","system_id":"levelo_inurba_marseille","lat":43.26681,"lon":5.382694,"is_reserved":false,"is_disabled":false,"rental_uris":{"android":"levelo://app?vid=4d10ad25-ae29-4ab9-9c75-4deeeec88a78","ios":"levelo://app?vid=4d10ad25-ae29-4ab9-9c75-4deeeec88a78"},"vehicle_type_id":"4","last_reported":1702119931,"current_range_meters":26800,"station_id":"ce4bhg92rcd13ifvqf90","pricing_plan_id":"free"},{"bike_id":"7894ef08-de93-4dc5-8844-56821b51cdeb","system_id":"levelo_inurba_marseille","lat":43.26559,"lon":5.37295,"is_reserved":false,"is_disabled":false,"rental_uris":{"android":"levelo://app?vid=7894ef08-de93-4dc5-8844-56821b51cdeb","ios":"levelo://app?vid=7894ef08-de93-4dc5-8844-56821b51cdeb"},"vehicle_type_id":"4","last_reported":1702119931,"current_range_meters":30800,"station_id":"ce4bhg12rcd13ifvqf70","pricing_plan_id":"free"},{"bike_id":"0479c42c-f8e6-448c-8881-02bd74fec942","system_id":"levelo_inurba_marseille","lat":43.279881,"lon":5.416579,"is_reserved":false,"is_disabled":false,"rental_uris":{"android":"levelo://app?vid=0479c42c-f8e6-448c-8881-02bd74fec942","ios":"levelo://app?vid=0479c42c-f8e6-448c-8881-02bd74fec942"},"vehicle_type_id":"4","last_reported":1702119931,"current_range_meters":3600,"station_id":"ce4bho12rcd13ifvqh1g","pricing_plan_id":"free"},{"bike_id":"953e4af0-c270-490b-8a35-21adbad82a34","system_id":"levelo_inurba_marseille","lat":43.308051,"lon":5.43527,"is_reserved":false,"is_disabled":false,"rental_uris":{"android":"levelo://app?vid=953e4af0-c270-490b-8a35-21adbad82a34","ios":"levelo://app?vid=953e4af0-c270-490b-8a35-21adbad82a34"},"vehicle_type_id":"4","last_reported":1702119931,"current_range_meters":22800,"station_id":"ce4bhph2rcd13ifvqheg","pricing_plan_id":"free"},{"bike_id":"2d0dff6e-116f-437d-a5b5-a8cb42c057ac","system_id":"levelo_inurba_marseille","lat":43.26949,"lon":5.40262,"is_reserved":false,"is_disabled":false,"rental_uris":{"android":"levelo://app?vid=2d0dff6e-116f-437d-a5b5-a8cb42c057ac","ios":"levelo://app?vid=2d0dff6e-116f-437d-a5b5-a8cb42c057ac"},"vehicle_type_id":"4","last_reported":1702119931,"current_range_meters":6800,"station_id":"cjm6bp8fraef2m0cb0m0","pricing_plan_id":"free"},{"bike_id":"82b8f076-1f61-4cde-8ac3-e442516612ed","system_id":"levelo_inurba_marseille","lat":43.261782,"lon":5.374515,"is_reserved":false,"is_disabled":false,"rental_uris":{"android":"levelo://app?vid=82b8f076-1f61-4cde-8ac3-e442516612ed","ios":"levelo://app?vid=82b8f076-1f61-4cde-8ac3-e442516612ed"},"vehicle_type_id":"4","last_reported":1702119931,"current_range_meters":15200,"station_id":"ce4bhgp2rcd13ifvqfc0","pricing_plan_id":"free"},{"bike_id":"10bd98e0-d0a2-4a25-a407-cc97034aa68c","system_id":"levelo_inurba_marseille","lat":43.31713,"lon":5.43702,"is_reserved":false,"is_disabled":false,"rental_uris":{"android":"levelo://app?vid=10bd98e0-d0a2-4a25-a407-cc97034aa68c","ios":"levelo://app?vid=10bd98e0-d0a2-4a25-a407-cc97034aa68c"},"vehicle_type_id":"4","last_reported":1702119931,"current_range_meters":8000,"station_id":"ce4bhp92rcd13ifvqhcg","pricing_plan_id":"free"},{"bike_id":"3b2d4f90-1617-43d7-8846-712b04edc48a","system_id":"levelo_inurba_marseille","lat":43.271368,"lon":5.40928,"is_reserved":false,"is_disabled":false,"rental_uris":{"android":"levelo://app?vid=3b2d4f90-1617-43d7-8846-712b04edc48a","ios":"levelo://app?vid=3b2d4f90-1617-43d7-8846-712b04edc48a"},"vehicle_type_id":"4","last_reported":1702119931,"current_range_meters":24800,"station_id":"ce4bhl12rcd13ifvqgf0","pricing_plan_id":"free"},{"bike_id":"1b7d65d6-c1a5-4251-abb1-708852c431b5","system_id":"levelo_inurba_marseille","lat":43.262012,"lon":5.379307,"is_reserved":false,"is_disabled":false,"rental_uris":{"android":"levelo://app?vid=1b7d65d6-c1a5-4251-abb1-708852c431b5","ios":"levelo://app?vid=1b7d65d6-c1a5-4251-abb1-708852c431b5"},"vehicle_type_id":"4","last_reported":1702119931,"current_range_meters":11600,"station_id":"ce4bhjp2rcd13ifvqg90","pricing_plan_id":"free"},{"bike_id":"ae2b2926-b6c3-4fac-8f47-3bd38af95a8b","system_id":"levelo_inurba_marseille","lat":43.26202,"lon":5.379299,"is_reserved":false,"is_disabled":false,"rental_uris":{"android":"levelo://app?vid=ae2b2926-b6c3-4fac-8f47-3bd38af95a8b","ios":"levelo://app?vid=ae2b2926-b6c3-4fac-8f47-3bd38af95a8b"},"vehicle_type_id":"4","last_reported":1702119931,"current_range_meters":18800,"station_id":"ce4bhjp2rcd13ifvqg90","pricing_plan_id":"free"},{"bike_id":"5a17aa54-625e-476c-b187-8ee6a4f3548c","system_id":"levelo_inurba_marseille","lat":43.267959,"lon":5.402687,"is_reserved":false,"is_disabled":false,"rental_uris":{"android":"levelo://app?vid=5a17aa54-625e-476c-b187-8ee6a4f3548c","ios":"levelo://app?vid=5a17aa54-625e-476c-b187-8ee6a4f3548c"},"vehicle_type_id":"4","last_reported":1702119931,"current_range_meters":4800,"station_id":"ce501612rcd8frsf0b60","pricing_plan_id":"free"},{"bike_id":"5215ad78-0811-4492-88ee-04afc35bf3a5","system_id":"levelo_inurba_marseille","lat":43.298768,"lon":5.43643,"is_reserved":false,"is_disabled":false,"rental_uris":{"android":"levelo://app?vid=5215ad78-0811-4492-88ee-04afc35bf3a5","ios":"levelo://app?vid=5215ad78-0811-4492-88ee-04afc35bf3a5"},"vehicle_type_id":"4","last_reported":1702119931,"current_range_meters":32000,"station_id":"ce4bhpp2rcd13ifvqhfg","pricing_plan_id":"free"},{"bike_id":"9f325604-7097-43d9-8e58-831174294b2f","system_id":"levelo_inurba_marseille","lat":43.298768,"lon":5.43643,"is_reserved":false,"is_disabled":false,"rental_uris":{"android":"levelo://app?vid=9f325604-7097-43d9-8e58-831174294b2f","ios":"levelo://app?vid=9f325604-7097-43d9-8e58-831174294b2f"},"vehicle_type_id":"4","last_reported":1702119931,"current_range_meters":31600,"station_id":"ce4bhpp2rcd13ifvqhfg","pricing_plan_id":"free"},{"bike_id":"7474ec51-6ce7-4725-8511-f9c59094578e","system_id":"levelo_inurba_marseille","lat":43.298994,"lon":5.436626,"is_reserved":false,"is_disabled":false,"rental_uris":{"android":"levelo://app?vid=7474ec51-6ce7-4725-8511-f9c59094578e","ios":"levelo://app?vid=7474ec51-6ce7-4725-8511-f9c59094578e"},"vehicle_type_id":"4","last_reported":1702119931,"current_range_meters":19600,"station_id":"","pricing_plan_id":"free"},{"bike_id":"6b17b896-99f2-456b-929e-df3811eeb274","system_id":"levelo_inurba_marseille","lat":43.298768,"lon":5.43643,"is_reserved":false,"is_disabled":false,"rental_uris":{"android":"levelo://app?vid=6b17b896-99f2-456b-929e-df3811eeb274","ios":"levelo://app?vid=6b17b896-99f2-456b-929e-df3811eeb274"},"vehicle_type_id":"4","last_reported":1702119931,"current_range_meters":29200,"station_id":"ce4bhpp2rcd13ifvqhfg","pricing_plan_id":"free"},{"bike_id":"2cd90db9-b508-45af-afd0-5b4b8fae22ee","system_id":"levelo_inurba_marseille","lat":43.298768,"lon":5.43643,"is_reserved":false,"is_disabled":false,"rental_uris":{"android":"levelo://app?vid=2cd90db9-b508-45af-afd0-5b4b8fae22ee","ios":"levelo://app?vid=2cd90db9-b508-45af-afd0-5b4b8fae22ee"},"vehicle_type_id":"4","last_reported":1702119931,"current_range_meters":28400,"station_id":"ce4bhpp2rcd13ifvqhfg","pricing_plan_id":"free"},{"bike_id":"70c52fa1-91be-4fbd-9217-7a0c668f9310","system_id":"levelo_inurba_marseille","lat":43.298986,"lon":5.436639,"is_reserved":false,"is_disabled":false,"rental_uris":{"android":"levelo://app?vid=70c52fa1-91be-4fbd-9217-7a0c668f9310","ios":"levelo://app?vid=70c52fa1-91be-4fbd-9217-7a0c668f9310"},"vehicle_type_id":"4","last_reported":1702119931,"current_range_meters":26400,"station_id":"ce4bhpp2rcd13ifvqhfg","pricing_plan_id":"free"},{"bike_id":"c16ba598-e268-423a-ba8d-6002d2a98117","system_id":"levelo_inurba_marseille","lat":43.298768,"lon":5.43643,"is_reserved":false,"is_disabled":false,"rental_uris":{"android":"levelo://app?vid=c16ba598-e268-423a-ba8d-6002d2a98117","ios":"levelo://app?vid=c16ba598-e268-423a-ba8d-6002d2a98117"},"vehicle_type_id":"4","last_reported":1702119931,"current_range_meters":32000,"station_id":"ce4bhpp2rcd13ifvqhfg","pricing_plan_id":"free"},{"bike_id":"ca4db8a8-5b98-4b78-bc3d-514f38028a3d","system_id":"levelo_inurba_marseille","lat":43.298768,"lon":5.43643,"is_reserved":false,"is_disabled":false,"rental_uris":{"android":"levelo://app?vid=ca4db8a8-5b98-4b78-bc3d-514f38028a3d","ios":"levelo://app?vid=ca4db8a8-5b98-4b78-bc3d-514f38028a3d"},"vehicle_type_id":"4","last_reported":1702119931,"current_range_meters":32000,"station_id":"ce4bhpp2rcd13ifvqhfg","pricing_plan_id":"free"},{"bike_id":"4f68f183-a711-4386-a731-e8ea8e2f115e","system_id":"levelo_inurba_marseille","lat":43.298768,"lon":5.43643,"is_reserved":false,"is_disabled":false,"rental_uris":{"android":"levelo://app?vid=4f68f183-a711-4386-a731-e8ea8e2f115e","ios":"levelo://app?vid=4f68f183-a711-4386-a731-e8ea8e2f115e"},"vehicle_type_id":"4","last_reported":1702119931,"current_range_meters":26400,"station_id":"ce4bhpp2rcd13ifvqhfg","pricing_plan_id":"free"},{"bike_id":"83e2018e-7127-4415-8bbf-2e347a9c6750","system_id":"levelo_inurba_marseille","lat":43.29896,"lon":5.43673,"is_reserved":false,"is_disabled":false,"rental_uris":{"android":"levelo://app?vid=83e2018e-7127-4415-8bbf-2e347a9c6750","ios":"levelo://app?vid=83e2018e-7127-4415-8bbf-2e347a9c6750"},"vehicle_type_id":"4","last_reported":1702119931,"current_range_meters":0,"station_id":"ce4bhpp2rcd13ifvqhfg","pricing_plan_id":"free"},{"bike_id":"bbb1bbdb-1f39-4fc1-a995-064ebbeacecb","system_id":"levelo_inurba_marseille","lat":43.281548,"lon":5.42643,"is_reserved":false,"is_disabled":false,"rental_uris":{"android":"levelo://app?vid=bbb1bbdb-1f39-4fc1-a995-064ebbeacecb","ios":"levelo://app?vid=bbb1bbdb-1f39-4fc1-a995-064ebbeacecb"},"vehicle_type_id":"4","last_reported":1702119931,"current_range_meters":24000,"station_id":"ce4bhnh2rcd13ifvqgug","pricing_plan_id":"free"},{"bike_id":"2d70b9fc-8d42-4ce5-98c1-cdfca249cc2c","system_id":"levelo_inurba_marseille","lat":43.2815,"lon":5.4264,"is_reserved":false,"is_disabled":false,"rental_uris":{"android":"levelo://app?vid=2d70b9fc-8d42-4ce5-98c1-cdfca249cc2c","ios":"levelo://app?vid=2d70b9fc-8d42-4ce5-98c1-cdfca249cc2c"},"vehicle_type_id":"4","last_reported":1702119931,"current_range_meters":28000,"station_id":"ce4bhnh2rcd13ifvqgug","pricing_plan_id":"free"},{"bike_id":"f56607a5-8c0d-4214-a86e-b954d1fd309d","system_id":"levelo_inurba_marseille","lat":43.2815,"lon":5.42644,"is_reserved":false,"is_disabled":false,"rental_uris":{"android":"levelo://app?vid=f56607a5-8c0d-4214-a86e-b954d1fd309d","ios":"levelo://app?vid=f56607a5-8c0d-4214-a86e-b954d1fd309d"},"vehicle_type_id":"4","last_reported":1702119931,"current_range_meters":0,"station_id":"ce4bhnh2rcd13ifvqgug","pricing_plan_id":"free"},{"bike_id":"5c6c0a20-db46-4949-8b8f-87d395f35c91","system_id":"levelo_inurba_marseille","lat":43.275028,"lon":5.424534,"is_reserved":false,"is_disabled":false,"rental_uris":{"android":"levelo://app?vid=5c6c0a20-db46-4949-8b8f-87d395f35c91","ios":"levelo://app?vid=5c6c0a20-db46-4949-8b8f-87d395f35c91"},"vehicle_type_id":"4","last_reported":1702119931,"current_range_meters":31200,"station_id":"ce4bhn92rcd13ifvqgrg","pricing_plan_id":"free"},{"bike_id":"45fdfa0c-66cf-4f61-a27c-ebf59871901a","system_id":"levelo_inurba_marseille","lat":43.255756,"lon":5.382303,"is_reserved":false,"is_disabled":false,"rental_uris":{"android":"levelo://app?vid=45fdfa0c-66cf-4f61-a27c-ebf59871901a","ios":"levelo://app?vid=45fdfa0c-66cf-4f61-a27c-ebf59871901a"},"vehicle_type_id":"4","last_reported":1702119931,"current_range_meters":22400,"station_id":"ce4bhih2rcd13ifvqfs0","pricing_plan_id":"free"},{"bike_id":"2db9b15e-6e41-454a-aff4-607aeaf73f42","system_id":"levelo_inurba_marseille","lat":43.27069,"lon":5.42278,"is_reserved":false,"is_disabled":false,"rental_uris":{"android":"levelo://app?vid=2db9b15e-6e41-454a-aff4-607aeaf73f42","ios":"levelo://app?vid=2db9b15e-6e41-454a-aff4-607aeaf73f42"},"vehicle_type_id":"4","last_reported":1702119931,"current_range_meters":15200,"station_id":"ce4bhk92rcd13ifvqgb0","pricing_plan_id":"free"},{"bike_id":"6ed089ef-9932-4c16-91e9-dafe344c662d","system_id":"levelo_inurba_marseille","lat":43.27065,"lon":5.42275,"is_reserved":false,"is_disabled":false,"rental_uris":{"android":"levelo://app?vid=6ed089ef-9932-4c16-91e9-dafe344c662d","ios":"levelo://app?vid=6ed089ef-9932-4c16-91e9-dafe344c662d"},"vehicle_type_id":"4","last_reported":1702119931,"current_range_meters":26000,"station_id":"ce4bhk92rcd13ifvqgb0","pricing_plan_id":"free"},{"bike_id":"b892416b-65d0-482e-a86c-e596080a2ad5","system_id":"levelo_inurba_marseille","lat":43.27069,"lon":5.42282,"is_reserved":false,"is_disabled":false,"rental_uris":{"android":"levelo://app?vid=b892416b-65d0-482e-a86c-e596080a2ad5","ios":"levelo://app?vid=b892416b-65d0-482e-a86c-e596080a2ad5"},"vehicle_type_id":"4","last_reported":1702119931,"current_range_meters":23200,"station_id":"ce4bhk92rcd13ifvqgb0","pricing_plan_id":"free"},{"bike_id":"3a377878-b713-4aaf-aad2-3a453208969a","system_id":"levelo_inurba_marseille","lat":43.25924,"lon":5.40914,"is_reserved":false,"is_disabled":false,"rental_uris":{"android":"levelo://app?vid=3a377878-b713-4aaf-aad2-3a453208969a","ios":"levelo://app?vid=3a377878-b713-4aaf-aad2-3a453208969a"},"vehicle_type_id":"4","last_reported":1702119931,"current_range_meters":17200,"station_id":"ce4bhm92rcd13ifvqglg","pricing_plan_id":"free"},{"bike_id":"0dc6bb76-c9e2-41b8-8b88-1df44a692ab1","system_id":"levelo_inurba_marseille","lat":43.25727,"lon":5.41108,"is_reserved":false,"is_disabled":false,"rental_uris":{"android":"levelo://app?vid=0dc6bb76-c9e2-41b8-8b88-1df44a692ab1","ios":"levelo://app?vid=0dc6bb76-c9e2-41b8-8b88-1df44a692ab1"},"vehicle_type_id":"4","last_reported":1702119931,"current_range_meters":13200,"station_id":"ce4bhkp2rcd13ifvqgd0","pricing_plan_id":"free"},{"bike_id":"a284a7b9-963d-4f35-8ee8-4c7c3dc16ca9","system_id":"levelo_inurba_marseille","lat":43.2479,"lon":5.374457,"is_reserved":false,"is_disabled":false,"rental_uris":{"android":"levelo://app?vid=a284a7b9-963d-4f35-8ee8-4c7c3dc16ca9","ios":"levelo://app?vid=a284a7b9-963d-4f35-8ee8-4c7c3dc16ca9"},"vehicle_type_id":"4","last_reported":1702119931,"current_range_meters":21200,"station_id":"ce4bhgh2rcd13ifvqfb0","pricing_plan_id":"free"},{"bike_id":"7d2344b0-d63e-42c7-b24e-bde217315261","system_id":"levelo_inurba_marseille","lat":43.2479,"lon":5.374457,"is_reserved":false,"is_disabled":false,"rental_uris":{"android":"levelo://app?vid=7d2344b0-d63e-42c7-b24e-bde217315261","ios":"levelo://app?vid=7d2344b0-d63e-42c7-b24e-bde217315261"},"vehicle_type_id":"4","last_reported":1702119931,"current_range_meters":22800,"station_id":"ce4bhgh2rcd13ifvqfb0","pricing_plan_id":"free"},{"bike_id":"b9bd7da5-d36b-43df-8452-6a74bc8cbc4a","system_id":"levelo_inurba_marseille","lat":43.2479,"lon":5.374457,"is_reserved":false,"is_disabled":false,"rental_uris":{"android":"levelo://app?vid=b9bd7da5-d36b-43df-8452-6a74bc8cbc4a","ios":"levelo://app?vid=b9bd7da5-d36b-43df-8452-6a74bc8cbc4a"},"vehicle_type_id":"4","last_reported":1702119931,"current_range_meters":27200,"station_id":"ce4bhgh2rcd13ifvqfb0","pricing_plan_id":"free"},{"bike_id":"651d5a52-4e4d-4ee9-8d51-242452fcd256","system_id":"levelo_inurba_marseille","lat":43.2479,"lon":5.374457,"is_reserved":false,"is_disabled":false,"rental_uris":{"android":"levelo://app?vid=651d5a52-4e4d-4ee9-8d51-242452fcd256","ios":"levelo://app?vid=651d5a52-4e4d-4ee9-8d51-242452fcd256"},"vehicle_type_id":"4","last_reported":1702119931,"current_range_meters":20000,"station_id":"ce4bhgh2rcd13ifvqfb0","pricing_plan_id":"free"},{"bike_id":"0291de40-2207-4dfe-b4cf-ca13bd9a6e2e","system_id":"levelo_inurba_marseille","lat":43.24693,"lon":5.382096,"is_reserved":false,"is_disabled":false,"rental_uris":{"android":"levelo://app?vid=0291de40-2207-4dfe-b4cf-ca13bd9a6e2e","ios":"levelo://app?vid=0291de40-2207-4dfe-b4cf-ca13bd9a6e2e"},"vehicle_type_id":"4","last_reported":1702119931,"current_range_meters":26400,"station_id":"ce4bhih2rcd13ifvqfr0","pricing_plan_id":"free"},{"bike_id":"d8ec6ef7-52db-4dde-9927-1128a313208a","system_id":"levelo_inurba_marseille","lat":43.246461,"lon":5.389014,"is_reserved":false,"is_disabled":false,"rental_uris":{"android":"levelo://app?vid=d8ec6ef7-52db-4dde-9927-1128a313208a","ios":"levelo://app?vid=d8ec6ef7-52db-4dde-9927-1128a313208a"},"vehicle_type_id":"4","last_reported":1702119931,"current_range_meters":24000,"station_id":"ce4bhg12rcd13ifvqf60","pricing_plan_id":"free"},{"bike_id":"9af390f3-7880-4e03-9cbd-f6352325ab91","system_id":"levelo_inurba_marseille","lat":43.243884,"lon":5.370737,"is_reserved":false,"is_disabled":false,"rental_uris":{"android":"levelo://app?vid=9af390f3-7880-4e03-9cbd-f6352325ab91","ios":"levelo://app?vid=9af390f3-7880-4e03-9cbd-f6352325ab91"},"vehicle_type_id":"4","last_reported":1702119931,"current_range_meters":19600,"station_id":"ce4bhhh2rcd13ifvqfk0","pricing_plan_id":"free"},{"bike_id":"098bd4db-40aa-4319-89b5-cb8dda945159","system_id":"levelo_inurba_marseille","lat":43.243884,"lon":5.370737,"is_reserved":false,"is_disabled":false,"rental_uris":{"android":"levelo://app?vid=098bd4db-40aa-4319-89b5-cb8dda945159","ios":"levelo://app?vid=098bd4db-40aa-4319-89b5-cb8dda945159"},"vehicle_type_id":"4","last_reported":1702119931,"current_range_meters":19600,"station_id":"ce4bhhh2rcd13ifvqfk0","pricing_plan_id":"free"},{"bike_id":"8d373f6e-76b4-42e4-8b95-647136288427","system_id":"levelo_inurba_marseille","lat":43.243884,"lon":5.370736,"is_reserved":false,"is_disabled":false,"rental_uris":{"android":"levelo://app?vid=8d373f6e-76b4-42e4-8b95-647136288427","ios":"levelo://app?vid=8d373f6e-76b4-42e4-8b95-647136288427"},"vehicle_type_id":"4","last_reported":1702119931,"current_range_meters":14800,"station_id":"ce4bhhh2rcd13ifvqfk0","pricing_plan_id":"free"},{"bike_id":"04d57d73-8e0d-489d-9d5e-ae5cece2cc67","system_id":"levelo_inurba_marseille","lat":43.243884,"lon":5.370736,"is_reserved":false,"is_disabled":false,"rental_uris":{"android":"levelo://app?vid=04d57d73-8e0d-489d-9d5e-ae5cece2cc67","ios":"levelo://app?vid=04d57d73-8e0d-489d-9d5e-ae5cece2cc67"},"vehicle_type_id":"4","last_reported":1702119931,"current_range_meters":31600,"station_id":"ce4bhhh2rcd13ifvqfk0","pricing_plan_id":"free"},{"bike_id":"1f5043f5-ab70-4b00-b188-f5de4509875c","system_id":"levelo_inurba_marseille","lat":43.24549,"lon":5.39529,"is_reserved":false,"is_disabled":false,"rental_uris":{"android":"levelo://app?vid=1f5043f5-ab70-4b00-b188-f5de4509875c","ios":"levelo://app?vid=1f5043f5-ab70-4b00-b188-f5de4509875c"},"vehicle_type_id":"4","last_reported":1702119931,"current_range_meters":12400,"station_id":"ce4bhlp2rcd13ifvqgjg","pricing_plan_id":"free"},{"bike_id":"90b46009-8f90-4cc7-8ea1-08f62555240b","system_id":"levelo_inurba_marseille","lat":43.245581,"lon":5.395069,"is_reserved":false,"is_disabled":false,"rental_uris":{"android":"levelo://app?vid=90b46009-8f90-4cc7-8ea1-08f62555240b","ios":"levelo://app?vid=90b46009-8f90-4cc7-8ea1-08f62555240b"},"vehicle_type_id":"4","last_reported":1702119931,"current_range_meters":22800,"station_id":"ce4bhlp2rcd13ifvqgjg","pricing_plan_id":"free"},{"bike_id":"868bb225-bffe-4b2e-9a8b-56b2a9d28e58","system_id":"levelo_inurba_marseille","lat":43.24075,"lon":5.3776,"is_reserved":false,"is_disabled":false,"rental_uris":{"android":"levelo://app?vid=868bb225-bffe-4b2e-9a8b-56b2a9d28e58","ios":"levelo://app?vid=868bb225-bffe-4b2e-9a8b-56b2a9d28e58"},"vehicle_type_id":"4","last_reported":1702119931,"current_range_meters":18000,"station_id":"ce4bhnp2rcd13ifvqgvg","pricing_plan_id":"free"},{"bike_id":"1987ffb3-1930-48b6-aaa2-5055c54bbd00","system_id":"levelo_inurba_marseille","lat":43.240623,"lon":5.377642,"is_reserved":false,"is_disabled":false,"rental_uris":{"android":"levelo://app?vid=1987ffb3-1930-48b6-aaa2-5055c54bbd00","ios":"levelo://app?vid=1987ffb3-1930-48b6-aaa2-5055c54bbd00"},"vehicle_type_id":"4","last_reported":1702119931,"current_range_meters":16800,"station_id":"ce4bhnp2rcd13ifvqgvg","pricing_plan_id":"free"},{"bike_id":"9bc41371-7a8c-4363-8d66-f8a86c5c31f1","system_id":"levelo_inurba_marseille","lat":43.240623,"lon":5.377642,"is_reserved":false,"is_disabled":false,"rental_uris":{"android":"levelo://app?vid=9bc41371-7a8c-4363-8d66-f8a86c5c31f1","ios":"levelo://app?vid=9bc41371-7a8c-4363-8d66-f8a86c5c31f1"},"vehicle_type_id":"4","last_reported":1702119931,"current_range_meters":32000,"station_id":"ce4bhnp2rcd13ifvqgvg","pricing_plan_id":"free"},{"bike_id":"5556d4b5-d5a4-4e4e-ac5d-8d166c4bc703","system_id":"levelo_inurba_marseille","lat":43.239588,"lon":5.366238,"is_reserved":false,"is_disabled":false,"rental_uris":{"android":"levelo://app?vid=5556d4b5-d5a4-4e4e-ac5d-8d166c4bc703","ios":"levelo://app?vid=5556d4b5-d5a4-4e4e-ac5d-8d166c4bc703"},"vehicle_type_id":"4","last_reported":1702119931,"current_range_meters":19600,"station_id":"ce4bhi12rcd13ifvqfp0","pricing_plan_id":"free"},{"bike_id":"589ec893-735f-452b-a5bb-60186a5dfc56","system_id":"levelo_inurba_marseille","lat":43.239588,"lon":5.366238,"is_reserved":false,"is_disabled":false,"rental_uris":{"android":"levelo://app?vid=589ec893-735f-452b-a5bb-60186a5dfc56","ios":"levelo://app?vid=589ec893-735f-452b-a5bb-60186a5dfc56"},"vehicle_type_id":"4","last_reported":1702119931,"current_range_meters":29200,"station_id":"ce4bhi12rcd13ifvqfp0","pricing_plan_id":"free"},{"bike_id":"f3af0f29-c6b3-45f1-8540-3a752563e91b","system_id":"levelo_inurba_marseille","lat":43.23969,"lon":5.36623,"is_reserved":false,"is_disabled":false,"rental_uris":{"android":"levelo://app?vid=f3af0f29-c6b3-45f1-8540-3a752563e91b","ios":"levelo://app?vid=f3af0f29-c6b3-45f1-8540-3a752563e91b"},"vehicle_type_id":"4","last_reported":1702119931,"current_range_meters":11200,"station_id":"ce4bhi12rcd13ifvqfp0","pricing_plan_id":"free"},{"bike_id":"ee7d9f3a-4947-4ac7-867e-bdca862e5b32","system_id":"levelo_inurba_marseille","lat":43.23966,"lon":5.36632,"is_reserved":false,"is_disabled":false,"rental_uris":{"android":"levelo://app?vid=ee7d9f3a-4947-4ac7-867e-bdca862e5b32","ios":"levelo://app?vid=ee7d9f3a-4947-4ac7-867e-bdca862e5b32"},"vehicle_type_id":"4","last_reported":1702119931,"current_range_meters":9200,"station_id":"ce4bhi12rcd13ifvqfp0","pricing_plan_id":"free"},{"bike_id":"93954539-37ab-42cb-8148-c6cd6174d0ce","system_id":"levelo_inurba_marseille","lat":43.23957,"lon":5.3663,"is_reserved":false,"is_disabled":false,"rental_uris":{"android":"levelo://app?vid=93954539-37ab-42cb-8148-c6cd6174d0ce","ios":"levelo://app?vid=93954539-37ab-42cb-8148-c6cd6174d0ce"},"vehicle_type_id":"4","last_reported":1702119931,"current_range_meters":30000,"station_id":"ce4bhi12rcd13ifvqfp0","pricing_plan_id":"free"},{"bike_id":"a4230d3b-3ed9-4d95-8450-879adb0a2721","system_id":"levelo_inurba_marseille","lat":43.241782,"lon":5.397264,"is_reserved":false,"is_disabled":false,"rental_uris":{"android":"levelo://app?vid=a4230d3b-3ed9-4d95-8450-879adb0a2721","ios":"levelo://app?vid=a4230d3b-3ed9-4d95-8450-879adb0a2721"},"vehicle_type_id":"4","last_reported":1702119931,"current_range_meters":31200,"station_id":"ce4bhn12rcd13ifvqgpg","pricing_plan_id":"free"},{"bike_id":"c59fbada-97a4-48f5-8cb3-b439b71e5bc6","system_id":"levelo_inurba_marseille","lat":43.241782,"lon":5.397261,"is_reserved":false,"is_disabled":false,"rental_uris":{"android":"levelo://app?vid=c59fbada-97a4-48f5-8cb3-b439b71e5bc6","ios":"levelo://app?vid=c59fbada-97a4-48f5-8cb3-b439b71e5bc6"},"vehicle_type_id":"4","last_reported":1702119931,"current_range_meters":24400,"station_id":"ce4bhn12rcd13ifvqgpg","pricing_plan_id":"free"},{"bike_id":"be845917-f52e-4a9f-83ff-909546a09332","system_id":"levelo_inurba_marseille","lat":43.231905,"lon":5.399739,"is_reserved":false,"is_disabled":false,"rental_uris":{"android":"levelo://app?vid=be845917-f52e-4a9f-83ff-909546a09332","ios":"levelo://app?vid=be845917-f52e-4a9f-83ff-909546a09332"},"vehicle_type_id":"4","last_reported":1702119931,"current_range_meters":31600,"station_id":"ce4bhn12rcd13ifvqgqg","pricing_plan_id":"free"},{"bike_id":"da8bdaa6-929c-4ce7-8985-498dc3864e9f","system_id":"levelo_inurba_marseille","lat":43.231793,"lon":5.400044,"is_reserved":false,"is_disabled":false,"rental_uris":{"android":"levelo://app?vid=da8bdaa6-929c-4ce7-8985-498dc3864e9f","ios":"levelo://app?vid=da8bdaa6-929c-4ce7-8985-498dc3864e9f"},"vehicle_type_id":"4","last_reported":1702119931,"current_range_meters":14400,"station_id":"ce4bhn12rcd13ifvqgqg","pricing_plan_id":"free"},{"bike_id":"ade3d212-009c-412c-985f-fa84bf859c68","system_id":"levelo_inurba_marseille","lat":43.231562,"lon":5.436933,"is_reserved":false,"is_disabled":false,"rental_uris":{"android":"levelo://app?vid=ade3d212-009c-412c-985f-fa84bf859c68","ios":"levelo://app?vid=ade3d212-009c-412c-985f-fa84bf859c68"},"vehicle_type_id":"4","last_reported":1702119931,"current_range_meters":16400,"station_id":"ce4bhmp2rcd13ifvqgog","pricing_plan_id":"free"},{"bike_id":"4602c924-779b-487b-83d3-973012095f32","system_id":"levelo_inurba_marseille","lat":43.231562,"lon":5.436933,"is_reserved":false,"is_disabled":false,"rental_uris":{"android":"levelo://app?vid=4602c924-779b-487b-83d3-973012095f32","ios":"levelo://app?vid=4602c924-779b-487b-83d3-973012095f32"},"vehicle_type_id":"4","last_reported":1702119931,"current_range_meters":17200,"station_id":"ce4bhmp2rcd13ifvqgog","pricing_plan_id":"free"}]}}