{"last_updated":1743250596,"ttl":60,"version":"2.2","data":{"bikes":[{"bike_id":"8d2ebe73-240c-42ca-b3ad-9f837a7ded6f","system_id":"levelo_inurba_marseille","lat":43.29303,"lon":5.37459,"is_reserved":false,"is_disabled":false,"rental_uris":{"android":"levelo://app?vid=8d2ebe73-240c-42ca-b3ad-9f837a7ded6f","ios":"levelo://app?vid=8d2ebe73-240c-42ca-b3ad-9f837a7ded6f"},"vehicle_type_id":"4","last_reported":1743250596,"current_range_meters":2800,"station_id":"ce4bgi12rcd13ifvqb70","pricing_plan_id":"cebpf4jnsgd1na2vs0mg"},{"bike_id":"45211573-a000-4919-9c4a-38f86225e040","system_id":"levelo_inurba_marseille","lat":43.27499,"lon":5.42463,"is_reserved":false,"is_disabled":false,"rental_uris":{"android":"levelo://app?vid=45211573-a000-4919-9c4a-38f86225e040","ios":"levelo://app?vid=45211573-a000-4919-9c4a-38f86225e040"},"vehicle_type_id":"4","last_reported":1743250596,"current_range_meters":3200,"station_id":"ce4bhn92rcd13ifvqgrg","pricing_plan_id":"cebpf4jnsgd1na2vs0mg"},{"bike_id":"b9af1335-099e-4957-b9ba-3abbbc660a5e","system_id":"levelo_inurba_marseille","lat":43.27843,"lon":5.392,"is_reserved":false,"is_disabled":false,"rental_uris":{"android":"levelo://app?vid=b9af1335-099e-4957-b9ba-3abbbc660a5e","ios":"levelo://app?vid=b9af1335-099e-4957-b9ba-3abbbc660a5e"},"vehicle_type_id":"4","last_reported":1743250596,"current_range_meters":3600,"station_id":"ce4bhjp2rcd13ifvqga0","pricing_plan_id":"cebpf4jnsgd1na2vs0mg"},{"bike_id":"72f3c087-5a62-45d0-a670-d5ef8e734cb3","system_id":"levelo_inurba_marseille","lat":43.23188,"lon":5.40008,"is_reserved":false,"is_disabled":false,"rental_uris":{"android":"levelo://app?vid=72f3c087-5a62-45d0-a670-d5ef8e734cb3","ios":"levelo://app?vid=72f3c087-5a62-45d0-a670-d5ef8e734cb3"},"vehicle_type_id":"4","last_reported":1743250596,"current_range_meters":3600,"station_id":"ce4bhn12rcd13ifvqgqg","pricing_plan_id":"cebpf4jnsgd1na2vs0mg"},{"bike_id":"b61fc005-26bc-414c-a33e-3c3dc3da1806","system_id":"levelo_inurba_marseille","lat":43.290415,"lon":5.386492,"is_reserved":false,"is_disabled":false,"rental_uris":{"android":"levelo://app?vid=b61fc005-26bc-414c-a33e-3c3dc3da1806","ios":"levelo://app?vid=b61fc005-26bc-414c-a33e-3c3dc3da1806"},"vehicle_type_id":"4","last_reported":1743250596,"current_range_meters":3600,"station_id":"","pricing_plan_id":"cebpf4jnsgd1na2vs0mg"},{"bike_id":"e5c41e41-8507-4894-a3b4-1109ea3a54dc","system_id":"levelo_inurba_marseille","lat":43.2957,"lon":5.37517,"is_reserved":false,"is_disabled":false,"rental_uris":{"android":"levelo://app?vid=e5c41e41-8507-4894-a3b4-1109ea3a54dc","ios":"levelo://app?vid=e5c41e41-8507-4894-a3b4-1109ea3a54dc"},"vehicle_type_id":"4","last_reported":1743250596,"current_range_meters":4000,"station_id":"ce4bgh92rcd13ifvqb50","pricing_plan_id":"cebpf4jnsgd1na2vs0mg"},{"bike_id":"bea3cd03-6fa5-4b8d-9e7c-8b8b0d880ba4","system_id":"levelo_inurba_marseille","lat":43.31176,"lon":5.38726,"is_reserved":false,"is_disabled":false,"rental_uris":{"android":"levelo://app?vid=bea3cd03-6fa5-4b8d-9e7c-8b8b0d880ba4","ios":"levelo://app?vid=bea3cd03-6fa5-4b8d-9e7c-8b8b0d880ba4"},"vehicle_type_id":"4","last_reported":1743250596,"current_range_meters":4000,"station_id":"ce4bgv12rcd13ifvqcp0","pricing_plan_id":"cebpf4jnsgd1na2vs0mg"},{"bike_id":"fafdb746-bb56-4a7c-8b82-6585b705cef5","system_id":"levelo_inurba_marseille","lat":43.24075,"lon":5.3776,"is_reserved":false,"is_disabled":false,"rental_uris":{"android":"levelo://app?vid=fafdb746-bb56-4a7c-8b82-6585b705cef5","ios":"levelo://app?vid=fafdb746-bb56-4a7c-8b82-6585b705cef5"},"vehicle_type_id":"4","last_reported":1743250596,"current_range_meters":4000,"station_id":"ce4bhnp2rcd13ifvqgvg","pricing_plan_id":"cebpf4jnsgd1na2vs0mg"},{"bike_id":"2889d068-aba0-4325-89fb-477e973934ae","system_id":"levelo_inurba_marseille","lat":43.2906,"lon":5.39925,"is_reserved":false,"is_disabled":false,"rental_uris":{"android":"levelo://app?vid=2889d068-aba0-4325-89fb-477e973934ae","ios":"levelo://app?vid=2889d068-aba0-4325-89fb-477e973934ae"},"vehicle_type_id":"4","last_reported":1743250596,"current_range_meters":4000,"station_id":"ce4bh392rcd13ifvqdm0","pricing_plan_id":"cebpf4jnsgd1na2vs0mg"},{"bike_id":"22a50f37-dcc2-444b-9450-789973746878","system_id":"levelo_inurba_marseille","lat":43.30425,"lon":5.41268,"is_reserved":false,"is_disabled":false,"rental_uris":{"android":"levelo://app?vid=22a50f37-dcc2-444b-9450-789973746878","ios":"levelo://app?vid=22a50f37-dcc2-444b-9450-789973746878"},"vehicle_type_id":"4","last_reported":1743250596,"current_range_meters":4400,"station_id":"ce4bhop2rcd13ifvqh8g","pricing_plan_id":"cebpf4jnsgd1na2vs0mg"},{"bike_id":"5807267d-8e4c-40e8-ad2c-cea1ef2d776a","system_id":"levelo_inurba_marseille","lat":43.29306,"lon":5.37181,"is_reserved":false,"is_disabled":false,"rental_uris":{"android":"levelo://app?vid=5807267d-8e4c-40e8-ad2c-cea1ef2d776a","ios":"levelo://app?vid=5807267d-8e4c-40e8-ad2c-cea1ef2d776a"},"vehicle_type_id":"4","last_reported":1743250596,"current_range_meters":4400,"station_id":"ce4bgh92rcd13ifvqb40","pricing_plan_id":"cebpf4jnsgd1na2vs0mg"},{"bike_id":"4318d98f-22d2-4f5d-b506-0ad78862a525","system_id":"levelo_inurba_marseille","lat":43.28857,"lon":5.39316,"is_reserved":false,"is_disabled":false,"rental_uris":{"android":"levelo://app?vid=4318d98f-22d2-4f5d-b506-0ad78862a525","ios":"levelo://app?vid=4318d98f-22d2-4f5d-b506-0ad78862a525"},"vehicle_type_id":"4","last_reported":1743250596,"current_range_meters":4800,"station_id":"ce4bh2p2rcd13ifvqdi0","pricing_plan_id":"cebpf4jnsgd1na2vs0mg"},{"bike_id":"2f766ddf-3194-4c5c-ad07-0b0d7a838ded","system_id":"levelo_inurba_marseille","lat":43.30303,"lon":5.39224,"is_reserved":false,"is_disabled":false,"rental_uris":{"android":"levelo://app?vid=2f766ddf-3194-4c5c-ad07-0b0d7a838ded","ios":"levelo://app?vid=2f766ddf-3194-4c5c-ad07-0b0d7a838ded"},"vehicle_type_id":"4","last_reported":1743250596,"current_range_meters":4800,"station_id":"ce4bgkh2rcd13ifvqbk0","pricing_plan_id":"cebpf4jnsgd1na2vs0mg"},{"bike_id":"ee2588a0-8a3d-4c56-88e3-6823a90de92d","system_id":"levelo_inurba_marseille","lat":43.28087,"lon":5.38588,"is_reserved":false,"is_disabled":false,"rental_uris":{"android":"levelo://app?vid=ee2588a0-8a3d-4c56-88e3-6823a90de92d","ios":"levelo://app?vid=ee2588a0-8a3d-4c56-88e3-6823a90de92d"},"vehicle_type_id":"4","last_reported":1743250596,"current_range_meters":4800,"station_id":"","pricing_plan_id":"cebpf4jnsgd1na2vs0mg"},{"bike_id":"bf486d29-80ae-43fc-9394-756ed3e2b73e","system_id":"levelo_inurba_marseille","lat":43.28004,"lon":5.3999,"is_reserved":false,"is_disabled":true,"rental_uris":{"android":"levelo://app?vid=bf486d29-80ae-43fc-9394-756ed3e2b73e","ios":"levelo://app?vid=bf486d29-80ae-43fc-9394-756ed3e2b73e"},"vehicle_type_id":"4","last_reported":1743250596,"current_range_meters":5600,"station_id":"ce4bho92rcd13ifvqh4g","pricing_plan_id":"cebpf4jnsgd1na2vs0mg"},{"bike_id":"49da6675-1e4e-4868-88ef-c39cc905aa47","system_id":"levelo_inurba_marseille","lat":43.25585,"lon":5.382238,"is_reserved":false,"is_disabled":false,"rental_uris":{"android":"levelo://app?vid=49da6675-1e4e-4868-88ef-c39cc905aa47","ios":"levelo://app?vid=49da6675-1e4e-4868-88ef-c39cc905aa47"},"vehicle_type_id":"4","last_reported":1743250596,"current_range_meters":5600,"station_id":"ce4bhih2rcd13ifvqfs0","pricing_plan_id":"cebpf4jnsgd1na2vs0mg"},{"bike_id":"1deeec2e-47a4-4f06-9316-1d0987be07b8","system_id":"levelo_inurba_marseille","lat":43.2749,"lon":5.42451,"is_reserved":false,"is_disabled":false,"rental_uris":{"android":"levelo://app?vid=1deeec2e-47a4-4f06-9316-1d0987be07b8","ios":"levelo://app?vid=1deeec2e-47a4-4f06-9316-1d0987be07b8"},"vehicle_type_id":"4","last_reported":1743250596,"current_range_meters":5600,"station_id":"ce4bhn92rcd13ifvqgrg","pricing_plan_id":"cebpf4jnsgd1na2vs0mg"},{"bike_id":"57f8c7cb-17ce-46c9-b07d-dc98d28c951d","system_id":"levelo_inurba_marseille","lat":43.25909,"lon":5.39425,"is_reserved":false,"is_disabled":false,"rental_uris":{"android":"levelo://app?vid=57f8c7cb-17ce-46c9-b07d-dc98d28c951d","ios":"levelo://app?vid=57f8c7cb-17ce-46c9-b07d-dc98d28c951d"},"vehicle_type_id":"4","last_reported":1743250596,"current_range_meters":5600,"station_id":"ce4bhip2rcd13ifvqft0","pricing_plan_id":"cebpf4jnsgd1na2vs0mg"},{"bike_id":"372077d7-6912-4560-8e62-7c1226cc8258","system_id":"levelo_inurba_marseille","lat":43.2798,"lon":5.40064,"is_reserved":false,"is_disabled":false,"rental_uris":{"android":"levelo://app?vid=372077d7-6912-4560-8e62-7c1226cc8258","ios":"levelo://app?vid=372077d7-6912-4560-8e62-7c1226cc8258"},"vehicle_type_id":"4","last_reported":1743250596,"current_range_meters":6400,"station_id":"ce4bho92rcd13ifvqh4g","pricing_plan_id":"cebpf4jnsgd1na2vs0mg"},{"bike_id":"4a42ca1e-41e4-4233-a4bb-a180f04564d6","system_id":"levelo_inurba_marseille","lat":43.291729,"lon":5.371452,"is_reserved":false,"is_disabled":true,"rental_uris":{"android":"levelo://app?vid=4a42ca1e-41e4-4233-a4bb-a180f04564d6","ios":"levelo://app?vid=4a42ca1e-41e4-4233-a4bb-a180f04564d6"},"vehicle_type_id":"4","last_reported":1743250596,"current_range_meters":6400,"station_id":"ce4bha92rcd13ifvqeh0","pricing_plan_id":"cebpf4jnsgd1na2vs0mg"},{"bike_id":"861ae205-c318-4688-ac53-947993e1b65f","system_id":"levelo_inurba_marseille","lat":43.24169,"lon":5.36377,"is_reserved":false,"is_disabled":false,"rental_uris":{"android":"levelo://app?vid=861ae205-c318-4688-ac53-947993e1b65f","ios":"levelo://app?vid=861ae205-c318-4688-ac53-947993e1b65f"},"vehicle_type_id":"4","last_reported":1743250596,"current_range_meters":6400,"station_id":"cpo36qri1sfpv3e86is0","pricing_plan_id":"cebpf4jnsgd1na2vs0mg"},{"bike_id":"c2818494-39a8-427b-aa77-d7800fde363a","system_id":"levelo_inurba_marseille","lat":43.26219,"lon":5.37899,"is_reserved":false,"is_disabled":false,"rental_uris":{"android":"levelo://app?vid=c2818494-39a8-427b-aa77-d7800fde363a","ios":"levelo://app?vid=c2818494-39a8-427b-aa77-d7800fde363a"},"vehicle_type_id":"4","last_reported":1743250596,"current_range_meters":6400,"station_id":"ce4bhjp2rcd13ifvqg90","pricing_plan_id":"cebpf4jnsgd1na2vs0mg"},{"bike_id":"4af2a952-7a20-4922-8679-9a03f87a1497","system_id":"levelo_inurba_marseille","lat":43.279125,"lon":5.380157,"is_reserved":false,"is_disabled":false,"rental_uris":{"android":"levelo://app?vid=4af2a952-7a20-4922-8679-9a03f87a1497","ios":"levelo://app?vid=4af2a952-7a20-4922-8679-9a03f87a1497"},"vehicle_type_id":"4","last_reported":1743250596,"current_range_meters":6400,"station_id":"ce4bhf92rcd13ifvqf50","pricing_plan_id":"cebpf4jnsgd1na2vs0mg"},{"bike_id":"e68a3cd4-776d-477e-b868-19282e6dc1d7","system_id":"levelo_inurba_marseille","lat":43.307858,"lon":5.376526,"is_reserved":false,"is_disabled":true,"rental_uris":{"android":"levelo://app?vid=e68a3cd4-776d-477e-b868-19282e6dc1d7","ios":"levelo://app?vid=e68a3cd4-776d-477e-b868-19282e6dc1d7"},"vehicle_type_id":"4","last_reported":1743250596,"current_range_meters":6400,"station_id":"ce4bgv92rcd13ifvqcq0","pricing_plan_id":"cebpf4jnsgd1na2vs0mg"},{"bike_id":"971c92cb-66df-438d-9a85-e63af939e6ff","system_id":"levelo_inurba_marseille","lat":43.286194,"lon":5.351015,"is_reserved":false,"is_disabled":true,"rental_uris":{"android":"levelo://app?vid=971c92cb-66df-438d-9a85-e63af939e6ff","ios":"levelo://app?vid=971c92cb-66df-438d-9a85-e63af939e6ff"},"vehicle_type_id":"4","last_reported":1743250596,"current_range_meters":6800,"station_id":"ce4bhch2rcd13ifvqeug","pricing_plan_id":"cebpf4jnsgd1na2vs0mg"},{"bike_id":"8d94e85c-01ab-4cab-bb0d-897560ae7dd7","system_id":"levelo_inurba_marseille","lat":43.29924,"lon":5.37473,"is_reserved":false,"is_disabled":false,"rental_uris":{"android":"levelo://app?vid=8d94e85c-01ab-4cab-bb0d-897560ae7dd7","ios":"levelo://app?vid=8d94e85c-01ab-4cab-bb0d-897560ae7dd7"},"vehicle_type_id":"4","last_reported":1743250596,"current_range_meters":6800,"station_id":"ce4bgjh2rcd13ifvqbg0","pricing_plan_id":"cebpf4jnsgd1na2vs0mg"},{"bike_id":"bb4d38b7-56f3-4613-9751-9de59ac7a2dd","system_id":"levelo_inurba_marseille","lat":43.30328,"lon":5.40442,"is_reserved":false,"is_disabled":false,"rental_uris":{"android":"levelo://app?vid=bb4d38b7-56f3-4613-9751-9de59ac7a2dd","ios":"levelo://app?vid=bb4d38b7-56f3-4613-9751-9de59ac7a2dd"},"vehicle_type_id":"4","last_reported":1743250596,"current_range_meters":6800,"station_id":"ce4bh012rcd13ifvqd10","pricing_plan_id":"cebpf4jnsgd1na2vs0mg"},{"bike_id":"ccabac15-3763-4667-bbc0-0860bb28b357","system_id":"levelo_inurba_marseille","lat":43.29895,"lon":5.39739,"is_reserved":false,"is_disabled":false,"rental_uris":{"android":"levelo://app?vid=ccabac15-3763-4667-bbc0-0860bb28b357","ios":"levelo://app?vid=ccabac15-3763-4667-bbc0-0860bb28b357"},"vehicle_type_id":"4","last_reported":1743250596,"current_range_meters":6800,"station_id":"ce4bh0h2rcd13ifvqd50","pricing_plan_id":"cebpf4jnsgd1na2vs0mg"},{"bike_id":"7e1614de-7c87-4654-aba5-85268031820c","system_id":"levelo_inurba_marseille","lat":43.26214,"lon":5.37439,"is_reserved":false,"is_disabled":false,"rental_uris":{"android":"levelo://app?vid=7e1614de-7c87-4654-aba5-85268031820c","ios":"levelo://app?vid=7e1614de-7c87-4654-aba5-85268031820c"},"vehicle_type_id":"4","last_reported":1743250596,"current_range_meters":6800,"station_id":"ce4bhgp2rcd13ifvqfc0","pricing_plan_id":"cebpf4jnsgd1na2vs0mg"},{"bike_id":"f48c02c9-0797-4330-96d5-7de498caf3d6","system_id":"levelo_inurba_marseille","lat":43.24067,"lon":5.37765,"is_reserved":false,"is_disabled":false,"rental_uris":{"android":"levelo://app?vid=f48c02c9-0797-4330-96d5-7de498caf3d6","ios":"levelo://app?vid=f48c02c9-0797-4330-96d5-7de498caf3d6"},"vehicle_type_id":"4","last_reported":1743250596,"current_range_meters":6800,"station_id":"ce4bhnp2rcd13ifvqgvg","pricing_plan_id":"cebpf4jnsgd1na2vs0mg"},{"bike_id":"c6b682a7-e903-4363-967f-d69957e8f7ed","system_id":"levelo_inurba_marseille","lat":43.28616,"lon":5.35113,"is_reserved":false,"is_disabled":false,"rental_uris":{"android":"levelo://app?vid=c6b682a7-e903-4363-967f-d69957e8f7ed","ios":"levelo://app?vid=c6b682a7-e903-4363-967f-d69957e8f7ed"},"vehicle_type_id":"4","last_reported":1743250596,"current_range_meters":6800,"station_id":"ce4bhch2rcd13ifvqeug","pricing_plan_id":"cebpf4jnsgd1na2vs0mg"},{"bike_id":"bcba6ad8-dd89-4005-9499-e24f88c2f14c","system_id":"levelo_inurba_marseille","lat":43.27321,"lon":5.39106,"is_reserved":false,"is_disabled":false,"rental_uris":{"android":"levelo://app?vid=bcba6ad8-dd89-4005-9499-e24f88c2f14c","ios":"levelo://app?vid=bcba6ad8-dd89-4005-9499-e24f88c2f14c"},"vehicle_type_id":"4","last_reported":1743250596,"current_range_meters":7200,"station_id":"ce4bhgp2rcd13ifvqfe0","pricing_plan_id":"cebpf4jnsgd1na2vs0mg"},{"bike_id":"90df0f14-f996-423e-b605-53c2c708242e","system_id":"levelo_inurba_marseille","lat":43.31713,"lon":5.40516,"is_reserved":false,"is_disabled":false,"rental_uris":{"android":"levelo://app?vid=90df0f14-f996-423e-b605-53c2c708242e","ios":"levelo://app?vid=90df0f14-f996-423e-b605-53c2c708242e"},"vehicle_type_id":"4","last_reported":1743250596,"current_range_meters":7200,"station_id":"ce4bh012rcd13ifvqd00","pricing_plan_id":"cebpf4jnsgd1na2vs0mg"},{"bike_id":"87ce5af9-2c3f-4b34-8106-a0bd98c8708b","system_id":"levelo_inurba_marseille","lat":43.28002,"lon":5.40017,"is_reserved":false,"is_disabled":false,"rental_uris":{"android":"levelo://app?vid=87ce5af9-2c3f-4b34-8106-a0bd98c8708b","ios":"levelo://app?vid=87ce5af9-2c3f-4b34-8106-a0bd98c8708b"},"vehicle_type_id":"4","last_reported":1743250596,"current_range_meters":7200,"station_id":"ce4bho92rcd13ifvqh4g","pricing_plan_id":"cebpf4jnsgd1na2vs0mg"},{"bike_id":"b5e32215-ae42-450c-83a5-6e84652aa193","system_id":"levelo_inurba_marseille","lat":43.29559,"lon":5.42294,"is_reserved":false,"is_disabled":false,"rental_uris":{"android":"levelo://app?vid=b5e32215-ae42-450c-83a5-6e84652aa193","ios":"levelo://app?vid=b5e32215-ae42-450c-83a5-6e84652aa193"},"vehicle_type_id":"4","last_reported":1743250596,"current_range_meters":7200,"station_id":"ce4bhph2rcd13ifvqhdg","pricing_plan_id":"cebpf4jnsgd1na2vs0mg"},{"bike_id":"7e3f21a9-a66f-452c-a43c-3918e8061997","system_id":"levelo_inurba_marseille","lat":43.32095,"lon":5.36785,"is_reserved":false,"is_disabled":false,"rental_uris":{"android":"levelo://app?vid=7e3f21a9-a66f-452c-a43c-3918e8061997","ios":"levelo://app?vid=7e3f21a9-a66f-452c-a43c-3918e8061997"},"vehicle_type_id":"4","last_reported":1743250596,"current_range_meters":7200,"station_id":"ce4bhrh2rcd13ifvqhug","pricing_plan_id":"cebpf4jnsgd1na2vs0mg"},{"bike_id":"497ce44a-eda7-4df7-824b-4be485d19c94","system_id":"levelo_inurba_marseille","lat":43.32075,"lon":5.41558,"is_reserved":false,"is_disabled":false,"rental_uris":{"android":"levelo://app?vid=497ce44a-eda7-4df7-824b-4be485d19c94","ios":"levelo://app?vid=497ce44a-eda7-4df7-824b-4be485d19c94"},"vehicle_type_id":"4","last_reported":1743250596,"current_range_meters":7200,"station_id":"ce4bhq92rcd13ifvqhkg","pricing_plan_id":"cebpf4jnsgd1na2vs0mg"},{"bike_id":"3d9f3d59-387c-4d59-b5de-5876513d6d8a","system_id":"levelo_inurba_marseille","lat":43.30542,"lon":5.36531,"is_reserved":false,"is_disabled":false,"rental_uris":{"android":"levelo://app?vid=3d9f3d59-387c-4d59-b5de-5876513d6d8a","ios":"levelo://app?vid=3d9f3d59-387c-4d59-b5de-5876513d6d8a"},"vehicle_type_id":"4","last_reported":1743250596,"current_range_meters":7200,"station_id":"ce4bgs12rcd13ifvqcag","pricing_plan_id":"cebpf4jnsgd1na2vs0mg"},{"bike_id":"c7202a36-dcf4-42c9-81fd-93a9ffadf8b5","system_id":"levelo_inurba_marseille","lat":43.27071,"lon":5.4227,"is_reserved":false,"is_disabled":false,"rental_uris":{"android":"levelo://app?vid=c7202a36-dcf4-42c9-81fd-93a9ffadf8b5","ios":"levelo://app?vid=c7202a36-dcf4-42c9-81fd-93a9ffadf8b5"},"vehicle_type_id":"4","last_reported":1743250596,"current_range_meters":7200,"station_id":"ce4bhk92rcd13ifvqgb0","pricing_plan_id":"cebpf4jnsgd1na2vs0mg"},{"bike_id":"256b12b3-6618-4f6b-adf2-ef18b1ea5fad","system_id":"levelo_inurba_marseille","lat":43.30955,"lon":5.39031,"is_reserved":false,"is_disabled":false,"rental_uris":{"android":"levelo://app?vid=256b12b3-6618-4f6b-adf2-ef18b1ea5fad","ios":"levelo://app?vid=256b12b3-6618-4f6b-adf2-ef18b1ea5fad"},"vehicle_type_id":"4","last_reported":1743250596,"current_range_meters":7200,"station_id":"ce4bgup2rcd13ifvqco0","pricing_plan_id":"cebpf4jnsgd1na2vs0mg"},{"bike_id":"8df82f75-8e88-42ce-91be-05f07b23d1d8","system_id":"levelo_inurba_marseille","lat":43.28867,"lon":5.3583,"is_reserved":false,"is_disabled":false,"rental_uris":{"android":"levelo://app?vid=8df82f75-8e88-42ce-91be-05f07b23d1d8","ios":"levelo://app?vid=8df82f75-8e88-42ce-91be-05f07b23d1d8"},"vehicle_type_id":"4","last_reported":1743250596,"current_range_meters":8000,"station_id":"ce4bhb12rcd13ifvqem0","pricing_plan_id":"cebpf4jnsgd1na2vs0mg"},{"bike_id":"51220608-1b50-4361-9bd7-d453620f55ff","system_id":"levelo_inurba_marseille","lat":43.284196,"lon":5.392156,"is_reserved":false,"is_disabled":false,"rental_uris":{"android":"levelo://app?vid=51220608-1b50-4361-9bd7-d453620f55ff","ios":"levelo://app?vid=51220608-1b50-4361-9bd7-d453620f55ff"},"vehicle_type_id":"4","last_reported":1743250596,"current_range_meters":8000,"station_id":"ce4bhoh2rcd13ifvqh5g","pricing_plan_id":"cebpf4jnsgd1na2vs0mg"},{"bike_id":"59f300a4-466a-4010-9970-ea2c95395482","system_id":"levelo_inurba_marseille","lat":43.31364,"lon":5.38493,"is_reserved":false,"is_disabled":false,"rental_uris":{"android":"levelo://app?vid=59f300a4-466a-4010-9970-ea2c95395482","ios":"levelo://app?vid=59f300a4-466a-4010-9970-ea2c95395482"},"vehicle_type_id":"4","last_reported":1743250596,"current_range_meters":8000,"station_id":"ce4bgt92rcd13ifvqcf0","pricing_plan_id":"cebpf4jnsgd1na2vs0mg"},{"bike_id":"4cc2417c-0d66-42cc-a800-c7c2b9e37f65","system_id":"levelo_inurba_marseille","lat":43.26493,"lon":5.39542,"is_reserved":false,"is_disabled":false,"rental_uris":{"android":"levelo://app?vid=4cc2417c-0d66-42cc-a800-c7c2b9e37f65","ios":"levelo://app?vid=4cc2417c-0d66-42cc-a800-c7c2b9e37f65"},"vehicle_type_id":"4","last_reported":1743250596,"current_range_meters":8000,"station_id":"ce4bhi12rcd13ifvqfq0","pricing_plan_id":"cebpf4jnsgd1na2vs0mg"},{"bike_id":"d6ae2dac-bcff-421f-8aa6-f2a5b3559285","system_id":"levelo_inurba_marseille","lat":43.26484,"lon":5.39533,"is_reserved":false,"is_disabled":false,"rental_uris":{"android":"levelo://app?vid=d6ae2dac-bcff-421f-8aa6-f2a5b3559285","ios":"levelo://app?vid=d6ae2dac-bcff-421f-8aa6-f2a5b3559285"},"vehicle_type_id":"4","last_reported":1743250596,"current_range_meters":8000,"station_id":"ce4bhi12rcd13ifvqfq0","pricing_plan_id":"cebpf4jnsgd1na2vs0mg"},{"bike_id":"4961c94f-06e8-499d-a119-da9de340c459","system_id":"levelo_inurba_marseille","lat":43.24812,"lon":5.37447,"is_reserved":false,"is_disabled":false,"rental_uris":{"android":"levelo://app?vid=4961c94f-06e8-499d-a119-da9de340c459","ios":"levelo://app?vid=4961c94f-06e8-499d-a119-da9de340c459"},"vehicle_type_id":"4","last_reported":1743250596,"current_range_meters":8400,"station_id":"ce4bhgh2rcd13ifvqfb0","pricing_plan_id":"cebpf4jnsgd1na2vs0mg"},{"bike_id":"2669b74a-4e67-4742-9169-4ac6d5448c55","system_id":"levelo_inurba_marseille","lat":43.28355,"lon":5.38116,"is_reserved":false,"is_disabled":false,"rental_uris":{"android":"levelo://app?vid=2669b74a-4e67-4742-9169-4ac6d5448c55","ios":"levelo://app?vid=2669b74a-4e67-4742-9169-4ac6d5448c55"},"vehicle_type_id":"4","last_reported":1743250596,"current_range_meters":8400,"station_id":"ce4bh412rcd13ifvqdr0","pricing_plan_id":"cebpf4jnsgd1na2vs0mg"},{"bike_id":"f47eba55-a588-4033-a3dc-992c836c995d","system_id":"levelo_inurba_marseille","lat":43.31715,"lon":5.4051,"is_reserved":false,"is_disabled":false,"rental_uris":{"android":"levelo://app?vid=f47eba55-a588-4033-a3dc-992c836c995d","ios":"levelo://app?vid=f47eba55-a588-4033-a3dc-992c836c995d"},"vehicle_type_id":"4","last_reported":1743250596,"current_range_meters":8400,"station_id":"ce4bh012rcd13ifvqd00","pricing_plan_id":"cebpf4jnsgd1na2vs0mg"},{"bike_id":"78879d72-d868-43c9-a743-a6ab48dd9b11","system_id":"levelo_inurba_marseille","lat":43.28697,"lon":5.36078,"is_reserved":false,"is_disabled":false,"rental_uris":{"android":"levelo://app?vid=78879d72-d868-43c9-a743-a6ab48dd9b11","ios":"levelo://app?vid=78879d72-d868-43c9-a743-a6ab48dd9b11"},"vehicle_type_id":"4","last_reported":1743250596,"current_range_meters":8400,"station_id":"cki0cbj6b192h4jlfktg","pricing_plan_id":"cebpf4jnsgd1na2vs0mg"},{"bike_id":"6082a6d8-29f3-4441-bd82-d0f95ead75d7","system_id":"levelo_inurba_marseille","lat":43.23189,"lon":5.35549,"is_reserved":false,"is_disabled":false,"rental_uris":{"android":"levelo://app?vid=6082a6d8-29f3-4441-bd82-d0f95ead75d7","ios":"levelo://app?vid=6082a6d8-29f3-4441-bd82-d0f95ead75d7"},"vehicle_type_id":"4","last_reported":1743250596,"current_range_meters":8400,"station_id":"ce4bhu92rcd13ifvqi70","pricing_plan_id":"cebpf4jnsgd1na2vs0mg"},{"bike_id":"3c2d931d-ed9b-4675-bfb4-8e9dec9a2bf0","system_id":"levelo_inurba_marseille","lat":43.24841,"lon":5.37424,"is_reserved":false,"is_disabled":false,"rental_uris":{"android":"levelo://app?vid=3c2d931d-ed9b-4675-bfb4-8e9dec9a2bf0","ios":"levelo://app?vid=3c2d931d-ed9b-4675-bfb4-8e9dec9a2bf0"},"vehicle_type_id":"4","last_reported":1743250596,"current_range_meters":8400,"station_id":"ce4bhgh2rcd13ifvqfb0","pricing_plan_id":"cebpf4jnsgd1na2vs0mg"},{"bike_id":"de7934c3-c694-4b9e-8edb-b6e9cce0c411","system_id":"levelo_inurba_marseille","lat":43.29848,"lon":5.36277,"is_reserved":false,"is_disabled":false,"rental_uris":{"android":"levelo://app?vid=de7934c3-c694-4b9e-8edb-b6e9cce0c411","ios":"levelo://app?vid=de7934c3-c694-4b9e-8edb-b6e9cce0c411"},"vehicle_type_id":"4","last_reported":1743250596,"current_range_meters":8400,"station_id":"ce4bgpp2rcd13ifvqc3g","pricing_plan_id":"cebpf4jnsgd1na2vs0mg"},{"bike_id":"bb238aab-ecce-4d51-ba90-677f93725c94","system_id":"levelo_inurba_marseille","lat":43.34147,"lon":5.40913,"is_reserved":false,"is_disabled":false,"rental_uris":{"android":"levelo://app?vid=bb238aab-ecce-4d51-ba90-677f93725c94","ios":"levelo://app?vid=bb238aab-ecce-4d51-ba90-677f93725c94"},"vehicle_type_id":"4","last_reported":1743250596,"current_range_meters":8400,"station_id":"ce4bhqh2rcd13ifvqhlg","pricing_plan_id":"cebpf4jnsgd1na2vs0mg"},{"bike_id":"d5ffff0a-47db-470d-a1ce-99a37bfcd090","system_id":"levelo_inurba_marseille","lat":43.28633,"lon":5.35087,"is_reserved":false,"is_disabled":false,"rental_uris":{"android":"levelo://app?vid=d5ffff0a-47db-470d-a1ce-99a37bfcd090","ios":"levelo://app?vid=d5ffff0a-47db-470d-a1ce-99a37bfcd090"},"vehicle_type_id":"4","last_reported":1743250596,"current_range_meters":8400,"station_id":"ce4bhch2rcd13ifvqeug","pricing_plan_id":"cebpf4jnsgd1na2vs0mg"},{"bike_id":"8a981a57-5df0-4e4d-940a-b867c9a469d8","system_id":"levelo_inurba_marseille","lat":43.26575,"lon":5.3901,"is_reserved":false,"is_disabled":false,"rental_uris":{"android":"levelo://app?vid=8a981a57-5df0-4e4d-940a-b867c9a469d8","ios":"levelo://app?vid=8a981a57-5df0-4e4d-940a-b867c9a469d8"},"vehicle_type_id":"4","last_reported":1743250596,"current_range_meters":8400,"station_id":"ce4bhe12rcd13ifvqf30","pricing_plan_id":"cebpf4jnsgd1na2vs0mg"},{"bike_id":"b5e58117-c13d-4045-9f2c-7d5a03ac7be0","system_id":"levelo_inurba_marseille","lat":43.29851,"lon":5.36287,"is_reserved":false,"is_disabled":false,"rental_uris":{"android":"levelo://app?vid=b5e58117-c13d-4045-9f2c-7d5a03ac7be0","ios":"levelo://app?vid=b5e58117-c13d-4045-9f2c-7d5a03ac7be0"},"vehicle_type_id":"4","last_reported":1743250596,"current_range_meters":8400,"station_id":"ce4bgpp2rcd13ifvqc3g","pricing_plan_id":"cebpf4jnsgd1na2vs0mg"},{"bike_id":"7cb45fac-62b5-4ead-be9c-e53660ce9dfb","system_id":"levelo_inurba_marseille","lat":43.28717,"lon":5.39993,"is_reserved":false,"is_disabled":false,"rental_uris":{"android":"levelo://app?vid=7cb45fac-62b5-4ead-be9c-e53660ce9dfb","ios":"levelo://app?vid=7cb45fac-62b5-4ead-be9c-e53660ce9dfb"},"vehicle_type_id":"4","last_reported":1743250596,"current_range_meters":8800,"station_id":"ce4bho92rcd13ifvqh3g","pricing_plan_id":"cebpf4jnsgd1na2vs0mg"},{"bike_id":"983c4c9f-ee1a-4d13-8ce7-bfd36c479f46","system_id":"levelo_inurba_marseille","lat":43.24173,"lon":5.36379,"is_reserved":false,"is_disabled":false,"rental_uris":{"android":"levelo://app?vid=983c4c9f-ee1a-4d13-8ce7-bfd36c479f46","ios":"levelo://app?vid=983c4c9f-ee1a-4d13-8ce7-bfd36c479f46"},"vehicle_type_id":"4","last_reported":1743250596,"current_range_meters":8800,"station_id":"cpo36qri1sfpv3e86is0","pricing_plan_id":"cebpf4jnsgd1na2vs0mg"},{"bike_id":"793b71c8-8f70-4406-b2e3-dcff5def2884","system_id":"levelo_inurba_marseille","lat":43.32366,"lon":5.38882,"is_reserved":false,"is_disabled":false,"rental_uris":{"android":"levelo://app?vid=793b71c8-8f70-4406-b2e3-dcff5def2884","ios":"levelo://app?vid=793b71c8-8f70-4406-b2e3-dcff5def2884"},"vehicle_type_id":"4","last_reported":1743250596,"current_range_meters":8800,"station_id":"ce4bhqp2rcd13ifvqhog","pricing_plan_id":"cebpf4jnsgd1na2vs0mg"},{"bike_id":"d110ea9c-afe8-47f1-b008-e66bc6e44a55","system_id":"levelo_inurba_marseille","lat":43.28421,"lon":5.34996,"is_reserved":false,"is_disabled":false,"rental_uris":{"android":"levelo://app?vid=d110ea9c-afe8-47f1-b008-e66bc6e44a55","ios":"levelo://app?vid=d110ea9c-afe8-47f1-b008-e66bc6e44a55"},"vehicle_type_id":"4","last_reported":1743250596,"current_range_meters":8800,"station_id":"ce4bhbh2rcd13ifvqepg","pricing_plan_id":"cebpf4jnsgd1na2vs0mg"},{"bike_id":"c5032665-d52e-42f9-bd4d-92be124cdcfc","system_id":"levelo_inurba_marseille","lat":43.26679,"lon":5.38264,"is_reserved":false,"is_disabled":false,"rental_uris":{"android":"levelo://app?vid=c5032665-d52e-42f9-bd4d-92be124cdcfc","ios":"levelo://app?vid=c5032665-d52e-42f9-bd4d-92be124cdcfc"},"vehicle_type_id":"4","last_reported":1743250596,"current_range_meters":8400,"station_id":"ce4bhg92rcd13ifvqf90","pricing_plan_id":"cebpf4jnsgd1na2vs0mg"},{"bike_id":"676aa410-285a-48fa-832f-41d35fee7288","system_id":"levelo_inurba_marseille","lat":43.28618,"lon":5.37065,"is_reserved":false,"is_disabled":false,"rental_uris":{"android":"levelo://app?vid=676aa410-285a-48fa-832f-41d35fee7288","ios":"levelo://app?vid=676aa410-285a-48fa-832f-41d35fee7288"},"vehicle_type_id":"4","last_reported":1743250596,"current_range_meters":8800,"station_id":"ce4bht12rcd13ifvqi60","pricing_plan_id":"cebpf4jnsgd1na2vs0mg"},{"bike_id":"3a2e35ff-67f7-42a4-b09b-1fe3ef6e95d8","system_id":"levelo_inurba_marseille","lat":43.22931,"lon":5.35401,"is_reserved":false,"is_disabled":false,"rental_uris":{"android":"levelo://app?vid=3a2e35ff-67f7-42a4-b09b-1fe3ef6e95d8","ios":"levelo://app?vid=3a2e35ff-67f7-42a4-b09b-1fe3ef6e95d8"},"vehicle_type_id":"4","last_reported":1743250596,"current_range_meters":8800,"station_id":"cpo3532slgdg3j2ikp40","pricing_plan_id":"cebpf4jnsgd1na2vs0mg"},{"bike_id":"201331f6-89d2-473a-a738-b22172ea4f15","system_id":"levelo_inurba_marseille","lat":43.31283,"lon":5.4019,"is_reserved":false,"is_disabled":false,"rental_uris":{"android":"levelo://app?vid=201331f6-89d2-473a-a738-b22172ea4f15","ios":"levelo://app?vid=201331f6-89d2-473a-a738-b22172ea4f15"},"vehicle_type_id":"4","last_reported":1743250596,"current_range_meters":8800,"station_id":"ce4bh092rcd13ifvqd30","pricing_plan_id":"cebpf4jnsgd1na2vs0mg"},{"bike_id":"b5ace6c6-32e3-486d-9744-efb1ce0dfa9d","system_id":"levelo_inurba_marseille","lat":43.28607,"lon":5.37068,"is_reserved":false,"is_disabled":false,"rental_uris":{"android":"levelo://app?vid=b5ace6c6-32e3-486d-9744-efb1ce0dfa9d","ios":"levelo://app?vid=b5ace6c6-32e3-486d-9744-efb1ce0dfa9d"},"vehicle_type_id":"4","last_reported":1743250596,"current_range_meters":8800,"station_id":"ce4bht12rcd13ifvqi60","pricing_plan_id":"cebpf4jnsgd1na2vs0mg"},{"bike_id":"787c5a7b-7ea5-4559-9257-3bbdf77951a7","system_id":"levelo_inurba_marseille","lat":43.31089,"lon":5.3835,"is_reserved":false,"is_disabled":true,"rental_uris":{"android":"levelo://app?vid=787c5a7b-7ea5-4559-9257-3bbdf77951a7","ios":"levelo://app?vid=787c5a7b-7ea5-4559-9257-3bbdf77951a7"},"vehicle_type_id":"4","last_reported":1743250596,"current_range_meters":8800,"station_id":"ce4bgv92rcd13ifvqcr0","pricing_plan_id":"cebpf4jnsgd1na2vs0mg"},{"bike_id":"00e16e59-996a-4f83-9a3f-319e6001c154","system_id":"levelo_inurba_marseille","lat":43.28697,"lon":5.3739,"is_reserved":false,"is_disabled":false,"rental_uris":{"android":"levelo://app?vid=00e16e59-996a-4f83-9a3f-319e6001c154","ios":"levelo://app?vid=00e16e59-996a-4f83-9a3f-319e6001c154"},"vehicle_type_id":"4","last_reported":1743250596,"current_range_meters":8800,"station_id":"ce4bh3p2rcd13ifvqdq0","pricing_plan_id":"cebpf4jnsgd1na2vs0mg"},{"bike_id":"e4614adf-59ca-49c9-9f29-fb2629aacd37","system_id":"levelo_inurba_marseille","lat":43.28603,"lon":5.35168,"is_reserved":false,"is_disabled":true,"rental_uris":{"android":"levelo://app?vid=e4614adf-59ca-49c9-9f29-fb2629aacd37","ios":"levelo://app?vid=e4614adf-59ca-49c9-9f29-fb2629aacd37"},"vehicle_type_id":"4","last_reported":1743250596,"current_range_meters":8800,"station_id":"","pricing_plan_id":"cebpf4jnsgd1na2vs0mg"},{"bike_id":"1a8ec8fe-cd0f-44f4-9a76-dfc354a60ccc","system_id":"levelo_inurba_marseille","lat":43.23971,"lon":5.36626,"is_reserved":false,"is_disabled":false,"rental_uris":{"android":"levelo://app?vid=1a8ec8fe-cd0f-44f4-9a76-dfc354a60ccc","ios":"levelo://app?vid=1a8ec8fe-cd0f-44f4-9a76-dfc354a60ccc"},"vehicle_type_id":"4","last_reported":1743250596,"current_range_meters":9200,"station_id":"ce4bhi12rcd13ifvqfp0","pricing_plan_id":"cebpf4jnsgd1na2vs0mg"},{"bike_id":"d14cdd1e-f0b3-48a5-be5e-77128af69a2d","system_id":"levelo_inurba_marseille","lat":43.28616,"lon":5.3514,"is_reserved":false,"is_disabled":false,"rental_uris":{"android":"levelo://app?vid=d14cdd1e-f0b3-48a5-be5e-77128af69a2d","ios":"levelo://app?vid=d14cdd1e-f0b3-48a5-be5e-77128af69a2d"},"vehicle_type_id":"4","last_reported":1743250596,"current_range_meters":9200,"station_id":"ce4bhch2rcd13ifvqeug","pricing_plan_id":"cebpf4jnsgd1na2vs0mg"},{"bike_id":"86402da5-f9ef-43b6-a281-06ce7c4c3160","system_id":"levelo_inurba_marseille","lat":43.28621,"lon":5.35105,"is_reserved":false,"is_disabled":false,"rental_uris":{"android":"levelo://app?vid=86402da5-f9ef-43b6-a281-06ce7c4c3160","ios":"levelo://app?vid=86402da5-f9ef-43b6-a281-06ce7c4c3160"},"vehicle_type_id":"4","last_reported":1743250596,"current_range_meters":9600,"station_id":"ce4bhch2rcd13ifvqeug","pricing_plan_id":"cebpf4jnsgd1na2vs0mg"},{"bike_id":"9bd349ae-e847-4d86-a3a7-4656a1832a5d","system_id":"levelo_inurba_marseille","lat":43.29274,"lon":5.37618,"is_reserved":false,"is_disabled":false,"rental_uris":{"android":"levelo://app?vid=9bd349ae-e847-4d86-a3a7-4656a1832a5d","ios":"levelo://app?vid=9bd349ae-e847-4d86-a3a7-4656a1832a5d"},"vehicle_type_id":"4","last_reported":1743250596,"current_range_meters":9600,"station_id":"ce4bgi12rcd13ifvqb80","pricing_plan_id":"cebpf4jnsgd1na2vs0mg"},{"bike_id":"96fa1290-e699-40b9-9109-379d3b77c6fb","system_id":"levelo_inurba_marseille","lat":43.33739,"lon":5.39193,"is_reserved":false,"is_disabled":false,"rental_uris":{"android":"levelo://app?vid=96fa1290-e699-40b9-9109-379d3b77c6fb","ios":"levelo://app?vid=96fa1290-e699-40b9-9109-379d3b77c6fb"},"vehicle_type_id":"4","last_reported":1743250596,"current_range_meters":9600,"station_id":"ce4bhr92rcd13ifvqhsg","pricing_plan_id":"cebpf4jnsgd1na2vs0mg"},{"bike_id":"b1ecd358-38ec-4753-8af1-9b87454b444a","system_id":"levelo_inurba_marseille","lat":43.28665,"lon":5.35055,"is_reserved":false,"is_disabled":false,"rental_uris":{"android":"levelo://app?vid=b1ecd358-38ec-4753-8af1-9b87454b444a","ios":"levelo://app?vid=b1ecd358-38ec-4753-8af1-9b87454b444a"},"vehicle_type_id":"4","last_reported":1743250596,"current_range_meters":9600,"station_id":"","pricing_plan_id":"cebpf4jnsgd1na2vs0mg"},{"bike_id":"980b1b8d-c114-4f00-88f8-a0ddccb8fb71","system_id":"levelo_inurba_marseille","lat":43.28625,"lon":5.35105,"is_reserved":false,"is_disabled":false,"rental_uris":{"android":"levelo://app?vid=980b1b8d-c114-4f00-88f8-a0ddccb8fb71","ios":"levelo://app?vid=980b1b8d-c114-4f00-88f8-a0ddccb8fb71"},"vehicle_type_id":"4","last_reported":1743250596,"current_range_meters":9600,"station_id":"ce4bhch2rcd13ifvqeug","pricing_plan_id":"cebpf4jnsgd1na2vs0mg"},{"bike_id":"351cd52a-4b1a-4807-aaf9-193f86636669","system_id":"levelo_inurba_marseille","lat":43.24804,"lon":5.37454,"is_reserved":false,"is_disabled":false,"rental_uris":{"android":"levelo://app?vid=351cd52a-4b1a-4807-aaf9-193f86636669","ios":"levelo://app?vid=351cd52a-4b1a-4807-aaf9-193f86636669"},"vehicle_type_id":"4","last_reported":1743250596,"current_range_meters":9600,"station_id":"ce4bhgh2rcd13ifvqfb0","pricing_plan_id":"cebpf4jnsgd1na2vs0mg"},{"bike_id":"4d375b6e-8b58-4236-8a66-ee2e2d5877ab","system_id":"levelo_inurba_marseille","lat":43.23969,"lon":5.36631,"is_reserved":false,"is_disabled":false,"rental_uris":{"android":"levelo://app?vid=4d375b6e-8b58-4236-8a66-ee2e2d5877ab","ios":"levelo://app?vid=4d375b6e-8b58-4236-8a66-ee2e2d5877ab"},"vehicle_type_id":"4","last_reported":1743250596,"current_range_meters":9600,"station_id":"ce4bhi12rcd13ifvqfp0","pricing_plan_id":"cebpf4jnsgd1na2vs0mg"},{"bike_id":"47495999-8610-4828-bbd2-10ef05b9f4f7","system_id":"levelo_inurba_marseille","lat":43.30547,"lon":5.36525,"is_reserved":false,"is_disabled":false,"rental_uris":{"android":"levelo://app?vid=47495999-8610-4828-bbd2-10ef05b9f4f7","ios":"levelo://app?vid=47495999-8610-4828-bbd2-10ef05b9f4f7"},"vehicle_type_id":"4","last_reported":1743250596,"current_range_meters":9600,"station_id":"ce4bgs12rcd13ifvqcag","pricing_plan_id":"cebpf4jnsgd1na2vs0mg"},{"bike_id":"90bcf5ff-e7b3-4579-a5d1-43afbcfd8d49","system_id":"levelo_inurba_marseille","lat":43.276754,"lon":5.388707,"is_reserved":false,"is_disabled":false,"rental_uris":{"android":"levelo://app?vid=90bcf5ff-e7b3-4579-a5d1-43afbcfd8d49","ios":"levelo://app?vid=90bcf5ff-e7b3-4579-a5d1-43afbcfd8d49"},"vehicle_type_id":"4","last_reported":1743250596,"current_range_meters":10000,"station_id":"ce4bhhp2rcd13ifvqfm0","pricing_plan_id":"cebpf4jnsgd1na2vs0mg"},{"bike_id":"cd5e451a-73bb-4063-9335-c4415e7fbfd0","system_id":"levelo_inurba_marseille","lat":43.29618,"lon":5.37708,"is_reserved":false,"is_disabled":false,"rental_uris":{"android":"levelo://app?vid=cd5e451a-73bb-4063-9335-c4415e7fbfd0","ios":"levelo://app?vid=cd5e451a-73bb-4063-9335-c4415e7fbfd0"},"vehicle_type_id":"4","last_reported":1743250596,"current_range_meters":10000,"station_id":"ce4bgi92rcd13ifvqb90","pricing_plan_id":"cebpf4jnsgd1na2vs0mg"},{"bike_id":"eaddfac1-0bf4-4f61-8016-0c16cda63728","system_id":"levelo_inurba_marseille","lat":43.29226,"lon":5.36051,"is_reserved":false,"is_disabled":false,"rental_uris":{"android":"levelo://app?vid=eaddfac1-0bf4-4f61-8016-0c16cda63728","ios":"levelo://app?vid=eaddfac1-0bf4-4f61-8016-0c16cda63728"},"vehicle_type_id":"4","last_reported":1743250596,"current_range_meters":10000,"station_id":"ce4bhbh2rcd13ifvqeqg","pricing_plan_id":"cebpf4jnsgd1na2vs0mg"},{"bike_id":"a2dd611d-97f8-4a80-9052-0416216c6368","system_id":"levelo_inurba_marseille","lat":43.29216,"lon":5.36047,"is_reserved":false,"is_disabled":true,"rental_uris":{"android":"levelo://app?vid=a2dd611d-97f8-4a80-9052-0416216c6368","ios":"levelo://app?vid=a2dd611d-97f8-4a80-9052-0416216c6368"},"vehicle_type_id":"4","last_reported":1743250596,"current_range_meters":10000,"station_id":"ce4bhbh2rcd13ifvqeqg","pricing_plan_id":"cebpf4jnsgd1na2vs0mg"},{"bike_id":"4b2323ae-94b8-41f7-9062-4d9bd4bd549e","system_id":"levelo_inurba_marseille","lat":43.24175,"lon":5.36397,"is_reserved":false,"is_disabled":false,"rental_uris":{"android":"levelo://app?vid=4b2323ae-94b8-41f7-9062-4d9bd4bd549e","ios":"levelo://app?vid=4b2323ae-94b8-41f7-9062-4d9bd4bd549e"},"vehicle_type_id":"4","last_reported":1743250596,"current_range_meters":10000,"station_id":"cpo36qri1sfpv3e86is0","pricing_plan_id":"cebpf4jnsgd1na2vs0mg"},{"bike_id":"4586e23a-2d77-446c-8e8c-a15b6ae5de02","system_id":"levelo_inurba_marseille","lat":43.28587,"lon":5.38146,"is_reserved":false,"is_disabled":false,"rental_uris":{"android":"levelo://app?vid=4586e23a-2d77-446c-8e8c-a15b6ae5de02","ios":"levelo://app?vid=4586e23a-2d77-446c-8e8c-a15b6ae5de02"},"vehicle_type_id":"4","last_reported":1743250596,"current_range_meters":10000,"station_id":"","pricing_plan_id":"cebpf4jnsgd1na2vs0mg"},{"bike_id":"3554961e-fd7d-4e4a-b39f-d13b2cd74872","system_id":"levelo_inurba_marseille","lat":43.29595,"lon":5.38095,"is_reserved":false,"is_disabled":false,"rental_uris":{"android":"levelo://app?vid=3554961e-fd7d-4e4a-b39f-d13b2cd74872","ios":"levelo://app?vid=3554961e-fd7d-4e4a-b39f-d13b2cd74872"},"vehicle_type_id":"4","last_reported":1743250596,"current_range_meters":10000,"station_id":"ce4bgl12rcd13ifvqbo0","pricing_plan_id":"cebpf4jnsgd1na2vs0mg"},{"bike_id":"bae85c45-be42-410c-9c58-907d521d8ca3","system_id":"levelo_inurba_marseille","lat":43.289357,"lon":5.366293,"is_reserved":false,"is_disabled":false,"rental_uris":{"android":"levelo://app?vid=bae85c45-be42-410c-9c58-907d521d8ca3","ios":"levelo://app?vid=bae85c45-be42-410c-9c58-907d521d8ca3"},"vehicle_type_id":"4","last_reported":1743250596,"current_range_meters":10800,"station_id":"ce4bhap2rcd13ifvqek0","pricing_plan_id":"cebpf4jnsgd1na2vs0mg"},{"bike_id":"23538f9a-e28c-47c8-affe-f27b88dd9d66","system_id":"levelo_inurba_marseille","lat":43.30623,"lon":5.37204,"is_reserved":false,"is_disabled":false,"rental_uris":{"android":"levelo://app?vid=23538f9a-e28c-47c8-affe-f27b88dd9d66","ios":"levelo://app?vid=23538f9a-e28c-47c8-affe-f27b88dd9d66"},"vehicle_type_id":"4","last_reported":1743250596,"current_range_meters":10800,"station_id":"ce4bgqh2rcd13ifvqc4g","pricing_plan_id":"cebpf4jnsgd1na2vs0mg"},{"bike_id":"24565657-e482-4932-93db-e35fe49c2025","system_id":"levelo_inurba_marseille","lat":43.272138,"lon":5.391804,"is_reserved":false,"is_disabled":false,"rental_uris":{"android":"levelo://app?vid=24565657-e482-4932-93db-e35fe49c2025","ios":"levelo://app?vid=24565657-e482-4932-93db-e35fe49c2025"},"vehicle_type_id":"4","last_reported":1743250596,"current_range_meters":10800,"station_id":"ce4bhg92rcd13ifvqf90","pricing_plan_id":"cebpf4jnsgd1na2vs0mg"},{"bike_id":"42734d74-78e3-4255-9e64-fa4ef712b287","system_id":"levelo_inurba_marseille","lat":43.29586,"lon":5.37546,"is_reserved":false,"is_disabled":false,"rental_uris":{"android":"levelo://app?vid=42734d74-78e3-4255-9e64-fa4ef712b287","ios":"levelo://app?vid=42734d74-78e3-4255-9e64-fa4ef712b287"},"vehicle_type_id":"4","last_reported":1743250596,"current_range_meters":10800,"station_id":"ce4bgh92rcd13ifvqb50","pricing_plan_id":"cebpf4jnsgd1na2vs0mg"},{"bike_id":"12901520-4ca0-4bec-90a1-c5dc7842ac08","system_id":"levelo_inurba_marseille","lat":43.26192,"lon":5.37939,"is_reserved":false,"is_disabled":false,"rental_uris":{"android":"levelo://app?vid=12901520-4ca0-4bec-90a1-c5dc7842ac08","ios":"levelo://app?vid=12901520-4ca0-4bec-90a1-c5dc7842ac08"},"vehicle_type_id":"4","last_reported":1743250596,"current_range_meters":10800,"station_id":"ce4bhjp2rcd13ifvqg90","pricing_plan_id":"cebpf4jnsgd1na2vs0mg"},{"bike_id":"42d60ca6-c263-45b6-bfed-104c1701e848","system_id":"levelo_inurba_marseille","lat":43.301143,"lon":5.391618,"is_reserved":false,"is_disabled":false,"rental_uris":{"android":"levelo://app?vid=42d60ca6-c263-45b6-bfed-104c1701e848","ios":"levelo://app?vid=42d60ca6-c263-45b6-bfed-104c1701e848"},"vehicle_type_id":"4","last_reported":1743250596,"current_range_meters":10800,"station_id":"ce4bh0p2rcd13ifvqd70","pricing_plan_id":"cebpf4jnsgd1na2vs0mg"},{"bike_id":"43c58a99-f720-4818-8d9a-b465698d3dc8","system_id":"levelo_inurba_marseille","lat":43.27883,"lon":5.37999,"is_reserved":false,"is_disabled":false,"rental_uris":{"android":"levelo://app?vid=43c58a99-f720-4818-8d9a-b465698d3dc8","ios":"levelo://app?vid=43c58a99-f720-4818-8d9a-b465698d3dc8"},"vehicle_type_id":"4","last_reported":1743250596,"current_range_meters":10800,"station_id":"ce4bhf92rcd13ifvqf50","pricing_plan_id":"cebpf4jnsgd1na2vs0mg"},{"bike_id":"6938d0ce-f954-4fff-b95b-2d698d38a5d7","system_id":"levelo_inurba_marseille","lat":43.2794,"lon":5.41035,"is_reserved":false,"is_disabled":false,"rental_uris":{"android":"levelo://app?vid=6938d0ce-f954-4fff-b95b-2d698d38a5d7","ios":"levelo://app?vid=6938d0ce-f954-4fff-b95b-2d698d38a5d7"},"vehicle_type_id":"4","last_reported":1743250596,"current_range_meters":10800,"station_id":"ce4bhnp2rcd13ifvqh0g","pricing_plan_id":"cebpf4jnsgd1na2vs0mg"},{"bike_id":"18a7459a-9de6-4413-bb5e-bd445e06b1f8","system_id":"levelo_inurba_marseille","lat":43.29185,"lon":5.35805,"is_reserved":false,"is_disabled":false,"rental_uris":{"android":"levelo://app?vid=18a7459a-9de6-4413-bb5e-bd445e06b1f8","ios":"levelo://app?vid=18a7459a-9de6-4413-bb5e-bd445e06b1f8"},"vehicle_type_id":"4","last_reported":1743250596,"current_range_meters":10800,"station_id":"ce4bhb12rcd13ifvqel0","pricing_plan_id":"cebpf4jnsgd1na2vs0mg"},{"bike_id":"57690d29-f10a-46c0-9fff-964c246e1e63","system_id":"levelo_inurba_marseille","lat":43.279991,"lon":5.400145,"is_reserved":false,"is_disabled":false,"rental_uris":{"android":"levelo://app?vid=57690d29-f10a-46c0-9fff-964c246e1e63","ios":"levelo://app?vid=57690d29-f10a-46c0-9fff-964c246e1e63"},"vehicle_type_id":"4","last_reported":1743250596,"current_range_meters":11200,"station_id":"ce4bho92rcd13ifvqh4g","pricing_plan_id":"cebpf4jnsgd1na2vs0mg"},{"bike_id":"8d6f8de5-aaab-4be9-b14e-007f3d70fa04","system_id":"levelo_inurba_marseille","lat":43.29019,"lon":5.38634,"is_reserved":false,"is_disabled":false,"rental_uris":{"android":"levelo://app?vid=8d6f8de5-aaab-4be9-b14e-007f3d70fa04","ios":"levelo://app?vid=8d6f8de5-aaab-4be9-b14e-007f3d70fa04"},"vehicle_type_id":"4","last_reported":1743250596,"current_range_meters":11200,"station_id":"ce4bh4p2rcd13ifvqe0g","pricing_plan_id":"cebpf4jnsgd1na2vs0mg"},{"bike_id":"f75123cc-7eb7-485b-b885-769af02da9d3","system_id":"levelo_inurba_marseille","lat":43.29209,"lon":5.39325,"is_reserved":false,"is_disabled":false,"rental_uris":{"android":"levelo://app?vid=f75123cc-7eb7-485b-b885-769af02da9d3","ios":"levelo://app?vid=f75123cc-7eb7-485b-b885-769af02da9d3"},"vehicle_type_id":"4","last_reported":1743250596,"current_range_meters":11600,"station_id":"ce4bh192rcd13ifvqdd0","pricing_plan_id":"cebpf4jnsgd1na2vs0mg"},{"bike_id":"7f9e733c-fa89-49ab-8010-8acb21ac5585","system_id":"levelo_inurba_marseille","lat":43.23159,"lon":5.43755,"is_reserved":false,"is_disabled":false,"rental_uris":{"android":"levelo://app?vid=7f9e733c-fa89-49ab-8010-8acb21ac5585","ios":"levelo://app?vid=7f9e733c-fa89-49ab-8010-8acb21ac5585"},"vehicle_type_id":"4","last_reported":1743250596,"current_range_meters":11600,"station_id":"ce4bhmp2rcd13ifvqgog","pricing_plan_id":"cebpf4jnsgd1na2vs0mg"},{"bike_id":"96ac20e8-5840-4579-b371-184ec6253952","system_id":"levelo_inurba_marseille","lat":43.274997,"lon":5.411354,"is_reserved":false,"is_disabled":false,"rental_uris":{"android":"levelo://app?vid=96ac20e8-5840-4579-b371-184ec6253952","ios":"levelo://app?vid=96ac20e8-5840-4579-b371-184ec6253952"},"vehicle_type_id":"4","last_reported":1743250596,"current_range_meters":11600,"station_id":"","pricing_plan_id":"cebpf4jnsgd1na2vs0mg"},{"bike_id":"ead84735-1991-4501-b506-2229ced7058a","system_id":"levelo_inurba_marseille","lat":43.23068,"lon":5.35488,"is_reserved":false,"is_disabled":false,"rental_uris":{"android":"levelo://app?vid=ead84735-1991-4501-b506-2229ced7058a","ios":"levelo://app?vid=ead84735-1991-4501-b506-2229ced7058a"},"vehicle_type_id":"4","last_reported":1743250596,"current_range_meters":11600,"station_id":"cpo3342slgdg3j2ifvpg","pricing_plan_id":"cebpf4jnsgd1na2vs0mg"},{"bike_id":"89b372e0-e34b-4448-a651-9f0d9816c98e","system_id":"levelo_inurba_marseille","lat":43.24179,"lon":5.36382,"is_reserved":false,"is_disabled":false,"rental_uris":{"android":"levelo://app?vid=89b372e0-e34b-4448-a651-9f0d9816c98e","ios":"levelo://app?vid=89b372e0-e34b-4448-a651-9f0d9816c98e"},"vehicle_type_id":"4","last_reported":1743250596,"current_range_meters":11600,"station_id":"cpo36qri1sfpv3e86is0","pricing_plan_id":"cebpf4jnsgd1na2vs0mg"},{"bike_id":"2f1a1e9b-c068-4630-b587-be7f8b5c29de","system_id":"levelo_inurba_marseille","lat":43.32364,"lon":5.38889,"is_reserved":false,"is_disabled":false,"rental_uris":{"android":"levelo://app?vid=2f1a1e9b-c068-4630-b587-be7f8b5c29de","ios":"levelo://app?vid=2f1a1e9b-c068-4630-b587-be7f8b5c29de"},"vehicle_type_id":"4","last_reported":1743250596,"current_range_meters":11600,"station_id":"ce4bhqp2rcd13ifvqhog","pricing_plan_id":"cebpf4jnsgd1na2vs0mg"},{"bike_id":"060296df-2ff1-4f63-8421-471d49c205a3","system_id":"levelo_inurba_marseille","lat":43.30211,"lon":5.36593,"is_reserved":false,"is_disabled":false,"rental_uris":{"android":"levelo://app?vid=060296df-2ff1-4f63-8421-471d49c205a3","ios":"levelo://app?vid=060296df-2ff1-4f63-8421-471d49c205a3"},"vehicle_type_id":"4","last_reported":1743250596,"current_range_meters":11600,"station_id":"ce4bgrh2rcd13ifvqc8g","pricing_plan_id":"cebpf4jnsgd1na2vs0mg"},{"bike_id":"8964994f-01e2-49e5-90d2-1dd7115283f3","system_id":"levelo_inurba_marseille","lat":43.23069,"lon":5.35504,"is_reserved":false,"is_disabled":false,"rental_uris":{"android":"levelo://app?vid=8964994f-01e2-49e5-90d2-1dd7115283f3","ios":"levelo://app?vid=8964994f-01e2-49e5-90d2-1dd7115283f3"},"vehicle_type_id":"4","last_reported":1743250596,"current_range_meters":12000,"station_id":"cpo3342slgdg3j2ifvpg","pricing_plan_id":"cebpf4jnsgd1na2vs0mg"},{"bike_id":"c8918ffe-f1f5-474a-8196-7707a21d00ba","system_id":"levelo_inurba_marseille","lat":43.29849,"lon":5.36284,"is_reserved":false,"is_disabled":false,"rental_uris":{"android":"levelo://app?vid=c8918ffe-f1f5-474a-8196-7707a21d00ba","ios":"levelo://app?vid=c8918ffe-f1f5-474a-8196-7707a21d00ba"},"vehicle_type_id":"4","last_reported":1743250596,"current_range_meters":12000,"station_id":"ce4bgpp2rcd13ifvqc3g","pricing_plan_id":"cebpf4jnsgd1na2vs0mg"},{"bike_id":"699cb6a9-80bb-4d7b-8f84-b25847471872","system_id":"levelo_inurba_marseille","lat":43.289353,"lon":5.364053,"is_reserved":false,"is_disabled":false,"rental_uris":{"android":"levelo://app?vid=699cb6a9-80bb-4d7b-8f84-b25847471872","ios":"levelo://app?vid=699cb6a9-80bb-4d7b-8f84-b25847471872"},"vehicle_type_id":"4","last_reported":1743250596,"current_range_meters":12000,"station_id":"ce4bhc92rcd13ifvqetg","pricing_plan_id":"cebpf4jnsgd1na2vs0mg"},{"bike_id":"9d0ecc9a-c885-4332-a8cd-aeb86741c5ec","system_id":"levelo_inurba_marseille","lat":43.24802,"lon":5.37452,"is_reserved":false,"is_disabled":false,"rental_uris":{"android":"levelo://app?vid=9d0ecc9a-c885-4332-a8cd-aeb86741c5ec","ios":"levelo://app?vid=9d0ecc9a-c885-4332-a8cd-aeb86741c5ec"},"vehicle_type_id":"4","last_reported":1743250596,"current_range_meters":12000,"station_id":"ce4bhgh2rcd13ifvqfb0","pricing_plan_id":"cebpf4jnsgd1na2vs0mg"},{"bike_id":"aa8607bb-b5d2-4f91-a082-c4272120a7ed","system_id":"levelo_inurba_marseille","lat":43.28932,"lon":5.36428,"is_reserved":false,"is_disabled":true,"rental_uris":{"android":"levelo://app?vid=aa8607bb-b5d2-4f91-a082-c4272120a7ed","ios":"levelo://app?vid=aa8607bb-b5d2-4f91-a082-c4272120a7ed"},"vehicle_type_id":"4","last_reported":1743250596,"current_range_meters":12000,"station_id":"ce4bhc92rcd13ifvqetg","pricing_plan_id":"cebpf4jnsgd1na2vs0mg"},{"bike_id":"acf1e1c3-a629-4c7b-a838-cba3f3b54603","system_id":"levelo_inurba_marseille","lat":43.31871,"lon":5.37613,"is_reserved":false,"is_disabled":false,"rental_uris":{"android":"levelo://app?vid=acf1e1c3-a629-4c7b-a838-cba3f3b54603","ios":"levelo://app?vid=acf1e1c3-a629-4c7b-a838-cba3f3b54603"},"vehicle_type_id":"4","last_reported":1743250596,"current_range_meters":12000,"station_id":"","pricing_plan_id":"cebpf4jnsgd1na2vs0mg"},{"bike_id":"0bb143ae-b0d4-4228-91b1-774f6249bced","system_id":"levelo_inurba_marseille","lat":43.29226,"lon":5.36065,"is_reserved":false,"is_disabled":false,"rental_uris":{"android":"levelo://app?vid=0bb143ae-b0d4-4228-91b1-774f6249bced","ios":"levelo://app?vid=0bb143ae-b0d4-4228-91b1-774f6249bced"},"vehicle_type_id":"4","last_reported":1743250596,"current_range_meters":12400,"station_id":"ce4bhbh2rcd13ifvqeqg","pricing_plan_id":"cebpf4jnsgd1na2vs0mg"},{"bike_id":"54a3aeaa-1076-4784-836a-67a2e3c978c1","system_id":"levelo_inurba_marseille","lat":43.29028,"lon":5.38138,"is_reserved":false,"is_disabled":false,"rental_uris":{"android":"levelo://app?vid=54a3aeaa-1076-4784-836a-67a2e3c978c1","ios":"levelo://app?vid=54a3aeaa-1076-4784-836a-67a2e3c978c1"},"vehicle_type_id":"4","last_reported":1743250596,"current_range_meters":12400,"station_id":"ce4bh4p2rcd13ifvqe1g","pricing_plan_id":"cebpf4jnsgd1na2vs0mg"},{"bike_id":"950b1160-9e2a-44c0-828c-05309f8d3f86","system_id":"levelo_inurba_marseille","lat":43.23066,"lon":5.35492,"is_reserved":false,"is_disabled":false,"rental_uris":{"android":"levelo://app?vid=950b1160-9e2a-44c0-828c-05309f8d3f86","ios":"levelo://app?vid=950b1160-9e2a-44c0-828c-05309f8d3f86"},"vehicle_type_id":"4","last_reported":1743250596,"current_range_meters":12400,"station_id":"cpo3342slgdg3j2ifvpg","pricing_plan_id":"cebpf4jnsgd1na2vs0mg"},{"bike_id":"ffa581ae-d027-40ca-b822-72613b2513ab","system_id":"levelo_inurba_marseille","lat":43.29028,"lon":5.38653,"is_reserved":false,"is_disabled":false,"rental_uris":{"android":"levelo://app?vid=ffa581ae-d027-40ca-b822-72613b2513ab","ios":"levelo://app?vid=ffa581ae-d027-40ca-b822-72613b2513ab"},"vehicle_type_id":"4","last_reported":1743250596,"current_range_meters":12400,"station_id":"ce4bh4p2rcd13ifvqe0g","pricing_plan_id":"cebpf4jnsgd1na2vs0mg"},{"bike_id":"1d54da96-766b-44fc-aad8-8ca0efbabffe","system_id":"levelo_inurba_marseille","lat":43.27978,"lon":5.38759,"is_reserved":false,"is_disabled":false,"rental_uris":{"android":"levelo://app?vid=1d54da96-766b-44fc-aad8-8ca0efbabffe","ios":"levelo://app?vid=1d54da96-766b-44fc-aad8-8ca0efbabffe"},"vehicle_type_id":"4","last_reported":1743250596,"current_range_meters":12400,"station_id":"ce4bhg12rcd13ifvqf80","pricing_plan_id":"cebpf4jnsgd1na2vs0mg"},{"bike_id":"747d2bc2-6706-42d9-8381-8fcc8fac62bd","system_id":"levelo_inurba_marseille","lat":43.28607,"lon":5.37066,"is_reserved":false,"is_disabled":true,"rental_uris":{"android":"levelo://app?vid=747d2bc2-6706-42d9-8381-8fcc8fac62bd","ios":"levelo://app?vid=747d2bc2-6706-42d9-8381-8fcc8fac62bd"},"vehicle_type_id":"4","last_reported":1743250596,"current_range_meters":12400,"station_id":"","pricing_plan_id":"cebpf4jnsgd1na2vs0mg"},{"bike_id":"3f2bcfca-c616-4059-a95b-b1ee7948eb41","system_id":"levelo_inurba_marseille","lat":43.29916,"lon":5.39745,"is_reserved":false,"is_disabled":false,"rental_uris":{"android":"levelo://app?vid=3f2bcfca-c616-4059-a95b-b1ee7948eb41","ios":"levelo://app?vid=3f2bcfca-c616-4059-a95b-b1ee7948eb41"},"vehicle_type_id":"4","last_reported":1743250596,"current_range_meters":12400,"station_id":"","pricing_plan_id":"cebpf4jnsgd1na2vs0mg"},{"bike_id":"9736ad42-acab-4b79-a996-34627fe7d672","system_id":"levelo_inurba_marseille","lat":43.27316,"lon":5.39092,"is_reserved":false,"is_disabled":false,"rental_uris":{"android":"levelo://app?vid=9736ad42-acab-4b79-a996-34627fe7d672","ios":"levelo://app?vid=9736ad42-acab-4b79-a996-34627fe7d672"},"vehicle_type_id":"4","last_reported":1743250596,"current_range_meters":12400,"station_id":"ce4bhgp2rcd13ifvqfe0","pricing_plan_id":"cebpf4jnsgd1na2vs0mg"},{"bike_id":"abd3241e-325c-4afb-bdb7-08c1b88e1658","system_id":"levelo_inurba_marseille","lat":43.28892,"lon":5.35817,"is_reserved":false,"is_disabled":false,"rental_uris":{"android":"levelo://app?vid=abd3241e-325c-4afb-bdb7-08c1b88e1658","ios":"levelo://app?vid=abd3241e-325c-4afb-bdb7-08c1b88e1658"},"vehicle_type_id":"4","last_reported":1743250596,"current_range_meters":12400,"station_id":"ce4bhb12rcd13ifvqem0","pricing_plan_id":"cebpf4jnsgd1na2vs0mg"},{"bike_id":"23b89456-4241-42c0-affa-098a88cb35a0","system_id":"levelo_inurba_marseille","lat":43.31269,"lon":5.40165,"is_reserved":false,"is_disabled":false,"rental_uris":{"android":"levelo://app?vid=23b89456-4241-42c0-affa-098a88cb35a0","ios":"levelo://app?vid=23b89456-4241-42c0-affa-098a88cb35a0"},"vehicle_type_id":"4","last_reported":1743250596,"current_range_meters":12400,"station_id":"ce4bh092rcd13ifvqd30","pricing_plan_id":"cebpf4jnsgd1na2vs0mg"},{"bike_id":"0994bf8a-41e8-48be-b5ae-f95c99f0faa6","system_id":"levelo_inurba_marseille","lat":43.29944,"lon":5.36514,"is_reserved":false,"is_disabled":false,"rental_uris":{"android":"levelo://app?vid=0994bf8a-41e8-48be-b5ae-f95c99f0faa6","ios":"levelo://app?vid=0994bf8a-41e8-48be-b5ae-f95c99f0faa6"},"vehicle_type_id":"4","last_reported":1743250596,"current_range_meters":12400,"station_id":"ce4bgm92rcd13ifvqbr0","pricing_plan_id":"cebpf4jnsgd1na2vs0mg"},{"bike_id":"516eec70-9871-443d-bcef-31d65d51e4f5","system_id":"levelo_inurba_marseille","lat":43.3029,"lon":5.37703,"is_reserved":false,"is_disabled":false,"rental_uris":{"android":"levelo://app?vid=516eec70-9871-443d-bcef-31d65d51e4f5","ios":"levelo://app?vid=516eec70-9871-443d-bcef-31d65d51e4f5"},"vehicle_type_id":"4","last_reported":1743250596,"current_range_meters":12400,"station_id":"ce4bguh2rcd13ifvqcj0","pricing_plan_id":"cebpf4jnsgd1na2vs0mg"},{"bike_id":"ba72d8fc-57c6-4dbe-8267-6f0748e3f86e","system_id":"levelo_inurba_marseille","lat":43.29065,"lon":5.37167,"is_reserved":false,"is_disabled":false,"rental_uris":{"android":"levelo://app?vid=ba72d8fc-57c6-4dbe-8267-6f0748e3f86e","ios":"levelo://app?vid=ba72d8fc-57c6-4dbe-8267-6f0748e3f86e"},"vehicle_type_id":"4","last_reported":1743250596,"current_range_meters":12800,"station_id":"ce4bh5p2rcd13ifvqe4g","pricing_plan_id":"cebpf4jnsgd1na2vs0mg"},{"bike_id":"25bb5fbc-8229-4010-b703-31f5ee6ac141","system_id":"levelo_inurba_marseille","lat":43.306158,"lon":5.365799,"is_reserved":false,"is_disabled":false,"rental_uris":{"android":"levelo://app?vid=25bb5fbc-8229-4010-b703-31f5ee6ac141","ios":"levelo://app?vid=25bb5fbc-8229-4010-b703-31f5ee6ac141"},"vehicle_type_id":"4","last_reported":1743250596,"current_range_meters":12800,"station_id":"","pricing_plan_id":"cebpf4jnsgd1na2vs0mg"},{"bike_id":"11ad3a17-3538-4a5d-ac74-4c6db6aa6020","system_id":"levelo_inurba_marseille","lat":43.24808,"lon":5.37467,"is_reserved":false,"is_disabled":false,"rental_uris":{"android":"levelo://app?vid=11ad3a17-3538-4a5d-ac74-4c6db6aa6020","ios":"levelo://app?vid=11ad3a17-3538-4a5d-ac74-4c6db6aa6020"},"vehicle_type_id":"4","last_reported":1743250596,"current_range_meters":12800,"station_id":"ce4bhgh2rcd13ifvqfb0","pricing_plan_id":"cebpf4jnsgd1na2vs0mg"},{"bike_id":"d14b071d-6484-4998-9049-6481b9ce52e8","system_id":"levelo_inurba_marseille","lat":43.28477,"lon":5.38529,"is_reserved":false,"is_disabled":false,"rental_uris":{"android":"levelo://app?vid=d14b071d-6484-4998-9049-6481b9ce52e8","ios":"levelo://app?vid=d14b071d-6484-4998-9049-6481b9ce52e8"},"vehicle_type_id":"4","last_reported":1743250596,"current_range_meters":12800,"station_id":"ce4bh8p2rcd13ifvqeb0","pricing_plan_id":"cebpf4jnsgd1na2vs0mg"},{"bike_id":"a9af2a9f-7265-4362-9270-931c8f41c8ff","system_id":"levelo_inurba_marseille","lat":43.27209,"lon":5.39182,"is_reserved":false,"is_disabled":false,"rental_uris":{"android":"levelo://app?vid=a9af2a9f-7265-4362-9270-931c8f41c8ff","ios":"levelo://app?vid=a9af2a9f-7265-4362-9270-931c8f41c8ff"},"vehicle_type_id":"4","last_reported":1743250596,"current_range_meters":12800,"station_id":"ce4bhhp2rcd13ifvqfm0","pricing_plan_id":"cebpf4jnsgd1na2vs0mg"},{"bike_id":"76d4ed16-8625-4a14-a5f1-d28ac2574c13","system_id":"levelo_inurba_marseille","lat":43.24551,"lon":5.39549,"is_reserved":false,"is_disabled":false,"rental_uris":{"android":"levelo://app?vid=76d4ed16-8625-4a14-a5f1-d28ac2574c13","ios":"levelo://app?vid=76d4ed16-8625-4a14-a5f1-d28ac2574c13"},"vehicle_type_id":"4","last_reported":1743250596,"current_range_meters":13600,"station_id":"","pricing_plan_id":"cebpf4jnsgd1na2vs0mg"},{"bike_id":"906b540e-e920-417f-92b5-0ef35349f644","system_id":"levelo_inurba_marseille","lat":43.31542,"lon":5.39717,"is_reserved":false,"is_disabled":false,"rental_uris":{"android":"levelo://app?vid=906b540e-e920-417f-92b5-0ef35349f644","ios":"levelo://app?vid=906b540e-e920-417f-92b5-0ef35349f644"},"vehicle_type_id":"4","last_reported":1743250596,"current_range_meters":13600,"station_id":"","pricing_plan_id":"cebpf4jnsgd1na2vs0mg"},{"bike_id":"357c1f63-6c36-40fa-9e04-affe3a9ed5c9","system_id":"levelo_inurba_marseille","lat":43.324172,"lon":5.406227,"is_reserved":false,"is_disabled":false,"rental_uris":{"android":"levelo://app?vid=357c1f63-6c36-40fa-9e04-affe3a9ed5c9","ios":"levelo://app?vid=357c1f63-6c36-40fa-9e04-affe3a9ed5c9"},"vehicle_type_id":"4","last_reported":1743250596,"current_range_meters":13600,"station_id":"ce4bhq92rcd13ifvqhjg","pricing_plan_id":"cebpf4jnsgd1na2vs0mg"},{"bike_id":"559dea5e-b1d1-478a-8513-c23ea1a741c1","system_id":"levelo_inurba_marseille","lat":43.28365,"lon":5.38627,"is_reserved":false,"is_disabled":false,"rental_uris":{"android":"levelo://app?vid=559dea5e-b1d1-478a-8513-c23ea1a741c1","ios":"levelo://app?vid=559dea5e-b1d1-478a-8513-c23ea1a741c1"},"vehicle_type_id":"4","last_reported":1743250596,"current_range_meters":13600,"station_id":"ce4bh492rcd13ifvqdvg","pricing_plan_id":"cebpf4jnsgd1na2vs0mg"},{"bike_id":"4d3ffe49-3367-4198-8a8f-0fbaee8d3d2e","system_id":"levelo_inurba_marseille","lat":43.28349,"lon":5.38107,"is_reserved":false,"is_disabled":false,"rental_uris":{"android":"levelo://app?vid=4d3ffe49-3367-4198-8a8f-0fbaee8d3d2e","ios":"levelo://app?vid=4d3ffe49-3367-4198-8a8f-0fbaee8d3d2e"},"vehicle_type_id":"4","last_reported":1743250596,"current_range_meters":13600,"station_id":"ce4bh412rcd13ifvqdr0","pricing_plan_id":"cebpf4jnsgd1na2vs0mg"},{"bike_id":"00be0317-17ab-4e44-83e9-4e55c9cffd8f","system_id":"levelo_inurba_marseille","lat":43.23971,"lon":5.36622,"is_reserved":false,"is_disabled":false,"rental_uris":{"android":"levelo://app?vid=00be0317-17ab-4e44-83e9-4e55c9cffd8f","ios":"levelo://app?vid=00be0317-17ab-4e44-83e9-4e55c9cffd8f"},"vehicle_type_id":"4","last_reported":1743250596,"current_range_meters":13600,"station_id":"ce4bhi12rcd13ifvqfp0","pricing_plan_id":"cebpf4jnsgd1na2vs0mg"},{"bike_id":"4854182c-5e3b-4312-b39b-614ebdd62b8d","system_id":"levelo_inurba_marseille","lat":43.2592,"lon":5.40866,"is_reserved":false,"is_disabled":false,"rental_uris":{"android":"levelo://app?vid=4854182c-5e3b-4312-b39b-614ebdd62b8d","ios":"levelo://app?vid=4854182c-5e3b-4312-b39b-614ebdd62b8d"},"vehicle_type_id":"4","last_reported":1743250596,"current_range_meters":14000,"station_id":"ce4bhm92rcd13ifvqglg","pricing_plan_id":"cebpf4jnsgd1na2vs0mg"},{"bike_id":"f80bdad8-c86c-4683-90b6-26f666f2ddd0","system_id":"levelo_inurba_marseille","lat":43.28937,"lon":5.36629,"is_reserved":false,"is_disabled":false,"rental_uris":{"android":"levelo://app?vid=f80bdad8-c86c-4683-90b6-26f666f2ddd0","ios":"levelo://app?vid=f80bdad8-c86c-4683-90b6-26f666f2ddd0"},"vehicle_type_id":"4","last_reported":1743250596,"current_range_meters":14000,"station_id":"ce4bhap2rcd13ifvqek0","pricing_plan_id":"cebpf4jnsgd1na2vs0mg"},{"bike_id":"1bf928b2-7ac9-41a7-adcc-77e0f5608510","system_id":"levelo_inurba_marseille","lat":43.32437,"lon":5.36417,"is_reserved":false,"is_disabled":false,"rental_uris":{"android":"levelo://app?vid=1bf928b2-7ac9-41a7-adcc-77e0f5608510","ios":"levelo://app?vid=1bf928b2-7ac9-41a7-adcc-77e0f5608510"},"vehicle_type_id":"4","last_reported":1743250596,"current_range_meters":14000,"station_id":"","pricing_plan_id":"cebpf4jnsgd1na2vs0mg"},{"bike_id":"9f50066e-01fa-4519-9f61-8109fe65f5d9","system_id":"levelo_inurba_marseille","lat":43.29794,"lon":5.37732,"is_reserved":false,"is_disabled":false,"rental_uris":{"android":"levelo://app?vid=9f50066e-01fa-4519-9f61-8109fe65f5d9","ios":"levelo://app?vid=9f50066e-01fa-4519-9f61-8109fe65f5d9"},"vehicle_type_id":"4","last_reported":1743250596,"current_range_meters":14000,"station_id":"","pricing_plan_id":"cebpf4jnsgd1na2vs0mg"},{"bike_id":"e6967797-29d0-4947-88e5-61bc42de65df","system_id":"levelo_inurba_marseille","lat":43.28656,"lon":5.35072,"is_reserved":false,"is_disabled":false,"rental_uris":{"android":"levelo://app?vid=e6967797-29d0-4947-88e5-61bc42de65df","ios":"levelo://app?vid=e6967797-29d0-4947-88e5-61bc42de65df"},"vehicle_type_id":"4","last_reported":1743250596,"current_range_meters":14000,"station_id":"ce4bhch2rcd13ifvqeug","pricing_plan_id":"cebpf4jnsgd1na2vs0mg"},{"bike_id":"5a53d0ae-485c-4888-8827-1e6d992be149","system_id":"levelo_inurba_marseille","lat":43.30662,"lon":5.40092,"is_reserved":false,"is_disabled":false,"rental_uris":{"android":"levelo://app?vid=5a53d0ae-485c-4888-8827-1e6d992be149","ios":"levelo://app?vid=5a53d0ae-485c-4888-8827-1e6d992be149"},"vehicle_type_id":"4","last_reported":1743250596,"current_range_meters":14000,"station_id":"ce4bh112rcd13ifvqda0","pricing_plan_id":"cebpf4jnsgd1na2vs0mg"},{"bike_id":"789deb08-724d-4888-8d39-3b29f4bae8db","system_id":"levelo_inurba_marseille","lat":43.28273,"lon":5.35059,"is_reserved":false,"is_disabled":false,"rental_uris":{"android":"levelo://app?vid=789deb08-724d-4888-8d39-3b29f4bae8db","ios":"levelo://app?vid=789deb08-724d-4888-8d39-3b29f4bae8db"},"vehicle_type_id":"4","last_reported":1743250596,"current_range_meters":14000,"station_id":"ce4bhbp2rcd13ifvqerg","pricing_plan_id":"cebpf4jnsgd1na2vs0mg"},{"bike_id":"f48a4d42-4af1-40ba-8a9d-f3fe154b2647","system_id":"levelo_inurba_marseille","lat":43.28859,"lon":5.35851,"is_reserved":false,"is_disabled":false,"rental_uris":{"android":"levelo://app?vid=f48a4d42-4af1-40ba-8a9d-f3fe154b2647","ios":"levelo://app?vid=f48a4d42-4af1-40ba-8a9d-f3fe154b2647"},"vehicle_type_id":"4","last_reported":1743250596,"current_range_meters":14000,"station_id":"ce4bhb12rcd13ifvqem0","pricing_plan_id":"cebpf4jnsgd1na2vs0mg"},{"bike_id":"d51beadc-bc96-41b3-b9dc-6935cacf2dc9","system_id":"levelo_inurba_marseille","lat":43.23963,"lon":5.36622,"is_reserved":false,"is_disabled":false,"rental_uris":{"android":"levelo://app?vid=d51beadc-bc96-41b3-b9dc-6935cacf2dc9","ios":"levelo://app?vid=d51beadc-bc96-41b3-b9dc-6935cacf2dc9"},"vehicle_type_id":"4","last_reported":1743250596,"current_range_meters":14000,"station_id":"ce4bhi12rcd13ifvqfp0","pricing_plan_id":"cebpf4jnsgd1na2vs0mg"},{"bike_id":"21b7dfed-4bf3-42a6-9071-9b2b5259da3c","system_id":"levelo_inurba_marseille","lat":43.29617,"lon":5.3715,"is_reserved":false,"is_disabled":true,"rental_uris":{"android":"levelo://app?vid=21b7dfed-4bf3-42a6-9071-9b2b5259da3c","ios":"levelo://app?vid=21b7dfed-4bf3-42a6-9071-9b2b5259da3c"},"vehicle_type_id":"4","last_reported":1743250596,"current_range_meters":14000,"station_id":"ce4bgnh2rcd13ifvqc0g","pricing_plan_id":"cebpf4jnsgd1na2vs0mg"},{"bike_id":"e95ff89a-cae0-4ea8-9e4a-d0a4e5fc1614","system_id":"levelo_inurba_marseille","lat":43.28726,"lon":5.37953,"is_reserved":false,"is_disabled":false,"rental_uris":{"android":"levelo://app?vid=e95ff89a-cae0-4ea8-9e4a-d0a4e5fc1614","ios":"levelo://app?vid=e95ff89a-cae0-4ea8-9e4a-d0a4e5fc1614"},"vehicle_type_id":"4","last_reported":1743250596,"current_range_meters":14000,"station_id":"ce4bh9p2rcd13ifvqec0","pricing_plan_id":"cebpf4jnsgd1na2vs0mg"},{"bike_id":"94fac8e1-2584-4693-a666-cc268f4fda98","system_id":"levelo_inurba_marseille","lat":43.28487,"lon":5.38429,"is_reserved":false,"is_disabled":false,"rental_uris":{"android":"levelo://app?vid=94fac8e1-2584-4693-a666-cc268f4fda98","ios":"levelo://app?vid=94fac8e1-2584-4693-a666-cc268f4fda98"},"vehicle_type_id":"4","last_reported":1743250596,"current_range_meters":14400,"station_id":"ce4bh512rcd13ifvqe3g","pricing_plan_id":"cebpf4jnsgd1na2vs0mg"},{"bike_id":"0d51b86b-9163-483f-8eba-eea9a9985c8f","system_id":"levelo_inurba_marseille","lat":43.29523,"lon":5.39053,"is_reserved":false,"is_disabled":false,"rental_uris":{"android":"levelo://app?vid=0d51b86b-9163-483f-8eba-eea9a9985c8f","ios":"levelo://app?vid=0d51b86b-9163-483f-8eba-eea9a9985c8f"},"vehicle_type_id":"4","last_reported":1743250596,"current_range_meters":14400,"station_id":"ce4bh3p2rcd13ifvqdp0","pricing_plan_id":"cebpf4jnsgd1na2vs0mg"},{"bike_id":"653ea6de-a177-4007-9cfa-5f3f77e975f6","system_id":"levelo_inurba_marseille","lat":43.2481,"lon":5.37459,"is_reserved":false,"is_disabled":false,"rental_uris":{"android":"levelo://app?vid=653ea6de-a177-4007-9cfa-5f3f77e975f6","ios":"levelo://app?vid=653ea6de-a177-4007-9cfa-5f3f77e975f6"},"vehicle_type_id":"4","last_reported":1743250596,"current_range_meters":14400,"station_id":"ce4bhgh2rcd13ifvqfb0","pricing_plan_id":"cebpf4jnsgd1na2vs0mg"},{"bike_id":"446e74dc-3599-4696-b7f8-d3d52cabeefa","system_id":"levelo_inurba_marseille","lat":43.27061,"lon":5.40264,"is_reserved":false,"is_disabled":false,"rental_uris":{"android":"levelo://app?vid=446e74dc-3599-4696-b7f8-d3d52cabeefa","ios":"levelo://app?vid=446e74dc-3599-4696-b7f8-d3d52cabeefa"},"vehicle_type_id":"4","last_reported":1743250596,"current_range_meters":14400,"station_id":"ce4bhk92rcd13ifvqgc0","pricing_plan_id":"cebpf4jnsgd1na2vs0mg"},{"bike_id":"a2b7c860-7d45-4570-89a7-3af01852c0ed","system_id":"levelo_inurba_marseille","lat":43.29549,"lon":5.37506,"is_reserved":false,"is_disabled":false,"rental_uris":{"android":"levelo://app?vid=a2b7c860-7d45-4570-89a7-3af01852c0ed","ios":"levelo://app?vid=a2b7c860-7d45-4570-89a7-3af01852c0ed"},"vehicle_type_id":"4","last_reported":1743250596,"current_range_meters":14400,"station_id":"ce4bgkp2rcd13ifvqbmg","pricing_plan_id":"cebpf4jnsgd1na2vs0mg"},{"bike_id":"78f5b79c-c94f-4b50-8f7c-a10e4163e48b","system_id":"levelo_inurba_marseille","lat":43.24995,"lon":5.38944,"is_reserved":false,"is_disabled":false,"rental_uris":{"android":"levelo://app?vid=78f5b79c-c94f-4b50-8f7c-a10e4163e48b","ios":"levelo://app?vid=78f5b79c-c94f-4b50-8f7c-a10e4163e48b"},"vehicle_type_id":"4","last_reported":1743250596,"current_range_meters":14800,"station_id":"ce4bhgp2rcd13ifvqfd0","pricing_plan_id":"cebpf4jnsgd1na2vs0mg"},{"bike_id":"939fef5b-bbd4-4de2-b4fc-b103e449f9b5","system_id":"levelo_inurba_marseille","lat":43.25386,"lon":5.41855,"is_reserved":false,"is_disabled":false,"rental_uris":{"android":"levelo://app?vid=939fef5b-bbd4-4de2-b4fc-b103e449f9b5","ios":"levelo://app?vid=939fef5b-bbd4-4de2-b4fc-b103e449f9b5"},"vehicle_type_id":"4","last_reported":1743250596,"current_range_meters":14800,"station_id":"","pricing_plan_id":"cebpf4jnsgd1na2vs0mg"},{"bike_id":"1194d893-debc-41d7-b347-816267570776","system_id":"levelo_inurba_marseille","lat":43.337279,"lon":5.391932,"is_reserved":false,"is_disabled":false,"rental_uris":{"android":"levelo://app?vid=1194d893-debc-41d7-b347-816267570776","ios":"levelo://app?vid=1194d893-debc-41d7-b347-816267570776"},"vehicle_type_id":"4","last_reported":1743250596,"current_range_meters":14800,"station_id":"ce4bhr92rcd13ifvqhsg","pricing_plan_id":"cebpf4jnsgd1na2vs0mg"},{"bike_id":"00e0229f-8a6f-4803-b7ac-8a2c2318e935","system_id":"levelo_inurba_marseille","lat":43.29264,"lon":5.38431,"is_reserved":false,"is_disabled":false,"rental_uris":{"android":"levelo://app?vid=00e0229f-8a6f-4803-b7ac-8a2c2318e935","ios":"levelo://app?vid=00e0229f-8a6f-4803-b7ac-8a2c2318e935"},"vehicle_type_id":"4","last_reported":1743250596,"current_range_meters":14800,"station_id":"ce4bh692rcd13ifvqea0","pricing_plan_id":"cebpf4jnsgd1na2vs0mg"},{"bike_id":"e3dddefa-9a90-402c-a1ed-56d53ccd09d1","system_id":"levelo_inurba_marseille","lat":43.29199,"lon":5.35807,"is_reserved":false,"is_disabled":false,"rental_uris":{"android":"levelo://app?vid=e3dddefa-9a90-402c-a1ed-56d53ccd09d1","ios":"levelo://app?vid=e3dddefa-9a90-402c-a1ed-56d53ccd09d1"},"vehicle_type_id":"4","last_reported":1743250596,"current_range_meters":15200,"station_id":"ce4bhb12rcd13ifvqel0","pricing_plan_id":"cebpf4jnsgd1na2vs0mg"},{"bike_id":"20820fdc-3573-4c9d-920b-2774f2cbc77e","system_id":"levelo_inurba_marseille","lat":43.29522,"lon":5.37503,"is_reserved":false,"is_disabled":false,"rental_uris":{"android":"levelo://app?vid=20820fdc-3573-4c9d-920b-2774f2cbc77e","ios":"levelo://app?vid=20820fdc-3573-4c9d-920b-2774f2cbc77e"},"vehicle_type_id":"4","last_reported":1743250596,"current_range_meters":15200,"station_id":"ce4bgkp2rcd13ifvqbmg","pricing_plan_id":"cebpf4jnsgd1na2vs0mg"},{"bike_id":"9f8ac332-33d8-4099-9134-b77103186608","system_id":"levelo_inurba_marseille","lat":43.28619,"lon":5.37054,"is_reserved":false,"is_disabled":false,"rental_uris":{"android":"levelo://app?vid=9f8ac332-33d8-4099-9134-b77103186608","ios":"levelo://app?vid=9f8ac332-33d8-4099-9134-b77103186608"},"vehicle_type_id":"4","last_reported":1743250596,"current_range_meters":15200,"station_id":"ce4bht12rcd13ifvqi60","pricing_plan_id":"cebpf4jnsgd1na2vs0mg"},{"bike_id":"84ddc583-7eeb-4140-b507-5ab55d1af1de","system_id":"levelo_inurba_marseille","lat":43.288057,"lon":5.380378,"is_reserved":false,"is_disabled":false,"rental_uris":{"android":"levelo://app?vid=84ddc583-7eeb-4140-b507-5ab55d1af1de","ios":"levelo://app?vid=84ddc583-7eeb-4140-b507-5ab55d1af1de"},"vehicle_type_id":"4","last_reported":1743250596,"current_range_meters":14800,"station_id":"ce4bhah2rcd13ifvqej0","pricing_plan_id":"cebpf4jnsgd1na2vs0mg"},{"bike_id":"342dfb8b-a2d2-4c6d-b7f4-7d64b6463ad2","system_id":"levelo_inurba_marseille","lat":43.24029,"lon":5.37794,"is_reserved":false,"is_disabled":false,"rental_uris":{"android":"levelo://app?vid=342dfb8b-a2d2-4c6d-b7f4-7d64b6463ad2","ios":"levelo://app?vid=342dfb8b-a2d2-4c6d-b7f4-7d64b6463ad2"},"vehicle_type_id":"4","last_reported":1743250596,"current_range_meters":15200,"station_id":"","pricing_plan_id":"cebpf4jnsgd1na2vs0mg"},{"bike_id":"a90d481a-7039-457f-a5b9-3dabbed904f5","system_id":"levelo_inurba_marseille","lat":43.279431,"lon":5.410375,"is_reserved":false,"is_disabled":false,"rental_uris":{"android":"levelo://app?vid=a90d481a-7039-457f-a5b9-3dabbed904f5","ios":"levelo://app?vid=a90d481a-7039-457f-a5b9-3dabbed904f5"},"vehicle_type_id":"4","last_reported":1743250596,"current_range_meters":15200,"station_id":"ce4bhnp2rcd13ifvqh0g","pricing_plan_id":"cebpf4jnsgd1na2vs0mg"},{"bike_id":"b495a96e-3e6f-453c-8052-b683e21f1048","system_id":"levelo_inurba_marseille","lat":43.25791,"lon":5.399834,"is_reserved":false,"is_disabled":false,"rental_uris":{"android":"levelo://app?vid=b495a96e-3e6f-453c-8052-b683e21f1048","ios":"levelo://app?vid=b495a96e-3e6f-453c-8052-b683e21f1048"},"vehicle_type_id":"4","last_reported":1743250596,"current_range_meters":15200,"station_id":"ce4bhl92rcd13ifvqghg","pricing_plan_id":"cebpf4jnsgd1na2vs0mg"},{"bike_id":"58e122c9-27c3-4615-b3c2-09e911dbb4f5","system_id":"levelo_inurba_marseille","lat":43.25582,"lon":5.38238,"is_reserved":false,"is_disabled":false,"rental_uris":{"android":"levelo://app?vid=58e122c9-27c3-4615-b3c2-09e911dbb4f5","ios":"levelo://app?vid=58e122c9-27c3-4615-b3c2-09e911dbb4f5"},"vehicle_type_id":"4","last_reported":1743250596,"current_range_meters":15200,"station_id":"ce4bhih2rcd13ifvqfs0","pricing_plan_id":"cebpf4jnsgd1na2vs0mg"},{"bike_id":"1dc4bdb5-af13-4720-b966-be09b136a50f","system_id":"levelo_inurba_marseille","lat":43.30321,"lon":5.40443,"is_reserved":false,"is_disabled":false,"rental_uris":{"android":"levelo://app?vid=1dc4bdb5-af13-4720-b966-be09b136a50f","ios":"levelo://app?vid=1dc4bdb5-af13-4720-b966-be09b136a50f"},"vehicle_type_id":"4","last_reported":1743250596,"current_range_meters":15200,"station_id":"ce4bh012rcd13ifvqd10","pricing_plan_id":"cebpf4jnsgd1na2vs0mg"},{"bike_id":"e71498e7-e1af-4b2a-a179-a47bea9a7cac","system_id":"levelo_inurba_marseille","lat":43.29245,"lon":5.40906,"is_reserved":false,"is_disabled":false,"rental_uris":{"android":"levelo://app?vid=e71498e7-e1af-4b2a-a179-a47bea9a7cac","ios":"levelo://app?vid=e71498e7-e1af-4b2a-a179-a47bea9a7cac"},"vehicle_type_id":"4","last_reported":1743250596,"current_range_meters":15200,"station_id":"ce4bh192rcd13ifvqdc0","pricing_plan_id":"cebpf4jnsgd1na2vs0mg"},{"bike_id":"c4fb15b2-b6c9-4294-89c0-c7e0702ce2ad","system_id":"levelo_inurba_marseille","lat":43.27089,"lon":5.4024,"is_reserved":false,"is_disabled":false,"rental_uris":{"android":"levelo://app?vid=c4fb15b2-b6c9-4294-89c0-c7e0702ce2ad","ios":"levelo://app?vid=c4fb15b2-b6c9-4294-89c0-c7e0702ce2ad"},"vehicle_type_id":"4","last_reported":1743250596,"current_range_meters":16000,"station_id":"ce4bhk92rcd13ifvqgc0","pricing_plan_id":"cebpf4jnsgd1na2vs0mg"},{"bike_id":"01b30980-6fea-409c-a5b2-22ab52e85a66","system_id":"levelo_inurba_marseille","lat":43.29264,"lon":5.37615,"is_reserved":false,"is_disabled":false,"rental_uris":{"android":"levelo://app?vid=01b30980-6fea-409c-a5b2-22ab52e85a66","ios":"levelo://app?vid=01b30980-6fea-409c-a5b2-22ab52e85a66"},"vehicle_type_id":"4","last_reported":1743250596,"current_range_meters":16000,"station_id":"ce4bgi12rcd13ifvqb80","pricing_plan_id":"cebpf4jnsgd1na2vs0mg"},{"bike_id":"e461c282-058d-4d0e-a7d7-55427b9828bb","system_id":"levelo_inurba_marseille","lat":43.29567,"lon":5.37505,"is_reserved":false,"is_disabled":false,"rental_uris":{"android":"levelo://app?vid=e461c282-058d-4d0e-a7d7-55427b9828bb","ios":"levelo://app?vid=e461c282-058d-4d0e-a7d7-55427b9828bb"},"vehicle_type_id":"4","last_reported":1743250596,"current_range_meters":16000,"station_id":"ce4bgh92rcd13ifvqb50","pricing_plan_id":"cebpf4jnsgd1na2vs0mg"},{"bike_id":"9251e004-9541-41f3-bd87-ef8855a6783b","system_id":"levelo_inurba_marseille","lat":43.29573,"lon":5.39983,"is_reserved":false,"is_disabled":false,"rental_uris":{"android":"levelo://app?vid=9251e004-9541-41f3-bd87-ef8855a6783b","ios":"levelo://app?vid=9251e004-9541-41f3-bd87-ef8855a6783b"},"vehicle_type_id":"4","last_reported":1743250596,"current_range_meters":16000,"station_id":"ce4bh312rcd13ifvqdj0","pricing_plan_id":"cebpf4jnsgd1na2vs0mg"},{"bike_id":"bd90bf75-9c99-4619-93c2-7a5fd83388b5","system_id":"levelo_inurba_marseille","lat":43.313603,"lon":5.388284,"is_reserved":false,"is_disabled":false,"rental_uris":{"android":"levelo://app?vid=bd90bf75-9c99-4619-93c2-7a5fd83388b5","ios":"levelo://app?vid=bd90bf75-9c99-4619-93c2-7a5fd83388b5"},"vehicle_type_id":"4","last_reported":1743250596,"current_range_meters":16000,"station_id":"ce4bgt92rcd13ifvqcf0","pricing_plan_id":"cebpf4jnsgd1na2vs0mg"},{"bike_id":"cccdfc50-9172-4019-9d86-2d339a3ec58f","system_id":"levelo_inurba_marseille","lat":43.24668,"lon":5.38173,"is_reserved":false,"is_disabled":false,"rental_uris":{"android":"levelo://app?vid=cccdfc50-9172-4019-9d86-2d339a3ec58f","ios":"levelo://app?vid=cccdfc50-9172-4019-9d86-2d339a3ec58f"},"vehicle_type_id":"4","last_reported":1743250596,"current_range_meters":16000,"station_id":"ce4bhih2rcd13ifvqfr0","pricing_plan_id":"cebpf4jnsgd1na2vs0mg"},{"bike_id":"82be5020-df29-4bb6-b821-10f31b9ed89a","system_id":"levelo_inurba_marseille","lat":43.2842,"lon":5.34982,"is_reserved":false,"is_disabled":false,"rental_uris":{"android":"levelo://app?vid=82be5020-df29-4bb6-b821-10f31b9ed89a","ios":"levelo://app?vid=82be5020-df29-4bb6-b821-10f31b9ed89a"},"vehicle_type_id":"4","last_reported":1743250596,"current_range_meters":16000,"station_id":"ce4bhbh2rcd13ifvqepg","pricing_plan_id":"cebpf4jnsgd1na2vs0mg"},{"bike_id":"ed5a1ae2-fa61-4587-b9a2-42244092b811","system_id":"levelo_inurba_marseille","lat":43.30176,"lon":5.38106,"is_reserved":false,"is_disabled":false,"rental_uris":{"android":"levelo://app?vid=ed5a1ae2-fa61-4587-b9a2-42244092b811","ios":"levelo://app?vid=ed5a1ae2-fa61-4587-b9a2-42244092b811"},"vehicle_type_id":"4","last_reported":1743250596,"current_range_meters":16000,"station_id":"ce4bgjp2rcd13ifvqbh0","pricing_plan_id":"cebpf4jnsgd1na2vs0mg"},{"bike_id":"98579b26-9c15-4dca-8ae6-7d823c3aab07","system_id":"levelo_inurba_marseille","lat":43.29571,"lon":5.375,"is_reserved":false,"is_disabled":false,"rental_uris":{"android":"levelo://app?vid=98579b26-9c15-4dca-8ae6-7d823c3aab07","ios":"levelo://app?vid=98579b26-9c15-4dca-8ae6-7d823c3aab07"},"vehicle_type_id":"4","last_reported":1743250596,"current_range_meters":16000,"station_id":"ce4bgh92rcd13ifvqb50","pricing_plan_id":"cebpf4jnsgd1na2vs0mg"},{"bike_id":"2a651215-29ff-4da6-821d-6aba547eb86b","system_id":"levelo_inurba_marseille","lat":43.292168,"lon":5.360535,"is_reserved":false,"is_disabled":false,"rental_uris":{"android":"levelo://app?vid=2a651215-29ff-4da6-821d-6aba547eb86b","ios":"levelo://app?vid=2a651215-29ff-4da6-821d-6aba547eb86b"},"vehicle_type_id":"4","last_reported":1743250596,"current_range_meters":16000,"station_id":"ce4bhbh2rcd13ifvqeqg","pricing_plan_id":"cebpf4jnsgd1na2vs0mg"},{"bike_id":"b3c86987-e537-4996-93a4-5a635d62488d","system_id":"levelo_inurba_marseille","lat":43.26219,"lon":5.37449,"is_reserved":false,"is_disabled":false,"rental_uris":{"android":"levelo://app?vid=b3c86987-e537-4996-93a4-5a635d62488d","ios":"levelo://app?vid=b3c86987-e537-4996-93a4-5a635d62488d"},"vehicle_type_id":"4","last_reported":1743250596,"current_range_meters":16000,"station_id":"ce4bhgp2rcd13ifvqfc0","pricing_plan_id":"cebpf4jnsgd1na2vs0mg"},{"bike_id":"0a9ec2eb-1e79-43a5-ae4d-326ab3ba938e","system_id":"levelo_inurba_marseille","lat":43.28653,"lon":5.35074,"is_reserved":false,"is_disabled":false,"rental_uris":{"android":"levelo://app?vid=0a9ec2eb-1e79-43a5-ae4d-326ab3ba938e","ios":"levelo://app?vid=0a9ec2eb-1e79-43a5-ae4d-326ab3ba938e"},"vehicle_type_id":"4","last_reported":1743250596,"current_range_meters":16000,"station_id":"ce4bhch2rcd13ifvqeug","pricing_plan_id":"cebpf4jnsgd1na2vs0mg"},{"bike_id":"8bcc045e-f28b-442a-a0af-38457b26197c","system_id":"levelo_inurba_marseille","lat":43.24173,"lon":5.36394,"is_reserved":false,"is_disabled":false,"rental_uris":{"android":"levelo://app?vid=8bcc045e-f28b-442a-a0af-38457b26197c","ios":"levelo://app?vid=8bcc045e-f28b-442a-a0af-38457b26197c"},"vehicle_type_id":"4","last_reported":1743250596,"current_range_meters":16000,"station_id":"cpo36qri1sfpv3e86is0","pricing_plan_id":"cebpf4jnsgd1na2vs0mg"},{"bike_id":"3fc690cc-514e-49af-8c16-561a3329ac3e","system_id":"levelo_inurba_marseille","lat":43.27062,"lon":5.42279,"is_reserved":false,"is_disabled":false,"rental_uris":{"android":"levelo://app?vid=3fc690cc-514e-49af-8c16-561a3329ac3e","ios":"levelo://app?vid=3fc690cc-514e-49af-8c16-561a3329ac3e"},"vehicle_type_id":"4","last_reported":1743250596,"current_range_meters":16000,"station_id":"ce4bhk92rcd13ifvqgb0","pricing_plan_id":"cebpf4jnsgd1na2vs0mg"},{"bike_id":"0e9d92a7-df29-43d8-906d-2a51c6561f7d","system_id":"levelo_inurba_marseille","lat":43.28432,"lon":5.34968,"is_reserved":false,"is_disabled":false,"rental_uris":{"android":"levelo://app?vid=0e9d92a7-df29-43d8-906d-2a51c6561f7d","ios":"levelo://app?vid=0e9d92a7-df29-43d8-906d-2a51c6561f7d"},"vehicle_type_id":"4","last_reported":1743250596,"current_range_meters":16000,"station_id":"ce4bhbh2rcd13ifvqepg","pricing_plan_id":"cebpf4jnsgd1na2vs0mg"},{"bike_id":"c7d67fa1-0431-4a9c-8fb6-b4967b61a7d3","system_id":"levelo_inurba_marseille","lat":43.25571,"lon":5.3824,"is_reserved":false,"is_disabled":false,"rental_uris":{"android":"levelo://app?vid=c7d67fa1-0431-4a9c-8fb6-b4967b61a7d3","ios":"levelo://app?vid=c7d67fa1-0431-4a9c-8fb6-b4967b61a7d3"},"vehicle_type_id":"4","last_reported":1743250596,"current_range_meters":16400,"station_id":"ce4bhih2rcd13ifvqfs0","pricing_plan_id":"cebpf4jnsgd1na2vs0mg"},{"bike_id":"da21a048-f5c9-4d55-9b7a-8dcd992892ce","system_id":"levelo_inurba_marseille","lat":43.303857,"lon":5.424803,"is_reserved":false,"is_disabled":true,"rental_uris":{"android":"levelo://app?vid=da21a048-f5c9-4d55-9b7a-8dcd992892ce","ios":"levelo://app?vid=da21a048-f5c9-4d55-9b7a-8dcd992892ce"},"vehicle_type_id":"4","last_reported":1743250596,"current_range_meters":16400,"station_id":"ce4bhoh2rcd13ifvqh6g","pricing_plan_id":"cebpf4jnsgd1na2vs0mg"},{"bike_id":"3fc7cdea-d21a-452c-9337-421a9ebca049","system_id":"levelo_inurba_marseille","lat":43.31498,"lon":5.37307,"is_reserved":false,"is_disabled":false,"rental_uris":{"android":"levelo://app?vid=3fc7cdea-d21a-452c-9337-421a9ebca049","ios":"levelo://app?vid=3fc7cdea-d21a-452c-9337-421a9ebca049"},"vehicle_type_id":"4","last_reported":1743250596,"current_range_meters":16400,"station_id":"ce4bgt12rcd13ifvqcd0","pricing_plan_id":"cebpf4jnsgd1na2vs0mg"},{"bike_id":"d724537e-d470-448f-bfa0-429e37902de0","system_id":"levelo_inurba_marseille","lat":43.28279,"lon":5.35062,"is_reserved":false,"is_disabled":false,"rental_uris":{"android":"levelo://app?vid=d724537e-d470-448f-bfa0-429e37902de0","ios":"levelo://app?vid=d724537e-d470-448f-bfa0-429e37902de0"},"vehicle_type_id":"4","last_reported":1743250596,"current_range_meters":16400,"station_id":"ce4bhbp2rcd13ifvqerg","pricing_plan_id":"cebpf4jnsgd1na2vs0mg"},{"bike_id":"dfbb6260-c784-4592-a1df-1e39e98bfefa","system_id":"levelo_inurba_marseille","lat":43.28419,"lon":5.34979,"is_reserved":false,"is_disabled":false,"rental_uris":{"android":"levelo://app?vid=dfbb6260-c784-4592-a1df-1e39e98bfefa","ios":"levelo://app?vid=dfbb6260-c784-4592-a1df-1e39e98bfefa"},"vehicle_type_id":"4","last_reported":1743250596,"current_range_meters":16400,"station_id":"ce4bhbh2rcd13ifvqepg","pricing_plan_id":"cebpf4jnsgd1na2vs0mg"},{"bike_id":"ea212a2c-ebda-4fd3-87a5-afdf194e9b39","system_id":"levelo_inurba_marseille","lat":43.31584,"lon":5.38946,"is_reserved":false,"is_disabled":false,"rental_uris":{"android":"levelo://app?vid=ea212a2c-ebda-4fd3-87a5-afdf194e9b39","ios":"levelo://app?vid=ea212a2c-ebda-4fd3-87a5-afdf194e9b39"},"vehicle_type_id":"4","last_reported":1743250596,"current_range_meters":16400,"station_id":"","pricing_plan_id":"cebpf4jnsgd1na2vs0mg"},{"bike_id":"f8feeb6c-4c74-49d7-9bbd-fe1d815b652b","system_id":"levelo_inurba_marseille","lat":43.32369,"lon":5.3887,"is_reserved":false,"is_disabled":false,"rental_uris":{"android":"levelo://app?vid=f8feeb6c-4c74-49d7-9bbd-fe1d815b652b","ios":"levelo://app?vid=f8feeb6c-4c74-49d7-9bbd-fe1d815b652b"},"vehicle_type_id":"4","last_reported":1743250596,"current_range_meters":16400,"station_id":"ce4bhqp2rcd13ifvqhog","pricing_plan_id":"cebpf4jnsgd1na2vs0mg"},{"bike_id":"2901a02d-9530-477a-bbcb-9b78ea03e1c2","system_id":"levelo_inurba_marseille","lat":43.32341,"lon":5.36765,"is_reserved":false,"is_disabled":false,"rental_uris":{"android":"levelo://app?vid=2901a02d-9530-477a-bbcb-9b78ea03e1c2","ios":"levelo://app?vid=2901a02d-9530-477a-bbcb-9b78ea03e1c2"},"vehicle_type_id":"4","last_reported":1743250596,"current_range_meters":16400,"station_id":"ce4bhsh2rcd13ifvqi2g","pricing_plan_id":"cebpf4jnsgd1na2vs0mg"},{"bike_id":"7fcdb0f9-3334-43bd-bbaa-eef4e1209a76","system_id":"levelo_inurba_marseille","lat":43.30315,"lon":5.40437,"is_reserved":false,"is_disabled":false,"rental_uris":{"android":"levelo://app?vid=7fcdb0f9-3334-43bd-bbaa-eef4e1209a76","ios":"levelo://app?vid=7fcdb0f9-3334-43bd-bbaa-eef4e1209a76"},"vehicle_type_id":"4","last_reported":1743250596,"current_range_meters":16400,"station_id":"ce4bh012rcd13ifvqd10","pricing_plan_id":"cebpf4jnsgd1na2vs0mg"},{"bike_id":"381d627e-37d6-4121-b81d-88e16e658c59","system_id":"levelo_inurba_marseille","lat":43.24367,"lon":5.37082,"is_reserved":false,"is_disabled":false,"rental_uris":{"android":"levelo://app?vid=381d627e-37d6-4121-b81d-88e16e658c59","ios":"levelo://app?vid=381d627e-37d6-4121-b81d-88e16e658c59"},"vehicle_type_id":"4","last_reported":1743250596,"current_range_meters":16400,"station_id":"ce4bhhh2rcd13ifvqfk0","pricing_plan_id":"cebpf4jnsgd1na2vs0mg"},{"bike_id":"6ef18dd7-1cb9-4ef6-bfdd-052cde57f183","system_id":"levelo_inurba_marseille","lat":43.32121,"lon":5.36763,"is_reserved":false,"is_disabled":false,"rental_uris":{"android":"levelo://app?vid=6ef18dd7-1cb9-4ef6-bfdd-052cde57f183","ios":"levelo://app?vid=6ef18dd7-1cb9-4ef6-bfdd-052cde57f183"},"vehicle_type_id":"4","last_reported":1743250596,"current_range_meters":16400,"station_id":"ce4bhrh2rcd13ifvqhug","pricing_plan_id":"cebpf4jnsgd1na2vs0mg"},{"bike_id":"c4f43026-a1a9-4e1f-b9af-56100a576e61","system_id":"levelo_inurba_marseille","lat":43.26038,"lon":5.37546,"is_reserved":false,"is_disabled":false,"rental_uris":{"android":"levelo://app?vid=c4f43026-a1a9-4e1f-b9af-56100a576e61","ios":"levelo://app?vid=c4f43026-a1a9-4e1f-b9af-56100a576e61"},"vehicle_type_id":"4","last_reported":1743250596,"current_range_meters":16400,"station_id":"ce4bhgh2rcd13ifvqfa0","pricing_plan_id":"cebpf4jnsgd1na2vs0mg"},{"bike_id":"3197e46e-48f3-477e-ac54-c516b8c9b28a","system_id":"levelo_inurba_marseille","lat":43.29251,"lon":5.40905,"is_reserved":false,"is_disabled":false,"rental_uris":{"android":"levelo://app?vid=3197e46e-48f3-477e-ac54-c516b8c9b28a","ios":"levelo://app?vid=3197e46e-48f3-477e-ac54-c516b8c9b28a"},"vehicle_type_id":"4","last_reported":1743250596,"current_range_meters":16800,"station_id":"ce4bh192rcd13ifvqdc0","pricing_plan_id":"cebpf4jnsgd1na2vs0mg"},{"bike_id":"b27b83ee-bd34-494b-878e-84f69ee4ca06","system_id":"levelo_inurba_marseille","lat":43.29947,"lon":5.36552,"is_reserved":false,"is_disabled":false,"rental_uris":{"android":"levelo://app?vid=b27b83ee-bd34-494b-878e-84f69ee4ca06","ios":"levelo://app?vid=b27b83ee-bd34-494b-878e-84f69ee4ca06"},"vehicle_type_id":"4","last_reported":1743250596,"current_range_meters":16800,"station_id":"ce4bgm92rcd13ifvqbr0","pricing_plan_id":"cebpf4jnsgd1na2vs0mg"},{"bike_id":"57574d51-3863-4dfd-a480-3fb0acc908a0","system_id":"levelo_inurba_marseille","lat":43.2862,"lon":5.35109,"is_reserved":false,"is_disabled":false,"rental_uris":{"android":"levelo://app?vid=57574d51-3863-4dfd-a480-3fb0acc908a0","ios":"levelo://app?vid=57574d51-3863-4dfd-a480-3fb0acc908a0"},"vehicle_type_id":"4","last_reported":1743250596,"current_range_meters":16800,"station_id":"ce4bhch2rcd13ifvqeug","pricing_plan_id":"cebpf4jnsgd1na2vs0mg"},{"bike_id":"bfcad82b-6acc-493c-b418-93ec0bae17e4","system_id":"levelo_inurba_marseille","lat":43.32092,"lon":5.36792,"is_reserved":false,"is_disabled":false,"rental_uris":{"android":"levelo://app?vid=bfcad82b-6acc-493c-b418-93ec0bae17e4","ios":"levelo://app?vid=bfcad82b-6acc-493c-b418-93ec0bae17e4"},"vehicle_type_id":"4","last_reported":1743250596,"current_range_meters":16800,"station_id":"ce4bhrh2rcd13ifvqhug","pricing_plan_id":"cebpf4jnsgd1na2vs0mg"},{"bike_id":"59359988-faf5-47a1-b5f8-d319a6e1abfa","system_id":"levelo_inurba_marseille","lat":43.28416,"lon":5.35002,"is_reserved":false,"is_disabled":false,"rental_uris":{"android":"levelo://app?vid=59359988-faf5-47a1-b5f8-d319a6e1abfa","ios":"levelo://app?vid=59359988-faf5-47a1-b5f8-d319a6e1abfa"},"vehicle_type_id":"4","last_reported":1743250596,"current_range_meters":16800,"station_id":"ce4bhbh2rcd13ifvqepg","pricing_plan_id":"cebpf4jnsgd1na2vs0mg"},{"bike_id":"033a41c4-fd3a-44a4-9a20-65a03eb123a7","system_id":"levelo_inurba_marseille","lat":43.30105,"lon":5.39084,"is_reserved":false,"is_disabled":false,"rental_uris":{"android":"levelo://app?vid=033a41c4-fd3a-44a4-9a20-65a03eb123a7","ios":"levelo://app?vid=033a41c4-fd3a-44a4-9a20-65a03eb123a7"},"vehicle_type_id":"4","last_reported":1743250596,"current_range_meters":16400,"station_id":"ce4bh192rcd13ifvqdb0","pricing_plan_id":"cebpf4jnsgd1na2vs0mg"},{"bike_id":"490478ca-aced-4868-a60b-352834e113c5","system_id":"levelo_inurba_marseille","lat":43.28935,"lon":5.36634,"is_reserved":false,"is_disabled":false,"rental_uris":{"android":"levelo://app?vid=490478ca-aced-4868-a60b-352834e113c5","ios":"levelo://app?vid=490478ca-aced-4868-a60b-352834e113c5"},"vehicle_type_id":"4","last_reported":1743250596,"current_range_meters":16800,"station_id":"ce4bhap2rcd13ifvqek0","pricing_plan_id":"cebpf4jnsgd1na2vs0mg"},{"bike_id":"0a054900-ac8c-4b77-a7f1-aac9c1d65319","system_id":"levelo_inurba_marseille","lat":43.22932,"lon":5.35366,"is_reserved":false,"is_disabled":false,"rental_uris":{"android":"levelo://app?vid=0a054900-ac8c-4b77-a7f1-aac9c1d65319","ios":"levelo://app?vid=0a054900-ac8c-4b77-a7f1-aac9c1d65319"},"vehicle_type_id":"4","last_reported":1743250596,"current_range_meters":16800,"station_id":"cpo3532slgdg3j2ikp40","pricing_plan_id":"cebpf4jnsgd1na2vs0mg"},{"bike_id":"275bc6b6-1772-4183-a522-de0f246b39c2","system_id":"levelo_inurba_marseille","lat":43.31541,"lon":5.38816,"is_reserved":false,"is_disabled":false,"rental_uris":{"android":"levelo://app?vid=275bc6b6-1772-4183-a522-de0f246b39c2","ios":"levelo://app?vid=275bc6b6-1772-4183-a522-de0f246b39c2"},"vehicle_type_id":"4","last_reported":1743250596,"current_range_meters":17200,"station_id":"","pricing_plan_id":"cebpf4jnsgd1na2vs0mg"},{"bike_id":"46930d78-df44-4300-8074-cc003de1bd6d","system_id":"levelo_inurba_marseille","lat":43.2417,"lon":5.39715,"is_reserved":false,"is_disabled":false,"rental_uris":{"android":"levelo://app?vid=46930d78-df44-4300-8074-cc003de1bd6d","ios":"levelo://app?vid=46930d78-df44-4300-8074-cc003de1bd6d"},"vehicle_type_id":"4","last_reported":1743250596,"current_range_meters":17200,"station_id":"ce4bhn12rcd13ifvqgpg","pricing_plan_id":"cebpf4jnsgd1na2vs0mg"},{"bike_id":"33a3b4bf-5b9b-4b1e-a7e6-5faacf7c6f5b","system_id":"levelo_inurba_marseille","lat":43.29582,"lon":5.3751,"is_reserved":false,"is_disabled":false,"rental_uris":{"android":"levelo://app?vid=33a3b4bf-5b9b-4b1e-a7e6-5faacf7c6f5b","ios":"levelo://app?vid=33a3b4bf-5b9b-4b1e-a7e6-5faacf7c6f5b"},"vehicle_type_id":"4","last_reported":1743250596,"current_range_meters":17200,"station_id":"ce4bgh92rcd13ifvqb50","pricing_plan_id":"cebpf4jnsgd1na2vs0mg"},{"bike_id":"09f58b47-5339-4645-8aea-f52a14c788a3","system_id":"levelo_inurba_marseille","lat":43.27621,"lon":5.36101,"is_reserved":false,"is_disabled":false,"rental_uris":{"android":"levelo://app?vid=09f58b47-5339-4645-8aea-f52a14c788a3","ios":"levelo://app?vid=09f58b47-5339-4645-8aea-f52a14c788a3"},"vehicle_type_id":"4","last_reported":1743250596,"current_range_meters":17200,"station_id":"ce4bgj92rcd13ifvqbe0","pricing_plan_id":"cebpf4jnsgd1na2vs0mg"},{"bike_id":"ebce0511-ff23-4e4c-bd5b-b7f7d8f16f9e","system_id":"levelo_inurba_marseille","lat":43.32334,"lon":5.40619,"is_reserved":false,"is_disabled":false,"rental_uris":{"android":"levelo://app?vid=ebce0511-ff23-4e4c-bd5b-b7f7d8f16f9e","ios":"levelo://app?vid=ebce0511-ff23-4e4c-bd5b-b7f7d8f16f9e"},"vehicle_type_id":"4","last_reported":1743250596,"current_range_meters":17200,"station_id":"ce4bhq92rcd13ifvqhjg","pricing_plan_id":"cebpf4jnsgd1na2vs0mg"},{"bike_id":"9805d1d8-e29e-42a0-9d63-f8bc2aea07c1","system_id":"levelo_inurba_marseille","lat":43.29218,"lon":5.36055,"is_reserved":false,"is_disabled":false,"rental_uris":{"android":"levelo://app?vid=9805d1d8-e29e-42a0-9d63-f8bc2aea07c1","ios":"levelo://app?vid=9805d1d8-e29e-42a0-9d63-f8bc2aea07c1"},"vehicle_type_id":"4","last_reported":1743250596,"current_range_meters":17600,"station_id":"ce4bhbh2rcd13ifvqeqg","pricing_plan_id":"cebpf4jnsgd1na2vs0mg"},{"bike_id":"ccc6c96d-a261-4484-8714-a66d774b5a25","system_id":"levelo_inurba_marseille","lat":43.31286,"lon":5.40154,"is_reserved":false,"is_disabled":false,"rental_uris":{"android":"levelo://app?vid=ccc6c96d-a261-4484-8714-a66d774b5a25","ios":"levelo://app?vid=ccc6c96d-a261-4484-8714-a66d774b5a25"},"vehicle_type_id":"4","last_reported":1743250596,"current_range_meters":17600,"station_id":"ce4bh092rcd13ifvqd30","pricing_plan_id":"cebpf4jnsgd1na2vs0mg"},{"bike_id":"1d75753c-55f2-440c-be91-9e22e04c8228","system_id":"levelo_inurba_marseille","lat":43.29633,"lon":5.40604,"is_reserved":false,"is_disabled":false,"rental_uris":{"android":"levelo://app?vid=1d75753c-55f2-440c-be91-9e22e04c8228","ios":"levelo://app?vid=1d75753c-55f2-440c-be91-9e22e04c8228"},"vehicle_type_id":"4","last_reported":1743250596,"current_range_meters":17600,"station_id":"ce4bh0h2rcd13ifvqd60","pricing_plan_id":"cebpf4jnsgd1na2vs0mg"},{"bike_id":"76859129-4009-4843-90a4-dc4d2b65271a","system_id":"levelo_inurba_marseille","lat":43.2417,"lon":5.36404,"is_reserved":false,"is_disabled":false,"rental_uris":{"android":"levelo://app?vid=76859129-4009-4843-90a4-dc4d2b65271a","ios":"levelo://app?vid=76859129-4009-4843-90a4-dc4d2b65271a"},"vehicle_type_id":"4","last_reported":1743250596,"current_range_meters":17600,"station_id":"cpo36qri1sfpv3e86is0","pricing_plan_id":"cebpf4jnsgd1na2vs0mg"},{"bike_id":"8800990b-0588-4701-9f9b-d00ff201f1bf","system_id":"levelo_inurba_marseille","lat":43.31762,"lon":5.39007,"is_reserved":false,"is_disabled":false,"rental_uris":{"android":"levelo://app?vid=8800990b-0588-4701-9f9b-d00ff201f1bf","ios":"levelo://app?vid=8800990b-0588-4701-9f9b-d00ff201f1bf"},"vehicle_type_id":"4","last_reported":1743250596,"current_range_meters":17600,"station_id":"ce4bhqp2rcd13ifvqhng","pricing_plan_id":"cebpf4jnsgd1na2vs0mg"},{"bike_id":"3f7539a9-fe9d-4bf3-a143-40a9bdd56d65","system_id":"levelo_inurba_marseille","lat":43.29555,"lon":5.42285,"is_reserved":false,"is_disabled":false,"rental_uris":{"android":"levelo://app?vid=3f7539a9-fe9d-4bf3-a143-40a9bdd56d65","ios":"levelo://app?vid=3f7539a9-fe9d-4bf3-a143-40a9bdd56d65"},"vehicle_type_id":"4","last_reported":1743250596,"current_range_meters":17600,"station_id":"ce4bhph2rcd13ifvqhdg","pricing_plan_id":"cebpf4jnsgd1na2vs0mg"},{"bike_id":"0c5484cf-3222-4c0f-9222-fb8a05d18a6c","system_id":"levelo_inurba_marseille","lat":43.29605,"lon":5.38092,"is_reserved":false,"is_disabled":false,"rental_uris":{"android":"levelo://app?vid=0c5484cf-3222-4c0f-9222-fb8a05d18a6c","ios":"levelo://app?vid=0c5484cf-3222-4c0f-9222-fb8a05d18a6c"},"vehicle_type_id":"4","last_reported":1743250596,"current_range_meters":17600,"station_id":"ce4bgl12rcd13ifvqbo0","pricing_plan_id":"cebpf4jnsgd1na2vs0mg"},{"bike_id":"9de11fd2-247c-4589-b6b4-fa7390574da8","system_id":"levelo_inurba_marseille","lat":43.29231,"lon":5.36054,"is_reserved":false,"is_disabled":true,"rental_uris":{"android":"levelo://app?vid=9de11fd2-247c-4589-b6b4-fa7390574da8","ios":"levelo://app?vid=9de11fd2-247c-4589-b6b4-fa7390574da8"},"vehicle_type_id":"4","last_reported":1743250596,"current_range_meters":17600,"station_id":"ce4bhbh2rcd13ifvqeqg","pricing_plan_id":"cebpf4jnsgd1na2vs0mg"},{"bike_id":"fd0c68ce-15c9-49db-828e-64b63c838dcd","system_id":"levelo_inurba_marseille","lat":43.30167,"lon":5.38087,"is_reserved":false,"is_disabled":false,"rental_uris":{"android":"levelo://app?vid=fd0c68ce-15c9-49db-828e-64b63c838dcd","ios":"levelo://app?vid=fd0c68ce-15c9-49db-828e-64b63c838dcd"},"vehicle_type_id":"4","last_reported":1743250596,"current_range_meters":17600,"station_id":"ce4bgjp2rcd13ifvqbh0","pricing_plan_id":"cebpf4jnsgd1na2vs0mg"},{"bike_id":"ee21a3fd-7318-415f-b0d3-fb618d2c00df","system_id":"levelo_inurba_marseille","lat":43.31366,"lon":5.38499,"is_reserved":false,"is_disabled":false,"rental_uris":{"android":"levelo://app?vid=ee21a3fd-7318-415f-b0d3-fb618d2c00df","ios":"levelo://app?vid=ee21a3fd-7318-415f-b0d3-fb618d2c00df"},"vehicle_type_id":"4","last_reported":1743250596,"current_range_meters":18000,"station_id":"ce4bgt92rcd13ifvqcf0","pricing_plan_id":"cebpf4jnsgd1na2vs0mg"},{"bike_id":"1959cc84-d2d5-4b16-bac3-c017c27eb3d7","system_id":"levelo_inurba_marseille","lat":43.323628,"lon":5.367423,"is_reserved":false,"is_disabled":false,"rental_uris":{"android":"levelo://app?vid=1959cc84-d2d5-4b16-bac3-c017c27eb3d7","ios":"levelo://app?vid=1959cc84-d2d5-4b16-bac3-c017c27eb3d7"},"vehicle_type_id":"4","last_reported":1743250596,"current_range_meters":18000,"station_id":"ce4bhsh2rcd13ifvqi2g","pricing_plan_id":"cebpf4jnsgd1na2vs0mg"},{"bike_id":"01d7dabc-77d3-4639-a5aa-daef3d828a7f","system_id":"levelo_inurba_marseille","lat":43.25582,"lon":5.38236,"is_reserved":false,"is_disabled":false,"rental_uris":{"android":"levelo://app?vid=01d7dabc-77d3-4639-a5aa-daef3d828a7f","ios":"levelo://app?vid=01d7dabc-77d3-4639-a5aa-daef3d828a7f"},"vehicle_type_id":"4","last_reported":1743250596,"current_range_meters":18000,"station_id":"ce4bhih2rcd13ifvqfs0","pricing_plan_id":"cebpf4jnsgd1na2vs0mg"},{"bike_id":"2ab09a79-96f0-4af1-8978-650705035f42","system_id":"levelo_inurba_marseille","lat":43.29867,"lon":5.38928,"is_reserved":false,"is_disabled":false,"rental_uris":{"android":"levelo://app?vid=2ab09a79-96f0-4af1-8978-650705035f42","ios":"levelo://app?vid=2ab09a79-96f0-4af1-8978-650705035f42"},"vehicle_type_id":"4","last_reported":1743250596,"current_range_meters":18000,"station_id":"ce4bh392rcd13ifvqdl0","pricing_plan_id":"cebpf4jnsgd1na2vs0mg"},{"bike_id":"c2e94277-389b-4482-ae7e-0f90e44fa1e2","system_id":"levelo_inurba_marseille","lat":43.32131,"lon":5.36742,"is_reserved":false,"is_disabled":false,"rental_uris":{"android":"levelo://app?vid=c2e94277-389b-4482-ae7e-0f90e44fa1e2","ios":"levelo://app?vid=c2e94277-389b-4482-ae7e-0f90e44fa1e2"},"vehicle_type_id":"4","last_reported":1743250596,"current_range_meters":18000,"station_id":"ce4bhrh2rcd13ifvqhug","pricing_plan_id":"cebpf4jnsgd1na2vs0mg"},{"bike_id":"3ec698cd-de7e-43e4-abfe-9cb6c63c0b7b","system_id":"levelo_inurba_marseille","lat":43.23963,"lon":5.36629,"is_reserved":false,"is_disabled":false,"rental_uris":{"android":"levelo://app?vid=3ec698cd-de7e-43e4-abfe-9cb6c63c0b7b","ios":"levelo://app?vid=3ec698cd-de7e-43e4-abfe-9cb6c63c0b7b"},"vehicle_type_id":"4","last_reported":1743250596,"current_range_meters":18000,"station_id":"ce4bhi12rcd13ifvqfp0","pricing_plan_id":"cebpf4jnsgd1na2vs0mg"},{"bike_id":"2ce059fe-0226-4810-8898-f81ce47c5d0f","system_id":"levelo_inurba_marseille","lat":43.2905,"lon":5.35897,"is_reserved":false,"is_disabled":true,"rental_uris":{"android":"levelo://app?vid=2ce059fe-0226-4810-8898-f81ce47c5d0f","ios":"levelo://app?vid=2ce059fe-0226-4810-8898-f81ce47c5d0f"},"vehicle_type_id":"4","last_reported":1743250596,"current_range_meters":18000,"station_id":"ce4bha92rcd13ifvqeg0","pricing_plan_id":"cebpf4jnsgd1na2vs0mg"},{"bike_id":"8ffd5533-8dff-4454-95bf-26d00e73dfd7","system_id":"levelo_inurba_marseille","lat":43.3015,"lon":5.37428,"is_reserved":false,"is_disabled":false,"rental_uris":{"android":"levelo://app?vid=8ffd5533-8dff-4454-95bf-26d00e73dfd7","ios":"levelo://app?vid=8ffd5533-8dff-4454-95bf-26d00e73dfd7"},"vehicle_type_id":"4","last_reported":1743250596,"current_range_meters":18000,"station_id":"ce4bgs92rcd13ifvqcc0","pricing_plan_id":"cebpf4jnsgd1na2vs0mg"},