{"last_updated":1759155001,"ttl":60,"version":"2.2","data":{"bikes":[{"bike_id":"026633f2-767d-4edd-8184-ccab1bf54da8","system_id":"levelo_inurba_marseille","lat":43.28605,"lon":5.35094,"is_reserved":false,"is_disabled":false,"rental_uris":{"android":"levelo://app?vid=026633f2-767d-4edd-8184-ccab1bf54da8","ios":"levelo://app?vid=026633f2-767d-4edd-8184-ccab1bf54da8"},"vehicle_type_id":"4","last_reported":1759155001,"current_range_meters":2800,"station_id":"ce4bhch2rcd13ifvqeug","pricing_plan_id":"cebpf4jnsgd1na2vs0mg"},{"bike_id":"dcf56f09-9948-4099-bec3-c96b083f5834","system_id":"levelo_inurba_marseille","lat":43.23148,"lon":5.43714,"is_reserved":false,"is_disabled":false,"rental_uris":{"android":"levelo://app?vid=dcf56f09-9948-4099-bec3-c96b083f5834","ios":"levelo://app?vid=dcf56f09-9948-4099-bec3-c96b083f5834"},"vehicle_type_id":"4","last_reported":1759155001,"current_range_meters":2800,"station_id":"ce4bhmp2rcd13ifvqgog","pricing_plan_id":"cebpf4jnsgd1na2vs0mg"},{"bike_id":"961ba718-212d-47a2-a526-ac7057ecbf31","system_id":"levelo_inurba_marseille","lat":43.30459,"lon":5.37908,"is_reserved":false,"is_disabled":false,"rental_uris":{"android":"levelo://app?vid=961ba718-212d-47a2-a526-ac7057ecbf31","ios":"levelo://app?vid=961ba718-212d-47a2-a526-ac7057ecbf31"},"vehicle_type_id":"4","last_reported":1759155001,"current_range_meters":7200,"station_id":"ce4bgup2rcd13ifvqcn0","pricing_plan_id":"cebpf4jnsgd1na2vs0mg"},{"bike_id":"0e88fd7e-4b60-4f37-8294-5a4515cfc6e9","system_id":"levelo_inurba_marseille","lat":43.269565,"lon":5.386274,"is_reserved":false,"is_disabled":false,"rental_uris":{"android":"levelo://app?vid=0e88fd7e-4b60-4f37-8294-5a4515cfc6e9","ios":"levelo://app?vid=0e88fd7e-4b60-4f37-8294-5a4515cfc6e9"},"vehicle_type_id":"4","last_reported":1759155001,"current_range_meters":2800,"station_id":"ce4bhh92rcd13ifvqfh0","pricing_plan_id":"cebpf4jnsgd1na2vs0mg"},{"bike_id":"bff61d8d-a3ed-47e8-a908-144b57254a2e","system_id":"levelo_inurba_marseille","lat":43.26626,"lon":5.38149,"is_reserved":false,"is_disabled":false,"rental_uris":{"android":"levelo://app?vid=bff61d8d-a3ed-47e8-a908-144b57254a2e","ios":"levelo://app?vid=bff61d8d-a3ed-47e8-a908-144b57254a2e"},"vehicle_type_id":"4","last_reported":1759155001,"current_range_meters":3200,"station_id":"","pricing_plan_id":"cebpf4jnsgd1na2vs0mg"},{"bike_id":"8bca3482-a153-4ba2-bde8-e385dd63bb76","system_id":"levelo_inurba_marseille","lat":43.29901,"lon":5.43671,"is_reserved":false,"is_disabled":false,"rental_uris":{"android":"levelo://app?vid=8bca3482-a153-4ba2-bde8-e385dd63bb76","ios":"levelo://app?vid=8bca3482-a153-4ba2-bde8-e385dd63bb76"},"vehicle_type_id":"4","last_reported":1759155001,"current_range_meters":3200,"station_id":"ce4bhpp2rcd13ifvqhfg","pricing_plan_id":"cebpf4jnsgd1na2vs0mg"},{"bike_id":"934ea1ec-b7f6-49a1-9efa-287317d4eb22","system_id":"levelo_inurba_marseille","lat":43.29048,"lon":5.35914,"is_reserved":false,"is_disabled":false,"rental_uris":{"android":"levelo://app?vid=934ea1ec-b7f6-49a1-9efa-287317d4eb22","ios":"levelo://app?vid=934ea1ec-b7f6-49a1-9efa-287317d4eb22"},"vehicle_type_id":"4","last_reported":1759155001,"current_range_meters":3600,"station_id":"","pricing_plan_id":"cebpf4jnsgd1na2vs0mg"},{"bike_id":"d3f54fe5-ae8e-437f-82f4-8d3716c6cd22","system_id":"levelo_inurba_marseille","lat":43.29538,"lon":5.3855,"is_reserved":false,"is_disabled":false,"rental_uris":{"android":"levelo://app?vid=d3f54fe5-ae8e-437f-82f4-8d3716c6cd22","ios":"levelo://app?vid=d3f54fe5-ae8e-437f-82f4-8d3716c6cd22"},"vehicle_type_id":"4","last_reported":1759155001,"current_range_meters":3600,"station_id":"ce4bgih2rcd13ifvqba0","pricing_plan_id":"cebpf4jnsgd1na2vs0mg"},{"bike_id":"95aed9ab-e916-41b7-9593-8db116d28583","system_id":"levelo_inurba_marseille","lat":43.31243,"lon":5.36853,"is_reserved":false,"is_disabled":false,"rental_uris":{"android":"levelo://app?vid=95aed9ab-e916-41b7-9593-8db116d28583","ios":"levelo://app?vid=95aed9ab-e916-41b7-9593-8db116d28583"},"vehicle_type_id":"4","last_reported":1759155001,"current_range_meters":4000,"station_id":"ce4bgl92rcd13ifvqbq0","pricing_plan_id":"cebpf4jnsgd1na2vs0mg"},{"bike_id":"b913afe7-726b-474e-8d30-2e09f4a6d87a","system_id":"levelo_inurba_marseille","lat":43.27371,"lon":5.3626,"is_reserved":false,"is_disabled":false,"rental_uris":{"android":"levelo://app?vid=b913afe7-726b-474e-8d30-2e09f4a6d87a","ios":"levelo://app?vid=b913afe7-726b-474e-8d30-2e09f4a6d87a"},"vehicle_type_id":"4","last_reported":1759155001,"current_range_meters":4000,"station_id":"ce4bhbh2rcd13ifvqeo0","pricing_plan_id":"cebpf4jnsgd1na2vs0mg"},{"bike_id":"b34614a0-3989-4007-a327-8fb82764f458","system_id":"levelo_inurba_marseille","lat":43.31496,"lon":5.37288,"is_reserved":false,"is_disabled":false,"rental_uris":{"android":"levelo://app?vid=b34614a0-3989-4007-a327-8fb82764f458","ios":"levelo://app?vid=b34614a0-3989-4007-a327-8fb82764f458"},"vehicle_type_id":"4","last_reported":1759155001,"current_range_meters":4000,"station_id":"ce4bgt12rcd13ifvqcd0","pricing_plan_id":"cebpf4jnsgd1na2vs0mg"},{"bike_id":"f374d6ed-3640-4ef3-940d-2b60bf131d5c","system_id":"levelo_inurba_marseille","lat":43.29538,"lon":5.38536,"is_reserved":false,"is_disabled":false,"rental_uris":{"android":"levelo://app?vid=f374d6ed-3640-4ef3-940d-2b60bf131d5c","ios":"levelo://app?vid=f374d6ed-3640-4ef3-940d-2b60bf131d5c"},"vehicle_type_id":"4","last_reported":1759155001,"current_range_meters":4400,"station_id":"ce4bgih2rcd13ifvqba0","pricing_plan_id":"cebpf4jnsgd1na2vs0mg"},{"bike_id":"15bc1e28-f4e6-4cd4-bde7-81f767fd58ec","system_id":"levelo_inurba_marseille","lat":43.303382,"lon":5.404441,"is_reserved":false,"is_disabled":false,"rental_uris":{"android":"levelo://app?vid=15bc1e28-f4e6-4cd4-bde7-81f767fd58ec","ios":"levelo://app?vid=15bc1e28-f4e6-4cd4-bde7-81f767fd58ec"},"vehicle_type_id":"4","last_reported":1759155001,"current_range_meters":4800,"station_id":"ce4bh012rcd13ifvqd10","pricing_plan_id":"cebpf4jnsgd1na2vs0mg"},{"bike_id":"2c84ade8-5150-4877-afae-8dc8bcd46294","system_id":"levelo_inurba_marseille","lat":43.303665,"lon":5.418984,"is_reserved":false,"is_disabled":false,"rental_uris":{"android":"levelo://app?vid=2c84ade8-5150-4877-afae-8dc8bcd46294","ios":"levelo://app?vid=2c84ade8-5150-4877-afae-8dc8bcd46294"},"vehicle_type_id":"4","last_reported":1759155001,"current_range_meters":4800,"station_id":"ce4bhop2rcd13ifvqh7g","pricing_plan_id":"cebpf4jnsgd1na2vs0mg"},{"bike_id":"e775d0da-966a-4ccc-8588-238c2eeb5cd7","system_id":"levelo_inurba_marseille","lat":43.30442,"lon":5.38881,"is_reserved":false,"is_disabled":false,"rental_uris":{"android":"levelo://app?vid=e775d0da-966a-4ccc-8588-238c2eeb5cd7","ios":"levelo://app?vid=e775d0da-966a-4ccc-8588-238c2eeb5cd7"},"vehicle_type_id":"4","last_reported":1759155001,"current_range_meters":4800,"station_id":"ce4bgk12rcd13ifvqbi0","pricing_plan_id":"cebpf4jnsgd1na2vs0mg"},{"bike_id":"fea24083-ee0f-4262-8517-a269a91248b4","system_id":"levelo_inurba_marseille","lat":43.27373,"lon":5.36256,"is_reserved":false,"is_disabled":false,"rental_uris":{"android":"levelo://app?vid=fea24083-ee0f-4262-8517-a269a91248b4","ios":"levelo://app?vid=fea24083-ee0f-4262-8517-a269a91248b4"},"vehicle_type_id":"4","last_reported":1759155001,"current_range_meters":4800,"station_id":"ce4bhbh2rcd13ifvqeo0","pricing_plan_id":"cebpf4jnsgd1na2vs0mg"},{"bike_id":"582d2e95-d697-44a9-987e-d6acdbd30f1c","system_id":"levelo_inurba_marseille","lat":43.258289,"lon":5.394431,"is_reserved":false,"is_disabled":false,"rental_uris":{"android":"levelo://app?vid=582d2e95-d697-44a9-987e-d6acdbd30f1c","ios":"levelo://app?vid=582d2e95-d697-44a9-987e-d6acdbd30f1c"},"vehicle_type_id":"4","last_reported":1759155001,"current_range_meters":5600,"station_id":"ce4bhip2rcd13ifvqft0","pricing_plan_id":"cebpf4jnsgd1na2vs0mg"},{"bike_id":"846b9ad1-a37c-4e96-83a1-cfe56d80f0d2","system_id":"levelo_inurba_marseille","lat":43.262826,"lon":5.398455,"is_reserved":false,"is_disabled":false,"rental_uris":{"android":"levelo://app?vid=846b9ad1-a37c-4e96-83a1-cfe56d80f0d2","ios":"levelo://app?vid=846b9ad1-a37c-4e96-83a1-cfe56d80f0d2"},"vehicle_type_id":"4","last_reported":1759155001,"current_range_meters":5600,"station_id":"","pricing_plan_id":"cebpf4jnsgd1na2vs0mg"},{"bike_id":"26172944-106b-4b4e-9e3c-562a87d00a0c","system_id":"levelo_inurba_marseille","lat":43.290321,"lon":5.376542,"is_reserved":false,"is_disabled":false,"rental_uris":{"android":"levelo://app?vid=26172944-106b-4b4e-9e3c-562a87d00a0c","ios":"levelo://app?vid=26172944-106b-4b4e-9e3c-562a87d00a0c"},"vehicle_type_id":"4","last_reported":1759155001,"current_range_meters":5600,"station_id":"","pricing_plan_id":"cebpf4jnsgd1na2vs0mg"},{"bike_id":"27f82c42-a8f4-4c23-acc7-13c25248e6a1","system_id":"levelo_inurba_marseille","lat":43.30433,"lon":5.39747,"is_reserved":false,"is_disabled":false,"rental_uris":{"android":"levelo://app?vid=27f82c42-a8f4-4c23-acc7-13c25248e6a1","ios":"levelo://app?vid=27f82c42-a8f4-4c23-acc7-13c25248e6a1"},"vehicle_type_id":"4","last_reported":1759155001,"current_range_meters":5600,"station_id":"ce4bh092rcd13ifvqd20","pricing_plan_id":"cebpf4jnsgd1na2vs0mg"},{"bike_id":"1d988d48-4abb-4636-977c-34358db2fd33","system_id":"levelo_inurba_marseille","lat":43.30901,"lon":5.36885,"is_reserved":false,"is_disabled":false,"rental_uris":{"android":"levelo://app?vid=1d988d48-4abb-4636-977c-34358db2fd33","ios":"levelo://app?vid=1d988d48-4abb-4636-977c-34358db2fd33"},"vehicle_type_id":"4","last_reported":1759155001,"current_range_meters":6000,"station_id":"ce4bhg12rcd13ifvqf80","pricing_plan_id":"cebpf4jnsgd1na2vs0mg"},{"bike_id":"f66f97c2-a595-4360-97e9-584ba32ad36b","system_id":"levelo_inurba_marseille","lat":43.28728,"lon":5.37946,"is_reserved":false,"is_disabled":false,"rental_uris":{"android":"levelo://app?vid=f66f97c2-a595-4360-97e9-584ba32ad36b","ios":"levelo://app?vid=f66f97c2-a595-4360-97e9-584ba32ad36b"},"vehicle_type_id":"4","last_reported":1759155001,"current_range_meters":6000,"station_id":"ce4bh9p2rcd13ifvqec0","pricing_plan_id":"cebpf4jnsgd1na2vs0mg"},{"bike_id":"9be860bc-aa7b-4025-bc6b-701faec6b16e","system_id":"levelo_inurba_marseille","lat":43.33724,"lon":5.3918,"is_reserved":false,"is_disabled":false,"rental_uris":{"android":"levelo://app?vid=9be860bc-aa7b-4025-bc6b-701faec6b16e","ios":"levelo://app?vid=9be860bc-aa7b-4025-bc6b-701faec6b16e"},"vehicle_type_id":"4","last_reported":1759155001,"current_range_meters":6000,"station_id":"ce4bhr92rcd13ifvqhsg","pricing_plan_id":"cebpf4jnsgd1na2vs0mg"},{"bike_id":"d93c12f8-a97d-4098-8f52-d097a1d6f248","system_id":"levelo_inurba_marseille","lat":43.303,"lon":5.36888,"is_reserved":false,"is_disabled":false,"rental_uris":{"android":"levelo://app?vid=d93c12f8-a97d-4098-8f52-d097a1d6f248","ios":"levelo://app?vid=d93c12f8-a97d-4098-8f52-d097a1d6f248"},"vehicle_type_id":"4","last_reported":1759155001,"current_range_meters":6400,"station_id":"ce4bgqh2rcd13ifvqc5g","pricing_plan_id":"cebpf4jnsgd1na2vs0mg"},{"bike_id":"2af30900-2801-4508-ab92-b4fb1f5c19e8","system_id":"levelo_inurba_marseille","lat":43.30209,"lon":5.39462,"is_reserved":false,"is_disabled":false,"rental_uris":{"android":"levelo://app?vid=2af30900-2801-4508-ab92-b4fb1f5c19e8","ios":"levelo://app?vid=2af30900-2801-4508-ab92-b4fb1f5c19e8"},"vehicle_type_id":"4","last_reported":1759155001,"current_range_meters":6400,"station_id":"ce4bh0p2rcd13ifvqd70","pricing_plan_id":"cebpf4jnsgd1na2vs0mg"},{"bike_id":"274716e4-8a31-4bda-bdcd-24caf3e21d78","system_id":"levelo_inurba_marseille","lat":43.2656,"lon":5.37281,"is_reserved":false,"is_disabled":false,"rental_uris":{"android":"levelo://app?vid=274716e4-8a31-4bda-bdcd-24caf3e21d78","ios":"levelo://app?vid=274716e4-8a31-4bda-bdcd-24caf3e21d78"},"vehicle_type_id":"4","last_reported":1759155001,"current_range_meters":6400,"station_id":"ce4bhg12rcd13ifvqf70","pricing_plan_id":"cebpf4jnsgd1na2vs0mg"},{"bike_id":"697470c7-1e7d-47fa-9bf3-69454528a61d","system_id":"levelo_inurba_marseille","lat":43.30545,"lon":5.36759,"is_reserved":false,"is_disabled":false,"rental_uris":{"android":"levelo://app?vid=697470c7-1e7d-47fa-9bf3-69454528a61d","ios":"levelo://app?vid=697470c7-1e7d-47fa-9bf3-69454528a61d"},"vehicle_type_id":"4","last_reported":1759155001,"current_range_meters":6400,"station_id":"ce4bgrp2rcd13ifvqc9g","pricing_plan_id":"cebpf4jnsgd1na2vs0mg"},{"bike_id":"5d087a60-134c-4df2-8aab-88bbf6ad4e1a","system_id":"levelo_inurba_marseille","lat":43.23143,"lon":5.43724,"is_reserved":false,"is_disabled":false,"rental_uris":{"android":"levelo://app?vid=5d087a60-134c-4df2-8aab-88bbf6ad4e1a","ios":"levelo://app?vid=5d087a60-134c-4df2-8aab-88bbf6ad4e1a"},"vehicle_type_id":"4","last_reported":1759155001,"current_range_meters":7200,"station_id":"ce4bhmp2rcd13ifvqgog","pricing_plan_id":"cebpf4jnsgd1na2vs0mg"},{"bike_id":"fd590728-dc3e-487e-a29b-7965ef83278f","system_id":"levelo_inurba_marseille","lat":43.23198,"lon":5.35548,"is_reserved":false,"is_disabled":false,"rental_uris":{"android":"levelo://app?vid=fd590728-dc3e-487e-a29b-7965ef83278f","ios":"levelo://app?vid=fd590728-dc3e-487e-a29b-7965ef83278f"},"vehicle_type_id":"4","last_reported":1759155001,"current_range_meters":6800,"station_id":"ce4bhu92rcd13ifvqi70","pricing_plan_id":"cebpf4jnsgd1na2vs0mg"},{"bike_id":"8cdd395c-dee9-424c-a2c4-ef53971feaae","system_id":"levelo_inurba_marseille","lat":43.255,"lon":5.37649,"is_reserved":false,"is_disabled":false,"rental_uris":{"android":"levelo://app?vid=8cdd395c-dee9-424c-a2c4-ef53971feaae","ios":"levelo://app?vid=8cdd395c-dee9-424c-a2c4-ef53971feaae"},"vehicle_type_id":"4","last_reported":1759155001,"current_range_meters":7200,"station_id":"ce4bhh12rcd13ifvqff0","pricing_plan_id":"cebpf4jnsgd1na2vs0mg"},{"bike_id":"f5e6cbff-1444-43c6-835c-303354ed82ba","system_id":"levelo_inurba_marseille","lat":43.33736,"lon":5.39188,"is_reserved":false,"is_disabled":false,"rental_uris":{"android":"levelo://app?vid=f5e6cbff-1444-43c6-835c-303354ed82ba","ios":"levelo://app?vid=f5e6cbff-1444-43c6-835c-303354ed82ba"},"vehicle_type_id":"4","last_reported":1759155001,"current_range_meters":7200,"station_id":"ce4bhr92rcd13ifvqhsg","pricing_plan_id":"cebpf4jnsgd1na2vs0mg"},{"bike_id":"d16f46f5-3d43-4933-b088-bc397093924a","system_id":"levelo_inurba_marseille","lat":43.29855,"lon":5.3628,"is_reserved":false,"is_disabled":false,"rental_uris":{"android":"levelo://app?vid=d16f46f5-3d43-4933-b088-bc397093924a","ios":"levelo://app?vid=d16f46f5-3d43-4933-b088-bc397093924a"},"vehicle_type_id":"4","last_reported":1759155001,"current_range_meters":7200,"station_id":"ce4bgpp2rcd13ifvqc3g","pricing_plan_id":"cebpf4jnsgd1na2vs0mg"},{"bike_id":"8ca5ddb9-a4ec-4ae9-b34c-342ba90b12d0","system_id":"levelo_inurba_marseille","lat":43.295332,"lon":5.385481,"is_reserved":false,"is_disabled":false,"rental_uris":{"android":"levelo://app?vid=8ca5ddb9-a4ec-4ae9-b34c-342ba90b12d0","ios":"levelo://app?vid=8ca5ddb9-a4ec-4ae9-b34c-342ba90b12d0"},"vehicle_type_id":"4","last_reported":1759155001,"current_range_meters":7200,"station_id":"ce4bgih2rcd13ifvqba0","pricing_plan_id":"cebpf4jnsgd1na2vs0mg"},{"bike_id":"bc85c2b7-fb13-477a-bbd7-01f47d27e6a2","system_id":"levelo_inurba_marseille","lat":43.2319,"lon":5.35563,"is_reserved":false,"is_disabled":true,"rental_uris":{"android":"levelo://app?vid=bc85c2b7-fb13-477a-bbd7-01f47d27e6a2","ios":"levelo://app?vid=bc85c2b7-fb13-477a-bbd7-01f47d27e6a2"},"vehicle_type_id":"4","last_reported":1759155001,"current_range_meters":7200,"station_id":"ce4bhu92rcd13ifvqi70","pricing_plan_id":"cebpf4jnsgd1na2vs0mg"},{"bike_id":"9f2742bd-9c17-4e45-897a-64e54226a9b9","system_id":"levelo_inurba_marseille","lat":43.29541,"lon":5.39404,"is_reserved":false,"is_disabled":false,"rental_uris":{"android":"levelo://app?vid=9f2742bd-9c17-4e45-897a-64e54226a9b9","ios":"levelo://app?vid=9f2742bd-9c17-4e45-897a-64e54226a9b9"},"vehicle_type_id":"4","last_reported":1759155001,"current_range_meters":8000,"station_id":"ce4bh292rcd13ifvqdf0","pricing_plan_id":"cebpf4jnsgd1na2vs0mg"},{"bike_id":"c9916796-5f07-4d22-aceb-87882fb08ac5","system_id":"levelo_inurba_marseille","lat":43.30604,"lon":5.36536,"is_reserved":false,"is_disabled":false,"rental_uris":{"android":"levelo://app?vid=c9916796-5f07-4d22-aceb-87882fb08ac5","ios":"levelo://app?vid=c9916796-5f07-4d22-aceb-87882fb08ac5"},"vehicle_type_id":"4","last_reported":1759155001,"current_range_meters":8000,"station_id":"","pricing_plan_id":"cebpf4jnsgd1na2vs0mg"},{"bike_id":"8a4a8404-2223-404b-b9d6-fda388efd3eb","system_id":"levelo_inurba_marseille","lat":43.225399,"lon":5.348524,"is_reserved":false,"is_disabled":false,"rental_uris":{"android":"levelo://app?vid=8a4a8404-2223-404b-b9d6-fda388efd3eb","ios":"levelo://app?vid=8a4a8404-2223-404b-b9d6-fda388efd3eb"},"vehicle_type_id":"4","last_reported":1759155001,"current_range_meters":8000,"station_id":"","pricing_plan_id":"cebpf4jnsgd1na2vs0mg"},{"bike_id":"258ab053-1083-4ca9-a32a-1e85f085fc22","system_id":"levelo_inurba_marseille","lat":43.337444,"lon":5.374475,"is_reserved":false,"is_disabled":false,"rental_uris":{"android":"levelo://app?vid=258ab053-1083-4ca9-a32a-1e85f085fc22","ios":"levelo://app?vid=258ab053-1083-4ca9-a32a-1e85f085fc22"},"vehicle_type_id":"4","last_reported":1759155001,"current_range_meters":8000,"station_id":"","pricing_plan_id":"cebpf4jnsgd1na2vs0mg"},{"bike_id":"63d69e08-3509-4af8-8031-965df6d99e03","system_id":"levelo_inurba_marseille","lat":43.29728,"lon":5.37688,"is_reserved":false,"is_disabled":false,"rental_uris":{"android":"levelo://app?vid=63d69e08-3509-4af8-8031-965df6d99e03","ios":"levelo://app?vid=63d69e08-3509-4af8-8031-965df6d99e03"},"vehicle_type_id":"4","last_reported":1759155001,"current_range_meters":8400,"station_id":"ce4bgkh2rcd13ifvqbl0","pricing_plan_id":"cebpf4jnsgd1na2vs0mg"},{"bike_id":"83358185-dd00-4524-b934-1a75d3506b03","system_id":"levelo_inurba_marseille","lat":43.30891,"lon":5.37197,"is_reserved":false,"is_disabled":false,"rental_uris":{"android":"levelo://app?vid=83358185-dd00-4524-b934-1a75d3506b03","ios":"levelo://app?vid=83358185-dd00-4524-b934-1a75d3506b03"},"vehicle_type_id":"4","last_reported":1759155001,"current_range_meters":8400,"station_id":"ce4bguh2rcd13ifvqckg","pricing_plan_id":"cebpf4jnsgd1na2vs0mg"},{"bike_id":"5a9de3af-5e3c-4355-84dc-89b47177505d","system_id":"levelo_inurba_marseille","lat":43.28285,"lon":5.35076,"is_reserved":false,"is_disabled":false,"rental_uris":{"android":"levelo://app?vid=5a9de3af-5e3c-4355-84dc-89b47177505d","ios":"levelo://app?vid=5a9de3af-5e3c-4355-84dc-89b47177505d"},"vehicle_type_id":"4","last_reported":1759155001,"current_range_meters":8400,"station_id":"ce4bhbp2rcd13ifvqerg","pricing_plan_id":"cebpf4jnsgd1na2vs0mg"},{"bike_id":"6eeea41b-aa60-4f14-a3fb-55ba3b641da2","system_id":"levelo_inurba_marseille","lat":43.29877,"lon":5.3889,"is_reserved":false,"is_disabled":true,"rental_uris":{"android":"levelo://app?vid=6eeea41b-aa60-4f14-a3fb-55ba3b641da2","ios":"levelo://app?vid=6eeea41b-aa60-4f14-a3fb-55ba3b641da2"},"vehicle_type_id":"4","last_reported":1759155001,"current_range_meters":8400,"station_id":"ce4bh392rcd13ifvqdl0","pricing_plan_id":"cebpf4jnsgd1na2vs0mg"},{"bike_id":"8b353c9e-13c5-42ee-a76f-ccbd6269a3dc","system_id":"levelo_inurba_marseille","lat":43.30424,"lon":5.366666,"is_reserved":false,"is_disabled":false,"rental_uris":{"android":"levelo://app?vid=8b353c9e-13c5-42ee-a76f-ccbd6269a3dc","ios":"levelo://app?vid=8b353c9e-13c5-42ee-a76f-ccbd6269a3dc"},"vehicle_type_id":"4","last_reported":1759155001,"current_range_meters":8800,"station_id":"","pricing_plan_id":"cebpf4jnsgd1na2vs0mg"},{"bike_id":"2c6518be-b3f0-42d2-93c9-c1de9e54885f","system_id":"levelo_inurba_marseille","lat":43.29227,"lon":5.38219,"is_reserved":false,"is_disabled":false,"rental_uris":{"android":"levelo://app?vid=2c6518be-b3f0-42d2-93c9-c1de9e54885f","ios":"levelo://app?vid=2c6518be-b3f0-42d2-93c9-c1de9e54885f"},"vehicle_type_id":"4","last_reported":1759155001,"current_range_meters":8800,"station_id":"","pricing_plan_id":"cebpf4jnsgd1na2vs0mg"},{"bike_id":"a355cdbb-9f8c-4ba7-a067-d2718a63e18a","system_id":"levelo_inurba_marseille","lat":43.33613,"lon":5.41038,"is_reserved":false,"is_disabled":false,"rental_uris":{"android":"levelo://app?vid=a355cdbb-9f8c-4ba7-a067-d2718a63e18a","ios":"levelo://app?vid=a355cdbb-9f8c-4ba7-a067-d2718a63e18a"},"vehicle_type_id":"4","last_reported":1759155001,"current_range_meters":8800,"station_id":"ce4bhqh2rcd13ifvqhmg","pricing_plan_id":"cebpf4jnsgd1na2vs0mg"},{"bike_id":"c464e7d7-4c9a-4ce0-8532-fd7dcf30d56c","system_id":"levelo_inurba_marseille","lat":43.30892,"lon":5.39645,"is_reserved":false,"is_disabled":false,"rental_uris":{"android":"levelo://app?vid=c464e7d7-4c9a-4ce0-8532-fd7dcf30d56c","ios":"levelo://app?vid=c464e7d7-4c9a-4ce0-8532-fd7dcf30d56c"},"vehicle_type_id":"4","last_reported":1759155001,"current_range_meters":8800,"station_id":"ce4bh012rcd13ifvqcv0","pricing_plan_id":"cebpf4jnsgd1na2vs0mg"},{"bike_id":"ee96a502-9b76-492e-840a-498b02aefe72","system_id":"levelo_inurba_marseille","lat":43.32355,"lon":5.39217,"is_reserved":false,"is_disabled":false,"rental_uris":{"android":"levelo://app?vid=ee96a502-9b76-492e-840a-498b02aefe72","ios":"levelo://app?vid=ee96a502-9b76-492e-840a-498b02aefe72"},"vehicle_type_id":"4","last_reported":1759155001,"current_range_meters":8800,"station_id":"","pricing_plan_id":"cebpf4jnsgd1na2vs0mg"},{"bike_id":"03350417-1098-4d6c-b8fe-9e64358744bf","system_id":"levelo_inurba_marseille","lat":43.33232,"lon":5.41303,"is_reserved":false,"is_disabled":false,"rental_uris":{"android":"levelo://app?vid=03350417-1098-4d6c-b8fe-9e64358744bf","ios":"levelo://app?vid=03350417-1098-4d6c-b8fe-9e64358744bf"},"vehicle_type_id":"4","last_reported":1759155001,"current_range_meters":8800,"station_id":"","pricing_plan_id":"cebpf4jnsgd1na2vs0mg"},{"bike_id":"1dad2113-89e2-44fc-a0b6-ddd6a09baff1","system_id":"levelo_inurba_marseille","lat":43.337444,"lon":5.374475,"is_reserved":false,"is_disabled":false,"rental_uris":{"android":"levelo://app?vid=1dad2113-89e2-44fc-a0b6-ddd6a09baff1","ios":"levelo://app?vid=1dad2113-89e2-44fc-a0b6-ddd6a09baff1"},"vehicle_type_id":"4","last_reported":1759155001,"current_range_meters":8800,"station_id":"","pricing_plan_id":"cebpf4jnsgd1na2vs0mg"},{"bike_id":"e6e27dfb-44a5-49b1-85be-30ebda5a88f0","system_id":"levelo_inurba_marseille","lat":43.31876,"lon":5.39986,"is_reserved":false,"is_disabled":false,"rental_uris":{"android":"levelo://app?vid=e6e27dfb-44a5-49b1-85be-30ebda5a88f0","ios":"levelo://app?vid=e6e27dfb-44a5-49b1-85be-30ebda5a88f0"},"vehicle_type_id":"4","last_reported":1759155001,"current_range_meters":9200,"station_id":"","pricing_plan_id":"cebpf4jnsgd1na2vs0mg"},{"bike_id":"c696cc58-a84c-4c71-9e5a-e3fba60ad3ad","system_id":"levelo_inurba_marseille","lat":43.28853,"lon":5.35862,"is_reserved":false,"is_disabled":false,"rental_uris":{"android":"levelo://app?vid=c696cc58-a84c-4c71-9e5a-e3fba60ad3ad","ios":"levelo://app?vid=c696cc58-a84c-4c71-9e5a-e3fba60ad3ad"},"vehicle_type_id":"4","last_reported":1759155001,"current_range_meters":9200,"station_id":"ce4bhb12rcd13ifvqem0","pricing_plan_id":"cebpf4jnsgd1na2vs0mg"},{"bike_id":"5fe7f407-3191-4d84-bcf8-5bce6d58e56d","system_id":"levelo_inurba_marseille","lat":43.229422,"lon":5.35362,"is_reserved":false,"is_disabled":false,"rental_uris":{"android":"levelo://app?vid=5fe7f407-3191-4d84-bcf8-5bce6d58e56d","ios":"levelo://app?vid=5fe7f407-3191-4d84-bcf8-5bce6d58e56d"},"vehicle_type_id":"4","last_reported":1759155001,"current_range_meters":9200,"station_id":"cpo3532slgdg3j2ikp40","pricing_plan_id":"cebpf4jnsgd1na2vs0mg"},{"bike_id":"495d3978-63a6-4ee5-a026-0847d3aca687","system_id":"levelo_inurba_marseille","lat":43.2396,"lon":5.3664,"is_reserved":false,"is_disabled":false,"rental_uris":{"android":"levelo://app?vid=495d3978-63a6-4ee5-a026-0847d3aca687","ios":"levelo://app?vid=495d3978-63a6-4ee5-a026-0847d3aca687"},"vehicle_type_id":"4","last_reported":1759155001,"current_range_meters":9200,"station_id":"ce4bhi12rcd13ifvqfp0","pricing_plan_id":"cebpf4jnsgd1na2vs0mg"},{"bike_id":"068eb20e-fcf4-4553-b3c1-73e2696bde3c","system_id":"levelo_inurba_marseille","lat":43.3055,"lon":5.36709,"is_reserved":false,"is_disabled":false,"rental_uris":{"android":"levelo://app?vid=068eb20e-fcf4-4553-b3c1-73e2696bde3c","ios":"levelo://app?vid=068eb20e-fcf4-4553-b3c1-73e2696bde3c"},"vehicle_type_id":"4","last_reported":1759155001,"current_range_meters":9200,"station_id":"ce4bgrp2rcd13ifvqc9g","pricing_plan_id":"cebpf4jnsgd1na2vs0mg"},{"bike_id":"bd055dc4-8e3c-4a63-b319-9ba345aba77e","system_id":"levelo_inurba_marseille","lat":43.31691,"lon":5.40482,"is_reserved":false,"is_disabled":false,"rental_uris":{"android":"levelo://app?vid=bd055dc4-8e3c-4a63-b319-9ba345aba77e","ios":"levelo://app?vid=bd055dc4-8e3c-4a63-b319-9ba345aba77e"},"vehicle_type_id":"4","last_reported":1759155001,"current_range_meters":9200,"station_id":"ce4bh012rcd13ifvqd00","pricing_plan_id":"cebpf4jnsgd1na2vs0mg"},{"bike_id":"60d76fdd-4796-43cb-b2b3-b4edf1b61c33","system_id":"levelo_inurba_marseille","lat":43.282703,"lon":5.350593,"is_reserved":false,"is_disabled":false,"rental_uris":{"android":"levelo://app?vid=60d76fdd-4796-43cb-b2b3-b4edf1b61c33","ios":"levelo://app?vid=60d76fdd-4796-43cb-b2b3-b4edf1b61c33"},"vehicle_type_id":"4","last_reported":1759155001,"current_range_meters":9600,"station_id":"","pricing_plan_id":"cebpf4jnsgd1na2vs0mg"},{"bike_id":"5f2fe553-a3fb-4db8-90ec-d80c5da60c5c","system_id":"levelo_inurba_marseille","lat":43.32459,"lon":5.36573,"is_reserved":false,"is_disabled":false,"rental_uris":{"android":"levelo://app?vid=5f2fe553-a3fb-4db8-90ec-d80c5da60c5c","ios":"levelo://app?vid=5f2fe553-a3fb-4db8-90ec-d80c5da60c5c"},"vehicle_type_id":"4","last_reported":1759155001,"current_range_meters":9600,"station_id":"ce4bhs12rcd13ifvqhvg","pricing_plan_id":"cebpf4jnsgd1na2vs0mg"},{"bike_id":"603b48a8-a4ae-4222-bee8-5769d86ea9a8","system_id":"levelo_inurba_marseille","lat":43.253347,"lon":5.421789,"is_reserved":false,"is_disabled":true,"rental_uris":{"android":"levelo://app?vid=603b48a8-a4ae-4222-bee8-5769d86ea9a8","ios":"levelo://app?vid=603b48a8-a4ae-4222-bee8-5769d86ea9a8"},"vehicle_type_id":"4","last_reported":1759155001,"current_range_meters":9600,"station_id":"st_d2m65c5bi1j21697t3ng","pricing_plan_id":"cebpf4jnsgd1na2vs0mg"},{"bike_id":"0ed1c871-feca-4e62-a851-761628bd8377","system_id":"levelo_inurba_marseille","lat":43.31226,"lon":5.36847,"is_reserved":false,"is_disabled":false,"rental_uris":{"android":"levelo://app?vid=0ed1c871-feca-4e62-a851-761628bd8377","ios":"levelo://app?vid=0ed1c871-feca-4e62-a851-761628bd8377"},"vehicle_type_id":"4","last_reported":1759155001,"current_range_meters":9600,"station_id":"ce4bgl92rcd13ifvqbq0","pricing_plan_id":"cebpf4jnsgd1na2vs0mg"},{"bike_id":"e7a07ee7-ff27-4e97-adec-6f7b9b9085bf","system_id":"levelo_inurba_marseille","lat":43.28864,"lon":5.42505,"is_reserved":false,"is_disabled":false,"rental_uris":{"android":"levelo://app?vid=e7a07ee7-ff27-4e97-adec-6f7b9b9085bf","ios":"levelo://app?vid=e7a07ee7-ff27-4e97-adec-6f7b9b9085bf"},"vehicle_type_id":"4","last_reported":1759155001,"current_range_meters":9600,"station_id":"st_d3b462108ojc7389ooeg","pricing_plan_id":"cebpf4jnsgd1na2vs0mg"},{"bike_id":"088e1a77-c30c-4e14-bccd-40a5dbac1e2e","system_id":"levelo_inurba_marseille","lat":43.31356,"lon":5.36725,"is_reserved":false,"is_disabled":false,"rental_uris":{"android":"levelo://app?vid=088e1a77-c30c-4e14-bccd-40a5dbac1e2e","ios":"levelo://app?vid=088e1a77-c30c-4e14-bccd-40a5dbac1e2e"},"vehicle_type_id":"4","last_reported":1759155001,"current_range_meters":9600,"station_id":"ce4bgr92rcd13ifvqc6g","pricing_plan_id":"cebpf4jnsgd1na2vs0mg"},{"bike_id":"9a050ee0-89e6-44ca-9d8c-4c58183c637d","system_id":"levelo_inurba_marseille","lat":43.28107,"lon":5.37829,"is_reserved":false,"is_disabled":false,"rental_uris":{"android":"levelo://app?vid=9a050ee0-89e6-44ca-9d8c-4c58183c637d","ios":"levelo://app?vid=9a050ee0-89e6-44ca-9d8c-4c58183c637d"},"vehicle_type_id":"4","last_reported":1759155001,"current_range_meters":12800,"station_id":"ce4bha12rcd13ifvqee0","pricing_plan_id":"cebpf4jnsgd1na2vs0mg"},{"bike_id":"6bf09d5d-c7a1-4138-83d7-b7019a9da9d3","system_id":"levelo_inurba_marseille","lat":43.3019,"lon":5.36626,"is_reserved":false,"is_disabled":false,"rental_uris":{"android":"levelo://app?vid=6bf09d5d-c7a1-4138-83d7-b7019a9da9d3","ios":"levelo://app?vid=6bf09d5d-c7a1-4138-83d7-b7019a9da9d3"},"vehicle_type_id":"4","last_reported":1759155001,"current_range_meters":9600,"station_id":"ce4bgrh2rcd13ifvqc8g","pricing_plan_id":"cebpf4jnsgd1na2vs0mg"},{"bike_id":"f6ef943c-36b4-4936-8597-8251d2abd56d","system_id":"levelo_inurba_marseille","lat":43.29802,"lon":5.38081,"is_reserved":false,"is_disabled":false,"rental_uris":{"android":"levelo://app?vid=f6ef943c-36b4-4936-8597-8251d2abd56d","ios":"levelo://app?vid=f6ef943c-36b4-4936-8597-8251d2abd56d"},"vehicle_type_id":"4","last_reported":1759155001,"current_range_meters":10000,"station_id":"ce4bgip2rcd13ifvqbb0","pricing_plan_id":"cebpf4jnsgd1na2vs0mg"},{"bike_id":"2a80076c-3944-48b1-96b3-f2e8b18b987e","system_id":"levelo_inurba_marseille","lat":43.27963,"lon":5.41043,"is_reserved":false,"is_disabled":false,"rental_uris":{"android":"levelo://app?vid=2a80076c-3944-48b1-96b3-f2e8b18b987e","ios":"levelo://app?vid=2a80076c-3944-48b1-96b3-f2e8b18b987e"},"vehicle_type_id":"4","last_reported":1759155001,"current_range_meters":10000,"station_id":"ce4bhnp2rcd13ifvqh0g","pricing_plan_id":"cebpf4jnsgd1na2vs0mg"},{"bike_id":"d7d09523-34bb-44d2-9695-02f0abea9b47","system_id":"levelo_inurba_marseille","lat":43.29731,"lon":5.37898,"is_reserved":false,"is_disabled":false,"rental_uris":{"android":"levelo://app?vid=d7d09523-34bb-44d2-9695-02f0abea9b47","ios":"levelo://app?vid=d7d09523-34bb-44d2-9695-02f0abea9b47"},"vehicle_type_id":"4","last_reported":1759155001,"current_range_meters":10000,"station_id":"","pricing_plan_id":"cebpf4jnsgd1na2vs0mg"},{"bike_id":"35e8f722-b82a-4247-beb8-7e2827829ce6","system_id":"levelo_inurba_marseille","lat":43.32405,"lon":5.3911,"is_reserved":false,"is_disabled":false,"rental_uris":{"android":"levelo://app?vid=35e8f722-b82a-4247-beb8-7e2827829ce6","ios":"levelo://app?vid=35e8f722-b82a-4247-beb8-7e2827829ce6"},"vehicle_type_id":"4","last_reported":1759155001,"current_range_meters":10000,"station_id":"","pricing_plan_id":"cebpf4jnsgd1na2vs0mg"},{"bike_id":"e5378695-fba9-432a-9cfb-3b5b05e40fec","system_id":"levelo_inurba_marseille","lat":43.337986,"lon":5.374304,"is_reserved":false,"is_disabled":false,"rental_uris":{"android":"levelo://app?vid=e5378695-fba9-432a-9cfb-3b5b05e40fec","ios":"levelo://app?vid=e5378695-fba9-432a-9cfb-3b5b05e40fec"},"vehicle_type_id":"4","last_reported":1759155001,"current_range_meters":10000,"station_id":"","pricing_plan_id":"cebpf4jnsgd1na2vs0mg"},{"bike_id":"786ddba1-3743-4633-bb43-2f2173dd573e","system_id":"levelo_inurba_marseille","lat":43.30788,"lon":5.37636,"is_reserved":false,"is_disabled":false,"rental_uris":{"android":"levelo://app?vid=786ddba1-3743-4633-bb43-2f2173dd573e","ios":"levelo://app?vid=786ddba1-3743-4633-bb43-2f2173dd573e"},"vehicle_type_id":"4","last_reported":1759155001,"current_range_meters":10800,"station_id":"ce4bgv92rcd13ifvqcq0","pricing_plan_id":"cebpf4jnsgd1na2vs0mg"},{"bike_id":"ec021ffa-3048-49e2-80a8-645eb0241089","system_id":"levelo_inurba_marseille","lat":43.30551,"lon":5.367,"is_reserved":false,"is_disabled":false,"rental_uris":{"android":"levelo://app?vid=ec021ffa-3048-49e2-80a8-645eb0241089","ios":"levelo://app?vid=ec021ffa-3048-49e2-80a8-645eb0241089"},"vehicle_type_id":"4","last_reported":1759155001,"current_range_meters":10800,"station_id":"ce4bgrp2rcd13ifvqc9g","pricing_plan_id":"cebpf4jnsgd1na2vs0mg"},{"bike_id":"6b22fe6e-719a-4278-a146-7ca876ea5f9f","system_id":"levelo_inurba_marseille","lat":43.29852,"lon":5.36285,"is_reserved":false,"is_disabled":false,"rental_uris":{"android":"levelo://app?vid=6b22fe6e-719a-4278-a146-7ca876ea5f9f","ios":"levelo://app?vid=6b22fe6e-719a-4278-a146-7ca876ea5f9f"},"vehicle_type_id":"4","last_reported":1759155001,"current_range_meters":10800,"station_id":"ce4bgpp2rcd13ifvqc3g","pricing_plan_id":"cebpf4jnsgd1na2vs0mg"},{"bike_id":"78bd486a-f8e5-4f05-a087-5572f6dca872","system_id":"levelo_inurba_marseille","lat":43.29725,"lon":5.37695,"is_reserved":false,"is_disabled":false,"rental_uris":{"android":"levelo://app?vid=78bd486a-f8e5-4f05-a087-5572f6dca872","ios":"levelo://app?vid=78bd486a-f8e5-4f05-a087-5572f6dca872"},"vehicle_type_id":"4","last_reported":1759155001,"current_range_meters":10800,"station_id":"ce4bgkh2rcd13ifvqbl0","pricing_plan_id":"cebpf4jnsgd1na2vs0mg"},{"bike_id":"5a84f2be-e99f-41e5-90fe-f48ab59f8840","system_id":"levelo_inurba_marseille","lat":43.29853,"lon":5.36291,"is_reserved":false,"is_disabled":false,"rental_uris":{"android":"levelo://app?vid=5a84f2be-e99f-41e5-90fe-f48ab59f8840","ios":"levelo://app?vid=5a84f2be-e99f-41e5-90fe-f48ab59f8840"},"vehicle_type_id":"4","last_reported":1759155001,"current_range_meters":10800,"station_id":"ce4bgpp2rcd13ifvqc3g","pricing_plan_id":"cebpf4jnsgd1na2vs0mg"},{"bike_id":"4822dd99-56ec-44f6-a9b9-ee0ae5dcc1bf","system_id":"levelo_inurba_marseille","lat":43.30009,"lon":5.39994,"is_reserved":false,"is_disabled":false,"rental_uris":{"android":"levelo://app?vid=4822dd99-56ec-44f6-a9b9-ee0ae5dcc1bf","ios":"levelo://app?vid=4822dd99-56ec-44f6-a9b9-ee0ae5dcc1bf"},"vehicle_type_id":"4","last_reported":1759155001,"current_range_meters":10800,"station_id":"ce4bh0h2rcd13ifvqd40","pricing_plan_id":"cebpf4jnsgd1na2vs0mg"},{"bike_id":"c0403669-5703-4109-b829-6720b0fdf93d","system_id":"levelo_inurba_marseille","lat":43.30543,"lon":5.36681,"is_reserved":false,"is_disabled":false,"rental_uris":{"android":"levelo://app?vid=c0403669-5703-4109-b829-6720b0fdf93d","ios":"levelo://app?vid=c0403669-5703-4109-b829-6720b0fdf93d"},"vehicle_type_id":"4","last_reported":1759155001,"current_range_meters":10800,"station_id":"ce4bgrp2rcd13ifvqc9g","pricing_plan_id":"cebpf4jnsgd1na2vs0mg"},{"bike_id":"c74023ed-5283-4375-bfd9-df793df9a207","system_id":"levelo_inurba_marseille","lat":43.23187,"lon":5.39969,"is_reserved":false,"is_disabled":false,"rental_uris":{"android":"levelo://app?vid=c74023ed-5283-4375-bfd9-df793df9a207","ios":"levelo://app?vid=c74023ed-5283-4375-bfd9-df793df9a207"},"vehicle_type_id":"4","last_reported":1759155001,"current_range_meters":10800,"station_id":"ce4bhn12rcd13ifvqgqg","pricing_plan_id":"cebpf4jnsgd1na2vs0mg"},{"bike_id":"26b1c2fb-1052-45a9-908b-749ee8c29535","system_id":"levelo_inurba_marseille","lat":43.28,"lon":5.41662,"is_reserved":false,"is_disabled":false,"rental_uris":{"android":"levelo://app?vid=26b1c2fb-1052-45a9-908b-749ee8c29535","ios":"levelo://app?vid=26b1c2fb-1052-45a9-908b-749ee8c29535"},"vehicle_type_id":"4","last_reported":1759155001,"current_range_meters":11200,"station_id":"ce4bho12rcd13ifvqh1g","pricing_plan_id":"cebpf4jnsgd1na2vs0mg"},{"bike_id":"d6c734f5-0e13-46a8-8e3e-fda40abe4b7d","system_id":"levelo_inurba_marseille","lat":43.302139,"lon":5.394708,"is_reserved":false,"is_disabled":false,"rental_uris":{"android":"levelo://app?vid=d6c734f5-0e13-46a8-8e3e-fda40abe4b7d","ios":"levelo://app?vid=d6c734f5-0e13-46a8-8e3e-fda40abe4b7d"},"vehicle_type_id":"4","last_reported":1759155001,"current_range_meters":11200,"station_id":"ce4bhgh2rcd13ifvqfa0","pricing_plan_id":"cebpf4jnsgd1na2vs0mg"},{"bike_id":"80b98ce0-3233-47ce-84db-722943723d1e","system_id":"levelo_inurba_marseille","lat":43.269329,"lon":5.38928,"is_reserved":false,"is_disabled":false,"rental_uris":{"android":"levelo://app?vid=80b98ce0-3233-47ce-84db-722943723d1e","ios":"levelo://app?vid=80b98ce0-3233-47ce-84db-722943723d1e"},"vehicle_type_id":"4","last_reported":1759155001,"current_range_meters":11200,"station_id":"","pricing_plan_id":"cebpf4jnsgd1na2vs0mg"},{"bike_id":"bbe7bbed-fe4d-48e6-825d-caea50d64e9b","system_id":"levelo_inurba_marseille","lat":43.29302,"lon":5.37448,"is_reserved":false,"is_disabled":false,"rental_uris":{"android":"levelo://app?vid=bbe7bbed-fe4d-48e6-825d-caea50d64e9b","ios":"levelo://app?vid=bbe7bbed-fe4d-48e6-825d-caea50d64e9b"},"vehicle_type_id":"4","last_reported":1759155001,"current_range_meters":11200,"station_id":"ce4bgi12rcd13ifvqb70","pricing_plan_id":"cebpf4jnsgd1na2vs0mg"},{"bike_id":"9c4235da-d3d0-4056-aa6b-c6aa6e8e7367","system_id":"levelo_inurba_marseille","lat":43.30673,"lon":5.37517,"is_reserved":false,"is_disabled":false,"rental_uris":{"android":"levelo://app?vid=9c4235da-d3d0-4056-aa6b-c6aa6e8e7367","ios":"levelo://app?vid=9c4235da-d3d0-4056-aa6b-c6aa6e8e7367"},"vehicle_type_id":"4","last_reported":1759155001,"current_range_meters":11200,"station_id":"","pricing_plan_id":"cebpf4jnsgd1na2vs0mg"},{"bike_id":"f060d515-f268-4371-95a2-f04eea0ad05f","system_id":"levelo_inurba_marseille","lat":43.24638,"lon":5.43142,"is_reserved":false,"is_disabled":false,"rental_uris":{"android":"levelo://app?vid=f060d515-f268-4371-95a2-f04eea0ad05f","ios":"levelo://app?vid=f060d515-f268-4371-95a2-f04eea0ad05f"},"vehicle_type_id":"4","last_reported":1759155001,"current_range_meters":11200,"station_id":"st_d2m6c4gdas8pm72e190g","pricing_plan_id":"cebpf4jnsgd1na2vs0mg"},{"bike_id":"ee6406f7-9f33-4935-a835-0f3904e54bc4","system_id":"levelo_inurba_marseille","lat":43.31875,"lon":5.37317,"is_reserved":false,"is_disabled":false,"rental_uris":{"android":"levelo://app?vid=ee6406f7-9f33-4935-a835-0f3904e54bc4","ios":"levelo://app?vid=ee6406f7-9f33-4935-a835-0f3904e54bc4"},"vehicle_type_id":"4","last_reported":1759155001,"current_range_meters":11600,"station_id":"ce4bgt12rcd13ifvqcd0","pricing_plan_id":"cebpf4jnsgd1na2vs0mg"},{"bike_id":"eba888d1-633c-4ee3-904f-ab2bbe78c74c","system_id":"levelo_inurba_marseille","lat":43.31762,"lon":5.39002,"is_reserved":false,"is_disabled":false,"rental_uris":{"android":"levelo://app?vid=eba888d1-633c-4ee3-904f-ab2bbe78c74c","ios":"levelo://app?vid=eba888d1-633c-4ee3-904f-ab2bbe78c74c"},"vehicle_type_id":"4","last_reported":1759155001,"current_range_meters":11600,"station_id":"ce4bhqp2rcd13ifvqhng","pricing_plan_id":"cebpf4jnsgd1na2vs0mg"},{"bike_id":"678ae2a3-6376-41d9-85c2-7835cb1c061b","system_id":"levelo_inurba_marseille","lat":43.2886,"lon":5.42522,"is_reserved":false,"is_disabled":false,"rental_uris":{"android":"levelo://app?vid=678ae2a3-6376-41d9-85c2-7835cb1c061b","ios":"levelo://app?vid=678ae2a3-6376-41d9-85c2-7835cb1c061b"},"vehicle_type_id":"4","last_reported":1759155001,"current_range_meters":11600,"station_id":"st_d3b462108ojc7389ooeg","pricing_plan_id":"cebpf4jnsgd1na2vs0mg"},{"bike_id":"ad46e185-c9c6-4a95-bff5-01e21c80ae2e","system_id":"levelo_inurba_marseille","lat":43.312103,"lon":5.369068,"is_reserved":false,"is_disabled":false,"rental_uris":{"android":"levelo://app?vid=ad46e185-c9c6-4a95-bff5-01e21c80ae2e","ios":"levelo://app?vid=ad46e185-c9c6-4a95-bff5-01e21c80ae2e"},"vehicle_type_id":"4","last_reported":1759155001,"current_range_meters":11600,"station_id":"ce4bgl92rcd13ifvqbq0","pricing_plan_id":"cebpf4jnsgd1na2vs0mg"},{"bike_id":"ade00133-316a-486b-ad8e-40009b44a891","system_id":"levelo_inurba_marseille","lat":43.26662,"lon":5.38244,"is_reserved":false,"is_disabled":false,"rental_uris":{"android":"levelo://app?vid=ade00133-316a-486b-ad8e-40009b44a891","ios":"levelo://app?vid=ade00133-316a-486b-ad8e-40009b44a891"},"vehicle_type_id":"4","last_reported":1759155001,"current_range_meters":12000,"station_id":"ce4bhg92rcd13ifvqf90","pricing_plan_id":"cebpf4jnsgd1na2vs0mg"},{"bike_id":"8e22cf14-b2b4-4b09-90a7-6c182d85a696","system_id":"levelo_inurba_marseille","lat":43.30532,"lon":5.36698,"is_reserved":false,"is_disabled":false,"rental_uris":{"android":"levelo://app?vid=8e22cf14-b2b4-4b09-90a7-6c182d85a696","ios":"levelo://app?vid=8e22cf14-b2b4-4b09-90a7-6c182d85a696"},"vehicle_type_id":"4","last_reported":1759155001,"current_range_meters":12000,"station_id":"ce4bgrp2rcd13ifvqc9g","pricing_plan_id":"cebpf4jnsgd1na2vs0mg"},{"bike_id":"1d6c733a-7438-4dfa-888c-1d7633e8cf64","system_id":"levelo_inurba_marseille","lat":43.30885,"lon":5.39661,"is_reserved":false,"is_disabled":false,"rental_uris":{"android":"levelo://app?vid=1d6c733a-7438-4dfa-888c-1d7633e8cf64","ios":"levelo://app?vid=1d6c733a-7438-4dfa-888c-1d7633e8cf64"},"vehicle_type_id":"4","last_reported":1759155001,"current_range_meters":12000,"station_id":"ce4bh012rcd13ifvqcv0","pricing_plan_id":"cebpf4jnsgd1na2vs0mg"},{"bike_id":"ad110631-50f5-4554-92a2-58dfaca32d68","system_id":"levelo_inurba_marseille","lat":43.302849,"lon":5.365785,"is_reserved":false,"is_disabled":false,"rental_uris":{"android":"levelo://app?vid=ad110631-50f5-4554-92a2-58dfaca32d68","ios":"levelo://app?vid=ad110631-50f5-4554-92a2-58dfaca32d68"},"vehicle_type_id":"4","last_reported":1759155001,"current_range_meters":12000,"station_id":"ce4bgqh2rcd13ifvqc4g","pricing_plan_id":"cebpf4jnsgd1na2vs0mg"},{"bike_id":"689aa7ad-c748-4f68-bc34-bec6cca9cd5c","system_id":"levelo_inurba_marseille","lat":43.309025,"lon":5.381673,"is_reserved":false,"is_disabled":false,"rental_uris":{"android":"levelo://app?vid=689aa7ad-c748-4f68-bc34-bec6cca9cd5c","ios":"levelo://app?vid=689aa7ad-c748-4f68-bc34-bec6cca9cd5c"},"vehicle_type_id":"4","last_reported":1759155001,"current_range_meters":12400,"station_id":"","pricing_plan_id":"cebpf4jnsgd1na2vs0mg"},{"bike_id":"ea59b303-6900-42ad-9e79-5b0f95bedd6c","system_id":"levelo_inurba_marseille","lat":43.30422,"lon":5.3684,"is_reserved":false,"is_disabled":false,"rental_uris":{"android":"levelo://app?vid=ea59b303-6900-42ad-9e79-5b0f95bedd6c","ios":"levelo://app?vid=ea59b303-6900-42ad-9e79-5b0f95bedd6c"},"vehicle_type_id":"4","last_reported":1759155001,"current_range_meters":12400,"station_id":"","pricing_plan_id":"cebpf4jnsgd1na2vs0mg"},{"bike_id":"4d84553c-a5c1-4fbf-950a-df90b24068d4","system_id":"levelo_inurba_marseille","lat":43.295342,"lon":5.385517,"is_reserved":false,"is_disabled":false,"rental_uris":{"android":"levelo://app?vid=4d84553c-a5c1-4fbf-950a-df90b24068d4","ios":"levelo://app?vid=4d84553c-a5c1-4fbf-950a-df90b24068d4"},"vehicle_type_id":"4","last_reported":1759155001,"current_range_meters":12400,"station_id":"ce4bgih2rcd13ifvqba0","pricing_plan_id":"cebpf4jnsgd1na2vs0mg"},{"bike_id":"b05ed562-47de-470d-922d-da7545f39a3c","system_id":"levelo_inurba_marseille","lat":43.28419,"lon":5.34977,"is_reserved":false,"is_disabled":false,"rental_uris":{"android":"levelo://app?vid=b05ed562-47de-470d-922d-da7545f39a3c","ios":"levelo://app?vid=b05ed562-47de-470d-922d-da7545f39a3c"},"vehicle_type_id":"4","last_reported":1759155001,"current_range_meters":12400,"station_id":"ce4bhbh2rcd13ifvqepg","pricing_plan_id":"cebpf4jnsgd1na2vs0mg"},{"bike_id":"0eda2527-f3ce-4552-96df-04220f592c11","system_id":"levelo_inurba_marseille","lat":43.21201,"lon":5.35074,"is_reserved":false,"is_disabled":false,"rental_uris":{"android":"levelo://app?vid=0eda2527-f3ce-4552-96df-04220f592c11","ios":"levelo://app?vid=0eda2527-f3ce-4552-96df-04220f592c11"},"vehicle_type_id":"4","last_reported":1759155001,"current_range_meters":12400,"station_id":"st_cvj6sg6p6f1abm77japg","pricing_plan_id":"cebpf4jnsgd1na2vs0mg"},{"bike_id":"8c0227e3-55e8-4994-aa0c-9b6ee99b7e26","system_id":"levelo_inurba_marseille","lat":43.23049,"lon":5.35496,"is_reserved":false,"is_disabled":false,"rental_uris":{"android":"levelo://app?vid=8c0227e3-55e8-4994-aa0c-9b6ee99b7e26","ios":"levelo://app?vid=8c0227e3-55e8-4994-aa0c-9b6ee99b7e26"},"vehicle_type_id":"4","last_reported":1759155001,"current_range_meters":12800,"station_id":"cpo3342slgdg3j2ifvpg","pricing_plan_id":"cebpf4jnsgd1na2vs0mg"},{"bike_id":"9f6e05a8-289e-459a-8d07-d61ccff2db72","system_id":"levelo_inurba_marseille","lat":43.28283,"lon":5.35083,"is_reserved":false,"is_disabled":false,"rental_uris":{"android":"levelo://app?vid=9f6e05a8-289e-459a-8d07-d61ccff2db72","ios":"levelo://app?vid=9f6e05a8-289e-459a-8d07-d61ccff2db72"},"vehicle_type_id":"4","last_reported":1759155001,"current_range_meters":12800,"station_id":"ce4bhbp2rcd13ifvqerg","pricing_plan_id":"cebpf4jnsgd1na2vs0mg"},{"bike_id":"f04d4592-e6f8-4b5e-b023-0d3affa7a054","system_id":"levelo_inurba_marseille","lat":43.240871,"lon":5.366309,"is_reserved":false,"is_disabled":false,"rental_uris":{"android":"levelo://app?vid=f04d4592-e6f8-4b5e-b023-0d3affa7a054","ios":"levelo://app?vid=f04d4592-e6f8-4b5e-b023-0d3affa7a054"},"vehicle_type_id":"4","last_reported":1759155001,"current_range_meters":12800,"station_id":"ce4bhi12rcd13ifvqfp0","pricing_plan_id":"cebpf4jnsgd1na2vs0mg"},{"bike_id":"d3a8cc4b-a133-48d2-b9c8-bbccc53b963a","system_id":"levelo_inurba_marseille","lat":43.2872,"lon":5.37953,"is_reserved":false,"is_disabled":false,"rental_uris":{"android":"levelo://app?vid=d3a8cc4b-a133-48d2-b9c8-bbccc53b963a","ios":"levelo://app?vid=d3a8cc4b-a133-48d2-b9c8-bbccc53b963a"},"vehicle_type_id":"4","last_reported":1759155001,"current_range_meters":12800,"station_id":"ce4bh9p2rcd13ifvqec0","pricing_plan_id":"cebpf4jnsgd1na2vs0mg"},{"bike_id":"5bc706f5-2fff-47d7-b0c1-893539c1eb6c","system_id":"levelo_inurba_marseille","lat":43.28285,"lon":5.3508,"is_reserved":false,"is_disabled":false,"rental_uris":{"android":"levelo://app?vid=5bc706f5-2fff-47d7-b0c1-893539c1eb6c","ios":"levelo://app?vid=5bc706f5-2fff-47d7-b0c1-893539c1eb6c"},"vehicle_type_id":"4","last_reported":1759155001,"current_range_meters":12800,"station_id":"ce4bhbp2rcd13ifvqerg","pricing_plan_id":"cebpf4jnsgd1na2vs0mg"},{"bike_id":"def345bc-9a64-4646-9d19-9a83e4889853","system_id":"levelo_inurba_marseille","lat":43.23198,"lon":5.35558,"is_reserved":false,"is_disabled":false,"rental_uris":{"android":"levelo://app?vid=def345bc-9a64-4646-9d19-9a83e4889853","ios":"levelo://app?vid=def345bc-9a64-4646-9d19-9a83e4889853"},"vehicle_type_id":"4","last_reported":1759155001,"current_range_meters":12800,"station_id":"ce4bhu92rcd13ifvqi70","pricing_plan_id":"cebpf4jnsgd1na2vs0mg"},{"bike_id":"a07a513e-e5a9-4481-8592-d991379bc662","system_id":"levelo_inurba_marseille","lat":43.33735,"lon":5.37481,"is_reserved":false,"is_disabled":false,"rental_uris":{"android":"levelo://app?vid=a07a513e-e5a9-4481-8592-d991379bc662","ios":"levelo://app?vid=a07a513e-e5a9-4481-8592-d991379bc662"},"vehicle_type_id":"4","last_reported":1759155001,"current_range_meters":12800,"station_id":"","pricing_plan_id":"cebpf4jnsgd1na2vs0mg"},{"bike_id":"7dc10ae7-7366-4aef-afb3-946c513f88ef","system_id":"levelo_inurba_marseille","lat":43.27999,"lon":5.36402,"is_reserved":false,"is_disabled":false,"rental_uris":{"android":"levelo://app?vid=7dc10ae7-7366-4aef-afb3-946c513f88ef","ios":"levelo://app?vid=7dc10ae7-7366-4aef-afb3-946c513f88ef"},"vehicle_type_id":"4","last_reported":1759155001,"current_range_meters":13600,"station_id":"ce4bha12rcd13ifvqef0","pricing_plan_id":"cebpf4jnsgd1na2vs0mg"},{"bike_id":"038778e9-e2b1-4bc4-b16b-921d2862ed31","system_id":"levelo_inurba_marseille","lat":43.21752,"lon":5.346,"is_reserved":false,"is_disabled":false,"rental_uris":{"android":"levelo://app?vid=038778e9-e2b1-4bc4-b16b-921d2862ed31","ios":"levelo://app?vid=038778e9-e2b1-4bc4-b16b-921d2862ed31"},"vehicle_type_id":"4","last_reported":1759155001,"current_range_meters":13600,"station_id":"st_cvj6r9ubvosntc0bgbag","pricing_plan_id":"cebpf4jnsgd1na2vs0mg"},{"bike_id":"8c986307-df22-41f8-9c2d-42ccabc665aa","system_id":"levelo_inurba_marseille","lat":43.30193,"lon":5.36611,"is_reserved":false,"is_disabled":false,"rental_uris":{"android":"levelo://app?vid=8c986307-df22-41f8-9c2d-42ccabc665aa","ios":"levelo://app?vid=8c986307-df22-41f8-9c2d-42ccabc665aa"},"vehicle_type_id":"4","last_reported":1759155001,"current_range_meters":13600,"station_id":"ce4bgrh2rcd13ifvqc8g","pricing_plan_id":"cebpf4jnsgd1na2vs0mg"},{"bike_id":"055320a6-895c-4f00-b0fd-7cb560611640","system_id":"levelo_inurba_marseille","lat":43.27967,"lon":5.41056,"is_reserved":false,"is_disabled":false,"rental_uris":{"android":"levelo://app?vid=055320a6-895c-4f00-b0fd-7cb560611640","ios":"levelo://app?vid=055320a6-895c-4f00-b0fd-7cb560611640"},"vehicle_type_id":"4","last_reported":1759155001,"current_range_meters":13600,"station_id":"ce4bhnp2rcd13ifvqh0g","pricing_plan_id":"cebpf4jnsgd1na2vs0mg"},{"bike_id":"e9789c59-2fe2-4f51-8a64-e1d3cc3bcad5","system_id":"levelo_inurba_marseille","lat":43.26214,"lon":5.37435,"is_reserved":false,"is_disabled":false,"rental_uris":{"android":"levelo://app?vid=e9789c59-2fe2-4f51-8a64-e1d3cc3bcad5","ios":"levelo://app?vid=e9789c59-2fe2-4f51-8a64-e1d3cc3bcad5"},"vehicle_type_id":"4","last_reported":1759155001,"current_range_meters":13600,"station_id":"ce4bhgp2rcd13ifvqfc0","pricing_plan_id":"cebpf4jnsgd1na2vs0mg"},{"bike_id":"c627b34a-8e81-4438-af3b-4fd0aab1c160","system_id":"levelo_inurba_marseille","lat":43.29664,"lon":5.36004,"is_reserved":false,"is_disabled":false,"rental_uris":{"android":"levelo://app?vid=c627b34a-8e81-4438-af3b-4fd0aab1c160","ios":"levelo://app?vid=c627b34a-8e81-4438-af3b-4fd0aab1c160"},"vehicle_type_id":"4","last_reported":1759155001,"current_range_meters":13600,"station_id":"","pricing_plan_id":"cebpf4jnsgd1na2vs0mg"},{"bike_id":"80b79085-cb0c-41c3-bb00-581c09f2df1d","system_id":"levelo_inurba_marseille","lat":43.26203,"lon":5.37443,"is_reserved":false,"is_disabled":false,"rental_uris":{"android":"levelo://app?vid=80b79085-cb0c-41c3-bb00-581c09f2df1d","ios":"levelo://app?vid=80b79085-cb0c-41c3-bb00-581c09f2df1d"},"vehicle_type_id":"4","last_reported":1759155001,"current_range_meters":13600,"station_id":"ce4bhgp2rcd13ifvqfc0","pricing_plan_id":"cebpf4jnsgd1na2vs0mg"},{"bike_id":"d60dc148-253b-4625-ae0c-8c88dcdb4260","system_id":"levelo_inurba_marseille","lat":43.272127,"lon":5.391798,"is_reserved":false,"is_disabled":false,"rental_uris":{"android":"levelo://app?vid=d60dc148-253b-4625-ae0c-8c88dcdb4260","ios":"levelo://app?vid=d60dc148-253b-4625-ae0c-8c88dcdb4260"},"vehicle_type_id":"4","last_reported":1759155001,"current_range_meters":14000,"station_id":"","pricing_plan_id":"cebpf4jnsgd1na2vs0mg"},{"bike_id":"0030cf69-75f8-4719-a372-efc52bdb748a","system_id":"levelo_inurba_marseille","lat":43.328569,"lon":5.45371,"is_reserved":false,"is_disabled":false,"rental_uris":{"android":"levelo://app?vid=0030cf69-75f8-4719-a372-efc52bdb748a","ios":"levelo://app?vid=0030cf69-75f8-4719-a372-efc52bdb748a"},"vehicle_type_id":"4","last_reported":1759155001,"current_range_meters":14400,"station_id":"","pricing_plan_id":"cebpf4jnsgd1na2vs0mg"},{"bike_id":"32c39961-808b-44e8-97fa-dd1646c3e5d1","system_id":"levelo_inurba_marseille","lat":43.29597,"lon":5.38007,"is_reserved":false,"is_disabled":false,"rental_uris":{"android":"levelo://app?vid=32c39961-808b-44e8-97fa-dd1646c3e5d1","ios":"levelo://app?vid=32c39961-808b-44e8-97fa-dd1646c3e5d1"},"vehicle_type_id":"4","last_reported":1759155001,"current_range_meters":14000,"station_id":"","pricing_plan_id":"cebpf4jnsgd1na2vs0mg"},{"bike_id":"d513fa7b-8ef2-4291-bd44-cb738c0f5237","system_id":"levelo_inurba_marseille","lat":43.289401,"lon":5.366452,"is_reserved":false,"is_disabled":false,"rental_uris":{"android":"levelo://app?vid=d513fa7b-8ef2-4291-bd44-cb738c0f5237","ios":"levelo://app?vid=d513fa7b-8ef2-4291-bd44-cb738c0f5237"},"vehicle_type_id":"4","last_reported":1759155001,"current_range_meters":14000,"station_id":"ce4bhap2rcd13ifvqek0","pricing_plan_id":"cebpf4jnsgd1na2vs0mg"},{"bike_id":"a408d320-bf90-449d-ac32-8786a8647ad5","system_id":"levelo_inurba_marseille","lat":43.28266,"lon":5.35069,"is_reserved":false,"is_disabled":false,"rental_uris":{"android":"levelo://app?vid=a408d320-bf90-449d-ac32-8786a8647ad5","ios":"levelo://app?vid=a408d320-bf90-449d-ac32-8786a8647ad5"},"vehicle_type_id":"4","last_reported":1759155001,"current_range_meters":14400,"station_id":"ce4bhbp2rcd13ifvqerg","pricing_plan_id":"cebpf4jnsgd1na2vs0mg"},{"bike_id":"a9cd5665-4575-420b-bb7e-e441349a406a","system_id":"levelo_inurba_marseille","lat":43.28423,"lon":5.34988,"is_reserved":false,"is_disabled":true,"rental_uris":{"android":"levelo://app?vid=a9cd5665-4575-420b-bb7e-e441349a406a","ios":"levelo://app?vid=a9cd5665-4575-420b-bb7e-e441349a406a"},"vehicle_type_id":"4","last_reported":1759155001,"current_range_meters":14400,"station_id":"ce4bhbh2rcd13ifvqepg","pricing_plan_id":"cebpf4jnsgd1na2vs0mg"},{"bike_id":"aa123961-c527-4db0-9350-7d548f67905a","system_id":"levelo_inurba_marseille","lat":43.27946,"lon":5.38753,"is_reserved":false,"is_disabled":false,"rental_uris":{"android":"levelo://app?vid=aa123961-c527-4db0-9350-7d548f67905a","ios":"levelo://app?vid=aa123961-c527-4db0-9350-7d548f67905a"},"vehicle_type_id":"4","last_reported":1759155001,"current_range_meters":14400,"station_id":"ce4bh492rcd13ifvqdvg","pricing_plan_id":"cebpf4jnsgd1na2vs0mg"},{"bike_id":"ba1cfbb3-555c-4e6c-85db-b50e9395062e","system_id":"levelo_inurba_marseille","lat":43.246877,"lon":5.381936,"is_reserved":false,"is_disabled":false,"rental_uris":{"android":"levelo://app?vid=ba1cfbb3-555c-4e6c-85db-b50e9395062e","ios":"levelo://app?vid=ba1cfbb3-555c-4e6c-85db-b50e9395062e"},"vehicle_type_id":"4","last_reported":1759155001,"current_range_meters":14400,"station_id":"","pricing_plan_id":"cebpf4jnsgd1na2vs0mg"},{"bike_id":"7af5060d-1837-4090-8999-a19863c37d45","system_id":"levelo_inurba_marseille","lat":43.30185,"lon":5.36604,"is_reserved":false,"is_disabled":false,"rental_uris":{"android":"levelo://app?vid=7af5060d-1837-4090-8999-a19863c37d45","ios":"levelo://app?vid=7af5060d-1837-4090-8999-a19863c37d45"},"vehicle_type_id":"4","last_reported":1759155001,"current_range_meters":14400,"station_id":"ce4bgrh2rcd13ifvqc8g","pricing_plan_id":"cebpf4jnsgd1na2vs0mg"},{"bike_id":"ce5e157e-4ef2-4c41-9b3b-54d3eecbfa45","system_id":"levelo_inurba_marseille","lat":43.225355,"lon":5.348444,"is_reserved":false,"is_disabled":false,"rental_uris":{"android":"levelo://app?vid=ce5e157e-4ef2-4c41-9b3b-54d3eecbfa45","ios":"levelo://app?vid=ce5e157e-4ef2-4c41-9b3b-54d3eecbfa45"},"vehicle_type_id":"4","last_reported":1759155001,"current_range_meters":14400,"station_id":"","pricing_plan_id":"cebpf4jnsgd1na2vs0mg"},{"bike_id":"aebf0e68-ba27-412a-9ce2-11cc42127dee","system_id":"levelo_inurba_marseille","lat":43.337444,"lon":5.374475,"is_reserved":false,"is_disabled":false,"rental_uris":{"android":"levelo://app?vid=aebf0e68-ba27-412a-9ce2-11cc42127dee","ios":"levelo://app?vid=aebf0e68-ba27-412a-9ce2-11cc42127dee"},"vehicle_type_id":"4","last_reported":1759155001,"current_range_meters":14400,"station_id":"","pricing_plan_id":"cebpf4jnsgd1na2vs0mg"},{"bike_id":"19db827e-8838-40be-ba7a-1ee0d4aa85f9","system_id":"levelo_inurba_marseille","lat":43.211957,"lon":5.350723,"is_reserved":false,"is_disabled":false,"rental_uris":{"android":"levelo://app?vid=19db827e-8838-40be-ba7a-1ee0d4aa85f9","ios":"levelo://app?vid=19db827e-8838-40be-ba7a-1ee0d4aa85f9"},"vehicle_type_id":"4","last_reported":1759155001,"current_range_meters":14800,"station_id":"st_cvj6sg6p6f1abm77japg","pricing_plan_id":"cebpf4jnsgd1na2vs0mg"},{"bike_id":"385fa573-6758-43e7-a2f4-f27be30ea572","system_id":"levelo_inurba_marseille","lat":43.32105,"lon":5.36767,"is_reserved":false,"is_disabled":false,"rental_uris":{"android":"levelo://app?vid=385fa573-6758-43e7-a2f4-f27be30ea572","ios":"levelo://app?vid=385fa573-6758-43e7-a2f4-f27be30ea572"},"vehicle_type_id":"4","last_reported":1759155001,"current_range_meters":14800,"station_id":"ce4bhrh2rcd13ifvqhug","pricing_plan_id":"cebpf4jnsgd1na2vs0mg"},{"bike_id":"14a3f0a0-90f3-46d9-8d60-42e197c98c4f","system_id":"levelo_inurba_marseille","lat":43.265549,"lon":5.372832,"is_reserved":false,"is_disabled":false,"rental_uris":{"android":"levelo://app?vid=14a3f0a0-90f3-46d9-8d60-42e197c98c4f","ios":"levelo://app?vid=14a3f0a0-90f3-46d9-8d60-42e197c98c4f"},"vehicle_type_id":"4","last_reported":1759155001,"current_range_meters":14800,"station_id":"ce4bhg12rcd13ifvqf70","pricing_plan_id":"cebpf4jnsgd1na2vs0mg"},{"bike_id":"3a7da303-8550-4f15-a6ea-1ef9938a52f1","system_id":"levelo_inurba_marseille","lat":43.2781,"lon":5.40684,"is_reserved":false,"is_disabled":false,"rental_uris":{"android":"levelo://app?vid=3a7da303-8550-4f15-a6ea-1ef9938a52f1","ios":"levelo://app?vid=3a7da303-8550-4f15-a6ea-1ef9938a52f1"},"vehicle_type_id":"4","last_reported":1759155001,"current_range_meters":14800,"station_id":"ce4bhnh2rcd13ifvqgtg","pricing_plan_id":"cebpf4jnsgd1na2vs0mg"},{"bike_id":"0a8b0e4e-4151-4511-9a3e-a22258611e90","system_id":"levelo_inurba_marseille","lat":43.23967,"lon":5.36631,"is_reserved":false,"is_disabled":false,"rental_uris":{"android":"levelo://app?vid=0a8b0e4e-4151-4511-9a3e-a22258611e90","ios":"levelo://app?vid=0a8b0e4e-4151-4511-9a3e-a22258611e90"},"vehicle_type_id":"4","last_reported":1759155001,"current_range_meters":14800,"station_id":"","pricing_plan_id":"cebpf4jnsgd1na2vs0mg"},{"bike_id":"3634d4eb-e2d9-4dab-85f1-a5fe512e1c98","system_id":"levelo_inurba_marseille","lat":43.31369,"lon":5.36705,"is_reserved":false,"is_disabled":false,"rental_uris":{"android":"levelo://app?vid=3634d4eb-e2d9-4dab-85f1-a5fe512e1c98","ios":"levelo://app?vid=3634d4eb-e2d9-4dab-85f1-a5fe512e1c98"},"vehicle_type_id":"4","last_reported":1759155001,"current_range_meters":14800,"station_id":"ce4bgr92rcd13ifvqc6g","pricing_plan_id":"cebpf4jnsgd1na2vs0mg"},{"bike_id":"8cbcf5e7-b804-4925-bbed-5f57e8580ccf","system_id":"levelo_inurba_marseille","lat":43.31519,"lon":5.36803,"is_reserved":false,"is_disabled":false,"rental_uris":{"android":"levelo://app?vid=8cbcf5e7-b804-4925-bbed-5f57e8580ccf","ios":"levelo://app?vid=8cbcf5e7-b804-4925-bbed-5f57e8580ccf"},"vehicle_type_id":"4","last_reported":1759155001,"current_range_meters":14800,"station_id":"","pricing_plan_id":"cebpf4jnsgd1na2vs0mg"},{"bike_id":"56d6a008-a903-4bd5-8ee3-1cec5d05c634","system_id":"levelo_inurba_marseille","lat":43.31749,"lon":5.39024,"is_reserved":false,"is_disabled":false,"rental_uris":{"android":"levelo://app?vid=56d6a008-a903-4bd5-8ee3-1cec5d05c634","ios":"levelo://app?vid=56d6a008-a903-4bd5-8ee3-1cec5d05c634"},"vehicle_type_id":"4","last_reported":1759155001,"current_range_meters":14800,"station_id":"ce4bhqp2rcd13ifvqhng","pricing_plan_id":"cebpf4jnsgd1na2vs0mg"},{"bike_id":"9f8016d4-7cfd-4da9-98fe-979484415ac7","system_id":"levelo_inurba_marseille","lat":43.30541,"lon":5.36703,"is_reserved":false,"is_disabled":false,"rental_uris":{"android":"levelo://app?vid=9f8016d4-7cfd-4da9-98fe-979484415ac7","ios":"levelo://app?vid=9f8016d4-7cfd-4da9-98fe-979484415ac7"},"vehicle_type_id":"4","last_reported":1759155001,"current_range_meters":14800,"station_id":"ce4bgrp2rcd13ifvqc9g","pricing_plan_id":"cebpf4jnsgd1na2vs0mg"},{"bike_id":"e18b0798-8d8e-4b05-bfef-0e7a989f1f56","system_id":"levelo_inurba_marseille","lat":43.30589,"lon":5.37232,"is_reserved":false,"is_disabled":false,"rental_uris":{"android":"levelo://app?vid=e18b0798-8d8e-4b05-bfef-0e7a989f1f56","ios":"levelo://app?vid=e18b0798-8d8e-4b05-bfef-0e7a989f1f56"},"vehicle_type_id":"4","last_reported":1759155001,"current_range_meters":15200,"station_id":"ce4bgqh2rcd13ifvqc4g","pricing_plan_id":"cebpf4jnsgd1na2vs0mg"},{"bike_id":"0d9c40ec-031a-4831-b45d-0985976c931c","system_id":"levelo_inurba_marseille","lat":43.24076,"lon":5.37749,"is_reserved":false,"is_disabled":false,"rental_uris":{"android":"levelo://app?vid=0d9c40ec-031a-4831-b45d-0985976c931c","ios":"levelo://app?vid=0d9c40ec-031a-4831-b45d-0985976c931c"},"vehicle_type_id":"4","last_reported":1759155001,"current_range_meters":15200,"station_id":"ce4bhnp2rcd13ifvqgvg","pricing_plan_id":"cebpf4jnsgd1na2vs0mg"},{"bike_id":"d0b9c708-a4f1-4c58-8831-1c40289b24d4","system_id":"levelo_inurba_marseille","lat":43.341402,"lon":5.40902,"is_reserved":false,"is_disabled":false,"rental_uris":{"android":"levelo://app?vid=d0b9c708-a4f1-4c58-8831-1c40289b24d4","ios":"levelo://app?vid=d0b9c708-a4f1-4c58-8831-1c40289b24d4"},"vehicle_type_id":"4","last_reported":1759155001,"current_range_meters":15200,"station_id":"ce4bhqh2rcd13ifvqhlg","pricing_plan_id":"cebpf4jnsgd1na2vs0mg"},{"bike_id":"91658db2-d6ae-4346-bb4d-02353c95c4ab","system_id":"levelo_inurba_marseille","lat":43.2534,"lon":5.42177,"is_reserved":false,"is_disabled":false,"rental_uris":{"android":"levelo://app?vid=91658db2-d6ae-4346-bb4d-02353c95c4ab","ios":"levelo://app?vid=91658db2-d6ae-4346-bb4d-02353c95c4ab"},"vehicle_type_id":"4","last_reported":1759155001,"current_range_meters":15200,"station_id":"st_d2m65c5bi1j21697t3ng","pricing_plan_id":"cebpf4jnsgd1na2vs0mg"},{"bike_id":"0c6f233a-3f54-4c8f-9f83-bf554aac619d","system_id":"levelo_inurba_marseille","lat":43.29898,"lon":5.43668,"is_reserved":false,"is_disabled":false,"rental_uris":{"android":"levelo://app?vid=0c6f233a-3f54-4c8f-9f83-bf554aac619d","ios":"levelo://app?vid=0c6f233a-3f54-4c8f-9f83-bf554aac619d"},"vehicle_type_id":"4","last_reported":1759155001,"current_range_meters":15200,"station_id":"ce4bhpp2rcd13ifvqhfg","pricing_plan_id":"cebpf4jnsgd1na2vs0mg"},{"bike_id":"99ce2063-5dfb-4ed3-a4a6-8fc3a54c4890","system_id":"levelo_inurba_marseille","lat":43.337444,"lon":5.374475,"is_reserved":false,"is_disabled":false,"rental_uris":{"android":"levelo://app?vid=99ce2063-5dfb-4ed3-a4a6-8fc3a54c4890","ios":"levelo://app?vid=99ce2063-5dfb-4ed3-a4a6-8fc3a54c4890"},"vehicle_type_id":"4","last_reported":1759155001,"current_range_meters":15200,"station_id":"","pricing_plan_id":"cebpf4jnsgd1na2vs0mg"},{"bike_id":"7fa623df-215a-41bc-92e3-372d4d7e567c","system_id":"levelo_inurba_marseille","lat":43.26685,"lon":5.38275,"is_reserved":false,"is_disabled":false,"rental_uris":{"android":"levelo://app?vid=7fa623df-215a-41bc-92e3-372d4d7e567c","ios":"levelo://app?vid=7fa623df-215a-41bc-92e3-372d4d7e567c"},"vehicle_type_id":"4","last_reported":1759155001,"current_range_meters":16000,"station_id":"ce4bhg92rcd13ifvqf90","pricing_plan_id":"cebpf4jnsgd1na2vs0mg"},{"bike_id":"f4ad2316-8e4e-4196-ab18-e613bd6527e8","system_id":"levelo_inurba_marseille","lat":43.28954,"lon":5.3639,"is_reserved":false,"is_disabled":false,"rental_uris":{"android":"levelo://app?vid=f4ad2316-8e4e-4196-ab18-e613bd6527e8","ios":"levelo://app?vid=f4ad2316-8e4e-4196-ab18-e613bd6527e8"},"vehicle_type_id":"4","last_reported":1759155001,"current_range_meters":16000,"station_id":"ce4bhc92rcd13ifvqetg","pricing_plan_id":"cebpf4jnsgd1na2vs0mg"},{"bike_id":"78edd212-3bd8-4a45-bced-089e3907902a","system_id":"levelo_inurba_marseille","lat":43.32743,"lon":5.42372,"is_reserved":false,"is_disabled":false,"rental_uris":{"android":"levelo://app?vid=78edd212-3bd8-4a45-bced-089e3907902a","ios":"levelo://app?vid=78edd212-3bd8-4a45-bced-089e3907902a"},"vehicle_type_id":"4","last_reported":1759155001,"current_range_meters":16000,"station_id":"","pricing_plan_id":"cebpf4jnsgd1na2vs0mg"},{"bike_id":"f0d94024-ce8d-4fa5-94e5-b39b16b0fa09","system_id":"levelo_inurba_marseille","lat":43.32354,"lon":5.38888,"is_reserved":false,"is_disabled":false,"rental_uris":{"android":"levelo://app?vid=f0d94024-ce8d-4fa5-94e5-b39b16b0fa09","ios":"levelo://app?vid=f0d94024-ce8d-4fa5-94e5-b39b16b0fa09"},"vehicle_type_id":"4","last_reported":1759155001,"current_range_meters":16000,"station_id":"ce4bhqp2rcd13ifvqhog","pricing_plan_id":"cebpf4jnsgd1na2vs0mg"},{"bike_id":"8384dd5a-5cf5-4774-afff-2dd30b3b2435","system_id":"levelo_inurba_marseille","lat":43.26597,"lon":5.37333,"is_reserved":false,"is_disabled":false,"rental_uris":{"android":"levelo://app?vid=8384dd5a-5cf5-4774-afff-2dd30b3b2435","ios":"levelo://app?vid=8384dd5a-5cf5-4774-afff-2dd30b3b2435"},"vehicle_type_id":"4","last_reported":1759155001,"current_range_meters":16000,"station_id":"ce4bhg12rcd13ifvqf70","pricing_plan_id":"cebpf4jnsgd1na2vs0mg"},{"bike_id":"872b098e-8d73-4e68-9657-856be53a7655","system_id":"levelo_inurba_marseille","lat":43.309284,"lon":5.368357,"is_reserved":false,"is_disabled":false,"rental_uris":{"android":"levelo://app?vid=872b098e-8d73-4e68-9657-856be53a7655","ios":"levelo://app?vid=872b098e-8d73-4e68-9657-856be53a7655"},"vehicle_type_id":"4","last_reported":1759155001,"current_range_meters":16000,"station_id":"ce4bgn92rcd13ifvqbvg","pricing_plan_id":"cebpf4jnsgd1na2vs0mg"},{"bike_id":"7758be89-ea21-4c7d-a8ea-b4073721a3f1","system_id":"levelo_inurba_marseille","lat":43.2679,"lon":5.39411,"is_reserved":false,"is_disabled":false,"rental_uris":{"android":"levelo://app?vid=7758be89-ea21-4c7d-a8ea-b4073721a3f1","ios":"levelo://app?vid=7758be89-ea21-4c7d-a8ea-b4073721a3f1"},"vehicle_type_id":"4","last_reported":1759155001,"current_range_meters":16000,"station_id":"ce4bhh12rcd13ifvqfg0","pricing_plan_id":"cebpf4jnsgd1na2vs0mg"},{"bike_id":"072c8944-a250-4146-8017-a5fbe5e6738b","system_id":"levelo_inurba_marseille","lat":43.217534,"lon":5.345981,"is_reserved":false,"is_disabled":false,"rental_uris":{"android":"levelo://app?vid=072c8944-a250-4146-8017-a5fbe5e6738b","ios":"levelo://app?vid=072c8944-a250-4146-8017-a5fbe5e6738b"},"vehicle_type_id":"4","last_reported":1759155001,"current_range_meters":16000,"station_id":"st_cvj6r9ubvosntc0bgbag","pricing_plan_id":"cebpf4jnsgd1na2vs0mg"},{"bike_id":"05003c91-a305-4a33-a438-1d7ddd3d026b","system_id":"levelo_inurba_marseille","lat":43.253391,"lon":5.421811,"is_reserved":false,"is_disabled":false,"rental_uris":{"android":"levelo://app?vid=05003c91-a305-4a33-a438-1d7ddd3d026b","ios":"levelo://app?vid=05003c91-a305-4a33-a438-1d7ddd3d026b"},"vehicle_type_id":"4","last_reported":1759155001,"current_range_meters":16000,"station_id":"st_d2m65c5bi1j21697t3ng","pricing_plan_id":"cebpf4jnsgd1na2vs0mg"},{"bike_id":"60439a97-5dd2-4616-ad31-e3dd28bda889","system_id":"levelo_inurba_marseille","lat":43.311053,"lon":5.385775,"is_reserved":false,"is_disabled":false,"rental_uris":{"android":"levelo://app?vid=60439a97-5dd2-4616-ad31-e3dd28bda889","ios":"levelo://app?vid=60439a97-5dd2-4616-ad31-e3dd28bda889"},"vehicle_type_id":"4","last_reported":1759155001,"current_range_meters":16000,"station_id":"","pricing_plan_id":"cebpf4jnsgd1na2vs0mg"},{"bike_id":"00b3c5d5-9ad5-4872-b372-089fa3a04914","system_id":"levelo_inurba_marseille","lat":43.286376,"lon":5.354934,"is_reserved":false,"is_disabled":false,"rental_uris":{"android":"levelo://app?vid=00b3c5d5-9ad5-4872-b372-089fa3a04914","ios":"levelo://app?vid=00b3c5d5-9ad5-4872-b372-089fa3a04914"},"vehicle_type_id":"4","last_reported":1759155001,"current_range_meters":16000,"station_id":"","pricing_plan_id":"cebpf4jnsgd1na2vs0mg"},{"bike_id":"5ac9f797-6ea9-49c0-ad24-7375aba8b52d","system_id":"levelo_inurba_marseille","lat":43.29371,"lon":5.37852,"is_reserved":false,"is_disabled":false,"rental_uris":{"android":"levelo://app?vid=5ac9f797-6ea9-49c0-ad24-7375aba8b52d","ios":"levelo://app?vid=5ac9f797-6ea9-49c0-ad24-7375aba8b52d"},"vehicle_type_id":"4","last_reported":1759155001,"current_range_meters":16000,"station_id":"ce4bgjh2rcd13ifvqbf0","pricing_plan_id":"cebpf4jnsgd1na2vs0mg"},{"bike_id":"92662833-c6ac-4b02-b7df-1638b54b1972","system_id":"levelo_inurba_marseille","lat":43.33742,"lon":5.37449,"is_reserved":false,"is_disabled":false,"rental_uris":{"android":"levelo://app?vid=92662833-c6ac-4b02-b7df-1638b54b1972","ios":"levelo://app?vid=92662833-c6ac-4b02-b7df-1638b54b1972"},"vehicle_type_id":"4","last_reported":1759155001,"current_range_meters":16000,"station_id":"","pricing_plan_id":"cebpf4jnsgd1na2vs0mg"},{"bike_id":"f8d78e5f-60e1-4623-939f-49e76ff16505","system_id":"levelo_inurba_marseille","lat":43.33742,"lon":5.37448,"is_reserved":false,"is_disabled":false,"rental_uris":{"android":"levelo://app?vid=f8d78e5f-60e1-4623-939f-49e76ff16505","ios":"levelo://app?vid=f8d78e5f-60e1-4623-939f-49e76ff16505"},"vehicle_type_id":"4","last_reported":1759155001,"current_range_meters":16000,"station_id":"","pricing_plan_id":"cebpf4jnsgd1na2vs0mg"},{"bike_id":"35674f30-45d2-4192-a400-f0f8445d4437","system_id":"levelo_inurba_marseille","lat":43.31047,"lon":5.4009,"is_reserved":false,"is_disabled":false,"rental_uris":{"android":"levelo://app?vid=35674f30-45d2-4192-a400-f0f8445d4437","ios":"levelo://app?vid=35674f30-45d2-4192-a400-f0f8445d4437"},"vehicle_type_id":"4","last_reported":1759155001,"current_range_meters":16400,"station_id":"","pricing_plan_id":"cebpf4jnsgd1na2vs0mg"},{"bike_id":"892e70c6-af11-4c9f-9662-661ea36c448c","system_id":"levelo_inurba_marseille","lat":43.30544,"lon":5.36676,"is_reserved":false,"is_disabled":false,"rental_uris":{"android":"levelo://app?vid=892e70c6-af11-4c9f-9662-661ea36c448c","ios":"levelo://app?vid=892e70c6-af11-4c9f-9662-661ea36c448c"},"vehicle_type_id":"4","last_reported":1759155001,"current_range_meters":16400,"station_id":"ce4bgrp2rcd13ifvqc9g","pricing_plan_id":"cebpf4jnsgd1na2vs0mg"},{"bike_id":"b2cf005e-1bc5-4616-9e17-028539dbf7b3","system_id":"levelo_inurba_marseille","lat":43.2862,"lon":5.35106,"is_reserved":false,"is_disabled":false,"rental_uris":{"android":"levelo://app?vid=b2cf005e-1bc5-4616-9e17-028539dbf7b3","ios":"levelo://app?vid=b2cf005e-1bc5-4616-9e17-028539dbf7b3"},"vehicle_type_id":"4","last_reported":1759155001,"current_range_meters":16400,"station_id":"ce4bhch2rcd13ifvqeug","pricing_plan_id":"cebpf4jnsgd1na2vs0mg"},{"bike_id":"738a51a6-02d0-4def-8f3f-9c82f6a6dd05","system_id":"levelo_inurba_marseille","lat":43.323617,"lon":5.367425,"is_reserved":false,"is_disabled":false,"rental_uris":{"android":"levelo://app?vid=738a51a6-02d0-4def-8f3f-9c82f6a6dd05","ios":"levelo://app?vid=738a51a6-02d0-4def-8f3f-9c82f6a6dd05"},"vehicle_type_id":"4","last_reported":1759155001,"current_range_meters":16400,"station_id":"ce4bhsh2rcd13ifvqi2g","pricing_plan_id":"cebpf4jnsgd1na2vs0mg"},{"bike_id":"b262760e-f456-4908-8144-7da8a1a4a8df","system_id":"levelo_inurba_marseille","lat":43.29004,"lon":5.35619,"is_reserved":false,"is_disabled":false,"rental_uris":{"android":"levelo://app?vid=b262760e-f456-4908-8144-7da8a1a4a8df","ios":"levelo://app?vid=b262760e-f456-4908-8144-7da8a1a4a8df"},"vehicle_type_id":"4","last_reported":1759155001,"current_range_meters":16400,"station_id":"ce4bhb92rcd13ifvqen0","pricing_plan_id":"cebpf4jnsgd1na2vs0mg"},{"bike_id":"56ca0258-bee9-4eb2-b3c5-63b5cd0b9e67","system_id":"levelo_inurba_marseille","lat":43.33737,"lon":5.37445,"is_reserved":false,"is_disabled":false,"rental_uris":{"android":"levelo://app?vid=56ca0258-bee9-4eb2-b3c5-63b5cd0b9e67","ios":"levelo://app?vid=56ca0258-bee9-4eb2-b3c5-63b5cd0b9e67"},"vehicle_type_id":"4","last_reported":1759155001,"current_range_meters":16400,"station_id":"","pricing_plan_id":"cebpf4jnsgd1na2vs0mg"},{"bike_id":"30d094b1-4585-4bc7-96ac-e016ef23b639","system_id":"levelo_inurba_marseille","lat":43.301474,"lon":5.374296,"is_reserved":false,"is_disabled":false,"rental_uris":{"android":"levelo://app?vid=30d094b1-4585-4bc7-96ac-e016ef23b639","ios":"levelo://app?vid=30d094b1-4585-4bc7-96ac-e016ef23b639"},"vehicle_type_id":"4","last_reported":1759155001,"current_range_meters":16800,"station_id":"ce4bgs92rcd13ifvqcc0","pricing_plan_id":"cebpf4jnsgd1na2vs0mg"},{"bike_id":"0aba4fe3-5dca-4d79-8b9d-2fc77d6e7d70","system_id":"levelo_inurba_marseille","lat":43.28418,"lon":5.349815,"is_reserved":false,"is_disabled":false,"rental_uris":{"android":"levelo://app?vid=0aba4fe3-5dca-4d79-8b9d-2fc77d6e7d70","ios":"levelo://app?vid=0aba4fe3-5dca-4d79-8b9d-2fc77d6e7d70"},"vehicle_type_id":"4","last_reported":1759155001,"current_range_meters":16800,"station_id":"","pricing_plan_id":"cebpf4jnsgd1na2vs0mg"},{"bike_id":"849e7677-5e21-4271-87f4-9a466f88928b","system_id":"levelo_inurba_marseille","lat":43.28459,"lon":5.35895,"is_reserved":false,"is_disabled":false,"rental_uris":{"android":"levelo://app?vid=849e7677-5e21-4271-87f4-9a466f88928b","ios":"levelo://app?vid=849e7677-5e21-4271-87f4-9a466f88928b"},"vehicle_type_id":"4","last_reported":1759155001,"current_range_meters":16800,"station_id":"ce4bhah2rcd13ifvqei0","pricing_plan_id":"cebpf4jnsgd1na2vs0mg"},{"bike_id":"96520869-d013-4e0c-a355-f7bbd728ba84","system_id":"levelo_inurba_marseille","lat":43.323592,"lon":5.367646,"is_reserved":false,"is_disabled":false,"rental_uris":{"android":"levelo://app?vid=96520869-d013-4e0c-a355-f7bbd728ba84","ios":"levelo://app?vid=96520869-d013-4e0c-a355-f7bbd728ba84"},"vehicle_type_id":"4","last_reported":1759155001,"current_range_meters":16800,"station_id":"ce4bhsh2rcd13ifvqi2g","pricing_plan_id":"cebpf4jnsgd1na2vs0mg"},{"bike_id":"823968c5-6c9b-4fc4-b277-e5fcb919fdc2","system_id":"levelo_inurba_marseille","lat":43.28281,"lon":5.35078,"is_reserved":false,"is_disabled":false,"rental_uris":{"android":"levelo://app?vid=823968c5-6c9b-4fc4-b277-e5fcb919fdc2","ios":"levelo://app?vid=823968c5-6c9b-4fc4-b277-e5fcb919fdc2"},"vehicle_type_id":"4","last_reported":1759155001,"current_range_meters":16800,"station_id":"ce4bhbp2rcd13ifvqerg","pricing_plan_id":"cebpf4jnsgd1na2vs0mg"},{"bike_id":"ce0dedf7-72d7-446a-9cee-ff1ce878d75e","system_id":"levelo_inurba_marseille","lat":43.27905,"lon":5.38016,"is_reserved":false,"is_disabled":false,"rental_uris":{"android":"levelo://app?vid=ce0dedf7-72d7-446a-9cee-ff1ce878d75e","ios":"levelo://app?vid=ce0dedf7-72d7-446a-9cee-ff1ce878d75e"},"vehicle_type_id":"4","last_reported":1759155001,"current_range_meters":16800,"station_id":"ce4bhf92rcd13ifvqf50","pricing_plan_id":"cebpf4jnsgd1na2vs0mg"},{"bike_id":"ecf4eacf-b407-4a3e-a0b5-91e5903843e4","system_id":"levelo_inurba_marseille","lat":43.30555,"lon":5.36724,"is_reserved":false,"is_disabled":false,"rental_uris":{"android":"levelo://app?vid=ecf4eacf-b407-4a3e-a0b5-91e5903843e4","ios":"levelo://app?vid=ecf4eacf-b407-4a3e-a0b5-91e5903843e4"},"vehicle_type_id":"4","last_reported":1759155001,"current_range_meters":16800,"station_id":"ce4bgrp2rcd13ifvqc9g","pricing_plan_id":"cebpf4jnsgd1na2vs0mg"},{"bike_id":"9174e38a-f6c5-4657-8d7b-aa4f7ece4421","system_id":"levelo_inurba_marseille","lat":43.25334,"lon":5.42177,"is_reserved":false,"is_disabled":false,"rental_uris":{"android":"levelo://app?vid=9174e38a-f6c5-4657-8d7b-aa4f7ece4421","ios":"levelo://app?vid=9174e38a-f6c5-4657-8d7b-aa4f7ece4421"},"vehicle_type_id":"4","last_reported":1759155001,"current_range_meters":16800,"station_id":"st_d2m65c5bi1j21697t3ng","pricing_plan_id":"cebpf4jnsgd1na2vs0mg"},{"bike_id":"b80218c9-d499-4260-8b49-4c8062179b85","system_id":"levelo_inurba_marseille","lat":43.23194,"lon":5.35553,"is_reserved":false,"is_disabled":false,"rental_uris":{"android":"levelo://app?vid=b80218c9-d499-4260-8b49-4c8062179b85","ios":"levelo://app?vid=b80218c9-d499-4260-8b49-4c8062179b85"},"vehicle_type_id":"4","last_reported":1759155001,"current_range_meters":16800,"station_id":"ce4bhu92rcd13ifvqi70","pricing_plan_id":"cebpf4jnsgd1na2vs0mg"},{"bike_id":"6199221e-cb34-4ffc-a4c2-2cb3a099145c","system_id":"levelo_inurba_marseille","lat":43.23958,"lon":5.366323,"is_reserved":false,"is_disabled":false,"rental_uris":{"android":"levelo://app?vid=6199221e-cb34-4ffc-a4c2-2cb3a099145c","ios":"levelo://app?vid=6199221e-cb34-4ffc-a4c2-2cb3a099145c"},"vehicle_type_id":"4","last_reported":1759155001,"current_range_meters":17200,"station_id":"ce4bhi12rcd13ifvqfp0","pricing_plan_id":"cebpf4jnsgd1na2vs0mg"},{"bike_id":"6f316bf5-0c4d-41b9-8230-84bf4487f34f","system_id":"levelo_inurba_marseille","lat":43.23955,"lon":5.36644,"is_reserved":false,"is_disabled":false,"rental_uris":{"android":"levelo://app?vid=6f316bf5-0c4d-41b9-8230-84bf4487f34f","ios":"levelo://app?vid=6f316bf5-0c4d-41b9-8230-84bf4487f34f"},"vehicle_type_id":"4","last_reported":1759155001,"current_range_meters":17200,"station_id":"ce4bhi12rcd13ifvqfp0","pricing_plan_id":"cebpf4jnsgd1na2vs0mg"},{"bike_id":"bc1875da-bbc2-4246-b70e-c8eadcfdd1e9","system_id":"levelo_inurba_marseille","lat":43.24068,"lon":5.37749,"is_reserved":false,"is_disabled":false,"rental_uris":{"android":"levelo://app?vid=bc1875da-bbc2-4246-b70e-c8eadcfdd1e9","ios":"levelo://app?vid=bc1875da-bbc2-4246-b70e-c8eadcfdd1e9"},"vehicle_type_id":"4","last_reported":1759155001,"current_range_meters":17200,"station_id":"ce4bhnp2rcd13ifvqgvg","pricing_plan_id":"cebpf4jnsgd1na2vs0mg"},{"bike_id":"18f88a65-5f71-46d7-843e-00d23a6d9e96","system_id":"levelo_inurba_marseille","lat":43.250928,"lon":5.39526,"is_reserved":false,"is_disabled":false,"rental_uris":{"android":"levelo://app?vid=18f88a65-5f71-46d7-843e-00d23a6d9e96","ios":"levelo://app?vid=18f88a65-5f71-46d7-843e-00d23a6d9e96"},"vehicle_type_id":"4","last_reported":1759155001,"current_range_meters":17200,"station_id":"ce4bhm12rcd13ifvqgkg","pricing_plan_id":"cebpf4jnsgd1na2vs0mg"},{"bike_id":"7d360dc3-ce58-4e0b-9aae-e94865bf9dd7","system_id":"levelo_inurba_marseille","lat":43.24164,"lon":5.36391,"is_reserved":false,"is_disabled":false,"rental_uris":{"android":"levelo://app?vid=7d360dc3-ce58-4e0b-9aae-e94865bf9dd7","ios":"levelo://app?vid=7d360dc3-ce58-4e0b-9aae-e94865bf9dd7"},"vehicle_type_id":"4","last_reported":1759155001,"current_range_meters":17200,"station_id":"cpo36qri1sfpv3e86is0","pricing_plan_id":"cebpf4jnsgd1na2vs0mg"},{"bike_id":"f44df0c8-3c0a-4103-982e-900169d96e81","system_id":"levelo_inurba_marseille","lat":43.32135,"lon":5.36785,"is_reserved":false,"is_disabled":false,"rental_uris":{"android":"levelo://app?vid=f44df0c8-3c0a-4103-982e-900169d96e81","ios":"levelo://app?vid=f44df0c8-3c0a-4103-982e-900169d96e81"},"vehicle_type_id":"4","last_reported":1759155001,"current_range_meters":17200,"station_id":"","pricing_plan_id":"cebpf4jnsgd1na2vs0mg"},{"bike_id":"13604148-437a-4148-9ed9-019ca4e03ec3","system_id":"levelo_inurba_marseille","lat":43.24681,"lon":5.43099,"is_reserved":false,"is_disabled":false,"rental_uris":{"android":"levelo://app?vid=13604148-437a-4148-9ed9-019ca4e03ec3","ios":"levelo://app?vid=13604148-437a-4148-9ed9-019ca4e03ec3"},"vehicle_type_id":"4","last_reported":1759155001,"current_range_meters":17200,"station_id":"st_d2m6c4gdas8pm72e190g","pricing_plan_id":"cebpf4jnsgd1na2vs0mg"},{"bike_id":"8cdf72a1-7c51-4cb6-889a-6cf13f86cdae","system_id":"levelo_inurba_marseille","lat":43.26582,"lon":5.37262,"is_reserved":false,"is_disabled":false,"rental_uris":{"android":"levelo://app?vid=8cdf72a1-7c51-4cb6-889a-6cf13f86cdae","ios":"levelo://app?vid=8cdf72a1-7c51-4cb6-889a-6cf13f86cdae"},"vehicle_type_id":"4","last_reported":1759155001,"current_range_meters":17200,"station_id":"ce4bhg12rcd13ifvqf70","pricing_plan_id":"cebpf4jnsgd1na2vs0mg"},{"bike_id":"797689f9-404f-47ce-8502-a563ab8a5dc0","system_id":"levelo_inurba_marseille","lat":43.243931,"lon":5.370603,"is_reserved":false,"is_disabled":false,"rental_uris":{"android":"levelo://app?vid=797689f9-404f-47ce-8502-a563ab8a5dc0","ios":"levelo://app?vid=797689f9-404f-47ce-8502-a563ab8a5dc0"},"vehicle_type_id":"4","last_reported":1759155001,"current_range_meters":17600,"station_id":"ce4bhhh2rcd13ifvqfk0","pricing_plan_id":"cebpf4jnsgd1na2vs0mg"},{"bike_id":"b85bed18-5eb7-4352-b750-1a96c0b4f5b6","system_id":"levelo_inurba_marseille","lat":43.25336,"lon":5.4217,"is_reserved":false,"is_disabled":false,"rental_uris":{"android":"levelo://app?vid=b85bed18-5eb7-4352-b750-1a96c0b4f5b6","ios":"levelo://app?vid=b85bed18-5eb7-4352-b750-1a96c0b4f5b6"},"vehicle_type_id":"4","last_reported":1759155001,"current_range_meters":17600,"station_id":"st_d2m65c5bi1j21697t3ng","pricing_plan_id":"cebpf4jnsgd1na2vs0mg"},{"bike_id":"f9574d5b-4a67-43fc-9668-2c2e41a8a8b8","system_id":"levelo_inurba_marseille","lat":43.231526,"lon":5.437181,"is_reserved":false,"is_disabled":false,"rental_uris":{"android":"levelo://app?vid=f9574d5b-4a67-43fc-9668-2c2e41a8a8b8","ios":"levelo://app?vid=f9574d5b-4a67-43fc-9668-2c2e41a8a8b8"},"vehicle_type_id":"4","last_reported":1759155001,"current_range_meters":17600,"station_id":"ce4bhmp2rcd13ifvqgog","pricing_plan_id":"cebpf4jnsgd1na2vs0mg"},{"bike_id":"b1f50093-2e11-4283-86a0-13302b5a1c02","system_id":"levelo_inurba_marseille","lat":43.26029,"lon":5.37544,"is_reserved":false,"is_disabled":false,"rental_uris":{"android":"levelo://app?vid=b1f50093-2e11-4283-86a0-13302b5a1c02","ios":"levelo://app?vid=b1f50093-2e11-4283-86a0-13302b5a1c02"},"vehicle_type_id":"4","last_reported":1759155001,"current_range_meters":17600,"station_id":"ce4bhgh2rcd13ifvqfa0","pricing_plan_id":"cebpf4jnsgd1na2vs0mg"},{"bike_id":"a4c5d46e-6998-40de-acf5-3159f3df2a7a","system_id":"levelo_inurba_marseille","lat":43.27807,"lon":5.40703,"is_reserved":false,"is_disabled":false,"rental_uris":{"android":"levelo://app?vid=a4c5d46e-6998-40de-acf5-3159f3df2a7a","ios":"levelo://app?vid=a4c5d46e-6998-40de-acf5-3159f3df2a7a"},"vehicle_type_id":"4","last_reported":1759155001,"current_range_meters":17600,"station_id":"ce4bhnh2rcd13ifvqgtg","pricing_plan_id":"cebpf4jnsgd1na2vs0mg"},{"bike_id":"116445f7-1a5b-4f54-a81b-84d8ea6ecf4b","system_id":"levelo_inurba_marseille","lat":43.31169,"lon":5.38726,"is_reserved":false,"is_disabled":false,"rental_uris":{"android":"levelo://app?vid=116445f7-1a5b-4f54-a81b-84d8ea6ecf4b","ios":"levelo://app?vid=116445f7-1a5b-4f54-a81b-84d8ea6ecf4b"},"vehicle_type_id":"4","last_reported":1759155001,"current_range_meters":17600,"station_id":"ce4bgv12rcd13ifvqcp0","pricing_plan_id":"cebpf4jnsgd1na2vs0mg"},{"bike_id":"52f0823a-12f8-4380-b31f-4f20b6b5fd3e","system_id":"levelo_inurba_marseille","lat":43.28618,"lon":5.3509,"is_reserved":false,"is_disabled":false,"rental_uris":{"android":"levelo://app?vid=52f0823a-12f8-4380-b31f-4f20b6b5fd3e","ios":"levelo://app?vid=52f0823a-12f8-4380-b31f-4f20b6b5fd3e"},"vehicle_type_id":"4","last_reported":1759155001,"current_range_meters":17600,"station_id":"ce4bhch2rcd13ifvqeug","pricing_plan_id":"cebpf4jnsgd1na2vs0mg"},{"bike_id":"33c22d45-451e-4404-877b-8de38f6e4e67","system_id":"levelo_inurba_marseille","lat":43.298745,"lon":5.376558,"is_reserved":false,"is_disabled":false,"rental_uris":{"android":"levelo://app?vid=33c22d45-451e-4404-877b-8de38f6e4e67","ios":"levelo://app?vid=33c22d45-451e-4404-877b-8de38f6e4e67"},"vehicle_type_id":"4","last_reported":1759155001,"current_range_meters":17600,"station_id":"","pricing_plan_id":"cebpf4jnsgd1na2vs0mg"},{"bike_id":"1b865397-d6a8-422d-8a80-a913871ea5f1","system_id":"levelo_inurba_marseille","lat":43.28035,"lon":5.36941,"is_reserved":false,"is_disabled":false,"rental_uris":{"android":"levelo://app?vid=1b865397-d6a8-422d-8a80-a913871ea5f1","ios":"levelo://app?vid=1b865397-d6a8-422d-8a80-a913871ea5f1"},"vehicle_type_id":"4","last_reported":1759155001,"current_range_meters":17600,"station_id":"ce4bha12rcd13ifvqef0","pricing_plan_id":"cebpf4jnsgd1na2vs0mg"},{"bike_id":"211afd9f-58b0-436e-9b6b-1acbadc34392","system_id":"levelo_inurba_marseille","lat":43.3236,"lon":5.36746,"is_reserved":false,"is_disabled":false,"rental_uris":{"android":"levelo://app?vid=211afd9f-58b0-436e-9b6b-1acbadc34392","ios":"levelo://app?vid=211afd9f-58b0-436e-9b6b-1acbadc34392"},"vehicle_type_id":"4","last_reported":1759155001,"current_range_meters":17600,"station_id":"ce4bhsh2rcd13ifvqi2g","pricing_plan_id":"cebpf4jnsgd1na2vs0mg"},{"bike_id":"17bbf4dd-fba9-4826-8c7d-9be0609a6e2f","system_id":"levelo_inurba_marseille","lat":43.311406,"lon":5.377141,"is_reserved":false,"is_disabled":false,"rental_uris":{"android":"levelo://app?vid=17bbf4dd-fba9-4826-8c7d-9be0609a6e2f","ios":"levelo://app?vid=17bbf4dd-fba9-4826-8c7d-9be0609a6e2f"},"vehicle_type_id":"4","last_reported":1759155001,"current_range_meters":17600,"station_id":"","pricing_plan_id":"cebpf4jnsgd1na2vs0mg"},{"bike_id":"a5c6eb85-29a2-4a9e-bfee-0bd9b6a73c72","system_id":"levelo_inurba_marseille","lat":43.25002,"lon":5.38931,"is_reserved":false,"is_disabled":false,"rental_uris":{"android":"levelo://app?vid=a5c6eb85-29a2-4a9e-bfee-0bd9b6a73c72","ios":"levelo://app?vid=a5c6eb85-29a2-4a9e-bfee-0bd9b6a73c72"},"vehicle_type_id":"4","last_reported":1759155001,"current_range_meters":17600,"station_id":"ce4bhgp2rcd13ifvqfd0","pricing_plan_id":"cebpf4jnsgd1na2vs0mg"},{"bike_id":"d2f46c9e-a53c-42a7-ad54-fd7c896f4565","system_id":"levelo_inurba_marseille","lat":43.33797,"lon":5.37428,"is_reserved":false,"is_disabled":false,"rental_uris":{"android":"levelo://app?vid=d2f46c9e-a53c-42a7-ad54-fd7c896f4565","ios":"levelo://app?vid=d2f46c9e-a53c-42a7-ad54-fd7c896f4565"},"vehicle_type_id":"4","last_reported":1759155001,"current_range_meters":17600,"station_id":"","pricing_plan_id":"cebpf4jnsgd1na2vs0mg"},{"bike_id":"c47f5c3e-1ff3-43b7-b740-1c081ef57305","system_id":"levelo_inurba_marseille","lat":43.296089,"lon":5.377258,"is_reserved":false,"is_disabled":false,"rental_uris":{"android":"levelo://app?vid=c47f5c3e-1ff3-43b7-b740-1c081ef57305","ios":"levelo://app?vid=c47f5c3e-1ff3-43b7-b740-1c081ef57305"},"vehicle_type_id":"4","last_reported":1759155001,"current_range_meters":18000,"station_id":"","pricing_plan_id":"cebpf4jnsgd1na2vs0mg"},{"bike_id":"4a32ca82-f23b-4f1c-990f-c8e5505ca5a6","system_id":"levelo_inurba_marseille","lat":43.30135,"lon":5.37427,"is_reserved":false,"is_disabled":false,"rental_uris":{"android":"levelo://app?vid=4a32ca82-f23b-4f1c-990f-c8e5505ca5a6","ios":"levelo://app?vid=4a32ca82-f23b-4f1c-990f-c8e5505ca5a6"},"vehicle_type_id":"4","last_reported":1759155001,"current_range_meters":18000,"station_id":"ce4bgs92rcd13ifvqcc0","pricing_plan_id":"cebpf4jnsgd1na2vs0mg"},{"bike_id":"4f6c225c-2f41-4430-b894-aea1cc32d949","system_id":"levelo_inurba_marseille","lat":43.25347,"lon":5.42176,"is_reserved":false,"is_disabled":false,"rental_uris":{"android":"levelo://app?vid=4f6c225c-2f41-4430-b894-aea1cc32d949","ios":"levelo://app?vid=4f6c225c-2f41-4430-b894-aea1cc32d949"},"vehicle_type_id":"4","last_reported":1759155001,"current_range_meters":18000,"station_id":"st_d2m65c5bi1j21697t3ng","pricing_plan_id":"cebpf4jnsgd1na2vs0mg"},{"bike_id":"8ceebc6d-0454-40fb-93c4-97cf62dad637","system_id":"levelo_inurba_marseille","lat":43.29723,"lon":5.36602,"is_reserved":false,"is_disabled":false,"rental_uris":{"android":"levelo://app?vid=8ceebc6d-0454-40fb-93c4-97cf62dad637","ios":"levelo://app?vid=8ceebc6d-0454-40fb-93c4-97cf62dad637"},"vehicle_type_id":"4","last_reported":1759155001,"current_range_meters":18000,"station_id":"ce4bgn12rcd13ifvqbt0","pricing_plan_id":"cebpf4jnsgd1na2vs0mg"},{"bike_id":"7b9925d0-924c-4be5-9091-4f7b28a37957","system_id":"levelo_inurba_marseille","lat":43.29925,"lon":5.37482,"is_reserved":false,"is_disabled":false,"rental_uris":{"android":"levelo://app?vid=7b9925d0-924c-4be5-9091-4f7b28a37957","ios":"levelo://app?vid=7b9925d0-924c-4be5-9091-4f7b28a37957"},"vehicle_type_id":"4","last_reported":1759155001,"current_range_meters":18000,"station_id":"ce4bgjh2rcd13ifvqbg0","pricing_plan_id":"cebpf4jnsgd1na2vs0mg"},{"bike_id":"92367785-a16c-4f6d-b8de-dffec05164ff","system_id":"levelo_inurba_marseille","lat":43.290009,"lon":5.356149,"is_reserved":false,"is_disabled":false,"rental_uris":{"android":"levelo://app?vid=92367785-a16c-4f6d-b8de-dffec05164ff","ios":"levelo://app?vid=92367785-a16c-4f6d-b8de-dffec05164ff"},"vehicle_type_id":"4","last_reported":1759155001,"current_range_meters":18000,"station_id":"ce4bhb92rcd13ifvqen0","pricing_plan_id":"cebpf4jnsgd1na2vs0mg"},{"bike_id":"685ed666-2ba3-4869-b1ee-918ca23c0068","system_id":"levelo_inurba_marseille","lat":43.23185,"lon":5.39991,"is_reserved":false,"is_disabled":false,"rental_uris":{"android":"levelo://app?vid=685ed666-2ba3-4869-b1ee-918ca23c0068","ios":"levelo://app?vid=685ed666-2ba3-4869-b1ee-918ca23c0068"},"vehicle_type_id":"4","last_reported":1759155001,"current_range_meters":18000,"station_id":"ce4bhn12rcd13ifvqgqg","pricing_plan_id":"cebpf4jnsgd1na2vs0mg"},{"bike_id":"2ab535df-4c2c-40d8-af4f-189047a67c11","system_id":"levelo_inurba_marseille","lat":43.24646,"lon":5.43136,"is_reserved":false,"is_disabled":false,"rental_uris":{"android":"levelo://app?vid=2ab535df-4c2c-40d8-af4f-189047a67c11","ios":"levelo://app?vid=2ab535df-4c2c-40d8-af4f-189047a67c11"},"vehicle_type_id":"4","last_reported":1759155001,"current_range_meters":18000,"station_id":"st_d2m6c4gdas8pm72e190g","pricing_plan_id":"cebpf4jnsgd1na2vs0mg"},{"bike_id":"03c3eaa8-6c75-4654-b4cc-a3bd3a40459d","system_id":"levelo_inurba_marseille","lat":43.30311,"lon":5.36911,"is_reserved":false,"is_disabled":false,"rental_uris":{"android":"levelo://app?vid=03c3eaa8-6c75-4654-b4cc-a3bd3a40459d","ios":"levelo://app?vid=03c3eaa8-6c75-4654-b4cc-a3bd3a40459d"},"vehicle_type_id":"4","last_reported":1759155001,"current_range_meters":18000,"station_id":"ce4bgqh2rcd13ifvqc5g","pricing_plan_id":"cebpf4jnsgd1na2vs0mg"},{"bike_id":"970fe1e3-c1a3-4b8c-8307-e2953272dfc5","system_id":"levelo_inurba_marseille","lat":43.295399,"lon":5.375016,"is_reserved":false,"is_disabled":false,"rental_uris":{"android":"levelo://app?vid=970fe1e3-c1a3-4b8c-8307-e2953272dfc5","ios":"levelo://app?vid=970fe1e3-c1a3-4b8c-8307-e2953272dfc5"},"vehicle_type_id":"4","last_reported":1759155001,"current_range_meters":18000,"station_id":"ce4bgkp2rcd13ifvqbmg","pricing_plan_id":"cebpf4jnsgd1na2vs0mg"},{"bike_id":"63aa2455-2da3-4e9c-9e4e-54ed059c09ac","system_id":"levelo_inurba_marseille","lat":43.31589,"lon":5.38887,"is_reserved":false,"is_disabled":false,"rental_uris":{"android":"levelo://app?vid=63aa2455-2da3-4e9c-9e4e-54ed059c09ac","ios":"levelo://app?vid=63aa2455-2da3-4e9c-9e4e-54ed059c09ac"},"vehicle_type_id":"4","last_reported":1759155001,"current_range_meters":18000,"station_id":"","pricing_plan_id":"cebpf4jnsgd1na2vs0mg"},{"bike_id":"0dc0e189-1350-424c-9497-52719aa2d2d2","system_id":"levelo_inurba_marseille","lat":43.30087,"lon":5.37387,"is_reserved":false,"is_disabled":false,"rental_uris":{"android":"levelo://app?vid=0dc0e189-1350-424c-9497-52719aa2d2d2","ios":"levelo://app?vid=0dc0e189-1350-424c-9497-52719aa2d2d2"},"vehicle_type_id":"4","last_reported":1759155001,"current_range_meters":18000,"station_id":"ce4bgs92rcd13ifvqcc0","pricing_plan_id":"cebpf4jnsgd1na2vs0mg"},{"bike_id":"27cc3b5a-9adb-4fa6-81b4-3927f8b798ca","system_id":"levelo_inurba_marseille","lat":43.27814,"lon":5.35484,"is_reserved":false,"is_disabled":false,"rental_uris":{"android":"levelo://app?vid=27cc3b5a-9adb-4fa6-81b4-3927f8b798ca","ios":"levelo://app?vid=27cc3b5a-9adb-4fa6-81b4-3927f8b798ca"},"vehicle_type_id":"4","last_reported":1759155001,"current_range_meters":18000,"station_id":"","pricing_plan_id":"cebpf4jnsgd1na2vs0mg"},{"bike_id":"a29bee59-ea4f-424e-b048-900473be4ae3","system_id":"levelo_inurba_marseille","lat":43.284546,"lon":5.358773,"is_reserved":false,"is_disabled":false,"rental_uris":{"android":"levelo://app?vid=a29bee59-ea4f-424e-b048-900473be4ae3","ios":"levelo://app?vid=a29bee59-ea4f-424e-b048-900473be4ae3"},"vehicle_type_id":"4","last_reported":1759155001,"current_range_meters":18800,"station_id":"","pricing_plan_id":"cebpf4jnsgd1na2vs0mg"},{"bike_id":"f752559e-e357-41d0-b0e1-06afd32411be","system_id":"levelo_inurba_marseille","lat":43.27467,"lon":5.40784,"is_reserved":false,"is_disabled":false,"rental_uris":{"android":"levelo://app?vid=f752559e-e357-41d0-b0e1-06afd32411be","ios":"levelo://app?vid=f752559e-e357-41d0-b0e1-06afd32411be"},"vehicle_type_id":"4","last_reported":1759155001,"current_range_meters":18800,"station_id":"","pricing_plan_id":"cebpf4jnsgd1na2vs0mg"},{"bike_id":"09dc7070-767f-485c-8bab-bf9eefcad225","system_id":"levelo_inurba_marseille","lat":43.29463,"lon":5.37605,"is_reserved":false,"is_disabled":false,"rental_uris":{"android":"levelo://app?vid=09dc7070-767f-485c-8bab-bf9eefcad225","ios":"levelo://app?vid=09dc7070-767f-485c-8bab-bf9eefcad225"},"vehicle_type_id":"4","last_reported":1759155001,"current_range_meters":18800,"station_id":"","pricing_plan_id":"cebpf4jnsgd1na2vs0mg"},{"bike_id":"91266b10-5d1c-4d27-9c23-afd858f544b2","system_id":"levelo_inurba_marseille","lat":43.25696,"lon":5.41066,"is_reserved":false,"is_disabled":false,"rental_uris":{"android":"levelo://app?vid=91266b10-5d1c-4d27-9c23-afd858f544b2","ios":"levelo://app?vid=91266b10-5d1c-4d27-9c23-afd858f544b2"},"vehicle_type_id":"4","last_reported":1759155001,"current_range_meters":18800,"station_id":"ce4bhkp2rcd13ifvqgd0","pricing_plan_id":"cebpf4jnsgd1na2vs0mg"},{"bike_id":"373deafe-e898-4654-bfc7-d98ec8b4c7af","system_id":"levelo_inurba_marseille","lat":43.24163,"lon":5.3972,"is_reserved":false,"is_disabled":false,"rental_uris":{"android":"levelo://app?vid=373deafe-e898-4654-bfc7-d98ec8b4c7af","ios":"levelo://app?vid=373deafe-e898-4654-bfc7-d98ec8b4c7af"},"vehicle_type_id":"4","last_reported":1759155001,"current_range_meters":18800,"station_id":"ce4bhn12rcd13ifvqgpg","pricing_plan_id":"cebpf4jnsgd1na2vs0mg"},{"bike_id":"ab1069ec-1ad8-49f5-b846-ff2531f84f1b","system_id":"levelo_inurba_marseille","lat":43.264261,"lon":5.396153,"is_reserved":false,"is_disabled":false,"rental_uris":{"android":"levelo://app?vid=ab1069ec-1ad8-49f5-b846-ff2531f84f1b","ios":"levelo://app?vid=ab1069ec-1ad8-49f5-b846-ff2531f84f1b"},"vehicle_type_id":"4","last_reported":1759155001,"current_range_meters":18800,"station_id":"ce4bhi12rcd13ifvqfq0","pricing_plan_id":"cebpf4jnsgd1na2vs0mg"},{"bike_id":"39bfa1b6-2c12-4a69-9a9b-cee43c2c1429","system_id":"levelo_inurba_marseille","lat":43.279474,"lon":5.410467,"is_reserved":false,"is_disabled":false,"rental_uris":{"android":"levelo://app?vid=39bfa1b6-2c12-4a69-9a9b-cee43c2c1429","ios":"levelo://app?vid=39bfa1b6-2c12-4a69-9a9b-cee43c2c1429"},"vehicle_type_id":"4","last_reported":1759155001,"current_range_meters":18800,"station_id":"ce4bhnp2rcd13ifvqh0g","pricing_plan_id":"cebpf4jnsgd1na2vs0mg"},{"bike_id":"d2dec92d-ca91-4d70-86bf-2c953cea6624","system_id":"levelo_inurba_marseille","lat":43.282781,"lon":5.350534,"is_reserved":false,"is_disabled":false,"rental_uris":{"android":"levelo://app?vid=d2dec92d-ca91-4d70-86bf-2c953cea6624","ios":"levelo://app?vid=d2dec92d-ca91-4d70-86bf-2c953cea6624"},"vehicle_type_id":"4","last_reported":1759155001,"current_range_meters":18800,"station_id":"ce4bhbp2rcd13ifvqerg","pricing_plan_id":"cebpf4jnsgd1na2vs0mg"},{"bike_id":"0743fe42-1c45-4e6d-b327-29e8d52a2933","system_id":"levelo_inurba_marseille","lat":43.304545,"lon":5.397473,"is_reserved":false,"is_disabled":false,"rental_uris":{"android":"levelo://app?vid=0743fe42-1c45-4e6d-b327-29e8d52a2933","ios":"levelo://app?vid=0743fe42-1c45-4e6d-b327-29e8d52a2933"},"vehicle_type_id":"4","last_reported":1759155001,"current_range_meters":19200,"station_id":"ce4bh092rcd13ifvqd20","pricing_plan_id":"cebpf4jnsgd1na2vs0mg"},{"bike_id":"e1a8649a-07be-427d-b687-1f766dc94d96","system_id":"levelo_inurba_marseille","lat":43.24073,"lon":5.3773,"is_reserved":false,"is_disabled":false,"rental_uris":{"android":"levelo://app?vid=e1a8649a-07be-427d-b687-1f766dc94d96","ios":"levelo://app?vid=e1a8649a-07be-427d-b687-1f766dc94d96"},"vehicle_type_id":"4","last_reported":1759155001,"current_range_meters":19200,"station_id":"ce4bhnp2rcd13ifvqgvg","pricing_plan_id":"cebpf4jnsgd1na2vs0mg"},{"bike_id":"f8afd587-3630-46ac-8905-877c852298b5","system_id":"levelo_inurba_marseille","lat":43.28846,"lon":5.35864,"is_reserved":false,"is_disabled":false,"rental_uris":{"android":"levelo://app?vid=f8afd587-3630-46ac-8905-877c852298b5","ios":"levelo://app?vid=f8afd587-3630-46ac-8905-877c852298b5"},"vehicle_type_id":"4","last_reported":1759155001,"current_range_meters":19200,"station_id":"ce4bhb12rcd13ifvqem0","pricing_plan_id":"cebpf4jnsgd1na2vs0mg"},{"bike_id":"97955045-d833-4232-a13b-b18a7cc6d92a","system_id":"levelo_inurba_marseille","lat":43.24071,"lon":5.37765,"is_reserved":false,"is_disabled":false,"rental_uris":{"android":"levelo://app?vid=97955045-d833-4232-a13b-b18a7cc6d92a","ios":"levelo://app?vid=97955045-d833-4232-a13b-b18a7cc6d92a"},"vehicle_type_id":"4","last_reported":1759155001,"current_range_meters":19200,"station_id":"ce4bhnp2rcd13ifvqgvg","pricing_plan_id":"cebpf4jnsgd1na2vs0mg"},{"bike_id":"75258560-a360-4aad-af7b-0b72b4e597d3","system_id":"levelo_inurba_marseille","lat":43.29581,"lon":5.37511,"is_reserved":false,"is_disabled":false,"rental_uris":{"android":"levelo://app?vid=75258560-a360-4aad-af7b-0b72b4e597d3","ios":"levelo://app?vid=75258560-a360-4aad-af7b-0b72b4e597d3"},"vehicle_type_id":"4","last_reported":1759155001,"current_range_meters":19200,"station_id":"ce4bgh92rcd13ifvqb50","pricing_plan_id":"cebpf4jnsgd1na2vs0mg"},{"bike_id":"f68b7d49-02ac-4f81-ad83-aae3df0156e8","system_id":"levelo_inurba_marseille","lat":43.295166,"lon":5.389083,"is_reserved":false,"is_disabled":false,"rental_uris":{"android":"levelo://app?vid=f68b7d49-02ac-4f81-ad83-aae3df0156e8","ios":"levelo://app?vid=f68b7d49-02ac-4f81-ad83-aae3df0156e8"},"vehicle_type_id":"4","last_reported":1759155001,"current_range_meters":19600,"station_id":"ce4bh3p2rcd13ifvqdp0","pricing_plan_id":"cebpf4jnsgd1na2vs0mg"},{"bike_id":"617dca4b-4508-4d52-9e62-d583d919ac44","system_id":"levelo_inurba_marseille","lat":43.297442,"lon":5.37116,"is_reserved":false,"is_disabled":false,"rental_uris":{"android":"levelo://app?vid=617dca4b-4508-4d52-9e62-d583d919ac44","ios":"levelo://app?vid=617dca4b-4508-4d52-9e62-d583d919ac44"},"vehicle_type_id":"4","last_reported":1759155001,"current_range_meters":19600,"station_id":"ce4bgop2rcd13ifvqc1g","pricing_plan_id":"cebpf4jnsgd1na2vs0mg"},{"bike_id":"04f400ac-2bb5-4717-bdb8-234a4e1f6e06","system_id":"levelo_inurba_marseille","lat":43.28286,"lon":5.35072,"is_reserved":false,"is_disabled":false,"rental_uris":{"android":"levelo://app?vid=04f400ac-2bb5-4717-bdb8-234a4e1f6e06","ios":"levelo://app?vid=04f400ac-2bb5-4717-bdb8-234a4e1f6e06"},"vehicle_type_id":"4","last_reported":1759155001,"current_range_meters":19600,"station_id":"ce4bhbp2rcd13ifvqerg","pricing_plan_id":"cebpf4jnsgd1na2vs0mg"},{"bike_id":"33948e2e-7e95-435e-88f1-6b90fb801091","system_id":"levelo_inurba_marseille","lat":43.25733,"lon":5.41107,"is_reserved":false,"is_disabled":false,"rental_uris":{"android":"levelo://app?vid=33948e2e-7e95-435e-88f1-6b90fb801091","ios":"levelo://app?vid=33948e2e-7e95-435e-88f1-6b90fb801091"},"vehicle_type_id":"4","last_reported":1759155001,"current_range_meters":20000,"station_id":"ce4bhkp2rcd13ifvqgd0","pricing_plan_id":"cebpf4jnsgd1na2vs0mg"},{"bike_id":"857d8652-f374-42cf-a415-e93fcc890fe9","system_id":"levelo_inurba_marseille","lat":43.24999,"lon":5.3894,"is_reserved":false,"is_disabled":false,"rental_uris":{"android":"levelo://app?vid=857d8652-f374-42cf-a415-e93fcc890fe9","ios":"levelo://app?vid=857d8652-f374-42cf-a415-e93fcc890fe9"},"vehicle_type_id":"4","last_reported":1759155001,"current_range_meters":20000,"station_id":"ce4bhgp2rcd13ifvqfd0","pricing_plan_id":"cebpf4jnsgd1na2vs0mg"},{"bike_id":"5dff0a3e-707c-44f5-a082-04afe8805dff","system_id":"levelo_inurba_marseille","lat":43.30537,"lon":5.36706,"is_reserved":false,"is_disabled":false,"rental_uris":{"android":"levelo://app?vid=5dff0a3e-707c-44f5-a082-04afe8805dff","ios":"levelo://app?vid=5dff0a3e-707c-44f5-a082-04afe8805dff"},"vehicle_type_id":"4","last_reported":1759155001,"current_range_meters":20000,"station_id":"ce4bgrp2rcd13ifvqc9g","pricing_plan_id":"cebpf4jnsgd1na2vs0mg"},{"bike_id":"4a9332a9-e97e-4152-b899-1dbcc929a701","system_id":"levelo_inurba_marseille","lat":43.241751,"lon":5.397256,"is_reserved":false,"is_disabled":false,"rental_uris":{"android":"levelo://app?vid=4a9332a9-e97e-4152-b899-1dbcc929a701","ios":"levelo://app?vid=4a9332a9-e97e-4152-b899-1dbcc929a701"},"vehicle_type_id":"4","last_reported":1759155001,"current_range_meters":20000,"station_id":"ce4bhn12rcd13ifvqgpg","pricing_plan_id":"cebpf4jnsgd1na2vs0mg"},{"bike_id":"60d31092-2a3a-4d88-b18f-ea2528d63479","system_id":"levelo_inurba_marseille","lat":43.30548,"lon":5.36533,"is_reserved":false,"is_disabled":false,"rental_uris":{"android":"levelo://app?vid=60d31092-2a3a-4d88-b18f-ea2528d63479","ios":"levelo://app?vid=60d31092-2a3a-4d88-b18f-ea2528d63479"},"vehicle_type_id":"4","last_reported":1759155001,"current_range_meters":20000,"station_id":"ce4bgs12rcd13ifvqcag","pricing_plan_id":"cebpf4jnsgd1na2vs0mg"},{"bike_id":"ff2fb9da-1ca0-48fd-870a-37993739d7a3","system_id":"levelo_inurba_marseille","lat":43.28937,"lon":5.36401,"is_reserved":false,"is_disabled":false,"rental_uris":{"android":"levelo://app?vid=ff2fb9da-1ca0-48fd-870a-37993739d7a3","ios":"levelo://app?vid=ff2fb9da-1ca0-48fd-870a-37993739d7a3"},"vehicle_type_id":"4","last_reported":1759155001,"current_range_meters":20000,"station_id":"ce4bhc92rcd13ifvqetg","pricing_plan_id":"cebpf4jnsgd1na2vs0mg"},{"bike_id":"7cd433e0-4dc5-4dcb-a5c6-f17936bd4cb6","system_id":"levelo_inurba_marseille","lat":43.315674,"lon":5.403804,"is_reserved":false,"is_disabled":false,"rental_uris":{"android":"levelo://app?vid=7cd433e0-4dc5-4dcb-a5c6-f17936bd4cb6","ios":"levelo://app?vid=7cd433e0-4dc5-4dcb-a5c6-f17936bd4cb6"},