{"last_updated":1745957474,"ttl":60,"version":"2.2","data":{"bikes":[{"bike_id":"325ea1c6-2db9-47bb-b96b-4eb998fe7920","system_id":"levelo_inurba_marseille","lat":43.31326,"lon":5.39697,"is_reserved":false,"is_disabled":false,"rental_uris":{"android":"levelo://app?vid=325ea1c6-2db9-47bb-b96b-4eb998fe7920","ios":"levelo://app?vid=325ea1c6-2db9-47bb-b96b-4eb998fe7920"},"vehicle_type_id":"4","last_reported":1745957474,"current_range_meters":2800,"station_id":"ce4bgvp2rcd13ifvqcu0","pricing_plan_id":"cebpf4jnsgd1na2vs0mg"},{"bike_id":"79b6bfcc-d304-4b91-9f60-928356f04f15","system_id":"levelo_inurba_marseille","lat":43.270901,"lon":5.388092,"is_reserved":false,"is_disabled":false,"rental_uris":{"android":"levelo://app?vid=79b6bfcc-d304-4b91-9f60-928356f04f15","ios":"levelo://app?vid=79b6bfcc-d304-4b91-9f60-928356f04f15"},"vehicle_type_id":"4","last_reported":1745957474,"current_range_meters":2800,"station_id":"ce4bhg92rcd13ifvqf90","pricing_plan_id":"cebpf4jnsgd1na2vs0mg"},{"bike_id":"9cb1f1e8-3623-42b2-8931-d30d09e506ec","system_id":"levelo_inurba_marseille","lat":43.30952,"lon":5.39042,"is_reserved":false,"is_disabled":false,"rental_uris":{"android":"levelo://app?vid=9cb1f1e8-3623-42b2-8931-d30d09e506ec","ios":"levelo://app?vid=9cb1f1e8-3623-42b2-8931-d30d09e506ec"},"vehicle_type_id":"4","last_reported":1745957474,"current_range_meters":2800,"station_id":"ce4bgup2rcd13ifvqco0","pricing_plan_id":"cebpf4jnsgd1na2vs0mg"},{"bike_id":"3a3adc5f-c46c-4ddb-9f5b-addbfa5853df","system_id":"levelo_inurba_marseille","lat":43.302193,"lon":5.394753,"is_reserved":false,"is_disabled":false,"rental_uris":{"android":"levelo://app?vid=3a3adc5f-c46c-4ddb-9f5b-addbfa5853df","ios":"levelo://app?vid=3a3adc5f-c46c-4ddb-9f5b-addbfa5853df"},"vehicle_type_id":"4","last_reported":1745957474,"current_range_meters":3200,"station_id":"ce4bh0p2rcd13ifvqd70","pricing_plan_id":"cebpf4jnsgd1na2vs0mg"},{"bike_id":"e288c1b9-de3d-40c0-ac27-e03c9556d880","system_id":"levelo_inurba_marseille","lat":43.2925,"lon":5.40917,"is_reserved":false,"is_disabled":true,"rental_uris":{"android":"levelo://app?vid=e288c1b9-de3d-40c0-ac27-e03c9556d880","ios":"levelo://app?vid=e288c1b9-de3d-40c0-ac27-e03c9556d880"},"vehicle_type_id":"4","last_reported":1745957474,"current_range_meters":3200,"station_id":"ce4bh192rcd13ifvqdc0","pricing_plan_id":"cebpf4jnsgd1na2vs0mg"},{"bike_id":"b1040775-cdbd-4461-a120-155006f740eb","system_id":"levelo_inurba_marseille","lat":43.21188,"lon":5.35069,"is_reserved":false,"is_disabled":false,"rental_uris":{"android":"levelo://app?vid=b1040775-cdbd-4461-a120-155006f740eb","ios":"levelo://app?vid=b1040775-cdbd-4461-a120-155006f740eb"},"vehicle_type_id":"4","last_reported":1745957474,"current_range_meters":3200,"station_id":"st_cvj6sg6p6f1abm77japg","pricing_plan_id":"cebpf4jnsgd1na2vs0mg"},{"bike_id":"a7d18e16-49bf-4595-8de6-b23f1fc76922","system_id":"levelo_inurba_marseille","lat":43.275523,"lon":5.384287,"is_reserved":false,"is_disabled":true,"rental_uris":{"android":"levelo://app?vid=a7d18e16-49bf-4595-8de6-b23f1fc76922","ios":"levelo://app?vid=a7d18e16-49bf-4595-8de6-b23f1fc76922"},"vehicle_type_id":"4","last_reported":1745957474,"current_range_meters":3200,"station_id":"ce4bhh92rcd13ifvqfi0","pricing_plan_id":"cebpf4jnsgd1na2vs0mg"},{"bike_id":"89ed118f-6f91-467b-9ef6-30d893cff9b9","system_id":"levelo_inurba_marseille","lat":43.30096,"lon":5.39086,"is_reserved":false,"is_disabled":false,"rental_uris":{"android":"levelo://app?vid=89ed118f-6f91-467b-9ef6-30d893cff9b9","ios":"levelo://app?vid=89ed118f-6f91-467b-9ef6-30d893cff9b9"},"vehicle_type_id":"4","last_reported":1745957474,"current_range_meters":3200,"station_id":"ce4bh192rcd13ifvqdb0","pricing_plan_id":"cebpf4jnsgd1na2vs0mg"},{"bike_id":"6d3b3883-816b-4afe-b2a9-13be7838183a","system_id":"levelo_inurba_marseille","lat":43.30331,"lon":5.40441,"is_reserved":false,"is_disabled":false,"rental_uris":{"android":"levelo://app?vid=6d3b3883-816b-4afe-b2a9-13be7838183a","ios":"levelo://app?vid=6d3b3883-816b-4afe-b2a9-13be7838183a"},"vehicle_type_id":"4","last_reported":1745957474,"current_range_meters":3200,"station_id":"ce4bh012rcd13ifvqd10","pricing_plan_id":"cebpf4jnsgd1na2vs0mg"},{"bike_id":"3975392c-4b3c-491d-8f40-00f73bb2a8a5","system_id":"levelo_inurba_marseille","lat":43.2972,"lon":5.37686,"is_reserved":false,"is_disabled":true,"rental_uris":{"android":"levelo://app?vid=3975392c-4b3c-491d-8f40-00f73bb2a8a5","ios":"levelo://app?vid=3975392c-4b3c-491d-8f40-00f73bb2a8a5"},"vehicle_type_id":"4","last_reported":1745957474,"current_range_meters":3600,"station_id":"ce4bgkh2rcd13ifvqbl0","pricing_plan_id":"cebpf4jnsgd1na2vs0mg"},{"bike_id":"26deac1f-c435-40bc-9469-9ae0b266bb77","system_id":"levelo_inurba_marseille","lat":43.30198,"lon":5.38441,"is_reserved":false,"is_disabled":false,"rental_uris":{"android":"levelo://app?vid=26deac1f-c435-40bc-9469-9ae0b266bb77","ios":"levelo://app?vid=26deac1f-c435-40bc-9469-9ae0b266bb77"},"vehicle_type_id":"4","last_reported":1745957474,"current_range_meters":3600,"station_id":"","pricing_plan_id":"cebpf4jnsgd1na2vs0mg"},{"bike_id":"8050c9bc-2fb1-4ba5-a7f2-39f5f374b71c","system_id":"levelo_inurba_marseille","lat":43.2927,"lon":5.38446,"is_reserved":false,"is_disabled":false,"rental_uris":{"android":"levelo://app?vid=8050c9bc-2fb1-4ba5-a7f2-39f5f374b71c","ios":"levelo://app?vid=8050c9bc-2fb1-4ba5-a7f2-39f5f374b71c"},"vehicle_type_id":"4","last_reported":1745957474,"current_range_meters":4000,"station_id":"ce4bh692rcd13ifvqea0","pricing_plan_id":"cebpf4jnsgd1na2vs0mg"},{"bike_id":"065264bb-3637-4b2c-a086-51dde5bda7e3","system_id":"levelo_inurba_marseille","lat":43.2903,"lon":5.38649,"is_reserved":false,"is_disabled":false,"rental_uris":{"android":"levelo://app?vid=065264bb-3637-4b2c-a086-51dde5bda7e3","ios":"levelo://app?vid=065264bb-3637-4b2c-a086-51dde5bda7e3"},"vehicle_type_id":"4","last_reported":1745957474,"current_range_meters":4000,"station_id":"ce4bh4p2rcd13ifvqe0g","pricing_plan_id":"cebpf4jnsgd1na2vs0mg"},{"bike_id":"3c10f98c-2cb9-4204-927c-152300f9b3ce","system_id":"levelo_inurba_marseille","lat":43.34741,"lon":5.3514,"is_reserved":false,"is_disabled":false,"rental_uris":{"android":"levelo://app?vid=3c10f98c-2cb9-4204-927c-152300f9b3ce","ios":"levelo://app?vid=3c10f98c-2cb9-4204-927c-152300f9b3ce"},"vehicle_type_id":"4","last_reported":1745957474,"current_range_meters":4000,"station_id":"","pricing_plan_id":"cebpf4jnsgd1na2vs0mg"},{"bike_id":"cf633c15-21f7-47f1-b33d-c0c09f9a8813","system_id":"levelo_inurba_marseille","lat":43.29424,"lon":5.38622,"is_reserved":false,"is_disabled":false,"rental_uris":{"android":"levelo://app?vid=cf633c15-21f7-47f1-b33d-c0c09f9a8813","ios":"levelo://app?vid=cf633c15-21f7-47f1-b33d-c0c09f9a8813"},"vehicle_type_id":"4","last_reported":1745957474,"current_range_meters":4000,"station_id":"ce4bh2h2rcd13ifvqdh0","pricing_plan_id":"cebpf4jnsgd1na2vs0mg"},{"bike_id":"faa77682-ba7b-429b-a89d-2aba06a2d1ad","system_id":"levelo_inurba_marseille","lat":43.27905,"lon":5.38021,"is_reserved":false,"is_disabled":false,"rental_uris":{"android":"levelo://app?vid=faa77682-ba7b-429b-a89d-2aba06a2d1ad","ios":"levelo://app?vid=faa77682-ba7b-429b-a89d-2aba06a2d1ad"},"vehicle_type_id":"4","last_reported":1745957474,"current_range_meters":3600,"station_id":"ce4bhf92rcd13ifvqf50","pricing_plan_id":"cebpf4jnsgd1na2vs0mg"},{"bike_id":"cf380c1e-39c1-42f7-a34f-573b7b5f66ed","system_id":"levelo_inurba_marseille","lat":43.31723,"lon":5.42402,"is_reserved":false,"is_disabled":false,"rental_uris":{"android":"levelo://app?vid=cf380c1e-39c1-42f7-a34f-573b7b5f66ed","ios":"levelo://app?vid=cf380c1e-39c1-42f7-a34f-573b7b5f66ed"},"vehicle_type_id":"4","last_reported":1745957474,"current_range_meters":4000,"station_id":"ce4bhp92rcd13ifvqhbg","pricing_plan_id":"cebpf4jnsgd1na2vs0mg"},{"bike_id":"2f30abe4-121e-4b65-a631-ce3d0d117f05","system_id":"levelo_inurba_marseille","lat":43.295258,"lon":5.385424,"is_reserved":false,"is_disabled":false,"rental_uris":{"android":"levelo://app?vid=2f30abe4-121e-4b65-a631-ce3d0d117f05","ios":"levelo://app?vid=2f30abe4-121e-4b65-a631-ce3d0d117f05"},"vehicle_type_id":"4","last_reported":1745957474,"current_range_meters":4000,"station_id":"ce4bgih2rcd13ifvqba0","pricing_plan_id":"cebpf4jnsgd1na2vs0mg"},{"bike_id":"412d630c-25c9-4fe6-8c48-fda2c85ad64a","system_id":"levelo_inurba_marseille","lat":43.29593,"lon":5.37709,"is_reserved":false,"is_disabled":true,"rental_uris":{"android":"levelo://app?vid=412d630c-25c9-4fe6-8c48-fda2c85ad64a","ios":"levelo://app?vid=412d630c-25c9-4fe6-8c48-fda2c85ad64a"},"vehicle_type_id":"4","last_reported":1745957474,"current_range_meters":4400,"station_id":"ce4bgi92rcd13ifvqb90","pricing_plan_id":"cebpf4jnsgd1na2vs0mg"},{"bike_id":"af4f0c69-e62d-4155-b1d1-a67b45271ae1","system_id":"levelo_inurba_marseille","lat":43.24782,"lon":5.41171,"is_reserved":false,"is_disabled":false,"rental_uris":{"android":"levelo://app?vid=af4f0c69-e62d-4155-b1d1-a67b45271ae1","ios":"levelo://app?vid=af4f0c69-e62d-4155-b1d1-a67b45271ae1"},"vehicle_type_id":"4","last_reported":1745957474,"current_range_meters":4800,"station_id":"","pricing_plan_id":"cebpf4jnsgd1na2vs0mg"},{"bike_id":"6e1f1e09-2a58-4346-82cd-394247f21d66","system_id":"levelo_inurba_marseille","lat":43.30218,"lon":5.39462,"is_reserved":false,"is_disabled":false,"rental_uris":{"android":"levelo://app?vid=6e1f1e09-2a58-4346-82cd-394247f21d66","ios":"levelo://app?vid=6e1f1e09-2a58-4346-82cd-394247f21d66"},"vehicle_type_id":"4","last_reported":1745957474,"current_range_meters":4800,"station_id":"ce4bh0p2rcd13ifvqd70","pricing_plan_id":"cebpf4jnsgd1na2vs0mg"},{"bike_id":"110d42e0-e455-49c3-ba2f-a13b1f51573a","system_id":"levelo_inurba_marseille","lat":43.29636,"lon":5.41198,"is_reserved":false,"is_disabled":false,"rental_uris":{"android":"levelo://app?vid=110d42e0-e455-49c3-ba2f-a13b1f51573a","ios":"levelo://app?vid=110d42e0-e455-49c3-ba2f-a13b1f51573a"},"vehicle_type_id":"4","last_reported":1745957474,"current_range_meters":4800,"station_id":"","pricing_plan_id":"cebpf4jnsgd1na2vs0mg"},{"bike_id":"588e5931-7c3f-46a4-a686-8c3875261bf1","system_id":"levelo_inurba_marseille","lat":43.27921,"lon":5.39578,"is_reserved":false,"is_disabled":false,"rental_uris":{"android":"levelo://app?vid=588e5931-7c3f-46a4-a686-8c3875261bf1","ios":"levelo://app?vid=588e5931-7c3f-46a4-a686-8c3875261bf1"},"vehicle_type_id":"4","last_reported":1745957474,"current_range_meters":4800,"station_id":"ce4bhf92rcd13ifvqf40","pricing_plan_id":"cebpf4jnsgd1na2vs0mg"},{"bike_id":"1f739055-8148-4574-abff-98a1f2db48ac","system_id":"levelo_inurba_marseille","lat":43.292,"lon":5.3578,"is_reserved":false,"is_disabled":true,"rental_uris":{"android":"levelo://app?vid=1f739055-8148-4574-abff-98a1f2db48ac","ios":"levelo://app?vid=1f739055-8148-4574-abff-98a1f2db48ac"},"vehicle_type_id":"4","last_reported":1745957474,"current_range_meters":4800,"station_id":"ce4bhb12rcd13ifvqel0","pricing_plan_id":"cebpf4jnsgd1na2vs0mg"},{"bike_id":"5564a26d-c488-4d1f-9a61-d464b99050b2","system_id":"levelo_inurba_marseille","lat":43.32108,"lon":5.36763,"is_reserved":false,"is_disabled":false,"rental_uris":{"android":"levelo://app?vid=5564a26d-c488-4d1f-9a61-d464b99050b2","ios":"levelo://app?vid=5564a26d-c488-4d1f-9a61-d464b99050b2"},"vehicle_type_id":"4","last_reported":1745957474,"current_range_meters":4800,"station_id":"ce4bhrh2rcd13ifvqhug","pricing_plan_id":"cebpf4jnsgd1na2vs0mg"},{"bike_id":"4eabc4a7-93a8-45a4-a7de-e79628b79872","system_id":"levelo_inurba_marseille","lat":43.30215,"lon":5.39463,"is_reserved":false,"is_disabled":false,"rental_uris":{"android":"levelo://app?vid=4eabc4a7-93a8-45a4-a7de-e79628b79872","ios":"levelo://app?vid=4eabc4a7-93a8-45a4-a7de-e79628b79872"},"vehicle_type_id":"4","last_reported":1745957474,"current_range_meters":5600,"station_id":"ce4bh0p2rcd13ifvqd70","pricing_plan_id":"cebpf4jnsgd1na2vs0mg"},{"bike_id":"c2e0fb55-e129-41ac-bf18-40c9ee496eab","system_id":"levelo_inurba_marseille","lat":43.29257,"lon":5.40908,"is_reserved":false,"is_disabled":false,"rental_uris":{"android":"levelo://app?vid=c2e0fb55-e129-41ac-bf18-40c9ee496eab","ios":"levelo://app?vid=c2e0fb55-e129-41ac-bf18-40c9ee496eab"},"vehicle_type_id":"4","last_reported":1745957474,"current_range_meters":5600,"station_id":"ce4bh192rcd13ifvqdc0","pricing_plan_id":"cebpf4jnsgd1na2vs0mg"},{"bike_id":"6a56b484-3bf8-45d7-87df-ca8773316698","system_id":"levelo_inurba_marseille","lat":43.29021,"lon":5.38125,"is_reserved":false,"is_disabled":false,"rental_uris":{"android":"levelo://app?vid=6a56b484-3bf8-45d7-87df-ca8773316698","ios":"levelo://app?vid=6a56b484-3bf8-45d7-87df-ca8773316698"},"vehicle_type_id":"4","last_reported":1745957474,"current_range_meters":5600,"station_id":"ce4bh4p2rcd13ifvqe1g","pricing_plan_id":"cebpf4jnsgd1na2vs0mg"},{"bike_id":"775481df-05c4-4f0e-8a67-b66aedbeddcf","system_id":"levelo_inurba_marseille","lat":43.241874,"lon":5.397201,"is_reserved":false,"is_disabled":false,"rental_uris":{"android":"levelo://app?vid=775481df-05c4-4f0e-8a67-b66aedbeddcf","ios":"levelo://app?vid=775481df-05c4-4f0e-8a67-b66aedbeddcf"},"vehicle_type_id":"4","last_reported":1745957474,"current_range_meters":6000,"station_id":"ce4bhn12rcd13ifvqgpg","pricing_plan_id":"cebpf4jnsgd1na2vs0mg"},{"bike_id":"d5ec15d5-cbc9-4d64-be0b-b8e3d4e57339","system_id":"levelo_inurba_marseille","lat":43.26228,"lon":5.4045,"is_reserved":false,"is_disabled":false,"rental_uris":{"android":"levelo://app?vid=d5ec15d5-cbc9-4d64-be0b-b8e3d4e57339","ios":"levelo://app?vid=d5ec15d5-cbc9-4d64-be0b-b8e3d4e57339"},"vehicle_type_id":"4","last_reported":1745957474,"current_range_meters":6000,"station_id":"ce4bhmh2rcd13ifvqgmg","pricing_plan_id":"cebpf4jnsgd1na2vs0mg"},{"bike_id":"c50a28f0-71e8-4196-bd78-698452197edb","system_id":"levelo_inurba_marseille","lat":43.28932,"lon":5.38381,"is_reserved":false,"is_disabled":false,"rental_uris":{"android":"levelo://app?vid=c50a28f0-71e8-4196-bd78-698452197edb","ios":"levelo://app?vid=c50a28f0-71e8-4196-bd78-698452197edb"},"vehicle_type_id":"4","last_reported":1745957474,"current_range_meters":6000,"station_id":"ce4bh612rcd13ifvqe6g","pricing_plan_id":"cebpf4jnsgd1na2vs0mg"},{"bike_id":"4e921bd6-7318-4e59-bc63-645afd4ef569","system_id":"levelo_inurba_marseille","lat":43.2417,"lon":5.36404,"is_reserved":false,"is_disabled":false,"rental_uris":{"android":"levelo://app?vid=4e921bd6-7318-4e59-bc63-645afd4ef569","ios":"levelo://app?vid=4e921bd6-7318-4e59-bc63-645afd4ef569"},"vehicle_type_id":"4","last_reported":1745957474,"current_range_meters":6000,"station_id":"cpo36qri1sfpv3e86is0","pricing_plan_id":"cebpf4jnsgd1na2vs0mg"},{"bike_id":"b039c152-f87b-436a-9b54-3e5c0bb27b9c","system_id":"levelo_inurba_marseille","lat":43.28952,"lon":5.39615,"is_reserved":false,"is_disabled":false,"rental_uris":{"android":"levelo://app?vid=b039c152-f87b-436a-9b54-3e5c0bb27b9c","ios":"levelo://app?vid=b039c152-f87b-436a-9b54-3e5c0bb27b9c"},"vehicle_type_id":"4","last_reported":1745957474,"current_range_meters":6000,"station_id":"ce4bh3h2rcd13ifvqdn0","pricing_plan_id":"cebpf4jnsgd1na2vs0mg"},{"bike_id":"3b7400a5-11ec-446d-bb60-0f84ca95eb32","system_id":"levelo_inurba_marseille","lat":43.2781,"lon":5.40712,"is_reserved":false,"is_disabled":false,"rental_uris":{"android":"levelo://app?vid=3b7400a5-11ec-446d-bb60-0f84ca95eb32","ios":"levelo://app?vid=3b7400a5-11ec-446d-bb60-0f84ca95eb32"},"vehicle_type_id":"4","last_reported":1745957474,"current_range_meters":6000,"station_id":"ce4bhnh2rcd13ifvqgtg","pricing_plan_id":"cebpf4jnsgd1na2vs0mg"},{"bike_id":"b55a1975-1493-4518-b425-323d1ab0b504","system_id":"levelo_inurba_marseille","lat":43.28931,"lon":5.36623,"is_reserved":false,"is_disabled":false,"rental_uris":{"android":"levelo://app?vid=b55a1975-1493-4518-b425-323d1ab0b504","ios":"levelo://app?vid=b55a1975-1493-4518-b425-323d1ab0b504"},"vehicle_type_id":"4","last_reported":1745957474,"current_range_meters":6000,"station_id":"ce4bhap2rcd13ifvqek0","pricing_plan_id":"cebpf4jnsgd1na2vs0mg"},{"bike_id":"5cdc841e-9bbe-4592-9951-89aa499ebeb9","system_id":"levelo_inurba_marseille","lat":43.27812,"lon":5.40709,"is_reserved":false,"is_disabled":false,"rental_uris":{"android":"levelo://app?vid=5cdc841e-9bbe-4592-9951-89aa499ebeb9","ios":"levelo://app?vid=5cdc841e-9bbe-4592-9951-89aa499ebeb9"},"vehicle_type_id":"4","last_reported":1745957474,"current_range_meters":6400,"station_id":"ce4bhnh2rcd13ifvqgtg","pricing_plan_id":"cebpf4jnsgd1na2vs0mg"},{"bike_id":"83825a2b-3736-49ed-aeea-be993f789935","system_id":"levelo_inurba_marseille","lat":43.27488,"lon":5.425,"is_reserved":false,"is_disabled":false,"rental_uris":{"android":"levelo://app?vid=83825a2b-3736-49ed-aeea-be993f789935","ios":"levelo://app?vid=83825a2b-3736-49ed-aeea-be993f789935"},"vehicle_type_id":"4","last_reported":1745957474,"current_range_meters":6400,"station_id":"ce4bhn92rcd13ifvqgrg","pricing_plan_id":"cebpf4jnsgd1na2vs0mg"},{"bike_id":"03a6c0f9-16f4-4f0d-9dc3-6d1900388946","system_id":"levelo_inurba_marseille","lat":43.26563,"lon":5.39014,"is_reserved":false,"is_disabled":false,"rental_uris":{"android":"levelo://app?vid=03a6c0f9-16f4-4f0d-9dc3-6d1900388946","ios":"levelo://app?vid=03a6c0f9-16f4-4f0d-9dc3-6d1900388946"},"vehicle_type_id":"4","last_reported":1745957474,"current_range_meters":6400,"station_id":"ce4bhe12rcd13ifvqf30","pricing_plan_id":"cebpf4jnsgd1na2vs0mg"},{"bike_id":"f8690377-e982-422d-be14-463affb11ad5","system_id":"levelo_inurba_marseille","lat":43.27977,"lon":5.38721,"is_reserved":false,"is_disabled":false,"rental_uris":{"android":"levelo://app?vid=f8690377-e982-422d-be14-463affb11ad5","ios":"levelo://app?vid=f8690377-e982-422d-be14-463affb11ad5"},"vehicle_type_id":"4","last_reported":1745957474,"current_range_meters":6400,"station_id":"ce4bhg12rcd13ifvqf80","pricing_plan_id":"cebpf4jnsgd1na2vs0mg"},{"bike_id":"c847c66a-5d4b-43a0-b8ce-3c816716271e","system_id":"levelo_inurba_marseille","lat":43.29003,"lon":5.35615,"is_reserved":false,"is_disabled":true,"rental_uris":{"android":"levelo://app?vid=c847c66a-5d4b-43a0-b8ce-3c816716271e","ios":"levelo://app?vid=c847c66a-5d4b-43a0-b8ce-3c816716271e"},"vehicle_type_id":"4","last_reported":1745957474,"current_range_meters":6400,"station_id":"ce4bhb92rcd13ifvqen0","pricing_plan_id":"cebpf4jnsgd1na2vs0mg"},{"bike_id":"bafa5097-1425-46ef-8ac7-401959d21fa8","system_id":"levelo_inurba_marseille","lat":43.28712,"lon":5.37977,"is_reserved":false,"is_disabled":true,"rental_uris":{"android":"levelo://app?vid=bafa5097-1425-46ef-8ac7-401959d21fa8","ios":"levelo://app?vid=bafa5097-1425-46ef-8ac7-401959d21fa8"},"vehicle_type_id":"4","last_reported":1745957474,"current_range_meters":6400,"station_id":"ce4bh9p2rcd13ifvqec0","pricing_plan_id":"cebpf4jnsgd1na2vs0mg"},{"bike_id":"23ea5b4c-dd2c-4a66-8314-92a40e660890","system_id":"levelo_inurba_marseille","lat":43.309507,"lon":5.390343,"is_reserved":false,"is_disabled":false,"rental_uris":{"android":"levelo://app?vid=23ea5b4c-dd2c-4a66-8314-92a40e660890","ios":"levelo://app?vid=23ea5b4c-dd2c-4a66-8314-92a40e660890"},"vehicle_type_id":"4","last_reported":1745957474,"current_range_meters":6800,"station_id":"ce4bgup2rcd13ifvqco0","pricing_plan_id":"cebpf4jnsgd1na2vs0mg"},{"bike_id":"5d9185c6-23b6-4273-b2ec-66356ca5d36d","system_id":"levelo_inurba_marseille","lat":43.29973,"lon":5.38487,"is_reserved":false,"is_disabled":false,"rental_uris":{"android":"levelo://app?vid=5d9185c6-23b6-4273-b2ec-66356ca5d36d","ios":"levelo://app?vid=5d9185c6-23b6-4273-b2ec-66356ca5d36d"},"vehicle_type_id":"4","last_reported":1745957474,"current_range_meters":4800,"station_id":"ce4bgj92rcd13ifvqbd0","pricing_plan_id":"cebpf4jnsgd1na2vs0mg"},{"bike_id":"ed0b7ae2-7a39-41d2-a6f0-3db515a324a1","system_id":"levelo_inurba_marseille","lat":43.29884,"lon":5.39715,"is_reserved":false,"is_disabled":false,"rental_uris":{"android":"levelo://app?vid=ed0b7ae2-7a39-41d2-a6f0-3db515a324a1","ios":"levelo://app?vid=ed0b7ae2-7a39-41d2-a6f0-3db515a324a1"},"vehicle_type_id":"4","last_reported":1745957474,"current_range_meters":6800,"station_id":"ce4bh0h2rcd13ifvqd50","pricing_plan_id":"cebpf4jnsgd1na2vs0mg"},{"bike_id":"3415adec-0f76-4a09-8a43-4fc526a369c9","system_id":"levelo_inurba_marseille","lat":43.294104,"lon":5.38624,"is_reserved":false,"is_disabled":false,"rental_uris":{"android":"levelo://app?vid=3415adec-0f76-4a09-8a43-4fc526a369c9","ios":"levelo://app?vid=3415adec-0f76-4a09-8a43-4fc526a369c9"},"vehicle_type_id":"4","last_reported":1745957474,"current_range_meters":6400,"station_id":"ce4bgv12rcd13ifvqcp0","pricing_plan_id":"cebpf4jnsgd1na2vs0mg"},{"bike_id":"02bc95cf-8313-47d9-a355-ed074b73effe","system_id":"levelo_inurba_marseille","lat":43.288958,"lon":5.38433,"is_reserved":false,"is_disabled":false,"rental_uris":{"android":"levelo://app?vid=02bc95cf-8313-47d9-a355-ed074b73effe","ios":"levelo://app?vid=02bc95cf-8313-47d9-a355-ed074b73effe"},"vehicle_type_id":"4","last_reported":1745957474,"current_range_meters":6800,"station_id":"ce4bh612rcd13ifvqe6g","pricing_plan_id":"cebpf4jnsgd1na2vs0mg"},{"bike_id":"8fba66fc-7f4e-4291-83bd-44aeaaa8e83a","system_id":"levelo_inurba_marseille","lat":43.31317,"lon":5.39698,"is_reserved":false,"is_disabled":false,"rental_uris":{"android":"levelo://app?vid=8fba66fc-7f4e-4291-83bd-44aeaaa8e83a","ios":"levelo://app?vid=8fba66fc-7f4e-4291-83bd-44aeaaa8e83a"},"vehicle_type_id":"4","last_reported":1745957474,"current_range_meters":6800,"station_id":"ce4bgvp2rcd13ifvqcu0","pricing_plan_id":"cebpf4jnsgd1na2vs0mg"},{"bike_id":"f1e3c12a-02a3-4893-b9e1-1aacd74f3f49","system_id":"levelo_inurba_marseille","lat":43.32107,"lon":5.36775,"is_reserved":false,"is_disabled":false,"rental_uris":{"android":"levelo://app?vid=f1e3c12a-02a3-4893-b9e1-1aacd74f3f49","ios":"levelo://app?vid=f1e3c12a-02a3-4893-b9e1-1aacd74f3f49"},"vehicle_type_id":"4","last_reported":1745957474,"current_range_meters":7200,"station_id":"ce4bhrh2rcd13ifvqhug","pricing_plan_id":"cebpf4jnsgd1na2vs0mg"},{"bike_id":"caaf02ee-1c4a-4be4-9ba6-4d30062fa743","system_id":"levelo_inurba_marseille","lat":43.29254,"lon":5.38451,"is_reserved":false,"is_disabled":false,"rental_uris":{"android":"levelo://app?vid=caaf02ee-1c4a-4be4-9ba6-4d30062fa743","ios":"levelo://app?vid=caaf02ee-1c4a-4be4-9ba6-4d30062fa743"},"vehicle_type_id":"4","last_reported":1745957474,"current_range_meters":7200,"station_id":"ce4bh692rcd13ifvqea0","pricing_plan_id":"cebpf4jnsgd1na2vs0mg"},{"bike_id":"f32334d7-e524-4c74-a3da-47f0b93e80de","system_id":"levelo_inurba_marseille","lat":43.28693,"lon":5.37398,"is_reserved":false,"is_disabled":false,"rental_uris":{"android":"levelo://app?vid=f32334d7-e524-4c74-a3da-47f0b93e80de","ios":"levelo://app?vid=f32334d7-e524-4c74-a3da-47f0b93e80de"},"vehicle_type_id":"4","last_reported":1745957474,"current_range_meters":7200,"station_id":"ce4bh3p2rcd13ifvqdq0","pricing_plan_id":"cebpf4jnsgd1na2vs0mg"},{"bike_id":"d2e0acb7-3756-4aa5-830e-2a8cb914029b","system_id":"levelo_inurba_marseille","lat":43.29247,"lon":5.37616,"is_reserved":false,"is_disabled":false,"rental_uris":{"android":"levelo://app?vid=d2e0acb7-3756-4aa5-830e-2a8cb914029b","ios":"levelo://app?vid=d2e0acb7-3756-4aa5-830e-2a8cb914029b"},"vehicle_type_id":"4","last_reported":1745957474,"current_range_meters":7200,"station_id":"ce4bgi12rcd13ifvqb80","pricing_plan_id":"cebpf4jnsgd1na2vs0mg"},{"bike_id":"e5b4b90d-e268-4de2-98f4-f6d0513f8801","system_id":"levelo_inurba_marseille","lat":43.26565,"lon":5.42216,"is_reserved":false,"is_disabled":false,"rental_uris":{"android":"levelo://app?vid=e5b4b90d-e268-4de2-98f4-f6d0513f8801","ios":"levelo://app?vid=e5b4b90d-e268-4de2-98f4-f6d0513f8801"},"vehicle_type_id":"4","last_reported":1745957474,"current_range_meters":7200,"station_id":"","pricing_plan_id":"cebpf4jnsgd1na2vs0mg"},{"bike_id":"a055d929-6978-41c8-a508-0484cd922457","system_id":"levelo_inurba_marseille","lat":43.30939,"lon":5.40139,"is_reserved":false,"is_disabled":false,"rental_uris":{"android":"levelo://app?vid=a055d929-6978-41c8-a508-0484cd922457","ios":"levelo://app?vid=a055d929-6978-41c8-a508-0484cd922457"},"vehicle_type_id":"4","last_reported":1745957474,"current_range_meters":8000,"station_id":"ce4bgvp2rcd13ifvqct0","pricing_plan_id":"cebpf4jnsgd1na2vs0mg"},{"bike_id":"0b685311-e985-4846-8f09-64404fd76175","system_id":"levelo_inurba_marseille","lat":43.29571,"lon":5.3999,"is_reserved":false,"is_disabled":false,"rental_uris":{"android":"levelo://app?vid=0b685311-e985-4846-8f09-64404fd76175","ios":"levelo://app?vid=0b685311-e985-4846-8f09-64404fd76175"},"vehicle_type_id":"4","last_reported":1745957474,"current_range_meters":7200,"station_id":"ce4bh312rcd13ifvqdj0","pricing_plan_id":"cebpf4jnsgd1na2vs0mg"},{"bike_id":"3ba94bcc-0b44-454b-9f8d-4d1668ee8f97","system_id":"levelo_inurba_marseille","lat":43.31177,"lon":5.38713,"is_reserved":false,"is_disabled":false,"rental_uris":{"android":"levelo://app?vid=3ba94bcc-0b44-454b-9f8d-4d1668ee8f97","ios":"levelo://app?vid=3ba94bcc-0b44-454b-9f8d-4d1668ee8f97"},"vehicle_type_id":"4","last_reported":1745957474,"current_range_meters":8000,"station_id":"ce4bgv12rcd13ifvqcp0","pricing_plan_id":"cebpf4jnsgd1na2vs0mg"},{"bike_id":"83acd443-6f06-458b-a9e4-d55370ac4e3d","system_id":"levelo_inurba_marseille","lat":43.26832,"lon":5.4023,"is_reserved":false,"is_disabled":false,"rental_uris":{"android":"levelo://app?vid=83acd443-6f06-458b-a9e4-d55370ac4e3d","ios":"levelo://app?vid=83acd443-6f06-458b-a9e4-d55370ac4e3d"},"vehicle_type_id":"4","last_reported":1745957474,"current_range_meters":8000,"station_id":"","pricing_plan_id":"cebpf4jnsgd1na2vs0mg"},{"bike_id":"75f1fad3-ed73-4bfe-afe1-0d2b3ec22728","system_id":"levelo_inurba_marseille","lat":43.29806,"lon":5.38084,"is_reserved":false,"is_disabled":false,"rental_uris":{"android":"levelo://app?vid=75f1fad3-ed73-4bfe-afe1-0d2b3ec22728","ios":"levelo://app?vid=75f1fad3-ed73-4bfe-afe1-0d2b3ec22728"},"vehicle_type_id":"4","last_reported":1745957474,"current_range_meters":8000,"station_id":"ce4bgip2rcd13ifvqbb0","pricing_plan_id":"cebpf4jnsgd1na2vs0mg"},{"bike_id":"c339bc39-8027-4a12-ba75-2c773ffe98b5","system_id":"levelo_inurba_marseille","lat":43.2568,"lon":5.41025,"is_reserved":false,"is_disabled":false,"rental_uris":{"android":"levelo://app?vid=c339bc39-8027-4a12-ba75-2c773ffe98b5","ios":"levelo://app?vid=c339bc39-8027-4a12-ba75-2c773ffe98b5"},"vehicle_type_id":"4","last_reported":1745957474,"current_range_meters":8000,"station_id":"","pricing_plan_id":"cebpf4jnsgd1na2vs0mg"},{"bike_id":"738568dc-408d-4c2d-88de-35ad23a92b23","system_id":"levelo_inurba_marseille","lat":43.24167,"lon":5.364,"is_reserved":false,"is_disabled":false,"rental_uris":{"android":"levelo://app?vid=738568dc-408d-4c2d-88de-35ad23a92b23","ios":"levelo://app?vid=738568dc-408d-4c2d-88de-35ad23a92b23"},"vehicle_type_id":"4","last_reported":1745957474,"current_range_meters":8000,"station_id":"cpo36qri1sfpv3e86is0","pricing_plan_id":"cebpf4jnsgd1na2vs0mg"},{"bike_id":"c3701277-3ef8-4af1-aceb-6364bb93ea9e","system_id":"levelo_inurba_marseille","lat":43.32268,"lon":5.38305,"is_reserved":false,"is_disabled":false,"rental_uris":{"android":"levelo://app?vid=c3701277-3ef8-4af1-aceb-6364bb93ea9e","ios":"levelo://app?vid=c3701277-3ef8-4af1-aceb-6364bb93ea9e"},"vehicle_type_id":"4","last_reported":1745957474,"current_range_meters":8000,"station_id":"ce4bhr12rcd13ifvqhqg","pricing_plan_id":"cebpf4jnsgd1na2vs0mg"},{"bike_id":"b91f9a69-4cb5-41b7-b305-31a14f27626b","system_id":"levelo_inurba_marseille","lat":43.284233,"lon":5.349933,"is_reserved":false,"is_disabled":true,"rental_uris":{"android":"levelo://app?vid=b91f9a69-4cb5-41b7-b305-31a14f27626b","ios":"levelo://app?vid=b91f9a69-4cb5-41b7-b305-31a14f27626b"},"vehicle_type_id":"4","last_reported":1745957474,"current_range_meters":8400,"station_id":"ce4bhbh2rcd13ifvqepg","pricing_plan_id":"cebpf4jnsgd1na2vs0mg"},{"bike_id":"1a782ab5-00d7-41b3-8080-63d5ddefda0e","system_id":"levelo_inurba_marseille","lat":43.29771,"lon":5.37058,"is_reserved":false,"is_disabled":false,"rental_uris":{"android":"levelo://app?vid=1a782ab5-00d7-41b3-8080-63d5ddefda0e","ios":"levelo://app?vid=1a782ab5-00d7-41b3-8080-63d5ddefda0e"},"vehicle_type_id":"4","last_reported":1745957474,"current_range_meters":8400,"station_id":"ce4bgop2rcd13ifvqc1g","pricing_plan_id":"cebpf4jnsgd1na2vs0mg"},{"bike_id":"58d96813-51d9-4691-82e4-fd7df8625fb2","system_id":"levelo_inurba_marseille","lat":43.30369,"lon":5.42489,"is_reserved":false,"is_disabled":false,"rental_uris":{"android":"levelo://app?vid=58d96813-51d9-4691-82e4-fd7df8625fb2","ios":"levelo://app?vid=58d96813-51d9-4691-82e4-fd7df8625fb2"},"vehicle_type_id":"4","last_reported":1745957474,"current_range_meters":8400,"station_id":"ce4bhoh2rcd13ifvqh6g","pricing_plan_id":"cebpf4jnsgd1na2vs0mg"},{"bike_id":"9cc130f9-83ee-4317-bdfc-712ccb6c5e52","system_id":"levelo_inurba_marseille","lat":43.31177,"lon":5.40782,"is_reserved":false,"is_disabled":false,"rental_uris":{"android":"levelo://app?vid=9cc130f9-83ee-4317-bdfc-712ccb6c5e52","ios":"levelo://app?vid=9cc130f9-83ee-4317-bdfc-712ccb6c5e52"},"vehicle_type_id":"4","last_reported":1745957474,"current_range_meters":8400,"station_id":"","pricing_plan_id":"cebpf4jnsgd1na2vs0mg"},{"bike_id":"6ca7d23d-23cf-4d69-b733-597553d50bdc","system_id":"levelo_inurba_marseille","lat":43.27994,"lon":5.40006,"is_reserved":false,"is_disabled":false,"rental_uris":{"android":"levelo://app?vid=6ca7d23d-23cf-4d69-b733-597553d50bdc","ios":"levelo://app?vid=6ca7d23d-23cf-4d69-b733-597553d50bdc"},"vehicle_type_id":"4","last_reported":1745957474,"current_range_meters":8400,"station_id":"ce4bho92rcd13ifvqh4g","pricing_plan_id":"cebpf4jnsgd1na2vs0mg"},{"bike_id":"7497e739-0c50-4aa1-9f39-dfb008e37b83","system_id":"levelo_inurba_marseille","lat":43.30929,"lon":5.37159,"is_reserved":false,"is_disabled":false,"rental_uris":{"android":"levelo://app?vid=7497e739-0c50-4aa1-9f39-dfb008e37b83","ios":"levelo://app?vid=7497e739-0c50-4aa1-9f39-dfb008e37b83"},"vehicle_type_id":"4","last_reported":1745957474,"current_range_meters":8400,"station_id":"ce4bguh2rcd13ifvqckg","pricing_plan_id":"cebpf4jnsgd1na2vs0mg"},{"bike_id":"a9c65f7d-7cfb-4c61-afdd-3c2ae38f75bb","system_id":"levelo_inurba_marseille","lat":43.29877,"lon":5.39727,"is_reserved":false,"is_disabled":false,"rental_uris":{"android":"levelo://app?vid=a9c65f7d-7cfb-4c61-afdd-3c2ae38f75bb","ios":"levelo://app?vid=a9c65f7d-7cfb-4c61-afdd-3c2ae38f75bb"},"vehicle_type_id":"4","last_reported":1745957474,"current_range_meters":8800,"station_id":"ce4bh0h2rcd13ifvqd50","pricing_plan_id":"cebpf4jnsgd1na2vs0mg"},{"bike_id":"5836a6ba-325a-41e2-92c0-3359d340dd3d","system_id":"levelo_inurba_marseille","lat":43.29201,"lon":5.35787,"is_reserved":false,"is_disabled":true,"rental_uris":{"android":"levelo://app?vid=5836a6ba-325a-41e2-92c0-3359d340dd3d","ios":"levelo://app?vid=5836a6ba-325a-41e2-92c0-3359d340dd3d"},"vehicle_type_id":"4","last_reported":1745957474,"current_range_meters":8800,"station_id":"ce4bhb12rcd13ifvqel0","pricing_plan_id":"cebpf4jnsgd1na2vs0mg"},{"bike_id":"675f622c-7d55-4692-8fa9-36cb9fe77410","system_id":"levelo_inurba_marseille","lat":43.30328,"lon":5.40433,"is_reserved":false,"is_disabled":false,"rental_uris":{"android":"levelo://app?vid=675f622c-7d55-4692-8fa9-36cb9fe77410","ios":"levelo://app?vid=675f622c-7d55-4692-8fa9-36cb9fe77410"},"vehicle_type_id":"4","last_reported":1745957474,"current_range_meters":8800,"station_id":"ce4bh012rcd13ifvqd10","pricing_plan_id":"cebpf4jnsgd1na2vs0mg"},{"bike_id":"8e3dd34d-614d-4b43-b94f-981cb3628319","system_id":"levelo_inurba_marseille","lat":43.29777,"lon":5.38114,"is_reserved":false,"is_disabled":false,"rental_uris":{"android":"levelo://app?vid=8e3dd34d-614d-4b43-b94f-981cb3628319","ios":"levelo://app?vid=8e3dd34d-614d-4b43-b94f-981cb3628319"},"vehicle_type_id":"4","last_reported":1745957474,"current_range_meters":8800,"station_id":"ce4bgip2rcd13ifvqbb0","pricing_plan_id":"cebpf4jnsgd1na2vs0mg"},{"bike_id":"b96f21bb-69d8-4cbf-b464-f36a8f53d6e0","system_id":"levelo_inurba_marseille","lat":43.26033,"lon":5.41735,"is_reserved":false,"is_disabled":false,"rental_uris":{"android":"levelo://app?vid=b96f21bb-69d8-4cbf-b464-f36a8f53d6e0","ios":"levelo://app?vid=b96f21bb-69d8-4cbf-b464-f36a8f53d6e0"},"vehicle_type_id":"4","last_reported":1745957474,"current_range_meters":8800,"station_id":"","pricing_plan_id":"cebpf4jnsgd1na2vs0mg"},{"bike_id":"7f1587bd-3f11-4b1c-ac2a-68229a0ca811","system_id":"levelo_inurba_marseille","lat":43.30462,"lon":5.379,"is_reserved":false,"is_disabled":false,"rental_uris":{"android":"levelo://app?vid=7f1587bd-3f11-4b1c-ac2a-68229a0ca811","ios":"levelo://app?vid=7f1587bd-3f11-4b1c-ac2a-68229a0ca811"},"vehicle_type_id":"4","last_reported":1745957474,"current_range_meters":8800,"station_id":"ce4bgup2rcd13ifvqcn0","pricing_plan_id":"cebpf4jnsgd1na2vs0mg"},{"bike_id":"47f72c73-37ad-47c9-bc69-2cbd93b2d26c","system_id":"levelo_inurba_marseille","lat":43.31329,"lon":5.39684,"is_reserved":false,"is_disabled":false,"rental_uris":{"android":"levelo://app?vid=47f72c73-37ad-47c9-bc69-2cbd93b2d26c","ios":"levelo://app?vid=47f72c73-37ad-47c9-bc69-2cbd93b2d26c"},"vehicle_type_id":"4","last_reported":1745957474,"current_range_meters":8800,"station_id":"ce4bgvp2rcd13ifvqcu0","pricing_plan_id":"cebpf4jnsgd1na2vs0mg"},{"bike_id":"9182fea0-bf09-458c-866a-0809f44c16aa","system_id":"levelo_inurba_marseille","lat":43.27888,"lon":5.3958,"is_reserved":false,"is_disabled":false,"rental_uris":{"android":"levelo://app?vid=9182fea0-bf09-458c-866a-0809f44c16aa","ios":"levelo://app?vid=9182fea0-bf09-458c-866a-0809f44c16aa"},"vehicle_type_id":"4","last_reported":1745957474,"current_range_meters":9200,"station_id":"ce4bhf92rcd13ifvqf40","pricing_plan_id":"cebpf4jnsgd1na2vs0mg"},{"bike_id":"561b2f84-08e7-4121-bad8-f7a2a19f1511","system_id":"levelo_inurba_marseille","lat":43.28085,"lon":5.3962,"is_reserved":false,"is_disabled":false,"rental_uris":{"android":"levelo://app?vid=561b2f84-08e7-4121-bad8-f7a2a19f1511","ios":"levelo://app?vid=561b2f84-08e7-4121-bad8-f7a2a19f1511"},"vehicle_type_id":"4","last_reported":1745957474,"current_range_meters":9200,"station_id":"ce4bho12rcd13ifvqh2g","pricing_plan_id":"cebpf4jnsgd1na2vs0mg"},{"bike_id":"995866ac-7e35-46db-89c1-47c001726d60","system_id":"levelo_inurba_marseille","lat":43.29165,"lon":5.37166,"is_reserved":false,"is_disabled":false,"rental_uris":{"android":"levelo://app?vid=995866ac-7e35-46db-89c1-47c001726d60","ios":"levelo://app?vid=995866ac-7e35-46db-89c1-47c001726d60"},"vehicle_type_id":"4","last_reported":1745957474,"current_range_meters":9200,"station_id":"ce4bha92rcd13ifvqeh0","pricing_plan_id":"cebpf4jnsgd1na2vs0mg"},{"bike_id":"30c72144-e351-4b54-9c87-946bf36285fc","system_id":"levelo_inurba_marseille","lat":43.315,"lon":5.37287,"is_reserved":false,"is_disabled":false,"rental_uris":{"android":"levelo://app?vid=30c72144-e351-4b54-9c87-946bf36285fc","ios":"levelo://app?vid=30c72144-e351-4b54-9c87-946bf36285fc"},"vehicle_type_id":"4","last_reported":1745957474,"current_range_meters":9200,"station_id":"ce4bgt12rcd13ifvqcd0","pricing_plan_id":"cebpf4jnsgd1na2vs0mg"},{"bike_id":"a491bdd7-c56b-4ad9-9f1e-ed090c26045e","system_id":"levelo_inurba_marseille","lat":43.30842,"lon":5.37911,"is_reserved":false,"is_disabled":false,"rental_uris":{"android":"levelo://app?vid=a491bdd7-c56b-4ad9-9f1e-ed090c26045e","ios":"levelo://app?vid=a491bdd7-c56b-4ad9-9f1e-ed090c26045e"},"vehicle_type_id":"4","last_reported":1745957474,"current_range_meters":9600,"station_id":"","pricing_plan_id":"cebpf4jnsgd1na2vs0mg"},{"bike_id":"c7d4ca92-020f-4c6f-815a-ddc6fdf77b1f","system_id":"levelo_inurba_marseille","lat":43.23466,"lon":5.38036,"is_reserved":false,"is_disabled":false,"rental_uris":{"android":"levelo://app?vid=c7d4ca92-020f-4c6f-815a-ddc6fdf77b1f","ios":"levelo://app?vid=c7d4ca92-020f-4c6f-815a-ddc6fdf77b1f"},"vehicle_type_id":"4","last_reported":1745957474,"current_range_meters":9600,"station_id":"","pricing_plan_id":"cebpf4jnsgd1na2vs0mg"},{"bike_id":"4efa05db-6c6e-40a0-95a6-0ff3974dd921","system_id":"levelo_inurba_marseille","lat":43.30122,"lon":5.39063,"is_reserved":false,"is_disabled":false,"rental_uris":{"android":"levelo://app?vid=4efa05db-6c6e-40a0-95a6-0ff3974dd921","ios":"levelo://app?vid=4efa05db-6c6e-40a0-95a6-0ff3974dd921"},"vehicle_type_id":"4","last_reported":1745957474,"current_range_meters":9600,"station_id":"ce4bh192rcd13ifvqdb0","pricing_plan_id":"cebpf4jnsgd1na2vs0mg"},{"bike_id":"8663b10c-1e24-428c-bec4-66fabeba84de","system_id":"levelo_inurba_marseille","lat":43.30717,"lon":5.37355,"is_reserved":false,"is_disabled":false,"rental_uris":{"android":"levelo://app?vid=8663b10c-1e24-428c-bec4-66fabeba84de","ios":"levelo://app?vid=8663b10c-1e24-428c-bec4-66fabeba84de"},"vehicle_type_id":"4","last_reported":1745957474,"current_range_meters":10000,"station_id":"","pricing_plan_id":"cebpf4jnsgd1na2vs0mg"},{"bike_id":"0fbda7cd-f00d-4938-8e1e-60366b309981","system_id":"levelo_inurba_marseille","lat":43.28041,"lon":5.36947,"is_reserved":false,"is_disabled":false,"rental_uris":{"android":"levelo://app?vid=0fbda7cd-f00d-4938-8e1e-60366b309981","ios":"levelo://app?vid=0fbda7cd-f00d-4938-8e1e-60366b309981"},"vehicle_type_id":"4","last_reported":1745957474,"current_range_meters":10000,"station_id":"ce4bha12rcd13ifvqef0","pricing_plan_id":"cebpf4jnsgd1na2vs0mg"},{"bike_id":"48ec7ae3-ab99-4db4-af94-1858a85ee192","system_id":"levelo_inurba_marseille","lat":43.26559,"lon":5.3728,"is_reserved":false,"is_disabled":false,"rental_uris":{"android":"levelo://app?vid=48ec7ae3-ab99-4db4-af94-1858a85ee192","ios":"levelo://app?vid=48ec7ae3-ab99-4db4-af94-1858a85ee192"},"vehicle_type_id":"4","last_reported":1745957474,"current_range_meters":10000,"station_id":"ce4bhg12rcd13ifvqf70","pricing_plan_id":"cebpf4jnsgd1na2vs0mg"},{"bike_id":"70efc404-3ff3-43db-bf01-1431b57a3005","system_id":"levelo_inurba_marseille","lat":43.28569,"lon":5.39501,"is_reserved":false,"is_disabled":false,"rental_uris":{"android":"levelo://app?vid=70efc404-3ff3-43db-bf01-1431b57a3005","ios":"levelo://app?vid=70efc404-3ff3-43db-bf01-1431b57a3005"},"vehicle_type_id":"4","last_reported":1745957474,"current_range_meters":10000,"station_id":"ce4bh292rcd13ifvqdg0","pricing_plan_id":"cebpf4jnsgd1na2vs0mg"},{"bike_id":"950539c0-c2a7-4f10-9505-afe3371972fa","system_id":"levelo_inurba_marseille","lat":43.3065,"lon":5.40067,"is_reserved":false,"is_disabled":false,"rental_uris":{"android":"levelo://app?vid=950539c0-c2a7-4f10-9505-afe3371972fa","ios":"levelo://app?vid=950539c0-c2a7-4f10-9505-afe3371972fa"},"vehicle_type_id":"4","last_reported":1745957474,"current_range_meters":10800,"station_id":"ce4bh112rcd13ifvqda0","pricing_plan_id":"cebpf4jnsgd1na2vs0mg"},{"bike_id":"1be6b8de-5ed4-4d8a-9cd6-aeff3b5c0661","system_id":"levelo_inurba_marseille","lat":43.2895,"lon":5.37871,"is_reserved":false,"is_disabled":true,"rental_uris":{"android":"levelo://app?vid=1be6b8de-5ed4-4d8a-9cd6-aeff3b5c0661","ios":"levelo://app?vid=1be6b8de-5ed4-4d8a-9cd6-aeff3b5c0661"},"vehicle_type_id":"4","last_reported":1745957474,"current_range_meters":10800,"station_id":"ce4bh9p2rcd13ifvqed0","pricing_plan_id":"cebpf4jnsgd1na2vs0mg"},{"bike_id":"bcbdece9-18a4-4ced-8494-9c131639e5f6","system_id":"levelo_inurba_marseille","lat":43.26109,"lon":5.41469,"is_reserved":false,"is_disabled":false,"rental_uris":{"android":"levelo://app?vid=bcbdece9-18a4-4ced-8494-9c131639e5f6","ios":"levelo://app?vid=bcbdece9-18a4-4ced-8494-9c131639e5f6"},"vehicle_type_id":"4","last_reported":1745957474,"current_range_meters":10800,"station_id":"","pricing_plan_id":"cebpf4jnsgd1na2vs0mg"},{"bike_id":"36b4ce20-65fe-4aab-b165-00669c111173","system_id":"levelo_inurba_marseille","lat":43.29516,"lon":5.37508,"is_reserved":false,"is_disabled":false,"rental_uris":{"android":"levelo://app?vid=36b4ce20-65fe-4aab-b165-00669c111173","ios":"levelo://app?vid=36b4ce20-65fe-4aab-b165-00669c111173"},"vehicle_type_id":"4","last_reported":1745957474,"current_range_meters":10800,"station_id":"ce4bgkp2rcd13ifvqbmg","pricing_plan_id":"cebpf4jnsgd1na2vs0mg"},{"bike_id":"27e2acdd-2add-407a-a835-796f76c27c03","system_id":"levelo_inurba_marseille","lat":43.32104,"lon":5.36754,"is_reserved":false,"is_disabled":false,"rental_uris":{"android":"levelo://app?vid=27e2acdd-2add-407a-a835-796f76c27c03","ios":"levelo://app?vid=27e2acdd-2add-407a-a835-796f76c27c03"},"vehicle_type_id":"4","last_reported":1745957474,"current_range_meters":10800,"station_id":"ce4bhrh2rcd13ifvqhug","pricing_plan_id":"cebpf4jnsgd1na2vs0mg"},{"bike_id":"cadb4dee-15d6-41f9-983f-dfd4407e3790","system_id":"levelo_inurba_marseille","lat":43.30336,"lon":5.40416,"is_reserved":false,"is_disabled":false,"rental_uris":{"android":"levelo://app?vid=cadb4dee-15d6-41f9-983f-dfd4407e3790","ios":"levelo://app?vid=cadb4dee-15d6-41f9-983f-dfd4407e3790"},"vehicle_type_id":"4","last_reported":1745957474,"current_range_meters":10800,"station_id":"ce4bh012rcd13ifvqd10","pricing_plan_id":"cebpf4jnsgd1na2vs0mg"},{"bike_id":"8a43213b-1203-43d6-8196-a401fc90d043","system_id":"levelo_inurba_marseille","lat":43.24082,"lon":5.37754,"is_reserved":false,"is_disabled":false,"rental_uris":{"android":"levelo://app?vid=8a43213b-1203-43d6-8196-a401fc90d043","ios":"levelo://app?vid=8a43213b-1203-43d6-8196-a401fc90d043"},"vehicle_type_id":"4","last_reported":1745957474,"current_range_meters":11200,"station_id":"ce4bhnp2rcd13ifvqgvg","pricing_plan_id":"cebpf4jnsgd1na2vs0mg"},{"bike_id":"5e592f97-9930-4c61-83a5-6d3ae3fbd97f","system_id":"levelo_inurba_marseille","lat":43.28386,"lon":5.38655,"is_reserved":false,"is_disabled":false,"rental_uris":{"android":"levelo://app?vid=5e592f97-9930-4c61-83a5-6d3ae3fbd97f","ios":"levelo://app?vid=5e592f97-9930-4c61-83a5-6d3ae3fbd97f"},"vehicle_type_id":"4","last_reported":1745957474,"current_range_meters":11200,"station_id":"ce4bh492rcd13ifvqdvg","pricing_plan_id":"cebpf4jnsgd1na2vs0mg"},{"bike_id":"23ee87b9-f6c0-4dc4-afcb-68b5ea6f4da2","system_id":"levelo_inurba_marseille","lat":43.28565,"lon":5.39489,"is_reserved":false,"is_disabled":false,"rental_uris":{"android":"levelo://app?vid=23ee87b9-f6c0-4dc4-afcb-68b5ea6f4da2","ios":"levelo://app?vid=23ee87b9-f6c0-4dc4-afcb-68b5ea6f4da2"},"vehicle_type_id":"4","last_reported":1745957474,"current_range_meters":11200,"station_id":"ce4bh292rcd13ifvqdg0","pricing_plan_id":"cebpf4jnsgd1na2vs0mg"},{"bike_id":"644fe8ba-4ed9-4035-b2e2-e54e9eacc4b3","system_id":"levelo_inurba_marseille","lat":43.29266,"lon":5.38448,"is_reserved":false,"is_disabled":false,"rental_uris":{"android":"levelo://app?vid=644fe8ba-4ed9-4035-b2e2-e54e9eacc4b3","ios":"levelo://app?vid=644fe8ba-4ed9-4035-b2e2-e54e9eacc4b3"},"vehicle_type_id":"4","last_reported":1745957474,"current_range_meters":11200,"station_id":"ce4bh692rcd13ifvqea0","pricing_plan_id":"cebpf4jnsgd1na2vs0mg"},{"bike_id":"d376b874-b2e5-4918-9863-8919ce820f52","system_id":"levelo_inurba_marseille","lat":43.29974,"lon":5.38499,"is_reserved":false,"is_disabled":false,"rental_uris":{"android":"levelo://app?vid=d376b874-b2e5-4918-9863-8919ce820f52","ios":"levelo://app?vid=d376b874-b2e5-4918-9863-8919ce820f52"},"vehicle_type_id":"4","last_reported":1745957474,"current_range_meters":11200,"station_id":"ce4bgj92rcd13ifvqbd0","pricing_plan_id":"cebpf4jnsgd1na2vs0mg"},{"bike_id":"fca08fb1-9ba2-42e1-bd35-ded95b40ae34","system_id":"levelo_inurba_marseille","lat":43.32047,"lon":5.41578,"is_reserved":false,"is_disabled":false,"rental_uris":{"android":"levelo://app?vid=fca08fb1-9ba2-42e1-bd35-ded95b40ae34","ios":"levelo://app?vid=fca08fb1-9ba2-42e1-bd35-ded95b40ae34"},"vehicle_type_id":"4","last_reported":1745957474,"current_range_meters":10800,"station_id":"ce4bhq92rcd13ifvqhkg","pricing_plan_id":"cebpf4jnsgd1na2vs0mg"},{"bike_id":"f6afadf8-e6ff-4c7a-8692-5caf68fd0b71","system_id":"levelo_inurba_marseille","lat":43.22941,"lon":5.35416,"is_reserved":false,"is_disabled":true,"rental_uris":{"android":"levelo://app?vid=f6afadf8-e6ff-4c7a-8692-5caf68fd0b71","ios":"levelo://app?vid=f6afadf8-e6ff-4c7a-8692-5caf68fd0b71"},"vehicle_type_id":"4","last_reported":1745957474,"current_range_meters":11200,"station_id":"cpo3532slgdg3j2ikp40","pricing_plan_id":"cebpf4jnsgd1na2vs0mg"},{"bike_id":"f25e3889-6edc-4533-9360-4c8d66e74ee1","system_id":"levelo_inurba_marseille","lat":43.30131,"lon":5.39851,"is_reserved":false,"is_disabled":false,"rental_uris":{"android":"levelo://app?vid=f25e3889-6edc-4533-9360-4c8d66e74ee1","ios":"levelo://app?vid=f25e3889-6edc-4533-9360-4c8d66e74ee1"},"vehicle_type_id":"4","last_reported":1745957474,"current_range_meters":11200,"station_id":"ce4bh0h2rcd13ifvqd40","pricing_plan_id":"cebpf4jnsgd1na2vs0mg"},{"bike_id":"b59ce27f-4cb5-4d5d-b008-e4c837d90135","system_id":"levelo_inurba_marseille","lat":43.24659,"lon":5.38161,"is_reserved":false,"is_disabled":false,"rental_uris":{"android":"levelo://app?vid=b59ce27f-4cb5-4d5d-b008-e4c837d90135","ios":"levelo://app?vid=b59ce27f-4cb5-4d5d-b008-e4c837d90135"},"vehicle_type_id":"4","last_reported":1745957474,"current_range_meters":11600,"station_id":"ce4bhih2rcd13ifvqfr0","pricing_plan_id":"cebpf4jnsgd1na2vs0mg"},{"bike_id":"140f7be3-726c-41cd-aa20-2bedd4ddf2bb","system_id":"levelo_inurba_marseille","lat":43.29533,"lon":5.38513,"is_reserved":false,"is_disabled":false,"rental_uris":{"android":"levelo://app?vid=140f7be3-726c-41cd-aa20-2bedd4ddf2bb","ios":"levelo://app?vid=140f7be3-726c-41cd-aa20-2bedd4ddf2bb"},"vehicle_type_id":"4","last_reported":1745957474,"current_range_meters":11600,"station_id":"ce4bgih2rcd13ifvqba0","pricing_plan_id":"cebpf4jnsgd1na2vs0mg"},{"bike_id":"06b23fcf-d155-46c0-acd2-5b59645454ea","system_id":"levelo_inurba_marseille","lat":43.284698,"lon":5.384195,"is_reserved":false,"is_disabled":true,"rental_uris":{"android":"levelo://app?vid=06b23fcf-d155-46c0-acd2-5b59645454ea","ios":"levelo://app?vid=06b23fcf-d155-46c0-acd2-5b59645454ea"},"vehicle_type_id":"4","last_reported":1745957474,"current_range_meters":11600,"station_id":"ce4bh512rcd13ifvqe3g","pricing_plan_id":"cebpf4jnsgd1na2vs0mg"},{"bike_id":"863f0242-23ca-4221-bb2d-538994ed8a60","system_id":"levelo_inurba_marseille","lat":43.28155,"lon":5.42641,"is_reserved":false,"is_disabled":false,"rental_uris":{"android":"levelo://app?vid=863f0242-23ca-4221-bb2d-538994ed8a60","ios":"levelo://app?vid=863f0242-23ca-4221-bb2d-538994ed8a60"},"vehicle_type_id":"4","last_reported":1745957474,"current_range_meters":11600,"station_id":"ce4bhnh2rcd13ifvqgug","pricing_plan_id":"cebpf4jnsgd1na2vs0mg"},{"bike_id":"77c59250-8359-4942-8c07-a9c82964e824","system_id":"levelo_inurba_marseille","lat":43.284881,"lon":5.358914,"is_reserved":false,"is_disabled":true,"rental_uris":{"android":"levelo://app?vid=77c59250-8359-4942-8c07-a9c82964e824","ios":"levelo://app?vid=77c59250-8359-4942-8c07-a9c82964e824"},"vehicle_type_id":"4","last_reported":1745957474,"current_range_meters":11600,"station_id":"ce4bhah2rcd13ifvqei0","pricing_plan_id":"cebpf4jnsgd1na2vs0mg"},{"bike_id":"6ff32f17-7b9c-463f-a13f-79ee01c6a7e8","system_id":"levelo_inurba_marseille","lat":43.30271,"lon":5.40045,"is_reserved":false,"is_disabled":false,"rental_uris":{"android":"levelo://app?vid=6ff32f17-7b9c-463f-a13f-79ee01c6a7e8","ios":"levelo://app?vid=6ff32f17-7b9c-463f-a13f-79ee01c6a7e8"},"vehicle_type_id":"4","last_reported":1745957474,"current_range_meters":11600,"station_id":"ce4bgvh2rcd13ifvqcs0","pricing_plan_id":"cebpf4jnsgd1na2vs0mg"},{"bike_id":"a015aa72-4883-446b-a9a9-e16d84a5a524","system_id":"levelo_inurba_marseille","lat":43.30878,"lon":5.39665,"is_reserved":false,"is_disabled":false,"rental_uris":{"android":"levelo://app?vid=a015aa72-4883-446b-a9a9-e16d84a5a524","ios":"levelo://app?vid=a015aa72-4883-446b-a9a9-e16d84a5a524"},"vehicle_type_id":"4","last_reported":1745957474,"current_range_meters":11600,"station_id":"ce4bh012rcd13ifvqcv0","pricing_plan_id":"cebpf4jnsgd1na2vs0mg"},{"bike_id":"07d1be92-ba24-4925-8051-e4f0bf4e6b44","system_id":"levelo_inurba_marseille","lat":43.24796,"lon":5.37461,"is_reserved":false,"is_disabled":false,"rental_uris":{"android":"levelo://app?vid=07d1be92-ba24-4925-8051-e4f0bf4e6b44","ios":"levelo://app?vid=07d1be92-ba24-4925-8051-e4f0bf4e6b44"},"vehicle_type_id":"4","last_reported":1745957474,"current_range_meters":11600,"station_id":"ce4bhgh2rcd13ifvqfb0","pricing_plan_id":"cebpf4jnsgd1na2vs0mg"},{"bike_id":"b3a5d772-2205-4c8b-9b69-e745366b34c4","system_id":"levelo_inurba_marseille","lat":43.30135,"lon":5.39873,"is_reserved":false,"is_disabled":false,"rental_uris":{"android":"levelo://app?vid=b3a5d772-2205-4c8b-9b69-e745366b34c4","ios":"levelo://app?vid=b3a5d772-2205-4c8b-9b69-e745366b34c4"},"vehicle_type_id":"4","last_reported":1745957474,"current_range_meters":11200,"station_id":"ce4bh0h2rcd13ifvqd40","pricing_plan_id":"cebpf4jnsgd1na2vs0mg"},{"bike_id":"1c6e2801-d406-4688-a913-a775da6b0f13","system_id":"levelo_inurba_marseille","lat":43.22928,"lon":5.35388,"is_reserved":false,"is_disabled":false,"rental_uris":{"android":"levelo://app?vid=1c6e2801-d406-4688-a913-a775da6b0f13","ios":"levelo://app?vid=1c6e2801-d406-4688-a913-a775da6b0f13"},"vehicle_type_id":"4","last_reported":1745957474,"current_range_meters":11600,"station_id":"cpo3532slgdg3j2ikp40","pricing_plan_id":"cebpf4jnsgd1na2vs0mg"},{"bike_id":"ec086628-6f9f-429d-8544-9845320a8c83","system_id":"levelo_inurba_marseille","lat":43.29041,"lon":5.37567,"is_reserved":false,"is_disabled":false,"rental_uris":{"android":"levelo://app?vid=ec086628-6f9f-429d-8544-9845320a8c83","ios":"levelo://app?vid=ec086628-6f9f-429d-8544-9845320a8c83"},"vehicle_type_id":"4","last_reported":1745957474,"current_range_meters":12000,"station_id":"ce4bh692rcd13ifvqe90","pricing_plan_id":"cebpf4jnsgd1na2vs0mg"},{"bike_id":"489415b8-9254-45c1-b00c-e7554d56755c","system_id":"levelo_inurba_marseille","lat":43.245289,"lon":5.412188,"is_reserved":false,"is_disabled":false,"rental_uris":{"android":"levelo://app?vid=489415b8-9254-45c1-b00c-e7554d56755c","ios":"levelo://app?vid=489415b8-9254-45c1-b00c-e7554d56755c"},"vehicle_type_id":"4","last_reported":1745957474,"current_range_meters":12000,"station_id":"","pricing_plan_id":"cebpf4jnsgd1na2vs0mg"},{"bike_id":"bd2e7878-2808-4eef-96af-b8f8cd7282c4","system_id":"levelo_inurba_marseille","lat":43.32474,"lon":5.36575,"is_reserved":false,"is_disabled":false,"rental_uris":{"android":"levelo://app?vid=bd2e7878-2808-4eef-96af-b8f8cd7282c4","ios":"levelo://app?vid=bd2e7878-2808-4eef-96af-b8f8cd7282c4"},"vehicle_type_id":"4","last_reported":1745957474,"current_range_meters":11200,"station_id":"ce4bhs12rcd13ifvqhvg","pricing_plan_id":"cebpf4jnsgd1na2vs0mg"},{"bike_id":"6be31a70-4ead-4909-a3ae-237e4984fc96","system_id":"levelo_inurba_marseille","lat":43.27991,"lon":5.41658,"is_reserved":false,"is_disabled":false,"rental_uris":{"android":"levelo://app?vid=6be31a70-4ead-4909-a3ae-237e4984fc96","ios":"levelo://app?vid=6be31a70-4ead-4909-a3ae-237e4984fc96"},"vehicle_type_id":"4","last_reported":1745957474,"current_range_meters":12000,"station_id":"ce4bho12rcd13ifvqh1g","pricing_plan_id":"cebpf4jnsgd1na2vs0mg"},{"bike_id":"312629db-7553-4f57-8655-a25196d01b88","system_id":"levelo_inurba_marseille","lat":43.3037,"lon":5.42489,"is_reserved":false,"is_disabled":false,"rental_uris":{"android":"levelo://app?vid=312629db-7553-4f57-8655-a25196d01b88","ios":"levelo://app?vid=312629db-7553-4f57-8655-a25196d01b88"},"vehicle_type_id":"4","last_reported":1745957474,"current_range_meters":12000,"station_id":"ce4bhoh2rcd13ifvqh6g","pricing_plan_id":"cebpf4jnsgd1na2vs0mg"},{"bike_id":"fcf98ff2-cdb1-40f0-89e8-b6979a65c1c4","system_id":"levelo_inurba_marseille","lat":43.290215,"lon":5.381346,"is_reserved":false,"is_disabled":false,"rental_uris":{"android":"levelo://app?vid=fcf98ff2-cdb1-40f0-89e8-b6979a65c1c4","ios":"levelo://app?vid=fcf98ff2-cdb1-40f0-89e8-b6979a65c1c4"},"vehicle_type_id":"4","last_reported":1745957474,"current_range_meters":12000,"station_id":"ce4bh4p2rcd13ifvqe1g","pricing_plan_id":"cebpf4jnsgd1na2vs0mg"},{"bike_id":"17052e1b-097f-496a-9cd8-60e5384ab46f","system_id":"levelo_inurba_marseille","lat":43.26689,"lon":5.38273,"is_reserved":false,"is_disabled":false,"rental_uris":{"android":"levelo://app?vid=17052e1b-097f-496a-9cd8-60e5384ab46f","ios":"levelo://app?vid=17052e1b-097f-496a-9cd8-60e5384ab46f"},"vehicle_type_id":"4","last_reported":1745957474,"current_range_meters":11600,"station_id":"ce4bhg92rcd13ifvqf90","pricing_plan_id":"cebpf4jnsgd1na2vs0mg"},{"bike_id":"ecbbddad-df5a-4350-ae18-5856230db5e5","system_id":"levelo_inurba_marseille","lat":43.26219,"lon":5.40446,"is_reserved":false,"is_disabled":false,"rental_uris":{"android":"levelo://app?vid=ecbbddad-df5a-4350-ae18-5856230db5e5","ios":"levelo://app?vid=ecbbddad-df5a-4350-ae18-5856230db5e5"},"vehicle_type_id":"4","last_reported":1745957474,"current_range_meters":12000,"station_id":"ce4bhmh2rcd13ifvqgmg","pricing_plan_id":"cebpf4jnsgd1na2vs0mg"},{"bike_id":"071a671b-fb53-468b-ba8f-96ef79b57233","system_id":"levelo_inurba_marseille","lat":43.32351,"lon":5.36724,"is_reserved":false,"is_disabled":false,"rental_uris":{"android":"levelo://app?vid=071a671b-fb53-468b-ba8f-96ef79b57233","ios":"levelo://app?vid=071a671b-fb53-468b-ba8f-96ef79b57233"},"vehicle_type_id":"4","last_reported":1745957474,"current_range_meters":12000,"station_id":"ce4bhsh2rcd13ifvqi2g","pricing_plan_id":"cebpf4jnsgd1na2vs0mg"},{"bike_id":"8f73abde-d031-4c99-94b0-165e3d649416","system_id":"levelo_inurba_marseille","lat":43.24388,"lon":5.37052,"is_reserved":false,"is_disabled":false,"rental_uris":{"android":"levelo://app?vid=8f73abde-d031-4c99-94b0-165e3d649416","ios":"levelo://app?vid=8f73abde-d031-4c99-94b0-165e3d649416"},"vehicle_type_id":"4","last_reported":1745957474,"current_range_meters":11600,"station_id":"ce4bhhh2rcd13ifvqfk0","pricing_plan_id":"cebpf4jnsgd1na2vs0mg"},{"bike_id":"27525149-fd94-4886-b071-36d71bfba63d","system_id":"levelo_inurba_marseille","lat":43.293654,"lon":5.378405,"is_reserved":false,"is_disabled":false,"rental_uris":{"android":"levelo://app?vid=27525149-fd94-4886-b071-36d71bfba63d","ios":"levelo://app?vid=27525149-fd94-4886-b071-36d71bfba63d"},"vehicle_type_id":"4","last_reported":1745957474,"current_range_meters":12400,"station_id":"","pricing_plan_id":"cebpf4jnsgd1na2vs0mg"},{"bike_id":"3ae641eb-772b-47f4-9c6f-a55115e8b3d3","system_id":"levelo_inurba_marseille","lat":43.29205,"lon":5.35781,"is_reserved":false,"is_disabled":true,"rental_uris":{"android":"levelo://app?vid=3ae641eb-772b-47f4-9c6f-a55115e8b3d3","ios":"levelo://app?vid=3ae641eb-772b-47f4-9c6f-a55115e8b3d3"},"vehicle_type_id":"4","last_reported":1745957474,"current_range_meters":12400,"station_id":"ce4bhb12rcd13ifvqel0","pricing_plan_id":"cebpf4jnsgd1na2vs0mg"},{"bike_id":"1d8c30e9-2d50-49d8-a370-b341e5e80c01","system_id":"levelo_inurba_marseille","lat":43.29167,"lon":5.37159,"is_reserved":false,"is_disabled":false,"rental_uris":{"android":"levelo://app?vid=1d8c30e9-2d50-49d8-a370-b341e5e80c01","ios":"levelo://app?vid=1d8c30e9-2d50-49d8-a370-b341e5e80c01"},"vehicle_type_id":"4","last_reported":1745957474,"current_range_meters":12400,"station_id":"ce4bha92rcd13ifvqeh0","pricing_plan_id":"cebpf4jnsgd1na2vs0mg"},{"bike_id":"9fef158f-32d9-4324-99f3-536a7be998bc","system_id":"levelo_inurba_marseille","lat":43.29261,"lon":5.3762,"is_reserved":false,"is_disabled":false,"rental_uris":{"android":"levelo://app?vid=9fef158f-32d9-4324-99f3-536a7be998bc","ios":"levelo://app?vid=9fef158f-32d9-4324-99f3-536a7be998bc"},"vehicle_type_id":"4","last_reported":1745957474,"current_range_meters":12400,"station_id":"ce4bgi12rcd13ifvqb80","pricing_plan_id":"cebpf4jnsgd1na2vs0mg"},{"bike_id":"3da4f807-a9a7-4e80-80cc-47afecae7882","system_id":"levelo_inurba_marseille","lat":43.27999,"lon":5.39999,"is_reserved":false,"is_disabled":false,"rental_uris":{"android":"levelo://app?vid=3da4f807-a9a7-4e80-80cc-47afecae7882","ios":"levelo://app?vid=3da4f807-a9a7-4e80-80cc-47afecae7882"},"vehicle_type_id":"4","last_reported":1745957474,"current_range_meters":12400,"station_id":"ce4bho92rcd13ifvqh4g","pricing_plan_id":"cebpf4jnsgd1na2vs0mg"},{"bike_id":"74511ef3-c917-4880-8a70-4e1f58f6bf79","system_id":"levelo_inurba_marseille","lat":43.30419,"lon":5.397525,"is_reserved":false,"is_disabled":false,"rental_uris":{"android":"levelo://app?vid=74511ef3-c917-4880-8a70-4e1f58f6bf79","ios":"levelo://app?vid=74511ef3-c917-4880-8a70-4e1f58f6bf79"},"vehicle_type_id":"4","last_reported":1745957474,"current_range_meters":12400,"station_id":"ce4bh092rcd13ifvqd20","pricing_plan_id":"cebpf4jnsgd1na2vs0mg"},{"bike_id":"07edfd45-c3fa-4b57-b865-cf1bf9963264","system_id":"levelo_inurba_marseille","lat":43.23393,"lon":5.36422,"is_reserved":false,"is_disabled":false,"rental_uris":{"android":"levelo://app?vid=07edfd45-c3fa-4b57-b865-cf1bf9963264","ios":"levelo://app?vid=07edfd45-c3fa-4b57-b865-cf1bf9963264"},"vehicle_type_id":"4","last_reported":1745957474,"current_range_meters":12400,"station_id":"","pricing_plan_id":"cebpf4jnsgd1na2vs0mg"},{"bike_id":"d245d956-ea92-4b49-96a2-dd79157f7448","system_id":"levelo_inurba_marseille","lat":43.29045,"lon":5.38134,"is_reserved":false,"is_disabled":false,"rental_uris":{"android":"levelo://app?vid=d245d956-ea92-4b49-96a2-dd79157f7448","ios":"levelo://app?vid=d245d956-ea92-4b49-96a2-dd79157f7448"},"vehicle_type_id":"4","last_reported":1745957474,"current_range_meters":12400,"station_id":"ce4bh4p2rcd13ifvqe1g","pricing_plan_id":"cebpf4jnsgd1na2vs0mg"},{"bike_id":"4d4778ed-b855-40e3-aed9-6ce2157d0719","system_id":"levelo_inurba_marseille","lat":43.31325,"lon":5.397,"is_reserved":false,"is_disabled":false,"rental_uris":{"android":"levelo://app?vid=4d4778ed-b855-40e3-aed9-6ce2157d0719","ios":"levelo://app?vid=4d4778ed-b855-40e3-aed9-6ce2157d0719"},"vehicle_type_id":"4","last_reported":1745957474,"current_range_meters":12400,"station_id":"ce4bgvp2rcd13ifvqcu0","pricing_plan_id":"cebpf4jnsgd1na2vs0mg"},{"bike_id":"98e9d68c-93bf-49c5-804f-ebffb6cde788","system_id":"levelo_inurba_marseille","lat":43.25835,"lon":5.39414,"is_reserved":false,"is_disabled":false,"rental_uris":{"android":"levelo://app?vid=98e9d68c-93bf-49c5-804f-ebffb6cde788","ios":"levelo://app?vid=98e9d68c-93bf-49c5-804f-ebffb6cde788"},"vehicle_type_id":"4","last_reported":1745957474,"current_range_meters":12400,"station_id":"ce4bhip2rcd13ifvqft0","pricing_plan_id":"cebpf4jnsgd1na2vs0mg"},{"bike_id":"c56a47f0-2d61-45e2-8a64-076210c9354c","system_id":"levelo_inurba_marseille","lat":43.32044,"lon":5.41546,"is_reserved":false,"is_disabled":false,"rental_uris":{"android":"levelo://app?vid=c56a47f0-2d61-45e2-8a64-076210c9354c","ios":"levelo://app?vid=c56a47f0-2d61-45e2-8a64-076210c9354c"},"vehicle_type_id":"4","last_reported":1745957474,"current_range_meters":12400,"station_id":"ce4bhq92rcd13ifvqhkg","pricing_plan_id":"cebpf4jnsgd1na2vs0mg"},{"bike_id":"ddf42e2f-5ba3-456f-b6b9-71a4fb220f7c","system_id":"levelo_inurba_marseille","lat":43.217662,"lon":5.346172,"is_reserved":false,"is_disabled":false,"rental_uris":{"android":"levelo://app?vid=ddf42e2f-5ba3-456f-b6b9-71a4fb220f7c","ios":"levelo://app?vid=ddf42e2f-5ba3-456f-b6b9-71a4fb220f7c"},"vehicle_type_id":"4","last_reported":1745957474,"current_range_meters":13600,"station_id":"st_cvj6r9ubvosntc0bgbag","pricing_plan_id":"cebpf4jnsgd1na2vs0mg"},{"bike_id":"135cf400-26d1-41bd-885e-740d0032e567","system_id":"levelo_inurba_marseille","lat":43.27837,"lon":5.3921,"is_reserved":false,"is_disabled":false,"rental_uris":{"android":"levelo://app?vid=135cf400-26d1-41bd-885e-740d0032e567","ios":"levelo://app?vid=135cf400-26d1-41bd-885e-740d0032e567"},"vehicle_type_id":"4","last_reported":1745957474,"current_range_meters":12800,"station_id":"ce4bhjp2rcd13ifvqga0","pricing_plan_id":"cebpf4jnsgd1na2vs0mg"},{"bike_id":"3a9bd96a-1d84-454e-b55b-a4ef583e3749","system_id":"levelo_inurba_marseille","lat":43.266855,"lon":5.382585,"is_reserved":false,"is_disabled":true,"rental_uris":{"android":"levelo://app?vid=3a9bd96a-1d84-454e-b55b-a4ef583e3749","ios":"levelo://app?vid=3a9bd96a-1d84-454e-b55b-a4ef583e3749"},"vehicle_type_id":"4","last_reported":1745957474,"current_range_meters":12800,"station_id":"ce4bhg92rcd13ifvqf90","pricing_plan_id":"cebpf4jnsgd1na2vs0mg"},{"bike_id":"2b01d62e-170d-4ab4-9b5e-f578190efb7b","system_id":"levelo_inurba_marseille","lat":43.29,"lon":5.35617,"is_reserved":false,"is_disabled":false,"rental_uris":{"android":"levelo://app?vid=2b01d62e-170d-4ab4-9b5e-f578190efb7b","ios":"levelo://app?vid=2b01d62e-170d-4ab4-9b5e-f578190efb7b"},"vehicle_type_id":"4","last_reported":1745957474,"current_range_meters":12800,"station_id":"ce4bhb92rcd13ifvqen0","pricing_plan_id":"cebpf4jnsgd1na2vs0mg"},{"bike_id":"28a604ef-98c1-4aff-ab31-a10d3a8eae96","system_id":"levelo_inurba_marseille","lat":43.29528,"lon":5.37511,"is_reserved":false,"is_disabled":true,"rental_uris":{"android":"levelo://app?vid=28a604ef-98c1-4aff-ab31-a10d3a8eae96","ios":"levelo://app?vid=28a604ef-98c1-4aff-ab31-a10d3a8eae96"},"vehicle_type_id":"4","last_reported":1745957474,"current_range_meters":12800,"station_id":"ce4bgkp2rcd13ifvqbmg","pricing_plan_id":"cebpf4jnsgd1na2vs0mg"},{"bike_id":"40cd9c09-5d6c-4b2c-a5ec-3d25d8f86287","system_id":"levelo_inurba_marseille","lat":43.25089,"lon":5.39515,"is_reserved":false,"is_disabled":false,"rental_uris":{"android":"levelo://app?vid=40cd9c09-5d6c-4b2c-a5ec-3d25d8f86287","ios":"levelo://app?vid=40cd9c09-5d6c-4b2c-a5ec-3d25d8f86287"},"vehicle_type_id":"4","last_reported":1745957474,"current_range_meters":13600,"station_id":"ce4bhm12rcd13ifvqgkg","pricing_plan_id":"cebpf4jnsgd1na2vs0mg"},{"bike_id":"9d06d3a8-5b22-4e32-992c-2c17344fc95d","system_id":"levelo_inurba_marseille","lat":43.3061,"lon":5.37231,"is_reserved":false,"is_disabled":false,"rental_uris":{"android":"levelo://app?vid=9d06d3a8-5b22-4e32-992c-2c17344fc95d","ios":"levelo://app?vid=9d06d3a8-5b22-4e32-992c-2c17344fc95d"},"vehicle_type_id":"4","last_reported":1745957474,"current_range_meters":13600,"station_id":"ce4bgqh2rcd13ifvqc4g","pricing_plan_id":"cebpf4jnsgd1na2vs0mg"},{"bike_id":"561a6021-d676-41d6-beca-778ae018bc9f","system_id":"levelo_inurba_marseille","lat":43.2948,"lon":5.39569,"is_reserved":false,"is_disabled":false,"rental_uris":{"android":"levelo://app?vid=561a6021-d676-41d6-beca-778ae018bc9f","ios":"levelo://app?vid=561a6021-d676-41d6-beca-778ae018bc9f"},"vehicle_type_id":"4","last_reported":1745957474,"current_range_meters":13600,"station_id":"ce4bh292rcd13ifvqdf0","pricing_plan_id":"cebpf4jnsgd1na2vs0mg"},{"bike_id":"0946df0c-8b25-4d89-8f93-affc2e1828f1","system_id":"levelo_inurba_marseille","lat":43.3013,"lon":5.39872,"is_reserved":false,"is_disabled":false,"rental_uris":{"android":"levelo://app?vid=0946df0c-8b25-4d89-8f93-affc2e1828f1","ios":"levelo://app?vid=0946df0c-8b25-4d89-8f93-affc2e1828f1"},"vehicle_type_id":"4","last_reported":1745957474,"current_range_meters":13600,"station_id":"ce4bh0h2rcd13ifvqd40","pricing_plan_id":"cebpf4jnsgd1na2vs0mg"},{"bike_id":"fe0c4d1a-9874-47df-b868-a5e70081d8ce","system_id":"levelo_inurba_marseille","lat":43.22937,"lon":5.35377,"is_reserved":false,"is_disabled":false,"rental_uris":{"android":"levelo://app?vid=fe0c4d1a-9874-47df-b868-a5e70081d8ce","ios":"levelo://app?vid=fe0c4d1a-9874-47df-b868-a5e70081d8ce"},"vehicle_type_id":"4","last_reported":1745957474,"current_range_meters":13600,"station_id":"cpo3532slgdg3j2ikp40","pricing_plan_id":"cebpf4jnsgd1na2vs0mg"},{"bike_id":"4ec97f22-9410-492f-81ef-9457cf5007ea","system_id":"levelo_inurba_marseille","lat":43.27944,"lon":5.4104,"is_reserved":false,"is_disabled":false,"rental_uris":{"android":"levelo://app?vid=4ec97f22-9410-492f-81ef-9457cf5007ea","ios":"levelo://app?vid=4ec97f22-9410-492f-81ef-9457cf5007ea"},"vehicle_type_id":"4","last_reported":1745957474,"current_range_meters":14000,"station_id":"ce4bhnp2rcd13ifvqh0g","pricing_plan_id":"cebpf4jnsgd1na2vs0mg"},{"bike_id":"ef2a5eed-770f-4651-814b-127f481e0817","system_id":"levelo_inurba_marseille","lat":43.29447,"lon":5.39752,"is_reserved":false,"is_disabled":false,"rental_uris":{"android":"levelo://app?vid=ef2a5eed-770f-4651-814b-127f481e0817","ios":"levelo://app?vid=ef2a5eed-770f-4651-814b-127f481e0817"},"vehicle_type_id":"4","last_reported":1745957474,"current_range_meters":14000,"station_id":"ce4bh3h2rcd13ifvqdo0","pricing_plan_id":"cebpf4jnsgd1na2vs0mg"},{"bike_id":"2ce20441-e6df-4ca9-a035-f958029ea223","system_id":"levelo_inurba_marseille","lat":43.283492,"lon":5.381075,"is_reserved":false,"is_disabled":false,"rental_uris":{"android":"levelo://app?vid=2ce20441-e6df-4ca9-a035-f958029ea223","ios":"levelo://app?vid=2ce20441-e6df-4ca9-a035-f958029ea223"},"vehicle_type_id":"4","last_reported":1745957474,"current_range_meters":14000,"station_id":"ce4bh412rcd13ifvqdr0","pricing_plan_id":"cebpf4jnsgd1na2vs0mg"},{"bike_id":"6fa1d599-c1fa-466f-9e73-adc447dd7d01","system_id":"levelo_inurba_marseille","lat":43.2953,"lon":5.38547,"is_reserved":false,"is_disabled":false,"rental_uris":{"android":"levelo://app?vid=6fa1d599-c1fa-466f-9e73-adc447dd7d01","ios":"levelo://app?vid=6fa1d599-c1fa-466f-9e73-adc447dd7d01"},"vehicle_type_id":"4","last_reported":1745957474,"current_range_meters":14000,"station_id":"ce4bgih2rcd13ifvqba0","pricing_plan_id":"cebpf4jnsgd1na2vs0mg"},{"bike_id":"cfeda04c-02c8-4df2-b843-e87cedd38c29","system_id":"levelo_inurba_marseille","lat":43.28335,"lon":5.386027,"is_reserved":false,"is_disabled":false,"rental_uris":{"android":"levelo://app?vid=cfeda04c-02c8-4df2-b843-e87cedd38c29","ios":"levelo://app?vid=cfeda04c-02c8-4df2-b843-e87cedd38c29"},"vehicle_type_id":"4","last_reported":1745957474,"current_range_meters":14400,"station_id":"ce4bh492rcd13ifvqdvg","pricing_plan_id":"cebpf4jnsgd1na2vs0mg"},{"bike_id":"d80dd30a-de8b-4035-b5cb-36684994461c","system_id":"levelo_inurba_marseille","lat":43.29197,"lon":5.39312,"is_reserved":false,"is_disabled":false,"rental_uris":{"android":"levelo://app?vid=d80dd30a-de8b-4035-b5cb-36684994461c","ios":"levelo://app?vid=d80dd30a-de8b-4035-b5cb-36684994461c"},"vehicle_type_id":"4","last_reported":1745957474,"current_range_meters":14400,"station_id":"ce4bh192rcd13ifvqdd0","pricing_plan_id":"cebpf4jnsgd1na2vs0mg"},{"bike_id":"6d1c5eaf-041b-4e46-be6f-e55c97ecb5cb","system_id":"levelo_inurba_marseille","lat":43.32032,"lon":5.3817,"is_reserved":false,"is_disabled":false,"rental_uris":{"android":"levelo://app?vid=6d1c5eaf-041b-4e46-be6f-e55c97ecb5cb","ios":"levelo://app?vid=6d1c5eaf-041b-4e46-be6f-e55c97ecb5cb"},"vehicle_type_id":"4","last_reported":1745957474,"current_range_meters":14400,"station_id":"ce4bhr12rcd13ifvqhpg","pricing_plan_id":"cebpf4jnsgd1na2vs0mg"},{"bike_id":"d50cb595-81a6-406b-90c1-e39a8ffa9f99","system_id":"levelo_inurba_marseille","lat":43.241785,"lon":5.397241,"is_reserved":false,"is_disabled":false,"rental_uris":{"android":"levelo://app?vid=d50cb595-81a6-406b-90c1-e39a8ffa9f99","ios":"levelo://app?vid=d50cb595-81a6-406b-90c1-e39a8ffa9f99"},"vehicle_type_id":"4","last_reported":1745957474,"current_range_meters":14400,"station_id":"ce4bhn12rcd13ifvqgpg","pricing_plan_id":"cebpf4jnsgd1na2vs0mg"},{"bike_id":"c0c8d5cd-b1b6-485b-995b-e8f1d29e4490","system_id":"levelo_inurba_marseille","lat":43.28115,"lon":5.37844,"is_reserved":false,"is_disabled":false,"rental_uris":{"android":"levelo://app?vid=c0c8d5cd-b1b6-485b-995b-e8f1d29e4490","ios":"levelo://app?vid=c0c8d5cd-b1b6-485b-995b-e8f1d29e4490"},"vehicle_type_id":"4","last_reported":1745957474,"current_range_meters":14400,"station_id":"ce4bha12rcd13ifvqee0","pricing_plan_id":"cebpf4jnsgd1na2vs0mg"},{"bike_id":"f036fec6-300f-41ed-8444-a498cd37fcac","system_id":"levelo_inurba_marseille","lat":43.313238,"lon":5.396936,"is_reserved":false,"is_disabled":false,"rental_uris":{"android":"levelo://app?vid=f036fec6-300f-41ed-8444-a498cd37fcac","ios":"levelo://app?vid=f036fec6-300f-41ed-8444-a498cd37fcac"},"vehicle_type_id":"4","last_reported":1745957474,"current_range_meters":14400,"station_id":"ce4bgvp2rcd13ifvqcu0","pricing_plan_id":"cebpf4jnsgd1na2vs0mg"},{"bike_id":"0d470db8-b207-4f81-83b9-fc475c0aee75","system_id":"levelo_inurba_marseille","lat":43.29072,"lon":5.37157,"is_reserved":false,"is_disabled":false,"rental_uris":{"android":"levelo://app?vid=0d470db8-b207-4f81-83b9-fc475c0aee75","ios":"levelo://app?vid=0d470db8-b207-4f81-83b9-fc475c0aee75"},"vehicle_type_id":"4","last_reported":1745957474,"current_range_meters":14000,"station_id":"ce4bh5p2rcd13ifvqe4g","pricing_plan_id":"cebpf4jnsgd1na2vs0mg"},{"bike_id":"7c7b0a82-1fc2-49ec-852f-88ebcb89b7cf","system_id":"levelo_inurba_marseille","lat":43.306497,"lon":5.40085,"is_reserved":false,"is_disabled":false,"rental_uris":{"android":"levelo://app?vid=7c7b0a82-1fc2-49ec-852f-88ebcb89b7cf","ios":"levelo://app?vid=7c7b0a82-1fc2-49ec-852f-88ebcb89b7cf"},"vehicle_type_id":"4","last_reported":1745957474,"current_range_meters":14400,"station_id":"ce4bh112rcd13ifvqda0","pricing_plan_id":"cebpf4jnsgd1na2vs0mg"},{"bike_id":"579836eb-7157-4a8d-a6a3-8040ac103653","system_id":"levelo_inurba_marseille","lat":43.32293,"lon":5.38261,"is_reserved":false,"is_disabled":false,"rental_uris":{"android":"levelo://app?vid=579836eb-7157-4a8d-a6a3-8040ac103653","ios":"levelo://app?vid=579836eb-7157-4a8d-a6a3-8040ac103653"},"vehicle_type_id":"4","last_reported":1745957474,"current_range_meters":14800,"station_id":"ce4bhr12rcd13ifvqhqg","pricing_plan_id":"cebpf4jnsgd1na2vs0mg"},{"bike_id":"67946696-e1b4-48e1-9aea-70b477d4f50c","system_id":"levelo_inurba_marseille","lat":43.3066,"lon":5.40086,"is_reserved":false,"is_disabled":false,"rental_uris":{"android":"levelo://app?vid=67946696-e1b4-48e1-9aea-70b477d4f50c","ios":"levelo://app?vid=67946696-e1b4-48e1-9aea-70b477d4f50c"},"vehicle_type_id":"4","last_reported":1745957474,"current_range_meters":14800,"station_id":"ce4bh112rcd13ifvqda0","pricing_plan_id":"cebpf4jnsgd1na2vs0mg"},{"bike_id":"51756818-75ba-43be-8091-d7f8562b0842","system_id":"levelo_inurba_marseille","lat":43.28079,"lon":5.39661,"is_reserved":false,"is_disabled":false,"rental_uris":{"android":"levelo://app?vid=51756818-75ba-43be-8091-d7f8562b0842","ios":"levelo://app?vid=51756818-75ba-43be-8091-d7f8562b0842"},"vehicle_type_id":"4","last_reported":1745957474,"current_range_meters":14800,"station_id":"ce4bho12rcd13ifvqh2g","pricing_plan_id":"cebpf4jnsgd1na2vs0mg"},{"bike_id":"dcb0b990-89f9-495c-a9c1-10b17ae39667","system_id":"levelo_inurba_marseille","lat":43.23478,"lon":5.38035,"is_reserved":false,"is_disabled":false,"rental_uris":{"android":"levelo://app?vid=dcb0b990-89f9-495c-a9c1-10b17ae39667","ios":"levelo://app?vid=dcb0b990-89f9-495c-a9c1-10b17ae39667"},"vehicle_type_id":"4","last_reported":1745957474,"current_range_meters":14800,"station_id":"","pricing_plan_id":"cebpf4jnsgd1na2vs0mg"},{"bike_id":"29ecb063-fa41-4b94-9859-35b636ea422a","system_id":"levelo_inurba_marseille","lat":43.30471,"lon":5.37903,"is_reserved":false,"is_disabled":false,"rental_uris":{"android":"levelo://app?vid=29ecb063-fa41-4b94-9859-35b636ea422a","ios":"levelo://app?vid=29ecb063-fa41-4b94-9859-35b636ea422a"},"vehicle_type_id":"4","last_reported":1745957474,"current_range_meters":14800,"station_id":"ce4bgup2rcd13ifvqcn0","pricing_plan_id":"cebpf4jnsgd1na2vs0mg"},{"bike_id":"9ee8302a-3ecd-4144-919a-66f5a4c1a757","system_id":"levelo_inurba_marseille","lat":43.28726,"lon":5.37934,"is_reserved":false,"is_disabled":false,"rental_uris":{"android":"levelo://app?vid=9ee8302a-3ecd-4144-919a-66f5a4c1a757","ios":"levelo://app?vid=9ee8302a-3ecd-4144-919a-66f5a4c1a757"},"vehicle_type_id":"4","last_reported":1745957474,"current_range_meters":14800,"station_id":"ce4bh9p2rcd13ifvqec0","pricing_plan_id":"cebpf4jnsgd1na2vs0mg"},{"bike_id":"759b3195-457e-4dd3-b042-8ccf7e20657d","system_id":"levelo_inurba_marseille","lat":43.30926,"lon":5.40134,"is_reserved":false,"is_disabled":false,"rental_uris":{"android":"levelo://app?vid=759b3195-457e-4dd3-b042-8ccf7e20657d","ios":"levelo://app?vid=759b3195-457e-4dd3-b042-8ccf7e20657d"},"vehicle_type_id":"4","last_reported":1745957474,"current_range_meters":14400,"station_id":"ce4bgvp2rcd13ifvqct0","pricing_plan_id":"cebpf4jnsgd1na2vs0mg"},{"bike_id":"657dd7f1-8927-48c0-9f5a-b8b60efd5be1","system_id":"levelo_inurba_marseille","lat":43.28857,"lon":5.39319,"is_reserved":false,"is_disabled":false,"rental_uris":{"android":"levelo://app?vid=657dd7f1-8927-48c0-9f5a-b8b60efd5be1","ios":"levelo://app?vid=657dd7f1-8927-48c0-9f5a-b8b60efd5be1"},"vehicle_type_id":"4","last_reported":1745957474,"current_range_meters":14800,"station_id":"ce4bh2p2rcd13ifvqdi0","pricing_plan_id":"cebpf4jnsgd1na2vs0mg"},{"bike_id":"8c199785-44bf-4881-860b-3028fef973ae","system_id":"levelo_inurba_marseille","lat":43.2844,"lon":5.39194,"is_reserved":false,"is_disabled":false,"rental_uris":{"android":"levelo://app?vid=8c199785-44bf-4881-860b-3028fef973ae","ios":"levelo://app?vid=8c199785-44bf-4881-860b-3028fef973ae"},"vehicle_type_id":"4","last_reported":1745957474,"current_range_meters":15200,"station_id":"ce4bhoh2rcd13ifvqh5g","pricing_plan_id":"cebpf4jnsgd1na2vs0mg"},{"bike_id":"84fb5c27-5949-4b24-a8a9-c6555f9d50d5","system_id":"levelo_inurba_marseille","lat":43.29274,"lon":5.40129,"is_reserved":false,"is_disabled":false,"rental_uris":{"android":"levelo://app?vid=84fb5c27-5949-4b24-a8a9-c6555f9d50d5","ios":"levelo://app?vid=84fb5c27-5949-4b24-a8a9-c6555f9d50d5"},"vehicle_type_id":"4","last_reported":1745957474,"current_range_meters":15200,"station_id":"ce4bh312rcd13ifvqdk0","pricing_plan_id":"cebpf4jnsgd1na2vs0mg"},{"bike_id":"d66116ca-c331-454a-937e-ae9c42c2d0fd","system_id":"levelo_inurba_marseille","lat":43.29621,"lon":5.37171,"is_reserved":false,"is_disabled":false,"rental_uris":{"android":"levelo://app?vid=d66116ca-c331-454a-937e-ae9c42c2d0fd","ios":"levelo://app?vid=d66116ca-c331-454a-937e-ae9c42c2d0fd"},"vehicle_type_id":"4","last_reported":1745957474,"current_range_meters":14800,"station_id":"ce4bgnh2rcd13ifvqc0g","pricing_plan_id":"cebpf4jnsgd1na2vs0mg"},{"bike_id":"f7df6a93-381a-4066-a9f4-86ba131c44d6","system_id":"levelo_inurba_marseille","lat":43.28932,"lon":5.38398,"is_reserved":false,"is_disabled":false,"rental_uris":{"android":"levelo://app?vid=f7df6a93-381a-4066-a9f4-86ba131c44d6","ios":"levelo://app?vid=f7df6a93-381a-4066-a9f4-86ba131c44d6"},"vehicle_type_id":"4","last_reported":1745957474,"current_range_meters":15200,"station_id":"ce4bh612rcd13ifvqe6g","pricing_plan_id":"cebpf4jnsgd1na2vs0mg"},{"bike_id":"63660d50-cec5-4474-95ef-e4766280d7ae","system_id":"levelo_inurba_marseille","lat":43.27623,"lon":5.36107,"is_reserved":false,"is_disabled":false,"rental_uris":{"android":"levelo://app?vid=63660d50-cec5-4474-95ef-e4766280d7ae","ios":"levelo://app?vid=63660d50-cec5-4474-95ef-e4766280d7ae"},"vehicle_type_id":"4","last_reported":1745957474,"current_range_meters":16000,"station_id":"ce4bgj92rcd13ifvqbe0","pricing_plan_id":"cebpf4jnsgd1na2vs0mg"},{"bike_id":"64179f61-bc18-4857-aead-66838389f8ed","system_id":"levelo_inurba_marseille","lat":43.28932,"lon":5.38396,"is_reserved":false,"is_disabled":false,"rental_uris":{"android":"levelo://app?vid=64179f61-bc18-4857-aead-66838389f8ed","ios":"levelo://app?vid=64179f61-bc18-4857-aead-66838389f8ed"},"vehicle_type_id":"4","last_reported":1745957474,"current_range_meters":16000,"station_id":"ce4bh612rcd13ifvqe6g","pricing_plan_id":"cebpf4jnsgd1na2vs0mg"},{"bike_id":"8c0bbe7d-2700-477d-9ca7-69d8330812d6","system_id":"levelo_inurba_marseille","lat":43.30156,"lon":5.38104,"is_reserved":false,"is_disabled":false,"rental_uris":{"android":"levelo://app?vid=8c0bbe7d-2700-477d-9ca7-69d8330812d6","ios":"levelo://app?vid=8c0bbe7d-2700-477d-9ca7-69d8330812d6"},"vehicle_type_id":"4","last_reported":1745957474,"current_range_meters":16000,"station_id":"ce4bgjp2rcd13ifvqbh0","pricing_plan_id":"cebpf4jnsgd1na2vs0mg"},{"bike_id":"19bc52c3-74db-454f-9839-b056878a7608","system_id":"levelo_inurba_marseille","lat":43.26705,"lon":5.38267,"is_reserved":false,"is_disabled":true,"rental_uris":{"android":"levelo://app?vid=19bc52c3-74db-454f-9839-b056878a7608","ios":"levelo://app?vid=19bc52c3-74db-454f-9839-b056878a7608"},"vehicle_type_id":"4","last_reported":1745957474,"current_range_meters":16000,"station_id":"ce4bhg92rcd13ifvqf90","pricing_plan_id":"cebpf4jnsgd1na2vs0mg"},{"bike_id":"d8e5d3ff-f37e-40c5-87ce-2a547960cdad","system_id":"levelo_inurba_marseille","lat":43.29442,"lon":5.401471,"is_reserved":false,"is_disabled":false,"rental_uris":{"android":"levelo://app?vid=d8e5d3ff-f37e-40c5-87ce-2a547960cdad","ios":"levelo://app?vid=d8e5d3ff-f37e-40c5-87ce-2a547960cdad"},"vehicle_type_id":"4","last_reported":1745957474,"current_range_meters":16000,"station_id":"ce501612rcd8frsf0b60","pricing_plan_id":"cebpf4jnsgd1na2vs0mg"},{"bike_id":"bedcd02c-381b-4901-a8cc-46c103f4a23c","system_id":"levelo_inurba_marseille","lat":43.31361,"lon":5.38493,"is_reserved":false,"is_disabled":false,"rental_uris":{"android":"levelo://app?vid=bedcd02c-381b-4901-a8cc-46c103f4a23c","ios":"levelo://app?vid=bedcd02c-381b-4901-a8cc-46c103f4a23c"},"vehicle_type_id":"4","last_reported":1745957474,"current_range_meters":16000,"station_id":"ce4bgt92rcd13ifvqcf0","pricing_plan_id":"cebpf4jnsgd1na2vs0mg"},{"bike_id":"8c2764fc-bc1c-48fc-a755-ccde3ff80a42","system_id":"levelo_inurba_marseille","lat":43.3032,"lon":5.40438,"is_reserved":false,"is_disabled":false,"rental_uris":{"android":"levelo://app?vid=8c2764fc-bc1c-48fc-a755-ccde3ff80a42","ios":"levelo://app?vid=8c2764fc-bc1c-48fc-a755-ccde3ff80a42"},"vehicle_type_id":"4","last_reported":1745957474,"current_range_meters":16400,"station_id":"ce4bh012rcd13ifvqd10","pricing_plan_id":"cebpf4jnsgd1na2vs0mg"},{"bike_id":"b21af642-c4ba-4c38-b9c2-d8d5f93f89f8","system_id":"levelo_inurba_marseille","lat":43.27185,"lon":5.40972,"is_reserved":false,"is_disabled":false,"rental_uris":{"android":"levelo://app?vid=b21af642-c4ba-4c38-b9c2-d8d5f93f89f8","ios":"levelo://app?vid=b21af642-c4ba-4c38-b9c2-d8d5f93f89f8"},"vehicle_type_id":"4","last_reported":1745957474,"current_range_meters":16400,"station_id":"ce4bhl12rcd13ifvqgf0","pricing_plan_id":"cebpf4jnsgd1na2vs0mg"},{"bike_id":"e40cc893-9f07-486d-a1fe-7586df50779c","system_id":"levelo_inurba_marseille","lat":43.30228,"lon":5.3947,"is_reserved":false,"is_disabled":false,"rental_uris":{"android":"levelo://app?vid=e40cc893-9f07-486d-a1fe-7586df50779c","ios":"levelo://app?vid=e40cc893-9f07-486d-a1fe-7586df50779c"},"vehicle_type_id":"4","last_reported":1745957474,"current_range_meters":16000,"station_id":"ce4bh0p2rcd13ifvqd70","pricing_plan_id":"cebpf4jnsgd1na2vs0mg"},{"bike_id":"e5e92a64-e709-4b1a-a9b1-cbffe85789ca","system_id":"levelo_inurba_marseille","lat":43.25535,"lon":5.38147,"is_reserved":false,"is_disabled":false,"rental_uris":{"android":"levelo://app?vid=e5e92a64-e709-4b1a-a9b1-cbffe85789ca","ios":"levelo://app?vid=e5e92a64-e709-4b1a-a9b1-cbffe85789ca"},"vehicle_type_id":"4","last_reported":1745957474,"current_range_meters":16400,"station_id":"","pricing_plan_id":"cebpf4jnsgd1na2vs0mg"},{"bike_id":"352fd544-28fa-4cf2-ba53-f747ef6b8089","system_id":"levelo_inurba_marseille","lat":43.27425,"lon":5.39412,"is_reserved":false,"is_disabled":false,"rental_uris":{"android":"levelo://app?vid=352fd544-28fa-4cf2-ba53-f747ef6b8089","ios":"levelo://app?vid=352fd544-28fa-4cf2-ba53-f747ef6b8089"},"vehicle_type_id":"4","last_reported":1745957474,"current_range_meters":16400,"station_id":"ce4bhdp2rcd13ifvqf20","pricing_plan_id":"cebpf4jnsgd1na2vs0mg"},{"bike_id":"4a887373-4acb-4f1e-adbe-6517211605ca","system_id":"levelo_inurba_marseille","lat":43.31108,"lon":5.37777,"is_reserved":false,"is_disabled":false,"rental_uris":{"android":"levelo://app?vid=4a887373-4acb-4f1e-adbe-6517211605ca","ios":"levelo://app?vid=4a887373-4acb-4f1e-adbe-6517211605ca"},"vehicle_type_id":"4","last_reported":1745957474,"current_range_meters":16800,"station_id":"ce4bgt92rcd13ifvqcg0","pricing_plan_id":"cebpf4jnsgd1na2vs0mg"},{"bike_id":"4fda502e-8180-4eb2-97e5-6521d9824005","system_id":"levelo_inurba_marseille","lat":43.304031,"lon":5.381244,"is_reserved":false,"is_disabled":false,"rental_uris":{"android":"levelo://app?vid=4fda502e-8180-4eb2-97e5-6521d9824005","ios":"levelo://app?vid=4fda502e-8180-4eb2-97e5-6521d9824005"},"vehicle_type_id":"4","last_reported":1745957474,"current_range_meters":16800,"station_id":"","pricing_plan_id":"cebpf4jnsgd1na2vs0mg"},{"bike_id":"22fbb9c4-4602-458d-ac9d-1aaaca2f6e6d","system_id":"levelo_inurba_marseille","lat":43.29923,"lon":5.37467,"is_reserved":false,"is_disabled":false,"rental_uris":{"android":"levelo://app?vid=22fbb9c4-4602-458d-ac9d-1aaaca2f6e6d","ios":"levelo://app?vid=22fbb9c4-4602-458d-ac9d-1aaaca2f6e6d"},"vehicle_type_id":"4","last_reported":1745957474,"current_range_meters":16400,"station_id":"ce4bgjh2rcd13ifvqbg0","pricing_plan_id":"cebpf4jnsgd1na2vs0mg"},{"bike_id":"fb0daf1a-cefa-40b9-a6f4-b2612f0cf23f","system_id":"levelo_inurba_marseille","lat":43.26227,"lon":5.40455,"is_reserved":false,"is_disabled":false,"rental_uris":{"android":"levelo://app?vid=fb0daf1a-cefa-40b9-a6f4-b2612f0cf23f","ios":"levelo://app?vid=fb0daf1a-cefa-40b9-a6f4-b2612f0cf23f"},"vehicle_type_id":"4","last_reported":1745957474,"current_range_meters":16800,"station_id":"ce4bhmh2rcd13ifvqgmg","pricing_plan_id":"cebpf4jnsgd1na2vs0mg"},{"bike_id":"142b21fe-e15a-4a65-b770-44381c311d71","system_id":"levelo_inurba_marseille","lat":43.31325,"lon":5.39706,"is_reserved":false,"is_disabled":false,"rental_uris":{"android":"levelo://app?vid=142b21fe-e15a-4a65-b770-44381c311d71","ios":"levelo://app?vid=142b21fe-e15a-4a65-b770-44381c311d71"},"vehicle_type_id":"4","last_reported":1745957474,"current_range_meters":16800,"station_id":"ce4bgvp2rcd13ifvqcu0","pricing_plan_id":"cebpf4jnsgd1na2vs0mg"},{"bike_id":"2ea88097-f637-48c0-834a-65258344bb71","system_id":"levelo_inurba_marseille","lat":43.289395,"lon":5.366288,"is_reserved":false,"is_disabled":false,"rental_uris":{"android":"levelo://app?vid=2ea88097-f637-48c0-834a-65258344bb71","ios":"levelo://app?vid=2ea88097-f637-48c0-834a-65258344bb71"},"vehicle_type_id":"4","last_reported":1745957474,"current_range_meters":16800,"station_id":"ce4bhap2rcd13ifvqek0","pricing_plan_id":"cebpf4jnsgd1na2vs0mg"},{"bike_id":"a3985f59-fd97-4afa-8291-7cd6045ca270","system_id":"levelo_inurba_marseille","lat":43.32489,"lon":5.36579,"is_reserved":false,"is_disabled":false,"rental_uris":{"android":"levelo://app?vid=a3985f59-fd97-4afa-8291-7cd6045ca270","ios":"levelo://app?vid=a3985f59-fd97-4afa-8291-7cd6045ca270"},"vehicle_type_id":"4","last_reported":1745957474,"current_range_meters":16800,"station_id":"ce4bhs12rcd13ifvqhvg","pricing_plan_id":"cebpf4jnsgd1na2vs0mg"},{"bike_id":"b01cbeff-8157-416f-a4f0-9990745aa5ff","system_id":"levelo_inurba_marseille","lat":43.28034,"lon":5.36937,"is_reserved":false,"is_disabled":false,"rental_uris":{"android":"levelo://app?vid=b01cbeff-8157-416f-a4f0-9990745aa5ff","ios":"levelo://app?vid=b01cbeff-8157-416f-a4f0-9990745aa5ff"},"vehicle_type_id":"4","last_reported":1745957474,"current_range_meters":17200,"station_id":"ce4bha12rcd13ifvqef0","pricing_plan_id":"cebpf4jnsgd1na2vs0mg"},{"bike_id":"7ce84579-83f7-4ba8-be4d-b3e978f8a5c8","system_id":"levelo_inurba_marseille","lat":43.28614,"lon":5.37059,"is_reserved":false,"is_disabled":false,"rental_uris":{"android":"levelo://app?vid=7ce84579-83f7-4ba8-be4d-b3e978f8a5c8","ios":"levelo://app?vid=7ce84579-83f7-4ba8-be4d-b3e978f8a5c8"},"vehicle_type_id":"4","last_reported":1745957474,"current_range_meters":17200,"station_id":"ce4bht12rcd13ifvqi60","pricing_plan_id":"cebpf4jnsgd1na2vs0mg"},{"bike_id":"e5c9e410-09a2-4a8b-8618-7674c87d16f0","system_id":"levelo_inurba_marseille","lat":43.29297,"lon":5.37438,"is_reserved":false,"is_disabled":true,"rental_uris":{"android":"levelo://app?vid=e5c9e410-09a2-4a8b-8618-7674c87d16f0","ios":"levelo://app?vid=e5c9e410-09a2-4a8b-8618-7674c87d16f0"},"vehicle_type_id":"4","last_reported":1745957474,"current_range_meters":17200,"station_id":"ce4bgi12rcd13ifvqb70","pricing_plan_id":"cebpf4jnsgd1na2vs0mg"},{"bike_id":"8cbdb337-9935-44a1-9a4a-419f780a3378","system_id":"levelo_inurba_marseille","lat":43.28945,"lon":5.36628,"is_reserved":false,"is_disabled":false,"rental_uris":{"android":"levelo://app?vid=8cbdb337-9935-44a1-9a4a-419f780a3378","ios":"levelo://app?vid=8cbdb337-9935-44a1-9a4a-419f780a3378"},"vehicle_type_id":"4","last_reported":1745957474,"current_range_meters":17200,"station_id":"ce4bhap2rcd13ifvqek0","pricing_plan_id":"cebpf4jnsgd1na2vs0mg"},{"bike_id":"fce2c520-92d3-4d18-810b-8d643fc15a1a","system_id":"levelo_inurba_marseille","lat":43.230653,"lon":5.355041,"is_reserved":false,"is_disabled":false,"rental_uris":{"android":"levelo://app?vid=fce2c520-92d3-4d18-810b-8d643fc15a1a","ios":"levelo://app?vid=fce2c520-92d3-4d18-810b-8d643fc15a1a"},"vehicle_type_id":"4","last_reported":1745957474,"current_range_meters":17200,"station_id":"cpo3342slgdg3j2ifvpg","pricing_plan_id":"cebpf4jnsgd1na2vs0mg"},{"bike_id":"e6fd4b2d-5c87-482f-9320-83d5b1ff96dd","system_id":"levelo_inurba_marseille","lat":43.28945,"lon":5.39634,"is_reserved":false,"is_disabled":false,"rental_uris":{"android":"levelo://app?vid=e6fd4b2d-5c87-482f-9320-83d5b1ff96dd","ios":"levelo://app?vid=e6fd4b2d-5c87-482f-9320-83d5b1ff96dd"},"vehicle_type_id":"4","last_reported":1745957474,"current_range_meters":17200,"station_id":"ce4bh3h2rcd13ifvqdn0","pricing_plan_id":"cebpf4jnsgd1na2vs0mg"},{"bike_id":"e79087c9-6895-498a-8e08-85037394809b","system_id":"levelo_inurba_marseille","lat":43.27665,"lon":5.38898,"is_reserved":false,"is_disabled":false,"rental_uris":{"android":"levelo://app?vid=e79087c9-6895-498a-8e08-85037394809b","ios":"levelo://app?vid=e79087c9-6895-498a-8e08-85037394809b"},"vehicle_type_id":"4","last_reported":1745957474,"current_range_meters":17200,"station_id":"ce4bhi12rcd13ifvqfo0","pricing_plan_id":"cebpf4jnsgd1na2vs0mg"},{"bike_id":"90b503f5-a521-4fb8-add6-142051bc3549","system_id":"levelo_inurba_marseille","lat":43.33607,"lon":5.4103,"is_reserved":false,"is_disabled":false,"rental_uris":{"android":"levelo://app?vid=90b503f5-a521-4fb8-add6-142051bc3549","ios":"levelo://app?vid=90b503f5-a521-4fb8-add6-142051bc3549"},"vehicle_type_id":"4","last_reported":1745957474,"current_range_meters":17200,"station_id":"ce4bhqh2rcd13ifvqhmg","pricing_plan_id":"cebpf4jnsgd1na2vs0mg"},{"bike_id":"0ce8f9f3-1695-4b1b-9675-dc3aacf22c08","system_id":"levelo_inurba_marseille","lat":43.29423,"lon":5.38629,"is_reserved":false,"is_disabled":false,"rental_uris":{"android":"levelo://app?vid=0ce8f9f3-1695-4b1b-9675-dc3aacf22c08","ios":"levelo://app?vid=0ce8f9f3-1695-4b1b-9675-dc3aacf22c08"},"vehicle_type_id":"4","last_reported":1745957474,"current_range_meters":17200,"station_id":"ce4bh2h2rcd13ifvqdh0","pricing_plan_id":"cebpf4jnsgd1na2vs0mg"},{"bike_id":"7861d36c-9390-416e-9c9d-7af848fcad66","system_id":"levelo_inurba_marseille","lat":43.29534,"lon":5.38542,"is_reserved":false,"is_disabled":false,"rental_uris":{"android":"levelo://app?vid=7861d36c-9390-416e-9c9d-7af848fcad66","ios":"levelo://app?vid=7861d36c-9390-416e-9c9d-7af848fcad66"},"vehicle_type_id":"4","last_reported":1745957474,"current_range_meters":17200,"station_id":"ce4bgih2rcd13ifvqba0","pricing_plan_id":"cebpf4jnsgd1na2vs0mg"},{"bike_id":"8a5ef15b-08e5-4866-9542-282ce1544826","system_id":"levelo_inurba_marseille","lat":43.231846,"lon":5.399953,"is_reserved":false,"is_disabled":false,"rental_uris":{"android":"levelo://app?vid=8a5ef15b-08e5-4866-9542-282ce1544826","ios":"levelo://app?vid=8a5ef15b-08e5-4866-9542-282ce1544826"},"vehicle_type_id":"4","last_reported":1745957474,"current_range_meters":17200,"station_id":"ce4bhn12rcd13ifvqgqg","pricing_plan_id":"cebpf4jnsgd1na2vs0mg"},{"bike_id":"c163dbb5-ce61-442b-98a9-23f973a06127","system_id":"levelo_inurba_marseille","lat":43.29518,"lon":5.39403,"is_reserved":false,"is_disabled":false,"rental_uris":{"android":"levelo://app?vid=c163dbb5-ce61-442b-98a9-23f973a06127","ios":"levelo://app?vid=c163dbb5-ce61-442b-98a9-23f973a06127"},"vehicle_type_id":"4","last_reported":1745957474,"current_range_meters":17600,"station_id":"ce4bh292rcd13ifvqdf0","pricing_plan_id":"cebpf4jnsgd1na2vs0mg"},{"bike_id":"0d0141b8-0ad7-4711-ae04-30a96a762757","system_id":"levelo_inurba_marseille","lat":43.311113,"lon":5.424703,"is_reserved":false,"is_disabled":false,"rental_uris":{"android":"levelo://app?vid=0d0141b8-0ad7-4711-ae04-30a96a762757","ios":"levelo://app?vid=0d0141b8-0ad7-4711-ae04-30a96a762757"},"vehicle_type_id":"4","last_reported":1745957474,"current_range_meters":17600,"station_id":"ce4bhp92rcd13ifvqhag","pricing_plan_id":"cebpf4jnsgd1na2vs0mg"},{"bike_id":"b8243779-efcb-4574-9746-54138140884d","system_id":"levelo_inurba_marseille","lat":43.284729,"lon":5.384144,"is_reserved":false,"is_disabled":false,"rental_uris":{"android":"levelo://app?vid=b8243779-efcb-4574-9746-54138140884d","ios":"levelo://app?vid=b8243779-efcb-4574-9746-54138140884d"},"vehicle_type_id":"4","last_reported":1745957474,"current_range_meters":17200,"station_id":"ce4bh512rcd13ifvqe3g","pricing_plan_id":"cebpf4jnsgd1na2vs0mg"},{"bike_id":"6f3bf6c5-53d5-4bae-84fc-a00380f9cd06","system_id":"levelo_inurba_marseille","lat":43.29265,"lon":5.3844,"is_reserved":false,"is_disabled":false,"rental_uris":{"android":"levelo://app?vid=6f3bf6c5-53d5-4bae-84fc-a00380f9cd06","ios":"levelo://app?vid=6f3bf6c5-53d5-4bae-84fc-a00380f9cd06"},"vehicle_type_id":"4","last_reported":1745957474,"current_range_meters":17600,"station_id":"ce4bh692rcd13ifvqea0","pricing_plan_id":"cebpf4jnsgd1na2vs0mg"},{"bike_id":"d790bba5-0573-4c47-8999-23421e069bf8","system_id":"levelo_inurba_marseille","lat":43.23967,"lon":5.36627,"is_reserved":false,"is_disabled":false,"rental_uris":{"android":"levelo://app?vid=d790bba5-0573-4c47-8999-23421e069bf8","ios":"levelo://app?vid=d790bba5-0573-4c47-8999-23421e069bf8"},"vehicle_type_id":"4","last_reported":1745957474,"current_range_meters":18000,"station_id":"ce4bhi12rcd13ifvqfp0","pricing_plan_id":"cebpf4jnsgd1na2vs0mg"},{"bike_id":"4b603d04-0f8e-4c24-b8d9-05da2ec98230","system_id":"levelo_inurba_marseille","lat":43.29517,"lon":5.39408,"is_reserved":false,"is_disabled":false,"rental_uris":{"android":"levelo://app?vid=4b603d04-0f8e-4c24-b8d9-05da2ec98230","ios":"levelo://app?vid=4b603d04-0f8e-4c24-b8d9-05da2ec98230"},"vehicle_type_id":"4","last_reported":1745957474,"current_range_meters":18000,"station_id":"ce4bh292rcd13ifvqdf0","pricing_plan_id":"cebpf4jnsgd1na2vs0mg"},{"bike_id":"a56f0186-6742-4321-af55-54f04b4d7b71","system_id":"levelo_inurba_marseille","lat":43.30876,"lon":5.39656,"is_reserved":false,"is_disabled":false,"rental_uris":{"android":"levelo://app?vid=a56f0186-6742-4321-af55-54f04b4d7b71","ios":"levelo://app?vid=a56f0186-6742-4321-af55-54f04b4d7b71"},"vehicle_type_id":"4","last_reported":1745957474,"current_range_meters":18000,"station_id":"ce4bh012rcd13ifvqcv0","pricing_plan_id":"cebpf4jnsgd1na2vs0mg"},{"bike_id":"86c2979e-8cf6-48ed-bdb1-835ff11e3adc","system_id":"levelo_inurba_marseille","lat":43.253874,"lon":5.418455,"is_reserved":false,"is_disabled":false,"rental_uris":{"android":"levelo://app?vid=86c2979e-8cf6-48ed-bdb1-835ff11e3adc","ios":"levelo://app?vid=86c2979e-8cf6-48ed-bdb1-835ff11e3adc"},"vehicle_type_id":"4","last_reported":1745957474,"current_range_meters":18000,"station_id":"","pricing_plan_id":"cebpf4jnsgd1na2vs0mg"},{"bike_id":"b9a06d99-7b0a-4db5-a1c3-c79d98838432","system_id":"levelo_inurba_marseille","lat":43.29515,"lon":5.39398,"is_reserved":false,"is_disabled":false,"rental_uris":{"android":"levelo://app?vid=b9a06d99-7b0a-4db5-a1c3-c79d98838432","ios":"levelo://app?vid=b9a06d99-7b0a-4db5-a1c3-c79d98838432"},"vehicle_type_id":"4","last_reported":1745957474,"current_range_meters":18000,"station_id":"ce4bh292rcd13ifvqdf0","pricing_plan_id":"cebpf4jnsgd1na2vs0mg"},{"bike_id":"857f4636-b116-4abe-bf1e-74d7e0a8bda9","system_id":"levelo_inurba_marseille","lat":43.29254,"lon":5.3844,"is_reserved":false,"is_disabled":false,"rental_uris":{"android":"levelo://app?vid=857f4636-b116-4abe-bf1e-74d7e0a8bda9","ios":"levelo://app?vid=857f4636-b116-4abe-bf1e-74d7e0a8bda9"},"vehicle_type_id":"4","last_reported":1745957474,"current_range_meters":18000,"station_id":"ce4bh692rcd13ifvqea0","pricing_plan_id":"cebpf4jnsgd1na2vs0mg"},{"bike_id":"70e185c6-28ce-476f-b8da-7d977d2b27f0","system_id":"levelo_inurba_marseille","lat":43.30871,"lon":5.39652,"is_reserved":false,"is_disabled":false,"rental_uris":{"android":"levelo://app?vid=70e185c6-28ce-476f-b8da-7d977d2b27f0","ios":"levelo://app?vid=70e185c6-28ce-476f-b8da-7d977d2b27f0"},"vehicle_type_id":"4","last_reported":1745957474,"current_range_meters":18800,"station_id":"ce4bh012rcd13ifvqcv0","pricing_plan_id":"cebpf4jnsgd1na2vs0mg"},{"bike_id":"2414e797-5d23-44b4-acbf-f988ed3a01fc","system_id":"levelo_inurba_marseille","lat":43.24079,"lon":5.37744,"is_reserved":false,"is_disabled":false,"rental_uris":{"android":"levelo://app?vid=2414e797-5d23-44b4-acbf-f988ed3a01fc","ios":"levelo://app?vid=2414e797-5d23-44b4-acbf-f988ed3a01fc"},"vehicle_type_id":"4","last_reported":1745957474,"current_range_meters":18000,"station_id":"ce4bhnp2rcd13ifvqgvg","pricing_plan_id":"cebpf4jnsgd1na2vs0mg"},{"bike_id":"f34a0ba1-b784-419e-b049-dfbe9334240a","system_id":"levelo_inurba_marseille","lat":43.29204,"lon":5.39325,"is_reserved":false,"is_disabled":false,"rental_uris":{"android":"levelo://app?vid=f34a0ba1-b784-419e-b049-dfbe9334240a","ios":"levelo://app?vid=f34a0ba1-b784-419e-b049-dfbe9334240a"},"vehicle_type_id":"4","last_reported":1745957474,"current_range_meters":18800,"station_id":"ce4bh192rcd13ifvqdd0","pricing_plan_id":"cebpf4jnsgd1na2vs0mg"},{"bike_id":"89014f6b-871e-4225-bd6b-7ff93f224601","system_id":"levelo_inurba_marseille","lat":43.27949,"lon":5.41661,"is_reserved":false,"is_disabled":false,"rental_uris":{"android":"levelo://app?vid=89014f6b-871e-4225-bd6b-7ff93f224601","ios":"levelo://app?vid=89014f6b-871e-4225-bd6b-7ff93f224601"},"vehicle_type_id":"4","last_reported":1745957474,"current_range_meters":18800,"station_id":"ce4bho12rcd13ifvqh1g","pricing_plan_id":"cebpf4jnsgd1na2vs0mg"},{"bike_id":"9df9b88e-192f-4082-8618-a77e8c2aff16","system_id":"levelo_inurba_marseille","lat":43.28706,"lon":5.37377,"is_reserved":false,"is_disabled":false,"rental_uris":{"android":"levelo://app?vid=9df9b88e-192f-4082-8618-a77e8c2aff16","ios":"levelo://app?vid=9df9b88e-192f-4082-8618-a77e8c2aff16"},"vehicle_type_id":"4","last_reported":1745957474,"current_range_meters":18800,"station_id":"ce4bh3p2rcd13ifvqdq0","pricing_plan_id":"cebpf4jnsgd1na2vs0mg"},{"bike_id":"4f09461d-c671-4986-a07f-ebc4b42a43cb","system_id":"levelo_inurba_marseille","lat":43.24545,"lon":5.39518,"is_reserved":false,"is_disabled":false,"rental_uris":{"android":"levelo://app?vid=4f09461d-c671-4986-a07f-ebc4b42a43cb","ios":"levelo://app?vid=4f09461d-c671-4986-a07f-ebc4b42a43cb"},"vehicle_type_id":"4","last_reported":1745957474,"current_range_meters":18800,"station_id":"ce4bhlp2rcd13ifvqgjg","pricing_plan_id":"cebpf4jnsgd1na2vs0mg"},{"bike_id":"39843059-c2d6-40c4-aa84-d5f9b15b58aa","system_id":"levelo_inurba_marseille","lat":43.28854,"lon":5.39318,"is_reserved":false,"is_disabled":false,"rental_uris":{"android":"levelo://app?vid=39843059-c2d6-40c4-aa84-d5f9b15b58aa","ios":"levelo://app?vid=39843059-c2d6-40c4-aa84-d5f9b15b58aa"},"vehicle_type_id":"4","last_reported":1745957474,"current_range_meters":18000,"station_id":"ce4bh2p2rcd13ifvqdi0","pricing_plan_id":"cebpf4jnsgd1na2vs0mg"},{"bike_id":"78205494-a597-4ee5-8795-612164caa6d7","system_id":"levelo_inurba_marseille","lat":43.28672,"lon":5.38662,"is_reserved":false,"is_disabled":false,"rental_uris":{"android":"levelo://app?vid=78205494-a597-4ee5-8795-612164caa6d7","ios":"levelo://app?vid=78205494-a597-4ee5-8795-612164caa6d7"},"vehicle_type_id":"4","last_reported":1745957474,"current_range_meters":19200,"station_id":"ce4bh492rcd13ifvqdug","pricing_plan_id":"cebpf4jnsgd1na2vs0mg"},{"bike_id":"53ce284b-e92b-4234-a52f-4a29e99f0fb8","system_id":"levelo_inurba_marseille","lat":43.30813,"lon":5.38161,"is_reserved":false,"is_disabled":false,"rental_uris":{"android":"levelo://app?vid=53ce284b-e92b-4234-a52f-4a29e99f0fb8","ios":"levelo://app?vid=53ce284b-e92b-4234-a52f-4a29e99f0fb8"},"vehicle_type_id":"4","last_reported":1745957474,"current_range_meters":19200,"station_id":"ce4bgt12rcd13ifvqce0","pricing_plan_id":"cebpf4jnsgd1na2vs0mg"},{"bike_id":"572f384f-cb0d-45dd-b4bc-884e23497111","system_id":"levelo_inurba_marseille","lat":43.30361,"lon":5.41872,"is_reserved":false,"is_disabled":false,"rental_uris":{"android":"levelo://app?vid=572f384f-cb0d-45dd-b4bc-884e23497111","ios":"levelo://app?vid=572f384f-cb0d-45dd-b4bc-884e23497111"},"vehicle_type_id":"4","last_reported":1745957474,"current_range_meters":18800,"station_id":"ce4bhop2rcd13ifvqh7g","pricing_plan_id":"cebpf4jnsgd1na2vs0mg"},{"bike_id":"4338301a-dcaf-425b-b8ef-34e99a22ec38","system_id":"levelo_inurba_marseille","lat":43.29872,"lon":5.39725,"is_reserved":false,"is_disabled":false,"rental_uris":{"android":"levelo://app?vid=4338301a-dcaf-425b-b8ef-34e99a22ec38","ios":"levelo://app?vid=4338301a-dcaf-425b-b8ef-34e99a22ec38"},"vehicle_type_id":"4","last_reported":1745957474,"current_range_meters":18800,"station_id":"ce4bh0h2rcd13ifvqd50","pricing_plan_id":"cebpf4jnsgd1na2vs0mg"},{"bike_id":"617c5607-4673-4ffc-8082-bcbf213d0915","system_id":"levelo_inurba_marseille","lat":43.30934,"lon":5.40145,"is_reserved":false,"is_disabled":false,"rental_uris":{"android":"levelo://app?vid=617c5607-4673-4ffc-8082-bcbf213d0915","ios":"levelo://app?vid=617c5607-4673-4ffc-8082-bcbf213d0915"},"vehicle_type_id":"4","last_reported":1745957474,"current_range_meters":19200,"station_id":"ce4bgvp2rcd13ifvqct0","pricing_plan_id":"cebpf4jnsgd1na2vs0mg"},{"bike_id":"55925785-b0c8-42bf-9096-4cfd3c403b9b","system_id":"levelo_inurba_marseille","lat":43.29533,"lon":5.38546,"is_reserved":false,"is_disabled":false,"rental_uris":{"android":"levelo://app?vid=55925785-b0c8-42bf-9096-4cfd3c403b9b","ios":"levelo://app?vid=55925785-b0c8-42bf-9096-4cfd3c403b9b"},"vehicle_type_id":"4","last_reported":1745957474,"current_range_meters":19200,"station_id":"ce4bgih2rcd13ifvqba0","pricing_plan_id":"cebpf4jnsgd1na2vs0mg"},{"bike_id":"bc91bd71-f69c-427e-9698-207cdc64760b","system_id":"levelo_inurba_marseille","lat":43.23182,"lon":5.39985,"is_reserved":false,"is_disabled":false,"rental_uris":{"android":"levelo://app?vid=bc91bd71-f69c-427e-9698-207cdc64760b","ios":"levelo://app?vid=bc91bd71-f69c-427e-9698-207cdc64760b"},"vehicle_type_id":"4","last_reported":1745957474,"current_range_meters":19600,"station_id":"ce4bhn12rcd13ifvqgqg","pricing_plan_id":"cebpf4jnsgd1na2vs0mg"},{"bike_id":"f1c2e018-3f8b-4fd2-9ebe-c2e1e6f4b3cc","system_id":"levelo_inurba_marseille","lat":43.290403,"lon":5.399613,"is_reserved":false,"is_disabled":false,"rental_uris":{"android":"levelo://app?vid=f1c2e018-3f8b-4fd2-9ebe-c2e1e6f4b3cc","ios":"levelo://app?vid=f1c2e018-3f8b-4fd2-9ebe-c2e1e6f4b3cc"},"vehicle_type_id":"4","last_reported":1745957474,"current_range_meters":19600,"station_id":"ce4bh392rcd13ifvqdm0","pricing_plan_id":"cebpf4jnsgd1na2vs0mg"},{"bike_id":"0c9e4d09-31d9-4325-8d9f-13a37129f6e4","system_id":"levelo_inurba_marseille","lat":43.30603,"lon":5.37229,"is_reserved":false,"is_disabled":false,"rental_uris":{"android":"levelo://app?vid=0c9e4d09-31d9-4325-8d9f-13a37129f6e4","ios":"levelo://app?vid=0c9e4d09-31d9-4325-8d9f-13a37129f6e4"},"vehicle_type_id":"4","last_reported":1745957474,"current_range_meters":19600,"station_id":"ce4bgqh2rcd13ifvqc4g","pricing_plan_id":"cebpf4jnsgd1na2vs0mg"},{"bike_id":"7940bc1b-eaa7-4f49-a435-46dc9391f6a1","system_id":"levelo_inurba_marseille","lat":43.21193,"lon":5.35072,"is_reserved":false,"is_disabled":false,"rental_uris":{"android":"levelo://app?vid=7940bc1b-eaa7-4f49-a435-46dc9391f6a1","ios":"levelo://app?vid=7940bc1b-eaa7-4f49-a435-46dc9391f6a1"},"vehicle_type_id":"4","last_reported":1745957474,"current_range_meters":19600,"station_id":"st_cvj6sg6p6f1abm77japg","pricing_plan_id":"cebpf4jnsgd1na2vs0mg"},{"bike_id":"c746d294-d77c-4a5a-a6f2-b8bd8f60008f","system_id":"levelo_inurba_marseille","lat":43.2796,"lon":5.41046,"is_reserved":false,"is_disabled":true,"rental_uris":{"android":"levelo://app?vid=c746d294-d77c-4a5a-a6f2-b8bd8f60008f","ios":"levelo://app?vid=c746d294-d77c-4a5a-a6f2-b8bd8f60008f"},