{"last_updated":1705525602,"ttl":30,"version":"2.2","data":{"bikes":[{"bike_id":"b583a396-5034-4f77-a306-795f95f6e1aa","system_id":"levelo_inurba_marseille","lat":43.313391,"lon":5.36706,"is_reserved":false,"is_disabled":false,"rental_uris":{"android":"levelo://app?vid=b583a396-5034-4f77-a306-795f95f6e1aa","ios":"levelo://app?vid=b583a396-5034-4f77-a306-795f95f6e1aa"},"vehicle_type_id":"4","last_reported":1705525603,"current_range_meters":26400,"station_id":"ce4bgr92rcd13ifvqc6g","pricing_plan_id":"free"},{"bike_id":"bde9a313-f0b7-49d2-b695-7c2609d05c1e","system_id":"levelo_inurba_marseille","lat":43.313493,"lon":5.367162,"is_reserved":false,"is_disabled":false,"rental_uris":{"android":"levelo://app?vid=bde9a313-f0b7-49d2-b695-7c2609d05c1e","ios":"levelo://app?vid=bde9a313-f0b7-49d2-b695-7c2609d05c1e"},"vehicle_type_id":"4","last_reported":1705525603,"current_range_meters":20000,"station_id":"ce4bgr92rcd13ifvqc6g","pricing_plan_id":"free"},{"bike_id":"b971be56-0d34-41af-a304-2ab17fe49619","system_id":"levelo_inurba_marseille","lat":43.313504,"lon":5.367138,"is_reserved":false,"is_disabled":false,"rental_uris":{"android":"levelo://app?vid=b971be56-0d34-41af-a304-2ab17fe49619","ios":"levelo://app?vid=b971be56-0d34-41af-a304-2ab17fe49619"},"vehicle_type_id":"4","last_reported":1705525603,"current_range_meters":2400,"station_id":"ce4bgr92rcd13ifvqc6g","pricing_plan_id":"free"},{"bike_id":"0d5bffaa-2a7c-4b8a-81d6-6fa37b044d80","system_id":"levelo_inurba_marseille","lat":43.312239,"lon":5.368562,"is_reserved":false,"is_disabled":false,"rental_uris":{"android":"levelo://app?vid=0d5bffaa-2a7c-4b8a-81d6-6fa37b044d80","ios":"levelo://app?vid=0d5bffaa-2a7c-4b8a-81d6-6fa37b044d80"},"vehicle_type_id":"4","last_reported":1705525603,"current_range_meters":31200,"station_id":"ce4bgl92rcd13ifvqbq0","pricing_plan_id":"free"},{"bike_id":"897ae299-b3ab-481c-adba-997e1f460526","system_id":"levelo_inurba_marseille","lat":43.312239,"lon":5.368562,"is_reserved":false,"is_disabled":false,"rental_uris":{"android":"levelo://app?vid=897ae299-b3ab-481c-adba-997e1f460526","ios":"levelo://app?vid=897ae299-b3ab-481c-adba-997e1f460526"},"vehicle_type_id":"4","last_reported":1705525603,"current_range_meters":30400,"station_id":"ce4bgl92rcd13ifvqbq0","pricing_plan_id":"free"},{"bike_id":"61b93c57-6b08-4259-a460-f9bbda173b07","system_id":"levelo_inurba_marseille","lat":43.312239,"lon":5.368562,"is_reserved":false,"is_disabled":false,"rental_uris":{"android":"levelo://app?vid=61b93c57-6b08-4259-a460-f9bbda173b07","ios":"levelo://app?vid=61b93c57-6b08-4259-a460-f9bbda173b07"},"vehicle_type_id":"4","last_reported":1705525603,"current_range_meters":20400,"station_id":"ce4bgl92rcd13ifvqbq0","pricing_plan_id":"free"},{"bike_id":"1419ddeb-e783-4a0b-ba4e-21e25b6a097d","system_id":"levelo_inurba_marseille","lat":43.312239,"lon":5.368562,"is_reserved":false,"is_disabled":false,"rental_uris":{"android":"levelo://app?vid=1419ddeb-e783-4a0b-ba4e-21e25b6a097d","ios":"levelo://app?vid=1419ddeb-e783-4a0b-ba4e-21e25b6a097d"},"vehicle_type_id":"4","last_reported":1705525603,"current_range_meters":29600,"station_id":"ce4bgl92rcd13ifvqbq0","pricing_plan_id":"free"},{"bike_id":"ca02a1fc-4b5a-4862-b417-379c2ed087c9","system_id":"levelo_inurba_marseille","lat":43.312239,"lon":5.368562,"is_reserved":false,"is_disabled":false,"rental_uris":{"android":"levelo://app?vid=ca02a1fc-4b5a-4862-b417-379c2ed087c9","ios":"levelo://app?vid=ca02a1fc-4b5a-4862-b417-379c2ed087c9"},"vehicle_type_id":"4","last_reported":1705525603,"current_range_meters":10400,"station_id":"ce4bgl92rcd13ifvqbq0","pricing_plan_id":"free"},{"bike_id":"eea6dd2e-fa08-4d68-81d7-26b1b29fcb36","system_id":"levelo_inurba_marseille","lat":43.312239,"lon":5.368562,"is_reserved":false,"is_disabled":false,"rental_uris":{"android":"levelo://app?vid=eea6dd2e-fa08-4d68-81d7-26b1b29fcb36","ios":"levelo://app?vid=eea6dd2e-fa08-4d68-81d7-26b1b29fcb36"},"vehicle_type_id":"4","last_reported":1705525603,"current_range_meters":19600,"station_id":"ce4bgl92rcd13ifvqbq0","pricing_plan_id":"free"},{"bike_id":"a1445915-c1d2-4781-b44d-137557b639f0","system_id":"levelo_inurba_marseille","lat":43.312239,"lon":5.368562,"is_reserved":false,"is_disabled":false,"rental_uris":{"android":"levelo://app?vid=a1445915-c1d2-4781-b44d-137557b639f0","ios":"levelo://app?vid=a1445915-c1d2-4781-b44d-137557b639f0"},"vehicle_type_id":"4","last_reported":1705525603,"current_range_meters":23600,"station_id":"ce4bgl92rcd13ifvqbq0","pricing_plan_id":"free"},{"bike_id":"c6c3d459-51cc-41a1-812a-e8b470d2f921","system_id":"levelo_inurba_marseille","lat":43.312239,"lon":5.368562,"is_reserved":false,"is_disabled":false,"rental_uris":{"android":"levelo://app?vid=c6c3d459-51cc-41a1-812a-e8b470d2f921","ios":"levelo://app?vid=c6c3d459-51cc-41a1-812a-e8b470d2f921"},"vehicle_type_id":"4","last_reported":1705525603,"current_range_meters":12000,"station_id":"ce4bgl92rcd13ifvqbq0","pricing_plan_id":"free"},{"bike_id":"eb3a7598-cd93-454b-b838-419bf7c66432","system_id":"levelo_inurba_marseille","lat":43.312239,"lon":5.368562,"is_reserved":false,"is_disabled":false,"rental_uris":{"android":"levelo://app?vid=eb3a7598-cd93-454b-b838-419bf7c66432","ios":"levelo://app?vid=eb3a7598-cd93-454b-b838-419bf7c66432"},"vehicle_type_id":"4","last_reported":1705525603,"current_range_meters":0,"station_id":"ce4bgl92rcd13ifvqbq0","pricing_plan_id":"free"},{"bike_id":"f3f4a518-7714-4b0a-bd44-5859e8ab86d4","system_id":"levelo_inurba_marseille","lat":43.312239,"lon":5.368562,"is_reserved":false,"is_disabled":false,"rental_uris":{"android":"levelo://app?vid=f3f4a518-7714-4b0a-bd44-5859e8ab86d4","ios":"levelo://app?vid=f3f4a518-7714-4b0a-bd44-5859e8ab86d4"},"vehicle_type_id":"4","last_reported":1705525603,"current_range_meters":26400,"station_id":"ce4bgl92rcd13ifvqbq0","pricing_plan_id":"free"},{"bike_id":"59ec84ac-235b-4c4e-84dc-a68e918cc7f8","system_id":"levelo_inurba_marseille","lat":43.312239,"lon":5.368562,"is_reserved":false,"is_disabled":false,"rental_uris":{"android":"levelo://app?vid=59ec84ac-235b-4c4e-84dc-a68e918cc7f8","ios":"levelo://app?vid=59ec84ac-235b-4c4e-84dc-a68e918cc7f8"},"vehicle_type_id":"4","last_reported":1705525603,"current_range_meters":24400,"station_id":"ce4bgl92rcd13ifvqbq0","pricing_plan_id":"free"},{"bike_id":"1b8b2211-0599-4df2-958e-865ef08fa8df","system_id":"levelo_inurba_marseille","lat":43.312239,"lon":5.368562,"is_reserved":false,"is_disabled":false,"rental_uris":{"android":"levelo://app?vid=1b8b2211-0599-4df2-958e-865ef08fa8df","ios":"levelo://app?vid=1b8b2211-0599-4df2-958e-865ef08fa8df"},"vehicle_type_id":"4","last_reported":1705525603,"current_range_meters":31600,"station_id":"ce4bgl92rcd13ifvqbq0","pricing_plan_id":"free"},{"bike_id":"7f51c930-cc36-43b3-8511-a6c12c8d69ed","system_id":"levelo_inurba_marseille","lat":43.314811,"lon":5.373104,"is_reserved":false,"is_disabled":false,"rental_uris":{"android":"levelo://app?vid=7f51c930-cc36-43b3-8511-a6c12c8d69ed","ios":"levelo://app?vid=7f51c930-cc36-43b3-8511-a6c12c8d69ed"},"vehicle_type_id":"4","last_reported":1705525603,"current_range_meters":23200,"station_id":"ce4bgt12rcd13ifvqcd0","pricing_plan_id":"free"},{"bike_id":"60ef59bf-c341-455f-89d3-834a28bdd0e5","system_id":"levelo_inurba_marseille","lat":43.309039,"lon":5.371797,"is_reserved":false,"is_disabled":false,"rental_uris":{"android":"levelo://app?vid=60ef59bf-c341-455f-89d3-834a28bdd0e5","ios":"levelo://app?vid=60ef59bf-c341-455f-89d3-834a28bdd0e5"},"vehicle_type_id":"4","last_reported":1705525603,"current_range_meters":21600,"station_id":"ce4bguh2rcd13ifvqckg","pricing_plan_id":"free"},{"bike_id":"bdcfa337-974b-478d-b158-990316e84cc9","system_id":"levelo_inurba_marseille","lat":43.309034,"lon":5.371783,"is_reserved":false,"is_disabled":false,"rental_uris":{"android":"levelo://app?vid=bdcfa337-974b-478d-b158-990316e84cc9","ios":"levelo://app?vid=bdcfa337-974b-478d-b158-990316e84cc9"},"vehicle_type_id":"4","last_reported":1705525603,"current_range_meters":0,"station_id":"ce4bguh2rcd13ifvqckg","pricing_plan_id":"free"},{"bike_id":"0fd1310f-eb7e-48e6-a8fb-29c28ffc1b12","system_id":"levelo_inurba_marseille","lat":43.309034,"lon":5.371783,"is_reserved":false,"is_disabled":false,"rental_uris":{"android":"levelo://app?vid=0fd1310f-eb7e-48e6-a8fb-29c28ffc1b12","ios":"levelo://app?vid=0fd1310f-eb7e-48e6-a8fb-29c28ffc1b12"},"vehicle_type_id":"4","last_reported":1705525603,"current_range_meters":10000,"station_id":"ce4bguh2rcd13ifvqckg","pricing_plan_id":"free"},{"bike_id":"3319558b-6df8-4dc1-ae82-d6ce4a2fb101","system_id":"levelo_inurba_marseille","lat":43.305989,"lon":5.37225,"is_reserved":false,"is_disabled":false,"rental_uris":{"android":"levelo://app?vid=3319558b-6df8-4dc1-ae82-d6ce4a2fb101","ios":"levelo://app?vid=3319558b-6df8-4dc1-ae82-d6ce4a2fb101"},"vehicle_type_id":"4","last_reported":1705525603,"current_range_meters":26400,"station_id":"ce4bgqh2rcd13ifvqc4g","pricing_plan_id":"free"},{"bike_id":"a216c943-bb88-4764-ae03-b69a087c939c","system_id":"levelo_inurba_marseille","lat":43.305989,"lon":5.37225,"is_reserved":false,"is_disabled":false,"rental_uris":{"android":"levelo://app?vid=a216c943-bb88-4764-ae03-b69a087c939c","ios":"levelo://app?vid=a216c943-bb88-4764-ae03-b69a087c939c"},"vehicle_type_id":"4","last_reported":1705525603,"current_range_meters":22400,"station_id":"ce4bgqh2rcd13ifvqc4g","pricing_plan_id":"free"},{"bike_id":"9c07dd63-5d21-4bfd-9bd9-2da3b6117522","system_id":"levelo_inurba_marseille","lat":43.305989,"lon":5.37225,"is_reserved":false,"is_disabled":false,"rental_uris":{"android":"levelo://app?vid=9c07dd63-5d21-4bfd-9bd9-2da3b6117522","ios":"levelo://app?vid=9c07dd63-5d21-4bfd-9bd9-2da3b6117522"},"vehicle_type_id":"4","last_reported":1705525603,"current_range_meters":28800,"station_id":"ce4bgqh2rcd13ifvqc4g","pricing_plan_id":"free"},{"bike_id":"b04b7376-1072-4081-9382-227461b46342","system_id":"levelo_inurba_marseille","lat":43.311125,"lon":5.377624,"is_reserved":false,"is_disabled":false,"rental_uris":{"android":"levelo://app?vid=b04b7376-1072-4081-9382-227461b46342","ios":"levelo://app?vid=b04b7376-1072-4081-9382-227461b46342"},"vehicle_type_id":"4","last_reported":1705525603,"current_range_meters":21200,"station_id":"ce4bgt92rcd13ifvqcg0","pricing_plan_id":"free"},{"bike_id":"65e9b800-65ee-45d2-92ee-071baf7b2862","system_id":"levelo_inurba_marseille","lat":43.311125,"lon":5.377624,"is_reserved":false,"is_disabled":false,"rental_uris":{"android":"levelo://app?vid=65e9b800-65ee-45d2-92ee-071baf7b2862","ios":"levelo://app?vid=65e9b800-65ee-45d2-92ee-071baf7b2862"},"vehicle_type_id":"4","last_reported":1705525603,"current_range_meters":14800,"station_id":"ce4bgt92rcd13ifvqcg0","pricing_plan_id":"free"},{"bike_id":"60a1cc62-0ec5-4b2f-ad46-c49985c29318","system_id":"levelo_inurba_marseille","lat":43.311125,"lon":5.377624,"is_reserved":false,"is_disabled":false,"rental_uris":{"android":"levelo://app?vid=60a1cc62-0ec5-4b2f-ad46-c49985c29318","ios":"levelo://app?vid=60a1cc62-0ec5-4b2f-ad46-c49985c29318"},"vehicle_type_id":"4","last_reported":1705525603,"current_range_meters":30800,"station_id":"ce4bgt92rcd13ifvqcg0","pricing_plan_id":"free"},{"bike_id":"d8363e27-5566-4fd3-8f86-00ecca702c5b","system_id":"levelo_inurba_marseille","lat":43.311275,"lon":5.377999,"is_reserved":false,"is_disabled":false,"rental_uris":{"android":"levelo://app?vid=d8363e27-5566-4fd3-8f86-00ecca702c5b","ios":"levelo://app?vid=d8363e27-5566-4fd3-8f86-00ecca702c5b"},"vehicle_type_id":"4","last_reported":1705525603,"current_range_meters":27600,"station_id":"","pricing_plan_id":"free"},{"bike_id":"9a292592-554b-405c-b3b1-bedcd334b4c3","system_id":"levelo_inurba_marseille","lat":43.307945,"lon":5.376487,"is_reserved":false,"is_disabled":false,"rental_uris":{"android":"levelo://app?vid=9a292592-554b-405c-b3b1-bedcd334b4c3","ios":"levelo://app?vid=9a292592-554b-405c-b3b1-bedcd334b4c3"},"vehicle_type_id":"4","last_reported":1705525603,"current_range_meters":23600,"station_id":"ce4bgv92rcd13ifvqcq0","pricing_plan_id":"free"},{"bike_id":"43a81df7-3ff7-407d-ba55-2fd7c6ddcacf","system_id":"levelo_inurba_marseille","lat":43.307945,"lon":5.376487,"is_reserved":false,"is_disabled":false,"rental_uris":{"android":"levelo://app?vid=43a81df7-3ff7-407d-ba55-2fd7c6ddcacf","ios":"levelo://app?vid=43a81df7-3ff7-407d-ba55-2fd7c6ddcacf"},"vehicle_type_id":"4","last_reported":1705525603,"current_range_meters":31600,"station_id":"ce4bgv92rcd13ifvqcq0","pricing_plan_id":"free"},{"bike_id":"6f81a612-057b-4650-a66a-83d799e4c397","system_id":"levelo_inurba_marseille","lat":43.307945,"lon":5.376487,"is_reserved":false,"is_disabled":false,"rental_uris":{"android":"levelo://app?vid=6f81a612-057b-4650-a66a-83d799e4c397","ios":"levelo://app?vid=6f81a612-057b-4650-a66a-83d799e4c397"},"vehicle_type_id":"4","last_reported":1705525603,"current_range_meters":26400,"station_id":"ce4bgv92rcd13ifvqcq0","pricing_plan_id":"free"},{"bike_id":"a456dfc1-e659-4d25-82cb-0c1c3844b77a","system_id":"levelo_inurba_marseille","lat":43.317075,"lon":5.377367,"is_reserved":false,"is_disabled":false,"rental_uris":{"android":"levelo://app?vid=a456dfc1-e659-4d25-82cb-0c1c3844b77a","ios":"levelo://app?vid=a456dfc1-e659-4d25-82cb-0c1c3844b77a"},"vehicle_type_id":"4","last_reported":1705525603,"current_range_meters":28000,"station_id":"ce4bgth2rcd13ifvqch0","pricing_plan_id":"free"},{"bike_id":"9507b9a3-f418-4cd7-85c9-640f1d508976","system_id":"levelo_inurba_marseille","lat":43.317075,"lon":5.377367,"is_reserved":false,"is_disabled":false,"rental_uris":{"android":"levelo://app?vid=9507b9a3-f418-4cd7-85c9-640f1d508976","ios":"levelo://app?vid=9507b9a3-f418-4cd7-85c9-640f1d508976"},"vehicle_type_id":"4","last_reported":1705525603,"current_range_meters":11600,"station_id":"ce4bgth2rcd13ifvqch0","pricing_plan_id":"free"},{"bike_id":"ff33bb7d-c90b-41bd-a053-cd8c73fa345a","system_id":"levelo_inurba_marseille","lat":43.317075,"lon":5.377367,"is_reserved":false,"is_disabled":false,"rental_uris":{"android":"levelo://app?vid=ff33bb7d-c90b-41bd-a053-cd8c73fa345a","ios":"levelo://app?vid=ff33bb7d-c90b-41bd-a053-cd8c73fa345a"},"vehicle_type_id":"4","last_reported":1705525603,"current_range_meters":21600,"station_id":"ce4bgth2rcd13ifvqch0","pricing_plan_id":"free"},{"bike_id":"71c5ab52-85e0-4827-b6e7-3c3e80583189","system_id":"levelo_inurba_marseille","lat":43.307945,"lon":5.376487,"is_reserved":false,"is_disabled":false,"rental_uris":{"android":"levelo://app?vid=71c5ab52-85e0-4827-b6e7-3c3e80583189","ios":"levelo://app?vid=71c5ab52-85e0-4827-b6e7-3c3e80583189"},"vehicle_type_id":"4","last_reported":1705525603,"current_range_meters":13200,"station_id":"ce4bgv92rcd13ifvqcq0","pricing_plan_id":"free"},{"bike_id":"3d386a7d-55b1-48f1-95a0-a0e484d66162","system_id":"levelo_inurba_marseille","lat":43.301939,"lon":5.366286,"is_reserved":false,"is_disabled":false,"rental_uris":{"android":"levelo://app?vid=3d386a7d-55b1-48f1-95a0-a0e484d66162","ios":"levelo://app?vid=3d386a7d-55b1-48f1-95a0-a0e484d66162"},"vehicle_type_id":"4","last_reported":1705525603,"current_range_meters":18000,"station_id":"ce4bgrh2rcd13ifvqc8g","pricing_plan_id":"free"},{"bike_id":"e97baf24-b8b5-46f6-9a83-de54ff8bfc9c","system_id":"levelo_inurba_marseille","lat":43.301939,"lon":5.366286,"is_reserved":false,"is_disabled":false,"rental_uris":{"android":"levelo://app?vid=e97baf24-b8b5-46f6-9a83-de54ff8bfc9c","ios":"levelo://app?vid=e97baf24-b8b5-46f6-9a83-de54ff8bfc9c"},"vehicle_type_id":"4","last_reported":1705525603,"current_range_meters":26000,"station_id":"ce4bgrh2rcd13ifvqc8g","pricing_plan_id":"free"},{"bike_id":"0328ef6c-ee07-4bff-84fe-d0195cc3c449","system_id":"levelo_inurba_marseille","lat":43.301939,"lon":5.366286,"is_reserved":false,"is_disabled":false,"rental_uris":{"android":"levelo://app?vid=0328ef6c-ee07-4bff-84fe-d0195cc3c449","ios":"levelo://app?vid=0328ef6c-ee07-4bff-84fe-d0195cc3c449"},"vehicle_type_id":"4","last_reported":1705525603,"current_range_meters":9200,"station_id":"ce4bgrh2rcd13ifvqc8g","pricing_plan_id":"free"},{"bike_id":"b24801f2-06d1-4d3a-976d-fc2dc874f47a","system_id":"levelo_inurba_marseille","lat":43.301939,"lon":5.366286,"is_reserved":false,"is_disabled":false,"rental_uris":{"android":"levelo://app?vid=b24801f2-06d1-4d3a-976d-fc2dc874f47a","ios":"levelo://app?vid=b24801f2-06d1-4d3a-976d-fc2dc874f47a"},"vehicle_type_id":"4","last_reported":1705525603,"current_range_meters":19600,"station_id":"ce4bgrh2rcd13ifvqc8g","pricing_plan_id":"free"},{"bike_id":"b6665513-6ca2-42dc-9baf-3c5b43a49768","system_id":"levelo_inurba_marseille","lat":43.324771,"lon":5.36557,"is_reserved":false,"is_disabled":false,"rental_uris":{"android":"levelo://app?vid=b6665513-6ca2-42dc-9baf-3c5b43a49768","ios":"levelo://app?vid=b6665513-6ca2-42dc-9baf-3c5b43a49768"},"vehicle_type_id":"4","last_reported":1705525603,"current_range_meters":23600,"station_id":"ce4bhs12rcd13ifvqhvg","pricing_plan_id":"free"},{"bike_id":"8291f60e-c159-4222-a855-08d95a38ee2d","system_id":"levelo_inurba_marseille","lat":43.30143,"lon":5.37413,"is_reserved":false,"is_disabled":false,"rental_uris":{"android":"levelo://app?vid=8291f60e-c159-4222-a855-08d95a38ee2d","ios":"levelo://app?vid=8291f60e-c159-4222-a855-08d95a38ee2d"},"vehicle_type_id":"4","last_reported":1705525603,"current_range_meters":23600,"station_id":"ce4bgs92rcd13ifvqcc0","pricing_plan_id":"free"},{"bike_id":"10d50417-b36e-43ea-8ff4-8c44f1aa2f23","system_id":"levelo_inurba_marseille","lat":43.311125,"lon":5.377624,"is_reserved":false,"is_disabled":false,"rental_uris":{"android":"levelo://app?vid=10d50417-b36e-43ea-8ff4-8c44f1aa2f23","ios":"levelo://app?vid=10d50417-b36e-43ea-8ff4-8c44f1aa2f23"},"vehicle_type_id":"4","last_reported":1705525603,"current_range_meters":17200,"station_id":"ce4bgt92rcd13ifvqcg0","pricing_plan_id":"free"},{"bike_id":"e64ec3a8-eebd-4cdf-a91e-b0a283fed678","system_id":"levelo_inurba_marseille","lat":43.319935,"lon":5.381699,"is_reserved":false,"is_disabled":false,"rental_uris":{"android":"levelo://app?vid=e64ec3a8-eebd-4cdf-a91e-b0a283fed678","ios":"levelo://app?vid=e64ec3a8-eebd-4cdf-a91e-b0a283fed678"},"vehicle_type_id":"4","last_reported":1705525603,"current_range_meters":28800,"station_id":"ce4bhr12rcd13ifvqhpg","pricing_plan_id":"free"},{"bike_id":"d2edba53-b6fb-4937-aa17-e4cc1be26aea","system_id":"levelo_inurba_marseille","lat":43.319935,"lon":5.381699,"is_reserved":false,"is_disabled":false,"rental_uris":{"android":"levelo://app?vid=d2edba53-b6fb-4937-aa17-e4cc1be26aea","ios":"levelo://app?vid=d2edba53-b6fb-4937-aa17-e4cc1be26aea"},"vehicle_type_id":"4","last_reported":1705525603,"current_range_meters":13200,"station_id":"ce4bhr12rcd13ifvqhpg","pricing_plan_id":"free"},{"bike_id":"d7969d1d-a1b3-4043-b8e0-646e47c43f31","system_id":"levelo_inurba_marseille","lat":43.319935,"lon":5.381699,"is_reserved":false,"is_disabled":false,"rental_uris":{"android":"levelo://app?vid=d7969d1d-a1b3-4043-b8e0-646e47c43f31","ios":"levelo://app?vid=d7969d1d-a1b3-4043-b8e0-646e47c43f31"},"vehicle_type_id":"4","last_reported":1705525603,"current_range_meters":27600,"station_id":"ce4bhr12rcd13ifvqhpg","pricing_plan_id":"free"},{"bike_id":"58977b51-72c4-41b5-811b-3ff864e1122f","system_id":"levelo_inurba_marseille","lat":43.319935,"lon":5.381699,"is_reserved":false,"is_disabled":false,"rental_uris":{"android":"levelo://app?vid=58977b51-72c4-41b5-811b-3ff864e1122f","ios":"levelo://app?vid=58977b51-72c4-41b5-811b-3ff864e1122f"},"vehicle_type_id":"4","last_reported":1705525603,"current_range_meters":18000,"station_id":"ce4bhr12rcd13ifvqhpg","pricing_plan_id":"free"},{"bike_id":"2df3e643-7736-4b74-b37b-1e8b7f3b94d7","system_id":"levelo_inurba_marseille","lat":43.319935,"lon":5.381699,"is_reserved":false,"is_disabled":false,"rental_uris":{"android":"levelo://app?vid=2df3e643-7736-4b74-b37b-1e8b7f3b94d7","ios":"levelo://app?vid=2df3e643-7736-4b74-b37b-1e8b7f3b94d7"},"vehicle_type_id":"4","last_reported":1705525603,"current_range_meters":23200,"station_id":"ce4bhr12rcd13ifvqhpg","pricing_plan_id":"free"},{"bike_id":"4c13ee13-1bd8-44d8-b7f9-b2cf86ea0f83","system_id":"levelo_inurba_marseille","lat":43.313571,"lon":5.384829,"is_reserved":false,"is_disabled":false,"rental_uris":{"android":"levelo://app?vid=4c13ee13-1bd8-44d8-b7f9-b2cf86ea0f83","ios":"levelo://app?vid=4c13ee13-1bd8-44d8-b7f9-b2cf86ea0f83"},"vehicle_type_id":"4","last_reported":1705525603,"current_range_meters":2800,"station_id":"ce4bgt92rcd13ifvqcf0","pricing_plan_id":"free"},{"bike_id":"d42ac4e8-60eb-4d64-b65a-2384984b9038","system_id":"levelo_inurba_marseille","lat":43.313571,"lon":5.384829,"is_reserved":false,"is_disabled":false,"rental_uris":{"android":"levelo://app?vid=d42ac4e8-60eb-4d64-b65a-2384984b9038","ios":"levelo://app?vid=d42ac4e8-60eb-4d64-b65a-2384984b9038"},"vehicle_type_id":"4","last_reported":1705525603,"current_range_meters":28800,"station_id":"ce4bgt92rcd13ifvqcf0","pricing_plan_id":"free"},{"bike_id":"6c1b416e-7142-4dd7-af8d-8265b17831fa","system_id":"levelo_inurba_marseille","lat":43.313571,"lon":5.384829,"is_reserved":false,"is_disabled":false,"rental_uris":{"android":"levelo://app?vid=6c1b416e-7142-4dd7-af8d-8265b17831fa","ios":"levelo://app?vid=6c1b416e-7142-4dd7-af8d-8265b17831fa"},"vehicle_type_id":"4","last_reported":1705525603,"current_range_meters":29600,"station_id":"ce4bgt92rcd13ifvqcf0","pricing_plan_id":"free"},{"bike_id":"1632a91d-1199-45bd-9df0-dd2fdd1ae80a","system_id":"levelo_inurba_marseille","lat":43.313571,"lon":5.384829,"is_reserved":false,"is_disabled":false,"rental_uris":{"android":"levelo://app?vid=1632a91d-1199-45bd-9df0-dd2fdd1ae80a","ios":"levelo://app?vid=1632a91d-1199-45bd-9df0-dd2fdd1ae80a"},"vehicle_type_id":"4","last_reported":1705525603,"current_range_meters":16800,"station_id":"ce4bgt92rcd13ifvqcf0","pricing_plan_id":"free"},{"bike_id":"27fa8abf-f832-46c6-ba86-d6889fe545b5","system_id":"levelo_inurba_marseille","lat":43.313571,"lon":5.384829,"is_reserved":false,"is_disabled":false,"rental_uris":{"android":"levelo://app?vid=27fa8abf-f832-46c6-ba86-d6889fe545b5","ios":"levelo://app?vid=27fa8abf-f832-46c6-ba86-d6889fe545b5"},"vehicle_type_id":"4","last_reported":1705525603,"current_range_meters":5200,"station_id":"ce4bgt92rcd13ifvqcf0","pricing_plan_id":"free"},{"bike_id":"3261db55-3177-4284-a75b-d10222dcdbd6","system_id":"levelo_inurba_marseille","lat":43.313571,"lon":5.384829,"is_reserved":false,"is_disabled":false,"rental_uris":{"android":"levelo://app?vid=3261db55-3177-4284-a75b-d10222dcdbd6","ios":"levelo://app?vid=3261db55-3177-4284-a75b-d10222dcdbd6"},"vehicle_type_id":"4","last_reported":1705525603,"current_range_meters":29200,"station_id":"ce4bgt92rcd13ifvqcf0","pricing_plan_id":"free"},{"bike_id":"814692ac-b473-4130-8719-0b5cf8a6c6f1","system_id":"levelo_inurba_marseille","lat":43.313571,"lon":5.384829,"is_reserved":false,"is_disabled":false,"rental_uris":{"android":"levelo://app?vid=814692ac-b473-4130-8719-0b5cf8a6c6f1","ios":"levelo://app?vid=814692ac-b473-4130-8719-0b5cf8a6c6f1"},"vehicle_type_id":"4","last_reported":1705525603,"current_range_meters":20400,"station_id":"ce4bgt92rcd13ifvqcf0","pricing_plan_id":"free"},{"bike_id":"a9fecdd8-54c6-42ba-9f80-f8cc0de47808","system_id":"levelo_inurba_marseille","lat":43.313571,"lon":5.384829,"is_reserved":false,"is_disabled":false,"rental_uris":{"android":"levelo://app?vid=a9fecdd8-54c6-42ba-9f80-f8cc0de47808","ios":"levelo://app?vid=a9fecdd8-54c6-42ba-9f80-f8cc0de47808"},"vehicle_type_id":"4","last_reported":1705525603,"current_range_meters":16800,"station_id":"ce4bgt92rcd13ifvqcf0","pricing_plan_id":"free"},{"bike_id":"dcea3bfa-82ec-4d23-b45a-fea0ef45a7e7","system_id":"levelo_inurba_marseille","lat":43.29938,"lon":5.36549,"is_reserved":false,"is_disabled":false,"rental_uris":{"android":"levelo://app?vid=dcea3bfa-82ec-4d23-b45a-fea0ef45a7e7","ios":"levelo://app?vid=dcea3bfa-82ec-4d23-b45a-fea0ef45a7e7"},"vehicle_type_id":"4","last_reported":1705525603,"current_range_meters":1600,"station_id":"ce4bgm92rcd13ifvqbr0","pricing_plan_id":"free"},{"bike_id":"1ce24435-6b1a-42f8-8108-ae5690103358","system_id":"levelo_inurba_marseille","lat":43.299222,"lon":5.365554,"is_reserved":false,"is_disabled":false,"rental_uris":{"android":"levelo://app?vid=1ce24435-6b1a-42f8-8108-ae5690103358","ios":"levelo://app?vid=1ce24435-6b1a-42f8-8108-ae5690103358"},"vehicle_type_id":"4","last_reported":1705525603,"current_range_meters":12400,"station_id":"ce4bgm92rcd13ifvqbr0","pricing_plan_id":"free"},{"bike_id":"2ca438be-02d4-40bd-b063-117dbb495a10","system_id":"levelo_inurba_marseille","lat":43.29971,"lon":5.37194,"is_reserved":false,"is_disabled":false,"rental_uris":{"android":"levelo://app?vid=2ca438be-02d4-40bd-b063-117dbb495a10","ios":"levelo://app?vid=2ca438be-02d4-40bd-b063-117dbb495a10"},"vehicle_type_id":"4","last_reported":1705525603,"current_range_meters":20400,"station_id":"ce4bgr92rcd13ifvqc7g","pricing_plan_id":"free"},{"bike_id":"479f32f8-1f83-4ad5-850c-10bf20d4017d","system_id":"levelo_inurba_marseille","lat":43.299724,"lon":5.371829,"is_reserved":false,"is_disabled":false,"rental_uris":{"android":"levelo://app?vid=479f32f8-1f83-4ad5-850c-10bf20d4017d","ios":"levelo://app?vid=479f32f8-1f83-4ad5-850c-10bf20d4017d"},"vehicle_type_id":"4","last_reported":1705525603,"current_range_meters":4800,"station_id":"ce4bgr92rcd13ifvqc7g","pricing_plan_id":"free"},{"bike_id":"9dd086ec-6120-4e00-97c4-88394e9110dc","system_id":"levelo_inurba_marseille","lat":43.298433,"lon":5.362774,"is_reserved":false,"is_disabled":false,"rental_uris":{"android":"levelo://app?vid=9dd086ec-6120-4e00-97c4-88394e9110dc","ios":"levelo://app?vid=9dd086ec-6120-4e00-97c4-88394e9110dc"},"vehicle_type_id":"4","last_reported":1705525603,"current_range_meters":24800,"station_id":"ce4bgpp2rcd13ifvqc3g","pricing_plan_id":"free"},{"bike_id":"50d029cb-51fd-4708-b640-c3e557fe1708","system_id":"levelo_inurba_marseille","lat":43.298433,"lon":5.362774,"is_reserved":false,"is_disabled":false,"rental_uris":{"android":"levelo://app?vid=50d029cb-51fd-4708-b640-c3e557fe1708","ios":"levelo://app?vid=50d029cb-51fd-4708-b640-c3e557fe1708"},"vehicle_type_id":"4","last_reported":1705525603,"current_range_meters":31200,"station_id":"ce4bgpp2rcd13ifvqc3g","pricing_plan_id":"free"},{"bike_id":"e13c9a92-369f-4166-a0e5-9fac82e9cf6b","system_id":"levelo_inurba_marseille","lat":43.305364,"lon":5.384119,"is_reserved":false,"is_disabled":false,"rental_uris":{"android":"levelo://app?vid=e13c9a92-369f-4166-a0e5-9fac82e9cf6b","ios":"levelo://app?vid=e13c9a92-369f-4166-a0e5-9fac82e9cf6b"},"vehicle_type_id":"4","last_reported":1705525603,"current_range_meters":16400,"station_id":"ce4bgg92rcd13ifvqb30","pricing_plan_id":"free"},{"bike_id":"ece942ec-6dd4-4148-93a4-84eb0dcc7674","system_id":"levelo_inurba_marseille","lat":43.31185,"lon":5.38712,"is_reserved":false,"is_disabled":false,"rental_uris":{"android":"levelo://app?vid=ece942ec-6dd4-4148-93a4-84eb0dcc7674","ios":"levelo://app?vid=ece942ec-6dd4-4148-93a4-84eb0dcc7674"},"vehicle_type_id":"4","last_reported":1705525603,"current_range_meters":20800,"station_id":"ce4bgv12rcd13ifvqcp0","pricing_plan_id":"free"},{"bike_id":"1a4e3468-89a0-47cf-91bf-7b8e805b975e","system_id":"levelo_inurba_marseille","lat":43.29912,"lon":5.374663,"is_reserved":false,"is_disabled":false,"rental_uris":{"android":"levelo://app?vid=1a4e3468-89a0-47cf-91bf-7b8e805b975e","ios":"levelo://app?vid=1a4e3468-89a0-47cf-91bf-7b8e805b975e"},"vehicle_type_id":"4","last_reported":1705525603,"current_range_meters":27600,"station_id":"ce4bgjh2rcd13ifvqbg0","pricing_plan_id":"free"},{"bike_id":"b84c78ec-20e4-4d01-bafc-cd5b6393e0f3","system_id":"levelo_inurba_marseille","lat":43.311722,"lon":5.387247,"is_reserved":false,"is_disabled":false,"rental_uris":{"android":"levelo://app?vid=b84c78ec-20e4-4d01-bafc-cd5b6393e0f3","ios":"levelo://app?vid=b84c78ec-20e4-4d01-bafc-cd5b6393e0f3"},"vehicle_type_id":"4","last_reported":1705525603,"current_range_meters":24000,"station_id":"ce4bgv12rcd13ifvqcp0","pricing_plan_id":"free"},{"bike_id":"b50b2589-8e02-43e7-a8d6-07f540483070","system_id":"levelo_inurba_marseille","lat":43.311722,"lon":5.387247,"is_reserved":false,"is_disabled":false,"rental_uris":{"android":"levelo://app?vid=b50b2589-8e02-43e7-a8d6-07f540483070","ios":"levelo://app?vid=b50b2589-8e02-43e7-a8d6-07f540483070"},"vehicle_type_id":"4","last_reported":1705525603,"current_range_meters":8400,"station_id":"ce4bgv12rcd13ifvqcp0","pricing_plan_id":"free"},{"bike_id":"5f482809-ab68-412b-bb04-77e29931565a","system_id":"levelo_inurba_marseille","lat":43.31168,"lon":5.38727,"is_reserved":false,"is_disabled":false,"rental_uris":{"android":"levelo://app?vid=5f482809-ab68-412b-bb04-77e29931565a","ios":"levelo://app?vid=5f482809-ab68-412b-bb04-77e29931565a"},"vehicle_type_id":"4","last_reported":1705525603,"current_range_meters":26400,"station_id":"ce4bgv12rcd13ifvqcp0","pricing_plan_id":"free"},{"bike_id":"1d30aead-9fc3-4085-92cc-b04e645f2e67","system_id":"levelo_inurba_marseille","lat":43.29903,"lon":5.37492,"is_reserved":false,"is_disabled":false,"rental_uris":{"android":"levelo://app?vid=1d30aead-9fc3-4085-92cc-b04e645f2e67","ios":"levelo://app?vid=1d30aead-9fc3-4085-92cc-b04e645f2e67"},"vehicle_type_id":"4","last_reported":1705525603,"current_range_meters":1200,"station_id":"ce4bgjh2rcd13ifvqbg0","pricing_plan_id":"free"},{"bike_id":"7d17b622-a91f-40b5-819b-4b5aab7f5df7","system_id":"levelo_inurba_marseille","lat":43.298954,"lon":5.374734,"is_reserved":false,"is_disabled":false,"rental_uris":{"android":"levelo://app?vid=7d17b622-a91f-40b5-819b-4b5aab7f5df7","ios":"levelo://app?vid=7d17b622-a91f-40b5-819b-4b5aab7f5df7"},"vehicle_type_id":"4","last_reported":1705525603,"current_range_meters":22000,"station_id":"ce4bgjh2rcd13ifvqbg0","pricing_plan_id":"free"},{"bike_id":"34c8b400-5074-46e3-aa02-f5d274dfaa4f","system_id":"levelo_inurba_marseille","lat":43.322876,"lon":5.382575,"is_reserved":false,"is_disabled":false,"rental_uris":{"android":"levelo://app?vid=34c8b400-5074-46e3-aa02-f5d274dfaa4f","ios":"levelo://app?vid=34c8b400-5074-46e3-aa02-f5d274dfaa4f"},"vehicle_type_id":"4","last_reported":1705525603,"current_range_meters":14400,"station_id":"ce4bhr12rcd13ifvqhqg","pricing_plan_id":"free"},{"bike_id":"602a17b0-b8f4-4e78-85df-303ed86c065f","system_id":"levelo_inurba_marseille","lat":43.322872,"lon":5.382756,"is_reserved":false,"is_disabled":false,"rental_uris":{"android":"levelo://app?vid=602a17b0-b8f4-4e78-85df-303ed86c065f","ios":"levelo://app?vid=602a17b0-b8f4-4e78-85df-303ed86c065f"},"vehicle_type_id":"4","last_reported":1705525603,"current_range_meters":21600,"station_id":"ce4bhr12rcd13ifvqhqg","pricing_plan_id":"free"},{"bike_id":"c59e915a-05cb-49b2-8b19-dcae4465ebcc","system_id":"levelo_inurba_marseille","lat":43.322872,"lon":5.382756,"is_reserved":false,"is_disabled":false,"rental_uris":{"android":"levelo://app?vid=c59e915a-05cb-49b2-8b19-dcae4465ebcc","ios":"levelo://app?vid=c59e915a-05cb-49b2-8b19-dcae4465ebcc"},"vehicle_type_id":"4","last_reported":1705525603,"current_range_meters":30000,"station_id":"ce4bhr12rcd13ifvqhqg","pricing_plan_id":"free"},{"bike_id":"3f6079be-fb20-4733-af0c-85ab4c3940ea","system_id":"levelo_inurba_marseille","lat":43.322872,"lon":5.382756,"is_reserved":false,"is_disabled":false,"rental_uris":{"android":"levelo://app?vid=3f6079be-fb20-4733-af0c-85ab4c3940ea","ios":"levelo://app?vid=3f6079be-fb20-4733-af0c-85ab4c3940ea"},"vehicle_type_id":"4","last_reported":1705525603,"current_range_meters":30400,"station_id":"ce4bhr12rcd13ifvqhqg","pricing_plan_id":"free"},{"bike_id":"afe2d6ba-ebda-4981-9104-c77037901f05","system_id":"levelo_inurba_marseille","lat":43.322872,"lon":5.382756,"is_reserved":false,"is_disabled":false,"rental_uris":{"android":"levelo://app?vid=afe2d6ba-ebda-4981-9104-c77037901f05","ios":"levelo://app?vid=afe2d6ba-ebda-4981-9104-c77037901f05"},"vehicle_type_id":"4","last_reported":1705525603,"current_range_meters":14400,"station_id":"ce4bhr12rcd13ifvqhqg","pricing_plan_id":"free"},{"bike_id":"aceabc87-d681-4c2c-a7db-fc99976ae55a","system_id":"levelo_inurba_marseille","lat":43.322872,"lon":5.382756,"is_reserved":false,"is_disabled":false,"rental_uris":{"android":"levelo://app?vid=aceabc87-d681-4c2c-a7db-fc99976ae55a","ios":"levelo://app?vid=aceabc87-d681-4c2c-a7db-fc99976ae55a"},"vehicle_type_id":"4","last_reported":1705525603,"current_range_meters":6800,"station_id":"ce4bhr12rcd13ifvqhqg","pricing_plan_id":"free"},{"bike_id":"7f73b72d-cc5e-4953-9b4b-d396e1416c0e","system_id":"levelo_inurba_marseille","lat":43.322872,"lon":5.382756,"is_reserved":false,"is_disabled":false,"rental_uris":{"android":"levelo://app?vid=7f73b72d-cc5e-4953-9b4b-d396e1416c0e","ios":"levelo://app?vid=7f73b72d-cc5e-4953-9b4b-d396e1416c0e"},"vehicle_type_id":"4","last_reported":1705525603,"current_range_meters":14000,"station_id":"ce4bhr12rcd13ifvqhqg","pricing_plan_id":"free"},{"bike_id":"bc668f13-2e56-47cf-a84f-2f5cc2560e83","system_id":"levelo_inurba_marseille","lat":43.322872,"lon":5.382756,"is_reserved":false,"is_disabled":false,"rental_uris":{"android":"levelo://app?vid=bc668f13-2e56-47cf-a84f-2f5cc2560e83","ios":"levelo://app?vid=bc668f13-2e56-47cf-a84f-2f5cc2560e83"},"vehicle_type_id":"4","last_reported":1705525603,"current_range_meters":26000,"station_id":"ce4bhr12rcd13ifvqhqg","pricing_plan_id":"free"},{"bike_id":"510e4003-ad50-4182-a4bb-6da1b111fff5","system_id":"levelo_inurba_marseille","lat":43.322872,"lon":5.382756,"is_reserved":false,"is_disabled":false,"rental_uris":{"android":"levelo://app?vid=510e4003-ad50-4182-a4bb-6da1b111fff5","ios":"levelo://app?vid=510e4003-ad50-4182-a4bb-6da1b111fff5"},"vehicle_type_id":"4","last_reported":1705525603,"current_range_meters":18400,"station_id":"ce4bhr12rcd13ifvqhqg","pricing_plan_id":"free"},{"bike_id":"947a5c0b-0299-4cd2-aecd-5f351114aaf8","system_id":"levelo_inurba_marseille","lat":43.32822,"lon":5.3668,"is_reserved":false,"is_disabled":false,"rental_uris":{"android":"levelo://app?vid=947a5c0b-0299-4cd2-aecd-5f351114aaf8","ios":"levelo://app?vid=947a5c0b-0299-4cd2-aecd-5f351114aaf8"},"vehicle_type_id":"4","last_reported":1705525603,"current_range_meters":20400,"station_id":"ce4bhs92rcd13ifvqi0g","pricing_plan_id":"free"},{"bike_id":"8463d0da-e03a-4a02-8a84-4dd7b137838e","system_id":"levelo_inurba_marseille","lat":43.32822,"lon":5.36678,"is_reserved":false,"is_disabled":false,"rental_uris":{"android":"levelo://app?vid=8463d0da-e03a-4a02-8a84-4dd7b137838e","ios":"levelo://app?vid=8463d0da-e03a-4a02-8a84-4dd7b137838e"},"vehicle_type_id":"4","last_reported":1705525603,"current_range_meters":20400,"station_id":"ce4bhs92rcd13ifvqi0g","pricing_plan_id":"free"},{"bike_id":"85cedcff-9e9a-415d-8415-195178ea3cb7","system_id":"levelo_inurba_marseille","lat":43.328241,"lon":5.366785,"is_reserved":false,"is_disabled":false,"rental_uris":{"android":"levelo://app?vid=85cedcff-9e9a-415d-8415-195178ea3cb7","ios":"levelo://app?vid=85cedcff-9e9a-415d-8415-195178ea3cb7"},"vehicle_type_id":"4","last_reported":1705525603,"current_range_meters":19200,"station_id":"ce4bhs92rcd13ifvqi0g","pricing_plan_id":"free"},{"bike_id":"09621f87-561a-4138-9bcf-5568c59432a9","system_id":"levelo_inurba_marseille","lat":43.328244,"lon":5.36683,"is_reserved":false,"is_disabled":false,"rental_uris":{"android":"levelo://app?vid=09621f87-561a-4138-9bcf-5568c59432a9","ios":"levelo://app?vid=09621f87-561a-4138-9bcf-5568c59432a9"},"vehicle_type_id":"4","last_reported":1705525603,"current_range_meters":0,"station_id":"ce4bhs92rcd13ifvqi0g","pricing_plan_id":"free"},{"bike_id":"d43c57c2-7bf4-4425-bc47-bf63cf92422b","system_id":"levelo_inurba_marseille","lat":43.29724,"lon":5.36616,"is_reserved":false,"is_disabled":false,"rental_uris":{"android":"levelo://app?vid=d43c57c2-7bf4-4425-bc47-bf63cf92422b","ios":"levelo://app?vid=d43c57c2-7bf4-4425-bc47-bf63cf92422b"},"vehicle_type_id":"4","last_reported":1705525603,"current_range_meters":13200,"station_id":"ce4bgn12rcd13ifvqbt0","pricing_plan_id":"free"},{"bike_id":"70f179dd-f28c-4384-b145-ec6cf77cd4b8","system_id":"levelo_inurba_marseille","lat":43.32825,"lon":5.366818,"is_reserved":false,"is_disabled":false,"rental_uris":{"android":"levelo://app?vid=70f179dd-f28c-4384-b145-ec6cf77cd4b8","ios":"levelo://app?vid=70f179dd-f28c-4384-b145-ec6cf77cd4b8"},"vehicle_type_id":"4","last_reported":1705525603,"current_range_meters":11200,"station_id":"ce4bhs92rcd13ifvqi0g","pricing_plan_id":"free"},{"bike_id":"ea0178f3-2c6b-4af6-b062-91b0b8dde1df","system_id":"levelo_inurba_marseille","lat":43.328259,"lon":5.366759,"is_reserved":false,"is_disabled":false,"rental_uris":{"android":"levelo://app?vid=ea0178f3-2c6b-4af6-b062-91b0b8dde1df","ios":"levelo://app?vid=ea0178f3-2c6b-4af6-b062-91b0b8dde1df"},"vehicle_type_id":"4","last_reported":1705525603,"current_range_meters":5200,"station_id":"ce4bhs92rcd13ifvqi0g","pricing_plan_id":"free"},{"bike_id":"6b4ea496-3016-42db-af64-ba8beb6e73fc","system_id":"levelo_inurba_marseille","lat":43.32826,"lon":5.366645,"is_reserved":false,"is_disabled":false,"rental_uris":{"android":"levelo://app?vid=6b4ea496-3016-42db-af64-ba8beb6e73fc","ios":"levelo://app?vid=6b4ea496-3016-42db-af64-ba8beb6e73fc"},"vehicle_type_id":"4","last_reported":1705525603,"current_range_meters":22800,"station_id":"ce4bhs92rcd13ifvqi0g","pricing_plan_id":"free"},{"bike_id":"1782ad4d-7cbc-4ac0-af82-b65688e9d34c","system_id":"levelo_inurba_marseille","lat":43.328265,"lon":5.36672,"is_reserved":false,"is_disabled":false,"rental_uris":{"android":"levelo://app?vid=1782ad4d-7cbc-4ac0-af82-b65688e9d34c","ios":"levelo://app?vid=1782ad4d-7cbc-4ac0-af82-b65688e9d34c"},"vehicle_type_id":"4","last_reported":1705525603,"current_range_meters":24400,"station_id":"ce4bhs92rcd13ifvqi0g","pricing_plan_id":"free"},{"bike_id":"9cda7071-0b99-4f13-a66f-99ee8455accb","system_id":"levelo_inurba_marseille","lat":43.32827,"lon":5.36678,"is_reserved":false,"is_disabled":false,"rental_uris":{"android":"levelo://app?vid=9cda7071-0b99-4f13-a66f-99ee8455accb","ios":"levelo://app?vid=9cda7071-0b99-4f13-a66f-99ee8455accb"},"vehicle_type_id":"4","last_reported":1705525603,"current_range_meters":17200,"station_id":"ce4bhs92rcd13ifvqi0g","pricing_plan_id":"free"},{"bike_id":"a53b6dde-9c97-4a96-897c-ee7f9265222d","system_id":"levelo_inurba_marseille","lat":43.32827,"lon":5.36672,"is_reserved":false,"is_disabled":false,"rental_uris":{"android":"levelo://app?vid=a53b6dde-9c97-4a96-897c-ee7f9265222d","ios":"levelo://app?vid=a53b6dde-9c97-4a96-897c-ee7f9265222d"},"vehicle_type_id":"4","last_reported":1705525603,"current_range_meters":20800,"station_id":"ce4bhs92rcd13ifvqi0g","pricing_plan_id":"free"},{"bike_id":"fca86b06-2160-4bc5-be0f-6c0b71564379","system_id":"levelo_inurba_marseille","lat":43.29722,"lon":5.36612,"is_reserved":false,"is_disabled":false,"rental_uris":{"android":"levelo://app?vid=fca86b06-2160-4bc5-be0f-6c0b71564379","ios":"levelo://app?vid=fca86b06-2160-4bc5-be0f-6c0b71564379"},"vehicle_type_id":"4","last_reported":1705525603,"current_range_meters":25200,"station_id":"ce4bgn12rcd13ifvqbt0","pricing_plan_id":"free"},{"bike_id":"bae0e6ef-8eeb-485a-a054-bea3431d2035","system_id":"levelo_inurba_marseille","lat":43.328299,"lon":5.366727,"is_reserved":false,"is_disabled":false,"rental_uris":{"android":"levelo://app?vid=bae0e6ef-8eeb-485a-a054-bea3431d2035","ios":"levelo://app?vid=bae0e6ef-8eeb-485a-a054-bea3431d2035"},"vehicle_type_id":"4","last_reported":1705525603,"current_range_meters":18400,"station_id":"ce4bhs92rcd13ifvqi0g","pricing_plan_id":"free"},{"bike_id":"c6744f53-5428-4454-8fc7-2722f2a1bf4f","system_id":"levelo_inurba_marseille","lat":43.29719,"lon":5.36616,"is_reserved":false,"is_disabled":false,"rental_uris":{"android":"levelo://app?vid=c6744f53-5428-4454-8fc7-2722f2a1bf4f","ios":"levelo://app?vid=c6744f53-5428-4454-8fc7-2722f2a1bf4f"},"vehicle_type_id":"4","last_reported":1705525603,"current_range_meters":15200,"station_id":"ce4bgn12rcd13ifvqbt0","pricing_plan_id":"free"},{"bike_id":"641739e6-19de-47df-9491-35da26c3c9da","system_id":"levelo_inurba_marseille","lat":43.32831,"lon":5.36675,"is_reserved":false,"is_disabled":false,"rental_uris":{"android":"levelo://app?vid=641739e6-19de-47df-9491-35da26c3c9da","ios":"levelo://app?vid=641739e6-19de-47df-9491-35da26c3c9da"},"vehicle_type_id":"4","last_reported":1705525603,"current_range_meters":0,"station_id":"ce4bhs92rcd13ifvqi0g","pricing_plan_id":"free"},{"bike_id":"02f97db8-1e1e-4f38-89f3-11868234f7c3","system_id":"levelo_inurba_marseille","lat":43.328311,"lon":5.36674,"is_reserved":false,"is_disabled":false,"rental_uris":{"android":"levelo://app?vid=02f97db8-1e1e-4f38-89f3-11868234f7c3","ios":"levelo://app?vid=02f97db8-1e1e-4f38-89f3-11868234f7c3"},"vehicle_type_id":"4","last_reported":1705525603,"current_range_meters":16800,"station_id":"ce4bhs92rcd13ifvqi0g","pricing_plan_id":"free"},{"bike_id":"d5600d48-9ca1-431c-afdc-f055b0b3ff68","system_id":"levelo_inurba_marseille","lat":43.32832,"lon":5.36693,"is_reserved":false,"is_disabled":false,"rental_uris":{"android":"levelo://app?vid=d5600d48-9ca1-431c-afdc-f055b0b3ff68","ios":"levelo://app?vid=d5600d48-9ca1-431c-afdc-f055b0b3ff68"},"vehicle_type_id":"4","last_reported":1705525603,"current_range_meters":800,"station_id":"ce4bhs92rcd13ifvqi0g","pricing_plan_id":"free"},{"bike_id":"88638e12-da12-4596-b7e2-600ab2f62219","system_id":"levelo_inurba_marseille","lat":43.328332,"lon":5.366787,"is_reserved":false,"is_disabled":false,"rental_uris":{"android":"levelo://app?vid=88638e12-da12-4596-b7e2-600ab2f62219","ios":"levelo://app?vid=88638e12-da12-4596-b7e2-600ab2f62219"},"vehicle_type_id":"4","last_reported":1705525603,"current_range_meters":9200,"station_id":"ce4bhs92rcd13ifvqi0g","pricing_plan_id":"free"},{"bike_id":"7a5cfd19-67b5-4404-837f-9d2597d5b4a4","system_id":"levelo_inurba_marseille","lat":43.32834,"lon":5.36685,"is_reserved":false,"is_disabled":false,"rental_uris":{"android":"levelo://app?vid=7a5cfd19-67b5-4404-837f-9d2597d5b4a4","ios":"levelo://app?vid=7a5cfd19-67b5-4404-837f-9d2597d5b4a4"},"vehicle_type_id":"4","last_reported":1705525603,"current_range_meters":13200,"station_id":"ce4bhs92rcd13ifvqi0g","pricing_plan_id":"free"},{"bike_id":"d244dd42-e655-4246-9535-52092b7e8b8e","system_id":"levelo_inurba_marseille","lat":43.297163,"lon":5.365866,"is_reserved":false,"is_disabled":false,"rental_uris":{"android":"levelo://app?vid=d244dd42-e655-4246-9535-52092b7e8b8e","ios":"levelo://app?vid=d244dd42-e655-4246-9535-52092b7e8b8e"},"vehicle_type_id":"4","last_reported":1705525603,"current_range_meters":21600,"station_id":"ce4bgn12rcd13ifvqbt0","pricing_plan_id":"free"},{"bike_id":"8c8841e0-3da9-4ec9-ab3e-86fdfcff75fa","system_id":"levelo_inurba_marseille","lat":43.29713,"lon":5.366143,"is_reserved":false,"is_disabled":false,"rental_uris":{"android":"levelo://app?vid=8c8841e0-3da9-4ec9-ab3e-86fdfcff75fa","ios":"levelo://app?vid=8c8841e0-3da9-4ec9-ab3e-86fdfcff75fa"},"vehicle_type_id":"4","last_reported":1705525603,"current_range_meters":11200,"station_id":"ce4bgn12rcd13ifvqbt0","pricing_plan_id":"free"},{"bike_id":"4618eaa8-7e55-4aa5-a8d1-202c0dd743eb","system_id":"levelo_inurba_marseille","lat":43.297163,"lon":5.365866,"is_reserved":false,"is_disabled":false,"rental_uris":{"android":"levelo://app?vid=4618eaa8-7e55-4aa5-a8d1-202c0dd743eb","ios":"levelo://app?vid=4618eaa8-7e55-4aa5-a8d1-202c0dd743eb"},"vehicle_type_id":"4","last_reported":1705525603,"current_range_meters":31200,"station_id":"ce4bgn12rcd13ifvqbt0","pricing_plan_id":"free"},{"bike_id":"2b8c20f5-6691-4f06-b229-b5606672aa18","system_id":"levelo_inurba_marseille","lat":43.297163,"lon":5.365866,"is_reserved":false,"is_disabled":false,"rental_uris":{"android":"levelo://app?vid=2b8c20f5-6691-4f06-b229-b5606672aa18","ios":"levelo://app?vid=2b8c20f5-6691-4f06-b229-b5606672aa18"},"vehicle_type_id":"4","last_reported":1705525603,"current_range_meters":29600,"station_id":"ce4bgn12rcd13ifvqbt0","pricing_plan_id":"free"},{"bike_id":"a4b75b47-8adc-41a4-8c88-6b1ca948fbad","system_id":"levelo_inurba_marseille","lat":43.297163,"lon":5.365866,"is_reserved":false,"is_disabled":false,"rental_uris":{"android":"levelo://app?vid=a4b75b47-8adc-41a4-8c88-6b1ca948fbad","ios":"levelo://app?vid=a4b75b47-8adc-41a4-8c88-6b1ca948fbad"},"vehicle_type_id":"4","last_reported":1705525603,"current_range_meters":27600,"station_id":"ce4bgn12rcd13ifvqbt0","pricing_plan_id":"free"},{"bike_id":"38082c03-fac1-44d3-a79f-5142b4a113a9","system_id":"levelo_inurba_marseille","lat":43.328373,"lon":5.366902,"is_reserved":false,"is_disabled":false,"rental_uris":{"android":"levelo://app?vid=38082c03-fac1-44d3-a79f-5142b4a113a9","ios":"levelo://app?vid=38082c03-fac1-44d3-a79f-5142b4a113a9"},"vehicle_type_id":"4","last_reported":1705525603,"current_range_meters":22000,"station_id":"ce4bhs92rcd13ifvqi0g","pricing_plan_id":"free"},{"bike_id":"b4462b3d-7726-4d91-8012-ba1bac161ec5","system_id":"levelo_inurba_marseille","lat":43.29708,"lon":5.36611,"is_reserved":false,"is_disabled":false,"rental_uris":{"android":"levelo://app?vid=b4462b3d-7726-4d91-8012-ba1bac161ec5","ios":"levelo://app?vid=b4462b3d-7726-4d91-8012-ba1bac161ec5"},"vehicle_type_id":"4","last_reported":1705525603,"current_range_meters":23200,"station_id":"ce4bgn12rcd13ifvqbt0","pricing_plan_id":"free"},{"bike_id":"a57fb72f-fba7-4d3c-bb6c-145fe89d9f7a","system_id":"levelo_inurba_marseille","lat":43.297163,"lon":5.365866,"is_reserved":false,"is_disabled":false,"rental_uris":{"android":"levelo://app?vid=a57fb72f-fba7-4d3c-bb6c-145fe89d9f7a","ios":"levelo://app?vid=a57fb72f-fba7-4d3c-bb6c-145fe89d9f7a"},"vehicle_type_id":"4","last_reported":1705525603,"current_range_meters":31600,"station_id":"ce4bgn12rcd13ifvqbt0","pricing_plan_id":"free"},{"bike_id":"2f98e343-ddea-49a8-9ab8-bfeb1064263e","system_id":"levelo_inurba_marseille","lat":43.2968,"lon":5.37291,"is_reserved":false,"is_disabled":false,"rental_uris":{"android":"levelo://app?vid=2f98e343-ddea-49a8-9ab8-bfeb1064263e","ios":"levelo://app?vid=2f98e343-ddea-49a8-9ab8-bfeb1064263e"},"vehicle_type_id":"4","last_reported":1705525603,"current_range_meters":28400,"station_id":"ce4bgk12rcd13ifvqbj0","pricing_plan_id":"free"},{"bike_id":"16c69a55-1fa6-4a65-9316-50fe05eb4730","system_id":"levelo_inurba_marseille","lat":43.296131,"lon":5.370791,"is_reserved":false,"is_disabled":false,"rental_uris":{"android":"levelo://app?vid=16c69a55-1fa6-4a65-9316-50fe05eb4730","ios":"levelo://app?vid=16c69a55-1fa6-4a65-9316-50fe05eb4730"},"vehicle_type_id":"4","last_reported":1705525603,"current_range_meters":16000,"station_id":"ce4bgnh2rcd13ifvqc0g","pricing_plan_id":"free"},{"bike_id":"65adfcf7-a629-484a-9b33-f300917fa970","system_id":"levelo_inurba_marseille","lat":43.296131,"lon":5.370791,"is_reserved":false,"is_disabled":false,"rental_uris":{"android":"levelo://app?vid=65adfcf7-a629-484a-9b33-f300917fa970","ios":"levelo://app?vid=65adfcf7-a629-484a-9b33-f300917fa970"},"vehicle_type_id":"4","last_reported":1705525603,"current_range_meters":31600,"station_id":"ce4bgnh2rcd13ifvqc0g","pricing_plan_id":"free"},{"bike_id":"6695144b-7081-49b4-8eab-0f2fd23bd9da","system_id":"levelo_inurba_marseille","lat":43.296157,"lon":5.371553,"is_reserved":false,"is_disabled":false,"rental_uris":{"android":"levelo://app?vid=6695144b-7081-49b4-8eab-0f2fd23bd9da","ios":"levelo://app?vid=6695144b-7081-49b4-8eab-0f2fd23bd9da"},"vehicle_type_id":"4","last_reported":1705525603,"current_range_meters":16400,"station_id":"ce4bgnh2rcd13ifvqc0g","pricing_plan_id":"free"},{"bike_id":"7614405e-08d0-4fee-883d-0a874a835b92","system_id":"levelo_inurba_marseille","lat":43.29573,"lon":5.367355,"is_reserved":false,"is_disabled":false,"rental_uris":{"android":"levelo://app?vid=7614405e-08d0-4fee-883d-0a874a835b92","ios":"levelo://app?vid=7614405e-08d0-4fee-883d-0a874a835b92"},"vehicle_type_id":"4","last_reported":1705525603,"current_range_meters":13200,"station_id":"ce4bgph2rcd13ifvqc2g","pricing_plan_id":"free"},{"bike_id":"c6c2a42c-cb3e-4d36-a6b9-d2650d13a887","system_id":"levelo_inurba_marseille","lat":43.29573,"lon":5.367355,"is_reserved":false,"is_disabled":false,"rental_uris":{"android":"levelo://app?vid=c6c2a42c-cb3e-4d36-a6b9-d2650d13a887","ios":"levelo://app?vid=c6c2a42c-cb3e-4d36-a6b9-d2650d13a887"},"vehicle_type_id":"4","last_reported":1705525603,"current_range_meters":26400,"station_id":"ce4bgph2rcd13ifvqc2g","pricing_plan_id":"free"},{"bike_id":"ae04197c-27cd-44f2-a5dc-680c3f3e39b6","system_id":"levelo_inurba_marseille","lat":43.317557,"lon":5.390173,"is_reserved":false,"is_disabled":false,"rental_uris":{"android":"levelo://app?vid=ae04197c-27cd-44f2-a5dc-680c3f3e39b6","ios":"levelo://app?vid=ae04197c-27cd-44f2-a5dc-680c3f3e39b6"},"vehicle_type_id":"4","last_reported":1705525603,"current_range_meters":6800,"station_id":"ce4bhqp2rcd13ifvqhng","pricing_plan_id":"free"},{"bike_id":"d4d60c11-4d5c-4dcb-abe4-777b8eef8048","system_id":"levelo_inurba_marseille","lat":43.317557,"lon":5.390173,"is_reserved":false,"is_disabled":false,"rental_uris":{"android":"levelo://app?vid=d4d60c11-4d5c-4dcb-abe4-777b8eef8048","ios":"levelo://app?vid=d4d60c11-4d5c-4dcb-abe4-777b8eef8048"},"vehicle_type_id":"4","last_reported":1705525603,"current_range_meters":12800,"station_id":"ce4bhqp2rcd13ifvqhng","pricing_plan_id":"free"},{"bike_id":"3fc1c41e-5148-4539-8611-6ae4c5633027","system_id":"levelo_inurba_marseille","lat":43.317557,"lon":5.390173,"is_reserved":false,"is_disabled":false,"rental_uris":{"android":"levelo://app?vid=3fc1c41e-5148-4539-8611-6ae4c5633027","ios":"levelo://app?vid=3fc1c41e-5148-4539-8611-6ae4c5633027"},"vehicle_type_id":"4","last_reported":1705525603,"current_range_meters":18800,"station_id":"ce4bhqp2rcd13ifvqhng","pricing_plan_id":"free"},{"bike_id":"adf57486-38ef-4e27-8d2d-b09313ee4b06","system_id":"levelo_inurba_marseille","lat":43.317557,"lon":5.390173,"is_reserved":false,"is_disabled":false,"rental_uris":{"android":"levelo://app?vid=adf57486-38ef-4e27-8d2d-b09313ee4b06","ios":"levelo://app?vid=adf57486-38ef-4e27-8d2d-b09313ee4b06"},"vehicle_type_id":"4","last_reported":1705525603,"current_range_meters":17200,"station_id":"ce4bhqp2rcd13ifvqhng","pricing_plan_id":"free"},{"bike_id":"bfc7212f-cbbc-4835-a892-a680b0e2a918","system_id":"levelo_inurba_marseille","lat":43.304274,"lon":5.388873,"is_reserved":false,"is_disabled":false,"rental_uris":{"android":"levelo://app?vid=bfc7212f-cbbc-4835-a892-a680b0e2a918","ios":"levelo://app?vid=bfc7212f-cbbc-4835-a892-a680b0e2a918"},"vehicle_type_id":"4","last_reported":1705525603,"current_range_meters":21200,"station_id":"ce4bgk12rcd13ifvqbi0","pricing_plan_id":"free"},{"bike_id":"21e4f805-55aa-4aed-8201-7eee63f651be","system_id":"levelo_inurba_marseille","lat":43.304278,"lon":5.388868,"is_reserved":false,"is_disabled":false,"rental_uris":{"android":"levelo://app?vid=21e4f805-55aa-4aed-8201-7eee63f651be","ios":"levelo://app?vid=21e4f805-55aa-4aed-8201-7eee63f651be"},"vehicle_type_id":"4","last_reported":1705525603,"current_range_meters":16800,"station_id":"ce4bgk12rcd13ifvqbi0","pricing_plan_id":"free"},{"bike_id":"1676df18-f514-40e7-b093-4f43e7d05307","system_id":"levelo_inurba_marseille","lat":43.304274,"lon":5.388873,"is_reserved":false,"is_disabled":false,"rental_uris":{"android":"levelo://app?vid=1676df18-f514-40e7-b093-4f43e7d05307","ios":"levelo://app?vid=1676df18-f514-40e7-b093-4f43e7d05307"},"vehicle_type_id":"4","last_reported":1705525603,"current_range_meters":31600,"station_id":"ce4bgk12rcd13ifvqbi0","pricing_plan_id":"free"},{"bike_id":"7a3b6e80-acbd-4f83-998a-df202bfeb28c","system_id":"levelo_inurba_marseille","lat":43.304278,"lon":5.388868,"is_reserved":false,"is_disabled":false,"rental_uris":{"android":"levelo://app?vid=7a3b6e80-acbd-4f83-998a-df202bfeb28c","ios":"levelo://app?vid=7a3b6e80-acbd-4f83-998a-df202bfeb28c"},"vehicle_type_id":"4","last_reported":1705525603,"current_range_meters":10000,"station_id":"ce4bgk12rcd13ifvqbi0","pricing_plan_id":"free"},{"bike_id":"b1a0b628-51fc-4997-be45-b087c4b9de75","system_id":"levelo_inurba_marseille","lat":43.29979,"lon":5.3849,"is_reserved":false,"is_disabled":false,"rental_uris":{"android":"levelo://app?vid=b1a0b628-51fc-4997-be45-b087c4b9de75","ios":"levelo://app?vid=b1a0b628-51fc-4997-be45-b087c4b9de75"},"vehicle_type_id":"4","last_reported":1705525603,"current_range_meters":0,"station_id":"ce4bgj92rcd13ifvqbd0","pricing_plan_id":"free"},{"bike_id":"bf904126-a063-482d-b7fa-6de4d7901144","system_id":"levelo_inurba_marseille","lat":43.299707,"lon":5.384859,"is_reserved":false,"is_disabled":false,"rental_uris":{"android":"levelo://app?vid=bf904126-a063-482d-b7fa-6de4d7901144","ios":"levelo://app?vid=bf904126-a063-482d-b7fa-6de4d7901144"},"vehicle_type_id":"4","last_reported":1705525603,"current_range_meters":28400,"station_id":"ce4bgj92rcd13ifvqbd0","pricing_plan_id":"free"},{"bike_id":"ebf063ec-fe68-439b-bf38-249e36edea5c","system_id":"levelo_inurba_marseille","lat":43.32367,"lon":5.388836,"is_reserved":false,"is_disabled":false,"rental_uris":{"android":"levelo://app?vid=ebf063ec-fe68-439b-bf38-249e36edea5c","ios":"levelo://app?vid=ebf063ec-fe68-439b-bf38-249e36edea5c"},"vehicle_type_id":"4","last_reported":1705525603,"current_range_meters":16800,"station_id":"ce4bhqp2rcd13ifvqhog","pricing_plan_id":"free"},{"bike_id":"b7beb6a5-b030-4fe2-a25b-ee6b5b88bebb","system_id":"levelo_inurba_marseille","lat":43.32367,"lon":5.388836,"is_reserved":false,"is_disabled":false,"rental_uris":{"android":"levelo://app?vid=b7beb6a5-b030-4fe2-a25b-ee6b5b88bebb","ios":"levelo://app?vid=b7beb6a5-b030-4fe2-a25b-ee6b5b88bebb"},"vehicle_type_id":"4","last_reported":1705525603,"current_range_meters":30400,"station_id":"ce4bhqp2rcd13ifvqhog","pricing_plan_id":"free"},{"bike_id":"4e1e9b11-3c6c-41ca-93a2-a6773594a990","system_id":"levelo_inurba_marseille","lat":43.32367,"lon":5.388836,"is_reserved":false,"is_disabled":false,"rental_uris":{"android":"levelo://app?vid=4e1e9b11-3c6c-41ca-93a2-a6773594a990","ios":"levelo://app?vid=4e1e9b11-3c6c-41ca-93a2-a6773594a990"},"vehicle_type_id":"4","last_reported":1705525603,"current_range_meters":28400,"station_id":"ce4bhqp2rcd13ifvqhog","pricing_plan_id":"free"},{"bike_id":"ae329723-b6cd-4f52-99af-83cccf370dd2","system_id":"levelo_inurba_marseille","lat":43.32367,"lon":5.388836,"is_reserved":false,"is_disabled":false,"rental_uris":{"android":"levelo://app?vid=ae329723-b6cd-4f52-99af-83cccf370dd2","ios":"levelo://app?vid=ae329723-b6cd-4f52-99af-83cccf370dd2"},"vehicle_type_id":"4","last_reported":1705525603,"current_range_meters":9600,"station_id":"ce4bhqp2rcd13ifvqhog","pricing_plan_id":"free"},{"bike_id":"f7aa7bd5-9de4-4647-9d4c-974d2b3c6d5a","system_id":"levelo_inurba_marseille","lat":43.32367,"lon":5.388836,"is_reserved":false,"is_disabled":false,"rental_uris":{"android":"levelo://app?vid=f7aa7bd5-9de4-4647-9d4c-974d2b3c6d5a","ios":"levelo://app?vid=f7aa7bd5-9de4-4647-9d4c-974d2b3c6d5a"},"vehicle_type_id":"4","last_reported":1705525603,"current_range_meters":24800,"station_id":"ce4bhqp2rcd13ifvqhog","pricing_plan_id":"free"},{"bike_id":"8c683a70-e779-4a8e-bf9c-8aaaf46b6f30","system_id":"levelo_inurba_marseille","lat":43.32367,"lon":5.388836,"is_reserved":false,"is_disabled":false,"rental_uris":{"android":"levelo://app?vid=8c683a70-e779-4a8e-bf9c-8aaaf46b6f30","ios":"levelo://app?vid=8c683a70-e779-4a8e-bf9c-8aaaf46b6f30"},"vehicle_type_id":"4","last_reported":1705525603,"current_range_meters":19600,"station_id":"ce4bhqp2rcd13ifvqhog","pricing_plan_id":"free"},{"bike_id":"37488e4d-837d-443b-a7f0-f22909aa2c7f","system_id":"levelo_inurba_marseille","lat":43.32367,"lon":5.388836,"is_reserved":false,"is_disabled":false,"rental_uris":{"android":"levelo://app?vid=37488e4d-837d-443b-a7f0-f22909aa2c7f","ios":"levelo://app?vid=37488e4d-837d-443b-a7f0-f22909aa2c7f"},"vehicle_type_id":"4","last_reported":1705525603,"current_range_meters":24000,"station_id":"ce4bhqp2rcd13ifvqhog","pricing_plan_id":"free"},{"bike_id":"dfaa302c-58f2-441b-8b66-a88d65e9e952","system_id":"levelo_inurba_marseille","lat":43.32367,"lon":5.388836,"is_reserved":false,"is_disabled":false,"rental_uris":{"android":"levelo://app?vid=dfaa302c-58f2-441b-8b66-a88d65e9e952","ios":"levelo://app?vid=dfaa302c-58f2-441b-8b66-a88d65e9e952"},"vehicle_type_id":"4","last_reported":1705525603,"current_range_meters":28800,"station_id":"ce4bhqp2rcd13ifvqhog","pricing_plan_id":"free"},{"bike_id":"48d01839-1c06-4604-a1d2-ae1f8bd3df35","system_id":"levelo_inurba_marseille","lat":43.32367,"lon":5.388836,"is_reserved":false,"is_disabled":false,"rental_uris":{"android":"levelo://app?vid=48d01839-1c06-4604-a1d2-ae1f8bd3df35","ios":"levelo://app?vid=48d01839-1c06-4604-a1d2-ae1f8bd3df35"},"vehicle_type_id":"4","last_reported":1705525603,"current_range_meters":14400,"station_id":"ce4bhqp2rcd13ifvqhog","pricing_plan_id":"free"},{"bike_id":"4ed8488a-f05c-4119-bfec-f892cce04e14","system_id":"levelo_inurba_marseille","lat":43.32367,"lon":5.388836,"is_reserved":false,"is_disabled":false,"rental_uris":{"android":"levelo://app?vid=4ed8488a-f05c-4119-bfec-f892cce04e14","ios":"levelo://app?vid=4ed8488a-f05c-4119-bfec-f892cce04e14"},"vehicle_type_id":"4","last_reported":1705525603,"current_range_meters":30000,"station_id":"ce4bhqp2rcd13ifvqhog","pricing_plan_id":"free"},{"bike_id":"ab1d9b80-665e-4ca5-9110-b3e7655cdda0","system_id":"levelo_inurba_marseille","lat":43.32367,"lon":5.388836,"is_reserved":false,"is_disabled":false,"rental_uris":{"android":"levelo://app?vid=ab1d9b80-665e-4ca5-9110-b3e7655cdda0","ios":"levelo://app?vid=ab1d9b80-665e-4ca5-9110-b3e7655cdda0"},"vehicle_type_id":"4","last_reported":1705525603,"current_range_meters":16000,"station_id":"ce4bhqp2rcd13ifvqhog","pricing_plan_id":"free"},{"bike_id":"5887ba77-b141-46e7-80f3-1e60b33b738c","system_id":"levelo_inurba_marseille","lat":43.32367,"lon":5.388836,"is_reserved":false,"is_disabled":false,"rental_uris":{"android":"levelo://app?vid=5887ba77-b141-46e7-80f3-1e60b33b738c","ios":"levelo://app?vid=5887ba77-b141-46e7-80f3-1e60b33b738c"},"vehicle_type_id":"4","last_reported":1705525603,"current_range_meters":20000,"station_id":"ce4bhqp2rcd13ifvqhog","pricing_plan_id":"free"},{"bike_id":"4105c154-7a2e-4cd6-9ea7-4d06f6570656","system_id":"levelo_inurba_marseille","lat":43.32367,"lon":5.388836,"is_reserved":false,"is_disabled":false,"rental_uris":{"android":"levelo://app?vid=4105c154-7a2e-4cd6-9ea7-4d06f6570656","ios":"levelo://app?vid=4105c154-7a2e-4cd6-9ea7-4d06f6570656"},"vehicle_type_id":"4","last_reported":1705525603,"current_range_meters":24400,"station_id":"ce4bhqp2rcd13ifvqhog","pricing_plan_id":"free"},{"bike_id":"2ec4001f-5cf2-4614-bbfc-ffc6c5b765c3","system_id":"levelo_inurba_marseille","lat":43.32367,"lon":5.388836,"is_reserved":false,"is_disabled":false,"rental_uris":{"android":"levelo://app?vid=2ec4001f-5cf2-4614-bbfc-ffc6c5b765c3","ios":"levelo://app?vid=2ec4001f-5cf2-4614-bbfc-ffc6c5b765c3"},"vehicle_type_id":"4","last_reported":1705525603,"current_range_meters":23600,"station_id":"ce4bhqp2rcd13ifvqhog","pricing_plan_id":"free"},{"bike_id":"5f393910-e7e8-42bd-aed7-ee02db6161a2","system_id":"levelo_inurba_marseille","lat":43.2936,"lon":5.37835,"is_reserved":false,"is_disabled":false,"rental_uris":{"android":"levelo://app?vid=5f393910-e7e8-42bd-aed7-ee02db6161a2","ios":"levelo://app?vid=5f393910-e7e8-42bd-aed7-ee02db6161a2"},"vehicle_type_id":"4","last_reported":1705525603,"current_range_meters":23200,"station_id":"ce4bgjh2rcd13ifvqbf0","pricing_plan_id":"free"},{"bike_id":"cec1818c-62f2-4343-84f2-3af6453291ed","system_id":"levelo_inurba_marseille","lat":43.298582,"lon":5.387963,"is_reserved":false,"is_disabled":false,"rental_uris":{"android":"levelo://app?vid=cec1818c-62f2-4343-84f2-3af6453291ed","ios":"levelo://app?vid=cec1818c-62f2-4343-84f2-3af6453291ed"},"vehicle_type_id":"4","last_reported":1705525603,"current_range_meters":20000,"station_id":"","pricing_plan_id":"free"},{"bike_id":"40688a04-8827-4e99-9899-29c55469b15b","system_id":"levelo_inurba_marseille","lat":43.2936,"lon":5.37835,"is_reserved":false,"is_disabled":false,"rental_uris":{"android":"levelo://app?vid=40688a04-8827-4e99-9899-29c55469b15b","ios":"levelo://app?vid=40688a04-8827-4e99-9899-29c55469b15b"},"vehicle_type_id":"4","last_reported":1705525603,"current_range_meters":14000,"station_id":"ce4bgjh2rcd13ifvqbf0","pricing_plan_id":"free"},{"bike_id":"3860927a-807a-4d42-9891-c18a689f52bf","system_id":"levelo_inurba_marseille","lat":43.300852,"lon":5.390859,"is_reserved":false,"is_disabled":false,"rental_uris":{"android":"levelo://app?vid=3860927a-807a-4d42-9891-c18a689f52bf","ios":"levelo://app?vid=3860927a-807a-4d42-9891-c18a689f52bf"},"vehicle_type_id":"4","last_reported":1705525603,"current_range_meters":28000,"station_id":"ce4bh192rcd13ifvqdb0","pricing_plan_id":"free"},{"bike_id":"89fafecd-6469-4e39-aa88-01cea12cd432","system_id":"levelo_inurba_marseille","lat":43.292311,"lon":5.360731,"is_reserved":false,"is_disabled":false,"rental_uris":{"android":"levelo://app?vid=89fafecd-6469-4e39-aa88-01cea12cd432","ios":"levelo://app?vid=89fafecd-6469-4e39-aa88-01cea12cd432"},"vehicle_type_id":"4","last_reported":1705525603,"current_range_meters":23600,"station_id":"ce4bhbh2rcd13ifvqeqg","pricing_plan_id":"free"},{"bike_id":"8faef5de-096d-4f5a-bb09-5f5b37bd88ed","system_id":"levelo_inurba_marseille","lat":43.30641,"lon":5.39535,"is_reserved":false,"is_disabled":false,"rental_uris":{"android":"levelo://app?vid=8faef5de-096d-4f5a-bb09-5f5b37bd88ed","ios":"levelo://app?vid=8faef5de-096d-4f5a-bb09-5f5b37bd88ed"},"vehicle_type_id":"4","last_reported":1705525603,"current_range_meters":8000,"station_id":"ce4bh112rcd13ifvqda0","pricing_plan_id":"free"},{"bike_id":"dccbc61d-c98d-4cd3-baaf-52c8e6bd4f01","system_id":"levelo_inurba_marseille","lat":43.291994,"lon":5.357886,"is_reserved":false,"is_disabled":false,"rental_uris":{"android":"levelo://app?vid=dccbc61d-c98d-4cd3-baaf-52c8e6bd4f01","ios":"levelo://app?vid=dccbc61d-c98d-4cd3-baaf-52c8e6bd4f01"},"vehicle_type_id":"4","last_reported":1705525603,"current_range_meters":25200,"station_id":"ce4bhb12rcd13ifvqel0","pricing_plan_id":"free"},{"bike_id":"e9fea4c6-8b45-415b-9839-49f82288bde2","system_id":"levelo_inurba_marseille","lat":43.291994,"lon":5.357886,"is_reserved":false,"is_disabled":false,"rental_uris":{"android":"levelo://app?vid=e9fea4c6-8b45-415b-9839-49f82288bde2","ios":"levelo://app?vid=e9fea4c6-8b45-415b-9839-49f82288bde2"},"vehicle_type_id":"4","last_reported":1705525603,"current_range_meters":5600,"station_id":"ce4bhb12rcd13ifvqel0","pricing_plan_id":"free"},{"bike_id":"5045406e-995a-4c59-8208-43bc63deaa15","system_id":"levelo_inurba_marseille","lat":43.291994,"lon":5.357886,"is_reserved":false,"is_disabled":false,"rental_uris":{"android":"levelo://app?vid=5045406e-995a-4c59-8208-43bc63deaa15","ios":"levelo://app?vid=5045406e-995a-4c59-8208-43bc63deaa15"},"vehicle_type_id":"4","last_reported":1705525603,"current_range_meters":4800,"station_id":"ce4bhb12rcd13ifvqel0","pricing_plan_id":"free"},{"bike_id":"2507d52b-ab18-4abf-bfed-b984e7006a27","system_id":"levelo_inurba_marseille","lat":43.313291,"lon":5.396838,"is_reserved":false,"is_disabled":false,"rental_uris":{"android":"levelo://app?vid=2507d52b-ab18-4abf-bfed-b984e7006a27","ios":"levelo://app?vid=2507d52b-ab18-4abf-bfed-b984e7006a27"},"vehicle_type_id":"4","last_reported":1705525603,"current_range_meters":22800,"station_id":"ce4bgvp2rcd13ifvqcu0","pricing_plan_id":"free"},{"bike_id":"548602b1-e47f-4712-919b-7a7e7d11f41d","system_id":"levelo_inurba_marseille","lat":43.313291,"lon":5.396838,"is_reserved":false,"is_disabled":false,"rental_uris":{"android":"levelo://app?vid=548602b1-e47f-4712-919b-7a7e7d11f41d","ios":"levelo://app?vid=548602b1-e47f-4712-919b-7a7e7d11f41d"},"vehicle_type_id":"4","last_reported":1705525603,"current_range_meters":400,"station_id":"ce4bgvp2rcd13ifvqcu0","pricing_plan_id":"free"},{"bike_id":"8937de69-dc86-4c87-a75b-e6b4169157f1","system_id":"levelo_inurba_marseille","lat":43.313291,"lon":5.396838,"is_reserved":false,"is_disabled":false,"rental_uris":{"android":"levelo://app?vid=8937de69-dc86-4c87-a75b-e6b4169157f1","ios":"levelo://app?vid=8937de69-dc86-4c87-a75b-e6b4169157f1"},"vehicle_type_id":"4","last_reported":1705525603,"current_range_meters":28000,"station_id":"ce4bgvp2rcd13ifvqcu0","pricing_plan_id":"free"},{"bike_id":"60199a43-06e3-4865-9e45-f638c2608bab","system_id":"levelo_inurba_marseille","lat":43.291994,"lon":5.357886,"is_reserved":false,"is_disabled":false,"rental_uris":{"android":"levelo://app?vid=60199a43-06e3-4865-9e45-f638c2608bab","ios":"levelo://app?vid=60199a43-06e3-4865-9e45-f638c2608bab"},"vehicle_type_id":"4","last_reported":1705525603,"current_range_meters":13200,"station_id":"ce4bhb12rcd13ifvqel0","pricing_plan_id":"free"},{"bike_id":"fd407a01-1013-4995-bf8d-97fb7a38d515","system_id":"levelo_inurba_marseille","lat":43.309038,"lon":5.396546,"is_reserved":false,"is_disabled":false,"rental_uris":{"android":"levelo://app?vid=fd407a01-1013-4995-bf8d-97fb7a38d515","ios":"levelo://app?vid=fd407a01-1013-4995-bf8d-97fb7a38d515"},"vehicle_type_id":"4","last_reported":1705525603,"current_range_meters":29600,"station_id":"ce4bh012rcd13ifvqcv0","pricing_plan_id":"free"},{"bike_id":"972daad8-f292-4396-b8c2-7eb4ffa2e49e","system_id":"levelo_inurba_marseille","lat":43.309047,"lon":5.396551,"is_reserved":false,"is_disabled":false,"rental_uris":{"android":"levelo://app?vid=972daad8-f292-4396-b8c2-7eb4ffa2e49e","ios":"levelo://app?vid=972daad8-f292-4396-b8c2-7eb4ffa2e49e"},"vehicle_type_id":"4","last_reported":1705525603,"current_range_meters":26400,"station_id":"ce4bh012rcd13ifvqcv0","pricing_plan_id":"free"},{"bike_id":"0eacb962-916f-410b-94cd-25e6f7ef6523","system_id":"levelo_inurba_marseille","lat":43.309038,"lon":5.396546,"is_reserved":false,"is_disabled":false,"rental_uris":{"android":"levelo://app?vid=0eacb962-916f-410b-94cd-25e6f7ef6523","ios":"levelo://app?vid=0eacb962-916f-410b-94cd-25e6f7ef6523"},"vehicle_type_id":"4","last_reported":1705525603,"current_range_meters":31600,"station_id":"ce4bh012rcd13ifvqcv0","pricing_plan_id":"free"},{"bike_id":"5d724e7b-cde7-4b79-85c7-39fd817599c0","system_id":"levelo_inurba_marseille","lat":43.309038,"lon":5.396546,"is_reserved":false,"is_disabled":false,"rental_uris":{"android":"levelo://app?vid=5d724e7b-cde7-4b79-85c7-39fd817599c0","ios":"levelo://app?vid=5d724e7b-cde7-4b79-85c7-39fd817599c0"},"vehicle_type_id":"4","last_reported":1705525603,"current_range_meters":23600,"station_id":"ce4bh012rcd13ifvqcv0","pricing_plan_id":"free"},{"bike_id":"824c12d2-5308-47ba-bec9-796f31427d25","system_id":"levelo_inurba_marseille","lat":43.313291,"lon":5.396838,"is_reserved":false,"is_disabled":false,"rental_uris":{"android":"levelo://app?vid=824c12d2-5308-47ba-bec9-796f31427d25","ios":"levelo://app?vid=824c12d2-5308-47ba-bec9-796f31427d25"},"vehicle_type_id":"4","last_reported":1705525603,"current_range_meters":20800,"station_id":"ce4bgvp2rcd13ifvqcu0","pricing_plan_id":"free"},{"bike_id":"85ac0da5-9138-415d-90ae-1ec76f0f5dbd","system_id":"levelo_inurba_marseille","lat":43.313291,"lon":5.396838,"is_reserved":false,"is_disabled":false,"rental_uris":{"android":"levelo://app?vid=85ac0da5-9138-415d-90ae-1ec76f0f5dbd","ios":"levelo://app?vid=85ac0da5-9138-415d-90ae-1ec76f0f5dbd"},"vehicle_type_id":"4","last_reported":1705525603,"current_range_meters":30800,"station_id":"ce4bgvp2rcd13ifvqcu0","pricing_plan_id":"free"},{"bike_id":"3c2b412c-7031-4f01-96fe-6731e1ab597e","system_id":"levelo_inurba_marseille","lat":43.309047,"lon":5.396551,"is_reserved":false,"is_disabled":false,"rental_uris":{"android":"levelo://app?vid=3c2b412c-7031-4f01-96fe-6731e1ab597e","ios":"levelo://app?vid=3c2b412c-7031-4f01-96fe-6731e1ab597e"},"vehicle_type_id":"4","last_reported":1705525603,"current_range_meters":28000,"station_id":"ce4bh012rcd13ifvqcv0","pricing_plan_id":"free"},{"bike_id":"0338deec-f261-43b3-8767-f8295841db88","system_id":"levelo_inurba_marseille","lat":43.29538,"lon":5.38533,"is_reserved":false,"is_disabled":false,"rental_uris":{"android":"levelo://app?vid=0338deec-f261-43b3-8767-f8295841db88","ios":"levelo://app?vid=0338deec-f261-43b3-8767-f8295841db88"},"vehicle_type_id":"4","last_reported":1705525603,"current_range_meters":16400,"station_id":"ce4bgih2rcd13ifvqba0","pricing_plan_id":"free"},{"bike_id":"804dc820-69d6-4194-a8af-b890fda75ca9","system_id":"levelo_inurba_marseille","lat":43.309038,"lon":5.396546,"is_reserved":false,"is_disabled":false,"rental_uris":{"android":"levelo://app?vid=804dc820-69d6-4194-a8af-b890fda75ca9","ios":"levelo://app?vid=804dc820-69d6-4194-a8af-b890fda75ca9"},"vehicle_type_id":"4","last_reported":1705525603,"current_range_meters":18000,"station_id":"ce4bh012rcd13ifvqcv0","pricing_plan_id":"free"},{"bike_id":"c0ce3b3e-bc17-4f6b-84ca-5aba2f6292a1","system_id":"levelo_inurba_marseille","lat":43.29529,"lon":5.385581,"is_reserved":false,"is_disabled":false,"rental_uris":{"android":"levelo://app?vid=c0ce3b3e-bc17-4f6b-84ca-5aba2f6292a1","ios":"levelo://app?vid=c0ce3b3e-bc17-4f6b-84ca-5aba2f6292a1"},"vehicle_type_id":"4","last_reported":1705525603,"current_range_meters":27600,"station_id":"ce4bgih2rcd13ifvqba0","pricing_plan_id":"free"},{"bike_id":"031f42bc-82ab-47fa-921e-d34a45a10a2f","system_id":"levelo_inurba_marseille","lat":43.29529,"lon":5.385581,"is_reserved":false,"is_disabled":false,"rental_uris":{"android":"levelo://app?vid=031f42bc-82ab-47fa-921e-d34a45a10a2f","ios":"levelo://app?vid=031f42bc-82ab-47fa-921e-d34a45a10a2f"},"vehicle_type_id":"4","last_reported":1705525603,"current_range_meters":30800,"station_id":"ce4bgih2rcd13ifvqba0","pricing_plan_id":"free"},{"bike_id":"17999659-cd2a-44e2-aa61-065ee6cbdc6f","system_id":"levelo_inurba_marseille","lat":43.29522,"lon":5.38535,"is_reserved":false,"is_disabled":false,"rental_uris":{"android":"levelo://app?vid=17999659-cd2a-44e2-aa61-065ee6cbdc6f","ios":"levelo://app?vid=17999659-cd2a-44e2-aa61-065ee6cbdc6f"},"vehicle_type_id":"4","last_reported":1705525603,"current_range_meters":6400,"station_id":"ce4bgih2rcd13ifvqba0","pricing_plan_id":"free"},{"bike_id":"a6d5245c-ae6a-4869-907e-23153cf33b5b","system_id":"levelo_inurba_marseille","lat":43.29529,"lon":5.385581,"is_reserved":false,"is_disabled":false,"rental_uris":{"android":"levelo://app?vid=a6d5245c-ae6a-4869-907e-23153cf33b5b","ios":"levelo://app?vid=a6d5245c-ae6a-4869-907e-23153cf33b5b"},"vehicle_type_id":"4","last_reported":1705525603,"current_range_meters":16000,"station_id":"ce4bgih2rcd13ifvqba0","pricing_plan_id":"free"},{"bike_id":"c627d187-c4e7-4c35-a56f-e613b23e07ef","system_id":"levelo_inurba_marseille","lat":43.29529,"lon":5.385581,"is_reserved":false,"is_disabled":false,"rental_uris":{"android":"levelo://app?vid=c627d187-c4e7-4c35-a56f-e613b23e07ef","ios":"levelo://app?vid=c627d187-c4e7-4c35-a56f-e613b23e07ef"},"vehicle_type_id":"4","last_reported":1705525603,"current_range_meters":25600,"station_id":"ce4bgih2rcd13ifvqba0","pricing_plan_id":"free"},{"bike_id":"edfa2086-7700-4466-8dbe-a85343915cd4","system_id":"levelo_inurba_marseille","lat":43.290779,"lon":5.371482,"is_reserved":false,"is_disabled":false,"rental_uris":{"android":"levelo://app?vid=edfa2086-7700-4466-8dbe-a85343915cd4","ios":"levelo://app?vid=edfa2086-7700-4466-8dbe-a85343915cd4"},"vehicle_type_id":"4","last_reported":1705525603,"current_range_meters":22400,"station_id":"ce4bh5p2rcd13ifvqe4g","pricing_plan_id":"free"},{"bike_id":"0be49dfe-1785-4b93-bebc-3d92fdf169b9","system_id":"levelo_inurba_marseille","lat":43.290779,"lon":5.371482,"is_reserved":false,"is_disabled":false,"rental_uris":{"android":"levelo://app?vid=0be49dfe-1785-4b93-bebc-3d92fdf169b9","ios":"levelo://app?vid=0be49dfe-1785-4b93-bebc-3d92fdf169b9"},"vehicle_type_id":"4","last_reported":1705525603,"current_range_meters":2800,"station_id":"ce4bh5p2rcd13ifvqe4g","pricing_plan_id":"free"},{"bike_id":"d5873de1-f2ad-4a77-bc02-7f36765fc0ba","system_id":"levelo_inurba_marseille","lat":43.30213,"lon":5.39471,"is_reserved":false,"is_disabled":false,"rental_uris":{"android":"levelo://app?vid=d5873de1-f2ad-4a77-bc02-7f36765fc0ba","ios":"levelo://app?vid=d5873de1-f2ad-4a77-bc02-7f36765fc0ba"},"vehicle_type_id":"4","last_reported":1705525603,"current_range_meters":23600,"station_id":"ce4bh0p2rcd13ifvqd70","pricing_plan_id":"free"},{"bike_id":"0b456f8d-ff24-4c43-aa98-bea7bccbe72e","system_id":"levelo_inurba_marseille","lat":43.290779,"lon":5.371482,"is_reserved":false,"is_disabled":false,"rental_uris":{"android":"levelo://app?vid=0b456f8d-ff24-4c43-aa98-bea7bccbe72e","ios":"levelo://app?vid=0b456f8d-ff24-4c43-aa98-bea7bccbe72e"},"vehicle_type_id":"4","last_reported":1705525603,"current_range_meters":14000,"station_id":"ce4bh5p2rcd13ifvqe4g","pricing_plan_id":"free"},{"bike_id":"11827248-e719-41d8-b1ec-609e61fedd58","system_id":"levelo_inurba_marseille","lat":43.290624,"lon":5.359245,"is_reserved":false,"is_disabled":false,"rental_uris":{"android":"levelo://app?vid=11827248-e719-41d8-b1ec-609e61fedd58","ios":"levelo://app?vid=11827248-e719-41d8-b1ec-609e61fedd58"},"vehicle_type_id":"4","last_reported":1705525603,"current_range_meters":29600,"station_id":"ce4bha92rcd13ifvqeg0","pricing_plan_id":"free"},{"bike_id":"2b599fcd-d305-4794-bc6c-6f9f95e28638","system_id":"levelo_inurba_marseille","lat":43.290624,"lon":5.359245,"is_reserved":false,"is_disabled":false,"rental_uris":{"android":"levelo://app?vid=2b599fcd-d305-4794-bc6c-6f9f95e28638","ios":"levelo://app?vid=2b599fcd-d305-4794-bc6c-6f9f95e28638"},"vehicle_type_id":"4","last_reported":1705525603,"current_range_meters":30000,"station_id":"ce4bha92rcd13ifvqeg0","pricing_plan_id":"free"},{"bike_id":"4f7f848b-68b1-478f-b20a-4844b48efb35","system_id":"levelo_inurba_marseille","lat":43.290631,"lon":5.359244,"is_reserved":false,"is_disabled":false,"rental_uris":{"android":"levelo://app?vid=4f7f848b-68b1-478f-b20a-4844b48efb35","ios":"levelo://app?vid=4f7f848b-68b1-478f-b20a-4844b48efb35"},"vehicle_type_id":"4","last_reported":1705525603,"current_range_meters":30000,"station_id":"ce4bha92rcd13ifvqeg0","pricing_plan_id":"free"},{"bike_id":"cb0a56de-6d99-40de-8a51-a5dc1bae923b","system_id":"levelo_inurba_marseille","lat":43.294162,"lon":5.386292,"is_reserved":false,"is_disabled":false,"rental_uris":{"android":"levelo://app?vid=cb0a56de-6d99-40de-8a51-a5dc1bae923b","ios":"levelo://app?vid=cb0a56de-6d99-40de-8a51-a5dc1bae923b"},"vehicle_type_id":"4","last_reported":1705525603,"current_range_meters":29200,"station_id":"ce4bh2h2rcd13ifvqdh0","pricing_plan_id":"free"},{"bike_id":"a6c8bafb-a423-4c47-9676-ad5a7ca08c23","system_id":"levelo_inurba_marseille","lat":43.294153,"lon":5.386305,"is_reserved":false,"is_disabled":false,"rental_uris":{"android":"levelo://app?vid=a6c8bafb-a423-4c47-9676-ad5a7ca08c23","ios":"levelo://app?vid=a6c8bafb-a423-4c47-9676-ad5a7ca08c23"},"vehicle_type_id":"4","last_reported":1705525603,"current_range_meters":3200,"station_id":"ce4bh2h2rcd13ifvqdh0","pricing_plan_id":"free"},{"bike_id":"a3cfa005-f483-455a-9de4-76588e613df5","system_id":"levelo_inurba_marseille","lat":43.294153,"lon":5.386305,"is_reserved":false,"is_disabled":false,"rental_uris":{"android":"levelo://app?vid=a3cfa005-f483-455a-9de4-76588e613df5","ios":"levelo://app?vid=a3cfa005-f483-455a-9de4-76588e613df5"},"vehicle_type_id":"4","last_reported":1705525603,"current_range_meters":8000,"station_id":"ce4bh2h2rcd13ifvqdh0","pricing_plan_id":"free"},{"bike_id":"790fe860-a9b0-4afb-9c90-54eeccee0831","system_id":"levelo_inurba_marseille","lat":43.289184,"lon":5.366408,"is_reserved":false,"is_disabled":false,"rental_uris":{"android":"levelo://app?vid=790fe860-a9b0-4afb-9c90-54eeccee0831","ios":"levelo://app?vid=790fe860-a9b0-4afb-9c90-54eeccee0831"},"vehicle_type_id":"4","last_reported":1705525603,"current_range_meters":5200,"station_id":"ce4bhap2rcd13ifvqek0","pricing_plan_id":"free"},{"bike_id":"a7a6c827-bc0b-4400-92cd-7f75c722a19c","system_id":"levelo_inurba_marseille","lat":43.289184,"lon":5.366408,"is_reserved":false,"is_disabled":false,"rental_uris":{"android":"levelo://app?vid=a7a6c827-bc0b-4400-92cd-7f75c722a19c","ios":"levelo://app?vid=a7a6c827-bc0b-4400-92cd-7f75c722a19c"},"vehicle_type_id":"4","last_reported":1705525603,"current_range_meters":9200,"station_id":"ce4bhap2rcd13ifvqek0","pricing_plan_id":"free"},{"bike_id":"01e3f15c-2e9b-4328-873b-453c066c7f0d","system_id":"levelo_inurba_marseille","lat":43.2942,"lon":5.38633,"is_reserved":false,"is_disabled":false,"rental_uris":{"android":"levelo://app?vid=01e3f15c-2e9b-4328-873b-453c066c7f0d","ios":"levelo://app?vid=01e3f15c-2e9b-4328-873b-453c066c7f0d"},"vehicle_type_id":"4","last_reported":1705525603,"current_range_meters":400,"station_id":"ce4bh2h2rcd13ifvqdh0","pricing_plan_id":"free"},{"bike_id":"ec432897-2b5f-4276-9db1-11fcc5ae4e1a","system_id":"levelo_inurba_marseille","lat":43.29419,"lon":5.38634,"is_reserved":false,"is_disabled":false,"rental_uris":{"android":"levelo://app?vid=ec432897-2b5f-4276-9db1-11fcc5ae4e1a","ios":"levelo://app?vid=ec432897-2b5f-4276-9db1-11fcc5ae4e1a"},"vehicle_type_id":"4","last_reported":1705525603,"current_range_meters":20400,"station_id":"ce4bh2h2rcd13ifvqdh0","pricing_plan_id":"free"},{"bike_id":"5c945b40-f9e2-4271-a6a4-e29a9fee2c57","system_id":"levelo_inurba_marseille","lat":43.289184,"lon":5.366408,"is_reserved":false,"is_disabled":false,"rental_uris":{"android":"levelo://app?vid=5c945b40-f9e2-4271-a6a4-e29a9fee2c57","ios":"levelo://app?vid=5c945b40-f9e2-4271-a6a4-e29a9fee2c57"},"vehicle_type_id":"4","last_reported":1705525603,"current_range_meters":4000,"station_id":"ce4bhap2rcd13ifvqek0","pricing_plan_id":"free"},{"bike_id":"fed367ff-83bf-4195-b433-fddba7efb227","system_id":"levelo_inurba_marseille","lat":43.289184,"lon":5.366408,"is_reserved":false,"is_disabled":false,"rental_uris":{"android":"levelo://app?vid=fed367ff-83bf-4195-b433-fddba7efb227","ios":"levelo://app?vid=fed367ff-83bf-4195-b433-fddba7efb227"},"vehicle_type_id":"4","last_reported":1705525603,"current_range_meters":20400,"station_id":"ce4bhap2rcd13ifvqek0","pricing_plan_id":"free"},{"bike_id":"4f2eac11-a7cf-4bbc-8c19-aff569a3ffe7","system_id":"levelo_inurba_marseille","lat":43.289184,"lon":5.366408,"is_reserved":false,"is_disabled":false,"rental_uris":{"android":"levelo://app?vid=4f2eac11-a7cf-4bbc-8c19-aff569a3ffe7","ios":"levelo://app?vid=4f2eac11-a7cf-4bbc-8c19-aff569a3ffe7"},"vehicle_type_id":"4","last_reported":1705525603,"current_range_meters":18000,"station_id":"ce4bhap2rcd13ifvqek0","pricing_plan_id":"free"},{"bike_id":"4f24868f-0c19-42c3-813d-e6dc00078173","system_id":"levelo_inurba_marseille","lat":43.289184,"lon":5.366408,"is_reserved":false,"is_disabled":false,"rental_uris":{"android":"levelo://app?vid=4f24868f-0c19-42c3-813d-e6dc00078173","ios":"levelo://app?vid=4f24868f-0c19-42c3-813d-e6dc00078173"},"vehicle_type_id":"4","last_reported":1705525603,"current_range_meters":20400,"station_id":"ce4bhap2rcd13ifvqek0","pricing_plan_id":"free"},{"bike_id":"e10b8ab3-8df8-4016-8c17-001b0b41e938","system_id":"levelo_inurba_marseille","lat":43.29416,"lon":5.38637,"is_reserved":false,"is_disabled":false,"rental_uris":{"android":"levelo://app?vid=e10b8ab3-8df8-4016-8c17-001b0b41e938","ios":"levelo://app?vid=e10b8ab3-8df8-4016-8c17-001b0b41e938"},"vehicle_type_id":"4","last_reported":1705525603,"current_range_meters":20000,"station_id":"ce4bh2h2rcd13ifvqdh0","pricing_plan_id":"free"},{"bike_id":"f20104c3-1044-4109-b1ec-79c93c1fb023","system_id":"levelo_inurba_marseille","lat":43.289184,"lon":5.366408,"is_reserved":false,"is_disabled":false,"rental_uris":{"android":"levelo://app?vid=f20104c3-1044-4109-b1ec-79c93c1fb023","ios":"levelo://app?vid=f20104c3-1044-4109-b1ec-79c93c1fb023"},"vehicle_type_id":"4","last_reported":1705525603,"current_range_meters":31600,"station_id":"ce4bhap2rcd13ifvqek0","pricing_plan_id":"free"},{"bike_id":"1f07d051-700e-4479-87ff-d20f61b1b82c","system_id":"levelo_inurba_marseille","lat":43.289184,"lon":5.366408,"is_reserved":false,"is_disabled":false,"rental_uris":{"android":"levelo://app?vid=1f07d051-700e-4479-87ff-d20f61b1b82c","ios":"levelo://app?vid=1f07d051-700e-4479-87ff-d20f61b1b82c"},"vehicle_type_id":"4","last_reported":1705525603,"current_range_meters":25200,"station_id":"ce4bhap2rcd13ifvqek0","pricing_plan_id":"free"},{"bike_id":"1f22b614-674a-4f57-b251-9f3c1d5057d1","system_id":"levelo_inurba_marseille","lat":43.289184,"lon":5.366408,"is_reserved":false,"is_disabled":false,"rental_uris":{"android":"levelo://app?vid=1f22b614-674a-4f57-b251-9f3c1d5057d1","ios":"levelo://app?vid=1f22b614-674a-4f57-b251-9f3c1d5057d1"},"vehicle_type_id":"4","last_reported":1705525603,"current_range_meters":4000,"station_id":"ce4bhap2rcd13ifvqek0","pricing_plan_id":"free"},{"bike_id":"071f01ad-e008-42b6-b857-5206311b79c0","system_id":"levelo_inurba_marseille","lat":43.289468,"lon":5.363719,"is_reserved":false,"is_disabled":false,"rental_uris":{"android":"levelo://app?vid=071f01ad-e008-42b6-b857-5206311b79c0","ios":"levelo://app?vid=071f01ad-e008-42b6-b857-5206311b79c0"},"vehicle_type_id":"4","last_reported":1705525603,"current_range_meters":31200,"station_id":"ce4bhc92rcd13ifvqetg","pricing_plan_id":"free"},{"bike_id":"28723999-3181-487d-bc69-3fdb7259cd66","system_id":"levelo_inurba_marseille","lat":43.289184,"lon":5.366408,"is_reserved":false,"is_disabled":false,"rental_uris":{"android":"levelo://app?vid=28723999-3181-487d-bc69-3fdb7259cd66","ios":"levelo://app?vid=28723999-3181-487d-bc69-3fdb7259cd66"},"vehicle_type_id":"4","last_reported":1705525603,"current_range_meters":28400,"station_id":"ce4bhap2rcd13ifvqek0","pricing_plan_id":"free"},{"bike_id":"401beff5-feb1-40fc-aa50-eb6a92540429","system_id":"levelo_inurba_marseille","lat":43.28939,"lon":5.36406,"is_reserved":false,"is_disabled":false,"rental_uris":{"android":"levelo://app?vid=401beff5-feb1-40fc-aa50-eb6a92540429","ios":"levelo://app?vid=401beff5-feb1-40fc-aa50-eb6a92540429"},"vehicle_type_id":"4","last_reported":1705525603,"current_range_meters":16800,"station_id":"ce4bhc92rcd13ifvqetg","pricing_plan_id":"free"},{"bike_id":"c80081fe-c54c-4239-9bb9-c0802a11feaf","system_id":"levelo_inurba_marseille","lat":43.289184,"lon":5.366408,"is_reserved":false,"is_disabled":false,"rental_uris":{"android":"levelo://app?vid=c80081fe-c54c-4239-9bb9-c0802a11feaf","ios":"levelo://app?vid=c80081fe-c54c-4239-9bb9-c0802a11feaf"},"vehicle_type_id":"4","last_reported":1705525603,"current_range_meters":16400,"station_id":"ce4bhap2rcd13ifvqek0","pricing_plan_id":"free"},{"bike_id":"010cee77-a119-47b3-b0b8-8a4016070586","system_id":"levelo_inurba_marseille","lat":43.289468,"lon":5.363719,"is_reserved":false,"is_disabled":false,"rental_uris":{"android":"levelo://app?vid=010cee77-a119-47b3-b0b8-8a4016070586","ios":"levelo://app?vid=010cee77-a119-47b3-b0b8-8a4016070586"},"vehicle_type_id":"4","last_reported":1705525603,"current_range_meters":1600,"station_id":"ce4bhc92rcd13ifvqetg","pricing_plan_id":"free"},{"bike_id":"98bce02d-57db-489d-9046-1fd464f2f6a6","system_id":"levelo_inurba_marseille","lat":43.289184,"lon":5.366408,"is_reserved":false,"is_disabled":false,"rental_uris":{"android":"levelo://app?vid=98bce02d-57db-489d-9046-1fd464f2f6a6","ios":"levelo://app?vid=98bce02d-57db-489d-9046-1fd464f2f6a6"},"vehicle_type_id":"4","last_reported":1705525603,"current_range_meters":29600,"station_id":"ce4bhap2rcd13ifvqek0","pricing_plan_id":"free"},{"bike_id":"7327f62f-d2e7-48e8-b86f-059f49e856ed","system_id":"levelo_inurba_marseille","lat":43.289468,"lon":5.363719,"is_reserved":false,"is_disabled":false,"rental_uris":{"android":"levelo://app?vid=7327f62f-d2e7-48e8-b86f-059f49e856ed","ios":"levelo://app?vid=7327f62f-d2e7-48e8-b86f-059f49e856ed"},"vehicle_type_id":"4","last_reported":1705525603,"current_range_meters":5200,"station_id":"ce4bhc92rcd13ifvqetg","pricing_plan_id":"free"},{"bike_id":"cf7e0728-078c-4289-929c-baa47e23986e","system_id":"levelo_inurba_marseille","lat":43.289468,"lon":5.363719,"is_reserved":false,"is_disabled":false,"rental_uris":{"android":"levelo://app?vid=cf7e0728-078c-4289-929c-baa47e23986e","ios":"levelo://app?vid=cf7e0728-078c-4289-929c-baa47e23986e"},"vehicle_type_id":"4","last_reported":1705525603,"current_range_meters":18800,"station_id":"ce4bhc92rcd13ifvqetg","pricing_plan_id":"free"},{"bike_id":"86280f13-63aa-493f-9ad0-20824fbcba35","system_id":"levelo_inurba_marseille","lat":43.289317,"lon":5.363917,"is_reserved":false,"is_disabled":false,"rental_uris":{"android":"levelo://app?vid=86280f13-63aa-493f-9ad0-20824fbcba35","ios":"levelo://app?vid=86280f13-63aa-493f-9ad0-20824fbcba35"},"vehicle_type_id":"4","last_reported":1705525603,"current_range_meters":17600,"station_id":"ce4bhc92rcd13ifvqetg","pricing_plan_id":"free"},{"bike_id":"95d890aa-5cdc-4e82-bd01-c86a67d131af","system_id":"levelo_inurba_marseille","lat":43.283998,"lon":5.375062,"is_reserved":false,"is_disabled":false,"rental_uris":{"android":"levelo://app?vid=95d890aa-5cdc-4e82-bd01-c86a67d131af","ios":"levelo://app?vid=95d890aa-5cdc-4e82-bd01-c86a67d131af"},"vehicle_type_id":"4","last_reported":1705525603,"current_range_meters":18000,"station_id":"ce4bh412rcd13ifvqds0","pricing_plan_id":"free"},{"bike_id":"1ba8e8bc-1b7f-4225-8817-a3816852b1e3","system_id":"levelo_inurba_marseille","lat":43.28904,"lon":5.3651,"is_reserved":false,"is_disabled":false,"rental_uris":{"android":"levelo://app?vid=1ba8e8bc-1b7f-4225-8817-a3816852b1e3","ios":"levelo://app?vid=1ba8e8bc-1b7f-4225-8817-a3816852b1e3"},"vehicle_type_id":"4","last_reported":1705525603,"current_range_meters":6000,"station_id":"","pricing_plan_id":"free"},{"bike_id":"5e187261-d941-40d8-ab92-f1ebc1eeccbd","system_id":"levelo_inurba_marseille","lat":43.292642,"lon":5.384254,"is_reserved":false,"is_disabled":false,"rental_uris":{"android":"levelo://app?vid=5e187261-d941-40d8-ab92-f1ebc1eeccbd","ios":"levelo://app?vid=5e187261-d941-40d8-ab92-f1ebc1eeccbd"},"vehicle_type_id":"4","last_reported":1705525603,"current_range_meters":28400,"station_id":"ce4bh692rcd13ifvqea0","pricing_plan_id":"free"},{"bike_id":"e3e4dc2f-c28f-4522-b2a3-b266974afd6f","system_id":"levelo_inurba_marseille","lat":43.292644,"lon":5.384257,"is_reserved":false,"is_disabled":false,"rental_uris":{"android":"levelo://app?vid=e3e4dc2f-c28f-4522-b2a3-b266974afd6f","ios":"levelo://app?vid=e3e4dc2f-c28f-4522-b2a3-b266974afd6f"},"vehicle_type_id":"4","last_reported":1705525603,"current_range_meters":31200,"station_id":"ce4bh692rcd13ifvqea0","pricing_plan_id":"free"},{"bike_id":"28807018-9a0f-4dfc-b755-612e0a2f10cf","system_id":"levelo_inurba_marseille","lat":43.292644,"lon":5.384257,"is_reserved":false,"is_disabled":false,"rental_uris":{"android":"levelo://app?vid=28807018-9a0f-4dfc-b755-612e0a2f10cf","ios":"levelo://app?vid=28807018-9a0f-4dfc-b755-612e0a2f10cf"},"vehicle_type_id":"4","last_reported":1705525603,"current_range_meters":23600,"station_id":"ce4bh692rcd13ifvqea0","pricing_plan_id":"free"},{"bike_id":"6c80ce42-7906-478a-aeea-ff0f7a28dcc3","system_id":"levelo_inurba_marseille","lat":43.292644,"lon":5.384257,"is_reserved":false,"is_disabled":false,"rental_uris":{"android":"levelo://app?vid=6c80ce42-7906-478a-aeea-ff0f7a28dcc3","ios":"levelo://app?vid=6c80ce42-7906-478a-aeea-ff0f7a28dcc3"},"vehicle_type_id":"4","last_reported":1705525603,"current_range_meters":18000,"station_id":"ce4bh692rcd13ifvqea0","pricing_plan_id":"free"},{"bike_id":"4862f9fc-7e64-41e1-b4e5-a553d8cdee7f","system_id":"levelo_inurba_marseille","lat":43.292644,"lon":5.384257,"is_reserved":false,"is_disabled":false,"rental_uris":{"android":"levelo://app?vid=4862f9fc-7e64-41e1-b4e5-a553d8cdee7f","ios":"levelo://app?vid=4862f9fc-7e64-41e1-b4e5-a553d8cdee7f"},"vehicle_type_id":"4","last_reported":1705525603,"current_range_meters":0,"station_id":"ce4bh692rcd13ifvqea0","pricing_plan_id":"free"},{"bike_id":"f3198eff-1ad2-4ef0-a8a0-13413e60b86e","system_id":"levelo_inurba_marseille","lat":43.292644,"lon":5.384257,"is_reserved":false,"is_disabled":false,"rental_uris":{"android":"levelo://app?vid=f3198eff-1ad2-4ef0-a8a0-13413e60b86e","ios":"levelo://app?vid=f3198eff-1ad2-4ef0-a8a0-13413e60b86e"},"vehicle_type_id":"4","last_reported":1705525603,"current_range_meters":17200,"station_id":"ce4bh692rcd13ifvqea0","pricing_plan_id":"free"},{"bike_id":"a3f4d7b7-ec80-49bd-972e-005461d47478","system_id":"levelo_inurba_marseille","lat":43.292642,"lon":5.384254,"is_reserved":false,"is_disabled":false,"rental_uris":{"android":"levelo://app?vid=a3f4d7b7-ec80-49bd-972e-005461d47478","ios":"levelo://app?vid=a3f4d7b7-ec80-49bd-972e-005461d47478"},"vehicle_type_id":"4","last_reported":1705525603,"current_range_meters":31200,"station_id":"ce4bh692rcd13ifvqea0","pricing_plan_id":"free"},{"bike_id":"854758f0-65b3-436d-882a-4095e83ecfef","system_id":"levelo_inurba_marseille","lat":43.30474,"lon":5.39807,"is_reserved":false,"is_disabled":false,"rental_uris":{"android":"levelo://app?vid=854758f0-65b3-436d-882a-4095e83ecfef","ios":"levelo://app?vid=854758f0-65b3-436d-882a-4095e83ecfef"},"vehicle_type_id":"4","last_reported":1705525603,"current_range_meters":19200,"station_id":"","pricing_plan_id":"free"},{"bike_id":"8c61b4ee-8304-4cbd-8ee3-76500873ae62","system_id":"levelo_inurba_marseille","lat":43.290103,"lon":5.356114,"is_reserved":false,"is_disabled":false,"rental_uris":{"android":"levelo://app?vid=8c61b4ee-8304-4cbd-8ee3-76500873ae62","ios":"levelo://app?vid=8c61b4ee-8304-4cbd-8ee3-76500873ae62"},"vehicle_type_id":"4","last_reported":1705525603,"current_range_meters":19200,"station_id":"ce4bhb92rcd13ifvqen0","pricing_plan_id":"free"},{"bike_id":"91cb3b6e-b9b6-4065-9410-f03391d79da2","system_id":"levelo_inurba_marseille","lat":43.295433,"lon":5.390296,"is_reserved":false,"is_disabled":false,"rental_uris":{"android":"levelo://app?vid=91cb3b6e-b9b6-4065-9410-f03391d79da2","ios":"levelo://app?vid=91cb3b6e-b9b6-4065-9410-f03391d79da2"},"vehicle_type_id":"4","last_reported":1705525603,"current_range_meters":17200,"station_id":"ce4bh3p2rcd13ifvqdp0","pricing_plan_id":"free"},{"bike_id":"d68aa186-3544-48e8-977d-d99a4b14ac52","system_id":"levelo_inurba_marseille","lat":43.295169,"lon":5.390426,"is_reserved":false,"is_disabled":false,"rental_uris":{"android":"levelo://app?vid=d68aa186-3544-48e8-977d-d99a4b14ac52","ios":"levelo://app?vid=d68aa186-3544-48e8-977d-d99a4b14ac52"},"vehicle_type_id":"4","last_reported":1705525603,"current_range_meters":16400,"station_id":"ce4bh3p2rcd13ifvqdp0","pricing_plan_id":"free"},{"bike_id":"371bcede-bcec-42ab-b8f9-246bb5b16208","system_id":"levelo_inurba_marseille","lat":43.295367,"lon":5.390352,"is_reserved":false,"is_disabled":false,"rental_uris":{"android":"levelo://app?vid=371bcede-bcec-42ab-b8f9-246bb5b16208","ios":"levelo://app?vid=371bcede-bcec-42ab-b8f9-246bb5b16208"},"vehicle_type_id":"4","last_reported":1705525603,"current_range_meters":18800,"station_id":"ce4bh3p2rcd13ifvqdp0","pricing_plan_id":"free"},{"bike_id":"110fcd72-1ea7-4e4f-a793-184e93b24271","system_id":"levelo_inurba_marseille","lat":43.29779,"lon":5.39341,"is_reserved":false,"is_disabled":false,"rental_uris":{"android":"levelo://app?vid=110fcd72-1ea7-4e4f-a793-184e93b24271","ios":"levelo://app?vid=110fcd72-1ea7-4e4f-a793-184e93b24271"},"vehicle_type_id":"4","last_reported":1705525603,"current_range_meters":14000,"station_id":"chh1huq6cuj3fo74tm60","pricing_plan_id":"free"},{"bike_id":"9f0b8373-8c23-425e-85dc-41c0552dc00d","system_id":"levelo_inurba_marseille","lat":43.330442,"lon":5.389148,"is_reserved":false,"is_disabled":false,"rental_uris":{"android":"levelo://app?vid=9f0b8373-8c23-425e-85dc-41c0552dc00d","ios":"levelo://app?vid=9f0b8373-8c23-425e-85dc-41c0552dc00d"},"vehicle_type_id":"4","last_reported":1705525603,"current_range_meters":27200,"station_id":"ce4bhr92rcd13ifvqhrg","pricing_plan_id":"free"},{"bike_id":"a104f9bc-d761-4319-b2a0-1a6f9c5e2ce2","system_id":"levelo_inurba_marseille","lat":43.330442,"lon":5.389148,"is_reserved":false,"is_disabled":false,"rental_uris":{"android":"levelo://app?vid=a104f9bc-d761-4319-b2a0-1a6f9c5e2ce2","ios":"levelo://app?vid=a104f9bc-d761-4319-b2a0-1a6f9c5e2ce2"},"vehicle_type_id":"4","last_reported":1705525603,"current_range_meters":28800,"station_id":"ce4bhr92rcd13ifvqhrg","pricing_plan_id":"free"},{"bike_id":"adaef058-44fd-48ad-b8b5-f7f5914b8a5a","system_id":"levelo_inurba_marseille","lat":43.2952,"lon":5.39032,"is_reserved":false,"is_disabled":false,"rental_uris":{"android":"levelo://app?vid=adaef058-44fd-48ad-b8b5-f7f5914b8a5a","ios":"levelo://app?vid=adaef058-44fd-48ad-b8b5-f7f5914b8a5a"},"vehicle_type_id":"4","last_reported":1705525603,"current_range_meters":26400,"station_id":"ce4bh3p2rcd13ifvqdp0","pricing_plan_id":"free"},{"bike_id":"dbf2575b-4894-43b9-9214-607ef8ddd668","system_id":"levelo_inurba_marseille","lat":43.330442,"lon":5.389148,"is_reserved":false,"is_disabled":false,"rental_uris":{"android":"levelo://app?vid=dbf2575b-4894-43b9-9214-607ef8ddd668","ios":"levelo://app?vid=dbf2575b-4894-43b9-9214-607ef8ddd668"},"vehicle_type_id":"4","last_reported":1705525603,"current_range_meters":26000,"station_id":"ce4bhr92rcd13ifvqhrg","pricing_plan_id":"free"},{"bike_id":"dc65be48-0a15-4df0-9646-bc76ce7558fc","system_id":"levelo_inurba_marseille","lat":43.295169,"lon":5.390426,"is_reserved":false,"is_disabled":false,"rental_uris":{"android":"levelo://app?vid=dc65be48-0a15-4df0-9646-bc76ce7558fc","ios":"levelo://app?vid=dc65be48-0a15-4df0-9646-bc76ce7558fc"},"vehicle_type_id":"4","last_reported":1705525603,"current_range_meters":400,"station_id":"ce4bh3p2rcd13ifvqdp0","pricing_plan_id":"free"},{"bike_id":"c7519e9c-93ad-4f4c-80ab-1077e95112f3","system_id":"levelo_inurba_marseille","lat":43.295169,"lon":5.390426,"is_reserved":false,"is_disabled":false,"rental_uris":{"android":"levelo://app?vid=c7519e9c-93ad-4f4c-80ab-1077e95112f3","ios":"levelo://app?vid=c7519e9c-93ad-4f4c-80ab-1077e95112f3"},"vehicle_type_id":"4","last_reported":1705525603,"current_range_meters":6000,"station_id":"ce4bh3p2rcd13ifvqdp0","pricing_plan_id":"free"},{"bike_id":"1a343c76-e318-4dc9-9880-d28c86f14eba","system_id":"levelo_inurba_marseille","lat":43.295169,"lon":5.390426,"is_reserved":false,"is_disabled":false,"rental_uris":{"android":"levelo://app?vid=1a343c76-e318-4dc9-9880-d28c86f14eba","ios":"levelo://app?vid=1a343c76-e318-4dc9-9880-d28c86f14eba"},"vehicle_type_id":"4","last_reported":1705525603,"current_range_meters":28800,"station_id":"ce4bh3p2rcd13ifvqdp0","pricing_plan_id":"free"},{"bike_id":"44e295ac-c960-49ec-8952-e99fdb868554","system_id":"levelo_inurba_marseille","lat":43.295169,"lon":5.390426,"is_reserved":false,"is_disabled":false,"rental_uris":{"android":"levelo://app?vid=44e295ac-c960-49ec-8952-e99fdb868554","ios":"levelo://app?vid=44e295ac-c960-49ec-8952-e99fdb868554"},"vehicle_type_id":"4","last_reported":1705525603,"current_range_meters":5600,"station_id":"ce4bh3p2rcd13ifvqdp0","pricing_plan_id":"free"},{"bike_id":"32935f3e-9384-4f94-b00c-2513249f47cf","system_id":"levelo_inurba_marseille","lat":43.330319,"lon":5.390367,"is_reserved":false,"is_disabled":false,"rental_uris":{"android":"levelo://app?vid=32935f3e-9384-4f94-b00c-2513249f47cf","ios":"levelo://app?vid=32935f3e-9384-4f94-b00c-2513249f47cf"},"vehicle_type_id":"4","last_reported":1705525603,"current_range_meters":26400,"station_id":"","pricing_plan_id":"free"},{"bike_id":"ccd9cda7-74c6-43c7-b714-da7eabc54cee","system_id":"levelo_inurba_marseille","lat":43.330442,"lon":5.389148,"is_reserved":false,"is_disabled":false,"rental_uris":{"android":"levelo://app?vid=ccd9cda7-74c6-43c7-b714-da7eabc54cee","ios":"levelo://app?vid=ccd9cda7-74c6-43c7-b714-da7eabc54cee"},"vehicle_type_id":"4","last_reported":1705525603,"current_range_meters":29600,"station_id":"ce4bhr92rcd13ifvqhrg","pricing_plan_id":"free"},{"bike_id":"f54461fd-d72c-4005-b39a-43a53601b83a","system_id":"levelo_inurba_marseille","lat":43.297773,"lon":5.393595,"is_reserved":false,"is_disabled":false,"rental_uris":{"android":"levelo://app?vid=f54461fd-d72c-4005-b39a-43a53601b83a","ios":"levelo://app?vid=f54461fd-d72c-4005-b39a-43a53601b83a"},"vehicle_type_id":"4","last_reported":1705525603,"current_range_meters":22800,"station_id":"chh1huq6cuj3fo74tm60","pricing_plan_id":"free"},{"bike_id":"8c9de57e-e7b2-46b7-ac20-7f769096e2a8","system_id":"levelo_inurba_marseille","lat":43.295169,"lon":5.390426,"is_reserved":false,"is_disabled":false,"rental_uris":{"android":"levelo://app?vid=8c9de57e-e7b2-46b7-ac20-7f769096e2a8","ios":"levelo://app?vid=8c9de57e-e7b2-46b7-ac20-7f769096e2a8"},"vehicle_type_id":"4","last_reported":1705525603,"current_range_meters":22000,"station_id":"ce4bh3p2rcd13ifvqdp0","pricing_plan_id":"free"},{"bike_id":"6dae1feb-55a1-4dae-8578-384363367d18","system_id":"levelo_inurba_marseille","lat":43.33687,"lon":5.37397,"is_reserved":false,"is_disabled":false,"rental_uris":{"android":"levelo://app?vid=6dae1feb-55a1-4dae-8578-384363367d18","ios":"levelo://app?vid=6dae1feb-55a1-4dae-8578-384363367d18"},"vehicle_type_id":"4","last_reported":1705525603,"current_range_meters":30400,"station_id":"","pricing_plan_id":"free"},{"bike_id":"4fb2aac0-81c5-4109-81cb-899f0f594f44","system_id":"levelo_inurba_marseille","lat":43.2901,"lon":5.381269,"is_reserved":false,"is_disabled":false,"rental_uris":{"android":"levelo://app?vid=4fb2aac0-81c5-4109-81cb-899f0f594f44","ios":"levelo://app?vid=4fb2aac0-81c5-4109-81cb-899f0f594f44"},"vehicle_type_id":"4","last_reported":1705525603,"current_range_meters":25200,"station_id":"ce4bh4p2rcd13ifvqe1g","pricing_plan_id":"free"},{"bike_id":"92759042-a1ac-4a1c-8f00-31f9f76e7b5c","system_id":"levelo_inurba_marseille","lat":43.2901,"lon":5.381269,"is_reserved":false,"is_disabled":false,"rental_uris":{"android":"levelo://app?vid=92759042-a1ac-4a1c-8f00-31f9f76e7b5c","ios":"levelo://app?vid=92759042-a1ac-4a1c-8f00-31f9f76e7b5c"},"vehicle_type_id":"4","last_reported":1705525603,"current_range_meters":29600,"station_id":"ce4bh4p2rcd13ifvqe1g","pricing_plan_id":"free"},{"bike_id":"c9aecfc4-a4c7-4615-ab51-2e0945c2f485","system_id":"levelo_inurba_marseille","lat":43.28856,"lon":5.358371,"is_reserved":false,"is_disabled":false,"rental_uris":{"android":"levelo://app?vid=c9aecfc4-a4c7-4615-ab51-2e0945c2f485","ios":"levelo://app?vid=c9aecfc4-a4c7-4615-ab51-2e0945c2f485"},"vehicle_type_id":"4","last_reported":1705525603,"current_range_meters":23200,"station_id":"ce4bhb12rcd13ifvqem0","pricing_plan_id":"free"},{"bike_id":"aae77907-3fff-4a8a-9a80-a438dd664563","system_id":"levelo_inurba_marseille","lat":43.329208,"lon":5.392585,"is_reserved":false,"is_disabled":false,"rental_uris":{"android":"levelo://app?vid=aae77907-3fff-4a8a-9a80-a438dd664563","ios":"levelo://app?vid=aae77907-3fff-4a8a-9a80-a438dd664563"},"vehicle_type_id":"4","last_reported":1705525603,"current_range_meters":16400,"station_id":"","pricing_plan_id":"free"},{"bike_id":"da83767f-08db-475e-adf1-bb4730930eb4","system_id":"levelo_inurba_marseille","lat":43.28856,"lon":5.358371,"is_reserved":false,"is_disabled":false,"rental_uris":{"android":"levelo://app?vid=da83767f-08db-475e-adf1-bb4730930eb4","ios":"levelo://app?vid=da83767f-08db-475e-adf1-bb4730930eb4"},"vehicle_type_id":"4","last_reported":1705525603,"current_range_meters":12400,"station_id":"ce4bhb12rcd13ifvqem0","pricing_plan_id":"free"},{"bike_id":"096ce76e-f293-4286-8a7d-df448cfbf30c","system_id":"levelo_inurba_marseille","lat":43.28856,"lon":5.358371,"is_reserved":false,"is_disabled":false,"rental_uris":{"android":"levelo://app?vid=096ce76e-f293-4286-8a7d-df448cfbf30c","ios":"levelo://app?vid=096ce76e-f293-4286-8a7d-df448cfbf30c"},"vehicle_type_id":"4","last_reported":1705525603,"current_range_meters":24400,"station_id":"ce4bhb12rcd13ifvqem0","pricing_plan_id":"free"},{"bike_id":"85b4c775-9175-479e-9205-3ee9da45f889","system_id":"levelo_inurba_marseille","lat":43.28856,"lon":5.358371,"is_reserved":false,"is_disabled":false,"rental_uris":{"android":"levelo://app?vid=85b4c775-9175-479e-9205-3ee9da45f889","ios":"levelo://app?vid=85b4c775-9175-479e-9205-3ee9da45f889"},"vehicle_type_id":"4","last_reported":1705525603,"current_range_meters":30000,"station_id":"ce4bhb12rcd13ifvqem0","pricing_plan_id":"free"},