{"last_updated":1743948497,"ttl":60,"version":"2.2","data":{"bikes":[{"bike_id":"e7b956ce-2ab2-4301-8fd3-6312d753e8f6","system_id":"levelo_inurba_marseille","lat":43.2465,"lon":5.38196,"is_reserved":false,"is_disabled":true,"rental_uris":{"android":"levelo://app?vid=e7b956ce-2ab2-4301-8fd3-6312d753e8f6","ios":"levelo://app?vid=e7b956ce-2ab2-4301-8fd3-6312d753e8f6"},"vehicle_type_id":"4","last_reported":1743948497,"current_range_meters":2800,"station_id":"ce4bhih2rcd13ifvqfr0","pricing_plan_id":"cebpf4jnsgd1na2vs0mg"},{"bike_id":"f4e3d459-bf3a-4a73-992a-fe2e0b388bd0","system_id":"levelo_inurba_marseille","lat":43.25082,"lon":5.39513,"is_reserved":false,"is_disabled":false,"rental_uris":{"android":"levelo://app?vid=f4e3d459-bf3a-4a73-992a-fe2e0b388bd0","ios":"levelo://app?vid=f4e3d459-bf3a-4a73-992a-fe2e0b388bd0"},"vehicle_type_id":"4","last_reported":1743948497,"current_range_meters":2800,"station_id":"ce4bhm12rcd13ifvqgkg","pricing_plan_id":"cebpf4jnsgd1na2vs0mg"},{"bike_id":"2154182c-a720-4cd6-8e95-b90cb381fa33","system_id":"levelo_inurba_marseille","lat":43.30537,"lon":5.36558,"is_reserved":false,"is_disabled":false,"rental_uris":{"android":"levelo://app?vid=2154182c-a720-4cd6-8e95-b90cb381fa33","ios":"levelo://app?vid=2154182c-a720-4cd6-8e95-b90cb381fa33"},"vehicle_type_id":"4","last_reported":1743948497,"current_range_meters":2000,"station_id":"ce4bgs12rcd13ifvqcag","pricing_plan_id":"cebpf4jnsgd1na2vs0mg"},{"bike_id":"2fac97d4-2921-486d-80f0-47a9b939be1e","system_id":"levelo_inurba_marseille","lat":43.26201,"lon":5.37928,"is_reserved":false,"is_disabled":false,"rental_uris":{"android":"levelo://app?vid=2fac97d4-2921-486d-80f0-47a9b939be1e","ios":"levelo://app?vid=2fac97d4-2921-486d-80f0-47a9b939be1e"},"vehicle_type_id":"4","last_reported":1743948497,"current_range_meters":2000,"station_id":"ce4bhjp2rcd13ifvqg90","pricing_plan_id":"cebpf4jnsgd1na2vs0mg"},{"bike_id":"1a8dbb90-e1c6-49ac-a3db-356819e873b7","system_id":"levelo_inurba_marseille","lat":43.23182,"lon":5.39989,"is_reserved":false,"is_disabled":false,"rental_uris":{"android":"levelo://app?vid=1a8dbb90-e1c6-49ac-a3db-356819e873b7","ios":"levelo://app?vid=1a8dbb90-e1c6-49ac-a3db-356819e873b7"},"vehicle_type_id":"4","last_reported":1743948497,"current_range_meters":2800,"station_id":"ce4bhn12rcd13ifvqgqg","pricing_plan_id":"cebpf4jnsgd1na2vs0mg"},{"bike_id":"cfa946d3-ba5d-43f1-8ec3-0d92f68359d3","system_id":"levelo_inurba_marseille","lat":43.29273,"lon":5.40121,"is_reserved":false,"is_disabled":false,"rental_uris":{"android":"levelo://app?vid=cfa946d3-ba5d-43f1-8ec3-0d92f68359d3","ios":"levelo://app?vid=cfa946d3-ba5d-43f1-8ec3-0d92f68359d3"},"vehicle_type_id":"4","last_reported":1743948497,"current_range_meters":2800,"station_id":"ce4bh312rcd13ifvqdk0","pricing_plan_id":"cebpf4jnsgd1na2vs0mg"},{"bike_id":"5dd17db2-5cf3-4c0c-8fb3-e7111c26ba5e","system_id":"levelo_inurba_marseille","lat":43.28425,"lon":5.34975,"is_reserved":false,"is_disabled":false,"rental_uris":{"android":"levelo://app?vid=5dd17db2-5cf3-4c0c-8fb3-e7111c26ba5e","ios":"levelo://app?vid=5dd17db2-5cf3-4c0c-8fb3-e7111c26ba5e"},"vehicle_type_id":"4","last_reported":1743948497,"current_range_meters":2800,"station_id":"ce4bhbh2rcd13ifvqepg","pricing_plan_id":"cebpf4jnsgd1na2vs0mg"},{"bike_id":"69b5485b-e0bc-4c08-b6c1-892098f0fbb4","system_id":"levelo_inurba_marseille","lat":43.30272,"lon":5.37723,"is_reserved":false,"is_disabled":false,"rental_uris":{"android":"levelo://app?vid=69b5485b-e0bc-4c08-b6c1-892098f0fbb4","ios":"levelo://app?vid=69b5485b-e0bc-4c08-b6c1-892098f0fbb4"},"vehicle_type_id":"4","last_reported":1743948497,"current_range_meters":2000,"station_id":"ce4bguh2rcd13ifvqcj0","pricing_plan_id":"cebpf4jnsgd1na2vs0mg"},{"bike_id":"5a04fb8e-f2f0-4812-8e48-3f6a9bb3f89b","system_id":"levelo_inurba_marseille","lat":43.2972,"lon":5.377,"is_reserved":false,"is_disabled":false,"rental_uris":{"android":"levelo://app?vid=5a04fb8e-f2f0-4812-8e48-3f6a9bb3f89b","ios":"levelo://app?vid=5a04fb8e-f2f0-4812-8e48-3f6a9bb3f89b"},"vehicle_type_id":"4","last_reported":1743948497,"current_range_meters":2800,"station_id":"ce4bgkh2rcd13ifvqbl0","pricing_plan_id":"cebpf4jnsgd1na2vs0mg"},{"bike_id":"8fa92ff1-c2cb-4fa2-b3ce-e14c12ce1bf4","system_id":"levelo_inurba_marseille","lat":43.28162,"lon":5.42629,"is_reserved":false,"is_disabled":false,"rental_uris":{"android":"levelo://app?vid=8fa92ff1-c2cb-4fa2-b3ce-e14c12ce1bf4","ios":"levelo://app?vid=8fa92ff1-c2cb-4fa2-b3ce-e14c12ce1bf4"},"vehicle_type_id":"4","last_reported":1743948497,"current_range_meters":3200,"station_id":"ce4bhnh2rcd13ifvqgug","pricing_plan_id":"cebpf4jnsgd1na2vs0mg"},{"bike_id":"cfffc86e-7825-4dbd-92ca-d9bdddd889f1","system_id":"levelo_inurba_marseille","lat":43.282634,"lon":5.350565,"is_reserved":false,"is_disabled":false,"rental_uris":{"android":"levelo://app?vid=cfffc86e-7825-4dbd-92ca-d9bdddd889f1","ios":"levelo://app?vid=cfffc86e-7825-4dbd-92ca-d9bdddd889f1"},"vehicle_type_id":"4","last_reported":1743948497,"current_range_meters":3200,"station_id":"ce4bh112rcd13ifvqda0","pricing_plan_id":"cebpf4jnsgd1na2vs0mg"},{"bike_id":"a15ad640-9525-4829-9e56-bc5eb1223d27","system_id":"levelo_inurba_marseille","lat":43.2481,"lon":5.37459,"is_reserved":false,"is_disabled":false,"rental_uris":{"android":"levelo://app?vid=a15ad640-9525-4829-9e56-bc5eb1223d27","ios":"levelo://app?vid=a15ad640-9525-4829-9e56-bc5eb1223d27"},"vehicle_type_id":"4","last_reported":1743948497,"current_range_meters":3200,"station_id":"ce4bhgh2rcd13ifvqfb0","pricing_plan_id":"cebpf4jnsgd1na2vs0mg"},{"bike_id":"9affad03-8fa6-4d81-8865-395e4c27b80e","system_id":"levelo_inurba_marseille","lat":43.27378,"lon":5.36256,"is_reserved":false,"is_disabled":false,"rental_uris":{"android":"levelo://app?vid=9affad03-8fa6-4d81-8865-395e4c27b80e","ios":"levelo://app?vid=9affad03-8fa6-4d81-8865-395e4c27b80e"},"vehicle_type_id":"4","last_reported":1743948497,"current_range_meters":3200,"station_id":"ce4bhbh2rcd13ifvqeo0","pricing_plan_id":"cebpf4jnsgd1na2vs0mg"},{"bike_id":"c8c2b143-c957-408e-9859-0d785c1ee612","system_id":"levelo_inurba_marseille","lat":43.24167,"lon":5.36399,"is_reserved":false,"is_disabled":false,"rental_uris":{"android":"levelo://app?vid=c8c2b143-c957-408e-9859-0d785c1ee612","ios":"levelo://app?vid=c8c2b143-c957-408e-9859-0d785c1ee612"},"vehicle_type_id":"4","last_reported":1743948497,"current_range_meters":3200,"station_id":"cpo36qri1sfpv3e86is0","pricing_plan_id":"cebpf4jnsgd1na2vs0mg"},{"bike_id":"629f92c7-0137-441a-a70c-ecf552b4b559","system_id":"levelo_inurba_marseille","lat":43.24402,"lon":5.37063,"is_reserved":false,"is_disabled":false,"rental_uris":{"android":"levelo://app?vid=629f92c7-0137-441a-a70c-ecf552b4b559","ios":"levelo://app?vid=629f92c7-0137-441a-a70c-ecf552b4b559"},"vehicle_type_id":"4","last_reported":1743948497,"current_range_meters":3200,"station_id":"ce4bhhh2rcd13ifvqfk0","pricing_plan_id":"cebpf4jnsgd1na2vs0mg"},{"bike_id":"feb6e46c-3fb2-45a9-a2fb-22ac62feb505","system_id":"levelo_inurba_marseille","lat":43.23055,"lon":5.35495,"is_reserved":false,"is_disabled":true,"rental_uris":{"android":"levelo://app?vid=feb6e46c-3fb2-45a9-a2fb-22ac62feb505","ios":"levelo://app?vid=feb6e46c-3fb2-45a9-a2fb-22ac62feb505"},"vehicle_type_id":"4","last_reported":1743948497,"current_range_meters":3200,"station_id":"cpo3342slgdg3j2ifvpg","pricing_plan_id":"cebpf4jnsgd1na2vs0mg"},{"bike_id":"b95dbaac-a129-484e-8f8d-b4660dedcf00","system_id":"levelo_inurba_marseille","lat":43.27622,"lon":5.36104,"is_reserved":false,"is_disabled":false,"rental_uris":{"android":"levelo://app?vid=b95dbaac-a129-484e-8f8d-b4660dedcf00","ios":"levelo://app?vid=b95dbaac-a129-484e-8f8d-b4660dedcf00"},"vehicle_type_id":"4","last_reported":1743948497,"current_range_meters":3200,"station_id":"ce4bgj92rcd13ifvqbe0","pricing_plan_id":"cebpf4jnsgd1na2vs0mg"},{"bike_id":"cf2d9f50-ca0f-4f4a-b3af-3fbf41b0ce0e","system_id":"levelo_inurba_marseille","lat":43.2319,"lon":5.35556,"is_reserved":false,"is_disabled":false,"rental_uris":{"android":"levelo://app?vid=cf2d9f50-ca0f-4f4a-b3af-3fbf41b0ce0e","ios":"levelo://app?vid=cf2d9f50-ca0f-4f4a-b3af-3fbf41b0ce0e"},"vehicle_type_id":"4","last_reported":1743948497,"current_range_meters":3200,"station_id":"ce4bhu92rcd13ifvqi70","pricing_plan_id":"cebpf4jnsgd1na2vs0mg"},{"bike_id":"53c3c865-6d07-4224-bb42-73af2070ad62","system_id":"levelo_inurba_marseille","lat":43.314871,"lon":5.373121,"is_reserved":false,"is_disabled":false,"rental_uris":{"android":"levelo://app?vid=53c3c865-6d07-4224-bb42-73af2070ad62","ios":"levelo://app?vid=53c3c865-6d07-4224-bb42-73af2070ad62"},"vehicle_type_id":"4","last_reported":1743948497,"current_range_meters":3600,"station_id":"ce4bgt12rcd13ifvqcd0","pricing_plan_id":"cebpf4jnsgd1na2vs0mg"},{"bike_id":"2b5e7ee6-35f1-4d9a-aa54-97acf6b5e93f","system_id":"levelo_inurba_marseille","lat":43.24168,"lon":5.36398,"is_reserved":false,"is_disabled":false,"rental_uris":{"android":"levelo://app?vid=2b5e7ee6-35f1-4d9a-aa54-97acf6b5e93f","ios":"levelo://app?vid=2b5e7ee6-35f1-4d9a-aa54-97acf6b5e93f"},"vehicle_type_id":"4","last_reported":1743948497,"current_range_meters":3600,"station_id":"cpo36qri1sfpv3e86is0","pricing_plan_id":"cebpf4jnsgd1na2vs0mg"},{"bike_id":"dc26542d-8a57-484d-ad31-70adb1a702a5","system_id":"levelo_inurba_marseille","lat":43.30587,"lon":5.39352,"is_reserved":false,"is_disabled":false,"rental_uris":{"android":"levelo://app?vid=dc26542d-8a57-484d-ad31-70adb1a702a5","ios":"levelo://app?vid=dc26542d-8a57-484d-ad31-70adb1a702a5"},"vehicle_type_id":"4","last_reported":1743948497,"current_range_meters":3600,"station_id":"ce4bh0p2rcd13ifvqd80","pricing_plan_id":"cebpf4jnsgd1na2vs0mg"},{"bike_id":"9a36e749-313f-43fc-ac90-b52b5015306e","system_id":"levelo_inurba_marseille","lat":43.21197,"lon":5.35072,"is_reserved":false,"is_disabled":false,"rental_uris":{"android":"levelo://app?vid=9a36e749-313f-43fc-ac90-b52b5015306e","ios":"levelo://app?vid=9a36e749-313f-43fc-ac90-b52b5015306e"},"vehicle_type_id":"4","last_reported":1743948497,"current_range_meters":3600,"station_id":"st_cvj6sg6p6f1abm77japg","pricing_plan_id":"cebpf4jnsgd1na2vs0mg"},{"bike_id":"b3eae73d-fbad-4b97-9334-87e3b44ccc44","system_id":"levelo_inurba_marseille","lat":43.23186,"lon":5.39984,"is_reserved":false,"is_disabled":false,"rental_uris":{"android":"levelo://app?vid=b3eae73d-fbad-4b97-9334-87e3b44ccc44","ios":"levelo://app?vid=b3eae73d-fbad-4b97-9334-87e3b44ccc44"},"vehicle_type_id":"4","last_reported":1743948497,"current_range_meters":3600,"station_id":"ce4bhn12rcd13ifvqgqg","pricing_plan_id":"cebpf4jnsgd1na2vs0mg"},{"bike_id":"3e49762c-f5f2-4be5-8001-03dfedd1c1e4","system_id":"levelo_inurba_marseille","lat":43.21199,"lon":5.35071,"is_reserved":false,"is_disabled":false,"rental_uris":{"android":"levelo://app?vid=3e49762c-f5f2-4be5-8001-03dfedd1c1e4","ios":"levelo://app?vid=3e49762c-f5f2-4be5-8001-03dfedd1c1e4"},"vehicle_type_id":"4","last_reported":1743948497,"current_range_meters":3600,"station_id":"st_cvj6sg6p6f1abm77japg","pricing_plan_id":"cebpf4jnsgd1na2vs0mg"},{"bike_id":"e3c1d740-8289-4bac-929f-d84321546352","system_id":"levelo_inurba_marseille","lat":43.28619,"lon":5.35104,"is_reserved":false,"is_disabled":false,"rental_uris":{"android":"levelo://app?vid=e3c1d740-8289-4bac-929f-d84321546352","ios":"levelo://app?vid=e3c1d740-8289-4bac-929f-d84321546352"},"vehicle_type_id":"4","last_reported":1743948497,"current_range_meters":3600,"station_id":"ce4bhch2rcd13ifvqeug","pricing_plan_id":"cebpf4jnsgd1na2vs0mg"},{"bike_id":"2cbb6dc3-aafd-42a1-8326-324602b54fb8","system_id":"levelo_inurba_marseille","lat":43.23148,"lon":5.43702,"is_reserved":false,"is_disabled":false,"rental_uris":{"android":"levelo://app?vid=2cbb6dc3-aafd-42a1-8326-324602b54fb8","ios":"levelo://app?vid=2cbb6dc3-aafd-42a1-8326-324602b54fb8"},"vehicle_type_id":"4","last_reported":1743948497,"current_range_meters":3600,"station_id":"ce4bhmp2rcd13ifvqgog","pricing_plan_id":"cebpf4jnsgd1na2vs0mg"},{"bike_id":"00cb19b4-d8e0-485f-a15a-3e8fa94a0c5e","system_id":"levelo_inurba_marseille","lat":43.23056,"lon":5.35492,"is_reserved":false,"is_disabled":false,"rental_uris":{"android":"levelo://app?vid=00cb19b4-d8e0-485f-a15a-3e8fa94a0c5e","ios":"levelo://app?vid=00cb19b4-d8e0-485f-a15a-3e8fa94a0c5e"},"vehicle_type_id":"4","last_reported":1743948497,"current_range_meters":4000,"station_id":"cpo3342slgdg3j2ifvpg","pricing_plan_id":"cebpf4jnsgd1na2vs0mg"},{"bike_id":"cceb2867-0e9f-4e6d-a49b-6e6a6848404c","system_id":"levelo_inurba_marseille","lat":43.28404,"lon":5.37517,"is_reserved":false,"is_disabled":false,"rental_uris":{"android":"levelo://app?vid=cceb2867-0e9f-4e6d-a49b-6e6a6848404c","ios":"levelo://app?vid=cceb2867-0e9f-4e6d-a49b-6e6a6848404c"},"vehicle_type_id":"4","last_reported":1743948497,"current_range_meters":4000,"station_id":"ce4bh412rcd13ifvqds0","pricing_plan_id":"cebpf4jnsgd1na2vs0mg"},{"bike_id":"bae08e3c-9e8d-43b0-9f49-086813d73e87","system_id":"levelo_inurba_marseille","lat":43.2739,"lon":5.36251,"is_reserved":false,"is_disabled":false,"rental_uris":{"android":"levelo://app?vid=bae08e3c-9e8d-43b0-9f49-086813d73e87","ios":"levelo://app?vid=bae08e3c-9e8d-43b0-9f49-086813d73e87"},"vehicle_type_id":"4","last_reported":1743948497,"current_range_meters":1600,"station_id":"ce4bhbh2rcd13ifvqeo0","pricing_plan_id":"cebpf4jnsgd1na2vs0mg"},{"bike_id":"e5440c4e-bedd-49bc-b928-209134ebf5ec","system_id":"levelo_inurba_marseille","lat":43.26687,"lon":5.38276,"is_reserved":false,"is_disabled":false,"rental_uris":{"android":"levelo://app?vid=e5440c4e-bedd-49bc-b928-209134ebf5ec","ios":"levelo://app?vid=e5440c4e-bedd-49bc-b928-209134ebf5ec"},"vehicle_type_id":"4","last_reported":1743948497,"current_range_meters":3600,"station_id":"ce4bhg92rcd13ifvqf90","pricing_plan_id":"cebpf4jnsgd1na2vs0mg"},{"bike_id":"d1042239-1ad6-45db-a9f1-a6fdc737b9d7","system_id":"levelo_inurba_marseille","lat":43.250977,"lon":5.39521,"is_reserved":false,"is_disabled":false,"rental_uris":{"android":"levelo://app?vid=d1042239-1ad6-45db-a9f1-a6fdc737b9d7","ios":"levelo://app?vid=d1042239-1ad6-45db-a9f1-a6fdc737b9d7"},"vehicle_type_id":"4","last_reported":1743948497,"current_range_meters":3600,"station_id":"ce4bhm12rcd13ifvqgkg","pricing_plan_id":"cebpf4jnsgd1na2vs0mg"},{"bike_id":"66b0852c-008e-465e-8fca-283d158dd3c7","system_id":"levelo_inurba_marseille","lat":43.23953,"lon":5.36644,"is_reserved":false,"is_disabled":false,"rental_uris":{"android":"levelo://app?vid=66b0852c-008e-465e-8fca-283d158dd3c7","ios":"levelo://app?vid=66b0852c-008e-465e-8fca-283d158dd3c7"},"vehicle_type_id":"4","last_reported":1743948497,"current_range_meters":4000,"station_id":"ce4bhi12rcd13ifvqfp0","pricing_plan_id":"cebpf4jnsgd1na2vs0mg"},{"bike_id":"4d7aa6e0-f789-48cd-96b2-e670fb0d1e13","system_id":"levelo_inurba_marseille","lat":43.24393,"lon":5.37068,"is_reserved":false,"is_disabled":false,"rental_uris":{"android":"levelo://app?vid=4d7aa6e0-f789-48cd-96b2-e670fb0d1e13","ios":"levelo://app?vid=4d7aa6e0-f789-48cd-96b2-e670fb0d1e13"},"vehicle_type_id":"4","last_reported":1743948497,"current_range_meters":4000,"station_id":"ce4bhhh2rcd13ifvqfk0","pricing_plan_id":"cebpf4jnsgd1na2vs0mg"},{"bike_id":"3d56ab36-aaa6-4a4c-891b-63b97e495122","system_id":"levelo_inurba_marseille","lat":43.23061,"lon":5.35487,"is_reserved":false,"is_disabled":false,"rental_uris":{"android":"levelo://app?vid=3d56ab36-aaa6-4a4c-891b-63b97e495122","ios":"levelo://app?vid=3d56ab36-aaa6-4a4c-891b-63b97e495122"},"vehicle_type_id":"4","last_reported":1743948497,"current_range_meters":4400,"station_id":"cpo3342slgdg3j2ifvpg","pricing_plan_id":"cebpf4jnsgd1na2vs0mg"},{"bike_id":"a8c5543f-0892-43cb-b96f-3c97bb120ec9","system_id":"levelo_inurba_marseille","lat":43.3171,"lon":5.43693,"is_reserved":false,"is_disabled":false,"rental_uris":{"android":"levelo://app?vid=a8c5543f-0892-43cb-b96f-3c97bb120ec9","ios":"levelo://app?vid=a8c5543f-0892-43cb-b96f-3c97bb120ec9"},"vehicle_type_id":"4","last_reported":1743948497,"current_range_meters":4400,"station_id":"ce4bhp92rcd13ifvqhcg","pricing_plan_id":"cebpf4jnsgd1na2vs0mg"},{"bike_id":"901090ee-67fa-4284-a134-95747230bccc","system_id":"levelo_inurba_marseille","lat":43.24806,"lon":5.37455,"is_reserved":false,"is_disabled":false,"rental_uris":{"android":"levelo://app?vid=901090ee-67fa-4284-a134-95747230bccc","ios":"levelo://app?vid=901090ee-67fa-4284-a134-95747230bccc"},"vehicle_type_id":"4","last_reported":1743948497,"current_range_meters":1600,"station_id":"ce4bhgh2rcd13ifvqfb0","pricing_plan_id":"cebpf4jnsgd1na2vs0mg"},{"bike_id":"a1f76228-4c26-47e7-8cf4-be1182dfe9ae","system_id":"levelo_inurba_marseille","lat":43.23192,"lon":5.35569,"is_reserved":false,"is_disabled":false,"rental_uris":{"android":"levelo://app?vid=a1f76228-4c26-47e7-8cf4-be1182dfe9ae","ios":"levelo://app?vid=a1f76228-4c26-47e7-8cf4-be1182dfe9ae"},"vehicle_type_id":"4","last_reported":1743948497,"current_range_meters":4400,"station_id":"ce4bhu92rcd13ifvqi70","pricing_plan_id":"cebpf4jnsgd1na2vs0mg"},{"bike_id":"b523a049-e165-4789-9dfd-9d2f2ff06968","system_id":"levelo_inurba_marseille","lat":43.28859,"lon":5.35858,"is_reserved":false,"is_disabled":false,"rental_uris":{"android":"levelo://app?vid=b523a049-e165-4789-9dfd-9d2f2ff06968","ios":"levelo://app?vid=b523a049-e165-4789-9dfd-9d2f2ff06968"},"vehicle_type_id":"4","last_reported":1743948497,"current_range_meters":4000,"station_id":"ce4bhb12rcd13ifvqem0","pricing_plan_id":"cebpf4jnsgd1na2vs0mg"},{"bike_id":"69f8a740-a0ff-4635-87ad-9b7d7d0db53e","system_id":"levelo_inurba_marseille","lat":43.246457,"lon":5.388927,"is_reserved":false,"is_disabled":true,"rental_uris":{"android":"levelo://app?vid=69f8a740-a0ff-4635-87ad-9b7d7d0db53e","ios":"levelo://app?vid=69f8a740-a0ff-4635-87ad-9b7d7d0db53e"},"vehicle_type_id":"4","last_reported":1743948497,"current_range_meters":4400,"station_id":"ce4bhg12rcd13ifvqf60","pricing_plan_id":"cebpf4jnsgd1na2vs0mg"},{"bike_id":"ad9a8615-b70a-4b25-877b-2a4f604abcbb","system_id":"levelo_inurba_marseille","lat":43.21196,"lon":5.35064,"is_reserved":false,"is_disabled":false,"rental_uris":{"android":"levelo://app?vid=ad9a8615-b70a-4b25-877b-2a4f604abcbb","ios":"levelo://app?vid=ad9a8615-b70a-4b25-877b-2a4f604abcbb"},"vehicle_type_id":"4","last_reported":1743948497,"current_range_meters":4800,"station_id":"st_cvj6sg6p6f1abm77japg","pricing_plan_id":"cebpf4jnsgd1na2vs0mg"},{"bike_id":"e77a753b-4b3e-406d-afaa-d2e34cc4bf2c","system_id":"levelo_inurba_marseille","lat":43.28606,"lon":5.37063,"is_reserved":false,"is_disabled":false,"rental_uris":{"android":"levelo://app?vid=e77a753b-4b3e-406d-afaa-d2e34cc4bf2c","ios":"levelo://app?vid=e77a753b-4b3e-406d-afaa-d2e34cc4bf2c"},"vehicle_type_id":"4","last_reported":1743948497,"current_range_meters":4800,"station_id":"ce4bht12rcd13ifvqi60","pricing_plan_id":"cebpf4jnsgd1na2vs0mg"},{"bike_id":"f0851eba-226d-4c61-9802-c8f9087e4981","system_id":"levelo_inurba_marseille","lat":43.29027,"lon":5.38649,"is_reserved":false,"is_disabled":false,"rental_uris":{"android":"levelo://app?vid=f0851eba-226d-4c61-9802-c8f9087e4981","ios":"levelo://app?vid=f0851eba-226d-4c61-9802-c8f9087e4981"},"vehicle_type_id":"4","last_reported":1743948497,"current_range_meters":4800,"station_id":"ce4bh4p2rcd13ifvqe0g","pricing_plan_id":"cebpf4jnsgd1na2vs0mg"},{"bike_id":"b9342b09-6804-460f-99e1-57017b0ef227","system_id":"levelo_inurba_marseille","lat":43.30313,"lon":5.39212,"is_reserved":false,"is_disabled":false,"rental_uris":{"android":"levelo://app?vid=b9342b09-6804-460f-99e1-57017b0ef227","ios":"levelo://app?vid=b9342b09-6804-460f-99e1-57017b0ef227"},"vehicle_type_id":"4","last_reported":1743948497,"current_range_meters":4800,"station_id":"ce4bgkh2rcd13ifvqbk0","pricing_plan_id":"cebpf4jnsgd1na2vs0mg"},{"bike_id":"fb0d4993-67fa-4314-9525-ef2ba9197c72","system_id":"levelo_inurba_marseille","lat":43.30321,"lon":5.4059,"is_reserved":false,"is_disabled":false,"rental_uris":{"android":"levelo://app?vid=fb0d4993-67fa-4314-9525-ef2ba9197c72","ios":"levelo://app?vid=fb0d4993-67fa-4314-9525-ef2ba9197c72"},"vehicle_type_id":"4","last_reported":1743948497,"current_range_meters":4800,"station_id":"","pricing_plan_id":"cebpf4jnsgd1na2vs0mg"},{"bike_id":"435df996-23d0-4266-9397-8cf5564310cc","system_id":"levelo_inurba_marseille","lat":43.24127,"lon":5.36361,"is_reserved":false,"is_disabled":false,"rental_uris":{"android":"levelo://app?vid=435df996-23d0-4266-9397-8cf5564310cc","ios":"levelo://app?vid=435df996-23d0-4266-9397-8cf5564310cc"},"vehicle_type_id":"4","last_reported":1743948497,"current_range_meters":4800,"station_id":"","pricing_plan_id":"cebpf4jnsgd1na2vs0mg"},{"bike_id":"cb26abe7-dbbf-4163-a5ba-302d5933f79e","system_id":"levelo_inurba_marseille","lat":43.22937,"lon":5.35385,"is_reserved":false,"is_disabled":false,"rental_uris":{"android":"levelo://app?vid=cb26abe7-dbbf-4163-a5ba-302d5933f79e","ios":"levelo://app?vid=cb26abe7-dbbf-4163-a5ba-302d5933f79e"},"vehicle_type_id":"4","last_reported":1743948497,"current_range_meters":4800,"station_id":"cpo3532slgdg3j2ikp40","pricing_plan_id":"cebpf4jnsgd1na2vs0mg"},{"bike_id":"ac7a85da-6a1d-42f4-b3e0-decaec458451","system_id":"levelo_inurba_marseille","lat":43.22943,"lon":5.35346,"is_reserved":false,"is_disabled":true,"rental_uris":{"android":"levelo://app?vid=ac7a85da-6a1d-42f4-b3e0-decaec458451","ios":"levelo://app?vid=ac7a85da-6a1d-42f4-b3e0-decaec458451"},"vehicle_type_id":"4","last_reported":1743948497,"current_range_meters":4800,"station_id":"cpo3532slgdg3j2ikp40","pricing_plan_id":"cebpf4jnsgd1na2vs0mg"},{"bike_id":"40119a5c-8a48-4b5b-8b30-c09a5c53d9dc","system_id":"levelo_inurba_marseille","lat":43.23972,"lon":5.36622,"is_reserved":false,"is_disabled":false,"rental_uris":{"android":"levelo://app?vid=40119a5c-8a48-4b5b-8b30-c09a5c53d9dc","ios":"levelo://app?vid=40119a5c-8a48-4b5b-8b30-c09a5c53d9dc"},"vehicle_type_id":"4","last_reported":1743948497,"current_range_meters":4800,"station_id":"ce4bhi12rcd13ifvqfp0","pricing_plan_id":"cebpf4jnsgd1na2vs0mg"},{"bike_id":"14a64ac4-bf6f-4bc7-bd47-235b8e111e99","system_id":"levelo_inurba_marseille","lat":43.24177,"lon":5.36399,"is_reserved":false,"is_disabled":false,"rental_uris":{"android":"levelo://app?vid=14a64ac4-bf6f-4bc7-bd47-235b8e111e99","ios":"levelo://app?vid=14a64ac4-bf6f-4bc7-bd47-235b8e111e99"},"vehicle_type_id":"4","last_reported":1743948497,"current_range_meters":4800,"station_id":"cpo36qri1sfpv3e86is0","pricing_plan_id":"cebpf4jnsgd1na2vs0mg"},{"bike_id":"bea38a2a-3d43-406c-9d92-73186cbe1625","system_id":"levelo_inurba_marseille","lat":43.29198,"lon":5.39313,"is_reserved":false,"is_disabled":false,"rental_uris":{"android":"levelo://app?vid=bea38a2a-3d43-406c-9d92-73186cbe1625","ios":"levelo://app?vid=bea38a2a-3d43-406c-9d92-73186cbe1625"},"vehicle_type_id":"4","last_reported":1743948497,"current_range_meters":4400,"station_id":"ce4bh192rcd13ifvqdd0","pricing_plan_id":"cebpf4jnsgd1na2vs0mg"},{"bike_id":"59aba12a-ec77-4d6c-8e2c-77c3f3477267","system_id":"levelo_inurba_marseille","lat":43.24072,"lon":5.37768,"is_reserved":false,"is_disabled":false,"rental_uris":{"android":"levelo://app?vid=59aba12a-ec77-4d6c-8e2c-77c3f3477267","ios":"levelo://app?vid=59aba12a-ec77-4d6c-8e2c-77c3f3477267"},"vehicle_type_id":"4","last_reported":1743948497,"current_range_meters":4400,"station_id":"ce4bhnp2rcd13ifvqgvg","pricing_plan_id":"cebpf4jnsgd1na2vs0mg"},{"bike_id":"8739ea41-f2be-441b-82fb-ac6608ea96ab","system_id":"levelo_inurba_marseille","lat":43.2712,"lon":5.3897,"is_reserved":false,"is_disabled":false,"rental_uris":{"android":"levelo://app?vid=8739ea41-f2be-441b-82fb-ac6608ea96ab","ios":"levelo://app?vid=8739ea41-f2be-441b-82fb-ac6608ea96ab"},"vehicle_type_id":"4","last_reported":1743948497,"current_range_meters":4800,"station_id":"ce4bh612rcd13ifvqe6g","pricing_plan_id":"cebpf4jnsgd1na2vs0mg"},{"bike_id":"9f014707-de29-452f-976d-c7392d3764ff","system_id":"levelo_inurba_marseille","lat":43.28699,"lon":5.37391,"is_reserved":false,"is_disabled":false,"rental_uris":{"android":"levelo://app?vid=9f014707-de29-452f-976d-c7392d3764ff","ios":"levelo://app?vid=9f014707-de29-452f-976d-c7392d3764ff"},"vehicle_type_id":"4","last_reported":1743948497,"current_range_meters":5600,"station_id":"ce4bh3p2rcd13ifvqdq0","pricing_plan_id":"cebpf4jnsgd1na2vs0mg"},{"bike_id":"6d7ba0e3-60e0-4932-a70d-0ed36dbfbd08","system_id":"levelo_inurba_marseille","lat":43.2119,"lon":5.35078,"is_reserved":false,"is_disabled":false,"rental_uris":{"android":"levelo://app?vid=6d7ba0e3-60e0-4932-a70d-0ed36dbfbd08","ios":"levelo://app?vid=6d7ba0e3-60e0-4932-a70d-0ed36dbfbd08"},"vehicle_type_id":"4","last_reported":1743948497,"current_range_meters":5600,"station_id":"st_cvj6sg6p6f1abm77japg","pricing_plan_id":"cebpf4jnsgd1na2vs0mg"},{"bike_id":"e4274343-5093-446a-b731-14af57009b57","system_id":"levelo_inurba_marseille","lat":43.21742,"lon":5.34607,"is_reserved":false,"is_disabled":false,"rental_uris":{"android":"levelo://app?vid=e4274343-5093-446a-b731-14af57009b57","ios":"levelo://app?vid=e4274343-5093-446a-b731-14af57009b57"},"vehicle_type_id":"4","last_reported":1743948497,"current_range_meters":5600,"station_id":"st_cvj6r9ubvosntc0bgbag","pricing_plan_id":"cebpf4jnsgd1na2vs0mg"},{"bike_id":"976099b8-33f5-4b8f-8720-f316bc3a1612","system_id":"levelo_inurba_marseille","lat":43.21217,"lon":5.35059,"is_reserved":false,"is_disabled":false,"rental_uris":{"android":"levelo://app?vid=976099b8-33f5-4b8f-8720-f316bc3a1612","ios":"levelo://app?vid=976099b8-33f5-4b8f-8720-f316bc3a1612"},"vehicle_type_id":"4","last_reported":1743948497,"current_range_meters":5600,"station_id":"st_cvj6sg6p6f1abm77japg","pricing_plan_id":"cebpf4jnsgd1na2vs0mg"},{"bike_id":"8e8105ce-63e2-4441-9ebe-d6a09a08a22e","system_id":"levelo_inurba_marseille","lat":43.29668,"lon":5.36204,"is_reserved":false,"is_disabled":false,"rental_uris":{"android":"levelo://app?vid=8e8105ce-63e2-4441-9ebe-d6a09a08a22e","ios":"levelo://app?vid=8e8105ce-63e2-4441-9ebe-d6a09a08a22e"},"vehicle_type_id":"4","last_reported":1743948497,"current_range_meters":5600,"station_id":"","pricing_plan_id":"cebpf4jnsgd1na2vs0mg"},{"bike_id":"b3ceffde-cfa3-427d-8912-934b80fc97c8","system_id":"levelo_inurba_marseille","lat":43.30543,"lon":5.38429,"is_reserved":false,"is_disabled":false,"rental_uris":{"android":"levelo://app?vid=b3ceffde-cfa3-427d-8912-934b80fc97c8","ios":"levelo://app?vid=b3ceffde-cfa3-427d-8912-934b80fc97c8"},"vehicle_type_id":"4","last_reported":1743948497,"current_range_meters":5600,"station_id":"ce4bgg92rcd13ifvqb30","pricing_plan_id":"cebpf4jnsgd1na2vs0mg"},{"bike_id":"eb79d1f9-7c91-4ea2-b5f8-796189743e1a","system_id":"levelo_inurba_marseille","lat":43.33828,"lon":5.39101,"is_reserved":false,"is_disabled":false,"rental_uris":{"android":"levelo://app?vid=eb79d1f9-7c91-4ea2-b5f8-796189743e1a","ios":"levelo://app?vid=eb79d1f9-7c91-4ea2-b5f8-796189743e1a"},"vehicle_type_id":"4","last_reported":1743948497,"current_range_meters":6000,"station_id":"","pricing_plan_id":"cebpf4jnsgd1na2vs0mg"},{"bike_id":"6b8fc1ae-1675-418c-81f6-303f3c85bbfa","system_id":"levelo_inurba_marseille","lat":43.24163,"lon":5.36424,"is_reserved":false,"is_disabled":false,"rental_uris":{"android":"levelo://app?vid=6b8fc1ae-1675-418c-81f6-303f3c85bbfa","ios":"levelo://app?vid=6b8fc1ae-1675-418c-81f6-303f3c85bbfa"},"vehicle_type_id":"4","last_reported":1743948497,"current_range_meters":6000,"station_id":"cpo36qri1sfpv3e86is0","pricing_plan_id":"cebpf4jnsgd1na2vs0mg"},{"bike_id":"156ff248-e361-4980-96d3-34313f3fc10e","system_id":"levelo_inurba_marseille","lat":43.24392,"lon":5.37053,"is_reserved":false,"is_disabled":false,"rental_uris":{"android":"levelo://app?vid=156ff248-e361-4980-96d3-34313f3fc10e","ios":"levelo://app?vid=156ff248-e361-4980-96d3-34313f3fc10e"},"vehicle_type_id":"4","last_reported":1743948497,"current_range_meters":6000,"station_id":"ce4bhhh2rcd13ifvqfk0","pricing_plan_id":"cebpf4jnsgd1na2vs0mg"},{"bike_id":"ffa84bc2-9204-4158-9a6c-2b1d443781d0","system_id":"levelo_inurba_marseille","lat":43.32363,"lon":5.36766,"is_reserved":false,"is_disabled":false,"rental_uris":{"android":"levelo://app?vid=ffa84bc2-9204-4158-9a6c-2b1d443781d0","ios":"levelo://app?vid=ffa84bc2-9204-4158-9a6c-2b1d443781d0"},"vehicle_type_id":"4","last_reported":1743948497,"current_range_meters":6000,"station_id":"ce4bhsh2rcd13ifvqi2g","pricing_plan_id":"cebpf4jnsgd1na2vs0mg"},{"bike_id":"65c06576-4122-45d0-9a56-c9ddb6f06aaf","system_id":"levelo_inurba_marseille","lat":43.24164,"lon":5.36404,"is_reserved":false,"is_disabled":false,"rental_uris":{"android":"levelo://app?vid=65c06576-4122-45d0-9a56-c9ddb6f06aaf","ios":"levelo://app?vid=65c06576-4122-45d0-9a56-c9ddb6f06aaf"},"vehicle_type_id":"4","last_reported":1743948497,"current_range_meters":6000,"station_id":"cpo36qri1sfpv3e86is0","pricing_plan_id":"cebpf4jnsgd1na2vs0mg"},{"bike_id":"4830536e-01f4-44f9-b1d7-41db458f9f1e","system_id":"levelo_inurba_marseille","lat":43.28424,"lon":5.34981,"is_reserved":false,"is_disabled":false,"rental_uris":{"android":"levelo://app?vid=4830536e-01f4-44f9-b1d7-41db458f9f1e","ios":"levelo://app?vid=4830536e-01f4-44f9-b1d7-41db458f9f1e"},"vehicle_type_id":"4","last_reported":1743948497,"current_range_meters":6400,"station_id":"ce4bhbh2rcd13ifvqepg","pricing_plan_id":"cebpf4jnsgd1na2vs0mg"},{"bike_id":"81bc7c69-9c79-4d6f-9e23-d14540c7553e","system_id":"levelo_inurba_marseille","lat":43.23185,"lon":5.39979,"is_reserved":false,"is_disabled":false,"rental_uris":{"android":"levelo://app?vid=81bc7c69-9c79-4d6f-9e23-d14540c7553e","ios":"levelo://app?vid=81bc7c69-9c79-4d6f-9e23-d14540c7553e"},"vehicle_type_id":"4","last_reported":1743948497,"current_range_meters":6400,"station_id":"ce4bhn12rcd13ifvqgqg","pricing_plan_id":"cebpf4jnsgd1na2vs0mg"},{"bike_id":"18b6b7d5-59e8-4802-b549-d1e0692af314","system_id":"levelo_inurba_marseille","lat":43.24391,"lon":5.37061,"is_reserved":false,"is_disabled":false,"rental_uris":{"android":"levelo://app?vid=18b6b7d5-59e8-4802-b549-d1e0692af314","ios":"levelo://app?vid=18b6b7d5-59e8-4802-b549-d1e0692af314"},"vehicle_type_id":"4","last_reported":1743948497,"current_range_meters":6400,"station_id":"ce4bhhh2rcd13ifvqfk0","pricing_plan_id":"cebpf4jnsgd1na2vs0mg"},{"bike_id":"a932801e-f096-4eee-beb2-909658da85e7","system_id":"levelo_inurba_marseille","lat":43.291988,"lon":5.3581,"is_reserved":false,"is_disabled":false,"rental_uris":{"android":"levelo://app?vid=a932801e-f096-4eee-beb2-909658da85e7","ios":"levelo://app?vid=a932801e-f096-4eee-beb2-909658da85e7"},"vehicle_type_id":"4","last_reported":1743948497,"current_range_meters":6000,"station_id":"ce4bhb12rcd13ifvqel0","pricing_plan_id":"cebpf4jnsgd1na2vs0mg"},{"bike_id":"6e2b3622-96ed-41b7-b121-88d1783009af","system_id":"levelo_inurba_marseille","lat":43.23159,"lon":5.43722,"is_reserved":false,"is_disabled":false,"rental_uris":{"android":"levelo://app?vid=6e2b3622-96ed-41b7-b121-88d1783009af","ios":"levelo://app?vid=6e2b3622-96ed-41b7-b121-88d1783009af"},"vehicle_type_id":"4","last_reported":1743948497,"current_range_meters":6400,"station_id":"ce4bhmp2rcd13ifvqgog","pricing_plan_id":"cebpf4jnsgd1na2vs0mg"},{"bike_id":"7379730b-ed7c-4ddf-8b04-d6780a5f9815","system_id":"levelo_inurba_marseille","lat":43.32363,"lon":5.36757,"is_reserved":false,"is_disabled":false,"rental_uris":{"android":"levelo://app?vid=7379730b-ed7c-4ddf-8b04-d6780a5f9815","ios":"levelo://app?vid=7379730b-ed7c-4ddf-8b04-d6780a5f9815"},"vehicle_type_id":"4","last_reported":1743948497,"current_range_meters":6400,"station_id":"ce4bhsh2rcd13ifvqi2g","pricing_plan_id":"cebpf4jnsgd1na2vs0mg"},{"bike_id":"b5487276-eaa6-42e0-95f2-5101920b7161","system_id":"levelo_inurba_marseille","lat":43.23165,"lon":5.43696,"is_reserved":false,"is_disabled":false,"rental_uris":{"android":"levelo://app?vid=b5487276-eaa6-42e0-95f2-5101920b7161","ios":"levelo://app?vid=b5487276-eaa6-42e0-95f2-5101920b7161"},"vehicle_type_id":"4","last_reported":1743948497,"current_range_meters":6800,"station_id":"ce4bhmp2rcd13ifvqgog","pricing_plan_id":"cebpf4jnsgd1na2vs0mg"},{"bike_id":"471ef093-2117-41f4-8611-ffda3727a253","system_id":"levelo_inurba_marseille","lat":43.29024,"lon":5.38646,"is_reserved":false,"is_disabled":false,"rental_uris":{"android":"levelo://app?vid=471ef093-2117-41f4-8611-ffda3727a253","ios":"levelo://app?vid=471ef093-2117-41f4-8611-ffda3727a253"},"vehicle_type_id":"4","last_reported":1743948497,"current_range_meters":6800,"station_id":"ce4bh4p2rcd13ifvqe0g","pricing_plan_id":"cebpf4jnsgd1na2vs0mg"},{"bike_id":"5722b995-9fbe-4315-9ddb-f450239617ba","system_id":"levelo_inurba_marseille","lat":43.28608,"lon":5.37065,"is_reserved":false,"is_disabled":false,"rental_uris":{"android":"levelo://app?vid=5722b995-9fbe-4315-9ddb-f450239617ba","ios":"levelo://app?vid=5722b995-9fbe-4315-9ddb-f450239617ba"},"vehicle_type_id":"4","last_reported":1743948497,"current_range_meters":6800,"station_id":"ce4bht12rcd13ifvqi60","pricing_plan_id":"cebpf4jnsgd1na2vs0mg"},{"bike_id":"53bc376f-e4d1-4ba2-b652-37ab1ceb6614","system_id":"levelo_inurba_marseille","lat":43.27371,"lon":5.36256,"is_reserved":false,"is_disabled":false,"rental_uris":{"android":"levelo://app?vid=53bc376f-e4d1-4ba2-b652-37ab1ceb6614","ios":"levelo://app?vid=53bc376f-e4d1-4ba2-b652-37ab1ceb6614"},"vehicle_type_id":"4","last_reported":1743948497,"current_range_meters":6800,"station_id":"ce4bhbh2rcd13ifvqeo0","pricing_plan_id":"cebpf4jnsgd1na2vs0mg"},{"bike_id":"72bf7179-d0ce-4574-88ef-9320fde316f7","system_id":"levelo_inurba_marseille","lat":43.23963,"lon":5.36634,"is_reserved":false,"is_disabled":false,"rental_uris":{"android":"levelo://app?vid=72bf7179-d0ce-4574-88ef-9320fde316f7","ios":"levelo://app?vid=72bf7179-d0ce-4574-88ef-9320fde316f7"},"vehicle_type_id":"4","last_reported":1743948497,"current_range_meters":6800,"station_id":"ce4bhi12rcd13ifvqfp0","pricing_plan_id":"cebpf4jnsgd1na2vs0mg"},{"bike_id":"58a37062-8fa2-490f-86b4-113e7586372a","system_id":"levelo_inurba_marseille","lat":43.2794,"lon":5.41071,"is_reserved":false,"is_disabled":false,"rental_uris":{"android":"levelo://app?vid=58a37062-8fa2-490f-86b4-113e7586372a","ios":"levelo://app?vid=58a37062-8fa2-490f-86b4-113e7586372a"},"vehicle_type_id":"4","last_reported":1743948497,"current_range_meters":6800,"station_id":"ce4bhnp2rcd13ifvqh0g","pricing_plan_id":"cebpf4jnsgd1na2vs0mg"},{"bike_id":"16a4ef28-c386-4451-8af2-41f507b21d41","system_id":"levelo_inurba_marseille","lat":43.211894,"lon":5.350723,"is_reserved":false,"is_disabled":false,"rental_uris":{"android":"levelo://app?vid=16a4ef28-c386-4451-8af2-41f507b21d41","ios":"levelo://app?vid=16a4ef28-c386-4451-8af2-41f507b21d41"},"vehicle_type_id":"4","last_reported":1743948497,"current_range_meters":6800,"station_id":"st_cvj6sg6p6f1abm77japg","pricing_plan_id":"cebpf4jnsgd1na2vs0mg"},{"bike_id":"126b041e-f111-47c2-b7db-d5e4759694c2","system_id":"levelo_inurba_marseille","lat":43.27363,"lon":5.36244,"is_reserved":false,"is_disabled":false,"rental_uris":{"android":"levelo://app?vid=126b041e-f111-47c2-b7db-d5e4759694c2","ios":"levelo://app?vid=126b041e-f111-47c2-b7db-d5e4759694c2"},"vehicle_type_id":"4","last_reported":1743948497,"current_range_meters":7200,"station_id":"ce4bhbh2rcd13ifvqeo0","pricing_plan_id":"cebpf4jnsgd1na2vs0mg"},{"bike_id":"610c568a-218c-4dae-aa02-3dd38966684c","system_id":"levelo_inurba_marseille","lat":43.21205,"lon":5.35055,"is_reserved":false,"is_disabled":false,"rental_uris":{"android":"levelo://app?vid=610c568a-218c-4dae-aa02-3dd38966684c","ios":"levelo://app?vid=610c568a-218c-4dae-aa02-3dd38966684c"},"vehicle_type_id":"4","last_reported":1743948497,"current_range_meters":7200,"station_id":"st_cvj6sg6p6f1abm77japg","pricing_plan_id":"cebpf4jnsgd1na2vs0mg"},{"bike_id":"47987ea5-f3bd-41ea-ae13-7d6493cdc7e2","system_id":"levelo_inurba_marseille","lat":43.2307,"lon":5.35482,"is_reserved":false,"is_disabled":false,"rental_uris":{"android":"levelo://app?vid=47987ea5-f3bd-41ea-ae13-7d6493cdc7e2","ios":"levelo://app?vid=47987ea5-f3bd-41ea-ae13-7d6493cdc7e2"},"vehicle_type_id":"4","last_reported":1743948497,"current_range_meters":7200,"station_id":"cpo3342slgdg3j2ifvpg","pricing_plan_id":"cebpf4jnsgd1na2vs0mg"},{"bike_id":"c12b6a1f-085a-413f-a6ce-680e9afe7fd1","system_id":"levelo_inurba_marseille","lat":43.297894,"lon":5.38116,"is_reserved":false,"is_disabled":true,"rental_uris":{"android":"levelo://app?vid=c12b6a1f-085a-413f-a6ce-680e9afe7fd1","ios":"levelo://app?vid=c12b6a1f-085a-413f-a6ce-680e9afe7fd1"},"vehicle_type_id":"4","last_reported":1743948497,"current_range_meters":7200,"station_id":"ce4bgip2rcd13ifvqbb0","pricing_plan_id":"cebpf4jnsgd1na2vs0mg"},{"bike_id":"9378cab7-1ef7-47d6-af28-c6473192be1a","system_id":"levelo_inurba_marseille","lat":43.30852,"lon":5.40802,"is_reserved":false,"is_disabled":false,"rental_uris":{"android":"levelo://app?vid=9378cab7-1ef7-47d6-af28-c6473192be1a","ios":"levelo://app?vid=9378cab7-1ef7-47d6-af28-c6473192be1a"},"vehicle_type_id":"4","last_reported":1743948497,"current_range_meters":7200,"station_id":"","pricing_plan_id":"cebpf4jnsgd1na2vs0mg"},{"bike_id":"c725a314-500c-43ed-bdec-7aa15743542d","system_id":"levelo_inurba_marseille","lat":43.27203,"lon":5.39181,"is_reserved":false,"is_disabled":false,"rental_uris":{"android":"levelo://app?vid=c725a314-500c-43ed-bdec-7aa15743542d","ios":"levelo://app?vid=c725a314-500c-43ed-bdec-7aa15743542d"},"vehicle_type_id":"4","last_reported":1743948497,"current_range_meters":7200,"station_id":"ce4bhhp2rcd13ifvqfm0","pricing_plan_id":"cebpf4jnsgd1na2vs0mg"},{"bike_id":"84a2fa6e-c872-4baf-8ea4-4d0270d3b0ec","system_id":"levelo_inurba_marseille","lat":43.24162,"lon":5.36397,"is_reserved":false,"is_disabled":false,"rental_uris":{"android":"levelo://app?vid=84a2fa6e-c872-4baf-8ea4-4d0270d3b0ec","ios":"levelo://app?vid=84a2fa6e-c872-4baf-8ea4-4d0270d3b0ec"},"vehicle_type_id":"4","last_reported":1743948497,"current_range_meters":7200,"station_id":"cpo36qri1sfpv3e86is0","pricing_plan_id":"cebpf4jnsgd1na2vs0mg"},{"bike_id":"6eaca609-15d4-492d-9fb7-82c71eb136d2","system_id":"levelo_inurba_marseille","lat":43.24165,"lon":5.36413,"is_reserved":false,"is_disabled":false,"rental_uris":{"android":"levelo://app?vid=6eaca609-15d4-492d-9fb7-82c71eb136d2","ios":"levelo://app?vid=6eaca609-15d4-492d-9fb7-82c71eb136d2"},"vehicle_type_id":"4","last_reported":1743948497,"current_range_meters":7200,"station_id":"cpo36qri1sfpv3e86is0","pricing_plan_id":"cebpf4jnsgd1na2vs0mg"},{"bike_id":"766f1251-e5f6-48c8-9787-2cabab56a1ab","system_id":"levelo_inurba_marseille","lat":43.27378,"lon":5.36238,"is_reserved":false,"is_disabled":false,"rental_uris":{"android":"levelo://app?vid=766f1251-e5f6-48c8-9787-2cabab56a1ab","ios":"levelo://app?vid=766f1251-e5f6-48c8-9787-2cabab56a1ab"},"vehicle_type_id":"4","last_reported":1743948497,"current_range_meters":7200,"station_id":"ce4bhbh2rcd13ifvqeo0","pricing_plan_id":"cebpf4jnsgd1na2vs0mg"},{"bike_id":"5519561e-6a78-4e38-8de4-84b7f76a38b0","system_id":"levelo_inurba_marseille","lat":43.30948,"lon":5.40152,"is_reserved":false,"is_disabled":true,"rental_uris":{"android":"levelo://app?vid=5519561e-6a78-4e38-8de4-84b7f76a38b0","ios":"levelo://app?vid=5519561e-6a78-4e38-8de4-84b7f76a38b0"},"vehicle_type_id":"4","last_reported":1743948497,"current_range_meters":7200,"station_id":"ce4bgvp2rcd13ifvqct0","pricing_plan_id":"cebpf4jnsgd1na2vs0mg"},{"bike_id":"da318eff-6077-463d-88e3-6ec084cb3a5e","system_id":"levelo_inurba_marseille","lat":43.290994,"lon":5.381315,"is_reserved":false,"is_disabled":false,"rental_uris":{"android":"levelo://app?vid=da318eff-6077-463d-88e3-6ec084cb3a5e","ios":"levelo://app?vid=da318eff-6077-463d-88e3-6ec084cb3a5e"},"vehicle_type_id":"4","last_reported":1743948497,"current_range_meters":6800,"station_id":"ce4bh512rcd13ifvqe2g","pricing_plan_id":"cebpf4jnsgd1na2vs0mg"},{"bike_id":"ffed1c87-e8a8-4763-9984-02934a6e21bc","system_id":"levelo_inurba_marseille","lat":43.27368,"lon":5.36252,"is_reserved":false,"is_disabled":false,"rental_uris":{"android":"levelo://app?vid=ffed1c87-e8a8-4763-9984-02934a6e21bc","ios":"levelo://app?vid=ffed1c87-e8a8-4763-9984-02934a6e21bc"},"vehicle_type_id":"4","last_reported":1743948497,"current_range_meters":7200,"station_id":"ce4bhbh2rcd13ifvqeo0","pricing_plan_id":"cebpf4jnsgd1na2vs0mg"},{"bike_id":"600353b5-9569-4dcc-808b-e48eefa4c37c","system_id":"levelo_inurba_marseille","lat":43.28726,"lon":5.36085,"is_reserved":false,"is_disabled":false,"rental_uris":{"android":"levelo://app?vid=600353b5-9569-4dcc-808b-e48eefa4c37c","ios":"levelo://app?vid=600353b5-9569-4dcc-808b-e48eefa4c37c"},"vehicle_type_id":"4","last_reported":1743948497,"current_range_meters":8000,"station_id":"cki0cbj6b192h4jlfktg","pricing_plan_id":"cebpf4jnsgd1na2vs0mg"},{"bike_id":"db29433a-c7f6-40d6-b0e1-3a1f0abf15ab","system_id":"levelo_inurba_marseille","lat":43.241712,"lon":5.364041,"is_reserved":false,"is_disabled":true,"rental_uris":{"android":"levelo://app?vid=db29433a-c7f6-40d6-b0e1-3a1f0abf15ab","ios":"levelo://app?vid=db29433a-c7f6-40d6-b0e1-3a1f0abf15ab"},"vehicle_type_id":"4","last_reported":1743948497,"current_range_meters":8000,"station_id":"ce4bh412rcd13ifvqdr0","pricing_plan_id":"cebpf4jnsgd1na2vs0mg"},{"bike_id":"8bcbfd65-fe31-4f79-8ab6-3f3954af8f76","system_id":"levelo_inurba_marseille","lat":43.27372,"lon":5.36256,"is_reserved":false,"is_disabled":false,"rental_uris":{"android":"levelo://app?vid=8bcbfd65-fe31-4f79-8ab6-3f3954af8f76","ios":"levelo://app?vid=8bcbfd65-fe31-4f79-8ab6-3f3954af8f76"},"vehicle_type_id":"4","last_reported":1743948497,"current_range_meters":8000,"station_id":"ce4bhbh2rcd13ifvqeo0","pricing_plan_id":"cebpf4jnsgd1na2vs0mg"},{"bike_id":"4c25fb76-cd0e-4544-8837-d2585ee48375","system_id":"levelo_inurba_marseille","lat":43.2989,"lon":5.43657,"is_reserved":false,"is_disabled":false,"rental_uris":{"android":"levelo://app?vid=4c25fb76-cd0e-4544-8837-d2585ee48375","ios":"levelo://app?vid=4c25fb76-cd0e-4544-8837-d2585ee48375"},"vehicle_type_id":"4","last_reported":1743948497,"current_range_meters":8000,"station_id":"ce4bhpp2rcd13ifvqhfg","pricing_plan_id":"cebpf4jnsgd1na2vs0mg"},{"bike_id":"d2bdca1e-68d8-42f9-9b0b-7745d2258199","system_id":"levelo_inurba_marseille","lat":43.29439,"lon":5.39756,"is_reserved":false,"is_disabled":false,"rental_uris":{"android":"levelo://app?vid=d2bdca1e-68d8-42f9-9b0b-7745d2258199","ios":"levelo://app?vid=d2bdca1e-68d8-42f9-9b0b-7745d2258199"},"vehicle_type_id":"4","last_reported":1743948497,"current_range_meters":8000,"station_id":"ce4bh3h2rcd13ifvqdo0","pricing_plan_id":"cebpf4jnsgd1na2vs0mg"},{"bike_id":"b6aff09a-778a-44df-bf04-e13fbe9acb4b","system_id":"levelo_inurba_marseille","lat":43.229362,"lon":5.353745,"is_reserved":false,"is_disabled":false,"rental_uris":{"android":"levelo://app?vid=b6aff09a-778a-44df-bf04-e13fbe9acb4b","ios":"levelo://app?vid=b6aff09a-778a-44df-bf04-e13fbe9acb4b"},"vehicle_type_id":"4","last_reported":1743948497,"current_range_meters":8000,"station_id":"cpo3532slgdg3j2ikp40","pricing_plan_id":"cebpf4jnsgd1na2vs0mg"},{"bike_id":"0285caab-1493-4e0b-b3ba-3eb4cd23dcb3","system_id":"levelo_inurba_marseille","lat":43.23966,"lon":5.36622,"is_reserved":false,"is_disabled":false,"rental_uris":{"android":"levelo://app?vid=0285caab-1493-4e0b-b3ba-3eb4cd23dcb3","ios":"levelo://app?vid=0285caab-1493-4e0b-b3ba-3eb4cd23dcb3"},"vehicle_type_id":"4","last_reported":1743948497,"current_range_meters":8000,"station_id":"ce4bhi12rcd13ifvqfp0","pricing_plan_id":"cebpf4jnsgd1na2vs0mg"},{"bike_id":"72ab5ae4-c45b-4b12-928d-904d18062df0","system_id":"levelo_inurba_marseille","lat":43.27373,"lon":5.36244,"is_reserved":false,"is_disabled":false,"rental_uris":{"android":"levelo://app?vid=72ab5ae4-c45b-4b12-928d-904d18062df0","ios":"levelo://app?vid=72ab5ae4-c45b-4b12-928d-904d18062df0"},"vehicle_type_id":"4","last_reported":1743948497,"current_range_meters":8000,"station_id":"ce4bhbh2rcd13ifvqeo0","pricing_plan_id":"cebpf4jnsgd1na2vs0mg"},{"bike_id":"d038f6bc-94ee-4332-b7fd-8b03da226fc5","system_id":"levelo_inurba_marseille","lat":43.22932,"lon":5.35373,"is_reserved":false,"is_disabled":false,"rental_uris":{"android":"levelo://app?vid=d038f6bc-94ee-4332-b7fd-8b03da226fc5","ios":"levelo://app?vid=d038f6bc-94ee-4332-b7fd-8b03da226fc5"},"vehicle_type_id":"4","last_reported":1743948497,"current_range_meters":8000,"station_id":"cpo3532slgdg3j2ikp40","pricing_plan_id":"cebpf4jnsgd1na2vs0mg"},{"bike_id":"45b4008f-54c1-4d17-8bbf-96f80d4fa84f","system_id":"levelo_inurba_marseille","lat":43.32115,"lon":5.36775,"is_reserved":false,"is_disabled":false,"rental_uris":{"android":"levelo://app?vid=45b4008f-54c1-4d17-8bbf-96f80d4fa84f","ios":"levelo://app?vid=45b4008f-54c1-4d17-8bbf-96f80d4fa84f"},"vehicle_type_id":"4","last_reported":1743948497,"current_range_meters":8000,"station_id":"ce4bhrh2rcd13ifvqhug","pricing_plan_id":"cebpf4jnsgd1na2vs0mg"},{"bike_id":"21fbe78f-0cdb-464b-90a2-7cac26cdac6d","system_id":"levelo_inurba_marseille","lat":43.2315,"lon":5.43706,"is_reserved":false,"is_disabled":false,"rental_uris":{"android":"levelo://app?vid=21fbe78f-0cdb-464b-90a2-7cac26cdac6d","ios":"levelo://app?vid=21fbe78f-0cdb-464b-90a2-7cac26cdac6d"},"vehicle_type_id":"4","last_reported":1743948497,"current_range_meters":8000,"station_id":"ce4bhmp2rcd13ifvqgog","pricing_plan_id":"cebpf4jnsgd1na2vs0mg"},{"bike_id":"f15ba88f-5aac-45f9-8380-292b55383a37","system_id":"levelo_inurba_marseille","lat":43.23055,"lon":5.35495,"is_reserved":false,"is_disabled":false,"rental_uris":{"android":"levelo://app?vid=f15ba88f-5aac-45f9-8380-292b55383a37","ios":"levelo://app?vid=f15ba88f-5aac-45f9-8380-292b55383a37"},"vehicle_type_id":"4","last_reported":1743948497,"current_range_meters":8400,"station_id":"cpo3342slgdg3j2ifvpg","pricing_plan_id":"cebpf4jnsgd1na2vs0mg"},{"bike_id":"619bed52-6ad3-4816-b72f-bebe3179f299","system_id":"levelo_inurba_marseille","lat":43.29668,"lon":5.36589,"is_reserved":false,"is_disabled":true,"rental_uris":{"android":"levelo://app?vid=619bed52-6ad3-4816-b72f-bebe3179f299","ios":"levelo://app?vid=619bed52-6ad3-4816-b72f-bebe3179f299"},"vehicle_type_id":"4","last_reported":1743948497,"current_range_meters":8400,"station_id":"ce4bgn12rcd13ifvqbt0","pricing_plan_id":"cebpf4jnsgd1na2vs0mg"},{"bike_id":"aeaafdce-072b-410b-bb71-bd5216dc505b","system_id":"levelo_inurba_marseille","lat":43.2313,"lon":5.40048,"is_reserved":false,"is_disabled":false,"rental_uris":{"android":"levelo://app?vid=aeaafdce-072b-410b-bb71-bd5216dc505b","ios":"levelo://app?vid=aeaafdce-072b-410b-bb71-bd5216dc505b"},"vehicle_type_id":"4","last_reported":1743948497,"current_range_meters":8400,"station_id":"","pricing_plan_id":"cebpf4jnsgd1na2vs0mg"},{"bike_id":"2d853ad8-798d-4c3a-acb9-fd19753730bc","system_id":"levelo_inurba_marseille","lat":43.301384,"lon":5.374224,"is_reserved":false,"is_disabled":false,"rental_uris":{"android":"levelo://app?vid=2d853ad8-798d-4c3a-acb9-fd19753730bc","ios":"levelo://app?vid=2d853ad8-798d-4c3a-acb9-fd19753730bc"},"vehicle_type_id":"4","last_reported":1743948497,"current_range_meters":8400,"station_id":"ce4bgs92rcd13ifvqcc0","pricing_plan_id":"cebpf4jnsgd1na2vs0mg"},{"bike_id":"301b6729-c45c-4915-8ef6-dadde3959d3d","system_id":"levelo_inurba_marseille","lat":43.265581,"lon":5.390071,"is_reserved":false,"is_disabled":true,"rental_uris":{"android":"levelo://app?vid=301b6729-c45c-4915-8ef6-dadde3959d3d","ios":"levelo://app?vid=301b6729-c45c-4915-8ef6-dadde3959d3d"},"vehicle_type_id":"4","last_reported":1743948497,"current_range_meters":8400,"station_id":"ce4bhe12rcd13ifvqf30","pricing_plan_id":"cebpf4jnsgd1na2vs0mg"},{"bike_id":"1d16e172-d477-4a96-8d7d-42ff6a622d2e","system_id":"levelo_inurba_marseille","lat":43.246968,"lon":5.411844,"is_reserved":false,"is_disabled":false,"rental_uris":{"android":"levelo://app?vid=1d16e172-d477-4a96-8d7d-42ff6a622d2e","ios":"levelo://app?vid=1d16e172-d477-4a96-8d7d-42ff6a622d2e"},"vehicle_type_id":"4","last_reported":1743948497,"current_range_meters":8400,"station_id":"","pricing_plan_id":"cebpf4jnsgd1na2vs0mg"},{"bike_id":"ac4a5b2d-4210-46fb-9a67-f2a87dc21c7e","system_id":"levelo_inurba_marseille","lat":43.24389,"lon":5.37064,"is_reserved":false,"is_disabled":false,"rental_uris":{"android":"levelo://app?vid=ac4a5b2d-4210-46fb-9a67-f2a87dc21c7e","ios":"levelo://app?vid=ac4a5b2d-4210-46fb-9a67-f2a87dc21c7e"},"vehicle_type_id":"4","last_reported":1743948497,"current_range_meters":8400,"station_id":"ce4bhhh2rcd13ifvqfk0","pricing_plan_id":"cebpf4jnsgd1na2vs0mg"},{"bike_id":"011cc122-d4ba-4750-994e-7597e9696a4b","system_id":"levelo_inurba_marseille","lat":43.30415,"lon":5.4129,"is_reserved":false,"is_disabled":false,"rental_uris":{"android":"levelo://app?vid=011cc122-d4ba-4750-994e-7597e9696a4b","ios":"levelo://app?vid=011cc122-d4ba-4750-994e-7597e9696a4b"},"vehicle_type_id":"4","last_reported":1743948497,"current_range_meters":4000,"station_id":"ce4bhop2rcd13ifvqh8g","pricing_plan_id":"cebpf4jnsgd1na2vs0mg"},{"bike_id":"b726ec3b-8f9d-4312-85b1-1ef3f1acb769","system_id":"levelo_inurba_marseille","lat":43.25504,"lon":5.37658,"is_reserved":false,"is_disabled":false,"rental_uris":{"android":"levelo://app?vid=b726ec3b-8f9d-4312-85b1-1ef3f1acb769","ios":"levelo://app?vid=b726ec3b-8f9d-4312-85b1-1ef3f1acb769"},"vehicle_type_id":"4","last_reported":1743948497,"current_range_meters":8400,"station_id":"ce4bhh12rcd13ifvqff0","pricing_plan_id":"cebpf4jnsgd1na2vs0mg"},{"bike_id":"7a935817-47e2-4cb3-8324-a647fdf3a140","system_id":"levelo_inurba_marseille","lat":43.295386,"lon":5.385431,"is_reserved":false,"is_disabled":true,"rental_uris":{"android":"levelo://app?vid=7a935817-47e2-4cb3-8324-a647fdf3a140","ios":"levelo://app?vid=7a935817-47e2-4cb3-8324-a647fdf3a140"},"vehicle_type_id":"4","last_reported":1743948497,"current_range_meters":8400,"station_id":"ce4bgih2rcd13ifvqba0","pricing_plan_id":"cebpf4jnsgd1na2vs0mg"},{"bike_id":"ea2c2262-d1e8-4919-b05e-255b894285a7","system_id":"levelo_inurba_marseille","lat":43.27363,"lon":5.36256,"is_reserved":false,"is_disabled":false,"rental_uris":{"android":"levelo://app?vid=ea2c2262-d1e8-4919-b05e-255b894285a7","ios":"levelo://app?vid=ea2c2262-d1e8-4919-b05e-255b894285a7"},"vehicle_type_id":"4","last_reported":1743948497,"current_range_meters":8400,"station_id":"ce4bhbh2rcd13ifvqeo0","pricing_plan_id":"cebpf4jnsgd1na2vs0mg"},{"bike_id":"38e02afc-974b-4aee-a9d7-0602836855d4","system_id":"levelo_inurba_marseille","lat":43.24169,"lon":5.36388,"is_reserved":false,"is_disabled":false,"rental_uris":{"android":"levelo://app?vid=38e02afc-974b-4aee-a9d7-0602836855d4","ios":"levelo://app?vid=38e02afc-974b-4aee-a9d7-0602836855d4"},"vehicle_type_id":"4","last_reported":1743948497,"current_range_meters":8400,"station_id":"cpo36qri1sfpv3e86is0","pricing_plan_id":"cebpf4jnsgd1na2vs0mg"},{"bike_id":"b059c917-8031-400c-a661-5fbb963bff9d","system_id":"levelo_inurba_marseille","lat":43.21196,"lon":5.3507,"is_reserved":false,"is_disabled":false,"rental_uris":{"android":"levelo://app?vid=b059c917-8031-400c-a661-5fbb963bff9d","ios":"levelo://app?vid=b059c917-8031-400c-a661-5fbb963bff9d"},"vehicle_type_id":"4","last_reported":1743948497,"current_range_meters":8800,"station_id":"","pricing_plan_id":"cebpf4jnsgd1na2vs0mg"},{"bike_id":"83382da3-dbcb-470d-a3f0-a19f58cf533a","system_id":"levelo_inurba_marseille","lat":43.27942,"lon":5.410481,"is_reserved":false,"is_disabled":false,"rental_uris":{"android":"levelo://app?vid=83382da3-dbcb-470d-a3f0-a19f58cf533a","ios":"levelo://app?vid=83382da3-dbcb-470d-a3f0-a19f58cf533a"},"vehicle_type_id":"4","last_reported":1743948497,"current_range_meters":8800,"station_id":"","pricing_plan_id":"cebpf4jnsgd1na2vs0mg"},{"bike_id":"9e3b5764-8142-480c-bebf-c27d87b47184","system_id":"levelo_inurba_marseille","lat":43.2318,"lon":5.35579,"is_reserved":false,"is_disabled":false,"rental_uris":{"android":"levelo://app?vid=9e3b5764-8142-480c-bebf-c27d87b47184","ios":"levelo://app?vid=9e3b5764-8142-480c-bebf-c27d87b47184"},"vehicle_type_id":"4","last_reported":1743948497,"current_range_meters":8800,"station_id":"ce4bhu92rcd13ifvqi70","pricing_plan_id":"cebpf4jnsgd1na2vs0mg"},{"bike_id":"b70cced5-dc6e-4ac4-aef4-4cfbee9a2e11","system_id":"levelo_inurba_marseille","lat":43.29605,"lon":5.37701,"is_reserved":false,"is_disabled":true,"rental_uris":{"android":"levelo://app?vid=b70cced5-dc6e-4ac4-aef4-4cfbee9a2e11","ios":"levelo://app?vid=b70cced5-dc6e-4ac4-aef4-4cfbee9a2e11"},"vehicle_type_id":"4","last_reported":1743948497,"current_range_meters":8800,"station_id":"ce4bgi92rcd13ifvqb90","pricing_plan_id":"cebpf4jnsgd1na2vs0mg"},{"bike_id":"d45e12a1-e0b1-434a-9664-ecd990299001","system_id":"levelo_inurba_marseille","lat":43.27617,"lon":5.36108,"is_reserved":false,"is_disabled":false,"rental_uris":{"android":"levelo://app?vid=d45e12a1-e0b1-434a-9664-ecd990299001","ios":"levelo://app?vid=d45e12a1-e0b1-434a-9664-ecd990299001"},"vehicle_type_id":"4","last_reported":1743948497,"current_range_meters":8800,"station_id":"ce4bgj92rcd13ifvqbe0","pricing_plan_id":"cebpf4jnsgd1na2vs0mg"},{"bike_id":"dfe033e5-eb50-4610-85ee-430cd4939587","system_id":"levelo_inurba_marseille","lat":43.27615,"lon":5.36114,"is_reserved":false,"is_disabled":true,"rental_uris":{"android":"levelo://app?vid=dfe033e5-eb50-4610-85ee-430cd4939587","ios":"levelo://app?vid=dfe033e5-eb50-4610-85ee-430cd4939587"},"vehicle_type_id":"4","last_reported":1743948497,"current_range_meters":8800,"station_id":"ce4bgj92rcd13ifvqbe0","pricing_plan_id":"cebpf4jnsgd1na2vs0mg"},{"bike_id":"1b996ba0-5f03-45f2-9dbb-f157b9dad3dc","system_id":"levelo_inurba_marseille","lat":43.21194,"lon":5.35071,"is_reserved":false,"is_disabled":false,"rental_uris":{"android":"levelo://app?vid=1b996ba0-5f03-45f2-9dbb-f157b9dad3dc","ios":"levelo://app?vid=1b996ba0-5f03-45f2-9dbb-f157b9dad3dc"},"vehicle_type_id":"4","last_reported":1743948497,"current_range_meters":9200,"station_id":"st_cvj6sg6p6f1abm77japg","pricing_plan_id":"cebpf4jnsgd1na2vs0mg"},{"bike_id":"1622461e-25a5-4ec6-9188-643400d8cf0e","system_id":"levelo_inurba_marseille","lat":43.307987,"lon":5.435274,"is_reserved":false,"is_disabled":false,"rental_uris":{"android":"levelo://app?vid=1622461e-25a5-4ec6-9188-643400d8cf0e","ios":"levelo://app?vid=1622461e-25a5-4ec6-9188-643400d8cf0e"},"vehicle_type_id":"4","last_reported":1743948497,"current_range_meters":9200,"station_id":"ce4bhph2rcd13ifvqheg","pricing_plan_id":"cebpf4jnsgd1na2vs0mg"},{"bike_id":"1bf28fcd-357a-43a7-b215-31bb2951a59c","system_id":"levelo_inurba_marseille","lat":43.295627,"lon":5.422809,"is_reserved":false,"is_disabled":false,"rental_uris":{"android":"levelo://app?vid=1bf28fcd-357a-43a7-b215-31bb2951a59c","ios":"levelo://app?vid=1bf28fcd-357a-43a7-b215-31bb2951a59c"},"vehicle_type_id":"4","last_reported":1743948497,"current_range_meters":9200,"station_id":"ce4bhph2rcd13ifvqhdg","pricing_plan_id":"cebpf4jnsgd1na2vs0mg"},{"bike_id":"110d8353-aebe-4637-baa8-05e52ab0a36d","system_id":"levelo_inurba_marseille","lat":43.30886,"lon":5.39651,"is_reserved":false,"is_disabled":false,"rental_uris":{"android":"levelo://app?vid=110d8353-aebe-4637-baa8-05e52ab0a36d","ios":"levelo://app?vid=110d8353-aebe-4637-baa8-05e52ab0a36d"},"vehicle_type_id":"4","last_reported":1743948497,"current_range_meters":8800,"station_id":"ce4bh012rcd13ifvqcv0","pricing_plan_id":"cebpf4jnsgd1na2vs0mg"},{"bike_id":"25cac0ac-e925-4256-90b0-fda8e32689e7","system_id":"levelo_inurba_marseille","lat":43.21193,"lon":5.35074,"is_reserved":false,"is_disabled":false,"rental_uris":{"android":"levelo://app?vid=25cac0ac-e925-4256-90b0-fda8e32689e7","ios":"levelo://app?vid=25cac0ac-e925-4256-90b0-fda8e32689e7"},"vehicle_type_id":"4","last_reported":1743948497,"current_range_meters":9200,"station_id":"st_cvj6sg6p6f1abm77japg","pricing_plan_id":"cebpf4jnsgd1na2vs0mg"},{"bike_id":"93fc8dfc-462b-43f0-8db4-ed42e26eacff","system_id":"levelo_inurba_marseille","lat":43.27361,"lon":5.36252,"is_reserved":false,"is_disabled":false,"rental_uris":{"android":"levelo://app?vid=93fc8dfc-462b-43f0-8db4-ed42e26eacff","ios":"levelo://app?vid=93fc8dfc-462b-43f0-8db4-ed42e26eacff"},"vehicle_type_id":"4","last_reported":1743948497,"current_range_meters":9600,"station_id":"ce4bhbh2rcd13ifvqeo0","pricing_plan_id":"cebpf4jnsgd1na2vs0mg"},{"bike_id":"36a4517f-79a0-4298-a368-b9c55fc5d42d","system_id":"levelo_inurba_marseille","lat":43.22925,"lon":5.35377,"is_reserved":false,"is_disabled":false,"rental_uris":{"android":"levelo://app?vid=36a4517f-79a0-4298-a368-b9c55fc5d42d","ios":"levelo://app?vid=36a4517f-79a0-4298-a368-b9c55fc5d42d"},"vehicle_type_id":"4","last_reported":1743948497,"current_range_meters":9600,"station_id":"cpo3532slgdg3j2ikp40","pricing_plan_id":"cebpf4jnsgd1na2vs0mg"},{"bike_id":"067eb52e-2cfb-44df-809a-b81fe9382134","system_id":"levelo_inurba_marseille","lat":43.25585,"lon":5.38231,"is_reserved":false,"is_disabled":false,"rental_uris":{"android":"levelo://app?vid=067eb52e-2cfb-44df-809a-b81fe9382134","ios":"levelo://app?vid=067eb52e-2cfb-44df-809a-b81fe9382134"},"vehicle_type_id":"4","last_reported":1743948497,"current_range_meters":9600,"station_id":"ce4bhih2rcd13ifvqfs0","pricing_plan_id":"cebpf4jnsgd1na2vs0mg"},{"bike_id":"4f7c2cc0-5ad1-402b-80a6-41908fad589f","system_id":"levelo_inurba_marseille","lat":43.22933,"lon":5.35413,"is_reserved":false,"is_disabled":false,"rental_uris":{"android":"levelo://app?vid=4f7c2cc0-5ad1-402b-80a6-41908fad589f","ios":"levelo://app?vid=4f7c2cc0-5ad1-402b-80a6-41908fad589f"},"vehicle_type_id":"4","last_reported":1743948497,"current_range_meters":9600,"station_id":"cpo3532slgdg3j2ikp40","pricing_plan_id":"cebpf4jnsgd1na2vs0mg"},{"bike_id":"71dc840a-2175-4b66-91da-3b59357cee99","system_id":"levelo_inurba_marseille","lat":43.27366,"lon":5.36227,"is_reserved":false,"is_disabled":false,"rental_uris":{"android":"levelo://app?vid=71dc840a-2175-4b66-91da-3b59357cee99","ios":"levelo://app?vid=71dc840a-2175-4b66-91da-3b59357cee99"},"vehicle_type_id":"4","last_reported":1743948497,"current_range_meters":9600,"station_id":"ce4bhbh2rcd13ifvqeo0","pricing_plan_id":"cebpf4jnsgd1na2vs0mg"},{"bike_id":"a88093fa-22ae-4a8d-8192-1b19c925debc","system_id":"levelo_inurba_marseille","lat":43.28411,"lon":5.37512,"is_reserved":false,"is_disabled":false,"rental_uris":{"android":"levelo://app?vid=a88093fa-22ae-4a8d-8192-1b19c925debc","ios":"levelo://app?vid=a88093fa-22ae-4a8d-8192-1b19c925debc"},"vehicle_type_id":"4","last_reported":1743948497,"current_range_meters":9600,"station_id":"ce4bh412rcd13ifvqds0","pricing_plan_id":"cebpf4jnsgd1na2vs0mg"},{"bike_id":"f5cb4377-0499-4c44-9a42-26db7c19bb29","system_id":"levelo_inurba_marseille","lat":43.28444,"lon":5.39205,"is_reserved":false,"is_disabled":false,"rental_uris":{"android":"levelo://app?vid=f5cb4377-0499-4c44-9a42-26db7c19bb29","ios":"levelo://app?vid=f5cb4377-0499-4c44-9a42-26db7c19bb29"},"vehicle_type_id":"4","last_reported":1743948497,"current_range_meters":10000,"station_id":"ce4bhoh2rcd13ifvqh5g","pricing_plan_id":"cebpf4jnsgd1na2vs0mg"},{"bike_id":"00393ee2-317d-4e98-a30d-fd25773ef49f","system_id":"levelo_inurba_marseille","lat":43.35231,"lon":5.35789,"is_reserved":false,"is_disabled":false,"rental_uris":{"android":"levelo://app?vid=00393ee2-317d-4e98-a30d-fd25773ef49f","ios":"levelo://app?vid=00393ee2-317d-4e98-a30d-fd25773ef49f"},"vehicle_type_id":"4","last_reported":1743948497,"current_range_meters":10000,"station_id":"","pricing_plan_id":"cebpf4jnsgd1na2vs0mg"},{"bike_id":"9c9e91df-e133-414a-8295-3f6a292805f6","system_id":"levelo_inurba_marseille","lat":43.23194,"lon":5.35562,"is_reserved":false,"is_disabled":true,"rental_uris":{"android":"levelo://app?vid=9c9e91df-e133-414a-8295-3f6a292805f6","ios":"levelo://app?vid=9c9e91df-e133-414a-8295-3f6a292805f6"},"vehicle_type_id":"4","last_reported":1743948497,"current_range_meters":10000,"station_id":"ce4bhu92rcd13ifvqi70","pricing_plan_id":"cebpf4jnsgd1na2vs0mg"},{"bike_id":"bbc3b36d-576a-4991-8fe2-ad153ebc27d7","system_id":"levelo_inurba_marseille","lat":43.28103,"lon":5.37831,"is_reserved":false,"is_disabled":false,"rental_uris":{"android":"levelo://app?vid=bbc3b36d-576a-4991-8fe2-ad153ebc27d7","ios":"levelo://app?vid=bbc3b36d-576a-4991-8fe2-ad153ebc27d7"},"vehicle_type_id":"4","last_reported":1743948497,"current_range_meters":9600,"station_id":"ce4bha12rcd13ifvqee0","pricing_plan_id":"cebpf4jnsgd1na2vs0mg"},{"bike_id":"08af8848-62cb-4828-92f8-13e4351276a2","system_id":"levelo_inurba_marseille","lat":43.28413,"lon":5.34996,"is_reserved":false,"is_disabled":false,"rental_uris":{"android":"levelo://app?vid=08af8848-62cb-4828-92f8-13e4351276a2","ios":"levelo://app?vid=08af8848-62cb-4828-92f8-13e4351276a2"},"vehicle_type_id":"4","last_reported":1743948497,"current_range_meters":10000,"station_id":"ce4bhbh2rcd13ifvqepg","pricing_plan_id":"cebpf4jnsgd1na2vs0mg"},{"bike_id":"4c3dcad7-00b9-4d23-8b73-a16f2077110d","system_id":"levelo_inurba_marseille","lat":43.26035,"lon":5.37558,"is_reserved":false,"is_disabled":false,"rental_uris":{"android":"levelo://app?vid=4c3dcad7-00b9-4d23-8b73-a16f2077110d","ios":"levelo://app?vid=4c3dcad7-00b9-4d23-8b73-a16f2077110d"},"vehicle_type_id":"4","last_reported":1743948497,"current_range_meters":10000,"station_id":"ce4bhgh2rcd13ifvqfa0","pricing_plan_id":"cebpf4jnsgd1na2vs0mg"},{"bike_id":"6eadcb9a-0559-44c8-a86d-bf16443cf156","system_id":"levelo_inurba_marseille","lat":43.30196,"lon":5.36632,"is_reserved":false,"is_disabled":false,"rental_uris":{"android":"levelo://app?vid=6eadcb9a-0559-44c8-a86d-bf16443cf156","ios":"levelo://app?vid=6eadcb9a-0559-44c8-a86d-bf16443cf156"},"vehicle_type_id":"4","last_reported":1743948497,"current_range_meters":9600,"station_id":"ce4bgrh2rcd13ifvqc8g","pricing_plan_id":"cebpf4jnsgd1na2vs0mg"},{"bike_id":"aa9b59b6-65cb-49e0-b211-3fb1aecd03a8","system_id":"levelo_inurba_marseille","lat":43.29231,"lon":5.36052,"is_reserved":false,"is_disabled":true,"rental_uris":{"android":"levelo://app?vid=aa9b59b6-65cb-49e0-b211-3fb1aecd03a8","ios":"levelo://app?vid=aa9b59b6-65cb-49e0-b211-3fb1aecd03a8"},"vehicle_type_id":"4","last_reported":1743948497,"current_range_meters":10000,"station_id":"","pricing_plan_id":"cebpf4jnsgd1na2vs0mg"},{"bike_id":"a6289d56-7d3e-45ed-85c0-e968dbbbf30e","system_id":"levelo_inurba_marseille","lat":43.2319,"lon":5.39987,"is_reserved":false,"is_disabled":false,"rental_uris":{"android":"levelo://app?vid=a6289d56-7d3e-45ed-85c0-e968dbbbf30e","ios":"levelo://app?vid=a6289d56-7d3e-45ed-85c0-e968dbbbf30e"},"vehicle_type_id":"4","last_reported":1743948497,"current_range_meters":9600,"station_id":"ce4bhn12rcd13ifvqgqg","pricing_plan_id":"cebpf4jnsgd1na2vs0mg"},{"bike_id":"0db79626-80f8-4250-8bc9-558f5d952fb2","system_id":"levelo_inurba_marseille","lat":43.23146,"lon":5.43703,"is_reserved":false,"is_disabled":false,"rental_uris":{"android":"levelo://app?vid=0db79626-80f8-4250-8bc9-558f5d952fb2","ios":"levelo://app?vid=0db79626-80f8-4250-8bc9-558f5d952fb2"},"vehicle_type_id":"4","last_reported":1743948497,"current_range_meters":10000,"station_id":"ce4bhmp2rcd13ifvqgog","pricing_plan_id":"cebpf4jnsgd1na2vs0mg"},{"bike_id":"6023584e-870f-454d-88b0-bf3dc0e21fbe","system_id":"levelo_inurba_marseille","lat":43.24389,"lon":5.37073,"is_reserved":false,"is_disabled":true,"rental_uris":{"android":"levelo://app?vid=6023584e-870f-454d-88b0-bf3dc0e21fbe","ios":"levelo://app?vid=6023584e-870f-454d-88b0-bf3dc0e21fbe"},"vehicle_type_id":"4","last_reported":1743948497,"current_range_meters":10000,"station_id":"ce4bhhh2rcd13ifvqfk0","pricing_plan_id":"cebpf4jnsgd1na2vs0mg"},{"bike_id":"abde5d83-9b30-4b2f-8a88-f914ca452329","system_id":"levelo_inurba_marseille","lat":43.31223,"lon":5.38698,"is_reserved":false,"is_disabled":false,"rental_uris":{"android":"levelo://app?vid=abde5d83-9b30-4b2f-8a88-f914ca452329","ios":"levelo://app?vid=abde5d83-9b30-4b2f-8a88-f914ca452329"},"vehicle_type_id":"4","last_reported":1743948497,"current_range_meters":10800,"station_id":"","pricing_plan_id":"cebpf4jnsgd1na2vs0mg"},{"bike_id":"414afd3d-5c32-4d43-b642-031e0ea52620","system_id":"levelo_inurba_marseille","lat":43.25499,"lon":5.37656,"is_reserved":false,"is_disabled":false,"rental_uris":{"android":"levelo://app?vid=414afd3d-5c32-4d43-b642-031e0ea52620","ios":"levelo://app?vid=414afd3d-5c32-4d43-b642-031e0ea52620"},"vehicle_type_id":"4","last_reported":1743948497,"current_range_meters":10800,"station_id":"ce4bhh12rcd13ifvqff0","pricing_plan_id":"cebpf4jnsgd1na2vs0mg"},{"bike_id":"ceba594e-ff69-4140-828e-f8a961103e51","system_id":"levelo_inurba_marseille","lat":43.241694,"lon":5.364056,"is_reserved":false,"is_disabled":false,"rental_uris":{"android":"levelo://app?vid=ceba594e-ff69-4140-828e-f8a961103e51","ios":"levelo://app?vid=ceba594e-ff69-4140-828e-f8a961103e51"},"vehicle_type_id":"4","last_reported":1743948497,"current_range_meters":10800,"station_id":"cpo36qri1sfpv3e86is0","pricing_plan_id":"cebpf4jnsgd1na2vs0mg"},{"bike_id":"8c9c4a8b-8458-4198-a8fa-49c4e41dda49","system_id":"levelo_inurba_marseille","lat":43.21187,"lon":5.35076,"is_reserved":false,"is_disabled":false,"rental_uris":{"android":"levelo://app?vid=8c9c4a8b-8458-4198-a8fa-49c4e41dda49","ios":"levelo://app?vid=8c9c4a8b-8458-4198-a8fa-49c4e41dda49"},"vehicle_type_id":"4","last_reported":1743948497,"current_range_meters":10800,"station_id":"st_cvj6sg6p6f1abm77japg","pricing_plan_id":"cebpf4jnsgd1na2vs0mg"},{"bike_id":"29d2e67f-ecce-4d08-ad56-230bfaeccf2b","system_id":"levelo_inurba_marseille","lat":43.23193,"lon":5.35556,"is_reserved":false,"is_disabled":false,"rental_uris":{"android":"levelo://app?vid=29d2e67f-ecce-4d08-ad56-230bfaeccf2b","ios":"levelo://app?vid=29d2e67f-ecce-4d08-ad56-230bfaeccf2b"},"vehicle_type_id":"4","last_reported":1743948497,"current_range_meters":10800,"station_id":"ce4bhu92rcd13ifvqi70","pricing_plan_id":"cebpf4jnsgd1na2vs0mg"},{"bike_id":"081221f2-46f1-4cc4-a0d8-dd4bc90bb897","system_id":"levelo_inurba_marseille","lat":43.28038,"lon":5.36947,"is_reserved":false,"is_disabled":false,"rental_uris":{"android":"levelo://app?vid=081221f2-46f1-4cc4-a0d8-dd4bc90bb897","ios":"levelo://app?vid=081221f2-46f1-4cc4-a0d8-dd4bc90bb897"},"vehicle_type_id":"4","last_reported":1743948497,"current_range_meters":10000,"station_id":"ce4bha12rcd13ifvqef0","pricing_plan_id":"cebpf4jnsgd1na2vs0mg"},{"bike_id":"9105ce6d-e133-4bc7-97da-a36cdf0aa31c","system_id":"levelo_inurba_marseille","lat":43.29893,"lon":5.43662,"is_reserved":false,"is_disabled":false,"rental_uris":{"android":"levelo://app?vid=9105ce6d-e133-4bc7-97da-a36cdf0aa31c","ios":"levelo://app?vid=9105ce6d-e133-4bc7-97da-a36cdf0aa31c"},"vehicle_type_id":"4","last_reported":1743948497,"current_range_meters":10800,"station_id":"ce4bhpp2rcd13ifvqhfg","pricing_plan_id":"cebpf4jnsgd1na2vs0mg"},{"bike_id":"335840f8-43f6-4ebf-8c1e-0d9ac795f563","system_id":"levelo_inurba_marseille","lat":43.27379,"lon":5.36248,"is_reserved":false,"is_disabled":false,"rental_uris":{"android":"levelo://app?vid=335840f8-43f6-4ebf-8c1e-0d9ac795f563","ios":"levelo://app?vid=335840f8-43f6-4ebf-8c1e-0d9ac795f563"},"vehicle_type_id":"4","last_reported":1743948497,"current_range_meters":10800,"station_id":"ce4bhbh2rcd13ifvqeo0","pricing_plan_id":"cebpf4jnsgd1na2vs0mg"},{"bike_id":"7fd0635d-68ad-4ce6-a52b-daef56987b4b","system_id":"levelo_inurba_marseille","lat":43.30867,"lon":5.38619,"is_reserved":false,"is_disabled":false,"rental_uris":{"android":"levelo://app?vid=7fd0635d-68ad-4ce6-a52b-daef56987b4b","ios":"levelo://app?vid=7fd0635d-68ad-4ce6-a52b-daef56987b4b"},"vehicle_type_id":"4","last_reported":1743948497,"current_range_meters":10800,"station_id":"","pricing_plan_id":"cebpf4jnsgd1na2vs0mg"},{"bike_id":"c1eb280b-aae9-48bd-bd47-36bd712edc92","system_id":"levelo_inurba_marseille","lat":43.27362,"lon":5.36245,"is_reserved":false,"is_disabled":false,"rental_uris":{"android":"levelo://app?vid=c1eb280b-aae9-48bd-bd47-36bd712edc92","ios":"levelo://app?vid=c1eb280b-aae9-48bd-bd47-36bd712edc92"},"vehicle_type_id":"4","last_reported":1743948497,"current_range_meters":10800,"station_id":"ce4bhbh2rcd13ifvqeo0","pricing_plan_id":"cebpf4jnsgd1na2vs0mg"},{"bike_id":"136b6e45-ee21-453e-aa22-e07947db9071","system_id":"levelo_inurba_marseille","lat":43.231496,"lon":5.437108,"is_reserved":false,"is_disabled":true,"rental_uris":{"android":"levelo://app?vid=136b6e45-ee21-453e-aa22-e07947db9071","ios":"levelo://app?vid=136b6e45-ee21-453e-aa22-e07947db9071"},"vehicle_type_id":"4","last_reported":1743948497,"current_range_meters":10800,"station_id":"ce4bhmp2rcd13ifvqgog","pricing_plan_id":"cebpf4jnsgd1na2vs0mg"},{"bike_id":"a207bfeb-ca76-43cd-b7fc-2d4d77b7e795","system_id":"levelo_inurba_marseille","lat":43.26557,"lon":5.39008,"is_reserved":false,"is_disabled":false,"rental_uris":{"android":"levelo://app?vid=a207bfeb-ca76-43cd-b7fc-2d4d77b7e795","ios":"levelo://app?vid=a207bfeb-ca76-43cd-b7fc-2d4d77b7e795"},"vehicle_type_id":"4","last_reported":1743948497,"current_range_meters":11200,"station_id":"ce4bhe12rcd13ifvqf30","pricing_plan_id":"cebpf4jnsgd1na2vs0mg"},{"bike_id":"17fc7647-bad1-4b07-ba62-5e61d19113ae","system_id":"levelo_inurba_marseille","lat":43.25503,"lon":5.37641,"is_reserved":false,"is_disabled":false,"rental_uris":{"android":"levelo://app?vid=17fc7647-bad1-4b07-ba62-5e61d19113ae","ios":"levelo://app?vid=17fc7647-bad1-4b07-ba62-5e61d19113ae"},"vehicle_type_id":"4","last_reported":1743948497,"current_range_meters":11200,"station_id":"ce4bhh12rcd13ifvqff0","pricing_plan_id":"cebpf4jnsgd1na2vs0mg"},{"bike_id":"f8321878-9e9a-4e56-8919-d9cad8905f3c","system_id":"levelo_inurba_marseille","lat":43.30544,"lon":5.36509,"is_reserved":false,"is_disabled":true,"rental_uris":{"android":"levelo://app?vid=f8321878-9e9a-4e56-8919-d9cad8905f3c","ios":"levelo://app?vid=f8321878-9e9a-4e56-8919-d9cad8905f3c"},"vehicle_type_id":"4","last_reported":1743948497,"current_range_meters":11200,"station_id":"ce4bgs12rcd13ifvqcag","pricing_plan_id":"cebpf4jnsgd1na2vs0mg"},{"bike_id":"b71b02b1-12bc-45c4-a8aa-ef79cda3221c","system_id":"levelo_inurba_marseille","lat":43.21749,"lon":5.34611,"is_reserved":false,"is_disabled":false,"rental_uris":{"android":"levelo://app?vid=b71b02b1-12bc-45c4-a8aa-ef79cda3221c","ios":"levelo://app?vid=b71b02b1-12bc-45c4-a8aa-ef79cda3221c"},"vehicle_type_id":"4","last_reported":1743948497,"current_range_meters":11200,"station_id":"st_cvj6r9ubvosntc0bgbag","pricing_plan_id":"cebpf4jnsgd1na2vs0mg"},{"bike_id":"647a75b9-663f-4c74-a8cf-6c9e411cd750","system_id":"levelo_inurba_marseille","lat":43.25502,"lon":5.37649,"is_reserved":false,"is_disabled":false,"rental_uris":{"android":"levelo://app?vid=647a75b9-663f-4c74-a8cf-6c9e411cd750","ios":"levelo://app?vid=647a75b9-663f-4c74-a8cf-6c9e411cd750"},"vehicle_type_id":"4","last_reported":1743948497,"current_range_meters":11200,"station_id":"ce4bhh12rcd13ifvqff0","pricing_plan_id":"cebpf4jnsgd1na2vs0mg"},{"bike_id":"aab17747-ef50-479d-87f4-f5d51b95e7cd","system_id":"levelo_inurba_marseille","lat":43.27364,"lon":5.36241,"is_reserved":false,"is_disabled":false,"rental_uris":{"android":"levelo://app?vid=aab17747-ef50-479d-87f4-f5d51b95e7cd","ios":"levelo://app?vid=aab17747-ef50-479d-87f4-f5d51b95e7cd"},"vehicle_type_id":"4","last_reported":1743948497,"current_range_meters":11200,"station_id":"ce4bhbh2rcd13ifvqeo0","pricing_plan_id":"cebpf4jnsgd1na2vs0mg"},{"bike_id":"c14445a1-0326-40eb-a9f9-131d6afdb50a","system_id":"levelo_inurba_marseille","lat":43.23149,"lon":5.43715,"is_reserved":false,"is_disabled":false,"rental_uris":{"android":"levelo://app?vid=c14445a1-0326-40eb-a9f9-131d6afdb50a","ios":"levelo://app?vid=c14445a1-0326-40eb-a9f9-131d6afdb50a"},"vehicle_type_id":"4","last_reported":1743948497,"current_range_meters":11200,"station_id":"ce4bhmp2rcd13ifvqgog","pricing_plan_id":"cebpf4jnsgd1na2vs0mg"},{"bike_id":"1f9006c0-6130-498f-9399-ca1c8ff0c462","system_id":"levelo_inurba_marseille","lat":43.3211,"lon":5.36772,"is_reserved":false,"is_disabled":false,"rental_uris":{"android":"levelo://app?vid=1f9006c0-6130-498f-9399-ca1c8ff0c462","ios":"levelo://app?vid=1f9006c0-6130-498f-9399-ca1c8ff0c462"},"vehicle_type_id":"4","last_reported":1743948497,"current_range_meters":11200,"station_id":"ce4bhrh2rcd13ifvqhug","pricing_plan_id":"cebpf4jnsgd1na2vs0mg"},{"bike_id":"8908f5a3-3568-458d-bd58-b80b0bebbfd4","system_id":"levelo_inurba_marseille","lat":43.2175,"lon":5.34603,"is_reserved":false,"is_disabled":false,"rental_uris":{"android":"levelo://app?vid=8908f5a3-3568-458d-bd58-b80b0bebbfd4","ios":"levelo://app?vid=8908f5a3-3568-458d-bd58-b80b0bebbfd4"},"vehicle_type_id":"4","last_reported":1743948497,"current_range_meters":11600,"station_id":"st_cvj6r9ubvosntc0bgbag","pricing_plan_id":"cebpf4jnsgd1na2vs0mg"},{"bike_id":"37f814b9-403f-40ad-b071-2087efed3713","system_id":"levelo_inurba_marseille","lat":43.23187,"lon":5.35558,"is_reserved":false,"is_disabled":false,"rental_uris":{"android":"levelo://app?vid=37f814b9-403f-40ad-b071-2087efed3713","ios":"levelo://app?vid=37f814b9-403f-40ad-b071-2087efed3713"},"vehicle_type_id":"4","last_reported":1743948497,"current_range_meters":11600,"station_id":"ce4bhu92rcd13ifvqi70","pricing_plan_id":"cebpf4jnsgd1na2vs0mg"},{"bike_id":"c3e6d442-6282-4c88-9f90-93d85aff9e76","system_id":"levelo_inurba_marseille","lat":43.28158,"lon":5.42642,"is_reserved":false,"is_disabled":false,"rental_uris":{"android":"levelo://app?vid=c3e6d442-6282-4c88-9f90-93d85aff9e76","ios":"levelo://app?vid=c3e6d442-6282-4c88-9f90-93d85aff9e76"},"vehicle_type_id":"4","last_reported":1743948497,"current_range_meters":11600,"station_id":"ce4bhnh2rcd13ifvqgug","pricing_plan_id":"cebpf4jnsgd1na2vs0mg"},{"bike_id":"67a01fd5-0edb-4cbc-9e46-03213dac2452","system_id":"levelo_inurba_marseille","lat":43.29555,"lon":5.42281,"is_reserved":false,"is_disabled":false,"rental_uris":{"android":"levelo://app?vid=67a01fd5-0edb-4cbc-9e46-03213dac2452","ios":"levelo://app?vid=67a01fd5-0edb-4cbc-9e46-03213dac2452"},"vehicle_type_id":"4","last_reported":1743948497,"current_range_meters":11600,"station_id":"ce4bhph2rcd13ifvqhdg","pricing_plan_id":"cebpf4jnsgd1na2vs0mg"},{"bike_id":"5d40b06b-f88c-438b-a124-c6e520eec699","system_id":"levelo_inurba_marseille","lat":43.27379,"lon":5.36283,"is_reserved":false,"is_disabled":false,"rental_uris":{"android":"levelo://app?vid=5d40b06b-f88c-438b-a124-c6e520eec699","ios":"levelo://app?vid=5d40b06b-f88c-438b-a124-c6e520eec699"},"vehicle_type_id":"4","last_reported":1743948497,"current_range_meters":11600,"station_id":"ce4bhbh2rcd13ifvqeo0","pricing_plan_id":"cebpf4jnsgd1na2vs0mg"},{"bike_id":"7d2dde4f-5a6a-4005-a47e-231c9dacefe3","system_id":"levelo_inurba_marseille","lat":43.30803,"lon":5.43516,"is_reserved":false,"is_disabled":false,"rental_uris":{"android":"levelo://app?vid=7d2dde4f-5a6a-4005-a47e-231c9dacefe3","ios":"levelo://app?vid=7d2dde4f-5a6a-4005-a47e-231c9dacefe3"},"vehicle_type_id":"4","last_reported":1743948497,"current_range_meters":12000,"station_id":"ce4bhph2rcd13ifvqheg","pricing_plan_id":"cebpf4jnsgd1na2vs0mg"},{"bike_id":"c9bcb9ed-89fa-4f1d-bf29-12fb5d644696","system_id":"levelo_inurba_marseille","lat":43.27984,"lon":5.41666,"is_reserved":false,"is_disabled":false,"rental_uris":{"android":"levelo://app?vid=c9bcb9ed-89fa-4f1d-bf29-12fb5d644696","ios":"levelo://app?vid=c9bcb9ed-89fa-4f1d-bf29-12fb5d644696"},"vehicle_type_id":"4","last_reported":1743948497,"current_range_meters":12000,"station_id":"ce4bho12rcd13ifvqh1g","pricing_plan_id":"cebpf4jnsgd1na2vs0mg"},{"bike_id":"dc45df70-0146-41c2-a6d2-c36f17b6c84a","system_id":"levelo_inurba_marseille","lat":43.21747,"lon":5.34601,"is_reserved":false,"is_disabled":false,"rental_uris":{"android":"levelo://app?vid=dc45df70-0146-41c2-a6d2-c36f17b6c84a","ios":"levelo://app?vid=dc45df70-0146-41c2-a6d2-c36f17b6c84a"},"vehicle_type_id":"4","last_reported":1743948497,"current_range_meters":12000,"station_id":"st_cvj6r9ubvosntc0bgbag","pricing_plan_id":"cebpf4jnsgd1na2vs0mg"},{"bike_id":"82583482-0259-432c-b81b-e2806f193735","system_id":"levelo_inurba_marseille","lat":43.24158,"lon":5.36427,"is_reserved":false,"is_disabled":false,"rental_uris":{"android":"levelo://app?vid=82583482-0259-432c-b81b-e2806f193735","ios":"levelo://app?vid=82583482-0259-432c-b81b-e2806f193735"},"vehicle_type_id":"4","last_reported":1743948497,"current_range_meters":12000,"station_id":"cpo36qri1sfpv3e86is0","pricing_plan_id":"cebpf4jnsgd1na2vs0mg"},{"bike_id":"7668f761-9190-4c5c-808e-7ba3a37a0437","system_id":"levelo_inurba_marseille","lat":43.306437,"lon":5.401033,"is_reserved":false,"is_disabled":false,"rental_uris":{"android":"levelo://app?vid=7668f761-9190-4c5c-808e-7ba3a37a0437","ios":"levelo://app?vid=7668f761-9190-4c5c-808e-7ba3a37a0437"},"vehicle_type_id":"4","last_reported":1743948497,"current_range_meters":12000,"station_id":"ce4bh112rcd13ifvqda0","pricing_plan_id":"cebpf4jnsgd1na2vs0mg"},{"bike_id":"07c70779-485e-4f30-96f9-ae110958213e","system_id":"levelo_inurba_marseille","lat":43.21746,"lon":5.34606,"is_reserved":false,"is_disabled":false,"rental_uris":{"android":"levelo://app?vid=07c70779-485e-4f30-96f9-ae110958213e","ios":"levelo://app?vid=07c70779-485e-4f30-96f9-ae110958213e"},"vehicle_type_id":"4","last_reported":1743948497,"current_range_meters":12000,"station_id":"st_cvj6r9ubvosntc0bgbag","pricing_plan_id":"cebpf4jnsgd1na2vs0mg"},{"bike_id":"f7e3b8fa-9062-4469-bcee-58c5aa5cfb6e","system_id":"levelo_inurba_marseille","lat":43.29539,"lon":5.38551,"is_reserved":false,"is_disabled":true,"rental_uris":{"android":"levelo://app?vid=f7e3b8fa-9062-4469-bcee-58c5aa5cfb6e","ios":"levelo://app?vid=f7e3b8fa-9062-4469-bcee-58c5aa5cfb6e"},"vehicle_type_id":"4","last_reported":1743948497,"current_range_meters":12000,"station_id":"ce4bgih2rcd13ifvqba0","pricing_plan_id":"cebpf4jnsgd1na2vs0mg"},{"bike_id":"19379d7b-b3b4-46ff-9af1-6370bf06ecc3","system_id":"levelo_inurba_marseille","lat":43.289987,"lon":5.356135,"is_reserved":false,"is_disabled":true,"rental_uris":{"android":"levelo://app?vid=19379d7b-b3b4-46ff-9af1-6370bf06ecc3","ios":"levelo://app?vid=19379d7b-b3b4-46ff-9af1-6370bf06ecc3"},"vehicle_type_id":"4","last_reported":1743948497,"current_range_meters":12000,"station_id":"ce4bhb92rcd13ifvqen0","pricing_plan_id":"cebpf4jnsgd1na2vs0mg"},{"bike_id":"2f73db1d-d88a-4ee0-af49-5127f513333a","system_id":"levelo_inurba_marseille","lat":43.26558,"lon":5.37286,"is_reserved":false,"is_disabled":false,"rental_uris":{"android":"levelo://app?vid=2f73db1d-d88a-4ee0-af49-5127f513333a","ios":"levelo://app?vid=2f73db1d-d88a-4ee0-af49-5127f513333a"},"vehicle_type_id":"4","last_reported":1743948497,"current_range_meters":12400,"station_id":"ce4bhg12rcd13ifvqf70","pricing_plan_id":"cebpf4jnsgd1na2vs0mg"},{"bike_id":"148a97ec-cada-4fbd-9a59-70cd88ccf662","system_id":"levelo_inurba_marseille","lat":43.212824,"lon":5.349832,"is_reserved":false,"is_disabled":false,"rental_uris":{"android":"levelo://app?vid=148a97ec-cada-4fbd-9a59-70cd88ccf662","ios":"levelo://app?vid=148a97ec-cada-4fbd-9a59-70cd88ccf662"},"vehicle_type_id":"4","last_reported":1743948497,"current_range_meters":12400,"station_id":"st_cvj6r9ubvosntc0bgbag","pricing_plan_id":"cebpf4jnsgd1na2vs0mg"},{"bike_id":"271b3925-a053-44bc-80cf-dbf950620f64","system_id":"levelo_inurba_marseille","lat":43.28412,"lon":5.34998,"is_reserved":false,"is_disabled":false,"rental_uris":{"android":"levelo://app?vid=271b3925-a053-44bc-80cf-dbf950620f64","ios":"levelo://app?vid=271b3925-a053-44bc-80cf-dbf950620f64"},"vehicle_type_id":"4","last_reported":1743948497,"current_range_meters":12400,"station_id":"ce4bhbh2rcd13ifvqepg","pricing_plan_id":"cebpf4jnsgd1na2vs0mg"},{"bike_id":"c5a180ee-9b66-4c05-bdde-4100257c7dd0","system_id":"levelo_inurba_marseille","lat":43.21749,"lon":5.34617,"is_reserved":false,"is_disabled":false,"rental_uris":{"android":"levelo://app?vid=c5a180ee-9b66-4c05-bdde-4100257c7dd0","ios":"levelo://app?vid=c5a180ee-9b66-4c05-bdde-4100257c7dd0"},"vehicle_type_id":"4","last_reported":1743948497,"current_range_meters":12400,"station_id":"st_cvj6r9ubvosntc0bgbag","pricing_plan_id":"cebpf4jnsgd1na2vs0mg"},{"bike_id":"8539495d-a8db-48e8-999c-a0eec7f95200","system_id":"levelo_inurba_marseille","lat":43.25484,"lon":5.37657,"is_reserved":false,"is_disabled":true,"rental_uris":{"android":"levelo://app?vid=8539495d-a8db-48e8-999c-a0eec7f95200","ios":"levelo://app?vid=8539495d-a8db-48e8-999c-a0eec7f95200"},"vehicle_type_id":"4","last_reported":1743948497,"current_range_meters":12400,"station_id":"ce4bhh12rcd13ifvqff0","pricing_plan_id":"cebpf4jnsgd1na2vs0mg"},{"bike_id":"e332aab8-1fe3-40e9-8086-1f7d5ff35118","system_id":"levelo_inurba_marseille","lat":43.331665,"lon":5.381775,"is_reserved":false,"is_disabled":false,"rental_uris":{"android":"levelo://app?vid=e332aab8-1fe3-40e9-8086-1f7d5ff35118","ios":"levelo://app?vid=e332aab8-1fe3-40e9-8086-1f7d5ff35118"},"vehicle_type_id":"4","last_reported":1743948497,"current_range_meters":12800,"station_id":"","pricing_plan_id":"cebpf4jnsgd1na2vs0mg"},{"bike_id":"8a38320c-a733-4cf5-8c8e-152497fe8f8f","system_id":"levelo_inurba_marseille","lat":43.28159,"lon":5.42637,"is_reserved":false,"is_disabled":false,"rental_uris":{"android":"levelo://app?vid=8a38320c-a733-4cf5-8c8e-152497fe8f8f","ios":"levelo://app?vid=8a38320c-a733-4cf5-8c8e-152497fe8f8f"},"vehicle_type_id":"4","last_reported":1743948497,"current_range_meters":12800,"station_id":"ce4bhnh2rcd13ifvqgug","pricing_plan_id":"cebpf4jnsgd1na2vs0mg"},{"bike_id":"6ee85d75-9576-48a6-9ea1-92da0dac2d73","system_id":"levelo_inurba_marseille","lat":43.30794,"lon":5.43527,"is_reserved":false,"is_disabled":false,"rental_uris":{"android":"levelo://app?vid=6ee85d75-9576-48a6-9ea1-92da0dac2d73","ios":"levelo://app?vid=6ee85d75-9576-48a6-9ea1-92da0dac2d73"},"vehicle_type_id":"4","last_reported":1743948497,"current_range_meters":12800,"station_id":"ce4bhph2rcd13ifvqheg","pricing_plan_id":"cebpf4jnsgd1na2vs0mg"},{"bike_id":"b2c12ac3-f2a7-416d-9802-3d2def3110a8","system_id":"levelo_inurba_marseille","lat":43.30328,"lon":5.4043,"is_reserved":false,"is_disabled":false,"rental_uris":{"android":"levelo://app?vid=b2c12ac3-f2a7-416d-9802-3d2def3110a8","ios":"levelo://app?vid=b2c12ac3-f2a7-416d-9802-3d2def3110a8"},"vehicle_type_id":"4","last_reported":1743948497,"current_range_meters":12400,"station_id":"ce4bh012rcd13ifvqd10","pricing_plan_id":"cebpf4jnsgd1na2vs0mg"},{"bike_id":"a409c3f0-8991-4228-afb5-57b19bb06658","system_id":"levelo_inurba_marseille","lat":43.32401,"lon":5.38997,"is_reserved":false,"is_disabled":false,"rental_uris":{"android":"levelo://app?vid=a409c3f0-8991-4228-afb5-57b19bb06658","ios":"levelo://app?vid=a409c3f0-8991-4228-afb5-57b19bb06658"},"vehicle_type_id":"4","last_reported":1743948497,"current_range_meters":12800,"station_id":"","pricing_plan_id":"cebpf4jnsgd1na2vs0mg"},{"bike_id":"e0a3f2d8-cfd9-42df-808f-8fa1abe2ba8f","system_id":"levelo_inurba_marseille","lat":43.21182,"lon":5.35077,"is_reserved":false,"is_disabled":false,"rental_uris":{"android":"levelo://app?vid=e0a3f2d8-cfd9-42df-808f-8fa1abe2ba8f","ios":"levelo://app?vid=e0a3f2d8-cfd9-42df-808f-8fa1abe2ba8f"},"vehicle_type_id":"4","last_reported":1743948497,"current_range_meters":13600,"station_id":"st_cvj6sg6p6f1abm77japg","pricing_plan_id":"cebpf4jnsgd1na2vs0mg"},{"bike_id":"8f039e9b-908d-4671-8c31-c10c45ffd6ab","system_id":"levelo_inurba_marseille","lat":43.2417,"lon":5.36396,"is_reserved":false,"is_disabled":false,"rental_uris":{"android":"levelo://app?vid=8f039e9b-908d-4671-8c31-c10c45ffd6ab","ios":"levelo://app?vid=8f039e9b-908d-4671-8c31-c10c45ffd6ab"},"vehicle_type_id":"4","last_reported":1743948497,"current_range_meters":13600,"station_id":"cpo36qri1sfpv3e86is0","pricing_plan_id":"cebpf4jnsgd1na2vs0mg"},{"bike_id":"4308a4e0-fa24-4c3a-94d8-db9aa39aa4ec","system_id":"levelo_inurba_marseille","lat":43.2737,"lon":5.36267,"is_reserved":false,"is_disabled":false,"rental_uris":{"android":"levelo://app?vid=4308a4e0-fa24-4c3a-94d8-db9aa39aa4ec","ios":"levelo://app?vid=4308a4e0-fa24-4c3a-94d8-db9aa39aa4ec"},"vehicle_type_id":"4","last_reported":1743948497,"current_range_meters":13600,"station_id":"ce4bhbh2rcd13ifvqeo0","pricing_plan_id":"cebpf4jnsgd1na2vs0mg"},{"bike_id":"b82b74fc-353d-4f41-9e1c-eedf1d253472","system_id":"levelo_inurba_marseille","lat":43.240211,"lon":5.397615,"is_reserved":false,"is_disabled":false,"rental_uris":{"android":"levelo://app?vid=b82b74fc-353d-4f41-9e1c-eedf1d253472","ios":"levelo://app?vid=b82b74fc-353d-4f41-9e1c-eedf1d253472"},"vehicle_type_id":"4","last_reported":1743948497,"current_range_meters":13600,"station_id":"ce4bhn12rcd13ifvqgqg","pricing_plan_id":"cebpf4jnsgd1na2vs0mg"},{"bike_id":"63e1d95c-79be-4b82-a868-e312bf827ceb","system_id":"levelo_inurba_marseille","lat":43.290238,"lon":5.386491,"is_reserved":false,"is_disabled":true,"rental_uris":{"android":"levelo://app?vid=63e1d95c-79be-4b82-a868-e312bf827ceb","ios":"levelo://app?vid=63e1d95c-79be-4b82-a868-e312bf827ceb"},"vehicle_type_id":"4","last_reported":1743948497,"current_range_meters":13600,"station_id":"ce4bh4p2rcd13ifvqe0g","pricing_plan_id":"cebpf4jnsgd1na2vs0mg"},{"bike_id":"e4d4dc7a-abcd-4c1d-8017-887f937d011f","system_id":"levelo_inurba_marseille","lat":43.29571,"lon":5.39959,"is_reserved":false,"is_disabled":true,"rental_uris":{"android":"levelo://app?vid=e4d4dc7a-abcd-4c1d-8017-887f937d011f","ios":"levelo://app?vid=e4d4dc7a-abcd-4c1d-8017-887f937d011f"},"vehicle_type_id":"4","last_reported":1743948497,"current_range_meters":13600,"station_id":"ce4bh312rcd13ifvqdj0","pricing_plan_id":"cebpf4jnsgd1na2vs0mg"},{"bike_id":"47b5d2ec-1510-4493-92a4-d45a9ceba128","system_id":"levelo_inurba_marseille","lat":43.22501,"lon":5.34791,"is_reserved":false,"is_disabled":false,"rental_uris":{"android":"levelo://app?vid=47b5d2ec-1510-4493-92a4-d45a9ceba128","ios":"levelo://app?vid=47b5d2ec-1510-4493-92a4-d45a9ceba128"},"vehicle_type_id":"4","last_reported":1743948497,"current_range_meters":13600,"station_id":"st_cvj5dfep6f1abm77gieg","pricing_plan_id":"cebpf4jnsgd1na2vs0mg"},{"bike_id":"73272853-088e-4b39-8e6e-94fe10fc353c","system_id":"levelo_inurba_marseille","lat":43.33761,"lon":5.37496,"is_reserved":false,"is_disabled":false,"rental_uris":{"android":"levelo://app?vid=73272853-088e-4b39-8e6e-94fe10fc353c","ios":"levelo://app?vid=73272853-088e-4b39-8e6e-94fe10fc353c"},"vehicle_type_id":"4","last_reported":1743948497,"current_range_meters":13600,"station_id":"","pricing_plan_id":"cebpf4jnsgd1na2vs0mg"},{"bike_id":"eb036402-0cb4-4e3c-8d1e-0b7a29d2ba31","system_id":"levelo_inurba_marseille","lat":43.34176,"lon":5.40913,"is_reserved":false,"is_disabled":false,"rental_uris":{"android":"levelo://app?vid=eb036402-0cb4-4e3c-8d1e-0b7a29d2ba31","ios":"levelo://app?vid=eb036402-0cb4-4e3c-8d1e-0b7a29d2ba31"},"vehicle_type_id":"4","last_reported":1743948497,"current_range_meters":13600,"station_id":"ce4bhqh2rcd13ifvqhlg","pricing_plan_id":"cebpf4jnsgd1na2vs0mg"},{"bike_id":"d6c3d7f4-760c-422c-8667-25e15a7934b3","system_id":"levelo_inurba_marseille","lat":43.30787,"lon":5.37444,"is_reserved":false,"is_disabled":false,"rental_uris":{"android":"levelo://app?vid=d6c3d7f4-760c-422c-8667-25e15a7934b3","ios":"levelo://app?vid=d6c3d7f4-760c-422c-8667-25e15a7934b3"},"vehicle_type_id":"4","last_reported":1743948497,"current_range_meters":14000,"station_id":"","pricing_plan_id":"cebpf4jnsgd1na2vs0mg"},{"bike_id":"0249219e-61f3-4c51-8503-3f742df1147e","system_id":"levelo_inurba_marseille","lat":43.27377,"lon":5.36251,"is_reserved":false,"is_disabled":false,"rental_uris":{"android":"levelo://app?vid=0249219e-61f3-4c51-8503-3f742df1147e","ios":"levelo://app?vid=0249219e-61f3-4c51-8503-3f742df1147e"},"vehicle_type_id":"4","last_reported":1743948497,"current_range_meters":14000,"station_id":"ce4bhbh2rcd13ifvqeo0","pricing_plan_id":"cebpf4jnsgd1na2vs0mg"},{"bike_id":"73da4ec2-07ab-49b0-840e-487dd77ca4ac","system_id":"levelo_inurba_marseille","lat":43.21197,"lon":5.3508,"is_reserved":false,"is_disabled":false,"rental_uris":{"android":"levelo://app?vid=73da4ec2-07ab-49b0-840e-487dd77ca4ac","ios":"levelo://app?vid=73da4ec2-07ab-49b0-840e-487dd77ca4ac"},"vehicle_type_id":"4","last_reported":1743948497,"current_range_meters":14000,"station_id":"st_cvj6sg6p6f1abm77japg","pricing_plan_id":"cebpf4jnsgd1na2vs0mg"},{"bike_id":"83daaad8-ff1f-4a7b-91ec-f615ddb621a4","system_id":"levelo_inurba_marseille","lat":43.24173,"lon":5.36392,"is_reserved":false,"is_disabled":false,"rental_uris":{"android":"levelo://app?vid=83daaad8-ff1f-4a7b-91ec-f615ddb621a4","ios":"levelo://app?vid=83daaad8-ff1f-4a7b-91ec-f615ddb621a4"},"vehicle_type_id":"4","last_reported":1743948497,"current_range_meters":14400,"station_id":"cpo36qri1sfpv3e86is0","pricing_plan_id":"cebpf4jnsgd1na2vs0mg"},{"bike_id":"477d9b02-a701-4a70-a7ea-7f42592b1a2f","system_id":"levelo_inurba_marseille","lat":43.24389,"lon":5.37059,"is_reserved":false,"is_disabled":false,"rental_uris":{"android":"levelo://app?vid=477d9b02-a701-4a70-a7ea-7f42592b1a2f","ios":"levelo://app?vid=477d9b02-a701-4a70-a7ea-7f42592b1a2f"},"vehicle_type_id":"4","last_reported":1743948497,"current_range_meters":14400,"station_id":"ce4bhhh2rcd13ifvqfk0","pricing_plan_id":"cebpf4jnsgd1na2vs0mg"},{"bike_id":"8cfd8938-ab02-4f88-9086-591f1be1afd7","system_id":"levelo_inurba_marseille","lat":43.2306,"lon":5.35495,"is_reserved":false,"is_disabled":true,"rental_uris":{"android":"levelo://app?vid=8cfd8938-ab02-4f88-9086-591f1be1afd7","ios":"levelo://app?vid=8cfd8938-ab02-4f88-9086-591f1be1afd7"},"vehicle_type_id":"4","last_reported":1743948497,"current_range_meters":14800,"station_id":"cpo3342slgdg3j2ifvpg","pricing_plan_id":"cebpf4jnsgd1na2vs0mg"},{"bike_id":"a959694d-18ce-4d80-917f-23c91ed81065","system_id":"levelo_inurba_marseille","lat":43.2989,"lon":5.43657,"is_reserved":false,"is_disabled":false,"rental_uris":{"android":"levelo://app?vid=a959694d-18ce-4d80-917f-23c91ed81065","ios":"levelo://app?vid=a959694d-18ce-4d80-917f-23c91ed81065"},"vehicle_type_id":"4","last_reported":1743948497,"current_range_meters":14800,"station_id":"ce4bhpp2rcd13ifvqhfg","pricing_plan_id":"cebpf4jnsgd1na2vs0mg"},{"bike_id":"0b019f27-b1b6-402a-b4d6-f9d063bf7adf","system_id":"levelo_inurba_marseille","lat":43.24174,"lon":5.36412,"is_reserved":false,"is_disabled":false,"rental_uris":{"android":"levelo://app?vid=0b019f27-b1b6-402a-b4d6-f9d063bf7adf","ios":"levelo://app?vid=0b019f27-b1b6-402a-b4d6-f9d063bf7adf"},"vehicle_type_id":"4","last_reported":1743948497,"current_range_meters":14800,"station_id":"cpo36qri1sfpv3e86is0","pricing_plan_id":"cebpf4jnsgd1na2vs0mg"},{"bike_id":"c1d5ae72-db7a-419e-9656-90a0dbebf090","system_id":"levelo_inurba_marseille","lat":43.23191,"lon":5.35559,"is_reserved":false,"is_disabled":false,"rental_uris":{"android":"levelo://app?vid=c1d5ae72-db7a-419e-9656-90a0dbebf090","ios":"levelo://app?vid=c1d5ae72-db7a-419e-9656-90a0dbebf090"},"vehicle_type_id":"4","last_reported":1743948497,"current_range_meters":14800,"station_id":"ce4bhu92rcd13ifvqi70","pricing_plan_id":"cebpf4jnsgd1na2vs0mg"},{"bike_id":"a1a74f1b-fb44-455f-8438-c57f314bba18","system_id":"levelo_inurba_marseille","lat":43.225017,"lon":5.347891,"is_reserved":false,"is_disabled":false,"rental_uris":{"android":"levelo://app?vid=a1a74f1b-fb44-455f-8438-c57f314bba18","ios":"levelo://app?vid=a1a74f1b-fb44-455f-8438-c57f314bba18"},"vehicle_type_id":"4","last_reported":1743948497,"current_range_meters":14800,"station_id":"st_cvj5dfep6f1abm77gieg","pricing_plan_id":"cebpf4jnsgd1na2vs0mg"},{"bike_id":"4e8263e9-12e4-44e2-95e3-19c46081806f","system_id":"levelo_inurba_marseille","lat":43.28857,"lon":5.39303,"is_reserved":false,"is_disabled":false,"rental_uris":{"android":"levelo://app?vid=4e8263e9-12e4-44e2-95e3-19c46081806f","ios":"levelo://app?vid=4e8263e9-12e4-44e2-95e3-19c46081806f"},"vehicle_type_id":"4","last_reported":1743948497,"current_range_meters":14400,"station_id":"ce4bh2p2rcd13ifvqdi0","pricing_plan_id":"cebpf4jnsgd1na2vs0mg"},{"bike_id":"eaedf595-f70a-4026-8241-02936d2159c4","system_id":"levelo_inurba_marseille","lat":43.23194,"lon":5.35555,"is_reserved":false,"is_disabled":false,"rental_uris":{"android":"levelo://app?vid=eaedf595-f70a-4026-8241-02936d2159c4","ios":"levelo://app?vid=eaedf595-f70a-4026-8241-02936d2159c4"},"vehicle_type_id":"4","last_reported":1743948497,"current_range_meters":15200,"station_id":"ce4bhu92rcd13ifvqi70","pricing_plan_id":"cebpf4jnsgd1na2vs0mg"},{"bike_id":"222e1e00-578b-4512-8bd3-f56c6fa61730","system_id":"levelo_inurba_marseille","lat":43.2396,"lon":5.36621,"is_reserved":false,"is_disabled":true,"rental_uris":{"android":"levelo://app?vid=222e1e00-578b-4512-8bd3-f56c6fa61730","ios":"levelo://app?vid=222e1e00-578b-4512-8bd3-f56c6fa61730"},"vehicle_type_id":"4","last_reported":1743948497,"current_range_meters":16000,"station_id":"ce4bhi12rcd13ifvqfp0","pricing_plan_id":"cebpf4jnsgd1na2vs0mg"},{"bike_id":"ee617365-9900-4709-b6eb-e67764c1fbd2","system_id":"levelo_inurba_marseille","lat":43.25088,"lon":5.39525,"is_reserved":false,"is_disabled":false,"rental_uris":{"android":"levelo://app?vid=ee617365-9900-4709-b6eb-e67764c1fbd2","ios":"levelo://app?vid=ee617365-9900-4709-b6eb-e67764c1fbd2"},"vehicle_type_id":"4","last_reported":1743948497,"current_range_meters":14800,"station_id":"ce4bhm12rcd13ifvqgkg","pricing_plan_id":"cebpf4jnsgd1na2vs0mg"},{"bike_id":"a3ecfb0d-e352-460c-a927-7086cd2aad88","system_id":"levelo_inurba_marseille","lat":43.24169,"lon":5.36395,"is_reserved":false,"is_disabled":false,"rental_uris":{"android":"levelo://app?vid=a3ecfb0d-e352-460c-a927-7086cd2aad88","ios":"levelo://app?vid=a3ecfb0d-e352-460c-a927-7086cd2aad88"},"vehicle_type_id":"4","last_reported":1743948497,"current_range_meters":15200,"station_id":"cpo36qri1sfpv3e86is0","pricing_plan_id":"cebpf4jnsgd1na2vs0mg"},{"bike_id":"4ca885ad-bf65-4540-b5d0-1baba23daec6","system_id":"levelo_inurba_marseille","lat":43.2251,"lon":5.34791,"is_reserved":false,"is_disabled":false,"rental_uris":{"android":"levelo://app?vid=4ca885ad-bf65-4540-b5d0-1baba23daec6","ios":"levelo://app?vid=4ca885ad-bf65-4540-b5d0-1baba23daec6"},"vehicle_type_id":"4","last_reported":1743948497,"current_range_meters":15200,"station_id":"ce4bh612rcd13ifvqe6g","pricing_plan_id":"cebpf4jnsgd1na2vs0mg"},{"bike_id":"26030828-5b49-4980-9c0c-82f7ee307eea","system_id":"levelo_inurba_marseille","lat":43.26029,"lon":5.37549,"is_reserved":false,"is_disabled":false,"rental_uris":{"android":"levelo://app?vid=26030828-5b49-4980-9c0c-82f7ee307eea","ios":"levelo://app?vid=26030828-5b49-4980-9c0c-82f7ee307eea"},"vehicle_type_id":"4","last_reported":1743948497,"current_range_meters":15200,"station_id":"ce4bhgh2rcd13ifvqfa0","pricing_plan_id":"cebpf4jnsgd1na2vs0mg"},{"bike_id":"3919c91b-0f45-42e3-a407-6478d43bfeab","system_id":"levelo_inurba_marseille","lat":43.23058,"lon":5.35498,"is_reserved":false,"is_disabled":false,"rental_uris":{"android":"levelo://app?vid=3919c91b-0f45-42e3-a407-6478d43bfeab","ios":"levelo://app?vid=3919c91b-0f45-42e3-a407-6478d43bfeab"},"vehicle_type_id":"4","last_reported":1743948497,"current_range_meters":15200,"station_id":"cpo3342slgdg3j2ifvpg","pricing_plan_id":"cebpf4jnsgd1na2vs0mg"},{"bike_id":"84469186-9f85-4507-98e5-660c11902956","system_id":"levelo_inurba_marseille","lat":43.243853,"lon":5.370635,"is_reserved":false,"is_disabled":false,"rental_uris":{"android":"levelo://app?vid=84469186-9f85-4507-98e5-660c11902956","ios":"levelo://app?vid=84469186-9f85-4507-98e5-660c11902956"},"vehicle_type_id":"4","last_reported":1743948497,"current_range_meters":16000,"station_id":"ce4bhhh2rcd13ifvqfk0","pricing_plan_id":"cebpf4jnsgd1na2vs0mg"},{"bike_id":"6626fa81-7712-4f54-8603-69b155b17c40","system_id":"levelo_inurba_marseille","lat":43.25584,"lon":5.38233,"is_reserved":false,"is_disabled":true,"rental_uris":{"android":"levelo://app?vid=6626fa81-7712-4f54-8603-69b155b17c40","ios":"levelo://app?vid=6626fa81-7712-4f54-8603-69b155b17c40"},"vehicle_type_id":"4","last_reported":1743948497,"current_range_meters":16000,"station_id":"ce4bhih2rcd13ifvqfs0","pricing_plan_id":"cebpf4jnsgd1na2vs0mg"},{"bike_id":"d3983ca7-febd-4083-8640-0f06c54db196","system_id":"levelo_inurba_marseille","lat":43.32105,"lon":5.36772,"is_reserved":false,"is_disabled":false,"rental_uris":{"android":"levelo://app?vid=d3983ca7-febd-4083-8640-0f06c54db196","ios":"levelo://app?vid=d3983ca7-febd-4083-8640-0f06c54db196"},"vehicle_type_id":"4","last_reported":1743948497,"current_range_meters":16000,"station_id":"ce4bhrh2rcd13ifvqhug","pricing_plan_id":"cebpf4jnsgd1na2vs0mg"},{"bike_id":"5422483a-eee0-479a-9073-9aa9fc88787e","system_id":"levelo_inurba_marseille","lat":43.27378,"lon":5.36247,"is_reserved":false,"is_disabled":false,"rental_uris":{"android":"levelo://app?vid=5422483a-eee0-479a-9073-9aa9fc88787e","ios":"levelo://app?vid=5422483a-eee0-479a-9073-9aa9fc88787e"},"vehicle_type_id":"4","last_reported":1743948497,"current_range_meters":16000,"station_id":"ce4bhbh2rcd13ifvqeo0","pricing_plan_id":"cebpf4jnsgd1na2vs0mg"},{"bike_id":"3421c882-3fa1-44aa-ba15-70b406af94eb","system_id":"levelo_inurba_marseille","lat":43.23201,"lon":5.35556,"is_reserved":false,"is_disabled":false,"rental_uris":{"android":"levelo://app?vid=3421c882-3fa1-44aa-ba15-70b406af94eb","ios":"levelo://app?vid=3421c882-3fa1-44aa-ba15-70b406af94eb"},"vehicle_type_id":"4","last_reported":1743948497,"current_range_meters":16000,"station_id":"ce4bhu92rcd13ifvqi70","pricing_plan_id":"cebpf4jnsgd1na2vs0mg"},{"bike_id":"a788017a-aacf-40c3-b075-36dab10acb35","system_id":"levelo_inurba_marseille","lat":43.24808,"lon":5.37452,"is_reserved":false,"is_disabled":false,"rental_uris":{"android":"levelo://app?vid=a788017a-aacf-40c3-b075-36dab10acb35","ios":"levelo://app?vid=a788017a-aacf-40c3-b075-36dab10acb35"},"vehicle_type_id":"4","last_reported":1743948497,"current_range_meters":16000,"station_id":"ce4bhgh2rcd13ifvqfb0","pricing_plan_id":"cebpf4jnsgd1na2vs0mg"},{"bike_id":"c28606bd-52a1-4ab8-89d9-5f36e83bdb9d","system_id":"levelo_inurba_marseille","lat":43.21744,"lon":5.34605,"is_reserved":false,"is_disabled":false,"rental_uris":{"android":"levelo://app?vid=c28606bd-52a1-4ab8-89d9-5f36e83bdb9d","ios":"levelo://app?vid=c28606bd-52a1-4ab8-89d9-5f36e83bdb9d"},"vehicle_type_id":"4","last_reported":1743948497,"current_range_meters":16400,"station_id":"st_cvj6r9ubvosntc0bgbag","pricing_plan_id":"cebpf4jnsgd1na2vs0mg"},{"bike_id":"750bc9c2-8244-4f27-a571-77c62d7d6b92","system_id":"levelo_inurba_marseille","lat":43.31267,"lon":5.37758,"is_reserved":false,"is_disabled":false,"rental_uris":{"android":"levelo://app?vid=750bc9c2-8244-4f27-a571-77c62d7d6b92","ios":"levelo://app?vid=750bc9c2-8244-4f27-a571-77c62d7d6b92"},"vehicle_type_id":"4","last_reported":1743948497,"current_range_meters":16400,"station_id":"","pricing_plan_id":"cebpf4jnsgd1na2vs0mg"},{"bike_id":"a88e6601-efef-47ab-9e98-9d90a28135b6","system_id":"levelo_inurba_marseille","lat":43.2603,"lon":5.37553,"is_reserved":false,"is_disabled":false,"rental_uris":{"android":"levelo://app?vid=a88e6601-efef-47ab-9e98-9d90a28135b6","ios":"levelo://app?vid=a88e6601-efef-47ab-9e98-9d90a28135b6"},"vehicle_type_id":"4","last_reported":1743948497,"current_range_meters":16400,"station_id":"ce4bhgh2rcd13ifvqfa0","pricing_plan_id":"cebpf4jnsgd1na2vs0mg"},{"bike_id":"15622221-7f61-4bef-806d-24391d9df472","system_id":"levelo_inurba_marseille","lat":43.255,"lon":5.37651,"is_reserved":false,"is_disabled":false,"rental_uris":{"android":"levelo://app?vid=15622221-7f61-4bef-806d-24391d9df472","ios":"levelo://app?vid=15622221-7f61-4bef-806d-24391d9df472"},"vehicle_type_id":"4","last_reported":1743948497,"current_range_meters":16000,"station_id":"ce4bhh12rcd13ifvqff0","pricing_plan_id":"cebpf4jnsgd1na2vs0mg"},{"bike_id":"d3940f6d-6c26-4ccb-aa36-1b12f0ca6ef4","system_id":"levelo_inurba_marseille","lat":43.31476,"lon":5.39027,"is_reserved":false,"is_disabled":false,"rental_uris":{"android":"levelo://app?vid=d3940f6d-6c26-4ccb-aa36-1b12f0ca6ef4","ios":"levelo://app?vid=d3940f6d-6c26-4ccb-aa36-1b12f0ca6ef4"},"vehicle_type_id":"4","last_reported":1743948497,"current_range_meters":16400,"station_id":"","pricing_plan_id":"cebpf4jnsgd1na2vs0mg"},{"bike_id":"3a89075f-77bc-4e6d-8aa0-b3b1023aec81","system_id":"levelo_inurba_marseille","lat":43.21747,"lon":5.346,"is_reserved":false,"is_disabled":false,"rental_uris":{"android":"levelo://app?vid=3a89075f-77bc-4e6d-8aa0-b3b1023aec81","ios":"levelo://app?vid=3a89075f-77bc-4e6d-8aa0-b3b1023aec81"},