{"last_updated":1740578962,"ttl":60,"version":"2.2","data":{"bikes":[{"bike_id":"4252253c-41ee-4ca4-b9e6-46346307009d","system_id":"levelo_inurba_marseille","lat":43.28551,"lon":5.38977,"is_reserved":false,"is_disabled":false,"rental_uris":{"android":"levelo://app?vid=4252253c-41ee-4ca4-b9e6-46346307009d","ios":"levelo://app?vid=4252253c-41ee-4ca4-b9e6-46346307009d"},"vehicle_type_id":"4","last_reported":1740578962,"current_range_meters":1600,"station_id":"","pricing_plan_id":"cebpf4jnsgd1na2vs0mg"},{"bike_id":"119e370a-1ae6-4543-8d08-78b8084db017","system_id":"levelo_inurba_marseille","lat":43.29007,"lon":5.356167,"is_reserved":false,"is_disabled":false,"rental_uris":{"android":"levelo://app?vid=119e370a-1ae6-4543-8d08-78b8084db017","ios":"levelo://app?vid=119e370a-1ae6-4543-8d08-78b8084db017"},"vehicle_type_id":"4","last_reported":1740578962,"current_range_meters":2000,"station_id":"ce4bhb92rcd13ifvqen0","pricing_plan_id":"cebpf4jnsgd1na2vs0mg"},{"bike_id":"1fcc4a40-af57-4a8a-9482-b38631354d7f","system_id":"levelo_inurba_marseille","lat":43.30093,"lon":5.39101,"is_reserved":false,"is_disabled":false,"rental_uris":{"android":"levelo://app?vid=1fcc4a40-af57-4a8a-9482-b38631354d7f","ios":"levelo://app?vid=1fcc4a40-af57-4a8a-9482-b38631354d7f"},"vehicle_type_id":"4","last_reported":1740578962,"current_range_meters":3200,"station_id":"ce4bh192rcd13ifvqdb0","pricing_plan_id":"cebpf4jnsgd1na2vs0mg"},{"bike_id":"42790f19-86ca-4a01-8bec-9cfc2dd846e2","system_id":"levelo_inurba_marseille","lat":43.27584,"lon":5.38424,"is_reserved":false,"is_disabled":false,"rental_uris":{"android":"levelo://app?vid=42790f19-86ca-4a01-8bec-9cfc2dd846e2","ios":"levelo://app?vid=42790f19-86ca-4a01-8bec-9cfc2dd846e2"},"vehicle_type_id":"4","last_reported":1740578962,"current_range_meters":3600,"station_id":"ce4bhh92rcd13ifvqfi0","pricing_plan_id":"cebpf4jnsgd1na2vs0mg"},{"bike_id":"b1390c52-917d-4eb2-9a5a-de5ed9ba5ddc","system_id":"levelo_inurba_marseille","lat":43.29892,"lon":5.43643,"is_reserved":false,"is_disabled":false,"rental_uris":{"android":"levelo://app?vid=b1390c52-917d-4eb2-9a5a-de5ed9ba5ddc","ios":"levelo://app?vid=b1390c52-917d-4eb2-9a5a-de5ed9ba5ddc"},"vehicle_type_id":"4","last_reported":1740578962,"current_range_meters":3600,"station_id":"ce4bhpp2rcd13ifvqhfg","pricing_plan_id":"cebpf4jnsgd1na2vs0mg"},{"bike_id":"ed39390c-7ddd-44a8-9f45-8a3d90a09e73","system_id":"levelo_inurba_marseille","lat":43.29846,"lon":5.36295,"is_reserved":false,"is_disabled":false,"rental_uris":{"android":"levelo://app?vid=ed39390c-7ddd-44a8-9f45-8a3d90a09e73","ios":"levelo://app?vid=ed39390c-7ddd-44a8-9f45-8a3d90a09e73"},"vehicle_type_id":"4","last_reported":1740578962,"current_range_meters":4000,"station_id":"ce4bgpp2rcd13ifvqc3g","pricing_plan_id":"cebpf4jnsgd1na2vs0mg"},{"bike_id":"595e9729-3378-4282-a234-4fb84071135a","system_id":"levelo_inurba_marseille","lat":43.28276,"lon":5.35072,"is_reserved":false,"is_disabled":false,"rental_uris":{"android":"levelo://app?vid=595e9729-3378-4282-a234-4fb84071135a","ios":"levelo://app?vid=595e9729-3378-4282-a234-4fb84071135a"},"vehicle_type_id":"4","last_reported":1740578962,"current_range_meters":4400,"station_id":"ce4bhbp2rcd13ifvqerg","pricing_plan_id":"cebpf4jnsgd1na2vs0mg"},{"bike_id":"da65e617-0983-4fc2-b9f6-9be174d66a9a","system_id":"levelo_inurba_marseille","lat":43.27206,"lon":5.39188,"is_reserved":false,"is_disabled":false,"rental_uris":{"android":"levelo://app?vid=da65e617-0983-4fc2-b9f6-9be174d66a9a","ios":"levelo://app?vid=da65e617-0983-4fc2-b9f6-9be174d66a9a"},"vehicle_type_id":"4","last_reported":1740578962,"current_range_meters":4400,"station_id":"ce4bhhp2rcd13ifvqfm0","pricing_plan_id":"cebpf4jnsgd1na2vs0mg"},{"bike_id":"9dddb1e0-e67e-4e90-b84a-eeafc6eee4ce","system_id":"levelo_inurba_marseille","lat":43.25579,"lon":5.38221,"is_reserved":false,"is_disabled":false,"rental_uris":{"android":"levelo://app?vid=9dddb1e0-e67e-4e90-b84a-eeafc6eee4ce","ios":"levelo://app?vid=9dddb1e0-e67e-4e90-b84a-eeafc6eee4ce"},"vehicle_type_id":"4","last_reported":1740578962,"current_range_meters":4400,"station_id":"ce4bhih2rcd13ifvqfs0","pricing_plan_id":"cebpf4jnsgd1na2vs0mg"},{"bike_id":"901e21cf-d8ae-47f3-bbe6-116e9f3a210b","system_id":"levelo_inurba_marseille","lat":43.26924,"lon":5.40253,"is_reserved":false,"is_disabled":false,"rental_uris":{"android":"levelo://app?vid=901e21cf-d8ae-47f3-bbe6-116e9f3a210b","ios":"levelo://app?vid=901e21cf-d8ae-47f3-bbe6-116e9f3a210b"},"vehicle_type_id":"4","last_reported":1740578962,"current_range_meters":4400,"station_id":"cjm6bp8fraef2m0cb0m0","pricing_plan_id":"cebpf4jnsgd1na2vs0mg"},{"bike_id":"68db716c-6572-40ea-b079-987ee4623b4d","system_id":"levelo_inurba_marseille","lat":43.26857,"lon":5.4095,"is_reserved":false,"is_disabled":false,"rental_uris":{"android":"levelo://app?vid=68db716c-6572-40ea-b079-987ee4623b4d","ios":"levelo://app?vid=68db716c-6572-40ea-b079-987ee4623b4d"},"vehicle_type_id":"4","last_reported":1740578962,"current_range_meters":8000,"station_id":"","pricing_plan_id":"cebpf4jnsgd1na2vs0mg"},{"bike_id":"e07c4d3e-b317-4b10-b919-c6146de26647","system_id":"levelo_inurba_marseille","lat":43.32541,"lon":5.41449,"is_reserved":false,"is_disabled":false,"rental_uris":{"android":"levelo://app?vid=e07c4d3e-b317-4b10-b919-c6146de26647","ios":"levelo://app?vid=e07c4d3e-b317-4b10-b919-c6146de26647"},"vehicle_type_id":"4","last_reported":1740578962,"current_range_meters":4800,"station_id":"ce4bhq12rcd13ifvqhhg","pricing_plan_id":"cebpf4jnsgd1na2vs0mg"},{"bike_id":"c6f708ae-dd99-4fdc-99e6-1fea89a10df9","system_id":"levelo_inurba_marseille","lat":43.30878,"lon":5.39627,"is_reserved":false,"is_disabled":false,"rental_uris":{"android":"levelo://app?vid=c6f708ae-dd99-4fdc-99e6-1fea89a10df9","ios":"levelo://app?vid=c6f708ae-dd99-4fdc-99e6-1fea89a10df9"},"vehicle_type_id":"4","last_reported":1740578962,"current_range_meters":4800,"station_id":"ce4bh012rcd13ifvqcv0","pricing_plan_id":"cebpf4jnsgd1na2vs0mg"},{"bike_id":"3a6ab877-68b7-40a5-b5be-9127127ed0be","system_id":"levelo_inurba_marseille","lat":43.25721,"lon":5.41105,"is_reserved":false,"is_disabled":false,"rental_uris":{"android":"levelo://app?vid=3a6ab877-68b7-40a5-b5be-9127127ed0be","ios":"levelo://app?vid=3a6ab877-68b7-40a5-b5be-9127127ed0be"},"vehicle_type_id":"4","last_reported":1740578962,"current_range_meters":4800,"station_id":"ce4bhkp2rcd13ifvqgd0","pricing_plan_id":"cebpf4jnsgd1na2vs0mg"},{"bike_id":"60563ad7-422d-49af-af20-ae1986ecd328","system_id":"levelo_inurba_marseille","lat":43.29662,"lon":5.37872,"is_reserved":false,"is_disabled":false,"rental_uris":{"android":"levelo://app?vid=60563ad7-422d-49af-af20-ae1986ecd328","ios":"levelo://app?vid=60563ad7-422d-49af-af20-ae1986ecd328"},"vehicle_type_id":"4","last_reported":1740578962,"current_range_meters":5600,"station_id":"ce4bgt92rcd13ifvqcg0","pricing_plan_id":"cebpf4jnsgd1na2vs0mg"},{"bike_id":"7fc90eb1-9957-475e-9192-17ed554f6215","system_id":"levelo_inurba_marseille","lat":43.25937,"lon":5.40886,"is_reserved":false,"is_disabled":false,"rental_uris":{"android":"levelo://app?vid=7fc90eb1-9957-475e-9192-17ed554f6215","ios":"levelo://app?vid=7fc90eb1-9957-475e-9192-17ed554f6215"},"vehicle_type_id":"4","last_reported":1740578962,"current_range_meters":5600,"station_id":"ce4bhm92rcd13ifvqglg","pricing_plan_id":"cebpf4jnsgd1na2vs0mg"},{"bike_id":"3a27d484-e4cf-40f0-b914-76e4a2777873","system_id":"levelo_inurba_marseille","lat":43.31356,"lon":5.38493,"is_reserved":false,"is_disabled":false,"rental_uris":{"android":"levelo://app?vid=3a27d484-e4cf-40f0-b914-76e4a2777873","ios":"levelo://app?vid=3a27d484-e4cf-40f0-b914-76e4a2777873"},"vehicle_type_id":"4","last_reported":1740578962,"current_range_meters":4800,"station_id":"ce4bgt92rcd13ifvqcf0","pricing_plan_id":"cebpf4jnsgd1na2vs0mg"},{"bike_id":"afca1011-2249-4deb-88cb-1fc3b687207b","system_id":"levelo_inurba_marseille","lat":43.30492,"lon":5.380702,"is_reserved":false,"is_disabled":false,"rental_uris":{"android":"levelo://app?vid=afca1011-2249-4deb-88cb-1fc3b687207b","ios":"levelo://app?vid=afca1011-2249-4deb-88cb-1fc3b687207b"},"vehicle_type_id":"4","last_reported":1740578962,"current_range_meters":6800,"station_id":"ce4bgt12rcd13ifvqce0","pricing_plan_id":"cebpf4jnsgd1na2vs0mg"},{"bike_id":"1fb0e46b-bdba-4a0b-8c63-b6e48236eaf3","system_id":"levelo_inurba_marseille","lat":43.313221,"lon":5.367374,"is_reserved":false,"is_disabled":false,"rental_uris":{"android":"levelo://app?vid=1fb0e46b-bdba-4a0b-8c63-b6e48236eaf3","ios":"levelo://app?vid=1fb0e46b-bdba-4a0b-8c63-b6e48236eaf3"},"vehicle_type_id":"4","last_reported":1740578962,"current_range_meters":6000,"station_id":"ce4bgr92rcd13ifvqc6g","pricing_plan_id":"cebpf4jnsgd1na2vs0mg"},{"bike_id":"4242ac5b-27c1-4aec-9f82-2fac9f8c98d2","system_id":"levelo_inurba_marseille","lat":43.28715,"lon":5.37387,"is_reserved":false,"is_disabled":false,"rental_uris":{"android":"levelo://app?vid=4242ac5b-27c1-4aec-9f82-2fac9f8c98d2","ios":"levelo://app?vid=4242ac5b-27c1-4aec-9f82-2fac9f8c98d2"},"vehicle_type_id":"4","last_reported":1740578962,"current_range_meters":3600,"station_id":"ce4bh3p2rcd13ifvqdq0","pricing_plan_id":"cebpf4jnsgd1na2vs0mg"},{"bike_id":"203e2b02-6293-4ea1-b2f8-caa9150bc685","system_id":"levelo_inurba_marseille","lat":43.26562,"lon":5.39002,"is_reserved":false,"is_disabled":false,"rental_uris":{"android":"levelo://app?vid=203e2b02-6293-4ea1-b2f8-caa9150bc685","ios":"levelo://app?vid=203e2b02-6293-4ea1-b2f8-caa9150bc685"},"vehicle_type_id":"4","last_reported":1740578962,"current_range_meters":6400,"station_id":"ce4bhe12rcd13ifvqf30","pricing_plan_id":"cebpf4jnsgd1na2vs0mg"},{"bike_id":"6c793ee8-10c8-4fba-bea4-4562eb750391","system_id":"levelo_inurba_marseille","lat":43.26063,"lon":5.39394,"is_reserved":false,"is_disabled":false,"rental_uris":{"android":"levelo://app?vid=6c793ee8-10c8-4fba-bea4-4562eb750391","ios":"levelo://app?vid=6c793ee8-10c8-4fba-bea4-4562eb750391"},"vehicle_type_id":"4","last_reported":1740578962,"current_range_meters":6400,"station_id":"ce4bhh92rcd13ifvqfj0","pricing_plan_id":"cebpf4jnsgd1na2vs0mg"},{"bike_id":"7c45866a-bd99-4c12-9747-66203f12a96e","system_id":"levelo_inurba_marseille","lat":43.23136,"lon":5.35509,"is_reserved":false,"is_disabled":false,"rental_uris":{"android":"levelo://app?vid=7c45866a-bd99-4c12-9747-66203f12a96e","ios":"levelo://app?vid=7c45866a-bd99-4c12-9747-66203f12a96e"},"vehicle_type_id":"4","last_reported":1740578962,"current_range_meters":6800,"station_id":"","pricing_plan_id":"cebpf4jnsgd1na2vs0mg"},{"bike_id":"b1d861f4-d509-4825-8a06-897344fe6041","system_id":"levelo_inurba_marseille","lat":43.290987,"lon":5.381207,"is_reserved":false,"is_disabled":false,"rental_uris":{"android":"levelo://app?vid=b1d861f4-d509-4825-8a06-897344fe6041","ios":"levelo://app?vid=b1d861f4-d509-4825-8a06-897344fe6041"},"vehicle_type_id":"4","last_reported":1740578962,"current_range_meters":6000,"station_id":"ce4bh512rcd13ifvqe2g","pricing_plan_id":"cebpf4jnsgd1na2vs0mg"},{"bike_id":"42412def-cc03-408d-a48d-1c1d472e7177","system_id":"levelo_inurba_marseille","lat":43.30127,"lon":5.39857,"is_reserved":false,"is_disabled":false,"rental_uris":{"android":"levelo://app?vid=42412def-cc03-408d-a48d-1c1d472e7177","ios":"levelo://app?vid=42412def-cc03-408d-a48d-1c1d472e7177"},"vehicle_type_id":"4","last_reported":1740578962,"current_range_meters":6000,"station_id":"ce4bh0h2rcd13ifvqd40","pricing_plan_id":"cebpf4jnsgd1na2vs0mg"},{"bike_id":"e5c275a2-a964-47d8-9489-ed1126cf4cef","system_id":"levelo_inurba_marseille","lat":43.2964,"lon":5.37899,"is_reserved":false,"is_disabled":false,"rental_uris":{"android":"levelo://app?vid=e5c275a2-a964-47d8-9489-ed1126cf4cef","ios":"levelo://app?vid=e5c275a2-a964-47d8-9489-ed1126cf4cef"},"vehicle_type_id":"4","last_reported":1740578962,"current_range_meters":6800,"station_id":"","pricing_plan_id":"cebpf4jnsgd1na2vs0mg"},{"bike_id":"411b5315-e03f-43f4-b5cd-9f0caf8d3081","system_id":"levelo_inurba_marseille","lat":43.23184,"lon":5.4002,"is_reserved":false,"is_disabled":false,"rental_uris":{"android":"levelo://app?vid=411b5315-e03f-43f4-b5cd-9f0caf8d3081","ios":"levelo://app?vid=411b5315-e03f-43f4-b5cd-9f0caf8d3081"},"vehicle_type_id":"4","last_reported":1740578962,"current_range_meters":27200,"station_id":"ce4bhn12rcd13ifvqgqg","pricing_plan_id":"cebpf4jnsgd1na2vs0mg"},{"bike_id":"09657abc-7a9d-477b-a3f3-c16d2af0ca75","system_id":"levelo_inurba_marseille","lat":43.26193,"lon":5.37449,"is_reserved":false,"is_disabled":false,"rental_uris":{"android":"levelo://app?vid=09657abc-7a9d-477b-a3f3-c16d2af0ca75","ios":"levelo://app?vid=09657abc-7a9d-477b-a3f3-c16d2af0ca75"},"vehicle_type_id":"4","last_reported":1740578962,"current_range_meters":6800,"station_id":"ce4bhgp2rcd13ifvqfc0","pricing_plan_id":"cebpf4jnsgd1na2vs0mg"},{"bike_id":"4f05f3ee-6013-44c5-8283-3b2791627fda","system_id":"levelo_inurba_marseille","lat":43.28369,"lon":5.3864,"is_reserved":false,"is_disabled":false,"rental_uris":{"android":"levelo://app?vid=4f05f3ee-6013-44c5-8283-3b2791627fda","ios":"levelo://app?vid=4f05f3ee-6013-44c5-8283-3b2791627fda"},"vehicle_type_id":"4","last_reported":1740578962,"current_range_meters":6800,"station_id":"ce4bh492rcd13ifvqdvg","pricing_plan_id":"cebpf4jnsgd1na2vs0mg"},{"bike_id":"97bef890-6ea3-4063-a9cf-4bb74de1fa03","system_id":"levelo_inurba_marseille","lat":43.28613,"lon":5.35096,"is_reserved":false,"is_disabled":false,"rental_uris":{"android":"levelo://app?vid=97bef890-6ea3-4063-a9cf-4bb74de1fa03","ios":"levelo://app?vid=97bef890-6ea3-4063-a9cf-4bb74de1fa03"},"vehicle_type_id":"4","last_reported":1740578962,"current_range_meters":6800,"station_id":"ce4bhch2rcd13ifvqeug","pricing_plan_id":"cebpf4jnsgd1na2vs0mg"},{"bike_id":"3b6547c7-63ad-43c6-b150-77c1b7065c7e","system_id":"levelo_inurba_marseille","lat":43.30953,"lon":5.39053,"is_reserved":false,"is_disabled":false,"rental_uris":{"android":"levelo://app?vid=3b6547c7-63ad-43c6-b150-77c1b7065c7e","ios":"levelo://app?vid=3b6547c7-63ad-43c6-b150-77c1b7065c7e"},"vehicle_type_id":"4","last_reported":1740578962,"current_range_meters":6800,"station_id":"ce4bgup2rcd13ifvqco0","pricing_plan_id":"cebpf4jnsgd1na2vs0mg"},{"bike_id":"dbc8f7b4-0717-4dd1-b8c8-259a7be32b08","system_id":"levelo_inurba_marseille","lat":43.29548,"lon":5.4226,"is_reserved":false,"is_disabled":false,"rental_uris":{"android":"levelo://app?vid=dbc8f7b4-0717-4dd1-b8c8-259a7be32b08","ios":"levelo://app?vid=dbc8f7b4-0717-4dd1-b8c8-259a7be32b08"},"vehicle_type_id":"4","last_reported":1740578962,"current_range_meters":6000,"station_id":"ce4bhph2rcd13ifvqhdg","pricing_plan_id":"cebpf4jnsgd1na2vs0mg"},{"bike_id":"fd989f9b-c206-42e1-9b73-4174141497be","system_id":"levelo_inurba_marseille","lat":43.3088,"lon":5.39637,"is_reserved":false,"is_disabled":false,"rental_uris":{"android":"levelo://app?vid=fd989f9b-c206-42e1-9b73-4174141497be","ios":"levelo://app?vid=fd989f9b-c206-42e1-9b73-4174141497be"},"vehicle_type_id":"4","last_reported":1740578962,"current_range_meters":6800,"station_id":"ce4bh012rcd13ifvqcv0","pricing_plan_id":"cebpf4jnsgd1na2vs0mg"},{"bike_id":"eab5f6f5-33ca-4e39-92d4-c8c09de56017","system_id":"levelo_inurba_marseille","lat":43.30461,"lon":5.37903,"is_reserved":false,"is_disabled":false,"rental_uris":{"android":"levelo://app?vid=eab5f6f5-33ca-4e39-92d4-c8c09de56017","ios":"levelo://app?vid=eab5f6f5-33ca-4e39-92d4-c8c09de56017"},"vehicle_type_id":"4","last_reported":1740578962,"current_range_meters":7200,"station_id":"ce4bgup2rcd13ifvqcn0","pricing_plan_id":"cebpf4jnsgd1na2vs0mg"},{"bike_id":"d195c036-1441-4910-bcb8-60d709890867","system_id":"levelo_inurba_marseille","lat":43.24164,"lon":5.36389,"is_reserved":false,"is_disabled":false,"rental_uris":{"android":"levelo://app?vid=d195c036-1441-4910-bcb8-60d709890867","ios":"levelo://app?vid=d195c036-1441-4910-bcb8-60d709890867"},"vehicle_type_id":"4","last_reported":1740578962,"current_range_meters":7200,"station_id":"cpo36qri1sfpv3e86is0","pricing_plan_id":"cebpf4jnsgd1na2vs0mg"},{"bike_id":"2e2ae584-53de-4143-ae41-bf80a2a7867a","system_id":"levelo_inurba_marseille","lat":43.3043,"lon":5.39747,"is_reserved":false,"is_disabled":false,"rental_uris":{"android":"levelo://app?vid=2e2ae584-53de-4143-ae41-bf80a2a7867a","ios":"levelo://app?vid=2e2ae584-53de-4143-ae41-bf80a2a7867a"},"vehicle_type_id":"4","last_reported":1740578962,"current_range_meters":7200,"station_id":"ce4bh092rcd13ifvqd20","pricing_plan_id":"cebpf4jnsgd1na2vs0mg"},{"bike_id":"ef1e57e6-2da8-4e63-8299-55a6faf4e4b9","system_id":"levelo_inurba_marseille","lat":43.28687,"lon":5.38661,"is_reserved":false,"is_disabled":false,"rental_uris":{"android":"levelo://app?vid=ef1e57e6-2da8-4e63-8299-55a6faf4e4b9","ios":"levelo://app?vid=ef1e57e6-2da8-4e63-8299-55a6faf4e4b9"},"vehicle_type_id":"4","last_reported":1740578962,"current_range_meters":6800,"station_id":"ce4bh492rcd13ifvqdug","pricing_plan_id":"cebpf4jnsgd1na2vs0mg"},{"bike_id":"780d3cb4-374e-48d5-b3bf-1fe958e2fe90","system_id":"levelo_inurba_marseille","lat":43.26212,"lon":5.37441,"is_reserved":false,"is_disabled":false,"rental_uris":{"android":"levelo://app?vid=780d3cb4-374e-48d5-b3bf-1fe958e2fe90","ios":"levelo://app?vid=780d3cb4-374e-48d5-b3bf-1fe958e2fe90"},"vehicle_type_id":"4","last_reported":1740578962,"current_range_meters":7200,"station_id":"ce4bhgp2rcd13ifvqfc0","pricing_plan_id":"cebpf4jnsgd1na2vs0mg"},{"bike_id":"5713724b-bc01-4ed5-85d5-bc16050657ce","system_id":"levelo_inurba_marseille","lat":43.25939,"lon":5.409,"is_reserved":false,"is_disabled":false,"rental_uris":{"android":"levelo://app?vid=5713724b-bc01-4ed5-85d5-bc16050657ce","ios":"levelo://app?vid=5713724b-bc01-4ed5-85d5-bc16050657ce"},"vehicle_type_id":"4","last_reported":1740578962,"current_range_meters":7200,"station_id":"ce4bhm92rcd13ifvqglg","pricing_plan_id":"cebpf4jnsgd1na2vs0mg"},{"bike_id":"8a347558-4d24-4798-bc0f-3e92792b691e","system_id":"levelo_inurba_marseille","lat":43.31211,"lon":5.36832,"is_reserved":false,"is_disabled":false,"rental_uris":{"android":"levelo://app?vid=8a347558-4d24-4798-bc0f-3e92792b691e","ios":"levelo://app?vid=8a347558-4d24-4798-bc0f-3e92792b691e"},"vehicle_type_id":"4","last_reported":1740578962,"current_range_meters":7200,"station_id":"ce4bgl92rcd13ifvqbq0","pricing_plan_id":"cebpf4jnsgd1na2vs0mg"},{"bike_id":"845dc87b-c534-441a-b548-0fa166ad4ba1","system_id":"levelo_inurba_marseille","lat":43.28945,"lon":5.36405,"is_reserved":false,"is_disabled":false,"rental_uris":{"android":"levelo://app?vid=845dc87b-c534-441a-b548-0fa166ad4ba1","ios":"levelo://app?vid=845dc87b-c534-441a-b548-0fa166ad4ba1"},"vehicle_type_id":"4","last_reported":1740578962,"current_range_meters":6000,"station_id":"ce4bhc92rcd13ifvqetg","pricing_plan_id":"cebpf4jnsgd1na2vs0mg"},{"bike_id":"0c09efb1-8af8-4451-b0f9-2e14d3ea728f","system_id":"levelo_inurba_marseille","lat":43.28365,"lon":5.38636,"is_reserved":false,"is_disabled":false,"rental_uris":{"android":"levelo://app?vid=0c09efb1-8af8-4451-b0f9-2e14d3ea728f","ios":"levelo://app?vid=0c09efb1-8af8-4451-b0f9-2e14d3ea728f"},"vehicle_type_id":"4","last_reported":1740578962,"current_range_meters":8000,"station_id":"ce4bh492rcd13ifvqdvg","pricing_plan_id":"cebpf4jnsgd1na2vs0mg"},{"bike_id":"c8d90f4f-1a8b-4789-963c-8c1ca2116091","system_id":"levelo_inurba_marseille","lat":43.31332,"lon":5.36721,"is_reserved":false,"is_disabled":false,"rental_uris":{"android":"levelo://app?vid=c8d90f4f-1a8b-4789-963c-8c1ca2116091","ios":"levelo://app?vid=c8d90f4f-1a8b-4789-963c-8c1ca2116091"},"vehicle_type_id":"4","last_reported":1740578962,"current_range_meters":7200,"station_id":"ce4bgr92rcd13ifvqc6g","pricing_plan_id":"cebpf4jnsgd1na2vs0mg"},{"bike_id":"06093401-a556-4d18-9542-3df2a64f4422","system_id":"levelo_inurba_marseille","lat":43.26492,"lon":5.39569,"is_reserved":false,"is_disabled":false,"rental_uris":{"android":"levelo://app?vid=06093401-a556-4d18-9542-3df2a64f4422","ios":"levelo://app?vid=06093401-a556-4d18-9542-3df2a64f4422"},"vehicle_type_id":"4","last_reported":1740578962,"current_range_meters":8000,"station_id":"ce4bhi12rcd13ifvqfq0","pricing_plan_id":"cebpf4jnsgd1na2vs0mg"},{"bike_id":"a1ca3ad0-4f52-4569-bb87-4293f6934d8b","system_id":"levelo_inurba_marseille","lat":43.23194,"lon":5.35553,"is_reserved":false,"is_disabled":false,"rental_uris":{"android":"levelo://app?vid=a1ca3ad0-4f52-4569-bb87-4293f6934d8b","ios":"levelo://app?vid=a1ca3ad0-4f52-4569-bb87-4293f6934d8b"},"vehicle_type_id":"4","last_reported":1740578962,"current_range_meters":8000,"station_id":"ce4bhu92rcd13ifvqi70","pricing_plan_id":"cebpf4jnsgd1na2vs0mg"},{"bike_id":"0a3f5ff5-949d-4cf4-a30b-f6d782a87c75","system_id":"levelo_inurba_marseille","lat":43.2557,"lon":5.38232,"is_reserved":false,"is_disabled":false,"rental_uris":{"android":"levelo://app?vid=0a3f5ff5-949d-4cf4-a30b-f6d782a87c75","ios":"levelo://app?vid=0a3f5ff5-949d-4cf4-a30b-f6d782a87c75"},"vehicle_type_id":"4","last_reported":1740578962,"current_range_meters":8400,"station_id":"ce4bhih2rcd13ifvqfs0","pricing_plan_id":"cebpf4jnsgd1na2vs0mg"},{"bike_id":"678b0958-a3d2-4757-be0c-77a3a366d6f9","system_id":"levelo_inurba_marseille","lat":43.29609,"lon":5.3774,"is_reserved":false,"is_disabled":false,"rental_uris":{"android":"levelo://app?vid=678b0958-a3d2-4757-be0c-77a3a366d6f9","ios":"levelo://app?vid=678b0958-a3d2-4757-be0c-77a3a366d6f9"},"vehicle_type_id":"4","last_reported":1740578962,"current_range_meters":8400,"station_id":"ce4bgi92rcd13ifvqb90","pricing_plan_id":"cebpf4jnsgd1na2vs0mg"},{"bike_id":"c0943227-2fc9-4227-99b0-785966bc3239","system_id":"levelo_inurba_marseille","lat":43.250486,"lon":5.40326,"is_reserved":false,"is_disabled":false,"rental_uris":{"android":"levelo://app?vid=c0943227-2fc9-4227-99b0-785966bc3239","ios":"levelo://app?vid=c0943227-2fc9-4227-99b0-785966bc3239"},"vehicle_type_id":"4","last_reported":1740578962,"current_range_meters":8000,"station_id":"ce4bhh12rcd13ifvqff0","pricing_plan_id":"cebpf4jnsgd1na2vs0mg"},{"bike_id":"05f51bd6-bf8c-4b6c-ba2f-d7bf7cec3006","system_id":"levelo_inurba_marseille","lat":43.23187,"lon":5.3556,"is_reserved":false,"is_disabled":false,"rental_uris":{"android":"levelo://app?vid=05f51bd6-bf8c-4b6c-ba2f-d7bf7cec3006","ios":"levelo://app?vid=05f51bd6-bf8c-4b6c-ba2f-d7bf7cec3006"},"vehicle_type_id":"4","last_reported":1740578962,"current_range_meters":8400,"station_id":"ce4bhu92rcd13ifvqi70","pricing_plan_id":"cebpf4jnsgd1na2vs0mg"},{"bike_id":"9f6b1a57-8b18-4910-92c4-7c3c71b26e15","system_id":"levelo_inurba_marseille","lat":43.2334,"lon":5.36011,"is_reserved":false,"is_disabled":false,"rental_uris":{"android":"levelo://app?vid=9f6b1a57-8b18-4910-92c4-7c3c71b26e15","ios":"levelo://app?vid=9f6b1a57-8b18-4910-92c4-7c3c71b26e15"},"vehicle_type_id":"4","last_reported":1740578962,"current_range_meters":8400,"station_id":"","pricing_plan_id":"cebpf4jnsgd1na2vs0mg"},{"bike_id":"338ea397-fc1c-4285-90cc-058db7682af1","system_id":"levelo_inurba_marseille","lat":43.23159,"lon":5.4372,"is_reserved":false,"is_disabled":false,"rental_uris":{"android":"levelo://app?vid=338ea397-fc1c-4285-90cc-058db7682af1","ios":"levelo://app?vid=338ea397-fc1c-4285-90cc-058db7682af1"},"vehicle_type_id":"4","last_reported":1740578962,"current_range_meters":8800,"station_id":"ce4bhmp2rcd13ifvqgog","pricing_plan_id":"cebpf4jnsgd1na2vs0mg"},{"bike_id":"8801f531-d481-4160-b34e-40afc4ee14bc","system_id":"levelo_inurba_marseille","lat":43.23165,"lon":5.43712,"is_reserved":false,"is_disabled":false,"rental_uris":{"android":"levelo://app?vid=8801f531-d481-4160-b34e-40afc4ee14bc","ios":"levelo://app?vid=8801f531-d481-4160-b34e-40afc4ee14bc"},"vehicle_type_id":"4","last_reported":1740578962,"current_range_meters":8800,"station_id":"ce4bhmp2rcd13ifvqgog","pricing_plan_id":"cebpf4jnsgd1na2vs0mg"},{"bike_id":"bb0c7672-5984-45f2-8ca3-eb3e90172afc","system_id":"levelo_inurba_marseille","lat":43.26194,"lon":5.37475,"is_reserved":false,"is_disabled":false,"rental_uris":{"android":"levelo://app?vid=bb0c7672-5984-45f2-8ca3-eb3e90172afc","ios":"levelo://app?vid=bb0c7672-5984-45f2-8ca3-eb3e90172afc"},"vehicle_type_id":"4","last_reported":1740578962,"current_range_meters":8800,"station_id":"ce4bhgp2rcd13ifvqfc0","pricing_plan_id":"cebpf4jnsgd1na2vs0mg"},{"bike_id":"e303b55f-162e-4cea-bf5a-557ca853fe67","system_id":"levelo_inurba_marseille","lat":43.30019,"lon":5.366597,"is_reserved":false,"is_disabled":false,"rental_uris":{"android":"levelo://app?vid=e303b55f-162e-4cea-bf5a-557ca853fe67","ios":"levelo://app?vid=e303b55f-162e-4cea-bf5a-557ca853fe67"},"vehicle_type_id":"4","last_reported":1740578962,"current_range_meters":8800,"station_id":"ce4bgj92rcd13ifvqbd0","pricing_plan_id":"cebpf4jnsgd1na2vs0mg"},{"bike_id":"939f33af-8989-471c-b0be-670d3ce352e9","system_id":"levelo_inurba_marseille","lat":43.2885,"lon":5.35857,"is_reserved":false,"is_disabled":false,"rental_uris":{"android":"levelo://app?vid=939f33af-8989-471c-b0be-670d3ce352e9","ios":"levelo://app?vid=939f33af-8989-471c-b0be-670d3ce352e9"},"vehicle_type_id":"4","last_reported":1740578962,"current_range_meters":8800,"station_id":"ce4bhb12rcd13ifvqem0","pricing_plan_id":"cebpf4jnsgd1na2vs0mg"},{"bike_id":"65aa006b-1fb7-4dbf-8247-4b7f3069491a","system_id":"levelo_inurba_marseille","lat":43.27681,"lon":5.38893,"is_reserved":false,"is_disabled":false,"rental_uris":{"android":"levelo://app?vid=65aa006b-1fb7-4dbf-8247-4b7f3069491a","ios":"levelo://app?vid=65aa006b-1fb7-4dbf-8247-4b7f3069491a"},"vehicle_type_id":"4","last_reported":1740578962,"current_range_meters":8800,"station_id":"ce4bhi12rcd13ifvqfo0","pricing_plan_id":"cebpf4jnsgd1na2vs0mg"},{"bike_id":"37952043-09ff-4815-981b-e6a0e1926342","system_id":"levelo_inurba_marseille","lat":43.28973,"lon":5.37838,"is_reserved":false,"is_disabled":false,"rental_uris":{"android":"levelo://app?vid=37952043-09ff-4815-981b-e6a0e1926342","ios":"levelo://app?vid=37952043-09ff-4815-981b-e6a0e1926342"},"vehicle_type_id":"4","last_reported":1740578962,"current_range_meters":8400,"station_id":"ce4bh9p2rcd13ifvqed0","pricing_plan_id":"cebpf4jnsgd1na2vs0mg"},{"bike_id":"e22a55f9-0318-423d-a7c8-c081ef1e2e98","system_id":"levelo_inurba_marseille","lat":43.28687,"lon":5.39978,"is_reserved":false,"is_disabled":false,"rental_uris":{"android":"levelo://app?vid=e22a55f9-0318-423d-a7c8-c081ef1e2e98","ios":"levelo://app?vid=e22a55f9-0318-423d-a7c8-c081ef1e2e98"},"vehicle_type_id":"4","last_reported":1740578962,"current_range_meters":9600,"station_id":"ce4bho92rcd13ifvqh3g","pricing_plan_id":"cebpf4jnsgd1na2vs0mg"},{"bike_id":"c361e84c-311a-48cf-8bff-af8605825359","system_id":"levelo_inurba_marseille","lat":43.30314,"lon":5.36894,"is_reserved":false,"is_disabled":false,"rental_uris":{"android":"levelo://app?vid=c361e84c-311a-48cf-8bff-af8605825359","ios":"levelo://app?vid=c361e84c-311a-48cf-8bff-af8605825359"},"vehicle_type_id":"4","last_reported":1740578962,"current_range_meters":9200,"station_id":"ce4bgqh2rcd13ifvqc5g","pricing_plan_id":"cebpf4jnsgd1na2vs0mg"},{"bike_id":"a18d2462-6430-4fa5-8ce7-637ac348b4cd","system_id":"levelo_inurba_marseille","lat":43.2794,"lon":5.41017,"is_reserved":false,"is_disabled":false,"rental_uris":{"android":"levelo://app?vid=a18d2462-6430-4fa5-8ce7-637ac348b4cd","ios":"levelo://app?vid=a18d2462-6430-4fa5-8ce7-637ac348b4cd"},"vehicle_type_id":"4","last_reported":1740578962,"current_range_meters":9200,"station_id":"ce4bhnp2rcd13ifvqh0g","pricing_plan_id":"cebpf4jnsgd1na2vs0mg"},{"bike_id":"7cb2ec13-9150-4ba0-8600-71e4c8b933c1","system_id":"levelo_inurba_marseille","lat":43.28269,"lon":5.35079,"is_reserved":false,"is_disabled":false,"rental_uris":{"android":"levelo://app?vid=7cb2ec13-9150-4ba0-8600-71e4c8b933c1","ios":"levelo://app?vid=7cb2ec13-9150-4ba0-8600-71e4c8b933c1"},"vehicle_type_id":"4","last_reported":1740578962,"current_range_meters":9200,"station_id":"ce4bhbp2rcd13ifvqerg","pricing_plan_id":"cebpf4jnsgd1na2vs0mg"},{"bike_id":"c38518e4-dee8-4f2a-a5a0-8e7730d73a3e","system_id":"levelo_inurba_marseille","lat":43.28682,"lon":5.38656,"is_reserved":false,"is_disabled":false,"rental_uris":{"android":"levelo://app?vid=c38518e4-dee8-4f2a-a5a0-8e7730d73a3e","ios":"levelo://app?vid=c38518e4-dee8-4f2a-a5a0-8e7730d73a3e"},"vehicle_type_id":"4","last_reported":1740578962,"current_range_meters":12400,"station_id":"ce4bh492rcd13ifvqdug","pricing_plan_id":"cebpf4jnsgd1na2vs0mg"},{"bike_id":"d0801915-0de0-4f9d-9726-750b42c06614","system_id":"levelo_inurba_marseille","lat":43.32093,"lon":5.36784,"is_reserved":false,"is_disabled":false,"rental_uris":{"android":"levelo://app?vid=d0801915-0de0-4f9d-9726-750b42c06614","ios":"levelo://app?vid=d0801915-0de0-4f9d-9726-750b42c06614"},"vehicle_type_id":"4","last_reported":1740578962,"current_range_meters":9200,"station_id":"ce4bhrh2rcd13ifvqhug","pricing_plan_id":"cebpf4jnsgd1na2vs0mg"},{"bike_id":"98b238a9-4025-493e-bfff-4f030bc1db49","system_id":"levelo_inurba_marseille","lat":43.30878,"lon":5.39639,"is_reserved":false,"is_disabled":false,"rental_uris":{"android":"levelo://app?vid=98b238a9-4025-493e-bfff-4f030bc1db49","ios":"levelo://app?vid=98b238a9-4025-493e-bfff-4f030bc1db49"},"vehicle_type_id":"4","last_reported":1740578962,"current_range_meters":9200,"station_id":"ce4bh012rcd13ifvqcv0","pricing_plan_id":"cebpf4jnsgd1na2vs0mg"},{"bike_id":"c52acbad-9974-48d6-b92b-1d6c12a1b66d","system_id":"levelo_inurba_marseille","lat":43.25929,"lon":5.40854,"is_reserved":false,"is_disabled":false,"rental_uris":{"android":"levelo://app?vid=c52acbad-9974-48d6-b92b-1d6c12a1b66d","ios":"levelo://app?vid=c52acbad-9974-48d6-b92b-1d6c12a1b66d"},"vehicle_type_id":"4","last_reported":1740578962,"current_range_meters":9600,"station_id":"ce4bhm92rcd13ifvqglg","pricing_plan_id":"cebpf4jnsgd1na2vs0mg"},{"bike_id":"c1e1cfc9-4e56-4f7a-94a9-2d01d9bb2a93","system_id":"levelo_inurba_marseille","lat":43.24851,"lon":5.37461,"is_reserved":false,"is_disabled":false,"rental_uris":{"android":"levelo://app?vid=c1e1cfc9-4e56-4f7a-94a9-2d01d9bb2a93","ios":"levelo://app?vid=c1e1cfc9-4e56-4f7a-94a9-2d01d9bb2a93"},"vehicle_type_id":"4","last_reported":1740578962,"current_range_meters":9600,"station_id":"","pricing_plan_id":"cebpf4jnsgd1na2vs0mg"},{"bike_id":"0a12fa4f-28da-4434-958a-793fe3b21464","system_id":"levelo_inurba_marseille","lat":43.28973,"lon":5.37838,"is_reserved":false,"is_disabled":false,"rental_uris":{"android":"levelo://app?vid=0a12fa4f-28da-4434-958a-793fe3b21464","ios":"levelo://app?vid=0a12fa4f-28da-4434-958a-793fe3b21464"},"vehicle_type_id":"4","last_reported":1740578962,"current_range_meters":9600,"station_id":"ce4bh9p2rcd13ifvqed0","pricing_plan_id":"cebpf4jnsgd1na2vs0mg"},{"bike_id":"7a11746b-280b-499c-bf52-15d606873991","system_id":"levelo_inurba_marseille","lat":43.30924,"lon":5.40143,"is_reserved":false,"is_disabled":false,"rental_uris":{"android":"levelo://app?vid=7a11746b-280b-499c-bf52-15d606873991","ios":"levelo://app?vid=7a11746b-280b-499c-bf52-15d606873991"},"vehicle_type_id":"4","last_reported":1740578962,"current_range_meters":10800,"station_id":"ce4bgvp2rcd13ifvqct0","pricing_plan_id":"cebpf4jnsgd1na2vs0mg"},{"bike_id":"7c8aaa9b-e43a-43de-8b4f-a531a44d3724","system_id":"levelo_inurba_marseille","lat":43.27933,"lon":5.41035,"is_reserved":false,"is_disabled":false,"rental_uris":{"android":"levelo://app?vid=7c8aaa9b-e43a-43de-8b4f-a531a44d3724","ios":"levelo://app?vid=7c8aaa9b-e43a-43de-8b4f-a531a44d3724"},"vehicle_type_id":"4","last_reported":1740578962,"current_range_meters":9600,"station_id":"ce4bhnp2rcd13ifvqh0g","pricing_plan_id":"cebpf4jnsgd1na2vs0mg"},{"bike_id":"6b286004-f086-4023-9675-02a95f8e917b","system_id":"levelo_inurba_marseille","lat":43.309607,"lon":5.390458,"is_reserved":false,"is_disabled":true,"rental_uris":{"android":"levelo://app?vid=6b286004-f086-4023-9675-02a95f8e917b","ios":"levelo://app?vid=6b286004-f086-4023-9675-02a95f8e917b"},"vehicle_type_id":"4","last_reported":1740578962,"current_range_meters":9600,"station_id":"ce4bgup2rcd13ifvqco0","pricing_plan_id":"cebpf4jnsgd1na2vs0mg"},{"bike_id":"b007f058-4163-4bbe-ba13-50835769bd43","system_id":"levelo_inurba_marseille","lat":43.317071,"lon":5.437102,"is_reserved":false,"is_disabled":false,"rental_uris":{"android":"levelo://app?vid=b007f058-4163-4bbe-ba13-50835769bd43","ios":"levelo://app?vid=b007f058-4163-4bbe-ba13-50835769bd43"},"vehicle_type_id":"4","last_reported":1740578962,"current_range_meters":9600,"station_id":"ce4bhp92rcd13ifvqhcg","pricing_plan_id":"cebpf4jnsgd1na2vs0mg"},{"bike_id":"68307e54-4bf1-4175-b0d8-726606b2225e","system_id":"levelo_inurba_marseille","lat":43.317128,"lon":5.37737,"is_reserved":false,"is_disabled":false,"rental_uris":{"android":"levelo://app?vid=68307e54-4bf1-4175-b0d8-726606b2225e","ios":"levelo://app?vid=68307e54-4bf1-4175-b0d8-726606b2225e"},"vehicle_type_id":"4","last_reported":1740578962,"current_range_meters":9600,"station_id":"ce4bgth2rcd13ifvqch0","pricing_plan_id":"cebpf4jnsgd1na2vs0mg"},{"bike_id":"428c4765-0d03-4596-a383-b22f183cae14","system_id":"levelo_inurba_marseille","lat":43.30327,"lon":5.40433,"is_reserved":false,"is_disabled":false,"rental_uris":{"android":"levelo://app?vid=428c4765-0d03-4596-a383-b22f183cae14","ios":"levelo://app?vid=428c4765-0d03-4596-a383-b22f183cae14"},"vehicle_type_id":"4","last_reported":1740578962,"current_range_meters":9600,"station_id":"ce4bh012rcd13ifvqd10","pricing_plan_id":"cebpf4jnsgd1na2vs0mg"},{"bike_id":"eec6fd0c-47b2-4d60-b5a3-3d356fdee7e7","system_id":"levelo_inurba_marseille","lat":43.23143,"lon":5.43725,"is_reserved":false,"is_disabled":false,"rental_uris":{"android":"levelo://app?vid=eec6fd0c-47b2-4d60-b5a3-3d356fdee7e7","ios":"levelo://app?vid=eec6fd0c-47b2-4d60-b5a3-3d356fdee7e7"},"vehicle_type_id":"4","last_reported":1740578962,"current_range_meters":9600,"station_id":"ce4bhmp2rcd13ifvqgog","pricing_plan_id":"cebpf4jnsgd1na2vs0mg"},{"bike_id":"7c9cd80a-e5de-4f68-bca0-c6fc876262c6","system_id":"levelo_inurba_marseille","lat":43.28352,"lon":5.38638,"is_reserved":false,"is_disabled":false,"rental_uris":{"android":"levelo://app?vid=7c9cd80a-e5de-4f68-bca0-c6fc876262c6","ios":"levelo://app?vid=7c9cd80a-e5de-4f68-bca0-c6fc876262c6"},"vehicle_type_id":"4","last_reported":1740578962,"current_range_meters":9600,"station_id":"ce4bh492rcd13ifvqdvg","pricing_plan_id":"cebpf4jnsgd1na2vs0mg"},{"bike_id":"c7fdcdd8-f9ae-4f1b-afd3-37d14dd34e05","system_id":"levelo_inurba_marseille","lat":43.28358,"lon":5.38636,"is_reserved":false,"is_disabled":false,"rental_uris":{"android":"levelo://app?vid=c7fdcdd8-f9ae-4f1b-afd3-37d14dd34e05","ios":"levelo://app?vid=c7fdcdd8-f9ae-4f1b-afd3-37d14dd34e05"},"vehicle_type_id":"4","last_reported":1740578962,"current_range_meters":9600,"station_id":"ce4bh492rcd13ifvqdvg","pricing_plan_id":"cebpf4jnsgd1na2vs0mg"},{"bike_id":"2f679d9b-91d9-4117-a20e-ddaf4636fa59","system_id":"levelo_inurba_marseille","lat":43.2961,"lon":5.38108,"is_reserved":false,"is_disabled":false,"rental_uris":{"android":"levelo://app?vid=2f679d9b-91d9-4117-a20e-ddaf4636fa59","ios":"levelo://app?vid=2f679d9b-91d9-4117-a20e-ddaf4636fa59"},"vehicle_type_id":"4","last_reported":1740578962,"current_range_meters":9600,"station_id":"ce4bgl12rcd13ifvqbo0","pricing_plan_id":"cebpf4jnsgd1na2vs0mg"},{"bike_id":"9ef79723-6cb1-4d5f-a0e8-eb7f2049e86b","system_id":"levelo_inurba_marseille","lat":43.255005,"lon":5.376492,"is_reserved":false,"is_disabled":false,"rental_uris":{"android":"levelo://app?vid=9ef79723-6cb1-4d5f-a0e8-eb7f2049e86b","ios":"levelo://app?vid=9ef79723-6cb1-4d5f-a0e8-eb7f2049e86b"},"vehicle_type_id":"4","last_reported":1740578962,"current_range_meters":9200,"station_id":"ce4bhh12rcd13ifvqff0","pricing_plan_id":"cebpf4jnsgd1na2vs0mg"},{"bike_id":"b7a311c0-b08e-4dde-96a5-093323e33ff3","system_id":"levelo_inurba_marseille","lat":43.29848,"lon":5.36275,"is_reserved":false,"is_disabled":false,"rental_uris":{"android":"levelo://app?vid=b7a311c0-b08e-4dde-96a5-093323e33ff3","ios":"levelo://app?vid=b7a311c0-b08e-4dde-96a5-093323e33ff3"},"vehicle_type_id":"4","last_reported":1740578962,"current_range_meters":10000,"station_id":"ce4bgpp2rcd13ifvqc3g","pricing_plan_id":"cebpf4jnsgd1na2vs0mg"},{"bike_id":"8ce28284-f25c-4a84-a027-c0dc68a50726","system_id":"levelo_inurba_marseille","lat":43.31175,"lon":5.38717,"is_reserved":false,"is_disabled":false,"rental_uris":{"android":"levelo://app?vid=8ce28284-f25c-4a84-a027-c0dc68a50726","ios":"levelo://app?vid=8ce28284-f25c-4a84-a027-c0dc68a50726"},"vehicle_type_id":"4","last_reported":1740578962,"current_range_meters":10000,"station_id":"ce4bgv12rcd13ifvqcp0","pricing_plan_id":"cebpf4jnsgd1na2vs0mg"},{"bike_id":"794e4b00-d2c0-4925-b386-ebf169f3a81c","system_id":"levelo_inurba_marseille","lat":43.27053,"lon":5.40264,"is_reserved":false,"is_disabled":false,"rental_uris":{"android":"levelo://app?vid=794e4b00-d2c0-4925-b386-ebf169f3a81c","ios":"levelo://app?vid=794e4b00-d2c0-4925-b386-ebf169f3a81c"},"vehicle_type_id":"4","last_reported":1740578962,"current_range_meters":10000,"station_id":"ce4bhk92rcd13ifvqgc0","pricing_plan_id":"cebpf4jnsgd1na2vs0mg"},{"bike_id":"2896d892-ad5e-47b7-85f0-91eb678fa5fc","system_id":"levelo_inurba_marseille","lat":43.28388,"lon":5.38652,"is_reserved":false,"is_disabled":false,"rental_uris":{"android":"levelo://app?vid=2896d892-ad5e-47b7-85f0-91eb678fa5fc","ios":"levelo://app?vid=2896d892-ad5e-47b7-85f0-91eb678fa5fc"},"vehicle_type_id":"4","last_reported":1740578962,"current_range_meters":10000,"station_id":"ce4bh492rcd13ifvqdvg","pricing_plan_id":"cebpf4jnsgd1na2vs0mg"},{"bike_id":"261556eb-c6ed-4781-a967-bc98c917e52c","system_id":"levelo_inurba_marseille","lat":43.24184,"lon":5.39724,"is_reserved":false,"is_disabled":false,"rental_uris":{"android":"levelo://app?vid=261556eb-c6ed-4781-a967-bc98c917e52c","ios":"levelo://app?vid=261556eb-c6ed-4781-a967-bc98c917e52c"},"vehicle_type_id":"4","last_reported":1740578962,"current_range_meters":10000,"station_id":"ce4bhn12rcd13ifvqgpg","pricing_plan_id":"cebpf4jnsgd1na2vs0mg"},{"bike_id":"df850790-f7af-4b12-ba4a-a21655a1c3e7","system_id":"levelo_inurba_marseille","lat":43.26568,"lon":5.39027,"is_reserved":false,"is_disabled":false,"rental_uris":{"android":"levelo://app?vid=df850790-f7af-4b12-ba4a-a21655a1c3e7","ios":"levelo://app?vid=df850790-f7af-4b12-ba4a-a21655a1c3e7"},"vehicle_type_id":"4","last_reported":1740578962,"current_range_meters":10000,"station_id":"ce4bhe12rcd13ifvqf30","pricing_plan_id":"cebpf4jnsgd1na2vs0mg"},{"bike_id":"ea630c8a-0ecd-4bee-b693-0df46eb3303f","system_id":"levelo_inurba_marseille","lat":43.309135,"lon":5.401655,"is_reserved":false,"is_disabled":false,"rental_uris":{"android":"levelo://app?vid=ea630c8a-0ecd-4bee-b693-0df46eb3303f","ios":"levelo://app?vid=ea630c8a-0ecd-4bee-b693-0df46eb3303f"},"vehicle_type_id":"4","last_reported":1740578962,"current_range_meters":10800,"station_id":"ce4bgvp2rcd13ifvqct0","pricing_plan_id":"cebpf4jnsgd1na2vs0mg"},{"bike_id":"67ee95a1-160f-49c1-b11e-b3640680cd0d","system_id":"levelo_inurba_marseille","lat":43.320955,"lon":5.367934,"is_reserved":false,"is_disabled":false,"rental_uris":{"android":"levelo://app?vid=67ee95a1-160f-49c1-b11e-b3640680cd0d","ios":"levelo://app?vid=67ee95a1-160f-49c1-b11e-b3640680cd0d"},"vehicle_type_id":"4","last_reported":1740578962,"current_range_meters":10800,"station_id":"ce4bhrh2rcd13ifvqhug","pricing_plan_id":"cebpf4jnsgd1na2vs0mg"},{"bike_id":"1d70c622-10e8-4a33-8612-a7dc67991c51","system_id":"levelo_inurba_marseille","lat":43.3169,"lon":5.37727,"is_reserved":false,"is_disabled":false,"rental_uris":{"android":"levelo://app?vid=1d70c622-10e8-4a33-8612-a7dc67991c51","ios":"levelo://app?vid=1d70c622-10e8-4a33-8612-a7dc67991c51"},"vehicle_type_id":"4","last_reported":1740578962,"current_range_meters":11200,"station_id":"ce4bgth2rcd13ifvqch0","pricing_plan_id":"cebpf4jnsgd1na2vs0mg"},{"bike_id":"52832f17-343d-4a4b-8f6f-f4e9f87b0780","system_id":"levelo_inurba_marseille","lat":43.30411,"lon":5.41282,"is_reserved":false,"is_disabled":false,"rental_uris":{"android":"levelo://app?vid=52832f17-343d-4a4b-8f6f-f4e9f87b0780","ios":"levelo://app?vid=52832f17-343d-4a4b-8f6f-f4e9f87b0780"},"vehicle_type_id":"4","last_reported":1740578962,"current_range_meters":11200,"station_id":"ce4bhop2rcd13ifvqh8g","pricing_plan_id":"cebpf4jnsgd1na2vs0mg"},{"bike_id":"9a6f21ab-00ab-4659-a64f-a05d55d80f27","system_id":"levelo_inurba_marseille","lat":43.23149,"lon":5.43723,"is_reserved":false,"is_disabled":false,"rental_uris":{"android":"levelo://app?vid=9a6f21ab-00ab-4659-a64f-a05d55d80f27","ios":"levelo://app?vid=9a6f21ab-00ab-4659-a64f-a05d55d80f27"},"vehicle_type_id":"4","last_reported":1740578962,"current_range_meters":4400,"station_id":"ce4bhmp2rcd13ifvqgog","pricing_plan_id":"cebpf4jnsgd1na2vs0mg"},{"bike_id":"892ec2a1-329c-4584-aeed-ad1895bfe3e4","system_id":"levelo_inurba_marseille","lat":43.26553,"lon":5.37293,"is_reserved":false,"is_disabled":false,"rental_uris":{"android":"levelo://app?vid=892ec2a1-329c-4584-aeed-ad1895bfe3e4","ios":"levelo://app?vid=892ec2a1-329c-4584-aeed-ad1895bfe3e4"},"vehicle_type_id":"4","last_reported":1740578962,"current_range_meters":11600,"station_id":"ce4bhg12rcd13ifvqf70","pricing_plan_id":"cebpf4jnsgd1na2vs0mg"},{"bike_id":"a575f4dc-276f-4f6f-bc4c-8972fb7f85cb","system_id":"levelo_inurba_marseille","lat":43.25821,"lon":5.3943,"is_reserved":false,"is_disabled":false,"rental_uris":{"android":"levelo://app?vid=a575f4dc-276f-4f6f-bc4c-8972fb7f85cb","ios":"levelo://app?vid=a575f4dc-276f-4f6f-bc4c-8972fb7f85cb"},"vehicle_type_id":"4","last_reported":1740578962,"current_range_meters":11600,"station_id":"ce4bhip2rcd13ifvqft0","pricing_plan_id":"cebpf4jnsgd1na2vs0mg"},{"bike_id":"5f3ecd30-26e5-4781-aa00-9a39086cf2ed","system_id":"levelo_inurba_marseille","lat":43.29616,"lon":5.37733,"is_reserved":false,"is_disabled":false,"rental_uris":{"android":"levelo://app?vid=5f3ecd30-26e5-4781-aa00-9a39086cf2ed","ios":"levelo://app?vid=5f3ecd30-26e5-4781-aa00-9a39086cf2ed"},"vehicle_type_id":"4","last_reported":1740578962,"current_range_meters":14400,"station_id":"ce4bgi92rcd13ifvqb90","pricing_plan_id":"cebpf4jnsgd1na2vs0mg"},{"bike_id":"9713c2d9-3b19-4217-97be-c2241cc8de47","system_id":"levelo_inurba_marseille","lat":43.281,"lon":5.37846,"is_reserved":false,"is_disabled":false,"rental_uris":{"android":"levelo://app?vid=9713c2d9-3b19-4217-97be-c2241cc8de47","ios":"levelo://app?vid=9713c2d9-3b19-4217-97be-c2241cc8de47"},"vehicle_type_id":"4","last_reported":1740578962,"current_range_meters":11600,"station_id":"ce4bha12rcd13ifvqee0","pricing_plan_id":"cebpf4jnsgd1na2vs0mg"},{"bike_id":"7b88249c-dad9-41b6-9f1c-a7425fe2642c","system_id":"levelo_inurba_marseille","lat":43.28564,"lon":5.37862,"is_reserved":false,"is_disabled":false,"rental_uris":{"android":"levelo://app?vid=7b88249c-dad9-41b6-9f1c-a7425fe2642c","ios":"levelo://app?vid=7b88249c-dad9-41b6-9f1c-a7425fe2642c"},"vehicle_type_id":"4","last_reported":1740578962,"current_range_meters":11600,"station_id":"cki0cbj6b192h4jlfktg","pricing_plan_id":"cebpf4jnsgd1na2vs0mg"},{"bike_id":"be99c348-436b-4668-9f8c-0317bfa92d52","system_id":"levelo_inurba_marseille","lat":43.24664,"lon":5.38167,"is_reserved":false,"is_disabled":false,"rental_uris":{"android":"levelo://app?vid=be99c348-436b-4668-9f8c-0317bfa92d52","ios":"levelo://app?vid=be99c348-436b-4668-9f8c-0317bfa92d52"},"vehicle_type_id":"4","last_reported":1740578962,"current_range_meters":11600,"station_id":"ce4bhih2rcd13ifvqfr0","pricing_plan_id":"cebpf4jnsgd1na2vs0mg"},{"bike_id":"6d5978ab-b5fe-4ca7-8ce6-534c53738d8a","system_id":"levelo_inurba_marseille","lat":43.309416,"lon":5.390388,"is_reserved":false,"is_disabled":false,"rental_uris":{"android":"levelo://app?vid=6d5978ab-b5fe-4ca7-8ce6-534c53738d8a","ios":"levelo://app?vid=6d5978ab-b5fe-4ca7-8ce6-534c53738d8a"},"vehicle_type_id":"4","last_reported":1740578962,"current_range_meters":9600,"station_id":"ce4bgup2rcd13ifvqco0","pricing_plan_id":"cebpf4jnsgd1na2vs0mg"},{"bike_id":"df2b6808-8c0d-4f30-9be3-8afa5e31f82f","system_id":"levelo_inurba_marseille","lat":43.30883,"lon":5.39629,"is_reserved":false,"is_disabled":false,"rental_uris":{"android":"levelo://app?vid=df2b6808-8c0d-4f30-9be3-8afa5e31f82f","ios":"levelo://app?vid=df2b6808-8c0d-4f30-9be3-8afa5e31f82f"},"vehicle_type_id":"4","last_reported":1740578962,"current_range_meters":11600,"station_id":"ce4bh012rcd13ifvqcv0","pricing_plan_id":"cebpf4jnsgd1na2vs0mg"},{"bike_id":"48631707-ce9f-4cd4-915b-12b11940295d","system_id":"levelo_inurba_marseille","lat":43.30436,"lon":5.389,"is_reserved":false,"is_disabled":false,"rental_uris":{"android":"levelo://app?vid=48631707-ce9f-4cd4-915b-12b11940295d","ios":"levelo://app?vid=48631707-ce9f-4cd4-915b-12b11940295d"},"vehicle_type_id":"4","last_reported":1740578962,"current_range_meters":5600,"station_id":"ce4bgk12rcd13ifvqbi0","pricing_plan_id":"cebpf4jnsgd1na2vs0mg"},{"bike_id":"ba8b02ce-7114-4180-a0ba-8c704ad24312","system_id":"levelo_inurba_marseille","lat":43.30432,"lon":5.38883,"is_reserved":false,"is_disabled":false,"rental_uris":{"android":"levelo://app?vid=ba8b02ce-7114-4180-a0ba-8c704ad24312","ios":"levelo://app?vid=ba8b02ce-7114-4180-a0ba-8c704ad24312"},"vehicle_type_id":"4","last_reported":1740578962,"current_range_meters":12000,"station_id":"ce4bgk12rcd13ifvqbi0","pricing_plan_id":"cebpf4jnsgd1na2vs0mg"},{"bike_id":"262bb674-d268-40cd-99bc-c0d9f2f1ba95","system_id":"levelo_inurba_marseille","lat":43.291943,"lon":5.358067,"is_reserved":false,"is_disabled":false,"rental_uris":{"android":"levelo://app?vid=262bb674-d268-40cd-99bc-c0d9f2f1ba95","ios":"levelo://app?vid=262bb674-d268-40cd-99bc-c0d9f2f1ba95"},"vehicle_type_id":"4","last_reported":1740578962,"current_range_meters":11600,"station_id":"ce4bhb12rcd13ifvqel0","pricing_plan_id":"cebpf4jnsgd1na2vs0mg"},{"bike_id":"763b0198-834c-4f4a-902d-698b7b01f999","system_id":"levelo_inurba_marseille","lat":43.30892,"lon":5.3962,"is_reserved":false,"is_disabled":false,"rental_uris":{"android":"levelo://app?vid=763b0198-834c-4f4a-902d-698b7b01f999","ios":"levelo://app?vid=763b0198-834c-4f4a-902d-698b7b01f999"},"vehicle_type_id":"4","last_reported":1740578962,"current_range_meters":12000,"station_id":"ce4bh012rcd13ifvqcv0","pricing_plan_id":"cebpf4jnsgd1na2vs0mg"},{"bike_id":"65e8f8dd-53e2-4729-b441-c5d9a0776539","system_id":"levelo_inurba_marseille","lat":43.31442,"lon":5.37388,"is_reserved":false,"is_disabled":false,"rental_uris":{"android":"levelo://app?vid=65e8f8dd-53e2-4729-b441-c5d9a0776539","ios":"levelo://app?vid=65e8f8dd-53e2-4729-b441-c5d9a0776539"},"vehicle_type_id":"4","last_reported":1740578962,"current_range_meters":12400,"station_id":"","pricing_plan_id":"cebpf4jnsgd1na2vs0mg"},{"bike_id":"634b0db3-eb2a-44d3-b72b-43fb39e98206","system_id":"levelo_inurba_marseille","lat":43.28697,"lon":5.37398,"is_reserved":false,"is_disabled":false,"rental_uris":{"android":"levelo://app?vid=634b0db3-eb2a-44d3-b72b-43fb39e98206","ios":"levelo://app?vid=634b0db3-eb2a-44d3-b72b-43fb39e98206"},"vehicle_type_id":"4","last_reported":1740578962,"current_range_meters":12000,"station_id":"ce4bh3p2rcd13ifvqdq0","pricing_plan_id":"cebpf4jnsgd1na2vs0mg"},{"bike_id":"587e219c-397e-4771-a64f-cd811a3cc087","system_id":"levelo_inurba_marseille","lat":43.32476,"lon":5.36581,"is_reserved":false,"is_disabled":false,"rental_uris":{"android":"levelo://app?vid=587e219c-397e-4771-a64f-cd811a3cc087","ios":"levelo://app?vid=587e219c-397e-4771-a64f-cd811a3cc087"},"vehicle_type_id":"4","last_reported":1740578962,"current_range_meters":12000,"station_id":"ce4bhs12rcd13ifvqhvg","pricing_plan_id":"cebpf4jnsgd1na2vs0mg"},{"bike_id":"0f6fc01f-ccb5-4e68-9e48-47ab104d6823","system_id":"levelo_inurba_marseille","lat":43.31244,"lon":5.36889,"is_reserved":false,"is_disabled":false,"rental_uris":{"android":"levelo://app?vid=0f6fc01f-ccb5-4e68-9e48-47ab104d6823","ios":"levelo://app?vid=0f6fc01f-ccb5-4e68-9e48-47ab104d6823"},"vehicle_type_id":"4","last_reported":1740578962,"current_range_meters":12400,"station_id":"ce4bgl92rcd13ifvqbq0","pricing_plan_id":"cebpf4jnsgd1na2vs0mg"},{"bike_id":"f9eed1e4-1895-44e2-8624-cc9551693ed5","system_id":"levelo_inurba_marseille","lat":43.29884,"lon":5.36323,"is_reserved":false,"is_disabled":false,"rental_uris":{"android":"levelo://app?vid=f9eed1e4-1895-44e2-8624-cc9551693ed5","ios":"levelo://app?vid=f9eed1e4-1895-44e2-8624-cc9551693ed5"},"vehicle_type_id":"4","last_reported":1740578962,"current_range_meters":12800,"station_id":"ce4bgpp2rcd13ifvqc3g","pricing_plan_id":"cebpf4jnsgd1na2vs0mg"},{"bike_id":"d5ef1571-c6b9-4f13-96ed-bfaef3f9a56f","system_id":"levelo_inurba_marseille","lat":43.28925,"lon":5.36409,"is_reserved":false,"is_disabled":false,"rental_uris":{"android":"levelo://app?vid=d5ef1571-c6b9-4f13-96ed-bfaef3f9a56f","ios":"levelo://app?vid=d5ef1571-c6b9-4f13-96ed-bfaef3f9a56f"},"vehicle_type_id":"4","last_reported":1740578962,"current_range_meters":12400,"station_id":"ce4bhc92rcd13ifvqetg","pricing_plan_id":"cebpf4jnsgd1na2vs0mg"},{"bike_id":"0dcc9bf0-bea5-49cb-b8a9-4a627580a06d","system_id":"levelo_inurba_marseille","lat":43.29003,"lon":5.35609,"is_reserved":false,"is_disabled":false,"rental_uris":{"android":"levelo://app?vid=0dcc9bf0-bea5-49cb-b8a9-4a627580a06d","ios":"levelo://app?vid=0dcc9bf0-bea5-49cb-b8a9-4a627580a06d"},"vehicle_type_id":"4","last_reported":1740578962,"current_range_meters":12400,"station_id":"ce4bhb92rcd13ifvqen0","pricing_plan_id":"cebpf4jnsgd1na2vs0mg"},{"bike_id":"f41688e2-172f-42dc-90a1-23f61049305c","system_id":"levelo_inurba_marseille","lat":43.303175,"lon":5.386346,"is_reserved":false,"is_disabled":false,"rental_uris":{"android":"levelo://app?vid=f41688e2-172f-42dc-90a1-23f61049305c","ios":"levelo://app?vid=f41688e2-172f-42dc-90a1-23f61049305c"},"vehicle_type_id":"4","last_reported":1740578962,"current_range_meters":12400,"station_id":"ce4bgrp2rcd13ifvqc9g","pricing_plan_id":"cebpf4jnsgd1na2vs0mg"},{"bike_id":"86b43e3a-ca58-476f-ad09-ef822f8704e3","system_id":"levelo_inurba_marseille","lat":43.30879,"lon":5.39632,"is_reserved":false,"is_disabled":false,"rental_uris":{"android":"levelo://app?vid=86b43e3a-ca58-476f-ad09-ef822f8704e3","ios":"levelo://app?vid=86b43e3a-ca58-476f-ad09-ef822f8704e3"},"vehicle_type_id":"4","last_reported":1740578962,"current_range_meters":12400,"station_id":"ce4bh012rcd13ifvqcv0","pricing_plan_id":"cebpf4jnsgd1na2vs0mg"},{"bike_id":"9d8fd715-6506-497f-b998-3f021ad2c404","system_id":"levelo_inurba_marseille","lat":43.25932,"lon":5.40885,"is_reserved":false,"is_disabled":false,"rental_uris":{"android":"levelo://app?vid=9d8fd715-6506-497f-b998-3f021ad2c404","ios":"levelo://app?vid=9d8fd715-6506-497f-b998-3f021ad2c404"},"vehicle_type_id":"4","last_reported":1740578962,"current_range_meters":13600,"station_id":"ce4bhm92rcd13ifvqglg","pricing_plan_id":"cebpf4jnsgd1na2vs0mg"},{"bike_id":"5376c445-e023-49cd-9e28-d10ad7f62e5a","system_id":"levelo_inurba_marseille","lat":43.26028,"lon":5.37551,"is_reserved":false,"is_disabled":false,"rental_uris":{"android":"levelo://app?vid=5376c445-e023-49cd-9e28-d10ad7f62e5a","ios":"levelo://app?vid=5376c445-e023-49cd-9e28-d10ad7f62e5a"},"vehicle_type_id":"4","last_reported":1740578962,"current_range_meters":12800,"station_id":"ce4bhgh2rcd13ifvqfa0","pricing_plan_id":"cebpf4jnsgd1na2vs0mg"},{"bike_id":"7ada5475-5500-42b3-9e1d-f6c76b2bc74e","system_id":"levelo_inurba_marseille","lat":43.303272,"lon":5.392092,"is_reserved":false,"is_disabled":false,"rental_uris":{"android":"levelo://app?vid=7ada5475-5500-42b3-9e1d-f6c76b2bc74e","ios":"levelo://app?vid=7ada5475-5500-42b3-9e1d-f6c76b2bc74e"},"vehicle_type_id":"4","last_reported":1740578962,"current_range_meters":14000,"station_id":"ce4bh4p2rcd13ifvqe0g","pricing_plan_id":"cebpf4jnsgd1na2vs0mg"},{"bike_id":"d872eafb-fec3-4e73-bc38-203ac3352389","system_id":"levelo_inurba_marseille","lat":43.25114,"lon":5.40319,"is_reserved":false,"is_disabled":false,"rental_uris":{"android":"levelo://app?vid=d872eafb-fec3-4e73-bc38-203ac3352389","ios":"levelo://app?vid=d872eafb-fec3-4e73-bc38-203ac3352389"},"vehicle_type_id":"4","last_reported":1740578962,"current_range_meters":12800,"station_id":"ce4bhlh2rcd13ifvqgig","pricing_plan_id":"cebpf4jnsgd1na2vs0mg"},{"bike_id":"511df7e7-1330-4159-bb5d-325216084662","system_id":"levelo_inurba_marseille","lat":43.26553,"lon":5.37286,"is_reserved":false,"is_disabled":false,"rental_uris":{"android":"levelo://app?vid=511df7e7-1330-4159-bb5d-325216084662","ios":"levelo://app?vid=511df7e7-1330-4159-bb5d-325216084662"},"vehicle_type_id":"4","last_reported":1740578962,"current_range_meters":12800,"station_id":"ce4bhg12rcd13ifvqf70","pricing_plan_id":"cebpf4jnsgd1na2vs0mg"},{"bike_id":"4d9278da-8984-4f0f-96a4-1910c7929870","system_id":"levelo_inurba_marseille","lat":43.25742,"lon":5.41096,"is_reserved":false,"is_disabled":false,"rental_uris":{"android":"levelo://app?vid=4d9278da-8984-4f0f-96a4-1910c7929870","ios":"levelo://app?vid=4d9278da-8984-4f0f-96a4-1910c7929870"},"vehicle_type_id":"4","last_reported":1740578962,"current_range_meters":13600,"station_id":"ce4bhkp2rcd13ifvqgd0","pricing_plan_id":"cebpf4jnsgd1na2vs0mg"},{"bike_id":"ad9571bc-5194-4f71-90ef-f1cb0835f36e","system_id":"levelo_inurba_marseille","lat":43.25495,"lon":5.3765,"is_reserved":false,"is_disabled":false,"rental_uris":{"android":"levelo://app?vid=ad9571bc-5194-4f71-90ef-f1cb0835f36e","ios":"levelo://app?vid=ad9571bc-5194-4f71-90ef-f1cb0835f36e"},"vehicle_type_id":"4","last_reported":1740578962,"current_range_meters":13600,"station_id":"ce4bhh12rcd13ifvqff0","pricing_plan_id":"cebpf4jnsgd1na2vs0mg"},{"bike_id":"37aee153-09c2-4cb5-bdbc-6e60b24fb2d2","system_id":"levelo_inurba_marseille","lat":43.29195,"lon":5.35804,"is_reserved":false,"is_disabled":false,"rental_uris":{"android":"levelo://app?vid=37aee153-09c2-4cb5-bdbc-6e60b24fb2d2","ios":"levelo://app?vid=37aee153-09c2-4cb5-bdbc-6e60b24fb2d2"},"vehicle_type_id":"4","last_reported":1740578962,"current_range_meters":13600,"station_id":"ce4bhb12rcd13ifvqel0","pricing_plan_id":"cebpf4jnsgd1na2vs0mg"},{"bike_id":"e1cfc719-a5d5-4a8a-a248-dae2cac6ff2c","system_id":"levelo_inurba_marseille","lat":43.282689,"lon":5.350494,"is_reserved":false,"is_disabled":false,"rental_uris":{"android":"levelo://app?vid=e1cfc719-a5d5-4a8a-a248-dae2cac6ff2c","ios":"levelo://app?vid=e1cfc719-a5d5-4a8a-a248-dae2cac6ff2c"},"vehicle_type_id":"4","last_reported":1740578962,"current_range_meters":13600,"station_id":"ce4bha12rcd13ifvqef0","pricing_plan_id":"cebpf4jnsgd1na2vs0mg"},{"bike_id":"f66913d8-adc8-4497-b81a-8613461ae8a9","system_id":"levelo_inurba_marseille","lat":43.28418,"lon":5.34995,"is_reserved":false,"is_disabled":false,"rental_uris":{"android":"levelo://app?vid=f66913d8-adc8-4497-b81a-8613461ae8a9","ios":"levelo://app?vid=f66913d8-adc8-4497-b81a-8613461ae8a9"},"vehicle_type_id":"4","last_reported":1740578962,"current_range_meters":14000,"station_id":"ce4bhbh2rcd13ifvqepg","pricing_plan_id":"cebpf4jnsgd1na2vs0mg"},{"bike_id":"620faf8f-9860-4e84-b6cd-4559a0b9a89c","system_id":"levelo_inurba_marseille","lat":43.32491,"lon":5.36537,"is_reserved":false,"is_disabled":false,"rental_uris":{"android":"levelo://app?vid=620faf8f-9860-4e84-b6cd-4559a0b9a89c","ios":"levelo://app?vid=620faf8f-9860-4e84-b6cd-4559a0b9a89c"},"vehicle_type_id":"4","last_reported":1740578962,"current_range_meters":14000,"station_id":"ce4bhs12rcd13ifvqhvg","pricing_plan_id":"cebpf4jnsgd1na2vs0mg"},{"bike_id":"1ca5b1d5-5a53-46dd-b1b2-e83fd71df428","system_id":"levelo_inurba_marseille","lat":43.27953,"lon":5.41049,"is_reserved":false,"is_disabled":false,"rental_uris":{"android":"levelo://app?vid=1ca5b1d5-5a53-46dd-b1b2-e83fd71df428","ios":"levelo://app?vid=1ca5b1d5-5a53-46dd-b1b2-e83fd71df428"},"vehicle_type_id":"4","last_reported":1740578962,"current_range_meters":14000,"station_id":"ce4bhnp2rcd13ifvqh0g","pricing_plan_id":"cebpf4jnsgd1na2vs0mg"},{"bike_id":"088027c9-9143-484f-8e6f-d5fd1aee783e","system_id":"levelo_inurba_marseille","lat":43.27811,"lon":5.40713,"is_reserved":false,"is_disabled":false,"rental_uris":{"android":"levelo://app?vid=088027c9-9143-484f-8e6f-d5fd1aee783e","ios":"levelo://app?vid=088027c9-9143-484f-8e6f-d5fd1aee783e"},"vehicle_type_id":"4","last_reported":1740578962,"current_range_meters":14000,"station_id":"ce4bhnh2rcd13ifvqgtg","pricing_plan_id":"cebpf4jnsgd1na2vs0mg"},{"bike_id":"c5831f83-617a-4c44-b01b-5e23dfdc9298","system_id":"levelo_inurba_marseille","lat":43.2678,"lon":5.39447,"is_reserved":false,"is_disabled":false,"rental_uris":{"android":"levelo://app?vid=c5831f83-617a-4c44-b01b-5e23dfdc9298","ios":"levelo://app?vid=c5831f83-617a-4c44-b01b-5e23dfdc9298"},"vehicle_type_id":"4","last_reported":1740578962,"current_range_meters":10800,"station_id":"ce4bhh12rcd13ifvqfg0","pricing_plan_id":"cebpf4jnsgd1na2vs0mg"},{"bike_id":"05d3ed84-27f8-4bce-9877-c99295e35460","system_id":"levelo_inurba_marseille","lat":43.23147,"lon":5.43719,"is_reserved":false,"is_disabled":false,"rental_uris":{"android":"levelo://app?vid=05d3ed84-27f8-4bce-9877-c99295e35460","ios":"levelo://app?vid=05d3ed84-27f8-4bce-9877-c99295e35460"},"vehicle_type_id":"4","last_reported":1740578962,"current_range_meters":14400,"station_id":"ce4bhmp2rcd13ifvqgog","pricing_plan_id":"cebpf4jnsgd1na2vs0mg"},{"bike_id":"19e4983d-b74d-4524-9c14-80fb6905f947","system_id":"levelo_inurba_marseille","lat":43.32109,"lon":5.3679,"is_reserved":false,"is_disabled":false,"rental_uris":{"android":"levelo://app?vid=19e4983d-b74d-4524-9c14-80fb6905f947","ios":"levelo://app?vid=19e4983d-b74d-4524-9c14-80fb6905f947"},"vehicle_type_id":"4","last_reported":1740578962,"current_range_meters":14800,"station_id":"ce4bhrh2rcd13ifvqhug","pricing_plan_id":"cebpf4jnsgd1na2vs0mg"},{"bike_id":"9dc7e2d5-119c-4c57-96cd-7fcca21c9c6c","system_id":"levelo_inurba_marseille","lat":43.32478,"lon":5.36563,"is_reserved":false,"is_disabled":false,"rental_uris":{"android":"levelo://app?vid=9dc7e2d5-119c-4c57-96cd-7fcca21c9c6c","ios":"levelo://app?vid=9dc7e2d5-119c-4c57-96cd-7fcca21c9c6c"},"vehicle_type_id":"4","last_reported":1740578962,"current_range_meters":14800,"station_id":"ce4bhs12rcd13ifvqhvg","pricing_plan_id":"cebpf4jnsgd1na2vs0mg"},{"bike_id":"5d5ff013-4bd9-4be9-9ea8-de1418a638ff","system_id":"levelo_inurba_marseille","lat":43.26779,"lon":5.39416,"is_reserved":false,"is_disabled":false,"rental_uris":{"android":"levelo://app?vid=5d5ff013-4bd9-4be9-9ea8-de1418a638ff","ios":"levelo://app?vid=5d5ff013-4bd9-4be9-9ea8-de1418a638ff"},"vehicle_type_id":"4","last_reported":1740578962,"current_range_meters":14400,"station_id":"ce4bhh12rcd13ifvqfg0","pricing_plan_id":"cebpf4jnsgd1na2vs0mg"},{"bike_id":"41bcbd39-dc6c-4708-80c1-49116771c9e4","system_id":"levelo_inurba_marseille","lat":43.28938,"lon":5.36639,"is_reserved":false,"is_disabled":false,"rental_uris":{"android":"levelo://app?vid=41bcbd39-dc6c-4708-80c1-49116771c9e4","ios":"levelo://app?vid=41bcbd39-dc6c-4708-80c1-49116771c9e4"},"vehicle_type_id":"4","last_reported":1740578962,"current_range_meters":14800,"station_id":"ce4bhap2rcd13ifvqek0","pricing_plan_id":"cebpf4jnsgd1na2vs0mg"},{"bike_id":"06c1f48d-1bb5-4939-8b33-bd37e90575f6","system_id":"levelo_inurba_marseille","lat":43.24549,"lon":5.39531,"is_reserved":false,"is_disabled":false,"rental_uris":{"android":"levelo://app?vid=06c1f48d-1bb5-4939-8b33-bd37e90575f6","ios":"levelo://app?vid=06c1f48d-1bb5-4939-8b33-bd37e90575f6"},"vehicle_type_id":"4","last_reported":1740578962,"current_range_meters":11600,"station_id":"ce4bhlp2rcd13ifvqgjg","pricing_plan_id":"cebpf4jnsgd1na2vs0mg"},{"bike_id":"3478a56f-668c-41b9-92e9-1187bb9e0eb3","system_id":"levelo_inurba_marseille","lat":43.29835,"lon":5.363,"is_reserved":false,"is_disabled":false,"rental_uris":{"android":"levelo://app?vid=3478a56f-668c-41b9-92e9-1187bb9e0eb3","ios":"levelo://app?vid=3478a56f-668c-41b9-92e9-1187bb9e0eb3"},"vehicle_type_id":"4","last_reported":1740578962,"current_range_meters":12800,"station_id":"ce4bgpp2rcd13ifvqc3g","pricing_plan_id":"cebpf4jnsgd1na2vs0mg"},{"bike_id":"cb82e8e2-0518-46d9-b5ce-726f4d37ced2","system_id":"levelo_inurba_marseille","lat":43.30886,"lon":5.39638,"is_reserved":false,"is_disabled":false,"rental_uris":{"android":"levelo://app?vid=cb82e8e2-0518-46d9-b5ce-726f4d37ced2","ios":"levelo://app?vid=cb82e8e2-0518-46d9-b5ce-726f4d37ced2"},"vehicle_type_id":"4","last_reported":1740578962,"current_range_meters":15200,"station_id":"ce4bh012rcd13ifvqcv0","pricing_plan_id":"cebpf4jnsgd1na2vs0mg"},{"bike_id":"365eb899-9c57-4a2c-8379-bdc7908ab5b9","system_id":"levelo_inurba_marseille","lat":43.25503,"lon":5.37663,"is_reserved":false,"is_disabled":false,"rental_uris":{"android":"levelo://app?vid=365eb899-9c57-4a2c-8379-bdc7908ab5b9","ios":"levelo://app?vid=365eb899-9c57-4a2c-8379-bdc7908ab5b9"},"vehicle_type_id":"4","last_reported":1740578962,"current_range_meters":15200,"station_id":"ce4bhh12rcd13ifvqff0","pricing_plan_id":"cebpf4jnsgd1na2vs0mg"},{"bike_id":"17973595-0627-4cbe-be09-6d52168568c1","system_id":"levelo_inurba_marseille","lat":43.27821,"lon":5.40699,"is_reserved":false,"is_disabled":false,"rental_uris":{"android":"levelo://app?vid=17973595-0627-4cbe-be09-6d52168568c1","ios":"levelo://app?vid=17973595-0627-4cbe-be09-6d52168568c1"},"vehicle_type_id":"4","last_reported":1740578962,"current_range_meters":15200,"station_id":"ce4bhnh2rcd13ifvqgtg","pricing_plan_id":"cebpf4jnsgd1na2vs0mg"},{"bike_id":"ad5291e1-8eb3-448c-aea2-bcc75fa0f4c9","system_id":"levelo_inurba_marseille","lat":43.29275,"lon":5.36848,"is_reserved":false,"is_disabled":false,"rental_uris":{"android":"levelo://app?vid=ad5291e1-8eb3-448c-aea2-bcc75fa0f4c9","ios":"levelo://app?vid=ad5291e1-8eb3-448c-aea2-bcc75fa0f4c9"},"vehicle_type_id":"4","last_reported":1740578962,"current_range_meters":16000,"station_id":"ce4bhbp2rcd13ifvqesg","pricing_plan_id":"cebpf4jnsgd1na2vs0mg"},{"bike_id":"bc7461ca-1682-41e7-9fc6-e3f877a41ac9","system_id":"levelo_inurba_marseille","lat":43.29181,"lon":5.35815,"is_reserved":false,"is_disabled":false,"rental_uris":{"android":"levelo://app?vid=bc7461ca-1682-41e7-9fc6-e3f877a41ac9","ios":"levelo://app?vid=bc7461ca-1682-41e7-9fc6-e3f877a41ac9"},"vehicle_type_id":"4","last_reported":1740578962,"current_range_meters":16000,"station_id":"ce4bhb12rcd13ifvqel0","pricing_plan_id":"cebpf4jnsgd1na2vs0mg"},{"bike_id":"f35d6126-178c-4c08-8343-6bcc4ce94aad","system_id":"levelo_inurba_marseille","lat":43.24179,"lon":5.39727,"is_reserved":false,"is_disabled":false,"rental_uris":{"android":"levelo://app?vid=f35d6126-178c-4c08-8343-6bcc4ce94aad","ios":"levelo://app?vid=f35d6126-178c-4c08-8343-6bcc4ce94aad"},"vehicle_type_id":"4","last_reported":1740578962,"current_range_meters":16000,"station_id":"ce4bhn12rcd13ifvqgpg","pricing_plan_id":"cebpf4jnsgd1na2vs0mg"},{"bike_id":"c1f5384a-71a2-4dad-80de-d395c09980f5","system_id":"levelo_inurba_marseille","lat":43.31342,"lon":5.36722,"is_reserved":false,"is_disabled":false,"rental_uris":{"android":"levelo://app?vid=c1f5384a-71a2-4dad-80de-d395c09980f5","ios":"levelo://app?vid=c1f5384a-71a2-4dad-80de-d395c09980f5"},"vehicle_type_id":"4","last_reported":1740578962,"current_range_meters":16000,"station_id":"ce4bgr92rcd13ifvqc6g","pricing_plan_id":"cebpf4jnsgd1na2vs0mg"},{"bike_id":"32f214d4-48cd-4578-adbd-e868b819d60c","system_id":"levelo_inurba_marseille","lat":43.23157,"lon":5.43716,"is_reserved":false,"is_disabled":false,"rental_uris":{"android":"levelo://app?vid=32f214d4-48cd-4578-adbd-e868b819d60c","ios":"levelo://app?vid=32f214d4-48cd-4578-adbd-e868b819d60c"},"vehicle_type_id":"4","last_reported":1740578962,"current_range_meters":16000,"station_id":"ce4bhmp2rcd13ifvqgog","pricing_plan_id":"cebpf4jnsgd1na2vs0mg"},{"bike_id":"128d9f19-560e-4907-b2b5-99db2fe70c71","system_id":"levelo_inurba_marseille","lat":43.337653,"lon":5.374363,"is_reserved":false,"is_disabled":false,"rental_uris":{"android":"levelo://app?vid=128d9f19-560e-4907-b2b5-99db2fe70c71","ios":"levelo://app?vid=128d9f19-560e-4907-b2b5-99db2fe70c71"},"vehicle_type_id":"4","last_reported":1740578962,"current_range_meters":16800,"station_id":"","pricing_plan_id":"cebpf4jnsgd1na2vs0mg"},{"bike_id":"d0eed576-967a-4a22-90f0-1b8c0372f57a","system_id":"levelo_inurba_marseille","lat":43.25014,"lon":5.38924,"is_reserved":false,"is_disabled":false,"rental_uris":{"android":"levelo://app?vid=d0eed576-967a-4a22-90f0-1b8c0372f57a","ios":"levelo://app?vid=d0eed576-967a-4a22-90f0-1b8c0372f57a"},"vehicle_type_id":"4","last_reported":1740578962,"current_range_meters":16400,"station_id":"ce4bhgp2rcd13ifvqfd0","pricing_plan_id":"cebpf4jnsgd1na2vs0mg"},{"bike_id":"7f5dbe42-da8b-47f5-9beb-ac4cf767c9c8","system_id":"levelo_inurba_marseille","lat":43.31245,"lon":5.36818,"is_reserved":false,"is_disabled":false,"rental_uris":{"android":"levelo://app?vid=7f5dbe42-da8b-47f5-9beb-ac4cf767c9c8","ios":"levelo://app?vid=7f5dbe42-da8b-47f5-9beb-ac4cf767c9c8"},"vehicle_type_id":"4","last_reported":1740578962,"current_range_meters":16400,"station_id":"ce4bgl92rcd13ifvqbq0","pricing_plan_id":"cebpf4jnsgd1na2vs0mg"},{"bike_id":"9fa2c9a2-5c9d-4671-9bd3-b9c8b40b7c4d","system_id":"levelo_inurba_marseille","lat":43.31706,"lon":5.37732,"is_reserved":false,"is_disabled":false,"rental_uris":{"android":"levelo://app?vid=9fa2c9a2-5c9d-4671-9bd3-b9c8b40b7c4d","ios":"levelo://app?vid=9fa2c9a2-5c9d-4671-9bd3-b9c8b40b7c4d"},"vehicle_type_id":"4","last_reported":1740578962,"current_range_meters":16400,"station_id":"ce4bgth2rcd13ifvqch0","pricing_plan_id":"cebpf4jnsgd1na2vs0mg"},{"bike_id":"cec1b258-01bd-461a-a9c0-39a0022d12f6","system_id":"levelo_inurba_marseille","lat":43.26777,"lon":5.39418,"is_reserved":false,"is_disabled":false,"rental_uris":{"android":"levelo://app?vid=cec1b258-01bd-461a-a9c0-39a0022d12f6","ios":"levelo://app?vid=cec1b258-01bd-461a-a9c0-39a0022d12f6"},"vehicle_type_id":"4","last_reported":1740578962,"current_range_meters":16400,"station_id":"ce4bhh12rcd13ifvqfg0","pricing_plan_id":"cebpf4jnsgd1na2vs0mg"},{"bike_id":"c81a71b5-725f-45bd-8a34-41e6bba0b7fc","system_id":"levelo_inurba_marseille","lat":43.30495,"lon":5.37911,"is_reserved":false,"is_disabled":false,"rental_uris":{"android":"levelo://app?vid=c81a71b5-725f-45bd-8a34-41e6bba0b7fc","ios":"levelo://app?vid=c81a71b5-725f-45bd-8a34-41e6bba0b7fc"},"vehicle_type_id":"4","last_reported":1740578962,"current_range_meters":16400,"station_id":"ce4bgup2rcd13ifvqcn0","pricing_plan_id":"cebpf4jnsgd1na2vs0mg"},{"bike_id":"072059ca-b533-4201-a9d8-cc256662ae7d","system_id":"levelo_inurba_marseille","lat":43.23147,"lon":5.43725,"is_reserved":false,"is_disabled":false,"rental_uris":{"android":"levelo://app?vid=072059ca-b533-4201-a9d8-cc256662ae7d","ios":"levelo://app?vid=072059ca-b533-4201-a9d8-cc256662ae7d"},"vehicle_type_id":"4","last_reported":1740578962,"current_range_meters":16800,"station_id":"ce4bhmp2rcd13ifvqgog","pricing_plan_id":"cebpf4jnsgd1na2vs0mg"},{"bike_id":"dc1deb5f-be60-47dd-a397-2458bf714b12","system_id":"levelo_inurba_marseille","lat":43.23056,"lon":5.35493,"is_reserved":false,"is_disabled":false,"rental_uris":{"android":"levelo://app?vid=dc1deb5f-be60-47dd-a397-2458bf714b12","ios":"levelo://app?vid=dc1deb5f-be60-47dd-a397-2458bf714b12"},"vehicle_type_id":"4","last_reported":1740578962,"current_range_meters":18000,"station_id":"cpo3342slgdg3j2ifvpg","pricing_plan_id":"cebpf4jnsgd1na2vs0mg"},{"bike_id":"8b6273fe-f2c0-4092-a2d2-19f27c8b3582","system_id":"levelo_inurba_marseille","lat":43.30327,"lon":5.40431,"is_reserved":false,"is_disabled":false,"rental_uris":{"android":"levelo://app?vid=8b6273fe-f2c0-4092-a2d2-19f27c8b3582","ios":"levelo://app?vid=8b6273fe-f2c0-4092-a2d2-19f27c8b3582"},"vehicle_type_id":"4","last_reported":1740578962,"current_range_meters":16400,"station_id":"ce4bh012rcd13ifvqd10","pricing_plan_id":"cebpf4jnsgd1na2vs0mg"},{"bike_id":"f1c1ac64-4d1e-43f8-a7bb-e7c3b0962c3f","system_id":"levelo_inurba_marseille","lat":43.28463,"lon":5.35884,"is_reserved":false,"is_disabled":false,"rental_uris":{"android":"levelo://app?vid=f1c1ac64-4d1e-43f8-a7bb-e7c3b0962c3f","ios":"levelo://app?vid=f1c1ac64-4d1e-43f8-a7bb-e7c3b0962c3f"},"vehicle_type_id":"4","last_reported":1740578962,"current_range_meters":16400,"station_id":"ce4bhah2rcd13ifvqei0","pricing_plan_id":"cebpf4jnsgd1na2vs0mg"},{"bike_id":"92ef393e-531d-473a-be26-fa92b6713f16","system_id":"levelo_inurba_marseille","lat":43.23148,"lon":5.43715,"is_reserved":false,"is_disabled":false,"rental_uris":{"android":"levelo://app?vid=92ef393e-531d-473a-be26-fa92b6713f16","ios":"levelo://app?vid=92ef393e-531d-473a-be26-fa92b6713f16"},"vehicle_type_id":"4","last_reported":1740578962,"current_range_meters":16800,"station_id":"ce4bhmp2rcd13ifvqgog","pricing_plan_id":"cebpf4jnsgd1na2vs0mg"},{"bike_id":"3c3fd73e-a688-4cbd-b1ae-5c692452e437","system_id":"levelo_inurba_marseille","lat":43.27315,"lon":5.39087,"is_reserved":false,"is_disabled":false,"rental_uris":{"android":"levelo://app?vid=3c3fd73e-a688-4cbd-b1ae-5c692452e437","ios":"levelo://app?vid=3c3fd73e-a688-4cbd-b1ae-5c692452e437"},"vehicle_type_id":"4","last_reported":1740578962,"current_range_meters":16000,"station_id":"ce4bhgp2rcd13ifvqfe0","pricing_plan_id":"cebpf4jnsgd1na2vs0mg"},{"bike_id":"9d5f68f4-bdcd-445a-978e-0d8a8bf45ae0","system_id":"levelo_inurba_marseille","lat":43.29274,"lon":5.36844,"is_reserved":false,"is_disabled":false,"rental_uris":{"android":"levelo://app?vid=9d5f68f4-bdcd-445a-978e-0d8a8bf45ae0","ios":"levelo://app?vid=9d5f68f4-bdcd-445a-978e-0d8a8bf45ae0"},"vehicle_type_id":"4","last_reported":1740578962,"current_range_meters":16400,"station_id":"ce4bhbp2rcd13ifvqesg","pricing_plan_id":"cebpf4jnsgd1na2vs0mg"},{"bike_id":"a92380cc-78fd-4545-85ce-2589fea4cafc","system_id":"levelo_inurba_marseille","lat":43.27676,"lon":5.38913,"is_reserved":false,"is_disabled":false,"rental_uris":{"android":"levelo://app?vid=a92380cc-78fd-4545-85ce-2589fea4cafc","ios":"levelo://app?vid=a92380cc-78fd-4545-85ce-2589fea4cafc"},"vehicle_type_id":"4","last_reported":1740578962,"current_range_meters":16800,"station_id":"ce4bhi12rcd13ifvqfo0","pricing_plan_id":"cebpf4jnsgd1na2vs0mg"},{"bike_id":"32022f30-217e-4459-b186-dd7b6ca601cd","system_id":"levelo_inurba_marseille","lat":43.278147,"lon":5.407179,"is_reserved":false,"is_disabled":false,"rental_uris":{"android":"levelo://app?vid=32022f30-217e-4459-b186-dd7b6ca601cd","ios":"levelo://app?vid=32022f30-217e-4459-b186-dd7b6ca601cd"},"vehicle_type_id":"4","last_reported":1740578962,"current_range_meters":16800,"station_id":"ce4bhnh2rcd13ifvqgtg","pricing_plan_id":"cebpf4jnsgd1na2vs0mg"},{"bike_id":"986d6278-c444-4db2-add2-9e747a6ad782","system_id":"levelo_inurba_marseille","lat":43.28674,"lon":5.38657,"is_reserved":false,"is_disabled":false,"rental_uris":{"android":"levelo://app?vid=986d6278-c444-4db2-add2-9e747a6ad782","ios":"levelo://app?vid=986d6278-c444-4db2-add2-9e747a6ad782"},"vehicle_type_id":"4","last_reported":1740578962,"current_range_meters":16800,"station_id":"ce4bh492rcd13ifvqdug","pricing_plan_id":"cebpf4jnsgd1na2vs0mg"},{"bike_id":"bfa6f7d2-c3a6-4c76-b5b5-4810d3f504bd","system_id":"levelo_inurba_marseille","lat":43.27063,"lon":5.40261,"is_reserved":false,"is_disabled":false,"rental_uris":{"android":"levelo://app?vid=bfa6f7d2-c3a6-4c76-b5b5-4810d3f504bd","ios":"levelo://app?vid=bfa6f7d2-c3a6-4c76-b5b5-4810d3f504bd"},"vehicle_type_id":"4","last_reported":1740578962,"current_range_meters":16800,"station_id":"ce4bhk92rcd13ifvqgc0","pricing_plan_id":"cebpf4jnsgd1na2vs0mg"},{"bike_id":"367ffcaa-afc5-4ba9-aa69-19639fa71670","system_id":"levelo_inurba_marseille","lat":43.29714,"lon":5.37697,"is_reserved":false,"is_disabled":false,"rental_uris":{"android":"levelo://app?vid=367ffcaa-afc5-4ba9-aa69-19639fa71670","ios":"levelo://app?vid=367ffcaa-afc5-4ba9-aa69-19639fa71670"},"vehicle_type_id":"4","last_reported":1740578962,"current_range_meters":16800,"station_id":"ce4bgkh2rcd13ifvqbl0","pricing_plan_id":"cebpf4jnsgd1na2vs0mg"},{"bike_id":"5f7b420b-32f0-45cf-bc00-07beba71a552","system_id":"levelo_inurba_marseille","lat":43.24809,"lon":5.37455,"is_reserved":false,"is_disabled":false,"rental_uris":{"android":"levelo://app?vid=5f7b420b-32f0-45cf-bc00-07beba71a552","ios":"levelo://app?vid=5f7b420b-32f0-45cf-bc00-07beba71a552"},"vehicle_type_id":"4","last_reported":1740578962,"current_range_meters":16800,"station_id":"ce4bhgh2rcd13ifvqfb0","pricing_plan_id":"cebpf4jnsgd1na2vs0mg"},{"bike_id":"6202b189-9ebb-4798-abff-1e28411d61ad","system_id":"levelo_inurba_marseille","lat":43.23154,"lon":5.43707,"is_reserved":false,"is_disabled":false,"rental_uris":{"android":"levelo://app?vid=6202b189-9ebb-4798-abff-1e28411d61ad","ios":"levelo://app?vid=6202b189-9ebb-4798-abff-1e28411d61ad"},"vehicle_type_id":"4","last_reported":1740578962,"current_range_meters":17200,"station_id":"ce4bhmp2rcd13ifvqgog","pricing_plan_id":"cebpf4jnsgd1na2vs0mg"},{"bike_id":"5feb6d12-157b-427b-96e8-b3a8c7c7ceba","system_id":"levelo_inurba_marseille","lat":43.3045,"lon":5.38896,"is_reserved":false,"is_disabled":false,"rental_uris":{"android":"levelo://app?vid=5feb6d12-157b-427b-96e8-b3a8c7c7ceba","ios":"levelo://app?vid=5feb6d12-157b-427b-96e8-b3a8c7c7ceba"},"vehicle_type_id":"4","last_reported":1740578962,"current_range_meters":17200,"station_id":"ce4bgk12rcd13ifvqbi0","pricing_plan_id":"cebpf4jnsgd1na2vs0mg"},{"bike_id":"5c310fd7-d8ad-4c4e-9e61-5fe3cbeb6566","system_id":"levelo_inurba_marseille","lat":43.26204,"lon":5.37927,"is_reserved":false,"is_disabled":false,"rental_uris":{"android":"levelo://app?vid=5c310fd7-d8ad-4c4e-9e61-5fe3cbeb6566","ios":"levelo://app?vid=5c310fd7-d8ad-4c4e-9e61-5fe3cbeb6566"},"vehicle_type_id":"4","last_reported":1740578962,"current_range_meters":17200,"station_id":"ce4bhjp2rcd13ifvqg90","pricing_plan_id":"cebpf4jnsgd1na2vs0mg"},{"bike_id":"32b06090-547a-420f-bb9a-f4d552b80295","system_id":"levelo_inurba_marseille","lat":43.270592,"lon":5.401617,"is_reserved":false,"is_disabled":false,"rental_uris":{"android":"levelo://app?vid=32b06090-547a-420f-bb9a-f4d552b80295","ios":"levelo://app?vid=32b06090-547a-420f-bb9a-f4d552b80295"},"vehicle_type_id":"4","last_reported":1740578962,"current_range_meters":17200,"station_id":"ce4bhk92rcd13ifvqgc0","pricing_plan_id":"cebpf4jnsgd1na2vs0mg"},{"bike_id":"788c279b-8e7b-4dba-ad6a-434b6d719c7d","system_id":"levelo_inurba_marseille","lat":43.3171,"lon":5.37755,"is_reserved":false,"is_disabled":false,"rental_uris":{"android":"levelo://app?vid=788c279b-8e7b-4dba-ad6a-434b6d719c7d","ios":"levelo://app?vid=788c279b-8e7b-4dba-ad6a-434b6d719c7d"},"vehicle_type_id":"4","last_reported":1740578962,"current_range_meters":17600,"station_id":"ce4bgth2rcd13ifvqch0","pricing_plan_id":"cebpf4jnsgd1na2vs0mg"},{"bike_id":"450a8708-2510-4e55-bc4d-72d560bb11b8","system_id":"levelo_inurba_marseille","lat":43.3172,"lon":5.42396,"is_reserved":false,"is_disabled":false,"rental_uris":{"android":"levelo://app?vid=450a8708-2510-4e55-bc4d-72d560bb11b8","ios":"levelo://app?vid=450a8708-2510-4e55-bc4d-72d560bb11b8"},"vehicle_type_id":"4","last_reported":1740578962,"current_range_meters":17200,"station_id":"ce4bhp92rcd13ifvqhbg","pricing_plan_id":"cebpf4jnsgd1na2vs0mg"},{"bike_id":"8fbca52a-7d37-4cc3-90b5-c0b33dc8e189","system_id":"levelo_inurba_marseille","lat":43.29036,"lon":5.39946,"is_reserved":false,"is_disabled":false,"rental_uris":{"android":"levelo://app?vid=8fbca52a-7d37-4cc3-90b5-c0b33dc8e189","ios":"levelo://app?vid=8fbca52a-7d37-4cc3-90b5-c0b33dc8e189"},"vehicle_type_id":"4","last_reported":1740578962,"current_range_meters":17200,"station_id":"ce4bh392rcd13ifvqdm0","pricing_plan_id":"cebpf4jnsgd1na2vs0mg"},{"bike_id":"2f91c367-2cf8-49d9-8aad-cc00d46f9ede","system_id":"levelo_inurba_marseille","lat":43.29062,"lon":5.37166,"is_reserved":false,"is_disabled":false,"rental_uris":{"android":"levelo://app?vid=2f91c367-2cf8-49d9-8aad-cc00d46f9ede","ios":"levelo://app?vid=2f91c367-2cf8-49d9-8aad-cc00d46f9ede"},"vehicle_type_id":"4","last_reported":1740578962,"current_range_meters":18000,"station_id":"ce4bh5p2rcd13ifvqe4g","pricing_plan_id":"cebpf4jnsgd1na2vs0mg"},{"bike_id":"e739437e-cb68-4a15-9f00-63739e5c52fa","system_id":"levelo_inurba_marseille","lat":43.28148,"lon":5.42636,"is_reserved":false,"is_disabled":false,"rental_uris":{"android":"levelo://app?vid=e739437e-cb68-4a15-9f00-63739e5c52fa","ios":"levelo://app?vid=e739437e-cb68-4a15-9f00-63739e5c52fa"},"vehicle_type_id":"4","last_reported":1740578962,"current_range_meters":19600,"station_id":"ce4bhnh2rcd13ifvqgug","pricing_plan_id":"cebpf4jnsgd1na2vs0mg"},{"bike_id":"9d6da81e-dd46-4b91-9a4a-9637d5525a41","system_id":"levelo_inurba_marseille","lat":43.29204,"lon":5.39317,"is_reserved":false,"is_disabled":false,"rental_uris":{"android":"levelo://app?vid=9d6da81e-dd46-4b91-9a4a-9637d5525a41","ios":"levelo://app?vid=9d6da81e-dd46-4b91-9a4a-9637d5525a41"},"vehicle_type_id":"4","last_reported":1740578962,"current_range_meters":18000,"station_id":"ce4bh192rcd13ifvqdd0","pricing_plan_id":"cebpf4jnsgd1na2vs0mg"},{"bike_id":"8fccdb2e-af62-4a29-98c4-9bc5f39cc629","system_id":"levelo_inurba_marseille","lat":43.27986,"lon":5.40023,"is_reserved":false,"is_disabled":false,"rental_uris":{"android":"levelo://app?vid=8fccdb2e-af62-4a29-98c4-9bc5f39cc629","ios":"levelo://app?vid=8fccdb2e-af62-4a29-98c4-9bc5f39cc629"},"vehicle_type_id":"4","last_reported":1740578962,"current_range_meters":17600,"station_id":"ce4bho92rcd13ifvqh4g","pricing_plan_id":"cebpf4jnsgd1na2vs0mg"},{"bike_id":"19e09a69-c57f-482a-b847-7f66783bd645","system_id":"levelo_inurba_marseille","lat":43.27809,"lon":5.40711,"is_reserved":false,"is_disabled":false,"rental_uris":{"android":"levelo://app?vid=19e09a69-c57f-482a-b847-7f66783bd645","ios":"levelo://app?vid=19e09a69-c57f-482a-b847-7f66783bd645"},"vehicle_type_id":"4","last_reported":1740578962,"current_range_meters":17600,"station_id":"ce4bhnh2rcd13ifvqgtg","pricing_plan_id":"cebpf4jnsgd1na2vs0mg"},{"bike_id":"275de2a5-d415-4fcd-b468-2a6da8564a60","system_id":"levelo_inurba_marseille","lat":43.30091,"lon":5.39096,"is_reserved":false,"is_disabled":false,"rental_uris":{"android":"levelo://app?vid=275de2a5-d415-4fcd-b468-2a6da8564a60","ios":"levelo://app?vid=275de2a5-d415-4fcd-b468-2a6da8564a60"},"vehicle_type_id":"4","last_reported":1740578962,"current_range_meters":17200,"station_id":"ce4bh192rcd13ifvqdb0","pricing_plan_id":"cebpf4jnsgd1na2vs0mg"},{"bike_id":"fa3b09f4-1f91-4c25-9f2c-efa8d9eb8ab7","system_id":"levelo_inurba_marseille","lat":43.30538,"lon":5.36707,"is_reserved":false,"is_disabled":false,"rental_uris":{"android":"levelo://app?vid=fa3b09f4-1f91-4c25-9f2c-efa8d9eb8ab7","ios":"levelo://app?vid=fa3b09f4-1f91-4c25-9f2c-efa8d9eb8ab7"},"vehicle_type_id":"4","last_reported":1740578962,"current_range_meters":18000,"station_id":"ce4bgrp2rcd13ifvqc9g","pricing_plan_id":"cebpf4jnsgd1na2vs0mg"},{"bike_id":"04967103-1ea7-4f7a-be85-126c298c8066","system_id":"levelo_inurba_marseille","lat":43.27063,"lon":5.40259,"is_reserved":false,"is_disabled":false,"rental_uris":{"android":"levelo://app?vid=04967103-1ea7-4f7a-be85-126c298c8066","ios":"levelo://app?vid=04967103-1ea7-4f7a-be85-126c298c8066"},"vehicle_type_id":"4","last_reported":1740578962,"current_range_meters":17600,"station_id":"ce4bhk92rcd13ifvqgc0","pricing_plan_id":"cebpf4jnsgd1na2vs0mg"},{"bike_id":"957eab80-92fb-47ca-aa24-3aed933212d5","system_id":"levelo_inurba_marseille","lat":43.27054,"lon":5.40259,"is_reserved":false,"is_disabled":false,"rental_uris":{"android":"levelo://app?vid=957eab80-92fb-47ca-aa24-3aed933212d5","ios":"levelo://app?vid=957eab80-92fb-47ca-aa24-3aed933212d5"},"vehicle_type_id":"4","last_reported":1740578962,"current_range_meters":17600,"station_id":"ce4bhk92rcd13ifvqgc0","pricing_plan_id":"cebpf4jnsgd1na2vs0mg"},{"bike_id":"6ecd83f3-31b9-4643-ac81-c0f8300aa1b3","system_id":"levelo_inurba_marseille","lat":43.26676,"lon":5.3827,"is_reserved":false,"is_disabled":false,"rental_uris":{"android":"levelo://app?vid=6ecd83f3-31b9-4643-ac81-c0f8300aa1b3","ios":"levelo://app?vid=6ecd83f3-31b9-4643-ac81-c0f8300aa1b3"},"vehicle_type_id":"4","last_reported":1740578962,"current_range_meters":18000,"station_id":"ce4bhg92rcd13ifvqf90","pricing_plan_id":"cebpf4jnsgd1na2vs0mg"},{"bike_id":"cf90f92b-54d2-4f69-9dea-d1b432da533b","system_id":"levelo_inurba_marseille","lat":43.28709,"lon":5.37379,"is_reserved":false,"is_disabled":false,"rental_uris":{"android":"levelo://app?vid=cf90f92b-54d2-4f69-9dea-d1b432da533b","ios":"levelo://app?vid=cf90f92b-54d2-4f69-9dea-d1b432da533b"},"vehicle_type_id":"4","last_reported":1740578962,"current_range_meters":17600,"station_id":"ce4bh3p2rcd13ifvqdq0","pricing_plan_id":"cebpf4jnsgd1na2vs0mg"},{"bike_id":"f873cc6f-a3df-41db-8b8e-d27fb9ded171","system_id":"levelo_inurba_marseille","lat":43.27944,"lon":5.41033,"is_reserved":false,"is_disabled":false,"rental_uris":{"android":"levelo://app?vid=f873cc6f-a3df-41db-8b8e-d27fb9ded171","ios":"levelo://app?vid=f873cc6f-a3df-41db-8b8e-d27fb9ded171"},"vehicle_type_id":"4","last_reported":1740578962,"current_range_meters":18000,"station_id":"ce4bhnp2rcd13ifvqh0g","pricing_plan_id":"cebpf4jnsgd1na2vs0mg"},{"bike_id":"f9960b39-a005-483a-9711-897b2b03b323","system_id":"levelo_inurba_marseille","lat":43.28351,"lon":5.38644,"is_reserved":false,"is_disabled":false,"rental_uris":{"android":"levelo://app?vid=f9960b39-a005-483a-9711-897b2b03b323","ios":"levelo://app?vid=f9960b39-a005-483a-9711-897b2b03b323"},"vehicle_type_id":"4","last_reported":1740578962,"current_range_meters":18000,"station_id":"ce4bh492rcd13ifvqdvg","pricing_plan_id":"cebpf4jnsgd1na2vs0mg"},{"bike_id":"0a2a238b-c24a-4d57-9c72-8be74aa41340","system_id":"levelo_inurba_marseille","lat":43.31502,"lon":5.36658,"is_reserved":false,"is_disabled":false,"rental_uris":{"android":"levelo://app?vid=0a2a238b-c24a-4d57-9c72-8be74aa41340","ios":"levelo://app?vid=0a2a238b-c24a-4d57-9c72-8be74aa41340"},"vehicle_type_id":"4","last_reported":1740578962,"current_range_meters":18000,"station_id":"ce4bgr92rcd13ifvqc6g","pricing_plan_id":"cebpf4jnsgd1na2vs0mg"},{"bike_id":"eef1c740-0b96-412e-a425-2f1f9dc0b604","system_id":"levelo_inurba_marseille","lat":43.30425,"lon":5.38893,"is_reserved":false,"is_disabled":false,"rental_uris":{"android":"levelo://app?vid=eef1c740-0b96-412e-a425-2f1f9dc0b604","ios":"levelo://app?vid=eef1c740-0b96-412e-a425-2f1f9dc0b604"},"vehicle_type_id":"4","last_reported":1740578962,"current_range_meters":17600,"station_id":"ce4bgk12rcd13ifvqbi0","pricing_plan_id":"cebpf4jnsgd1na2vs0mg"},{"bike_id":"a8dac662-04f9-46b7-b335-a013d510eb4a","system_id":"levelo_inurba_marseille","lat":43.30892,"lon":5.39649,"is_reserved":false,"is_disabled":false,"rental_uris":{"android":"levelo://app?vid=a8dac662-04f9-46b7-b335-a013d510eb4a","ios":"levelo://app?vid=a8dac662-04f9-46b7-b335-a013d510eb4a"},"vehicle_type_id":"4","last_reported":1740578962,"current_range_meters":18000,"station_id":"ce4bh012rcd13ifvqcv0","pricing_plan_id":"cebpf4jnsgd1na2vs0mg"},{"bike_id":"69583f39-8881-4c71-91f9-e33b87f70f0d","system_id":"levelo_inurba_marseille","lat":43.27895,"lon":5.38013,"is_reserved":false,"is_disabled":false,"rental_uris":{"android":"levelo://app?vid=69583f39-8881-4c71-91f9-e33b87f70f0d","ios":"levelo://app?vid=69583f39-8881-4c71-91f9-e33b87f70f0d"},"vehicle_type_id":"4","last_reported":1740578962,"current_range_meters":18000,"station_id":"ce4bhf92rcd13ifvqf50","pricing_plan_id":"cebpf4jnsgd1na2vs0mg"},{"bike_id":"30b3726c-8d80-40f3-ade7-ad341bdcee20","system_id":"levelo_inurba_marseille","lat":43.29983,"lon":5.38489,"is_reserved":false,"is_disabled":false,"rental_uris":{"android":"levelo://app?vid=30b3726c-8d80-40f3-ade7-ad341bdcee20","ios":"levelo://app?vid=30b3726c-8d80-40f3-ade7-ad341bdcee20"},"vehicle_type_id":"4","last_reported":1740578962,"current_range_meters":17200,"station_id":"ce4bgj92rcd13ifvqbd0","pricing_plan_id":"cebpf4jnsgd1na2vs0mg"},{"bike_id":"ab1e22aa-1e2d-4f3a-bd6a-1b3423993476","system_id":"levelo_inurba_marseille","lat":43.27373,"lon":5.36261,"is_reserved":false,"is_disabled":false,"rental_uris":{"android":"levelo://app?vid=ab1e22aa-1e2d-4f3a-bd6a-1b3423993476","ios":"levelo://app?vid=ab1e22aa-1e2d-4f3a-bd6a-1b3423993476"},"vehicle_type_id":"4","last_reported":1740578962,"current_range_meters":18000,"station_id":"ce4bhbh2rcd13ifvqeo0","pricing_plan_id":"cebpf4jnsgd1na2vs0mg"},{"bike_id":"f5900fd7-5ebc-4e9b-ae58-1b8e740df4a2","system_id":"levelo_inurba_marseille","lat":43.27799,"lon":5.40721,"is_reserved":false,"is_disabled":false,"rental_uris":{"android":"levelo://app?vid=f5900fd7-5ebc-4e9b-ae58-1b8e740df4a2","ios":"levelo://app?vid=f5900fd7-5ebc-4e9b-ae58-1b8e740df4a2"},"vehicle_type_id":"4","last_reported":1740578962,"current_range_meters":18000,"station_id":"ce4bhnh2rcd13ifvqgtg","pricing_plan_id":"cebpf4jnsgd1na2vs0mg"},{"bike_id":"74edbbca-361e-4908-9052-c391ebb2fb2e","system_id":"levelo_inurba_marseille","lat":43.27059,"lon":5.40265,"is_reserved":false,"is_disabled":false,"rental_uris":{"android":"levelo://app?vid=74edbbca-361e-4908-9052-c391ebb2fb2e","ios":"levelo://app?vid=74edbbca-361e-4908-9052-c391ebb2fb2e"},"vehicle_type_id":"4","last_reported":1740578962,"current_range_meters":18000,"station_id":"ce4bhk92rcd13ifvqgc0","pricing_plan_id":"cebpf4jnsgd1na2vs0mg"},{"bike_id":"9f6bdf16-5ee9-4bb0-9e57-1e79a97b42d0","system_id":"levelo_inurba_marseille","lat":43.29018,"lon":5.3562,"is_reserved":false,"is_disabled":false,"rental_uris":{"android":"levelo://app?vid=9f6bdf16-5ee9-4bb0-9e57-1e79a97b42d0","ios":"levelo://app?vid=9f6bdf16-5ee9-4bb0-9e57-1e79a97b42d0"},"vehicle_type_id":"4","last_reported":1740578962,"current_range_meters":18000,"station_id":"ce4bhb92rcd13ifvqen0","pricing_plan_id":"cebpf4jnsgd1na2vs0mg"},{"bike_id":"01cc08da-c397-4c0b-aa66-a0421aa60375","system_id":"levelo_inurba_marseille","lat":43.299816,"lon":5.384904,"is_reserved":false,"is_disabled":false,"rental_uris":{"android":"levelo://app?vid=01cc08da-c397-4c0b-aa66-a0421aa60375","ios":"levelo://app?vid=01cc08da-c397-4c0b-aa66-a0421aa60375"},"vehicle_type_id":"4","last_reported":1740578962,"current_range_meters":17600,"station_id":"ce4bh412rcd13ifvqdr0","pricing_plan_id":"cebpf4jnsgd1na2vs0mg"},{"bike_id":"7bd0f580-54a1-4da6-b7a1-854a1ce326e7","system_id":"levelo_inurba_marseille","lat":43.289829,"lon":5.378418,"is_reserved":false,"is_disabled":false,"rental_uris":{"android":"levelo://app?vid=7bd0f580-54a1-4da6-b7a1-854a1ce326e7","ios":"levelo://app?vid=7bd0f580-54a1-4da6-b7a1-854a1ce326e7"},"vehicle_type_id":"4","last_reported":1740578962,"current_range_meters":17600,"station_id":"ce4bh9p2rcd13ifvqed0","pricing_plan_id":"cebpf4jnsgd1na2vs0mg"},{"bike_id":"c18a78e3-560a-4e3c-be55-e823511d3e57","system_id":"levelo_inurba_marseille","lat":43.23153,"lon":5.43701,"is_reserved":false,"is_disabled":false,"rental_uris":{"android":"levelo://app?vid=c18a78e3-560a-4e3c-be55-e823511d3e57","ios":"levelo://app?vid=c18a78e3-560a-4e3c-be55-e823511d3e57"},"vehicle_type_id":"4","last_reported":1740578962,"current_range_meters":18800,"station_id":"ce4bhmp2rcd13ifvqgog","pricing_plan_id":"cebpf4jnsgd1na2vs0mg"},{"bike_id":"111c6558-a57c-4d1c-9cd0-3d5b360c5d64","system_id":"levelo_inurba_marseille","lat":43.30954,"lon":5.39028,"is_reserved":false,"is_disabled":false,"rental_uris":{"android":"levelo://app?vid=111c6558-a57c-4d1c-9cd0-3d5b360c5d64","ios":"levelo://app?vid=111c6558-a57c-4d1c-9cd0-3d5b360c5d64"},"vehicle_type_id":"4","last_reported":1740578962,"current_range_meters":18800,"station_id":"ce4bgup2rcd13ifvqco0","pricing_plan_id":"cebpf4jnsgd1na2vs0mg"},{"bike_id":"57193341-246e-407c-a166-5c4db95b232b","system_id":"levelo_inurba_marseille","lat":43.27059,"lon":5.40258,"is_reserved":false,"is_disabled":false,"rental_uris":{"android":"levelo://app?vid=57193341-246e-407c-a166-5c4db95b232b","ios":"levelo://app?vid=57193341-246e-407c-a166-5c4db95b232b"},"vehicle_type_id":"4","last_reported":1740578962,"current_range_meters":18800,"station_id":"ce4bhk92rcd13ifvqgc0","pricing_plan_id":"cebpf4jnsgd1na2vs0mg"},{"bike_id":"387047f4-e46a-4181-ac82-9ff855d006f9","system_id":"levelo_inurba_marseille","lat":43.28978,"lon":5.37838,"is_reserved":false,"is_disabled":false,"rental_uris":{"android":"levelo://app?vid=387047f4-e46a-4181-ac82-9ff855d006f9","ios":"levelo://app?vid=387047f4-e46a-4181-ac82-9ff855d006f9"},"vehicle_type_id":"4","last_reported":1740578962,"current_range_meters":18800,"station_id":"ce4bh9p2rcd13ifvqed0","pricing_plan_id":"cebpf4jnsgd1na2vs0mg"},{"bike_id":"6ba41880-4bfc-44b3-a52e-522b481bab64","system_id":"levelo_inurba_marseille","lat":43.28362,"lon":5.38612,"is_reserved":false,"is_disabled":false,"rental_uris":{"android":"levelo://app?vid=6ba41880-4bfc-44b3-a52e-522b481bab64","ios":"levelo://app?vid=6ba41880-4bfc-44b3-a52e-522b481bab64"},"vehicle_type_id":"4","last_reported":1740578962,"current_range_meters":18000,"station_id":"ce4bh492rcd13ifvqdvg","pricing_plan_id":"cebpf4jnsgd1na2vs0mg"},{"bike_id":"f4fab912-e9d2-4f91-b3db-58c1f0b95884","system_id":"levelo_inurba_marseille","lat":43.29895,"lon":5.39745,"is_reserved":false,"is_disabled":false,"rental_uris":{"android":"levelo://app?vid=f4fab912-e9d2-4f91-b3db-58c1f0b95884","ios":"levelo://app?vid=f4fab912-e9d2-4f91-b3db-58c1f0b95884"},"vehicle_type_id":"4","last_reported":1740578962,"current_range_meters":18800,"station_id":"ce4bh0h2rcd13ifvqd50","pricing_plan_id":"cebpf4jnsgd1na2vs0mg"},{"bike_id":"e25028e5-0aa8-41ba-a15f-6f5136faf2b3","system_id":"levelo_inurba_marseille","lat":43.29526,"lon":5.38559,"is_reserved":false,"is_disabled":false,"rental_uris":{"android":"levelo://app?vid=e25028e5-0aa8-41ba-a15f-6f5136faf2b3","ios":"levelo://app?vid=e25028e5-0aa8-41ba-a15f-6f5136faf2b3"},"vehicle_type_id":"4","last_reported":1740578962,"current_range_meters":18000,"station_id":"ce4bgih2rcd13ifvqba0","pricing_plan_id":"cebpf4jnsgd1na2vs0mg"},{"bike_id":"3de9aeda-1f9a-4bbc-8b90-e02a49e56ca9","system_id":"levelo_inurba_marseille","lat":43.231911,"lon":5.355584,"is_reserved":false,"is_disabled":false,"rental_uris":{"android":"levelo://app?vid=3de9aeda-1f9a-4bbc-8b90-e02a49e56ca9","ios":"levelo://app?vid=3de9aeda-1f9a-4bbc-8b90-e02a49e56ca9"},"vehicle_type_id":"4","last_reported":1740578962,"current_range_meters":18800,"station_id":"ce4bhu92rcd13ifvqi70","pricing_plan_id":"cebpf4jnsgd1na2vs0mg"},{"bike_id":"f2196b74-6ac5-4b01-ba19-6c02f1914bfe","system_id":"levelo_inurba_marseille","lat":43.2838,"lon":5.38927,"is_reserved":false,"is_disabled":false,"rental_uris":{"android":"levelo://app?vid=f2196b74-6ac5-4b01-ba19-6c02f1914bfe","ios":"levelo://app?vid=f2196b74-6ac5-4b01-ba19-6c02f1914bfe"},"vehicle_type_id":"4","last_reported":1740578962,"current_range_meters":20800,"station_id":"","pricing_plan_id":"cebpf4jnsgd1na2vs0mg"},{"bike_id":"896fa85b-e6c2-4284-b540-4f908ecc715f","system_id":"levelo_inurba_marseille","lat":43.29287,"lon":5.37184,"is_reserved":false,"is_disabled":false,"rental_uris":{"android":"levelo://app?vid=896fa85b-e6c2-4284-b540-4f908ecc715f","ios":"levelo://app?vid=896fa85b-e6c2-4284-b540-4f908ecc715f"},"vehicle_type_id":"4","last_reported":1740578962,"current_range_meters":19200,"station_id":"ce4bgh92rcd13ifvqb40","pricing_plan_id":"cebpf4jnsgd1na2vs0mg"},{"bike_id":"40e25f70-02b5-4811-add6-6e8dbc26a035","system_id":"levelo_inurba_marseille","lat":43.28419,"lon":5.34994,"is_reserved":false,"is_disabled":false,"rental_uris":{"android":"levelo://app?vid=40e25f70-02b5-4811-add6-6e8dbc26a035","ios":"levelo://app?vid=40e25f70-02b5-4811-add6-6e8dbc26a035"},"vehicle_type_id":"4","last_reported":1740578962,"current_range_meters":19200,"station_id":"ce4bhbh2rcd13ifvqepg","pricing_plan_id":"cebpf4jnsgd1na2vs0mg"},{"bike_id":"f445c443-2918-4c3b-abc6-dabac14bca1e","system_id":"levelo_inurba_marseille","lat":43.29936,"lon":5.36547,"is_reserved":false,"is_disabled":false,"rental_uris":{"android":"levelo://app?vid=f445c443-2918-4c3b-abc6-dabac14bca1e","ios":"levelo://app?vid=f445c443-2918-4c3b-abc6-dabac14bca1e"},"vehicle_type_id":"4","last_reported":1740578962,"current_range_meters":17600,"station_id":"ce4bgm92rcd13ifvqbr0","pricing_plan_id":"cebpf4jnsgd1na2vs0mg"},{"bike_id":"201b43e1-9166-4b93-9ecb-211bb1985890","system_id":"levelo_inurba_marseille","lat":43.32376,"lon":5.3678,"is_reserved":false,"is_disabled":false,"rental_uris":{"android":"levelo://app?vid=201b43e1-9166-4b93-9ecb-211bb1985890","ios":"levelo://app?vid=201b43e1-9166-4b93-9ecb-211bb1985890"},"vehicle_type_id":"4","last_reported":1740578962,"current_range_meters":19200,"station_id":"ce4bhsh2rcd13ifvqi2g","pricing_plan_id":"cebpf4jnsgd1na2vs0mg"},{"bike_id":"0218e8ce-fbc5-4ac2-825f-791b6c77d99c","system_id":"levelo_inurba_marseille","lat":43.26229,"lon":5.40451,"is_reserved":false,"is_disabled":false,"rental_uris":{"android":"levelo://app?vid=0218e8ce-fbc5-4ac2-825f-791b6c77d99c","ios":"levelo://app?vid=0218e8ce-fbc5-4ac2-825f-791b6c77d99c"},"vehicle_type_id":"4","last_reported":1740578962,"current_range_meters":15200,"station_id":"ce4bhmh2rcd13ifvqgmg","pricing_plan_id":"cebpf4jnsgd1na2vs0mg"},{"bike_id":"c804314b-e40e-43eb-91d9-e684164d9c95","system_id":"levelo_inurba_marseille","lat":43.28368,"lon":5.38641,"is_reserved":false,"is_disabled":true,"rental_uris":{"android":"levelo://app?vid=c804314b-e40e-43eb-91d9-e684164d9c95","ios":"levelo://app?vid=c804314b-e40e-43eb-91d9-e684164d9c95"},"vehicle_type_id":"4","last_reported":1740578962,"current_range_meters":19200,"station_id":"ce4bh492rcd13ifvqdvg","pricing_plan_id":"cebpf4jnsgd1na2vs0mg"},{"bike_id":"1e3d123a-2faa-4cd7-b940-9e2627687e28","system_id":"levelo_inurba_marseille","lat":43.30202,"lon":5.39464,"is_reserved":false,"is_disabled":false,"rental_uris":{"android":"levelo://app?vid=1e3d123a-2faa-4cd7-b940-9e2627687e28","ios":"levelo://app?vid=1e3d123a-2faa-4cd7-b940-9e2627687e28"},"vehicle_type_id":"4","last_reported":1740578962,"current_range_meters":19200,"station_id":"ce4bh0p2rcd13ifvqd70","pricing_plan_id":"cebpf4jnsgd1na2vs0mg"},{"bike_id":"bdf61464-e3c4-4e38-b4d2-587d1d9e1e6b","system_id":"levelo_inurba_marseille","lat":43.27605,"lon":5.36133,"is_reserved":false,"is_disabled":false,"rental_uris":{"android":"levelo://app?vid=bdf61464-e3c4-4e38-b4d2-587d1d9e1e6b","ios":"levelo://app?vid=bdf61464-e3c4-4e38-b4d2-587d1d9e1e6b"},"vehicle_type_id":"4","last_reported":1740578962,"current_range_meters":19200,"station_id":"ce4bgj92rcd13ifvqbe0","pricing_plan_id":"cebpf4jnsgd1na2vs0mg"},{"bike_id":"cbb7817f-40cd-4754-ab96-eb96394c0643","system_id":"levelo_inurba_marseille","lat":43.23154,"lon":5.43705,"is_reserved":false,"is_disabled":false,"rental_uris":{"android":"levelo://app?vid=cbb7817f-40cd-4754-ab96-eb96394c0643","ios":"levelo://app?vid=cbb7817f-40cd-4754-ab96-eb96394c0643"},"vehicle_type_id":"4","last_reported":1740578962,"current_range_meters":19200,"station_id":"ce4bhmp2rcd13ifvqgog","pricing_plan_id":"cebpf4jnsgd1na2vs0mg"},{"bike_id":"74efc9ff-6ef3-4868-964e-8ca4569b828d","system_id":"levelo_inurba_marseille","lat":43.29921,"lon":5.36508,"is_reserved":false,"is_disabled":false,"rental_uris":{"android":"levelo://app?vid=74efc9ff-6ef3-4868-964e-8ca4569b828d","ios":"levelo://app?vid=74efc9ff-6ef3-4868-964e-8ca4569b828d"},"vehicle_type_id":"4","last_reported":1740578962,"current_range_meters":19200,"station_id":"ce4bgm92rcd13ifvqbr0","pricing_plan_id":"cebpf4jnsgd1na2vs0mg"},{"bike_id":"90d62200-3998-4d07-9f1e-720136404e6a","system_id":"levelo_inurba_marseille","lat":43.27996,"lon":5.40002,"is_reserved":false,"is_disabled":false,"rental_uris":{"android":"levelo://app?vid=90d62200-3998-4d07-9f1e-720136404e6a","ios":"levelo://app?vid=90d62200-3998-4d07-9f1e-720136404e6a"},"vehicle_type_id":"4","last_reported":1740578962,"current_range_meters":19200,"station_id":"ce4bho92rcd13ifvqh4g","pricing_plan_id":"cebpf4jnsgd1na2vs0mg"},{"bike_id":"816fa9b0-35f3-4121-975d-fa2248197c25","system_id":"levelo_inurba_marseille","lat":43.3133,"lon":5.39707,"is_reserved":false,"is_disabled":false,"rental_uris":{"android":"levelo://app?vid=816fa9b0-35f3-4121-975d-fa2248197c25","ios":"levelo://app?vid=816fa9b0-35f3-4121-975d-fa2248197c25"},"vehicle_type_id":"4","last_reported":1740578962,"current_range_meters":18800,"station_id":"ce4bgvp2rcd13ifvqcu0","pricing_plan_id":"cebpf4jnsgd1na2vs0mg"},{"bike_id":"451bde95-d50a-4ae4-9f07-3d2475af7250","system_id":"levelo_inurba_marseille","lat":43.23152,"lon":5.4372,"is_reserved":false,"is_disabled":false,"rental_uris":{"android":"levelo://app?vid=451bde95-d50a-4ae4-9f07-3d2475af7250","ios":"levelo://app?vid=451bde95-d50a-4ae4-9f07-3d2475af7250"},"vehicle_type_id":"4","last_reported":1740578962,"current_range_meters":20000,"station_id":"ce4bhmp2rcd13ifvqgog","pricing_plan_id":"cebpf4jnsgd1na2vs0mg"},{"bike_id":"46ea81de-9972-4ff4-b042-4516dd266bf0","system_id":"levelo_inurba_marseille","lat":43.29511,"lon":5.37513,"is_reserved":false,"is_disabled":false,"rental_uris":{"android":"levelo://app?vid=46ea81de-9972-4ff4-b042-4516dd266bf0","ios":"levelo://app?vid=46ea81de-9972-4ff4-b042-4516dd266bf0"},"vehicle_type_id":"4","last_reported":1740578962,"current_range_meters":19200,"station_id":"ce4bgkp2rcd13ifvqbmg","pricing_plan_id":"cebpf4jnsgd1na2vs0mg"},{"bike_id":"5abf3679-fcda-480a-8953-232ca74b4159","system_id":"levelo_inurba_marseille","lat":43.28446,"lon":5.39205,"is_reserved":false,"is_disabled":false,"rental_uris":{"android":"levelo://app?vid=5abf3679-fcda-480a-8953-232ca74b4159","ios":"levelo://app?vid=5abf3679-fcda-480a-8953-232ca74b4159"},"vehicle_type_id":"4","last_reported":1740578962,"current_range_meters":19200,"station_id":"ce4bhoh2rcd13ifvqh5g","pricing_plan_id":"cebpf4jnsgd1na2vs0mg"},{"bike_id":"0ec9f480-a7c4-4b9c-83f9-5ba308a01937","system_id":"levelo_inurba_marseille","lat":43.30278,"lon":5.37697,"is_reserved":false,"is_disabled":false,"rental_uris":{"android":"levelo://app?vid=0ec9f480-a7c4-4b9c-83f9-5ba308a01937","ios":"levelo://app?vid=0ec9f480-a7c4-4b9c-83f9-5ba308a01937"},"vehicle_type_id":"4","last_reported":1740578962,"current_range_meters":19600,"station_id":"ce4bguh2rcd13ifvqcj0","pricing_plan_id":"cebpf4jnsgd1na2vs0mg"},{"bike_id":"d337cc62-b29d-4e4a-bd4f-e767bd643d41","system_id":"levelo_inurba_marseille","lat":43.32108,"lon":5.36787,"is_reserved":false,"is_disabled":false,"rental_uris":{"android":"levelo://app?vid=d337cc62-b29d-4e4a-bd4f-e767bd643d41","ios":"levelo://app?vid=d337cc62-b29d-4e4a-bd4f-e767bd643d41"},"vehicle_type_id":"4","last_reported":1740578962,"current_range_meters":19600,"station_id":"ce4bhrh2rcd13ifvqhug","pricing_plan_id":"cebpf4jnsgd1na2vs0mg"},{"bike_id":"45b24b8b-cb41-42b4-8929-33692f42446f","system_id":"levelo_inurba_marseille","lat":43.26955,"lon":5.38635,"is_reserved":false,"is_disabled":false,"rental_uris":{"android":"levelo://app?vid=45b24b8b-cb41-42b4-8929-33692f42446f","ios":"levelo://app?vid=45b24b8b-cb41-42b4-8929-33692f42446f"},"vehicle_type_id":"4","last_reported":1740578962,"current_range_meters":19200,"station_id":"ce4bhh92rcd13ifvqfh0","pricing_plan_id":"cebpf4jnsgd1na2vs0mg"},{"bike_id":"e3e25edb-4326-40f6-93f6-9ebe3dcd86f6","system_id":"levelo_inurba_marseille","lat":43.30805,"lon":5.38154,"is_reserved":false,"is_disabled":false,"rental_uris":{"android":"levelo://app?vid=e3e25edb-4326-40f6-93f6-9ebe3dcd86f6","ios":"levelo://app?vid=e3e25edb-4326-40f6-93f6-9ebe3dcd86f6"},"vehicle_type_id":"4","last_reported":1740578962,"current_range_meters":19600,"station_id":"ce4bgt12rcd13ifvqce0","pricing_plan_id":"cebpf4jnsgd1na2vs0mg"},{"bike_id":"00ec3e1c-1d9e-4ac0-a4f6-1a20ef2c2f4b","system_id":"levelo_inurba_marseille","lat":43.30887,"lon":5.37195,"is_reserved":false,"is_disabled":false,"rental_uris":{"android":"levelo://app?vid=00ec3e1c-1d9e-4ac0-a4f6-1a20ef2c2f4b","ios":"levelo://app?vid=00ec3e1c-1d9e-4ac0-a4f6-1a20ef2c2f4b"},"vehicle_type_id":"4","last_reported":1740578962,"current_range_meters":20000,"station_id":"ce4bguh2rcd13ifvqckg","pricing_plan_id":"cebpf4jnsgd1na2vs0mg"},{"bike_id":"9892b36a-256d-42e9-b623-eaa7d537824b","system_id":"levelo_inurba_marseille","lat":43.29101,"lon":5.38131,"is_reserved":false,"is_disabled":false,"rental_uris":{"android":"levelo://app?vid=9892b36a-256d-42e9-b623-eaa7d537824b","ios":"levelo://app?vid=9892b36a-256d-42e9-b623-eaa7d537824b"},"vehicle_type_id":"4","last_reported":1740578962,"current_range_meters":19600,"station_id":"ce4bh512rcd13ifvqe2g","pricing_plan_id":"cebpf4jnsgd1na2vs0mg"},