{"last_updated":1731233270,"ttl":60,"version":"2.2","data":{"bikes":[{"bike_id":"dcd8b508-2c18-4839-ab68-7b52cc2d3fb7","system_id":"levelo_inurba_marseille","lat":43.2707,"lon":5.42274,"is_reserved":false,"is_disabled":false,"rental_uris":{"android":"levelo://app?vid=dcd8b508-2c18-4839-ab68-7b52cc2d3fb7","ios":"levelo://app?vid=dcd8b508-2c18-4839-ab68-7b52cc2d3fb7"},"vehicle_type_id":"4","last_reported":1731233270,"current_range_meters":30800,"station_id":"ce4bhk92rcd13ifvqgb0","pricing_plan_id":"cebpf4jnsgd1na2vs0mg"},{"bike_id":"e94e2327-9eaf-4d26-bd7f-903afa708be6","system_id":"levelo_inurba_marseille","lat":43.33793,"lon":5.39296,"is_reserved":false,"is_disabled":false,"rental_uris":{"android":"levelo://app?vid=e94e2327-9eaf-4d26-bd7f-903afa708be6","ios":"levelo://app?vid=e94e2327-9eaf-4d26-bd7f-903afa708be6"},"vehicle_type_id":"4","last_reported":1731233270,"current_range_meters":14800,"station_id":"ce4bhr92rcd13ifvqhsg","pricing_plan_id":"cebpf4jnsgd1na2vs0mg"},{"bike_id":"3f98d5bc-8cba-45da-9b18-d2bbd2d31032","system_id":"levelo_inurba_marseille","lat":43.29005,"lon":5.35616,"is_reserved":false,"is_disabled":false,"rental_uris":{"android":"levelo://app?vid=3f98d5bc-8cba-45da-9b18-d2bbd2d31032","ios":"levelo://app?vid=3f98d5bc-8cba-45da-9b18-d2bbd2d31032"},"vehicle_type_id":"4","last_reported":1731233270,"current_range_meters":14400,"station_id":"ce4bhb92rcd13ifvqen0","pricing_plan_id":"cebpf4jnsgd1na2vs0mg"},{"bike_id":"03b21e3c-734f-4951-bf01-23147218d4fc","system_id":"levelo_inurba_marseille","lat":43.2922,"lon":5.36053,"is_reserved":false,"is_disabled":false,"rental_uris":{"android":"levelo://app?vid=03b21e3c-734f-4951-bf01-23147218d4fc","ios":"levelo://app?vid=03b21e3c-734f-4951-bf01-23147218d4fc"},"vehicle_type_id":"4","last_reported":1731233270,"current_range_meters":9600,"station_id":"ce4bhbh2rcd13ifvqeqg","pricing_plan_id":"cebpf4jnsgd1na2vs0mg"},{"bike_id":"4d807e1d-e928-4f4e-a3d6-537ea1b965f5","system_id":"levelo_inurba_marseille","lat":43.27373,"lon":5.36255,"is_reserved":false,"is_disabled":false,"rental_uris":{"android":"levelo://app?vid=4d807e1d-e928-4f4e-a3d6-537ea1b965f5","ios":"levelo://app?vid=4d807e1d-e928-4f4e-a3d6-537ea1b965f5"},"vehicle_type_id":"4","last_reported":1731233270,"current_range_meters":38800,"station_id":"ce4bhbh2rcd13ifvqeo0","pricing_plan_id":"cebpf4jnsgd1na2vs0mg"},{"bike_id":"8d618ad3-e42f-4b7f-961b-1ad00e2aa17c","system_id":"levelo_inurba_marseille","lat":43.250077,"lon":5.389241,"is_reserved":false,"is_disabled":false,"rental_uris":{"android":"levelo://app?vid=8d618ad3-e42f-4b7f-961b-1ad00e2aa17c","ios":"levelo://app?vid=8d618ad3-e42f-4b7f-961b-1ad00e2aa17c"},"vehicle_type_id":"4","last_reported":1731233270,"current_range_meters":37600,"station_id":"ce4bhgp2rcd13ifvqfd0","pricing_plan_id":"cebpf4jnsgd1na2vs0mg"},{"bike_id":"68bb9078-c705-4e4c-81de-7ae7c7d86c43","system_id":"levelo_inurba_marseille","lat":43.31681,"lon":5.3774,"is_reserved":false,"is_disabled":false,"rental_uris":{"android":"levelo://app?vid=68bb9078-c705-4e4c-81de-7ae7c7d86c43","ios":"levelo://app?vid=68bb9078-c705-4e4c-81de-7ae7c7d86c43"},"vehicle_type_id":"4","last_reported":1731233270,"current_range_meters":24800,"station_id":"ce4bgth2rcd13ifvqch0","pricing_plan_id":"cebpf4jnsgd1na2vs0mg"},{"bike_id":"90a4789b-8320-4230-9c72-2a7c3700b66b","system_id":"levelo_inurba_marseille","lat":43.29582,"lon":5.37499,"is_reserved":false,"is_disabled":false,"rental_uris":{"android":"levelo://app?vid=90a4789b-8320-4230-9c72-2a7c3700b66b","ios":"levelo://app?vid=90a4789b-8320-4230-9c72-2a7c3700b66b"},"vehicle_type_id":"4","last_reported":1731233270,"current_range_meters":36400,"station_id":"ce4bgh92rcd13ifvqb50","pricing_plan_id":"cebpf4jnsgd1na2vs0mg"},{"bike_id":"327ed2cf-c810-4406-a8ae-71d7f9fc87bd","system_id":"levelo_inurba_marseille","lat":43.30089,"lon":5.39077,"is_reserved":false,"is_disabled":false,"rental_uris":{"android":"levelo://app?vid=327ed2cf-c810-4406-a8ae-71d7f9fc87bd","ios":"levelo://app?vid=327ed2cf-c810-4406-a8ae-71d7f9fc87bd"},"vehicle_type_id":"4","last_reported":1731233270,"current_range_meters":36400,"station_id":"ce4bh192rcd13ifvqdb0","pricing_plan_id":"cebpf4jnsgd1na2vs0mg"},{"bike_id":"5daf7e81-adca-4c69-ac49-7439dac41928","system_id":"levelo_inurba_marseille","lat":43.29554,"lon":5.422868,"is_reserved":false,"is_disabled":false,"rental_uris":{"android":"levelo://app?vid=5daf7e81-adca-4c69-ac49-7439dac41928","ios":"levelo://app?vid=5daf7e81-adca-4c69-ac49-7439dac41928"},"vehicle_type_id":"4","last_reported":1731233270,"current_range_meters":38800,"station_id":"ce4bhph2rcd13ifvqhdg","pricing_plan_id":"cebpf4jnsgd1na2vs0mg"},{"bike_id":"650378b6-25c8-4aef-bb74-6953c5aa449e","system_id":"levelo_inurba_marseille","lat":43.28614,"lon":5.37055,"is_reserved":false,"is_disabled":false,"rental_uris":{"android":"levelo://app?vid=650378b6-25c8-4aef-bb74-6953c5aa449e","ios":"levelo://app?vid=650378b6-25c8-4aef-bb74-6953c5aa449e"},"vehicle_type_id":"4","last_reported":1731233270,"current_range_meters":33600,"station_id":"ce4bht12rcd13ifvqi60","pricing_plan_id":"cebpf4jnsgd1na2vs0mg"},{"bike_id":"bab7e8bf-3dd9-4ba8-ae9e-1d78dcf614a2","system_id":"levelo_inurba_marseille","lat":43.25087,"lon":5.39518,"is_reserved":false,"is_disabled":false,"rental_uris":{"android":"levelo://app?vid=bab7e8bf-3dd9-4ba8-ae9e-1d78dcf614a2","ios":"levelo://app?vid=bab7e8bf-3dd9-4ba8-ae9e-1d78dcf614a2"},"vehicle_type_id":"4","last_reported":1731233270,"current_range_meters":35600,"station_id":"ce4bhm12rcd13ifvqgkg","pricing_plan_id":"cebpf4jnsgd1na2vs0mg"},{"bike_id":"a465059d-f50c-4f3b-9bd2-0b0ad06e8726","system_id":"levelo_inurba_marseille","lat":43.30541,"lon":5.36523,"is_reserved":false,"is_disabled":false,"rental_uris":{"android":"levelo://app?vid=a465059d-f50c-4f3b-9bd2-0b0ad06e8726","ios":"levelo://app?vid=a465059d-f50c-4f3b-9bd2-0b0ad06e8726"},"vehicle_type_id":"4","last_reported":1731233270,"current_range_meters":13600,"station_id":"ce4bgs12rcd13ifvqcag","pricing_plan_id":"cebpf4jnsgd1na2vs0mg"},{"bike_id":"3cba9fdd-e01f-406a-8731-509d66a1b107","system_id":"levelo_inurba_marseille","lat":43.2606,"lon":5.39391,"is_reserved":false,"is_disabled":false,"rental_uris":{"android":"levelo://app?vid=3cba9fdd-e01f-406a-8731-509d66a1b107","ios":"levelo://app?vid=3cba9fdd-e01f-406a-8731-509d66a1b107"},"vehicle_type_id":"4","last_reported":1731233270,"current_range_meters":25200,"station_id":"ce4bhh92rcd13ifvqfj0","pricing_plan_id":"cebpf4jnsgd1na2vs0mg"},{"bike_id":"4eb8cd11-f10e-4d12-8a9c-4645e2f4f74b","system_id":"levelo_inurba_marseille","lat":43.27835,"lon":5.39193,"is_reserved":false,"is_disabled":false,"rental_uris":{"android":"levelo://app?vid=4eb8cd11-f10e-4d12-8a9c-4645e2f4f74b","ios":"levelo://app?vid=4eb8cd11-f10e-4d12-8a9c-4645e2f4f74b"},"vehicle_type_id":"4","last_reported":1731233270,"current_range_meters":38000,"station_id":"ce4bhjp2rcd13ifvqga0","pricing_plan_id":"cebpf4jnsgd1na2vs0mg"},{"bike_id":"a0a3d814-432b-4cf3-a992-62dd562ea743","system_id":"levelo_inurba_marseille","lat":43.29196,"lon":5.35789,"is_reserved":false,"is_disabled":false,"rental_uris":{"android":"levelo://app?vid=a0a3d814-432b-4cf3-a992-62dd562ea743","ios":"levelo://app?vid=a0a3d814-432b-4cf3-a992-62dd562ea743"},"vehicle_type_id":"4","last_reported":1731233270,"current_range_meters":8800,"station_id":"ce4bhb12rcd13ifvqel0","pricing_plan_id":"cebpf4jnsgd1na2vs0mg"},{"bike_id":"605308ae-e328-49e6-83af-5dad5f553481","system_id":"levelo_inurba_marseille","lat":43.23974,"lon":5.3662,"is_reserved":false,"is_disabled":false,"rental_uris":{"android":"levelo://app?vid=605308ae-e328-49e6-83af-5dad5f553481","ios":"levelo://app?vid=605308ae-e328-49e6-83af-5dad5f553481"},"vehicle_type_id":"4","last_reported":1731233270,"current_range_meters":30400,"station_id":"ce4bhi12rcd13ifvqfp0","pricing_plan_id":"cebpf4jnsgd1na2vs0mg"},{"bike_id":"9110cb2e-2e72-4bc3-9f77-b10b73b70273","system_id":"levelo_inurba_marseille","lat":43.26059,"lon":5.39396,"is_reserved":false,"is_disabled":false,"rental_uris":{"android":"levelo://app?vid=9110cb2e-2e72-4bc3-9f77-b10b73b70273","ios":"levelo://app?vid=9110cb2e-2e72-4bc3-9f77-b10b73b70273"},"vehicle_type_id":"4","last_reported":1731233270,"current_range_meters":24400,"station_id":"ce4bhh92rcd13ifvqfj0","pricing_plan_id":"cebpf4jnsgd1na2vs0mg"},{"bike_id":"0e2e1854-95c0-4c56-aead-2824487f9a9d","system_id":"levelo_inurba_marseille","lat":43.31335,"lon":5.39711,"is_reserved":false,"is_disabled":false,"rental_uris":{"android":"levelo://app?vid=0e2e1854-95c0-4c56-aead-2824487f9a9d","ios":"levelo://app?vid=0e2e1854-95c0-4c56-aead-2824487f9a9d"},"vehicle_type_id":"4","last_reported":1731233270,"current_range_meters":38800,"station_id":"ce4bgvp2rcd13ifvqcu0","pricing_plan_id":"cebpf4jnsgd1na2vs0mg"},{"bike_id":"30037827-8659-4cce-803b-88835fb3f6b5","system_id":"levelo_inurba_marseille","lat":43.25506,"lon":5.37647,"is_reserved":false,"is_disabled":false,"rental_uris":{"android":"levelo://app?vid=30037827-8659-4cce-803b-88835fb3f6b5","ios":"levelo://app?vid=30037827-8659-4cce-803b-88835fb3f6b5"},"vehicle_type_id":"4","last_reported":1731233270,"current_range_meters":38800,"station_id":"ce4bhh12rcd13ifvqff0","pricing_plan_id":"cebpf4jnsgd1na2vs0mg"},{"bike_id":"2637e3b3-8980-4cfb-85f6-c8e3601b9dbb","system_id":"levelo_inurba_marseille","lat":43.30143,"lon":5.38092,"is_reserved":false,"is_disabled":false,"rental_uris":{"android":"levelo://app?vid=2637e3b3-8980-4cfb-85f6-c8e3601b9dbb","ios":"levelo://app?vid=2637e3b3-8980-4cfb-85f6-c8e3601b9dbb"},"vehicle_type_id":"4","last_reported":1731233270,"current_range_meters":37600,"station_id":"ce4bgjp2rcd13ifvqbh0","pricing_plan_id":"cebpf4jnsgd1na2vs0mg"},{"bike_id":"671ddd79-64b2-4ee0-a149-985f30b74ba0","system_id":"levelo_inurba_marseille","lat":43.302758,"lon":5.376951,"is_reserved":false,"is_disabled":false,"rental_uris":{"android":"levelo://app?vid=671ddd79-64b2-4ee0-a149-985f30b74ba0","ios":"levelo://app?vid=671ddd79-64b2-4ee0-a149-985f30b74ba0"},"vehicle_type_id":"4","last_reported":1731233270,"current_range_meters":38000,"station_id":"ce4bguh2rcd13ifvqcj0","pricing_plan_id":"cebpf4jnsgd1na2vs0mg"},{"bike_id":"eb280453-261a-4450-a2fd-1da204e75092","system_id":"levelo_inurba_marseille","lat":43.23152,"lon":5.43719,"is_reserved":false,"is_disabled":false,"rental_uris":{"android":"levelo://app?vid=eb280453-261a-4450-a2fd-1da204e75092","ios":"levelo://app?vid=eb280453-261a-4450-a2fd-1da204e75092"},"vehicle_type_id":"4","last_reported":1731233270,"current_range_meters":25200,"station_id":"ce4bhmp2rcd13ifvqgog","pricing_plan_id":"cebpf4jnsgd1na2vs0mg"},{"bike_id":"e235d3a0-d271-4a9b-8af9-d1794cadd606","system_id":"levelo_inurba_marseille","lat":43.26198,"lon":5.3792,"is_reserved":false,"is_disabled":false,"rental_uris":{"android":"levelo://app?vid=e235d3a0-d271-4a9b-8af9-d1794cadd606","ios":"levelo://app?vid=e235d3a0-d271-4a9b-8af9-d1794cadd606"},"vehicle_type_id":"4","last_reported":1731233270,"current_range_meters":38800,"station_id":"ce4bhjp2rcd13ifvqg90","pricing_plan_id":"cebpf4jnsgd1na2vs0mg"},{"bike_id":"3cafabef-e60c-40e7-b697-7cc5cd050660","system_id":"levelo_inurba_marseille","lat":43.29613,"lon":5.37728,"is_reserved":false,"is_disabled":false,"rental_uris":{"android":"levelo://app?vid=3cafabef-e60c-40e7-b697-7cc5cd050660","ios":"levelo://app?vid=3cafabef-e60c-40e7-b697-7cc5cd050660"},"vehicle_type_id":"4","last_reported":1731233270,"current_range_meters":38800,"station_id":"ce4bgi92rcd13ifvqb90","pricing_plan_id":"cebpf4jnsgd1na2vs0mg"},{"bike_id":"1368067b-129d-4020-a2d9-e3ebe92deabe","system_id":"levelo_inurba_marseille","lat":43.28849,"lon":5.35852,"is_reserved":false,"is_disabled":false,"rental_uris":{"android":"levelo://app?vid=1368067b-129d-4020-a2d9-e3ebe92deabe","ios":"levelo://app?vid=1368067b-129d-4020-a2d9-e3ebe92deabe"},"vehicle_type_id":"4","last_reported":1731233270,"current_range_meters":12800,"station_id":"ce4bhb12rcd13ifvqem0","pricing_plan_id":"cebpf4jnsgd1na2vs0mg"},{"bike_id":"b9059161-bc2a-4853-8231-de961bd5f1e7","system_id":"levelo_inurba_marseille","lat":43.33721,"lon":5.39179,"is_reserved":false,"is_disabled":false,"rental_uris":{"android":"levelo://app?vid=b9059161-bc2a-4853-8231-de961bd5f1e7","ios":"levelo://app?vid=b9059161-bc2a-4853-8231-de961bd5f1e7"},"vehicle_type_id":"4","last_reported":1731233270,"current_range_meters":17600,"station_id":"ce4bhr92rcd13ifvqhsg","pricing_plan_id":"cebpf4jnsgd1na2vs0mg"},{"bike_id":"6540d6d8-0acc-45fd-a2d4-2aca7b4a9966","system_id":"levelo_inurba_marseille","lat":43.29008,"lon":5.35613,"is_reserved":false,"is_disabled":false,"rental_uris":{"android":"levelo://app?vid=6540d6d8-0acc-45fd-a2d4-2aca7b4a9966","ios":"levelo://app?vid=6540d6d8-0acc-45fd-a2d4-2aca7b4a9966"},"vehicle_type_id":"4","last_reported":1731233270,"current_range_meters":14000,"station_id":"ce4bhb92rcd13ifvqen0","pricing_plan_id":"cebpf4jnsgd1na2vs0mg"},{"bike_id":"9e00ae8d-b3a9-4d4b-a691-62debbf0e14c","system_id":"levelo_inurba_marseille","lat":43.2318,"lon":5.39995,"is_reserved":false,"is_disabled":false,"rental_uris":{"android":"levelo://app?vid=9e00ae8d-b3a9-4d4b-a691-62debbf0e14c","ios":"levelo://app?vid=9e00ae8d-b3a9-4d4b-a691-62debbf0e14c"},"vehicle_type_id":"4","last_reported":1731233270,"current_range_meters":36800,"station_id":"ce4bhn12rcd13ifvqgqg","pricing_plan_id":"cebpf4jnsgd1na2vs0mg"},{"bike_id":"6027106f-a998-41e8-b0e8-ca119a0cc741","system_id":"levelo_inurba_marseille","lat":43.29556,"lon":5.42283,"is_reserved":false,"is_disabled":false,"rental_uris":{"android":"levelo://app?vid=6027106f-a998-41e8-b0e8-ca119a0cc741","ios":"levelo://app?vid=6027106f-a998-41e8-b0e8-ca119a0cc741"},"vehicle_type_id":"4","last_reported":1731233270,"current_range_meters":30800,"station_id":"ce4bhph2rcd13ifvqhdg","pricing_plan_id":"cebpf4jnsgd1na2vs0mg"},{"bike_id":"86932ea8-e9e8-4b5b-831a-fa3b8a07771c","system_id":"levelo_inurba_marseille","lat":43.28618,"lon":5.35105,"is_reserved":false,"is_disabled":false,"rental_uris":{"android":"levelo://app?vid=86932ea8-e9e8-4b5b-831a-fa3b8a07771c","ios":"levelo://app?vid=86932ea8-e9e8-4b5b-831a-fa3b8a07771c"},"vehicle_type_id":"4","last_reported":1731233270,"current_range_meters":38800,"station_id":"ce4bhch2rcd13ifvqeug","pricing_plan_id":"cebpf4jnsgd1na2vs0mg"},{"bike_id":"b988d46e-5351-4be6-bc83-cefe951ed338","system_id":"levelo_inurba_marseille","lat":43.29013,"lon":5.35609,"is_reserved":false,"is_disabled":false,"rental_uris":{"android":"levelo://app?vid=b988d46e-5351-4be6-bc83-cefe951ed338","ios":"levelo://app?vid=b988d46e-5351-4be6-bc83-cefe951ed338"},"vehicle_type_id":"4","last_reported":1731233270,"current_range_meters":18800,"station_id":"ce4bhb92rcd13ifvqen0","pricing_plan_id":"cebpf4jnsgd1na2vs0mg"},{"bike_id":"85deaabe-8b47-49fe-ab48-308cbac59a2b","system_id":"levelo_inurba_marseille","lat":43.28154,"lon":5.42635,"is_reserved":false,"is_disabled":false,"rental_uris":{"android":"levelo://app?vid=85deaabe-8b47-49fe-ab48-308cbac59a2b","ios":"levelo://app?vid=85deaabe-8b47-49fe-ab48-308cbac59a2b"},"vehicle_type_id":"4","last_reported":1731233270,"current_range_meters":28400,"station_id":"ce4bhnh2rcd13ifvqgug","pricing_plan_id":"cebpf4jnsgd1na2vs0mg"},{"bike_id":"af4fd449-268e-4d43-897d-45e93709dcf7","system_id":"levelo_inurba_marseille","lat":43.29274,"lon":5.36851,"is_reserved":false,"is_disabled":false,"rental_uris":{"android":"levelo://app?vid=af4fd449-268e-4d43-897d-45e93709dcf7","ios":"levelo://app?vid=af4fd449-268e-4d43-897d-45e93709dcf7"},"vehicle_type_id":"4","last_reported":1731233270,"current_range_meters":22800,"station_id":"ce4bhbp2rcd13ifvqesg","pricing_plan_id":"cebpf4jnsgd1na2vs0mg"},{"bike_id":"b89d6516-0dc4-4705-9993-76b039773ae0","system_id":"levelo_inurba_marseille","lat":43.30145,"lon":5.37415,"is_reserved":false,"is_disabled":false,"rental_uris":{"android":"levelo://app?vid=b89d6516-0dc4-4705-9993-76b039773ae0","ios":"levelo://app?vid=b89d6516-0dc4-4705-9993-76b039773ae0"},"vehicle_type_id":"4","last_reported":1731233270,"current_range_meters":36800,"station_id":"ce4bgs92rcd13ifvqcc0","pricing_plan_id":"cebpf4jnsgd1na2vs0mg"},{"bike_id":"022a6c3f-2c40-4cbf-9753-f6fa44b0f843","system_id":"levelo_inurba_marseille","lat":43.31271,"lon":5.40166,"is_reserved":false,"is_disabled":false,"rental_uris":{"android":"levelo://app?vid=022a6c3f-2c40-4cbf-9753-f6fa44b0f843","ios":"levelo://app?vid=022a6c3f-2c40-4cbf-9753-f6fa44b0f843"},"vehicle_type_id":"4","last_reported":1731233270,"current_range_meters":36000,"station_id":"ce4bh092rcd13ifvqd30","pricing_plan_id":"cebpf4jnsgd1na2vs0mg"},{"bike_id":"b3853e53-117a-4f15-b4eb-8096528db125","system_id":"levelo_inurba_marseille","lat":43.26205,"lon":5.3793,"is_reserved":false,"is_disabled":false,"rental_uris":{"android":"levelo://app?vid=b3853e53-117a-4f15-b4eb-8096528db125","ios":"levelo://app?vid=b3853e53-117a-4f15-b4eb-8096528db125"},"vehicle_type_id":"4","last_reported":1731233270,"current_range_meters":37600,"station_id":"ce4bhjp2rcd13ifvqg90","pricing_plan_id":"cebpf4jnsgd1na2vs0mg"},{"bike_id":"0b0b749b-978e-49eb-94d3-f153ec8ad30b","system_id":"levelo_inurba_marseille","lat":43.31543,"lon":5.38021,"is_reserved":false,"is_disabled":false,"rental_uris":{"android":"levelo://app?vid=0b0b749b-978e-49eb-94d3-f153ec8ad30b","ios":"levelo://app?vid=0b0b749b-978e-49eb-94d3-f153ec8ad30b"},"vehicle_type_id":"4","last_reported":1731233270,"current_range_meters":6400,"station_id":"ce4bhsp2rcd13ifvqi50","pricing_plan_id":"cebpf4jnsgd1na2vs0mg"},{"bike_id":"d38343c3-1071-4134-a584-7845b5499037","system_id":"levelo_inurba_marseille","lat":43.28862,"lon":5.35843,"is_reserved":false,"is_disabled":false,"rental_uris":{"android":"levelo://app?vid=d38343c3-1071-4134-a584-7845b5499037","ios":"levelo://app?vid=d38343c3-1071-4134-a584-7845b5499037"},"vehicle_type_id":"4","last_reported":1731233270,"current_range_meters":38800,"station_id":"ce4bhb12rcd13ifvqem0","pricing_plan_id":"cebpf4jnsgd1na2vs0mg"},{"bike_id":"018cdcf7-93ec-4e24-8e3e-3f9d0d08d718","system_id":"levelo_inurba_marseille","lat":43.2397,"lon":5.36632,"is_reserved":false,"is_disabled":false,"rental_uris":{"android":"levelo://app?vid=018cdcf7-93ec-4e24-8e3e-3f9d0d08d718","ios":"levelo://app?vid=018cdcf7-93ec-4e24-8e3e-3f9d0d08d718"},"vehicle_type_id":"4","last_reported":1731233270,"current_range_meters":38800,"station_id":"ce4bhi12rcd13ifvqfp0","pricing_plan_id":"cebpf4jnsgd1na2vs0mg"},{"bike_id":"5474522c-ab23-48ff-8d4f-608ca8b7c65a","system_id":"levelo_inurba_marseille","lat":43.28273,"lon":5.35072,"is_reserved":false,"is_disabled":false,"rental_uris":{"android":"levelo://app?vid=5474522c-ab23-48ff-8d4f-608ca8b7c65a","ios":"levelo://app?vid=5474522c-ab23-48ff-8d4f-608ca8b7c65a"},"vehicle_type_id":"4","last_reported":1731233270,"current_range_meters":36000,"station_id":"ce4bhbp2rcd13ifvqerg","pricing_plan_id":"cebpf4jnsgd1na2vs0mg"},{"bike_id":"2955f6da-7da2-4d9b-b0aa-8146c955ca70","system_id":"levelo_inurba_marseille","lat":43.27621,"lon":5.36107,"is_reserved":false,"is_disabled":false,"rental_uris":{"android":"levelo://app?vid=2955f6da-7da2-4d9b-b0aa-8146c955ca70","ios":"levelo://app?vid=2955f6da-7da2-4d9b-b0aa-8146c955ca70"},"vehicle_type_id":"4","last_reported":1731233270,"current_range_meters":4000,"station_id":"ce4bgj92rcd13ifvqbe0","pricing_plan_id":"cebpf4jnsgd1na2vs0mg"},{"bike_id":"4bb9a85a-0d0c-4d55-8773-a9f717071e71","system_id":"levelo_inurba_marseille","lat":43.31694,"lon":5.37736,"is_reserved":false,"is_disabled":false,"rental_uris":{"android":"levelo://app?vid=4bb9a85a-0d0c-4d55-8773-a9f717071e71","ios":"levelo://app?vid=4bb9a85a-0d0c-4d55-8773-a9f717071e71"},"vehicle_type_id":"4","last_reported":1731233270,"current_range_meters":38800,"station_id":"ce4bgth2rcd13ifvqch0","pricing_plan_id":"cebpf4jnsgd1na2vs0mg"},{"bike_id":"50ecb06e-08dd-47cf-9c1d-b9812deaec86","system_id":"levelo_inurba_marseille","lat":43.26064,"lon":5.394,"is_reserved":false,"is_disabled":false,"rental_uris":{"android":"levelo://app?vid=50ecb06e-08dd-47cf-9c1d-b9812deaec86","ios":"levelo://app?vid=50ecb06e-08dd-47cf-9c1d-b9812deaec86"},"vehicle_type_id":"4","last_reported":1731233270,"current_range_meters":10800,"station_id":"ce4bhgh2rcd13ifvqfb0","pricing_plan_id":"cebpf4jnsgd1na2vs0mg"},{"bike_id":"c94909dd-e782-4a49-bf66-6d27f36ac2ee","system_id":"levelo_inurba_marseille","lat":43.29641,"lon":5.38068,"is_reserved":false,"is_disabled":false,"rental_uris":{"android":"levelo://app?vid=c94909dd-e782-4a49-bf66-6d27f36ac2ee","ios":"levelo://app?vid=c94909dd-e782-4a49-bf66-6d27f36ac2ee"},"vehicle_type_id":"4","last_reported":1731233270,"current_range_meters":30000,"station_id":"","pricing_plan_id":"cebpf4jnsgd1na2vs0mg"},{"bike_id":"c221efe7-efcb-49b8-a1b0-1dd8d171a453","system_id":"levelo_inurba_marseille","lat":43.33732,"lon":5.39186,"is_reserved":false,"is_disabled":false,"rental_uris":{"android":"levelo://app?vid=c221efe7-efcb-49b8-a1b0-1dd8d171a453","ios":"levelo://app?vid=c221efe7-efcb-49b8-a1b0-1dd8d171a453"},"vehicle_type_id":"4","last_reported":1731233270,"current_range_meters":37600,"station_id":"ce4bhr92rcd13ifvqhsg","pricing_plan_id":"cebpf4jnsgd1na2vs0mg"},{"bike_id":"b8fdd341-0697-41ca-82c9-e4253415f4e6","system_id":"levelo_inurba_marseille","lat":43.23059,"lon":5.35491,"is_reserved":false,"is_disabled":false,"rental_uris":{"android":"levelo://app?vid=b8fdd341-0697-41ca-82c9-e4253415f4e6","ios":"levelo://app?vid=b8fdd341-0697-41ca-82c9-e4253415f4e6"},"vehicle_type_id":"4","last_reported":1731233270,"current_range_meters":28000,"station_id":"cpo3342slgdg3j2ifvpg","pricing_plan_id":"cebpf4jnsgd1na2vs0mg"},{"bike_id":"cf9daf46-3bd1-47e7-80ac-0de06577c598","system_id":"levelo_inurba_marseille","lat":43.24389,"lon":5.37049,"is_reserved":false,"is_disabled":false,"rental_uris":{"android":"levelo://app?vid=cf9daf46-3bd1-47e7-80ac-0de06577c598","ios":"levelo://app?vid=cf9daf46-3bd1-47e7-80ac-0de06577c598"},"vehicle_type_id":"4","last_reported":1731233270,"current_range_meters":38800,"station_id":"ce4bhhh2rcd13ifvqfk0","pricing_plan_id":"cebpf4jnsgd1na2vs0mg"},{"bike_id":"7926f21e-447b-4b97-94a3-e35466a5018e","system_id":"levelo_inurba_marseille","lat":43.23184,"lon":5.39979,"is_reserved":false,"is_disabled":false,"rental_uris":{"android":"levelo://app?vid=7926f21e-447b-4b97-94a3-e35466a5018e","ios":"levelo://app?vid=7926f21e-447b-4b97-94a3-e35466a5018e"},"vehicle_type_id":"4","last_reported":1731233270,"current_range_meters":38800,"station_id":"ce4bhn12rcd13ifvqgqg","pricing_plan_id":"cebpf4jnsgd1na2vs0mg"},{"bike_id":"535ccd2b-fa82-454d-8b3b-7e708959f079","system_id":"levelo_inurba_marseille","lat":43.24652,"lon":5.38885,"is_reserved":false,"is_disabled":false,"rental_uris":{"android":"levelo://app?vid=535ccd2b-fa82-454d-8b3b-7e708959f079","ios":"levelo://app?vid=535ccd2b-fa82-454d-8b3b-7e708959f079"},"vehicle_type_id":"4","last_reported":1731233270,"current_range_meters":8000,"station_id":"ce4bhg12rcd13ifvqf60","pricing_plan_id":"cebpf4jnsgd1na2vs0mg"},{"bike_id":"b1254aef-4342-4bfd-a591-c4ffaec659d7","system_id":"levelo_inurba_marseille","lat":43.27911,"lon":5.38011,"is_reserved":false,"is_disabled":false,"rental_uris":{"android":"levelo://app?vid=b1254aef-4342-4bfd-a591-c4ffaec659d7","ios":"levelo://app?vid=b1254aef-4342-4bfd-a591-c4ffaec659d7"},"vehicle_type_id":"4","last_reported":1731233270,"current_range_meters":37600,"station_id":"ce4bhf92rcd13ifvqf50","pricing_plan_id":"cebpf4jnsgd1na2vs0mg"},{"bike_id":"c67a1795-3146-4b01-8240-7fe64c056eca","system_id":"levelo_inurba_marseille","lat":43.30929,"lon":5.40154,"is_reserved":false,"is_disabled":false,"rental_uris":{"android":"levelo://app?vid=c67a1795-3146-4b01-8240-7fe64c056eca","ios":"levelo://app?vid=c67a1795-3146-4b01-8240-7fe64c056eca"},"vehicle_type_id":"4","last_reported":1731233270,"current_range_meters":39200,"station_id":"ce4bgvp2rcd13ifvqct0","pricing_plan_id":"cebpf4jnsgd1na2vs0mg"},{"bike_id":"d9bc9902-5e97-4c43-9109-305ea65da59c","system_id":"levelo_inurba_marseille","lat":43.26784,"lon":5.3942,"is_reserved":false,"is_disabled":false,"rental_uris":{"android":"levelo://app?vid=d9bc9902-5e97-4c43-9109-305ea65da59c","ios":"levelo://app?vid=d9bc9902-5e97-4c43-9109-305ea65da59c"},"vehicle_type_id":"4","last_reported":1731233270,"current_range_meters":33200,"station_id":"ce4bhh12rcd13ifvqfg0","pricing_plan_id":"cebpf4jnsgd1na2vs0mg"},{"bike_id":"6c8c8bac-87f7-42e2-b3f1-ada01ae29213","system_id":"levelo_inurba_marseille","lat":43.25121,"lon":5.40328,"is_reserved":false,"is_disabled":false,"rental_uris":{"android":"levelo://app?vid=6c8c8bac-87f7-42e2-b3f1-ada01ae29213","ios":"levelo://app?vid=6c8c8bac-87f7-42e2-b3f1-ada01ae29213"},"vehicle_type_id":"4","last_reported":1731233270,"current_range_meters":38400,"station_id":"ce4bhlh2rcd13ifvqgig","pricing_plan_id":"cebpf4jnsgd1na2vs0mg"},{"bike_id":"a0226102-d7a5-4bab-b27f-fcb430a91fb9","system_id":"levelo_inurba_marseille","lat":43.26932,"lon":5.38923,"is_reserved":false,"is_disabled":false,"rental_uris":{"android":"levelo://app?vid=a0226102-d7a5-4bab-b27f-fcb430a91fb9","ios":"levelo://app?vid=a0226102-d7a5-4bab-b27f-fcb430a91fb9"},"vehicle_type_id":"4","last_reported":1731233270,"current_range_meters":36800,"station_id":"ce4bhhh2rcd13ifvqfl0","pricing_plan_id":"cebpf4jnsgd1na2vs0mg"},{"bike_id":"45da62df-7f80-44a3-ba8e-1acd781a5f69","system_id":"levelo_inurba_marseille","lat":43.29554,"lon":5.42285,"is_reserved":false,"is_disabled":false,"rental_uris":{"android":"levelo://app?vid=45da62df-7f80-44a3-ba8e-1acd781a5f69","ios":"levelo://app?vid=45da62df-7f80-44a3-ba8e-1acd781a5f69"},"vehicle_type_id":"4","last_reported":1731233270,"current_range_meters":25600,"station_id":"ce4bhph2rcd13ifvqhdg","pricing_plan_id":"cebpf4jnsgd1na2vs0mg"},{"bike_id":"2972f759-c98e-4fe7-9758-85d215895273","system_id":"levelo_inurba_marseille","lat":43.23967,"lon":5.36611,"is_reserved":false,"is_disabled":false,"rental_uris":{"android":"levelo://app?vid=2972f759-c98e-4fe7-9758-85d215895273","ios":"levelo://app?vid=2972f759-c98e-4fe7-9758-85d215895273"},"vehicle_type_id":"4","last_reported":1731233270,"current_range_meters":36800,"station_id":"ce4bhi12rcd13ifvqfp0","pricing_plan_id":"cebpf4jnsgd1na2vs0mg"},{"bike_id":"010d3bc6-1da9-4e2e-9558-6436a5780c21","system_id":"levelo_inurba_marseille","lat":43.23193,"lon":5.35552,"is_reserved":false,"is_disabled":false,"rental_uris":{"android":"levelo://app?vid=010d3bc6-1da9-4e2e-9558-6436a5780c21","ios":"levelo://app?vid=010d3bc6-1da9-4e2e-9558-6436a5780c21"},"vehicle_type_id":"4","last_reported":1731233270,"current_range_meters":38800,"station_id":"ce4bhu92rcd13ifvqi70","pricing_plan_id":"cebpf4jnsgd1na2vs0mg"},{"bike_id":"475da2da-2e7d-4647-8ade-afee2742a4bd","system_id":"levelo_inurba_marseille","lat":43.29014,"lon":5.35604,"is_reserved":false,"is_disabled":false,"rental_uris":{"android":"levelo://app?vid=475da2da-2e7d-4647-8ade-afee2742a4bd","ios":"levelo://app?vid=475da2da-2e7d-4647-8ade-afee2742a4bd"},"vehicle_type_id":"4","last_reported":1731233270,"current_range_meters":27600,"station_id":"ce4bhb92rcd13ifvqen0","pricing_plan_id":"cebpf4jnsgd1na2vs0mg"},{"bike_id":"662385fc-63f9-4a4f-87db-2e58a1f015e0","system_id":"levelo_inurba_marseille","lat":43.23966,"lon":5.36632,"is_reserved":false,"is_disabled":false,"rental_uris":{"android":"levelo://app?vid=662385fc-63f9-4a4f-87db-2e58a1f015e0","ios":"levelo://app?vid=662385fc-63f9-4a4f-87db-2e58a1f015e0"},"vehicle_type_id":"4","last_reported":1731233270,"current_range_meters":33600,"station_id":"ce4bhi12rcd13ifvqfp0","pricing_plan_id":"cebpf4jnsgd1na2vs0mg"},{"bike_id":"1a366d13-87fa-4c79-be4c-283f2bc932cd","system_id":"levelo_inurba_marseille","lat":43.28274,"lon":5.35072,"is_reserved":false,"is_disabled":false,"rental_uris":{"android":"levelo://app?vid=1a366d13-87fa-4c79-be4c-283f2bc932cd","ios":"levelo://app?vid=1a366d13-87fa-4c79-be4c-283f2bc932cd"},"vehicle_type_id":"4","last_reported":1731233270,"current_range_meters":17200,"station_id":"ce4bhbp2rcd13ifvqerg","pricing_plan_id":"cebpf4jnsgd1na2vs0mg"},{"bike_id":"0a11ffea-6ccf-45d5-8ce9-b6dd253b1ff7","system_id":"levelo_inurba_marseille","lat":43.31887,"lon":5.40729,"is_reserved":false,"is_disabled":false,"rental_uris":{"android":"levelo://app?vid=0a11ffea-6ccf-45d5-8ce9-b6dd253b1ff7","ios":"levelo://app?vid=0a11ffea-6ccf-45d5-8ce9-b6dd253b1ff7"},"vehicle_type_id":"4","last_reported":1731233270,"current_range_meters":39200,"station_id":"ce4bhq12rcd13ifvqhig","pricing_plan_id":"cebpf4jnsgd1na2vs0mg"},{"bike_id":"4ee59947-8c12-46aa-bcb3-9544d7341608","system_id":"levelo_inurba_marseille","lat":43.3016,"lon":5.38082,"is_reserved":false,"is_disabled":false,"rental_uris":{"android":"levelo://app?vid=4ee59947-8c12-46aa-bcb3-9544d7341608","ios":"levelo://app?vid=4ee59947-8c12-46aa-bcb3-9544d7341608"},"vehicle_type_id":"4","last_reported":1731233270,"current_range_meters":33600,"station_id":"ce4bgjp2rcd13ifvqbh0","pricing_plan_id":"cebpf4jnsgd1na2vs0mg"},{"bike_id":"578620e6-0301-498c-8194-ffdde30edf93","system_id":"levelo_inurba_marseille","lat":43.25586,"lon":5.38229,"is_reserved":false,"is_disabled":false,"rental_uris":{"android":"levelo://app?vid=578620e6-0301-498c-8194-ffdde30edf93","ios":"levelo://app?vid=578620e6-0301-498c-8194-ffdde30edf93"},"vehicle_type_id":"4","last_reported":1731233270,"current_range_meters":29600,"station_id":"ce4bhih2rcd13ifvqfs0","pricing_plan_id":"cebpf4jnsgd1na2vs0mg"},{"bike_id":"d41fb0f1-e480-4160-8e49-a6b72f7db271","system_id":"levelo_inurba_marseille","lat":43.27945,"lon":5.41048,"is_reserved":false,"is_disabled":false,"rental_uris":{"android":"levelo://app?vid=d41fb0f1-e480-4160-8e49-a6b72f7db271","ios":"levelo://app?vid=d41fb0f1-e480-4160-8e49-a6b72f7db271"},"vehicle_type_id":"4","last_reported":1731233270,"current_range_meters":25600,"station_id":"ce4bhnp2rcd13ifvqh0g","pricing_plan_id":"cebpf4jnsgd1na2vs0mg"},{"bike_id":"2ad361b6-540e-4873-9e5b-6b5de9b52523","system_id":"levelo_inurba_marseille","lat":43.2396,"lon":5.36622,"is_reserved":false,"is_disabled":false,"rental_uris":{"android":"levelo://app?vid=2ad361b6-540e-4873-9e5b-6b5de9b52523","ios":"levelo://app?vid=2ad361b6-540e-4873-9e5b-6b5de9b52523"},"vehicle_type_id":"4","last_reported":1731233270,"current_range_meters":38800,"station_id":"ce4bhi12rcd13ifvqfp0","pricing_plan_id":"cebpf4jnsgd1na2vs0mg"},{"bike_id":"d6f22bb1-8390-4dde-a4e8-6f1e6d4bf68d","system_id":"levelo_inurba_marseille","lat":43.29202,"lon":5.35801,"is_reserved":false,"is_disabled":false,"rental_uris":{"android":"levelo://app?vid=d6f22bb1-8390-4dde-a4e8-6f1e6d4bf68d","ios":"levelo://app?vid=d6f22bb1-8390-4dde-a4e8-6f1e6d4bf68d"},"vehicle_type_id":"4","last_reported":1731233270,"current_range_meters":39200,"station_id":"ce4bhb12rcd13ifvqel0","pricing_plan_id":"cebpf4jnsgd1na2vs0mg"},{"bike_id":"07d9f39b-b5c0-4e0d-b308-a64481facfda","system_id":"levelo_inurba_marseille","lat":43.29012,"lon":5.35621,"is_reserved":false,"is_disabled":false,"rental_uris":{"android":"levelo://app?vid=07d9f39b-b5c0-4e0d-b308-a64481facfda","ios":"levelo://app?vid=07d9f39b-b5c0-4e0d-b308-a64481facfda"},"vehicle_type_id":"4","last_reported":1731233270,"current_range_meters":9600,"station_id":"ce4bhb92rcd13ifvqen0","pricing_plan_id":"cebpf4jnsgd1na2vs0mg"},{"bike_id":"5a39a845-5fc1-49d1-b60a-3e3dec0b983c","system_id":"levelo_inurba_marseille","lat":43.25084,"lon":5.39525,"is_reserved":false,"is_disabled":false,"rental_uris":{"android":"levelo://app?vid=5a39a845-5fc1-49d1-b60a-3e3dec0b983c","ios":"levelo://app?vid=5a39a845-5fc1-49d1-b60a-3e3dec0b983c"},"vehicle_type_id":"4","last_reported":1731233270,"current_range_meters":38800,"station_id":"ce4bhm12rcd13ifvqgkg","pricing_plan_id":"cebpf4jnsgd1na2vs0mg"},{"bike_id":"c98a5f0c-fd30-4775-968c-54896168ce2e","system_id":"levelo_inurba_marseille","lat":43.32491,"lon":5.36553,"is_reserved":false,"is_disabled":false,"rental_uris":{"android":"levelo://app?vid=c98a5f0c-fd30-4775-968c-54896168ce2e","ios":"levelo://app?vid=c98a5f0c-fd30-4775-968c-54896168ce2e"},"vehicle_type_id":"4","last_reported":1731233270,"current_range_meters":37600,"station_id":"ce4bhs12rcd13ifvqhvg","pricing_plan_id":"cebpf4jnsgd1na2vs0mg"},{"bike_id":"c7f4c733-6efd-428f-8dbd-9db83b9bb1ba","system_id":"levelo_inurba_marseille","lat":43.25722,"lon":5.41109,"is_reserved":false,"is_disabled":false,"rental_uris":{"android":"levelo://app?vid=c7f4c733-6efd-428f-8dbd-9db83b9bb1ba","ios":"levelo://app?vid=c7f4c733-6efd-428f-8dbd-9db83b9bb1ba"},"vehicle_type_id":"4","last_reported":1731233270,"current_range_meters":38800,"station_id":"ce4bhkp2rcd13ifvqgd0","pricing_plan_id":"cebpf4jnsgd1na2vs0mg"},{"bike_id":"b9478b1d-79e3-44c9-ae60-496dd5151f62","system_id":"levelo_inurba_marseille","lat":43.29171,"lon":5.37143,"is_reserved":false,"is_disabled":false,"rental_uris":{"android":"levelo://app?vid=b9478b1d-79e3-44c9-ae60-496dd5151f62","ios":"levelo://app?vid=b9478b1d-79e3-44c9-ae60-496dd5151f62"},"vehicle_type_id":"4","last_reported":1731233270,"current_range_meters":32000,"station_id":"ce4bha92rcd13ifvqeh0","pricing_plan_id":"cebpf4jnsgd1na2vs0mg"},{"bike_id":"a6662f96-7914-4568-9644-1c4ba1cb159a","system_id":"levelo_inurba_marseille","lat":43.28422,"lon":5.34997,"is_reserved":false,"is_disabled":false,"rental_uris":{"android":"levelo://app?vid=a6662f96-7914-4568-9644-1c4ba1cb159a","ios":"levelo://app?vid=a6662f96-7914-4568-9644-1c4ba1cb159a"},"vehicle_type_id":"4","last_reported":1731233270,"current_range_meters":8800,"station_id":"ce4bhbh2rcd13ifvqepg","pricing_plan_id":"cebpf4jnsgd1na2vs0mg"},{"bike_id":"4204c697-9142-4d6f-a64b-20f319f8c9a7","system_id":"levelo_inurba_marseille","lat":43.27073,"lon":5.42276,"is_reserved":false,"is_disabled":false,"rental_uris":{"android":"levelo://app?vid=4204c697-9142-4d6f-a64b-20f319f8c9a7","ios":"levelo://app?vid=4204c697-9142-4d6f-a64b-20f319f8c9a7"},"vehicle_type_id":"4","last_reported":1731233270,"current_range_meters":38800,"station_id":"ce4bhk92rcd13ifvqgb0","pricing_plan_id":"cebpf4jnsgd1na2vs0mg"},{"bike_id":"1d6f5c47-b5dd-4b78-b5d6-b20afab8f92f","system_id":"levelo_inurba_marseille","lat":43.25092,"lon":5.39519,"is_reserved":false,"is_disabled":false,"rental_uris":{"android":"levelo://app?vid=1d6f5c47-b5dd-4b78-b5d6-b20afab8f92f","ios":"levelo://app?vid=1d6f5c47-b5dd-4b78-b5d6-b20afab8f92f"},"vehicle_type_id":"4","last_reported":1731233270,"current_range_meters":37600,"station_id":"ce4bhm12rcd13ifvqgkg","pricing_plan_id":"cebpf4jnsgd1na2vs0mg"},{"bike_id":"a557eb29-0b2c-467e-905f-f6d0965567df","system_id":"levelo_inurba_marseille","lat":43.29008,"lon":5.3561,"is_reserved":false,"is_disabled":false,"rental_uris":{"android":"levelo://app?vid=a557eb29-0b2c-467e-905f-f6d0965567df","ios":"levelo://app?vid=a557eb29-0b2c-467e-905f-f6d0965567df"},"vehicle_type_id":"4","last_reported":1731233270,"current_range_meters":34800,"station_id":"ce4bhb92rcd13ifvqen0","pricing_plan_id":"cebpf4jnsgd1na2vs0mg"},{"bike_id":"07d0f452-b797-41fa-95d0-f2a03ae9821f","system_id":"levelo_inurba_marseille","lat":43.24806,"lon":5.37449,"is_reserved":false,"is_disabled":false,"rental_uris":{"android":"levelo://app?vid=07d0f452-b797-41fa-95d0-f2a03ae9821f","ios":"levelo://app?vid=07d0f452-b797-41fa-95d0-f2a03ae9821f"},"vehicle_type_id":"4","last_reported":1731233270,"current_range_meters":32000,"station_id":"ce4bhgh2rcd13ifvqfb0","pricing_plan_id":"cebpf4jnsgd1na2vs0mg"},{"bike_id":"a9dc25f3-977d-4ef2-bb21-6655270f0420","system_id":"levelo_inurba_marseille","lat":43.29984,"lon":5.37178,"is_reserved":false,"is_disabled":false,"rental_uris":{"android":"levelo://app?vid=a9dc25f3-977d-4ef2-bb21-6655270f0420","ios":"levelo://app?vid=a9dc25f3-977d-4ef2-bb21-6655270f0420"},"vehicle_type_id":"4","last_reported":1731233270,"current_range_meters":38800,"station_id":"ce4bgr92rcd13ifvqc7g","pricing_plan_id":"cebpf4jnsgd1na2vs0mg"},{"bike_id":"1d0c8d0f-cf43-49ad-9deb-0a58ca2f9f08","system_id":"levelo_inurba_marseille","lat":43.29193,"lon":5.3581,"is_reserved":false,"is_disabled":false,"rental_uris":{"android":"levelo://app?vid=1d0c8d0f-cf43-49ad-9deb-0a58ca2f9f08","ios":"levelo://app?vid=1d0c8d0f-cf43-49ad-9deb-0a58ca2f9f08"},"vehicle_type_id":"4","last_reported":1731233270,"current_range_meters":30000,"station_id":"ce4bhb12rcd13ifvqel0","pricing_plan_id":"cebpf4jnsgd1na2vs0mg"},{"bike_id":"52a94537-f113-455a-9e91-42176e080fca","system_id":"levelo_inurba_marseille","lat":43.31891,"lon":5.40735,"is_reserved":false,"is_disabled":false,"rental_uris":{"android":"levelo://app?vid=52a94537-f113-455a-9e91-42176e080fca","ios":"levelo://app?vid=52a94537-f113-455a-9e91-42176e080fca"},"vehicle_type_id":"4","last_reported":1731233270,"current_range_meters":38800,"station_id":"ce4bhq12rcd13ifvqhig","pricing_plan_id":"cebpf4jnsgd1na2vs0mg"},{"bike_id":"5254221e-1c7a-4b1b-af2b-096ca26340a7","system_id":"levelo_inurba_marseille","lat":43.2706,"lon":5.4026,"is_reserved":false,"is_disabled":false,"rental_uris":{"android":"levelo://app?vid=5254221e-1c7a-4b1b-af2b-096ca26340a7","ios":"levelo://app?vid=5254221e-1c7a-4b1b-af2b-096ca26340a7"},"vehicle_type_id":"4","last_reported":1731233270,"current_range_meters":23200,"station_id":"ce4bhk92rcd13ifvqgc0","pricing_plan_id":"cebpf4jnsgd1na2vs0mg"},{"bike_id":"e6dc57cf-44da-4102-9d69-7c7b35161e11","system_id":"levelo_inurba_marseille","lat":43.24173,"lon":5.36383,"is_reserved":false,"is_disabled":false,"rental_uris":{"android":"levelo://app?vid=e6dc57cf-44da-4102-9d69-7c7b35161e11","ios":"levelo://app?vid=e6dc57cf-44da-4102-9d69-7c7b35161e11"},"vehicle_type_id":"4","last_reported":1731233270,"current_range_meters":36400,"station_id":"cpo36qri1sfpv3e86is0","pricing_plan_id":"cebpf4jnsgd1na2vs0mg"},{"bike_id":"eea89b14-e5f3-4242-9fbf-52d861894071","system_id":"levelo_inurba_marseille","lat":43.23191,"lon":5.35554,"is_reserved":false,"is_disabled":false,"rental_uris":{"android":"levelo://app?vid=eea89b14-e5f3-4242-9fbf-52d861894071","ios":"levelo://app?vid=eea89b14-e5f3-4242-9fbf-52d861894071"},"vehicle_type_id":"4","last_reported":1731233270,"current_range_meters":28400,"station_id":"ce4bhu92rcd13ifvqi70","pricing_plan_id":"cebpf4jnsgd1na2vs0mg"},{"bike_id":"72984317-aa00-4214-a20f-c9e2935e475e","system_id":"levelo_inurba_marseille","lat":43.29577,"lon":5.37499,"is_reserved":false,"is_disabled":false,"rental_uris":{"android":"levelo://app?vid=72984317-aa00-4214-a20f-c9e2935e475e","ios":"levelo://app?vid=72984317-aa00-4214-a20f-c9e2935e475e"},"vehicle_type_id":"4","last_reported":1731233270,"current_range_meters":34000,"station_id":"ce4bgh92rcd13ifvqb50","pricing_plan_id":"cebpf4jnsgd1na2vs0mg"},{"bike_id":"23af0ac6-c2fb-40b8-b046-5738b7c94b71","system_id":"levelo_inurba_marseille","lat":43.26779,"lon":5.39418,"is_reserved":false,"is_disabled":false,"rental_uris":{"android":"levelo://app?vid=23af0ac6-c2fb-40b8-b046-5738b7c94b71","ios":"levelo://app?vid=23af0ac6-c2fb-40b8-b046-5738b7c94b71"},"vehicle_type_id":"4","last_reported":1731233270,"current_range_meters":38800,"station_id":"ce4bhh12rcd13ifvqfg0","pricing_plan_id":"cebpf4jnsgd1na2vs0mg"},{"bike_id":"eab98335-8399-4b8f-bbaa-12f7938c9fcb","system_id":"levelo_inurba_marseille","lat":43.29224,"lon":5.36058,"is_reserved":false,"is_disabled":false,"rental_uris":{"android":"levelo://app?vid=eab98335-8399-4b8f-bbaa-12f7938c9fcb","ios":"levelo://app?vid=eab98335-8399-4b8f-bbaa-12f7938c9fcb"},"vehicle_type_id":"4","last_reported":1731233270,"current_range_meters":8000,"station_id":"ce4bhbh2rcd13ifvqeqg","pricing_plan_id":"cebpf4jnsgd1na2vs0mg"},{"bike_id":"e0e23d8f-0d53-4e0a-967c-d20c74022c2e","system_id":"levelo_inurba_marseille","lat":43.28458,"lon":5.35893,"is_reserved":false,"is_disabled":false,"rental_uris":{"android":"levelo://app?vid=e0e23d8f-0d53-4e0a-967c-d20c74022c2e","ios":"levelo://app?vid=e0e23d8f-0d53-4e0a-967c-d20c74022c2e"},"vehicle_type_id":"4","last_reported":1731233270,"current_range_meters":21600,"station_id":"ce4bhah2rcd13ifvqei0","pricing_plan_id":"cebpf4jnsgd1na2vs0mg"},{"bike_id":"5525768f-d2f0-46c8-a9c4-2dfd4b80a96e","system_id":"levelo_inurba_marseille","lat":43.28271,"lon":5.35062,"is_reserved":false,"is_disabled":false,"rental_uris":{"android":"levelo://app?vid=5525768f-d2f0-46c8-a9c4-2dfd4b80a96e","ios":"levelo://app?vid=5525768f-d2f0-46c8-a9c4-2dfd4b80a96e"},"vehicle_type_id":"4","last_reported":1731233270,"current_range_meters":29600,"station_id":"ce4bhbp2rcd13ifvqerg","pricing_plan_id":"cebpf4jnsgd1na2vs0mg"},{"bike_id":"4be840eb-af40-496e-a70e-9949f5a36b5b","system_id":"levelo_inurba_marseille","lat":43.25113,"lon":5.40307,"is_reserved":false,"is_disabled":false,"rental_uris":{"android":"levelo://app?vid=4be840eb-af40-496e-a70e-9949f5a36b5b","ios":"levelo://app?vid=4be840eb-af40-496e-a70e-9949f5a36b5b"},"vehicle_type_id":"4","last_reported":1731233270,"current_range_meters":38800,"station_id":"ce4bhlh2rcd13ifvqgig","pricing_plan_id":"cebpf4jnsgd1na2vs0mg"},{"bike_id":"41041769-f72e-491a-8529-c5df729c4e5c","system_id":"levelo_inurba_marseille","lat":43.26062,"lon":5.39388,"is_reserved":false,"is_disabled":false,"rental_uris":{"android":"levelo://app?vid=41041769-f72e-491a-8529-c5df729c4e5c","ios":"levelo://app?vid=41041769-f72e-491a-8529-c5df729c4e5c"},"vehicle_type_id":"4","last_reported":1731233270,"current_range_meters":32400,"station_id":"ce4bhh92rcd13ifvqfj0","pricing_plan_id":"cebpf4jnsgd1na2vs0mg"},{"bike_id":"d2a974a2-88bc-4638-8d41-7f094635c91a","system_id":"levelo_inurba_marseille","lat":43.27108,"lon":5.38184,"is_reserved":false,"is_disabled":false,"rental_uris":{"android":"levelo://app?vid=d2a974a2-88bc-4638-8d41-7f094635c91a","ios":"levelo://app?vid=d2a974a2-88bc-4638-8d41-7f094635c91a"},"vehicle_type_id":"4","last_reported":1731233270,"current_range_meters":6800,"station_id":"","pricing_plan_id":"cebpf4jnsgd1na2vs0mg"},{"bike_id":"f0730e13-11c4-4020-956a-ca204d2dd6c0","system_id":"levelo_inurba_marseille","lat":43.29558,"lon":5.42281,"is_reserved":false,"is_disabled":false,"rental_uris":{"android":"levelo://app?vid=f0730e13-11c4-4020-956a-ca204d2dd6c0","ios":"levelo://app?vid=f0730e13-11c4-4020-956a-ca204d2dd6c0"},"vehicle_type_id":"4","last_reported":1731233270,"current_range_meters":38800,"station_id":"ce4bhph2rcd13ifvqhdg","pricing_plan_id":"cebpf4jnsgd1na2vs0mg"},{"bike_id":"d8b069df-29e1-4273-99b0-c9104446d9c3","system_id":"levelo_inurba_marseille","lat":43.23191,"lon":5.3555,"is_reserved":false,"is_disabled":false,"rental_uris":{"android":"levelo://app?vid=d8b069df-29e1-4273-99b0-c9104446d9c3","ios":"levelo://app?vid=d8b069df-29e1-4273-99b0-c9104446d9c3"},"vehicle_type_id":"4","last_reported":1731233270,"current_range_meters":5600,"station_id":"ce4bhu92rcd13ifvqi70","pricing_plan_id":"cebpf4jnsgd1na2vs0mg"},{"bike_id":"aed49dd4-304d-4222-a024-c67cec1bcce7","system_id":"levelo_inurba_marseille","lat":43.25727,"lon":5.41109,"is_reserved":false,"is_disabled":false,"rental_uris":{"android":"levelo://app?vid=aed49dd4-304d-4222-a024-c67cec1bcce7","ios":"levelo://app?vid=aed49dd4-304d-4222-a024-c67cec1bcce7"},"vehicle_type_id":"4","last_reported":1731233270,"current_range_meters":37600,"station_id":"ce4bhkp2rcd13ifvqgd0","pricing_plan_id":"cebpf4jnsgd1na2vs0mg"},{"bike_id":"16389661-b034-4aca-af9f-f68cb0fa96a1","system_id":"levelo_inurba_marseille","lat":43.25004,"lon":5.3892,"is_reserved":false,"is_disabled":false,"rental_uris":{"android":"levelo://app?vid=16389661-b034-4aca-af9f-f68cb0fa96a1","ios":"levelo://app?vid=16389661-b034-4aca-af9f-f68cb0fa96a1"},"vehicle_type_id":"4","last_reported":1731233270,"current_range_meters":11200,"station_id":"ce4bhgp2rcd13ifvqfd0","pricing_plan_id":"cebpf4jnsgd1na2vs0mg"},{"bike_id":"fbbe362b-7b29-4c8f-b506-484f07761f02","system_id":"levelo_inurba_marseille","lat":43.29914,"lon":5.37444,"is_reserved":false,"is_disabled":false,"rental_uris":{"android":"levelo://app?vid=fbbe362b-7b29-4c8f-b506-484f07761f02","ios":"levelo://app?vid=fbbe362b-7b29-4c8f-b506-484f07761f02"},"vehicle_type_id":"4","last_reported":1731233270,"current_range_meters":35600,"station_id":"ce4bgjh2rcd13ifvqbg0","pricing_plan_id":"cebpf4jnsgd1na2vs0mg"},{"bike_id":"7a9e2545-af8c-4cfc-9cfa-20719364dc01","system_id":"levelo_inurba_marseille","lat":43.29006,"lon":5.35618,"is_reserved":false,"is_disabled":false,"rental_uris":{"android":"levelo://app?vid=7a9e2545-af8c-4cfc-9cfa-20719364dc01","ios":"levelo://app?vid=7a9e2545-af8c-4cfc-9cfa-20719364dc01"},"vehicle_type_id":"4","last_reported":1731233270,"current_range_meters":33600,"station_id":"ce4bhb92rcd13ifvqen0","pricing_plan_id":"cebpf4jnsgd1na2vs0mg"},{"bike_id":"1098ebee-b925-4b03-a58c-7f1d4027cc18","system_id":"levelo_inurba_marseille","lat":43.26558,"lon":5.37286,"is_reserved":false,"is_disabled":false,"rental_uris":{"android":"levelo://app?vid=1098ebee-b925-4b03-a58c-7f1d4027cc18","ios":"levelo://app?vid=1098ebee-b925-4b03-a58c-7f1d4027cc18"},"vehicle_type_id":"4","last_reported":1731233270,"current_range_meters":22400,"station_id":"ce4bhg12rcd13ifvqf70","pricing_plan_id":"cebpf4jnsgd1na2vs0mg"},{"bike_id":"4b72668e-c38b-4a2f-a70f-fdd3fa1c2b2b","system_id":"levelo_inurba_marseille","lat":43.29169,"lon":5.37155,"is_reserved":false,"is_disabled":false,"rental_uris":{"android":"levelo://app?vid=4b72668e-c38b-4a2f-a70f-fdd3fa1c2b2b","ios":"levelo://app?vid=4b72668e-c38b-4a2f-a70f-fdd3fa1c2b2b"},"vehicle_type_id":"4","last_reported":1731233270,"current_range_meters":37600,"station_id":"ce4bha92rcd13ifvqeh0","pricing_plan_id":"cebpf4jnsgd1na2vs0mg"},{"bike_id":"f9aeacdd-bf01-432f-bf4e-03e65cef4bbd","system_id":"levelo_inurba_marseille","lat":43.29554,"lon":5.42289,"is_reserved":false,"is_disabled":false,"rental_uris":{"android":"levelo://app?vid=f9aeacdd-bf01-432f-bf4e-03e65cef4bbd","ios":"levelo://app?vid=f9aeacdd-bf01-432f-bf4e-03e65cef4bbd"},"vehicle_type_id":"4","last_reported":1731233270,"current_range_meters":38800,"station_id":"ce4bhph2rcd13ifvqhdg","pricing_plan_id":"cebpf4jnsgd1na2vs0mg"},{"bike_id":"a64cdea8-268c-4325-b164-334a21f60df2","system_id":"levelo_inurba_marseille","lat":43.30157,"lon":5.3986,"is_reserved":false,"is_disabled":false,"rental_uris":{"android":"levelo://app?vid=a64cdea8-268c-4325-b164-334a21f60df2","ios":"levelo://app?vid=a64cdea8-268c-4325-b164-334a21f60df2"},"vehicle_type_id":"4","last_reported":1731233270,"current_range_meters":34000,"station_id":"ce4bh0h2rcd13ifvqd40","pricing_plan_id":"cebpf4jnsgd1na2vs0mg"},{"bike_id":"ece6c1ac-b0f6-41b1-a4ea-cdc77068020d","system_id":"levelo_inurba_marseille","lat":43.29013,"lon":5.35613,"is_reserved":false,"is_disabled":false,"rental_uris":{"android":"levelo://app?vid=ece6c1ac-b0f6-41b1-a4ea-cdc77068020d","ios":"levelo://app?vid=ece6c1ac-b0f6-41b1-a4ea-cdc77068020d"},"vehicle_type_id":"4","last_reported":1731233270,"current_range_meters":26000,"station_id":"ce4bhb92rcd13ifvqen0","pricing_plan_id":"cebpf4jnsgd1na2vs0mg"},{"bike_id":"06d8e4f6-caa4-4546-b0e5-df8fee5588ba","system_id":"levelo_inurba_marseille","lat":43.31985,"lon":5.38173,"is_reserved":false,"is_disabled":false,"rental_uris":{"android":"levelo://app?vid=06d8e4f6-caa4-4546-b0e5-df8fee5588ba","ios":"levelo://app?vid=06d8e4f6-caa4-4546-b0e5-df8fee5588ba"},"vehicle_type_id":"4","last_reported":1731233270,"current_range_meters":36400,"station_id":"ce4bhr12rcd13ifvqhpg","pricing_plan_id":"cebpf4jnsgd1na2vs0mg"},{"bike_id":"37dc112e-715e-49c6-92ca-f0ac0a65f63a","system_id":"levelo_inurba_marseille","lat":43.29006,"lon":5.35618,"is_reserved":false,"is_disabled":false,"rental_uris":{"android":"levelo://app?vid=37dc112e-715e-49c6-92ca-f0ac0a65f63a","ios":"levelo://app?vid=37dc112e-715e-49c6-92ca-f0ac0a65f63a"},"vehicle_type_id":"4","last_reported":1731233270,"current_range_meters":28000,"station_id":"ce4bhb92rcd13ifvqen0","pricing_plan_id":"cebpf4jnsgd1na2vs0mg"},{"bike_id":"3cd036b1-82b2-4728-9c4f-a57fb25f0cb6","system_id":"levelo_inurba_marseille","lat":43.24081,"lon":5.37758,"is_reserved":false,"is_disabled":false,"rental_uris":{"android":"levelo://app?vid=3cd036b1-82b2-4728-9c4f-a57fb25f0cb6","ios":"levelo://app?vid=3cd036b1-82b2-4728-9c4f-a57fb25f0cb6"},"vehicle_type_id":"4","last_reported":1731233270,"current_range_meters":7200,"station_id":"ce4bhnp2rcd13ifvqgvg","pricing_plan_id":"cebpf4jnsgd1na2vs0mg"},{"bike_id":"ce1ab76e-b496-4368-9d10-90ee0028b3a5","system_id":"levelo_inurba_marseille","lat":43.33609,"lon":5.4103,"is_reserved":false,"is_disabled":false,"rental_uris":{"android":"levelo://app?vid=ce1ab76e-b496-4368-9d10-90ee0028b3a5","ios":"levelo://app?vid=ce1ab76e-b496-4368-9d10-90ee0028b3a5"},"vehicle_type_id":"4","last_reported":1731233270,"current_range_meters":38800,"station_id":"ce4bhqh2rcd13ifvqhmg","pricing_plan_id":"cebpf4jnsgd1na2vs0mg"},{"bike_id":"a0d36496-3d12-42f1-a935-e0d87c6d1157","system_id":"levelo_inurba_marseille","lat":43.2681,"lon":5.40269,"is_reserved":false,"is_disabled":false,"rental_uris":{"android":"levelo://app?vid=a0d36496-3d12-42f1-a935-e0d87c6d1157","ios":"levelo://app?vid=a0d36496-3d12-42f1-a935-e0d87c6d1157"},"vehicle_type_id":"4","last_reported":1731233270,"current_range_meters":24400,"station_id":"ce501612rcd8frsf0b60","pricing_plan_id":"cebpf4jnsgd1na2vs0mg"},{"bike_id":"c948b120-0b81-4c64-a307-45b2aed7acfb","system_id":"levelo_inurba_marseille","lat":43.29195,"lon":5.358,"is_reserved":false,"is_disabled":false,"rental_uris":{"android":"levelo://app?vid=c948b120-0b81-4c64-a307-45b2aed7acfb","ios":"levelo://app?vid=c948b120-0b81-4c64-a307-45b2aed7acfb"},"vehicle_type_id":"4","last_reported":1731233270,"current_range_meters":32000,"station_id":"ce4bhb12rcd13ifvqel0","pricing_plan_id":"cebpf4jnsgd1na2vs0mg"},{"bike_id":"2c085216-e118-4d2f-b289-0c7e4a4fe1d0","system_id":"levelo_inurba_marseille","lat":43.31271,"lon":5.40168,"is_reserved":false,"is_disabled":false,"rental_uris":{"android":"levelo://app?vid=2c085216-e118-4d2f-b289-0c7e4a4fe1d0","ios":"levelo://app?vid=2c085216-e118-4d2f-b289-0c7e4a4fe1d0"},"vehicle_type_id":"4","last_reported":1731233270,"current_range_meters":38000,"station_id":"ce4bh092rcd13ifvqd30","pricing_plan_id":"cebpf4jnsgd1na2vs0mg"},{"bike_id":"8958f94c-3590-4295-8ab7-151539c529da","system_id":"levelo_inurba_marseille","lat":43.28263,"lon":5.35056,"is_reserved":false,"is_disabled":false,"rental_uris":{"android":"levelo://app?vid=8958f94c-3590-4295-8ab7-151539c529da","ios":"levelo://app?vid=8958f94c-3590-4295-8ab7-151539c529da"},"vehicle_type_id":"4","last_reported":1731233270,"current_range_meters":35200,"station_id":"ce4bhbp2rcd13ifvqerg","pricing_plan_id":"cebpf4jnsgd1na2vs0mg"},{"bike_id":"58ddda71-db93-4d65-bfe5-0e25811a1ce7","system_id":"levelo_inurba_marseille","lat":43.29214,"lon":5.36079,"is_reserved":false,"is_disabled":false,"rental_uris":{"android":"levelo://app?vid=58ddda71-db93-4d65-bfe5-0e25811a1ce7","ios":"levelo://app?vid=58ddda71-db93-4d65-bfe5-0e25811a1ce7"},"vehicle_type_id":"4","last_reported":1731233270,"current_range_meters":23200,"station_id":"ce4bhbh2rcd13ifvqeqg","pricing_plan_id":"cebpf4jnsgd1na2vs0mg"},{"bike_id":"046683b0-3026-49cc-ba6a-fff965a0393e","system_id":"levelo_inurba_marseille","lat":43.24075,"lon":5.37754,"is_reserved":false,"is_disabled":false,"rental_uris":{"android":"levelo://app?vid=046683b0-3026-49cc-ba6a-fff965a0393e","ios":"levelo://app?vid=046683b0-3026-49cc-ba6a-fff965a0393e"},"vehicle_type_id":"4","last_reported":1731233270,"current_range_meters":37600,"station_id":"ce4bhnp2rcd13ifvqgvg","pricing_plan_id":"cebpf4jnsgd1na2vs0mg"},{"bike_id":"da6cd7c7-5524-466f-bc18-d935b19bc5bf","system_id":"levelo_inurba_marseille","lat":43.29191,"lon":5.358098,"is_reserved":false,"is_disabled":false,"rental_uris":{"android":"levelo://app?vid=da6cd7c7-5524-466f-bc18-d935b19bc5bf","ios":"levelo://app?vid=da6cd7c7-5524-466f-bc18-d935b19bc5bf"},"vehicle_type_id":"4","last_reported":1731233270,"current_range_meters":17600,"station_id":"ce4bhb12rcd13ifvqel0","pricing_plan_id":"cebpf4jnsgd1na2vs0mg"},{"bike_id":"3ca2d565-cda6-4741-b499-6ada79d7c999","system_id":"levelo_inurba_marseille","lat":43.28346,"lon":5.38102,"is_reserved":false,"is_disabled":false,"rental_uris":{"android":"levelo://app?vid=3ca2d565-cda6-4741-b499-6ada79d7c999","ios":"levelo://app?vid=3ca2d565-cda6-4741-b499-6ada79d7c999"},"vehicle_type_id":"4","last_reported":1731233270,"current_range_meters":20000,"station_id":"ce4bh412rcd13ifvqdr0","pricing_plan_id":"cebpf4jnsgd1na2vs0mg"},{"bike_id":"0a64ed50-8cfc-463a-acb6-61f6f9203091","system_id":"levelo_inurba_marseille","lat":43.29897,"lon":5.43666,"is_reserved":false,"is_disabled":false,"rental_uris":{"android":"levelo://app?vid=0a64ed50-8cfc-463a-acb6-61f6f9203091","ios":"levelo://app?vid=0a64ed50-8cfc-463a-acb6-61f6f9203091"},"vehicle_type_id":"4","last_reported":1731233270,"current_range_meters":38800,"station_id":"ce4bhpp2rcd13ifvqhfg","pricing_plan_id":"cebpf4jnsgd1na2vs0mg"},{"bike_id":"96aef8c1-f007-442e-b872-036e6f6c58ad","system_id":"levelo_inurba_marseille","lat":43.31757,"lon":5.3902,"is_reserved":false,"is_disabled":false,"rental_uris":{"android":"levelo://app?vid=96aef8c1-f007-442e-b872-036e6f6c58ad","ios":"levelo://app?vid=96aef8c1-f007-442e-b872-036e6f6c58ad"},"vehicle_type_id":"4","last_reported":1731233270,"current_range_meters":38800,"station_id":"ce4bhqp2rcd13ifvqhng","pricing_plan_id":"cebpf4jnsgd1na2vs0mg"},{"bike_id":"134ce1ce-579d-4d82-bde6-b146c0c11c11","system_id":"levelo_inurba_marseille","lat":43.29895,"lon":5.43677,"is_reserved":false,"is_disabled":false,"rental_uris":{"android":"levelo://app?vid=134ce1ce-579d-4d82-bde6-b146c0c11c11","ios":"levelo://app?vid=134ce1ce-579d-4d82-bde6-b146c0c11c11"},"vehicle_type_id":"4","last_reported":1731233270,"current_range_meters":36800,"station_id":"ce4bhpp2rcd13ifvqhfg","pricing_plan_id":"cebpf4jnsgd1na2vs0mg"},{"bike_id":"74a41359-ed80-4cd3-85be-bd7b0ea67a0d","system_id":"levelo_inurba_marseille","lat":43.31533,"lon":5.38022,"is_reserved":false,"is_disabled":false,"rental_uris":{"android":"levelo://app?vid=74a41359-ed80-4cd3-85be-bd7b0ea67a0d","ios":"levelo://app?vid=74a41359-ed80-4cd3-85be-bd7b0ea67a0d"},"vehicle_type_id":"4","last_reported":1731233270,"current_range_meters":18000,"station_id":"ce4bhsp2rcd13ifvqi50","pricing_plan_id":"cebpf4jnsgd1na2vs0mg"},{"bike_id":"9f13d0de-7d3f-4321-b645-af4a5cf8fd08","system_id":"levelo_inurba_marseille","lat":43.27678,"lon":5.38893,"is_reserved":false,"is_disabled":false,"rental_uris":{"android":"levelo://app?vid=9f13d0de-7d3f-4321-b645-af4a5cf8fd08","ios":"levelo://app?vid=9f13d0de-7d3f-4321-b645-af4a5cf8fd08"},"vehicle_type_id":"4","last_reported":1731233270,"current_range_meters":24400,"station_id":"ce4bhi12rcd13ifvqfo0","pricing_plan_id":"cebpf4jnsgd1na2vs0mg"},{"bike_id":"c4ac443b-46a6-4fb6-8565-1eeff025a131","system_id":"levelo_inurba_marseille","lat":43.31328,"lon":5.39696,"is_reserved":false,"is_disabled":false,"rental_uris":{"android":"levelo://app?vid=c4ac443b-46a6-4fb6-8565-1eeff025a131","ios":"levelo://app?vid=c4ac443b-46a6-4fb6-8565-1eeff025a131"},"vehicle_type_id":"4","last_reported":1731233270,"current_range_meters":25200,"station_id":"ce4bgvp2rcd13ifvqcu0","pricing_plan_id":"cebpf4jnsgd1na2vs0mg"},{"bike_id":"181fa628-fd06-4339-88f4-5d411c857699","system_id":"levelo_inurba_marseille","lat":43.27066,"lon":5.42277,"is_reserved":false,"is_disabled":false,"rental_uris":{"android":"levelo://app?vid=181fa628-fd06-4339-88f4-5d411c857699","ios":"levelo://app?vid=181fa628-fd06-4339-88f4-5d411c857699"},"vehicle_type_id":"4","last_reported":1731233270,"current_range_meters":9200,"station_id":"ce4bhk92rcd13ifvqgb0","pricing_plan_id":"cebpf4jnsgd1na2vs0mg"},{"bike_id":"f3093c9b-61c8-4f41-9eb2-232ad2823ce9","system_id":"levelo_inurba_marseille","lat":43.27315,"lon":5.39094,"is_reserved":false,"is_disabled":false,"rental_uris":{"android":"levelo://app?vid=f3093c9b-61c8-4f41-9eb2-232ad2823ce9","ios":"levelo://app?vid=f3093c9b-61c8-4f41-9eb2-232ad2823ce9"},"vehicle_type_id":"4","last_reported":1731233270,"current_range_meters":38800,"station_id":"ce4bhgp2rcd13ifvqfe0","pricing_plan_id":"cebpf4jnsgd1na2vs0mg"},{"bike_id":"7ad1fcfb-dbad-4f2f-94e3-26a08d9ba442","system_id":"levelo_inurba_marseille","lat":43.27998,"lon":5.4165,"is_reserved":false,"is_disabled":false,"rental_uris":{"android":"levelo://app?vid=7ad1fcfb-dbad-4f2f-94e3-26a08d9ba442","ios":"levelo://app?vid=7ad1fcfb-dbad-4f2f-94e3-26a08d9ba442"},"vehicle_type_id":"4","last_reported":1731233270,"current_range_meters":38800,"station_id":"ce4bho12rcd13ifvqh1g","pricing_plan_id":"cebpf4jnsgd1na2vs0mg"},{"bike_id":"64f1e304-55fc-4bb7-bb27-4faaf7cf65c1","system_id":"levelo_inurba_marseille","lat":43.27536,"lon":5.40912,"is_reserved":false,"is_disabled":false,"rental_uris":{"android":"levelo://app?vid=64f1e304-55fc-4bb7-bb27-4faaf7cf65c1","ios":"levelo://app?vid=64f1e304-55fc-4bb7-bb27-4faaf7cf65c1"},"vehicle_type_id":"4","last_reported":1731233270,"current_range_meters":7200,"station_id":"","pricing_plan_id":"cebpf4jnsgd1na2vs0mg"},{"bike_id":"9a5eb101-92a2-4eeb-93bd-8d070d90c1ea","system_id":"levelo_inurba_marseille","lat":43.30433,"lon":5.42528,"is_reserved":false,"is_disabled":false,"rental_uris":{"android":"levelo://app?vid=9a5eb101-92a2-4eeb-93bd-8d070d90c1ea","ios":"levelo://app?vid=9a5eb101-92a2-4eeb-93bd-8d070d90c1ea"},"vehicle_type_id":"4","last_reported":1731233270,"current_range_meters":12400,"station_id":"","pricing_plan_id":"cebpf4jnsgd1na2vs0mg"},{"bike_id":"aea1d714-0a51-488c-8416-b2b0e9e35128","system_id":"levelo_inurba_marseille","lat":43.28458,"lon":5.35877,"is_reserved":false,"is_disabled":false,"rental_uris":{"android":"levelo://app?vid=aea1d714-0a51-488c-8416-b2b0e9e35128","ios":"levelo://app?vid=aea1d714-0a51-488c-8416-b2b0e9e35128"},"vehicle_type_id":"4","last_reported":1731233270,"current_range_meters":10000,"station_id":"ce4bhah2rcd13ifvqei0","pricing_plan_id":"cebpf4jnsgd1na2vs0mg"},{"bike_id":"27e15419-d9b0-4647-890e-e21a7149b1cd","system_id":"levelo_inurba_marseille","lat":43.27067,"lon":5.42275,"is_reserved":false,"is_disabled":false,"rental_uris":{"android":"levelo://app?vid=27e15419-d9b0-4647-890e-e21a7149b1cd","ios":"levelo://app?vid=27e15419-d9b0-4647-890e-e21a7149b1cd"},"vehicle_type_id":"4","last_reported":1731233270,"current_range_meters":7200,"station_id":"ce4bhk92rcd13ifvqgb0","pricing_plan_id":"cebpf4jnsgd1na2vs0mg"},{"bike_id":"55f47cbb-4cd2-4214-9965-9e0698b16e2e","system_id":"levelo_inurba_marseille","lat":43.32392,"lon":5.37004,"is_reserved":false,"is_disabled":false,"rental_uris":{"android":"levelo://app?vid=55f47cbb-4cd2-4214-9965-9e0698b16e2e","ios":"levelo://app?vid=55f47cbb-4cd2-4214-9965-9e0698b16e2e"},"vehicle_type_id":"4","last_reported":1731233270,"current_range_meters":36800,"station_id":"","pricing_plan_id":"cebpf4jnsgd1na2vs0mg"},{"bike_id":"ae59c122-6f6a-4058-b9e4-cf3f9a369f15","system_id":"levelo_inurba_marseille","lat":43.33021,"lon":5.39032,"is_reserved":false,"is_disabled":false,"rental_uris":{"android":"levelo://app?vid=ae59c122-6f6a-4058-b9e4-cf3f9a369f15","ios":"levelo://app?vid=ae59c122-6f6a-4058-b9e4-cf3f9a369f15"},"vehicle_type_id":"4","last_reported":1731233270,"current_range_meters":22800,"station_id":"ce4bhr92rcd13ifvqhrg","pricing_plan_id":"cebpf4jnsgd1na2vs0mg"},{"bike_id":"708574a0-429c-49c9-98a7-01938c1b7e58","system_id":"levelo_inurba_marseille","lat":43.29274,"lon":5.36843,"is_reserved":false,"is_disabled":false,"rental_uris":{"android":"levelo://app?vid=708574a0-429c-49c9-98a7-01938c1b7e58","ios":"levelo://app?vid=708574a0-429c-49c9-98a7-01938c1b7e58"},"vehicle_type_id":"4","last_reported":1731233270,"current_range_meters":29600,"station_id":"ce4bhbp2rcd13ifvqesg","pricing_plan_id":"cebpf4jnsgd1na2vs0mg"},{"bike_id":"0d93b31b-854a-4c31-b287-70df5cbe7d07","system_id":"levelo_inurba_marseille","lat":43.24083,"lon":5.37741,"is_reserved":false,"is_disabled":false,"rental_uris":{"android":"levelo://app?vid=0d93b31b-854a-4c31-b287-70df5cbe7d07","ios":"levelo://app?vid=0d93b31b-854a-4c31-b287-70df5cbe7d07"},"vehicle_type_id":"4","last_reported":1731233270,"current_range_meters":11200,"station_id":"ce4bhnp2rcd13ifvqgvg","pricing_plan_id":"cebpf4jnsgd1na2vs0mg"},{"bike_id":"8d2b72fb-c6f8-44de-b9b8-8b5223930e89","system_id":"levelo_inurba_marseille","lat":43.24606,"lon":5.38969,"is_reserved":false,"is_disabled":false,"rental_uris":{"android":"levelo://app?vid=8d2b72fb-c6f8-44de-b9b8-8b5223930e89","ios":"levelo://app?vid=8d2b72fb-c6f8-44de-b9b8-8b5223930e89"},"vehicle_type_id":"4","last_reported":1731233270,"current_range_meters":25200,"station_id":"","pricing_plan_id":"cebpf4jnsgd1na2vs0mg"},{"bike_id":"25fe25a4-403f-4e6f-b9e1-cc790ad299ec","system_id":"levelo_inurba_marseille","lat":43.24395,"lon":5.3706,"is_reserved":false,"is_disabled":false,"rental_uris":{"android":"levelo://app?vid=25fe25a4-403f-4e6f-b9e1-cc790ad299ec","ios":"levelo://app?vid=25fe25a4-403f-4e6f-b9e1-cc790ad299ec"},"vehicle_type_id":"4","last_reported":1731233270,"current_range_meters":22000,"station_id":"ce4bhhh2rcd13ifvqfk0","pricing_plan_id":"cebpf4jnsgd1na2vs0mg"},{"bike_id":"bb64d7de-a20e-4d0d-89be-52b80543f6d6","system_id":"levelo_inurba_marseille","lat":43.29609,"lon":5.37729,"is_reserved":false,"is_disabled":false,"rental_uris":{"android":"levelo://app?vid=bb64d7de-a20e-4d0d-89be-52b80543f6d6","ios":"levelo://app?vid=bb64d7de-a20e-4d0d-89be-52b80543f6d6"},"vehicle_type_id":"4","last_reported":1731233270,"current_range_meters":30800,"station_id":"ce4bgi92rcd13ifvqb90","pricing_plan_id":"cebpf4jnsgd1na2vs0mg"},{"bike_id":"052af66b-6b76-4080-8d1f-29a80dde15c1","system_id":"levelo_inurba_marseille","lat":43.28001,"lon":5.36872,"is_reserved":false,"is_disabled":false,"rental_uris":{"android":"levelo://app?vid=052af66b-6b76-4080-8d1f-29a80dde15c1","ios":"levelo://app?vid=052af66b-6b76-4080-8d1f-29a80dde15c1"},"vehicle_type_id":"4","last_reported":1731233270,"current_range_meters":32000,"station_id":"ce4bha12rcd13ifvqef0","pricing_plan_id":"cebpf4jnsgd1na2vs0mg"},{"bike_id":"c6ae65bf-8d5e-4ea9-a3a9-adc79d0ebafe","system_id":"levelo_inurba_marseille","lat":43.24392,"lon":5.37057,"is_reserved":false,"is_disabled":false,"rental_uris":{"android":"levelo://app?vid=c6ae65bf-8d5e-4ea9-a3a9-adc79d0ebafe","ios":"levelo://app?vid=c6ae65bf-8d5e-4ea9-a3a9-adc79d0ebafe"},"vehicle_type_id":"4","last_reported":1731233270,"current_range_meters":24000,"station_id":"ce4bhhh2rcd13ifvqfk0","pricing_plan_id":"cebpf4jnsgd1na2vs0mg"},{"bike_id":"d37c9ca4-b2d7-4147-a9b7-b9dd5a96bc6f","system_id":"levelo_inurba_marseille","lat":43.29002,"lon":5.35614,"is_reserved":false,"is_disabled":false,"rental_uris":{"android":"levelo://app?vid=d37c9ca4-b2d7-4147-a9b7-b9dd5a96bc6f","ios":"levelo://app?vid=d37c9ca4-b2d7-4147-a9b7-b9dd5a96bc6f"},"vehicle_type_id":"4","last_reported":1731233270,"current_range_meters":24000,"station_id":"ce4bhb92rcd13ifvqen0","pricing_plan_id":"cebpf4jnsgd1na2vs0mg"},{"bike_id":"86769cfa-ee19-48ff-9dfc-45f805961b7b","system_id":"levelo_inurba_marseille","lat":43.29006,"lon":5.3561,"is_reserved":false,"is_disabled":false,"rental_uris":{"android":"levelo://app?vid=86769cfa-ee19-48ff-9dfc-45f805961b7b","ios":"levelo://app?vid=86769cfa-ee19-48ff-9dfc-45f805961b7b"},"vehicle_type_id":"4","last_reported":1731233270,"current_range_meters":18000,"station_id":"ce4bhb92rcd13ifvqen0","pricing_plan_id":"cebpf4jnsgd1na2vs0mg"},{"bike_id":"1b641421-2e55-46f2-aa52-a5bd61345632","system_id":"levelo_inurba_marseille","lat":43.24168,"lon":5.36392,"is_reserved":false,"is_disabled":false,"rental_uris":{"android":"levelo://app?vid=1b641421-2e55-46f2-aa52-a5bd61345632","ios":"levelo://app?vid=1b641421-2e55-46f2-aa52-a5bd61345632"},"vehicle_type_id":"4","last_reported":1731233270,"current_range_meters":11600,"station_id":"cpo36qri1sfpv3e86is0","pricing_plan_id":"cebpf4jnsgd1na2vs0mg"},{"bike_id":"dfd458a0-0c16-4333-85a1-d08229b7ad2e","system_id":"levelo_inurba_marseille","lat":43.27325,"lon":5.39099,"is_reserved":false,"is_disabled":false,"rental_uris":{"android":"levelo://app?vid=dfd458a0-0c16-4333-85a1-d08229b7ad2e","ios":"levelo://app?vid=dfd458a0-0c16-4333-85a1-d08229b7ad2e"},"vehicle_type_id":"4","last_reported":1731233270,"current_range_meters":19200,"station_id":"ce4bhgp2rcd13ifvqfe0","pricing_plan_id":"cebpf4jnsgd1na2vs0mg"},{"bike_id":"bd107d40-34a8-40f9-8610-97fdcd404745","system_id":"levelo_inurba_marseille","lat":43.25499,"lon":5.37647,"is_reserved":false,"is_disabled":false,"rental_uris":{"android":"levelo://app?vid=bd107d40-34a8-40f9-8610-97fdcd404745","ios":"levelo://app?vid=bd107d40-34a8-40f9-8610-97fdcd404745"},"vehicle_type_id":"4","last_reported":1731233270,"current_range_meters":28000,"station_id":"ce4bhh12rcd13ifvqff0","pricing_plan_id":"cebpf4jnsgd1na2vs0mg"},{"bike_id":"6e04e997-545b-4682-a96f-41749d999c20","system_id":"levelo_inurba_marseille","lat":43.31335,"lon":5.3968,"is_reserved":false,"is_disabled":false,"rental_uris":{"android":"levelo://app?vid=6e04e997-545b-4682-a96f-41749d999c20","ios":"levelo://app?vid=6e04e997-545b-4682-a96f-41749d999c20"},"vehicle_type_id":"4","last_reported":1731233270,"current_range_meters":20000,"station_id":"ce4bgvp2rcd13ifvqcu0","pricing_plan_id":"cebpf4jnsgd1na2vs0mg"},{"bike_id":"8ab21f45-a2fc-420e-85fc-7d62c749390e","system_id":"levelo_inurba_marseille","lat":43.29005,"lon":5.35617,"is_reserved":false,"is_disabled":false,"rental_uris":{"android":"levelo://app?vid=8ab21f45-a2fc-420e-85fc-7d62c749390e","ios":"levelo://app?vid=8ab21f45-a2fc-420e-85fc-7d62c749390e"},"vehicle_type_id":"4","last_reported":1731233270,"current_range_meters":25200,"station_id":"ce4bhb92rcd13ifvqen0","pricing_plan_id":"cebpf4jnsgd1na2vs0mg"},{"bike_id":"0d0ef880-2434-4d1b-be5b-12320ed92e83","system_id":"levelo_inurba_marseille","lat":43.25728,"lon":5.41105,"is_reserved":false,"is_disabled":false,"rental_uris":{"android":"levelo://app?vid=0d0ef880-2434-4d1b-be5b-12320ed92e83","ios":"levelo://app?vid=0d0ef880-2434-4d1b-be5b-12320ed92e83"},"vehicle_type_id":"4","last_reported":1731233270,"current_range_meters":25600,"station_id":"ce4bhkp2rcd13ifvqgd0","pricing_plan_id":"cebpf4jnsgd1na2vs0mg"},{"bike_id":"07704a86-dbed-425a-854d-11b1a4e3d84c","system_id":"levelo_inurba_marseille","lat":43.33753,"lon":5.37446,"is_reserved":false,"is_disabled":false,"rental_uris":{"android":"levelo://app?vid=07704a86-dbed-425a-854d-11b1a4e3d84c","ios":"levelo://app?vid=07704a86-dbed-425a-854d-11b1a4e3d84c"},"vehicle_type_id":"4","last_reported":1731233270,"current_range_meters":31200,"station_id":"","pricing_plan_id":"cebpf4jnsgd1na2vs0mg"},{"bike_id":"d3d8635d-aeeb-4280-bd50-06f4213c4823","system_id":"levelo_inurba_marseille","lat":43.29629,"lon":5.37718,"is_reserved":false,"is_disabled":false,"rental_uris":{"android":"levelo://app?vid=d3d8635d-aeeb-4280-bd50-06f4213c4823","ios":"levelo://app?vid=d3d8635d-aeeb-4280-bd50-06f4213c4823"},"vehicle_type_id":"4","last_reported":1731233270,"current_range_meters":38800,"station_id":"ce4bgi92rcd13ifvqb90","pricing_plan_id":"cebpf4jnsgd1na2vs0mg"},{"bike_id":"e711ef1e-57ba-40e4-a61e-4e29ff38b950","system_id":"levelo_inurba_marseille","lat":43.29223,"lon":5.36062,"is_reserved":false,"is_disabled":false,"rental_uris":{"android":"levelo://app?vid=e711ef1e-57ba-40e4-a61e-4e29ff38b950","ios":"levelo://app?vid=e711ef1e-57ba-40e4-a61e-4e29ff38b950"},"vehicle_type_id":"4","last_reported":1731233270,"current_range_meters":28400,"station_id":"ce4bhbh2rcd13ifvqeqg","pricing_plan_id":"cebpf4jnsgd1na2vs0mg"},{"bike_id":"6e1d7cdf-0efd-4fed-8055-7321fb9fe602","system_id":"levelo_inurba_marseille","lat":43.276048,"lon":5.3949,"is_reserved":false,"is_disabled":false,"rental_uris":{"android":"levelo://app?vid=6e1d7cdf-0efd-4fed-8055-7321fb9fe602","ios":"levelo://app?vid=6e1d7cdf-0efd-4fed-8055-7321fb9fe602"},"vehicle_type_id":"4","last_reported":1731233270,"current_range_meters":38400,"station_id":"","pricing_plan_id":"cebpf4jnsgd1na2vs0mg"},{"bike_id":"0b74ce83-e6b1-4485-8ca6-3897f29a426e","system_id":"levelo_inurba_marseille","lat":43.23969,"lon":5.36612,"is_reserved":false,"is_disabled":false,"rental_uris":{"android":"levelo://app?vid=0b74ce83-e6b1-4485-8ca6-3897f29a426e","ios":"levelo://app?vid=0b74ce83-e6b1-4485-8ca6-3897f29a426e"},"vehicle_type_id":"4","last_reported":1731233270,"current_range_meters":9600,"station_id":"ce4bhi12rcd13ifvqfp0","pricing_plan_id":"cebpf4jnsgd1na2vs0mg"},{"bike_id":"bef879e7-f166-401b-a0c0-2829dd929c29","system_id":"levelo_inurba_marseille","lat":43.28268,"lon":5.35059,"is_reserved":false,"is_disabled":false,"rental_uris":{"android":"levelo://app?vid=bef879e7-f166-401b-a0c0-2829dd929c29","ios":"levelo://app?vid=bef879e7-f166-401b-a0c0-2829dd929c29"},"vehicle_type_id":"4","last_reported":1731233270,"current_range_meters":32800,"station_id":"ce4bhbp2rcd13ifvqerg","pricing_plan_id":"cebpf4jnsgd1na2vs0mg"},{"bike_id":"6c667f5f-b7e9-4c69-8c31-28fbbcdde478","system_id":"levelo_inurba_marseille","lat":43.23193,"lon":5.35558,"is_reserved":false,"is_disabled":false,"rental_uris":{"android":"levelo://app?vid=6c667f5f-b7e9-4c69-8c31-28fbbcdde478","ios":"levelo://app?vid=6c667f5f-b7e9-4c69-8c31-28fbbcdde478"},"vehicle_type_id":"4","last_reported":1731233270,"current_range_meters":15200,"station_id":"ce4bhu92rcd13ifvqi70","pricing_plan_id":"cebpf4jnsgd1na2vs0mg"},{"bike_id":"0836ae36-e470-4977-8d48-f209271b8e92","system_id":"levelo_inurba_marseille","lat":43.274952,"lon":5.424483,"is_reserved":false,"is_disabled":false,"rental_uris":{"android":"levelo://app?vid=0836ae36-e470-4977-8d48-f209271b8e92","ios":"levelo://app?vid=0836ae36-e470-4977-8d48-f209271b8e92"},"vehicle_type_id":"4","last_reported":1731233270,"current_range_meters":38800,"station_id":"ce4bhn92rcd13ifvqgrg","pricing_plan_id":"cebpf4jnsgd1na2vs0mg"},{"bike_id":"90fe466d-60f7-4cb7-b2d6-c1f73bc7cd7a","system_id":"levelo_inurba_marseille","lat":43.32047,"lon":5.41541,"is_reserved":false,"is_disabled":false,"rental_uris":{"android":"levelo://app?vid=90fe466d-60f7-4cb7-b2d6-c1f73bc7cd7a","ios":"levelo://app?vid=90fe466d-60f7-4cb7-b2d6-c1f73bc7cd7a"},"vehicle_type_id":"4","last_reported":1731233270,"current_range_meters":38400,"station_id":"ce4bhq92rcd13ifvqhkg","pricing_plan_id":"cebpf4jnsgd1na2vs0mg"},{"bike_id":"392feb9d-53ce-49f5-9508-e16a2777e4e3","system_id":"levelo_inurba_marseille","lat":43.25582,"lon":5.38233,"is_reserved":false,"is_disabled":false,"rental_uris":{"android":"levelo://app?vid=392feb9d-53ce-49f5-9508-e16a2777e4e3","ios":"levelo://app?vid=392feb9d-53ce-49f5-9508-e16a2777e4e3"},"vehicle_type_id":"4","last_reported":1731233270,"current_range_meters":30000,"station_id":"ce4bhih2rcd13ifvqfs0","pricing_plan_id":"cebpf4jnsgd1na2vs0mg"},{"bike_id":"eecb002f-ad23-4ea0-b2e0-33b3a1f5891d","system_id":"levelo_inurba_marseille","lat":43.29225,"lon":5.36056,"is_reserved":false,"is_disabled":false,"rental_uris":{"android":"levelo://app?vid=eecb002f-ad23-4ea0-b2e0-33b3a1f5891d","ios":"levelo://app?vid=eecb002f-ad23-4ea0-b2e0-33b3a1f5891d"},"vehicle_type_id":"4","last_reported":1731233270,"current_range_meters":25200,"station_id":"ce4bhbh2rcd13ifvqeqg","pricing_plan_id":"cebpf4jnsgd1na2vs0mg"},{"bike_id":"2c42f401-8588-45b2-801d-41b9137e6000","system_id":"levelo_inurba_marseille","lat":43.31692,"lon":5.40474,"is_reserved":false,"is_disabled":false,"rental_uris":{"android":"levelo://app?vid=2c42f401-8588-45b2-801d-41b9137e6000","ios":"levelo://app?vid=2c42f401-8588-45b2-801d-41b9137e6000"},"vehicle_type_id":"4","last_reported":1731233270,"current_range_meters":26000,"station_id":"ce4bh012rcd13ifvqd00","pricing_plan_id":"cebpf4jnsgd1na2vs0mg"},{"bike_id":"baac3be3-010c-4ab7-b814-2af962c842f8","system_id":"levelo_inurba_marseille","lat":43.28361,"lon":5.37523,"is_reserved":false,"is_disabled":false,"rental_uris":{"android":"levelo://app?vid=baac3be3-010c-4ab7-b814-2af962c842f8","ios":"levelo://app?vid=baac3be3-010c-4ab7-b814-2af962c842f8"},"vehicle_type_id":"4","last_reported":1731233270,"current_range_meters":27200,"station_id":"ce4bh412rcd13ifvqds0","pricing_plan_id":"cebpf4jnsgd1na2vs0mg"},{"bike_id":"4b5cfbf3-a0f4-4bbd-a978-9b66310f8c27","system_id":"levelo_inurba_marseille","lat":43.301454,"lon":5.387788,"is_reserved":false,"is_disabled":false,"rental_uris":{"android":"levelo://app?vid=4b5cfbf3-a0f4-4bbd-a978-9b66310f8c27","ios":"levelo://app?vid=4b5cfbf3-a0f4-4bbd-a978-9b66310f8c27"},"vehicle_type_id":"4","last_reported":1731233270,"current_range_meters":16800,"station_id":"ce4bghh2rcd13ifvqb60","pricing_plan_id":"cebpf4jnsgd1na2vs0mg"},{"bike_id":"ce2879f6-b67d-4289-ac71-73576ea9f6c4","system_id":"levelo_inurba_marseille","lat":43.33019,"lon":5.39033,"is_reserved":false,"is_disabled":false,"rental_uris":{"android":"levelo://app?vid=ce2879f6-b67d-4289-ac71-73576ea9f6c4","ios":"levelo://app?vid=ce2879f6-b67d-4289-ac71-73576ea9f6c4"},"vehicle_type_id":"4","last_reported":1731233270,"current_range_meters":38800,"station_id":"ce4bhr92rcd13ifvqhrg","pricing_plan_id":"cebpf4jnsgd1na2vs0mg"},{"bike_id":"d17d14b6-bd39-4f6f-860c-b6baae4afc33","system_id":"levelo_inurba_marseille","lat":43.2606,"lon":5.39396,"is_reserved":false,"is_disabled":false,"rental_uris":{"android":"levelo://app?vid=d17d14b6-bd39-4f6f-860c-b6baae4afc33","ios":"levelo://app?vid=d17d14b6-bd39-4f6f-860c-b6baae4afc33"},"vehicle_type_id":"4","last_reported":1731233270,"current_range_meters":15200,"station_id":"ce4bhh92rcd13ifvqfj0","pricing_plan_id":"cebpf4jnsgd1na2vs0mg"},{"bike_id":"22bcc9b8-60bc-43c5-95c8-0548abac3db3","system_id":"levelo_inurba_marseille","lat":43.289991,"lon":5.356383,"is_reserved":false,"is_disabled":false,"rental_uris":{"android":"levelo://app?vid=22bcc9b8-60bc-43c5-95c8-0548abac3db3","ios":"levelo://app?vid=22bcc9b8-60bc-43c5-95c8-0548abac3db3"},"vehicle_type_id":"4","last_reported":1731233270,"current_range_meters":28400,"station_id":"ce4bhb92rcd13ifvqen0","pricing_plan_id":"cebpf4jnsgd1na2vs0mg"},{"bike_id":"cbc6bc3d-3b34-4604-84fa-fc78981403fa","system_id":"levelo_inurba_marseille","lat":43.2619,"lon":5.37449,"is_reserved":false,"is_disabled":false,"rental_uris":{"android":"levelo://app?vid=cbc6bc3d-3b34-4604-84fa-fc78981403fa","ios":"levelo://app?vid=cbc6bc3d-3b34-4604-84fa-fc78981403fa"},"vehicle_type_id":"4","last_reported":1731233270,"current_range_meters":6400,"station_id":"ce4bhgp2rcd13ifvqfc0","pricing_plan_id":"cebpf4jnsgd1na2vs0mg"},{"bike_id":"c9a9f231-91a9-48dc-a04a-aae55573b82c","system_id":"levelo_inurba_marseille","lat":43.2799,"lon":5.41669,"is_reserved":false,"is_disabled":false,"rental_uris":{"android":"levelo://app?vid=c9a9f231-91a9-48dc-a04a-aae55573b82c","ios":"levelo://app?vid=c9a9f231-91a9-48dc-a04a-aae55573b82c"},"vehicle_type_id":"4","last_reported":1731233270,"current_range_meters":22800,"station_id":"ce4bho12rcd13ifvqh1g","pricing_plan_id":"cebpf4jnsgd1na2vs0mg"},{"bike_id":"b86a45c8-47e1-4ddc-9364-d630a4a7df45","system_id":"levelo_inurba_marseille","lat":43.31333,"lon":5.39692,"is_reserved":false,"is_disabled":false,"rental_uris":{"android":"levelo://app?vid=b86a45c8-47e1-4ddc-9364-d630a4a7df45","ios":"levelo://app?vid=b86a45c8-47e1-4ddc-9364-d630a4a7df45"},"vehicle_type_id":"4","last_reported":1731233270,"current_range_meters":38800,"station_id":"ce4bgvp2rcd13ifvqcu0","pricing_plan_id":"cebpf4jnsgd1na2vs0mg"},{"bike_id":"398ec039-e038-4de4-ba10-93b74a997367","system_id":"levelo_inurba_marseille","lat":43.24389,"lon":5.37062,"is_reserved":false,"is_disabled":false,"rental_uris":{"android":"levelo://app?vid=398ec039-e038-4de4-ba10-93b74a997367","ios":"levelo://app?vid=398ec039-e038-4de4-ba10-93b74a997367"},"vehicle_type_id":"4","last_reported":1731233270,"current_range_meters":25600,"station_id":"ce4bhhh2rcd13ifvqfk0","pricing_plan_id":"cebpf4jnsgd1na2vs0mg"},{"bike_id":"fd70d13a-52e0-4a3e-ad19-1a314edc618d","system_id":"levelo_inurba_marseille","lat":43.2923,"lon":5.36063,"is_reserved":false,"is_disabled":false,"rental_uris":{"android":"levelo://app?vid=fd70d13a-52e0-4a3e-ad19-1a314edc618d","ios":"levelo://app?vid=fd70d13a-52e0-4a3e-ad19-1a314edc618d"},"vehicle_type_id":"4","last_reported":1731233270,"current_range_meters":23200,"station_id":"ce4bhbh2rcd13ifvqeqg","pricing_plan_id":"cebpf4jnsgd1na2vs0mg"},{"bike_id":"b4eb30bc-dd09-4cbf-8ece-3b8ada662aaf","system_id":"levelo_inurba_marseille","lat":43.25008,"lon":5.3891,"is_reserved":false,"is_disabled":false,"rental_uris":{"android":"levelo://app?vid=b4eb30bc-dd09-4cbf-8ece-3b8ada662aaf","ios":"levelo://app?vid=b4eb30bc-dd09-4cbf-8ece-3b8ada662aaf"},"vehicle_type_id":"4","last_reported":1731233270,"current_range_meters":14400,"station_id":"ce4bhgp2rcd13ifvqfd0","pricing_plan_id":"cebpf4jnsgd1na2vs0mg"},{"bike_id":"c931e854-f671-4eae-be17-c754dc3c9917","system_id":"levelo_inurba_marseille","lat":43.29559,"lon":5.42288,"is_reserved":false,"is_disabled":false,"rental_uris":{"android":"levelo://app?vid=c931e854-f671-4eae-be17-c754dc3c9917","ios":"levelo://app?vid=c931e854-f671-4eae-be17-c754dc3c9917"},"vehicle_type_id":"4","last_reported":1731233270,"current_range_meters":8800,"station_id":"ce4bhph2rcd13ifvqhdg","pricing_plan_id":"cebpf4jnsgd1na2vs0mg"},{"bike_id":"69db6ba5-86a2-4ad7-a81a-ee2efd821b6e","system_id":"levelo_inurba_marseille","lat":43.30544,"lon":5.36552,"is_reserved":false,"is_disabled":false,"rental_uris":{"android":"levelo://app?vid=69db6ba5-86a2-4ad7-a81a-ee2efd821b6e","ios":"levelo://app?vid=69db6ba5-86a2-4ad7-a81a-ee2efd821b6e"},"vehicle_type_id":"4","last_reported":1731233270,"current_range_meters":28000,"station_id":"ce4bgs12rcd13ifvqcag","pricing_plan_id":"cebpf4jnsgd1na2vs0mg"},{"bike_id":"110cf750-d933-48ee-868c-94a0d2c3f544","system_id":"levelo_inurba_marseille","lat":43.22935,"lon":5.35369,"is_reserved":false,"is_disabled":false,"rental_uris":{"android":"levelo://app?vid=110cf750-d933-48ee-868c-94a0d2c3f544","ios":"levelo://app?vid=110cf750-d933-48ee-868c-94a0d2c3f544"},"vehicle_type_id":"4","last_reported":1731233270,"current_range_meters":30000,"station_id":"cpo3532slgdg3j2ikp40","pricing_plan_id":"cebpf4jnsgd1na2vs0mg"},{"bike_id":"26a3e5fe-a4fc-4030-a34d-1c3abe24f5bb","system_id":"levelo_inurba_marseille","lat":43.25092,"lon":5.39516,"is_reserved":false,"is_disabled":false,"rental_uris":{"android":"levelo://app?vid=26a3e5fe-a4fc-4030-a34d-1c3abe24f5bb","ios":"levelo://app?vid=26a3e5fe-a4fc-4030-a34d-1c3abe24f5bb"},"vehicle_type_id":"4","last_reported":1731233270,"current_range_meters":36800,"station_id":"ce4bhm12rcd13ifvqgkg","pricing_plan_id":"cebpf4jnsgd1na2vs0mg"},{"bike_id":"856f2994-98ee-4ffc-8b5d-2fa1ff4ff46d","system_id":"levelo_inurba_marseille","lat":43.31129,"lon":5.3774,"is_reserved":false,"is_disabled":false,"rental_uris":{"android":"levelo://app?vid=856f2994-98ee-4ffc-8b5d-2fa1ff4ff46d","ios":"levelo://app?vid=856f2994-98ee-4ffc-8b5d-2fa1ff4ff46d"},"vehicle_type_id":"4","last_reported":1731233270,"current_range_meters":12800,"station_id":"ce4bgt92rcd13ifvqcg0","pricing_plan_id":"cebpf4jnsgd1na2vs0mg"},{"bike_id":"cf43c170-786d-415d-a9f8-96b6650f2427","system_id":"levelo_inurba_marseille","lat":43.27947,"lon":5.41046,"is_reserved":false,"is_disabled":false,"rental_uris":{"android":"levelo://app?vid=cf43c170-786d-415d-a9f8-96b6650f2427","ios":"levelo://app?vid=cf43c170-786d-415d-a9f8-96b6650f2427"},"vehicle_type_id":"4","last_reported":1731233270,"current_range_meters":29600,"station_id":"ce4bhnp2rcd13ifvqh0g","pricing_plan_id":"cebpf4jnsgd1na2vs0mg"},{"bike_id":"eb4e30c4-cbdf-4a2f-8938-aa5c150e3d6e","system_id":"levelo_inurba_marseille","lat":43.2804,"lon":5.36941,"is_reserved":false,"is_disabled":false,"rental_uris":{"android":"levelo://app?vid=eb4e30c4-cbdf-4a2f-8938-aa5c150e3d6e","ios":"levelo://app?vid=eb4e30c4-cbdf-4a2f-8938-aa5c150e3d6e"},"vehicle_type_id":"4","last_reported":1731233270,"current_range_meters":12800,"station_id":"ce4bha12rcd13ifvqef0","pricing_plan_id":"cebpf4jnsgd1na2vs0mg"},{"bike_id":"961f3708-c589-4143-8e95-6f61ad74d927","system_id":"levelo_inurba_marseille","lat":43.320576,"lon":5.41543,"is_reserved":false,"is_disabled":false,"rental_uris":{"android":"levelo://app?vid=961f3708-c589-4143-8e95-6f61ad74d927","ios":"levelo://app?vid=961f3708-c589-4143-8e95-6f61ad74d927"},"vehicle_type_id":"4","last_reported":1731233270,"current_range_meters":38000,"station_id":"ce4bhq92rcd13ifvqhkg","pricing_plan_id":"cebpf4jnsgd1na2vs0mg"},{"bike_id":"799051fd-d983-438d-b1a6-f94aa3428752","system_id":"levelo_inurba_marseille","lat":43.29555,"lon":5.42285,"is_reserved":false,"is_disabled":false,"rental_uris":{"android":"levelo://app?vid=799051fd-d983-438d-b1a6-f94aa3428752","ios":"levelo://app?vid=799051fd-d983-438d-b1a6-f94aa3428752"},"vehicle_type_id":"4","last_reported":1731233270,"current_range_meters":37600,"station_id":"ce4bhph2rcd13ifvqhdg","pricing_plan_id":"cebpf4jnsgd1na2vs0mg"},{"bike_id":"440784ab-e1d7-46aa-abff-a0b4f39d88f1","system_id":"levelo_inurba_marseille","lat":43.308969,"lon":5.378348,"is_reserved":false,"is_disabled":false,"rental_uris":{"android":"levelo://app?vid=440784ab-e1d7-46aa-abff-a0b4f39d88f1","ios":"levelo://app?vid=440784ab-e1d7-46aa-abff-a0b4f39d88f1"},"vehicle_type_id":"4","last_reported":1731233270,"current_range_meters":38000,"station_id":"ce4bhsp2rcd13ifvqi50","pricing_plan_id":"cebpf4jnsgd1na2vs0mg"},{"bike_id":"286b50ec-a796-4144-8f3e-14689a1a7bcb","system_id":"levelo_inurba_marseille","lat":43.29601,"lon":5.3809,"is_reserved":false,"is_disabled":false,"rental_uris":{"android":"levelo://app?vid=286b50ec-a796-4144-8f3e-14689a1a7bcb","ios":"levelo://app?vid=286b50ec-a796-4144-8f3e-14689a1a7bcb"},"vehicle_type_id":"4","last_reported":1731233270,"current_range_meters":27200,"station_id":"ce4bgl12rcd13ifvqbo0","pricing_plan_id":"cebpf4jnsgd1na2vs0mg"},{"bike_id":"c79f87d6-f000-4885-abd0-cbe5586f4455","system_id":"levelo_inurba_marseille","lat":43.30547,"lon":5.36553,"is_reserved":false,"is_disabled":false,"rental_uris":{"android":"levelo://app?vid=c79f87d6-f000-4885-abd0-cbe5586f4455","ios":"levelo://app?vid=c79f87d6-f000-4885-abd0-cbe5586f4455"},"vehicle_type_id":"4","last_reported":1731233270,"current_range_meters":36000,"station_id":"ce4bgs12rcd13ifvqcag","pricing_plan_id":"cebpf4jnsgd1na2vs0mg"},{"bike_id":"cf585a70-aec5-4c67-a7ed-c0d5885305ed","system_id":"levelo_inurba_marseille","lat":43.30158,"lon":5.38083,"is_reserved":false,"is_disabled":false,"rental_uris":{"android":"levelo://app?vid=cf585a70-aec5-4c67-a7ed-c0d5885305ed","ios":"levelo://app?vid=cf585a70-aec5-4c67-a7ed-c0d5885305ed"},"vehicle_type_id":"4","last_reported":1731233270,"current_range_meters":37600,"station_id":"ce4bgjp2rcd13ifvqbh0","pricing_plan_id":"cebpf4jnsgd1na2vs0mg"},{"bike_id":"77b516a9-2852-4ab4-b836-a7584a18bbd6","system_id":"levelo_inurba_marseille","lat":43.309509,"lon":5.390304,"is_reserved":false,"is_disabled":false,"rental_uris":{"android":"levelo://app?vid=77b516a9-2852-4ab4-b836-a7584a18bbd6","ios":"levelo://app?vid=77b516a9-2852-4ab4-b836-a7584a18bbd6"},"vehicle_type_id":"4","last_reported":1731233270,"current_range_meters":32800,"station_id":"ce4bgup2rcd13ifvqco0","pricing_plan_id":"cebpf4jnsgd1na2vs0mg"},{"bike_id":"fae97a82-e8a9-4c40-9103-904855df28f8","system_id":"levelo_inurba_marseille","lat":43.30354,"lon":5.41876,"is_reserved":false,"is_disabled":false,"rental_uris":{"android":"levelo://app?vid=fae97a82-e8a9-4c40-9103-904855df28f8","ios":"levelo://app?vid=fae97a82-e8a9-4c40-9103-904855df28f8"},"vehicle_type_id":"4","last_reported":1731233270,"current_range_meters":21600,"station_id":"ce4bhop2rcd13ifvqh7g","pricing_plan_id":"cebpf4jnsgd1na2vs0mg"},{"bike_id":"ff8971b2-381a-426d-aac3-6a1479f7e38a","system_id":"levelo_inurba_marseille","lat":43.24174,"lon":5.36393,"is_reserved":false,"is_disabled":false,"rental_uris":{"android":"levelo://app?vid=ff8971b2-381a-426d-aac3-6a1479f7e38a","ios":"levelo://app?vid=ff8971b2-381a-426d-aac3-6a1479f7e38a"},"vehicle_type_id":"4","last_reported":1731233270,"current_range_meters":14800,"station_id":"cpo36qri1sfpv3e86is0","pricing_plan_id":"cebpf4jnsgd1na2vs0mg"},{"bike_id":"c43bfbe6-2bf2-47fb-80a7-057f382a90aa","system_id":"levelo_inurba_marseille","lat":43.231903,"lon":5.355544,"is_reserved":false,"is_disabled":false,"rental_uris":{"android":"levelo://app?vid=c43bfbe6-2bf2-47fb-80a7-057f382a90aa","ios":"levelo://app?vid=c43bfbe6-2bf2-47fb-80a7-057f382a90aa"},"vehicle_type_id":"4","last_reported":1731233270,"current_range_meters":26000,"station_id":"ce4bhu92rcd13ifvqi70","pricing_plan_id":"cebpf4jnsgd1na2vs0mg"},{"bike_id":"8a4063c8-6590-40ee-b1f5-d527bc57c9fa","system_id":"levelo_inurba_marseille","lat":43.2827,"lon":5.35054,"is_reserved":false,"is_disabled":false,"rental_uris":{"android":"levelo://app?vid=8a4063c8-6590-40ee-b1f5-d527bc57c9fa","ios":"levelo://app?vid=8a4063c8-6590-40ee-b1f5-d527bc57c9fa"},"vehicle_type_id":"4","last_reported":1731233270,"current_range_meters":10000,"station_id":"ce4bhbp2rcd13ifvqerg","pricing_plan_id":"cebpf4jnsgd1na2vs0mg"},{"bike_id":"c017dadd-79e7-4b34-a196-75afd0bb381b","system_id":"levelo_inurba_marseille","lat":43.28852,"lon":5.35837,"is_reserved":false,"is_disabled":false,"rental_uris":{"android":"levelo://app?vid=c017dadd-79e7-4b34-a196-75afd0bb381b","ios":"levelo://app?vid=c017dadd-79e7-4b34-a196-75afd0bb381b"},"vehicle_type_id":"4","last_reported":1731233270,"current_range_meters":34000,"station_id":"ce4bhb12rcd13ifvqem0","pricing_plan_id":"cebpf4jnsgd1na2vs0mg"},{"bike_id":"e61e0940-c088-4879-95f6-2eeeebf20835","system_id":"levelo_inurba_marseille","lat":43.31718,"lon":5.37718,"is_reserved":false,"is_disabled":false,"rental_uris":{"android":"levelo://app?vid=e61e0940-c088-4879-95f6-2eeeebf20835","ios":"levelo://app?vid=e61e0940-c088-4879-95f6-2eeeebf20835"},"vehicle_type_id":"4","last_reported":1731233270,"current_range_meters":15200,"station_id":"ce4bgth2rcd13ifvqch0","pricing_plan_id":"cebpf4jnsgd1na2vs0mg"},{"bike_id":"58fb599b-92c5-4ead-b7fe-7c487054b18e","system_id":"levelo_inurba_marseille","lat":43.29637,"lon":5.40601,"is_reserved":false,"is_disabled":false,"rental_uris":{"android":"levelo://app?vid=58fb599b-92c5-4ead-b7fe-7c487054b18e","ios":"levelo://app?vid=58fb599b-92c5-4ead-b7fe-7c487054b18e"},"vehicle_type_id":"4","last_reported":1731233270,"current_range_meters":6800,"station_id":"ce4bh0h2rcd13ifvqd60","pricing_plan_id":"cebpf4jnsgd1na2vs0mg"},{"bike_id":"73f45b8b-6c16-4e88-9a89-9f595ecbe7b1","system_id":"levelo_inurba_marseille","lat":43.24075,"lon":5.37759,"is_reserved":false,"is_disabled":false,"rental_uris":{"android":"levelo://app?vid=73f45b8b-6c16-4e88-9a89-9f595ecbe7b1","ios":"levelo://app?vid=73f45b8b-6c16-4e88-9a89-9f595ecbe7b1"},"vehicle_type_id":"4","last_reported":1731233270,"current_range_meters":38400,"station_id":"ce4bhnp2rcd13ifvqgvg","pricing_plan_id":"cebpf4jnsgd1na2vs0mg"},{"bike_id":"ed640ff8-ddc7-484e-a80e-3b81d3c19f19","system_id":"levelo_inurba_marseille","lat":43.28604,"lon":5.37068,"is_reserved":false,"is_disabled":false,"rental_uris":{"android":"levelo://app?vid=ed640ff8-ddc7-484e-a80e-3b81d3c19f19","ios":"levelo://app?vid=ed640ff8-ddc7-484e-a80e-3b81d3c19f19"},"vehicle_type_id":"4","last_reported":1731233270,"current_range_meters":38000,"station_id":"ce4bht12rcd13ifvqi60","pricing_plan_id":"cebpf4jnsgd1na2vs0mg"},{"bike_id":"54d625da-e6e6-4ede-8666-53458f12f8c7","system_id":"levelo_inurba_marseille","lat":43.33023,"lon":5.39033,"is_reserved":false,"is_disabled":false,"rental_uris":{"android":"levelo://app?vid=54d625da-e6e6-4ede-8666-53458f12f8c7","ios":"levelo://app?vid=54d625da-e6e6-4ede-8666-53458f12f8c7"},"vehicle_type_id":"4","last_reported":1731233270,"current_range_meters":30800,"station_id":"ce4bhr92rcd13ifvqhrg","pricing_plan_id":"cebpf4jnsgd1na2vs0mg"},{"bike_id":"edef5d6f-e327-4e17-9056-4a44da3da1ba","system_id":"levelo_inurba_marseille","lat":43.23188,"lon":5.39978,"is_reserved":false,"is_disabled":false,"rental_uris":{"android":"levelo://app?vid=edef5d6f-e327-4e17-9056-4a44da3da1ba","ios":"levelo://app?vid=edef5d6f-e327-4e17-9056-4a44da3da1ba"},"vehicle_type_id":"4","last_reported":1731233270,"current_range_meters":37600,"station_id":"ce4bhn12rcd13ifvqgqg","pricing_plan_id":"cebpf4jnsgd1na2vs0mg"},{"bike_id":"a8f0571f-e321-496d-8ff0-7d7c70ffa316","system_id":"levelo_inurba_marseille","lat":43.32477,"lon":5.36552,"is_reserved":false,"is_disabled":false,"rental_uris":{"android":"levelo://app?vid=a8f0571f-e321-496d-8ff0-7d7c70ffa316","ios":"levelo://app?vid=a8f0571f-e321-496d-8ff0-7d7c70ffa316"},"vehicle_type_id":"4","last_reported":1731233270,"current_range_meters":9600,"station_id":"ce4bhs12rcd13ifvqhvg","pricing_plan_id":"cebpf4jnsgd1na2vs0mg"},{"bike_id":"cad9ae98-11f5-44f0-986f-976c34d04fee","system_id":"levelo_inurba_marseille","lat":43.29273,"lon":5.40112,"is_reserved":false,"is_disabled":false,"rental_uris":{"android":"levelo://app?vid=cad9ae98-11f5-44f0-986f-976c34d04fee","ios":"levelo://app?vid=cad9ae98-11f5-44f0-986f-976c34d04fee"},"vehicle_type_id":"4","last_reported":1731233270,"current_range_meters":27200,"station_id":"ce4bh312rcd13ifvqdk0","pricing_plan_id":"cebpf4jnsgd1na2vs0mg"},{"bike_id":"1760b0ff-1489-4859-b23d-7b0105b7dfe5","system_id":"levelo_inurba_marseille","lat":43.304352,"lon":5.378439,"is_reserved":false,"is_disabled":false,"rental_uris":{"android":"levelo://app?vid=1760b0ff-1489-4859-b23d-7b0105b7dfe5","ios":"levelo://app?vid=1760b0ff-1489-4859-b23d-7b0105b7dfe5"},"vehicle_type_id":"4","last_reported":1731233270,"current_range_meters":16800,"station_id":"ce4bgup2rcd13ifvqcn0","pricing_plan_id":"cebpf4jnsgd1na2vs0mg"},{"bike_id":"7e7be88e-2387-4ac1-8672-4e3f2accb589","system_id":"levelo_inurba_marseille","lat":43.23195,"lon":5.35562,"is_reserved":false,"is_disabled":false,"rental_uris":{"android":"levelo://app?vid=7e7be88e-2387-4ac1-8672-4e3f2accb589","ios":"levelo://app?vid=7e7be88e-2387-4ac1-8672-4e3f2accb589"},"vehicle_type_id":"4","last_reported":1731233270,"current_range_meters":10000,"station_id":"ce4bhu92rcd13ifvqi70","pricing_plan_id":"cebpf4jnsgd1na2vs0mg"},{"bike_id":"e2f539b2-1c9a-4c53-8dc2-a41bd1a14b91","system_id":"levelo_inurba_marseille","lat":43.28272,"lon":5.35068,"is_reserved":false,"is_disabled":false,"rental_uris":{"android":"levelo://app?vid=e2f539b2-1c9a-4c53-8dc2-a41bd1a14b91","ios":"levelo://app?vid=e2f539b2-1c9a-4c53-8dc2-a41bd1a14b91"},"vehicle_type_id":"4","last_reported":1731233270,"current_range_meters":30400,"station_id":"ce4bhbp2rcd13ifvqerg","pricing_plan_id":"cebpf4jnsgd1na2vs0mg"},{"bike_id":"44a464aa-e137-4bf0-b677-b88023c9f602","system_id":"levelo_inurba_marseille","lat":43.29224,"lon":5.36067,"is_reserved":false,"is_disabled":false,"rental_uris":{"android":"levelo://app?vid=44a464aa-e137-4bf0-b677-b88023c9f602","ios":"levelo://app?vid=44a464aa-e137-4bf0-b677-b88023c9f602"},"vehicle_type_id":"4","last_reported":1731233270,"current_range_meters":33200,"station_id":"ce4bhbh2rcd13ifvqeqg","pricing_plan_id":"cebpf4jnsgd1na2vs0mg"},{"bike_id":"8f176852-51d8-4ea9-943f-c539a472ae88","system_id":"levelo_inurba_marseille","lat":43.28276,"lon":5.35058,"is_reserved":false,"is_disabled":false,"rental_uris":{"android":"levelo://app?vid=8f176852-51d8-4ea9-943f-c539a472ae88","ios":"levelo://app?vid=8f176852-51d8-4ea9-943f-c539a472ae88"},"vehicle_type_id":"4","last_reported":1731233270,"current_range_meters":22800,"station_id":"ce4bhbp2rcd13ifvqerg","pricing_plan_id":"cebpf4jnsgd1na2vs0mg"},{"bike_id":"fc9be112-b914-4223-ba06-ab1c04321846","system_id":"levelo_inurba_marseille","lat":43.30639,"lon":5.40086,"is_reserved":false,"is_disabled":false,"rental_uris":{"android":"levelo://app?vid=fc9be112-b914-4223-ba06-ab1c04321846","ios":"levelo://app?vid=fc9be112-b914-4223-ba06-ab1c04321846"},"vehicle_type_id":"4","last_reported":1731233270,"current_range_meters":26000,"station_id":"ce4bh112rcd13ifvqda0","pricing_plan_id":"cebpf4jnsgd1na2vs0mg"},{"bike_id":"8e1c97e9-4bb6-4dff-b2fe-2c49b00459ce","system_id":"levelo_inurba_marseille","lat":43.292253,"lon":5.360708,"is_reserved":false,"is_disabled":false,"rental_uris":{"android":"levelo://app?vid=8e1c97e9-4bb6-4dff-b2fe-2c49b00459ce","ios":"levelo://app?vid=8e1c97e9-4bb6-4dff-b2fe-2c49b00459ce"},"vehicle_type_id":"4","last_reported":1731233270,"current_range_meters":16400,"station_id":"ce4bhbh2rcd13ifvqeqg","pricing_plan_id":"cebpf4jnsgd1na2vs0mg"},{"bike_id":"c2bf881a-f020-4e0e-819d-ec6a7c5dac04","system_id":"levelo_inurba_marseille","lat":43.31694,"lon":5.37745,"is_reserved":false,"is_disabled":false,"rental_uris":{"android":"levelo://app?vid=c2bf881a-f020-4e0e-819d-ec6a7c5dac04","ios":"levelo://app?vid=c2bf881a-f020-4e0e-819d-ec6a7c5dac04"},"vehicle_type_id":"4","last_reported":1731233270,"current_range_meters":19200,"station_id":"ce4bgth2rcd13ifvqch0","pricing_plan_id":"cebpf4jnsgd1na2vs0mg"},{"bike_id":"6fa19e17-bdec-4054-9042-0b23d398250d","system_id":"levelo_inurba_marseille","lat":43.29225,"lon":5.36033,"is_reserved":false,"is_disabled":false,"rental_uris":{"android":"levelo://app?vid=6fa19e17-bdec-4054-9042-0b23d398250d","ios":"levelo://app?vid=6fa19e17-bdec-4054-9042-0b23d398250d"},"vehicle_type_id":"4","last_reported":1731233270,"current_range_meters":32400,"station_id":"ce4bhbh2rcd13ifvqeqg","pricing_plan_id":"cebpf4jnsgd1na2vs0mg"},{"bike_id":"5cc21f71-ae98-48bc-87d8-468c4da23c85","system_id":"levelo_inurba_marseille","lat":43.31703,"lon":5.37743,"is_reserved":false,"is_disabled":false,"rental_uris":{"android":"levelo://app?vid=5cc21f71-ae98-48bc-87d8-468c4da23c85","ios":"levelo://app?vid=5cc21f71-ae98-48bc-87d8-468c4da23c85"},"vehicle_type_id":"4","last_reported":1731233270,"current_range_meters":20800,"station_id":"ce4bgth2rcd13ifvqch0","pricing_plan_id":"cebpf4jnsgd1na2vs0mg"},{"bike_id":"c04dbd0f-31c9-49b8-804f-65d2999c7d5e","system_id":"levelo_inurba_marseille","lat":43.29051,"lon":5.35915,"is_reserved":false,"is_disabled":false,"rental_uris":{"android":"levelo://app?vid=c04dbd0f-31c9-49b8-804f-65d2999c7d5e","ios":"levelo://app?vid=c04dbd0f-31c9-49b8-804f-65d2999c7d5e"},"vehicle_type_id":"4","last_reported":1731233270,"current_range_meters":10800,"station_id":"ce4bha92rcd13ifvqeg0","pricing_plan_id":"cebpf4jnsgd1na2vs0mg"},{"bike_id":"6a382b3e-46a5-47d8-8f2a-79f38274ae1c","system_id":"levelo_inurba_marseille","lat":43.23979,"lon":5.36618,"is_reserved":false,"is_disabled":false,"rental_uris":{"android":"levelo://app?vid=6a382b3e-46a5-47d8-8f2a-79f38274ae1c","ios":"levelo://app?vid=6a382b3e-46a5-47d8-8f2a-79f38274ae1c"},"vehicle_type_id":"4","last_reported":1731233270,"current_range_meters":33600,"station_id":"ce4bhi12rcd13ifvqfp0","pricing_plan_id":"cebpf4jnsgd1na2vs0mg"},{"bike_id":"c5ffd536-999f-4ee7-ae83-b10f03cd32b7","system_id":"levelo_inurba_marseille","lat":43.29555,"lon":5.42288,"is_reserved":false,"is_disabled":false,"rental_uris":{"android":"levelo://app?vid=c5ffd536-999f-4ee7-ae83-b10f03cd32b7","ios":"levelo://app?vid=c5ffd536-999f-4ee7-ae83-b10f03cd32b7"},"vehicle_type_id":"4","last_reported":1731233270,"current_range_meters":8400,"station_id":"ce4bhph2rcd13ifvqhdg","pricing_plan_id":"cebpf4jnsgd1na2vs0mg"},{"bike_id":"f801971e-c208-458e-9625-42ffbb664958","system_id":"levelo_inurba_marseille","lat":43.290283,"lon":5.375901,"is_reserved":false,"is_disabled":false,"rental_uris":{"android":"levelo://app?vid=f801971e-c208-458e-9625-42ffbb664958","ios":"levelo://app?vid=f801971e-c208-458e-9625-42ffbb664958"},"vehicle_type_id":"4","last_reported":1731233270,"current_range_meters":37600,"station_id":"ce4bh9p2rcd13ifvqed0","pricing_plan_id":"cebpf4jnsgd1na2vs0mg"},{"bike_id":"fc400645-9898-4ab0-9fe8-9932db1a3ffe","system_id":"levelo_inurba_marseille","lat":43.26555,"lon":5.37285,"is_reserved":false,"is_disabled":false,"rental_uris":{"android":"levelo://app?vid=fc400645-9898-4ab0-9fe8-9932db1a3ffe","ios":"levelo://app?vid=fc400645-9898-4ab0-9fe8-9932db1a3ffe"},"vehicle_type_id":"4","last_reported":1731233270,"current_range_meters":33600,"station_id":"ce4bhg12rcd13ifvqf70","pricing_plan_id":"cebpf4jnsgd1na2vs0mg"},{"bike_id":"0d4284d5-6c2a-4ead-92fd-8d35fe9b1480","system_id":"levelo_inurba_marseille","lat":43.29224,"lon":5.36058,"is_reserved":false,"is_disabled":false,"rental_uris":{"android":"levelo://app?vid=0d4284d5-6c2a-4ead-92fd-8d35fe9b1480","ios":"levelo://app?vid=0d4284d5-6c2a-4ead-92fd-8d35fe9b1480"},"vehicle_type_id":"4","last_reported":1731233270,"current_range_meters":35200,"station_id":"ce4bhbh2rcd13ifvqeqg","pricing_plan_id":"cebpf4jnsgd1na2vs0mg"},{"bike_id":"e8968575-a63f-4f68-8883-204e34fb5284","system_id":"levelo_inurba_marseille","lat":43.29052,"lon":5.35901,"is_reserved":false,"is_disabled":false,"rental_uris":{"android":"levelo://app?vid=e8968575-a63f-4f68-8883-204e34fb5284","ios":"levelo://app?vid=e8968575-a63f-4f68-8883-204e34fb5284"},"vehicle_type_id":"4","last_reported":1731233270,"current_range_meters":27600,"station_id":"ce4bha92rcd13ifvqeg0","pricing_plan_id":"cebpf4jnsgd1na2vs0mg"},{"bike_id":"e6970ce9-b289-47fa-8459-924af2fe66a3","system_id":"levelo_inurba_marseille","lat":43.23154,"lon":5.43703,"is_reserved":false,"is_disabled":false,"rental_uris":{"android":"levelo://app?vid=e6970ce9-b289-47fa-8459-924af2fe66a3","ios":"levelo://app?vid=e6970ce9-b289-47fa-8459-924af2fe66a3"},"vehicle_type_id":"4","last_reported":1731233270,"current_range_meters":22800,"station_id":"ce4bhmp2rcd13ifvqgog","pricing_plan_id":"cebpf4jnsgd1na2vs0mg"},{"bike_id":"3b66d3b6-cdcd-4d31-9366-8e6f1e8ca47a","system_id":"levelo_inurba_marseille","lat":43.3211,"lon":5.36773,"is_reserved":false,"is_disabled":false,"rental_uris":{"android":"levelo://app?vid=3b66d3b6-cdcd-4d31-9366-8e6f1e8ca47a","ios":"levelo://app?vid=3b66d3b6-cdcd-4d31-9366-8e6f1e8ca47a"},"vehicle_type_id":"4","last_reported":1731233270,"current_range_meters":34800,"station_id":"ce4bhrh2rcd13ifvqhug","pricing_plan_id":"cebpf4jnsgd1na2vs0mg"},{"bike_id":"6c55c68c-8072-4a7a-8968-0f76e76b364b","system_id":"levelo_inurba_marseille","lat":43.28389,"lon":5.34995,"is_reserved":false,"is_disabled":false,"rental_uris":{"android":"levelo://app?vid=6c55c68c-8072-4a7a-8968-0f76e76b364b","ios":"levelo://app?vid=6c55c68c-8072-4a7a-8968-0f76e76b364b"},"vehicle_type_id":"4","last_reported":1731233270,"current_range_meters":36400,"station_id":"ce4bhbh2rcd13ifvqepg","pricing_plan_id":"cebpf4jnsgd1na2vs0mg"},{"bike_id":"8606dd30-fd6e-4b79-9c73-acace12c2d0d","system_id":"levelo_inurba_marseille","lat":43.30442,"lon":5.36741,"is_reserved":false,"is_disabled":false,"rental_uris":{"android":"levelo://app?vid=8606dd30-fd6e-4b79-9c73-acace12c2d0d","ios":"levelo://app?vid=8606dd30-fd6e-4b79-9c73-acace12c2d0d"},"vehicle_type_id":"4","last_reported":1731233270,"current_range_meters":35200,"station_id":"","pricing_plan_id":"cebpf4jnsgd1na2vs0mg"},{"bike_id":"8643a4f0-35f0-4899-ac9f-fd2c66d9b0f8","system_id":"levelo_inurba_marseille","lat":43.26937,"lon":5.38913,"is_reserved":false,"is_disabled":false,"rental_uris":{"android":"levelo://app?vid=8643a4f0-35f0-4899-ac9f-fd2c66d9b0f8","ios":"levelo://app?vid=8643a4f0-35f0-4899-ac9f-fd2c66d9b0f8"},"vehicle_type_id":"4","last_reported":1731233270,"current_range_meters":38800,"station_id":"ce4bhhh2rcd13ifvqfl0","pricing_plan_id":"cebpf4jnsgd1na2vs0mg"},{"bike_id":"5cfb38f0-115e-4c85-b709-a8c627fff0a8","system_id":"levelo_inurba_marseille","lat":43.29551,"lon":5.4228,"is_reserved":false,"is_disabled":false,"rental_uris":{"android":"levelo://app?vid=5cfb38f0-115e-4c85-b709-a8c627fff0a8","ios":"levelo://app?vid=5cfb38f0-115e-4c85-b709-a8c627fff0a8"},"vehicle_type_id":"4","last_reported":1731233270,"current_range_meters":38400,"station_id":"ce4bhph2rcd13ifvqhdg","pricing_plan_id":"cebpf4jnsgd1na2vs0mg"},{"bike_id":"f97d005b-1182-44ac-a304-3406b0c57d8d","system_id":"levelo_inurba_marseille","lat":43.31327,"lon":5.39685,"is_reserved":false,"is_disabled":false,"rental_uris":{"android":"levelo://app?vid=f97d005b-1182-44ac-a304-3406b0c57d8d","ios":"levelo://app?vid=f97d005b-1182-44ac-a304-3406b0c57d8d"},"vehicle_type_id":"4","last_reported":1731233270,"current_range_meters":19200,"station_id":"ce4bgvp2rcd13ifvqcu0","pricing_plan_id":"cebpf4jnsgd1na2vs0mg"},{"bike_id":"30993bda-1af7-48c7-a506-c1c09af87c77","system_id":"levelo_inurba_marseille","lat":43.29006,"lon":5.35611,"is_reserved":false,"is_disabled":false,"rental_uris":{"android":"levelo://app?vid=30993bda-1af7-48c7-a506-c1c09af87c77","ios":"levelo://app?vid=30993bda-1af7-48c7-a506-c1c09af87c77"},"vehicle_type_id":"4","last_reported":1731233270,"current_range_meters":38800,"station_id":"ce4bhb92rcd13ifvqen0","pricing_plan_id":"cebpf4jnsgd1na2vs0mg"},