{"last_updated":1730708017,"ttl":60,"version":"2.2","data":{"bikes":[{"bike_id":"6518b189-6cf5-43f3-a9cd-7af23e8a2374","system_id":"levelo_inurba_marseille","lat":43.30402,"lon":5.3976,"is_reserved":false,"is_disabled":false,"rental_uris":{"android":"levelo://app?vid=6518b189-6cf5-43f3-a9cd-7af23e8a2374","ios":"levelo://app?vid=6518b189-6cf5-43f3-a9cd-7af23e8a2374"},"vehicle_type_id":"4","last_reported":1730708017,"current_range_meters":38400,"station_id":"ce4bh092rcd13ifvqd20","pricing_plan_id":"cebpf4jnsgd1na2vs0mg"},{"bike_id":"3d61c92a-c83d-469b-8d7d-4c925874ac42","system_id":"levelo_inurba_marseille","lat":43.33023,"lon":5.39035,"is_reserved":false,"is_disabled":false,"rental_uris":{"android":"levelo://app?vid=3d61c92a-c83d-469b-8d7d-4c925874ac42","ios":"levelo://app?vid=3d61c92a-c83d-469b-8d7d-4c925874ac42"},"vehicle_type_id":"4","last_reported":1730708017,"current_range_meters":6800,"station_id":"ce4bhr92rcd13ifvqhrg","pricing_plan_id":"cebpf4jnsgd1na2vs0mg"},{"bike_id":"e2c83bba-49dd-4850-9514-f4b0ac2b1e72","system_id":"levelo_inurba_marseille","lat":43.28659,"lon":5.38676,"is_reserved":false,"is_disabled":false,"rental_uris":{"android":"levelo://app?vid=e2c83bba-49dd-4850-9514-f4b0ac2b1e72","ios":"levelo://app?vid=e2c83bba-49dd-4850-9514-f4b0ac2b1e72"},"vehicle_type_id":"4","last_reported":1730708017,"current_range_meters":16400,"station_id":"ce4bh492rcd13ifvqdug","pricing_plan_id":"cebpf4jnsgd1na2vs0mg"},{"bike_id":"a41055ec-b05c-4485-a6e5-9b06ae9de535","system_id":"levelo_inurba_marseille","lat":43.29513,"lon":5.39402,"is_reserved":false,"is_disabled":false,"rental_uris":{"android":"levelo://app?vid=a41055ec-b05c-4485-a6e5-9b06ae9de535","ios":"levelo://app?vid=a41055ec-b05c-4485-a6e5-9b06ae9de535"},"vehicle_type_id":"4","last_reported":1730708017,"current_range_meters":38800,"station_id":"ce4bh292rcd13ifvqdf0","pricing_plan_id":"cebpf4jnsgd1na2vs0mg"},{"bike_id":"b8322a23-c204-4d9c-9984-2b77a8bd8133","system_id":"levelo_inurba_marseille","lat":43.27972,"lon":5.38727,"is_reserved":false,"is_disabled":false,"rental_uris":{"android":"levelo://app?vid=b8322a23-c204-4d9c-9984-2b77a8bd8133","ios":"levelo://app?vid=b8322a23-c204-4d9c-9984-2b77a8bd8133"},"vehicle_type_id":"4","last_reported":1730708017,"current_range_meters":21600,"station_id":"ce4bhg12rcd13ifvqf80","pricing_plan_id":"cebpf4jnsgd1na2vs0mg"},{"bike_id":"71895c64-a890-4877-b1cf-d600578b5d53","system_id":"levelo_inurba_marseille","lat":43.265493,"lon":5.372849,"is_reserved":false,"is_disabled":false,"rental_uris":{"android":"levelo://app?vid=71895c64-a890-4877-b1cf-d600578b5d53","ios":"levelo://app?vid=71895c64-a890-4877-b1cf-d600578b5d53"},"vehicle_type_id":"4","last_reported":1730708017,"current_range_meters":22400,"station_id":"","pricing_plan_id":"cebpf4jnsgd1na2vs0mg"},{"bike_id":"d48d3854-7979-4947-9453-e181fcf30089","system_id":"levelo_inurba_marseille","lat":43.27491,"lon":5.42447,"is_reserved":false,"is_disabled":false,"rental_uris":{"android":"levelo://app?vid=d48d3854-7979-4947-9453-e181fcf30089","ios":"levelo://app?vid=d48d3854-7979-4947-9453-e181fcf30089"},"vehicle_type_id":"4","last_reported":1730708017,"current_range_meters":28000,"station_id":"ce4bhn92rcd13ifvqgrg","pricing_plan_id":"cebpf4jnsgd1na2vs0mg"},{"bike_id":"8fb6f5e5-9352-4a52-a752-980b1ca639d1","system_id":"levelo_inurba_marseille","lat":43.33606,"lon":5.41025,"is_reserved":false,"is_disabled":false,"rental_uris":{"android":"levelo://app?vid=8fb6f5e5-9352-4a52-a752-980b1ca639d1","ios":"levelo://app?vid=8fb6f5e5-9352-4a52-a752-980b1ca639d1"},"vehicle_type_id":"4","last_reported":1730708017,"current_range_meters":27600,"station_id":"ce4bhqh2rcd13ifvqhmg","pricing_plan_id":"cebpf4jnsgd1na2vs0mg"},{"bike_id":"4142e0f9-1b73-451d-ba6b-544691698b01","system_id":"levelo_inurba_marseille","lat":43.30474,"lon":5.37903,"is_reserved":false,"is_disabled":false,"rental_uris":{"android":"levelo://app?vid=4142e0f9-1b73-451d-ba6b-544691698b01","ios":"levelo://app?vid=4142e0f9-1b73-451d-ba6b-544691698b01"},"vehicle_type_id":"4","last_reported":1730708017,"current_range_meters":34000,"station_id":"ce4bgup2rcd13ifvqcn0","pricing_plan_id":"cebpf4jnsgd1na2vs0mg"},{"bike_id":"32e0bd39-8846-4b8b-9ff5-b45ce87f8492","system_id":"levelo_inurba_marseille","lat":43.25944,"lon":5.40896,"is_reserved":false,"is_disabled":false,"rental_uris":{"android":"levelo://app?vid=32e0bd39-8846-4b8b-9ff5-b45ce87f8492","ios":"levelo://app?vid=32e0bd39-8846-4b8b-9ff5-b45ce87f8492"},"vehicle_type_id":"4","last_reported":1730708017,"current_range_meters":23200,"station_id":"ce4bhm92rcd13ifvqglg","pricing_plan_id":"cebpf4jnsgd1na2vs0mg"},{"bike_id":"8600cf03-33f3-4482-bb88-1384a79dc478","system_id":"levelo_inurba_marseille","lat":43.26789,"lon":5.39411,"is_reserved":false,"is_disabled":false,"rental_uris":{"android":"levelo://app?vid=8600cf03-33f3-4482-bb88-1384a79dc478","ios":"levelo://app?vid=8600cf03-33f3-4482-bb88-1384a79dc478"},"vehicle_type_id":"4","last_reported":1730708017,"current_range_meters":6400,"station_id":"ce4bhh12rcd13ifvqfg0","pricing_plan_id":"cebpf4jnsgd1na2vs0mg"},{"bike_id":"b45d93e2-137e-40d9-b8b9-f9ceab009d23","system_id":"levelo_inurba_marseille","lat":43.24177,"lon":5.3973,"is_reserved":false,"is_disabled":false,"rental_uris":{"android":"levelo://app?vid=b45d93e2-137e-40d9-b8b9-f9ceab009d23","ios":"levelo://app?vid=b45d93e2-137e-40d9-b8b9-f9ceab009d23"},"vehicle_type_id":"4","last_reported":1730708017,"current_range_meters":35200,"station_id":"ce4bhn12rcd13ifvqgpg","pricing_plan_id":"cebpf4jnsgd1na2vs0mg"},{"bike_id":"23a8e268-b759-4997-95af-80a8eb1043b2","system_id":"levelo_inurba_marseille","lat":43.26481,"lon":5.39528,"is_reserved":false,"is_disabled":false,"rental_uris":{"android":"levelo://app?vid=23a8e268-b759-4997-95af-80a8eb1043b2","ios":"levelo://app?vid=23a8e268-b759-4997-95af-80a8eb1043b2"},"vehicle_type_id":"4","last_reported":1730708017,"current_range_meters":26000,"station_id":"ce4bhi12rcd13ifvqfq0","pricing_plan_id":"cebpf4jnsgd1na2vs0mg"},{"bike_id":"c7a51b24-0fab-4242-b11c-e03d2ff6fb2e","system_id":"levelo_inurba_marseille","lat":43.2903,"lon":5.39964,"is_reserved":false,"is_disabled":false,"rental_uris":{"android":"levelo://app?vid=c7a51b24-0fab-4242-b11c-e03d2ff6fb2e","ios":"levelo://app?vid=c7a51b24-0fab-4242-b11c-e03d2ff6fb2e"},"vehicle_type_id":"4","last_reported":1730708017,"current_range_meters":18800,"station_id":"ce4bh392rcd13ifvqdm0","pricing_plan_id":"cebpf4jnsgd1na2vs0mg"},{"bike_id":"205a086c-8a81-42da-b9f6-fee8e745f8ed","system_id":"levelo_inurba_marseille","lat":43.25728,"lon":5.41111,"is_reserved":false,"is_disabled":false,"rental_uris":{"android":"levelo://app?vid=205a086c-8a81-42da-b9f6-fee8e745f8ed","ios":"levelo://app?vid=205a086c-8a81-42da-b9f6-fee8e745f8ed"},"vehicle_type_id":"4","last_reported":1730708017,"current_range_meters":34800,"station_id":"ce4bhkp2rcd13ifvqgd0","pricing_plan_id":"cebpf4jnsgd1na2vs0mg"},{"bike_id":"37c14f64-b8de-4bcf-822e-ff939133b996","system_id":"levelo_inurba_marseille","lat":43.24076,"lon":5.37754,"is_reserved":false,"is_disabled":false,"rental_uris":{"android":"levelo://app?vid=37c14f64-b8de-4bcf-822e-ff939133b996","ios":"levelo://app?vid=37c14f64-b8de-4bcf-822e-ff939133b996"},"vehicle_type_id":"4","last_reported":1730708017,"current_range_meters":18800,"station_id":"ce4bhnp2rcd13ifvqgvg","pricing_plan_id":"cebpf4jnsgd1na2vs0mg"},{"bike_id":"09f7e464-7576-4e14-8bef-f0e4384fea5e","system_id":"levelo_inurba_marseille","lat":43.26954,"lon":5.38625,"is_reserved":false,"is_disabled":false,"rental_uris":{"android":"levelo://app?vid=09f7e464-7576-4e14-8bef-f0e4384fea5e","ios":"levelo://app?vid=09f7e464-7576-4e14-8bef-f0e4384fea5e"},"vehicle_type_id":"4","last_reported":1730708017,"current_range_meters":23200,"station_id":"ce4bhh92rcd13ifvqfh0","pricing_plan_id":"cebpf4jnsgd1na2vs0mg"},{"bike_id":"2a39fee9-2e1a-4506-90a5-52fa3c1e7f62","system_id":"levelo_inurba_marseille","lat":43.2546,"lon":5.3766,"is_reserved":false,"is_disabled":false,"rental_uris":{"android":"levelo://app?vid=2a39fee9-2e1a-4506-90a5-52fa3c1e7f62","ios":"levelo://app?vid=2a39fee9-2e1a-4506-90a5-52fa3c1e7f62"},"vehicle_type_id":"4","last_reported":1730708017,"current_range_meters":32000,"station_id":"ce4bhnp2rcd13ifvqgvg","pricing_plan_id":"cebpf4jnsgd1na2vs0mg"},{"bike_id":"13ce73ff-de39-4563-8ef2-5b5e2775bdeb","system_id":"levelo_inurba_marseille","lat":43.32525,"lon":5.41447,"is_reserved":false,"is_disabled":false,"rental_uris":{"android":"levelo://app?vid=13ce73ff-de39-4563-8ef2-5b5e2775bdeb","ios":"levelo://app?vid=13ce73ff-de39-4563-8ef2-5b5e2775bdeb"},"vehicle_type_id":"4","last_reported":1730708017,"current_range_meters":16000,"station_id":"ce4bhq12rcd13ifvqhhg","pricing_plan_id":"cebpf4jnsgd1na2vs0mg"},{"bike_id":"4147bbfb-4b14-4aca-b782-8ec6c0473609","system_id":"levelo_inurba_marseille","lat":43.23597,"lon":5.40344,"is_reserved":false,"is_disabled":false,"rental_uris":{"android":"levelo://app?vid=4147bbfb-4b14-4aca-b782-8ec6c0473609","ios":"levelo://app?vid=4147bbfb-4b14-4aca-b782-8ec6c0473609"},"vehicle_type_id":"4","last_reported":1730708017,"current_range_meters":16400,"station_id":"","pricing_plan_id":"cebpf4jnsgd1na2vs0mg"},{"bike_id":"20fc1ddc-14fb-4b18-a6f9-587d9d1f3e83","system_id":"levelo_inurba_marseille","lat":43.30175,"lon":5.36615,"is_reserved":false,"is_disabled":false,"rental_uris":{"android":"levelo://app?vid=20fc1ddc-14fb-4b18-a6f9-587d9d1f3e83","ios":"levelo://app?vid=20fc1ddc-14fb-4b18-a6f9-587d9d1f3e83"},"vehicle_type_id":"4","last_reported":1730708017,"current_range_meters":24400,"station_id":"ce4bgrh2rcd13ifvqc8g","pricing_plan_id":"cebpf4jnsgd1na2vs0mg"},{"bike_id":"3d473990-960c-4acb-aeaa-a5b8fa2d912b","system_id":"levelo_inurba_marseille","lat":43.30272,"lon":5.37703,"is_reserved":false,"is_disabled":false,"rental_uris":{"android":"levelo://app?vid=3d473990-960c-4acb-aeaa-a5b8fa2d912b","ios":"levelo://app?vid=3d473990-960c-4acb-aeaa-a5b8fa2d912b"},"vehicle_type_id":"4","last_reported":1730708017,"current_range_meters":22800,"station_id":"ce4bguh2rcd13ifvqcj0","pricing_plan_id":"cebpf4jnsgd1na2vs0mg"},{"bike_id":"c3c4d41d-7148-4370-b749-aace2892e397","system_id":"levelo_inurba_marseille","lat":43.2315,"lon":5.43715,"is_reserved":false,"is_disabled":false,"rental_uris":{"android":"levelo://app?vid=c3c4d41d-7148-4370-b749-aace2892e397","ios":"levelo://app?vid=c3c4d41d-7148-4370-b749-aace2892e397"},"vehicle_type_id":"4","last_reported":1730708017,"current_range_meters":36400,"station_id":"ce4bhmp2rcd13ifvqgog","pricing_plan_id":"cebpf4jnsgd1na2vs0mg"},{"bike_id":"e89d6e9a-6478-4248-9ec1-9cf67942b2b1","system_id":"levelo_inurba_marseille","lat":43.31228,"lon":5.36859,"is_reserved":false,"is_disabled":false,"rental_uris":{"android":"levelo://app?vid=e89d6e9a-6478-4248-9ec1-9cf67942b2b1","ios":"levelo://app?vid=e89d6e9a-6478-4248-9ec1-9cf67942b2b1"},"vehicle_type_id":"4","last_reported":1730708017,"current_range_meters":38800,"station_id":"ce4bgl92rcd13ifvqbq0","pricing_plan_id":"cebpf4jnsgd1na2vs0mg"},{"bike_id":"8ab3cef0-5266-4bca-856c-d0d5ed115b5e","system_id":"levelo_inurba_marseille","lat":43.29031,"lon":5.39971,"is_reserved":false,"is_disabled":false,"rental_uris":{"android":"levelo://app?vid=8ab3cef0-5266-4bca-856c-d0d5ed115b5e","ios":"levelo://app?vid=8ab3cef0-5266-4bca-856c-d0d5ed115b5e"},"vehicle_type_id":"4","last_reported":1730708017,"current_range_meters":28400,"station_id":"ce4bh392rcd13ifvqdm0","pricing_plan_id":"cebpf4jnsgd1na2vs0mg"},{"bike_id":"b97d9adc-ce60-4c39-8afd-921a04111eb6","system_id":"levelo_inurba_marseille","lat":43.34137,"lon":5.40897,"is_reserved":false,"is_disabled":false,"rental_uris":{"android":"levelo://app?vid=b97d9adc-ce60-4c39-8afd-921a04111eb6","ios":"levelo://app?vid=b97d9adc-ce60-4c39-8afd-921a04111eb6"},"vehicle_type_id":"4","last_reported":1730708017,"current_range_meters":38800,"station_id":"ce4bhqh2rcd13ifvqhlg","pricing_plan_id":"cebpf4jnsgd1na2vs0mg"},{"bike_id":"7a58bdc6-5db2-4543-b33d-6202d289b688","system_id":"levelo_inurba_marseille","lat":43.33726,"lon":5.39183,"is_reserved":false,"is_disabled":false,"rental_uris":{"android":"levelo://app?vid=7a58bdc6-5db2-4543-b33d-6202d289b688","ios":"levelo://app?vid=7a58bdc6-5db2-4543-b33d-6202d289b688"},"vehicle_type_id":"4","last_reported":1730708017,"current_range_meters":22800,"station_id":"ce4bhr92rcd13ifvqhsg","pricing_plan_id":"cebpf4jnsgd1na2vs0mg"},{"bike_id":"6a2ccbb5-4c18-4188-83ce-006e83de5a53","system_id":"levelo_inurba_marseille","lat":43.34146,"lon":5.409,"is_reserved":false,"is_disabled":false,"rental_uris":{"android":"levelo://app?vid=6a2ccbb5-4c18-4188-83ce-006e83de5a53","ios":"levelo://app?vid=6a2ccbb5-4c18-4188-83ce-006e83de5a53"},"vehicle_type_id":"4","last_reported":1730708017,"current_range_meters":26800,"station_id":"ce4bhqh2rcd13ifvqhlg","pricing_plan_id":"cebpf4jnsgd1na2vs0mg"},{"bike_id":"f8676706-151e-428b-bc5c-68e7f8be586a","system_id":"levelo_inurba_marseille","lat":43.33612,"lon":5.41022,"is_reserved":false,"is_disabled":false,"rental_uris":{"android":"levelo://app?vid=f8676706-151e-428b-bc5c-68e7f8be586a","ios":"levelo://app?vid=f8676706-151e-428b-bc5c-68e7f8be586a"},"vehicle_type_id":"4","last_reported":1730708017,"current_range_meters":38800,"station_id":"ce4bhqh2rcd13ifvqhmg","pricing_plan_id":"cebpf4jnsgd1na2vs0mg"},{"bike_id":"35c7a2af-dda2-48b7-a42b-26e29c400704","system_id":"levelo_inurba_marseille","lat":43.26783,"lon":5.39414,"is_reserved":false,"is_disabled":false,"rental_uris":{"android":"levelo://app?vid=35c7a2af-dda2-48b7-a42b-26e29c400704","ios":"levelo://app?vid=35c7a2af-dda2-48b7-a42b-26e29c400704"},"vehicle_type_id":"4","last_reported":1730708017,"current_range_meters":37600,"station_id":"ce4bhh12rcd13ifvqfg0","pricing_plan_id":"cebpf4jnsgd1na2vs0mg"},{"bike_id":"cded4cd5-5d9c-4bda-bb59-d3de57a67324","system_id":"levelo_inurba_marseille","lat":43.30155,"lon":5.3808,"is_reserved":false,"is_disabled":false,"rental_uris":{"android":"levelo://app?vid=cded4cd5-5d9c-4bda-bb59-d3de57a67324","ios":"levelo://app?vid=cded4cd5-5d9c-4bda-bb59-d3de57a67324"},"vehicle_type_id":"4","last_reported":1730708017,"current_range_meters":35200,"station_id":"ce4bgjp2rcd13ifvqbh0","pricing_plan_id":"cebpf4jnsgd1na2vs0mg"},{"bike_id":"baea6945-ac3f-4195-a6a4-4b887db0844f","system_id":"levelo_inurba_marseille","lat":43.27071,"lon":5.42274,"is_reserved":false,"is_disabled":false,"rental_uris":{"android":"levelo://app?vid=baea6945-ac3f-4195-a6a4-4b887db0844f","ios":"levelo://app?vid=baea6945-ac3f-4195-a6a4-4b887db0844f"},"vehicle_type_id":"4","last_reported":1730708017,"current_range_meters":38000,"station_id":"ce4bhk92rcd13ifvqgb0","pricing_plan_id":"cebpf4jnsgd1na2vs0mg"},{"bike_id":"598535da-1e32-42e0-bd65-4ba25549dd70","system_id":"levelo_inurba_marseille","lat":43.31462,"lon":5.37371,"is_reserved":false,"is_disabled":false,"rental_uris":{"android":"levelo://app?vid=598535da-1e32-42e0-bd65-4ba25549dd70","ios":"levelo://app?vid=598535da-1e32-42e0-bd65-4ba25549dd70"},"vehicle_type_id":"4","last_reported":1730708017,"current_range_meters":26800,"station_id":"","pricing_plan_id":"cebpf4jnsgd1na2vs0mg"},{"bike_id":"2378f453-72a7-4eb2-ab3b-946285d406fd","system_id":"levelo_inurba_marseille","lat":43.29233,"lon":5.37718,"is_reserved":false,"is_disabled":false,"rental_uris":{"android":"levelo://app?vid=2378f453-72a7-4eb2-ab3b-946285d406fd","ios":"levelo://app?vid=2378f453-72a7-4eb2-ab3b-946285d406fd"},"vehicle_type_id":"4","last_reported":1730708017,"current_range_meters":8800,"station_id":"","pricing_plan_id":"cebpf4jnsgd1na2vs0mg"},{"bike_id":"69c5828b-16b5-4e21-9a89-eb78828b437f","system_id":"levelo_inurba_marseille","lat":43.27071,"lon":5.42272,"is_reserved":false,"is_disabled":false,"rental_uris":{"android":"levelo://app?vid=69c5828b-16b5-4e21-9a89-eb78828b437f","ios":"levelo://app?vid=69c5828b-16b5-4e21-9a89-eb78828b437f"},"vehicle_type_id":"4","last_reported":1730708017,"current_range_meters":34000,"station_id":"ce4bhk92rcd13ifvqgb0","pricing_plan_id":"cebpf4jnsgd1na2vs0mg"},{"bike_id":"45e37847-060c-4fbe-958a-f63e7f57fa30","system_id":"levelo_inurba_marseille","lat":43.2707,"lon":5.42271,"is_reserved":false,"is_disabled":false,"rental_uris":{"android":"levelo://app?vid=45e37847-060c-4fbe-958a-f63e7f57fa30","ios":"levelo://app?vid=45e37847-060c-4fbe-958a-f63e7f57fa30"},"vehicle_type_id":"4","last_reported":1730708017,"current_range_meters":19600,"station_id":"ce4bhk92rcd13ifvqgb0","pricing_plan_id":"cebpf4jnsgd1na2vs0mg"},{"bike_id":"54c6940c-9f95-4ed3-a1a1-ee36b4447031","system_id":"levelo_inurba_marseille","lat":43.29011,"lon":5.38115,"is_reserved":false,"is_disabled":false,"rental_uris":{"android":"levelo://app?vid=54c6940c-9f95-4ed3-a1a1-ee36b4447031","ios":"levelo://app?vid=54c6940c-9f95-4ed3-a1a1-ee36b4447031"},"vehicle_type_id":"4","last_reported":1730708017,"current_range_meters":36400,"station_id":"ce4bh4p2rcd13ifvqe1g","pricing_plan_id":"cebpf4jnsgd1na2vs0mg"},{"bike_id":"f6bb56fa-b845-4348-a5c0-8f55c7d1a070","system_id":"levelo_inurba_marseille","lat":43.260282,"lon":5.375499,"is_reserved":false,"is_disabled":false,"rental_uris":{"android":"levelo://app?vid=f6bb56fa-b845-4348-a5c0-8f55c7d1a070","ios":"levelo://app?vid=f6bb56fa-b845-4348-a5c0-8f55c7d1a070"},"vehicle_type_id":"4","last_reported":1730708017,"current_range_meters":38400,"station_id":"ce4bhgh2rcd13ifvqfa0","pricing_plan_id":"cebpf4jnsgd1na2vs0mg"},{"bike_id":"4837ac20-b9ff-4190-897a-6e0a95af7af3","system_id":"levelo_inurba_marseille","lat":43.27492,"lon":5.42453,"is_reserved":false,"is_disabled":false,"rental_uris":{"android":"levelo://app?vid=4837ac20-b9ff-4190-897a-6e0a95af7af3","ios":"levelo://app?vid=4837ac20-b9ff-4190-897a-6e0a95af7af3"},"vehicle_type_id":"4","last_reported":1730708017,"current_range_meters":38800,"station_id":"ce4bhn92rcd13ifvqgrg","pricing_plan_id":"cebpf4jnsgd1na2vs0mg"},{"bike_id":"156355ec-66dc-4d45-a321-d2b6598e6669","system_id":"levelo_inurba_marseille","lat":43.30456,"lon":5.37904,"is_reserved":false,"is_disabled":false,"rental_uris":{"android":"levelo://app?vid=156355ec-66dc-4d45-a321-d2b6598e6669","ios":"levelo://app?vid=156355ec-66dc-4d45-a321-d2b6598e6669"},"vehicle_type_id":"4","last_reported":1730708017,"current_range_meters":38800,"station_id":"ce4bgup2rcd13ifvqcn0","pricing_plan_id":"cebpf4jnsgd1na2vs0mg"},{"bike_id":"3bd62d41-958b-4c0c-872c-6a72b57371ab","system_id":"levelo_inurba_marseille","lat":43.24073,"lon":5.3776,"is_reserved":false,"is_disabled":false,"rental_uris":{"android":"levelo://app?vid=3bd62d41-958b-4c0c-872c-6a72b57371ab","ios":"levelo://app?vid=3bd62d41-958b-4c0c-872c-6a72b57371ab"},"vehicle_type_id":"4","last_reported":1730708017,"current_range_meters":25600,"station_id":"ce4bhnp2rcd13ifvqgvg","pricing_plan_id":"cebpf4jnsgd1na2vs0mg"},{"bike_id":"3a1cb529-ebc0-45d9-9ece-73ba1ab49eb7","system_id":"levelo_inurba_marseille","lat":43.2962,"lon":5.37168,"is_reserved":false,"is_disabled":false,"rental_uris":{"android":"levelo://app?vid=3a1cb529-ebc0-45d9-9ece-73ba1ab49eb7","ios":"levelo://app?vid=3a1cb529-ebc0-45d9-9ece-73ba1ab49eb7"},"vehicle_type_id":"4","last_reported":1730708017,"current_range_meters":32000,"station_id":"ce4bgnh2rcd13ifvqc0g","pricing_plan_id":"cebpf4jnsgd1na2vs0mg"},{"bike_id":"dbaee213-8369-49f1-935e-faaf8a60f54c","system_id":"levelo_inurba_marseille","lat":43.30539,"lon":5.36693,"is_reserved":false,"is_disabled":false,"rental_uris":{"android":"levelo://app?vid=dbaee213-8369-49f1-935e-faaf8a60f54c","ios":"levelo://app?vid=dbaee213-8369-49f1-935e-faaf8a60f54c"},"vehicle_type_id":"4","last_reported":1730708017,"current_range_meters":33200,"station_id":"ce4bgrp2rcd13ifvqc9g","pricing_plan_id":"cebpf4jnsgd1na2vs0mg"},{"bike_id":"812967c9-4844-474d-b921-f7a86665e95b","system_id":"levelo_inurba_marseille","lat":43.29571,"lon":5.3998,"is_reserved":false,"is_disabled":false,"rental_uris":{"android":"levelo://app?vid=812967c9-4844-474d-b921-f7a86665e95b","ios":"levelo://app?vid=812967c9-4844-474d-b921-f7a86665e95b"},"vehicle_type_id":"4","last_reported":1730708017,"current_range_meters":16800,"station_id":"ce4bh312rcd13ifvqdj0","pricing_plan_id":"cebpf4jnsgd1na2vs0mg"},{"bike_id":"5f182c0f-58e8-4d44-8169-760b9016320b","system_id":"levelo_inurba_marseille","lat":43.28153,"lon":5.42643,"is_reserved":false,"is_disabled":false,"rental_uris":{"android":"levelo://app?vid=5f182c0f-58e8-4d44-8169-760b9016320b","ios":"levelo://app?vid=5f182c0f-58e8-4d44-8169-760b9016320b"},"vehicle_type_id":"4","last_reported":1730708017,"current_range_meters":30800,"station_id":"ce4bhnh2rcd13ifvqgug","pricing_plan_id":"cebpf4jnsgd1na2vs0mg"},{"bike_id":"729ed762-2084-40cb-ba5b-e8d2d89903cd","system_id":"levelo_inurba_marseille","lat":43.25932,"lon":5.40909,"is_reserved":false,"is_disabled":false,"rental_uris":{"android":"levelo://app?vid=729ed762-2084-40cb-ba5b-e8d2d89903cd","ios":"levelo://app?vid=729ed762-2084-40cb-ba5b-e8d2d89903cd"},"vehicle_type_id":"4","last_reported":1730708017,"current_range_meters":17600,"station_id":"ce4bhm92rcd13ifvqglg","pricing_plan_id":"cebpf4jnsgd1na2vs0mg"},{"bike_id":"49a8e4b9-6882-4760-8dce-fb3cea7e15a3","system_id":"levelo_inurba_marseille","lat":43.309188,"lon":5.368515,"is_reserved":false,"is_disabled":false,"rental_uris":{"android":"levelo://app?vid=49a8e4b9-6882-4760-8dce-fb3cea7e15a3","ios":"levelo://app?vid=49a8e4b9-6882-4760-8dce-fb3cea7e15a3"},"vehicle_type_id":"4","last_reported":1730708017,"current_range_meters":16000,"station_id":"ce4bgn92rcd13ifvqbvg","pricing_plan_id":"cebpf4jnsgd1na2vs0mg"},{"bike_id":"e0b585a6-9524-429a-a6a6-5d39a2801da4","system_id":"levelo_inurba_marseille","lat":43.292763,"lon":5.401157,"is_reserved":false,"is_disabled":false,"rental_uris":{"android":"levelo://app?vid=e0b585a6-9524-429a-a6a6-5d39a2801da4","ios":"levelo://app?vid=e0b585a6-9524-429a-a6a6-5d39a2801da4"},"vehicle_type_id":"4","last_reported":1730708017,"current_range_meters":38000,"station_id":"ce4bh312rcd13ifvqdk0","pricing_plan_id":"cebpf4jnsgd1na2vs0mg"},{"bike_id":"e63b9a9c-5d9e-4c46-92e9-7eb66a41f469","system_id":"levelo_inurba_marseille","lat":43.279336,"lon":5.410414,"is_reserved":false,"is_disabled":false,"rental_uris":{"android":"levelo://app?vid=e63b9a9c-5d9e-4c46-92e9-7eb66a41f469","ios":"levelo://app?vid=e63b9a9c-5d9e-4c46-92e9-7eb66a41f469"},"vehicle_type_id":"4","last_reported":1730708017,"current_range_meters":24800,"station_id":"ce4bhnp2rcd13ifvqh0g","pricing_plan_id":"cebpf4jnsgd1na2vs0mg"},{"bike_id":"75576e24-6890-4288-9aa5-db2804891d6f","system_id":"levelo_inurba_marseille","lat":43.26943,"lon":5.40248,"is_reserved":false,"is_disabled":false,"rental_uris":{"android":"levelo://app?vid=75576e24-6890-4288-9aa5-db2804891d6f","ios":"levelo://app?vid=75576e24-6890-4288-9aa5-db2804891d6f"},"vehicle_type_id":"4","last_reported":1730708017,"current_range_meters":35600,"station_id":"cjm6bp8fraef2m0cb0m0","pricing_plan_id":"cebpf4jnsgd1na2vs0mg"},{"bike_id":"2af5c669-fc25-4b3f-b6cd-dc8dab73e3f3","system_id":"levelo_inurba_marseille","lat":43.30944,"lon":5.39034,"is_reserved":false,"is_disabled":false,"rental_uris":{"android":"levelo://app?vid=2af5c669-fc25-4b3f-b6cd-dc8dab73e3f3","ios":"levelo://app?vid=2af5c669-fc25-4b3f-b6cd-dc8dab73e3f3"},"vehicle_type_id":"4","last_reported":1730708017,"current_range_meters":32400,"station_id":"ce4bgup2rcd13ifvqco0","pricing_plan_id":"cebpf4jnsgd1na2vs0mg"},{"bike_id":"dbe20799-710e-4c93-a000-d5642bd64f9b","system_id":"levelo_inurba_marseille","lat":43.3046,"lon":5.37903,"is_reserved":false,"is_disabled":false,"rental_uris":{"android":"levelo://app?vid=dbe20799-710e-4c93-a000-d5642bd64f9b","ios":"levelo://app?vid=dbe20799-710e-4c93-a000-d5642bd64f9b"},"vehicle_type_id":"4","last_reported":1730708017,"current_range_meters":24800,"station_id":"ce4bgup2rcd13ifvqcn0","pricing_plan_id":"cebpf4jnsgd1na2vs0mg"},{"bike_id":"26c062d6-7728-45be-9471-5d3b35a2b9e1","system_id":"levelo_inurba_marseille","lat":43.31698,"lon":5.3775,"is_reserved":false,"is_disabled":false,"rental_uris":{"android":"levelo://app?vid=26c062d6-7728-45be-9471-5d3b35a2b9e1","ios":"levelo://app?vid=26c062d6-7728-45be-9471-5d3b35a2b9e1"},"vehicle_type_id":"4","last_reported":1730708017,"current_range_meters":25200,"station_id":"ce4bgth2rcd13ifvqch0","pricing_plan_id":"cebpf4jnsgd1na2vs0mg"},{"bike_id":"8f0bee40-ac87-40ef-97cb-0858e49a1186","system_id":"levelo_inurba_marseille","lat":43.25938,"lon":5.40902,"is_reserved":false,"is_disabled":false,"rental_uris":{"android":"levelo://app?vid=8f0bee40-ac87-40ef-97cb-0858e49a1186","ios":"levelo://app?vid=8f0bee40-ac87-40ef-97cb-0858e49a1186"},"vehicle_type_id":"4","last_reported":1730708017,"current_range_meters":21600,"station_id":"ce4bhm92rcd13ifvqglg","pricing_plan_id":"cebpf4jnsgd1na2vs0mg"},{"bike_id":"91ab9f3e-0a6a-433c-b133-3a29425ab881","system_id":"levelo_inurba_marseille","lat":43.30266,"lon":5.37698,"is_reserved":false,"is_disabled":false,"rental_uris":{"android":"levelo://app?vid=91ab9f3e-0a6a-433c-b133-3a29425ab881","ios":"levelo://app?vid=91ab9f3e-0a6a-433c-b133-3a29425ab881"},"vehicle_type_id":"4","last_reported":1730708017,"current_range_meters":38800,"station_id":"ce4bguh2rcd13ifvqcj0","pricing_plan_id":"cebpf4jnsgd1na2vs0mg"},{"bike_id":"5da44adc-17db-4722-bf96-3ab7d572b244","system_id":"levelo_inurba_marseille","lat":43.28726,"lon":5.36092,"is_reserved":false,"is_disabled":false,"rental_uris":{"android":"levelo://app?vid=5da44adc-17db-4722-bf96-3ab7d572b244","ios":"levelo://app?vid=5da44adc-17db-4722-bf96-3ab7d572b244"},"vehicle_type_id":"4","last_reported":1730708017,"current_range_meters":37600,"station_id":"cki0cbj6b192h4jlfktg","pricing_plan_id":"cebpf4jnsgd1na2vs0mg"},{"bike_id":"7fa9e0db-d5db-4e00-9bab-71088473e9a3","system_id":"levelo_inurba_marseille","lat":43.28345,"lon":5.38089,"is_reserved":false,"is_disabled":false,"rental_uris":{"android":"levelo://app?vid=7fa9e0db-d5db-4e00-9bab-71088473e9a3","ios":"levelo://app?vid=7fa9e0db-d5db-4e00-9bab-71088473e9a3"},"vehicle_type_id":"4","last_reported":1730708017,"current_range_meters":30800,"station_id":"ce4bh412rcd13ifvqdr0","pricing_plan_id":"cebpf4jnsgd1na2vs0mg"},{"bike_id":"fcda431b-00f7-4fd8-bb18-897981fe927f","system_id":"levelo_inurba_marseille","lat":43.26679,"lon":5.38263,"is_reserved":false,"is_disabled":false,"rental_uris":{"android":"levelo://app?vid=fcda431b-00f7-4fd8-bb18-897981fe927f","ios":"levelo://app?vid=fcda431b-00f7-4fd8-bb18-897981fe927f"},"vehicle_type_id":"4","last_reported":1730708017,"current_range_meters":38000,"station_id":"ce4bhg92rcd13ifvqf90","pricing_plan_id":"cebpf4jnsgd1na2vs0mg"},{"bike_id":"da06faf3-8146-4200-88f2-9af71dcd839e","system_id":"levelo_inurba_marseille","lat":43.26685,"lon":5.38275,"is_reserved":false,"is_disabled":false,"rental_uris":{"android":"levelo://app?vid=da06faf3-8146-4200-88f2-9af71dcd839e","ios":"levelo://app?vid=da06faf3-8146-4200-88f2-9af71dcd839e"},"vehicle_type_id":"4","last_reported":1730708017,"current_range_meters":36800,"station_id":"ce4bhg92rcd13ifvqf90","pricing_plan_id":"cebpf4jnsgd1na2vs0mg"},{"bike_id":"8d0bafa5-3e07-4a4f-ab05-9bc750c7af39","system_id":"levelo_inurba_marseille","lat":43.30781,"lon":5.37648,"is_reserved":false,"is_disabled":false,"rental_uris":{"android":"levelo://app?vid=8d0bafa5-3e07-4a4f-ab05-9bc750c7af39","ios":"levelo://app?vid=8d0bafa5-3e07-4a4f-ab05-9bc750c7af39"},"vehicle_type_id":"4","last_reported":1730708017,"current_range_meters":28400,"station_id":"ce4bgv92rcd13ifvqcq0","pricing_plan_id":"cebpf4jnsgd1na2vs0mg"},{"bike_id":"0d3646af-7641-4f41-a526-b0f0065e39da","system_id":"levelo_inurba_marseille","lat":43.27493,"lon":5.4245,"is_reserved":false,"is_disabled":false,"rental_uris":{"android":"levelo://app?vid=0d3646af-7641-4f41-a526-b0f0065e39da","ios":"levelo://app?vid=0d3646af-7641-4f41-a526-b0f0065e39da"},"vehicle_type_id":"4","last_reported":1730708017,"current_range_meters":34800,"station_id":"ce4bhn92rcd13ifvqgrg","pricing_plan_id":"cebpf4jnsgd1na2vs0mg"},{"bike_id":"8e28b8d2-6e26-4c95-b39d-215ee55490a0","system_id":"levelo_inurba_marseille","lat":43.29044,"lon":5.39955,"is_reserved":false,"is_disabled":false,"rental_uris":{"android":"levelo://app?vid=8e28b8d2-6e26-4c95-b39d-215ee55490a0","ios":"levelo://app?vid=8e28b8d2-6e26-4c95-b39d-215ee55490a0"},"vehicle_type_id":"4","last_reported":1730708017,"current_range_meters":26800,"station_id":"ce4bh392rcd13ifvqdm0","pricing_plan_id":"cebpf4jnsgd1na2vs0mg"},{"bike_id":"a1022dd0-4012-4c5a-8d7b-dff970082031","system_id":"levelo_inurba_marseille","lat":43.26951,"lon":5.38633,"is_reserved":false,"is_disabled":false,"rental_uris":{"android":"levelo://app?vid=a1022dd0-4012-4c5a-8d7b-dff970082031","ios":"levelo://app?vid=a1022dd0-4012-4c5a-8d7b-dff970082031"},"vehicle_type_id":"4","last_reported":1730708017,"current_range_meters":6400,"station_id":"ce4bhh92rcd13ifvqfh0","pricing_plan_id":"cebpf4jnsgd1na2vs0mg"},{"bike_id":"7f823f81-0de8-4399-ac99-85f8a1cd0193","system_id":"levelo_inurba_marseille","lat":43.26951,"lon":5.38627,"is_reserved":false,"is_disabled":false,"rental_uris":{"android":"levelo://app?vid=7f823f81-0de8-4399-ac99-85f8a1cd0193","ios":"levelo://app?vid=7f823f81-0de8-4399-ac99-85f8a1cd0193"},"vehicle_type_id":"4","last_reported":1730708017,"current_range_meters":35200,"station_id":"ce4bhh92rcd13ifvqfh0","pricing_plan_id":"cebpf4jnsgd1na2vs0mg"},{"bike_id":"7ce77be2-28e6-467f-9494-16f057502bba","system_id":"levelo_inurba_marseille","lat":43.28153,"lon":5.42632,"is_reserved":false,"is_disabled":false,"rental_uris":{"android":"levelo://app?vid=7ce77be2-28e6-467f-9494-16f057502bba","ios":"levelo://app?vid=7ce77be2-28e6-467f-9494-16f057502bba"},"vehicle_type_id":"4","last_reported":1730708017,"current_range_meters":29600,"station_id":"ce4bhnh2rcd13ifvqgug","pricing_plan_id":"cebpf4jnsgd1na2vs0mg"},{"bike_id":"c8fe287c-8773-492c-bff9-8bcf9d982888","system_id":"levelo_inurba_marseille","lat":43.31362,"lon":5.36694,"is_reserved":false,"is_disabled":false,"rental_uris":{"android":"levelo://app?vid=c8fe287c-8773-492c-bff9-8bcf9d982888","ios":"levelo://app?vid=c8fe287c-8773-492c-bff9-8bcf9d982888"},"vehicle_type_id":"4","last_reported":1730708017,"current_range_meters":27600,"station_id":"ce4bgr92rcd13ifvqc6g","pricing_plan_id":"cebpf4jnsgd1na2vs0mg"},{"bike_id":"5a9508a0-ffb8-440d-8e57-b079acad0af1","system_id":"levelo_inurba_marseille","lat":43.27491,"lon":5.42451,"is_reserved":false,"is_disabled":false,"rental_uris":{"android":"levelo://app?vid=5a9508a0-ffb8-440d-8e57-b079acad0af1","ios":"levelo://app?vid=5a9508a0-ffb8-440d-8e57-b079acad0af1"},"vehicle_type_id":"4","last_reported":1730708017,"current_range_meters":9600,"station_id":"ce4bhn92rcd13ifvqgrg","pricing_plan_id":"cebpf4jnsgd1na2vs0mg"},{"bike_id":"091ea288-464d-4521-8a4e-3784b9dba245","system_id":"levelo_inurba_marseille","lat":43.24081,"lon":5.37741,"is_reserved":false,"is_disabled":false,"rental_uris":{"android":"levelo://app?vid=091ea288-464d-4521-8a4e-3784b9dba245","ios":"levelo://app?vid=091ea288-464d-4521-8a4e-3784b9dba245"},"vehicle_type_id":"4","last_reported":1730708017,"current_range_meters":12400,"station_id":"ce4bhnp2rcd13ifvqgvg","pricing_plan_id":"cebpf4jnsgd1na2vs0mg"},{"bike_id":"fa40f091-6067-48f8-a967-aeb74b2ceea5","system_id":"levelo_inurba_marseille","lat":43.28715,"lon":5.37936,"is_reserved":false,"is_disabled":false,"rental_uris":{"android":"levelo://app?vid=fa40f091-6067-48f8-a967-aeb74b2ceea5","ios":"levelo://app?vid=fa40f091-6067-48f8-a967-aeb74b2ceea5"},"vehicle_type_id":"4","last_reported":1730708017,"current_range_meters":32800,"station_id":"ce4bh9p2rcd13ifvqec0","pricing_plan_id":"cebpf4jnsgd1na2vs0mg"},{"bike_id":"496d1592-f444-4219-9dc2-55373938e639","system_id":"levelo_inurba_marseille","lat":43.28149,"lon":5.42627,"is_reserved":false,"is_disabled":false,"rental_uris":{"android":"levelo://app?vid=496d1592-f444-4219-9dc2-55373938e639","ios":"levelo://app?vid=496d1592-f444-4219-9dc2-55373938e639"},"vehicle_type_id":"4","last_reported":1730708017,"current_range_meters":36000,"station_id":"ce4bhnh2rcd13ifvqgug","pricing_plan_id":"cebpf4jnsgd1na2vs0mg"},{"bike_id":"a00d593c-4c7a-4d12-adbe-01c899ca408a","system_id":"levelo_inurba_marseille","lat":43.27904,"lon":5.38019,"is_reserved":false,"is_disabled":false,"rental_uris":{"android":"levelo://app?vid=a00d593c-4c7a-4d12-adbe-01c899ca408a","ios":"levelo://app?vid=a00d593c-4c7a-4d12-adbe-01c899ca408a"},"vehicle_type_id":"4","last_reported":1730708017,"current_range_meters":36800,"station_id":"ce4bhf92rcd13ifvqf50","pricing_plan_id":"cebpf4jnsgd1na2vs0mg"},{"bike_id":"14734694-f4cd-47ba-b6f6-80124c3f9e30","system_id":"levelo_inurba_marseille","lat":43.31215,"lon":5.3685,"is_reserved":false,"is_disabled":false,"rental_uris":{"android":"levelo://app?vid=14734694-f4cd-47ba-b6f6-80124c3f9e30","ios":"levelo://app?vid=14734694-f4cd-47ba-b6f6-80124c3f9e30"},"vehicle_type_id":"4","last_reported":1730708017,"current_range_meters":22400,"station_id":"ce4bgl92rcd13ifvqbq0","pricing_plan_id":"cebpf4jnsgd1na2vs0mg"},{"bike_id":"9dc3374b-0b85-4a8b-88a8-db8ad8f687c8","system_id":"levelo_inurba_marseille","lat":43.240787,"lon":5.377397,"is_reserved":false,"is_disabled":false,"rental_uris":{"android":"levelo://app?vid=9dc3374b-0b85-4a8b-88a8-db8ad8f687c8","ios":"levelo://app?vid=9dc3374b-0b85-4a8b-88a8-db8ad8f687c8"},"vehicle_type_id":"4","last_reported":1730708017,"current_range_meters":12000,"station_id":"ce4bhnp2rcd13ifvqgvg","pricing_plan_id":"cebpf4jnsgd1na2vs0mg"},{"bike_id":"08c559bc-c31a-45d3-ae9e-2ae7901b2067","system_id":"levelo_inurba_marseille","lat":43.23149,"lon":5.43718,"is_reserved":false,"is_disabled":false,"rental_uris":{"android":"levelo://app?vid=08c559bc-c31a-45d3-ae9e-2ae7901b2067","ios":"levelo://app?vid=08c559bc-c31a-45d3-ae9e-2ae7901b2067"},"vehicle_type_id":"4","last_reported":1730708017,"current_range_meters":5600,"station_id":"ce4bhmp2rcd13ifvqgog","pricing_plan_id":"cebpf4jnsgd1na2vs0mg"},{"bike_id":"ef91460b-fafc-46be-9d84-f66d7fe91567","system_id":"levelo_inurba_marseille","lat":43.24071,"lon":5.37759,"is_reserved":false,"is_disabled":false,"rental_uris":{"android":"levelo://app?vid=ef91460b-fafc-46be-9d84-f66d7fe91567","ios":"levelo://app?vid=ef91460b-fafc-46be-9d84-f66d7fe91567"},"vehicle_type_id":"4","last_reported":1730708017,"current_range_meters":30400,"station_id":"ce4bhnp2rcd13ifvqgvg","pricing_plan_id":"cebpf4jnsgd1na2vs0mg"},{"bike_id":"c6e847b9-0da7-4220-baaf-b696661d2f92","system_id":"levelo_inurba_marseille","lat":43.30152,"lon":5.37427,"is_reserved":false,"is_disabled":false,"rental_uris":{"android":"levelo://app?vid=c6e847b9-0da7-4220-baaf-b696661d2f92","ios":"levelo://app?vid=c6e847b9-0da7-4220-baaf-b696661d2f92"},"vehicle_type_id":"4","last_reported":1730708017,"current_range_meters":20400,"station_id":"ce4bgs92rcd13ifvqcc0","pricing_plan_id":"cebpf4jnsgd1na2vs0mg"},{"bike_id":"2c35fa29-d810-49ef-8c79-0fc489605a8b","system_id":"levelo_inurba_marseille","lat":43.30947,"lon":5.39054,"is_reserved":false,"is_disabled":false,"rental_uris":{"android":"levelo://app?vid=2c35fa29-d810-49ef-8c79-0fc489605a8b","ios":"levelo://app?vid=2c35fa29-d810-49ef-8c79-0fc489605a8b"},"vehicle_type_id":"4","last_reported":1730708017,"current_range_meters":20400,"station_id":"ce4bgup2rcd13ifvqco0","pricing_plan_id":"cebpf4jnsgd1na2vs0mg"},{"bike_id":"b922572a-dcbd-4d6d-933a-e448369bf48e","system_id":"levelo_inurba_marseille","lat":43.289124,"lon":5.362601,"is_reserved":false,"is_disabled":false,"rental_uris":{"android":"levelo://app?vid=b922572a-dcbd-4d6d-933a-e448369bf48e","ios":"levelo://app?vid=b922572a-dcbd-4d6d-933a-e448369bf48e"},"vehicle_type_id":"4","last_reported":1730708017,"current_range_meters":33200,"station_id":"ce4bhc92rcd13ifvqetg","pricing_plan_id":"cebpf4jnsgd1na2vs0mg"},{"bike_id":"12e2a17d-b267-46ea-b046-7d399d7c3544","system_id":"levelo_inurba_marseille","lat":43.3373,"lon":5.39183,"is_reserved":false,"is_disabled":false,"rental_uris":{"android":"levelo://app?vid=12e2a17d-b267-46ea-b046-7d399d7c3544","ios":"levelo://app?vid=12e2a17d-b267-46ea-b046-7d399d7c3544"},"vehicle_type_id":"4","last_reported":1730708017,"current_range_meters":38800,"station_id":"ce4bhr92rcd13ifvqhsg","pricing_plan_id":"cebpf4jnsgd1na2vs0mg"},{"bike_id":"5f11e1de-0ae4-4a6d-a88d-5b6cb3757ed2","system_id":"levelo_inurba_marseille","lat":43.29358,"lon":5.37842,"is_reserved":false,"is_disabled":false,"rental_uris":{"android":"levelo://app?vid=5f11e1de-0ae4-4a6d-a88d-5b6cb3757ed2","ios":"levelo://app?vid=5f11e1de-0ae4-4a6d-a88d-5b6cb3757ed2"},"vehicle_type_id":"4","last_reported":1730708017,"current_range_meters":30400,"station_id":"ce4bgjh2rcd13ifvqbf0","pricing_plan_id":"cebpf4jnsgd1na2vs0mg"},{"bike_id":"96cb9672-a65d-439e-8932-52343c4ad002","system_id":"levelo_inurba_marseille","lat":43.279572,"lon":5.407893,"is_reserved":false,"is_disabled":false,"rental_uris":{"android":"levelo://app?vid=96cb9672-a65d-439e-8932-52343c4ad002","ios":"levelo://app?vid=96cb9672-a65d-439e-8932-52343c4ad002"},"vehicle_type_id":"4","last_reported":1730708017,"current_range_meters":32000,"station_id":"ce4bhnh2rcd13ifvqgtg","pricing_plan_id":"cebpf4jnsgd1na2vs0mg"},{"bike_id":"3a38eb60-07fa-498b-8680-f7a2deecf1cc","system_id":"levelo_inurba_marseille","lat":43.27174,"lon":5.40989,"is_reserved":false,"is_disabled":false,"rental_uris":{"android":"levelo://app?vid=3a38eb60-07fa-498b-8680-f7a2deecf1cc","ios":"levelo://app?vid=3a38eb60-07fa-498b-8680-f7a2deecf1cc"},"vehicle_type_id":"4","last_reported":1730708017,"current_range_meters":28400,"station_id":"ce4bhl12rcd13ifvqgf0","pricing_plan_id":"cebpf4jnsgd1na2vs0mg"},{"bike_id":"b68d6422-f1ad-46b9-b257-35e69ef59c6c","system_id":"levelo_inurba_marseille","lat":43.30904,"lon":5.36849,"is_reserved":false,"is_disabled":false,"rental_uris":{"android":"levelo://app?vid=b68d6422-f1ad-46b9-b257-35e69ef59c6c","ios":"levelo://app?vid=b68d6422-f1ad-46b9-b257-35e69ef59c6c"},"vehicle_type_id":"4","last_reported":1730708017,"current_range_meters":20000,"station_id":"ce4bgn92rcd13ifvqbvg","pricing_plan_id":"cebpf4jnsgd1na2vs0mg"},{"bike_id":"d4472d20-9c4b-4c70-ad00-3a005519a429","system_id":"levelo_inurba_marseille","lat":43.35385,"lon":5.35726,"is_reserved":false,"is_disabled":false,"rental_uris":{"android":"levelo://app?vid=d4472d20-9c4b-4c70-ad00-3a005519a429","ios":"levelo://app?vid=d4472d20-9c4b-4c70-ad00-3a005519a429"},"vehicle_type_id":"4","last_reported":1730708017,"current_range_meters":10000,"station_id":"","pricing_plan_id":"cebpf4jnsgd1na2vs0mg"},{"bike_id":"4bd01789-c771-47ac-86c8-73b3d5706e40","system_id":"levelo_inurba_marseille","lat":43.25934,"lon":5.40909,"is_reserved":false,"is_disabled":false,"rental_uris":{"android":"levelo://app?vid=4bd01789-c771-47ac-86c8-73b3d5706e40","ios":"levelo://app?vid=4bd01789-c771-47ac-86c8-73b3d5706e40"},"vehicle_type_id":"4","last_reported":1730708017,"current_range_meters":32800,"station_id":"ce4bhm92rcd13ifvqglg","pricing_plan_id":"cebpf4jnsgd1na2vs0mg"},{"bike_id":"912e0a3f-207a-4c5b-b2b7-675e07ddaafd","system_id":"levelo_inurba_marseille","lat":43.30553,"lon":5.36532,"is_reserved":false,"is_disabled":false,"rental_uris":{"android":"levelo://app?vid=912e0a3f-207a-4c5b-b2b7-675e07ddaafd","ios":"levelo://app?vid=912e0a3f-207a-4c5b-b2b7-675e07ddaafd"},"vehicle_type_id":"4","last_reported":1730708017,"current_range_meters":38400,"station_id":"ce4bgs12rcd13ifvqcag","pricing_plan_id":"cebpf4jnsgd1na2vs0mg"},{"bike_id":"f8833f7b-49c8-440c-b671-beb72799bdec","system_id":"levelo_inurba_marseille","lat":43.24979,"lon":5.37507,"is_reserved":false,"is_disabled":false,"rental_uris":{"android":"levelo://app?vid=f8833f7b-49c8-440c-b671-beb72799bdec","ios":"levelo://app?vid=f8833f7b-49c8-440c-b671-beb72799bdec"},"vehicle_type_id":"4","last_reported":1730708017,"current_range_meters":27600,"station_id":"","pricing_plan_id":"cebpf4jnsgd1na2vs0mg"},{"bike_id":"84f1db65-2ddd-4a81-bd8c-ae36a6c13b73","system_id":"levelo_inurba_marseille","lat":43.29038,"lon":5.39961,"is_reserved":false,"is_disabled":false,"rental_uris":{"android":"levelo://app?vid=84f1db65-2ddd-4a81-bd8c-ae36a6c13b73","ios":"levelo://app?vid=84f1db65-2ddd-4a81-bd8c-ae36a6c13b73"},"vehicle_type_id":"4","last_reported":1730708017,"current_range_meters":36800,"station_id":"ce4bh392rcd13ifvqdm0","pricing_plan_id":"cebpf4jnsgd1na2vs0mg"},{"bike_id":"2fba5a19-cee8-433f-8d6f-f3e474f37387","system_id":"levelo_inurba_marseille","lat":43.31336,"lon":5.36719,"is_reserved":false,"is_disabled":false,"rental_uris":{"android":"levelo://app?vid=2fba5a19-cee8-433f-8d6f-f3e474f37387","ios":"levelo://app?vid=2fba5a19-cee8-433f-8d6f-f3e474f37387"},"vehicle_type_id":"4","last_reported":1730708017,"current_range_meters":34000,"station_id":"ce4bgr92rcd13ifvqc6g","pricing_plan_id":"cebpf4jnsgd1na2vs0mg"},{"bike_id":"7dbc5c61-122b-45ec-b9fb-9274fc54d230","system_id":"levelo_inurba_marseille","lat":43.32538,"lon":5.41429,"is_reserved":false,"is_disabled":false,"rental_uris":{"android":"levelo://app?vid=7dbc5c61-122b-45ec-b9fb-9274fc54d230","ios":"levelo://app?vid=7dbc5c61-122b-45ec-b9fb-9274fc54d230"},"vehicle_type_id":"4","last_reported":1730708017,"current_range_meters":25600,"station_id":"ce4bhq12rcd13ifvqhhg","pricing_plan_id":"cebpf4jnsgd1na2vs0mg"},{"bike_id":"6e67e567-0bf8-4cc4-ac98-083e3e37e4fa","system_id":"levelo_inurba_marseille","lat":43.29037,"lon":5.39975,"is_reserved":false,"is_disabled":false,"rental_uris":{"android":"levelo://app?vid=6e67e567-0bf8-4cc4-ac98-083e3e37e4fa","ios":"levelo://app?vid=6e67e567-0bf8-4cc4-ac98-083e3e37e4fa"},"vehicle_type_id":"4","last_reported":1730708017,"current_range_meters":29600,"station_id":"ce4bh392rcd13ifvqdm0","pricing_plan_id":"cebpf4jnsgd1na2vs0mg"},{"bike_id":"98c11371-ec47-468c-8c3d-1f20f9e8bc05","system_id":"levelo_inurba_marseille","lat":43.24074,"lon":5.37759,"is_reserved":false,"is_disabled":false,"rental_uris":{"android":"levelo://app?vid=98c11371-ec47-468c-8c3d-1f20f9e8bc05","ios":"levelo://app?vid=98c11371-ec47-468c-8c3d-1f20f9e8bc05"},"vehicle_type_id":"4","last_reported":1730708017,"current_range_meters":22800,"station_id":"ce4bhnp2rcd13ifvqgvg","pricing_plan_id":"cebpf4jnsgd1na2vs0mg"},{"bike_id":"0c3476a1-d653-47e9-a6e4-b92f4c179e0c","system_id":"levelo_inurba_marseille","lat":43.27492,"lon":5.42455,"is_reserved":false,"is_disabled":false,"rental_uris":{"android":"levelo://app?vid=0c3476a1-d653-47e9-a6e4-b92f4c179e0c","ios":"levelo://app?vid=0c3476a1-d653-47e9-a6e4-b92f4c179e0c"},"vehicle_type_id":"4","last_reported":1730708017,"current_range_meters":30000,"station_id":"ce4bhn92rcd13ifvqgrg","pricing_plan_id":"cebpf4jnsgd1na2vs0mg"},{"bike_id":"3ec01b76-8173-49ce-9314-b90617de1551","system_id":"levelo_inurba_marseille","lat":43.25935,"lon":5.40906,"is_reserved":false,"is_disabled":false,"rental_uris":{"android":"levelo://app?vid=3ec01b76-8173-49ce-9314-b90617de1551","ios":"levelo://app?vid=3ec01b76-8173-49ce-9314-b90617de1551"},"vehicle_type_id":"4","last_reported":1730708017,"current_range_meters":33200,"station_id":"ce4bhm92rcd13ifvqglg","pricing_plan_id":"cebpf4jnsgd1na2vs0mg"},{"bike_id":"84fdc33d-bab5-43b6-92e5-bcf53cd60468","system_id":"levelo_inurba_marseille","lat":43.30459,"lon":5.37903,"is_reserved":false,"is_disabled":false,"rental_uris":{"android":"levelo://app?vid=84fdc33d-bab5-43b6-92e5-bcf53cd60468","ios":"levelo://app?vid=84fdc33d-bab5-43b6-92e5-bcf53cd60468"},"vehicle_type_id":"4","last_reported":1730708017,"current_range_meters":38000,"station_id":"ce4bgup2rcd13ifvqcn0","pricing_plan_id":"cebpf4jnsgd1na2vs0mg"},{"bike_id":"97780d87-9749-4a24-ad8d-29ecd93e9d7e","system_id":"levelo_inurba_marseille","lat":43.29279,"lon":5.40124,"is_reserved":false,"is_disabled":false,"rental_uris":{"android":"levelo://app?vid=97780d87-9749-4a24-ad8d-29ecd93e9d7e","ios":"levelo://app?vid=97780d87-9749-4a24-ad8d-29ecd93e9d7e"},"vehicle_type_id":"4","last_reported":1730708017,"current_range_meters":34000,"station_id":"ce4bh312rcd13ifvqdk0","pricing_plan_id":"cebpf4jnsgd1na2vs0mg"},{"bike_id":"94c8aa08-abc9-45cb-b45a-ab6494a06b08","system_id":"levelo_inurba_marseille","lat":43.30552,"lon":5.36533,"is_reserved":false,"is_disabled":false,"rental_uris":{"android":"levelo://app?vid=94c8aa08-abc9-45cb-b45a-ab6494a06b08","ios":"levelo://app?vid=94c8aa08-abc9-45cb-b45a-ab6494a06b08"},"vehicle_type_id":"4","last_reported":1730708017,"current_range_meters":26800,"station_id":"ce4bgs12rcd13ifvqcag","pricing_plan_id":"cebpf4jnsgd1na2vs0mg"},{"bike_id":"047c2de7-07cc-42b9-a607-ec4d58ef9aa4","system_id":"levelo_inurba_marseille","lat":43.28317,"lon":5.40574,"is_reserved":false,"is_disabled":false,"rental_uris":{"android":"levelo://app?vid=047c2de7-07cc-42b9-a607-ec4d58ef9aa4","ios":"levelo://app?vid=047c2de7-07cc-42b9-a607-ec4d58ef9aa4"},"vehicle_type_id":"4","last_reported":1730708017,"current_range_meters":7200,"station_id":"","pricing_plan_id":"cebpf4jnsgd1na2vs0mg"},{"bike_id":"1db175d3-3ea2-4883-b679-33db78b42664","system_id":"levelo_inurba_marseille","lat":43.27063,"lon":5.40258,"is_reserved":false,"is_disabled":false,"rental_uris":{"android":"levelo://app?vid=1db175d3-3ea2-4883-b679-33db78b42664","ios":"levelo://app?vid=1db175d3-3ea2-4883-b679-33db78b42664"},"vehicle_type_id":"4","last_reported":1730708017,"current_range_meters":30800,"station_id":"ce4bhk92rcd13ifvqgc0","pricing_plan_id":"cebpf4jnsgd1na2vs0mg"},{"bike_id":"7cce7bbd-16b2-4bbd-b1ae-8ba36e7fc668","system_id":"levelo_inurba_marseille","lat":43.292014,"lon":5.373133,"is_reserved":false,"is_disabled":false,"rental_uris":{"android":"levelo://app?vid=7cce7bbd-16b2-4bbd-b1ae-8ba36e7fc668","ios":"levelo://app?vid=7cce7bbd-16b2-4bbd-b1ae-8ba36e7fc668"},"vehicle_type_id":"4","last_reported":1730708017,"current_range_meters":30800,"station_id":"ce4bha92rcd13ifvqeh0","pricing_plan_id":"cebpf4jnsgd1na2vs0mg"},{"bike_id":"a3fae01f-28f3-43fc-93b6-516371068c6a","system_id":"levelo_inurba_marseille","lat":43.28468,"lon":5.38419,"is_reserved":false,"is_disabled":false,"rental_uris":{"android":"levelo://app?vid=a3fae01f-28f3-43fc-93b6-516371068c6a","ios":"levelo://app?vid=a3fae01f-28f3-43fc-93b6-516371068c6a"},"vehicle_type_id":"4","last_reported":1730708017,"current_range_meters":12400,"station_id":"ce4bh512rcd13ifvqe3g","pricing_plan_id":"cebpf4jnsgd1na2vs0mg"},{"bike_id":"3b1cd211-18fd-4792-943e-5d9f84e46557","system_id":"levelo_inurba_marseille","lat":43.27322,"lon":5.39075,"is_reserved":false,"is_disabled":false,"rental_uris":{"android":"levelo://app?vid=3b1cd211-18fd-4792-943e-5d9f84e46557","ios":"levelo://app?vid=3b1cd211-18fd-4792-943e-5d9f84e46557"},"vehicle_type_id":"4","last_reported":1730708017,"current_range_meters":31200,"station_id":"ce4bhgp2rcd13ifvqfe0","pricing_plan_id":"cebpf4jnsgd1na2vs0mg"},{"bike_id":"d998a56d-74bc-44a3-a2a1-5119a7e357f9","system_id":"levelo_inurba_marseille","lat":43.28971,"lon":5.3783,"is_reserved":false,"is_disabled":false,"rental_uris":{"android":"levelo://app?vid=d998a56d-74bc-44a3-a2a1-5119a7e357f9","ios":"levelo://app?vid=d998a56d-74bc-44a3-a2a1-5119a7e357f9"},"vehicle_type_id":"4","last_reported":1730708017,"current_range_meters":31200,"station_id":"ce4bh9p2rcd13ifvqed0","pricing_plan_id":"cebpf4jnsgd1na2vs0mg"},{"bike_id":"c35b2f04-6048-4d97-b02d-024509d30df9","system_id":"levelo_inurba_marseille","lat":43.29294,"lon":5.37461,"is_reserved":false,"is_disabled":false,"rental_uris":{"android":"levelo://app?vid=c35b2f04-6048-4d97-b02d-024509d30df9","ios":"levelo://app?vid=c35b2f04-6048-4d97-b02d-024509d30df9"},"vehicle_type_id":"4","last_reported":1730708017,"current_range_meters":5600,"station_id":"ce4bgi12rcd13ifvqb70","pricing_plan_id":"cebpf4jnsgd1na2vs0mg"},{"bike_id":"84b7f187-12ce-4284-954d-a6f3b2df66f2","system_id":"levelo_inurba_marseille","lat":43.27993,"lon":5.41662,"is_reserved":false,"is_disabled":false,"rental_uris":{"android":"levelo://app?vid=84b7f187-12ce-4284-954d-a6f3b2df66f2","ios":"levelo://app?vid=84b7f187-12ce-4284-954d-a6f3b2df66f2"},"vehicle_type_id":"4","last_reported":1730708017,"current_range_meters":36800,"station_id":"ce4bho12rcd13ifvqh1g","pricing_plan_id":"cebpf4jnsgd1na2vs0mg"},{"bike_id":"7aad5d6f-422f-478a-abc6-e20286c98efd","system_id":"levelo_inurba_marseille","lat":43.29588,"lon":5.37521,"is_reserved":false,"is_disabled":false,"rental_uris":{"android":"levelo://app?vid=7aad5d6f-422f-478a-abc6-e20286c98efd","ios":"levelo://app?vid=7aad5d6f-422f-478a-abc6-e20286c98efd"},"vehicle_type_id":"4","last_reported":1730708017,"current_range_meters":30400,"station_id":"ce4bgh92rcd13ifvqb50","pricing_plan_id":"cebpf4jnsgd1na2vs0mg"},{"bike_id":"52c87382-fa2b-4b96-89a5-f73605f11272","system_id":"levelo_inurba_marseille","lat":43.2384,"lon":5.38952,"is_reserved":false,"is_disabled":false,"rental_uris":{"android":"levelo://app?vid=52c87382-fa2b-4b96-89a5-f73605f11272","ios":"levelo://app?vid=52c87382-fa2b-4b96-89a5-f73605f11272"},"vehicle_type_id":"4","last_reported":1730708017,"current_range_meters":23200,"station_id":"","pricing_plan_id":"cebpf4jnsgd1na2vs0mg"},{"bike_id":"ba5dbdeb-fc6a-4b1e-966f-6d742c9f71e5","system_id":"levelo_inurba_marseille","lat":43.28716,"lon":5.37926,"is_reserved":false,"is_disabled":false,"rental_uris":{"android":"levelo://app?vid=ba5dbdeb-fc6a-4b1e-966f-6d742c9f71e5","ios":"levelo://app?vid=ba5dbdeb-fc6a-4b1e-966f-6d742c9f71e5"},"vehicle_type_id":"4","last_reported":1730708017,"current_range_meters":34000,"station_id":"ce4bh9p2rcd13ifvqec0","pricing_plan_id":"cebpf4jnsgd1na2vs0mg"},{"bike_id":"a1637a4b-5969-42e5-b096-5a17078386cb","system_id":"levelo_inurba_marseille","lat":43.31346,"lon":5.36719,"is_reserved":false,"is_disabled":false,"rental_uris":{"android":"levelo://app?vid=a1637a4b-5969-42e5-b096-5a17078386cb","ios":"levelo://app?vid=a1637a4b-5969-42e5-b096-5a17078386cb"},"vehicle_type_id":"4","last_reported":1730708017,"current_range_meters":11600,"station_id":"ce4bgr92rcd13ifvqc6g","pricing_plan_id":"cebpf4jnsgd1na2vs0mg"},{"bike_id":"d9a1fa31-947a-4b97-8e33-aa5c2150e4b5","system_id":"levelo_inurba_marseille","lat":43.33609,"lon":5.41029,"is_reserved":false,"is_disabled":false,"rental_uris":{"android":"levelo://app?vid=d9a1fa31-947a-4b97-8e33-aa5c2150e4b5","ios":"levelo://app?vid=d9a1fa31-947a-4b97-8e33-aa5c2150e4b5"},"vehicle_type_id":"4","last_reported":1730708017,"current_range_meters":14000,"station_id":"ce4bhqh2rcd13ifvqhmg","pricing_plan_id":"cebpf4jnsgd1na2vs0mg"},{"bike_id":"5908bc81-a7f9-48ff-a0cb-2e9155342915","system_id":"levelo_inurba_marseille","lat":43.31064,"lon":5.38349,"is_reserved":false,"is_disabled":false,"rental_uris":{"android":"levelo://app?vid=5908bc81-a7f9-48ff-a0cb-2e9155342915","ios":"levelo://app?vid=5908bc81-a7f9-48ff-a0cb-2e9155342915"},"vehicle_type_id":"4","last_reported":1730708017,"current_range_meters":25200,"station_id":"ce4bgv92rcd13ifvqcr0","pricing_plan_id":"cebpf4jnsgd1na2vs0mg"},{"bike_id":"4adb7e65-e18e-4ef1-be00-3ea3c7f6dd44","system_id":"levelo_inurba_marseille","lat":43.24084,"lon":5.37738,"is_reserved":false,"is_disabled":false,"rental_uris":{"android":"levelo://app?vid=4adb7e65-e18e-4ef1-be00-3ea3c7f6dd44","ios":"levelo://app?vid=4adb7e65-e18e-4ef1-be00-3ea3c7f6dd44"},"vehicle_type_id":"4","last_reported":1730708017,"current_range_meters":28000,"station_id":"ce4bhnp2rcd13ifvqgvg","pricing_plan_id":"cebpf4jnsgd1na2vs0mg"},{"bike_id":"b08f2af3-d718-4f31-aabc-ad15dfa63570","system_id":"levelo_inurba_marseille","lat":43.296996,"lon":5.36605,"is_reserved":false,"is_disabled":false,"rental_uris":{"android":"levelo://app?vid=b08f2af3-d718-4f31-aabc-ad15dfa63570","ios":"levelo://app?vid=b08f2af3-d718-4f31-aabc-ad15dfa63570"},"vehicle_type_id":"4","last_reported":1730708017,"current_range_meters":29600,"station_id":"","pricing_plan_id":"cebpf4jnsgd1na2vs0mg"},{"bike_id":"739c9dca-9415-4b03-859b-1606e5caa095","system_id":"levelo_inurba_marseille","lat":43.34138,"lon":5.40904,"is_reserved":false,"is_disabled":false,"rental_uris":{"android":"levelo://app?vid=739c9dca-9415-4b03-859b-1606e5caa095","ios":"levelo://app?vid=739c9dca-9415-4b03-859b-1606e5caa095"},"vehicle_type_id":"4","last_reported":1730708017,"current_range_meters":39200,"station_id":"ce4bhqh2rcd13ifvqhlg","pricing_plan_id":"cebpf4jnsgd1na2vs0mg"},{"bike_id":"ee3dccf9-22bf-4760-8927-68d482635c84","system_id":"levelo_inurba_marseille","lat":43.30541,"lon":5.36527,"is_reserved":false,"is_disabled":false,"rental_uris":{"android":"levelo://app?vid=ee3dccf9-22bf-4760-8927-68d482635c84","ios":"levelo://app?vid=ee3dccf9-22bf-4760-8927-68d482635c84"},"vehicle_type_id":"4","last_reported":1730708017,"current_range_meters":36800,"station_id":"ce4bgs12rcd13ifvqcag","pricing_plan_id":"cebpf4jnsgd1na2vs0mg"},{"bike_id":"334921d9-67b8-436c-9eed-d81ce343c15e","system_id":"levelo_inurba_marseille","lat":43.30464,"lon":5.37914,"is_reserved":false,"is_disabled":false,"rental_uris":{"android":"levelo://app?vid=334921d9-67b8-436c-9eed-d81ce343c15e","ios":"levelo://app?vid=334921d9-67b8-436c-9eed-d81ce343c15e"},"vehicle_type_id":"4","last_reported":1730708017,"current_range_meters":26800,"station_id":"ce4bgup2rcd13ifvqcn0","pricing_plan_id":"cebpf4jnsgd1na2vs0mg"},{"bike_id":"14315235-0d29-4461-ad28-0445eaa81a62","system_id":"levelo_inurba_marseille","lat":43.30463,"lon":5.37898,"is_reserved":false,"is_disabled":false,"rental_uris":{"android":"levelo://app?vid=14315235-0d29-4461-ad28-0445eaa81a62","ios":"levelo://app?vid=14315235-0d29-4461-ad28-0445eaa81a62"},"vehicle_type_id":"4","last_reported":1730708017,"current_range_meters":33600,"station_id":"ce4bgup2rcd13ifvqcn0","pricing_plan_id":"cebpf4jnsgd1na2vs0mg"},{"bike_id":"1b80601b-8be3-4b0b-bcc4-eebb89de1629","system_id":"levelo_inurba_marseille","lat":43.25828,"lon":5.3942,"is_reserved":false,"is_disabled":false,"rental_uris":{"android":"levelo://app?vid=1b80601b-8be3-4b0b-bcc4-eebb89de1629","ios":"levelo://app?vid=1b80601b-8be3-4b0b-bcc4-eebb89de1629"},"vehicle_type_id":"4","last_reported":1730708017,"current_range_meters":30400,"station_id":"ce4bhip2rcd13ifvqft0","pricing_plan_id":"cebpf4jnsgd1na2vs0mg"},{"bike_id":"34d79294-ce7d-4438-be71-ec19030923fc","system_id":"levelo_inurba_marseille","lat":43.27495,"lon":5.42452,"is_reserved":false,"is_disabled":false,"rental_uris":{"android":"levelo://app?vid=34d79294-ce7d-4438-be71-ec19030923fc","ios":"levelo://app?vid=34d79294-ce7d-4438-be71-ec19030923fc"},"vehicle_type_id":"4","last_reported":1730708017,"current_range_meters":31200,"station_id":"ce4bhn92rcd13ifvqgrg","pricing_plan_id":"cebpf4jnsgd1na2vs0mg"},{"bike_id":"6f836e05-f9fe-4fad-86cc-e0735bf5d515","system_id":"levelo_inurba_marseille","lat":43.28853,"lon":5.39298,"is_reserved":false,"is_disabled":false,"rental_uris":{"android":"levelo://app?vid=6f836e05-f9fe-4fad-86cc-e0735bf5d515","ios":"levelo://app?vid=6f836e05-f9fe-4fad-86cc-e0735bf5d515"},"vehicle_type_id":"4","last_reported":1730708017,"current_range_meters":2800,"station_id":"ce4bh2p2rcd13ifvqdi0","pricing_plan_id":"cebpf4jnsgd1na2vs0mg"},{"bike_id":"d68eb9cf-4f50-4d96-b665-d665e6bf6219","system_id":"levelo_inurba_marseille","lat":43.28342,"lon":5.381,"is_reserved":false,"is_disabled":false,"rental_uris":{"android":"levelo://app?vid=d68eb9cf-4f50-4d96-b665-d665e6bf6219","ios":"levelo://app?vid=d68eb9cf-4f50-4d96-b665-d665e6bf6219"},"vehicle_type_id":"4","last_reported":1730708017,"current_range_meters":38800,"station_id":"ce4bh412rcd13ifvqdr0","pricing_plan_id":"cebpf4jnsgd1na2vs0mg"},{"bike_id":"354ea9b2-a64f-4f4f-9f9d-c4ca11b49b5b","system_id":"levelo_inurba_marseille","lat":43.29303,"lon":5.37452,"is_reserved":false,"is_disabled":false,"rental_uris":{"android":"levelo://app?vid=354ea9b2-a64f-4f4f-9f9d-c4ca11b49b5b","ios":"levelo://app?vid=354ea9b2-a64f-4f4f-9f9d-c4ca11b49b5b"},"vehicle_type_id":"4","last_reported":1730708017,"current_range_meters":33600,"station_id":"ce4bgi12rcd13ifvqb70","pricing_plan_id":"cebpf4jnsgd1na2vs0mg"},{"bike_id":"c8ff769d-3de8-4ba5-b126-ee1befb95d70","system_id":"levelo_inurba_marseille","lat":43.2386,"lon":5.38979,"is_reserved":false,"is_disabled":false,"rental_uris":{"android":"levelo://app?vid=c8ff769d-3de8-4ba5-b126-ee1befb95d70","ios":"levelo://app?vid=c8ff769d-3de8-4ba5-b126-ee1befb95d70"},"vehicle_type_id":"4","last_reported":1730708017,"current_range_meters":9600,"station_id":"","pricing_plan_id":"cebpf4jnsgd1na2vs0mg"},{"bike_id":"1751e87c-3dd4-4ebc-91e4-1968bdeaacdc","system_id":"levelo_inurba_marseille","lat":43.30549,"lon":5.36689,"is_reserved":false,"is_disabled":false,"rental_uris":{"android":"levelo://app?vid=1751e87c-3dd4-4ebc-91e4-1968bdeaacdc","ios":"levelo://app?vid=1751e87c-3dd4-4ebc-91e4-1968bdeaacdc"},"vehicle_type_id":"4","last_reported":1730708017,"current_range_meters":38800,"station_id":"ce4bgrp2rcd13ifvqc9g","pricing_plan_id":"cebpf4jnsgd1na2vs0mg"},{"bike_id":"beeef4e4-0d45-4dfa-9ccc-aedb2ce31115","system_id":"levelo_inurba_marseille","lat":43.32107,"lon":5.36766,"is_reserved":false,"is_disabled":false,"rental_uris":{"android":"levelo://app?vid=beeef4e4-0d45-4dfa-9ccc-aedb2ce31115","ios":"levelo://app?vid=beeef4e4-0d45-4dfa-9ccc-aedb2ce31115"},"vehicle_type_id":"4","last_reported":1730708017,"current_range_meters":32000,"station_id":"","pricing_plan_id":"cebpf4jnsgd1na2vs0mg"},{"bike_id":"604fc14e-e173-49c9-b0a0-900f88cf7a5d","system_id":"levelo_inurba_marseille","lat":43.259135,"lon":5.409969,"is_reserved":false,"is_disabled":false,"rental_uris":{"android":"levelo://app?vid=604fc14e-e173-49c9-b0a0-900f88cf7a5d","ios":"levelo://app?vid=604fc14e-e173-49c9-b0a0-900f88cf7a5d"},"vehicle_type_id":"4","last_reported":1730708017,"current_range_meters":22800,"station_id":"","pricing_plan_id":"cebpf4jnsgd1na2vs0mg"},{"bike_id":"e057b72f-da22-4f74-b632-7c26ad219f8c","system_id":"levelo_inurba_marseille","lat":43.32287,"lon":5.38266,"is_reserved":false,"is_disabled":false,"rental_uris":{"android":"levelo://app?vid=e057b72f-da22-4f74-b632-7c26ad219f8c","ios":"levelo://app?vid=e057b72f-da22-4f74-b632-7c26ad219f8c"},"vehicle_type_id":"4","last_reported":1730708017,"current_range_meters":38800,"station_id":"ce4bhr12rcd13ifvqhqg","pricing_plan_id":"cebpf4jnsgd1na2vs0mg"},{"bike_id":"dcad223a-dec2-4896-b82b-a08ea958ce75","system_id":"levelo_inurba_marseille","lat":43.30134,"lon":5.37416,"is_reserved":false,"is_disabled":false,"rental_uris":{"android":"levelo://app?vid=dcad223a-dec2-4896-b82b-a08ea958ce75","ios":"levelo://app?vid=dcad223a-dec2-4896-b82b-a08ea958ce75"},"vehicle_type_id":"4","last_reported":1730708017,"current_range_meters":21600,"station_id":"ce4bgs92rcd13ifvqcc0","pricing_plan_id":"cebpf4jnsgd1na2vs0mg"},{"bike_id":"55a5ca7c-6af1-429c-9c94-9fa3bccda2bb","system_id":"levelo_inurba_marseille","lat":43.28344,"lon":5.38098,"is_reserved":false,"is_disabled":false,"rental_uris":{"android":"levelo://app?vid=55a5ca7c-6af1-429c-9c94-9fa3bccda2bb","ios":"levelo://app?vid=55a5ca7c-6af1-429c-9c94-9fa3bccda2bb"},"vehicle_type_id":"4","last_reported":1730708017,"current_range_meters":28000,"station_id":"ce4bh412rcd13ifvqdr0","pricing_plan_id":"cebpf4jnsgd1na2vs0mg"},{"bike_id":"b0d285de-6099-447e-a29c-05a573e401b8","system_id":"levelo_inurba_marseille","lat":43.31342,"lon":5.36724,"is_reserved":false,"is_disabled":false,"rental_uris":{"android":"levelo://app?vid=b0d285de-6099-447e-a29c-05a573e401b8","ios":"levelo://app?vid=b0d285de-6099-447e-a29c-05a573e401b8"},"vehicle_type_id":"4","last_reported":1730708017,"current_range_meters":30000,"station_id":"ce4bgr92rcd13ifvqc6g","pricing_plan_id":"cebpf4jnsgd1na2vs0mg"},{"bike_id":"7a6471d4-fdd8-4e66-9390-e115ddc135ca","system_id":"levelo_inurba_marseille","lat":43.31355,"lon":5.38492,"is_reserved":false,"is_disabled":false,"rental_uris":{"android":"levelo://app?vid=7a6471d4-fdd8-4e66-9390-e115ddc135ca","ios":"levelo://app?vid=7a6471d4-fdd8-4e66-9390-e115ddc135ca"},"vehicle_type_id":"4","last_reported":1730708017,"current_range_meters":25600,"station_id":"ce4bgt92rcd13ifvqcf0","pricing_plan_id":"cebpf4jnsgd1na2vs0mg"},{"bike_id":"905ab8e9-1f53-439c-a3ce-7d736f026964","system_id":"levelo_inurba_marseille","lat":43.30557,"lon":5.36709,"is_reserved":false,"is_disabled":false,"rental_uris":{"android":"levelo://app?vid=905ab8e9-1f53-439c-a3ce-7d736f026964","ios":"levelo://app?vid=905ab8e9-1f53-439c-a3ce-7d736f026964"},"vehicle_type_id":"4","last_reported":1730708017,"current_range_meters":38800,"station_id":"ce4bgrp2rcd13ifvqc9g","pricing_plan_id":"cebpf4jnsgd1na2vs0mg"},{"bike_id":"4783aed0-5b0b-4b8b-9cc3-515df70a4cea","system_id":"levelo_inurba_marseille","lat":43.27493,"lon":5.42455,"is_reserved":false,"is_disabled":false,"rental_uris":{"android":"levelo://app?vid=4783aed0-5b0b-4b8b-9cc3-515df70a4cea","ios":"levelo://app?vid=4783aed0-5b0b-4b8b-9cc3-515df70a4cea"},"vehicle_type_id":"4","last_reported":1730708017,"current_range_meters":30800,"station_id":"ce4bhn92rcd13ifvqgrg","pricing_plan_id":"cebpf4jnsgd1na2vs0mg"},{"bike_id":"e3faf150-8434-4239-94ee-e2bf7028ed1e","system_id":"levelo_inurba_marseille","lat":43.29259,"lon":5.40128,"is_reserved":false,"is_disabled":false,"rental_uris":{"android":"levelo://app?vid=e3faf150-8434-4239-94ee-e2bf7028ed1e","ios":"levelo://app?vid=e3faf150-8434-4239-94ee-e2bf7028ed1e"},"vehicle_type_id":"4","last_reported":1730708017,"current_range_meters":38000,"station_id":"ce4bh312rcd13ifvqdk0","pricing_plan_id":"cebpf4jnsgd1na2vs0mg"},{"bike_id":"7b8934ab-1a6b-4c2d-b5fa-40771c000556","system_id":"levelo_inurba_marseille","lat":43.27069,"lon":5.4227,"is_reserved":false,"is_disabled":false,"rental_uris":{"android":"levelo://app?vid=7b8934ab-1a6b-4c2d-b5fa-40771c000556","ios":"levelo://app?vid=7b8934ab-1a6b-4c2d-b5fa-40771c000556"},"vehicle_type_id":"4","last_reported":1730708017,"current_range_meters":18000,"station_id":"ce4bhk92rcd13ifvqgb0","pricing_plan_id":"cebpf4jnsgd1na2vs0mg"},{"bike_id":"a0ed6699-83e8-4db1-b811-73c5e9f3475e","system_id":"levelo_inurba_marseille","lat":43.27495,"lon":5.42454,"is_reserved":false,"is_disabled":false,"rental_uris":{"android":"levelo://app?vid=a0ed6699-83e8-4db1-b811-73c5e9f3475e","ios":"levelo://app?vid=a0ed6699-83e8-4db1-b811-73c5e9f3475e"},"vehicle_type_id":"4","last_reported":1730708017,"current_range_meters":30800,"station_id":"ce4bhn92rcd13ifvqgrg","pricing_plan_id":"cebpf4jnsgd1na2vs0mg"},{"bike_id":"832b60bc-0d06-41a3-b29c-3ff7d0f476e1","system_id":"levelo_inurba_marseille","lat":43.2319,"lon":5.35558,"is_reserved":false,"is_disabled":false,"rental_uris":{"android":"levelo://app?vid=832b60bc-0d06-41a3-b29c-3ff7d0f476e1","ios":"levelo://app?vid=832b60bc-0d06-41a3-b29c-3ff7d0f476e1"},"vehicle_type_id":"4","last_reported":1730708017,"current_range_meters":37600,"station_id":"ce4bhu92rcd13ifvqi70","pricing_plan_id":"cebpf4jnsgd1na2vs0mg"},{"bike_id":"7580d83e-3d7c-46be-82b1-25f013a114af","system_id":"levelo_inurba_marseille","lat":43.31084,"lon":5.40156,"is_reserved":false,"is_disabled":false,"rental_uris":{"android":"levelo://app?vid=7580d83e-3d7c-46be-82b1-25f013a114af","ios":"levelo://app?vid=7580d83e-3d7c-46be-82b1-25f013a114af"},"vehicle_type_id":"4","last_reported":1730708017,"current_range_meters":22800,"station_id":"","pricing_plan_id":"cebpf4jnsgd1na2vs0mg"},{"bike_id":"cbaca92e-89b7-41f5-baf6-b63056feb6bb","system_id":"levelo_inurba_marseille","lat":43.30465,"lon":5.37906,"is_reserved":false,"is_disabled":false,"rental_uris":{"android":"levelo://app?vid=cbaca92e-89b7-41f5-baf6-b63056feb6bb","ios":"levelo://app?vid=cbaca92e-89b7-41f5-baf6-b63056feb6bb"},"vehicle_type_id":"4","last_reported":1730708017,"current_range_meters":29600,"station_id":"ce4bgup2rcd13ifvqcn0","pricing_plan_id":"cebpf4jnsgd1na2vs0mg"},{"bike_id":"23318a29-34d2-4d10-917f-6b9fe01ef36a","system_id":"levelo_inurba_marseille","lat":43.27485,"lon":5.42449,"is_reserved":false,"is_disabled":false,"rental_uris":{"android":"levelo://app?vid=23318a29-34d2-4d10-917f-6b9fe01ef36a","ios":"levelo://app?vid=23318a29-34d2-4d10-917f-6b9fe01ef36a"},"vehicle_type_id":"4","last_reported":1730708017,"current_range_meters":36400,"station_id":"ce4bhn92rcd13ifvqgrg","pricing_plan_id":"cebpf4jnsgd1na2vs0mg"},{"bike_id":"c36500d8-3c1b-40b4-b412-de69c457b9cb","system_id":"levelo_inurba_marseille","lat":43.28096,"lon":5.41035,"is_reserved":false,"is_disabled":false,"rental_uris":{"android":"levelo://app?vid=c36500d8-3c1b-40b4-b412-de69c457b9cb","ios":"levelo://app?vid=c36500d8-3c1b-40b4-b412-de69c457b9cb"},"vehicle_type_id":"4","last_reported":1730708017,"current_range_meters":6400,"station_id":"","pricing_plan_id":"cebpf4jnsgd1na2vs0mg"},{"bike_id":"37e2ac36-77af-4e7b-b0fd-43420207efda","system_id":"levelo_inurba_marseille","lat":43.28049,"lon":5.41001,"is_reserved":false,"is_disabled":false,"rental_uris":{"android":"levelo://app?vid=37e2ac36-77af-4e7b-b0fd-43420207efda","ios":"levelo://app?vid=37e2ac36-77af-4e7b-b0fd-43420207efda"},"vehicle_type_id":"4","last_reported":1730708017,"current_range_meters":36800,"station_id":"","pricing_plan_id":"cebpf4jnsgd1na2vs0mg"},{"bike_id":"bdf0900a-d0fd-4670-b5cd-531c3b49d4d0","system_id":"levelo_inurba_marseille","lat":43.30459,"lon":5.37895,"is_reserved":false,"is_disabled":false,"rental_uris":{"android":"levelo://app?vid=bdf0900a-d0fd-4670-b5cd-531c3b49d4d0","ios":"levelo://app?vid=bdf0900a-d0fd-4670-b5cd-531c3b49d4d0"},"vehicle_type_id":"4","last_reported":1730708017,"current_range_meters":38000,"station_id":"ce4bgup2rcd13ifvqcn0","pricing_plan_id":"cebpf4jnsgd1na2vs0mg"},{"bike_id":"8fcd5088-0a5e-4a3f-ae5b-756c34741e2b","system_id":"levelo_inurba_marseille","lat":43.24071,"lon":5.37762,"is_reserved":false,"is_disabled":false,"rental_uris":{"android":"levelo://app?vid=8fcd5088-0a5e-4a3f-ae5b-756c34741e2b","ios":"levelo://app?vid=8fcd5088-0a5e-4a3f-ae5b-756c34741e2b"},"vehicle_type_id":"4","last_reported":1730708017,"current_range_meters":10000,"station_id":"ce4bhnp2rcd13ifvqgvg","pricing_plan_id":"cebpf4jnsgd1na2vs0mg"},{"bike_id":"ba0dc76e-39d3-45e2-b06a-88fc2809aa39","system_id":"levelo_inurba_marseille","lat":43.27486,"lon":5.42452,"is_reserved":false,"is_disabled":false,"rental_uris":{"android":"levelo://app?vid=ba0dc76e-39d3-45e2-b06a-88fc2809aa39","ios":"levelo://app?vid=ba0dc76e-39d3-45e2-b06a-88fc2809aa39"},"vehicle_type_id":"4","last_reported":1730708017,"current_range_meters":31200,"station_id":"ce4bhn92rcd13ifvqgrg","pricing_plan_id":"cebpf4jnsgd1na2vs0mg"},{"bike_id":"84826187-31ec-4949-bd9b-654531a44675","system_id":"levelo_inurba_marseille","lat":43.23159,"lon":5.43706,"is_reserved":false,"is_disabled":false,"rental_uris":{"android":"levelo://app?vid=84826187-31ec-4949-bd9b-654531a44675","ios":"levelo://app?vid=84826187-31ec-4949-bd9b-654531a44675"},"vehicle_type_id":"4","last_reported":1730708017,"current_range_meters":26800,"station_id":"ce4bhmp2rcd13ifvqgog","pricing_plan_id":"cebpf4jnsgd1na2vs0mg"},{"bike_id":"0b597ca6-8a05-4580-9840-f0829a5e4450","system_id":"levelo_inurba_marseille","lat":43.26783,"lon":5.39412,"is_reserved":false,"is_disabled":false,"rental_uris":{"android":"levelo://app?vid=0b597ca6-8a05-4580-9840-f0829a5e4450","ios":"levelo://app?vid=0b597ca6-8a05-4580-9840-f0829a5e4450"},"vehicle_type_id":"4","last_reported":1730708017,"current_range_meters":2000,"station_id":"ce4bhh12rcd13ifvqfg0","pricing_plan_id":"cebpf4jnsgd1na2vs0mg"},{"bike_id":"f56338a6-1403-46c7-95a8-b44a0a4caece","system_id":"levelo_inurba_marseille","lat":43.30123,"lon":5.39859,"is_reserved":false,"is_disabled":false,"rental_uris":{"android":"levelo://app?vid=f56338a6-1403-46c7-95a8-b44a0a4caece","ios":"levelo://app?vid=f56338a6-1403-46c7-95a8-b44a0a4caece"},"vehicle_type_id":"4","last_reported":1730708017,"current_range_meters":8400,"station_id":"ce4bh0h2rcd13ifvqd40","pricing_plan_id":"cebpf4jnsgd1na2vs0mg"},{"bike_id":"f096c496-f8db-4185-9b36-b85c627b721a","system_id":"levelo_inurba_marseille","lat":43.33607,"lon":5.41025,"is_reserved":false,"is_disabled":false,"rental_uris":{"android":"levelo://app?vid=f096c496-f8db-4185-9b36-b85c627b721a","ios":"levelo://app?vid=f096c496-f8db-4185-9b36-b85c627b721a"},"vehicle_type_id":"4","last_reported":1730708017,"current_range_meters":9200,"station_id":"ce4bhqh2rcd13ifvqhmg","pricing_plan_id":"cebpf4jnsgd1na2vs0mg"},{"bike_id":"909fd824-d8fe-4d38-b958-5046d8c9169b","system_id":"levelo_inurba_marseille","lat":43.3248,"lon":5.36556,"is_reserved":false,"is_disabled":false,"rental_uris":{"android":"levelo://app?vid=909fd824-d8fe-4d38-b958-5046d8c9169b","ios":"levelo://app?vid=909fd824-d8fe-4d38-b958-5046d8c9169b"},"vehicle_type_id":"4","last_reported":1730708017,"current_range_meters":38800,"station_id":"ce4bhs12rcd13ifvqhvg","pricing_plan_id":"cebpf4jnsgd1na2vs0mg"},{"bike_id":"d74200e6-8722-4834-ae0b-188969c02116","system_id":"levelo_inurba_marseille","lat":43.3044,"lon":5.3889,"is_reserved":false,"is_disabled":false,"rental_uris":{"android":"levelo://app?vid=d74200e6-8722-4834-ae0b-188969c02116","ios":"levelo://app?vid=d74200e6-8722-4834-ae0b-188969c02116"},"vehicle_type_id":"4","last_reported":1730708017,"current_range_meters":38800,"station_id":"ce4bgk12rcd13ifvqbi0","pricing_plan_id":"cebpf4jnsgd1na2vs0mg"},{"bike_id":"a065b95e-3cd6-4f59-8c78-0ea34b86fc65","system_id":"levelo_inurba_marseille","lat":43.27972,"lon":5.38729,"is_reserved":false,"is_disabled":false,"rental_uris":{"android":"levelo://app?vid=a065b95e-3cd6-4f59-8c78-0ea34b86fc65","ios":"levelo://app?vid=a065b95e-3cd6-4f59-8c78-0ea34b86fc65"},"vehicle_type_id":"4","last_reported":1730708017,"current_range_meters":22800,"station_id":"ce4bhg12rcd13ifvqf80","pricing_plan_id":"cebpf4jnsgd1na2vs0mg"},{"bike_id":"189fcf22-bb66-4f86-b251-7af65e539acb","system_id":"levelo_inurba_marseille","lat":43.29273,"lon":5.3685,"is_reserved":false,"is_disabled":false,"rental_uris":{"android":"levelo://app?vid=189fcf22-bb66-4f86-b251-7af65e539acb","ios":"levelo://app?vid=189fcf22-bb66-4f86-b251-7af65e539acb"},"vehicle_type_id":"4","last_reported":1730708017,"current_range_meters":37600,"station_id":"ce4bhbp2rcd13ifvqesg","pricing_plan_id":"cebpf4jnsgd1na2vs0mg"},{"bike_id":"9f0c2b64-86b2-4866-a9ce-e8350d926868","system_id":"levelo_inurba_marseille","lat":43.28349,"lon":5.38101,"is_reserved":false,"is_disabled":false,"rental_uris":{"android":"levelo://app?vid=9f0c2b64-86b2-4866-a9ce-e8350d926868","ios":"levelo://app?vid=9f0c2b64-86b2-4866-a9ce-e8350d926868"},"vehicle_type_id":"4","last_reported":1730708017,"current_range_meters":32400,"station_id":"ce4bh412rcd13ifvqdr0","pricing_plan_id":"cebpf4jnsgd1na2vs0mg"},{"bike_id":"ce04ceb4-6601-472b-956a-1c8ff8f85bca","system_id":"levelo_inurba_marseille","lat":43.30151,"lon":5.38083,"is_reserved":false,"is_disabled":false,"rental_uris":{"android":"levelo://app?vid=ce04ceb4-6601-472b-956a-1c8ff8f85bca","ios":"levelo://app?vid=ce04ceb4-6601-472b-956a-1c8ff8f85bca"},"vehicle_type_id":"4","last_reported":1730708017,"current_range_meters":24000,"station_id":"ce4bgjp2rcd13ifvqbh0","pricing_plan_id":"cebpf4jnsgd1na2vs0mg"},{"bike_id":"8f31e753-c0d2-41d7-8ee6-6bafa8c9e072","system_id":"levelo_inurba_marseille","lat":43.2408,"lon":5.37747,"is_reserved":false,"is_disabled":false,"rental_uris":{"android":"levelo://app?vid=8f31e753-c0d2-41d7-8ee6-6bafa8c9e072","ios":"levelo://app?vid=8f31e753-c0d2-41d7-8ee6-6bafa8c9e072"},"vehicle_type_id":"4","last_reported":1730708017,"current_range_meters":33200,"station_id":"ce4bhnp2rcd13ifvqgvg","pricing_plan_id":"cebpf4jnsgd1na2vs0mg"},{"bike_id":"fe6bb213-b6c3-427e-ad62-fc8549937934","system_id":"levelo_inurba_marseille","lat":43.25942,"lon":5.40893,"is_reserved":false,"is_disabled":false,"rental_uris":{"android":"levelo://app?vid=fe6bb213-b6c3-427e-ad62-fc8549937934","ios":"levelo://app?vid=fe6bb213-b6c3-427e-ad62-fc8549937934"},"vehicle_type_id":"4","last_reported":1730708017,"current_range_meters":23200,"station_id":"ce4bhm92rcd13ifvqglg","pricing_plan_id":"cebpf4jnsgd1na2vs0mg"},{"bike_id":"0b822a5a-4aa2-4de0-a8ec-2319d9f74a11","system_id":"levelo_inurba_marseille","lat":43.304688,"lon":5.379113,"is_reserved":false,"is_disabled":false,"rental_uris":{"android":"levelo://app?vid=0b822a5a-4aa2-4de0-a8ec-2319d9f74a11","ios":"levelo://app?vid=0b822a5a-4aa2-4de0-a8ec-2319d9f74a11"},"vehicle_type_id":"4","last_reported":1730708017,"current_range_meters":30800,"station_id":"ce4bgup2rcd13ifvqcn0","pricing_plan_id":"cebpf4jnsgd1na2vs0mg"},{"bike_id":"b6c9e670-f3a4-44e1-9439-288521edc05e","system_id":"levelo_inurba_marseille","lat":43.26558,"lon":5.3729,"is_reserved":false,"is_disabled":false,"rental_uris":{"android":"levelo://app?vid=b6c9e670-f3a4-44e1-9439-288521edc05e","ios":"levelo://app?vid=b6c9e670-f3a4-44e1-9439-288521edc05e"},"vehicle_type_id":"4","last_reported":1730708017,"current_range_meters":11600,"station_id":"ce4bhg12rcd13ifvqf70","pricing_plan_id":"cebpf4jnsgd1na2vs0mg"},{"bike_id":"5cebc7c7-1425-4012-8ecc-1436e09ba8ae","system_id":"levelo_inurba_marseille","lat":43.3015,"lon":5.37419,"is_reserved":false,"is_disabled":false,"rental_uris":{"android":"levelo://app?vid=5cebc7c7-1425-4012-8ecc-1436e09ba8ae","ios":"levelo://app?vid=5cebc7c7-1425-4012-8ecc-1436e09ba8ae"},"vehicle_type_id":"4","last_reported":1730708017,"current_range_meters":21600,"station_id":"ce4bgs92rcd13ifvqcc0","pricing_plan_id":"cebpf4jnsgd1na2vs0mg"},{"bike_id":"baee8935-462a-45e7-89ea-2647d185d886","system_id":"levelo_inurba_marseille","lat":43.26952,"lon":5.38625,"is_reserved":false,"is_disabled":false,"rental_uris":{"android":"levelo://app?vid=baee8935-462a-45e7-89ea-2647d185d886","ios":"levelo://app?vid=baee8935-462a-45e7-89ea-2647d185d886"},"vehicle_type_id":"4","last_reported":1730708017,"current_range_meters":34000,"station_id":"ce4bhh92rcd13ifvqfh0","pricing_plan_id":"cebpf4jnsgd1na2vs0mg"},{"bike_id":"e54a9e25-ac9f-47a2-b6ce-8e7088772790","system_id":"levelo_inurba_marseille","lat":43.33026,"lon":5.39039,"is_reserved":false,"is_disabled":false,"rental_uris":{"android":"levelo://app?vid=e54a9e25-ac9f-47a2-b6ce-8e7088772790","ios":"levelo://app?vid=e54a9e25-ac9f-47a2-b6ce-8e7088772790"},"vehicle_type_id":"4","last_reported":1730708017,"current_range_meters":9600,"station_id":"ce4bhr92rcd13ifvqhrg","pricing_plan_id":"cebpf4jnsgd1na2vs0mg"},{"bike_id":"20ba62ee-2151-4dc9-8a72-2d3c7b78e768","system_id":"levelo_inurba_marseille","lat":43.2594,"lon":5.40901,"is_reserved":false,"is_disabled":false,"rental_uris":{"android":"levelo://app?vid=20ba62ee-2151-4dc9-8a72-2d3c7b78e768","ios":"levelo://app?vid=20ba62ee-2151-4dc9-8a72-2d3c7b78e768"},"vehicle_type_id":"4","last_reported":1730708017,"current_range_meters":34800,"station_id":"ce4bhm92rcd13ifvqglg","pricing_plan_id":"cebpf4jnsgd1na2vs0mg"},{"bike_id":"fe144177-327f-48aa-98bf-b0d3318680db","system_id":"levelo_inurba_marseille","lat":43.24078,"lon":5.37748,"is_reserved":false,"is_disabled":false,"rental_uris":{"android":"levelo://app?vid=fe144177-327f-48aa-98bf-b0d3318680db","ios":"levelo://app?vid=fe144177-327f-48aa-98bf-b0d3318680db"},"vehicle_type_id":"4","last_reported":1730708017,"current_range_meters":11200,"station_id":"ce4bhnp2rcd13ifvqgvg","pricing_plan_id":"cebpf4jnsgd1na2vs0mg"},{"bike_id":"61864400-2b8e-4568-889d-c79c7cc8f788","system_id":"levelo_inurba_marseille","lat":43.23154,"lon":5.43711,"is_reserved":false,"is_disabled":false,"rental_uris":{"android":"levelo://app?vid=61864400-2b8e-4568-889d-c79c7cc8f788","ios":"levelo://app?vid=61864400-2b8e-4568-889d-c79c7cc8f788"},"vehicle_type_id":"4","last_reported":1730708017,"current_range_meters":9200,"station_id":"ce4bhmp2rcd13ifvqgog","pricing_plan_id":"cebpf4jnsgd1na2vs0mg"},{"bike_id":"adc68074-c1bf-489b-b4fb-7f92cf64c2cc","system_id":"levelo_inurba_marseille","lat":43.2696,"lon":5.3863,"is_reserved":false,"is_disabled":false,"rental_uris":{"android":"levelo://app?vid=adc68074-c1bf-489b-b4fb-7f92cf64c2cc","ios":"levelo://app?vid=adc68074-c1bf-489b-b4fb-7f92cf64c2cc"},"vehicle_type_id":"4","last_reported":1730708017,"current_range_meters":24400,"station_id":"ce4bhh92rcd13ifvqfh0","pricing_plan_id":"cebpf4jnsgd1na2vs0mg"},{"bike_id":"0ffda728-d9bb-4173-a50a-2661304bdef0","system_id":"levelo_inurba_marseille","lat":43.2762,"lon":5.36108,"is_reserved":false,"is_disabled":false,"rental_uris":{"android":"levelo://app?vid=0ffda728-d9bb-4173-a50a-2661304bdef0","ios":"levelo://app?vid=0ffda728-d9bb-4173-a50a-2661304bdef0"},"vehicle_type_id":"4","last_reported":1730708017,"current_range_meters":2800,"station_id":"ce4bgj92rcd13ifvqbe0","pricing_plan_id":"cebpf4jnsgd1na2vs0mg"},{"bike_id":"1b56f3e0-0650-48d0-93de-8403c6c77295","system_id":"levelo_inurba_marseille","lat":43.30469,"lon":5.37887,"is_reserved":false,"is_disabled":false,"rental_uris":{"android":"levelo://app?vid=1b56f3e0-0650-48d0-93de-8403c6c77295","ios":"levelo://app?vid=1b56f3e0-0650-48d0-93de-8403c6c77295"},"vehicle_type_id":"4","last_reported":1730708017,"current_range_meters":16800,"station_id":"ce4bgup2rcd13ifvqcn0","pricing_plan_id":"cebpf4jnsgd1na2vs0mg"},{"bike_id":"7a58136c-3165-4313-8fac-2c364b399752","system_id":"levelo_inurba_marseille","lat":43.33719,"lon":5.39172,"is_reserved":false,"is_disabled":false,"rental_uris":{"android":"levelo://app?vid=7a58136c-3165-4313-8fac-2c364b399752","ios":"levelo://app?vid=7a58136c-3165-4313-8fac-2c364b399752"},"vehicle_type_id":"4","last_reported":1730708017,"current_range_meters":28400,"station_id":"ce4bhr92rcd13ifvqhsg","pricing_plan_id":"cebpf4jnsgd1na2vs0mg"},{"bike_id":"d2d0a015-43a6-4cea-af94-a40e504385fa","system_id":"levelo_inurba_marseille","lat":43.24075,"lon":5.37759,"is_reserved":false,"is_disabled":false,"rental_uris":{"android":"levelo://app?vid=d2d0a015-43a6-4cea-af94-a40e504385fa","ios":"levelo://app?vid=d2d0a015-43a6-4cea-af94-a40e504385fa"},"vehicle_type_id":"4","last_reported":1730708017,"current_range_meters":19200,"station_id":"ce4bhnp2rcd13ifvqgvg","pricing_plan_id":"cebpf4jnsgd1na2vs0mg"},{"bike_id":"20f9361c-368f-4e72-96c2-1d07a8966480","system_id":"levelo_inurba_marseille","lat":43.27484,"lon":5.42447,"is_reserved":false,"is_disabled":false,"rental_uris":{"android":"levelo://app?vid=20f9361c-368f-4e72-96c2-1d07a8966480","ios":"levelo://app?vid=20f9361c-368f-4e72-96c2-1d07a8966480"},"vehicle_type_id":"4","last_reported":1730708017,"current_range_meters":28400,"station_id":"ce4bhn92rcd13ifvqgrg","pricing_plan_id":"cebpf4jnsgd1na2vs0mg"},{"bike_id":"93c75a8f-5cac-4a4f-be7d-374f1440d4d7","system_id":"levelo_inurba_marseille","lat":43.286072,"lon":5.360143,"is_reserved":false,"is_disabled":false,"rental_uris":{"android":"levelo://app?vid=93c75a8f-5cac-4a4f-be7d-374f1440d4d7","ios":"levelo://app?vid=93c75a8f-5cac-4a4f-be7d-374f1440d4d7"},"vehicle_type_id":"4","last_reported":1730708017,"current_range_meters":33200,"station_id":"","pricing_plan_id":"cebpf4jnsgd1na2vs0mg"},{"bike_id":"a3ae4c1b-8ed3-43f0-95b2-9f60ca274476","system_id":"levelo_inurba_marseille","lat":43.32488,"lon":5.36556,"is_reserved":false,"is_disabled":false,"rental_uris":{"android":"levelo://app?vid=a3ae4c1b-8ed3-43f0-95b2-9f60ca274476","ios":"levelo://app?vid=a3ae4c1b-8ed3-43f0-95b2-9f60ca274476"},"vehicle_type_id":"4","last_reported":1730708017,"current_range_meters":39200,"station_id":"ce4bhs12rcd13ifvqhvg","pricing_plan_id":"cebpf4jnsgd1na2vs0mg"},{"bike_id":"ab9173ec-0645-441d-90af-326a5e948990","system_id":"levelo_inurba_marseille","lat":43.28347,"lon":5.38112,"is_reserved":false,"is_disabled":false,"rental_uris":{"android":"levelo://app?vid=ab9173ec-0645-441d-90af-326a5e948990","ios":"levelo://app?vid=ab9173ec-0645-441d-90af-326a5e948990"},"vehicle_type_id":"4","last_reported":1730708017,"current_range_meters":28400,"station_id":"ce4bh412rcd13ifvqdr0","pricing_plan_id":"cebpf4jnsgd1na2vs0mg"},{"bike_id":"77da8c0e-0043-48d9-9bee-c58df7d82bb8","system_id":"levelo_inurba_marseille","lat":43.30529,"lon":5.36691,"is_reserved":false,"is_disabled":false,"rental_uris":{"android":"levelo://app?vid=77da8c0e-0043-48d9-9bee-c58df7d82bb8","ios":"levelo://app?vid=77da8c0e-0043-48d9-9bee-c58df7d82bb8"},"vehicle_type_id":"4","last_reported":1730708017,"current_range_meters":14800,"station_id":"ce4bgrp2rcd13ifvqc9g","pricing_plan_id":"cebpf4jnsgd1na2vs0mg"},{"bike_id":"cf4eb3f6-e263-4365-af01-c27b1f0f289a","system_id":"levelo_inurba_marseille","lat":43.311167,"lon":5.377706,"is_reserved":false,"is_disabled":false,"rental_uris":{"android":"levelo://app?vid=cf4eb3f6-e263-4365-af01-c27b1f0f289a","ios":"levelo://app?vid=cf4eb3f6-e263-4365-af01-c27b1f0f289a"},"vehicle_type_id":"4","last_reported":1730708017,"current_range_meters":38000,"station_id":"ce4bgt12rcd13ifvqce0","pricing_plan_id":"cebpf4jnsgd1na2vs0mg"},{"bike_id":"493d40b9-a581-4129-a3d4-fee20b359c39","system_id":"levelo_inurba_marseille","lat":43.31222,"lon":5.36859,"is_reserved":false,"is_disabled":false,"rental_uris":{"android":"levelo://app?vid=493d40b9-a581-4129-a3d4-fee20b359c39","ios":"levelo://app?vid=493d40b9-a581-4129-a3d4-fee20b359c39"},"vehicle_type_id":"4","last_reported":1730708017,"current_range_meters":32400,"station_id":"ce4bgl92rcd13ifvqbq0","pricing_plan_id":"cebpf4jnsgd1na2vs0mg"},{"bike_id":"d5154aa7-9f6d-4f09-8dd7-076b92df9944","system_id":"levelo_inurba_marseille","lat":43.30952,"lon":5.39026,"is_reserved":false,"is_disabled":false,"rental_uris":{"android":"levelo://app?vid=d5154aa7-9f6d-4f09-8dd7-076b92df9944","ios":"levelo://app?vid=d5154aa7-9f6d-4f09-8dd7-076b92df9944"},"vehicle_type_id":"4","last_reported":1730708017,"current_range_meters":34800,"station_id":"ce4bgup2rcd13ifvqco0","pricing_plan_id":"cebpf4jnsgd1na2vs0mg"},{"bike_id":"ad6b9979-2833-497c-ae59-5afeb88a87ce","system_id":"levelo_inurba_marseille","lat":43.32365,"lon":5.36765,"is_reserved":false,"is_disabled":false,"rental_uris":{"android":"levelo://app?vid=ad6b9979-2833-497c-ae59-5afeb88a87ce","ios":"levelo://app?vid=ad6b9979-2833-497c-ae59-5afeb88a87ce"},"vehicle_type_id":"4","last_reported":1730708017,"current_range_meters":36800,"station_id":"ce4bhsh2rcd13ifvqi2g","pricing_plan_id":"cebpf4jnsgd1na2vs0mg"},{"bike_id":"fa4b79b7-0b68-44fd-a86a-a3d67eed44d0","system_id":"levelo_inurba_marseille","lat":43.33609,"lon":5.41019,"is_reserved":false,"is_disabled":false,"rental_uris":{"android":"levelo://app?vid=fa4b79b7-0b68-44fd-a86a-a3d67eed44d0","ios":"levelo://app?vid=fa4b79b7-0b68-44fd-a86a-a3d67eed44d0"},"vehicle_type_id":"4","last_reported":1730708017,"current_range_meters":30400,"station_id":"ce4bhqh2rcd13ifvqhmg","pricing_plan_id":"cebpf4jnsgd1na2vs0mg"},{"bike_id":"28918ccd-d452-47b4-92c6-d1496eac0112","system_id":"levelo_inurba_marseille","lat":43.33755,"lon":5.37447,"is_reserved":false,"is_disabled":false,"rental_uris":{"android":"levelo://app?vid=28918ccd-d452-47b4-92c6-d1496eac0112","ios":"levelo://app?vid=28918ccd-d452-47b4-92c6-d1496eac0112"},"vehicle_type_id":"4","last_reported":1730708017,"current_range_meters":38400,"station_id":"","pricing_plan_id":"cebpf4jnsgd1na2vs0mg"},{"bike_id":"33071df0-20b9-4ab8-ad94-d29e9a89dac7","system_id":"levelo_inurba_marseille","lat":43.30704,"lon":5.36563,"is_reserved":false,"is_disabled":false,"rental_uris":{"android":"levelo://app?vid=33071df0-20b9-4ab8-ad94-d29e9a89dac7","ios":"levelo://app?vid=33071df0-20b9-4ab8-ad94-d29e9a89dac7"},"vehicle_type_id":"4","last_reported":1730708017,"current_range_meters":38800,"station_id":"ce4bgs12rcd13ifvqcag","pricing_plan_id":"cebpf4jnsgd1na2vs0mg"},{"bike_id":"a7b1441d-2d19-4e46-a196-841ca58e64a6","system_id":"levelo_inurba_marseille","lat":43.29276,"lon":5.36848,"is_reserved":false,"is_disabled":false,"rental_uris":{"android":"levelo://app?vid=a7b1441d-2d19-4e46-a196-841ca58e64a6","ios":"levelo://app?vid=a7b1441d-2d19-4e46-a196-841ca58e64a6"},"vehicle_type_id":"4","last_reported":1730708017,"current_range_meters":36800,"station_id":"ce4bhbp2rcd13ifvqesg","pricing_plan_id":"cebpf4jnsgd1na2vs0mg"},{"bike_id":"d2738cce-314b-4cee-88e4-e667009c47fa","system_id":"levelo_inurba_marseille","lat":43.25936,"lon":5.40902,"is_reserved":false,"is_disabled":false,"rental_uris":{"android":"levelo://app?vid=d2738cce-314b-4cee-88e4-e667009c47fa","ios":"levelo://app?vid=d2738cce-314b-4cee-88e4-e667009c47fa"},"vehicle_type_id":"4","last_reported":1730708017,"current_range_meters":6800,"station_id":"ce4bhm92rcd13ifvqglg","pricing_plan_id":"cebpf4jnsgd1na2vs0mg"},{"bike_id":"428877d8-69fc-463f-973f-8d4d4aadb160","system_id":"levelo_inurba_marseille","lat":43.26556,"lon":5.37288,"is_reserved":false,"is_disabled":false,"rental_uris":{"android":"levelo://app?vid=428877d8-69fc-463f-973f-8d4d4aadb160","ios":"levelo://app?vid=428877d8-69fc-463f-973f-8d4d4aadb160"},"vehicle_type_id":"4","last_reported":1730708017,"current_range_meters":22400,"station_id":"ce4bhg12rcd13ifvqf70","pricing_plan_id":"cebpf4jnsgd1na2vs0mg"},{"bike_id":"526b342d-7738-4356-af8c-b38a08bfca77","system_id":"levelo_inurba_marseille","lat":43.30466,"lon":5.37899,"is_reserved":false,"is_disabled":false,"rental_uris":{"android":"levelo://app?vid=526b342d-7738-4356-af8c-b38a08bfca77","ios":"levelo://app?vid=526b342d-7738-4356-af8c-b38a08bfca77"},"vehicle_type_id":"4","last_reported":1730708017,"current_range_meters":36400,"station_id":"ce4bgup2rcd13ifvqcn0","pricing_plan_id":"cebpf4jnsgd1na2vs0mg"},{"bike_id":"54c1c887-5512-4679-876b-788e3cc728ca","system_id":"levelo_inurba_marseille","lat":43.27484,"lon":5.4245,"is_reserved":false,"is_disabled":false,"rental_uris":{"android":"levelo://app?vid=54c1c887-5512-4679-876b-788e3cc728ca","ios":"levelo://app?vid=54c1c887-5512-4679-876b-788e3cc728ca"},"vehicle_type_id":"4","last_reported":1730708017,"current_range_meters":32000,"station_id":"ce4bhn92rcd13ifvqgrg","pricing_plan_id":"cebpf4jnsgd1na2vs0mg"},{"bike_id":"3ea98146-e7ec-4434-906e-145512b44a69","system_id":"levelo_inurba_marseille","lat":43.30141,"lon":5.3742,"is_reserved":false,"is_disabled":false,"rental_uris":{"android":"levelo://app?vid=3ea98146-e7ec-4434-906e-145512b44a69","ios":"levelo://app?vid=3ea98146-e7ec-4434-906e-145512b44a69"},"vehicle_type_id":"4","last_reported":1730708017,"current_range_meters":36000,"station_id":"ce4bgs92rcd13ifvqcc0","pricing_plan_id":"cebpf4jnsgd1na2vs0mg"},{"bike_id":"22277462-ea58-4946-ba2c-ef08f6cd7659","system_id":"levelo_inurba_marseille","lat":43.2797,"lon":5.4105,"is_reserved":false,"is_disabled":false,"rental_uris":{"android":"levelo://app?vid=22277462-ea58-4946-ba2c-ef08f6cd7659","ios":"levelo://app?vid=22277462-ea58-4946-ba2c-ef08f6cd7659"},"vehicle_type_id":"4","last_reported":1730708017,"current_range_meters":13600,"station_id":"","pricing_plan_id":"cebpf4jnsgd1na2vs0mg"},{"bike_id":"b03f982d-085e-4c1f-96fd-a65252fcc8ed","system_id":"levelo_inurba_marseille","lat":43.30463,"lon":5.3819,"is_reserved":false,"is_disabled":false,"rental_uris":{"android":"levelo://app?vid=b03f982d-085e-4c1f-96fd-a65252fcc8ed","ios":"levelo://app?vid=b03f982d-085e-4c1f-96fd-a65252fcc8ed"},"vehicle_type_id":"4","last_reported":1730708017,"current_range_meters":23200,"station_id":"ce4bgup2rcd13ifvqcn0","pricing_plan_id":"cebpf4jnsgd1na2vs0mg"},{"bike_id":"04fa565f-0f6d-4a6d-bb9b-75d314b37774","system_id":"levelo_inurba_marseille","lat":43.29028,"lon":5.39966,"is_reserved":false,"is_disabled":false,"rental_uris":{"android":"levelo://app?vid=04fa565f-0f6d-4a6d-bb9b-75d314b37774","ios":"levelo://app?vid=04fa565f-0f6d-4a6d-bb9b-75d314b37774"},"vehicle_type_id":"4","last_reported":1730708017,"current_range_meters":36000,"station_id":"ce4bh392rcd13ifvqdm0","pricing_plan_id":"cebpf4jnsgd1na2vs0mg"},{"bike_id":"e4a90c98-0c2d-4ab5-993c-216c1e0970cf","system_id":"levelo_inurba_marseille","lat":43.27205,"lon":5.39187,"is_reserved":false,"is_disabled":false,"rental_uris":{"android":"levelo://app?vid=e4a90c98-0c2d-4ab5-993c-216c1e0970cf","ios":"levelo://app?vid=e4a90c98-0c2d-4ab5-993c-216c1e0970cf"},"vehicle_type_id":"4","last_reported":1730708017,"current_range_meters":24400,"station_id":"ce4bhhp2rcd13ifvqfm0","pricing_plan_id":"cebpf4jnsgd1na2vs0mg"},{"bike_id":"f0cd61b9-242c-4124-b0b8-b9ddbf2e881d","system_id":"levelo_inurba_marseille","lat":43.23184,"lon":5.39971,"is_reserved":false,"is_disabled":false,"rental_uris":{"android":"levelo://app?vid=f0cd61b9-242c-4124-b0b8-b9ddbf2e881d","ios":"levelo://app?vid=f0cd61b9-242c-4124-b0b8-b9ddbf2e881d"},"vehicle_type_id":"4","last_reported":1730708017,"current_range_meters":4400,"station_id":"ce4bhn12rcd13ifvqgqg","pricing_plan_id":"cebpf4jnsgd1na2vs0mg"},{"bike_id":"d0dcbb3a-18eb-44e3-9933-f7f7f781950f","system_id":"levelo_inurba_marseille","lat":43.2521,"lon":5.37582,"is_reserved":false,"is_disabled":false,"rental_uris":{"android":"levelo://app?vid=d0dcbb3a-18eb-44e3-9933-f7f7f781950f","ios":"levelo://app?vid=d0dcbb3a-18eb-44e3-9933-f7f7f781950f"},"vehicle_type_id":"4","last_reported":1730708017,"current_range_meters":26000,"station_id":"ce4bhhp2rcd13ifvqfm0","pricing_plan_id":"cebpf4jnsgd1na2vs0mg"},{"bike_id":"c8efe2a2-4104-4ae8-8ad5-26ff762b7c15","system_id":"levelo_inurba_marseille","lat":43.30905,"lon":5.36852,"is_reserved":false,"is_disabled":false,"rental_uris":{"android":"levelo://app?vid=c8efe2a2-4104-4ae8-8ad5-26ff762b7c15","ios":"levelo://app?vid=c8efe2a2-4104-4ae8-8ad5-26ff762b7c15"},"vehicle_type_id":"4","last_reported":1730708017,"current_range_meters":32800,"station_id":"ce4bgn92rcd13ifvqbvg","pricing_plan_id":"cebpf4jnsgd1na2vs0mg"},{"bike_id":"a171064d-8438-4181-94ef-68492c8e63fa","system_id":"levelo_inurba_marseille","lat":43.27491,"lon":5.42443,"is_reserved":false,"is_disabled":false,"rental_uris":{"android":"levelo://app?vid=a171064d-8438-4181-94ef-68492c8e63fa","ios":"levelo://app?vid=a171064d-8438-4181-94ef-68492c8e63fa"},"vehicle_type_id":"4","last_reported":1730708017,"current_range_meters":15200,"station_id":"ce4bhn92rcd13ifvqgrg","pricing_plan_id":"cebpf4jnsgd1na2vs0mg"},{"bike_id":"71ea2c8b-166a-40fd-90a8-5806feea75af","system_id":"levelo_inurba_marseille","lat":43.28329,"lon":5.38112,"is_reserved":false,"is_disabled":false,"rental_uris":{"android":"levelo://app?vid=71ea2c8b-166a-40fd-90a8-5806feea75af","ios":"levelo://app?vid=71ea2c8b-166a-40fd-90a8-5806feea75af"},"vehicle_type_id":"4","last_reported":1730708017,"current_range_meters":24800,"station_id":"ce4bhgp2rcd13ifvqfd0","pricing_plan_id":"cebpf4jnsgd1na2vs0mg"},{"bike_id":"7d9ee8ba-656e-46e2-afbf-5eed9f48fbad","system_id":"levelo_inurba_marseille","lat":43.31228,"lon":5.36842,"is_reserved":false,"is_disabled":false,"rental_uris":{"android":"levelo://app?vid=7d9ee8ba-656e-46e2-afbf-5eed9f48fbad","ios":"levelo://app?vid=7d9ee8ba-656e-46e2-afbf-5eed9f48fbad"},"vehicle_type_id":"4","last_reported":1730708017,"current_range_meters":31200,"station_id":"ce4bgl92rcd13ifvqbq0","pricing_plan_id":"cebpf4jnsgd1na2vs0mg"},{"bike_id":"056d940f-31dc-4442-997b-16fbc4016281","system_id":"levelo_inurba_marseille","lat":43.28474,"lon":5.38406,"is_reserved":false,"is_disabled":false,"rental_uris":{"android":"levelo://app?vid=056d940f-31dc-4442-997b-16fbc4016281","ios":"levelo://app?vid=056d940f-31dc-4442-997b-16fbc4016281"},"vehicle_type_id":"4","last_reported":1730708017,"current_range_meters":39200,"station_id":"ce4bh512rcd13ifvqe3g","pricing_plan_id":"cebpf4jnsgd1na2vs0mg"},{"bike_id":"9a3c9924-4d33-43b2-9add-c558cd4e5c7d","system_id":"levelo_inurba_marseille","lat":43.30472,"lon":5.37901,"is_reserved":false,"is_disabled":false,"rental_uris":{"android":"levelo://app?vid=9a3c9924-4d33-43b2-9add-c558cd4e5c7d","ios":"levelo://app?vid=9a3c9924-4d33-43b2-9add-c558cd4e5c7d"},"vehicle_type_id":"4","last_reported":1730708017,"current_range_meters":35200,"station_id":"ce4bgup2rcd13ifvqcn0","pricing_plan_id":"cebpf4jnsgd1na2vs0mg"},{"bike_id":"4ec8a62c-c6f5-4acd-b0cf-ed480d490255","system_id":"levelo_inurba_marseille","lat":43.29972,"lon":5.37174,"is_reserved":false,"is_disabled":false,"rental_uris":{"android":"levelo://app?vid=4ec8a62c-c6f5-4acd-b0cf-ed480d490255","ios":"levelo://app?vid=4ec8a62c-c6f5-4acd-b0cf-ed480d490255"},"vehicle_type_id":"4","last_reported":1730708017,"current_range_meters":38800,"station_id":"ce4bgr92rcd13ifvqc7g","pricing_plan_id":"cebpf4jnsgd1na2vs0mg"},{"bike_id":"cb81e8a1-f5c2-4c95-bfcd-076f7f535ffd","system_id":"levelo_inurba_marseille","lat":43.29714,"lon":5.37158,"is_reserved":false,"is_disabled":false,"rental_uris":{"android":"levelo://app?vid=cb81e8a1-f5c2-4c95-bfcd-076f7f535ffd","ios":"levelo://app?vid=cb81e8a1-f5c2-4c95-bfcd-076f7f535ffd"},"vehicle_type_id":"4","last_reported":1730708017,"current_range_meters":20000,"station_id":"","pricing_plan_id":"cebpf4jnsgd1na2vs0mg"},{"bike_id":"56b93a6c-b2d8-462c-b0ce-20d50339fed9","system_id":"levelo_inurba_marseille","lat":43.30598,"lon":5.39353,"is_reserved":false,"is_disabled":false,"rental_uris":{"android":"levelo://app?vid=56b93a6c-b2d8-462c-b0ce-20d50339fed9","ios":"levelo://app?vid=56b93a6c-b2d8-462c-b0ce-20d50339fed9"},"vehicle_type_id":"4","last_reported":1730708017,"current_range_meters":15200,"station_id":"ce4bh0p2rcd13ifvqd80","pricing_plan_id":"cebpf4jnsgd1na2vs0mg"},{"bike_id":"5a5ca637-4a18-4597-b859-7ab9a6b224f3","system_id":"levelo_inurba_marseille","lat":43.23148,"lon":5.43726,"is_reserved":false,"is_disabled":false,"rental_uris":{"android":"levelo://app?vid=5a5ca637-4a18-4597-b859-7ab9a6b224f3","ios":"levelo://app?vid=5a5ca637-4a18-4597-b859-7ab9a6b224f3"},"vehicle_type_id":"4","last_reported":1730708017,"current_range_meters":9600,"station_id":"ce4bhmp2rcd13ifvqgog","pricing_plan_id":"cebpf4jnsgd1na2vs0mg"},{"bike_id":"0010a6aa-a10e-44f2-ad68-04a562a5f99a","system_id":"levelo_inurba_marseille","lat":43.30474,"lon":5.40096,"is_reserved":false,"is_disabled":false,"rental_uris":{"android":"levelo://app?vid=0010a6aa-a10e-44f2-ad68-04a562a5f99a","ios":"levelo://app?vid=0010a6aa-a10e-44f2-ad68-04a562a5f99a"},"vehicle_type_id":"4","last_reported":1730708017,"current_range_meters":30800,"station_id":"","pricing_plan_id":"cebpf4jnsgd1na2vs0mg"},{"bike_id":"0e96aa8a-6651-4df6-8c72-fb29a760544e","system_id":"levelo_inurba_marseille","lat":43.29912,"lon":5.37472,"is_reserved":false,"is_disabled":false,"rental_uris":{"android":"levelo://app?vid=0e96aa8a-6651-4df6-8c72-fb29a760544e","ios":"levelo://app?vid=0e96aa8a-6651-4df6-8c72-fb29a760544e"},"vehicle_type_id":"4","last_reported":1730708017,"current_range_meters":21600,"station_id":"ce4bgjh2rcd13ifvqbg0","pricing_plan_id":"cebpf4jnsgd1na2vs0mg"},{"bike_id":"52a821c5-15fc-4225-bf0f-42790ec77571","system_id":"levelo_inurba_marseille","lat":43.296936,"lon":5.367464,"is_reserved":false,"is_disabled":false,"rental_uris":{"android":"levelo://app?vid=52a821c5-15fc-4225-bf0f-42790ec77571","ios":"levelo://app?vid=52a821c5-15fc-4225-bf0f-42790ec77571"},"vehicle_type_id":"4","last_reported":1730708017,"current_range_meters":34800,"station_id":"ce4bgn12rcd13ifvqbt0","pricing_plan_id":"cebpf4jnsgd1na2vs0mg"},{"bike_id":"33d9eae3-099c-4252-9414-903ad25f8607","system_id":"levelo_inurba_marseille","lat":43.241791,"lon":5.397233,"is_reserved":false,"is_disabled":false,"rental_uris":{"android":"levelo://app?vid=33d9eae3-099c-4252-9414-903ad25f8607","ios":"levelo://app?vid=33d9eae3-099c-4252-9414-903ad25f8607"},"vehicle_type_id":"4","last_reported":1730708017,"current_range_meters":28400,"station_id":"ce4bhn12rcd13ifvqgpg","pricing_plan_id":"cebpf4jnsgd1na2vs0mg"},{"bike_id":"b59afc42-b6f0-435a-9ea3-9f89a6eac5e9","system_id":"levelo_inurba_marseille","lat":43.29013,"lon":5.38135,"is_reserved":false,"is_disabled":false,"rental_uris":{"android":"levelo://app?vid=b59afc42-b6f0-435a-9ea3-9f89a6eac5e9","ios":"levelo://app?vid=b59afc42-b6f0-435a-9ea3-9f89a6eac5e9"},"vehicle_type_id":"4","last_reported":1730708017,"current_range_meters":38800,"station_id":"ce4bh4p2rcd13ifvqe1g","pricing_plan_id":"cebpf4jnsgd1na2vs0mg"},{"bike_id":"b1078aa1-07c9-43e0-baad-b05bfd4fd1d1","system_id":"levelo_inurba_marseille","lat":43.30532,"lon":5.36564,"is_reserved":false,"is_disabled":false,"rental_uris":{"android":"levelo://app?vid=b1078aa1-07c9-43e0-baad-b05bfd4fd1d1","ios":"levelo://app?vid=b1078aa1-07c9-43e0-baad-b05bfd4fd1d1"},"vehicle_type_id":"4","last_reported":1730708017,"current_range_meters":19200,"station_id":"ce4bgs12rcd13ifvqcag","pricing_plan_id":"cebpf4jnsgd1na2vs0mg"},{"bike_id":"a7ce3e07-385e-4247-9f14-8d58313f5c7d","system_id":"levelo_inurba_marseille","lat":43.32471,"lon":5.36564,"is_reserved":false,"is_disabled":false,"rental_uris":{"android":"levelo://app?vid=a7ce3e07-385e-4247-9f14-8d58313f5c7d","ios":"levelo://app?vid=a7ce3e07-385e-4247-9f14-8d58313f5c7d"},"vehicle_type_id":"4","last_reported":1730708017,"current_range_meters":29600,"station_id":"","pricing_plan_id":"cebpf4jnsgd1na2vs0mg"},{"bike_id":"5b204276-ed89-4c3b-9eb7-d8634baef667","system_id":"levelo_inurba_marseille","lat":43.30452,"lon":5.37906,"is_reserved":false,"is_disabled":false,"rental_uris":{"android":"levelo://app?vid=5b204276-ed89-4c3b-9eb7-d8634baef667","ios":"levelo://app?vid=5b204276-ed89-4c3b-9eb7-d8634baef667"},"vehicle_type_id":"4","last_reported":1730708017,"current_range_meters":38800,"station_id":"ce4bgup2rcd13ifvqcn0","pricing_plan_id":"cebpf4jnsgd1na2vs0mg"},{"bike_id":"2e83a5ec-539f-4da3-96ad-d96c270d4bff","system_id":"levelo_inurba_marseille","lat":43.32536,"lon":5.41429,"is_reserved":false,"is_disabled":false,"rental_uris":{"android":"levelo://app?vid=2e83a5ec-539f-4da3-96ad-d96c270d4bff","ios":"levelo://app?vid=2e83a5ec-539f-4da3-96ad-d96c270d4bff"},"vehicle_type_id":"4","last_reported":1730708017,"current_range_meters":26800,"station_id":"ce4bhq12rcd13ifvqhhg","pricing_plan_id":"cebpf4jnsgd1na2vs0mg"},{"bike_id":"f476710f-91c6-4560-8599-a267875445ba","system_id":"levelo_inurba_marseille","lat":43.26951,"lon":5.38627,"is_reserved":false,"is_disabled":false,"rental_uris":{"android":"levelo://app?vid=f476710f-91c6-4560-8599-a267875445ba","ios":"levelo://app?vid=f476710f-91c6-4560-8599-a267875445ba"},"vehicle_type_id":"4","last_reported":1730708017,"current_range_meters":38800,"station_id":"ce4bhh92rcd13ifvqfh0","pricing_plan_id":"cebpf4jnsgd1na2vs0mg"},{"bike_id":"b660520d-7bca-4b11-8965-e79652640606","system_id":"levelo_inurba_marseille","lat":43.32362,"lon":5.36763,"is_reserved":false,"is_disabled":false,"rental_uris":{"android":"levelo://app?vid=b660520d-7bca-4b11-8965-e79652640606","ios":"levelo://app?vid=b660520d-7bca-4b11-8965-e79652640606"},"vehicle_type_id":"4","last_reported":1730708017,"current_range_meters":8400,"station_id":"ce4bhsh2rcd13ifvqi2g","pricing_plan_id":"cebpf4jnsgd1na2vs0mg"},{"bike_id":"556240cc-e7f2-48a4-aa5e-c4d59f7c9bed","system_id":"levelo_inurba_marseille","lat":43.26958,"lon":5.38631,"is_reserved":false,"is_disabled":false,"rental_uris":{"android":"levelo://app?vid=556240cc-e7f2-48a4-aa5e-c4d59f7c9bed","ios":"levelo://app?vid=556240cc-e7f2-48a4-aa5e-c4d59f7c9bed"},"vehicle_type_id":"4","last_reported":1730708017,"current_range_meters":38800,"station_id":"ce4bhh92rcd13ifvqfh0","pricing_plan_id":"cebpf4jnsgd1na2vs0mg"},{"bike_id":"63a65b91-603b-4aa1-b0c4-693c0f219c31","system_id":"levelo_inurba_marseille","lat":43.2408,"lon":5.37757,"is_reserved":false,"is_disabled":false,"rental_uris":{"android":"levelo://app?vid=63a65b91-603b-4aa1-b0c4-693c0f219c31","ios":"levelo://app?vid=63a65b91-603b-4aa1-b0c4-693c0f219c31"},"vehicle_type_id":"4","last_reported":1730708017,"current_range_meters":32800,"station_id":"ce4bhnp2rcd13ifvqgvg","pricing_plan_id":"cebpf4jnsgd1na2vs0mg"},{"bike_id":"c43f9cce-d490-4fd1-801b-69c9ee4842e7","system_id":"levelo_inurba_marseille","lat":43.26949,"lon":5.3864,"is_reserved":false,"is_disabled":false,"rental_uris":{"android":"levelo://app?vid=c43f9cce-d490-4fd1-801b-69c9ee4842e7","ios":"levelo://app?vid=c43f9cce-d490-4fd1-801b-69c9ee4842e7"},"vehicle_type_id":"4","last_reported":1730708017,"current_range_meters":38800,"station_id":"ce4bhh92rcd13ifvqfh0","pricing_plan_id":"cebpf4jnsgd1na2vs0mg"},{"bike_id":"0aba54e2-6d88-4b1a-8332-43a7e09880dd","system_id":"levelo_inurba_marseille","lat":43.26951,"lon":5.38633,"is_reserved":false,"is_disabled":false,"rental_uris":{"android":"levelo://app?vid=0aba54e2-6d88-4b1a-8332-43a7e09880dd","ios":"levelo://app?vid=0aba54e2-6d88-4b1a-8332-43a7e09880dd"},"vehicle_type_id":"4","last_reported":1730708017,"current_range_meters":38800,"station_id":"ce4bhh92rcd13ifvqfh0","pricing_plan_id":"cebpf4jnsgd1na2vs0mg"},{"bike_id":"f5580323-4ef4-40a2-a66f-cacbec586e5e","system_id":"levelo_inurba_marseille","lat":43.291901,"lon":5.357978,"is_reserved":false,"is_disabled":false,"rental_uris":{"android":"levelo://app?vid=f5580323-4ef4-40a2-a66f-cacbec586e5e","ios":"levelo://app?vid=f5580323-4ef4-40a2-a66f-cacbec586e5e"},