{"last_updated":1712968163,"ttl":30,"version":"2.2","data":{"bikes":[{"bike_id":"babdc7bd-50ef-41ab-b073-151a457b3406","system_id":"levelo_inurba_marseille","lat":43.31332,"lon":5.36723,"is_reserved":false,"is_disabled":false,"rental_uris":{"android":"levelo://app?vid=babdc7bd-50ef-41ab-b073-151a457b3406","ios":"levelo://app?vid=babdc7bd-50ef-41ab-b073-151a457b3406"},"vehicle_type_id":"4","last_reported":1712968163,"current_range_meters":29600,"station_id":"ce4bgr92rcd13ifvqc6g","pricing_plan_id":"cebpf4jnsgd1na2vs0mg"},{"bike_id":"ed3ab4db-a1d0-44cd-9b51-41655b476748","system_id":"levelo_inurba_marseille","lat":43.312239,"lon":5.368562,"is_reserved":false,"is_disabled":false,"rental_uris":{"android":"levelo://app?vid=ed3ab4db-a1d0-44cd-9b51-41655b476748","ios":"levelo://app?vid=ed3ab4db-a1d0-44cd-9b51-41655b476748"},"vehicle_type_id":"4","last_reported":1712968163,"current_range_meters":7600,"station_id":"ce4bgl92rcd13ifvqbq0","pricing_plan_id":"cebpf4jnsgd1na2vs0mg"},{"bike_id":"394f631a-c2ac-45dc-b54a-3482991091be","system_id":"levelo_inurba_marseille","lat":43.314811,"lon":5.373103,"is_reserved":false,"is_disabled":false,"rental_uris":{"android":"levelo://app?vid=394f631a-c2ac-45dc-b54a-3482991091be","ios":"levelo://app?vid=394f631a-c2ac-45dc-b54a-3482991091be"},"vehicle_type_id":"4","last_reported":1712968163,"current_range_meters":28000,"station_id":"ce4bgt12rcd13ifvqcd0","pricing_plan_id":"cebpf4jnsgd1na2vs0mg"},{"bike_id":"f493efbb-f401-434d-acdb-44f462944ad3","system_id":"levelo_inurba_marseille","lat":43.314811,"lon":5.373104,"is_reserved":false,"is_disabled":false,"rental_uris":{"android":"levelo://app?vid=f493efbb-f401-434d-acdb-44f462944ad3","ios":"levelo://app?vid=f493efbb-f401-434d-acdb-44f462944ad3"},"vehicle_type_id":"4","last_reported":1712968163,"current_range_meters":21200,"station_id":"ce4bgt12rcd13ifvqcd0","pricing_plan_id":"cebpf4jnsgd1na2vs0mg"},{"bike_id":"dcc607ec-0eaf-4198-ad9b-1440e34a6a55","system_id":"levelo_inurba_marseille","lat":43.314811,"lon":5.373103,"is_reserved":false,"is_disabled":false,"rental_uris":{"android":"levelo://app?vid=dcc607ec-0eaf-4198-ad9b-1440e34a6a55","ios":"levelo://app?vid=dcc607ec-0eaf-4198-ad9b-1440e34a6a55"},"vehicle_type_id":"4","last_reported":1712968163,"current_range_meters":7200,"station_id":"ce4bgt12rcd13ifvqcd0","pricing_plan_id":"cebpf4jnsgd1na2vs0mg"},{"bike_id":"04fc95c0-a701-4c07-975c-b178e3e22661","system_id":"levelo_inurba_marseille","lat":43.314811,"lon":5.373103,"is_reserved":false,"is_disabled":false,"rental_uris":{"android":"levelo://app?vid=04fc95c0-a701-4c07-975c-b178e3e22661","ios":"levelo://app?vid=04fc95c0-a701-4c07-975c-b178e3e22661"},"vehicle_type_id":"4","last_reported":1712968163,"current_range_meters":2400,"station_id":"ce4bgt12rcd13ifvqcd0","pricing_plan_id":"cebpf4jnsgd1na2vs0mg"},{"bike_id":"098c2bb8-6acc-4a07-9f44-a2a8a882e529","system_id":"levelo_inurba_marseille","lat":43.314811,"lon":5.373104,"is_reserved":false,"is_disabled":false,"rental_uris":{"android":"levelo://app?vid=098c2bb8-6acc-4a07-9f44-a2a8a882e529","ios":"levelo://app?vid=098c2bb8-6acc-4a07-9f44-a2a8a882e529"},"vehicle_type_id":"4","last_reported":1712968163,"current_range_meters":27600,"station_id":"ce4bgt12rcd13ifvqcd0","pricing_plan_id":"cebpf4jnsgd1na2vs0mg"},{"bike_id":"899920dc-48a6-4985-a629-42a8251c9d5e","system_id":"levelo_inurba_marseille","lat":43.314811,"lon":5.373104,"is_reserved":false,"is_disabled":false,"rental_uris":{"android":"levelo://app?vid=899920dc-48a6-4985-a629-42a8251c9d5e","ios":"levelo://app?vid=899920dc-48a6-4985-a629-42a8251c9d5e"},"vehicle_type_id":"4","last_reported":1712968163,"current_range_meters":9200,"station_id":"ce4bgt12rcd13ifvqcd0","pricing_plan_id":"cebpf4jnsgd1na2vs0mg"},{"bike_id":"ca33669d-9c31-4b83-adf7-e7f9cf42a516","system_id":"levelo_inurba_marseille","lat":43.314811,"lon":5.373104,"is_reserved":false,"is_disabled":false,"rental_uris":{"android":"levelo://app?vid=ca33669d-9c31-4b83-adf7-e7f9cf42a516","ios":"levelo://app?vid=ca33669d-9c31-4b83-adf7-e7f9cf42a516"},"vehicle_type_id":"4","last_reported":1712968163,"current_range_meters":25200,"station_id":"ce4bgt12rcd13ifvqcd0","pricing_plan_id":"cebpf4jnsgd1na2vs0mg"},{"bike_id":"a82ce5e8-de25-4260-a668-6522b8e7503a","system_id":"levelo_inurba_marseille","lat":43.309034,"lon":5.371783,"is_reserved":false,"is_disabled":false,"rental_uris":{"android":"levelo://app?vid=a82ce5e8-de25-4260-a668-6522b8e7503a","ios":"levelo://app?vid=a82ce5e8-de25-4260-a668-6522b8e7503a"},"vehicle_type_id":"4","last_reported":1712968163,"current_range_meters":4800,"station_id":"ce4bguh2rcd13ifvqckg","pricing_plan_id":"cebpf4jnsgd1na2vs0mg"},{"bike_id":"f6731212-9df8-481d-b6ed-a88751dab5e3","system_id":"levelo_inurba_marseille","lat":43.30892,"lon":5.37198,"is_reserved":false,"is_disabled":false,"rental_uris":{"android":"levelo://app?vid=f6731212-9df8-481d-b6ed-a88751dab5e3","ios":"levelo://app?vid=f6731212-9df8-481d-b6ed-a88751dab5e3"},"vehicle_type_id":"4","last_reported":1712968163,"current_range_meters":0,"station_id":"ce4bguh2rcd13ifvqckg","pricing_plan_id":"cebpf4jnsgd1na2vs0mg"},{"bike_id":"e19d9786-47eb-46e4-a56e-3c2857d3c060","system_id":"levelo_inurba_marseille","lat":43.309034,"lon":5.371783,"is_reserved":false,"is_disabled":false,"rental_uris":{"android":"levelo://app?vid=e19d9786-47eb-46e4-a56e-3c2857d3c060","ios":"levelo://app?vid=e19d9786-47eb-46e4-a56e-3c2857d3c060"},"vehicle_type_id":"4","last_reported":1712968163,"current_range_meters":14000,"station_id":"ce4bguh2rcd13ifvqckg","pricing_plan_id":"cebpf4jnsgd1na2vs0mg"},{"bike_id":"b9755523-3470-4ede-abf3-86d31535626e","system_id":"levelo_inurba_marseille","lat":43.309039,"lon":5.371797,"is_reserved":false,"is_disabled":false,"rental_uris":{"android":"levelo://app?vid=b9755523-3470-4ede-abf3-86d31535626e","ios":"levelo://app?vid=b9755523-3470-4ede-abf3-86d31535626e"},"vehicle_type_id":"4","last_reported":1712968163,"current_range_meters":20000,"station_id":"ce4bguh2rcd13ifvqckg","pricing_plan_id":"cebpf4jnsgd1na2vs0mg"},{"bike_id":"76dae547-c032-4f17-a941-ea3a48d6aeae","system_id":"levelo_inurba_marseille","lat":43.309034,"lon":5.371783,"is_reserved":false,"is_disabled":false,"rental_uris":{"android":"levelo://app?vid=76dae547-c032-4f17-a941-ea3a48d6aeae","ios":"levelo://app?vid=76dae547-c032-4f17-a941-ea3a48d6aeae"},"vehicle_type_id":"4","last_reported":1712968163,"current_range_meters":16400,"station_id":"ce4bguh2rcd13ifvqckg","pricing_plan_id":"cebpf4jnsgd1na2vs0mg"},{"bike_id":"c3f1507d-e08e-431d-b39d-465747e36d15","system_id":"levelo_inurba_marseille","lat":43.309034,"lon":5.371783,"is_reserved":false,"is_disabled":false,"rental_uris":{"android":"levelo://app?vid=c3f1507d-e08e-431d-b39d-465747e36d15","ios":"levelo://app?vid=c3f1507d-e08e-431d-b39d-465747e36d15"},"vehicle_type_id":"4","last_reported":1712968163,"current_range_meters":0,"station_id":"ce4bguh2rcd13ifvqckg","pricing_plan_id":"cebpf4jnsgd1na2vs0mg"},{"bike_id":"5b773649-3751-4533-b099-ba377199fe08","system_id":"levelo_inurba_marseille","lat":43.31076,"lon":5.3751,"is_reserved":false,"is_disabled":false,"rental_uris":{"android":"levelo://app?vid=5b773649-3751-4533-b099-ba377199fe08","ios":"levelo://app?vid=5b773649-3751-4533-b099-ba377199fe08"},"vehicle_type_id":"4","last_reported":1712968163,"current_range_meters":400,"station_id":"","pricing_plan_id":"cebpf4jnsgd1na2vs0mg"},{"bike_id":"f8f5cf45-f72a-4d6e-8f69-41ee817660a6","system_id":"levelo_inurba_marseille","lat":43.305368,"lon":5.367343,"is_reserved":false,"is_disabled":false,"rental_uris":{"android":"levelo://app?vid=f8f5cf45-f72a-4d6e-8f69-41ee817660a6","ios":"levelo://app?vid=f8f5cf45-f72a-4d6e-8f69-41ee817660a6"},"vehicle_type_id":"4","last_reported":1712968163,"current_range_meters":15600,"station_id":"ce4bgrp2rcd13ifvqc9g","pricing_plan_id":"cebpf4jnsgd1na2vs0mg"},{"bike_id":"06328f69-4b6d-4828-a217-1dbe1370de07","system_id":"levelo_inurba_marseille","lat":43.305368,"lon":5.367343,"is_reserved":false,"is_disabled":false,"rental_uris":{"android":"levelo://app?vid=06328f69-4b6d-4828-a217-1dbe1370de07","ios":"levelo://app?vid=06328f69-4b6d-4828-a217-1dbe1370de07"},"vehicle_type_id":"4","last_reported":1712968163,"current_range_meters":26000,"station_id":"ce4bgrp2rcd13ifvqc9g","pricing_plan_id":"cebpf4jnsgd1na2vs0mg"},{"bike_id":"3d0cade6-4130-4c4d-bce3-6018b6fb0d7d","system_id":"levelo_inurba_marseille","lat":43.305706,"lon":5.365654,"is_reserved":false,"is_disabled":false,"rental_uris":{"android":"levelo://app?vid=3d0cade6-4130-4c4d-bce3-6018b6fb0d7d","ios":"levelo://app?vid=3d0cade6-4130-4c4d-bce3-6018b6fb0d7d"},"vehicle_type_id":"4","last_reported":1712968163,"current_range_meters":22400,"station_id":"ce4bgs12rcd13ifvqcag","pricing_plan_id":"cebpf4jnsgd1na2vs0mg"},{"bike_id":"7b3f2da6-ee45-4bab-b86a-dc928d3462d7","system_id":"levelo_inurba_marseille","lat":43.30537,"lon":5.36558,"is_reserved":false,"is_disabled":false,"rental_uris":{"android":"levelo://app?vid=7b3f2da6-ee45-4bab-b86a-dc928d3462d7","ios":"levelo://app?vid=7b3f2da6-ee45-4bab-b86a-dc928d3462d7"},"vehicle_type_id":"4","last_reported":1712968163,"current_range_meters":5200,"station_id":"ce4bgs12rcd13ifvqcag","pricing_plan_id":"cebpf4jnsgd1na2vs0mg"},{"bike_id":"033930e2-f9d4-4363-80d4-775ecfcc1e92","system_id":"levelo_inurba_marseille","lat":43.305989,"lon":5.37225,"is_reserved":false,"is_disabled":false,"rental_uris":{"android":"levelo://app?vid=033930e2-f9d4-4363-80d4-775ecfcc1e92","ios":"levelo://app?vid=033930e2-f9d4-4363-80d4-775ecfcc1e92"},"vehicle_type_id":"4","last_reported":1712968163,"current_range_meters":17200,"station_id":"ce4bgqh2rcd13ifvqc4g","pricing_plan_id":"cebpf4jnsgd1na2vs0mg"},{"bike_id":"0f5431f2-108a-44aa-ab51-04c11fa2afe3","system_id":"levelo_inurba_marseille","lat":43.305989,"lon":5.37225,"is_reserved":false,"is_disabled":false,"rental_uris":{"android":"levelo://app?vid=0f5431f2-108a-44aa-ab51-04c11fa2afe3","ios":"levelo://app?vid=0f5431f2-108a-44aa-ab51-04c11fa2afe3"},"vehicle_type_id":"4","last_reported":1712968163,"current_range_meters":30400,"station_id":"ce4bgqh2rcd13ifvqc4g","pricing_plan_id":"cebpf4jnsgd1na2vs0mg"},{"bike_id":"791520fc-0a3c-4c5f-9a7c-5c44b51f224c","system_id":"levelo_inurba_marseille","lat":43.305989,"lon":5.37225,"is_reserved":false,"is_disabled":false,"rental_uris":{"android":"levelo://app?vid=791520fc-0a3c-4c5f-9a7c-5c44b51f224c","ios":"levelo://app?vid=791520fc-0a3c-4c5f-9a7c-5c44b51f224c"},"vehicle_type_id":"4","last_reported":1712968163,"current_range_meters":29600,"station_id":"ce4bgqh2rcd13ifvqc4g","pricing_plan_id":"cebpf4jnsgd1na2vs0mg"},{"bike_id":"736c031f-4477-4398-b761-2fd3672cda41","system_id":"levelo_inurba_marseille","lat":43.311131,"lon":5.377651,"is_reserved":false,"is_disabled":false,"rental_uris":{"android":"levelo://app?vid=736c031f-4477-4398-b761-2fd3672cda41","ios":"levelo://app?vid=736c031f-4477-4398-b761-2fd3672cda41"},"vehicle_type_id":"4","last_reported":1712968163,"current_range_meters":18000,"station_id":"ce4bgt92rcd13ifvqcg0","pricing_plan_id":"cebpf4jnsgd1na2vs0mg"},{"bike_id":"83bd4b76-ae7a-4d8f-a788-184c903b601b","system_id":"levelo_inurba_marseille","lat":43.311125,"lon":5.377624,"is_reserved":false,"is_disabled":false,"rental_uris":{"android":"levelo://app?vid=83bd4b76-ae7a-4d8f-a788-184c903b601b","ios":"levelo://app?vid=83bd4b76-ae7a-4d8f-a788-184c903b601b"},"vehicle_type_id":"4","last_reported":1712968163,"current_range_meters":8000,"station_id":"ce4bgt92rcd13ifvqcg0","pricing_plan_id":"cebpf4jnsgd1na2vs0mg"},{"bike_id":"f795130d-5737-4e20-966b-5784e051c180","system_id":"levelo_inurba_marseille","lat":43.311125,"lon":5.377624,"is_reserved":false,"is_disabled":false,"rental_uris":{"android":"levelo://app?vid=f795130d-5737-4e20-966b-5784e051c180","ios":"levelo://app?vid=f795130d-5737-4e20-966b-5784e051c180"},"vehicle_type_id":"4","last_reported":1712968163,"current_range_meters":16800,"station_id":"ce4bgt92rcd13ifvqcg0","pricing_plan_id":"cebpf4jnsgd1na2vs0mg"},{"bike_id":"fa81e640-d5ac-4293-9bff-3ba4db63da0d","system_id":"levelo_inurba_marseille","lat":43.30781,"lon":5.37631,"is_reserved":false,"is_disabled":false,"rental_uris":{"android":"levelo://app?vid=fa81e640-d5ac-4293-9bff-3ba4db63da0d","ios":"levelo://app?vid=fa81e640-d5ac-4293-9bff-3ba4db63da0d"},"vehicle_type_id":"4","last_reported":1712968163,"current_range_meters":400,"station_id":"ce4bgv92rcd13ifvqcq0","pricing_plan_id":"cebpf4jnsgd1na2vs0mg"},{"bike_id":"7547659d-542c-425c-a1b7-57f62eb87b3d","system_id":"levelo_inurba_marseille","lat":43.311125,"lon":5.377624,"is_reserved":false,"is_disabled":false,"rental_uris":{"android":"levelo://app?vid=7547659d-542c-425c-a1b7-57f62eb87b3d","ios":"levelo://app?vid=7547659d-542c-425c-a1b7-57f62eb87b3d"},"vehicle_type_id":"4","last_reported":1712968163,"current_range_meters":10800,"station_id":"ce4bgt92rcd13ifvqcg0","pricing_plan_id":"cebpf4jnsgd1na2vs0mg"},{"bike_id":"2640b551-675f-4672-9545-fb00de5fba20","system_id":"levelo_inurba_marseille","lat":43.307945,"lon":5.376487,"is_reserved":false,"is_disabled":false,"rental_uris":{"android":"levelo://app?vid=2640b551-675f-4672-9545-fb00de5fba20","ios":"levelo://app?vid=2640b551-675f-4672-9545-fb00de5fba20"},"vehicle_type_id":"4","last_reported":1712968163,"current_range_meters":25200,"station_id":"ce4bgv92rcd13ifvqcq0","pricing_plan_id":"cebpf4jnsgd1na2vs0mg"},{"bike_id":"5bf8d0dd-50be-4616-bebb-e42ecdfd4274","system_id":"levelo_inurba_marseille","lat":43.307945,"lon":5.376487,"is_reserved":false,"is_disabled":false,"rental_uris":{"android":"levelo://app?vid=5bf8d0dd-50be-4616-bebb-e42ecdfd4274","ios":"levelo://app?vid=5bf8d0dd-50be-4616-bebb-e42ecdfd4274"},"vehicle_type_id":"4","last_reported":1712968163,"current_range_meters":10800,"station_id":"ce4bgv92rcd13ifvqcq0","pricing_plan_id":"cebpf4jnsgd1na2vs0mg"},{"bike_id":"1b951b7f-976e-4873-8b7a-af2520037e2f","system_id":"levelo_inurba_marseille","lat":43.307945,"lon":5.376487,"is_reserved":false,"is_disabled":false,"rental_uris":{"android":"levelo://app?vid=1b951b7f-976e-4873-8b7a-af2520037e2f","ios":"levelo://app?vid=1b951b7f-976e-4873-8b7a-af2520037e2f"},"vehicle_type_id":"4","last_reported":1712968163,"current_range_meters":12400,"station_id":"ce4bgv92rcd13ifvqcq0","pricing_plan_id":"cebpf4jnsgd1na2vs0mg"},{"bike_id":"30e30dd9-e7b0-4f63-b4cc-e0c7cdffc092","system_id":"levelo_inurba_marseille","lat":43.307945,"lon":5.376487,"is_reserved":false,"is_disabled":false,"rental_uris":{"android":"levelo://app?vid=30e30dd9-e7b0-4f63-b4cc-e0c7cdffc092","ios":"levelo://app?vid=30e30dd9-e7b0-4f63-b4cc-e0c7cdffc092"},"vehicle_type_id":"4","last_reported":1712968163,"current_range_meters":8400,"station_id":"ce4bgv92rcd13ifvqcq0","pricing_plan_id":"cebpf4jnsgd1na2vs0mg"},{"bike_id":"e9f76c46-65ff-4215-aa15-29253cdc5af6","system_id":"levelo_inurba_marseille","lat":43.307945,"lon":5.376487,"is_reserved":false,"is_disabled":false,"rental_uris":{"android":"levelo://app?vid=e9f76c46-65ff-4215-aa15-29253cdc5af6","ios":"levelo://app?vid=e9f76c46-65ff-4215-aa15-29253cdc5af6"},"vehicle_type_id":"4","last_reported":1712968163,"current_range_meters":25600,"station_id":"ce4bgv92rcd13ifvqcq0","pricing_plan_id":"cebpf4jnsgd1na2vs0mg"},{"bike_id":"99d5c262-84fb-4fb7-9cd1-8fe54ff3e26e","system_id":"levelo_inurba_marseille","lat":43.307945,"lon":5.376487,"is_reserved":false,"is_disabled":false,"rental_uris":{"android":"levelo://app?vid=99d5c262-84fb-4fb7-9cd1-8fe54ff3e26e","ios":"levelo://app?vid=99d5c262-84fb-4fb7-9cd1-8fe54ff3e26e"},"vehicle_type_id":"4","last_reported":1712968163,"current_range_meters":13200,"station_id":"ce4bgv92rcd13ifvqcq0","pricing_plan_id":"cebpf4jnsgd1na2vs0mg"},{"bike_id":"2fb173af-21d6-4aa4-8408-170fd4a5fc6e","system_id":"levelo_inurba_marseille","lat":43.317111,"lon":5.37744,"is_reserved":false,"is_disabled":false,"rental_uris":{"android":"levelo://app?vid=2fb173af-21d6-4aa4-8408-170fd4a5fc6e","ios":"levelo://app?vid=2fb173af-21d6-4aa4-8408-170fd4a5fc6e"},"vehicle_type_id":"4","last_reported":1712968163,"current_range_meters":400,"station_id":"ce4bgth2rcd13ifvqch0","pricing_plan_id":"cebpf4jnsgd1na2vs0mg"},{"bike_id":"ee33f0e5-d53a-427e-a1e3-370af0cb7b5e","system_id":"levelo_inurba_marseille","lat":43.315289,"lon":5.380349,"is_reserved":false,"is_disabled":false,"rental_uris":{"android":"levelo://app?vid=ee33f0e5-d53a-427e-a1e3-370af0cb7b5e","ios":"levelo://app?vid=ee33f0e5-d53a-427e-a1e3-370af0cb7b5e"},"vehicle_type_id":"4","last_reported":1712968163,"current_range_meters":31200,"station_id":"ce4bhsp2rcd13ifvqi50","pricing_plan_id":"cebpf4jnsgd1na2vs0mg"},{"bike_id":"c973c696-6cf3-4ef6-9922-20142626237f","system_id":"levelo_inurba_marseille","lat":43.30282,"lon":5.37259,"is_reserved":false,"is_disabled":false,"rental_uris":{"android":"levelo://app?vid=c973c696-6cf3-4ef6-9922-20142626237f","ios":"levelo://app?vid=c973c696-6cf3-4ef6-9922-20142626237f"},"vehicle_type_id":"4","last_reported":1712968163,"current_range_meters":17200,"station_id":"","pricing_plan_id":"cebpf4jnsgd1na2vs0mg"},{"bike_id":"e79bf1d4-2be1-4400-a6bf-bc4ef150527e","system_id":"levelo_inurba_marseille","lat":43.301939,"lon":5.366286,"is_reserved":false,"is_disabled":false,"rental_uris":{"android":"levelo://app?vid=e79bf1d4-2be1-4400-a6bf-bc4ef150527e","ios":"levelo://app?vid=e79bf1d4-2be1-4400-a6bf-bc4ef150527e"},"vehicle_type_id":"4","last_reported":1712968163,"current_range_meters":24400,"station_id":"ce4bgrh2rcd13ifvqc8g","pricing_plan_id":"cebpf4jnsgd1na2vs0mg"},{"bike_id":"1bede652-3c28-4036-8b5b-4a29fb9566ee","system_id":"levelo_inurba_marseille","lat":43.308012,"lon":5.381511,"is_reserved":false,"is_disabled":false,"rental_uris":{"android":"levelo://app?vid=1bede652-3c28-4036-8b5b-4a29fb9566ee","ios":"levelo://app?vid=1bede652-3c28-4036-8b5b-4a29fb9566ee"},"vehicle_type_id":"4","last_reported":1712968163,"current_range_meters":29200,"station_id":"ce4bgt12rcd13ifvqce0","pricing_plan_id":"cebpf4jnsgd1na2vs0mg"},{"bike_id":"e7354f3a-5a61-4235-8616-17588d2e0913","system_id":"levelo_inurba_marseille","lat":43.308012,"lon":5.381511,"is_reserved":false,"is_disabled":false,"rental_uris":{"android":"levelo://app?vid=e7354f3a-5a61-4235-8616-17588d2e0913","ios":"levelo://app?vid=e7354f3a-5a61-4235-8616-17588d2e0913"},"vehicle_type_id":"4","last_reported":1712968163,"current_range_meters":27200,"station_id":"ce4bgt12rcd13ifvqce0","pricing_plan_id":"cebpf4jnsgd1na2vs0mg"},{"bike_id":"4fbdb66d-27ca-4198-9994-a60c8ef949d9","system_id":"levelo_inurba_marseille","lat":43.308012,"lon":5.381511,"is_reserved":false,"is_disabled":false,"rental_uris":{"android":"levelo://app?vid=4fbdb66d-27ca-4198-9994-a60c8ef949d9","ios":"levelo://app?vid=4fbdb66d-27ca-4198-9994-a60c8ef949d9"},"vehicle_type_id":"4","last_reported":1712968163,"current_range_meters":9200,"station_id":"ce4bgt12rcd13ifvqce0","pricing_plan_id":"cebpf4jnsgd1na2vs0mg"},{"bike_id":"046c142b-9895-44f6-9cf2-4a5af3bac296","system_id":"levelo_inurba_marseille","lat":43.308012,"lon":5.381511,"is_reserved":false,"is_disabled":false,"rental_uris":{"android":"levelo://app?vid=046c142b-9895-44f6-9cf2-4a5af3bac296","ios":"levelo://app?vid=046c142b-9895-44f6-9cf2-4a5af3bac296"},"vehicle_type_id":"4","last_reported":1712968163,"current_range_meters":20800,"station_id":"ce4bgt12rcd13ifvqce0","pricing_plan_id":"cebpf4jnsgd1na2vs0mg"},{"bike_id":"14cff2a4-44ca-4200-8cba-60dab4baed32","system_id":"levelo_inurba_marseille","lat":43.308012,"lon":5.381511,"is_reserved":false,"is_disabled":false,"rental_uris":{"android":"levelo://app?vid=14cff2a4-44ca-4200-8cba-60dab4baed32","ios":"levelo://app?vid=14cff2a4-44ca-4200-8cba-60dab4baed32"},"vehicle_type_id":"4","last_reported":1712968163,"current_range_meters":28800,"station_id":"ce4bgt12rcd13ifvqce0","pricing_plan_id":"cebpf4jnsgd1na2vs0mg"},{"bike_id":"e0a6e992-a4a5-42c1-a7ff-60c1e4ef8dd6","system_id":"levelo_inurba_marseille","lat":43.308012,"lon":5.381511,"is_reserved":false,"is_disabled":false,"rental_uris":{"android":"levelo://app?vid=e0a6e992-a4a5-42c1-a7ff-60c1e4ef8dd6","ios":"levelo://app?vid=e0a6e992-a4a5-42c1-a7ff-60c1e4ef8dd6"},"vehicle_type_id":"4","last_reported":1712968163,"current_range_meters":24000,"station_id":"ce4bgt12rcd13ifvqce0","pricing_plan_id":"cebpf4jnsgd1na2vs0mg"},{"bike_id":"0f98e047-f41a-48f0-a420-40eacb078fe3","system_id":"levelo_inurba_marseille","lat":43.308012,"lon":5.381511,"is_reserved":false,"is_disabled":false,"rental_uris":{"android":"levelo://app?vid=0f98e047-f41a-48f0-a420-40eacb078fe3","ios":"levelo://app?vid=0f98e047-f41a-48f0-a420-40eacb078fe3"},"vehicle_type_id":"4","last_reported":1712968163,"current_range_meters":25600,"station_id":"ce4bgt12rcd13ifvqce0","pricing_plan_id":"cebpf4jnsgd1na2vs0mg"},{"bike_id":"485d4a00-d458-4fd7-bd50-eaf69f23b0f7","system_id":"levelo_inurba_marseille","lat":43.308012,"lon":5.381511,"is_reserved":false,"is_disabled":false,"rental_uris":{"android":"levelo://app?vid=485d4a00-d458-4fd7-bd50-eaf69f23b0f7","ios":"levelo://app?vid=485d4a00-d458-4fd7-bd50-eaf69f23b0f7"},"vehicle_type_id":"4","last_reported":1712968163,"current_range_meters":3600,"station_id":"ce4bgt12rcd13ifvqce0","pricing_plan_id":"cebpf4jnsgd1na2vs0mg"},{"bike_id":"b65df9b5-445b-42ab-9f9e-61066b503af4","system_id":"levelo_inurba_marseille","lat":43.308012,"lon":5.381511,"is_reserved":false,"is_disabled":false,"rental_uris":{"android":"levelo://app?vid=b65df9b5-445b-42ab-9f9e-61066b503af4","ios":"levelo://app?vid=b65df9b5-445b-42ab-9f9e-61066b503af4"},"vehicle_type_id":"4","last_reported":1712968163,"current_range_meters":14800,"station_id":"ce4bgt12rcd13ifvqce0","pricing_plan_id":"cebpf4jnsgd1na2vs0mg"},{"bike_id":"556f87ab-86ef-47fc-893d-6adc8c0b0479","system_id":"levelo_inurba_marseille","lat":43.30467,"lon":5.37908,"is_reserved":false,"is_disabled":false,"rental_uris":{"android":"levelo://app?vid=556f87ab-86ef-47fc-893d-6adc8c0b0479","ios":"levelo://app?vid=556f87ab-86ef-47fc-893d-6adc8c0b0479"},"vehicle_type_id":"4","last_reported":1712968163,"current_range_meters":0,"station_id":"ce4bgup2rcd13ifvqcn0","pricing_plan_id":"cebpf4jnsgd1na2vs0mg"},{"bike_id":"342b1a87-efe3-4691-a702-219fd4edfacb","system_id":"levelo_inurba_marseille","lat":43.32474,"lon":5.36612,"is_reserved":false,"is_disabled":false,"rental_uris":{"android":"levelo://app?vid=342b1a87-efe3-4691-a702-219fd4edfacb","ios":"levelo://app?vid=342b1a87-efe3-4691-a702-219fd4edfacb"},"vehicle_type_id":"4","last_reported":1712968163,"current_range_meters":1600,"station_id":"ce4bhs12rcd13ifvqhvg","pricing_plan_id":"cebpf4jnsgd1na2vs0mg"},{"bike_id":"3e0759af-3d58-47f1-9dc0-8d194d81ff18","system_id":"levelo_inurba_marseille","lat":43.279952,"lon":5.400085,"is_reserved":false,"is_disabled":false,"rental_uris":{"android":"levelo://app?vid=3e0759af-3d58-47f1-9dc0-8d194d81ff18","ios":"levelo://app?vid=3e0759af-3d58-47f1-9dc0-8d194d81ff18"},"vehicle_type_id":"4","last_reported":1712968163,"current_range_meters":19200,"station_id":"ce4bho92rcd13ifvqh4g","pricing_plan_id":"cebpf4jnsgd1na2vs0mg"},{"bike_id":"1eb69a65-b0a8-4ce5-a14f-f8a08c966a6f","system_id":"levelo_inurba_marseille","lat":43.324771,"lon":5.36557,"is_reserved":false,"is_disabled":false,"rental_uris":{"android":"levelo://app?vid=1eb69a65-b0a8-4ce5-a14f-f8a08c966a6f","ios":"levelo://app?vid=1eb69a65-b0a8-4ce5-a14f-f8a08c966a6f"},"vehicle_type_id":"4","last_reported":1712968163,"current_range_meters":21600,"station_id":"ce4bhs12rcd13ifvqhvg","pricing_plan_id":"cebpf4jnsgd1na2vs0mg"},{"bike_id":"656f1c61-14ce-4ffe-8fac-aecd55a31b63","system_id":"levelo_inurba_marseille","lat":43.324771,"lon":5.36557,"is_reserved":false,"is_disabled":false,"rental_uris":{"android":"levelo://app?vid=656f1c61-14ce-4ffe-8fac-aecd55a31b63","ios":"levelo://app?vid=656f1c61-14ce-4ffe-8fac-aecd55a31b63"},"vehicle_type_id":"4","last_reported":1712968163,"current_range_meters":4000,"station_id":"ce4bhs12rcd13ifvqhvg","pricing_plan_id":"cebpf4jnsgd1na2vs0mg"},{"bike_id":"3eb0e5ba-8206-4706-8e6a-165c4d917361","system_id":"levelo_inurba_marseille","lat":43.296263,"lon":5.40601,"is_reserved":false,"is_disabled":false,"rental_uris":{"android":"levelo://app?vid=3eb0e5ba-8206-4706-8e6a-165c4d917361","ios":"levelo://app?vid=3eb0e5ba-8206-4706-8e6a-165c4d917361"},"vehicle_type_id":"4","last_reported":1712968163,"current_range_meters":14400,"station_id":"ce4bh0h2rcd13ifvqd60","pricing_plan_id":"cebpf4jnsgd1na2vs0mg"},{"bike_id":"307082cd-38ec-4e2f-958c-a7ba81ca511b","system_id":"levelo_inurba_marseille","lat":43.324771,"lon":5.36557,"is_reserved":false,"is_disabled":false,"rental_uris":{"android":"levelo://app?vid=307082cd-38ec-4e2f-958c-a7ba81ca511b","ios":"levelo://app?vid=307082cd-38ec-4e2f-958c-a7ba81ca511b"},"vehicle_type_id":"4","last_reported":1712968163,"current_range_meters":4800,"station_id":"ce4bhs12rcd13ifvqhvg","pricing_plan_id":"cebpf4jnsgd1na2vs0mg"},{"bike_id":"aab8218e-5ae5-4259-8cfc-82eea594431c","system_id":"levelo_inurba_marseille","lat":43.324771,"lon":5.36557,"is_reserved":false,"is_disabled":false,"rental_uris":{"android":"levelo://app?vid=aab8218e-5ae5-4259-8cfc-82eea594431c","ios":"levelo://app?vid=aab8218e-5ae5-4259-8cfc-82eea594431c"},"vehicle_type_id":"4","last_reported":1712968163,"current_range_meters":12000,"station_id":"ce4bhs12rcd13ifvqhvg","pricing_plan_id":"cebpf4jnsgd1na2vs0mg"},{"bike_id":"79dd9bb3-f3e0-4123-95b1-2c96af192671","system_id":"levelo_inurba_marseille","lat":43.324771,"lon":5.36557,"is_reserved":false,"is_disabled":false,"rental_uris":{"android":"levelo://app?vid=79dd9bb3-f3e0-4123-95b1-2c96af192671","ios":"levelo://app?vid=79dd9bb3-f3e0-4123-95b1-2c96af192671"},"vehicle_type_id":"4","last_reported":1712968163,"current_range_meters":14800,"station_id":"ce4bhs12rcd13ifvqhvg","pricing_plan_id":"cebpf4jnsgd1na2vs0mg"},{"bike_id":"6fcac34d-4b8b-4ea1-8b39-2196ca6d95b7","system_id":"levelo_inurba_marseille","lat":43.324771,"lon":5.36557,"is_reserved":false,"is_disabled":false,"rental_uris":{"android":"levelo://app?vid=6fcac34d-4b8b-4ea1-8b39-2196ca6d95b7","ios":"levelo://app?vid=6fcac34d-4b8b-4ea1-8b39-2196ca6d95b7"},"vehicle_type_id":"4","last_reported":1712968163,"current_range_meters":5200,"station_id":"ce4bhs12rcd13ifvqhvg","pricing_plan_id":"cebpf4jnsgd1na2vs0mg"},{"bike_id":"8233e652-c11d-4da5-8d18-f06b3c5caa11","system_id":"levelo_inurba_marseille","lat":43.324771,"lon":5.36557,"is_reserved":false,"is_disabled":false,"rental_uris":{"android":"levelo://app?vid=8233e652-c11d-4da5-8d18-f06b3c5caa11","ios":"levelo://app?vid=8233e652-c11d-4da5-8d18-f06b3c5caa11"},"vehicle_type_id":"4","last_reported":1712968163,"current_range_meters":9600,"station_id":"ce4bhs12rcd13ifvqhvg","pricing_plan_id":"cebpf4jnsgd1na2vs0mg"},{"bike_id":"53b5ac87-077f-4097-830d-24ecc1bb3498","system_id":"levelo_inurba_marseille","lat":43.31072,"lon":5.38352,"is_reserved":false,"is_disabled":false,"rental_uris":{"android":"levelo://app?vid=53b5ac87-077f-4097-830d-24ecc1bb3498","ios":"levelo://app?vid=53b5ac87-077f-4097-830d-24ecc1bb3498"},"vehicle_type_id":"4","last_reported":1712968163,"current_range_meters":20400,"station_id":"ce4bgv92rcd13ifvqcr0","pricing_plan_id":"cebpf4jnsgd1na2vs0mg"},{"bike_id":"d6ab4ce5-10f5-447a-b384-f93b0d045482","system_id":"levelo_inurba_marseille","lat":43.310725,"lon":5.383593,"is_reserved":false,"is_disabled":false,"rental_uris":{"android":"levelo://app?vid=d6ab4ce5-10f5-447a-b384-f93b0d045482","ios":"levelo://app?vid=d6ab4ce5-10f5-447a-b384-f93b0d045482"},"vehicle_type_id":"4","last_reported":1712968163,"current_range_meters":9600,"station_id":"ce4bgv92rcd13ifvqcr0","pricing_plan_id":"cebpf4jnsgd1na2vs0mg"},{"bike_id":"6db34a2e-b981-4596-af34-28f7ef07c882","system_id":"levelo_inurba_marseille","lat":43.302784,"lon":5.377158,"is_reserved":false,"is_disabled":false,"rental_uris":{"android":"levelo://app?vid=6db34a2e-b981-4596-af34-28f7ef07c882","ios":"levelo://app?vid=6db34a2e-b981-4596-af34-28f7ef07c882"},"vehicle_type_id":"4","last_reported":1712968163,"current_range_meters":9600,"station_id":"ce4bguh2rcd13ifvqcj0","pricing_plan_id":"cebpf4jnsgd1na2vs0mg"},{"bike_id":"d741033c-d76b-49cc-b85f-bb61d10db2af","system_id":"levelo_inurba_marseille","lat":43.301429,"lon":5.37413,"is_reserved":false,"is_disabled":false,"rental_uris":{"android":"levelo://app?vid=d741033c-d76b-49cc-b85f-bb61d10db2af","ios":"levelo://app?vid=d741033c-d76b-49cc-b85f-bb61d10db2af"},"vehicle_type_id":"4","last_reported":1712968163,"current_range_meters":2000,"station_id":"ce4bgs92rcd13ifvqcc0","pricing_plan_id":"cebpf4jnsgd1na2vs0mg"},{"bike_id":"9165843a-1710-47f6-acc2-8ac6b465822d","system_id":"levelo_inurba_marseille","lat":43.319935,"lon":5.381699,"is_reserved":false,"is_disabled":false,"rental_uris":{"android":"levelo://app?vid=9165843a-1710-47f6-acc2-8ac6b465822d","ios":"levelo://app?vid=9165843a-1710-47f6-acc2-8ac6b465822d"},"vehicle_type_id":"4","last_reported":1712968163,"current_range_meters":0,"station_id":"ce4bhr12rcd13ifvqhpg","pricing_plan_id":"cebpf4jnsgd1na2vs0mg"},{"bike_id":"31d436d2-22f4-444b-92ad-c36128c84b47","system_id":"levelo_inurba_marseille","lat":43.31996,"lon":5.38147,"is_reserved":false,"is_disabled":false,"rental_uris":{"android":"levelo://app?vid=31d436d2-22f4-444b-92ad-c36128c84b47","ios":"levelo://app?vid=31d436d2-22f4-444b-92ad-c36128c84b47"},"vehicle_type_id":"4","last_reported":1712968163,"current_range_meters":0,"station_id":"ce4bhr12rcd13ifvqhpg","pricing_plan_id":"cebpf4jnsgd1na2vs0mg"},{"bike_id":"387b7c6f-c287-4395-823a-85058889ede8","system_id":"levelo_inurba_marseille","lat":43.319935,"lon":5.381699,"is_reserved":false,"is_disabled":false,"rental_uris":{"android":"levelo://app?vid=387b7c6f-c287-4395-823a-85058889ede8","ios":"levelo://app?vid=387b7c6f-c287-4395-823a-85058889ede8"},"vehicle_type_id":"4","last_reported":1712968163,"current_range_meters":0,"station_id":"ce4bhr12rcd13ifvqhpg","pricing_plan_id":"cebpf4jnsgd1na2vs0mg"},{"bike_id":"040fe1e7-78d3-4d84-b369-f81c31655017","system_id":"levelo_inurba_marseille","lat":43.319935,"lon":5.381699,"is_reserved":false,"is_disabled":false,"rental_uris":{"android":"levelo://app?vid=040fe1e7-78d3-4d84-b369-f81c31655017","ios":"levelo://app?vid=040fe1e7-78d3-4d84-b369-f81c31655017"},"vehicle_type_id":"4","last_reported":1712968163,"current_range_meters":1200,"station_id":"ce4bhr12rcd13ifvqhpg","pricing_plan_id":"cebpf4jnsgd1na2vs0mg"},{"bike_id":"4e55ca64-fe78-48a2-9719-7902d95f15e6","system_id":"levelo_inurba_marseille","lat":43.319935,"lon":5.381699,"is_reserved":false,"is_disabled":false,"rental_uris":{"android":"levelo://app?vid=4e55ca64-fe78-48a2-9719-7902d95f15e6","ios":"levelo://app?vid=4e55ca64-fe78-48a2-9719-7902d95f15e6"},"vehicle_type_id":"4","last_reported":1712968163,"current_range_meters":2400,"station_id":"ce4bhr12rcd13ifvqhpg","pricing_plan_id":"cebpf4jnsgd1na2vs0mg"},{"bike_id":"1afbaa79-8dce-49b3-86ba-6f2a9f381b25","system_id":"levelo_inurba_marseille","lat":43.32001,"lon":5.38152,"is_reserved":false,"is_disabled":false,"rental_uris":{"android":"levelo://app?vid=1afbaa79-8dce-49b3-86ba-6f2a9f381b25","ios":"levelo://app?vid=1afbaa79-8dce-49b3-86ba-6f2a9f381b25"},"vehicle_type_id":"4","last_reported":1712968163,"current_range_meters":0,"station_id":"ce4bhr12rcd13ifvqhpg","pricing_plan_id":"cebpf4jnsgd1na2vs0mg"},{"bike_id":"afb78cb4-71b4-4594-a1f1-9ba7b02b5aee","system_id":"levelo_inurba_marseille","lat":43.319935,"lon":5.381699,"is_reserved":false,"is_disabled":false,"rental_uris":{"android":"levelo://app?vid=afb78cb4-71b4-4594-a1f1-9ba7b02b5aee","ios":"levelo://app?vid=afb78cb4-71b4-4594-a1f1-9ba7b02b5aee"},"vehicle_type_id":"4","last_reported":1712968163,"current_range_meters":2800,"station_id":"ce4bhr12rcd13ifvqhpg","pricing_plan_id":"cebpf4jnsgd1na2vs0mg"},{"bike_id":"e2468eed-aa0b-4865-9d54-79680762995a","system_id":"levelo_inurba_marseille","lat":43.320017,"lon":5.381543,"is_reserved":false,"is_disabled":false,"rental_uris":{"android":"levelo://app?vid=e2468eed-aa0b-4865-9d54-79680762995a","ios":"levelo://app?vid=e2468eed-aa0b-4865-9d54-79680762995a"},"vehicle_type_id":"4","last_reported":1712968163,"current_range_meters":0,"station_id":"ce4bhr12rcd13ifvqhpg","pricing_plan_id":"cebpf4jnsgd1na2vs0mg"},{"bike_id":"0ed2869d-f685-4084-b481-e5b7ee0fd9b2","system_id":"levelo_inurba_marseille","lat":43.304278,"lon":5.388868,"is_reserved":false,"is_disabled":false,"rental_uris":{"android":"levelo://app?vid=0ed2869d-f685-4084-b481-e5b7ee0fd9b2","ios":"levelo://app?vid=0ed2869d-f685-4084-b481-e5b7ee0fd9b2"},"vehicle_type_id":"4","last_reported":1712968163,"current_range_meters":16400,"station_id":"ce4bgk12rcd13ifvqbi0","pricing_plan_id":"cebpf4jnsgd1na2vs0mg"},{"bike_id":"6eba097a-afc7-4b1a-9434-003367f81a31","system_id":"levelo_inurba_marseille","lat":43.313571,"lon":5.384829,"is_reserved":false,"is_disabled":false,"rental_uris":{"android":"levelo://app?vid=6eba097a-afc7-4b1a-9434-003367f81a31","ios":"levelo://app?vid=6eba097a-afc7-4b1a-9434-003367f81a31"},"vehicle_type_id":"4","last_reported":1712968163,"current_range_meters":16800,"station_id":"ce4bgt92rcd13ifvqcf0","pricing_plan_id":"cebpf4jnsgd1na2vs0mg"},{"bike_id":"d261eeae-0d81-4912-a352-2f171f65840b","system_id":"levelo_inurba_marseille","lat":43.304274,"lon":5.388873,"is_reserved":false,"is_disabled":false,"rental_uris":{"android":"levelo://app?vid=d261eeae-0d81-4912-a352-2f171f65840b","ios":"levelo://app?vid=d261eeae-0d81-4912-a352-2f171f65840b"},"vehicle_type_id":"4","last_reported":1712968163,"current_range_meters":18000,"station_id":"ce4bgk12rcd13ifvqbi0","pricing_plan_id":"cebpf4jnsgd1na2vs0mg"},{"bike_id":"2d5dd2cc-2ffe-43ca-9589-41de1f8f1306","system_id":"levelo_inurba_marseille","lat":43.31368,"lon":5.38492,"is_reserved":false,"is_disabled":false,"rental_uris":{"android":"levelo://app?vid=2d5dd2cc-2ffe-43ca-9589-41de1f8f1306","ios":"levelo://app?vid=2d5dd2cc-2ffe-43ca-9589-41de1f8f1306"},"vehicle_type_id":"4","last_reported":1712968163,"current_range_meters":800,"station_id":"ce4bgt92rcd13ifvqcf0","pricing_plan_id":"cebpf4jnsgd1na2vs0mg"},{"bike_id":"e1af2788-98bc-4618-b1b6-381095b26e03","system_id":"levelo_inurba_marseille","lat":43.313571,"lon":5.384829,"is_reserved":false,"is_disabled":false,"rental_uris":{"android":"levelo://app?vid=e1af2788-98bc-4618-b1b6-381095b26e03","ios":"levelo://app?vid=e1af2788-98bc-4618-b1b6-381095b26e03"},"vehicle_type_id":"4","last_reported":1712968163,"current_range_meters":17200,"station_id":"ce4bgt92rcd13ifvqcf0","pricing_plan_id":"cebpf4jnsgd1na2vs0mg"},{"bike_id":"8ccbb034-16e8-47be-b2be-fa259e16e701","system_id":"levelo_inurba_marseille","lat":43.313571,"lon":5.384829,"is_reserved":false,"is_disabled":false,"rental_uris":{"android":"levelo://app?vid=8ccbb034-16e8-47be-b2be-fa259e16e701","ios":"levelo://app?vid=8ccbb034-16e8-47be-b2be-fa259e16e701"},"vehicle_type_id":"4","last_reported":1712968163,"current_range_meters":11200,"station_id":"ce4bgt92rcd13ifvqcf0","pricing_plan_id":"cebpf4jnsgd1na2vs0mg"},{"bike_id":"ffcc0c21-2e5c-40ad-b32d-a7aabb2fd725","system_id":"levelo_inurba_marseille","lat":43.31372,"lon":5.38513,"is_reserved":false,"is_disabled":false,"rental_uris":{"android":"levelo://app?vid=ffcc0c21-2e5c-40ad-b32d-a7aabb2fd725","ios":"levelo://app?vid=ffcc0c21-2e5c-40ad-b32d-a7aabb2fd725"},"vehicle_type_id":"4","last_reported":1712968163,"current_range_meters":14000,"station_id":"ce4bgt92rcd13ifvqcf0","pricing_plan_id":"cebpf4jnsgd1na2vs0mg"},{"bike_id":"f9f4a55e-44b6-4cbc-823e-7f8b0e6eae85","system_id":"levelo_inurba_marseille","lat":43.29943,"lon":5.36535,"is_reserved":false,"is_disabled":false,"rental_uris":{"android":"levelo://app?vid=f9f4a55e-44b6-4cbc-823e-7f8b0e6eae85","ios":"levelo://app?vid=f9f4a55e-44b6-4cbc-823e-7f8b0e6eae85"},"vehicle_type_id":"4","last_reported":1712968163,"current_range_meters":0,"station_id":"ce4bgm92rcd13ifvqbr0","pricing_plan_id":"cebpf4jnsgd1na2vs0mg"},{"bike_id":"081bd374-dc4d-4741-a6be-cc735125969f","system_id":"levelo_inurba_marseille","lat":43.299724,"lon":5.371829,"is_reserved":false,"is_disabled":false,"rental_uris":{"android":"levelo://app?vid=081bd374-dc4d-4741-a6be-cc735125969f","ios":"levelo://app?vid=081bd374-dc4d-4741-a6be-cc735125969f"},"vehicle_type_id":"4","last_reported":1712968163,"current_range_meters":26400,"station_id":"ce4bgr92rcd13ifvqc7g","pricing_plan_id":"cebpf4jnsgd1na2vs0mg"},{"bike_id":"169b2617-a95a-4fa8-9bad-415af43c2c8d","system_id":"levelo_inurba_marseille","lat":43.299724,"lon":5.371829,"is_reserved":false,"is_disabled":false,"rental_uris":{"android":"levelo://app?vid=169b2617-a95a-4fa8-9bad-415af43c2c8d","ios":"levelo://app?vid=169b2617-a95a-4fa8-9bad-415af43c2c8d"},"vehicle_type_id":"4","last_reported":1712968163,"current_range_meters":5200,"station_id":"ce4bgr92rcd13ifvqc7g","pricing_plan_id":"cebpf4jnsgd1na2vs0mg"},{"bike_id":"c4e566d1-4e1d-4730-90cb-0bac5aa9f249","system_id":"levelo_inurba_marseille","lat":43.305364,"lon":5.384119,"is_reserved":false,"is_disabled":false,"rental_uris":{"android":"levelo://app?vid=c4e566d1-4e1d-4730-90cb-0bac5aa9f249","ios":"levelo://app?vid=c4e566d1-4e1d-4730-90cb-0bac5aa9f249"},"vehicle_type_id":"4","last_reported":1712968163,"current_range_meters":20800,"station_id":"ce4bgg92rcd13ifvqb30","pricing_plan_id":"cebpf4jnsgd1na2vs0mg"},{"bike_id":"2e30fffc-de32-4f9a-bd21-4134f69dbf01","system_id":"levelo_inurba_marseille","lat":43.305364,"lon":5.384119,"is_reserved":false,"is_disabled":false,"rental_uris":{"android":"levelo://app?vid=2e30fffc-de32-4f9a-bd21-4134f69dbf01","ios":"levelo://app?vid=2e30fffc-de32-4f9a-bd21-4134f69dbf01"},"vehicle_type_id":"4","last_reported":1712968163,"current_range_meters":21600,"station_id":"ce4bgg92rcd13ifvqb30","pricing_plan_id":"cebpf4jnsgd1na2vs0mg"},{"bike_id":"5e700b7b-4897-4e02-b092-372a381a3be9","system_id":"levelo_inurba_marseille","lat":43.305364,"lon":5.384119,"is_reserved":false,"is_disabled":false,"rental_uris":{"android":"levelo://app?vid=5e700b7b-4897-4e02-b092-372a381a3be9","ios":"levelo://app?vid=5e700b7b-4897-4e02-b092-372a381a3be9"},"vehicle_type_id":"4","last_reported":1712968163,"current_range_meters":5200,"station_id":"ce4bgg92rcd13ifvqb30","pricing_plan_id":"cebpf4jnsgd1na2vs0mg"},{"bike_id":"938a79bf-71eb-4f36-837f-d25a1a7ec660","system_id":"levelo_inurba_marseille","lat":43.311722,"lon":5.387247,"is_reserved":false,"is_disabled":false,"rental_uris":{"android":"levelo://app?vid=938a79bf-71eb-4f36-837f-d25a1a7ec660","ios":"levelo://app?vid=938a79bf-71eb-4f36-837f-d25a1a7ec660"},"vehicle_type_id":"4","last_reported":1712968163,"current_range_meters":19600,"station_id":"ce4bgv12rcd13ifvqcp0","pricing_plan_id":"cebpf4jnsgd1na2vs0mg"},{"bike_id":"08e03e2b-c2ba-4b65-9109-21c546431714","system_id":"levelo_inurba_marseille","lat":43.311806,"lon":5.387134,"is_reserved":false,"is_disabled":false,"rental_uris":{"android":"levelo://app?vid=08e03e2b-c2ba-4b65-9109-21c546431714","ios":"levelo://app?vid=08e03e2b-c2ba-4b65-9109-21c546431714"},"vehicle_type_id":"4","last_reported":1712968163,"current_range_meters":0,"station_id":"ce4bgv12rcd13ifvqcp0","pricing_plan_id":"cebpf4jnsgd1na2vs0mg"},{"bike_id":"ff8fd808-f44c-40e3-afbc-ee61614d8e94","system_id":"levelo_inurba_marseille","lat":43.311722,"lon":5.387247,"is_reserved":false,"is_disabled":false,"rental_uris":{"android":"levelo://app?vid=ff8fd808-f44c-40e3-afbc-ee61614d8e94","ios":"levelo://app?vid=ff8fd808-f44c-40e3-afbc-ee61614d8e94"},"vehicle_type_id":"4","last_reported":1712968163,"current_range_meters":22400,"station_id":"ce4bgv12rcd13ifvqcp0","pricing_plan_id":"cebpf4jnsgd1na2vs0mg"},{"bike_id":"39f8fb0c-fe40-47f7-b20d-936f88567206","system_id":"levelo_inurba_marseille","lat":43.311722,"lon":5.387247,"is_reserved":false,"is_disabled":false,"rental_uris":{"android":"levelo://app?vid=39f8fb0c-fe40-47f7-b20d-936f88567206","ios":"levelo://app?vid=39f8fb0c-fe40-47f7-b20d-936f88567206"},"vehicle_type_id":"4","last_reported":1712968163,"current_range_meters":14800,"station_id":"ce4bgv12rcd13ifvqcp0","pricing_plan_id":"cebpf4jnsgd1na2vs0mg"},{"bike_id":"ca74f69e-0319-47cd-845d-0d3c0b9e721f","system_id":"levelo_inurba_marseille","lat":43.311722,"lon":5.387247,"is_reserved":false,"is_disabled":false,"rental_uris":{"android":"levelo://app?vid=ca74f69e-0319-47cd-845d-0d3c0b9e721f","ios":"levelo://app?vid=ca74f69e-0319-47cd-845d-0d3c0b9e721f"},"vehicle_type_id":"4","last_reported":1712968163,"current_range_meters":8400,"station_id":"ce4bgv12rcd13ifvqcp0","pricing_plan_id":"cebpf4jnsgd1na2vs0mg"},{"bike_id":"808393e5-ed33-4522-8de5-712d2bbede7b","system_id":"levelo_inurba_marseille","lat":43.311722,"lon":5.387247,"is_reserved":false,"is_disabled":false,"rental_uris":{"android":"levelo://app?vid=808393e5-ed33-4522-8de5-712d2bbede7b","ios":"levelo://app?vid=808393e5-ed33-4522-8de5-712d2bbede7b"},"vehicle_type_id":"4","last_reported":1712968163,"current_range_meters":28800,"station_id":"ce4bgv12rcd13ifvqcp0","pricing_plan_id":"cebpf4jnsgd1na2vs0mg"},{"bike_id":"3f170d90-d8fa-4f70-9dfd-27fc8af86cb9","system_id":"levelo_inurba_marseille","lat":43.311722,"lon":5.387247,"is_reserved":false,"is_disabled":false,"rental_uris":{"android":"levelo://app?vid=3f170d90-d8fa-4f70-9dfd-27fc8af86cb9","ios":"levelo://app?vid=3f170d90-d8fa-4f70-9dfd-27fc8af86cb9"},"vehicle_type_id":"4","last_reported":1712968163,"current_range_meters":19200,"station_id":"ce4bgv12rcd13ifvqcp0","pricing_plan_id":"cebpf4jnsgd1na2vs0mg"},{"bike_id":"d02e1223-6cf4-4c8c-bf9b-009a307b1124","system_id":"levelo_inurba_marseille","lat":43.311722,"lon":5.387247,"is_reserved":false,"is_disabled":false,"rental_uris":{"android":"levelo://app?vid=d02e1223-6cf4-4c8c-bf9b-009a307b1124","ios":"levelo://app?vid=d02e1223-6cf4-4c8c-bf9b-009a307b1124"},"vehicle_type_id":"4","last_reported":1712968163,"current_range_meters":8400,"station_id":"ce4bgv12rcd13ifvqcp0","pricing_plan_id":"cebpf4jnsgd1na2vs0mg"},{"bike_id":"0ed49129-4575-43da-bc55-e0865e963cc2","system_id":"levelo_inurba_marseille","lat":43.28573,"lon":5.394992,"is_reserved":false,"is_disabled":false,"rental_uris":{"android":"levelo://app?vid=0ed49129-4575-43da-bc55-e0865e963cc2","ios":"levelo://app?vid=0ed49129-4575-43da-bc55-e0865e963cc2"},"vehicle_type_id":"4","last_reported":1712968163,"current_range_meters":10400,"station_id":"ce4bh292rcd13ifvqdg0","pricing_plan_id":"cebpf4jnsgd1na2vs0mg"},{"bike_id":"1efddf8f-6da4-4a02-8420-e91a53e0fa62","system_id":"levelo_inurba_marseille","lat":43.32289,"lon":5.38269,"is_reserved":false,"is_disabled":false,"rental_uris":{"android":"levelo://app?vid=1efddf8f-6da4-4a02-8420-e91a53e0fa62","ios":"levelo://app?vid=1efddf8f-6da4-4a02-8420-e91a53e0fa62"},"vehicle_type_id":"4","last_reported":1712968163,"current_range_meters":14800,"station_id":"ce4bhr12rcd13ifvqhqg","pricing_plan_id":"cebpf4jnsgd1na2vs0mg"},{"bike_id":"e9575f6a-7c71-448f-ab59-80d8e8773a2f","system_id":"levelo_inurba_marseille","lat":43.32293,"lon":5.38266,"is_reserved":false,"is_disabled":false,"rental_uris":{"android":"levelo://app?vid=e9575f6a-7c71-448f-ab59-80d8e8773a2f","ios":"levelo://app?vid=e9575f6a-7c71-448f-ab59-80d8e8773a2f"},"vehicle_type_id":"4","last_reported":1712968163,"current_range_meters":26000,"station_id":"ce4bhr12rcd13ifvqhqg","pricing_plan_id":"cebpf4jnsgd1na2vs0mg"},{"bike_id":"bf9fc7c8-729e-42b2-8f88-c498243e6b33","system_id":"levelo_inurba_marseille","lat":43.297774,"lon":5.370875,"is_reserved":false,"is_disabled":false,"rental_uris":{"android":"levelo://app?vid=bf9fc7c8-729e-42b2-8f88-c498243e6b33","ios":"levelo://app?vid=bf9fc7c8-729e-42b2-8f88-c498243e6b33"},"vehicle_type_id":"4","last_reported":1712968163,"current_range_meters":26000,"station_id":"ce4bgop2rcd13ifvqc1g","pricing_plan_id":"cebpf4jnsgd1na2vs0mg"},{"bike_id":"471f6dc1-72d2-49b3-a8bb-13ca96ae22c1","system_id":"levelo_inurba_marseille","lat":43.32285,"lon":5.38283,"is_reserved":false,"is_disabled":false,"rental_uris":{"android":"levelo://app?vid=471f6dc1-72d2-49b3-a8bb-13ca96ae22c1","ios":"levelo://app?vid=471f6dc1-72d2-49b3-a8bb-13ca96ae22c1"},"vehicle_type_id":"4","last_reported":1712968163,"current_range_meters":4800,"station_id":"ce4bhr12rcd13ifvqhqg","pricing_plan_id":"cebpf4jnsgd1na2vs0mg"},{"bike_id":"fd0e787b-e66a-4269-af3f-4a6adbcdac18","system_id":"levelo_inurba_marseille","lat":43.297774,"lon":5.370875,"is_reserved":false,"is_disabled":false,"rental_uris":{"android":"levelo://app?vid=fd0e787b-e66a-4269-af3f-4a6adbcdac18","ios":"levelo://app?vid=fd0e787b-e66a-4269-af3f-4a6adbcdac18"},"vehicle_type_id":"4","last_reported":1712968163,"current_range_meters":2000,"station_id":"ce4bgop2rcd13ifvqc1g","pricing_plan_id":"cebpf4jnsgd1na2vs0mg"},{"bike_id":"62f70c15-673b-4b5f-8664-4716e8ac8804","system_id":"levelo_inurba_marseille","lat":43.322872,"lon":5.382756,"is_reserved":false,"is_disabled":false,"rental_uris":{"android":"levelo://app?vid=62f70c15-673b-4b5f-8664-4716e8ac8804","ios":"levelo://app?vid=62f70c15-673b-4b5f-8664-4716e8ac8804"},"vehicle_type_id":"4","last_reported":1712968163,"current_range_meters":28400,"station_id":"ce4bhr12rcd13ifvqhqg","pricing_plan_id":"cebpf4jnsgd1na2vs0mg"},{"bike_id":"dd52472c-3893-457b-90ad-84f72f0fab2f","system_id":"levelo_inurba_marseille","lat":43.297163,"lon":5.365866,"is_reserved":false,"is_disabled":false,"rental_uris":{"android":"levelo://app?vid=dd52472c-3893-457b-90ad-84f72f0fab2f","ios":"levelo://app?vid=dd52472c-3893-457b-90ad-84f72f0fab2f"},"vehicle_type_id":"4","last_reported":1712968163,"current_range_meters":28800,"station_id":"ce4bgn12rcd13ifvqbt0","pricing_plan_id":"cebpf4jnsgd1na2vs0mg"},{"bike_id":"3808a2dd-2208-4f21-9156-984a7a9500f9","system_id":"levelo_inurba_marseille","lat":43.29703,"lon":5.36598,"is_reserved":false,"is_disabled":false,"rental_uris":{"android":"levelo://app?vid=3808a2dd-2208-4f21-9156-984a7a9500f9","ios":"levelo://app?vid=3808a2dd-2208-4f21-9156-984a7a9500f9"},"vehicle_type_id":"4","last_reported":1712968163,"current_range_meters":16400,"station_id":"","pricing_plan_id":"cebpf4jnsgd1na2vs0mg"},{"bike_id":"e226951c-1b33-4512-8fff-47f9386b4a09","system_id":"levelo_inurba_marseille","lat":43.2968,"lon":5.37291,"is_reserved":false,"is_disabled":false,"rental_uris":{"android":"levelo://app?vid=e226951c-1b33-4512-8fff-47f9386b4a09","ios":"levelo://app?vid=e226951c-1b33-4512-8fff-47f9386b4a09"},"vehicle_type_id":"4","last_reported":1712968163,"current_range_meters":20400,"station_id":"ce4bgk12rcd13ifvqbj0","pricing_plan_id":"cebpf4jnsgd1na2vs0mg"},{"bike_id":"78c5a505-666b-4fec-ae2b-a393e84e2927","system_id":"levelo_inurba_marseille","lat":43.296131,"lon":5.370791,"is_reserved":false,"is_disabled":false,"rental_uris":{"android":"levelo://app?vid=78c5a505-666b-4fec-ae2b-a393e84e2927","ios":"levelo://app?vid=78c5a505-666b-4fec-ae2b-a393e84e2927"},"vehicle_type_id":"4","last_reported":1712968163,"current_range_meters":0,"station_id":"ce4bgnh2rcd13ifvqc0g","pricing_plan_id":"cebpf4jnsgd1na2vs0mg"},{"bike_id":"fdeda87c-fe4d-4ea1-b1cc-cc98f99df25b","system_id":"levelo_inurba_marseille","lat":43.29573,"lon":5.367355,"is_reserved":false,"is_disabled":false,"rental_uris":{"android":"levelo://app?vid=fdeda87c-fe4d-4ea1-b1cc-cc98f99df25b","ios":"levelo://app?vid=fdeda87c-fe4d-4ea1-b1cc-cc98f99df25b"},"vehicle_type_id":"4","last_reported":1712968163,"current_range_meters":15600,"station_id":"ce4bgph2rcd13ifvqc2g","pricing_plan_id":"cebpf4jnsgd1na2vs0mg"},{"bike_id":"09b8f7eb-44f2-4a17-bd78-e0b4d1a7392e","system_id":"levelo_inurba_marseille","lat":43.309589,"lon":5.390258,"is_reserved":false,"is_disabled":false,"rental_uris":{"android":"levelo://app?vid=09b8f7eb-44f2-4a17-bd78-e0b4d1a7392e","ios":"levelo://app?vid=09b8f7eb-44f2-4a17-bd78-e0b4d1a7392e"},"vehicle_type_id":"4","last_reported":1712968163,"current_range_meters":7600,"station_id":"ce4bgup2rcd13ifvqco0","pricing_plan_id":"cebpf4jnsgd1na2vs0mg"},{"bike_id":"f0761be2-a9d7-4e53-9794-8943767c82f9","system_id":"levelo_inurba_marseille","lat":43.317557,"lon":5.390173,"is_reserved":false,"is_disabled":false,"rental_uris":{"android":"levelo://app?vid=f0761be2-a9d7-4e53-9794-8943767c82f9","ios":"levelo://app?vid=f0761be2-a9d7-4e53-9794-8943767c82f9"},"vehicle_type_id":"4","last_reported":1712968163,"current_range_meters":27600,"station_id":"ce4bhqp2rcd13ifvqhng","pricing_plan_id":"cebpf4jnsgd1na2vs0mg"},{"bike_id":"6681b098-48fd-4e49-8880-62f96600668f","system_id":"levelo_inurba_marseille","lat":43.31761,"lon":5.39014,"is_reserved":false,"is_disabled":false,"rental_uris":{"android":"levelo://app?vid=6681b098-48fd-4e49-8880-62f96600668f","ios":"levelo://app?vid=6681b098-48fd-4e49-8880-62f96600668f"},"vehicle_type_id":"4","last_reported":1712968163,"current_range_meters":800,"station_id":"ce4bhqp2rcd13ifvqhng","pricing_plan_id":"cebpf4jnsgd1na2vs0mg"},{"bike_id":"1353979a-a377-4553-ad62-b2c43b4732d1","system_id":"levelo_inurba_marseille","lat":43.317557,"lon":5.390173,"is_reserved":false,"is_disabled":false,"rental_uris":{"android":"levelo://app?vid=1353979a-a377-4553-ad62-b2c43b4732d1","ios":"levelo://app?vid=1353979a-a377-4553-ad62-b2c43b4732d1"},"vehicle_type_id":"4","last_reported":1712968163,"current_range_meters":11600,"station_id":"ce4bhqp2rcd13ifvqhng","pricing_plan_id":"cebpf4jnsgd1na2vs0mg"},{"bike_id":"266c296e-493f-4649-800c-f2b759f100f6","system_id":"levelo_inurba_marseille","lat":43.31765,"lon":5.39017,"is_reserved":false,"is_disabled":false,"rental_uris":{"android":"levelo://app?vid=266c296e-493f-4649-800c-f2b759f100f6","ios":"levelo://app?vid=266c296e-493f-4649-800c-f2b759f100f6"},"vehicle_type_id":"4","last_reported":1712968163,"current_range_meters":0,"station_id":"ce4bhqp2rcd13ifvqhng","pricing_plan_id":"cebpf4jnsgd1na2vs0mg"},{"bike_id":"30f2ae1b-3210-4b5b-a8e8-790293486fc1","system_id":"levelo_inurba_marseille","lat":43.304274,"lon":5.388873,"is_reserved":false,"is_disabled":false,"rental_uris":{"android":"levelo://app?vid=30f2ae1b-3210-4b5b-a8e8-790293486fc1","ios":"levelo://app?vid=30f2ae1b-3210-4b5b-a8e8-790293486fc1"},"vehicle_type_id":"4","last_reported":1712968163,"current_range_meters":6400,"station_id":"ce4bgk12rcd13ifvqbi0","pricing_plan_id":"cebpf4jnsgd1na2vs0mg"},{"bike_id":"3ddbaaa9-15f4-40e6-8946-0851b7f60a5b","system_id":"levelo_inurba_marseille","lat":43.304274,"lon":5.388873,"is_reserved":false,"is_disabled":false,"rental_uris":{"android":"levelo://app?vid=3ddbaaa9-15f4-40e6-8946-0851b7f60a5b","ios":"levelo://app?vid=3ddbaaa9-15f4-40e6-8946-0851b7f60a5b"},"vehicle_type_id":"4","last_reported":1712968163,"current_range_meters":25600,"station_id":"ce4bgk12rcd13ifvqbi0","pricing_plan_id":"cebpf4jnsgd1na2vs0mg"},{"bike_id":"f76fe9ec-b8fd-4dc1-b090-4961bbaaa42a","system_id":"levelo_inurba_marseille","lat":43.304274,"lon":5.388873,"is_reserved":false,"is_disabled":false,"rental_uris":{"android":"levelo://app?vid=f76fe9ec-b8fd-4dc1-b090-4961bbaaa42a","ios":"levelo://app?vid=f76fe9ec-b8fd-4dc1-b090-4961bbaaa42a"},"vehicle_type_id":"4","last_reported":1712968163,"current_range_meters":10800,"station_id":"ce4bgk12rcd13ifvqbi0","pricing_plan_id":"cebpf4jnsgd1na2vs0mg"},{"bike_id":"f269e3b6-bd50-40ad-88c5-d03f9af70d46","system_id":"levelo_inurba_marseille","lat":43.295748,"lon":5.37522,"is_reserved":false,"is_disabled":false,"rental_uris":{"android":"levelo://app?vid=f269e3b6-bd50-40ad-88c5-d03f9af70d46","ios":"levelo://app?vid=f269e3b6-bd50-40ad-88c5-d03f9af70d46"},"vehicle_type_id":"4","last_reported":1712968163,"current_range_meters":11600,"station_id":"ce4bgh92rcd13ifvqb50","pricing_plan_id":"cebpf4jnsgd1na2vs0mg"},{"bike_id":"9b780e05-fd97-4098-84fb-fe802218cb34","system_id":"levelo_inurba_marseille","lat":43.304278,"lon":5.388868,"is_reserved":false,"is_disabled":false,"rental_uris":{"android":"levelo://app?vid=9b780e05-fd97-4098-84fb-fe802218cb34","ios":"levelo://app?vid=9b780e05-fd97-4098-84fb-fe802218cb34"},"vehicle_type_id":"4","last_reported":1712968163,"current_range_meters":6800,"station_id":"ce4bgk12rcd13ifvqbi0","pricing_plan_id":"cebpf4jnsgd1na2vs0mg"},{"bike_id":"181f9c77-29b0-4ce3-9632-4d08ac31eef3","system_id":"levelo_inurba_marseille","lat":43.304274,"lon":5.388873,"is_reserved":false,"is_disabled":false,"rental_uris":{"android":"levelo://app?vid=181f9c77-29b0-4ce3-9632-4d08ac31eef3","ios":"levelo://app?vid=181f9c77-29b0-4ce3-9632-4d08ac31eef3"},"vehicle_type_id":"4","last_reported":1712968163,"current_range_meters":28400,"station_id":"ce4bgk12rcd13ifvqbi0","pricing_plan_id":"cebpf4jnsgd1na2vs0mg"},{"bike_id":"87768a68-be65-4247-a158-926ad4417bfe","system_id":"levelo_inurba_marseille","lat":43.304278,"lon":5.388868,"is_reserved":false,"is_disabled":false,"rental_uris":{"android":"levelo://app?vid=87768a68-be65-4247-a158-926ad4417bfe","ios":"levelo://app?vid=87768a68-be65-4247-a158-926ad4417bfe"},"vehicle_type_id":"4","last_reported":1712968163,"current_range_meters":19600,"station_id":"ce4bgk12rcd13ifvqbi0","pricing_plan_id":"cebpf4jnsgd1na2vs0mg"},{"bike_id":"2a251b41-5714-4224-873c-9fdbbaf88ce5","system_id":"levelo_inurba_marseille","lat":43.304278,"lon":5.388868,"is_reserved":false,"is_disabled":false,"rental_uris":{"android":"levelo://app?vid=2a251b41-5714-4224-873c-9fdbbaf88ce5","ios":"levelo://app?vid=2a251b41-5714-4224-873c-9fdbbaf88ce5"},"vehicle_type_id":"4","last_reported":1712968163,"current_range_meters":14000,"station_id":"ce4bgk12rcd13ifvqbi0","pricing_plan_id":"cebpf4jnsgd1na2vs0mg"},{"bike_id":"690756ca-c27e-48b5-85fa-7e4d7bd1731c","system_id":"levelo_inurba_marseille","lat":43.304274,"lon":5.388873,"is_reserved":false,"is_disabled":false,"rental_uris":{"android":"levelo://app?vid=690756ca-c27e-48b5-85fa-7e4d7bd1731c","ios":"levelo://app?vid=690756ca-c27e-48b5-85fa-7e4d7bd1731c"},"vehicle_type_id":"4","last_reported":1712968163,"current_range_meters":8000,"station_id":"ce4bgk12rcd13ifvqbi0","pricing_plan_id":"cebpf4jnsgd1na2vs0mg"},{"bike_id":"3a68da24-0899-4499-8500-56d5563e4a33","system_id":"levelo_inurba_marseille","lat":43.299717,"lon":5.384845,"is_reserved":false,"is_disabled":false,"rental_uris":{"android":"levelo://app?vid=3a68da24-0899-4499-8500-56d5563e4a33","ios":"levelo://app?vid=3a68da24-0899-4499-8500-56d5563e4a33"},"vehicle_type_id":"4","last_reported":1712968163,"current_range_meters":800,"station_id":"ce4bgj92rcd13ifvqbd0","pricing_plan_id":"cebpf4jnsgd1na2vs0mg"},{"bike_id":"dad51fcb-a444-4559-8130-e6421b784575","system_id":"levelo_inurba_marseille","lat":43.2997,"lon":5.38494,"is_reserved":false,"is_disabled":false,"rental_uris":{"android":"levelo://app?vid=dad51fcb-a444-4559-8130-e6421b784575","ios":"levelo://app?vid=dad51fcb-a444-4559-8130-e6421b784575"},"vehicle_type_id":"4","last_reported":1712968163,"current_range_meters":16800,"station_id":"","pricing_plan_id":"cebpf4jnsgd1na2vs0mg"},{"bike_id":"7a779b31-5bda-4601-a658-ed9c35fe7448","system_id":"levelo_inurba_marseille","lat":43.299717,"lon":5.384845,"is_reserved":false,"is_disabled":false,"rental_uris":{"android":"levelo://app?vid=7a779b31-5bda-4601-a658-ed9c35fe7448","ios":"levelo://app?vid=7a779b31-5bda-4601-a658-ed9c35fe7448"},"vehicle_type_id":"4","last_reported":1712968163,"current_range_meters":6400,"station_id":"ce4bgj92rcd13ifvqbd0","pricing_plan_id":"cebpf4jnsgd1na2vs0mg"},{"bike_id":"9c71595d-cead-4e17-947d-2ace0d39e986","system_id":"levelo_inurba_marseille","lat":43.32367,"lon":5.388836,"is_reserved":false,"is_disabled":false,"rental_uris":{"android":"levelo://app?vid=9c71595d-cead-4e17-947d-2ace0d39e986","ios":"levelo://app?vid=9c71595d-cead-4e17-947d-2ace0d39e986"},"vehicle_type_id":"4","last_reported":1712968163,"current_range_meters":4000,"station_id":"ce4bhqp2rcd13ifvqhog","pricing_plan_id":"cebpf4jnsgd1na2vs0mg"},{"bike_id":"87a47446-1586-4275-a330-21ccd2663eec","system_id":"levelo_inurba_marseille","lat":43.32367,"lon":5.388836,"is_reserved":false,"is_disabled":false,"rental_uris":{"android":"levelo://app?vid=87a47446-1586-4275-a330-21ccd2663eec","ios":"levelo://app?vid=87a47446-1586-4275-a330-21ccd2663eec"},"vehicle_type_id":"4","last_reported":1712968163,"current_range_meters":2000,"station_id":"ce4bhqp2rcd13ifvqhog","pricing_plan_id":"cebpf4jnsgd1na2vs0mg"},{"bike_id":"f61562f9-3d2e-4bad-b4a2-f246cc318496","system_id":"levelo_inurba_marseille","lat":43.32367,"lon":5.388836,"is_reserved":false,"is_disabled":false,"rental_uris":{"android":"levelo://app?vid=f61562f9-3d2e-4bad-b4a2-f246cc318496","ios":"levelo://app?vid=f61562f9-3d2e-4bad-b4a2-f246cc318496"},"vehicle_type_id":"4","last_reported":1712968163,"current_range_meters":21600,"station_id":"ce4bhqp2rcd13ifvqhog","pricing_plan_id":"cebpf4jnsgd1na2vs0mg"},{"bike_id":"fe02a49c-c55e-40d0-a225-4ae35f043698","system_id":"levelo_inurba_marseille","lat":43.32367,"lon":5.388836,"is_reserved":false,"is_disabled":false,"rental_uris":{"android":"levelo://app?vid=fe02a49c-c55e-40d0-a225-4ae35f043698","ios":"levelo://app?vid=fe02a49c-c55e-40d0-a225-4ae35f043698"},"vehicle_type_id":"4","last_reported":1712968163,"current_range_meters":0,"station_id":"ce4bhqp2rcd13ifvqhog","pricing_plan_id":"cebpf4jnsgd1na2vs0mg"},{"bike_id":"f92879e8-6d15-46d6-a097-d8e8ae205312","system_id":"levelo_inurba_marseille","lat":43.32365,"lon":5.38888,"is_reserved":false,"is_disabled":false,"rental_uris":{"android":"levelo://app?vid=f92879e8-6d15-46d6-a097-d8e8ae205312","ios":"levelo://app?vid=f92879e8-6d15-46d6-a097-d8e8ae205312"},"vehicle_type_id":"4","last_reported":1712968163,"current_range_meters":2800,"station_id":"ce4bhqp2rcd13ifvqhog","pricing_plan_id":"cebpf4jnsgd1na2vs0mg"},{"bike_id":"505dc0ba-6b98-4990-a00b-e8d73d59d325","system_id":"levelo_inurba_marseille","lat":43.32367,"lon":5.388836,"is_reserved":false,"is_disabled":false,"rental_uris":{"android":"levelo://app?vid=505dc0ba-6b98-4990-a00b-e8d73d59d325","ios":"levelo://app?vid=505dc0ba-6b98-4990-a00b-e8d73d59d325"},"vehicle_type_id":"4","last_reported":1712968163,"current_range_meters":24000,"station_id":"ce4bhqp2rcd13ifvqhog","pricing_plan_id":"cebpf4jnsgd1na2vs0mg"},{"bike_id":"d6989fb7-a827-49a3-94c0-68a4b608b22e","system_id":"levelo_inurba_marseille","lat":43.295995,"lon":5.380957,"is_reserved":false,"is_disabled":false,"rental_uris":{"android":"levelo://app?vid=d6989fb7-a827-49a3-94c0-68a4b608b22e","ios":"levelo://app?vid=d6989fb7-a827-49a3-94c0-68a4b608b22e"},"vehicle_type_id":"4","last_reported":1712968163,"current_range_meters":0,"station_id":"ce4bgl12rcd13ifvqbo0","pricing_plan_id":"cebpf4jnsgd1na2vs0mg"},{"bike_id":"6feba197-cce0-43cd-87c2-5f2c1a331ac6","system_id":"levelo_inurba_marseille","lat":43.293259,"lon":5.371586,"is_reserved":false,"is_disabled":false,"rental_uris":{"android":"levelo://app?vid=6feba197-cce0-43cd-87c2-5f2c1a331ac6","ios":"levelo://app?vid=6feba197-cce0-43cd-87c2-5f2c1a331ac6"},"vehicle_type_id":"4","last_reported":1712968163,"current_range_meters":400,"station_id":"ce4bgh92rcd13ifvqb40","pricing_plan_id":"cebpf4jnsgd1na2vs0mg"},{"bike_id":"4e1bf405-44e0-462c-af32-bb20d8b99a41","system_id":"levelo_inurba_marseille","lat":43.293249,"lon":5.371578,"is_reserved":false,"is_disabled":false,"rental_uris":{"android":"levelo://app?vid=4e1bf405-44e0-462c-af32-bb20d8b99a41","ios":"levelo://app?vid=4e1bf405-44e0-462c-af32-bb20d8b99a41"},"vehicle_type_id":"4","last_reported":1712968163,"current_range_meters":0,"station_id":"ce4bgh92rcd13ifvqb40","pricing_plan_id":"cebpf4jnsgd1na2vs0mg"},{"bike_id":"8f7f9cae-35e8-44da-9c9f-07d102322ea2","system_id":"levelo_inurba_marseille","lat":43.29272,"lon":5.36852,"is_reserved":false,"is_disabled":false,"rental_uris":{"android":"levelo://app?vid=8f7f9cae-35e8-44da-9c9f-07d102322ea2","ios":"levelo://app?vid=8f7f9cae-35e8-44da-9c9f-07d102322ea2"},"vehicle_type_id":"4","last_reported":1712968163,"current_range_meters":0,"station_id":"ce4bhbp2rcd13ifvqesg","pricing_plan_id":"cebpf4jnsgd1na2vs0mg"},{"bike_id":"678c5173-6f30-4fa6-83a1-3293dd342bcc","system_id":"levelo_inurba_marseille","lat":43.292749,"lon":5.368402,"is_reserved":false,"is_disabled":false,"rental_uris":{"android":"levelo://app?vid=678c5173-6f30-4fa6-83a1-3293dd342bcc","ios":"levelo://app?vid=678c5173-6f30-4fa6-83a1-3293dd342bcc"},"vehicle_type_id":"4","last_reported":1712968163,"current_range_meters":0,"station_id":"ce4bhbp2rcd13ifvqesg","pricing_plan_id":"cebpf4jnsgd1na2vs0mg"},{"bike_id":"cc34183c-8834-4f3c-beb9-3448cb4daab7","system_id":"levelo_inurba_marseille","lat":43.305994,"lon":5.393687,"is_reserved":false,"is_disabled":false,"rental_uris":{"android":"levelo://app?vid=cc34183c-8834-4f3c-beb9-3448cb4daab7","ios":"levelo://app?vid=cc34183c-8834-4f3c-beb9-3448cb4daab7"},"vehicle_type_id":"4","last_reported":1712968163,"current_range_meters":23200,"station_id":"ce4bh0p2rcd13ifvqd80","pricing_plan_id":"cebpf4jnsgd1na2vs0mg"},{"bike_id":"4fd19428-3d10-4401-8512-13d2bc6da1e2","system_id":"levelo_inurba_marseille","lat":43.305994,"lon":5.393687,"is_reserved":false,"is_disabled":false,"rental_uris":{"android":"levelo://app?vid=4fd19428-3d10-4401-8512-13d2bc6da1e2","ios":"levelo://app?vid=4fd19428-3d10-4401-8512-13d2bc6da1e2"},"vehicle_type_id":"4","last_reported":1712968163,"current_range_meters":5200,"station_id":"ce4bh0p2rcd13ifvqd80","pricing_plan_id":"cebpf4jnsgd1na2vs0mg"},{"bike_id":"ecc7f464-84a7-46d1-97e2-d7777a1288da","system_id":"levelo_inurba_marseille","lat":43.305994,"lon":5.393687,"is_reserved":false,"is_disabled":false,"rental_uris":{"android":"levelo://app?vid=ecc7f464-84a7-46d1-97e2-d7777a1288da","ios":"levelo://app?vid=ecc7f464-84a7-46d1-97e2-d7777a1288da"},"vehicle_type_id":"4","last_reported":1712968163,"current_range_meters":29600,"station_id":"ce4bh0p2rcd13ifvqd80","pricing_plan_id":"cebpf4jnsgd1na2vs0mg"},{"bike_id":"ff3b3a4f-4f58-44a6-9e82-36bd423f09f2","system_id":"levelo_inurba_marseille","lat":43.303002,"lon":5.392142,"is_reserved":false,"is_disabled":false,"rental_uris":{"android":"levelo://app?vid=ff3b3a4f-4f58-44a6-9e82-36bd423f09f2","ios":"levelo://app?vid=ff3b3a4f-4f58-44a6-9e82-36bd423f09f2"},"vehicle_type_id":"4","last_reported":1712968163,"current_range_meters":1200,"station_id":"ce4bgkh2rcd13ifvqbk0","pricing_plan_id":"cebpf4jnsgd1na2vs0mg"},{"bike_id":"8db23a51-c831-4c11-a753-5c16e9330335","system_id":"levelo_inurba_marseille","lat":43.315189,"lon":5.395254,"is_reserved":false,"is_disabled":false,"rental_uris":{"android":"levelo://app?vid=8db23a51-c831-4c11-a753-5c16e9330335","ios":"levelo://app?vid=8db23a51-c831-4c11-a753-5c16e9330335"},"vehicle_type_id":"4","last_reported":1712968163,"current_range_meters":6000,"station_id":"","pricing_plan_id":"cebpf4jnsgd1na2vs0mg"},{"bike_id":"cddbbff5-c3b2-4ba8-9b6a-d693fd33d9e7","system_id":"levelo_inurba_marseille","lat":43.292005,"lon":5.357875,"is_reserved":false,"is_disabled":false,"rental_uris":{"android":"levelo://app?vid=cddbbff5-c3b2-4ba8-9b6a-d693fd33d9e7","ios":"levelo://app?vid=cddbbff5-c3b2-4ba8-9b6a-d693fd33d9e7"},"vehicle_type_id":"4","last_reported":1712968163,"current_range_meters":18000,"station_id":"ce4bhb12rcd13ifvqel0","pricing_plan_id":"cebpf4jnsgd1na2vs0mg"},{"bike_id":"feac052d-246a-4e96-8c18-09370cc9ac9f","system_id":"levelo_inurba_marseille","lat":43.291975,"lon":5.357892,"is_reserved":false,"is_disabled":false,"rental_uris":{"android":"levelo://app?vid=feac052d-246a-4e96-8c18-09370cc9ac9f","ios":"levelo://app?vid=feac052d-246a-4e96-8c18-09370cc9ac9f"},"vehicle_type_id":"4","last_reported":1712968163,"current_range_meters":0,"station_id":"ce4bhb12rcd13ifvqel0","pricing_plan_id":"cebpf4jnsgd1na2vs0mg"},{"bike_id":"baca93aa-5601-4087-8620-8f659bb61395","system_id":"levelo_inurba_marseille","lat":43.313291,"lon":5.396838,"is_reserved":false,"is_disabled":false,"rental_uris":{"android":"levelo://app?vid=baca93aa-5601-4087-8620-8f659bb61395","ios":"levelo://app?vid=baca93aa-5601-4087-8620-8f659bb61395"},"vehicle_type_id":"4","last_reported":1712968163,"current_range_meters":11600,"station_id":"ce4bgvp2rcd13ifvqcu0","pricing_plan_id":"cebpf4jnsgd1na2vs0mg"},{"bike_id":"a5e3f9ee-eb5b-4deb-ac1f-d87c3e2f171c","system_id":"levelo_inurba_marseille","lat":43.31331,"lon":5.39686,"is_reserved":false,"is_disabled":false,"rental_uris":{"android":"levelo://app?vid=a5e3f9ee-eb5b-4deb-ac1f-d87c3e2f171c","ios":"levelo://app?vid=a5e3f9ee-eb5b-4deb-ac1f-d87c3e2f171c"},"vehicle_type_id":"4","last_reported":1712968163,"current_range_meters":10800,"station_id":"ce4bgvp2rcd13ifvqcu0","pricing_plan_id":"cebpf4jnsgd1na2vs0mg"},{"bike_id":"f2c43029-deda-4f87-9c5e-9979e2e5abb3","system_id":"levelo_inurba_marseille","lat":43.31324,"lon":5.39687,"is_reserved":false,"is_disabled":false,"rental_uris":{"android":"levelo://app?vid=f2c43029-deda-4f87-9c5e-9979e2e5abb3","ios":"levelo://app?vid=f2c43029-deda-4f87-9c5e-9979e2e5abb3"},"vehicle_type_id":"4","last_reported":1712968163,"current_range_meters":18000,"station_id":"ce4bgvp2rcd13ifvqcu0","pricing_plan_id":"cebpf4jnsgd1na2vs0mg"},{"bike_id":"243e8223-b01c-4587-bade-2a805e968ce6","system_id":"levelo_inurba_marseille","lat":43.313291,"lon":5.396838,"is_reserved":false,"is_disabled":false,"rental_uris":{"android":"levelo://app?vid=243e8223-b01c-4587-bade-2a805e968ce6","ios":"levelo://app?vid=243e8223-b01c-4587-bade-2a805e968ce6"},"vehicle_type_id":"4","last_reported":1712968163,"current_range_meters":18000,"station_id":"ce4bgvp2rcd13ifvqcu0","pricing_plan_id":"cebpf4jnsgd1na2vs0mg"},{"bike_id":"7e575b04-ffe8-4daf-8fbc-6b7e48dc380e","system_id":"levelo_inurba_marseille","lat":43.292005,"lon":5.357875,"is_reserved":false,"is_disabled":false,"rental_uris":{"android":"levelo://app?vid=7e575b04-ffe8-4daf-8fbc-6b7e48dc380e","ios":"levelo://app?vid=7e575b04-ffe8-4daf-8fbc-6b7e48dc380e"},"vehicle_type_id":"4","last_reported":1712968163,"current_range_meters":24400,"station_id":"ce4bhb12rcd13ifvqel0","pricing_plan_id":"cebpf4jnsgd1na2vs0mg"},{"bike_id":"b0f26820-1d5c-4497-8041-19a467c05609","system_id":"levelo_inurba_marseille","lat":43.309047,"lon":5.396551,"is_reserved":false,"is_disabled":false,"rental_uris":{"android":"levelo://app?vid=b0f26820-1d5c-4497-8041-19a467c05609","ios":"levelo://app?vid=b0f26820-1d5c-4497-8041-19a467c05609"},"vehicle_type_id":"4","last_reported":1712968163,"current_range_meters":4400,"station_id":"ce4bh012rcd13ifvqcv0","pricing_plan_id":"cebpf4jnsgd1na2vs0mg"},{"bike_id":"3483c4d8-208a-46df-9c57-6a5d5f4f1beb","system_id":"levelo_inurba_marseille","lat":43.309038,"lon":5.396546,"is_reserved":false,"is_disabled":false,"rental_uris":{"android":"levelo://app?vid=3483c4d8-208a-46df-9c57-6a5d5f4f1beb","ios":"levelo://app?vid=3483c4d8-208a-46df-9c57-6a5d5f4f1beb"},"vehicle_type_id":"4","last_reported":1712968163,"current_range_meters":15200,"station_id":"ce4bh012rcd13ifvqcv0","pricing_plan_id":"cebpf4jnsgd1na2vs0mg"},{"bike_id":"bf2ac444-58f0-4d19-b298-639a734eb717","system_id":"levelo_inurba_marseille","lat":43.313291,"lon":5.396838,"is_reserved":false,"is_disabled":false,"rental_uris":{"android":"levelo://app?vid=bf2ac444-58f0-4d19-b298-639a734eb717","ios":"levelo://app?vid=bf2ac444-58f0-4d19-b298-639a734eb717"},"vehicle_type_id":"4","last_reported":1712968163,"current_range_meters":0,"station_id":"ce4bgvp2rcd13ifvqcu0","pricing_plan_id":"cebpf4jnsgd1na2vs0mg"},{"bike_id":"d6e5343a-2ebe-46c2-924f-56ce4749e95e","system_id":"levelo_inurba_marseille","lat":43.31327,"lon":5.3969,"is_reserved":false,"is_disabled":false,"rental_uris":{"android":"levelo://app?vid=d6e5343a-2ebe-46c2-924f-56ce4749e95e","ios":"levelo://app?vid=d6e5343a-2ebe-46c2-924f-56ce4749e95e"},"vehicle_type_id":"4","last_reported":1712968163,"current_range_meters":18800,"station_id":"ce4bgvp2rcd13ifvqcu0","pricing_plan_id":"cebpf4jnsgd1na2vs0mg"},{"bike_id":"745a5e9a-478d-45e8-a4df-b33f15f73280","system_id":"levelo_inurba_marseille","lat":43.313291,"lon":5.396838,"is_reserved":false,"is_disabled":false,"rental_uris":{"android":"levelo://app?vid=745a5e9a-478d-45e8-a4df-b33f15f73280","ios":"levelo://app?vid=745a5e9a-478d-45e8-a4df-b33f15f73280"},"vehicle_type_id":"4","last_reported":1712968163,"current_range_meters":0,"station_id":"ce4bgvp2rcd13ifvqcu0","pricing_plan_id":"cebpf4jnsgd1na2vs0mg"},{"bike_id":"8824a936-11e5-4a7c-8ae1-4d0b856fe432","system_id":"levelo_inurba_marseille","lat":43.313291,"lon":5.396838,"is_reserved":false,"is_disabled":false,"rental_uris":{"android":"levelo://app?vid=8824a936-11e5-4a7c-8ae1-4d0b856fe432","ios":"levelo://app?vid=8824a936-11e5-4a7c-8ae1-4d0b856fe432"},"vehicle_type_id":"4","last_reported":1712968163,"current_range_meters":12000,"station_id":"ce4bgvp2rcd13ifvqcu0","pricing_plan_id":"cebpf4jnsgd1na2vs0mg"},{"bike_id":"24d39aca-4679-4269-8ea6-b99646c03e80","system_id":"levelo_inurba_marseille","lat":43.313291,"lon":5.396838,"is_reserved":false,"is_disabled":false,"rental_uris":{"android":"levelo://app?vid=24d39aca-4679-4269-8ea6-b99646c03e80","ios":"levelo://app?vid=24d39aca-4679-4269-8ea6-b99646c03e80"},"vehicle_type_id":"4","last_reported":1712968163,"current_range_meters":21600,"station_id":"ce4bgvp2rcd13ifvqcu0","pricing_plan_id":"cebpf4jnsgd1na2vs0mg"},{"bike_id":"11aa0750-c14f-4815-95e0-499329c756a0","system_id":"levelo_inurba_marseille","lat":43.31323,"lon":5.39693,"is_reserved":false,"is_disabled":false,"rental_uris":{"android":"levelo://app?vid=11aa0750-c14f-4815-95e0-499329c756a0","ios":"levelo://app?vid=11aa0750-c14f-4815-95e0-499329c756a0"},"vehicle_type_id":"4","last_reported":1712968163,"current_range_meters":18400,"station_id":"ce4bgvp2rcd13ifvqcu0","pricing_plan_id":"cebpf4jnsgd1na2vs0mg"},{"bike_id":"ebc0a384-b02e-497a-96d6-62484746c269","system_id":"levelo_inurba_marseille","lat":43.309047,"lon":5.396551,"is_reserved":false,"is_disabled":false,"rental_uris":{"android":"levelo://app?vid=ebc0a384-b02e-497a-96d6-62484746c269","ios":"levelo://app?vid=ebc0a384-b02e-497a-96d6-62484746c269"},"vehicle_type_id":"4","last_reported":1712968163,"current_range_meters":15200,"station_id":"ce4bh012rcd13ifvqcv0","pricing_plan_id":"cebpf4jnsgd1na2vs0mg"},{"bike_id":"239df0f4-d2f3-4640-9ec4-18701c6410c0","system_id":"levelo_inurba_marseille","lat":43.309038,"lon":5.396546,"is_reserved":false,"is_disabled":false,"rental_uris":{"android":"levelo://app?vid=239df0f4-d2f3-4640-9ec4-18701c6410c0","ios":"levelo://app?vid=239df0f4-d2f3-4640-9ec4-18701c6410c0"},"vehicle_type_id":"4","last_reported":1712968163,"current_range_meters":14400,"station_id":"ce4bh012rcd13ifvqcv0","pricing_plan_id":"cebpf4jnsgd1na2vs0mg"},{"bike_id":"a51ea956-2d0f-43f9-b4f2-c4827c123280","system_id":"levelo_inurba_marseille","lat":43.313291,"lon":5.396838,"is_reserved":false,"is_disabled":false,"rental_uris":{"android":"levelo://app?vid=a51ea956-2d0f-43f9-b4f2-c4827c123280","ios":"levelo://app?vid=a51ea956-2d0f-43f9-b4f2-c4827c123280"},"vehicle_type_id":"4","last_reported":1712968163,"current_range_meters":17200,"station_id":"ce4bgvp2rcd13ifvqcu0","pricing_plan_id":"cebpf4jnsgd1na2vs0mg"},{"bike_id":"7386aa34-1339-4aed-a053-334bee4cfa06","system_id":"levelo_inurba_marseille","lat":43.313291,"lon":5.396838,"is_reserved":false,"is_disabled":false,"rental_uris":{"android":"levelo://app?vid=7386aa34-1339-4aed-a053-334bee4cfa06","ios":"levelo://app?vid=7386aa34-1339-4aed-a053-334bee4cfa06"},"vehicle_type_id":"4","last_reported":1712968163,"current_range_meters":2800,"station_id":"ce4bgvp2rcd13ifvqcu0","pricing_plan_id":"cebpf4jnsgd1na2vs0mg"},{"bike_id":"6dcf9faf-c9e5-43ab-bfc5-1c3f6f300e72","system_id":"levelo_inurba_marseille","lat":43.309047,"lon":5.396551,"is_reserved":false,"is_disabled":false,"rental_uris":{"android":"levelo://app?vid=6dcf9faf-c9e5-43ab-bfc5-1c3f6f300e72","ios":"levelo://app?vid=6dcf9faf-c9e5-43ab-bfc5-1c3f6f300e72"},"vehicle_type_id":"4","last_reported":1712968163,"current_range_meters":19600,"station_id":"ce4bh012rcd13ifvqcv0","pricing_plan_id":"cebpf4jnsgd1na2vs0mg"},{"bike_id":"b2cb1e09-6632-486e-99f3-02b8501929ab","system_id":"levelo_inurba_marseille","lat":43.313291,"lon":5.396838,"is_reserved":false,"is_disabled":false,"rental_uris":{"android":"levelo://app?vid=b2cb1e09-6632-486e-99f3-02b8501929ab","ios":"levelo://app?vid=b2cb1e09-6632-486e-99f3-02b8501929ab"},"vehicle_type_id":"4","last_reported":1712968163,"current_range_meters":19200,"station_id":"ce4bgvp2rcd13ifvqcu0","pricing_plan_id":"cebpf4jnsgd1na2vs0mg"},{"bike_id":"f93d3e90-ff4d-433e-95c7-72f759027392","system_id":"levelo_inurba_marseille","lat":43.309038,"lon":5.396546,"is_reserved":false,"is_disabled":false,"rental_uris":{"android":"levelo://app?vid=f93d3e90-ff4d-433e-95c7-72f759027392","ios":"levelo://app?vid=f93d3e90-ff4d-433e-95c7-72f759027392"},"vehicle_type_id":"4","last_reported":1712968163,"current_range_meters":19200,"station_id":"ce4bh012rcd13ifvqcv0","pricing_plan_id":"cebpf4jnsgd1na2vs0mg"},{"bike_id":"f278dc7c-b73f-4656-987b-9928bff44ef3","system_id":"levelo_inurba_marseille","lat":43.309038,"lon":5.396546,"is_reserved":false,"is_disabled":false,"rental_uris":{"android":"levelo://app?vid=f278dc7c-b73f-4656-987b-9928bff44ef3","ios":"levelo://app?vid=f278dc7c-b73f-4656-987b-9928bff44ef3"},"vehicle_type_id":"4","last_reported":1712968163,"current_range_meters":25200,"station_id":"ce4bh012rcd13ifvqcv0","pricing_plan_id":"cebpf4jnsgd1na2vs0mg"},{"bike_id":"762c4e78-d23f-4e0a-85e8-b68009ce37f4","system_id":"levelo_inurba_marseille","lat":43.313291,"lon":5.396838,"is_reserved":false,"is_disabled":false,"rental_uris":{"android":"levelo://app?vid=762c4e78-d23f-4e0a-85e8-b68009ce37f4","ios":"levelo://app?vid=762c4e78-d23f-4e0a-85e8-b68009ce37f4"},"vehicle_type_id":"4","last_reported":1712968163,"current_range_meters":0,"station_id":"ce4bgvp2rcd13ifvqcu0","pricing_plan_id":"cebpf4jnsgd1na2vs0mg"},{"bike_id":"f2050f94-eafd-4fce-ad8e-e91326bab095","system_id":"levelo_inurba_marseille","lat":43.29529,"lon":5.385581,"is_reserved":false,"is_disabled":false,"rental_uris":{"android":"levelo://app?vid=f2050f94-eafd-4fce-ad8e-e91326bab095","ios":"levelo://app?vid=f2050f94-eafd-4fce-ad8e-e91326bab095"},"vehicle_type_id":"4","last_reported":1712968163,"current_range_meters":0,"station_id":"ce4bgih2rcd13ifvqba0","pricing_plan_id":"cebpf4jnsgd1na2vs0mg"},{"bike_id":"15c0f679-9b13-4fb3-bfb3-24cb8446c6c4","system_id":"levelo_inurba_marseille","lat":43.29529,"lon":5.385581,"is_reserved":false,"is_disabled":false,"rental_uris":{"android":"levelo://app?vid=15c0f679-9b13-4fb3-bfb3-24cb8446c6c4","ios":"levelo://app?vid=15c0f679-9b13-4fb3-bfb3-24cb8446c6c4"},"vehicle_type_id":"4","last_reported":1712968163,"current_range_meters":0,"station_id":"ce4bgih2rcd13ifvqba0","pricing_plan_id":"cebpf4jnsgd1na2vs0mg"},{"bike_id":"3a1f4254-6458-4760-b1f0-e5e3eb7c1ba5","system_id":"levelo_inurba_marseille","lat":43.29529,"lon":5.385581,"is_reserved":false,"is_disabled":false,"rental_uris":{"android":"levelo://app?vid=3a1f4254-6458-4760-b1f0-e5e3eb7c1ba5","ios":"levelo://app?vid=3a1f4254-6458-4760-b1f0-e5e3eb7c1ba5"},"vehicle_type_id":"4","last_reported":1712968163,"current_range_meters":14400,"station_id":"ce4bgih2rcd13ifvqba0","pricing_plan_id":"cebpf4jnsgd1na2vs0mg"},{"bike_id":"86d693f9-02f8-4768-9d3c-6d4b37969809","system_id":"levelo_inurba_marseille","lat":43.302008,"lon":5.394694,"is_reserved":false,"is_disabled":false,"rental_uris":{"android":"levelo://app?vid=86d693f9-02f8-4768-9d3c-6d4b37969809","ios":"levelo://app?vid=86d693f9-02f8-4768-9d3c-6d4b37969809"},"vehicle_type_id":"4","last_reported":1712968163,"current_range_meters":9600,"station_id":"ce4bh0p2rcd13ifvqd70","pricing_plan_id":"cebpf4jnsgd1na2vs0mg"},{"bike_id":"e6f656df-caf5-4c2c-bf0a-175af8223106","system_id":"levelo_inurba_marseille","lat":43.29419,"lon":5.38623,"is_reserved":false,"is_disabled":false,"rental_uris":{"android":"levelo://app?vid=e6f656df-caf5-4c2c-bf0a-175af8223106","ios":"levelo://app?vid=e6f656df-caf5-4c2c-bf0a-175af8223106"},"vehicle_type_id":"4","last_reported":1712968163,"current_range_meters":0,"station_id":"ce4bh2h2rcd13ifvqdh0","pricing_plan_id":"cebpf4jnsgd1na2vs0mg"},{"bike_id":"8efeb73b-947f-431b-91ba-3b67b196741b","system_id":"levelo_inurba_marseille","lat":43.29417,"lon":5.38628,"is_reserved":false,"is_disabled":false,"rental_uris":{"android":"levelo://app?vid=8efeb73b-947f-431b-91ba-3b67b196741b","ios":"levelo://app?vid=8efeb73b-947f-431b-91ba-3b67b196741b"},"vehicle_type_id":"4","last_reported":1712968163,"current_range_meters":0,"station_id":"ce4bh2h2rcd13ifvqdh0","pricing_plan_id":"cebpf4jnsgd1na2vs0mg"},{"bike_id":"50e87b88-a5a5-4207-b628-fe8025fe2bbb","system_id":"levelo_inurba_marseille","lat":43.289184,"lon":5.366408,"is_reserved":false,"is_disabled":false,"rental_uris":{"android":"levelo://app?vid=50e87b88-a5a5-4207-b628-fe8025fe2bbb","ios":"levelo://app?vid=50e87b88-a5a5-4207-b628-fe8025fe2bbb"},"vehicle_type_id":"4","last_reported":1712968163,"current_range_meters":13600,"station_id":"ce4bhap2rcd13ifvqek0","pricing_plan_id":"cebpf4jnsgd1na2vs0mg"},{"bike_id":"a9e0cf09-8e8b-40a6-a616-b61fa4489801","system_id":"levelo_inurba_marseille","lat":43.289468,"lon":5.363719,"is_reserved":false,"is_disabled":false,"rental_uris":{"android":"levelo://app?vid=a9e0cf09-8e8b-40a6-a616-b61fa4489801","ios":"levelo://app?vid=a9e0cf09-8e8b-40a6-a616-b61fa4489801"},"vehicle_type_id":"4","last_reported":1712968163,"current_range_meters":0,"station_id":"ce4bhc92rcd13ifvqetg","pricing_plan_id":"cebpf4jnsgd1na2vs0mg"},{"bike_id":"99ba9c79-787f-42f6-9bb8-d4fec9ebfaaf","system_id":"levelo_inurba_marseille","lat":43.289468,"lon":5.363719,"is_reserved":false,"is_disabled":false,"rental_uris":{"android":"levelo://app?vid=99ba9c79-787f-42f6-9bb8-d4fec9ebfaaf","ios":"levelo://app?vid=99ba9c79-787f-42f6-9bb8-d4fec9ebfaaf"},"vehicle_type_id":"4","last_reported":1712968163,"current_range_meters":27200,"station_id":"ce4bhc92rcd13ifvqetg","pricing_plan_id":"cebpf4jnsgd1na2vs0mg"},{"bike_id":"bc2af37e-775d-4876-9c41-b409223dce56","system_id":"levelo_inurba_marseille","lat":43.304274,"lon":5.397513,"is_reserved":false,"is_disabled":false,"rental_uris":{"android":"levelo://app?vid=bc2af37e-775d-4876-9c41-b409223dce56","ios":"levelo://app?vid=bc2af37e-775d-4876-9c41-b409223dce56"},"vehicle_type_id":"4","last_reported":1712968163,"current_range_meters":2800,"station_id":"ce4bh092rcd13ifvqd20","pricing_plan_id":"cebpf4jnsgd1na2vs0mg"},{"bike_id":"7cc4107d-60cc-48ac-9b91-1c70be50176d","system_id":"levelo_inurba_marseille","lat":43.304296,"lon":5.397513,"is_reserved":false,"is_disabled":false,"rental_uris":{"android":"levelo://app?vid=7cc4107d-60cc-48ac-9b91-1c70be50176d","ios":"levelo://app?vid=7cc4107d-60cc-48ac-9b91-1c70be50176d"},"vehicle_type_id":"4","last_reported":1712968163,"current_range_meters":14000,"station_id":"ce4bh092rcd13ifvqd20","pricing_plan_id":"cebpf4jnsgd1na2vs0mg"},{"bike_id":"859c0880-f370-4473-b984-48941148c944","system_id":"levelo_inurba_marseille","lat":43.304274,"lon":5.397513,"is_reserved":false,"is_disabled":false,"rental_uris":{"android":"levelo://app?vid=859c0880-f370-4473-b984-48941148c944","ios":"levelo://app?vid=859c0880-f370-4473-b984-48941148c944"},"vehicle_type_id":"4","last_reported":1712968163,"current_range_meters":25600,"station_id":"ce4bh092rcd13ifvqd20","pricing_plan_id":"cebpf4jnsgd1na2vs0mg"},{"bike_id":"dc6b7ff6-d378-4463-97b0-7e29c4cd6fea","system_id":"levelo_inurba_marseille","lat":43.304296,"lon":5.397513,"is_reserved":false,"is_disabled":false,"rental_uris":{"android":"levelo://app?vid=dc6b7ff6-d378-4463-97b0-7e29c4cd6fea","ios":"levelo://app?vid=dc6b7ff6-d378-4463-97b0-7e29c4cd6fea"},"vehicle_type_id":"4","last_reported":1712968163,"current_range_meters":28800,"station_id":"ce4bh092rcd13ifvqd20","pricing_plan_id":"cebpf4jnsgd1na2vs0mg"},{"bike_id":"c9ed1a68-0b08-4274-8bda-78d58f413780","system_id":"levelo_inurba_marseille","lat":43.304274,"lon":5.397513,"is_reserved":false,"is_disabled":false,"rental_uris":{"android":"levelo://app?vid=c9ed1a68-0b08-4274-8bda-78d58f413780","ios":"levelo://app?vid=c9ed1a68-0b08-4274-8bda-78d58f413780"},"vehicle_type_id":"4","last_reported":1712968163,"current_range_meters":25600,"station_id":"ce4bh092rcd13ifvqd20","pricing_plan_id":"cebpf4jnsgd1na2vs0mg"},{"bike_id":"fd894645-a48e-4131-afae-7435c2d74875","system_id":"levelo_inurba_marseille","lat":43.304274,"lon":5.397513,"is_reserved":false,"is_disabled":false,"rental_uris":{"android":"levelo://app?vid=fd894645-a48e-4131-afae-7435c2d74875","ios":"levelo://app?vid=fd894645-a48e-4131-afae-7435c2d74875"},"vehicle_type_id":"4","last_reported":1712968163,"current_range_meters":31600,"station_id":"ce4bh092rcd13ifvqd20","pricing_plan_id":"cebpf4jnsgd1na2vs0mg"},{"bike_id":"6a3d0922-4497-4881-9bd6-63da68373d6b","system_id":"levelo_inurba_marseille","lat":43.29005,"lon":5.35618,"is_reserved":false,"is_disabled":false,"rental_uris":{"android":"levelo://app?vid=6a3d0922-4497-4881-9bd6-63da68373d6b","ios":"levelo://app?vid=6a3d0922-4497-4881-9bd6-63da68373d6b"},"vehicle_type_id":"4","last_reported":1712968163,"current_range_meters":2000,"station_id":"ce4bhb92rcd13ifvqen0","pricing_plan_id":"cebpf4jnsgd1na2vs0mg"},{"bike_id":"70a81c22-058b-4b43-8a8d-6f678b9851b7","system_id":"levelo_inurba_marseille","lat":43.29105,"lon":5.38128,"is_reserved":false,"is_disabled":false,"rental_uris":{"android":"levelo://app?vid=70a81c22-058b-4b43-8a8d-6f678b9851b7","ios":"levelo://app?vid=70a81c22-058b-4b43-8a8d-6f678b9851b7"},"vehicle_type_id":"4","last_reported":1712968163,"current_range_meters":0,"station_id":"ce4bh512rcd13ifvqe2g","pricing_plan_id":"cebpf4jnsgd1na2vs0mg"},{"bike_id":"08ef55ba-27d4-4854-9e5f-92bb997b631f","system_id":"levelo_inurba_marseille","lat":43.290984,"lon":5.381372,"is_reserved":false,"is_disabled":false,"rental_uris":{"android":"levelo://app?vid=08ef55ba-27d4-4854-9e5f-92bb997b631f","ios":"levelo://app?vid=08ef55ba-27d4-4854-9e5f-92bb997b631f"},"vehicle_type_id":"4","last_reported":1712968163,"current_range_meters":0,"station_id":"ce4bh512rcd13ifvqe2g","pricing_plan_id":"cebpf4jnsgd1na2vs0mg"},{"bike_id":"c22412f6-442d-4189-be25-dc8f9ca88455","system_id":"levelo_inurba_marseille","lat":43.291002,"lon":5.38148,"is_reserved":false,"is_disabled":false,"rental_uris":{"android":"levelo://app?vid=c22412f6-442d-4189-be25-dc8f9ca88455","ios":"levelo://app?vid=c22412f6-442d-4189-be25-dc8f9ca88455"},"vehicle_type_id":"4","last_reported":1712968163,"current_range_meters":0,"station_id":"ce4bh512rcd13ifvqe2g","pricing_plan_id":"cebpf4jnsgd1na2vs0mg"},{"bike_id":"5bb39555-92e9-48b9-858c-ba7297340e6f","system_id":"levelo_inurba_marseille","lat":43.289741,"lon":5.378306,"is_reserved":false,"is_disabled":false,"rental_uris":{"android":"levelo://app?vid=5bb39555-92e9-48b9-858c-ba7297340e6f","ios":"levelo://app?vid=5bb39555-92e9-48b9-858c-ba7297340e6f"},"vehicle_type_id":"4","last_reported":1712968163,"current_range_meters":0,"station_id":"ce4bh9p2rcd13ifvqed0","pricing_plan_id":"cebpf4jnsgd1na2vs0mg"},{"bike_id":"495ce0c7-f062-43ea-9e39-55f02ec4054b","system_id":"levelo_inurba_marseille","lat":43.290995,"lon":5.381361,"is_reserved":false,"is_disabled":false,"rental_uris":{"android":"levelo://app?vid=495ce0c7-f062-43ea-9e39-55f02ec4054b","ios":"levelo://app?vid=495ce0c7-f062-43ea-9e39-55f02ec4054b"},"vehicle_type_id":"4","last_reported":1712968163,"current_range_meters":3600,"station_id":"ce4bh512rcd13ifvqe2g","pricing_plan_id":"cebpf4jnsgd1na2vs0mg"},{"bike_id":"d1355038-3ca6-4617-81d0-2ac2e7bf9fef","system_id":"levelo_inurba_marseille","lat":43.289743,"lon":5.378304,"is_reserved":false,"is_disabled":false,"rental_uris":{"android":"levelo://app?vid=d1355038-3ca6-4617-81d0-2ac2e7bf9fef","ios":"levelo://app?vid=d1355038-3ca6-4617-81d0-2ac2e7bf9fef"},"vehicle_type_id":"4","last_reported":1712968163,"current_range_meters":16400,"station_id":"ce4bh9p2rcd13ifvqed0","pricing_plan_id":"cebpf4jnsgd1na2vs0mg"},{"bike_id":"e6c2a6d3-83a4-4387-9656-3f4593963178","system_id":"levelo_inurba_marseille","lat":43.295169,"lon":5.390426,"is_reserved":false,"is_disabled":false,"rental_uris":{"android":"levelo://app?vid=e6c2a6d3-83a4-4387-9656-3f4593963178","ios":"levelo://app?vid=e6c2a6d3-83a4-4387-9656-3f4593963178"},"vehicle_type_id":"4","last_reported":1712968163,"current_range_meters":0,"station_id":"ce4bh3p2rcd13ifvqdp0","pricing_plan_id":"cebpf4jnsgd1na2vs0mg"},{"bike_id":"34c58062-f846-49ab-9eef-19231e3c0c4a","system_id":"levelo_inurba_marseille","lat":43.297814,"lon":5.393513,"is_reserved":false,"is_disabled":false,"rental_uris":{"android":"levelo://app?vid=34c58062-f846-49ab-9eef-19231e3c0c4a","ios":"levelo://app?vid=34c58062-f846-49ab-9eef-19231e3c0c4a"},"vehicle_type_id":"4","last_reported":1712968163,"current_range_meters":27200,"station_id":"chh1huq6cuj3fo74tm60","pricing_plan_id":"cebpf4jnsgd1na2vs0mg"},{"bike_id":"544fd192-8c26-4a9f-824a-e4c1adab3827","system_id":"levelo_inurba_marseille","lat":43.330442,"lon":5.389148,"is_reserved":false,"is_disabled":false,"rental_uris":{"android":"levelo://app?vid=544fd192-8c26-4a9f-824a-e4c1adab3827","ios":"levelo://app?vid=544fd192-8c26-4a9f-824a-e4c1adab3827"},"vehicle_type_id":"4","last_reported":1712968163,"current_range_meters":20400,"station_id":"ce4bhr92rcd13ifvqhrg","pricing_plan_id":"cebpf4jnsgd1na2vs0mg"},{"bike_id":"61dc4012-c5fd-49a9-8b15-53135bdc29a4","system_id":"levelo_inurba_marseille","lat":43.288599,"lon":5.358548,"is_reserved":false,"is_disabled":false,"rental_uris":{"android":"levelo://app?vid=61dc4012-c5fd-49a9-8b15-53135bdc29a4","ios":"levelo://app?vid=61dc4012-c5fd-49a9-8b15-53135bdc29a4"},"vehicle_type_id":"4","last_reported":1712968163,"current_range_meters":25600,"station_id":"ce4bhb12rcd13ifvqem0","pricing_plan_id":"cebpf4jnsgd1na2vs0mg"},{"bike_id":"c7149e6f-c500-40e7-a746-090626e50ec6","system_id":"levelo_inurba_marseille","lat":43.288536,"lon":5.358394,"is_reserved":false,"is_disabled":false,"rental_uris":{"android":"levelo://app?vid=c7149e6f-c500-40e7-a746-090626e50ec6","ios":"levelo://app?vid=c7149e6f-c500-40e7-a746-090626e50ec6"},"vehicle_type_id":"4","last_reported":1712968163,"current_range_meters":18800,"station_id":"ce4bhb12rcd13ifvqem0","pricing_plan_id":"cebpf4jnsgd1na2vs0mg"},{"bike_id":"593d2a78-5076-417e-bed1-751658a0ad8d","system_id":"levelo_inurba_marseille","lat":43.288484,"lon":5.358565,"is_reserved":false,"is_disabled":false,"rental_uris":{"android":"levelo://app?vid=593d2a78-5076-417e-bed1-751658a0ad8d","ios":"levelo://app?vid=593d2a78-5076-417e-bed1-751658a0ad8d"},"vehicle_type_id":"4","last_reported":1712968163,"current_range_meters":0,"station_id":"ce4bhb12rcd13ifvqem0","pricing_plan_id":"cebpf4jnsgd1na2vs0mg"},{"bike_id":"4000d6d8-bcbd-481e-a13b-16a46642931b","system_id":"levelo_inurba_marseille","lat":43.288466,"lon":5.358332,"is_reserved":false,"is_disabled":false,"rental_uris":{"android":"levelo://app?vid=4000d6d8-bcbd-481e-a13b-16a46642931b","ios":"levelo://app?vid=4000d6d8-bcbd-481e-a13b-16a46642931b"},"vehicle_type_id":"4","last_reported":1712968163,"current_range_meters":0,"station_id":"ce4bhb12rcd13ifvqem0","pricing_plan_id":"cebpf4jnsgd1na2vs0mg"},{"bike_id":"29f3beb7-a3e2-4d00-a71f-113a19a6203d","system_id":"levelo_inurba_marseille","lat":43.312609,"lon":5.401662,"is_reserved":false,"is_disabled":false,"rental_uris":{"android":"levelo://app?vid=29f3beb7-a3e2-4d00-a71f-113a19a6203d","ios":"levelo://app?vid=29f3beb7-a3e2-4d00-a71f-113a19a6203d"},"vehicle_type_id":"4","last_reported":1712968163,"current_range_meters":13200,"station_id":"ce4bh092rcd13ifvqd30","pricing_plan_id":"cebpf4jnsgd1na2vs0mg"},{"bike_id":"e3669fc6-4b6a-4c7f-86d7-508e828c5848","system_id":"levelo_inurba_marseille","lat":43.312609,"lon":5.401662,"is_reserved":false,"is_disabled":false,"rental_uris":{"android":"levelo://app?vid=e3669fc6-4b6a-4c7f-86d7-508e828c5848","ios":"levelo://app?vid=e3669fc6-4b6a-4c7f-86d7-508e828c5848"},"vehicle_type_id":"4","last_reported":1712968163,"current_range_meters":30400,"station_id":"ce4bh092rcd13ifvqd30","pricing_plan_id":"cebpf4jnsgd1na2vs0mg"},{"bike_id":"dfe1557b-2e31-4ced-a0f2-d99a187770be","system_id":"levelo_inurba_marseille","lat":43.309371,"lon":5.401449,"is_reserved":false,"is_disabled":false,"rental_uris":{"android":"levelo://app?vid=dfe1557b-2e31-4ced-a0f2-d99a187770be","ios":"levelo://app?vid=dfe1557b-2e31-4ced-a0f2-d99a187770be"},"vehicle_type_id":"4","last_reported":1712968163,"current_range_meters":23600,"station_id":"ce4bgvp2rcd13ifvqct0","pricing_plan_id":"cebpf4jnsgd1na2vs0mg"},{"bike_id":"09590e13-3847-4e4f-9301-9664fe09312a","system_id":"levelo_inurba_marseille","lat":43.309371,"lon":5.401449,"is_reserved":false,"is_disabled":false,"rental_uris":{"android":"levelo://app?vid=09590e13-3847-4e4f-9301-9664fe09312a","ios":"levelo://app?vid=09590e13-3847-4e4f-9301-9664fe09312a"},"vehicle_type_id":"4","last_reported":1712968163,"current_range_meters":14400,"station_id":"ce4bgvp2rcd13ifvqct0","pricing_plan_id":"cebpf4jnsgd1na2vs0mg"},{"bike_id":"e84a5134-dbf5-4b18-92f1-80988ba89efc","system_id":"levelo_inurba_marseille","lat":43.309371,"lon":5.401449,"is_reserved":false,"is_disabled":false,"rental_uris":{"android":"levelo://app?vid=e84a5134-dbf5-4b18-92f1-80988ba89efc","ios":"levelo://app?vid=e84a5134-dbf5-4b18-92f1-80988ba89efc"},"vehicle_type_id":"4","last_reported":1712968163,"current_range_meters":12800,"station_id":"ce4bgvp2rcd13ifvqct0","pricing_plan_id":"cebpf4jnsgd1na2vs0mg"},{"bike_id":"89582cee-712a-4a4a-a4a5-545eff6c4a6e","system_id":"levelo_inurba_marseille","lat":43.309371,"lon":5.401449,"is_reserved":false,"is_disabled":false,"rental_uris":{"android":"levelo://app?vid=89582cee-712a-4a4a-a4a5-545eff6c4a6e","ios":"levelo://app?vid=89582cee-712a-4a4a-a4a5-545eff6c4a6e"},"vehicle_type_id":"4","last_reported":1712968163,"current_range_meters":27200,"station_id":"ce4bgvp2rcd13ifvqct0","pricing_plan_id":"cebpf4jnsgd1na2vs0mg"},{"bike_id":"f21e21ce-f7a4-4ae7-b02c-3ce04e8d9efb","system_id":"levelo_inurba_marseille","lat":43.30642,"lon":5.401031,"is_reserved":false,"is_disabled":false,"rental_uris":{"android":"levelo://app?vid=f21e21ce-f7a4-4ae7-b02c-3ce04e8d9efb","ios":"levelo://app?vid=f21e21ce-f7a4-4ae7-b02c-3ce04e8d9efb"},"vehicle_type_id":"4","last_reported":1712968163,"current_range_meters":5600,"station_id":"ce4bh112rcd13ifvqda0","pricing_plan_id":"cebpf4jnsgd1na2vs0mg"},{"bike_id":"cd8eae64-c4e4-4d1f-9f68-f321f8902cb6","system_id":"levelo_inurba_marseille","lat":43.30927,"lon":5.40148,"is_reserved":false,"is_disabled":false,"rental_uris":{"android":"levelo://app?vid=cd8eae64-c4e4-4d1f-9f68-f321f8902cb6","ios":"levelo://app?vid=cd8eae64-c4e4-4d1f-9f68-f321f8902cb6"},"vehicle_type_id":"4","last_reported":1712968163,"current_range_meters":31200,"station_id":"ce4bgvp2rcd13ifvqct0","pricing_plan_id":"cebpf4jnsgd1na2vs0mg"},{"bike_id":"67e7854e-c8b7-405f-8ee4-05b9830b4e9e","system_id":"levelo_inurba_marseille","lat":43.306412,"lon":5.401035,"is_reserved":false,"is_disabled":false,"rental_uris":{"android":"levelo://app?vid=67e7854e-c8b7-405f-8ee4-05b9830b4e9e","ios":"levelo://app?vid=67e7854e-c8b7-405f-8ee4-05b9830b4e9e"},"vehicle_type_id":"4","last_reported":1712968163,"current_range_meters":30400,"station_id":"ce4bh112rcd13ifvqda0","pricing_plan_id":"cebpf4jnsgd1na2vs0mg"},{"bike_id":"293d122e-dea9-4ae2-bedc-0a78a4dde9c5","system_id":"levelo_inurba_marseille","lat":43.309371,"lon":5.401449,"is_reserved":false,"is_disabled":false,"rental_uris":{"android":"levelo://app?vid=293d122e-dea9-4ae2-bedc-0a78a4dde9c5","ios":"levelo://app?vid=293d122e-dea9-4ae2-bedc-0a78a4dde9c5"},"vehicle_type_id":"4","last_reported":1712968163,"current_range_meters":3600,"station_id":"ce4bgvp2rcd13ifvqct0","pricing_plan_id":"cebpf4jnsgd1na2vs0mg"},{"bike_id":"5ede3d65-1490-4aa5-b4e9-54b80da29473","system_id":"levelo_inurba_marseille","lat":43.309371,"lon":5.401449,"is_reserved":false,"is_disabled":false,"rental_uris":{"android":"levelo://app?vid=5ede3d65-1490-4aa5-b4e9-54b80da29473","ios":"levelo://app?vid=5ede3d65-1490-4aa5-b4e9-54b80da29473"},"vehicle_type_id":"4","last_reported":1712968163,"current_range_meters":0,"station_id":"ce4bgvp2rcd13ifvqct0","pricing_plan_id":"cebpf4jnsgd1na2vs0mg"},{"bike_id":"ae539f1c-5cb5-4605-b2b0-8e7af9daee78","system_id":"levelo_inurba_marseille","lat":43.30642,"lon":5.401031,"is_reserved":false,"is_disabled":false,"rental_uris":{"android":"levelo://app?vid=ae539f1c-5cb5-4605-b2b0-8e7af9daee78","ios":"levelo://app?vid=ae539f1c-5cb5-4605-b2b0-8e7af9daee78"},"vehicle_type_id":"4","last_reported":1712968163,"current_range_meters":7200,"station_id":"ce4bh112rcd13ifvqda0","pricing_plan_id":"cebpf4jnsgd1na2vs0mg"},{"bike_id":"d3ea26f4-7d4d-45b7-8172-0133ecd9329b","system_id":"levelo_inurba_marseille","lat":43.337531,"lon":5.374549,"is_reserved":false,"is_disabled":false,"rental_uris":{"android":"levelo://app?vid=d3ea26f4-7d4d-45b7-8172-0133ecd9329b","ios":"levelo://app?vid=d3ea26f4-7d4d-45b7-8172-0133ecd9329b"},"vehicle_type_id":"4","last_reported":1712968163,"current_range_meters":25600,"station_id":"","pricing_plan_id":"cebpf4jnsgd1na2vs0mg"},{"bike_id":"5cb180d0-056d-4a96-ba3f-4a1df8081103","system_id":"levelo_inurba_marseille","lat":43.30642,"lon":5.401031,"is_reserved":false,"is_disabled":false,"rental_uris":{"android":"levelo://app?vid=5cb180d0-056d-4a96-ba3f-4a1df8081103","ios":"levelo://app?vid=5cb180d0-056d-4a96-ba3f-4a1df8081103"},"vehicle_type_id":"4","last_reported":1712968163,"current_range_meters":9200,"station_id":"ce4bh112rcd13ifvqda0","pricing_plan_id":"cebpf4jnsgd1na2vs0mg"},{"bike_id":"ec41b16b-2371-4053-b1c8-542c0dbb6f47","system_id":"levelo_inurba_marseille","lat":43.306412,"lon":5.401035,"is_reserved":false,"is_disabled":false,"rental_uris":{"android":"levelo://app?vid=ec41b16b-2371-4053-b1c8-542c0dbb6f47","ios":"levelo://app?vid=ec41b16b-2371-4053-b1c8-542c0dbb6f47"},"vehicle_type_id":"4","last_reported":1712968163,"current_range_meters":24800,"station_id":"ce4bh112rcd13ifvqda0","pricing_plan_id":"cebpf4jnsgd1na2vs0mg"},{"bike_id":"595d2cf9-edfe-4232-8e9b-042375f28894","system_id":"levelo_inurba_marseille","lat":43.306412,"lon":5.401035,"is_reserved":false,"is_disabled":false,"rental_uris":{"android":"levelo://app?vid=595d2cf9-edfe-4232-8e9b-042375f28894","ios":"levelo://app?vid=595d2cf9-edfe-4232-8e9b-042375f28894"},"vehicle_type_id":"4","last_reported":1712968163,"current_range_meters":14000,"station_id":"ce4bh112rcd13ifvqda0","pricing_plan_id":"cebpf4jnsgd1na2vs0mg"},{"bike_id":"774f6500-6424-427c-8133-e4987961144c","system_id":"levelo_inurba_marseille","lat":43.33754,"lon":5.374806,"is_reserved":false,"is_disabled":false,"rental_uris":{"android":"levelo://app?vid=774f6500-6424-427c-8133-e4987961144c","ios":"levelo://app?vid=774f6500-6424-427c-8133-e4987961144c"},"vehicle_type_id":"4","last_reported":1712968163,"current_range_meters":800,"station_id":"","pricing_plan_id":"cebpf4jnsgd1na2vs0mg"},{"bike_id":"0e8dd5a1-03db-4b84-9d3d-dd5e0c5be3a5","system_id":"levelo_inurba_marseille","lat":43.306412,"lon":5.401035,"is_reserved":false,"is_disabled":false,"rental_uris":{"android":"levelo://app?vid=0e8dd5a1-03db-4b84-9d3d-dd5e0c5be3a5","ios":"levelo://app?vid=0e8dd5a1-03db-4b84-9d3d-dd5e0c5be3a5"},"vehicle_type_id":"4","last_reported":1712968163,"current_range_meters":21200,"station_id":"ce4bh112rcd13ifvqda0","pricing_plan_id":"cebpf4jnsgd1na2vs0mg"},{"bike_id":"950e00bf-075a-45d9-ab60-8d0d01287a47","system_id":"levelo_inurba_marseille","lat":43.30642,"lon":5.401031,"is_reserved":false,"is_disabled":false,"rental_uris":{"android":"levelo://app?vid=950e00bf-075a-45d9-ab60-8d0d01287a47","ios":"levelo://app?vid=950e00bf-075a-45d9-ab60-8d0d01287a47"},"vehicle_type_id":"4","last_reported":1712968163,"current_range_meters":2000,"station_id":"ce4bh112rcd13ifvqda0","pricing_plan_id":"cebpf4jnsgd1na2vs0mg"},{"bike_id":"a405a675-8376-45ab-8d85-d2a0081a8d6e","system_id":"levelo_inurba_marseille","lat":43.30642,"lon":5.401031,"is_reserved":false,"is_disabled":false,"rental_uris":{"android":"levelo://app?vid=a405a675-8376-45ab-8d85-d2a0081a8d6e","ios":"levelo://app?vid=a405a675-8376-45ab-8d85-d2a0081a8d6e"},"vehicle_type_id":"4","last_reported":1712968163,"current_range_meters":25600,"station_id":"ce4bh112rcd13ifvqda0","pricing_plan_id":"cebpf4jnsgd1na2vs0mg"},{"bike_id":"78bb86ec-4635-4170-b4f3-62743831d95b","system_id":"levelo_inurba_marseille","lat":43.306412,"lon":5.401035,"is_reserved":false,"is_disabled":false,"rental_uris":{"android":"levelo://app?vid=78bb86ec-4635-4170-b4f3-62743831d95b","ios":"levelo://app?vid=78bb86ec-4635-4170-b4f3-62743831d95b"},"vehicle_type_id":"4","last_reported":1712968163,"current_range_meters":11600,"station_id":"ce4bh112rcd13ifvqda0","pricing_plan_id":"cebpf4jnsgd1na2vs0mg"},{"bike_id":"927e6bc4-cd33-4414-9cca-a4ba3a52051e","system_id":"levelo_inurba_marseille","lat":43.306412,"lon":5.401035,"is_reserved":false,"is_disabled":false,"rental_uris":{"android":"levelo://app?vid=927e6bc4-cd33-4414-9cca-a4ba3a52051e","ios":"levelo://app?vid=927e6bc4-cd33-4414-9cca-a4ba3a52051e"},"vehicle_type_id":"4","last_reported":1712968163,"current_range_meters":18400,"station_id":"ce4bh112rcd13ifvqda0","pricing_plan_id":"cebpf4jnsgd1na2vs0mg"},{"bike_id":"b213419f-a38f-4843-b54d-4943dc986103","system_id":"levelo_inurba_marseille","lat":43.306412,"lon":5.401035,"is_reserved":false,"is_disabled":false,"rental_uris":{"android":"levelo://app?vid=b213419f-a38f-4843-b54d-4943dc986103","ios":"levelo://app?vid=b213419f-a38f-4843-b54d-4943dc986103"},"vehicle_type_id":"4","last_reported":1712968163,"current_range_meters":4800,"station_id":"ce4bh112rcd13ifvqda0","pricing_plan_id":"cebpf4jnsgd1na2vs0mg"},{"bike_id":"e6ec0cff-30d2-46eb-8aa9-965d9fb918bc","system_id":"levelo_inurba_marseille","lat":43.301419,"lon":5.398667,"is_reserved":false,"is_disabled":false,"rental_uris":{"android":"levelo://app?vid=e6ec0cff-30d2-46eb-8aa9-965d9fb918bc","ios":"levelo://app?vid=e6ec0cff-30d2-46eb-8aa9-965d9fb918bc"},"vehicle_type_id":"4","last_reported":1712968163,"current_range_meters":0,"station_id":"ce4bh0h2rcd13ifvqd40","pricing_plan_id":"cebpf4jnsgd1na2vs0mg"},{"bike_id":"cd734253-82a3-4f83-8439-a26e03d7cf6c","system_id":"levelo_inurba_marseille","lat":43.28727,"lon":5.36078,"is_reserved":false,"is_disabled":false,"rental_uris":{"android":"levelo://app?vid=cd734253-82a3-4f83-8439-a26e03d7cf6c","ios":"levelo://app?vid=cd734253-82a3-4f83-8439-a26e03d7cf6c"},"vehicle_type_id":"4","last_reported":1712968163,"current_range_meters":24800,"station_id":"cki0cbj6b192h4jlfktg","pricing_plan_id":"cebpf4jnsgd1na2vs0mg"},{"bike_id":"a073a896-aa90-4b14-8ab5-399be51be803","system_id":"levelo_inurba_marseille","lat":43.28727,"lon":5.36078,"is_reserved":false,"is_disabled":false,"rental_uris":{"android":"levelo://app?vid=a073a896-aa90-4b14-8ab5-399be51be803","ios":"levelo://app?vid=a073a896-aa90-4b14-8ab5-399be51be803"},"vehicle_type_id":"4","last_reported":1712968163,"current_range_meters":0,"station_id":"cki0cbj6b192h4jlfktg","pricing_plan_id":"cebpf4jnsgd1na2vs0mg"},{"bike_id":"023abc25-1d24-4636-b81d-fe92182081f6","system_id":"levelo_inurba_marseille","lat":43.28727,"lon":5.36078,"is_reserved":false,"is_disabled":false,"rental_uris":{"android":"levelo://app?vid=023abc25-1d24-4636-b81d-fe92182081f6","ios":"levelo://app?vid=023abc25-1d24-4636-b81d-fe92182081f6"},"vehicle_type_id":"4","last_reported":1712968163,"current_range_meters":27200,"station_id":"cki0cbj6b192h4jlfktg","pricing_plan_id":"cebpf4jnsgd1na2vs0mg"},{"bike_id":"780e6e26-5692-4dd4-b834-d98c5dc421a5","system_id":"levelo_inurba_marseille","lat":43.29871,"lon":5.3973,"is_reserved":false,"is_disabled":false,"rental_uris":{"android":"levelo://app?vid=780e6e26-5692-4dd4-b834-d98c5dc421a5","ios":"levelo://app?vid=780e6e26-5692-4dd4-b834-d98c5dc421a5"},"vehicle_type_id":"4","last_reported":1712968163,"current_range_meters":0,"station_id":"ce4bh0h2rcd13ifvqd50","pricing_plan_id":"cebpf4jnsgd1na2vs0mg"},{"bike_id":"f1400435-29b1-41a4-a3e0-e885286513a9","system_id":"levelo_inurba_marseille","lat":43.298681,"lon":5.397225,"is_reserved":false,"is_disabled":false,"rental_uris":{"android":"levelo://app?vid=f1400435-29b1-41a4-a3e0-e885286513a9","ios":"levelo://app?vid=f1400435-29b1-41a4-a3e0-e885286513a9"},"vehicle_type_id":"4","last_reported":1712968163,"current_range_meters":20800,"station_id":"ce4bh0h2rcd13ifvqd50","pricing_plan_id":"cebpf4jnsgd1na2vs0mg"},{"bike_id":"1d8ed812-b73b-41d5-9e7c-0a562ef25d4c","system_id":"levelo_inurba_marseille","lat":43.286961,"lon":5.373785,"is_reserved":false,"is_disabled":false,"rental_uris":{"android":"levelo://app?vid=1d8ed812-b73b-41d5-9e7c-0a562ef25d4c","ios":"levelo://app?vid=1d8ed812-b73b-41d5-9e7c-0a562ef25d4c"},