{"last_updated":1714842364,"ttl":30,"version":"2.2","data":{"bikes":[{"bike_id":"c7ca9791-d74d-40d1-af67-8f5346a32225","system_id":"levelo_inurba_marseille","lat":43.313391,"lon":5.36706,"is_reserved":false,"is_disabled":false,"rental_uris":{"android":"levelo://app?vid=c7ca9791-d74d-40d1-af67-8f5346a32225","ios":"levelo://app?vid=c7ca9791-d74d-40d1-af67-8f5346a32225"},"vehicle_type_id":"4","last_reported":1714842364,"current_range_meters":7600,"station_id":"ce4bgr92rcd13ifvqc6g","pricing_plan_id":"cebpf4jnsgd1na2vs0mg"},{"bike_id":"ae8e5a57-34b1-448e-9876-80e073bee3cd","system_id":"levelo_inurba_marseille","lat":43.31341,"lon":5.367098,"is_reserved":false,"is_disabled":false,"rental_uris":{"android":"levelo://app?vid=ae8e5a57-34b1-448e-9876-80e073bee3cd","ios":"levelo://app?vid=ae8e5a57-34b1-448e-9876-80e073bee3cd"},"vehicle_type_id":"4","last_reported":1714842364,"current_range_meters":0,"station_id":"ce4bgr92rcd13ifvqc6g","pricing_plan_id":"cebpf4jnsgd1na2vs0mg"},{"bike_id":"aba62edb-1351-4ec2-9818-f1712f365824","system_id":"levelo_inurba_marseille","lat":43.287185,"lon":5.379373,"is_reserved":false,"is_disabled":false,"rental_uris":{"android":"levelo://app?vid=aba62edb-1351-4ec2-9818-f1712f365824","ios":"levelo://app?vid=aba62edb-1351-4ec2-9818-f1712f365824"},"vehicle_type_id":"4","last_reported":1714842364,"current_range_meters":22000,"station_id":"ce4bh9p2rcd13ifvqec0","pricing_plan_id":"cebpf4jnsgd1na2vs0mg"},{"bike_id":"8a9396f6-567d-4bba-88c6-100df13284e1","system_id":"levelo_inurba_marseille","lat":43.314811,"lon":5.373103,"is_reserved":false,"is_disabled":false,"rental_uris":{"android":"levelo://app?vid=8a9396f6-567d-4bba-88c6-100df13284e1","ios":"levelo://app?vid=8a9396f6-567d-4bba-88c6-100df13284e1"},"vehicle_type_id":"4","last_reported":1714842364,"current_range_meters":20000,"station_id":"ce4bgt12rcd13ifvqcd0","pricing_plan_id":"cebpf4jnsgd1na2vs0mg"},{"bike_id":"9588c170-7ba6-4f8b-baaa-287c19e8ca40","system_id":"levelo_inurba_marseille","lat":43.314811,"lon":5.373103,"is_reserved":false,"is_disabled":false,"rental_uris":{"android":"levelo://app?vid=9588c170-7ba6-4f8b-baaa-287c19e8ca40","ios":"levelo://app?vid=9588c170-7ba6-4f8b-baaa-287c19e8ca40"},"vehicle_type_id":"4","last_reported":1714842364,"current_range_meters":4000,"station_id":"ce4bgt12rcd13ifvqcd0","pricing_plan_id":"cebpf4jnsgd1na2vs0mg"},{"bike_id":"128b22cb-081f-4083-9ef8-6308a6c4832b","system_id":"levelo_inurba_marseille","lat":43.314811,"lon":5.373104,"is_reserved":false,"is_disabled":false,"rental_uris":{"android":"levelo://app?vid=128b22cb-081f-4083-9ef8-6308a6c4832b","ios":"levelo://app?vid=128b22cb-081f-4083-9ef8-6308a6c4832b"},"vehicle_type_id":"4","last_reported":1714842364,"current_range_meters":3600,"station_id":"ce4bgt12rcd13ifvqcd0","pricing_plan_id":"cebpf4jnsgd1na2vs0mg"},{"bike_id":"8ce6722d-5e10-46c2-a0e6-c4b9454aeb06","system_id":"levelo_inurba_marseille","lat":43.314811,"lon":5.373104,"is_reserved":false,"is_disabled":false,"rental_uris":{"android":"levelo://app?vid=8ce6722d-5e10-46c2-a0e6-c4b9454aeb06","ios":"levelo://app?vid=8ce6722d-5e10-46c2-a0e6-c4b9454aeb06"},"vehicle_type_id":"4","last_reported":1714842364,"current_range_meters":0,"station_id":"ce4bgt12rcd13ifvqcd0","pricing_plan_id":"cebpf4jnsgd1na2vs0mg"},{"bike_id":"c7fc3dc8-d522-4ac8-8847-8c942ceda3f4","system_id":"levelo_inurba_marseille","lat":43.305712,"lon":5.365641,"is_reserved":false,"is_disabled":false,"rental_uris":{"android":"levelo://app?vid=c7fc3dc8-d522-4ac8-8847-8c942ceda3f4","ios":"levelo://app?vid=c7fc3dc8-d522-4ac8-8847-8c942ceda3f4"},"vehicle_type_id":"4","last_reported":1714842364,"current_range_meters":12400,"station_id":"ce4bgs12rcd13ifvqcag","pricing_plan_id":"cebpf4jnsgd1na2vs0mg"},{"bike_id":"8fcf99ce-0382-4146-8e5f-4bb09f1fec41","system_id":"levelo_inurba_marseille","lat":43.30537,"lon":5.367345,"is_reserved":false,"is_disabled":false,"rental_uris":{"android":"levelo://app?vid=8fcf99ce-0382-4146-8e5f-4bb09f1fec41","ios":"levelo://app?vid=8fcf99ce-0382-4146-8e5f-4bb09f1fec41"},"vehicle_type_id":"4","last_reported":1714842364,"current_range_meters":24800,"station_id":"ce4bgrp2rcd13ifvqc9g","pricing_plan_id":"cebpf4jnsgd1na2vs0mg"},{"bike_id":"66e384f3-a46e-4c8c-83be-b22cbdb08899","system_id":"levelo_inurba_marseille","lat":43.30537,"lon":5.367345,"is_reserved":false,"is_disabled":false,"rental_uris":{"android":"levelo://app?vid=66e384f3-a46e-4c8c-83be-b22cbdb08899","ios":"levelo://app?vid=66e384f3-a46e-4c8c-83be-b22cbdb08899"},"vehicle_type_id":"4","last_reported":1714842364,"current_range_meters":22800,"station_id":"ce4bgrp2rcd13ifvqc9g","pricing_plan_id":"cebpf4jnsgd1na2vs0mg"},{"bike_id":"6157a707-80f8-4767-a956-66f87c218224","system_id":"levelo_inurba_marseille","lat":43.305989,"lon":5.37225,"is_reserved":false,"is_disabled":false,"rental_uris":{"android":"levelo://app?vid=6157a707-80f8-4767-a956-66f87c218224","ios":"levelo://app?vid=6157a707-80f8-4767-a956-66f87c218224"},"vehicle_type_id":"4","last_reported":1714842364,"current_range_meters":0,"station_id":"ce4bgqh2rcd13ifvqc4g","pricing_plan_id":"cebpf4jnsgd1na2vs0mg"},{"bike_id":"77c97a0b-42b0-403d-8a02-85434045066d","system_id":"levelo_inurba_marseille","lat":43.305989,"lon":5.37225,"is_reserved":false,"is_disabled":false,"rental_uris":{"android":"levelo://app?vid=77c97a0b-42b0-403d-8a02-85434045066d","ios":"levelo://app?vid=77c97a0b-42b0-403d-8a02-85434045066d"},"vehicle_type_id":"4","last_reported":1714842364,"current_range_meters":21200,"station_id":"ce4bgqh2rcd13ifvqc4g","pricing_plan_id":"cebpf4jnsgd1na2vs0mg"},{"bike_id":"1c12942a-2a2b-4941-a162-eb524c618635","system_id":"levelo_inurba_marseille","lat":43.305989,"lon":5.37225,"is_reserved":false,"is_disabled":false,"rental_uris":{"android":"levelo://app?vid=1c12942a-2a2b-4941-a162-eb524c618635","ios":"levelo://app?vid=1c12942a-2a2b-4941-a162-eb524c618635"},"vehicle_type_id":"4","last_reported":1714842364,"current_range_meters":1600,"station_id":"ce4bgqh2rcd13ifvqc4g","pricing_plan_id":"cebpf4jnsgd1na2vs0mg"},{"bike_id":"698f6823-1041-4e4a-acc0-8c776c357a85","system_id":"levelo_inurba_marseille","lat":43.3112,"lon":5.37769,"is_reserved":false,"is_disabled":false,"rental_uris":{"android":"levelo://app?vid=698f6823-1041-4e4a-acc0-8c776c357a85","ios":"levelo://app?vid=698f6823-1041-4e4a-acc0-8c776c357a85"},"vehicle_type_id":"4","last_reported":1714842364,"current_range_meters":0,"station_id":"ce4bgt92rcd13ifvqcg0","pricing_plan_id":"cebpf4jnsgd1na2vs0mg"},{"bike_id":"44b55783-d58b-4c43-8be1-e0a4e4d645b7","system_id":"levelo_inurba_marseille","lat":43.311131,"lon":5.377651,"is_reserved":false,"is_disabled":false,"rental_uris":{"android":"levelo://app?vid=44b55783-d58b-4c43-8be1-e0a4e4d645b7","ios":"levelo://app?vid=44b55783-d58b-4c43-8be1-e0a4e4d645b7"},"vehicle_type_id":"4","last_reported":1714842364,"current_range_meters":0,"station_id":"ce4bgt92rcd13ifvqcg0","pricing_plan_id":"cebpf4jnsgd1na2vs0mg"},{"bike_id":"6b127a0a-8f94-48e0-99c7-aeb475c8df11","system_id":"levelo_inurba_marseille","lat":43.307945,"lon":5.376487,"is_reserved":false,"is_disabled":false,"rental_uris":{"android":"levelo://app?vid=6b127a0a-8f94-48e0-99c7-aeb475c8df11","ios":"levelo://app?vid=6b127a0a-8f94-48e0-99c7-aeb475c8df11"},"vehicle_type_id":"4","last_reported":1714842364,"current_range_meters":0,"station_id":"ce4bgv92rcd13ifvqcq0","pricing_plan_id":"cebpf4jnsgd1na2vs0mg"},{"bike_id":"7af1e0a3-d32a-44b7-b909-598dad6509b3","system_id":"levelo_inurba_marseille","lat":43.30304,"lon":5.368987,"is_reserved":false,"is_disabled":false,"rental_uris":{"android":"levelo://app?vid=7af1e0a3-d32a-44b7-b909-598dad6509b3","ios":"levelo://app?vid=7af1e0a3-d32a-44b7-b909-598dad6509b3"},"vehicle_type_id":"4","last_reported":1714842364,"current_range_meters":4800,"station_id":"ce4bgqh2rcd13ifvqc5g","pricing_plan_id":"cebpf4jnsgd1na2vs0mg"},{"bike_id":"6c11e4fb-d079-4c5c-b05c-ab5a055eac3d","system_id":"levelo_inurba_marseille","lat":43.307945,"lon":5.376487,"is_reserved":false,"is_disabled":false,"rental_uris":{"android":"levelo://app?vid=6c11e4fb-d079-4c5c-b05c-ab5a055eac3d","ios":"levelo://app?vid=6c11e4fb-d079-4c5c-b05c-ab5a055eac3d"},"vehicle_type_id":"4","last_reported":1714842364,"current_range_meters":30000,"station_id":"ce4bgv92rcd13ifvqcq0","pricing_plan_id":"cebpf4jnsgd1na2vs0mg"},{"bike_id":"c82ab978-b5c5-4870-a44e-bad2d0cd3eb9","system_id":"levelo_inurba_marseille","lat":43.307945,"lon":5.376487,"is_reserved":false,"is_disabled":false,"rental_uris":{"android":"levelo://app?vid=c82ab978-b5c5-4870-a44e-bad2d0cd3eb9","ios":"levelo://app?vid=c82ab978-b5c5-4870-a44e-bad2d0cd3eb9"},"vehicle_type_id":"4","last_reported":1714842364,"current_range_meters":16000,"station_id":"ce4bgv92rcd13ifvqcq0","pricing_plan_id":"cebpf4jnsgd1na2vs0mg"},{"bike_id":"8a7398cd-1e07-4f59-a6f9-a33673a94583","system_id":"levelo_inurba_marseille","lat":43.307945,"lon":5.376487,"is_reserved":false,"is_disabled":false,"rental_uris":{"android":"levelo://app?vid=8a7398cd-1e07-4f59-a6f9-a33673a94583","ios":"levelo://app?vid=8a7398cd-1e07-4f59-a6f9-a33673a94583"},"vehicle_type_id":"4","last_reported":1714842364,"current_range_meters":30800,"station_id":"ce4bgv92rcd13ifvqcq0","pricing_plan_id":"cebpf4jnsgd1na2vs0mg"},{"bike_id":"a09c5eba-9368-4466-ba6c-6ac688aa1d6b","system_id":"levelo_inurba_marseille","lat":43.307945,"lon":5.376487,"is_reserved":false,"is_disabled":false,"rental_uris":{"android":"levelo://app?vid=a09c5eba-9368-4466-ba6c-6ac688aa1d6b","ios":"levelo://app?vid=a09c5eba-9368-4466-ba6c-6ac688aa1d6b"},"vehicle_type_id":"4","last_reported":1714842364,"current_range_meters":14800,"station_id":"ce4bgv92rcd13ifvqcq0","pricing_plan_id":"cebpf4jnsgd1na2vs0mg"},{"bike_id":"4e7f7d37-fcd2-40c9-8c22-d09ddaa6713b","system_id":"levelo_inurba_marseille","lat":43.31716,"lon":5.37744,"is_reserved":false,"is_disabled":false,"rental_uris":{"android":"levelo://app?vid=4e7f7d37-fcd2-40c9-8c22-d09ddaa6713b","ios":"levelo://app?vid=4e7f7d37-fcd2-40c9-8c22-d09ddaa6713b"},"vehicle_type_id":"4","last_reported":1714842364,"current_range_meters":0,"station_id":"ce4bgth2rcd13ifvqch0","pricing_plan_id":"cebpf4jnsgd1na2vs0mg"},{"bike_id":"bd109f43-df8c-43f0-b567-cfdf3030bf09","system_id":"levelo_inurba_marseille","lat":43.303197,"lon":5.369113,"is_reserved":false,"is_disabled":false,"rental_uris":{"android":"levelo://app?vid=bd109f43-df8c-43f0-b567-cfdf3030bf09","ios":"levelo://app?vid=bd109f43-df8c-43f0-b567-cfdf3030bf09"},"vehicle_type_id":"4","last_reported":1714842364,"current_range_meters":21600,"station_id":"ce4bgqh2rcd13ifvqc5g","pricing_plan_id":"cebpf4jnsgd1na2vs0mg"},{"bike_id":"bbc7f8ca-7497-4b89-ac31-6082198b8cf8","system_id":"levelo_inurba_marseille","lat":43.303182,"lon":5.369009,"is_reserved":false,"is_disabled":false,"rental_uris":{"android":"levelo://app?vid=bbc7f8ca-7497-4b89-ac31-6082198b8cf8","ios":"levelo://app?vid=bbc7f8ca-7497-4b89-ac31-6082198b8cf8"},"vehicle_type_id":"4","last_reported":1714842364,"current_range_meters":8000,"station_id":"ce4bgqh2rcd13ifvqc5g","pricing_plan_id":"cebpf4jnsgd1na2vs0mg"},{"bike_id":"f6bfe87e-83c7-4b48-90c4-af257bf49b76","system_id":"levelo_inurba_marseille","lat":43.30316,"lon":5.36894,"is_reserved":false,"is_disabled":false,"rental_uris":{"android":"levelo://app?vid=f6bfe87e-83c7-4b48-90c4-af257bf49b76","ios":"levelo://app?vid=f6bfe87e-83c7-4b48-90c4-af257bf49b76"},"vehicle_type_id":"4","last_reported":1714842364,"current_range_meters":4800,"station_id":"ce4bgqh2rcd13ifvqc5g","pricing_plan_id":"cebpf4jnsgd1na2vs0mg"},{"bike_id":"4c681365-c574-43cb-bb5b-6b2071ba926c","system_id":"levelo_inurba_marseille","lat":43.30316,"lon":5.36901,"is_reserved":false,"is_disabled":false,"rental_uris":{"android":"levelo://app?vid=4c681365-c574-43cb-bb5b-6b2071ba926c","ios":"levelo://app?vid=4c681365-c574-43cb-bb5b-6b2071ba926c"},"vehicle_type_id":"4","last_reported":1714842364,"current_range_meters":3200,"station_id":"ce4bgqh2rcd13ifvqc5g","pricing_plan_id":"cebpf4jnsgd1na2vs0mg"},{"bike_id":"d696b709-037a-40fb-81ea-3dcbe8a6d22d","system_id":"levelo_inurba_marseille","lat":43.30314,"lon":5.36896,"is_reserved":false,"is_disabled":false,"rental_uris":{"android":"levelo://app?vid=d696b709-037a-40fb-81ea-3dcbe8a6d22d","ios":"levelo://app?vid=d696b709-037a-40fb-81ea-3dcbe8a6d22d"},"vehicle_type_id":"4","last_reported":1714842364,"current_range_meters":13600,"station_id":"ce4bgqh2rcd13ifvqc5g","pricing_plan_id":"cebpf4jnsgd1na2vs0mg"},{"bike_id":"cb84e507-af80-4ca3-9231-7cd96e1a19cb","system_id":"levelo_inurba_marseille","lat":43.30304,"lon":5.368987,"is_reserved":false,"is_disabled":false,"rental_uris":{"android":"levelo://app?vid=cb84e507-af80-4ca3-9231-7cd96e1a19cb","ios":"levelo://app?vid=cb84e507-af80-4ca3-9231-7cd96e1a19cb"},"vehicle_type_id":"4","last_reported":1714842364,"current_range_meters":3200,"station_id":"ce4bgqh2rcd13ifvqc5g","pricing_plan_id":"cebpf4jnsgd1na2vs0mg"},{"bike_id":"dd1c3ac5-dff8-42fb-ae0a-582369d1fcb4","system_id":"levelo_inurba_marseille","lat":43.30313,"lon":5.36906,"is_reserved":false,"is_disabled":false,"rental_uris":{"android":"levelo://app?vid=dd1c3ac5-dff8-42fb-ae0a-582369d1fcb4","ios":"levelo://app?vid=dd1c3ac5-dff8-42fb-ae0a-582369d1fcb4"},"vehicle_type_id":"4","last_reported":1714842364,"current_range_meters":8400,"station_id":"ce4bgqh2rcd13ifvqc5g","pricing_plan_id":"cebpf4jnsgd1na2vs0mg"},{"bike_id":"d0cbdfae-9a43-49cc-8422-8828ae7ccf69","system_id":"levelo_inurba_marseille","lat":43.30304,"lon":5.368987,"is_reserved":false,"is_disabled":false,"rental_uris":{"android":"levelo://app?vid=d0cbdfae-9a43-49cc-8422-8828ae7ccf69","ios":"levelo://app?vid=d0cbdfae-9a43-49cc-8422-8828ae7ccf69"},"vehicle_type_id":"4","last_reported":1714842364,"current_range_meters":12400,"station_id":"ce4bgqh2rcd13ifvqc5g","pricing_plan_id":"cebpf4jnsgd1na2vs0mg"},{"bike_id":"8b1fe79b-f88b-41ba-8823-babc2be9c684","system_id":"levelo_inurba_marseille","lat":43.30304,"lon":5.368987,"is_reserved":false,"is_disabled":false,"rental_uris":{"android":"levelo://app?vid=8b1fe79b-f88b-41ba-8823-babc2be9c684","ios":"levelo://app?vid=8b1fe79b-f88b-41ba-8823-babc2be9c684"},"vehicle_type_id":"4","last_reported":1714842364,"current_range_meters":13600,"station_id":"ce4bgqh2rcd13ifvqc5g","pricing_plan_id":"cebpf4jnsgd1na2vs0mg"},{"bike_id":"3da7aac4-7233-4f47-9473-d8be2b9b65a8","system_id":"levelo_inurba_marseille","lat":43.30304,"lon":5.368987,"is_reserved":false,"is_disabled":false,"rental_uris":{"android":"levelo://app?vid=3da7aac4-7233-4f47-9473-d8be2b9b65a8","ios":"levelo://app?vid=3da7aac4-7233-4f47-9473-d8be2b9b65a8"},"vehicle_type_id":"4","last_reported":1714842364,"current_range_meters":3600,"station_id":"ce4bgqh2rcd13ifvqc5g","pricing_plan_id":"cebpf4jnsgd1na2vs0mg"},{"bike_id":"869b8ba2-cb99-4289-92d3-93ad03ffc2e9","system_id":"levelo_inurba_marseille","lat":43.301939,"lon":5.366286,"is_reserved":false,"is_disabled":false,"rental_uris":{"android":"levelo://app?vid=869b8ba2-cb99-4289-92d3-93ad03ffc2e9","ios":"levelo://app?vid=869b8ba2-cb99-4289-92d3-93ad03ffc2e9"},"vehicle_type_id":"4","last_reported":1714842364,"current_range_meters":18400,"station_id":"ce4bgrh2rcd13ifvqc8g","pricing_plan_id":"cebpf4jnsgd1na2vs0mg"},{"bike_id":"8091e401-9865-4569-b4fe-896fb49646bf","system_id":"levelo_inurba_marseille","lat":43.30205,"lon":5.3661,"is_reserved":false,"is_disabled":false,"rental_uris":{"android":"levelo://app?vid=8091e401-9865-4569-b4fe-896fb49646bf","ios":"levelo://app?vid=8091e401-9865-4569-b4fe-896fb49646bf"},"vehicle_type_id":"4","last_reported":1714842364,"current_range_meters":0,"station_id":"ce4bgrh2rcd13ifvqc8g","pricing_plan_id":"cebpf4jnsgd1na2vs0mg"},{"bike_id":"74f6cb3f-6433-4a13-bddf-a473313d19d4","system_id":"levelo_inurba_marseille","lat":43.3019,"lon":5.36614,"is_reserved":false,"is_disabled":false,"rental_uris":{"android":"levelo://app?vid=74f6cb3f-6433-4a13-bddf-a473313d19d4","ios":"levelo://app?vid=74f6cb3f-6433-4a13-bddf-a473313d19d4"},"vehicle_type_id":"4","last_reported":1714842364,"current_range_meters":28400,"station_id":"ce4bgrh2rcd13ifvqc8g","pricing_plan_id":"cebpf4jnsgd1na2vs0mg"},{"bike_id":"eb4b898c-99e7-4257-8194-e43750e96937","system_id":"levelo_inurba_marseille","lat":43.3047,"lon":5.37896,"is_reserved":false,"is_disabled":false,"rental_uris":{"android":"levelo://app?vid=eb4b898c-99e7-4257-8194-e43750e96937","ios":"levelo://app?vid=eb4b898c-99e7-4257-8194-e43750e96937"},"vehicle_type_id":"4","last_reported":1714842364,"current_range_meters":16800,"station_id":"ce4bgup2rcd13ifvqcn0","pricing_plan_id":"cebpf4jnsgd1na2vs0mg"},{"bike_id":"101066ae-4c11-4c7a-810f-e3b784dbaab2","system_id":"levelo_inurba_marseille","lat":43.324771,"lon":5.36557,"is_reserved":false,"is_disabled":false,"rental_uris":{"android":"levelo://app?vid=101066ae-4c11-4c7a-810f-e3b784dbaab2","ios":"levelo://app?vid=101066ae-4c11-4c7a-810f-e3b784dbaab2"},"vehicle_type_id":"4","last_reported":1714842364,"current_range_meters":14400,"station_id":"ce4bhs12rcd13ifvqhvg","pricing_plan_id":"cebpf4jnsgd1na2vs0mg"},{"bike_id":"4cc07240-6674-4a19-aa44-b364fcd6c48f","system_id":"levelo_inurba_marseille","lat":43.310804,"lon":5.38359,"is_reserved":false,"is_disabled":false,"rental_uris":{"android":"levelo://app?vid=4cc07240-6674-4a19-aa44-b364fcd6c48f","ios":"levelo://app?vid=4cc07240-6674-4a19-aa44-b364fcd6c48f"},"vehicle_type_id":"4","last_reported":1714842364,"current_range_meters":0,"station_id":"ce4bgv92rcd13ifvqcr0","pricing_plan_id":"cebpf4jnsgd1na2vs0mg"},{"bike_id":"e170149a-506e-4fa7-be62-0566eb7ba4ab","system_id":"levelo_inurba_marseille","lat":43.310804,"lon":5.38359,"is_reserved":false,"is_disabled":false,"rental_uris":{"android":"levelo://app?vid=e170149a-506e-4fa7-be62-0566eb7ba4ab","ios":"levelo://app?vid=e170149a-506e-4fa7-be62-0566eb7ba4ab"},"vehicle_type_id":"4","last_reported":1714842364,"current_range_meters":12000,"station_id":"ce4bgv92rcd13ifvqcr0","pricing_plan_id":"cebpf4jnsgd1na2vs0mg"},{"bike_id":"dd8dcb8a-b123-4eae-a20a-e62772fda5a2","system_id":"levelo_inurba_marseille","lat":43.302784,"lon":5.377158,"is_reserved":false,"is_disabled":false,"rental_uris":{"android":"levelo://app?vid=dd8dcb8a-b123-4eae-a20a-e62772fda5a2","ios":"levelo://app?vid=dd8dcb8a-b123-4eae-a20a-e62772fda5a2"},"vehicle_type_id":"4","last_reported":1714842364,"current_range_meters":28000,"station_id":"ce4bguh2rcd13ifvqcj0","pricing_plan_id":"cebpf4jnsgd1na2vs0mg"},{"bike_id":"bc119c94-2781-42b2-b351-0ae2c6d9b445","system_id":"levelo_inurba_marseille","lat":43.301429,"lon":5.37413,"is_reserved":false,"is_disabled":false,"rental_uris":{"android":"levelo://app?vid=bc119c94-2781-42b2-b351-0ae2c6d9b445","ios":"levelo://app?vid=bc119c94-2781-42b2-b351-0ae2c6d9b445"},"vehicle_type_id":"4","last_reported":1714842364,"current_range_meters":15200,"station_id":"ce4bgs92rcd13ifvqcc0","pricing_plan_id":"cebpf4jnsgd1na2vs0mg"},{"bike_id":"08b17c21-d369-4007-980f-7c82a0baabb9","system_id":"levelo_inurba_marseille","lat":43.30143,"lon":5.37413,"is_reserved":false,"is_disabled":false,"rental_uris":{"android":"levelo://app?vid=08b17c21-d369-4007-980f-7c82a0baabb9","ios":"levelo://app?vid=08b17c21-d369-4007-980f-7c82a0baabb9"},"vehicle_type_id":"4","last_reported":1714842364,"current_range_meters":21600,"station_id":"ce4bgs92rcd13ifvqcc0","pricing_plan_id":"cebpf4jnsgd1na2vs0mg"},{"bike_id":"b109357f-cf93-43e2-82f6-8a5e8cb30c39","system_id":"levelo_inurba_marseille","lat":43.319935,"lon":5.381699,"is_reserved":false,"is_disabled":false,"rental_uris":{"android":"levelo://app?vid=b109357f-cf93-43e2-82f6-8a5e8cb30c39","ios":"levelo://app?vid=b109357f-cf93-43e2-82f6-8a5e8cb30c39"},"vehicle_type_id":"4","last_reported":1714842364,"current_range_meters":6000,"station_id":"ce4bhr12rcd13ifvqhpg","pricing_plan_id":"cebpf4jnsgd1na2vs0mg"},{"bike_id":"020005a5-982a-4dde-9e69-54296ffdcfdb","system_id":"levelo_inurba_marseille","lat":43.320022,"lon":5.381557,"is_reserved":false,"is_disabled":false,"rental_uris":{"android":"levelo://app?vid=020005a5-982a-4dde-9e69-54296ffdcfdb","ios":"levelo://app?vid=020005a5-982a-4dde-9e69-54296ffdcfdb"},"vehicle_type_id":"4","last_reported":1714842364,"current_range_meters":27200,"station_id":"","pricing_plan_id":"cebpf4jnsgd1na2vs0mg"},{"bike_id":"8e890e9d-feba-4249-8c7b-59716d0a3cd3","system_id":"levelo_inurba_marseille","lat":43.319935,"lon":5.381699,"is_reserved":false,"is_disabled":false,"rental_uris":{"android":"levelo://app?vid=8e890e9d-feba-4249-8c7b-59716d0a3cd3","ios":"levelo://app?vid=8e890e9d-feba-4249-8c7b-59716d0a3cd3"},"vehicle_type_id":"4","last_reported":1714842364,"current_range_meters":14400,"station_id":"ce4bhr12rcd13ifvqhpg","pricing_plan_id":"cebpf4jnsgd1na2vs0mg"},{"bike_id":"d49cc8b1-b93e-46d2-8c10-20ff0a1cc0bb","system_id":"levelo_inurba_marseille","lat":43.319935,"lon":5.381699,"is_reserved":false,"is_disabled":false,"rental_uris":{"android":"levelo://app?vid=d49cc8b1-b93e-46d2-8c10-20ff0a1cc0bb","ios":"levelo://app?vid=d49cc8b1-b93e-46d2-8c10-20ff0a1cc0bb"},"vehicle_type_id":"4","last_reported":1714842364,"current_range_meters":20000,"station_id":"ce4bhr12rcd13ifvqhpg","pricing_plan_id":"cebpf4jnsgd1na2vs0mg"},{"bike_id":"771abfac-4ede-40b9-b478-52ebd38982b0","system_id":"levelo_inurba_marseille","lat":43.301137,"lon":5.375126,"is_reserved":false,"is_disabled":false,"rental_uris":{"android":"levelo://app?vid=771abfac-4ede-40b9-b478-52ebd38982b0","ios":"levelo://app?vid=771abfac-4ede-40b9-b478-52ebd38982b0"},"vehicle_type_id":"4","last_reported":1714842364,"current_range_meters":15600,"station_id":"","pricing_plan_id":"cebpf4jnsgd1na2vs0mg"},{"bike_id":"b3a41c8f-4af9-4c3b-b8ec-f8e84b5096de","system_id":"levelo_inurba_marseille","lat":43.313667,"lon":5.384904,"is_reserved":false,"is_disabled":false,"rental_uris":{"android":"levelo://app?vid=b3a41c8f-4af9-4c3b-b8ec-f8e84b5096de","ios":"levelo://app?vid=b3a41c8f-4af9-4c3b-b8ec-f8e84b5096de"},"vehicle_type_id":"4","last_reported":1714842364,"current_range_meters":15600,"station_id":"ce4bgt92rcd13ifvqcf0","pricing_plan_id":"cebpf4jnsgd1na2vs0mg"},{"bike_id":"aca70e6c-2284-41d5-86f2-a006cddfc811","system_id":"levelo_inurba_marseille","lat":43.30534,"lon":5.38213,"is_reserved":false,"is_disabled":false,"rental_uris":{"android":"levelo://app?vid=aca70e6c-2284-41d5-86f2-a006cddfc811","ios":"levelo://app?vid=aca70e6c-2284-41d5-86f2-a006cddfc811"},"vehicle_type_id":"4","last_reported":1714842364,"current_range_meters":6000,"station_id":"","pricing_plan_id":"cebpf4jnsgd1na2vs0mg"},{"bike_id":"56b7aa1d-52b5-4e53-8767-03ac070bfe2f","system_id":"levelo_inurba_marseille","lat":43.299222,"lon":5.365554,"is_reserved":false,"is_disabled":false,"rental_uris":{"android":"levelo://app?vid=56b7aa1d-52b5-4e53-8767-03ac070bfe2f","ios":"levelo://app?vid=56b7aa1d-52b5-4e53-8767-03ac070bfe2f"},"vehicle_type_id":"4","last_reported":1714842364,"current_range_meters":24000,"station_id":"ce4bgm92rcd13ifvqbr0","pricing_plan_id":"cebpf4jnsgd1na2vs0mg"},{"bike_id":"67477321-31bb-42c9-a093-19d351095084","system_id":"levelo_inurba_marseille","lat":43.299724,"lon":5.371829,"is_reserved":false,"is_disabled":false,"rental_uris":{"android":"levelo://app?vid=67477321-31bb-42c9-a093-19d351095084","ios":"levelo://app?vid=67477321-31bb-42c9-a093-19d351095084"},"vehicle_type_id":"4","last_reported":1714842364,"current_range_meters":6400,"station_id":"ce4bgr92rcd13ifvqc7g","pricing_plan_id":"cebpf4jnsgd1na2vs0mg"},{"bike_id":"7e992fff-5d59-4d55-b066-10a01f3d200e","system_id":"levelo_inurba_marseille","lat":43.299724,"lon":5.371829,"is_reserved":false,"is_disabled":false,"rental_uris":{"android":"levelo://app?vid=7e992fff-5d59-4d55-b066-10a01f3d200e","ios":"levelo://app?vid=7e992fff-5d59-4d55-b066-10a01f3d200e"},"vehicle_type_id":"4","last_reported":1714842364,"current_range_meters":800,"station_id":"ce4bgr92rcd13ifvqc7g","pricing_plan_id":"cebpf4jnsgd1na2vs0mg"},{"bike_id":"f6d63a63-9565-4974-98a5-0916d35b3a56","system_id":"levelo_inurba_marseille","lat":43.299222,"lon":5.365554,"is_reserved":false,"is_disabled":false,"rental_uris":{"android":"levelo://app?vid=f6d63a63-9565-4974-98a5-0916d35b3a56","ios":"levelo://app?vid=f6d63a63-9565-4974-98a5-0916d35b3a56"},"vehicle_type_id":"4","last_reported":1714842364,"current_range_meters":0,"station_id":"ce4bgm92rcd13ifvqbr0","pricing_plan_id":"cebpf4jnsgd1na2vs0mg"},{"bike_id":"fa755d08-118b-499a-b8b1-f4bd47985538","system_id":"levelo_inurba_marseille","lat":43.305364,"lon":5.384119,"is_reserved":false,"is_disabled":false,"rental_uris":{"android":"levelo://app?vid=fa755d08-118b-499a-b8b1-f4bd47985538","ios":"levelo://app?vid=fa755d08-118b-499a-b8b1-f4bd47985538"},"vehicle_type_id":"4","last_reported":1714842364,"current_range_meters":0,"station_id":"ce4bgg92rcd13ifvqb30","pricing_plan_id":"cebpf4jnsgd1na2vs0mg"},{"bike_id":"3bc34530-b4be-48b6-9e82-ae7988e93b97","system_id":"levelo_inurba_marseille","lat":43.298433,"lon":5.362774,"is_reserved":false,"is_disabled":false,"rental_uris":{"android":"levelo://app?vid=3bc34530-b4be-48b6-9e82-ae7988e93b97","ios":"levelo://app?vid=3bc34530-b4be-48b6-9e82-ae7988e93b97"},"vehicle_type_id":"4","last_reported":1714842364,"current_range_meters":0,"station_id":"ce4bgpp2rcd13ifvqc3g","pricing_plan_id":"cebpf4jnsgd1na2vs0mg"},{"bike_id":"085f3c02-7fc5-4a93-90ec-0cc15f072dd6","system_id":"levelo_inurba_marseille","lat":43.305364,"lon":5.384119,"is_reserved":false,"is_disabled":false,"rental_uris":{"android":"levelo://app?vid=085f3c02-7fc5-4a93-90ec-0cc15f072dd6","ios":"levelo://app?vid=085f3c02-7fc5-4a93-90ec-0cc15f072dd6"},"vehicle_type_id":"4","last_reported":1714842364,"current_range_meters":24000,"station_id":"ce4bgg92rcd13ifvqb30","pricing_plan_id":"cebpf4jnsgd1na2vs0mg"},{"bike_id":"3c95a23f-f6a7-48ec-add1-b53533190666","system_id":"levelo_inurba_marseille","lat":43.298433,"lon":5.362774,"is_reserved":false,"is_disabled":false,"rental_uris":{"android":"levelo://app?vid=3c95a23f-f6a7-48ec-add1-b53533190666","ios":"levelo://app?vid=3c95a23f-f6a7-48ec-add1-b53533190666"},"vehicle_type_id":"4","last_reported":1714842364,"current_range_meters":3200,"station_id":"ce4bgpp2rcd13ifvqc3g","pricing_plan_id":"cebpf4jnsgd1na2vs0mg"},{"bike_id":"b5894ee4-f330-4a4d-b09f-48f8a19e7ac8","system_id":"levelo_inurba_marseille","lat":43.298433,"lon":5.362774,"is_reserved":false,"is_disabled":false,"rental_uris":{"android":"levelo://app?vid=b5894ee4-f330-4a4d-b09f-48f8a19e7ac8","ios":"levelo://app?vid=b5894ee4-f330-4a4d-b09f-48f8a19e7ac8"},"vehicle_type_id":"4","last_reported":1714842364,"current_range_meters":0,"station_id":"ce4bgpp2rcd13ifvqc3g","pricing_plan_id":"cebpf4jnsgd1na2vs0mg"},{"bike_id":"8713f169-1d5e-43ee-8ae5-7581d6838035","system_id":"levelo_inurba_marseille","lat":43.298433,"lon":5.362774,"is_reserved":false,"is_disabled":false,"rental_uris":{"android":"levelo://app?vid=8713f169-1d5e-43ee-8ae5-7581d6838035","ios":"levelo://app?vid=8713f169-1d5e-43ee-8ae5-7581d6838035"},"vehicle_type_id":"4","last_reported":1714842364,"current_range_meters":2000,"station_id":"ce4bgpp2rcd13ifvqc3g","pricing_plan_id":"cebpf4jnsgd1na2vs0mg"},{"bike_id":"475b6ffd-51c1-4a43-a18b-b5639613f138","system_id":"levelo_inurba_marseille","lat":43.298433,"lon":5.362774,"is_reserved":false,"is_disabled":false,"rental_uris":{"android":"levelo://app?vid=475b6ffd-51c1-4a43-a18b-b5639613f138","ios":"levelo://app?vid=475b6ffd-51c1-4a43-a18b-b5639613f138"},"vehicle_type_id":"4","last_reported":1714842364,"current_range_meters":9600,"station_id":"ce4bgpp2rcd13ifvqc3g","pricing_plan_id":"cebpf4jnsgd1na2vs0mg"},{"bike_id":"395b5971-76ef-497d-a8f7-e8b5039e78b3","system_id":"levelo_inurba_marseille","lat":43.298433,"lon":5.362774,"is_reserved":false,"is_disabled":false,"rental_uris":{"android":"levelo://app?vid=395b5971-76ef-497d-a8f7-e8b5039e78b3","ios":"levelo://app?vid=395b5971-76ef-497d-a8f7-e8b5039e78b3"},"vehicle_type_id":"4","last_reported":1714842364,"current_range_meters":17200,"station_id":"ce4bgpp2rcd13ifvqc3g","pricing_plan_id":"cebpf4jnsgd1na2vs0mg"},{"bike_id":"4059e6be-d67c-426c-9105-1ed15add9be6","system_id":"levelo_inurba_marseille","lat":43.298433,"lon":5.362774,"is_reserved":false,"is_disabled":false,"rental_uris":{"android":"levelo://app?vid=4059e6be-d67c-426c-9105-1ed15add9be6","ios":"levelo://app?vid=4059e6be-d67c-426c-9105-1ed15add9be6"},"vehicle_type_id":"4","last_reported":1714842364,"current_range_meters":19200,"station_id":"ce4bgpp2rcd13ifvqc3g","pricing_plan_id":"cebpf4jnsgd1na2vs0mg"},{"bike_id":"985a08d0-6cdb-46e4-bdaa-039fb27ba13a","system_id":"levelo_inurba_marseille","lat":43.305364,"lon":5.384119,"is_reserved":false,"is_disabled":false,"rental_uris":{"android":"levelo://app?vid=985a08d0-6cdb-46e4-bdaa-039fb27ba13a","ios":"levelo://app?vid=985a08d0-6cdb-46e4-bdaa-039fb27ba13a"},"vehicle_type_id":"4","last_reported":1714842364,"current_range_meters":4800,"station_id":"ce4bgg92rcd13ifvqb30","pricing_plan_id":"cebpf4jnsgd1na2vs0mg"},{"bike_id":"8a5dfa3b-5c21-44f3-8588-910feaa4ddf2","system_id":"levelo_inurba_marseille","lat":43.299243,"lon":5.37481,"is_reserved":false,"is_disabled":false,"rental_uris":{"android":"levelo://app?vid=8a5dfa3b-5c21-44f3-8588-910feaa4ddf2","ios":"levelo://app?vid=8a5dfa3b-5c21-44f3-8588-910feaa4ddf2"},"vehicle_type_id":"4","last_reported":1714842364,"current_range_meters":29600,"station_id":"ce4bgjh2rcd13ifvqbg0","pricing_plan_id":"cebpf4jnsgd1na2vs0mg"},{"bike_id":"324953b0-f2eb-4b56-a68a-81aec402f621","system_id":"levelo_inurba_marseille","lat":43.299243,"lon":5.37481,"is_reserved":false,"is_disabled":false,"rental_uris":{"android":"levelo://app?vid=324953b0-f2eb-4b56-a68a-81aec402f621","ios":"levelo://app?vid=324953b0-f2eb-4b56-a68a-81aec402f621"},"vehicle_type_id":"4","last_reported":1714842364,"current_range_meters":14400,"station_id":"ce4bgjh2rcd13ifvqbg0","pricing_plan_id":"cebpf4jnsgd1na2vs0mg"},{"bike_id":"4ad6655b-72df-44d6-8f87-ad2787b0afba","system_id":"levelo_inurba_marseille","lat":43.299243,"lon":5.37481,"is_reserved":false,"is_disabled":false,"rental_uris":{"android":"levelo://app?vid=4ad6655b-72df-44d6-8f87-ad2787b0afba","ios":"levelo://app?vid=4ad6655b-72df-44d6-8f87-ad2787b0afba"},"vehicle_type_id":"4","last_reported":1714842364,"current_range_meters":21200,"station_id":"ce4bgjh2rcd13ifvqbg0","pricing_plan_id":"cebpf4jnsgd1na2vs0mg"},{"bike_id":"466c1391-0859-4ccb-8001-283b71dd0f67","system_id":"levelo_inurba_marseille","lat":43.299243,"lon":5.37481,"is_reserved":false,"is_disabled":false,"rental_uris":{"android":"levelo://app?vid=466c1391-0859-4ccb-8001-283b71dd0f67","ios":"levelo://app?vid=466c1391-0859-4ccb-8001-283b71dd0f67"},"vehicle_type_id":"4","last_reported":1714842364,"current_range_meters":22400,"station_id":"ce4bgjh2rcd13ifvqbg0","pricing_plan_id":"cebpf4jnsgd1na2vs0mg"},{"bike_id":"5494d0ac-7462-4e81-a3fd-fec501df4bb6","system_id":"levelo_inurba_marseille","lat":43.299243,"lon":5.37481,"is_reserved":false,"is_disabled":false,"rental_uris":{"android":"levelo://app?vid=5494d0ac-7462-4e81-a3fd-fec501df4bb6","ios":"levelo://app?vid=5494d0ac-7462-4e81-a3fd-fec501df4bb6"},"vehicle_type_id":"4","last_reported":1714842364,"current_range_meters":14400,"station_id":"ce4bgjh2rcd13ifvqbg0","pricing_plan_id":"cebpf4jnsgd1na2vs0mg"},{"bike_id":"1c14f944-1764-4152-a595-8a7eedb4a0b6","system_id":"levelo_inurba_marseille","lat":43.311722,"lon":5.387247,"is_reserved":false,"is_disabled":false,"rental_uris":{"android":"levelo://app?vid=1c14f944-1764-4152-a595-8a7eedb4a0b6","ios":"levelo://app?vid=1c14f944-1764-4152-a595-8a7eedb4a0b6"},"vehicle_type_id":"4","last_reported":1714842364,"current_range_meters":16400,"station_id":"ce4bgv12rcd13ifvqcp0","pricing_plan_id":"cebpf4jnsgd1na2vs0mg"},{"bike_id":"709bf1a0-c096-4268-8878-903714421b1d","system_id":"levelo_inurba_marseille","lat":43.311722,"lon":5.387247,"is_reserved":false,"is_disabled":false,"rental_uris":{"android":"levelo://app?vid=709bf1a0-c096-4268-8878-903714421b1d","ios":"levelo://app?vid=709bf1a0-c096-4268-8878-903714421b1d"},"vehicle_type_id":"4","last_reported":1714842364,"current_range_meters":4400,"station_id":"ce4bgv12rcd13ifvqcp0","pricing_plan_id":"cebpf4jnsgd1na2vs0mg"},{"bike_id":"32429a4c-3859-4d23-ac45-ceb9b858b1f8","system_id":"levelo_inurba_marseille","lat":43.311722,"lon":5.387247,"is_reserved":false,"is_disabled":false,"rental_uris":{"android":"levelo://app?vid=32429a4c-3859-4d23-ac45-ceb9b858b1f8","ios":"levelo://app?vid=32429a4c-3859-4d23-ac45-ceb9b858b1f8"},"vehicle_type_id":"4","last_reported":1714842364,"current_range_meters":8000,"station_id":"ce4bgv12rcd13ifvqcp0","pricing_plan_id":"cebpf4jnsgd1na2vs0mg"},{"bike_id":"eaaf2e71-b2ee-461f-90f0-8ad72217ed74","system_id":"levelo_inurba_marseille","lat":43.2982,"lon":5.36276,"is_reserved":false,"is_disabled":false,"rental_uris":{"android":"levelo://app?vid=eaaf2e71-b2ee-461f-90f0-8ad72217ed74","ios":"levelo://app?vid=eaaf2e71-b2ee-461f-90f0-8ad72217ed74"},"vehicle_type_id":"4","last_reported":1714842364,"current_range_meters":9600,"station_id":"","pricing_plan_id":"cebpf4jnsgd1na2vs0mg"},{"bike_id":"9ce22ec3-fbe4-4b82-8ee1-97de37c41046","system_id":"levelo_inurba_marseille","lat":43.305364,"lon":5.384119,"is_reserved":false,"is_disabled":false,"rental_uris":{"android":"levelo://app?vid=9ce22ec3-fbe4-4b82-8ee1-97de37c41046","ios":"levelo://app?vid=9ce22ec3-fbe4-4b82-8ee1-97de37c41046"},"vehicle_type_id":"4","last_reported":1714842364,"current_range_meters":6000,"station_id":"ce4bgg92rcd13ifvqb30","pricing_plan_id":"cebpf4jnsgd1na2vs0mg"},{"bike_id":"b43f7022-c9ad-4f96-9dc2-15a510f79b4b","system_id":"levelo_inurba_marseille","lat":43.29796,"lon":5.36241,"is_reserved":false,"is_disabled":false,"rental_uris":{"android":"levelo://app?vid=b43f7022-c9ad-4f96-9dc2-15a510f79b4b","ios":"levelo://app?vid=b43f7022-c9ad-4f96-9dc2-15a510f79b4b"},"vehicle_type_id":"4","last_reported":1714842364,"current_range_meters":8800,"station_id":"","pricing_plan_id":"cebpf4jnsgd1na2vs0mg"},{"bike_id":"9964ee0d-3366-4b97-a806-4438968babd4","system_id":"levelo_inurba_marseille","lat":43.297794,"lon":5.370888,"is_reserved":false,"is_disabled":false,"rental_uris":{"android":"levelo://app?vid=9964ee0d-3366-4b97-a806-4438968babd4","ios":"levelo://app?vid=9964ee0d-3366-4b97-a806-4438968babd4"},"vehicle_type_id":"4","last_reported":1714842364,"current_range_meters":8000,"station_id":"ce4bgop2rcd13ifvqc1g","pricing_plan_id":"cebpf4jnsgd1na2vs0mg"},{"bike_id":"ec43e64e-723c-4d0f-9f63-afeed35045fb","system_id":"levelo_inurba_marseille","lat":43.322872,"lon":5.382756,"is_reserved":false,"is_disabled":false,"rental_uris":{"android":"levelo://app?vid=ec43e64e-723c-4d0f-9f63-afeed35045fb","ios":"levelo://app?vid=ec43e64e-723c-4d0f-9f63-afeed35045fb"},"vehicle_type_id":"4","last_reported":1714842364,"current_range_meters":26000,"station_id":"ce4bhr12rcd13ifvqhqg","pricing_plan_id":"cebpf4jnsgd1na2vs0mg"},{"bike_id":"11838c5d-d012-4ee5-893e-c219347ccf86","system_id":"levelo_inurba_marseille","lat":43.322872,"lon":5.382756,"is_reserved":false,"is_disabled":false,"rental_uris":{"android":"levelo://app?vid=11838c5d-d012-4ee5-893e-c219347ccf86","ios":"levelo://app?vid=11838c5d-d012-4ee5-893e-c219347ccf86"},"vehicle_type_id":"4","last_reported":1714842364,"current_range_meters":800,"station_id":"ce4bhr12rcd13ifvqhqg","pricing_plan_id":"cebpf4jnsgd1na2vs0mg"},{"bike_id":"79366eb4-9e97-4c92-8faa-2216973cf444","system_id":"levelo_inurba_marseille","lat":43.322872,"lon":5.382756,"is_reserved":false,"is_disabled":false,"rental_uris":{"android":"levelo://app?vid=79366eb4-9e97-4c92-8faa-2216973cf444","ios":"levelo://app?vid=79366eb4-9e97-4c92-8faa-2216973cf444"},"vehicle_type_id":"4","last_reported":1714842364,"current_range_meters":0,"station_id":"ce4bhr12rcd13ifvqhqg","pricing_plan_id":"cebpf4jnsgd1na2vs0mg"},{"bike_id":"d6fce4c1-517f-4771-97e9-eb8f729dc554","system_id":"levelo_inurba_marseille","lat":43.297794,"lon":5.370888,"is_reserved":false,"is_disabled":false,"rental_uris":{"android":"levelo://app?vid=d6fce4c1-517f-4771-97e9-eb8f729dc554","ios":"levelo://app?vid=d6fce4c1-517f-4771-97e9-eb8f729dc554"},"vehicle_type_id":"4","last_reported":1714842364,"current_range_meters":0,"station_id":"ce4bgop2rcd13ifvqc1g","pricing_plan_id":"cebpf4jnsgd1na2vs0mg"},{"bike_id":"5e06a9b5-a2e6-4d62-80a0-7b00453b129f","system_id":"levelo_inurba_marseille","lat":43.297163,"lon":5.365866,"is_reserved":false,"is_disabled":false,"rental_uris":{"android":"levelo://app?vid=5e06a9b5-a2e6-4d62-80a0-7b00453b129f","ios":"levelo://app?vid=5e06a9b5-a2e6-4d62-80a0-7b00453b129f"},"vehicle_type_id":"4","last_reported":1714842364,"current_range_meters":16000,"station_id":"ce4bgn12rcd13ifvqbt0","pricing_plan_id":"cebpf4jnsgd1na2vs0mg"},{"bike_id":"54313295-5eb2-4eb9-a73b-7bb1e4eac381","system_id":"levelo_inurba_marseille","lat":43.300274,"lon":5.380036,"is_reserved":false,"is_disabled":false,"rental_uris":{"android":"levelo://app?vid=54313295-5eb2-4eb9-a73b-7bb1e4eac381","ios":"levelo://app?vid=54313295-5eb2-4eb9-a73b-7bb1e4eac381"},"vehicle_type_id":"4","last_reported":1714842364,"current_range_meters":0,"station_id":"","pricing_plan_id":"cebpf4jnsgd1na2vs0mg"},{"bike_id":"e8e6fc59-b367-49bc-8a01-6b9277335d22","system_id":"levelo_inurba_marseille","lat":43.299028,"lon":5.381509,"is_reserved":false,"is_disabled":false,"rental_uris":{"android":"levelo://app?vid=e8e6fc59-b367-49bc-8a01-6b9277335d22","ios":"levelo://app?vid=e8e6fc59-b367-49bc-8a01-6b9277335d22"},"vehicle_type_id":"4","last_reported":1714842364,"current_range_meters":8800,"station_id":"ce4bgj12rcd13ifvqbc0","pricing_plan_id":"cebpf4jnsgd1na2vs0mg"},{"bike_id":"3d4839fb-d965-45b1-9005-7ca5ed783045","system_id":"levelo_inurba_marseille","lat":43.305364,"lon":5.384119,"is_reserved":false,"is_disabled":false,"rental_uris":{"android":"levelo://app?vid=3d4839fb-d965-45b1-9005-7ca5ed783045","ios":"levelo://app?vid=3d4839fb-d965-45b1-9005-7ca5ed783045"},"vehicle_type_id":"4","last_reported":1714842364,"current_range_meters":17200,"station_id":"ce4bgg92rcd13ifvqb30","pricing_plan_id":"cebpf4jnsgd1na2vs0mg"},{"bike_id":"18fb21e8-baac-4a2e-affe-08ac07661df9","system_id":"levelo_inurba_marseille","lat":43.296131,"lon":5.370791,"is_reserved":false,"is_disabled":false,"rental_uris":{"android":"levelo://app?vid=18fb21e8-baac-4a2e-affe-08ac07661df9","ios":"levelo://app?vid=18fb21e8-baac-4a2e-affe-08ac07661df9"},"vehicle_type_id":"4","last_reported":1714842364,"current_range_meters":26000,"station_id":"ce4bgnh2rcd13ifvqc0g","pricing_plan_id":"cebpf4jnsgd1na2vs0mg"},{"bike_id":"fac3a1fd-d1b7-4f44-9b2e-bfbde50e50f8","system_id":"levelo_inurba_marseille","lat":43.29573,"lon":5.367355,"is_reserved":false,"is_disabled":false,"rental_uris":{"android":"levelo://app?vid=fac3a1fd-d1b7-4f44-9b2e-bfbde50e50f8","ios":"levelo://app?vid=fac3a1fd-d1b7-4f44-9b2e-bfbde50e50f8"},"vehicle_type_id":"4","last_reported":1714842364,"current_range_meters":27200,"station_id":"ce4bgph2rcd13ifvqc2g","pricing_plan_id":"cebpf4jnsgd1na2vs0mg"},{"bike_id":"c2250af1-bbef-4f83-a8e4-30de253f053a","system_id":"levelo_inurba_marseille","lat":43.29573,"lon":5.367355,"is_reserved":false,"is_disabled":false,"rental_uris":{"android":"levelo://app?vid=c2250af1-bbef-4f83-a8e4-30de253f053a","ios":"levelo://app?vid=c2250af1-bbef-4f83-a8e4-30de253f053a"},"vehicle_type_id":"4","last_reported":1714842364,"current_range_meters":26400,"station_id":"ce4bgph2rcd13ifvqc2g","pricing_plan_id":"cebpf4jnsgd1na2vs0mg"},{"bike_id":"5ef59ac2-1883-4cf8-95d6-2cb46fb7a82c","system_id":"levelo_inurba_marseille","lat":43.29573,"lon":5.367355,"is_reserved":false,"is_disabled":false,"rental_uris":{"android":"levelo://app?vid=5ef59ac2-1883-4cf8-95d6-2cb46fb7a82c","ios":"levelo://app?vid=5ef59ac2-1883-4cf8-95d6-2cb46fb7a82c"},"vehicle_type_id":"4","last_reported":1714842364,"current_range_meters":400,"station_id":"ce4bgph2rcd13ifvqc2g","pricing_plan_id":"cebpf4jnsgd1na2vs0mg"},{"bike_id":"6e402869-0eb1-4d43-b57c-01645bbed1e0","system_id":"levelo_inurba_marseille","lat":43.29726,"lon":5.37689,"is_reserved":false,"is_disabled":false,"rental_uris":{"android":"levelo://app?vid=6e402869-0eb1-4d43-b57c-01645bbed1e0","ios":"levelo://app?vid=6e402869-0eb1-4d43-b57c-01645bbed1e0"},"vehicle_type_id":"4","last_reported":1714842364,"current_range_meters":0,"station_id":"ce4bgkh2rcd13ifvqbl0","pricing_plan_id":"cebpf4jnsgd1na2vs0mg"},{"bike_id":"d61001ad-fd40-4d31-8fff-943c6f8872c9","system_id":"levelo_inurba_marseille","lat":43.299028,"lon":5.381509,"is_reserved":false,"is_disabled":false,"rental_uris":{"android":"levelo://app?vid=d61001ad-fd40-4d31-8fff-943c6f8872c9","ios":"levelo://app?vid=d61001ad-fd40-4d31-8fff-943c6f8872c9"},"vehicle_type_id":"4","last_reported":1714842364,"current_range_meters":6800,"station_id":"ce4bgj12rcd13ifvqbc0","pricing_plan_id":"cebpf4jnsgd1na2vs0mg"},{"bike_id":"c86bf7d6-7ccf-454f-ba7f-aad61724ea6c","system_id":"levelo_inurba_marseille","lat":43.30956,"lon":5.3903,"is_reserved":false,"is_disabled":false,"rental_uris":{"android":"levelo://app?vid=c86bf7d6-7ccf-454f-ba7f-aad61724ea6c","ios":"levelo://app?vid=c86bf7d6-7ccf-454f-ba7f-aad61724ea6c"},"vehicle_type_id":"4","last_reported":1714842364,"current_range_meters":0,"station_id":"ce4bgup2rcd13ifvqco0","pricing_plan_id":"cebpf4jnsgd1na2vs0mg"},{"bike_id":"74fce3c6-3d1f-4fed-8348-2e21105b5cbe","system_id":"levelo_inurba_marseille","lat":43.309589,"lon":5.390258,"is_reserved":false,"is_disabled":false,"rental_uris":{"android":"levelo://app?vid=74fce3c6-3d1f-4fed-8348-2e21105b5cbe","ios":"levelo://app?vid=74fce3c6-3d1f-4fed-8348-2e21105b5cbe"},"vehicle_type_id":"4","last_reported":1714842364,"current_range_meters":1200,"station_id":"ce4bgup2rcd13ifvqco0","pricing_plan_id":"cebpf4jnsgd1na2vs0mg"},{"bike_id":"f34dd900-9603-4a05-aa9e-f463f60e6098","system_id":"levelo_inurba_marseille","lat":43.309589,"lon":5.390258,"is_reserved":false,"is_disabled":false,"rental_uris":{"android":"levelo://app?vid=f34dd900-9603-4a05-aa9e-f463f60e6098","ios":"levelo://app?vid=f34dd900-9603-4a05-aa9e-f463f60e6098"},"vehicle_type_id":"4","last_reported":1714842364,"current_range_meters":20800,"station_id":"ce4bgup2rcd13ifvqco0","pricing_plan_id":"cebpf4jnsgd1na2vs0mg"},{"bike_id":"c1c3df7b-2d2d-4be6-b27f-73c1dd172736","system_id":"levelo_inurba_marseille","lat":43.30948,"lon":5.3904,"is_reserved":false,"is_disabled":false,"rental_uris":{"android":"levelo://app?vid=c1c3df7b-2d2d-4be6-b27f-73c1dd172736","ios":"levelo://app?vid=c1c3df7b-2d2d-4be6-b27f-73c1dd172736"},"vehicle_type_id":"4","last_reported":1714842364,"current_range_meters":16800,"station_id":"ce4bgup2rcd13ifvqco0","pricing_plan_id":"cebpf4jnsgd1na2vs0mg"},{"bike_id":"b15b1448-5f2b-4d9e-81f0-b6f0d0890980","system_id":"levelo_inurba_marseille","lat":43.309589,"lon":5.390258,"is_reserved":false,"is_disabled":false,"rental_uris":{"android":"levelo://app?vid=b15b1448-5f2b-4d9e-81f0-b6f0d0890980","ios":"levelo://app?vid=b15b1448-5f2b-4d9e-81f0-b6f0d0890980"},"vehicle_type_id":"4","last_reported":1714842364,"current_range_meters":18000,"station_id":"ce4bgup2rcd13ifvqco0","pricing_plan_id":"cebpf4jnsgd1na2vs0mg"},{"bike_id":"561da395-a05b-4466-ab5a-5fca3d332145","system_id":"levelo_inurba_marseille","lat":43.30953,"lon":5.39048,"is_reserved":false,"is_disabled":false,"rental_uris":{"android":"levelo://app?vid=561da395-a05b-4466-ab5a-5fca3d332145","ios":"levelo://app?vid=561da395-a05b-4466-ab5a-5fca3d332145"},"vehicle_type_id":"4","last_reported":1714842364,"current_range_meters":2400,"station_id":"ce4bgup2rcd13ifvqco0","pricing_plan_id":"cebpf4jnsgd1na2vs0mg"},{"bike_id":"022293b7-7b1e-46c7-8bb0-d90f27c61c2e","system_id":"levelo_inurba_marseille","lat":43.309589,"lon":5.390258,"is_reserved":false,"is_disabled":false,"rental_uris":{"android":"levelo://app?vid=022293b7-7b1e-46c7-8bb0-d90f27c61c2e","ios":"levelo://app?vid=022293b7-7b1e-46c7-8bb0-d90f27c61c2e"},"vehicle_type_id":"4","last_reported":1714842364,"current_range_meters":19600,"station_id":"ce4bgup2rcd13ifvqco0","pricing_plan_id":"cebpf4jnsgd1na2vs0mg"},{"bike_id":"f4f7eb9f-bca1-4073-a996-abded8f23886","system_id":"levelo_inurba_marseille","lat":43.311967,"lon":5.390997,"is_reserved":false,"is_disabled":false,"rental_uris":{"android":"levelo://app?vid=f4f7eb9f-bca1-4073-a996-abded8f23886","ios":"levelo://app?vid=f4f7eb9f-bca1-4073-a996-abded8f23886"},"vehicle_type_id":"4","last_reported":1714842364,"current_range_meters":23600,"station_id":"","pricing_plan_id":"cebpf4jnsgd1na2vs0mg"},{"bike_id":"d2b16b60-cd0c-49c5-9dfc-cbe7a85d150e","system_id":"levelo_inurba_marseille","lat":43.309589,"lon":5.390258,"is_reserved":false,"is_disabled":false,"rental_uris":{"android":"levelo://app?vid=d2b16b60-cd0c-49c5-9dfc-cbe7a85d150e","ios":"levelo://app?vid=d2b16b60-cd0c-49c5-9dfc-cbe7a85d150e"},"vehicle_type_id":"4","last_reported":1714842364,"current_range_meters":0,"station_id":"ce4bgup2rcd13ifvqco0","pricing_plan_id":"cebpf4jnsgd1na2vs0mg"},{"bike_id":"b41dcc14-4aee-4115-b7bf-166849f50ea3","system_id":"levelo_inurba_marseille","lat":43.309589,"lon":5.390258,"is_reserved":false,"is_disabled":false,"rental_uris":{"android":"levelo://app?vid=b41dcc14-4aee-4115-b7bf-166849f50ea3","ios":"levelo://app?vid=b41dcc14-4aee-4115-b7bf-166849f50ea3"},"vehicle_type_id":"4","last_reported":1714842364,"current_range_meters":25200,"station_id":"ce4bgup2rcd13ifvqco0","pricing_plan_id":"cebpf4jnsgd1na2vs0mg"},{"bike_id":"7a900649-6a39-4b13-9fd6-020caf63220c","system_id":"levelo_inurba_marseille","lat":43.309589,"lon":5.390258,"is_reserved":false,"is_disabled":false,"rental_uris":{"android":"levelo://app?vid=7a900649-6a39-4b13-9fd6-020caf63220c","ios":"levelo://app?vid=7a900649-6a39-4b13-9fd6-020caf63220c"},"vehicle_type_id":"4","last_reported":1714842364,"current_range_meters":19200,"station_id":"ce4bgup2rcd13ifvqco0","pricing_plan_id":"cebpf4jnsgd1na2vs0mg"},{"bike_id":"2d6e550d-9ff4-4b14-99ff-a3aa73ce15e4","system_id":"levelo_inurba_marseille","lat":43.30439,"lon":5.38886,"is_reserved":false,"is_disabled":false,"rental_uris":{"android":"levelo://app?vid=2d6e550d-9ff4-4b14-99ff-a3aa73ce15e4","ios":"levelo://app?vid=2d6e550d-9ff4-4b14-99ff-a3aa73ce15e4"},"vehicle_type_id":"4","last_reported":1714842364,"current_range_meters":0,"station_id":"ce4bgk12rcd13ifvqbi0","pricing_plan_id":"cebpf4jnsgd1na2vs0mg"},{"bike_id":"1793ba37-9525-4930-9191-183174c991af","system_id":"levelo_inurba_marseille","lat":43.298037,"lon":5.381066,"is_reserved":false,"is_disabled":false,"rental_uris":{"android":"levelo://app?vid=1793ba37-9525-4930-9191-183174c991af","ios":"levelo://app?vid=1793ba37-9525-4930-9191-183174c991af"},"vehicle_type_id":"4","last_reported":1714842364,"current_range_meters":20000,"station_id":"ce4bgip2rcd13ifvqbb0","pricing_plan_id":"cebpf4jnsgd1na2vs0mg"},{"bike_id":"60e08b9c-aa4d-40d3-8126-ca07b557651f","system_id":"levelo_inurba_marseille","lat":43.304274,"lon":5.388873,"is_reserved":false,"is_disabled":false,"rental_uris":{"android":"levelo://app?vid=60e08b9c-aa4d-40d3-8126-ca07b557651f","ios":"levelo://app?vid=60e08b9c-aa4d-40d3-8126-ca07b557651f"},"vehicle_type_id":"4","last_reported":1714842364,"current_range_meters":0,"station_id":"ce4bgk12rcd13ifvqbi0","pricing_plan_id":"cebpf4jnsgd1na2vs0mg"},{"bike_id":"cda37443-d7b9-4802-95a6-e7a8a0d20c6d","system_id":"levelo_inurba_marseille","lat":43.304404,"lon":5.388988,"is_reserved":false,"is_disabled":false,"rental_uris":{"android":"levelo://app?vid=cda37443-d7b9-4802-95a6-e7a8a0d20c6d","ios":"levelo://app?vid=cda37443-d7b9-4802-95a6-e7a8a0d20c6d"},"vehicle_type_id":"4","last_reported":1714842364,"current_range_meters":0,"station_id":"ce4bgk12rcd13ifvqbi0","pricing_plan_id":"cebpf4jnsgd1na2vs0mg"},{"bike_id":"71f767a2-91b8-4dbb-8cfd-8fc45e3d110e","system_id":"levelo_inurba_marseille","lat":43.296263,"lon":5.377094,"is_reserved":false,"is_disabled":false,"rental_uris":{"android":"levelo://app?vid=71f767a2-91b8-4dbb-8cfd-8fc45e3d110e","ios":"levelo://app?vid=71f767a2-91b8-4dbb-8cfd-8fc45e3d110e"},"vehicle_type_id":"4","last_reported":1714842364,"current_range_meters":1200,"station_id":"ce4bgi92rcd13ifvqb90","pricing_plan_id":"cebpf4jnsgd1na2vs0mg"},{"bike_id":"b4cb3931-50fe-462e-b8a1-4debbf715676","system_id":"levelo_inurba_marseille","lat":43.29545,"lon":5.37457,"is_reserved":false,"is_disabled":false,"rental_uris":{"android":"levelo://app?vid=b4cb3931-50fe-462e-b8a1-4debbf715676","ios":"levelo://app?vid=b4cb3931-50fe-462e-b8a1-4debbf715676"},"vehicle_type_id":"4","last_reported":1714842364,"current_range_meters":800,"station_id":"ce4bgj92rcd13ifvqbd0","pricing_plan_id":"cebpf4jnsgd1na2vs0mg"},{"bike_id":"0fdd42a7-6d8b-4907-9760-60f5bcf9fbfe","system_id":"levelo_inurba_marseille","lat":43.296218,"lon":5.377362,"is_reserved":false,"is_disabled":false,"rental_uris":{"android":"levelo://app?vid=0fdd42a7-6d8b-4907-9760-60f5bcf9fbfe","ios":"levelo://app?vid=0fdd42a7-6d8b-4907-9760-60f5bcf9fbfe"},"vehicle_type_id":"4","last_reported":1714842364,"current_range_meters":22800,"station_id":"ce4bgi92rcd13ifvqb90","pricing_plan_id":"cebpf4jnsgd1na2vs0mg"},{"bike_id":"7b32f4da-e519-4513-9fe2-d6ef6bd78058","system_id":"levelo_inurba_marseille","lat":43.295279,"lon":5.375048,"is_reserved":false,"is_disabled":false,"rental_uris":{"android":"levelo://app?vid=7b32f4da-e519-4513-9fe2-d6ef6bd78058","ios":"levelo://app?vid=7b32f4da-e519-4513-9fe2-d6ef6bd78058"},"vehicle_type_id":"4","last_reported":1714842364,"current_range_meters":2800,"station_id":"ce4bgkp2rcd13ifvqbmg","pricing_plan_id":"cebpf4jnsgd1na2vs0mg"},{"bike_id":"533e66cd-c832-4f6a-bf85-78b0a196545e","system_id":"levelo_inurba_marseille","lat":43.299717,"lon":5.384845,"is_reserved":false,"is_disabled":false,"rental_uris":{"android":"levelo://app?vid=533e66cd-c832-4f6a-bf85-78b0a196545e","ios":"levelo://app?vid=533e66cd-c832-4f6a-bf85-78b0a196545e"},"vehicle_type_id":"4","last_reported":1714842364,"current_range_meters":0,"station_id":"ce4bgj92rcd13ifvqbd0","pricing_plan_id":"cebpf4jnsgd1na2vs0mg"},{"bike_id":"83dd492a-5638-40b1-9999-37e9d553c255","system_id":"levelo_inurba_marseille","lat":43.295354,"lon":5.375076,"is_reserved":false,"is_disabled":false,"rental_uris":{"android":"levelo://app?vid=83dd492a-5638-40b1-9999-37e9d553c255","ios":"levelo://app?vid=83dd492a-5638-40b1-9999-37e9d553c255"},"vehicle_type_id":"4","last_reported":1714842364,"current_range_meters":12400,"station_id":"ce4bgkp2rcd13ifvqbmg","pricing_plan_id":"cebpf4jnsgd1na2vs0mg"},{"bike_id":"7237ce8f-6cf4-482f-a4d1-d44d2d9587e6","system_id":"levelo_inurba_marseille","lat":43.299707,"lon":5.384859,"is_reserved":false,"is_disabled":false,"rental_uris":{"android":"levelo://app?vid=7237ce8f-6cf4-482f-a4d1-d44d2d9587e6","ios":"levelo://app?vid=7237ce8f-6cf4-482f-a4d1-d44d2d9587e6"},"vehicle_type_id":"4","last_reported":1714842364,"current_range_meters":800,"station_id":"ce4bgj92rcd13ifvqbd0","pricing_plan_id":"cebpf4jnsgd1na2vs0mg"},{"bike_id":"bdef202d-e0f6-45d0-89e4-2e7e84510143","system_id":"levelo_inurba_marseille","lat":43.299707,"lon":5.384859,"is_reserved":false,"is_disabled":false,"rental_uris":{"android":"levelo://app?vid=bdef202d-e0f6-45d0-89e4-2e7e84510143","ios":"levelo://app?vid=bdef202d-e0f6-45d0-89e4-2e7e84510143"},"vehicle_type_id":"4","last_reported":1714842364,"current_range_meters":23200,"station_id":"ce4bgj92rcd13ifvqbd0","pricing_plan_id":"cebpf4jnsgd1na2vs0mg"},{"bike_id":"d24a449f-bde3-49b3-8da5-8ecc60ee4559","system_id":"levelo_inurba_marseille","lat":43.29978,"lon":5.38489,"is_reserved":false,"is_disabled":false,"rental_uris":{"android":"levelo://app?vid=d24a449f-bde3-49b3-8da5-8ecc60ee4559","ios":"levelo://app?vid=d24a449f-bde3-49b3-8da5-8ecc60ee4559"},"vehicle_type_id":"4","last_reported":1714842364,"current_range_meters":0,"station_id":"ce4bgj92rcd13ifvqbd0","pricing_plan_id":"cebpf4jnsgd1na2vs0mg"},{"bike_id":"4a2c49e0-a7ae-4fdd-8e8f-7b01c3e1d79f","system_id":"levelo_inurba_marseille","lat":43.29973,"lon":5.38483,"is_reserved":false,"is_disabled":false,"rental_uris":{"android":"levelo://app?vid=4a2c49e0-a7ae-4fdd-8e8f-7b01c3e1d79f","ios":"levelo://app?vid=4a2c49e0-a7ae-4fdd-8e8f-7b01c3e1d79f"},"vehicle_type_id":"4","last_reported":1714842364,"current_range_meters":0,"station_id":"ce4bgj92rcd13ifvqbd0","pricing_plan_id":"cebpf4jnsgd1na2vs0mg"},{"bike_id":"e1106975-6593-4990-bc47-9f4410b624e6","system_id":"levelo_inurba_marseille","lat":43.299717,"lon":5.384845,"is_reserved":false,"is_disabled":false,"rental_uris":{"android":"levelo://app?vid=e1106975-6593-4990-bc47-9f4410b624e6","ios":"levelo://app?vid=e1106975-6593-4990-bc47-9f4410b624e6"},"vehicle_type_id":"4","last_reported":1714842364,"current_range_meters":0,"station_id":"ce4bgj92rcd13ifvqbd0","pricing_plan_id":"cebpf4jnsgd1na2vs0mg"},{"bike_id":"85ec93df-7548-4fe0-a3a5-6a2a5fd3db11","system_id":"levelo_inurba_marseille","lat":43.299717,"lon":5.384845,"is_reserved":false,"is_disabled":false,"rental_uris":{"android":"levelo://app?vid=85ec93df-7548-4fe0-a3a5-6a2a5fd3db11","ios":"levelo://app?vid=85ec93df-7548-4fe0-a3a5-6a2a5fd3db11"},"vehicle_type_id":"4","last_reported":1714842364,"current_range_meters":5200,"station_id":"ce4bgj92rcd13ifvqbd0","pricing_plan_id":"cebpf4jnsgd1na2vs0mg"},{"bike_id":"646cf42d-4cd7-4c33-aed0-56e16b0cdd4e","system_id":"levelo_inurba_marseille","lat":43.295279,"lon":5.375048,"is_reserved":false,"is_disabled":false,"rental_uris":{"android":"levelo://app?vid=646cf42d-4cd7-4c33-aed0-56e16b0cdd4e","ios":"levelo://app?vid=646cf42d-4cd7-4c33-aed0-56e16b0cdd4e"},"vehicle_type_id":"4","last_reported":1714842364,"current_range_meters":0,"station_id":"ce4bgkp2rcd13ifvqbmg","pricing_plan_id":"cebpf4jnsgd1na2vs0mg"},{"bike_id":"7a9a2f10-74a7-41d3-9ad5-5b8c843b4a66","system_id":"levelo_inurba_marseille","lat":43.295279,"lon":5.375048,"is_reserved":false,"is_disabled":false,"rental_uris":{"android":"levelo://app?vid=7a9a2f10-74a7-41d3-9ad5-5b8c843b4a66","ios":"levelo://app?vid=7a9a2f10-74a7-41d3-9ad5-5b8c843b4a66"},"vehicle_type_id":"4","last_reported":1714842364,"current_range_meters":10800,"station_id":"ce4bgkp2rcd13ifvqbmg","pricing_plan_id":"cebpf4jnsgd1na2vs0mg"},{"bike_id":"4574943c-f650-4791-beec-dfc7781a488e","system_id":"levelo_inurba_marseille","lat":43.29971,"lon":5.385,"is_reserved":false,"is_disabled":false,"rental_uris":{"android":"levelo://app?vid=4574943c-f650-4791-beec-dfc7781a488e","ios":"levelo://app?vid=4574943c-f650-4791-beec-dfc7781a488e"},"vehicle_type_id":"4","last_reported":1714842364,"current_range_meters":5600,"station_id":"ce4bgj92rcd13ifvqbd0","pricing_plan_id":"cebpf4jnsgd1na2vs0mg"},{"bike_id":"bc86e76c-7953-4a9e-ba33-50203dcc1cf8","system_id":"levelo_inurba_marseille","lat":43.299724,"lon":5.384848,"is_reserved":false,"is_disabled":false,"rental_uris":{"android":"levelo://app?vid=bc86e76c-7953-4a9e-ba33-50203dcc1cf8","ios":"levelo://app?vid=bc86e76c-7953-4a9e-ba33-50203dcc1cf8"},"vehicle_type_id":"4","last_reported":1714842364,"current_range_meters":400,"station_id":"ce4bgj92rcd13ifvqbd0","pricing_plan_id":"cebpf4jnsgd1na2vs0mg"},{"bike_id":"fe7c819f-1b5e-4097-b202-0c97d5d75f21","system_id":"levelo_inurba_marseille","lat":43.299717,"lon":5.384845,"is_reserved":false,"is_disabled":false,"rental_uris":{"android":"levelo://app?vid=fe7c819f-1b5e-4097-b202-0c97d5d75f21","ios":"levelo://app?vid=fe7c819f-1b5e-4097-b202-0c97d5d75f21"},"vehicle_type_id":"4","last_reported":1714842364,"current_range_meters":9200,"station_id":"ce4bgj92rcd13ifvqbd0","pricing_plan_id":"cebpf4jnsgd1na2vs0mg"},{"bike_id":"c9188ca4-5dea-4c8a-90fd-97d88dbc1f52","system_id":"levelo_inurba_marseille","lat":43.29514,"lon":5.37517,"is_reserved":false,"is_disabled":false,"rental_uris":{"android":"levelo://app?vid=c9188ca4-5dea-4c8a-90fd-97d88dbc1f52","ios":"levelo://app?vid=c9188ca4-5dea-4c8a-90fd-97d88dbc1f52"},"vehicle_type_id":"4","last_reported":1714842364,"current_range_meters":15600,"station_id":"ce4bgkp2rcd13ifvqbmg","pricing_plan_id":"cebpf4jnsgd1na2vs0mg"},{"bike_id":"a26037e2-5152-448e-8052-e88953b65128","system_id":"levelo_inurba_marseille","lat":43.32367,"lon":5.388836,"is_reserved":false,"is_disabled":false,"rental_uris":{"android":"levelo://app?vid=a26037e2-5152-448e-8052-e88953b65128","ios":"levelo://app?vid=a26037e2-5152-448e-8052-e88953b65128"},"vehicle_type_id":"4","last_reported":1714842364,"current_range_meters":0,"station_id":"ce4bhqp2rcd13ifvqhog","pricing_plan_id":"cebpf4jnsgd1na2vs0mg"},{"bike_id":"96c26bd3-bfc3-4cd0-a58e-71f505ad9a46","system_id":"levelo_inurba_marseille","lat":43.298037,"lon":5.381066,"is_reserved":false,"is_disabled":false,"rental_uris":{"android":"levelo://app?vid=96c26bd3-bfc3-4cd0-a58e-71f505ad9a46","ios":"levelo://app?vid=96c26bd3-bfc3-4cd0-a58e-71f505ad9a46"},"vehicle_type_id":"4","last_reported":1714842364,"current_range_meters":18400,"station_id":"ce4bgip2rcd13ifvqbb0","pricing_plan_id":"cebpf4jnsgd1na2vs0mg"},{"bike_id":"a79272f8-d74a-4ed5-bdd4-f7106119bff9","system_id":"levelo_inurba_marseille","lat":43.29602,"lon":5.381084,"is_reserved":false,"is_disabled":false,"rental_uris":{"android":"levelo://app?vid=a79272f8-d74a-4ed5-bdd4-f7106119bff9","ios":"levelo://app?vid=a79272f8-d74a-4ed5-bdd4-f7106119bff9"},"vehicle_type_id":"4","last_reported":1714842364,"current_range_meters":4000,"station_id":"ce4bgl12rcd13ifvqbo0","pricing_plan_id":"cebpf4jnsgd1na2vs0mg"},{"bike_id":"c8f73ad5-2316-4652-88dc-d8d319d0d105","system_id":"levelo_inurba_marseille","lat":43.29602,"lon":5.381084,"is_reserved":false,"is_disabled":false,"rental_uris":{"android":"levelo://app?vid=c8f73ad5-2316-4652-88dc-d8d319d0d105","ios":"levelo://app?vid=c8f73ad5-2316-4652-88dc-d8d319d0d105"},"vehicle_type_id":"4","last_reported":1714842364,"current_range_meters":6400,"station_id":"ce4bgl12rcd13ifvqbo0","pricing_plan_id":"cebpf4jnsgd1na2vs0mg"},{"bike_id":"0fefb0c7-86c2-4c1c-b0b2-566c6b5fade0","system_id":"levelo_inurba_marseille","lat":43.29602,"lon":5.381084,"is_reserved":false,"is_disabled":false,"rental_uris":{"android":"levelo://app?vid=0fefb0c7-86c2-4c1c-b0b2-566c6b5fade0","ios":"levelo://app?vid=0fefb0c7-86c2-4c1c-b0b2-566c6b5fade0"},"vehicle_type_id":"4","last_reported":1714842364,"current_range_meters":0,"station_id":"ce4bgl12rcd13ifvqbo0","pricing_plan_id":"cebpf4jnsgd1na2vs0mg"},{"bike_id":"70be2502-e8bf-4f58-9d8d-e8e8f1d6406d","system_id":"levelo_inurba_marseille","lat":43.293249,"lon":5.371578,"is_reserved":false,"is_disabled":false,"rental_uris":{"android":"levelo://app?vid=70be2502-e8bf-4f58-9d8d-e8e8f1d6406d","ios":"levelo://app?vid=70be2502-e8bf-4f58-9d8d-e8e8f1d6406d"},"vehicle_type_id":"4","last_reported":1714842364,"current_range_meters":17600,"station_id":"ce4bgh92rcd13ifvqb40","pricing_plan_id":"cebpf4jnsgd1na2vs0mg"},{"bike_id":"cf450d60-78b7-45e9-a128-59dcc2651174","system_id":"levelo_inurba_marseille","lat":43.292749,"lon":5.368402,"is_reserved":false,"is_disabled":false,"rental_uris":{"android":"levelo://app?vid=cf450d60-78b7-45e9-a128-59dcc2651174","ios":"levelo://app?vid=cf450d60-78b7-45e9-a128-59dcc2651174"},"vehicle_type_id":"4","last_reported":1714842364,"current_range_meters":5600,"station_id":"ce4bhbp2rcd13ifvqesg","pricing_plan_id":"cebpf4jnsgd1na2vs0mg"},{"bike_id":"bf50398d-e286-4426-96b6-d74211f56de0","system_id":"levelo_inurba_marseille","lat":43.2928,"lon":5.36841,"is_reserved":false,"is_disabled":false,"rental_uris":{"android":"levelo://app?vid=bf50398d-e286-4426-96b6-d74211f56de0","ios":"levelo://app?vid=bf50398d-e286-4426-96b6-d74211f56de0"},"vehicle_type_id":"4","last_reported":1714842364,"current_range_meters":0,"station_id":"ce4bhbp2rcd13ifvqesg","pricing_plan_id":"cebpf4jnsgd1na2vs0mg"},{"bike_id":"7c06b28a-658d-4074-8e6c-a9d945af8095","system_id":"levelo_inurba_marseille","lat":43.292749,"lon":5.368402,"is_reserved":false,"is_disabled":false,"rental_uris":{"android":"levelo://app?vid=7c06b28a-658d-4074-8e6c-a9d945af8095","ios":"levelo://app?vid=7c06b28a-658d-4074-8e6c-a9d945af8095"},"vehicle_type_id":"4","last_reported":1714842364,"current_range_meters":15600,"station_id":"ce4bhbp2rcd13ifvqesg","pricing_plan_id":"cebpf4jnsgd1na2vs0mg"},{"bike_id":"c3b835d2-4021-4529-a651-01563b4a2b44","system_id":"levelo_inurba_marseille","lat":43.292749,"lon":5.368402,"is_reserved":false,"is_disabled":false,"rental_uris":{"android":"levelo://app?vid=c3b835d2-4021-4529-a651-01563b4a2b44","ios":"levelo://app?vid=c3b835d2-4021-4529-a651-01563b4a2b44"},"vehicle_type_id":"4","last_reported":1714842364,"current_range_meters":0,"station_id":"ce4bhbp2rcd13ifvqesg","pricing_plan_id":"cebpf4jnsgd1na2vs0mg"},{"bike_id":"d4790766-311d-4cd6-b35b-59d8ca4fcd02","system_id":"levelo_inurba_marseille","lat":43.29277,"lon":5.36827,"is_reserved":false,"is_disabled":false,"rental_uris":{"android":"levelo://app?vid=d4790766-311d-4cd6-b35b-59d8ca4fcd02","ios":"levelo://app?vid=d4790766-311d-4cd6-b35b-59d8ca4fcd02"},"vehicle_type_id":"4","last_reported":1714842364,"current_range_meters":0,"station_id":"ce4bhbp2rcd13ifvqesg","pricing_plan_id":"cebpf4jnsgd1na2vs0mg"},{"bike_id":"3995d9a3-c924-4ff6-9ae8-33a5ea90519d","system_id":"levelo_inurba_marseille","lat":43.292749,"lon":5.368398,"is_reserved":false,"is_disabled":false,"rental_uris":{"android":"levelo://app?vid=3995d9a3-c924-4ff6-9ae8-33a5ea90519d","ios":"levelo://app?vid=3995d9a3-c924-4ff6-9ae8-33a5ea90519d"},"vehicle_type_id":"4","last_reported":1714842364,"current_range_meters":24400,"station_id":"ce4bhbp2rcd13ifvqesg","pricing_plan_id":"cebpf4jnsgd1na2vs0mg"},{"bike_id":"d3e54625-0960-432f-a28e-8a83b09203e8","system_id":"levelo_inurba_marseille","lat":43.292749,"lon":5.368398,"is_reserved":false,"is_disabled":false,"rental_uris":{"android":"levelo://app?vid=d3e54625-0960-432f-a28e-8a83b09203e8","ios":"levelo://app?vid=d3e54625-0960-432f-a28e-8a83b09203e8"},"vehicle_type_id":"4","last_reported":1714842364,"current_range_meters":4000,"station_id":"ce4bhbp2rcd13ifvqesg","pricing_plan_id":"cebpf4jnsgd1na2vs0mg"},{"bike_id":"9c35b100-588a-43de-904c-40fa61555170","system_id":"levelo_inurba_marseille","lat":43.292749,"lon":5.368402,"is_reserved":false,"is_disabled":false,"rental_uris":{"android":"levelo://app?vid=9c35b100-588a-43de-904c-40fa61555170","ios":"levelo://app?vid=9c35b100-588a-43de-904c-40fa61555170"},"vehicle_type_id":"4","last_reported":1714842364,"current_range_meters":0,"station_id":"ce4bhbp2rcd13ifvqesg","pricing_plan_id":"cebpf4jnsgd1na2vs0mg"},{"bike_id":"09f7cb5d-9edd-47d2-a04e-f1b90dc48fc4","system_id":"levelo_inurba_marseille","lat":43.292749,"lon":5.368402,"is_reserved":false,"is_disabled":false,"rental_uris":{"android":"levelo://app?vid=09f7cb5d-9edd-47d2-a04e-f1b90dc48fc4","ios":"levelo://app?vid=09f7cb5d-9edd-47d2-a04e-f1b90dc48fc4"},"vehicle_type_id":"4","last_reported":1714842364,"current_range_meters":25200,"station_id":"ce4bhbp2rcd13ifvqesg","pricing_plan_id":"cebpf4jnsgd1na2vs0mg"},{"bike_id":"711aa1f6-dfd4-479e-bd56-5f03a0342bf9","system_id":"levelo_inurba_marseille","lat":43.293009,"lon":5.374584,"is_reserved":false,"is_disabled":false,"rental_uris":{"android":"levelo://app?vid=711aa1f6-dfd4-479e-bd56-5f03a0342bf9","ios":"levelo://app?vid=711aa1f6-dfd4-479e-bd56-5f03a0342bf9"},"vehicle_type_id":"4","last_reported":1714842364,"current_range_meters":21200,"station_id":"ce4bgi12rcd13ifvqb70","pricing_plan_id":"cebpf4jnsgd1na2vs0mg"},{"bike_id":"7960d9bd-5763-488d-b319-59a8066be98a","system_id":"levelo_inurba_marseille","lat":43.29308,"lon":5.37451,"is_reserved":false,"is_disabled":false,"rental_uris":{"android":"levelo://app?vid=7960d9bd-5763-488d-b319-59a8066be98a","ios":"levelo://app?vid=7960d9bd-5763-488d-b319-59a8066be98a"},"vehicle_type_id":"4","last_reported":1714842364,"current_range_meters":0,"station_id":"ce4bgi12rcd13ifvqb70","pricing_plan_id":"cebpf4jnsgd1na2vs0mg"},{"bike_id":"fdac54fd-45a4-41c5-81f1-cfe11630356c","system_id":"levelo_inurba_marseille","lat":43.293009,"lon":5.374584,"is_reserved":false,"is_disabled":false,"rental_uris":{"android":"levelo://app?vid=fdac54fd-45a4-41c5-81f1-cfe11630356c","ios":"levelo://app?vid=fdac54fd-45a4-41c5-81f1-cfe11630356c"},"vehicle_type_id":"4","last_reported":1714842364,"current_range_meters":5200,"station_id":"ce4bgi12rcd13ifvqb70","pricing_plan_id":"cebpf4jnsgd1na2vs0mg"},{"bike_id":"244e51f4-a3a2-431e-a312-bd534f12b008","system_id":"levelo_inurba_marseille","lat":43.29307,"lon":5.37449,"is_reserved":false,"is_disabled":false,"rental_uris":{"android":"levelo://app?vid=244e51f4-a3a2-431e-a312-bd534f12b008","ios":"levelo://app?vid=244e51f4-a3a2-431e-a312-bd534f12b008"},"vehicle_type_id":"4","last_reported":1714842364,"current_range_meters":0,"station_id":"ce4bgi12rcd13ifvqb70","pricing_plan_id":"cebpf4jnsgd1na2vs0mg"},{"bike_id":"9f59e58e-dd9a-464e-8946-8e5633ed0781","system_id":"levelo_inurba_marseille","lat":43.305994,"lon":5.393687,"is_reserved":false,"is_disabled":false,"rental_uris":{"android":"levelo://app?vid=9f59e58e-dd9a-464e-8946-8e5633ed0781","ios":"levelo://app?vid=9f59e58e-dd9a-464e-8946-8e5633ed0781"},"vehicle_type_id":"4","last_reported":1714842364,"current_range_meters":18800,"station_id":"ce4bh0p2rcd13ifvqd80","pricing_plan_id":"cebpf4jnsgd1na2vs0mg"},{"bike_id":"59321970-7d53-4581-bc25-3db47d64de83","system_id":"levelo_inurba_marseille","lat":43.293009,"lon":5.374584,"is_reserved":false,"is_disabled":false,"rental_uris":{"android":"levelo://app?vid=59321970-7d53-4581-bc25-3db47d64de83","ios":"levelo://app?vid=59321970-7d53-4581-bc25-3db47d64de83"},"vehicle_type_id":"4","last_reported":1714842364,"current_range_meters":2800,"station_id":"ce4bgi12rcd13ifvqb70","pricing_plan_id":"cebpf4jnsgd1na2vs0mg"},{"bike_id":"3752d9fe-9b29-4a71-b3a1-11e7bfe97b71","system_id":"levelo_inurba_marseille","lat":43.305994,"lon":5.393687,"is_reserved":false,"is_disabled":false,"rental_uris":{"android":"levelo://app?vid=3752d9fe-9b29-4a71-b3a1-11e7bfe97b71","ios":"levelo://app?vid=3752d9fe-9b29-4a71-b3a1-11e7bfe97b71"},"vehicle_type_id":"4","last_reported":1714842364,"current_range_meters":27600,"station_id":"ce4bh0p2rcd13ifvqd80","pricing_plan_id":"cebpf4jnsgd1na2vs0mg"},{"bike_id":"ce81ba02-feb1-40df-9fac-a6428f7c15f7","system_id":"levelo_inurba_marseille","lat":43.293009,"lon":5.374584,"is_reserved":false,"is_disabled":false,"rental_uris":{"android":"levelo://app?vid=ce81ba02-feb1-40df-9fac-a6428f7c15f7","ios":"levelo://app?vid=ce81ba02-feb1-40df-9fac-a6428f7c15f7"},"vehicle_type_id":"4","last_reported":1714842364,"current_range_meters":4400,"station_id":"ce4bgi12rcd13ifvqb70","pricing_plan_id":"cebpf4jnsgd1na2vs0mg"},{"bike_id":"f0fb9ef8-625d-4eba-a421-7bf46a65cb8e","system_id":"levelo_inurba_marseille","lat":43.305994,"lon":5.393687,"is_reserved":false,"is_disabled":false,"rental_uris":{"android":"levelo://app?vid=f0fb9ef8-625d-4eba-a421-7bf46a65cb8e","ios":"levelo://app?vid=f0fb9ef8-625d-4eba-a421-7bf46a65cb8e"},"vehicle_type_id":"4","last_reported":1714842364,"current_range_meters":20400,"station_id":"ce4bh0p2rcd13ifvqd80","pricing_plan_id":"cebpf4jnsgd1na2vs0mg"},{"bike_id":"8dc09e01-e034-4822-9254-be9869bce6e0","system_id":"levelo_inurba_marseille","lat":43.305994,"lon":5.393687,"is_reserved":false,"is_disabled":false,"rental_uris":{"android":"levelo://app?vid=8dc09e01-e034-4822-9254-be9869bce6e0","ios":"levelo://app?vid=8dc09e01-e034-4822-9254-be9869bce6e0"},"vehicle_type_id":"4","last_reported":1714842364,"current_range_meters":14000,"station_id":"ce4bh0p2rcd13ifvqd80","pricing_plan_id":"cebpf4jnsgd1na2vs0mg"},{"bike_id":"d50aedf3-9bef-4d4f-9147-3424d6ced48a","system_id":"levelo_inurba_marseille","lat":43.305468,"lon":5.393461,"is_reserved":false,"is_disabled":false,"rental_uris":{"android":"levelo://app?vid=d50aedf3-9bef-4d4f-9147-3424d6ced48a","ios":"levelo://app?vid=d50aedf3-9bef-4d4f-9147-3424d6ced48a"},"vehicle_type_id":"4","last_reported":1714842364,"current_range_meters":8000,"station_id":"ce4bh0p2rcd13ifvqd80","pricing_plan_id":"cebpf4jnsgd1na2vs0mg"},{"bike_id":"f7b72733-d6d6-4f7f-a972-a73ca5507146","system_id":"levelo_inurba_marseille","lat":43.3031,"lon":5.3921,"is_reserved":false,"is_disabled":false,"rental_uris":{"android":"levelo://app?vid=f7b72733-d6d6-4f7f-a972-a73ca5507146","ios":"levelo://app?vid=f7b72733-d6d6-4f7f-a972-a73ca5507146"},"vehicle_type_id":"4","last_reported":1714842364,"current_range_meters":0,"station_id":"ce4bgkh2rcd13ifvqbk0","pricing_plan_id":"cebpf4jnsgd1na2vs0mg"},{"bike_id":"2ec8f5f0-e6ce-4cec-968d-e83e0a5afcf5","system_id":"levelo_inurba_marseille","lat":43.2936,"lon":5.37835,"is_reserved":false,"is_disabled":false,"rental_uris":{"android":"levelo://app?vid=2ec8f5f0-e6ce-4cec-968d-e83e0a5afcf5","ios":"levelo://app?vid=2ec8f5f0-e6ce-4cec-968d-e83e0a5afcf5"},"vehicle_type_id":"4","last_reported":1714842364,"current_range_meters":14800,"station_id":"ce4bgjh2rcd13ifvqbf0","pricing_plan_id":"cebpf4jnsgd1na2vs0mg"},{"bike_id":"4341a44c-6d83-44cb-b5b8-0081067c2af2","system_id":"levelo_inurba_marseille","lat":43.30301,"lon":5.39218,"is_reserved":false,"is_disabled":false,"rental_uris":{"android":"levelo://app?vid=4341a44c-6d83-44cb-b5b8-0081067c2af2","ios":"levelo://app?vid=4341a44c-6d83-44cb-b5b8-0081067c2af2"},"vehicle_type_id":"4","last_reported":1714842364,"current_range_meters":0,"station_id":"ce4bgkh2rcd13ifvqbk0","pricing_plan_id":"cebpf4jnsgd1na2vs0mg"},{"bike_id":"2491f8c8-29d0-474c-98e5-d2764eaf5c13","system_id":"levelo_inurba_marseille","lat":43.2936,"lon":5.37835,"is_reserved":false,"is_disabled":false,"rental_uris":{"android":"levelo://app?vid=2491f8c8-29d0-474c-98e5-d2764eaf5c13","ios":"levelo://app?vid=2491f8c8-29d0-474c-98e5-d2764eaf5c13"},"vehicle_type_id":"4","last_reported":1714842364,"current_range_meters":2400,"station_id":"ce4bgjh2rcd13ifvqbf0","pricing_plan_id":"cebpf4jnsgd1na2vs0mg"},{"bike_id":"155d8a92-046b-4c23-816a-2489ae751cca","system_id":"levelo_inurba_marseille","lat":43.2936,"lon":5.37835,"is_reserved":false,"is_disabled":false,"rental_uris":{"android":"levelo://app?vid=155d8a92-046b-4c23-816a-2489ae751cca","ios":"levelo://app?vid=155d8a92-046b-4c23-816a-2489ae751cca"},"vehicle_type_id":"4","last_reported":1714842364,"current_range_meters":28000,"station_id":"ce4bgjh2rcd13ifvqbf0","pricing_plan_id":"cebpf4jnsgd1na2vs0mg"},{"bike_id":"832da4b9-d5e9-47df-8d76-863c8a430d3e","system_id":"levelo_inurba_marseille","lat":43.292311,"lon":5.360731,"is_reserved":false,"is_disabled":false,"rental_uris":{"android":"levelo://app?vid=832da4b9-d5e9-47df-8d76-863c8a430d3e","ios":"levelo://app?vid=832da4b9-d5e9-47df-8d76-863c8a430d3e"},"vehicle_type_id":"4","last_reported":1714842364,"current_range_meters":0,"station_id":"ce4bhbh2rcd13ifvqeqg","pricing_plan_id":"cebpf4jnsgd1na2vs0mg"},{"bike_id":"40d2dd70-ba5c-40dd-b96a-463b8181e50f","system_id":"levelo_inurba_marseille","lat":43.292395,"lon":5.360499,"is_reserved":false,"is_disabled":false,"rental_uris":{"android":"levelo://app?vid=40d2dd70-ba5c-40dd-b96a-463b8181e50f","ios":"levelo://app?vid=40d2dd70-ba5c-40dd-b96a-463b8181e50f"},"vehicle_type_id":"4","last_reported":1714842364,"current_range_meters":25200,"station_id":"ce4bhbh2rcd13ifvqeqg","pricing_plan_id":"cebpf4jnsgd1na2vs0mg"},{"bike_id":"7a1816f3-e4a9-4d6c-a25a-be3c99bd4d37","system_id":"levelo_inurba_marseille","lat":43.292311,"lon":5.360731,"is_reserved":false,"is_disabled":false,"rental_uris":{"android":"levelo://app?vid=7a1816f3-e4a9-4d6c-a25a-be3c99bd4d37","ios":"levelo://app?vid=7a1816f3-e4a9-4d6c-a25a-be3c99bd4d37"},"vehicle_type_id":"4","last_reported":1714842364,"current_range_meters":18400,"station_id":"ce4bhbh2rcd13ifvqeqg","pricing_plan_id":"cebpf4jnsgd1na2vs0mg"},{"bike_id":"1bb615e6-dd0a-4c31-97ef-e3cd0dc9bfa5","system_id":"levelo_inurba_marseille","lat":43.292311,"lon":5.360731,"is_reserved":false,"is_disabled":false,"rental_uris":{"android":"levelo://app?vid=1bb615e6-dd0a-4c31-97ef-e3cd0dc9bfa5","ios":"levelo://app?vid=1bb615e6-dd0a-4c31-97ef-e3cd0dc9bfa5"},"vehicle_type_id":"4","last_reported":1714842364,"current_range_meters":17600,"station_id":"ce4bhbh2rcd13ifvqeqg","pricing_plan_id":"cebpf4jnsgd1na2vs0mg"},{"bike_id":"9f34af5b-6cfd-42ac-99ab-06ce4e16b292","system_id":"levelo_inurba_marseille","lat":43.292311,"lon":5.360731,"is_reserved":false,"is_disabled":false,"rental_uris":{"android":"levelo://app?vid=9f34af5b-6cfd-42ac-99ab-06ce4e16b292","ios":"levelo://app?vid=9f34af5b-6cfd-42ac-99ab-06ce4e16b292"},"vehicle_type_id":"4","last_reported":1714842364,"current_range_meters":17600,"station_id":"ce4bhbh2rcd13ifvqeqg","pricing_plan_id":"cebpf4jnsgd1na2vs0mg"},{"bike_id":"737b7533-dd2f-4cdd-abdd-b718272d6643","system_id":"levelo_inurba_marseille","lat":43.292311,"lon":5.360731,"is_reserved":false,"is_disabled":false,"rental_uris":{"android":"levelo://app?vid=737b7533-dd2f-4cdd-abdd-b718272d6643","ios":"levelo://app?vid=737b7533-dd2f-4cdd-abdd-b718272d6643"},"vehicle_type_id":"4","last_reported":1714842364,"current_range_meters":25200,"station_id":"ce4bhbh2rcd13ifvqeqg","pricing_plan_id":"cebpf4jnsgd1na2vs0mg"},{"bike_id":"89c8cc68-140b-482a-a3a0-2307ea1936c5","system_id":"levelo_inurba_marseille","lat":43.292311,"lon":5.360731,"is_reserved":false,"is_disabled":false,"rental_uris":{"android":"levelo://app?vid=89c8cc68-140b-482a-a3a0-2307ea1936c5","ios":"levelo://app?vid=89c8cc68-140b-482a-a3a0-2307ea1936c5"},"vehicle_type_id":"4","last_reported":1714842364,"current_range_meters":27600,"station_id":"ce4bhbh2rcd13ifvqeqg","pricing_plan_id":"cebpf4jnsgd1na2vs0mg"},{"bike_id":"491b371a-7541-4dc9-bdd7-d62fedbac2a1","system_id":"levelo_inurba_marseille","lat":43.292311,"lon":5.360731,"is_reserved":false,"is_disabled":false,"rental_uris":{"android":"levelo://app?vid=491b371a-7541-4dc9-bdd7-d62fedbac2a1","ios":"levelo://app?vid=491b371a-7541-4dc9-bdd7-d62fedbac2a1"},"vehicle_type_id":"4","last_reported":1714842364,"current_range_meters":28000,"station_id":"ce4bhbh2rcd13ifvqeqg","pricing_plan_id":"cebpf4jnsgd1na2vs0mg"},{"bike_id":"e8065689-ddb7-46db-9389-432127892b45","system_id":"levelo_inurba_marseille","lat":43.292311,"lon":5.360731,"is_reserved":false,"is_disabled":false,"rental_uris":{"android":"levelo://app?vid=e8065689-ddb7-46db-9389-432127892b45","ios":"levelo://app?vid=e8065689-ddb7-46db-9389-432127892b45"},"vehicle_type_id":"4","last_reported":1714842364,"current_range_meters":8800,"station_id":"ce4bhbh2rcd13ifvqeqg","pricing_plan_id":"cebpf4jnsgd1na2vs0mg"},{"bike_id":"e85ec683-7b19-401c-a205-497e0680bd7e","system_id":"levelo_inurba_marseille","lat":43.292311,"lon":5.360731,"is_reserved":false,"is_disabled":false,"rental_uris":{"android":"levelo://app?vid=e85ec683-7b19-401c-a205-497e0680bd7e","ios":"levelo://app?vid=e85ec683-7b19-401c-a205-497e0680bd7e"},"vehicle_type_id":"4","last_reported":1714842364,"current_range_meters":14000,"station_id":"ce4bhbh2rcd13ifvqeqg","pricing_plan_id":"cebpf4jnsgd1na2vs0mg"},{"bike_id":"71d8ece1-e512-4d16-b6fb-f3b8a8cafdf7","system_id":"levelo_inurba_marseille","lat":43.292311,"lon":5.360731,"is_reserved":false,"is_disabled":false,"rental_uris":{"android":"levelo://app?vid=71d8ece1-e512-4d16-b6fb-f3b8a8cafdf7","ios":"levelo://app?vid=71d8ece1-e512-4d16-b6fb-f3b8a8cafdf7"},"vehicle_type_id":"4","last_reported":1714842364,"current_range_meters":12400,"station_id":"ce4bhbh2rcd13ifvqeqg","pricing_plan_id":"cebpf4jnsgd1na2vs0mg"},{"bike_id":"385c23c2-3232-4be5-8bee-1d1d3a8a3711","system_id":"levelo_inurba_marseille","lat":43.292311,"lon":5.360731,"is_reserved":false,"is_disabled":false,"rental_uris":{"android":"levelo://app?vid=385c23c2-3232-4be5-8bee-1d1d3a8a3711","ios":"levelo://app?vid=385c23c2-3232-4be5-8bee-1d1d3a8a3711"},"vehicle_type_id":"4","last_reported":1714842364,"current_range_meters":18400,"station_id":"ce4bhbh2rcd13ifvqeqg","pricing_plan_id":"cebpf4jnsgd1na2vs0mg"},{"bike_id":"8a09bc70-5dcf-4587-b629-269e8aeabc21","system_id":"levelo_inurba_marseille","lat":43.292311,"lon":5.360731,"is_reserved":false,"is_disabled":false,"rental_uris":{"android":"levelo://app?vid=8a09bc70-5dcf-4587-b629-269e8aeabc21","ios":"levelo://app?vid=8a09bc70-5dcf-4587-b629-269e8aeabc21"},"vehicle_type_id":"4","last_reported":1714842364,"current_range_meters":1200,"station_id":"ce4bhbh2rcd13ifvqeqg","pricing_plan_id":"cebpf4jnsgd1na2vs0mg"},{"bike_id":"036f193f-dd9f-4d30-83a6-4edf314ce0b3","system_id":"levelo_inurba_marseille","lat":43.292311,"lon":5.360731,"is_reserved":false,"is_disabled":false,"rental_uris":{"android":"levelo://app?vid=036f193f-dd9f-4d30-83a6-4edf314ce0b3","ios":"levelo://app?vid=036f193f-dd9f-4d30-83a6-4edf314ce0b3"},"vehicle_type_id":"4","last_reported":1714842364,"current_range_meters":8000,"station_id":"ce4bhbh2rcd13ifvqeqg","pricing_plan_id":"cebpf4jnsgd1na2vs0mg"},{"bike_id":"b1708037-a7e2-4fd5-91da-f069400e865b","system_id":"levelo_inurba_marseille","lat":43.292311,"lon":5.360731,"is_reserved":false,"is_disabled":false,"rental_uris":{"android":"levelo://app?vid=b1708037-a7e2-4fd5-91da-f069400e865b","ios":"levelo://app?vid=b1708037-a7e2-4fd5-91da-f069400e865b"},"vehicle_type_id":"4","last_reported":1714842364,"current_range_meters":29200,"station_id":"ce4bhbh2rcd13ifvqeqg","pricing_plan_id":"cebpf4jnsgd1na2vs0mg"},{"bike_id":"8bb79adf-318c-485e-b6fe-f8bd8ca58584","system_id":"levelo_inurba_marseille","lat":43.291675,"lon":5.371583,"is_reserved":false,"is_disabled":false,"rental_uris":{"android":"levelo://app?vid=8bb79adf-318c-485e-b6fe-f8bd8ca58584","ios":"levelo://app?vid=8bb79adf-318c-485e-b6fe-f8bd8ca58584"},"vehicle_type_id":"4","last_reported":1714842364,"current_range_meters":10000,"station_id":"ce4bha92rcd13ifvqeh0","pricing_plan_id":"cebpf4jnsgd1na2vs0mg"},{"bike_id":"de58eeab-5005-4863-aef7-0e090f991ad5","system_id":"levelo_inurba_marseille","lat":43.2936,"lon":5.37835,"is_reserved":false,"is_disabled":false,"rental_uris":{"android":"levelo://app?vid=de58eeab-5005-4863-aef7-0e090f991ad5","ios":"levelo://app?vid=de58eeab-5005-4863-aef7-0e090f991ad5"},"vehicle_type_id":"4","last_reported":1714842364,"current_range_meters":28000,"station_id":"ce4bgjh2rcd13ifvqbf0","pricing_plan_id":"cebpf4jnsgd1na2vs0mg"},{"bike_id":"c96d415c-3336-4f82-a43e-b969278735f7","system_id":"levelo_inurba_marseille","lat":43.291671,"lon":5.371575,"is_reserved":false,"is_disabled":false,"rental_uris":{"android":"levelo://app?vid=c96d415c-3336-4f82-a43e-b969278735f7","ios":"levelo://app?vid=c96d415c-3336-4f82-a43e-b969278735f7"},"vehicle_type_id":"4","last_reported":1714842364,"current_range_meters":2400,"station_id":"ce4bha92rcd13ifvqeh0","pricing_plan_id":"cebpf4jnsgd1na2vs0mg"},{"bike_id":"cd517462-8491-45d6-a35e-ec83beb913b4","system_id":"levelo_inurba_marseille","lat":43.291994,"lon":5.357886,"is_reserved":false,"is_disabled":false,"rental_uris":{"android":"levelo://app?vid=cd517462-8491-45d6-a35e-ec83beb913b4","ios":"levelo://app?vid=cd517462-8491-45d6-a35e-ec83beb913b4"},"vehicle_type_id":"4","last_reported":1714842364,"current_range_meters":26000,"station_id":"ce4bhb12rcd13ifvqel0","pricing_plan_id":"cebpf4jnsgd1na2vs0mg"},{"bike_id":"ca8ca9a2-571d-4813-97e1-ca1a38ce1bfa","system_id":"levelo_inurba_marseille","lat":43.291994,"lon":5.357886,"is_reserved":false,"is_disabled":false,"rental_uris":{"android":"levelo://app?vid=ca8ca9a2-571d-4813-97e1-ca1a38ce1bfa","ios":"levelo://app?vid=ca8ca9a2-571d-4813-97e1-ca1a38ce1bfa"},"vehicle_type_id":"4","last_reported":1714842364,"current_range_meters":27600,"station_id":"ce4bhb12rcd13ifvqel0","pricing_plan_id":"cebpf4jnsgd1na2vs0mg"},{"bike_id":"f3b81fa7-360f-4d2a-92f1-7df5de25c83a","system_id":"levelo_inurba_marseille","lat":43.29202,"lon":5.35778,"is_reserved":false,"is_disabled":false,"rental_uris":{"android":"levelo://app?vid=f3b81fa7-360f-4d2a-92f1-7df5de25c83a","ios":"levelo://app?vid=f3b81fa7-360f-4d2a-92f1-7df5de25c83a"},"vehicle_type_id":"4","last_reported":1714842364,"current_range_meters":29600,"station_id":"ce4bhb12rcd13ifvqel0","pricing_plan_id":"cebpf4jnsgd1na2vs0mg"},{"bike_id":"09789f68-6020-4b14-95c1-19eb98840df9","system_id":"levelo_inurba_marseille","lat":43.291994,"lon":5.357886,"is_reserved":false,"is_disabled":false,"rental_uris":{"android":"levelo://app?vid=09789f68-6020-4b14-95c1-19eb98840df9","ios":"levelo://app?vid=09789f68-6020-4b14-95c1-19eb98840df9"},"vehicle_type_id":"4","last_reported":1714842364,"current_range_meters":23600,"station_id":"ce4bhb12rcd13ifvqel0","pricing_plan_id":"cebpf4jnsgd1na2vs0mg"},{"bike_id":"f559e791-6aa0-4e96-b8eb-aa00fb6f928e","system_id":"levelo_inurba_marseille","lat":43.291994,"lon":5.357886,"is_reserved":false,"is_disabled":false,"rental_uris":{"android":"levelo://app?vid=f559e791-6aa0-4e96-b8eb-aa00fb6f928e","ios":"levelo://app?vid=f559e791-6aa0-4e96-b8eb-aa00fb6f928e"},"vehicle_type_id":"4","last_reported":1714842364,"current_range_meters":1200,"station_id":"ce4bhb12rcd13ifvqel0","pricing_plan_id":"cebpf4jnsgd1na2vs0mg"},{"bike_id":"bb73d051-ea89-400a-aa53-d69746d77ff5","system_id":"levelo_inurba_marseille","lat":43.313291,"lon":5.396838,"is_reserved":false,"is_disabled":false,"rental_uris":{"android":"levelo://app?vid=bb73d051-ea89-400a-aa53-d69746d77ff5","ios":"levelo://app?vid=bb73d051-ea89-400a-aa53-d69746d77ff5"},"vehicle_type_id":"4","last_reported":1714842364,"current_range_meters":6000,"station_id":"ce4bgvp2rcd13ifvqcu0","pricing_plan_id":"cebpf4jnsgd1na2vs0mg"},{"bike_id":"d65e0ea9-96a9-4e23-9191-20420e9d0202","system_id":"levelo_inurba_marseille","lat":43.29545,"lon":5.38537,"is_reserved":false,"is_disabled":false,"rental_uris":{"android":"levelo://app?vid=d65e0ea9-96a9-4e23-9191-20420e9d0202","ios":"levelo://app?vid=d65e0ea9-96a9-4e23-9191-20420e9d0202"},"vehicle_type_id":"4","last_reported":1714842364,"current_range_meters":0,"station_id":"ce4bgih2rcd13ifvqba0","pricing_plan_id":"cebpf4jnsgd1na2vs0mg"},{"bike_id":"69ae10b7-c3a6-4317-8b38-178a7e10a83e","system_id":"levelo_inurba_marseille","lat":43.313291,"lon":5.396838,"is_reserved":false,"is_disabled":false,"rental_uris":{"android":"levelo://app?vid=69ae10b7-c3a6-4317-8b38-178a7e10a83e","ios":"levelo://app?vid=69ae10b7-c3a6-4317-8b38-178a7e10a83e"},"vehicle_type_id":"4","last_reported":1714842364,"current_range_meters":20000,"station_id":"ce4bgvp2rcd13ifvqcu0","pricing_plan_id":"cebpf4jnsgd1na2vs0mg"},{"bike_id":"8504afd0-631f-4339-909e-f1d93d497094","system_id":"levelo_inurba_marseille","lat":43.29529,"lon":5.385581,"is_reserved":false,"is_disabled":false,"rental_uris":{"android":"levelo://app?vid=8504afd0-631f-4339-909e-f1d93d497094","ios":"levelo://app?vid=8504afd0-631f-4339-909e-f1d93d497094"},"vehicle_type_id":"4","last_reported":1714842364,"current_range_meters":31200,"station_id":"ce4bgih2rcd13ifvqba0","pricing_plan_id":"cebpf4jnsgd1na2vs0mg"},{"bike_id":"47946378-bb91-4016-99f7-93ee56f48eb6","system_id":"levelo_inurba_marseille","lat":43.29529,"lon":5.385581,"is_reserved":false,"is_disabled":false,"rental_uris":{"android":"levelo://app?vid=47946378-bb91-4016-99f7-93ee56f48eb6","ios":"levelo://app?vid=47946378-bb91-4016-99f7-93ee56f48eb6"},"vehicle_type_id":"4","last_reported":1714842364,"current_range_meters":400,"station_id":"ce4bgih2rcd13ifvqba0","pricing_plan_id":"cebpf4jnsgd1na2vs0mg"},{"bike_id":"41cd49e5-ffdd-41e1-89f9-81f6052a7286","system_id":"levelo_inurba_marseille","lat":43.29529,"lon":5.385581,"is_reserved":false,"is_disabled":false,"rental_uris":{"android":"levelo://app?vid=41cd49e5-ffdd-41e1-89f9-81f6052a7286","ios":"levelo://app?vid=41cd49e5-ffdd-41e1-89f9-81f6052a7286"},"vehicle_type_id":"4","last_reported":1714842364,"current_range_meters":3200,"station_id":"ce4bgih2rcd13ifvqba0","pricing_plan_id":"cebpf4jnsgd1na2vs0mg"},{"bike_id":"1fb67a2b-2fd1-41c2-8f07-8c4ff2ad731e","system_id":"levelo_inurba_marseille","lat":43.29529,"lon":5.385581,"is_reserved":false,"is_disabled":false,"rental_uris":{"android":"levelo://app?vid=1fb67a2b-2fd1-41c2-8f07-8c4ff2ad731e","ios":"levelo://app?vid=1fb67a2b-2fd1-41c2-8f07-8c4ff2ad731e"},"vehicle_type_id":"4","last_reported":1714842364,"current_range_meters":24800,"station_id":"ce4bgih2rcd13ifvqba0","pricing_plan_id":"cebpf4jnsgd1na2vs0mg"},{"bike_id":"22a304c4-331e-4ac9-ba51-be9c03f94dce","system_id":"levelo_inurba_marseille","lat":43.29529,"lon":5.385581,"is_reserved":false,"is_disabled":false,"rental_uris":{"android":"levelo://app?vid=22a304c4-331e-4ac9-ba51-be9c03f94dce","ios":"levelo://app?vid=22a304c4-331e-4ac9-ba51-be9c03f94dce"},"vehicle_type_id":"4","last_reported":1714842364,"current_range_meters":7600,"station_id":"ce4bgih2rcd13ifvqba0","pricing_plan_id":"cebpf4jnsgd1na2vs0mg"},{"bike_id":"e9bd4867-9ed1-4a13-ae90-74ed70a542d6","system_id":"levelo_inurba_marseille","lat":43.29529,"lon":5.385581,"is_reserved":false,"is_disabled":false,"rental_uris":{"android":"levelo://app?vid=e9bd4867-9ed1-4a13-ae90-74ed70a542d6","ios":"levelo://app?vid=e9bd4867-9ed1-4a13-ae90-74ed70a542d6"},"vehicle_type_id":"4","last_reported":1714842364,"current_range_meters":20000,"station_id":"ce4bgih2rcd13ifvqba0","pricing_plan_id":"cebpf4jnsgd1na2vs0mg"},{"bike_id":"c0f3e28a-6f2a-4030-84b0-7d653dc7b688","system_id":"levelo_inurba_marseille","lat":43.29529,"lon":5.385581,"is_reserved":false,"is_disabled":false,"rental_uris":{"android":"levelo://app?vid=c0f3e28a-6f2a-4030-84b0-7d653dc7b688","ios":"levelo://app?vid=c0f3e28a-6f2a-4030-84b0-7d653dc7b688"},"vehicle_type_id":"4","last_reported":1714842364,"current_range_meters":10800,"station_id":"ce4bgih2rcd13ifvqba0","pricing_plan_id":"cebpf4jnsgd1na2vs0mg"},{"bike_id":"4d60634f-cb60-415d-8c90-df7200c0c5c1","system_id":"levelo_inurba_marseille","lat":43.29529,"lon":5.385581,"is_reserved":false,"is_disabled":false,"rental_uris":{"android":"levelo://app?vid=4d60634f-cb60-415d-8c90-df7200c0c5c1","ios":"levelo://app?vid=4d60634f-cb60-415d-8c90-df7200c0c5c1"},"vehicle_type_id":"4","last_reported":1714842364,"current_range_meters":400,"station_id":"ce4bgih2rcd13ifvqba0","pricing_plan_id":"cebpf4jnsgd1na2vs0mg"},{"bike_id":"f935be36-4ba5-42aa-b0eb-891e2b5f640e","system_id":"levelo_inurba_marseille","lat":43.29529,"lon":5.385581,"is_reserved":false,"is_disabled":false,"rental_uris":{"android":"levelo://app?vid=f935be36-4ba5-42aa-b0eb-891e2b5f640e","ios":"levelo://app?vid=f935be36-4ba5-42aa-b0eb-891e2b5f640e"},"vehicle_type_id":"4","last_reported":1714842364,"current_range_meters":8400,"station_id":"ce4bgih2rcd13ifvqba0","pricing_plan_id":"cebpf4jnsgd1na2vs0mg"},{"bike_id":"c8f131c6-0558-417a-b5a6-6e4bd9451d18","system_id":"levelo_inurba_marseille","lat":43.290779,"lon":5.371482,"is_reserved":false,"is_disabled":false,"rental_uris":{"android":"levelo://app?vid=c8f131c6-0558-417a-b5a6-6e4bd9451d18","ios":"levelo://app?vid=c8f131c6-0558-417a-b5a6-6e4bd9451d18"},"vehicle_type_id":"4","last_reported":1714842364,"current_range_meters":19200,"station_id":"ce4bh5p2rcd13ifvqe4g","pricing_plan_id":"cebpf4jnsgd1na2vs0mg"},{"bike_id":"9b0a7192-c487-40cb-9033-b1610ff15bf4","system_id":"levelo_inurba_marseille","lat":43.294153,"lon":5.386305,"is_reserved":false,"is_disabled":false,"rental_uris":{"android":"levelo://app?vid=9b0a7192-c487-40cb-9033-b1610ff15bf4","ios":"levelo://app?vid=9b0a7192-c487-40cb-9033-b1610ff15bf4"},"vehicle_type_id":"4","last_reported":1714842364,"current_range_meters":25200,"station_id":"ce4bh2h2rcd13ifvqdh0","pricing_plan_id":"cebpf4jnsgd1na2vs0mg"},{"bike_id":"edfd6f8b-f8c0-4bfa-b97a-590f991fe894","system_id":"levelo_inurba_marseille","lat":43.302008,"lon":5.394694,"is_reserved":false,"is_disabled":false,"rental_uris":{"android":"levelo://app?vid=edfd6f8b-f8c0-4bfa-b97a-590f991fe894","ios":"levelo://app?vid=edfd6f8b-f8c0-4bfa-b97a-590f991fe894"},"vehicle_type_id":"4","last_reported":1714842364,"current_range_meters":800,"station_id":"ce4bh0p2rcd13ifvqd70","pricing_plan_id":"cebpf4jnsgd1na2vs0mg"},{"bike_id":"adc33a5e-52c7-4784-be60-b4cdb40066a3","system_id":"levelo_inurba_marseille","lat":43.302008,"lon":5.394694,"is_reserved":false,"is_disabled":false,"rental_uris":{"android":"levelo://app?vid=adc33a5e-52c7-4784-be60-b4cdb40066a3","ios":"levelo://app?vid=adc33a5e-52c7-4784-be60-b4cdb40066a3"},"vehicle_type_id":"4","last_reported":1714842364,"current_range_meters":0,"station_id":"ce4bh0p2rcd13ifvqd70","pricing_plan_id":"cebpf4jnsgd1na2vs0mg"},{"bike_id":"9c4e5931-cef7-4509-bf96-d08f8f3e26b4","system_id":"levelo_inurba_marseille","lat":43.302008,"lon":5.394694,"is_reserved":false,"is_disabled":false,"rental_uris":{"android":"levelo://app?vid=9c4e5931-cef7-4509-bf96-d08f8f3e26b4","ios":"levelo://app?vid=9c4e5931-cef7-4509-bf96-d08f8f3e26b4"},"vehicle_type_id":"4","last_reported":1714842364,"current_range_meters":5600,"station_id":"ce4bh0p2rcd13ifvqd70","pricing_plan_id":"cebpf4jnsgd1na2vs0mg"},{"bike_id":"8570cfe9-172e-4f24-8658-2507370751a6","system_id":"levelo_inurba_marseille","lat":43.290631,"lon":5.359244,"is_reserved":false,"is_disabled":false,"rental_uris":{"android":"levelo://app?vid=8570cfe9-172e-4f24-8658-2507370751a6","ios":"levelo://app?vid=8570cfe9-172e-4f24-8658-2507370751a6"},"vehicle_type_id":"4","last_reported":1714842364,"current_range_meters":14000,"station_id":"ce4bha92rcd13ifvqeg0","pricing_plan_id":"cebpf4jnsgd1na2vs0mg"},{"bike_id":"4e763303-471a-44c1-b384-6fb7fe573a98","system_id":"levelo_inurba_marseille","lat":43.29048,"lon":5.35918,"is_reserved":false,"is_disabled":false,"rental_uris":{"android":"levelo://app?vid=4e763303-471a-44c1-b384-6fb7fe573a98","ios":"levelo://app?vid=4e763303-471a-44c1-b384-6fb7fe573a98"},"vehicle_type_id":"4","last_reported":1714842364,"current_range_meters":22400,"station_id":"ce4bha92rcd13ifvqeg0","pricing_plan_id":"cebpf4jnsgd1na2vs0mg"},{"bike_id":"b41afd2c-9412-4aa1-ba8a-4eed388aa697","system_id":"levelo_inurba_marseille","lat":43.29073,"lon":5.37595,"is_reserved":false,"is_disabled":false,"rental_uris":{"android":"levelo://app?vid=b41afd2c-9412-4aa1-ba8a-4eed388aa697","ios":"levelo://app?vid=b41afd2c-9412-4aa1-ba8a-4eed388aa697"},"vehicle_type_id":"4","last_reported":1714842364,"current_range_meters":3600,"station_id":"ce4bh692rcd13ifvqe90","pricing_plan_id":"cebpf4jnsgd1na2vs0mg"},{"bike_id":"664b96c2-001b-4e1e-86b5-7d4a33ee758a","system_id":"levelo_inurba_marseille","lat":43.289757,"lon":5.365975,"is_reserved":false,"is_disabled":false,"rental_uris":{"android":"levelo://app?vid=664b96c2-001b-4e1e-86b5-7d4a33ee758a","ios":"levelo://app?vid=664b96c2-001b-4e1e-86b5-7d4a33ee758a"},"vehicle_type_id":"4","last_reported":1714842364,"current_range_meters":0,"station_id":"ce4bhap2rcd13ifvqek0","pricing_plan_id":"cebpf4jnsgd1na2vs0mg"},{"bike_id":"4d470d6c-6f2d-45c6-b729-b3508a86704a","system_id":"levelo_inurba_marseille","lat":43.290631,"lon":5.359244,"is_reserved":false,"is_disabled":false,"rental_uris":{"android":"levelo://app?vid=4d470d6c-6f2d-45c6-b729-b3508a86704a","ios":"levelo://app?vid=4d470d6c-6f2d-45c6-b729-b3508a86704a"},"vehicle_type_id":"4","last_reported":1714842364,"current_range_meters":20800,"station_id":"ce4bha92rcd13ifvqeg0","pricing_plan_id":"cebpf4jnsgd1na2vs0mg"},{"bike_id":"969ffc08-b931-46ed-b58d-44de9f73eeb5","system_id":"levelo_inurba_marseille","lat":43.290624,"lon":5.359245,"is_reserved":false,"is_disabled":false,"rental_uris":{"android":"levelo://app?vid=969ffc08-b931-46ed-b58d-44de9f73eeb5","ios":"levelo://app?vid=969ffc08-b931-46ed-b58d-44de9f73eeb5"},"vehicle_type_id":"4","last_reported":1714842364,"current_range_meters":14800,"station_id":"ce4bha92rcd13ifvqeg0","pricing_plan_id":"cebpf4jnsgd1na2vs0mg"},{"bike_id":"7f011a6d-9730-46af-af1a-de6daaf95cae","system_id":"levelo_inurba_marseille","lat":43.290299,"lon":5.373971,"is_reserved":false,"is_disabled":false,"rental_uris":{"android":"levelo://app?vid=7f011a6d-9730-46af-af1a-de6daaf95cae","ios":"levelo://app?vid=7f011a6d-9730-46af-af1a-de6daaf95cae"},"vehicle_type_id":"4","last_reported":1714842364,"current_range_meters":0,"station_id":"","pricing_plan_id":"cebpf4jnsgd1na2vs0mg"},{"bike_id":"b902c007-d4e8-402d-8d80-e47ee8609c3a","system_id":"levelo_inurba_marseille","lat":43.290631,"lon":5.359244,"is_reserved":false,"is_disabled":false,"rental_uris":{"android":"levelo://app?vid=b902c007-d4e8-402d-8d80-e47ee8609c3a","ios":"levelo://app?vid=b902c007-d4e8-402d-8d80-e47ee8609c3a"},"vehicle_type_id":"4","last_reported":1714842364,"current_range_meters":5200,"station_id":"ce4bha92rcd13ifvqeg0","pricing_plan_id":"cebpf4jnsgd1na2vs0mg"},{"bike_id":"3c66fed1-2047-4251-92ad-30ea064279c3","system_id":"levelo_inurba_marseille","lat":43.294354,"lon":5.386439,"is_reserved":false,"is_disabled":false,"rental_uris":{"android":"levelo://app?vid=3c66fed1-2047-4251-92ad-30ea064279c3","ios":"levelo://app?vid=3c66fed1-2047-4251-92ad-30ea064279c3"},"vehicle_type_id":"4","last_reported":1714842364,"current_range_meters":0,"station_id":"ce4bh2h2rcd13ifvqdh0","pricing_plan_id":"cebpf4jnsgd1na2vs0mg"},{"bike_id":"a8888a74-3725-43ba-83c3-2d28c083dca0","system_id":"levelo_inurba_marseille","lat":43.294153,"lon":5.386305,"is_reserved":false,"is_disabled":false,"rental_uris":{"android":"levelo://app?vid=a8888a74-3725-43ba-83c3-2d28c083dca0","ios":"levelo://app?vid=a8888a74-3725-43ba-83c3-2d28c083dca0"},"vehicle_type_id":"4","last_reported":1714842364,"current_range_meters":11600,"station_id":"ce4bh2h2rcd13ifvqdh0","pricing_plan_id":"cebpf4jnsgd1na2vs0mg"},{"bike_id":"11fe72dc-bebc-4f23-95fe-ef63f1395c36","system_id":"levelo_inurba_marseille","lat":43.294153,"lon":5.386305,"is_reserved":false,"is_disabled":false,"rental_uris":{"android":"levelo://app?vid=11fe72dc-bebc-4f23-95fe-ef63f1395c36","ios":"levelo://app?vid=11fe72dc-bebc-4f23-95fe-ef63f1395c36"},"vehicle_type_id":"4","last_reported":1714842364,"current_range_meters":0,"station_id":"ce4bh2h2rcd13ifvqdh0","pricing_plan_id":"cebpf4jnsgd1na2vs0mg"},{"bike_id":"a2c2bcf2-3b1a-4cc7-8d21-4a76ca4f95de","system_id":"levelo_inurba_marseille","lat":43.290351,"lon":5.375531,"is_reserved":false,"is_disabled":false,"rental_uris":{"android":"levelo://app?vid=a2c2bcf2-3b1a-4cc7-8d21-4a76ca4f95de","ios":"levelo://app?vid=a2c2bcf2-3b1a-4cc7-8d21-4a76ca4f95de"},"vehicle_type_id":"4","last_reported":1714842364,"current_range_meters":0,"station_id":"ce4bh692rcd13ifvqe90","pricing_plan_id":"cebpf4jnsgd1na2vs0mg"},{"bike_id":"01e2c7f4-af5e-4dd1-ab63-fdaf2f6010ef","system_id":"levelo_inurba_marseille","lat":43.294153,"lon":5.386305,"is_reserved":false,"is_disabled":false,"rental_uris":{"android":"levelo://app?vid=01e2c7f4-af5e-4dd1-ab63-fdaf2f6010ef","ios":"levelo://app?vid=01e2c7f4-af5e-4dd1-ab63-fdaf2f6010ef"},"vehicle_type_id":"4","last_reported":1714842364,"current_range_meters":4400,"station_id":"ce4bh2h2rcd13ifvqdh0","pricing_plan_id":"cebpf4jnsgd1na2vs0mg"},{"bike_id":"a738ce65-54cb-42f5-89c7-8b7ef5a41d3f","system_id":"levelo_inurba_marseille","lat":43.289184,"lon":5.366408,"is_reserved":false,"is_disabled":false,"rental_uris":{"android":"levelo://app?vid=a738ce65-54cb-42f5-89c7-8b7ef5a41d3f","ios":"levelo://app?vid=a738ce65-54cb-42f5-89c7-8b7ef5a41d3f"},"vehicle_type_id":"4","last_reported":1714842364,"current_range_meters":400,"station_id":"ce4bhap2rcd13ifvqek0","pricing_plan_id":"cebpf4jnsgd1na2vs0mg"},{"bike_id":"1d0f9da8-48aa-45a6-a576-e79873ea0a78","system_id":"levelo_inurba_marseille","lat":43.29417,"lon":5.38619,"is_reserved":false,"is_disabled":false,"rental_uris":{"android":"levelo://app?vid=1d0f9da8-48aa-45a6-a576-e79873ea0a78","ios":"levelo://app?vid=1d0f9da8-48aa-45a6-a576-e79873ea0a78"},"vehicle_type_id":"4","last_reported":1714842364,"current_range_meters":2800,"station_id":"ce4bh2h2rcd13ifvqdh0","pricing_plan_id":"cebpf4jnsgd1na2vs0mg"},{"bike_id":"7dcf8cc5-a580-4d81-8f34-5145f28ef711","system_id":"levelo_inurba_marseille","lat":43.289184,"lon":5.366408,"is_reserved":false,"is_disabled":false,"rental_uris":{"android":"levelo://app?vid=7dcf8cc5-a580-4d81-8f34-5145f28ef711","ios":"levelo://app?vid=7dcf8cc5-a580-4d81-8f34-5145f28ef711"},"vehicle_type_id":"4","last_reported":1714842364,"current_range_meters":4000,"station_id":"ce4bhap2rcd13ifvqek0","pricing_plan_id":"cebpf4jnsgd1na2vs0mg"},{"bike_id":"b360a1eb-2974-4483-b32f-9f264170e21b","system_id":"levelo_inurba_marseille","lat":43.289184,"lon":5.366408,"is_reserved":false,"is_disabled":false,"rental_uris":{"android":"levelo://app?vid=b360a1eb-2974-4483-b32f-9f264170e21b","ios":"levelo://app?vid=b360a1eb-2974-4483-b32f-9f264170e21b"},"vehicle_type_id":"4","last_reported":1714842364,"current_range_meters":28800,"station_id":"ce4bhap2rcd13ifvqek0","pricing_plan_id":"cebpf4jnsgd1na2vs0mg"},{"bike_id":"52040020-0d17-40af-bb9e-8d45232b5658","system_id":"levelo_inurba_marseille","lat":43.290319,"lon":5.375732,"is_reserved":false,"is_disabled":false,"rental_uris":{"android":"levelo://app?vid=52040020-0d17-40af-bb9e-8d45232b5658","ios":"levelo://app?vid=52040020-0d17-40af-bb9e-8d45232b5658"},"vehicle_type_id":"4","last_reported":1714842364,"current_range_meters":27200,"station_id":"ce4bh692rcd13ifvqe90","pricing_plan_id":"cebpf4jnsgd1na2vs0mg"},{"bike_id":"774e0a49-f7fd-41f5-91b2-c5ae151caad1","system_id":"levelo_inurba_marseille","lat":43.2942,"lon":5.38631,"is_reserved":false,"is_disabled":false,"rental_uris":{"android":"levelo://app?vid=774e0a49-f7fd-41f5-91b2-c5ae151caad1","ios":"levelo://app?vid=774e0a49-f7fd-41f5-91b2-c5ae151caad1"},"vehicle_type_id":"4","last_reported":1714842364,"current_range_meters":0,"station_id":"ce4bh2h2rcd13ifvqdh0","pricing_plan_id":"cebpf4jnsgd1na2vs0mg"},{"bike_id":"0a7901fd-5139-42f2-b4d0-4c8eed3d07d4","system_id":"levelo_inurba_marseille","lat":43.29416,"lon":5.38624,"is_reserved":false,"is_disabled":false,"rental_uris":{"android":"levelo://app?vid=0a7901fd-5139-42f2-b4d0-4c8eed3d07d4","ios":"levelo://app?vid=0a7901fd-5139-42f2-b4d0-4c8eed3d07d4"},"vehicle_type_id":"4","last_reported":1714842364,"current_range_meters":3600,"station_id":"ce4bh2h2rcd13ifvqdh0","pricing_plan_id":"cebpf4jnsgd1na2vs0mg"},{"bike_id":"b34a3b79-d5bf-41a7-974a-6f4e39836b72","system_id":"levelo_inurba_marseille","lat":43.289468,"lon":5.363719,"is_reserved":false,"is_disabled":false,"rental_uris":{"android":"levelo://app?vid=b34a3b79-d5bf-41a7-974a-6f4e39836b72","ios":"levelo://app?vid=b34a3b79-d5bf-41a7-974a-6f4e39836b72"},"vehicle_type_id":"4","last_reported":1714842364,"current_range_meters":18800,"station_id":"ce4bhc92rcd13ifvqetg","pricing_plan_id":"cebpf4jnsgd1na2vs0mg"},{"bike_id":"b3c83193-c031-4b42-875f-b58c205c095a","system_id":"levelo_inurba_marseille","lat":43.289184,"lon":5.366408,"is_reserved":false,"is_disabled":false,"rental_uris":{"android":"levelo://app?vid=b3c83193-c031-4b42-875f-b58c205c095a","ios":"levelo://app?vid=b3c83193-c031-4b42-875f-b58c205c095a"},"vehicle_type_id":"4","last_reported":1714842364,"current_range_meters":16800,"station_id":"ce4bhap2rcd13ifvqek0","pricing_plan_id":"cebpf4jnsgd1na2vs0mg"},{"bike_id":"941ac47f-c90d-4cbe-bbb6-0c1188260175","system_id":"levelo_inurba_marseille","lat":43.28939,"lon":5.36651,"is_reserved":false,"is_disabled":false,"rental_uris":{"android":"levelo://app?vid=941ac47f-c90d-4cbe-bbb6-0c1188260175","ios":"levelo://app?vid=941ac47f-c90d-4cbe-bbb6-0c1188260175"},"vehicle_type_id":"4","last_reported":1714842364,"current_range_meters":11600,"station_id":"ce4bhap2rcd13ifvqek0","pricing_plan_id":"cebpf4jnsgd1na2vs0mg"},{"bike_id":"328515ac-739c-4b03-9960-314b91ea779a","system_id":"levelo_inurba_marseille","lat":43.28936,"lon":5.36647,"is_reserved":false,"is_disabled":false,"rental_uris":{"android":"levelo://app?vid=328515ac-739c-4b03-9960-314b91ea779a","ios":"levelo://app?vid=328515ac-739c-4b03-9960-314b91ea779a"},"vehicle_type_id":"4","last_reported":1714842364,"current_range_meters":0,"station_id":"ce4bhap2rcd13ifvqek0","pricing_plan_id":"cebpf4jnsgd1na2vs0mg"},{"bike_id":"5a01c249-506f-45c7-8b32-548bdc940bd2","system_id":"levelo_inurba_marseille","lat":43.28936,"lon":5.36643,"is_reserved":false,"is_disabled":false,"rental_uris":{"android":"levelo://app?vid=5a01c249-506f-45c7-8b32-548bdc940bd2","ios":"levelo://app?vid=5a01c249-506f-45c7-8b32-548bdc940bd2"},"vehicle_type_id":"4","last_reported":1714842364,"current_range_meters":4800,"station_id":"ce4bhap2rcd13ifvqek0","pricing_plan_id":"cebpf4jnsgd1na2vs0mg"},{"bike_id":"e0cb9030-c69b-46a4-9f23-a4c04ce1ea19","system_id":"levelo_inurba_marseille","lat":43.289348,"lon":5.366373,"is_reserved":false,"is_disabled":false,"rental_uris":{"android":"levelo://app?vid=e0cb9030-c69b-46a4-9f23-a4c04ce1ea19","ios":"levelo://app?vid=e0cb9030-c69b-46a4-9f23-a4c04ce1ea19"},